{"keyword":"高井戸","data":[{"name":"初代川柳墓","province":"","city":"","address":"蔵前4丁目36番7号(竜宝寺内)","lat":35.70591527,"lon":139.7887445},{"name":"勝川春章墓","province":"","city":"","address":"蔵前4丁目16番16号(西福寺内)","lat":35.70353551,"lon":139.7888147},{"name":"寛永寺","province":"","city":"","address":"上野桜木1丁目14番","lat":35.72179353,"lon":139.7745046},{"name":"浅草文庫跡碑","province":"","city":"","address":"蔵前1丁目4番3号(榊神社内)","lat":35.70008591,"lon":139.789365},{"name":"鷲神社","province":"","city":"","address":"千束3丁目18番7号","lat":35.7224137,"lon":139.792013},{"name":"待乳山聖天","province":"","city":"","address":"浅草7丁目4番1号","lat":35.7173148,"lon":139.8030326},{"name":"江戸六地蔵","province":"","city":"","address":"東浅草2丁目12番13号(東禅寺内)","lat":35.72407391,"lon":139.8002925},{"name":"安藤東野墓","province":"","city":"","address":"橋場1丁目16番2号(福寿院内)","lat":35.72406483,"lon":139.806683},{"name":"妙亀塚","province":"","city":"","address":"橋場1丁目28番12号(妙亀塚公園内)","lat":35.72535454,"lon":139.8055229},{"name":"橋場のお化け地蔵","province":"","city":"","address":"橋場2丁目5番3号(松吟寺内)","lat":35.72632449,"lon":139.805803},{"name":"鳥越神社","province":"","city":"","address":"鳥越2丁目4番1号","lat":35.70198564,"lon":139.785695},{"name":"浅間神社","province":"","city":"","address":"浅草5-3-2","lat":35.71919427,"lon":139.7983128},{"name":"岡倉天心記念公園","province":"","city":"","address":"谷中5-7","lat":35.72637281,"lon":139.766555},{"name":"山岡鉄舟墓","province":"","city":"","address":"谷中5-4-7(全生庵内)","lat":35.72413302,"lon":139.766875},{"name":"三遊亭円朝墓","province":"","city":"","address":"谷中5-4-7(全生庵内)","lat":35.72413302,"lon":139.766875},{"name":"大久保主水墓","province":"","city":"","address":"谷中4-2-5(瑞輪寺内)","lat":35.72314316,"lon":139.767865},{"name":"鈴木春信碑","province":"","city":"","address":"谷中3-1-2(大円寺内)","lat":35.72464291,"lon":139.7657051},{"name":"蒲生君平墓","province":"","city":"","address":"谷中1-4-13(臨江寺内)","lat":35.72006336,"lon":139.7664151},{"name":"太宰春台墓","province":"","city":"","address":"谷中1-2-14(天眼寺内)","lat":35.71872351,"lon":139.7670951},{"name":"子規庵","province":"","city":"","address":"根岸2-5-11","lat":35.72448339,"lon":139.7763844},{"name":"葛飾北斎墓","province":"","city":"","address":"元浅草4-6-9(誓教寺内)","lat":35.70972485,"lon":139.7855144},{"name":"中村不折旧宅（書道博物館）","province":"","city":"","address":"根岸2-10-4","lat":35.72464337,"lon":139.7762944},{"name":"浄名院八万四千体地蔵","province":"","city":"","address":"上野桜木2-6-4(浄名院内)","lat":35.72238346,"lon":139.7734047},{"name":"入谷鬼子母神","province":"","city":"","address":"下谷1-12-16(真源寺内)","lat":35.71975389,"lon":139.782834},{"name":"小野照崎神社","province":"","city":"","address":"下谷2-13-14","lat":35.72200377,"lon":139.7836639},{"name":"飛不動","province":"","city":"","address":"竜泉3-11-11(正宝院内)","lat":35.72423348,"lon":139.7919428},{"name":"浅草寺","province":"","city":"","address":"浅草2-3-1","lat":35.71467453,"lon":139.7968231},{"name":"浅草神社","province":"","city":"","address":"浅草2-3-1","lat":35.71505453,"lon":139.797523},{"name":"伝法院","province":"","city":"","address":"浅草2-3-1(浅草寺境内)","lat":35.71329464,"lon":139.7953633},{"name":"玉川兄弟の墓","province":"","city":"","address":"松が谷2-3-3(聖徳寺内)","lat":35.71278457,"lon":139.7866941},{"name":"旧寛永寺五重塔","province":"","city":"","address":"上野公園(動物園内)","lat":35.71570398,"lon":139.7717649},{"name":"上野東照宮","province":"","city":"","address":"上野公園","lat":35.71531397,"lon":139.770695},{"name":"表慶館","province":"","city":"","address":"上野公園(博物館内)","lat":35.7187038,"lon":139.7752946},{"name":"清水観音堂","province":"","city":"","address":"上野公園","lat":35.71265429,"lon":139.7735549},{"name":"旧東京音楽学校奏楽堂","province":"","city":"","address":"上野公園","lat":35.71796381,"lon":139.7732448},{"name":"徳川慶喜墓","province":"","city":"","address":"谷中7(谷中墓地内)","lat":35.72340333,"lon":139.7719247},{"name":"西郷隆盛像","province":"","city":"","address":"上野公園","lat":35.71162439,"lon":139.7740049},{"name":"谷中天王寺五重塔跡","province":"","city":"","address":"谷中7(谷中墓地内)","lat":35.72519314,"lon":139.7708948},{"name":"不忍弁天堂","province":"","city":"","address":"上野公園","lat":35.71207427,"lon":139.7712751},{"name":"上野の大仏","province":"","city":"","address":"上野公園","lat":35.71444411,"lon":139.7727649},{"name":"北村季吟墓","province":"","city":"","address":"池之端2-4-22(正慶寺内)","lat":35.71413388,"lon":139.7660253},{"name":"下谷神社","province":"","city":"","address":"東上野3-29-8","lat":35.71074465,"lon":139.7812946},{"name":"雷門","province":"","city":"","address":"浅草1(浅草寺境内)","lat":35.71120485,"lon":139.7963834},{"name":"曹源寺(かっぱ寺)","province":"","city":"","address":"松が谷3-7-2","lat":35.71533434,"lon":139.786504},{"name":"東本願寺","province":"","city":"","address":"西浅草1-5-5","lat":35.7117147,"lon":139.7895539},{"name":"新島村博物館","province":"東京都","city":"新島村","address":"新島村本村2-36-3","lat":34.378151,"lon":139.254898},{"name":"新島いきいき広場","province":"東京都","city":"新島村","address":"新島村字向山459-1","lat":34.377769,"lon":139.253525},{"name":"利島村郷土資料館","province":"","city":"","address":"利島村248","lat":34.529991,"lon":139.278015},{"name":"檜原村立図書館","province":"東京都","city":"西多摩郡檜原村","address":"檜原村621-1","lat":35.72683,"lon":139.162811},{"name":"郷土資料館","province":"東京都","city":"西多摩郡檜原村","address":"檜原村3221","lat":35.72683,"lon":139.162811},{"name":"陸上自衛隊三宿駐屯地","province":"東京都","city":"世田谷区","address":"世田谷区池尻1-2-24","lat":35.643947,"lon":139.683755},{"name":"陸上自衛隊十条駐屯地","province":"東京都","city":"北区","address":"北区十条台1-5-70","lat":35.757358,"lon":139.726442},{"name":"陸上自衛隊練馬駐屯地","province":"東京都","city":"練馬区","address":"練馬区北町4-1-1","lat":35.76469,"lon":139.6575},{"name":"陸上自衛隊朝霞駐屯地","province":"東京都","city":"練馬区","address":"練馬区大泉学園町","lat":35.781658,"lon":139.595161},{"name":"陸上自衛隊用賀駐屯地","province":"東京都","city":"世田谷区","address":"世田谷区上用賀1-20-1","lat":35.633422,"lon":139.637491},{"name":"陸上自衛隊立川駐屯地","province":"東京都","city":"立川市","address":"立川市緑町5","lat":35.712357,"lon":139.402135},{"name":"陸上自衛隊東立川駐屯地","province":"東京都","city":"立川市","address":"立川市栄町1-2-10","lat":35.7052,"lon":139.4266},{"name":"陸上自衛隊市ヶ谷駐屯地","province":"東京都","city":"新宿区","address":"新宿区市谷本村町5-1","lat":35.693837,"lon":139.727038},{"name":"陸上自衛隊小平駐屯地","province":"東京都","city":"小平市","address":"小平市喜平町2-3-1","lat":35.72053,"lon":139.4836},{"name":"航空自衛隊府中基地","province":"東京都","city":"府中市","address":"府中市浅間町1-5-5","lat":35.67353,"lon":139.4953},{"name":"航空自衛隊横田基地","province":"東京都","city":"福生市","address":"福生市大字福生2552","lat":35.74337,"lon":139.3305},{"name":"初代川柳墓","province":"","city":"","address":"蔵前4丁目36番7号(竜宝寺内)","lat":35.70591527,"lon":139.7887445},{"name":"勝川春章墓","province":"","city":"","address":"蔵前4丁目16番16号(西福寺内)","lat":35.70353551,"lon":139.7888147},{"name":"寛永寺","province":"","city":"","address":"上野桜木1丁目14番","lat":35.72179353,"lon":139.7745046},{"name":"浅草文庫跡碑","province":"","city":"","address":"蔵前1丁目4番3号(榊神社内)","lat":35.70008591,"lon":139.789365},{"name":"鷲神社","province":"","city":"","address":"千束3丁目18番7号","lat":35.7224137,"lon":139.792013},{"name":"待乳山聖天","province":"","city":"","address":"浅草7丁目4番1号","lat":35.7173148,"lon":139.8030326},{"name":"江戸六地蔵","province":"","city":"","address":"東浅草2丁目12番13号(東禅寺内)","lat":35.72407391,"lon":139.8002925},{"name":"安藤東野墓","province":"","city":"","address":"橋場1丁目16番2号(福寿院内)","lat":35.72406483,"lon":139.806683},{"name":"妙亀塚","province":"","city":"","address":"橋場1丁目28番12号(妙亀塚公園内)","lat":35.72535454,"lon":139.8055229},{"name":"橋場のお化け地蔵","province":"","city":"","address":"橋場2丁目5番3号(松吟寺内)","lat":35.72632449,"lon":139.805803},{"name":"鳥越神社","province":"","city":"","address":"鳥越2丁目4番1号","lat":35.70198564,"lon":139.785695},{"name":"浅間神社","province":"","city":"","address":"浅草5-3-2","lat":35.71919427,"lon":139.7983128},{"name":"岡倉天心記念公園","province":"","city":"","address":"谷中5-7","lat":35.72637281,"lon":139.766555},{"name":"山岡鉄舟墓","province":"","city":"","address":"谷中5-4-7(全生庵内)","lat":35.72413302,"lon":139.766875},{"name":"三遊亭円朝墓","province":"","city":"","address":"谷中5-4-7(全生庵内)","lat":35.72413302,"lon":139.766875},{"name":"大久保主水墓","province":"","city":"","address":"谷中4-2-5(瑞輪寺内)","lat":35.72314316,"lon":139.767865},{"name":"鈴木春信碑","province":"","city":"","address":"谷中3-1-2(大円寺内)","lat":35.72464291,"lon":139.7657051},{"name":"蒲生君平墓","province":"","city":"","address":"谷中1-4-13(臨江寺内)","lat":35.72006336,"lon":139.7664151},{"name":"太宰春台墓","province":"","city":"","address":"谷中1-2-14(天眼寺内)","lat":35.71872351,"lon":139.7670951},{"name":"子規庵","province":"","city":"","address":"根岸2-5-11","lat":35.72448339,"lon":139.7763844},{"name":"葛飾北斎墓","province":"","city":"","address":"元浅草4-6-9(誓教寺内)","lat":35.70972485,"lon":139.7855144},{"name":"中村不折旧宅（書道博物館）","province":"","city":"","address":"根岸2-10-4","lat":35.72464337,"lon":139.7762944},{"name":"浄名院八万四千体地蔵","province":"","city":"","address":"上野桜木2-6-4(浄名院内)","lat":35.72238346,"lon":139.7734047},{"name":"入谷鬼子母神","province":"","city":"","address":"下谷1-12-16(真源寺内)","lat":35.71975389,"lon":139.782834},{"name":"小野照崎神社","province":"","city":"","address":"下谷2-13-14","lat":35.72200377,"lon":139.7836639},{"name":"飛不動","province":"","city":"","address":"竜泉3-11-11(正宝院内)","lat":35.72423348,"lon":139.7919428},{"name":"浅草寺","province":"","city":"","address":"浅草2-3-1","lat":35.71467453,"lon":139.7968231},{"name":"浅草神社","province":"","city":"","address":"浅草2-3-1","lat":35.71505453,"lon":139.797523},{"name":"伝法院","province":"","city":"","address":"浅草2-3-1(浅草寺境内)","lat":35.71329464,"lon":139.7953633},{"name":"玉川兄弟の墓","province":"","city":"","address":"松が谷2-3-3(聖徳寺内)","lat":35.71278457,"lon":139.7866941},{"name":"旧寛永寺五重塔","province":"","city":"","address":"上野公園(動物園内)","lat":35.71570398,"lon":139.7717649},{"name":"上野東照宮","province":"","city":"","address":"上野公園","lat":35.71531397,"lon":139.770695},{"name":"表慶館","province":"","city":"","address":"上野公園(博物館内)","lat":35.7187038,"lon":139.7752946},{"name":"清水観音堂","province":"","city":"","address":"上野公園","lat":35.71265429,"lon":139.7735549},{"name":"旧東京音楽学校奏楽堂","province":"","city":"","address":"上野公園","lat":35.71796381,"lon":139.7732448},{"name":"徳川慶喜墓","province":"","city":"","address":"谷中7(谷中墓地内)","lat":35.72340333,"lon":139.7719247},{"name":"西郷隆盛像","province":"","city":"","address":"上野公園","lat":35.71162439,"lon":139.7740049},{"name":"谷中天王寺五重塔跡","province":"","city":"","address":"谷中7(谷中墓地内)","lat":35.72519314,"lon":139.7708948},{"name":"不忍弁天堂","province":"","city":"","address":"上野公園","lat":35.71207427,"lon":139.7712751},{"name":"上野の大仏","province":"","city":"","address":"上野公園","lat":35.71444411,"lon":139.7727649},{"name":"北村季吟墓","province":"","city":"","address":"池之端2-4-22(正慶寺内)","lat":35.71413388,"lon":139.7660253},{"name":"下谷神社","province":"","city":"","address":"東上野3-29-8","lat":35.71074465,"lon":139.7812946},{"name":"雷門","province":"","city":"","address":"浅草1(浅草寺境内)","lat":35.71120485,"lon":139.7963834},{"name":"曹源寺(かっぱ寺)","province":"","city":"","address":"松が谷3-7-2","lat":35.71533434,"lon":139.786504},{"name":"東本願寺","province":"","city":"","address":"西浅草1-5-5","lat":35.7117147,"lon":139.7895539},{"name":"新島村博物館","province":"東京都","city":"新島村","address":"新島村本村2-36-3","lat":34.378151,"lon":139.254898},{"name":"新島いきいき広場","province":"東京都","city":"新島村","address":"新島村字向山459-1","lat":34.377769,"lon":139.253525},{"name":"利島村郷土資料館","province":"","city":"","address":"利島村248","lat":34.529991,"lon":139.278015},{"name":"檜原村立図書館","province":"東京都","city":"西多摩郡檜原村","address":"檜原村621-1","lat":35.72683,"lon":139.162811},{"name":"郷土資料館","province":"東京都","city":"西多摩郡檜原村","address":"檜原村3221","lat":35.72683,"lon":139.162811},{"name":"陸上自衛隊三宿駐屯地","province":"東京都","city":"世田谷区","address":"世田谷区池尻1-2-24","lat":35.643947,"lon":139.683755},{"name":"陸上自衛隊十条駐屯地","province":"東京都","city":"北区","address":"北区十条台1-5-70","lat":35.757358,"lon":139.726442},{"name":"陸上自衛隊練馬駐屯地","province":"東京都","city":"練馬区","address":"練馬区北町4-1-1","lat":35.76469,"lon":139.6575},{"name":"陸上自衛隊朝霞駐屯地","province":"東京都","city":"練馬区","address":"練馬区大泉学園町","lat":35.781658,"lon":139.595161},{"name":"陸上自衛隊用賀駐屯地","province":"東京都","city":"世田谷区","address":"世田谷区上用賀1-20-1","lat":35.633422,"lon":139.637491},{"name":"陸上自衛隊立川駐屯地","province":"東京都","city":"立川市","address":"立川市緑町5","lat":35.712357,"lon":139.402135},{"name":"陸上自衛隊東立川駐屯地","province":"東京都","city":"立川市","address":"立川市栄町1-2-10","lat":35.7052,"lon":139.4266},{"name":"陸上自衛隊市ヶ谷駐屯地","province":"東京都","city":"新宿区","address":"新宿区市谷本村町5-1","lat":35.693837,"lon":139.727038},{"name":"陸上自衛隊小平駐屯地","province":"東京都","city":"小平市","address":"小平市喜平町2-3-1","lat":35.72053,"lon":139.4836},{"name":"航空自衛隊府中基地","province":"東京都","city":"府中市","address":"府中市浅間町1-5-5","lat":35.67353,"lon":139.4953},{"name":"航空自衛隊横田基地","province":"東京都","city":"福生市","address":"福生市大字福生2552","lat":35.74337,"lon":139.3305},{"name":"初代川柳墓","province":"","city":"","address":"蔵前4丁目36番7号(竜宝寺内)","lat":35.70591527,"lon":139.7887445},{"name":"勝川春章墓","province":"","city":"","address":"蔵前4丁目16番16号(西福寺内)","lat":35.70353551,"lon":139.7888147},{"name":"寛永寺","province":"","city":"","address":"上野桜木1丁目14番","lat":35.72179353,"lon":139.7745046},{"name":"浅草文庫跡碑","province":"","city":"","address":"蔵前1丁目4番3号(榊神社内)","lat":35.70008591,"lon":139.789365},{"name":"鷲神社","province":"","city":"","address":"千束3丁目18番7号","lat":35.7224137,"lon":139.792013},{"name":"待乳山聖天","province":"","city":"","address":"浅草7丁目4番1号","lat":35.7173148,"lon":139.8030326},{"name":"江戸六地蔵","province":"","city":"","address":"東浅草2丁目12番13号(東禅寺内)","lat":35.72407391,"lon":139.8002925},{"name":"安藤東野墓","province":"","city":"","address":"橋場1丁目16番2号(福寿院内)","lat":35.72406483,"lon":139.806683},{"name":"妙亀塚","province":"","city":"","address":"橋場1丁目28番12号(妙亀塚公園内)","lat":35.72535454,"lon":139.8055229},{"name":"橋場のお化け地蔵","province":"","city":"","address":"橋場2丁目5番3号(松吟寺内)","lat":35.72632449,"lon":139.805803},{"name":"鳥越神社","province":"","city":"","address":"鳥越2丁目4番1号","lat":35.70198564,"lon":139.785695},{"name":"浅間神社","province":"","city":"","address":"浅草5-3-2","lat":35.71919427,"lon":139.7983128},{"name":"岡倉天心記念公園","province":"","city":"","address":"谷中5-7","lat":35.72637281,"lon":139.766555},{"name":"山岡鉄舟墓","province":"","city":"","address":"谷中5-4-7(全生庵内)","lat":35.72413302,"lon":139.766875},{"name":"三遊亭円朝墓","province":"","city":"","address":"谷中5-4-7(全生庵内)","lat":35.72413302,"lon":139.766875},{"name":"大久保主水墓","province":"","city":"","address":"谷中4-2-5(瑞輪寺内)","lat":35.72314316,"lon":139.767865},{"name":"鈴木春信碑","province":"","city":"","address":"谷中3-1-2(大円寺内)","lat":35.72464291,"lon":139.7657051},{"name":"蒲生君平墓","province":"","city":"","address":"谷中1-4-13(臨江寺内)","lat":35.72006336,"lon":139.7664151},{"name":"太宰春台墓","province":"","city":"","address":"谷中1-2-14(天眼寺内)","lat":35.71872351,"lon":139.7670951},{"name":"子規庵","province":"","city":"","address":"根岸2-5-11","lat":35.72448339,"lon":139.7763844},{"name":"葛飾北斎墓","province":"","city":"","address":"元浅草4-6-9(誓教寺内)","lat":35.70972485,"lon":139.7855144},{"name":"中村不折旧宅（書道博物館）","province":"","city":"","address":"根岸2-10-4","lat":35.72464337,"lon":139.7762944},{"name":"浄名院八万四千体地蔵","province":"","city":"","address":"上野桜木2-6-4(浄名院内)","lat":35.72238346,"lon":139.7734047},{"name":"入谷鬼子母神","province":"","city":"","address":"下谷1-12-16(真源寺内)","lat":35.71975389,"lon":139.782834},{"name":"小野照崎神社","province":"","city":"","address":"下谷2-13-14","lat":35.72200377,"lon":139.7836639},{"name":"飛不動","province":"","city":"","address":"竜泉3-11-11(正宝院内)","lat":35.72423348,"lon":139.7919428},{"name":"浅草寺","province":"","city":"","address":"浅草2-3-1","lat":35.71467453,"lon":139.7968231},{"name":"浅草神社","province":"","city":"","address":"浅草2-3-1","lat":35.71505453,"lon":139.797523},{"name":"伝法院","province":"","city":"","address":"浅草2-3-1(浅草寺境内)","lat":35.71329464,"lon":139.7953633},{"name":"玉川兄弟の墓","province":"","city":"","address":"松が谷2-3-3(聖徳寺内)","lat":35.71278457,"lon":139.7866941},{"name":"旧寛永寺五重塔","province":"","city":"","address":"上野公園(動物園内)","lat":35.71570398,"lon":139.7717649},{"name":"上野東照宮","province":"","city":"","address":"上野公園","lat":35.71531397,"lon":139.770695},{"name":"表慶館","province":"","city":"","address":"上野公園(博物館内)","lat":35.7187038,"lon":139.7752946},{"name":"清水観音堂","province":"","city":"","address":"上野公園","lat":35.71265429,"lon":139.7735549},{"name":"旧東京音楽学校奏楽堂","province":"","city":"","address":"上野公園","lat":35.71796381,"lon":139.7732448},{"name":"徳川慶喜墓","province":"","city":"","address":"谷中7(谷中墓地内)","lat":35.72340333,"lon":139.7719247},{"name":"西郷隆盛像","province":"","city":"","address":"上野公園","lat":35.71162439,"lon":139.7740049},{"name":"谷中天王寺五重塔跡","province":"","city":"","address":"谷中7(谷中墓地内)","lat":35.72519314,"lon":139.7708948},{"name":"不忍弁天堂","province":"","city":"","address":"上野公園","lat":35.71207427,"lon":139.7712751},{"name":"上野の大仏","province":"","city":"","address":"上野公園","lat":35.71444411,"lon":139.7727649},{"name":"北村季吟墓","province":"","city":"","address":"池之端2-4-22(正慶寺内)","lat":35.71413388,"lon":139.7660253},{"name":"下谷神社","province":"","city":"","address":"東上野3-29-8","lat":35.71074465,"lon":139.7812946},{"name":"雷門","province":"","city":"","address":"浅草1(浅草寺境内)","lat":35.71120485,"lon":139.7963834},{"name":"曹源寺(かっぱ寺)","province":"","city":"","address":"松が谷3-7-2","lat":35.71533434,"lon":139.786504},{"name":"東本願寺","province":"","city":"","address":"西浅草1-5-5","lat":35.7117147,"lon":139.7895539},{"name":"利島村郷土資料館","province":"","city":"","address":"利島村248","lat":34.529991,"lon":139.278015},{"name":"陸上自衛隊三宿駐屯地","province":"東京都","city":"世田谷区","address":"世田谷区池尻1-2-24","lat":35.643947,"lon":139.683755},{"name":"陸上自衛隊十条駐屯地","province":"東京都","city":"北区","address":"北区十条台1-5-70","lat":35.757358,"lon":139.726442},{"name":"陸上自衛隊練馬駐屯地","province":"東京都","city":"練馬区","address":"練馬区北町4-1-1","lat":35.76469,"lon":139.6575},{"name":"陸上自衛隊朝霞駐屯地","province":"東京都","city":"練馬区","address":"練馬区大泉学園町","lat":35.781658,"lon":139.595161},{"name":"陸上自衛隊用賀駐屯地","province":"東京都","city":"世田谷区","address":"世田谷区上用賀1-20-1","lat":35.633422,"lon":139.637491},{"name":"陸上自衛隊立川駐屯地","province":"東京都","city":"立川市","address":"立川市緑町5","lat":35.712357,"lon":139.402135},{"name":"陸上自衛隊東立川駐屯地","province":"東京都","city":"立川市","address":"立川市栄町1-2-10","lat":35.7052,"lon":139.4266},{"name":"陸上自衛隊市ヶ谷駐屯地","province":"東京都","city":"新宿区","address":"新宿区市谷本村町5-1","lat":35.693837,"lon":139.727038},{"name":"陸上自衛隊小平駐屯地","province":"東京都","city":"小平市","address":"小平市喜平町2-3-1","lat":35.72053,"lon":139.4836},{"name":"航空自衛隊府中基地","province":"東京都","city":"府中市","address":"府中市浅間町1-5-5","lat":35.67353,"lon":139.4953},{"name":"航空自衛隊横田基地","province":"東京都","city":"福生市","address":"福生市大字福生2552","lat":35.74337,"lon":139.3305},{"name":"初代川柳墓","province":"","city":"","address":"蔵前4丁目36番7号(竜宝寺内)","lat":35.70591527,"lon":139.7887445},{"name":"勝川春章墓","province":"","city":"","address":"蔵前4丁目16番16号(西福寺内)","lat":35.70353551,"lon":139.7888147},{"name":"寛永寺","province":"","city":"","address":"上野桜木1丁目14番","lat":35.72179353,"lon":139.7745046},{"name":"浅草文庫跡碑","province":"","city":"","address":"蔵前1丁目4番3号(榊神社内)","lat":35.70008591,"lon":139.789365},{"name":"鷲神社","province":"","city":"","address":"千束3丁目18番7号","lat":35.7224137,"lon":139.792013},{"name":"待乳山聖天","province":"","city":"","address":"浅草7丁目4番1号","lat":35.7173148,"lon":139.8030326},{"name":"江戸六地蔵","province":"","city":"","address":"東浅草2丁目12番13号(東禅寺内)","lat":35.72407391,"lon":139.8002925},{"name":"安藤東野墓","province":"","city":"","address":"橋場1丁目16番2号(福寿院内)","lat":35.72406483,"lon":139.806683},{"name":"妙亀塚","province":"","city":"","address":"橋場1丁目28番12号(妙亀塚公園内)","lat":35.72535454,"lon":139.8055229},{"name":"橋場のお化け地蔵","province":"","city":"","address":"橋場2丁目5番3号(松吟寺内)","lat":35.72632449,"lon":139.805803},{"name":"鳥越神社","province":"","city":"","address":"鳥越2丁目4番1号","lat":35.70198564,"lon":139.785695},{"name":"浅間神社","province":"","city":"","address":"浅草5-3-2","lat":35.71919427,"lon":139.7983128},{"name":"岡倉天心記念公園","province":"","city":"","address":"谷中5-7","lat":35.72637281,"lon":139.766555},{"name":"山岡鉄舟墓","province":"","city":"","address":"谷中5-4-7(全生庵内)","lat":35.72413302,"lon":139.766875},{"name":"三遊亭円朝墓","province":"","city":"","address":"谷中5-4-7(全生庵内)","lat":35.72413302,"lon":139.766875},{"name":"大久保主水墓","province":"","city":"","address":"谷中4-2-5(瑞輪寺内)","lat":35.72314316,"lon":139.767865},{"name":"鈴木春信碑","province":"","city":"","address":"谷中3-1-2(大円寺内)","lat":35.72464291,"lon":139.7657051},{"name":"蒲生君平墓","province":"","city":"","address":"谷中1-4-13(臨江寺内)","lat":35.72006336,"lon":139.7664151},{"name":"太宰春台墓","province":"","city":"","address":"谷中1-2-14(天眼寺内)","lat":35.71872351,"lon":139.7670951},{"name":"子規庵","province":"","city":"","address":"根岸2-5-11","lat":35.72448339,"lon":139.7763844},{"name":"葛飾北斎墓","province":"","city":"","address":"元浅草4-6-9(誓教寺内)","lat":35.70972485,"lon":139.7855144},{"name":"中村不折旧宅（書道博物館）","province":"","city":"","address":"根岸2-10-4","lat":35.72464337,"lon":139.7762944},{"name":"浄名院八万四千体地蔵","province":"","city":"","address":"上野桜木2-6-4(浄名院内)","lat":35.72238346,"lon":139.7734047},{"name":"入谷鬼子母神","province":"","city":"","address":"下谷1-12-16(真源寺内)","lat":35.71975389,"lon":139.782834},{"name":"小野照崎神社","province":"","city":"","address":"下谷2-13-14","lat":35.72200377,"lon":139.7836639},{"name":"飛不動","province":"","city":"","address":"竜泉3-11-11(正宝院内)","lat":35.72423348,"lon":139.7919428},{"name":"浅草寺","province":"","city":"","address":"浅草2-3-1","lat":35.71467453,"lon":139.7968231},{"name":"浅草神社","province":"","city":"","address":"浅草2-3-1","lat":35.71505453,"lon":139.797523},{"name":"伝法院","province":"","city":"","address":"浅草2-3-1(浅草寺境内)","lat":35.71329464,"lon":139.7953633},{"name":"玉川兄弟の墓","province":"","city":"","address":"松が谷2-3-3(聖徳寺内)","lat":35.71278457,"lon":139.7866941},{"name":"旧寛永寺五重塔","province":"","city":"","address":"上野公園(動物園内)","lat":35.71570398,"lon":139.7717649},{"name":"上野東照宮","province":"","city":"","address":"上野公園","lat":35.71531397,"lon":139.770695},{"name":"表慶館","province":"","city":"","address":"上野公園(博物館内)","lat":35.7187038,"lon":139.7752946},{"name":"清水観音堂","province":"","city":"","address":"上野公園","lat":35.71265429,"lon":139.7735549},{"name":"旧東京音楽学校奏楽堂","province":"","city":"","address":"上野公園","lat":35.71796381,"lon":139.7732448},{"name":"徳川慶喜墓","province":"","city":"","address":"谷中7(谷中墓地内)","lat":35.72340333,"lon":139.7719247},{"name":"西郷隆盛像","province":"","city":"","address":"上野公園","lat":35.71162439,"lon":139.7740049},{"name":"谷中天王寺五重塔跡","province":"","city":"","address":"谷中7(谷中墓地内)","lat":35.72519314,"lon":139.7708948},{"name":"不忍弁天堂","province":"","city":"","address":"上野公園","lat":35.71207427,"lon":139.7712751},{"name":"上野の大仏","province":"","city":"","address":"上野公園","lat":35.71444411,"lon":139.7727649},{"name":"北村季吟墓","province":"","city":"","address":"池之端2-4-22(正慶寺内)","lat":35.71413388,"lon":139.7660253},{"name":"下谷神社","province":"","city":"","address":"東上野3-29-8","lat":35.71074465,"lon":139.7812946},{"name":"雷門","province":"","city":"","address":"浅草1(浅草寺境内)","lat":35.71120485,"lon":139.7963834},{"name":"曹源寺(かっぱ寺)","province":"","city":"","address":"松が谷3-7-2","lat":35.71533434,"lon":139.786504},{"name":"東本願寺","province":"","city":"","address":"西浅草1-5-5","lat":35.7117147,"lon":139.7895539},{"name":"利島村郷土資料館","province":"","city":"","address":"利島村248","lat":34.529991,"lon":139.278015},{"name":"陸上自衛隊三宿駐屯地","province":"東京都","city":"世田谷区","address":"世田谷区池尻1-2-24","lat":35.643947,"lon":139.683755},{"name":"陸上自衛隊十条駐屯地","province":"東京都","city":"北区","address":"北区十条台1-5-70","lat":35.757358,"lon":139.726442},{"name":"陸上自衛隊練馬駐屯地","province":"東京都","city":"練馬区","address":"練馬区北町4-1-1","lat":35.76469,"lon":139.6575},{"name":"陸上自衛隊朝霞駐屯地","province":"東京都","city":"練馬区","address":"練馬区大泉学園町","lat":35.781658,"lon":139.595161},{"name":"陸上自衛隊用賀駐屯地","province":"東京都","city":"世田谷区","address":"世田谷区上用賀1-20-1","lat":35.633422,"lon":139.637491},{"name":"陸上自衛隊立川駐屯地","province":"東京都","city":"立川市","address":"立川市緑町5","lat":35.712357,"lon":139.402135},{"name":"陸上自衛隊東立川駐屯地","province":"東京都","city":"立川市","address":"立川市栄町1-2-10","lat":35.7052,"lon":139.4266},{"name":"陸上自衛隊市ヶ谷駐屯地","province":"東京都","city":"新宿区","address":"新宿区市谷本村町5-1","lat":35.693837,"lon":139.727038},{"name":"陸上自衛隊小平駐屯地","province":"東京都","city":"小平市","address":"小平市喜平町2-3-1","lat":35.72053,"lon":139.4836},{"name":"航空自衛隊府中基地","province":"東京都","city":"府中市","address":"府中市浅間町1-5-5","lat":35.67353,"lon":139.4953},{"name":"航空自衛隊横田基地","province":"東京都","city":"福生市","address":"福生市大字福生2552","lat":35.74337,"lon":139.3305},{"name":"初代川柳墓","province":"","city":"","address":"蔵前4丁目36番7号(竜宝寺内)","lat":35.70591527,"lon":139.7887445},{"name":"勝川春章墓","province":"","city":"","address":"蔵前4丁目16番16号(西福寺内)","lat":35.70353551,"lon":139.7888147},{"name":"寛永寺","province":"","city":"","address":"上野桜木1丁目14番","lat":35.72179353,"lon":139.7745046},{"name":"浅草文庫跡碑","province":"","city":"","address":"蔵前1丁目4番3号(榊神社内)","lat":35.70008591,"lon":139.789365},{"name":"鷲神社","province":"","city":"","address":"千束3丁目18番7号","lat":35.7224137,"lon":139.792013},{"name":"待乳山聖天","province":"","city":"","address":"浅草7丁目4番1号","lat":35.7173148,"lon":139.8030326},{"name":"江戸六地蔵","province":"","city":"","address":"東浅草2丁目12番13号(東禅寺内)","lat":35.72407391,"lon":139.8002925},{"name":"安藤東野墓","province":"","city":"","address":"橋場1丁目16番2号(福寿院内)","lat":35.72406483,"lon":139.806683},{"name":"妙亀塚","province":"","city":"","address":"橋場1丁目28番12号(妙亀塚公園内)","lat":35.72535454,"lon":139.8055229},{"name":"橋場のお化け地蔵","province":"","city":"","address":"橋場2丁目5番3号(松吟寺内)","lat":35.72632449,"lon":139.805803},{"name":"鳥越神社","province":"","city":"","address":"鳥越2丁目4番1号","lat":35.70198564,"lon":139.785695},{"name":"浅間神社","province":"","city":"","address":"浅草5-3-2","lat":35.71919427,"lon":139.7983128},{"name":"岡倉天心記念公園","province":"","city":"","address":"谷中5-7","lat":35.72637281,"lon":139.766555},{"name":"山岡鉄舟墓","province":"","city":"","address":"谷中5-4-7(全生庵内)","lat":35.72413302,"lon":139.766875},{"name":"三遊亭円朝墓","province":"","city":"","address":"谷中5-4-7(全生庵内)","lat":35.72413302,"lon":139.766875},{"name":"大久保主水墓","province":"","city":"","address":"谷中4-2-5(瑞輪寺内)","lat":35.72314316,"lon":139.767865},{"name":"鈴木春信碑","province":"","city":"","address":"谷中3-1-2(大円寺内)","lat":35.72464291,"lon":139.7657051},{"name":"蒲生君平墓","province":"","city":"","address":"谷中1-4-13(臨江寺内)","lat":35.72006336,"lon":139.7664151},{"name":"太宰春台墓","province":"","city":"","address":"谷中1-2-14(天眼寺内)","lat":35.71872351,"lon":139.7670951},{"name":"子規庵","province":"","city":"","address":"根岸2-5-11","lat":35.72448339,"lon":139.7763844},{"name":"葛飾北斎墓","province":"","city":"","address":"元浅草4-6-9(誓教寺内)","lat":35.70972485,"lon":139.7855144},{"name":"中村不折旧宅（書道博物館）","province":"","city":"","address":"根岸2-10-4","lat":35.72464337,"lon":139.7762944},{"name":"浄名院八万四千体地蔵","province":"","city":"","address":"上野桜木2-6-4(浄名院内)","lat":35.72238346,"lon":139.7734047},{"name":"入谷鬼子母神","province":"","city":"","address":"下谷1-12-16(真源寺内)","lat":35.71975389,"lon":139.782834},{"name":"小野照崎神社","province":"","city":"","address":"下谷2-13-14","lat":35.72200377,"lon":139.7836639},{"name":"飛不動","province":"","city":"","address":"竜泉3-11-11(正宝院内)","lat":35.72423348,"lon":139.7919428},{"name":"浅草寺","province":"","city":"","address":"浅草2-3-1","lat":35.71467453,"lon":139.7968231},{"name":"浅草神社","province":"","city":"","address":"浅草2-3-1","lat":35.71505453,"lon":139.797523},{"name":"伝法院","province":"","city":"","address":"浅草2-3-1(浅草寺境内)","lat":35.71329464,"lon":139.7953633},{"name":"玉川兄弟の墓","province":"","city":"","address":"松が谷2-3-3(聖徳寺内)","lat":35.71278457,"lon":139.7866941},{"name":"旧寛永寺五重塔","province":"","city":"","address":"上野公園(動物園内)","lat":35.71570398,"lon":139.7717649},{"name":"上野東照宮","province":"","city":"","address":"上野公園","lat":35.71531397,"lon":139.770695},{"name":"表慶館","province":"","city":"","address":"上野公園(博物館内)","lat":35.7187038,"lon":139.7752946},{"name":"清水観音堂","province":"","city":"","address":"上野公園","lat":35.71265429,"lon":139.7735549},{"name":"旧東京音楽学校奏楽堂","province":"","city":"","address":"上野公園","lat":35.71796381,"lon":139.7732448},{"name":"徳川慶喜墓","province":"","city":"","address":"谷中7(谷中墓地内)","lat":35.72340333,"lon":139.7719247},{"name":"西郷隆盛像","province":"","city":"","address":"上野公園","lat":35.71162439,"lon":139.7740049},{"name":"谷中天王寺五重塔跡","province":"","city":"","address":"谷中7(谷中墓地内)","lat":35.72519314,"lon":139.7708948},{"name":"不忍弁天堂","province":"","city":"","address":"上野公園","lat":35.71207427,"lon":139.7712751},{"name":"上野の大仏","province":"","city":"","address":"上野公園","lat":35.71444411,"lon":139.7727649},{"name":"北村季吟墓","province":"","city":"","address":"池之端2-4-22(正慶寺内)","lat":35.71413388,"lon":139.7660253},{"name":"下谷神社","province":"","city":"","address":"東上野3-29-8","lat":35.71074465,"lon":139.7812946},{"name":"雷門","province":"","city":"","address":"浅草1(浅草寺境内)","lat":35.71120485,"lon":139.7963834},{"name":"曹源寺(かっぱ寺)","province":"","city":"","address":"松が谷3-7-2","lat":35.71533434,"lon":139.786504},{"name":"東本願寺","province":"","city":"","address":"西浅草1-5-5","lat":35.7117147,"lon":139.7895539},{"name":"利島村郷土資料館","province":"","city":"","address":"利島村248","lat":34.529991,"lon":139.278015},{"name":"陸上自衛隊三宿駐屯地","province":"東京都","city":"世田谷区","address":"世田谷区池尻1-2-24","lat":35.643947,"lon":139.683755},{"name":"陸上自衛隊十条駐屯地","province":"東京都","city":"北区","address":"北区十条台1-5-70","lat":35.757358,"lon":139.726442},{"name":"陸上自衛隊練馬駐屯地","province":"東京都","city":"練馬区","address":"練馬区北町4-1-1","lat":35.76469,"lon":139.6575},{"name":"陸上自衛隊朝霞駐屯地","province":"東京都","city":"練馬区","address":"練馬区大泉学園町","lat":35.781658,"lon":139.595161},{"name":"陸上自衛隊用賀駐屯地","province":"東京都","city":"世田谷区","address":"世田谷区上用賀1-20-1","lat":35.633422,"lon":139.637491},{"name":"陸上自衛隊立川駐屯地","province":"東京都","city":"立川市","address":"立川市緑町5","lat":35.712357,"lon":139.402135},{"name":"陸上自衛隊東立川駐屯地","province":"東京都","city":"立川市","address":"立川市栄町1-2-10","lat":35.7052,"lon":139.4266},{"name":"陸上自衛隊市ヶ谷駐屯地","province":"東京都","city":"新宿区","address":"新宿区市谷本村町5-1","lat":35.693837,"lon":139.727038},{"name":"陸上自衛隊小平駐屯地","province":"東京都","city":"小平市","address":"小平市喜平町2-3-1","lat":35.72053,"lon":139.4836},{"name":"航空自衛隊府中基地","province":"東京都","city":"府中市","address":"府中市浅間町1-5-5","lat":35.67353,"lon":139.4953},{"name":"航空自衛隊横田基地","province":"東京都","city":"福生市","address":"福生市大字福生2552","lat":35.74337,"lon":139.3305},{"name":"初代川柳墓","province":"","city":"","address":"蔵前4丁目36番7号(竜宝寺内)","lat":35.70591527,"lon":139.7887445},{"name":"勝川春章墓","province":"","city":"","address":"蔵前4丁目16番16号(西福寺内)","lat":35.70353551,"lon":139.7888147},{"name":"寛永寺","province":"","city":"","address":"上野桜木1丁目14番","lat":35.72179353,"lon":139.7745046},{"name":"浅草文庫跡碑","province":"","city":"","address":"蔵前1丁目4番3号(榊神社内)","lat":35.70008591,"lon":139.789365},{"name":"鷲神社","province":"","city":"","address":"千束3丁目18番7号","lat":35.7224137,"lon":139.792013},{"name":"待乳山聖天","province":"","city":"","address":"浅草7丁目4番1号","lat":35.7173148,"lon":139.8030326},{"name":"江戸六地蔵","province":"","city":"","address":"東浅草2丁目12番13号(東禅寺内)","lat":35.72407391,"lon":139.8002925},{"name":"安藤東野墓","province":"","city":"","address":"橋場1丁目16番2号(福寿院内)","lat":35.72406483,"lon":139.806683},{"name":"妙亀塚","province":"","city":"","address":"橋場1丁目28番12号(妙亀塚公園内)","lat":35.72535454,"lon":139.8055229},{"name":"橋場のお化け地蔵","province":"","city":"","address":"橋場2丁目5番3号(松吟寺内)","lat":35.72632449,"lon":139.805803},{"name":"鳥越神社","province":"","city":"","address":"鳥越2丁目4番1号","lat":35.70198564,"lon":139.785695},{"name":"浅間神社","province":"","city":"","address":"浅草5-3-2","lat":35.71919427,"lon":139.7983128},{"name":"岡倉天心記念公園","province":"","city":"","address":"谷中5-7","lat":35.72637281,"lon":139.766555},{"name":"山岡鉄舟墓","province":"","city":"","address":"谷中5-4-7(全生庵内)","lat":35.72413302,"lon":139.766875},{"name":"三遊亭円朝墓","province":"","city":"","address":"谷中5-4-7(全生庵内)","lat":35.72413302,"lon":139.766875},{"name":"大久保主水墓","province":"","city":"","address":"谷中4-2-5(瑞輪寺内)","lat":35.72314316,"lon":139.767865},{"name":"鈴木春信碑","province":"","city":"","address":"谷中3-1-2(大円寺内)","lat":35.72464291,"lon":139.7657051},{"name":"蒲生君平墓","province":"","city":"","address":"谷中1-4-13(臨江寺内)","lat":35.72006336,"lon":139.7664151},{"name":"太宰春台墓","province":"","city":"","address":"谷中1-2-14(天眼寺内)","lat":35.71872351,"lon":139.7670951},{"name":"子規庵","province":"","city":"","address":"根岸2-5-11","lat":35.72448339,"lon":139.7763844},{"name":"葛飾北斎墓","province":"","city":"","address":"元浅草4-6-9(誓教寺内)","lat":35.70972485,"lon":139.7855144},{"name":"中村不折旧宅（書道博物館）","province":"","city":"","address":"根岸2-10-4","lat":35.72464337,"lon":139.7762944},{"name":"浄名院八万四千体地蔵","province":"","city":"","address":"上野桜木2-6-4(浄名院内)","lat":35.72238346,"lon":139.7734047},{"name":"入谷鬼子母神","province":"","city":"","address":"下谷1-12-16(真源寺内)","lat":35.71975389,"lon":139.782834},{"name":"小野照崎神社","province":"","city":"","address":"下谷2-13-14","lat":35.72200377,"lon":139.7836639},{"name":"飛不動","province":"","city":"","address":"竜泉3-11-11(正宝院内)","lat":35.72423348,"lon":139.7919428},{"name":"浅草寺","province":"","city":"","address":"浅草2-3-1","lat":35.71467453,"lon":139.7968231},{"name":"浅草神社","province":"","city":"","address":"浅草2-3-1","lat":35.71505453,"lon":139.797523},{"name":"伝法院","province":"","city":"","address":"浅草2-3-1(浅草寺境内)","lat":35.71329464,"lon":139.7953633},{"name":"玉川兄弟の墓","province":"","city":"","address":"松が谷2-3-3(聖徳寺内)","lat":35.71278457,"lon":139.7866941},{"name":"旧寛永寺五重塔","province":"","city":"","address":"上野公園(動物園内)","lat":35.71570398,"lon":139.7717649},{"name":"上野東照宮","province":"","city":"","address":"上野公園","lat":35.71531397,"lon":139.770695},{"name":"表慶館","province":"","city":"","address":"上野公園(博物館内)","lat":35.7187038,"lon":139.7752946},{"name":"清水観音堂","province":"","city":"","address":"上野公園","lat":35.71265429,"lon":139.7735549},{"name":"旧東京音楽学校奏楽堂","province":"","city":"","address":"上野公園","lat":35.71796381,"lon":139.7732448},{"name":"徳川慶喜墓","province":"","city":"","address":"谷中7(谷中墓地内)","lat":35.72340333,"lon":139.7719247},{"name":"西郷隆盛像","province":"","city":"","address":"上野公園","lat":35.71162439,"lon":139.7740049},{"name":"谷中天王寺五重塔跡","province":"","city":"","address":"谷中7(谷中墓地内)","lat":35.72519314,"lon":139.7708948},{"name":"不忍弁天堂","province":"","city":"","address":"上野公園","lat":35.71207427,"lon":139.7712751},{"name":"上野の大仏","province":"","city":"","address":"上野公園","lat":35.71444411,"lon":139.7727649},{"name":"北村季吟墓","province":"","city":"","address":"池之端2-4-22(正慶寺内)","lat":35.71413388,"lon":139.7660253},{"name":"下谷神社","province":"","city":"","address":"東上野3-29-8","lat":35.71074465,"lon":139.7812946},{"name":"雷門","province":"","city":"","address":"浅草1(浅草寺境内)","lat":35.71120485,"lon":139.7963834},{"name":"曹源寺(かっぱ寺)","province":"","city":"","address":"松が谷3-7-2","lat":35.71533434,"lon":139.786504},{"name":"東本願寺","province":"","city":"","address":"西浅草1-5-5","lat":35.7117147,"lon":139.7895539},{"name":"利島村郷土資料館","province":"","city":"","address":"利島村248","lat":34.529991,"lon":139.278015},{"name":"陸上自衛隊三宿駐屯地","province":"東京都","city":"世田谷区","address":"世田谷区池尻1-2-24","lat":35.643947,"lon":139.683755},{"name":"陸上自衛隊十条駐屯地","province":"東京都","city":"北区","address":"北区十条台1-5-70","lat":35.757358,"lon":139.726442},{"name":"陸上自衛隊練馬駐屯地","province":"東京都","city":"練馬区","address":"練馬区北町4-1-1","lat":35.76469,"lon":139.6575},{"name":"陸上自衛隊朝霞駐屯地","province":"東京都","city":"練馬区","address":"練馬区大泉学園町","lat":35.781658,"lon":139.595161},{"name":"陸上自衛隊用賀駐屯地","province":"東京都","city":"世田谷区","address":"世田谷区上用賀1-20-1","lat":35.633422,"lon":139.637491},{"name":"陸上自衛隊立川駐屯地","province":"東京都","city":"立川市","address":"立川市緑町5","lat":35.712357,"lon":139.402135},{"name":"陸上自衛隊東立川駐屯地","province":"東京都","city":"立川市","address":"立川市栄町1-2-10","lat":35.7052,"lon":139.4266},{"name":"陸上自衛隊市ヶ谷駐屯地","province":"東京都","city":"新宿区","address":"新宿区市谷本村町5-1","lat":35.693837,"lon":139.727038},{"name":"陸上自衛隊小平駐屯地","province":"東京都","city":"小平市","address":"小平市喜平町2-3-1","lat":35.72053,"lon":139.4836},{"name":"航空自衛隊府中基地","province":"東京都","city":"府中市","address":"府中市浅間町1-5-5","lat":35.67353,"lon":139.4953},{"name":"航空自衛隊横田基地","province":"東京都","city":"福生市","address":"福生市大字福生2552","lat":35.74337,"lon":139.3305},{"name":"初代川柳墓","province":"","city":"","address":"蔵前4丁目36番7号(竜宝寺内)","lat":35.70591527,"lon":139.7887445},{"name":"勝川春章墓","province":"","city":"","address":"蔵前4丁目16番16号(西福寺内)","lat":35.70353551,"lon":139.7888147},{"name":"寛永寺","province":"","city":"","address":"上野桜木1丁目14番","lat":35.72179353,"lon":139.7745046},{"name":"浅草文庫跡碑","province":"","city":"","address":"蔵前1丁目4番3号(榊神社内)","lat":35.70008591,"lon":139.789365},{"name":"鷲神社","province":"","city":"","address":"千束3丁目18番7号","lat":35.7224137,"lon":139.792013},{"name":"待乳山聖天","province":"","city":"","address":"浅草7丁目4番1号","lat":35.7173148,"lon":139.8030326},{"name":"江戸六地蔵","province":"","city":"","address":"東浅草2丁目12番13号(東禅寺内)","lat":35.72407391,"lon":139.8002925},{"name":"安藤東野墓","province":"","city":"","address":"橋場1丁目16番2号(福寿院内)","lat":35.72406483,"lon":139.806683},{"name":"妙亀塚","province":"","city":"","address":"橋場1丁目28番12号(妙亀塚公園内)","lat":35.72535454,"lon":139.8055229},{"name":"橋場のお化け地蔵","province":"","city":"","address":"橋場2丁目5番3号(松吟寺内)","lat":35.72632449,"lon":139.805803},{"name":"鳥越神社","province":"","city":"","address":"鳥越2丁目4番1号","lat":35.70198564,"lon":139.785695},{"name":"浅間神社","province":"","city":"","address":"浅草5-3-2","lat":35.71919427,"lon":139.7983128},{"name":"岡倉天心記念公園","province":"","city":"","address":"谷中5-7","lat":35.72637281,"lon":139.766555},{"name":"山岡鉄舟墓","province":"","city":"","address":"谷中5-4-7(全生庵内)","lat":35.72413302,"lon":139.766875},{"name":"三遊亭円朝墓","province":"","city":"","address":"谷中5-4-7(全生庵内)","lat":35.72413302,"lon":139.766875},{"name":"大久保主水墓","province":"","city":"","address":"谷中4-2-5(瑞輪寺内)","lat":35.72314316,"lon":139.767865},{"name":"鈴木春信碑","province":"","city":"","address":"谷中3-1-2(大円寺内)","lat":35.72464291,"lon":139.7657051},{"name":"蒲生君平墓","province":"","city":"","address":"谷中1-4-13(臨江寺内)","lat":35.72006336,"lon":139.7664151},{"name":"太宰春台墓","province":"","city":"","address":"谷中1-2-14(天眼寺内)","lat":35.71872351,"lon":139.7670951},{"name":"子規庵","province":"","city":"","address":"根岸2-5-11","lat":35.72448339,"lon":139.7763844},{"name":"葛飾北斎墓","province":"","city":"","address":"元浅草4-6-9(誓教寺内)","lat":35.70972485,"lon":139.7855144},{"name":"中村不折旧宅（書道博物館）","province":"","city":"","address":"根岸2-10-4","lat":35.72464337,"lon":139.7762944},{"name":"浄名院八万四千体地蔵","province":"","city":"","address":"上野桜木2-6-4(浄名院内)","lat":35.72238346,"lon":139.7734047},{"name":"入谷鬼子母神","province":"","city":"","address":"下谷1-12-16(真源寺内)","lat":35.71975389,"lon":139.782834},{"name":"小野照崎神社","province":"","city":"","address":"下谷2-13-14","lat":35.72200377,"lon":139.7836639},{"name":"飛不動","province":"","city":"","address":"竜泉3-11-11(正宝院内)","lat":35.72423348,"lon":139.7919428},{"name":"浅草寺","province":"","city":"","address":"浅草2-3-1","lat":35.71467453,"lon":139.7968231},{"name":"浅草神社","province":"","city":"","address":"浅草2-3-1","lat":35.71505453,"lon":139.797523},{"name":"伝法院","province":"","city":"","address":"浅草2-3-1(浅草寺境内)","lat":35.71329464,"lon":139.7953633},{"name":"玉川兄弟の墓","province":"","city":"","address":"松が谷2-3-3(聖徳寺内)","lat":35.71278457,"lon":139.7866941},{"name":"旧寛永寺五重塔","province":"","city":"","address":"上野公園(動物園内)","lat":35.71570398,"lon":139.7717649},{"name":"上野東照宮","province":"","city":"","address":"上野公園","lat":35.71531397,"lon":139.770695},{"name":"表慶館","province":"","city":"","address":"上野公園(博物館内)","lat":35.7187038,"lon":139.7752946},{"name":"清水観音堂","province":"","city":"","address":"上野公園","lat":35.71265429,"lon":139.7735549},{"name":"旧東京音楽学校奏楽堂","province":"","city":"","address":"上野公園","lat":35.71796381,"lon":139.7732448},{"name":"徳川慶喜墓","province":"","city":"","address":"谷中7(谷中墓地内)","lat":35.72340333,"lon":139.7719247},{"name":"西郷隆盛像","province":"","city":"","address":"上野公園","lat":35.71162439,"lon":139.7740049},{"name":"谷中天王寺五重塔跡","province":"","city":"","address":"谷中7(谷中墓地内)","lat":35.72519314,"lon":139.7708948},{"name":"不忍弁天堂","province":"","city":"","address":"上野公園","lat":35.71207427,"lon":139.7712751},{"name":"上野の大仏","province":"","city":"","address":"上野公園","lat":35.71444411,"lon":139.7727649},{"name":"北村季吟墓","province":"","city":"","address":"池之端2-4-22(正慶寺内)","lat":35.71413388,"lon":139.7660253},{"name":"下谷神社","province":"","city":"","address":"東上野3-29-8","lat":35.71074465,"lon":139.7812946},{"name":"雷門","province":"","city":"","address":"浅草1(浅草寺境内)","lat":35.71120485,"lon":139.7963834},{"name":"曹源寺(かっぱ寺)","province":"","city":"","address":"松が谷3-7-2","lat":35.71533434,"lon":139.786504},{"name":"東本願寺","province":"","city":"","address":"西浅草1-5-5","lat":35.7117147,"lon":139.7895539},{"name":"利島村郷土資料館","province":"","city":"","address":"利島村248","lat":34.529991,"lon":139.278015},{"name":"陸上自衛隊三宿駐屯地","province":"東京都","city":"世田谷区","address":"世田谷区池尻1-2-24","lat":35.643947,"lon":139.683755},{"name":"陸上自衛隊十条駐屯地","province":"東京都","city":"北区","address":"北区十条台1-5-70","lat":35.757358,"lon":139.726442},{"name":"陸上自衛隊練馬駐屯地","province":"東京都","city":"練馬区","address":"練馬区北町4-1-1","lat":35.76469,"lon":139.6575},{"name":"陸上自衛隊朝霞駐屯地","province":"東京都","city":"練馬区","address":"練馬区大泉学園町","lat":35.781658,"lon":139.595161},{"name":"陸上自衛隊用賀駐屯地","province":"東京都","city":"世田谷区","address":"世田谷区上用賀1-20-1","lat":35.633422,"lon":139.637491},{"name":"陸上自衛隊立川駐屯地","province":"東京都","city":"立川市","address":"立川市緑町5","lat":35.712357,"lon":139.402135},{"name":"陸上自衛隊東立川駐屯地","province":"東京都","city":"立川市","address":"立川市栄町1-2-10","lat":35.7052,"lon":139.4266},{"name":"陸上自衛隊市ヶ谷駐屯地","province":"東京都","city":"新宿区","address":"新宿区市谷本村町5-1","lat":35.693837,"lon":139.727038},{"name":"陸上自衛隊小平駐屯地","province":"東京都","city":"小平市","address":"小平市喜平町2-3-1","lat":35.72053,"lon":139.4836},{"name":"航空自衛隊府中基地","province":"東京都","city":"府中市","address":"府中市浅間町1-5-5","lat":35.67353,"lon":139.4953},{"name":"航空自衛隊横田基地","province":"東京都","city":"福生市","address":"福生市大字福生2552","lat":35.74337,"lon":139.3305},{"name":"初代川柳墓","province":"","city":"","address":"蔵前4丁目36番7号(竜宝寺内)","lat":35.70591527,"lon":139.7887445},{"name":"勝川春章墓","province":"","city":"","address":"蔵前4丁目16番16号(西福寺内)","lat":35.70353551,"lon":139.7888147},{"name":"寛永寺","province":"","city":"","address":"上野桜木1丁目14番","lat":35.72179353,"lon":139.7745046},{"name":"浅草文庫跡碑","province":"","city":"","address":"蔵前1丁目4番3号(榊神社内)","lat":35.70008591,"lon":139.789365},{"name":"鷲神社","province":"","city":"","address":"千束3丁目18番7号","lat":35.7224137,"lon":139.792013},{"name":"待乳山聖天","province":"","city":"","address":"浅草7丁目4番1号","lat":35.7173148,"lon":139.8030326},{"name":"江戸六地蔵","province":"","city":"","address":"東浅草2丁目12番13号(東禅寺内)","lat":35.72407391,"lon":139.8002925},{"name":"安藤東野墓","province":"","city":"","address":"橋場1丁目16番2号(福寿院内)","lat":35.72406483,"lon":139.806683},{"name":"妙亀塚","province":"","city":"","address":"橋場1丁目28番12号(妙亀塚公園内)","lat":35.72535454,"lon":139.8055229},{"name":"橋場のお化け地蔵","province":"","city":"","address":"橋場2丁目5番3号(松吟寺内)","lat":35.72632449,"lon":139.805803},{"name":"鳥越神社","province":"","city":"","address":"鳥越2丁目4番1号","lat":35.70198564,"lon":139.785695},{"name":"浅間神社","province":"","city":"","address":"浅草5-3-2","lat":35.71919427,"lon":139.7983128},{"name":"岡倉天心記念公園","province":"","city":"","address":"谷中5-7","lat":35.72637281,"lon":139.766555},{"name":"山岡鉄舟墓","province":"","city":"","address":"谷中5-4-7(全生庵内)","lat":35.72413302,"lon":139.766875},{"name":"三遊亭円朝墓","province":"","city":"","address":"谷中5-4-7(全生庵内)","lat":35.72413302,"lon":139.766875},{"name":"大久保主水墓","province":"","city":"","address":"谷中4-2-5(瑞輪寺内)","lat":35.72314316,"lon":139.767865},{"name":"鈴木春信碑","province":"","city":"","address":"谷中3-1-2(大円寺内)","lat":35.72464291,"lon":139.7657051},{"name":"蒲生君平墓","province":"","city":"","address":"谷中1-4-13(臨江寺内)","lat":35.72006336,"lon":139.7664151},{"name":"太宰春台墓","province":"","city":"","address":"谷中1-2-14(天眼寺内)","lat":35.71872351,"lon":139.7670951},{"name":"子規庵","province":"","city":"","address":"根岸2-5-11","lat":35.72448339,"lon":139.7763844},{"name":"葛飾北斎墓","province":"","city":"","address":"元浅草4-6-9(誓教寺内)","lat":35.70972485,"lon":139.7855144},{"name":"中村不折旧宅（書道博物館）","province":"","city":"","address":"根岸2-10-4","lat":35.72464337,"lon":139.7762944},{"name":"浄名院八万四千体地蔵","province":"","city":"","address":"上野桜木2-6-4(浄名院内)","lat":35.72238346,"lon":139.7734047},{"name":"入谷鬼子母神","province":"","city":"","address":"下谷1-12-16(真源寺内)","lat":35.71975389,"lon":139.782834},{"name":"小野照崎神社","province":"","city":"","address":"下谷2-13-14","lat":35.72200377,"lon":139.7836639},{"name":"飛不動","province":"","city":"","address":"竜泉3-11-11(正宝院内)","lat":35.72423348,"lon":139.7919428},{"name":"浅草寺","province":"","city":"","address":"浅草2-3-1","lat":35.71467453,"lon":139.7968231},{"name":"浅草神社","province":"","city":"","address":"浅草2-3-1","lat":35.71505453,"lon":139.797523},{"name":"伝法院","province":"","city":"","address":"浅草2-3-1(浅草寺境内)","lat":35.71329464,"lon":139.7953633},{"name":"玉川兄弟の墓","province":"","city":"","address":"松が谷2-3-3(聖徳寺内)","lat":35.71278457,"lon":139.7866941},{"name":"旧寛永寺五重塔","province":"","city":"","address":"上野公園(動物園内)","lat":35.71570398,"lon":139.7717649},{"name":"上野東照宮","province":"","city":"","address":"上野公園","lat":35.71531397,"lon":139.770695},{"name":"表慶館","province":"","city":"","address":"上野公園(博物館内)","lat":35.7187038,"lon":139.7752946},{"name":"清水観音堂","province":"","city":"","address":"上野公園","lat":35.71265429,"lon":139.7735549},{"name":"旧東京音楽学校奏楽堂","province":"","city":"","address":"上野公園","lat":35.71796381,"lon":139.7732448},{"name":"徳川慶喜墓","province":"","city":"","address":"谷中7(谷中墓地内)","lat":35.72340333,"lon":139.7719247},{"name":"西郷隆盛像","province":"","city":"","address":"上野公園","lat":35.71162439,"lon":139.7740049},{"name":"谷中天王寺五重塔跡","province":"","city":"","address":"谷中7(谷中墓地内)","lat":35.72519314,"lon":139.7708948},{"name":"不忍弁天堂","province":"","city":"","address":"上野公園","lat":35.71207427,"lon":139.7712751},{"name":"上野の大仏","province":"","city":"","address":"上野公園","lat":35.71444411,"lon":139.7727649},{"name":"北村季吟墓","province":"","city":"","address":"池之端2-4-22(正慶寺内)","lat":35.71413388,"lon":139.7660253},{"name":"下谷神社","province":"","city":"","address":"東上野3-29-8","lat":35.71074465,"lon":139.7812946},{"name":"雷門","province":"","city":"","address":"浅草1(浅草寺境内)","lat":35.71120485,"lon":139.7963834},{"name":"曹源寺(かっぱ寺)","province":"","city":"","address":"松が谷3-7-2","lat":35.71533434,"lon":139.786504},{"name":"東本願寺","province":"","city":"","address":"西浅草1-5-5","lat":35.7117147,"lon":139.7895539},{"name":"利島村郷土資料館","province":"","city":"","address":"利島村248","lat":34.529991,"lon":139.278015},{"name":"陸上自衛隊三宿駐屯地","province":"東京都","city":"世田谷区","address":"世田谷区池尻1-2-24","lat":35.643947,"lon":139.683755},{"name":"陸上自衛隊十条駐屯地","province":"東京都","city":"北区","address":"北区十条台1-5-70","lat":35.757358,"lon":139.726442},{"name":"陸上自衛隊練馬駐屯地","province":"東京都","city":"練馬区","address":"練馬区北町4-1-1","lat":35.76469,"lon":139.6575},{"name":"陸上自衛隊朝霞駐屯地","province":"東京都","city":"練馬区","address":"練馬区大泉学園町","lat":35.781658,"lon":139.595161},{"name":"陸上自衛隊用賀駐屯地","province":"東京都","city":"世田谷区","address":"世田谷区上用賀1-20-1","lat":35.633422,"lon":139.637491},{"name":"陸上自衛隊立川駐屯地","province":"東京都","city":"立川市","address":"立川市緑町5","lat":35.712357,"lon":139.402135},{"name":"陸上自衛隊東立川駐屯地","province":"東京都","city":"立川市","address":"立川市栄町1-2-10","lat":35.7052,"lon":139.4266},{"name":"陸上自衛隊市ヶ谷駐屯地","province":"東京都","city":"新宿区","address":"新宿区市谷本村町5-1","lat":35.693837,"lon":139.727038},{"name":"陸上自衛隊小平駐屯地","province":"東京都","city":"小平市","address":"小平市喜平町2-3-1","lat":35.72053,"lon":139.4836},{"name":"航空自衛隊府中基地","province":"東京都","city":"府中市","address":"府中市浅間町1-5-5","lat":35.67353,"lon":139.4953},{"name":"航空自衛隊横田基地","province":"東京都","city":"福生市","address":"福生市大字福生2552","lat":35.74337,"lon":139.3305},{"name":"初代川柳墓","province":"","city":"","address":"蔵前4丁目36番7号(竜宝寺内)","lat":35.70591527,"lon":139.7887445},{"name":"勝川春章墓","province":"","city":"","address":"蔵前4丁目16番16号(西福寺内)","lat":35.70353551,"lon":139.7888147},{"name":"寛永寺","province":"","city":"","address":"上野桜木1丁目14番","lat":35.72179353,"lon":139.7745046},{"name":"浅草文庫跡碑","province":"","city":"","address":"蔵前1丁目4番3号(榊神社内)","lat":35.70008591,"lon":139.789365},{"name":"鷲神社","province":"","city":"","address":"千束3丁目18番7号","lat":35.7224137,"lon":139.792013},{"name":"待乳山聖天","province":"","city":"","address":"浅草7丁目4番1号","lat":35.7173148,"lon":139.8030326},{"name":"江戸六地蔵","province":"","city":"","address":"東浅草2丁目12番13号(東禅寺内)","lat":35.72407391,"lon":139.8002925},{"name":"安藤東野墓","province":"","city":"","address":"橋場1丁目16番2号(福寿院内)","lat":35.72406483,"lon":139.806683},{"name":"妙亀塚","province":"","city":"","address":"橋場1丁目28番12号(妙亀塚公園内)","lat":35.72535454,"lon":139.8055229},{"name":"橋場のお化け地蔵","province":"","city":"","address":"橋場2丁目5番3号(松吟寺内)","lat":35.72632449,"lon":139.805803},{"name":"鳥越神社","province":"","city":"","address":"鳥越2丁目4番1号","lat":35.70198564,"lon":139.785695},{"name":"浅間神社","province":"","city":"","address":"浅草5-3-2","lat":35.71919427,"lon":139.7983128},{"name":"岡倉天心記念公園","province":"","city":"","address":"谷中5-7","lat":35.72637281,"lon":139.766555},{"name":"山岡鉄舟墓","province":"","city":"","address":"谷中5-4-7(全生庵内)","lat":35.72413302,"lon":139.766875},{"name":"三遊亭円朝墓","province":"","city":"","address":"谷中5-4-7(全生庵内)","lat":35.72413302,"lon":139.766875},{"name":"大久保主水墓","province":"","city":"","address":"谷中4-2-5(瑞輪寺内)","lat":35.72314316,"lon":139.767865},{"name":"鈴木春信碑","province":"","city":"","address":"谷中3-1-2(大円寺内)","lat":35.72464291,"lon":139.7657051},{"name":"蒲生君平墓","province":"","city":"","address":"谷中1-4-13(臨江寺内)","lat":35.72006336,"lon":139.7664151},{"name":"太宰春台墓","province":"","city":"","address":"谷中1-2-14(天眼寺内)","lat":35.71872351,"lon":139.7670951},{"name":"子規庵","province":"","city":"","address":"根岸2-5-11","lat":35.72448339,"lon":139.7763844},{"name":"葛飾北斎墓","province":"","city":"","address":"元浅草4-6-9(誓教寺内)","lat":35.70972485,"lon":139.7855144},{"name":"中村不折旧宅（書道博物館）","province":"","city":"","address":"根岸2-10-4","lat":35.72464337,"lon":139.7762944},{"name":"浄名院八万四千体地蔵","province":"","city":"","address":"上野桜木2-6-4(浄名院内)","lat":35.72238346,"lon":139.7734047},{"name":"入谷鬼子母神","province":"","city":"","address":"下谷1-12-16(真源寺内)","lat":35.71975389,"lon":139.782834},{"name":"小野照崎神社","province":"","city":"","address":"下谷2-13-14","lat":35.72200377,"lon":139.7836639},{"name":"飛不動","province":"","city":"","address":"竜泉3-11-11(正宝院内)","lat":35.72423348,"lon":139.7919428},{"name":"浅草寺","province":"","city":"","address":"浅草2-3-1","lat":35.71467453,"lon":139.7968231},{"name":"浅草神社","province":"","city":"","address":"浅草2-3-1","lat":35.71505453,"lon":139.797523},{"name":"伝法院","province":"","city":"","address":"浅草2-3-1(浅草寺境内)","lat":35.71329464,"lon":139.7953633},{"name":"玉川兄弟の墓","province":"","city":"","address":"松が谷2-3-3(聖徳寺内)","lat":35.71278457,"lon":139.7866941},{"name":"旧寛永寺五重塔","province":"","city":"","address":"上野公園(動物園内)","lat":35.71570398,"lon":139.7717649},{"name":"上野東照宮","province":"","city":"","address":"上野公園","lat":35.71531397,"lon":139.770695},{"name":"表慶館","province":"","city":"","address":"上野公園(博物館内)","lat":35.7187038,"lon":139.7752946},{"name":"清水観音堂","province":"","city":"","address":"上野公園","lat":35.71265429,"lon":139.7735549},{"name":"旧東京音楽学校奏楽堂","province":"","city":"","address":"上野公園","lat":35.71796381,"lon":139.7732448},{"name":"徳川慶喜墓","province":"","city":"","address":"谷中7(谷中墓地内)","lat":35.72340333,"lon":139.7719247},{"name":"西郷隆盛像","province":"","city":"","address":"上野公園","lat":35.71162439,"lon":139.7740049},{"name":"谷中天王寺五重塔跡","province":"","city":"","address":"谷中7(谷中墓地内)","lat":35.72519314,"lon":139.7708948},{"name":"不忍弁天堂","province":"","city":"","address":"上野公園","lat":35.71207427,"lon":139.7712751},{"name":"上野の大仏","province":"","city":"","address":"上野公園","lat":35.71444411,"lon":139.7727649},{"name":"北村季吟墓","province":"","city":"","address":"池之端2-4-22(正慶寺内)","lat":35.71413388,"lon":139.7660253},{"name":"下谷神社","province":"","city":"","address":"東上野3-29-8","lat":35.71074465,"lon":139.7812946},{"name":"雷門","province":"","city":"","address":"浅草1(浅草寺境内)","lat":35.71120485,"lon":139.7963834},{"name":"曹源寺(かっぱ寺)","province":"","city":"","address":"松が谷3-7-2","lat":35.71533434,"lon":139.786504},{"name":"東本願寺","province":"","city":"","address":"西浅草1-5-5","lat":35.7117147,"lon":139.7895539},{"name":"利島村郷土資料館","province":"","city":"","address":"利島村248","lat":34.529991,"lon":139.278015},{"name":"陸上自衛隊三宿駐屯地","province":"東京都","city":"世田谷区","address":"世田谷区池尻1-2-24","lat":35.643947,"lon":139.683755},{"name":"陸上自衛隊十条駐屯地","province":"東京都","city":"北区","address":"北区十条台1-5-70","lat":35.757358,"lon":139.726442},{"name":"陸上自衛隊練馬駐屯地","province":"東京都","city":"練馬区","address":"練馬区北町4-1-1","lat":35.76469,"lon":139.6575},{"name":"陸上自衛隊朝霞駐屯地","province":"東京都","city":"練馬区","address":"練馬区大泉学園町","lat":35.781658,"lon":139.595161},{"name":"陸上自衛隊用賀駐屯地","province":"東京都","city":"世田谷区","address":"世田谷区上用賀1-20-1","lat":35.633422,"lon":139.637491},{"name":"陸上自衛隊立川駐屯地","province":"東京都","city":"立川市","address":"立川市緑町5","lat":35.712357,"lon":139.402135},{"name":"陸上自衛隊東立川駐屯地","province":"東京都","city":"立川市","address":"立川市栄町1-2-10","lat":35.7052,"lon":139.4266},{"name":"陸上自衛隊市ヶ谷駐屯地","province":"東京都","city":"新宿区","address":"新宿区市谷本村町5-1","lat":35.693837,"lon":139.727038},{"name":"陸上自衛隊小平駐屯地","province":"東京都","city":"小平市","address":"小平市喜平町2-3-1","lat":35.72053,"lon":139.4836},{"name":"航空自衛隊府中基地","province":"東京都","city":"府中市","address":"府中市浅間町1-5-5","lat":35.67353,"lon":139.4953},{"name":"航空自衛隊横田基地","province":"東京都","city":"福生市","address":"福生市大字福生2552","lat":35.74337,"lon":139.3305},{"name":"初代川柳墓","province":"","city":"","address":"蔵前4丁目36番7号(竜宝寺内)","lat":35.70591527,"lon":139.7887445},{"name":"勝川春章墓","province":"","city":"","address":"蔵前4丁目16番16号(西福寺内)","lat":35.70353551,"lon":139.7888147},{"name":"寛永寺","province":"","city":"","address":"上野桜木1丁目14番","lat":35.72179353,"lon":139.7745046},{"name":"浅草文庫跡碑","province":"","city":"","address":"蔵前1丁目4番3号(榊神社内)","lat":35.70008591,"lon":139.789365},{"name":"鷲神社","province":"","city":"","address":"千束3丁目18番7号","lat":35.7224137,"lon":139.792013},{"name":"待乳山聖天","province":"","city":"","address":"浅草7丁目4番1号","lat":35.7173148,"lon":139.8030326},{"name":"江戸六地蔵","province":"","city":"","address":"東浅草2丁目12番13号(東禅寺内)","lat":35.72407391,"lon":139.8002925},{"name":"安藤東野墓","province":"","city":"","address":"橋場1丁目16番2号(福寿院内)","lat":35.72406483,"lon":139.806683},{"name":"妙亀塚","province":"","city":"","address":"橋場1丁目28番12号(妙亀塚公園内)","lat":35.72535454,"lon":139.8055229},{"name":"橋場のお化け地蔵","province":"","city":"","address":"橋場2丁目5番3号(松吟寺内)","lat":35.72632449,"lon":139.805803},{"name":"鳥越神社","province":"","city":"","address":"鳥越2丁目4番1号","lat":35.70198564,"lon":139.785695},{"name":"浅間神社","province":"","city":"","address":"浅草5-3-2","lat":35.71919427,"lon":139.7983128},{"name":"岡倉天心記念公園","province":"","city":"","address":"谷中5-7","lat":35.72637281,"lon":139.766555},{"name":"山岡鉄舟墓","province":"","city":"","address":"谷中5-4-7(全生庵内)","lat":35.72413302,"lon":139.766875},{"name":"三遊亭円朝墓","province":"","city":"","address":"谷中5-4-7(全生庵内)","lat":35.72413302,"lon":139.766875},{"name":"大久保主水墓","province":"","city":"","address":"谷中4-2-5(瑞輪寺内)","lat":35.72314316,"lon":139.767865},{"name":"鈴木春信碑","province":"","city":"","address":"谷中3-1-2(大円寺内)","lat":35.72464291,"lon":139.7657051},{"name":"蒲生君平墓","province":"","city":"","address":"谷中1-4-13(臨江寺内)","lat":35.72006336,"lon":139.7664151},{"name":"太宰春台墓","province":"","city":"","address":"谷中1-2-14(天眼寺内)","lat":35.71872351,"lon":139.7670951},{"name":"子規庵","province":"","city":"","address":"根岸2-5-11","lat":35.72448339,"lon":139.7763844},{"name":"葛飾北斎墓","province":"","city":"","address":"元浅草4-6-9(誓教寺内)","lat":35.70972485,"lon":139.7855144},{"name":"中村不折旧宅（書道博物館）","province":"","city":"","address":"根岸2-10-4","lat":35.72464337,"lon":139.7762944},{"name":"浄名院八万四千体地蔵","province":"","city":"","address":"上野桜木2-6-4(浄名院内)","lat":35.72238346,"lon":139.7734047},{"name":"入谷鬼子母神","province":"","city":"","address":"下谷1-12-16(真源寺内)","lat":35.71975389,"lon":139.782834},{"name":"小野照崎神社","province":"","city":"","address":"下谷2-13-14","lat":35.72200377,"lon":139.7836639},{"name":"飛不動","province":"","city":"","address":"竜泉3-11-11(正宝院内)","lat":35.72423348,"lon":139.7919428},{"name":"浅草寺","province":"","city":"","address":"浅草2-3-1","lat":35.71467453,"lon":139.7968231},{"name":"浅草神社","province":"","city":"","address":"浅草2-3-1","lat":35.71505453,"lon":139.797523},{"name":"伝法院","province":"","city":"","address":"浅草2-3-1(浅草寺境内)","lat":35.71329464,"lon":139.7953633},{"name":"玉川兄弟の墓","province":"","city":"","address":"松が谷2-3-3(聖徳寺内)","lat":35.71278457,"lon":139.7866941},{"name":"旧寛永寺五重塔","province":"","city":"","address":"上野公園(動物園内)","lat":35.71570398,"lon":139.7717649},{"name":"上野東照宮","province":"","city":"","address":"上野公園","lat":35.71531397,"lon":139.770695},{"name":"表慶館","province":"","city":"","address":"上野公園(博物館内)","lat":35.7187038,"lon":139.7752946},{"name":"清水観音堂","province":"","city":"","address":"上野公園","lat":35.71265429,"lon":139.7735549},{"name":"旧東京音楽学校奏楽堂","province":"","city":"","address":"上野公園","lat":35.71796381,"lon":139.7732448},{"name":"徳川慶喜墓","province":"","city":"","address":"谷中7(谷中墓地内)","lat":35.72340333,"lon":139.7719247},{"name":"西郷隆盛像","province":"","city":"","address":"上野公園","lat":35.71162439,"lon":139.7740049},{"name":"谷中天王寺五重塔跡","province":"","city":"","address":"谷中7(谷中墓地内)","lat":35.72519314,"lon":139.7708948},{"name":"不忍弁天堂","province":"","city":"","address":"上野公園","lat":35.71207427,"lon":139.7712751},{"name":"上野の大仏","province":"","city":"","address":"上野公園","lat":35.71444411,"lon":139.7727649},{"name":"北村季吟墓","province":"","city":"","address":"池之端2-4-22(正慶寺内)","lat":35.71413388,"lon":139.7660253},{"name":"下谷神社","province":"","city":"","address":"東上野3-29-8","lat":35.71074465,"lon":139.7812946},{"name":"雷門","province":"","city":"","address":"浅草1(浅草寺境内)","lat":35.71120485,"lon":139.7963834},{"name":"曹源寺(かっぱ寺)","province":"","city":"","address":"松が谷3-7-2","lat":35.71533434,"lon":139.786504},{"name":"東本願寺","province":"","city":"","address":"西浅草1-5-5","lat":35.7117147,"lon":139.7895539},{"name":"利島村郷土資料館","province":"","city":"","address":"利島村248","lat":34.529991,"lon":139.278015},{"name":"陸上自衛隊三宿駐屯地","province":"東京都","city":"世田谷区","address":"世田谷区池尻1-2-24","lat":35.643947,"lon":139.683755},{"name":"陸上自衛隊十条駐屯地","province":"東京都","city":"北区","address":"北区十条台1-5-70","lat":35.757358,"lon":139.726442},{"name":"陸上自衛隊練馬駐屯地","province":"東京都","city":"練馬区","address":"練馬区北町4-1-1","lat":35.76469,"lon":139.6575},{"name":"陸上自衛隊朝霞駐屯地","province":"東京都","city":"練馬区","address":"練馬区大泉学園町","lat":35.781658,"lon":139.595161},{"name":"陸上自衛隊用賀駐屯地","province":"東京都","city":"世田谷区","address":"世田谷区上用賀1-20-1","lat":35.633422,"lon":139.637491},{"name":"陸上自衛隊立川駐屯地","province":"東京都","city":"立川市","address":"立川市緑町5","lat":35.712357,"lon":139.402135},{"name":"陸上自衛隊東立川駐屯地","province":"東京都","city":"立川市","address":"立川市栄町1-2-10","lat":35.7052,"lon":139.4266},{"name":"陸上自衛隊市ヶ谷駐屯地","province":"東京都","city":"新宿区","address":"新宿区市谷本村町5-1","lat":35.693837,"lon":139.727038},{"name":"陸上自衛隊小平駐屯地","province":"東京都","city":"小平市","address":"小平市喜平町2-3-1","lat":35.72053,"lon":139.4836},{"name":"航空自衛隊府中基地","province":"東京都","city":"府中市","address":"府中市浅間町1-5-5","lat":35.67353,"lon":139.4953},{"name":"航空自衛隊横田基地","province":"東京都","city":"福生市","address":"福生市大字福生2552","lat":35.74337,"lon":139.3305},{"name":"初代川柳墓","province":"","city":"","address":"蔵前4丁目36番7号(竜宝寺内)","lat":35.70591527,"lon":139.7887445},{"name":"勝川春章墓","province":"","city":"","address":"蔵前4丁目16番16号(西福寺内)","lat":35.70353551,"lon":139.7888147},{"name":"寛永寺","province":"","city":"","address":"上野桜木1丁目14番","lat":35.72179353,"lon":139.7745046},{"name":"浅草文庫跡碑","province":"","city":"","address":"蔵前1丁目4番3号(榊神社内)","lat":35.70008591,"lon":139.789365},{"name":"鷲神社","province":"","city":"","address":"千束3丁目18番7号","lat":35.7224137,"lon":139.792013},{"name":"待乳山聖天","province":"","city":"","address":"浅草7丁目4番1号","lat":35.7173148,"lon":139.8030326},{"name":"江戸六地蔵","province":"","city":"","address":"東浅草2丁目12番13号(東禅寺内)","lat":35.72407391,"lon":139.8002925},{"name":"安藤東野墓","province":"","city":"","address":"橋場1丁目16番2号(福寿院内)","lat":35.72406483,"lon":139.806683},{"name":"妙亀塚","province":"","city":"","address":"橋場1丁目28番12号(妙亀塚公園内)","lat":35.72535454,"lon":139.8055229},{"name":"橋場のお化け地蔵","province":"","city":"","address":"橋場2丁目5番3号(松吟寺内)","lat":35.72632449,"lon":139.805803},{"name":"鳥越神社","province":"","city":"","address":"鳥越2丁目4番1号","lat":35.70198564,"lon":139.785695},{"name":"浅間神社","province":"","city":"","address":"浅草5-3-2","lat":35.71919427,"lon":139.7983128},{"name":"岡倉天心記念公園","province":"","city":"","address":"谷中5-7","lat":35.72637281,"lon":139.766555},{"name":"山岡鉄舟墓","province":"","city":"","address":"谷中5-4-7(全生庵内)","lat":35.72413302,"lon":139.766875},{"name":"三遊亭円朝墓","province":"","city":"","address":"谷中5-4-7(全生庵内)","lat":35.72413302,"lon":139.766875},{"name":"大久保主水墓","province":"","city":"","address":"谷中4-2-5(瑞輪寺内)","lat":35.72314316,"lon":139.767865},{"name":"鈴木春信碑","province":"","city":"","address":"谷中3-1-2(大円寺内)","lat":35.72464291,"lon":139.7657051},{"name":"蒲生君平墓","province":"","city":"","address":"谷中1-4-13(臨江寺内)","lat":35.72006336,"lon":139.7664151},{"name":"太宰春台墓","province":"","city":"","address":"谷中1-2-14(天眼寺内)","lat":35.71872351,"lon":139.7670951},{"name":"子規庵","province":"","city":"","address":"根岸2-5-11","lat":35.72448339,"lon":139.7763844},{"name":"葛飾北斎墓","province":"","city":"","address":"元浅草4-6-9(誓教寺内)","lat":35.70972485,"lon":139.7855144},{"name":"中村不折旧宅（書道博物館）","province":"","city":"","address":"根岸2-10-4","lat":35.72464337,"lon":139.7762944},{"name":"浄名院八万四千体地蔵","province":"","city":"","address":"上野桜木2-6-4(浄名院内)","lat":35.72238346,"lon":139.7734047},{"name":"入谷鬼子母神","province":"","city":"","address":"下谷1-12-16(真源寺内)","lat":35.71975389,"lon":139.782834},{"name":"小野照崎神社","province":"","city":"","address":"下谷2-13-14","lat":35.72200377,"lon":139.7836639},{"name":"飛不動","province":"","city":"","address":"竜泉3-11-11(正宝院内)","lat":35.72423348,"lon":139.7919428},{"name":"浅草寺","province":"","city":"","address":"浅草2-3-1","lat":35.71467453,"lon":139.7968231},{"name":"浅草神社","province":"","city":"","address":"浅草2-3-1","lat":35.71505453,"lon":139.797523},{"name":"伝法院","province":"","city":"","address":"浅草2-3-1(浅草寺境内)","lat":35.71329464,"lon":139.7953633},{"name":"玉川兄弟の墓","province":"","city":"","address":"松が谷2-3-3(聖徳寺内)","lat":35.71278457,"lon":139.7866941},{"name":"旧寛永寺五重塔","province":"","city":"","address":"上野公園(動物園内)","lat":35.71570398,"lon":139.7717649},{"name":"上野東照宮","province":"","city":"","address":"上野公園","lat":35.71531397,"lon":139.770695},{"name":"表慶館","province":"","city":"","address":"上野公園(博物館内)","lat":35.7187038,"lon":139.7752946},{"name":"清水観音堂","province":"","city":"","address":"上野公園","lat":35.71265429,"lon":139.7735549},{"name":"旧東京音楽学校奏楽堂","province":"","city":"","address":"上野公園","lat":35.71796381,"lon":139.7732448},{"name":"徳川慶喜墓","province":"","city":"","address":"谷中7(谷中墓地内)","lat":35.72340333,"lon":139.7719247},{"name":"西郷隆盛像","province":"","city":"","address":"上野公園","lat":35.71162439,"lon":139.7740049},{"name":"谷中天王寺五重塔跡","province":"","city":"","address":"谷中7(谷中墓地内)","lat":35.72519314,"lon":139.7708948},{"name":"不忍弁天堂","province":"","city":"","address":"上野公園","lat":35.71207427,"lon":139.7712751},{"name":"上野の大仏","province":"","city":"","address":"上野公園","lat":35.71444411,"lon":139.7727649},{"name":"北村季吟墓","province":"","city":"","address":"池之端2-4-22(正慶寺内)","lat":35.71413388,"lon":139.7660253},{"name":"下谷神社","province":"","city":"","address":"東上野3-29-8","lat":35.71074465,"lon":139.7812946},{"name":"雷門","province":"","city":"","address":"浅草1(浅草寺境内)","lat":35.71120485,"lon":139.7963834},{"name":"曹源寺(かっぱ寺)","province":"","city":"","address":"松が谷3-7-2","lat":35.71533434,"lon":139.786504},{"name":"東本願寺","province":"","city":"","address":"西浅草1-5-5","lat":35.7117147,"lon":139.7895539},{"name":"利島村郷土資料館","province":"","city":"","address":"利島村248","lat":34.529991,"lon":139.278015},{"name":"陸上自衛隊三宿駐屯地","province":"東京都","city":"世田谷区","address":"世田谷区池尻1-2-24","lat":35.643947,"lon":139.683755},{"name":"陸上自衛隊十条駐屯地","province":"東京都","city":"北区","address":"北区十条台1-5-70","lat":35.757358,"lon":139.726442},{"name":"陸上自衛隊練馬駐屯地","province":"東京都","city":"練馬区","address":"練馬区北町4-1-1","lat":35.76469,"lon":139.6575},{"name":"陸上自衛隊朝霞駐屯地","province":"東京都","city":"練馬区","address":"練馬区大泉学園町","lat":35.781658,"lon":139.595161},{"name":"陸上自衛隊用賀駐屯地","province":"東京都","city":"世田谷区","address":"世田谷区上用賀1-20-1","lat":35.633422,"lon":139.637491},{"name":"陸上自衛隊立川駐屯地","province":"東京都","city":"立川市","address":"立川市緑町5","lat":35.712357,"lon":139.402135},{"name":"陸上自衛隊東立川駐屯地","province":"東京都","city":"立川市","address":"立川市栄町1-2-10","lat":35.7052,"lon":139.4266},{"name":"陸上自衛隊市ヶ谷駐屯地","province":"東京都","city":"新宿区","address":"新宿区市谷本村町5-1","lat":35.693837,"lon":139.727038},{"name":"陸上自衛隊小平駐屯地","province":"東京都","city":"小平市","address":"小平市喜平町2-3-1","lat":35.72053,"lon":139.4836},{"name":"航空自衛隊府中基地","province":"東京都","city":"府中市","address":"府中市浅間町1-5-5","lat":35.67353,"lon":139.4953},{"name":"航空自衛隊横田基地","province":"東京都","city":"福生市","address":"福生市大字福生2552","lat":35.74337,"lon":139.3305},{"name":"初代川柳墓","province":"","city":"","address":"蔵前4丁目36番7号(竜宝寺内)","lat":35.70591527,"lon":139.7887445},{"name":"勝川春章墓","province":"","city":"","address":"蔵前4丁目16番16号(西福寺内)","lat":35.70353551,"lon":139.7888147},{"name":"寛永寺","province":"","city":"","address":"上野桜木1丁目14番","lat":35.72179353,"lon":139.7745046},{"name":"浅草文庫跡碑","province":"","city":"","address":"蔵前1丁目4番3号(榊神社内)","lat":35.70008591,"lon":139.789365},{"name":"鷲神社","province":"","city":"","address":"千束3丁目18番7号","lat":35.7224137,"lon":139.792013},{"name":"待乳山聖天","province":"","city":"","address":"浅草7丁目4番1号","lat":35.7173148,"lon":139.8030326},{"name":"江戸六地蔵","province":"","city":"","address":"東浅草2丁目12番13号(東禅寺内)","lat":35.72407391,"lon":139.8002925},{"name":"安藤東野墓","province":"","city":"","address":"橋場1丁目16番2号(福寿院内)","lat":35.72406483,"lon":139.806683},{"name":"妙亀塚","province":"","city":"","address":"橋場1丁目28番12号(妙亀塚公園内)","lat":35.72535454,"lon":139.8055229},{"name":"橋場のお化け地蔵","province":"","city":"","address":"橋場2丁目5番3号(松吟寺内)","lat":35.72632449,"lon":139.805803},{"name":"鳥越神社","province":"","city":"","address":"鳥越2丁目4番1号","lat":35.70198564,"lon":139.785695},{"name":"浅間神社","province":"","city":"","address":"浅草5-3-2","lat":35.71919427,"lon":139.7983128},{"name":"岡倉天心記念公園","province":"","city":"","address":"谷中5-7","lat":35.72637281,"lon":139.766555},{"name":"山岡鉄舟墓","province":"","city":"","address":"谷中5-4-7(全生庵内)","lat":35.72413302,"lon":139.766875},{"name":"三遊亭円朝墓","province":"","city":"","address":"谷中5-4-7(全生庵内)","lat":35.72413302,"lon":139.766875},{"name":"大久保主水墓","province":"","city":"","address":"谷中4-2-5(瑞輪寺内)","lat":35.72314316,"lon":139.767865},{"name":"鈴木春信碑","province":"","city":"","address":"谷中3-1-2(大円寺内)","lat":35.72464291,"lon":139.7657051},{"name":"蒲生君平墓","province":"","city":"","address":"谷中1-4-13(臨江寺内)","lat":35.72006336,"lon":139.7664151},{"name":"太宰春台墓","province":"","city":"","address":"谷中1-2-14(天眼寺内)","lat":35.71872351,"lon":139.7670951},{"name":"子規庵","province":"","city":"","address":"根岸2-5-11","lat":35.72448339,"lon":139.7763844},{"name":"葛飾北斎墓","province":"","city":"","address":"元浅草4-6-9(誓教寺内)","lat":35.70972485,"lon":139.7855144},{"name":"中村不折旧宅（書道博物館）","province":"","city":"","address":"根岸2-10-4","lat":35.72464337,"lon":139.7762944},{"name":"浄名院八万四千体地蔵","province":"","city":"","address":"上野桜木2-6-4(浄名院内)","lat":35.72238346,"lon":139.7734047},{"name":"入谷鬼子母神","province":"","city":"","address":"下谷1-12-16(真源寺内)","lat":35.71975389,"lon":139.782834},{"name":"小野照崎神社","province":"","city":"","address":"下谷2-13-14","lat":35.72200377,"lon":139.7836639},{"name":"飛不動","province":"","city":"","address":"竜泉3-11-11(正宝院内)","lat":35.72423348,"lon":139.7919428},{"name":"浅草寺","province":"","city":"","address":"浅草2-3-1","lat":35.71467453,"lon":139.7968231},{"name":"浅草神社","province":"","city":"","address":"浅草2-3-1","lat":35.71505453,"lon":139.797523},{"name":"伝法院","province":"","city":"","address":"浅草2-3-1(浅草寺境内)","lat":35.71329464,"lon":139.7953633},{"name":"玉川兄弟の墓","province":"","city":"","address":"松が谷2-3-3(聖徳寺内)","lat":35.71278457,"lon":139.7866941},{"name":"旧寛永寺五重塔","province":"","city":"","address":"上野公園(動物園内)","lat":35.71570398,"lon":139.7717649},{"name":"上野東照宮","province":"","city":"","address":"上野公園","lat":35.71531397,"lon":139.770695},{"name":"表慶館","province":"","city":"","address":"上野公園(博物館内)","lat":35.7187038,"lon":139.7752946},{"name":"清水観音堂","province":"","city":"","address":"上野公園","lat":35.71265429,"lon":139.7735549},{"name":"旧東京音楽学校奏楽堂","province":"","city":"","address":"上野公園","lat":35.71796381,"lon":139.7732448},{"name":"徳川慶喜墓","province":"","city":"","address":"谷中7(谷中墓地内)","lat":35.72340333,"lon":139.7719247},{"name":"西郷隆盛像","province":"","city":"","address":"上野公園","lat":35.71162439,"lon":139.7740049},{"name":"谷中天王寺五重塔跡","province":"","city":"","address":"谷中7(谷中墓地内)","lat":35.72519314,"lon":139.7708948},{"name":"不忍弁天堂","province":"","city":"","address":"上野公園","lat":35.71207427,"lon":139.7712751},{"name":"上野の大仏","province":"","city":"","address":"上野公園","lat":35.71444411,"lon":139.7727649},{"name":"北村季吟墓","province":"","city":"","address":"池之端2-4-22(正慶寺内)","lat":35.71413388,"lon":139.7660253},{"name":"下谷神社","province":"","city":"","address":"東上野3-29-8","lat":35.71074465,"lon":139.7812946},{"name":"雷門","province":"","city":"","address":"浅草1(浅草寺境内)","lat":35.71120485,"lon":139.7963834},{"name":"曹源寺(かっぱ寺)","province":"","city":"","address":"松が谷3-7-2","lat":35.71533434,"lon":139.786504},{"name":"東本願寺","province":"","city":"","address":"西浅草1-5-5","lat":35.7117147,"lon":139.7895539},{"name":"利島村郷土資料館","province":"","city":"","address":"利島村248","lat":34.529991,"lon":139.278015},{"name":"陸上自衛隊三宿駐屯地","province":"東京都","city":"世田谷区","address":"世田谷区池尻1-2-24","lat":35.643947,"lon":139.683755},{"name":"陸上自衛隊十条駐屯地","province":"東京都","city":"北区","address":"北区十条台1-5-70","lat":35.757358,"lon":139.726442},{"name":"陸上自衛隊練馬駐屯地","province":"東京都","city":"練馬区","address":"練馬区北町4-1-1","lat":35.76469,"lon":139.6575},{"name":"陸上自衛隊朝霞駐屯地","province":"東京都","city":"練馬区","address":"練馬区大泉学園町","lat":35.781658,"lon":139.595161},{"name":"陸上自衛隊用賀駐屯地","province":"東京都","city":"世田谷区","address":"世田谷区上用賀1-20-1","lat":35.633422,"lon":139.637491},{"name":"陸上自衛隊立川駐屯地","province":"東京都","city":"立川市","address":"立川市緑町5","lat":35.712357,"lon":139.402135},{"name":"陸上自衛隊東立川駐屯地","province":"東京都","city":"立川市","address":"立川市栄町1-2-10","lat":35.7052,"lon":139.4266},{"name":"陸上自衛隊市ヶ谷駐屯地","province":"東京都","city":"新宿区","address":"新宿区市谷本村町5-1","lat":35.693837,"lon":139.727038},{"name":"陸上自衛隊小平駐屯地","province":"東京都","city":"小平市","address":"小平市喜平町2-3-1","lat":35.72053,"lon":139.4836},{"name":"航空自衛隊府中基地","province":"東京都","city":"府中市","address":"府中市浅間町1-5-5","lat":35.67353,"lon":139.4953},{"name":"航空自衛隊横田基地","province":"東京都","city":"福生市","address":"福生市大字福生2552","lat":35.74337,"lon":139.3305},{"name":"初代川柳墓","province":"","city":"","address":"蔵前4丁目36番7号(竜宝寺内)","lat":35.70591527,"lon":139.7887445},{"name":"勝川春章墓","province":"","city":"","address":"蔵前4丁目16番16号(西福寺内)","lat":35.70353551,"lon":139.7888147},{"name":"寛永寺","province":"","city":"","address":"上野桜木1丁目14番","lat":35.72179353,"lon":139.7745046},{"name":"浅草文庫跡碑","province":"","city":"","address":"蔵前1丁目4番3号(榊神社内)","lat":35.70008591,"lon":139.789365},{"name":"鷲神社","province":"","city":"","address":"千束3丁目18番7号","lat":35.7224137,"lon":139.792013},{"name":"待乳山聖天","province":"","city":"","address":"浅草7丁目4番1号","lat":35.7173148,"lon":139.8030326},{"name":"江戸六地蔵","province":"","city":"","address":"東浅草2丁目12番13号(東禅寺内)","lat":35.72407391,"lon":139.8002925},{"name":"安藤東野墓","province":"","city":"","address":"橋場1丁目16番2号(福寿院内)","lat":35.72406483,"lon":139.806683},{"name":"妙亀塚","province":"","city":"","address":"橋場1丁目28番12号(妙亀塚公園内)","lat":35.72535454,"lon":139.8055229},{"name":"橋場のお化け地蔵","province":"","city":"","address":"橋場2丁目5番3号(松吟寺内)","lat":35.72632449,"lon":139.805803},{"name":"鳥越神社","province":"","city":"","address":"鳥越2丁目4番1号","lat":35.70198564,"lon":139.785695},{"name":"浅間神社","province":"","city":"","address":"浅草5-3-2","lat":35.71919427,"lon":139.7983128},{"name":"岡倉天心記念公園","province":"","city":"","address":"谷中5-7","lat":35.72637281,"lon":139.766555},{"name":"山岡鉄舟墓","province":"","city":"","address":"谷中5-4-7(全生庵内)","lat":35.72413302,"lon":139.766875},{"name":"三遊亭円朝墓","province":"","city":"","address":"谷中5-4-7(全生庵内)","lat":35.72413302,"lon":139.766875},{"name":"大久保主水墓","province":"","city":"","address":"谷中4-2-5(瑞輪寺内)","lat":35.72314316,"lon":139.767865},{"name":"鈴木春信碑","province":"","city":"","address":"谷中3-1-2(大円寺内)","lat":35.72464291,"lon":139.7657051},{"name":"蒲生君平墓","province":"","city":"","address":"谷中1-4-13(臨江寺内)","lat":35.72006336,"lon":139.7664151},{"name":"太宰春台墓","province":"","city":"","address":"谷中1-2-14(天眼寺内)","lat":35.71872351,"lon":139.7670951},{"name":"子規庵","province":"","city":"","address":"根岸2-5-11","lat":35.72448339,"lon":139.7763844},{"name":"葛飾北斎墓","province":"","city":"","address":"元浅草4-6-9(誓教寺内)","lat":35.70972485,"lon":139.7855144},{"name":"中村不折旧宅（書道博物館）","province":"","city":"","address":"根岸2-10-4","lat":35.72464337,"lon":139.7762944},{"name":"浄名院八万四千体地蔵","province":"","city":"","address":"上野桜木2-6-4(浄名院内)","lat":35.72238346,"lon":139.7734047},{"name":"入谷鬼子母神","province":"","city":"","address":"下谷1-12-16(真源寺内)","lat":35.71975389,"lon":139.782834},{"name":"小野照崎神社","province":"","city":"","address":"下谷2-13-14","lat":35.72200377,"lon":139.7836639},{"name":"飛不動","province":"","city":"","address":"竜泉3-11-11(正宝院内)","lat":35.72423348,"lon":139.7919428},{"name":"浅草寺","province":"","city":"","address":"浅草2-3-1","lat":35.71467453,"lon":139.7968231},{"name":"浅草神社","province":"","city":"","address":"浅草2-3-1","lat":35.71505453,"lon":139.797523},{"name":"伝法院","province":"","city":"","address":"浅草2-3-1(浅草寺境内)","lat":35.71329464,"lon":139.7953633},{"name":"玉川兄弟の墓","province":"","city":"","address":"松が谷2-3-3(聖徳寺内)","lat":35.71278457,"lon":139.7866941},{"name":"旧寛永寺五重塔","province":"","city":"","address":"上野公園(動物園内)","lat":35.71570398,"lon":139.7717649},{"name":"上野東照宮","province":"","city":"","address":"上野公園","lat":35.71531397,"lon":139.770695},{"name":"表慶館","province":"","city":"","address":"上野公園(博物館内)","lat":35.7187038,"lon":139.7752946},{"name":"清水観音堂","province":"","city":"","address":"上野公園","lat":35.71265429,"lon":139.7735549},{"name":"旧東京音楽学校奏楽堂","province":"","city":"","address":"上野公園","lat":35.71796381,"lon":139.7732448},{"name":"徳川慶喜墓","province":"","city":"","address":"谷中7(谷中墓地内)","lat":35.72340333,"lon":139.7719247},{"name":"西郷隆盛像","province":"","city":"","address":"上野公園","lat":35.71162439,"lon":139.7740049},{"name":"谷中天王寺五重塔跡","province":"","city":"","address":"谷中7(谷中墓地内)","lat":35.72519314,"lon":139.7708948},{"name":"不忍弁天堂","province":"","city":"","address":"上野公園","lat":35.71207427,"lon":139.7712751},{"name":"上野の大仏","province":"","city":"","address":"上野公園","lat":35.71444411,"lon":139.7727649},{"name":"北村季吟墓","province":"","city":"","address":"池之端2-4-22(正慶寺内)","lat":35.71413388,"lon":139.7660253},{"name":"下谷神社","province":"","city":"","address":"東上野3-29-8","lat":35.71074465,"lon":139.7812946},{"name":"雷門","province":"","city":"","address":"浅草1(浅草寺境内)","lat":35.71120485,"lon":139.7963834},{"name":"曹源寺(かっぱ寺)","province":"","city":"","address":"松が谷3-7-2","lat":35.71533434,"lon":139.786504},{"name":"東本願寺","province":"","city":"","address":"西浅草1-5-5","lat":35.7117147,"lon":139.7895539},{"name":"利島村郷土資料館","province":"","city":"","address":"利島村248","lat":34.529991,"lon":139.278015},{"name":"陸上自衛隊三宿駐屯地","province":"東京都","city":"世田谷区","address":"世田谷区池尻1-2-24","lat":35.643947,"lon":139.683755},{"name":"陸上自衛隊十条駐屯地","province":"東京都","city":"北区","address":"北区十条台1-5-70","lat":35.757358,"lon":139.726442},{"name":"陸上自衛隊練馬駐屯地","province":"東京都","city":"練馬区","address":"練馬区北町4-1-1","lat":35.76469,"lon":139.6575},{"name":"陸上自衛隊朝霞駐屯地","province":"東京都","city":"練馬区","address":"練馬区大泉学園町","lat":35.781658,"lon":139.595161},{"name":"陸上自衛隊用賀駐屯地","province":"東京都","city":"世田谷区","address":"世田谷区上用賀1-20-1","lat":35.633422,"lon":139.637491},{"name":"陸上自衛隊立川駐屯地","province":"東京都","city":"立川市","address":"立川市緑町5","lat":35.712357,"lon":139.402135},{"name":"陸上自衛隊東立川駐屯地","province":"東京都","city":"立川市","address":"立川市栄町1-2-10","lat":35.7052,"lon":139.4266},{"name":"陸上自衛隊市ヶ谷駐屯地","province":"東京都","city":"新宿区","address":"新宿区市谷本村町5-1","lat":35.693837,"lon":139.727038},{"name":"陸上自衛隊小平駐屯地","province":"東京都","city":"小平市","address":"小平市喜平町2-3-1","lat":35.72053,"lon":139.4836},{"name":"航空自衛隊府中基地","province":"東京都","city":"府中市","address":"府中市浅間町1-5-5","lat":35.67353,"lon":139.4953},{"name":"航空自衛隊横田基地","province":"東京都","city":"福生市","address":"福生市大字福生2552","lat":35.74337,"lon":139.3305},{"name":"初代川柳墓","province":"","city":"","address":"蔵前4丁目36番7号(竜宝寺内)","lat":35.70591527,"lon":139.7887445},{"name":"勝川春章墓","province":"","city":"","address":"蔵前4丁目16番16号(西福寺内)","lat":35.70353551,"lon":139.7888147},{"name":"寛永寺","province":"","city":"","address":"上野桜木1丁目14番","lat":35.72179353,"lon":139.7745046},{"name":"浅草文庫跡碑","province":"","city":"","address":"蔵前1丁目4番3号(榊神社内)","lat":35.70008591,"lon":139.789365},{"name":"鷲神社","province":"","city":"","address":"千束3丁目18番7号","lat":35.7224137,"lon":139.792013},{"name":"待乳山聖天","province":"","city":"","address":"浅草7丁目4番1号","lat":35.7173148,"lon":139.8030326},{"name":"江戸六地蔵","province":"","city":"","address":"東浅草2丁目12番13号(東禅寺内)","lat":35.72407391,"lon":139.8002925},{"name":"安藤東野墓","province":"","city":"","address":"橋場1丁目16番2号(福寿院内)","lat":35.72406483,"lon":139.806683},{"name":"妙亀塚","province":"","city":"","address":"橋場1丁目28番12号(妙亀塚公園内)","lat":35.72535454,"lon":139.8055229},{"name":"橋場のお化け地蔵","province":"","city":"","address":"橋場2丁目5番3号(松吟寺内)","lat":35.72632449,"lon":139.805803},{"name":"鳥越神社","province":"","city":"","address":"鳥越2丁目4番1号","lat":35.70198564,"lon":139.785695},{"name":"浅間神社","province":"","city":"","address":"浅草5-3-2","lat":35.71919427,"lon":139.7983128},{"name":"岡倉天心記念公園","province":"","city":"","address":"谷中5-7","lat":35.72637281,"lon":139.766555},{"name":"山岡鉄舟墓","province":"","city":"","address":"谷中5-4-7(全生庵内)","lat":35.72413302,"lon":139.766875},{"name":"三遊亭円朝墓","province":"","city":"","address":"谷中5-4-7(全生庵内)","lat":35.72413302,"lon":139.766875},{"name":"大久保主水墓","province":"","city":"","address":"谷中4-2-5(瑞輪寺内)","lat":35.72314316,"lon":139.767865},{"name":"鈴木春信碑","province":"","city":"","address":"谷中3-1-2(大円寺内)","lat":35.72464291,"lon":139.7657051},{"name":"蒲生君平墓","province":"","city":"","address":"谷中1-4-13(臨江寺内)","lat":35.72006336,"lon":139.7664151},{"name":"太宰春台墓","province":"","city":"","address":"谷中1-2-14(天眼寺内)","lat":35.71872351,"lon":139.7670951},{"name":"子規庵","province":"","city":"","address":"根岸2-5-11","lat":35.72448339,"lon":139.7763844},{"name":"葛飾北斎墓","province":"","city":"","address":"元浅草4-6-9(誓教寺内)","lat":35.70972485,"lon":139.7855144},{"name":"中村不折旧宅（書道博物館）","province":"","city":"","address":"根岸2-10-4","lat":35.72464337,"lon":139.7762944},{"name":"浄名院八万四千体地蔵","province":"","city":"","address":"上野桜木2-6-4(浄名院内)","lat":35.72238346,"lon":139.7734047},{"name":"入谷鬼子母神","province":"","city":"","address":"下谷1-12-16(真源寺内)","lat":35.71975389,"lon":139.782834},{"name":"小野照崎神社","province":"","city":"","address":"下谷2-13-14","lat":35.72200377,"lon":139.7836639},{"name":"飛不動","province":"","city":"","address":"竜泉3-11-11(正宝院内)","lat":35.72423348,"lon":139.7919428},{"name":"浅草寺","province":"","city":"","address":"浅草2-3-1","lat":35.71467453,"lon":139.7968231},{"name":"浅草神社","province":"","city":"","address":"浅草2-3-1","lat":35.71505453,"lon":139.797523},{"name":"伝法院","province":"","city":"","address":"浅草2-3-1(浅草寺境内)","lat":35.71329464,"lon":139.7953633},{"name":"玉川兄弟の墓","province":"","city":"","address":"松が谷2-3-3(聖徳寺内)","lat":35.71278457,"lon":139.7866941},{"name":"旧寛永寺五重塔","province":"","city":"","address":"上野公園(動物園内)","lat":35.71570398,"lon":139.7717649},{"name":"上野東照宮","province":"","city":"","address":"上野公園","lat":35.71531397,"lon":139.770695},{"name":"表慶館","province":"","city":"","address":"上野公園(博物館内)","lat":35.7187038,"lon":139.7752946},{"name":"清水観音堂","province":"","city":"","address":"上野公園","lat":35.71265429,"lon":139.7735549},{"name":"旧東京音楽学校奏楽堂","province":"","city":"","address":"上野公園","lat":35.71796381,"lon":139.7732448},{"name":"徳川慶喜墓","province":"","city":"","address":"谷中7(谷中墓地内)","lat":35.72340333,"lon":139.7719247},{"name":"西郷隆盛像","province":"","city":"","address":"上野公園","lat":35.71162439,"lon":139.7740049},{"name":"谷中天王寺五重塔跡","province":"","city":"","address":"谷中7(谷中墓地内)","lat":35.72519314,"lon":139.7708948},{"name":"不忍弁天堂","province":"","city":"","address":"上野公園","lat":35.71207427,"lon":139.7712751},{"name":"上野の大仏","province":"","city":"","address":"上野公園","lat":35.71444411,"lon":139.7727649},{"name":"北村季吟墓","province":"","city":"","address":"池之端2-4-22(正慶寺内)","lat":35.71413388,"lon":139.7660253},{"name":"下谷神社","province":"","city":"","address":"東上野3-29-8","lat":35.71074465,"lon":139.7812946},{"name":"雷門","province":"","city":"","address":"浅草1(浅草寺境内)","lat":35.71120485,"lon":139.7963834},{"name":"曹源寺(かっぱ寺)","province":"","city":"","address":"松が谷3-7-2","lat":35.71533434,"lon":139.786504},{"name":"東本願寺","province":"","city":"","address":"西浅草1-5-5","lat":35.7117147,"lon":139.7895539},{"name":"利島村郷土資料館","province":"","city":"","address":"利島村248","lat":34.529991,"lon":139.278015},{"name":"陸上自衛隊三宿駐屯地","province":"東京都","city":"世田谷区","address":"世田谷区池尻1-2-24","lat":35.643947,"lon":139.683755},{"name":"陸上自衛隊十条駐屯地","province":"東京都","city":"北区","address":"北区十条台1-5-70","lat":35.757358,"lon":139.726442},{"name":"陸上自衛隊練馬駐屯地","province":"東京都","city":"練馬区","address":"練馬区北町4-1-1","lat":35.76469,"lon":139.6575},{"name":"陸上自衛隊朝霞駐屯地","province":"東京都","city":"練馬区","address":"練馬区大泉学園町","lat":35.781658,"lon":139.595161},{"name":"陸上自衛隊用賀駐屯地","province":"東京都","city":"世田谷区","address":"世田谷区上用賀1-20-1","lat":35.633422,"lon":139.637491},{"name":"陸上自衛隊立川駐屯地","province":"東京都","city":"立川市","address":"立川市緑町5","lat":35.712357,"lon":139.402135},{"name":"陸上自衛隊東立川駐屯地","province":"東京都","city":"立川市","address":"立川市栄町1-2-10","lat":35.7052,"lon":139.4266},{"name":"陸上自衛隊市ヶ谷駐屯地","province":"東京都","city":"新宿区","address":"新宿区市谷本村町5-1","lat":35.693837,"lon":139.727038},{"name":"陸上自衛隊小平駐屯地","province":"東京都","city":"小平市","address":"小平市喜平町2-3-1","lat":35.72053,"lon":139.4836},{"name":"航空自衛隊府中基地","province":"東京都","city":"府中市","address":"府中市浅間町1-5-5","lat":35.67353,"lon":139.4953},{"name":"航空自衛隊横田基地","province":"東京都","city":"福生市","address":"福生市大字福生2552","lat":35.74337,"lon":139.3305},{"name":"初代川柳墓","province":"","city":"","address":"蔵前4丁目36番7号(竜宝寺内)","lat":35.70591527,"lon":139.7887445},{"name":"勝川春章墓","province":"","city":"","address":"蔵前4丁目16番16号(西福寺内)","lat":35.70353551,"lon":139.7888147},{"name":"寛永寺","province":"","city":"","address":"上野桜木1丁目14番","lat":35.72179353,"lon":139.7745046},{"name":"浅草文庫跡碑","province":"","city":"","address":"蔵前1丁目4番3号(榊神社内)","lat":35.70008591,"lon":139.789365},{"name":"鷲神社","province":"","city":"","address":"千束3丁目18番7号","lat":35.7224137,"lon":139.792013},{"name":"待乳山聖天","province":"","city":"","address":"浅草7丁目4番1号","lat":35.7173148,"lon":139.8030326},{"name":"江戸六地蔵","province":"","city":"","address":"東浅草2丁目12番13号(東禅寺内)","lat":35.72407391,"lon":139.8002925},{"name":"安藤東野墓","province":"","city":"","address":"橋場1丁目16番2号(福寿院内)","lat":35.72406483,"lon":139.806683},{"name":"妙亀塚","province":"","city":"","address":"橋場1丁目28番12号(妙亀塚公園内)","lat":35.72535454,"lon":139.8055229},{"name":"橋場のお化け地蔵","province":"","city":"","address":"橋場2丁目5番3号(松吟寺内)","lat":35.72632449,"lon":139.805803},{"name":"鳥越神社","province":"","city":"","address":"鳥越2丁目4番1号","lat":35.70198564,"lon":139.785695},{"name":"浅間神社","province":"","city":"","address":"浅草5-3-2","lat":35.71919427,"lon":139.7983128},{"name":"岡倉天心記念公園","province":"","city":"","address":"谷中5-7","lat":35.72637281,"lon":139.766555},{"name":"山岡鉄舟墓","province":"","city":"","address":"谷中5-4-7(全生庵内)","lat":35.72413302,"lon":139.766875},{"name":"三遊亭円朝墓","province":"","city":"","address":"谷中5-4-7(全生庵内)","lat":35.72413302,"lon":139.766875},{"name":"大久保主水墓","province":"","city":"","address":"谷中4-2-5(瑞輪寺内)","lat":35.72314316,"lon":139.767865},{"name":"鈴木春信碑","province":"","city":"","address":"谷中3-1-2(大円寺内)","lat":35.72464291,"lon":139.7657051},{"name":"蒲生君平墓","province":"","city":"","address":"谷中1-4-13(臨江寺内)","lat":35.72006336,"lon":139.7664151},{"name":"太宰春台墓","province":"","city":"","address":"谷中1-2-14(天眼寺内)","lat":35.71872351,"lon":139.7670951},{"name":"子規庵","province":"","city":"","address":"根岸2-5-11","lat":35.72448339,"lon":139.7763844},{"name":"葛飾北斎墓","province":"","city":"","address":"元浅草4-6-9(誓教寺内)","lat":35.70972485,"lon":139.7855144},{"name":"中村不折旧宅（書道博物館）","province":"","city":"","address":"根岸2-10-4","lat":35.72464337,"lon":139.7762944},{"name":"浄名院八万四千体地蔵","province":"","city":"","address":"上野桜木2-6-4(浄名院内)","lat":35.72238346,"lon":139.7734047},{"name":"入谷鬼子母神","province":"","city":"","address":"下谷1-12-16(真源寺内)","lat":35.71975389,"lon":139.782834},{"name":"小野照崎神社","province":"","city":"","address":"下谷2-13-14","lat":35.72200377,"lon":139.7836639},{"name":"飛不動","province":"","city":"","address":"竜泉3-11-11(正宝院内)","lat":35.72423348,"lon":139.7919428},{"name":"浅草寺","province":"","city":"","address":"浅草2-3-1","lat":35.71467453,"lon":139.7968231},{"name":"浅草神社","province":"","city":"","address":"浅草2-3-1","lat":35.71505453,"lon":139.797523},{"name":"伝法院","province":"","city":"","address":"浅草2-3-1(浅草寺境内)","lat":35.71329464,"lon":139.7953633},{"name":"玉川兄弟の墓","province":"","city":"","address":"松が谷2-3-3(聖徳寺内)","lat":35.71278457,"lon":139.7866941},{"name":"旧寛永寺五重塔","province":"","city":"","address":"上野公園(動物園内)","lat":35.71570398,"lon":139.7717649},{"name":"上野東照宮","province":"","city":"","address":"上野公園","lat":35.71531397,"lon":139.770695},{"name":"表慶館","province":"","city":"","address":"上野公園(博物館内)","lat":35.7187038,"lon":139.7752946},{"name":"清水観音堂","province":"","city":"","address":"上野公園","lat":35.71265429,"lon":139.7735549},{"name":"旧東京音楽学校奏楽堂","province":"","city":"","address":"上野公園","lat":35.71796381,"lon":139.7732448},{"name":"徳川慶喜墓","province":"","city":"","address":"谷中7(谷中墓地内)","lat":35.72340333,"lon":139.7719247},{"name":"西郷隆盛像","province":"","city":"","address":"上野公園","lat":35.71162439,"lon":139.7740049},{"name":"谷中天王寺五重塔跡","province":"","city":"","address":"谷中7(谷中墓地内)","lat":35.72519314,"lon":139.7708948},{"name":"不忍弁天堂","province":"","city":"","address":"上野公園","lat":35.71207427,"lon":139.7712751},{"name":"上野の大仏","province":"","city":"","address":"上野公園","lat":35.71444411,"lon":139.7727649},{"name":"北村季吟墓","province":"","city":"","address":"池之端2-4-22(正慶寺内)","lat":35.71413388,"lon":139.7660253},{"name":"下谷神社","province":"","city":"","address":"東上野3-29-8","lat":35.71074465,"lon":139.7812946},{"name":"雷門","province":"","city":"","address":"浅草1(浅草寺境内)","lat":35.71120485,"lon":139.7963834},{"name":"曹源寺(かっぱ寺)","province":"","city":"","address":"松が谷3-7-2","lat":35.71533434,"lon":139.786504},{"name":"東本願寺","province":"","city":"","address":"西浅草1-5-5","lat":35.7117147,"lon":139.7895539},{"name":"利島村郷土資料館","province":"","city":"","address":"利島村248","lat":34.529991,"lon":139.278015},{"name":"陸上自衛隊三宿駐屯地","province":"東京都","city":"世田谷区","address":"世田谷区池尻1-2-24","lat":35.643947,"lon":139.683755},{"name":"陸上自衛隊十条駐屯地","province":"東京都","city":"北区","address":"北区十条台1-5-70","lat":35.757358,"lon":139.726442},{"name":"陸上自衛隊練馬駐屯地","province":"東京都","city":"練馬区","address":"練馬区北町4-1-1","lat":35.76469,"lon":139.6575},{"name":"陸上自衛隊朝霞駐屯地","province":"東京都","city":"練馬区","address":"練馬区大泉学園町","lat":35.781658,"lon":139.595161},{"name":"陸上自衛隊用賀駐屯地","province":"東京都","city":"世田谷区","address":"世田谷区上用賀1-20-1","lat":35.633422,"lon":139.637491},{"name":"陸上自衛隊立川駐屯地","province":"東京都","city":"立川市","address":"立川市緑町5","lat":35.712357,"lon":139.402135},{"name":"陸上自衛隊東立川駐屯地","province":"東京都","city":"立川市","address":"立川市栄町1-2-10","lat":35.7052,"lon":139.4266},{"name":"陸上自衛隊市ヶ谷駐屯地","province":"東京都","city":"新宿区","address":"新宿区市谷本村町5-1","lat":35.693837,"lon":139.727038},{"name":"陸上自衛隊小平駐屯地","province":"東京都","city":"小平市","address":"小平市喜平町2-3-1","lat":35.72053,"lon":139.4836},{"name":"航空自衛隊府中基地","province":"東京都","city":"府中市","address":"府中市浅間町1-5-5","lat":35.67353,"lon":139.4953},{"name":"航空自衛隊横田基地","province":"東京都","city":"福生市","address":"福生市大字福生2552","lat":35.74337,"lon":139.3305},{"name":"初代川柳墓","province":"","city":"","address":"蔵前4丁目36番7号(竜宝寺内)","lat":35.70591527,"lon":139.7887445},{"name":"勝川春章墓","province":"","city":"","address":"蔵前4丁目16番16号(西福寺内)","lat":35.70353551,"lon":139.7888147},{"name":"寛永寺","province":"","city":"","address":"上野桜木1丁目14番","lat":35.72179353,"lon":139.7745046},{"name":"浅草文庫跡碑","province":"","city":"","address":"蔵前1丁目4番3号(榊神社内)","lat":35.70008591,"lon":139.789365},{"name":"鷲神社","province":"","city":"","address":"千束3丁目18番7号","lat":35.7224137,"lon":139.792013},{"name":"待乳山聖天","province":"","city":"","address":"浅草7丁目4番1号","lat":35.7173148,"lon":139.8030326},{"name":"江戸六地蔵","province":"","city":"","address":"東浅草2丁目12番13号(東禅寺内)","lat":35.72407391,"lon":139.8002925},{"name":"安藤東野墓","province":"","city":"","address":"橋場1丁目16番2号(福寿院内)","lat":35.72406483,"lon":139.806683},{"name":"妙亀塚","province":"","city":"","address":"橋場1丁目28番12号(妙亀塚公園内)","lat":35.72535454,"lon":139.8055229},{"name":"橋場のお化け地蔵","province":"","city":"","address":"橋場2丁目5番3号(松吟寺内)","lat":35.72632449,"lon":139.805803},{"name":"鳥越神社","province":"","city":"","address":"鳥越2丁目4番1号","lat":35.70198564,"lon":139.785695},{"name":"浅間神社","province":"","city":"","address":"浅草5-3-2","lat":35.71919427,"lon":139.7983128},{"name":"岡倉天心記念公園","province":"","city":"","address":"谷中5-7","lat":35.72637281,"lon":139.766555},{"name":"山岡鉄舟墓","province":"","city":"","address":"谷中5-4-7(全生庵内)","lat":35.72413302,"lon":139.766875},{"name":"三遊亭円朝墓","province":"","city":"","address":"谷中5-4-7(全生庵内)","lat":35.72413302,"lon":139.766875},{"name":"大久保主水墓","province":"","city":"","address":"谷中4-2-5(瑞輪寺内)","lat":35.72314316,"lon":139.767865},{"name":"鈴木春信碑","province":"","city":"","address":"谷中3-1-2(大円寺内)","lat":35.72464291,"lon":139.7657051},{"name":"蒲生君平墓","province":"","city":"","address":"谷中1-4-13(臨江寺内)","lat":35.72006336,"lon":139.7664151},{"name":"太宰春台墓","province":"","city":"","address":"谷中1-2-14(天眼寺内)","lat":35.71872351,"lon":139.7670951},{"name":"子規庵","province":"","city":"","address":"根岸2-5-11","lat":35.72448339,"lon":139.7763844},{"name":"葛飾北斎墓","province":"","city":"","address":"元浅草4-6-9(誓教寺内)","lat":35.70972485,"lon":139.7855144},{"name":"中村不折旧宅（書道博物館）","province":"","city":"","address":"根岸2-10-4","lat":35.72464337,"lon":139.7762944},{"name":"浄名院八万四千体地蔵","province":"","city":"","address":"上野桜木2-6-4(浄名院内)","lat":35.72238346,"lon":139.7734047},{"name":"入谷鬼子母神","province":"","city":"","address":"下谷1-12-16(真源寺内)","lat":35.71975389,"lon":139.782834},{"name":"小野照崎神社","province":"","city":"","address":"下谷2-13-14","lat":35.72200377,"lon":139.7836639},{"name":"飛不動","province":"","city":"","address":"竜泉3-11-11(正宝院内)","lat":35.72423348,"lon":139.7919428},{"name":"浅草寺","province":"","city":"","address":"浅草2-3-1","lat":35.71467453,"lon":139.7968231},{"name":"浅草神社","province":"","city":"","address":"浅草2-3-1","lat":35.71505453,"lon":139.797523},{"name":"伝法院","province":"","city":"","address":"浅草2-3-1(浅草寺境内)","lat":35.71329464,"lon":139.7953633},{"name":"玉川兄弟の墓","province":"","city":"","address":"松が谷2-3-3(聖徳寺内)","lat":35.71278457,"lon":139.7866941},{"name":"旧寛永寺五重塔","province":"","city":"","address":"上野公園(動物園内)","lat":35.71570398,"lon":139.7717649},{"name":"上野東照宮","province":"","city":"","address":"上野公園","lat":35.71531397,"lon":139.770695},{"name":"表慶館","province":"","city":"","address":"上野公園(博物館内)","lat":35.7187038,"lon":139.7752946},{"name":"清水観音堂","province":"","city":"","address":"上野公園","lat":35.71265429,"lon":139.7735549},{"name":"旧東京音楽学校奏楽堂","province":"","city":"","address":"上野公園","lat":35.71796381,"lon":139.7732448},{"name":"徳川慶喜墓","province":"","city":"","address":"谷中7(谷中墓地内)","lat":35.72340333,"lon":139.7719247},{"name":"西郷隆盛像","province":"","city":"","address":"上野公園","lat":35.71162439,"lon":139.7740049},{"name":"谷中天王寺五重塔跡","province":"","city":"","address":"谷中7(谷中墓地内)","lat":35.72519314,"lon":139.7708948},{"name":"不忍弁天堂","province":"","city":"","address":"上野公園","lat":35.71207427,"lon":139.7712751},{"name":"上野の大仏","province":"","city":"","address":"上野公園","lat":35.71444411,"lon":139.7727649},{"name":"北村季吟墓","province":"","city":"","address":"池之端2-4-22(正慶寺内)","lat":35.71413388,"lon":139.7660253},{"name":"下谷神社","province":"","city":"","address":"東上野3-29-8","lat":35.71074465,"lon":139.7812946},{"name":"雷門","province":"","city":"","address":"浅草1(浅草寺境内)","lat":35.71120485,"lon":139.7963834},{"name":"曹源寺(かっぱ寺)","province":"","city":"","address":"松が谷3-7-2","lat":35.71533434,"lon":139.786504},{"name":"東本願寺","province":"","city":"","address":"西浅草1-5-5","lat":35.7117147,"lon":139.7895539},{"name":"利島村郷土資料館","province":"","city":"","address":"利島村248","lat":34.529991,"lon":139.278015},{"name":"陸上自衛隊三宿駐屯地","province":"東京都","city":"世田谷区","address":"世田谷区池尻1-2-24","lat":35.643947,"lon":139.683755},{"name":"陸上自衛隊十条駐屯地","province":"東京都","city":"北区","address":"北区十条台1-5-70","lat":35.757358,"lon":139.726442},{"name":"陸上自衛隊練馬駐屯地","province":"東京都","city":"練馬区","address":"練馬区北町4-1-1","lat":35.76469,"lon":139.6575},{"name":"陸上自衛隊朝霞駐屯地","province":"東京都","city":"練馬区","address":"練馬区大泉学園町","lat":35.781658,"lon":139.595161},{"name":"陸上自衛隊用賀駐屯地","province":"東京都","city":"世田谷区","address":"世田谷区上用賀1-20-1","lat":35.633422,"lon":139.637491},{"name":"陸上自衛隊立川駐屯地","province":"東京都","city":"立川市","address":"立川市緑町5","lat":35.712357,"lon":139.402135},{"name":"陸上自衛隊東立川駐屯地","province":"東京都","city":"立川市","address":"立川市栄町1-2-10","lat":35.7052,"lon":139.4266},{"name":"陸上自衛隊市ヶ谷駐屯地","province":"東京都","city":"新宿区","address":"新宿区市谷本村町5-1","lat":35.693837,"lon":139.727038},{"name":"陸上自衛隊小平駐屯地","province":"東京都","city":"小平市","address":"小平市喜平町2-3-1","lat":35.72053,"lon":139.4836},{"name":"航空自衛隊府中基地","province":"東京都","city":"府中市","address":"府中市浅間町1-5-5","lat":35.67353,"lon":139.4953},{"name":"航空自衛隊横田基地","province":"東京都","city":"福生市","address":"福生市大字福生2552","lat":35.74337,"lon":139.3305},{"name":"初代川柳墓","province":"","city":"","address":"蔵前4丁目36番7号(竜宝寺内)","lat":35.70591527,"lon":139.7887445},{"name":"勝川春章墓","province":"","city":"","address":"蔵前4丁目16番16号(西福寺内)","lat":35.70353551,"lon":139.7888147},{"name":"寛永寺","province":"","city":"","address":"上野桜木1丁目14番","lat":35.72179353,"lon":139.7745046},{"name":"浅草文庫跡碑","province":"","city":"","address":"蔵前1丁目4番3号(榊神社内)","lat":35.70008591,"lon":139.789365},{"name":"鷲神社","province":"","city":"","address":"千束3丁目18番7号","lat":35.7224137,"lon":139.792013},{"name":"待乳山聖天","province":"","city":"","address":"浅草7丁目4番1号","lat":35.7173148,"lon":139.8030326},{"name":"江戸六地蔵","province":"","city":"","address":"東浅草2丁目12番13号(東禅寺内)","lat":35.72407391,"lon":139.8002925},{"name":"安藤東野墓","province":"","city":"","address":"橋場1丁目16番2号(福寿院内)","lat":35.72406483,"lon":139.806683},{"name":"妙亀塚","province":"","city":"","address":"橋場1丁目28番12号(妙亀塚公園内)","lat":35.72535454,"lon":139.8055229},{"name":"橋場のお化け地蔵","province":"","city":"","address":"橋場2丁目5番3号(松吟寺内)","lat":35.72632449,"lon":139.805803},{"name":"鳥越神社","province":"","city":"","address":"鳥越2丁目4番1号","lat":35.70198564,"lon":139.785695},{"name":"浅間神社","province":"","city":"","address":"浅草5-3-2","lat":35.71919427,"lon":139.7983128},{"name":"岡倉天心記念公園","province":"","city":"","address":"谷中5-7","lat":35.72637281,"lon":139.766555},{"name":"山岡鉄舟墓","province":"","city":"","address":"谷中5-4-7(全生庵内)","lat":35.72413302,"lon":139.766875},{"name":"三遊亭円朝墓","province":"","city":"","address":"谷中5-4-7(全生庵内)","lat":35.72413302,"lon":139.766875},{"name":"大久保主水墓","province":"","city":"","address":"谷中4-2-5(瑞輪寺内)","lat":35.72314316,"lon":139.767865},{"name":"鈴木春信碑","province":"","city":"","address":"谷中3-1-2(大円寺内)","lat":35.72464291,"lon":139.7657051},{"name":"蒲生君平墓","province":"","city":"","address":"谷中1-4-13(臨江寺内)","lat":35.72006336,"lon":139.7664151},{"name":"太宰春台墓","province":"","city":"","address":"谷中1-2-14(天眼寺内)","lat":35.71872351,"lon":139.7670951},{"name":"子規庵","province":"","city":"","address":"根岸2-5-11","lat":35.72448339,"lon":139.7763844},{"name":"葛飾北斎墓","province":"","city":"","address":"元浅草4-6-9(誓教寺内)","lat":35.70972485,"lon":139.7855144},{"name":"中村不折旧宅（書道博物館）","province":"","city":"","address":"根岸2-10-4","lat":35.72464337,"lon":139.7762944},{"name":"浄名院八万四千体地蔵","province":"","city":"","address":"上野桜木2-6-4(浄名院内)","lat":35.72238346,"lon":139.7734047},{"name":"入谷鬼子母神","province":"","city":"","address":"下谷1-12-16(真源寺内)","lat":35.71975389,"lon":139.782834},{"name":"小野照崎神社","province":"","city":"","address":"下谷2-13-14","lat":35.72200377,"lon":139.7836639},{"name":"飛不動","province":"","city":"","address":"竜泉3-11-11(正宝院内)","lat":35.72423348,"lon":139.7919428},{"name":"浅草寺","province":"","city":"","address":"浅草2-3-1","lat":35.71467453,"lon":139.7968231},{"name":"浅草神社","province":"","city":"","address":"浅草2-3-1","lat":35.71505453,"lon":139.797523},{"name":"伝法院","province":"","city":"","address":"浅草2-3-1(浅草寺境内)","lat":35.71329464,"lon":139.7953633},{"name":"玉川兄弟の墓","province":"","city":"","address":"松が谷2-3-3(聖徳寺内)","lat":35.71278457,"lon":139.7866941},{"name":"旧寛永寺五重塔","province":"","city":"","address":"上野公園(動物園内)","lat":35.71570398,"lon":139.7717649},{"name":"上野東照宮","province":"","city":"","address":"上野公園","lat":35.71531397,"lon":139.770695},{"name":"表慶館","province":"","city":"","address":"上野公園(博物館内)","lat":35.7187038,"lon":139.7752946},{"name":"清水観音堂","province":"","city":"","address":"上野公園","lat":35.71265429,"lon":139.7735549},{"name":"旧東京音楽学校奏楽堂","province":"","city":"","address":"上野公園","lat":35.71796381,"lon":139.7732448},{"name":"徳川慶喜墓","province":"","city":"","address":"谷中7(谷中墓地内)","lat":35.72340333,"lon":139.7719247},{"name":"西郷隆盛像","province":"","city":"","address":"上野公園","lat":35.71162439,"lon":139.7740049},{"name":"谷中天王寺五重塔跡","province":"","city":"","address":"谷中7(谷中墓地内)","lat":35.72519314,"lon":139.7708948},{"name":"不忍弁天堂","province":"","city":"","address":"上野公園","lat":35.71207427,"lon":139.7712751},{"name":"上野の大仏","province":"","city":"","address":"上野公園","lat":35.71444411,"lon":139.7727649},{"name":"北村季吟墓","province":"","city":"","address":"池之端2-4-22(正慶寺内)","lat":35.71413388,"lon":139.7660253},{"name":"下谷神社","province":"","city":"","address":"東上野3-29-8","lat":35.71074465,"lon":139.7812946},{"name":"雷門","province":"","city":"","address":"浅草1(浅草寺境内)","lat":35.71120485,"lon":139.7963834},{"name":"曹源寺(かっぱ寺)","province":"","city":"","address":"松が谷3-7-2","lat":35.71533434,"lon":139.786504},{"name":"東本願寺","province":"","city":"","address":"西浅草1-5-5","lat":35.7117147,"lon":139.7895539},{"name":"利島村郷土資料館","province":"","city":"","address":"利島村248","lat":34.529991,"lon":139.278015},{"name":"陸上自衛隊三宿駐屯地","province":"東京都","city":"世田谷区","address":"世田谷区池尻1-2-24","lat":35.643947,"lon":139.683755},{"name":"陸上自衛隊十条駐屯地","province":"東京都","city":"北区","address":"北区十条台1-5-70","lat":35.757358,"lon":139.726442},{"name":"陸上自衛隊練馬駐屯地","province":"東京都","city":"練馬区","address":"練馬区北町4-1-1","lat":35.76469,"lon":139.6575},{"name":"陸上自衛隊朝霞駐屯地","province":"東京都","city":"練馬区","address":"練馬区大泉学園町","lat":35.781658,"lon":139.595161},{"name":"陸上自衛隊用賀駐屯地","province":"東京都","city":"世田谷区","address":"世田谷区上用賀1-20-1","lat":35.633422,"lon":139.637491},{"name":"陸上自衛隊立川駐屯地","province":"東京都","city":"立川市","address":"立川市緑町5","lat":35.712357,"lon":139.402135},{"name":"陸上自衛隊東立川駐屯地","province":"東京都","city":"立川市","address":"立川市栄町1-2-10","lat":35.7052,"lon":139.4266},{"name":"陸上自衛隊市ヶ谷駐屯地","province":"東京都","city":"新宿区","address":"新宿区市谷本村町5-1","lat":35.693837,"lon":139.727038},{"name":"陸上自衛隊小平駐屯地","province":"東京都","city":"小平市","address":"小平市喜平町2-3-1","lat":35.72053,"lon":139.4836},{"name":"航空自衛隊府中基地","province":"東京都","city":"府中市","address":"府中市浅間町1-5-5","lat":35.67353,"lon":139.4953},{"name":"航空自衛隊横田基地","province":"東京都","city":"福生市","address":"福生市大字福生2552","lat":35.74337,"lon":139.3305},{"name":"初代川柳墓","province":"","city":"","address":"蔵前4丁目36番7号(竜宝寺内)","lat":35.70591527,"lon":139.7887445},{"name":"勝川春章墓","province":"","city":"","address":"蔵前4丁目16番16号(西福寺内)","lat":35.70353551,"lon":139.7888147},{"name":"寛永寺","province":"","city":"","address":"上野桜木1丁目14番","lat":35.72179353,"lon":139.7745046},{"name":"浅草文庫跡碑","province":"","city":"","address":"蔵前1丁目4番3号(榊神社内)","lat":35.70008591,"lon":139.789365},{"name":"鷲神社","province":"","city":"","address":"千束3丁目18番7号","lat":35.7224137,"lon":139.792013},{"name":"待乳山聖天","province":"","city":"","address":"浅草7丁目4番1号","lat":35.7173148,"lon":139.8030326},{"name":"江戸六地蔵","province":"","city":"","address":"東浅草2丁目12番13号(東禅寺内)","lat":35.72407391,"lon":139.8002925},{"name":"安藤東野墓","province":"","city":"","address":"橋場1丁目16番2号(福寿院内)","lat":35.72406483,"lon":139.806683},{"name":"妙亀塚","province":"","city":"","address":"橋場1丁目28番12号(妙亀塚公園内)","lat":35.72535454,"lon":139.8055229},{"name":"橋場のお化け地蔵","province":"","city":"","address":"橋場2丁目5番3号(松吟寺内)","lat":35.72632449,"lon":139.805803},{"name":"鳥越神社","province":"","city":"","address":"鳥越2丁目4番1号","lat":35.70198564,"lon":139.785695},{"name":"浅間神社","province":"","city":"","address":"浅草5-3-2","lat":35.71919427,"lon":139.7983128},{"name":"岡倉天心記念公園","province":"","city":"","address":"谷中5-7","lat":35.72637281,"lon":139.766555},{"name":"山岡鉄舟墓","province":"","city":"","address":"谷中5-4-7(全生庵内)","lat":35.72413302,"lon":139.766875},{"name":"三遊亭円朝墓","province":"","city":"","address":"谷中5-4-7(全生庵内)","lat":35.72413302,"lon":139.766875},{"name":"大久保主水墓","province":"","city":"","address":"谷中4-2-5(瑞輪寺内)","lat":35.72314316,"lon":139.767865},{"name":"鈴木春信碑","province":"","city":"","address":"谷中3-1-2(大円寺内)","lat":35.72464291,"lon":139.7657051},{"name":"蒲生君平墓","province":"","city":"","address":"谷中1-4-13(臨江寺内)","lat":35.72006336,"lon":139.7664151},{"name":"太宰春台墓","province":"","city":"","address":"谷中1-2-14(天眼寺内)","lat":35.71872351,"lon":139.7670951},{"name":"子規庵","province":"","city":"","address":"根岸2-5-11","lat":35.72448339,"lon":139.7763844},{"name":"葛飾北斎墓","province":"","city":"","address":"元浅草4-6-9(誓教寺内)","lat":35.70972485,"lon":139.7855144},{"name":"中村不折旧宅（書道博物館）","province":"","city":"","address":"根岸2-10-4","lat":35.72464337,"lon":139.7762944},{"name":"浄名院八万四千体地蔵","province":"","city":"","address":"上野桜木2-6-4(浄名院内)","lat":35.72238346,"lon":139.7734047},{"name":"入谷鬼子母神","province":"","city":"","address":"下谷1-12-16(真源寺内)","lat":35.71975389,"lon":139.782834},{"name":"小野照崎神社","province":"","city":"","address":"下谷2-13-14","lat":35.72200377,"lon":139.7836639},{"name":"飛不動","province":"","city":"","address":"竜泉3-11-11(正宝院内)","lat":35.72423348,"lon":139.7919428},{"name":"浅草寺","province":"","city":"","address":"浅草2-3-1","lat":35.71467453,"lon":139.7968231},{"name":"浅草神社","province":"","city":"","address":"浅草2-3-1","lat":35.71505453,"lon":139.797523},{"name":"伝法院","province":"","city":"","address":"浅草2-3-1(浅草寺境内)","lat":35.71329464,"lon":139.7953633},{"name":"玉川兄弟の墓","province":"","city":"","address":"松が谷2-3-3(聖徳寺内)","lat":35.71278457,"lon":139.7866941},{"name":"旧寛永寺五重塔","province":"","city":"","address":"上野公園(動物園内)","lat":35.71570398,"lon":139.7717649},{"name":"上野東照宮","province":"","city":"","address":"上野公園","lat":35.71531397,"lon":139.770695},{"name":"表慶館","province":"","city":"","address":"上野公園(博物館内)","lat":35.7187038,"lon":139.7752946},{"name":"清水観音堂","province":"","city":"","address":"上野公園","lat":35.71265429,"lon":139.7735549},{"name":"旧東京音楽学校奏楽堂","province":"","city":"","address":"上野公園","lat":35.71796381,"lon":139.7732448},{"name":"徳川慶喜墓","province":"","city":"","address":"谷中7(谷中墓地内)","lat":35.72340333,"lon":139.7719247},{"name":"西郷隆盛像","province":"","city":"","address":"上野公園","lat":35.71162439,"lon":139.7740049},{"name":"谷中天王寺五重塔跡","province":"","city":"","address":"谷中7(谷中墓地内)","lat":35.72519314,"lon":139.7708948},{"name":"不忍弁天堂","province":"","city":"","address":"上野公園","lat":35.71207427,"lon":139.7712751},{"name":"上野の大仏","province":"","city":"","address":"上野公園","lat":35.71444411,"lon":139.7727649},{"name":"北村季吟墓","province":"","city":"","address":"池之端2-4-22(正慶寺内)","lat":35.71413388,"lon":139.7660253},{"name":"下谷神社","province":"","city":"","address":"東上野3-29-8","lat":35.71074465,"lon":139.7812946},{"name":"雷門","province":"","city":"","address":"浅草1(浅草寺境内)","lat":35.71120485,"lon":139.7963834},{"name":"曹源寺(かっぱ寺)","province":"","city":"","address":"松が谷3-7-2","lat":35.71533434,"lon":139.786504},{"name":"東本願寺","province":"","city":"","address":"西浅草1-5-5","lat":35.7117147,"lon":139.7895539},{"name":"利島村郷土資料館","province":"","city":"","address":"利島村248","lat":34.529991,"lon":139.278015},{"name":"陸上自衛隊三宿駐屯地","province":"東京都","city":"世田谷区","address":"世田谷区池尻1-2-24","lat":35.643947,"lon":139.683755},{"name":"陸上自衛隊十条駐屯地","province":"東京都","city":"北区","address":"北区十条台1-5-70","lat":35.757358,"lon":139.726442},{"name":"陸上自衛隊練馬駐屯地","province":"東京都","city":"練馬区","address":"練馬区北町4-1-1","lat":35.76469,"lon":139.6575},{"name":"陸上自衛隊朝霞駐屯地","province":"東京都","city":"練馬区","address":"練馬区大泉学園町","lat":35.781658,"lon":139.595161},{"name":"陸上自衛隊用賀駐屯地","province":"東京都","city":"世田谷区","address":"世田谷区上用賀1-20-1","lat":35.633422,"lon":139.637491},{"name":"陸上自衛隊立川駐屯地","province":"東京都","city":"立川市","address":"立川市緑町5","lat":35.712357,"lon":139.402135},{"name":"陸上自衛隊東立川駐屯地","province":"東京都","city":"立川市","address":"立川市栄町1-2-10","lat":35.7052,"lon":139.4266},{"name":"陸上自衛隊市ヶ谷駐屯地","province":"東京都","city":"新宿区","address":"新宿区市谷本村町5-1","lat":35.693837,"lon":139.727038},{"name":"陸上自衛隊小平駐屯地","province":"東京都","city":"小平市","address":"小平市喜平町2-3-1","lat":35.72053,"lon":139.4836},{"name":"航空自衛隊府中基地","province":"東京都","city":"府中市","address":"府中市浅間町1-5-5","lat":35.67353,"lon":139.4953},{"name":"航空自衛隊横田基地","province":"東京都","city":"福生市","address":"福生市大字福生2552","lat":35.74337,"lon":139.3305},{"name":"初代川柳墓","province":"","city":"","address":"蔵前4丁目36番7号(竜宝寺内)","lat":35.70591527,"lon":139.7887445},{"name":"勝川春章墓","province":"","city":"","address":"蔵前4丁目16番16号(西福寺内)","lat":35.70353551,"lon":139.7888147},{"name":"寛永寺","province":"","city":"","address":"上野桜木1丁目14番","lat":35.72179353,"lon":139.7745046},{"name":"浅草文庫跡碑","province":"","city":"","address":"蔵前1丁目4番3号(榊神社内)","lat":35.70008591,"lon":139.789365},{"name":"鷲神社","province":"","city":"","address":"千束3丁目18番7号","lat":35.7224137,"lon":139.792013},{"name":"待乳山聖天","province":"","city":"","address":"浅草7丁目4番1号","lat":35.7173148,"lon":139.8030326},{"name":"江戸六地蔵","province":"","city":"","address":"東浅草2丁目12番13号(東禅寺内)","lat":35.72407391,"lon":139.8002925},{"name":"安藤東野墓","province":"","city":"","address":"橋場1丁目16番2号(福寿院内)","lat":35.72406483,"lon":139.806683},{"name":"妙亀塚","province":"","city":"","address":"橋場1丁目28番12号(妙亀塚公園内)","lat":35.72535454,"lon":139.8055229},{"name":"橋場のお化け地蔵","province":"","city":"","address":"橋場2丁目5番3号(松吟寺内)","lat":35.72632449,"lon":139.805803},{"name":"鳥越神社","province":"","city":"","address":"鳥越2丁目4番1号","lat":35.70198564,"lon":139.785695},{"name":"浅間神社","province":"","city":"","address":"浅草5-3-2","lat":35.71919427,"lon":139.7983128},{"name":"岡倉天心記念公園","province":"","city":"","address":"谷中5-7","lat":35.72637281,"lon":139.766555},{"name":"山岡鉄舟墓","province":"","city":"","address":"谷中5-4-7(全生庵内)","lat":35.72413302,"lon":139.766875},{"name":"三遊亭円朝墓","province":"","city":"","address":"谷中5-4-7(全生庵内)","lat":35.72413302,"lon":139.766875},{"name":"大久保主水墓","province":"","city":"","address":"谷中4-2-5(瑞輪寺内)","lat":35.72314316,"lon":139.767865},{"name":"鈴木春信碑","province":"","city":"","address":"谷中3-1-2(大円寺内)","lat":35.72464291,"lon":139.7657051},{"name":"蒲生君平墓","province":"","city":"","address":"谷中1-4-13(臨江寺内)","lat":35.72006336,"lon":139.7664151},{"name":"太宰春台墓","province":"","city":"","address":"谷中1-2-14(天眼寺内)","lat":35.71872351,"lon":139.7670951},{"name":"子規庵","province":"","city":"","address":"根岸2-5-11","lat":35.72448339,"lon":139.7763844},{"name":"葛飾北斎墓","province":"","city":"","address":"元浅草4-6-9(誓教寺内)","lat":35.70972485,"lon":139.7855144},{"name":"中村不折旧宅（書道博物館）","province":"","city":"","address":"根岸2-10-4","lat":35.72464337,"lon":139.7762944},{"name":"浄名院八万四千体地蔵","province":"","city":"","address":"上野桜木2-6-4(浄名院内)","lat":35.72238346,"lon":139.7734047},{"name":"入谷鬼子母神","province":"","city":"","address":"下谷1-12-16(真源寺内)","lat":35.71975389,"lon":139.782834},{"name":"小野照崎神社","province":"","city":"","address":"下谷2-13-14","lat":35.72200377,"lon":139.7836639},{"name":"飛不動","province":"","city":"","address":"竜泉3-11-11(正宝院内)","lat":35.72423348,"lon":139.7919428},{"name":"浅草寺","province":"","city":"","address":"浅草2-3-1","lat":35.71467453,"lon":139.7968231},{"name":"浅草神社","province":"","city":"","address":"浅草2-3-1","lat":35.71505453,"lon":139.797523},{"name":"伝法院","province":"","city":"","address":"浅草2-3-1(浅草寺境内)","lat":35.71329464,"lon":139.7953633},{"name":"玉川兄弟の墓","province":"","city":"","address":"松が谷2-3-3(聖徳寺内)","lat":35.71278457,"lon":139.7866941},{"name":"旧寛永寺五重塔","province":"","city":"","address":"上野公園(動物園内)","lat":35.71570398,"lon":139.7717649},{"name":"上野東照宮","province":"","city":"","address":"上野公園","lat":35.71531397,"lon":139.770695},{"name":"表慶館","province":"","city":"","address":"上野公園(博物館内)","lat":35.7187038,"lon":139.7752946},{"name":"清水観音堂","province":"","city":"","address":"上野公園","lat":35.71265429,"lon":139.7735549},{"name":"旧東京音楽学校奏楽堂","province":"","city":"","address":"上野公園","lat":35.71796381,"lon":139.7732448},{"name":"徳川慶喜墓","province":"","city":"","address":"谷中7(谷中墓地内)","lat":35.72340333,"lon":139.7719247},{"name":"西郷隆盛像","province":"","city":"","address":"上野公園","lat":35.71162439,"lon":139.7740049},{"name":"谷中天王寺五重塔跡","province":"","city":"","address":"谷中7(谷中墓地内)","lat":35.72519314,"lon":139.7708948},{"name":"不忍弁天堂","province":"","city":"","address":"上野公園","lat":35.71207427,"lon":139.7712751},{"name":"上野の大仏","province":"","city":"","address":"上野公園","lat":35.71444411,"lon":139.7727649},{"name":"北村季吟墓","province":"","city":"","address":"池之端2-4-22(正慶寺内)","lat":35.71413388,"lon":139.7660253},{"name":"下谷神社","province":"","city":"","address":"東上野3-29-8","lat":35.71074465,"lon":139.7812946},{"name":"雷門","province":"","city":"","address":"浅草1(浅草寺境内)","lat":35.71120485,"lon":139.7963834},{"name":"曹源寺(かっぱ寺)","province":"","city":"","address":"松が谷3-7-2","lat":35.71533434,"lon":139.786504},{"name":"東本願寺","province":"","city":"","address":"西浅草1-5-5","lat":35.7117147,"lon":139.7895539},{"name":"利島村郷土資料館","province":"","city":"","address":"利島村248","lat":34.529991,"lon":139.278015},{"name":"陸上自衛隊三宿駐屯地","province":"東京都","city":"世田谷区","address":"世田谷区池尻1-2-24","lat":35.643947,"lon":139.683755},{"name":"陸上自衛隊十条駐屯地","province":"東京都","city":"北区","address":"北区十条台1-5-70","lat":35.757358,"lon":139.726442},{"name":"陸上自衛隊練馬駐屯地","province":"東京都","city":"練馬区","address":"練馬区北町4-1-1","lat":35.76469,"lon":139.6575},{"name":"陸上自衛隊朝霞駐屯地","province":"東京都","city":"練馬区","address":"練馬区大泉学園町","lat":35.781658,"lon":139.595161},{"name":"陸上自衛隊用賀駐屯地","province":"東京都","city":"世田谷区","address":"世田谷区上用賀1-20-1","lat":35.633422,"lon":139.637491},{"name":"陸上自衛隊立川駐屯地","province":"東京都","city":"立川市","address":"立川市緑町5","lat":35.712357,"lon":139.402135},{"name":"陸上自衛隊東立川駐屯地","province":"東京都","city":"立川市","address":"立川市栄町1-2-10","lat":35.7052,"lon":139.4266},{"name":"陸上自衛隊市ヶ谷駐屯地","province":"東京都","city":"新宿区","address":"新宿区市谷本村町5-1","lat":35.693837,"lon":139.727038},{"name":"陸上自衛隊小平駐屯地","province":"東京都","city":"小平市","address":"小平市喜平町2-3-1","lat":35.72053,"lon":139.4836},{"name":"航空自衛隊府中基地","province":"東京都","city":"府中市","address":"府中市浅間町1-5-5","lat":35.67353,"lon":139.4953},{"name":"航空自衛隊横田基地","province":"東京都","city":"福生市","address":"福生市大字福生2552","lat":35.74337,"lon":139.3305},{"name":"初代川柳墓","province":"","city":"","address":"蔵前4丁目36番7号(竜宝寺内)","lat":35.70591527,"lon":139.7887445},{"name":"勝川春章墓","province":"","city":"","address":"蔵前4丁目16番16号(西福寺内)","lat":35.70353551,"lon":139.7888147},{"name":"寛永寺","province":"","city":"","address":"上野桜木1丁目14番","lat":35.72179353,"lon":139.7745046},{"name":"浅草文庫跡碑","province":"","city":"","address":"蔵前1丁目4番3号(榊神社内)","lat":35.70008591,"lon":139.789365},{"name":"鷲神社","province":"","city":"","address":"千束3丁目18番7号","lat":35.7224137,"lon":139.792013},{"name":"待乳山聖天","province":"","city":"","address":"浅草7丁目4番1号","lat":35.7173148,"lon":139.8030326},{"name":"江戸六地蔵","province":"","city":"","address":"東浅草2丁目12番13号(東禅寺内)","lat":35.72407391,"lon":139.8002925},{"name":"安藤東野墓","province":"","city":"","address":"橋場1丁目16番2号(福寿院内)","lat":35.72406483,"lon":139.806683},{"name":"妙亀塚","province":"","city":"","address":"橋場1丁目28番12号(妙亀塚公園内)","lat":35.72535454,"lon":139.8055229},{"name":"橋場のお化け地蔵","province":"","city":"","address":"橋場2丁目5番3号(松吟寺内)","lat":35.72632449,"lon":139.805803},{"name":"鳥越神社","province":"","city":"","address":"鳥越2丁目4番1号","lat":35.70198564,"lon":139.785695},{"name":"浅間神社","province":"","city":"","address":"浅草5-3-2","lat":35.71919427,"lon":139.7983128},{"name":"岡倉天心記念公園","province":"","city":"","address":"谷中5-7","lat":35.72637281,"lon":139.766555},{"name":"山岡鉄舟墓","province":"","city":"","address":"谷中5-4-7(全生庵内)","lat":35.72413302,"lon":139.766875},{"name":"三遊亭円朝墓","province":"","city":"","address":"谷中5-4-7(全生庵内)","lat":35.72413302,"lon":139.766875},{"name":"大久保主水墓","province":"","city":"","address":"谷中4-2-5(瑞輪寺内)","lat":35.72314316,"lon":139.767865},{"name":"鈴木春信碑","province":"","city":"","address":"谷中3-1-2(大円寺内)","lat":35.72464291,"lon":139.7657051},{"name":"蒲生君平墓","province":"","city":"","address":"谷中1-4-13(臨江寺内)","lat":35.72006336,"lon":139.7664151},{"name":"太宰春台墓","province":"","city":"","address":"谷中1-2-14(天眼寺内)","lat":35.71872351,"lon":139.7670951},{"name":"子規庵","province":"","city":"","address":"根岸2-5-11","lat":35.72448339,"lon":139.7763844},{"name":"葛飾北斎墓","province":"","city":"","address":"元浅草4-6-9(誓教寺内)","lat":35.70972485,"lon":139.7855144},{"name":"中村不折旧宅（書道博物館）","province":"","city":"","address":"根岸2-10-4","lat":35.72464337,"lon":139.7762944},{"name":"浄名院八万四千体地蔵","province":"","city":"","address":"上野桜木2-6-4(浄名院内)","lat":35.72238346,"lon":139.7734047},{"name":"入谷鬼子母神","province":"","city":"","address":"下谷1-12-16(真源寺内)","lat":35.71975389,"lon":139.782834},{"name":"小野照崎神社","province":"","city":"","address":"下谷2-13-14","lat":35.72200377,"lon":139.7836639},{"name":"飛不動","province":"","city":"","address":"竜泉3-11-11(正宝院内)","lat":35.72423348,"lon":139.7919428},{"name":"浅草寺","province":"","city":"","address":"浅草2-3-1","lat":35.71467453,"lon":139.7968231},{"name":"浅草神社","province":"","city":"","address":"浅草2-3-1","lat":35.71505453,"lon":139.797523},{"name":"伝法院","province":"","city":"","address":"浅草2-3-1(浅草寺境内)","lat":35.71329464,"lon":139.7953633},{"name":"玉川兄弟の墓","province":"","city":"","address":"松が谷2-3-3(聖徳寺内)","lat":35.71278457,"lon":139.7866941},{"name":"旧寛永寺五重塔","province":"","city":"","address":"上野公園(動物園内)","lat":35.71570398,"lon":139.7717649},{"name":"上野東照宮","province":"","city":"","address":"上野公園","lat":35.71531397,"lon":139.770695},{"name":"表慶館","province":"","city":"","address":"上野公園(博物館内)","lat":35.7187038,"lon":139.7752946},{"name":"清水観音堂","province":"","city":"","address":"上野公園","lat":35.71265429,"lon":139.7735549},{"name":"旧東京音楽学校奏楽堂","province":"","city":"","address":"上野公園","lat":35.71796381,"lon":139.7732448},{"name":"徳川慶喜墓","province":"","city":"","address":"谷中7(谷中墓地内)","lat":35.72340333,"lon":139.7719247},{"name":"西郷隆盛像","province":"","city":"","address":"上野公園","lat":35.71162439,"lon":139.7740049},{"name":"谷中天王寺五重塔跡","province":"","city":"","address":"谷中7(谷中墓地内)","lat":35.72519314,"lon":139.7708948},{"name":"不忍弁天堂","province":"","city":"","address":"上野公園","lat":35.71207427,"lon":139.7712751},{"name":"上野の大仏","province":"","city":"","address":"上野公園","lat":35.71444411,"lon":139.7727649},{"name":"北村季吟墓","province":"","city":"","address":"池之端2-4-22(正慶寺内)","lat":35.71413388,"lon":139.7660253},{"name":"下谷神社","province":"","city":"","address":"東上野3-29-8","lat":35.71074465,"lon":139.7812946},{"name":"雷門","province":"","city":"","address":"浅草1(浅草寺境内)","lat":35.71120485,"lon":139.7963834},{"name":"曹源寺(かっぱ寺)","province":"","city":"","address":"松が谷3-7-2","lat":35.71533434,"lon":139.786504},{"name":"東本願寺","province":"","city":"","address":"西浅草1-5-5","lat":35.7117147,"lon":139.7895539},{"name":"利島村郷土資料館","province":"","city":"","address":"利島村248","lat":34.529991,"lon":139.278015},{"name":"陸上自衛隊三宿駐屯地","province":"東京都","city":"世田谷区","address":"世田谷区池尻1-2-24","lat":35.643947,"lon":139.683755},{"name":"陸上自衛隊十条駐屯地","province":"東京都","city":"北区","address":"北区十条台1-5-70","lat":35.757358,"lon":139.726442},{"name":"陸上自衛隊練馬駐屯地","province":"東京都","city":"練馬区","address":"練馬区北町4-1-1","lat":35.76469,"lon":139.6575},{"name":"陸上自衛隊朝霞駐屯地","province":"東京都","city":"練馬区","address":"練馬区大泉学園町","lat":35.781658,"lon":139.595161},{"name":"陸上自衛隊用賀駐屯地","province":"東京都","city":"世田谷区","address":"世田谷区上用賀1-20-1","lat":35.633422,"lon":139.637491},{"name":"陸上自衛隊立川駐屯地","province":"東京都","city":"立川市","address":"立川市緑町5","lat":35.712357,"lon":139.402135},{"name":"陸上自衛隊東立川駐屯地","province":"東京都","city":"立川市","address":"立川市栄町1-2-10","lat":35.7052,"lon":139.4266},{"name":"陸上自衛隊市ヶ谷駐屯地","province":"東京都","city":"新宿区","address":"新宿区市谷本村町5-1","lat":35.693837,"lon":139.727038},{"name":"陸上自衛隊小平駐屯地","province":"東京都","city":"小平市","address":"小平市喜平町2-3-1","lat":35.72053,"lon":139.4836},{"name":"航空自衛隊府中基地","province":"東京都","city":"府中市","address":"府中市浅間町1-5-5","lat":35.67353,"lon":139.4953},{"name":"航空自衛隊横田基地","province":"東京都","city":"福生市","address":"福生市大字福生2552","lat":35.74337,"lon":139.3305},{"name":"初代川柳墓","province":"","city":"","address":"蔵前4丁目36番7号(竜宝寺内)","lat":35.70591527,"lon":139.7887445},{"name":"勝川春章墓","province":"","city":"","address":"蔵前4丁目16番16号(西福寺内)","lat":35.70353551,"lon":139.7888147},{"name":"寛永寺","province":"","city":"","address":"上野桜木1丁目14番","lat":35.72179353,"lon":139.7745046},{"name":"浅草文庫跡碑","province":"","city":"","address":"蔵前1丁目4番3号(榊神社内)","lat":35.70008591,"lon":139.789365},{"name":"鷲神社","province":"","city":"","address":"千束3丁目18番7号","lat":35.7224137,"lon":139.792013},{"name":"待乳山聖天","province":"","city":"","address":"浅草7丁目4番1号","lat":35.7173148,"lon":139.8030326},{"name":"江戸六地蔵","province":"","city":"","address":"東浅草2丁目12番13号(東禅寺内)","lat":35.72407391,"lon":139.8002925},{"name":"安藤東野墓","province":"","city":"","address":"橋場1丁目16番2号(福寿院内)","lat":35.72406483,"lon":139.806683},{"name":"妙亀塚","province":"","city":"","address":"橋場1丁目28番12号(妙亀塚公園内)","lat":35.72535454,"lon":139.8055229},{"name":"橋場のお化け地蔵","province":"","city":"","address":"橋場2丁目5番3号(松吟寺内)","lat":35.72632449,"lon":139.805803},{"name":"鳥越神社","province":"","city":"","address":"鳥越2丁目4番1号","lat":35.70198564,"lon":139.785695},{"name":"浅間神社","province":"","city":"","address":"浅草5-3-2","lat":35.71919427,"lon":139.7983128},{"name":"岡倉天心記念公園","province":"","city":"","address":"谷中5-7","lat":35.72637281,"lon":139.766555},{"name":"山岡鉄舟墓","province":"","city":"","address":"谷中5-4-7(全生庵内)","lat":35.72413302,"lon":139.766875},{"name":"三遊亭円朝墓","province":"","city":"","address":"谷中5-4-7(全生庵内)","lat":35.72413302,"lon":139.766875},{"name":"大久保主水墓","province":"","city":"","address":"谷中4-2-5(瑞輪寺内)","lat":35.72314316,"lon":139.767865},{"name":"鈴木春信碑","province":"","city":"","address":"谷中3-1-2(大円寺内)","lat":35.72464291,"lon":139.7657051},{"name":"蒲生君平墓","province":"","city":"","address":"谷中1-4-13(臨江寺内)","lat":35.72006336,"lon":139.7664151},{"name":"太宰春台墓","province":"","city":"","address":"谷中1-2-14(天眼寺内)","lat":35.71872351,"lon":139.7670951},{"name":"子規庵","province":"","city":"","address":"根岸2-5-11","lat":35.72448339,"lon":139.7763844},{"name":"葛飾北斎墓","province":"","city":"","address":"元浅草4-6-9(誓教寺内)","lat":35.70972485,"lon":139.7855144},{"name":"中村不折旧宅（書道博物館）","province":"","city":"","address":"根岸2-10-4","lat":35.72464337,"lon":139.7762944},{"name":"浄名院八万四千体地蔵","province":"","city":"","address":"上野桜木2-6-4(浄名院内)","lat":35.72238346,"lon":139.7734047},{"name":"入谷鬼子母神","province":"","city":"","address":"下谷1-12-16(真源寺内)","lat":35.71975389,"lon":139.782834},{"name":"小野照崎神社","province":"","city":"","address":"下谷2-13-14","lat":35.72200377,"lon":139.7836639},{"name":"飛不動","province":"","city":"","address":"竜泉3-11-11(正宝院内)","lat":35.72423348,"lon":139.7919428},{"name":"浅草寺","province":"","city":"","address":"浅草2-3-1","lat":35.71467453,"lon":139.7968231},{"name":"浅草神社","province":"","city":"","address":"浅草2-3-1","lat":35.71505453,"lon":139.797523},{"name":"伝法院","province":"","city":"","address":"浅草2-3-1(浅草寺境内)","lat":35.71329464,"lon":139.7953633},{"name":"玉川兄弟の墓","province":"","city":"","address":"松が谷2-3-3(聖徳寺内)","lat":35.71278457,"lon":139.7866941},{"name":"旧寛永寺五重塔","province":"","city":"","address":"上野公園(動物園内)","lat":35.71570398,"lon":139.7717649},{"name":"上野東照宮","province":"","city":"","address":"上野公園","lat":35.71531397,"lon":139.770695},{"name":"表慶館","province":"","city":"","address":"上野公園(博物館内)","lat":35.7187038,"lon":139.7752946},{"name":"清水観音堂","province":"","city":"","address":"上野公園","lat":35.71265429,"lon":139.7735549},{"name":"旧東京音楽学校奏楽堂","province":"","city":"","address":"上野公園","lat":35.71796381,"lon":139.7732448},{"name":"徳川慶喜墓","province":"","city":"","address":"谷中7(谷中墓地内)","lat":35.72340333,"lon":139.7719247},{"name":"西郷隆盛像","province":"","city":"","address":"上野公園","lat":35.71162439,"lon":139.7740049},{"name":"谷中天王寺五重塔跡","province":"","city":"","address":"谷中7(谷中墓地内)","lat":35.72519314,"lon":139.7708948},{"name":"不忍弁天堂","province":"","city":"","address":"上野公園","lat":35.71207427,"lon":139.7712751},{"name":"上野の大仏","province":"","city":"","address":"上野公園","lat":35.71444411,"lon":139.7727649},{"name":"北村季吟墓","province":"","city":"","address":"池之端2-4-22(正慶寺内)","lat":35.71413388,"lon":139.7660253},{"name":"下谷神社","province":"","city":"","address":"東上野3-29-8","lat":35.71074465,"lon":139.7812946},{"name":"雷門","province":"","city":"","address":"浅草1(浅草寺境内)","lat":35.71120485,"lon":139.7963834},{"name":"曹源寺(かっぱ寺)","province":"","city":"","address":"松が谷3-7-2","lat":35.71533434,"lon":139.786504},{"name":"東本願寺","province":"","city":"","address":"西浅草1-5-5","lat":35.7117147,"lon":139.7895539},{"name":"利島村郷土資料館","province":"","city":"","address":"利島村248","lat":34.529991,"lon":139.278015},{"name":"陸上自衛隊三宿駐屯地","province":"東京都","city":"世田谷区","address":"世田谷区池尻1-2-24","lat":35.643947,"lon":139.683755},{"name":"陸上自衛隊十条駐屯地","province":"東京都","city":"北区","address":"北区十条台1-5-70","lat":35.757358,"lon":139.726442},{"name":"陸上自衛隊練馬駐屯地","province":"東京都","city":"練馬区","address":"練馬区北町4-1-1","lat":35.76469,"lon":139.6575},{"name":"陸上自衛隊朝霞駐屯地","province":"東京都","city":"練馬区","address":"練馬区大泉学園町","lat":35.781658,"lon":139.595161},{"name":"陸上自衛隊用賀駐屯地","province":"東京都","city":"世田谷区","address":"世田谷区上用賀1-20-1","lat":35.633422,"lon":139.637491},{"name":"陸上自衛隊立川駐屯地","province":"東京都","city":"立川市","address":"立川市緑町5","lat":35.712357,"lon":139.402135},{"name":"陸上自衛隊東立川駐屯地","province":"東京都","city":"立川市","address":"立川市栄町1-2-10","lat":35.7052,"lon":139.4266},{"name":"陸上自衛隊市ヶ谷駐屯地","province":"東京都","city":"新宿区","address":"新宿区市谷本村町5-1","lat":35.693837,"lon":139.727038},{"name":"陸上自衛隊小平駐屯地","province":"東京都","city":"小平市","address":"小平市喜平町2-3-1","lat":35.72053,"lon":139.4836},{"name":"航空自衛隊府中基地","province":"東京都","city":"府中市","address":"府中市浅間町1-5-5","lat":35.67353,"lon":139.4953},{"name":"航空自衛隊横田基地","province":"東京都","city":"福生市","address":"福生市大字福生2552","lat":35.74337,"lon":139.3305},{"name":"初代川柳墓","province":"","city":"","address":"蔵前4丁目36番7号(竜宝寺内)","lat":35.70591527,"lon":139.7887445},{"name":"勝川春章墓","province":"","city":"","address":"蔵前4丁目16番16号(西福寺内)","lat":35.70353551,"lon":139.7888147},{"name":"寛永寺","province":"","city":"","address":"上野桜木1丁目14番","lat":35.72179353,"lon":139.7745046},{"name":"浅草文庫跡碑","province":"","city":"","address":"蔵前1丁目4番3号(榊神社内)","lat":35.70008591,"lon":139.789365},{"name":"鷲神社","province":"","city":"","address":"千束3丁目18番7号","lat":35.7224137,"lon":139.792013},{"name":"待乳山聖天","province":"","city":"","address":"浅草7丁目4番1号","lat":35.7173148,"lon":139.8030326},{"name":"江戸六地蔵","province":"","city":"","address":"東浅草2丁目12番13号(東禅寺内)","lat":35.72407391,"lon":139.8002925},{"name":"安藤東野墓","province":"","city":"","address":"橋場1丁目16番2号(福寿院内)","lat":35.72406483,"lon":139.806683},{"name":"妙亀塚","province":"","city":"","address":"橋場1丁目28番12号(妙亀塚公園内)","lat":35.72535454,"lon":139.8055229},{"name":"橋場のお化け地蔵","province":"","city":"","address":"橋場2丁目5番3号(松吟寺内)","lat":35.72632449,"lon":139.805803},{"name":"鳥越神社","province":"","city":"","address":"鳥越2丁目4番1号","lat":35.70198564,"lon":139.785695},{"name":"浅間神社","province":"","city":"","address":"浅草5-3-2","lat":35.71919427,"lon":139.7983128},{"name":"岡倉天心記念公園","province":"","city":"","address":"谷中5-7","lat":35.72637281,"lon":139.766555},{"name":"山岡鉄舟墓","province":"","city":"","address":"谷中5-4-7(全生庵内)","lat":35.72413302,"lon":139.766875},{"name":"三遊亭円朝墓","province":"","city":"","address":"谷中5-4-7(全生庵内)","lat":35.72413302,"lon":139.766875},{"name":"大久保主水墓","province":"","city":"","address":"谷中4-2-5(瑞輪寺内)","lat":35.72314316,"lon":139.767865},{"name":"鈴木春信碑","province":"","city":"","address":"谷中3-1-2(大円寺内)","lat":35.72464291,"lon":139.7657051},{"name":"蒲生君平墓","province":"","city":"","address":"谷中1-4-13(臨江寺内)","lat":35.72006336,"lon":139.7664151},{"name":"太宰春台墓","province":"","city":"","address":"谷中1-2-14(天眼寺内)","lat":35.71872351,"lon":139.7670951},{"name":"子規庵","province":"","city":"","address":"根岸2-5-11","lat":35.72448339,"lon":139.7763844},{"name":"葛飾北斎墓","province":"","city":"","address":"元浅草4-6-9(誓教寺内)","lat":35.70972485,"lon":139.7855144},{"name":"中村不折旧宅（書道博物館）","province":"","city":"","address":"根岸2-10-4","lat":35.72464337,"lon":139.7762944},{"name":"浄名院八万四千体地蔵","province":"","city":"","address":"上野桜木2-6-4(浄名院内)","lat":35.72238346,"lon":139.7734047},{"name":"入谷鬼子母神","province":"","city":"","address":"下谷1-12-16(真源寺内)","lat":35.71975389,"lon":139.782834},{"name":"小野照崎神社","province":"","city":"","address":"下谷2-13-14","lat":35.72200377,"lon":139.7836639},{"name":"飛不動","province":"","city":"","address":"竜泉3-11-11(正宝院内)","lat":35.72423348,"lon":139.7919428},{"name":"浅草寺","province":"","city":"","address":"浅草2-3-1","lat":35.71467453,"lon":139.7968231},{"name":"浅草神社","province":"","city":"","address":"浅草2-3-1","lat":35.71505453,"lon":139.797523},{"name":"伝法院","province":"","city":"","address":"浅草2-3-1(浅草寺境内)","lat":35.71329464,"lon":139.7953633},{"name":"玉川兄弟の墓","province":"","city":"","address":"松が谷2-3-3(聖徳寺内)","lat":35.71278457,"lon":139.7866941},{"name":"旧寛永寺五重塔","province":"","city":"","address":"上野公園(動物園内)","lat":35.71570398,"lon":139.7717649},{"name":"上野東照宮","province":"","city":"","address":"上野公園","lat":35.71531397,"lon":139.770695},{"name":"表慶館","province":"","city":"","address":"上野公園(博物館内)","lat":35.7187038,"lon":139.7752946},{"name":"清水観音堂","province":"","city":"","address":"上野公園","lat":35.71265429,"lon":139.7735549},{"name":"旧東京音楽学校奏楽堂","province":"","city":"","address":"上野公園","lat":35.71796381,"lon":139.7732448},{"name":"徳川慶喜墓","province":"","city":"","address":"谷中7(谷中墓地内)","lat":35.72340333,"lon":139.7719247},{"name":"西郷隆盛像","province":"","city":"","address":"上野公園","lat":35.71162439,"lon":139.7740049},{"name":"谷中天王寺五重塔跡","province":"","city":"","address":"谷中7(谷中墓地内)","lat":35.72519314,"lon":139.7708948},{"name":"不忍弁天堂","province":"","city":"","address":"上野公園","lat":35.71207427,"lon":139.7712751},{"name":"上野の大仏","province":"","city":"","address":"上野公園","lat":35.71444411,"lon":139.7727649},{"name":"北村季吟墓","province":"","city":"","address":"池之端2-4-22(正慶寺内)","lat":35.71413388,"lon":139.7660253},{"name":"下谷神社","province":"","city":"","address":"東上野3-29-8","lat":35.71074465,"lon":139.7812946},{"name":"雷門","province":"","city":"","address":"浅草1(浅草寺境内)","lat":35.71120485,"lon":139.7963834},{"name":"曹源寺(かっぱ寺)","province":"","city":"","address":"松が谷3-7-2","lat":35.71533434,"lon":139.786504},{"name":"東本願寺","province":"","city":"","address":"西浅草1-5-5","lat":35.7117147,"lon":139.7895539},{"name":"利島村郷土資料館","province":"","city":"","address":"利島村248","lat":34.529991,"lon":139.278015},{"name":"陸上自衛隊三宿駐屯地","province":"東京都","city":"世田谷区","address":"世田谷区池尻1-2-24","lat":35.643947,"lon":139.683755},{"name":"陸上自衛隊十条駐屯地","province":"東京都","city":"北区","address":"北区十条台1-5-70","lat":35.757358,"lon":139.726442},{"name":"陸上自衛隊練馬駐屯地","province":"東京都","city":"練馬区","address":"練馬区北町4-1-1","lat":35.76469,"lon":139.6575},{"name":"陸上自衛隊朝霞駐屯地","province":"東京都","city":"練馬区","address":"練馬区大泉学園町","lat":35.781658,"lon":139.595161},{"name":"陸上自衛隊用賀駐屯地","province":"東京都","city":"世田谷区","address":"世田谷区上用賀1-20-1","lat":35.633422,"lon":139.637491},{"name":"陸上自衛隊立川駐屯地","province":"東京都","city":"立川市","address":"立川市緑町5","lat":35.712357,"lon":139.402135},{"name":"陸上自衛隊東立川駐屯地","province":"東京都","city":"立川市","address":"立川市栄町1-2-10","lat":35.7052,"lon":139.4266},{"name":"陸上自衛隊市ヶ谷駐屯地","province":"東京都","city":"新宿区","address":"新宿区市谷本村町5-1","lat":35.693837,"lon":139.727038},{"name":"陸上自衛隊小平駐屯地","province":"東京都","city":"小平市","address":"小平市喜平町2-3-1","lat":35.72053,"lon":139.4836},{"name":"航空自衛隊府中基地","province":"東京都","city":"府中市","address":"府中市浅間町1-5-5","lat":35.67353,"lon":139.4953},{"name":"航空自衛隊横田基地","province":"東京都","city":"福生市","address":"福生市大字福生2552","lat":35.74337,"lon":139.3305},{"name":"初代川柳墓","province":"","city":"","address":"蔵前4丁目36番7号(竜宝寺内)","lat":35.70591527,"lon":139.7887445},{"name":"勝川春章墓","province":"","city":"","address":"蔵前4丁目16番16号(西福寺内)","lat":35.70353551,"lon":139.7888147},{"name":"寛永寺","province":"","city":"","address":"上野桜木1丁目14番","lat":35.72179353,"lon":139.7745046},{"name":"浅草文庫跡碑","province":"","city":"","address":"蔵前1丁目4番3号(榊神社内)","lat":35.70008591,"lon":139.789365},{"name":"鷲神社","province":"","city":"","address":"千束3丁目18番7号","lat":35.7224137,"lon":139.792013},{"name":"待乳山聖天","province":"","city":"","address":"浅草7丁目4番1号","lat":35.7173148,"lon":139.8030326},{"name":"江戸六地蔵","province":"","city":"","address":"東浅草2丁目12番13号(東禅寺内)","lat":35.72407391,"lon":139.8002925},{"name":"安藤東野墓","province":"","city":"","address":"橋場1丁目16番2号(福寿院内)","lat":35.72406483,"lon":139.806683},{"name":"妙亀塚","province":"","city":"","address":"橋場1丁目28番12号(妙亀塚公園内)","lat":35.72535454,"lon":139.8055229},{"name":"橋場のお化け地蔵","province":"","city":"","address":"橋場2丁目5番3号(松吟寺内)","lat":35.72632449,"lon":139.805803},{"name":"鳥越神社","province":"","city":"","address":"鳥越2丁目4番1号","lat":35.70198564,"lon":139.785695},{"name":"浅間神社","province":"","city":"","address":"浅草5-3-2","lat":35.71919427,"lon":139.7983128},{"name":"岡倉天心記念公園","province":"","city":"","address":"谷中5-7","lat":35.72637281,"lon":139.766555},{"name":"山岡鉄舟墓","province":"","city":"","address":"谷中5-4-7(全生庵内)","lat":35.72413302,"lon":139.766875},{"name":"三遊亭円朝墓","province":"","city":"","address":"谷中5-4-7(全生庵内)","lat":35.72413302,"lon":139.766875},{"name":"大久保主水墓","province":"","city":"","address":"谷中4-2-5(瑞輪寺内)","lat":35.72314316,"lon":139.767865},{"name":"鈴木春信碑","province":"","city":"","address":"谷中3-1-2(大円寺内)","lat":35.72464291,"lon":139.7657051},{"name":"蒲生君平墓","province":"","city":"","address":"谷中1-4-13(臨江寺内)","lat":35.72006336,"lon":139.7664151},{"name":"太宰春台墓","province":"","city":"","address":"谷中1-2-14(天眼寺内)","lat":35.71872351,"lon":139.7670951},{"name":"子規庵","province":"","city":"","address":"根岸2-5-11","lat":35.72448339,"lon":139.7763844},{"name":"葛飾北斎墓","province":"","city":"","address":"元浅草4-6-9(誓教寺内)","lat":35.70972485,"lon":139.7855144},{"name":"中村不折旧宅（書道博物館）","province":"","city":"","address":"根岸2-10-4","lat":35.72464337,"lon":139.7762944},{"name":"浄名院八万四千体地蔵","province":"","city":"","address":"上野桜木2-6-4(浄名院内)","lat":35.72238346,"lon":139.7734047},{"name":"入谷鬼子母神","province":"","city":"","address":"下谷1-12-16(真源寺内)","lat":35.71975389,"lon":139.782834},{"name":"小野照崎神社","province":"","city":"","address":"下谷2-13-14","lat":35.72200377,"lon":139.7836639},{"name":"飛不動","province":"","city":"","address":"竜泉3-11-11(正宝院内)","lat":35.72423348,"lon":139.7919428},{"name":"浅草寺","province":"","city":"","address":"浅草2-3-1","lat":35.71467453,"lon":139.7968231},{"name":"浅草神社","province":"","city":"","address":"浅草2-3-1","lat":35.71505453,"lon":139.797523},{"name":"伝法院","province":"","city":"","address":"浅草2-3-1(浅草寺境内)","lat":35.71329464,"lon":139.7953633},{"name":"玉川兄弟の墓","province":"","city":"","address":"松が谷2-3-3(聖徳寺内)","lat":35.71278457,"lon":139.7866941},{"name":"旧寛永寺五重塔","province":"","city":"","address":"上野公園(動物園内)","lat":35.71570398,"lon":139.7717649},{"name":"上野東照宮","province":"","city":"","address":"上野公園","lat":35.71531397,"lon":139.770695},{"name":"表慶館","province":"","city":"","address":"上野公園(博物館内)","lat":35.7187038,"lon":139.7752946},{"name":"清水観音堂","province":"","city":"","address":"上野公園","lat":35.71265429,"lon":139.7735549},{"name":"旧東京音楽学校奏楽堂","province":"","city":"","address":"上野公園","lat":35.71796381,"lon":139.7732448},{"name":"徳川慶喜墓","province":"","city":"","address":"谷中7(谷中墓地内)","lat":35.72340333,"lon":139.7719247},{"name":"西郷隆盛像","province":"","city":"","address":"上野公園","lat":35.71162439,"lon":139.7740049},{"name":"谷中天王寺五重塔跡","province":"","city":"","address":"谷中7(谷中墓地内)","lat":35.72519314,"lon":139.7708948},{"name":"不忍弁天堂","province":"","city":"","address":"上野公園","lat":35.71207427,"lon":139.7712751},{"name":"上野の大仏","province":"","city":"","address":"上野公園","lat":35.71444411,"lon":139.7727649},{"name":"北村季吟墓","province":"","city":"","address":"池之端2-4-22(正慶寺内)","lat":35.71413388,"lon":139.7660253},{"name":"下谷神社","province":"","city":"","address":"東上野3-29-8","lat":35.71074465,"lon":139.7812946},{"name":"雷門","province":"","city":"","address":"浅草1(浅草寺境内)","lat":35.71120485,"lon":139.7963834},{"name":"曹源寺(かっぱ寺)","province":"","city":"","address":"松が谷3-7-2","lat":35.71533434,"lon":139.786504},{"name":"東本願寺","province":"","city":"","address":"西浅草1-5-5","lat":35.7117147,"lon":139.7895539},{"name":"利島村郷土資料館","province":"","city":"","address":"利島村248","lat":34.529991,"lon":139.278015},{"name":"陸上自衛隊三宿駐屯地","province":"東京都","city":"世田谷区","address":"世田谷区池尻1-2-24","lat":35.643947,"lon":139.683755},{"name":"陸上自衛隊十条駐屯地","province":"東京都","city":"北区","address":"北区十条台1-5-70","lat":35.757358,"lon":139.726442},{"name":"陸上自衛隊練馬駐屯地","province":"東京都","city":"練馬区","address":"練馬区北町4-1-1","lat":35.76469,"lon":139.6575},{"name":"陸上自衛隊朝霞駐屯地","province":"東京都","city":"練馬区","address":"練馬区大泉学園町","lat":35.781658,"lon":139.595161},{"name":"陸上自衛隊用賀駐屯地","province":"東京都","city":"世田谷区","address":"世田谷区上用賀1-20-1","lat":35.633422,"lon":139.637491},{"name":"陸上自衛隊立川駐屯地","province":"東京都","city":"立川市","address":"立川市緑町5","lat":35.712357,"lon":139.402135},{"name":"陸上自衛隊東立川駐屯地","province":"東京都","city":"立川市","address":"立川市栄町1-2-10","lat":35.7052,"lon":139.4266},{"name":"陸上自衛隊市ヶ谷駐屯地","province":"東京都","city":"新宿区","address":"新宿区市谷本村町5-1","lat":35.693837,"lon":139.727038},{"name":"陸上自衛隊小平駐屯地","province":"東京都","city":"小平市","address":"小平市喜平町2-3-1","lat":35.72053,"lon":139.4836},{"name":"航空自衛隊府中基地","province":"東京都","city":"府中市","address":"府中市浅間町1-5-5","lat":35.67353,"lon":139.4953},{"name":"航空自衛隊横田基地","province":"東京都","city":"福生市","address":"福生市大字福生2552","lat":35.74337,"lon":139.3305},{"name":"初代川柳墓","province":"","city":"","address":"蔵前4丁目36番7号(竜宝寺内)","lat":35.70591527,"lon":139.7887445},{"name":"勝川春章墓","province":"","city":"","address":"蔵前4丁目16番16号(西福寺内)","lat":35.70353551,"lon":139.7888147},{"name":"寛永寺","province":"","city":"","address":"上野桜木1丁目14番","lat":35.72179353,"lon":139.7745046},{"name":"浅草文庫跡碑","province":"","city":"","address":"蔵前1丁目4番3号(榊神社内)","lat":35.70008591,"lon":139.789365},{"name":"鷲神社","province":"","city":"","address":"千束3丁目18番7号","lat":35.7224137,"lon":139.792013},{"name":"待乳山聖天","province":"","city":"","address":"浅草7丁目4番1号","lat":35.7173148,"lon":139.8030326},{"name":"江戸六地蔵","province":"","city":"","address":"東浅草2丁目12番13号(東禅寺内)","lat":35.72407391,"lon":139.8002925},{"name":"安藤東野墓","province":"","city":"","address":"橋場1丁目16番2号(福寿院内)","lat":35.72406483,"lon":139.806683},{"name":"妙亀塚","province":"","city":"","address":"橋場1丁目28番12号(妙亀塚公園内)","lat":35.72535454,"lon":139.8055229},{"name":"橋場のお化け地蔵","province":"","city":"","address":"橋場2丁目5番3号(松吟寺内)","lat":35.72632449,"lon":139.805803},{"name":"鳥越神社","province":"","city":"","address":"鳥越2丁目4番1号","lat":35.70198564,"lon":139.785695},{"name":"浅間神社","province":"","city":"","address":"浅草5-3-2","lat":35.71919427,"lon":139.7983128},{"name":"岡倉天心記念公園","province":"","city":"","address":"谷中5-7","lat":35.72637281,"lon":139.766555},{"name":"山岡鉄舟墓","province":"","city":"","address":"谷中5-4-7(全生庵内)","lat":35.72413302,"lon":139.766875},{"name":"三遊亭円朝墓","province":"","city":"","address":"谷中5-4-7(全生庵内)","lat":35.72413302,"lon":139.766875},{"name":"大久保主水墓","province":"","city":"","address":"谷中4-2-5(瑞輪寺内)","lat":35.72314316,"lon":139.767865},{"name":"鈴木春信碑","province":"","city":"","address":"谷中3-1-2(大円寺内)","lat":35.72464291,"lon":139.7657051},{"name":"蒲生君平墓","province":"","city":"","address":"谷中1-4-13(臨江寺内)","lat":35.72006336,"lon":139.7664151},{"name":"太宰春台墓","province":"","city":"","address":"谷中1-2-14(天眼寺内)","lat":35.71872351,"lon":139.7670951},{"name":"子規庵","province":"","city":"","address":"根岸2-5-11","lat":35.72448339,"lon":139.7763844},{"name":"葛飾北斎墓","province":"","city":"","address":"元浅草4-6-9(誓教寺内)","lat":35.70972485,"lon":139.7855144},{"name":"中村不折旧宅（書道博物館）","province":"","city":"","address":"根岸2-10-4","lat":35.72464337,"lon":139.7762944},{"name":"浄名院八万四千体地蔵","province":"","city":"","address":"上野桜木2-6-4(浄名院内)","lat":35.72238346,"lon":139.7734047},{"name":"入谷鬼子母神","province":"","city":"","address":"下谷1-12-16(真源寺内)","lat":35.71975389,"lon":139.782834},{"name":"小野照崎神社","province":"","city":"","address":"下谷2-13-14","lat":35.72200377,"lon":139.7836639},{"name":"飛不動","province":"","city":"","address":"竜泉3-11-11(正宝院内)","lat":35.72423348,"lon":139.7919428},{"name":"浅草寺","province":"","city":"","address":"浅草2-3-1","lat":35.71467453,"lon":139.7968231},{"name":"浅草神社","province":"","city":"","address":"浅草2-3-1","lat":35.71505453,"lon":139.797523},{"name":"伝法院","province":"","city":"","address":"浅草2-3-1(浅草寺境内)","lat":35.71329464,"lon":139.7953633},{"name":"玉川兄弟の墓","province":"","city":"","address":"松が谷2-3-3(聖徳寺内)","lat":35.71278457,"lon":139.7866941},{"name":"旧寛永寺五重塔","province":"","city":"","address":"上野公園(動物園内)","lat":35.71570398,"lon":139.7717649},{"name":"上野東照宮","province":"","city":"","address":"上野公園","lat":35.71531397,"lon":139.770695},{"name":"表慶館","province":"","city":"","address":"上野公園(博物館内)","lat":35.7187038,"lon":139.7752946},{"name":"清水観音堂","province":"","city":"","address":"上野公園","lat":35.71265429,"lon":139.7735549},{"name":"旧東京音楽学校奏楽堂","province":"","city":"","address":"上野公園","lat":35.71796381,"lon":139.7732448},{"name":"徳川慶喜墓","province":"","city":"","address":"谷中7(谷中墓地内)","lat":35.72340333,"lon":139.7719247},{"name":"西郷隆盛像","province":"","city":"","address":"上野公園","lat":35.71162439,"lon":139.7740049},{"name":"谷中天王寺五重塔跡","province":"","city":"","address":"谷中7(谷中墓地内)","lat":35.72519314,"lon":139.7708948},{"name":"不忍弁天堂","province":"","city":"","address":"上野公園","lat":35.71207427,"lon":139.7712751},{"name":"上野の大仏","province":"","city":"","address":"上野公園","lat":35.71444411,"lon":139.7727649},{"name":"北村季吟墓","province":"","city":"","address":"池之端2-4-22(正慶寺内)","lat":35.71413388,"lon":139.7660253},{"name":"下谷神社","province":"","city":"","address":"東上野3-29-8","lat":35.71074465,"lon":139.7812946},{"name":"雷門","province":"","city":"","address":"浅草1(浅草寺境内)","lat":35.71120485,"lon":139.7963834},{"name":"曹源寺(かっぱ寺)","province":"","city":"","address":"松が谷3-7-2","lat":35.71533434,"lon":139.786504},{"name":"東本願寺","province":"","city":"","address":"西浅草1-5-5","lat":35.7117147,"lon":139.7895539},{"name":"利島村郷土資料館","province":"","city":"","address":"利島村248","lat":34.529991,"lon":139.278015},{"name":"初代川柳墓","province":"","city":"","address":"蔵前4丁目36番7号(竜宝寺内)","lat":35.70591527,"lon":139.7887445},{"name":"勝川春章墓","province":"","city":"","address":"蔵前4丁目16番16号(西福寺内)","lat":35.70353551,"lon":139.7888147},{"name":"寛永寺","province":"","city":"","address":"上野桜木1丁目14番","lat":35.72179353,"lon":139.7745046},{"name":"浅草文庫跡碑","province":"","city":"","address":"蔵前1丁目4番3号(榊神社内)","lat":35.70008591,"lon":139.789365},{"name":"鷲神社","province":"","city":"","address":"千束3丁目18番7号","lat":35.7224137,"lon":139.792013},{"name":"待乳山聖天","province":"","city":"","address":"浅草7丁目4番1号","lat":35.7173148,"lon":139.8030326},{"name":"江戸六地蔵","province":"","city":"","address":"東浅草2丁目12番13号(東禅寺内)","lat":35.72407391,"lon":139.8002925},{"name":"安藤東野墓","province":"","city":"","address":"橋場1丁目16番2号(福寿院内)","lat":35.72406483,"lon":139.806683},{"name":"妙亀塚","province":"","city":"","address":"橋場1丁目28番12号(妙亀塚公園内)","lat":35.72535454,"lon":139.8055229},{"name":"橋場のお化け地蔵","province":"","city":"","address":"橋場2丁目5番3号(松吟寺内)","lat":35.72632449,"lon":139.805803},{"name":"鳥越神社","province":"","city":"","address":"鳥越2丁目4番1号","lat":35.70198564,"lon":139.785695},{"name":"浅間神社","province":"","city":"","address":"浅草5-3-2","lat":35.71919427,"lon":139.7983128},{"name":"岡倉天心記念公園","province":"","city":"","address":"谷中5-7","lat":35.72637281,"lon":139.766555},{"name":"山岡鉄舟墓","province":"","city":"","address":"谷中5-4-7(全生庵内)","lat":35.72413302,"lon":139.766875},{"name":"三遊亭円朝墓","province":"","city":"","address":"谷中5-4-7(全生庵内)","lat":35.72413302,"lon":139.766875},{"name":"大久保主水墓","province":"","city":"","address":"谷中4-2-5(瑞輪寺内)","lat":35.72314316,"lon":139.767865},{"name":"鈴木春信碑","province":"","city":"","address":"谷中3-1-2(大円寺内)","lat":35.72464291,"lon":139.7657051},{"name":"蒲生君平墓","province":"","city":"","address":"谷中1-4-13(臨江寺内)","lat":35.72006336,"lon":139.7664151},{"name":"太宰春台墓","province":"","city":"","address":"谷中1-2-14(天眼寺内)","lat":35.71872351,"lon":139.7670951},{"name":"子規庵","province":"","city":"","address":"根岸2-5-11","lat":35.72448339,"lon":139.7763844},{"name":"葛飾北斎墓","province":"","city":"","address":"元浅草4-6-9(誓教寺内)","lat":35.70972485,"lon":139.7855144},{"name":"中村不折旧宅（書道博物館）","province":"","city":"","address":"根岸2-10-4","lat":35.72464337,"lon":139.7762944},{"name":"浄名院八万四千体地蔵","province":"","city":"","address":"上野桜木2-6-4(浄名院内)","lat":35.72238346,"lon":139.7734047},{"name":"入谷鬼子母神","province":"","city":"","address":"下谷1-12-16(真源寺内)","lat":35.71975389,"lon":139.782834},{"name":"小野照崎神社","province":"","city":"","address":"下谷2-13-14","lat":35.72200377,"lon":139.7836639},{"name":"飛不動","province":"","city":"","address":"竜泉3-11-11(正宝院内)","lat":35.72423348,"lon":139.7919428},{"name":"浅草寺","province":"","city":"","address":"浅草2-3-1","lat":35.71467453,"lon":139.7968231},{"name":"浅草神社","province":"","city":"","address":"浅草2-3-1","lat":35.71505453,"lon":139.797523},{"name":"伝法院","province":"","city":"","address":"浅草2-3-1(浅草寺境内)","lat":35.71329464,"lon":139.7953633},{"name":"玉川兄弟の墓","province":"","city":"","address":"松が谷2-3-3(聖徳寺内)","lat":35.71278457,"lon":139.7866941},{"name":"旧寛永寺五重塔","province":"","city":"","address":"上野公園(動物園内)","lat":35.71570398,"lon":139.7717649},{"name":"上野東照宮","province":"","city":"","address":"上野公園","lat":35.71531397,"lon":139.770695},{"name":"表慶館","province":"","city":"","address":"上野公園(博物館内)","lat":35.7187038,"lon":139.7752946},{"name":"清水観音堂","province":"","city":"","address":"上野公園","lat":35.71265429,"lon":139.7735549},{"name":"旧東京音楽学校奏楽堂","province":"","city":"","address":"上野公園","lat":35.71796381,"lon":139.7732448},{"name":"徳川慶喜墓","province":"","city":"","address":"谷中7(谷中墓地内)","lat":35.72340333,"lon":139.7719247},{"name":"西郷隆盛像","province":"","city":"","address":"上野公園","lat":35.71162439,"lon":139.7740049},{"name":"谷中天王寺五重塔跡","province":"","city":"","address":"谷中7(谷中墓地内)","lat":35.72519314,"lon":139.7708948},{"name":"不忍弁天堂","province":"","city":"","address":"上野公園","lat":35.71207427,"lon":139.7712751},{"name":"上野の大仏","province":"","city":"","address":"上野公園","lat":35.71444411,"lon":139.7727649},{"name":"北村季吟墓","province":"","city":"","address":"池之端2-4-22(正慶寺内)","lat":35.71413388,"lon":139.7660253},{"name":"下谷神社","province":"","city":"","address":"東上野3-29-8","lat":35.71074465,"lon":139.7812946},{"name":"雷門","province":"","city":"","address":"浅草1(浅草寺境内)","lat":35.71120485,"lon":139.7963834},{"name":"曹源寺(かっぱ寺)","province":"","city":"","address":"松が谷3-7-2","lat":35.71533434,"lon":139.786504},{"name":"東本願寺","province":"","city":"","address":"西浅草1-5-5","lat":35.7117147,"lon":139.7895539},{"name":"利島村郷土資料館","province":"","city":"","address":"利島村248","lat":34.529991,"lon":139.278015},{"name":"初代川柳墓","province":"","city":"","address":"蔵前4丁目36番7号(竜宝寺内)","lat":35.70591527,"lon":139.7887445},{"name":"勝川春章墓","province":"","city":"","address":"蔵前4丁目16番16号(西福寺内)","lat":35.70353551,"lon":139.7888147},{"name":"寛永寺","province":"","city":"","address":"上野桜木1丁目14番","lat":35.72179353,"lon":139.7745046},{"name":"浅草文庫跡碑","province":"","city":"","address":"蔵前1丁目4番3号(榊神社内)","lat":35.70008591,"lon":139.789365},{"name":"鷲神社","province":"","city":"","address":"千束3丁目18番7号","lat":35.7224137,"lon":139.792013},{"name":"待乳山聖天","province":"","city":"","address":"浅草7丁目4番1号","lat":35.7173148,"lon":139.8030326},{"name":"江戸六地蔵","province":"","city":"","address":"東浅草2丁目12番13号(東禅寺内)","lat":35.72407391,"lon":139.8002925},{"name":"安藤東野墓","province":"","city":"","address":"橋場1丁目16番2号(福寿院内)","lat":35.72406483,"lon":139.806683},{"name":"妙亀塚","province":"","city":"","address":"橋場1丁目28番12号(妙亀塚公園内)","lat":35.72535454,"lon":139.8055229},{"name":"橋場のお化け地蔵","province":"","city":"","address":"橋場2丁目5番3号(松吟寺内)","lat":35.72632449,"lon":139.805803},{"name":"鳥越神社","province":"","city":"","address":"鳥越2丁目4番1号","lat":35.70198564,"lon":139.785695},{"name":"浅間神社","province":"","city":"","address":"浅草5-3-2","lat":35.71919427,"lon":139.7983128},{"name":"岡倉天心記念公園","province":"","city":"","address":"谷中5-7","lat":35.72637281,"lon":139.766555},{"name":"山岡鉄舟墓","province":"","city":"","address":"谷中5-4-7(全生庵内)","lat":35.72413302,"lon":139.766875},{"name":"三遊亭円朝墓","province":"","city":"","address":"谷中5-4-7(全生庵内)","lat":35.72413302,"lon":139.766875},{"name":"大久保主水墓","province":"","city":"","address":"谷中4-2-5(瑞輪寺内)","lat":35.72314316,"lon":139.767865},{"name":"鈴木春信碑","province":"","city":"","address":"谷中3-1-2(大円寺内)","lat":35.72464291,"lon":139.7657051},{"name":"蒲生君平墓","province":"","city":"","address":"谷中1-4-13(臨江寺内)","lat":35.72006336,"lon":139.7664151},{"name":"太宰春台墓","province":"","city":"","address":"谷中1-2-14(天眼寺内)","lat":35.71872351,"lon":139.7670951},{"name":"子規庵","province":"","city":"","address":"根岸2-5-11","lat":35.72448339,"lon":139.7763844},{"name":"葛飾北斎墓","province":"","city":"","address":"元浅草4-6-9(誓教寺内)","lat":35.70972485,"lon":139.7855144},{"name":"中村不折旧宅（書道博物館）","province":"","city":"","address":"根岸2-10-4","lat":35.72464337,"lon":139.7762944},{"name":"浄名院八万四千体地蔵","province":"","city":"","address":"上野桜木2-6-4(浄名院内)","lat":35.72238346,"lon":139.7734047},{"name":"入谷鬼子母神","province":"","city":"","address":"下谷1-12-16(真源寺内)","lat":35.71975389,"lon":139.782834},{"name":"小野照崎神社","province":"","city":"","address":"下谷2-13-14","lat":35.72200377,"lon":139.7836639},{"name":"飛不動","province":"","city":"","address":"竜泉3-11-11(正宝院内)","lat":35.72423348,"lon":139.7919428},{"name":"浅草寺","province":"","city":"","address":"浅草2-3-1","lat":35.71467453,"lon":139.7968231},{"name":"浅草神社","province":"","city":"","address":"浅草2-3-1","lat":35.71505453,"lon":139.797523},{"name":"伝法院","province":"","city":"","address":"浅草2-3-1(浅草寺境内)","lat":35.71329464,"lon":139.7953633},{"name":"玉川兄弟の墓","province":"","city":"","address":"松が谷2-3-3(聖徳寺内)","lat":35.71278457,"lon":139.7866941},{"name":"旧寛永寺五重塔","province":"","city":"","address":"上野公園(動物園内)","lat":35.71570398,"lon":139.7717649},{"name":"上野東照宮","province":"","city":"","address":"上野公園","lat":35.71531397,"lon":139.770695},{"name":"表慶館","province":"","city":"","address":"上野公園(博物館内)","lat":35.7187038,"lon":139.7752946},{"name":"清水観音堂","province":"","city":"","address":"上野公園","lat":35.71265429,"lon":139.7735549},{"name":"旧東京音楽学校奏楽堂","province":"","city":"","address":"上野公園","lat":35.71796381,"lon":139.7732448},{"name":"徳川慶喜墓","province":"","city":"","address":"谷中7(谷中墓地内)","lat":35.72340333,"lon":139.7719247},{"name":"西郷隆盛像","province":"","city":"","address":"上野公園","lat":35.71162439,"lon":139.7740049},{"name":"谷中天王寺五重塔跡","province":"","city":"","address":"谷中7(谷中墓地内)","lat":35.72519314,"lon":139.7708948},{"name":"不忍弁天堂","province":"","city":"","address":"上野公園","lat":35.71207427,"lon":139.7712751},{"name":"上野の大仏","province":"","city":"","address":"上野公園","lat":35.71444411,"lon":139.7727649},{"name":"北村季吟墓","province":"","city":"","address":"池之端2-4-22(正慶寺内)","lat":35.71413388,"lon":139.7660253},{"name":"下谷神社","province":"","city":"","address":"東上野3-29-8","lat":35.71074465,"lon":139.7812946},{"name":"雷門","province":"","city":"","address":"浅草1(浅草寺境内)","lat":35.71120485,"lon":139.7963834},{"name":"曹源寺(かっぱ寺)","province":"","city":"","address":"松が谷3-7-2","lat":35.71533434,"lon":139.786504},{"name":"東本願寺","province":"","city":"","address":"西浅草1-5-5","lat":35.7117147,"lon":139.7895539},{"name":"利島村郷土資料館","province":"","city":"","address":"利島村248","lat":34.529991,"lon":139.278015},{"name":"初代川柳墓","province":"","city":"","address":"蔵前4丁目36番7号(竜宝寺内)","lat":35.70591527,"lon":139.7887445},{"name":"勝川春章墓","province":"","city":"","address":"蔵前4丁目16番16号(西福寺内)","lat":35.70353551,"lon":139.7888147},{"name":"寛永寺","province":"","city":"","address":"上野桜木1丁目14番","lat":35.72179353,"lon":139.7745046},{"name":"浅草文庫跡碑","province":"","city":"","address":"蔵前1丁目4番3号(榊神社内)","lat":35.70008591,"lon":139.789365},{"name":"鷲神社","province":"","city":"","address":"千束3丁目18番7号","lat":35.7224137,"lon":139.792013},{"name":"待乳山聖天","province":"","city":"","address":"浅草7丁目4番1号","lat":35.7173148,"lon":139.8030326},{"name":"江戸六地蔵","province":"","city":"","address":"東浅草2丁目12番13号(東禅寺内)","lat":35.72407391,"lon":139.8002925},{"name":"安藤東野墓","province":"","city":"","address":"橋場1丁目16番2号(福寿院内)","lat":35.72406483,"lon":139.806683},{"name":"妙亀塚","province":"","city":"","address":"橋場1丁目28番12号(妙亀塚公園内)","lat":35.72535454,"lon":139.8055229},{"name":"橋場のお化け地蔵","province":"","city":"","address":"橋場2丁目5番3号(松吟寺内)","lat":35.72632449,"lon":139.805803},{"name":"鳥越神社","province":"","city":"","address":"鳥越2丁目4番1号","lat":35.70198564,"lon":139.785695},{"name":"浅間神社","province":"","city":"","address":"浅草5-3-2","lat":35.71919427,"lon":139.7983128},{"name":"岡倉天心記念公園","province":"","city":"","address":"谷中5-7","lat":35.72637281,"lon":139.766555},{"name":"山岡鉄舟墓","province":"","city":"","address":"谷中5-4-7(全生庵内)","lat":35.72413302,"lon":139.766875},{"name":"三遊亭円朝墓","province":"","city":"","address":"谷中5-4-7(全生庵内)","lat":35.72413302,"lon":139.766875},{"name":"大久保主水墓","province":"","city":"","address":"谷中4-2-5(瑞輪寺内)","lat":35.72314316,"lon":139.767865},{"name":"鈴木春信碑","province":"","city":"","address":"谷中3-1-2(大円寺内)","lat":35.72464291,"lon":139.7657051},{"name":"蒲生君平墓","province":"","city":"","address":"谷中1-4-13(臨江寺内)","lat":35.72006336,"lon":139.7664151},{"name":"太宰春台墓","province":"","city":"","address":"谷中1-2-14(天眼寺内)","lat":35.71872351,"lon":139.7670951},{"name":"子規庵","province":"","city":"","address":"根岸2-5-11","lat":35.72448339,"lon":139.7763844},{"name":"葛飾北斎墓","province":"","city":"","address":"元浅草4-6-9(誓教寺内)","lat":35.70972485,"lon":139.7855144},{"name":"中村不折旧宅（書道博物館）","province":"","city":"","address":"根岸2-10-4","lat":35.72464337,"lon":139.7762944},{"name":"浄名院八万四千体地蔵","province":"","city":"","address":"上野桜木2-6-4(浄名院内)","lat":35.72238346,"lon":139.7734047},{"name":"入谷鬼子母神","province":"","city":"","address":"下谷1-12-16(真源寺内)","lat":35.71975389,"lon":139.782834},{"name":"小野照崎神社","province":"","city":"","address":"下谷2-13-14","lat":35.72200377,"lon":139.7836639},{"name":"飛不動","province":"","city":"","address":"竜泉3-11-11(正宝院内)","lat":35.72423348,"lon":139.7919428},{"name":"浅草寺","province":"","city":"","address":"浅草2-3-1","lat":35.71467453,"lon":139.7968231},{"name":"浅草神社","province":"","city":"","address":"浅草2-3-1","lat":35.71505453,"lon":139.797523},{"name":"伝法院","province":"","city":"","address":"浅草2-3-1(浅草寺境内)","lat":35.71329464,"lon":139.7953633},{"name":"玉川兄弟の墓","province":"","city":"","address":"松が谷2-3-3(聖徳寺内)","lat":35.71278457,"lon":139.7866941},{"name":"旧寛永寺五重塔","province":"","city":"","address":"上野公園(動物園内)","lat":35.71570398,"lon":139.7717649},{"name":"上野東照宮","province":"","city":"","address":"上野公園","lat":35.71531397,"lon":139.770695},{"name":"表慶館","province":"","city":"","address":"上野公園(博物館内)","lat":35.7187038,"lon":139.7752946},{"name":"清水観音堂","province":"","city":"","address":"上野公園","lat":35.71265429,"lon":139.7735549},{"name":"旧東京音楽学校奏楽堂","province":"","city":"","address":"上野公園","lat":35.71796381,"lon":139.7732448},{"name":"徳川慶喜墓","province":"","city":"","address":"谷中7(谷中墓地内)","lat":35.72340333,"lon":139.7719247},{"name":"西郷隆盛像","province":"","city":"","address":"上野公園","lat":35.71162439,"lon":139.7740049},{"name":"谷中天王寺五重塔跡","province":"","city":"","address":"谷中7(谷中墓地内)","lat":35.72519314,"lon":139.7708948},{"name":"不忍弁天堂","province":"","city":"","address":"上野公園","lat":35.71207427,"lon":139.7712751},{"name":"上野の大仏","province":"","city":"","address":"上野公園","lat":35.71444411,"lon":139.7727649},{"name":"北村季吟墓","province":"","city":"","address":"池之端2-4-22(正慶寺内)","lat":35.71413388,"lon":139.7660253},{"name":"下谷神社","province":"","city":"","address":"東上野3-29-8","lat":35.71074465,"lon":139.7812946},{"name":"雷門","province":"","city":"","address":"浅草1(浅草寺境内)","lat":35.71120485,"lon":139.7963834},{"name":"曹源寺(かっぱ寺)","province":"","city":"","address":"松が谷3-7-2","lat":35.71533434,"lon":139.786504},{"name":"東本願寺","province":"","city":"","address":"西浅草1-5-5","lat":35.7117147,"lon":139.7895539},{"name":"利島村郷土資料館","province":"","city":"","address":"利島村248","lat":34.529991,"lon":139.278015},{"name":"初代川柳墓","province":"","city":"","address":"蔵前4丁目36番7号(竜宝寺内)","lat":35.70591527,"lon":139.7887445},{"name":"勝川春章墓","province":"","city":"","address":"蔵前4丁目16番16号(西福寺内)","lat":35.70353551,"lon":139.7888147},{"name":"寛永寺","province":"","city":"","address":"上野桜木1丁目14番","lat":35.72179353,"lon":139.7745046},{"name":"浅草文庫跡碑","province":"","city":"","address":"蔵前1丁目4番3号(榊神社内)","lat":35.70008591,"lon":139.789365},{"name":"鷲神社","province":"","city":"","address":"千束3丁目18番7号","lat":35.7224137,"lon":139.792013},{"name":"待乳山聖天","province":"","city":"","address":"浅草7丁目4番1号","lat":35.7173148,"lon":139.8030326},{"name":"江戸六地蔵","province":"","city":"","address":"東浅草2丁目12番13号(東禅寺内)","lat":35.72407391,"lon":139.8002925},{"name":"安藤東野墓","province":"","city":"","address":"橋場1丁目16番2号(福寿院内)","lat":35.72406483,"lon":139.806683},{"name":"妙亀塚","province":"","city":"","address":"橋場1丁目28番12号(妙亀塚公園内)","lat":35.72535454,"lon":139.8055229},{"name":"橋場のお化け地蔵","province":"","city":"","address":"橋場2丁目5番3号(松吟寺内)","lat":35.72632449,"lon":139.805803},{"name":"鳥越神社","province":"","city":"","address":"鳥越2丁目4番1号","lat":35.70198564,"lon":139.785695},{"name":"浅間神社","province":"","city":"","address":"浅草5-3-2","lat":35.71919427,"lon":139.7983128},{"name":"岡倉天心記念公園","province":"","city":"","address":"谷中5-7","lat":35.72637281,"lon":139.766555},{"name":"山岡鉄舟墓","province":"","city":"","address":"谷中5-4-7(全生庵内)","lat":35.72413302,"lon":139.766875},{"name":"三遊亭円朝墓","province":"","city":"","address":"谷中5-4-7(全生庵内)","lat":35.72413302,"lon":139.766875},{"name":"大久保主水墓","province":"","city":"","address":"谷中4-2-5(瑞輪寺内)","lat":35.72314316,"lon":139.767865},{"name":"鈴木春信碑","province":"","city":"","address":"谷中3-1-2(大円寺内)","lat":35.72464291,"lon":139.7657051},{"name":"蒲生君平墓","province":"","city":"","address":"谷中1-4-13(臨江寺内)","lat":35.72006336,"lon":139.7664151},{"name":"太宰春台墓","province":"","city":"","address":"谷中1-2-14(天眼寺内)","lat":35.71872351,"lon":139.7670951},{"name":"子規庵","province":"","city":"","address":"根岸2-5-11","lat":35.72448339,"lon":139.7763844},{"name":"葛飾北斎墓","province":"","city":"","address":"元浅草4-6-9(誓教寺内)","lat":35.70972485,"lon":139.7855144},{"name":"中村不折旧宅（書道博物館）","province":"","city":"","address":"根岸2-10-4","lat":35.72464337,"lon":139.7762944},{"name":"浄名院八万四千体地蔵","province":"","city":"","address":"上野桜木2-6-4(浄名院内)","lat":35.72238346,"lon":139.7734047},{"name":"入谷鬼子母神","province":"","city":"","address":"下谷1-12-16(真源寺内)","lat":35.71975389,"lon":139.782834},{"name":"小野照崎神社","province":"","city":"","address":"下谷2-13-14","lat":35.72200377,"lon":139.7836639},{"name":"飛不動","province":"","city":"","address":"竜泉3-11-11(正宝院内)","lat":35.72423348,"lon":139.7919428},{"name":"浅草寺","province":"","city":"","address":"浅草2-3-1","lat":35.71467453,"lon":139.7968231},{"name":"浅草神社","province":"","city":"","address":"浅草2-3-1","lat":35.71505453,"lon":139.797523},{"name":"伝法院","province":"","city":"","address":"浅草2-3-1(浅草寺境内)","lat":35.71329464,"lon":139.7953633},{"name":"玉川兄弟の墓","province":"","city":"","address":"松が谷2-3-3(聖徳寺内)","lat":35.71278457,"lon":139.7866941},{"name":"旧寛永寺五重塔","province":"","city":"","address":"上野公園(動物園内)","lat":35.71570398,"lon":139.7717649},{"name":"上野東照宮","province":"","city":"","address":"上野公園","lat":35.71531397,"lon":139.770695},{"name":"表慶館","province":"","city":"","address":"上野公園(博物館内)","lat":35.7187038,"lon":139.7752946},{"name":"清水観音堂","province":"","city":"","address":"上野公園","lat":35.71265429,"lon":139.7735549},{"name":"旧東京音楽学校奏楽堂","province":"","city":"","address":"上野公園","lat":35.71796381,"lon":139.7732448},{"name":"徳川慶喜墓","province":"","city":"","address":"谷中7(谷中墓地内)","lat":35.72340333,"lon":139.7719247},{"name":"西郷隆盛像","province":"","city":"","address":"上野公園","lat":35.71162439,"lon":139.7740049},{"name":"谷中天王寺五重塔跡","province":"","city":"","address":"谷中7(谷中墓地内)","lat":35.72519314,"lon":139.7708948},{"name":"不忍弁天堂","province":"","city":"","address":"上野公園","lat":35.71207427,"lon":139.7712751},{"name":"上野の大仏","province":"","city":"","address":"上野公園","lat":35.71444411,"lon":139.7727649},{"name":"北村季吟墓","province":"","city":"","address":"池之端2-4-22(正慶寺内)","lat":35.71413388,"lon":139.7660253},{"name":"下谷神社","province":"","city":"","address":"東上野3-29-8","lat":35.71074465,"lon":139.7812946},{"name":"雷門","province":"","city":"","address":"浅草1(浅草寺境内)","lat":35.71120485,"lon":139.7963834},{"name":"曹源寺(かっぱ寺)","province":"","city":"","address":"松が谷3-7-2","lat":35.71533434,"lon":139.786504},{"name":"東本願寺","province":"","city":"","address":"西浅草1-5-5","lat":35.7117147,"lon":139.7895539},{"name":"利島村郷土資料館","province":"","city":"","address":"利島村248","lat":34.529991,"lon":139.278015},{"name":"初代川柳墓","province":"","city":"","address":"蔵前4丁目36番7号(竜宝寺内)","lat":35.70591527,"lon":139.7887445},{"name":"勝川春章墓","province":"","city":"","address":"蔵前4丁目16番16号(西福寺内)","lat":35.70353551,"lon":139.7888147},{"name":"寛永寺","province":"","city":"","address":"上野桜木1丁目14番","lat":35.72179353,"lon":139.7745046},{"name":"浅草文庫跡碑","province":"","city":"","address":"蔵前1丁目4番3号(榊神社内)","lat":35.70008591,"lon":139.789365},{"name":"鷲神社","province":"","city":"","address":"千束3丁目18番7号","lat":35.7224137,"lon":139.792013},{"name":"待乳山聖天","province":"","city":"","address":"浅草7丁目4番1号","lat":35.7173148,"lon":139.8030326},{"name":"江戸六地蔵","province":"","city":"","address":"東浅草2丁目12番13号(東禅寺内)","lat":35.72407391,"lon":139.8002925},{"name":"安藤東野墓","province":"","city":"","address":"橋場1丁目16番2号(福寿院内)","lat":35.72406483,"lon":139.806683},{"name":"妙亀塚","province":"","city":"","address":"橋場1丁目28番12号(妙亀塚公園内)","lat":35.72535454,"lon":139.8055229},{"name":"橋場のお化け地蔵","province":"","city":"","address":"橋場2丁目5番3号(松吟寺内)","lat":35.72632449,"lon":139.805803},{"name":"鳥越神社","province":"","city":"","address":"鳥越2丁目4番1号","lat":35.70198564,"lon":139.785695},{"name":"浅間神社","province":"","city":"","address":"浅草5-3-2","lat":35.71919427,"lon":139.7983128},{"name":"岡倉天心記念公園","province":"","city":"","address":"谷中5-7","lat":35.72637281,"lon":139.766555},{"name":"山岡鉄舟墓","province":"","city":"","address":"谷中5-4-7(全生庵内)","lat":35.72413302,"lon":139.766875},{"name":"三遊亭円朝墓","province":"","city":"","address":"谷中5-4-7(全生庵内)","lat":35.72413302,"lon":139.766875},{"name":"大久保主水墓","province":"","city":"","address":"谷中4-2-5(瑞輪寺内)","lat":35.72314316,"lon":139.767865},{"name":"鈴木春信碑","province":"","city":"","address":"谷中3-1-2(大円寺内)","lat":35.72464291,"lon":139.7657051},{"name":"蒲生君平墓","province":"","city":"","address":"谷中1-4-13(臨江寺内)","lat":35.72006336,"lon":139.7664151},{"name":"太宰春台墓","province":"","city":"","address":"谷中1-2-14(天眼寺内)","lat":35.71872351,"lon":139.7670951},{"name":"子規庵","province":"","city":"","address":"根岸2-5-11","lat":35.72448339,"lon":139.7763844},{"name":"葛飾北斎墓","province":"","city":"","address":"元浅草4-6-9(誓教寺内)","lat":35.70972485,"lon":139.7855144},{"name":"中村不折旧宅（書道博物館）","province":"","city":"","address":"根岸2-10-4","lat":35.72464337,"lon":139.7762944},{"name":"浄名院八万四千体地蔵","province":"","city":"","address":"上野桜木2-6-4(浄名院内)","lat":35.72238346,"lon":139.7734047},{"name":"入谷鬼子母神","province":"","city":"","address":"下谷1-12-16(真源寺内)","lat":35.71975389,"lon":139.782834},{"name":"小野照崎神社","province":"","city":"","address":"下谷2-13-14","lat":35.72200377,"lon":139.7836639},{"name":"飛不動","province":"","city":"","address":"竜泉3-11-11(正宝院内)","lat":35.72423348,"lon":139.7919428},{"name":"浅草寺","province":"","city":"","address":"浅草2-3-1","lat":35.71467453,"lon":139.7968231},{"name":"浅草神社","province":"","city":"","address":"浅草2-3-1","lat":35.71505453,"lon":139.797523},{"name":"伝法院","province":"","city":"","address":"浅草2-3-1(浅草寺境内)","lat":35.71329464,"lon":139.7953633},{"name":"玉川兄弟の墓","province":"","city":"","address":"松が谷2-3-3(聖徳寺内)","lat":35.71278457,"lon":139.7866941},{"name":"旧寛永寺五重塔","province":"","city":"","address":"上野公園(動物園内)","lat":35.71570398,"lon":139.7717649},{"name":"上野東照宮","province":"","city":"","address":"上野公園","lat":35.71531397,"lon":139.770695},{"name":"表慶館","province":"","city":"","address":"上野公園(博物館内)","lat":35.7187038,"lon":139.7752946},{"name":"清水観音堂","province":"","city":"","address":"上野公園","lat":35.71265429,"lon":139.7735549},{"name":"旧東京音楽学校奏楽堂","province":"","city":"","address":"上野公園","lat":35.71796381,"lon":139.7732448},{"name":"徳川慶喜墓","province":"","city":"","address":"谷中7(谷中墓地内)","lat":35.72340333,"lon":139.7719247},{"name":"西郷隆盛像","province":"","city":"","address":"上野公園","lat":35.71162439,"lon":139.7740049},{"name":"谷中天王寺五重塔跡","province":"","city":"","address":"谷中7(谷中墓地内)","lat":35.72519314,"lon":139.7708948},{"name":"不忍弁天堂","province":"","city":"","address":"上野公園","lat":35.71207427,"lon":139.7712751},{"name":"上野の大仏","province":"","city":"","address":"上野公園","lat":35.71444411,"lon":139.7727649},{"name":"北村季吟墓","province":"","city":"","address":"池之端2-4-22(正慶寺内)","lat":35.71413388,"lon":139.7660253},{"name":"下谷神社","province":"","city":"","address":"東上野3-29-8","lat":35.71074465,"lon":139.7812946},{"name":"雷門","province":"","city":"","address":"浅草1(浅草寺境内)","lat":35.71120485,"lon":139.7963834},{"name":"曹源寺(かっぱ寺)","province":"","city":"","address":"松が谷3-7-2","lat":35.71533434,"lon":139.786504},{"name":"東本願寺","province":"","city":"","address":"西浅草1-5-5","lat":35.7117147,"lon":139.7895539},{"name":"利島村郷土資料館","province":"","city":"","address":"利島村248","lat":34.529991,"lon":139.278015},{"name":"初代川柳墓","province":"","city":"","address":"蔵前4丁目36番7号(竜宝寺内)","lat":35.70591527,"lon":139.7887445},{"name":"勝川春章墓","province":"","city":"","address":"蔵前4丁目16番16号(西福寺内)","lat":35.70353551,"lon":139.7888147},{"name":"寛永寺","province":"","city":"","address":"上野桜木1丁目14番","lat":35.72179353,"lon":139.7745046},{"name":"浅草文庫跡碑","province":"","city":"","address":"蔵前1丁目4番3号(榊神社内)","lat":35.70008591,"lon":139.789365},{"name":"鷲神社","province":"","city":"","address":"千束3丁目18番7号","lat":35.7224137,"lon":139.792013},{"name":"待乳山聖天","province":"","city":"","address":"浅草7丁目4番1号","lat":35.7173148,"lon":139.8030326},{"name":"江戸六地蔵","province":"","city":"","address":"東浅草2丁目12番13号(東禅寺内)","lat":35.72407391,"lon":139.8002925},{"name":"安藤東野墓","province":"","city":"","address":"橋場1丁目16番2号(福寿院内)","lat":35.72406483,"lon":139.806683},{"name":"妙亀塚","province":"","city":"","address":"橋場1丁目28番12号(妙亀塚公園内)","lat":35.72535454,"lon":139.8055229},{"name":"橋場のお化け地蔵","province":"","city":"","address":"橋場2丁目5番3号(松吟寺内)","lat":35.72632449,"lon":139.805803},{"name":"鳥越神社","province":"","city":"","address":"鳥越2丁目4番1号","lat":35.70198564,"lon":139.785695},{"name":"浅間神社","province":"","city":"","address":"浅草5-3-2","lat":35.71919427,"lon":139.7983128},{"name":"岡倉天心記念公園","province":"","city":"","address":"谷中5-7","lat":35.72637281,"lon":139.766555},{"name":"山岡鉄舟墓","province":"","city":"","address":"谷中5-4-7(全生庵内)","lat":35.72413302,"lon":139.766875},{"name":"三遊亭円朝墓","province":"","city":"","address":"谷中5-4-7(全生庵内)","lat":35.72413302,"lon":139.766875},{"name":"大久保主水墓","province":"","city":"","address":"谷中4-2-5(瑞輪寺内)","lat":35.72314316,"lon":139.767865},{"name":"鈴木春信碑","province":"","city":"","address":"谷中3-1-2(大円寺内)","lat":35.72464291,"lon":139.7657051},{"name":"蒲生君平墓","province":"","city":"","address":"谷中1-4-13(臨江寺内)","lat":35.72006336,"lon":139.7664151},{"name":"太宰春台墓","province":"","city":"","address":"谷中1-2-14(天眼寺内)","lat":35.71872351,"lon":139.7670951},{"name":"子規庵","province":"","city":"","address":"根岸2-5-11","lat":35.72448339,"lon":139.7763844},{"name":"葛飾北斎墓","province":"","city":"","address":"元浅草4-6-9(誓教寺内)","lat":35.70972485,"lon":139.7855144},{"name":"中村不折旧宅（書道博物館）","province":"","city":"","address":"根岸2-10-4","lat":35.72464337,"lon":139.7762944},{"name":"浄名院八万四千体地蔵","province":"","city":"","address":"上野桜木2-6-4(浄名院内)","lat":35.72238346,"lon":139.7734047},{"name":"入谷鬼子母神","province":"","city":"","address":"下谷1-12-16(真源寺内)","lat":35.71975389,"lon":139.782834},{"name":"小野照崎神社","province":"","city":"","address":"下谷2-13-14","lat":35.72200377,"lon":139.7836639},{"name":"飛不動","province":"","city":"","address":"竜泉3-11-11(正宝院内)","lat":35.72423348,"lon":139.7919428},{"name":"浅草寺","province":"","city":"","address":"浅草2-3-1","lat":35.71467453,"lon":139.7968231},{"name":"浅草神社","province":"","city":"","address":"浅草2-3-1","lat":35.71505453,"lon":139.797523},{"name":"伝法院","province":"","city":"","address":"浅草2-3-1(浅草寺境内)","lat":35.71329464,"lon":139.7953633},{"name":"玉川兄弟の墓","province":"","city":"","address":"松が谷2-3-3(聖徳寺内)","lat":35.71278457,"lon":139.7866941},{"name":"旧寛永寺五重塔","province":"","city":"","address":"上野公園(動物園内)","lat":35.71570398,"lon":139.7717649},{"name":"上野東照宮","province":"","city":"","address":"上野公園","lat":35.71531397,"lon":139.770695},{"name":"表慶館","province":"","city":"","address":"上野公園(博物館内)","lat":35.7187038,"lon":139.7752946},{"name":"清水観音堂","province":"","city":"","address":"上野公園","lat":35.71265429,"lon":139.7735549},{"name":"旧東京音楽学校奏楽堂","province":"","city":"","address":"上野公園","lat":35.71796381,"lon":139.7732448},{"name":"徳川慶喜墓","province":"","city":"","address":"谷中7(谷中墓地内)","lat":35.72340333,"lon":139.7719247},{"name":"西郷隆盛像","province":"","city":"","address":"上野公園","lat":35.71162439,"lon":139.7740049},{"name":"谷中天王寺五重塔跡","province":"","city":"","address":"谷中7(谷中墓地内)","lat":35.72519314,"lon":139.7708948},{"name":"不忍弁天堂","province":"","city":"","address":"上野公園","lat":35.71207427,"lon":139.7712751},{"name":"上野の大仏","province":"","city":"","address":"上野公園","lat":35.71444411,"lon":139.7727649},{"name":"北村季吟墓","province":"","city":"","address":"池之端2-4-22(正慶寺内)","lat":35.71413388,"lon":139.7660253},{"name":"下谷神社","province":"","city":"","address":"東上野3-29-8","lat":35.71074465,"lon":139.7812946},{"name":"雷門","province":"","city":"","address":"浅草1(浅草寺境内)","lat":35.71120485,"lon":139.7963834},{"name":"曹源寺(かっぱ寺)","province":"","city":"","address":"松が谷3-7-2","lat":35.71533434,"lon":139.786504},{"name":"東本願寺","province":"","city":"","address":"西浅草1-5-5","lat":35.7117147,"lon":139.7895539},{"name":"利島村郷土資料館","province":"","city":"","address":"利島村248","lat":34.529991,"lon":139.278015},{"name":"初代川柳墓","province":"","city":"","address":"蔵前4丁目36番7号(竜宝寺内)","lat":35.70591527,"lon":139.7887445},{"name":"勝川春章墓","province":"","city":"","address":"蔵前4丁目16番16号(西福寺内)","lat":35.70353551,"lon":139.7888147},{"name":"寛永寺","province":"","city":"","address":"上野桜木1丁目14番","lat":35.72179353,"lon":139.7745046},{"name":"浅草文庫跡碑","province":"","city":"","address":"蔵前1丁目4番3号(榊神社内)","lat":35.70008591,"lon":139.789365},{"name":"鷲神社","province":"","city":"","address":"千束3丁目18番7号","lat":35.7224137,"lon":139.792013},{"name":"待乳山聖天","province":"","city":"","address":"浅草7丁目4番1号","lat":35.7173148,"lon":139.8030326},{"name":"江戸六地蔵","province":"","city":"","address":"東浅草2丁目12番13号(東禅寺内)","lat":35.72407391,"lon":139.8002925},{"name":"安藤東野墓","province":"","city":"","address":"橋場1丁目16番2号(福寿院内)","lat":35.72406483,"lon":139.806683},{"name":"妙亀塚","province":"","city":"","address":"橋場1丁目28番12号(妙亀塚公園内)","lat":35.72535454,"lon":139.8055229},{"name":"橋場のお化け地蔵","province":"","city":"","address":"橋場2丁目5番3号(松吟寺内)","lat":35.72632449,"lon":139.805803},{"name":"鳥越神社","province":"","city":"","address":"鳥越2丁目4番1号","lat":35.70198564,"lon":139.785695},{"name":"浅間神社","province":"","city":"","address":"浅草5-3-2","lat":35.71919427,"lon":139.7983128},{"name":"岡倉天心記念公園","province":"","city":"","address":"谷中5-7","lat":35.72637281,"lon":139.766555},{"name":"山岡鉄舟墓","province":"","city":"","address":"谷中5-4-7(全生庵内)","lat":35.72413302,"lon":139.766875},{"name":"三遊亭円朝墓","province":"","city":"","address":"谷中5-4-7(全生庵内)","lat":35.72413302,"lon":139.766875},{"name":"大久保主水墓","province":"","city":"","address":"谷中4-2-5(瑞輪寺内)","lat":35.72314316,"lon":139.767865},{"name":"鈴木春信碑","province":"","city":"","address":"谷中3-1-2(大円寺内)","lat":35.72464291,"lon":139.7657051},{"name":"蒲生君平墓","province":"","city":"","address":"谷中1-4-13(臨江寺内)","lat":35.72006336,"lon":139.7664151},{"name":"太宰春台墓","province":"","city":"","address":"谷中1-2-14(天眼寺内)","lat":35.71872351,"lon":139.7670951},{"name":"子規庵","province":"","city":"","address":"根岸2-5-11","lat":35.72448339,"lon":139.7763844},{"name":"葛飾北斎墓","province":"","city":"","address":"元浅草4-6-9(誓教寺内)","lat":35.70972485,"lon":139.7855144},{"name":"中村不折旧宅（書道博物館）","province":"","city":"","address":"根岸2-10-4","lat":35.72464337,"lon":139.7762944},{"name":"浄名院八万四千体地蔵","province":"","city":"","address":"上野桜木2-6-4(浄名院内)","lat":35.72238346,"lon":139.7734047},{"name":"入谷鬼子母神","province":"","city":"","address":"下谷1-12-16(真源寺内)","lat":35.71975389,"lon":139.782834},{"name":"小野照崎神社","province":"","city":"","address":"下谷2-13-14","lat":35.72200377,"lon":139.7836639},{"name":"飛不動","province":"","city":"","address":"竜泉3-11-11(正宝院内)","lat":35.72423348,"lon":139.7919428},{"name":"浅草寺","province":"","city":"","address":"浅草2-3-1","lat":35.71467453,"lon":139.7968231},{"name":"浅草神社","province":"","city":"","address":"浅草2-3-1","lat":35.71505453,"lon":139.797523},{"name":"伝法院","province":"","city":"","address":"浅草2-3-1(浅草寺境内)","lat":35.71329464,"lon":139.7953633},{"name":"玉川兄弟の墓","province":"","city":"","address":"松が谷2-3-3(聖徳寺内)","lat":35.71278457,"lon":139.7866941},{"name":"旧寛永寺五重塔","province":"","city":"","address":"上野公園(動物園内)","lat":35.71570398,"lon":139.7717649},{"name":"上野東照宮","province":"","city":"","address":"上野公園","lat":35.71531397,"lon":139.770695},{"name":"表慶館","province":"","city":"","address":"上野公園(博物館内)","lat":35.7187038,"lon":139.7752946},{"name":"清水観音堂","province":"","city":"","address":"上野公園","lat":35.71265429,"lon":139.7735549},{"name":"旧東京音楽学校奏楽堂","province":"","city":"","address":"上野公園","lat":35.71796381,"lon":139.7732448},{"name":"徳川慶喜墓","province":"","city":"","address":"谷中7(谷中墓地内)","lat":35.72340333,"lon":139.7719247},{"name":"西郷隆盛像","province":"","city":"","address":"上野公園","lat":35.71162439,"lon":139.7740049},{"name":"谷中天王寺五重塔跡","province":"","city":"","address":"谷中7(谷中墓地内)","lat":35.72519314,"lon":139.7708948},{"name":"不忍弁天堂","province":"","city":"","address":"上野公園","lat":35.71207427,"lon":139.7712751},{"name":"上野の大仏","province":"","city":"","address":"上野公園","lat":35.71444411,"lon":139.7727649},{"name":"北村季吟墓","province":"","city":"","address":"池之端2-4-22(正慶寺内)","lat":35.71413388,"lon":139.7660253},{"name":"下谷神社","province":"","city":"","address":"東上野3-29-8","lat":35.71074465,"lon":139.7812946},{"name":"雷門","province":"","city":"","address":"浅草1(浅草寺境内)","lat":35.71120485,"lon":139.7963834},{"name":"曹源寺(かっぱ寺)","province":"","city":"","address":"松が谷3-7-2","lat":35.71533434,"lon":139.786504},{"name":"東本願寺","province":"","city":"","address":"西浅草1-5-5","lat":35.7117147,"lon":139.7895539},{"name":"利島村郷土資料館","province":"","city":"","address":"利島村248","lat":34.529991,"lon":139.278015},{"name":"初代川柳墓","province":"","city":"","address":"蔵前4丁目36番7号(竜宝寺内)","lat":35.70591527,"lon":139.7887445},{"name":"勝川春章墓","province":"","city":"","address":"蔵前4丁目16番16号(西福寺内)","lat":35.70353551,"lon":139.7888147},{"name":"寛永寺","province":"","city":"","address":"上野桜木1丁目14番","lat":35.72179353,"lon":139.7745046},{"name":"浅草文庫跡碑","province":"","city":"","address":"蔵前1丁目4番3号(榊神社内)","lat":35.70008591,"lon":139.789365},{"name":"鷲神社","province":"","city":"","address":"千束3丁目18番7号","lat":35.7224137,"lon":139.792013},{"name":"待乳山聖天","province":"","city":"","address":"浅草7丁目4番1号","lat":35.7173148,"lon":139.8030326},{"name":"江戸六地蔵","province":"","city":"","address":"東浅草2丁目12番13号(東禅寺内)","lat":35.72407391,"lon":139.8002925},{"name":"安藤東野墓","province":"","city":"","address":"橋場1丁目16番2号(福寿院内)","lat":35.72406483,"lon":139.806683},{"name":"妙亀塚","province":"","city":"","address":"橋場1丁目28番12号(妙亀塚公園内)","lat":35.72535454,"lon":139.8055229},{"name":"橋場のお化け地蔵","province":"","city":"","address":"橋場2丁目5番3号(松吟寺内)","lat":35.72632449,"lon":139.805803},{"name":"鳥越神社","province":"","city":"","address":"鳥越2丁目4番1号","lat":35.70198564,"lon":139.785695},{"name":"浅間神社","province":"","city":"","address":"浅草5-3-2","lat":35.71919427,"lon":139.7983128},{"name":"岡倉天心記念公園","province":"","city":"","address":"谷中5-7","lat":35.72637281,"lon":139.766555},{"name":"山岡鉄舟墓","province":"","city":"","address":"谷中5-4-7(全生庵内)","lat":35.72413302,"lon":139.766875},{"name":"三遊亭円朝墓","province":"","city":"","address":"谷中5-4-7(全生庵内)","lat":35.72413302,"lon":139.766875},{"name":"大久保主水墓","province":"","city":"","address":"谷中4-2-5(瑞輪寺内)","lat":35.72314316,"lon":139.767865},{"name":"鈴木春信碑","province":"","city":"","address":"谷中3-1-2(大円寺内)","lat":35.72464291,"lon":139.7657051},{"name":"蒲生君平墓","province":"","city":"","address":"谷中1-4-13(臨江寺内)","lat":35.72006336,"lon":139.7664151},{"name":"太宰春台墓","province":"","city":"","address":"谷中1-2-14(天眼寺内)","lat":35.71872351,"lon":139.7670951},{"name":"子規庵","province":"","city":"","address":"根岸2-5-11","lat":35.72448339,"lon":139.7763844},{"name":"葛飾北斎墓","province":"","city":"","address":"元浅草4-6-9(誓教寺内)","lat":35.70972485,"lon":139.7855144},{"name":"中村不折旧宅（書道博物館）","province":"","city":"","address":"根岸2-10-4","lat":35.72464337,"lon":139.7762944},{"name":"浄名院八万四千体地蔵","province":"","city":"","address":"上野桜木2-6-4(浄名院内)","lat":35.72238346,"lon":139.7734047},{"name":"入谷鬼子母神","province":"","city":"","address":"下谷1-12-16(真源寺内)","lat":35.71975389,"lon":139.782834},{"name":"小野照崎神社","province":"","city":"","address":"下谷2-13-14","lat":35.72200377,"lon":139.7836639},{"name":"飛不動","province":"","city":"","address":"竜泉3-11-11(正宝院内)","lat":35.72423348,"lon":139.7919428},{"name":"浅草寺","province":"","city":"","address":"浅草2-3-1","lat":35.71467453,"lon":139.7968231},{"name":"浅草神社","province":"","city":"","address":"浅草2-3-1","lat":35.71505453,"lon":139.797523},{"name":"伝法院","province":"","city":"","address":"浅草2-3-1(浅草寺境内)","lat":35.71329464,"lon":139.7953633},{"name":"玉川兄弟の墓","province":"","city":"","address":"松が谷2-3-3(聖徳寺内)","lat":35.71278457,"lon":139.7866941},{"name":"旧寛永寺五重塔","province":"","city":"","address":"上野公園(動物園内)","lat":35.71570398,"lon":139.7717649},{"name":"上野東照宮","province":"","city":"","address":"上野公園","lat":35.71531397,"lon":139.770695},{"name":"表慶館","province":"","city":"","address":"上野公園(博物館内)","lat":35.7187038,"lon":139.7752946},{"name":"清水観音堂","province":"","city":"","address":"上野公園","lat":35.71265429,"lon":139.7735549},{"name":"旧東京音楽学校奏楽堂","province":"","city":"","address":"上野公園","lat":35.71796381,"lon":139.7732448},{"name":"徳川慶喜墓","province":"","city":"","address":"谷中7(谷中墓地内)","lat":35.72340333,"lon":139.7719247},{"name":"西郷隆盛像","province":"","city":"","address":"上野公園","lat":35.71162439,"lon":139.7740049},{"name":"谷中天王寺五重塔跡","province":"","city":"","address":"谷中7(谷中墓地内)","lat":35.72519314,"lon":139.7708948},{"name":"不忍弁天堂","province":"","city":"","address":"上野公園","lat":35.71207427,"lon":139.7712751},{"name":"上野の大仏","province":"","city":"","address":"上野公園","lat":35.71444411,"lon":139.7727649},{"name":"北村季吟墓","province":"","city":"","address":"池之端2-4-22(正慶寺内)","lat":35.71413388,"lon":139.7660253},{"name":"下谷神社","province":"","city":"","address":"東上野3-29-8","lat":35.71074465,"lon":139.7812946},{"name":"雷門","province":"","city":"","address":"浅草1(浅草寺境内)","lat":35.71120485,"lon":139.7963834},{"name":"曹源寺(かっぱ寺)","province":"","city":"","address":"松が谷3-7-2","lat":35.71533434,"lon":139.786504},{"name":"東本願寺","province":"","city":"","address":"西浅草1-5-5","lat":35.7117147,"lon":139.7895539},{"name":"利島村郷土資料館","province":"","city":"","address":"利島村248","lat":34.529991,"lon":139.278015},{"name":"初代川柳墓","province":"","city":"","address":"蔵前4丁目36番7号(竜宝寺内)","lat":35.70591527,"lon":139.7887445},{"name":"勝川春章墓","province":"","city":"","address":"蔵前4丁目16番16号(西福寺内)","lat":35.70353551,"lon":139.7888147},{"name":"寛永寺","province":"","city":"","address":"上野桜木1丁目14番","lat":35.72179353,"lon":139.7745046},{"name":"浅草文庫跡碑","province":"","city":"","address":"蔵前1丁目4番3号(榊神社内)","lat":35.70008591,"lon":139.789365},{"name":"鷲神社","province":"","city":"","address":"千束3丁目18番7号","lat":35.7224137,"lon":139.792013},{"name":"待乳山聖天","province":"","city":"","address":"浅草7丁目4番1号","lat":35.7173148,"lon":139.8030326},{"name":"江戸六地蔵","province":"","city":"","address":"東浅草2丁目12番13号(東禅寺内)","lat":35.72407391,"lon":139.8002925},{"name":"安藤東野墓","province":"","city":"","address":"橋場1丁目16番2号(福寿院内)","lat":35.72406483,"lon":139.806683},{"name":"妙亀塚","province":"","city":"","address":"橋場1丁目28番12号(妙亀塚公園内)","lat":35.72535454,"lon":139.8055229},{"name":"橋場のお化け地蔵","province":"","city":"","address":"橋場2丁目5番3号(松吟寺内)","lat":35.72632449,"lon":139.805803},{"name":"鳥越神社","province":"","city":"","address":"鳥越2丁目4番1号","lat":35.70198564,"lon":139.785695},{"name":"浅間神社","province":"","city":"","address":"浅草5-3-2","lat":35.71919427,"lon":139.7983128},{"name":"岡倉天心記念公園","province":"","city":"","address":"谷中5-7","lat":35.72637281,"lon":139.766555},{"name":"山岡鉄舟墓","province":"","city":"","address":"谷中5-4-7(全生庵内)","lat":35.72413302,"lon":139.766875},{"name":"三遊亭円朝墓","province":"","city":"","address":"谷中5-4-7(全生庵内)","lat":35.72413302,"lon":139.766875},{"name":"大久保主水墓","province":"","city":"","address":"谷中4-2-5(瑞輪寺内)","lat":35.72314316,"lon":139.767865},{"name":"鈴木春信碑","province":"","city":"","address":"谷中3-1-2(大円寺内)","lat":35.72464291,"lon":139.7657051},{"name":"蒲生君平墓","province":"","city":"","address":"谷中1-4-13(臨江寺内)","lat":35.72006336,"lon":139.7664151},{"name":"太宰春台墓","province":"","city":"","address":"谷中1-2-14(天眼寺内)","lat":35.71872351,"lon":139.7670951},{"name":"子規庵","province":"","city":"","address":"根岸2-5-11","lat":35.72448339,"lon":139.7763844},{"name":"葛飾北斎墓","province":"","city":"","address":"元浅草4-6-9(誓教寺内)","lat":35.70972485,"lon":139.7855144},{"name":"中村不折旧宅（書道博物館）","province":"","city":"","address":"根岸2-10-4","lat":35.72464337,"lon":139.7762944},{"name":"浄名院八万四千体地蔵","province":"","city":"","address":"上野桜木2-6-4(浄名院内)","lat":35.72238346,"lon":139.7734047},{"name":"入谷鬼子母神","province":"","city":"","address":"下谷1-12-16(真源寺内)","lat":35.71975389,"lon":139.782834},{"name":"小野照崎神社","province":"","city":"","address":"下谷2-13-14","lat":35.72200377,"lon":139.7836639},{"name":"飛不動","province":"","city":"","address":"竜泉3-11-11(正宝院内)","lat":35.72423348,"lon":139.7919428},{"name":"浅草寺","province":"","city":"","address":"浅草2-3-1","lat":35.71467453,"lon":139.7968231},{"name":"浅草神社","province":"","city":"","address":"浅草2-3-1","lat":35.71505453,"lon":139.797523},{"name":"伝法院","province":"","city":"","address":"浅草2-3-1(浅草寺境内)","lat":35.71329464,"lon":139.7953633},{"name":"玉川兄弟の墓","province":"","city":"","address":"松が谷2-3-3(聖徳寺内)","lat":35.71278457,"lon":139.7866941},{"name":"旧寛永寺五重塔","province":"","city":"","address":"上野公園(動物園内)","lat":35.71570398,"lon":139.7717649},{"name":"上野東照宮","province":"","city":"","address":"上野公園","lat":35.71531397,"lon":139.770695},{"name":"表慶館","province":"","city":"","address":"上野公園(博物館内)","lat":35.7187038,"lon":139.7752946},{"name":"清水観音堂","province":"","city":"","address":"上野公園","lat":35.71265429,"lon":139.7735549},{"name":"旧東京音楽学校奏楽堂","province":"","city":"","address":"上野公園","lat":35.71796381,"lon":139.7732448},{"name":"徳川慶喜墓","province":"","city":"","address":"谷中7(谷中墓地内)","lat":35.72340333,"lon":139.7719247},{"name":"西郷隆盛像","province":"","city":"","address":"上野公園","lat":35.71162439,"lon":139.7740049},{"name":"谷中天王寺五重塔跡","province":"","city":"","address":"谷中7(谷中墓地内)","lat":35.72519314,"lon":139.7708948},{"name":"不忍弁天堂","province":"","city":"","address":"上野公園","lat":35.71207427,"lon":139.7712751},{"name":"上野の大仏","province":"","city":"","address":"上野公園","lat":35.71444411,"lon":139.7727649},{"name":"北村季吟墓","province":"","city":"","address":"池之端2-4-22(正慶寺内)","lat":35.71413388,"lon":139.7660253},{"name":"下谷神社","province":"","city":"","address":"東上野3-29-8","lat":35.71074465,"lon":139.7812946},{"name":"雷門","province":"","city":"","address":"浅草1(浅草寺境内)","lat":35.71120485,"lon":139.7963834},{"name":"曹源寺(かっぱ寺)","province":"","city":"","address":"松が谷3-7-2","lat":35.71533434,"lon":139.786504},{"name":"東本願寺","province":"","city":"","address":"西浅草1-5-5","lat":35.7117147,"lon":139.7895539},{"name":"利島村郷土資料館","province":"","city":"","address":"利島村248","lat":34.529991,"lon":139.278015},{"name":"初代川柳墓","province":"","city":"","address":"蔵前4丁目36番7号(竜宝寺内)","lat":35.70591527,"lon":139.7887445},{"name":"勝川春章墓","province":"","city":"","address":"蔵前4丁目16番16号(西福寺内)","lat":35.70353551,"lon":139.7888147},{"name":"寛永寺","province":"","city":"","address":"上野桜木1丁目14番","lat":35.72179353,"lon":139.7745046},{"name":"浅草文庫跡碑","province":"","city":"","address":"蔵前1丁目4番3号(榊神社内)","lat":35.70008591,"lon":139.789365},{"name":"鷲神社","province":"","city":"","address":"千束3丁目18番7号","lat":35.7224137,"lon":139.792013},{"name":"待乳山聖天","province":"","city":"","address":"浅草7丁目4番1号","lat":35.7173148,"lon":139.8030326},{"name":"江戸六地蔵","province":"","city":"","address":"東浅草2丁目12番13号(東禅寺内)","lat":35.72407391,"lon":139.8002925},{"name":"安藤東野墓","province":"","city":"","address":"橋場1丁目16番2号(福寿院内)","lat":35.72406483,"lon":139.806683},{"name":"妙亀塚","province":"","city":"","address":"橋場1丁目28番12号(妙亀塚公園内)","lat":35.72535454,"lon":139.8055229},{"name":"橋場のお化け地蔵","province":"","city":"","address":"橋場2丁目5番3号(松吟寺内)","lat":35.72632449,"lon":139.805803},{"name":"鳥越神社","province":"","city":"","address":"鳥越2丁目4番1号","lat":35.70198564,"lon":139.785695},{"name":"浅間神社","province":"","city":"","address":"浅草5-3-2","lat":35.71919427,"lon":139.7983128},{"name":"岡倉天心記念公園","province":"","city":"","address":"谷中5-7","lat":35.72637281,"lon":139.766555},{"name":"山岡鉄舟墓","province":"","city":"","address":"谷中5-4-7(全生庵内)","lat":35.72413302,"lon":139.766875},{"name":"三遊亭円朝墓","province":"","city":"","address":"谷中5-4-7(全生庵内)","lat":35.72413302,"lon":139.766875},{"name":"大久保主水墓","province":"","city":"","address":"谷中4-2-5(瑞輪寺内)","lat":35.72314316,"lon":139.767865},{"name":"鈴木春信碑","province":"","city":"","address":"谷中3-1-2(大円寺内)","lat":35.72464291,"lon":139.7657051},{"name":"蒲生君平墓","province":"","city":"","address":"谷中1-4-13(臨江寺内)","lat":35.72006336,"lon":139.7664151},{"name":"太宰春台墓","province":"","city":"","address":"谷中1-2-14(天眼寺内)","lat":35.71872351,"lon":139.7670951},{"name":"子規庵","province":"","city":"","address":"根岸2-5-11","lat":35.72448339,"lon":139.7763844},{"name":"葛飾北斎墓","province":"","city":"","address":"元浅草4-6-9(誓教寺内)","lat":35.70972485,"lon":139.7855144},{"name":"中村不折旧宅（書道博物館）","province":"","city":"","address":"根岸2-10-4","lat":35.72464337,"lon":139.7762944},{"name":"浄名院八万四千体地蔵","province":"","city":"","address":"上野桜木2-6-4(浄名院内)","lat":35.72238346,"lon":139.7734047},{"name":"入谷鬼子母神","province":"","city":"","address":"下谷1-12-16(真源寺内)","lat":35.71975389,"lon":139.782834},{"name":"小野照崎神社","province":"","city":"","address":"下谷2-13-14","lat":35.72200377,"lon":139.7836639},{"name":"飛不動","province":"","city":"","address":"竜泉3-11-11(正宝院内)","lat":35.72423348,"lon":139.7919428},{"name":"浅草寺","province":"","city":"","address":"浅草2-3-1","lat":35.71467453,"lon":139.7968231},{"name":"浅草神社","province":"","city":"","address":"浅草2-3-1","lat":35.71505453,"lon":139.797523},{"name":"伝法院","province":"","city":"","address":"浅草2-3-1(浅草寺境内)","lat":35.71329464,"lon":139.7953633},{"name":"玉川兄弟の墓","province":"","city":"","address":"松が谷2-3-3(聖徳寺内)","lat":35.71278457,"lon":139.7866941},{"name":"旧寛永寺五重塔","province":"","city":"","address":"上野公園(動物園内)","lat":35.71570398,"lon":139.7717649},{"name":"上野東照宮","province":"","city":"","address":"上野公園","lat":35.71531397,"lon":139.770695},{"name":"表慶館","province":"","city":"","address":"上野公園(博物館内)","lat":35.7187038,"lon":139.7752946},{"name":"清水観音堂","province":"","city":"","address":"上野公園","lat":35.71265429,"lon":139.7735549},{"name":"旧東京音楽学校奏楽堂","province":"","city":"","address":"上野公園","lat":35.71796381,"lon":139.7732448},{"name":"徳川慶喜墓","province":"","city":"","address":"谷中7(谷中墓地内)","lat":35.72340333,"lon":139.7719247},{"name":"西郷隆盛像","province":"","city":"","address":"上野公園","lat":35.71162439,"lon":139.7740049},{"name":"谷中天王寺五重塔跡","province":"","city":"","address":"谷中7(谷中墓地内)","lat":35.72519314,"lon":139.7708948},{"name":"不忍弁天堂","province":"","city":"","address":"上野公園","lat":35.71207427,"lon":139.7712751},{"name":"上野の大仏","province":"","city":"","address":"上野公園","lat":35.71444411,"lon":139.7727649},{"name":"北村季吟墓","province":"","city":"","address":"池之端2-4-22(正慶寺内)","lat":35.71413388,"lon":139.7660253},{"name":"下谷神社","province":"","city":"","address":"東上野3-29-8","lat":35.71074465,"lon":139.7812946},{"name":"雷門","province":"","city":"","address":"浅草1(浅草寺境内)","lat":35.71120485,"lon":139.7963834},{"name":"曹源寺(かっぱ寺)","province":"","city":"","address":"松が谷3-7-2","lat":35.71533434,"lon":139.786504},{"name":"東本願寺","province":"","city":"","address":"西浅草1-5-5","lat":35.7117147,"lon":139.7895539},{"name":"利島村郷土資料館","province":"","city":"","address":"利島村248","lat":34.529991,"lon":139.278015},{"name":"初代川柳墓","province":"","city":"","address":"蔵前4丁目36番7号(竜宝寺内)","lat":35.70591527,"lon":139.7887445},{"name":"勝川春章墓","province":"","city":"","address":"蔵前4丁目16番16号(西福寺内)","lat":35.70353551,"lon":139.7888147},{"name":"寛永寺","province":"","city":"","address":"上野桜木1丁目14番","lat":35.72179353,"lon":139.7745046},{"name":"浅草文庫跡碑","province":"","city":"","address":"蔵前1丁目4番3号(榊神社内)","lat":35.70008591,"lon":139.789365},{"name":"鷲神社","province":"","city":"","address":"千束3丁目18番7号","lat":35.7224137,"lon":139.792013},{"name":"待乳山聖天","province":"","city":"","address":"浅草7丁目4番1号","lat":35.7173148,"lon":139.8030326},{"name":"江戸六地蔵","province":"","city":"","address":"東浅草2丁目12番13号(東禅寺内)","lat":35.72407391,"lon":139.8002925},{"name":"安藤東野墓","province":"","city":"","address":"橋場1丁目16番2号(福寿院内)","lat":35.72406483,"lon":139.806683},{"name":"妙亀塚","province":"","city":"","address":"橋場1丁目28番12号(妙亀塚公園内)","lat":35.72535454,"lon":139.8055229},{"name":"橋場のお化け地蔵","province":"","city":"","address":"橋場2丁目5番3号(松吟寺内)","lat":35.72632449,"lon":139.805803},{"name":"鳥越神社","province":"","city":"","address":"鳥越2丁目4番1号","lat":35.70198564,"lon":139.785695},{"name":"浅間神社","province":"","city":"","address":"浅草5-3-2","lat":35.71919427,"lon":139.7983128},{"name":"岡倉天心記念公園","province":"","city":"","address":"谷中5-7","lat":35.72637281,"lon":139.766555},{"name":"山岡鉄舟墓","province":"","city":"","address":"谷中5-4-7(全生庵内)","lat":35.72413302,"lon":139.766875},{"name":"三遊亭円朝墓","province":"","city":"","address":"谷中5-4-7(全生庵内)","lat":35.72413302,"lon":139.766875},{"name":"大久保主水墓","province":"","city":"","address":"谷中4-2-5(瑞輪寺内)","lat":35.72314316,"lon":139.767865},{"name":"鈴木春信碑","province":"","city":"","address":"谷中3-1-2(大円寺内)","lat":35.72464291,"lon":139.7657051},{"name":"蒲生君平墓","province":"","city":"","address":"谷中1-4-13(臨江寺内)","lat":35.72006336,"lon":139.7664151},{"name":"太宰春台墓","province":"","city":"","address":"谷中1-2-14(天眼寺内)","lat":35.71872351,"lon":139.7670951},{"name":"子規庵","province":"","city":"","address":"根岸2-5-11","lat":35.72448339,"lon":139.7763844},{"name":"葛飾北斎墓","province":"","city":"","address":"元浅草4-6-9(誓教寺内)","lat":35.70972485,"lon":139.7855144},{"name":"中村不折旧宅（書道博物館）","province":"","city":"","address":"根岸2-10-4","lat":35.72464337,"lon":139.7762944},{"name":"浄名院八万四千体地蔵","province":"","city":"","address":"上野桜木2-6-4(浄名院内)","lat":35.72238346,"lon":139.7734047},{"name":"入谷鬼子母神","province":"","city":"","address":"下谷1-12-16(真源寺内)","lat":35.71975389,"lon":139.782834},{"name":"小野照崎神社","province":"","city":"","address":"下谷2-13-14","lat":35.72200377,"lon":139.7836639},{"name":"飛不動","province":"","city":"","address":"竜泉3-11-11(正宝院内)","lat":35.72423348,"lon":139.7919428},{"name":"浅草寺","province":"","city":"","address":"浅草2-3-1","lat":35.71467453,"lon":139.7968231},{"name":"浅草神社","province":"","city":"","address":"浅草2-3-1","lat":35.71505453,"lon":139.797523},{"name":"伝法院","province":"","city":"","address":"浅草2-3-1(浅草寺境内)","lat":35.71329464,"lon":139.7953633},{"name":"玉川兄弟の墓","province":"","city":"","address":"松が谷2-3-3(聖徳寺内)","lat":35.71278457,"lon":139.7866941},{"name":"旧寛永寺五重塔","province":"","city":"","address":"上野公園(動物園内)","lat":35.71570398,"lon":139.7717649},{"name":"上野東照宮","province":"","city":"","address":"上野公園","lat":35.71531397,"lon":139.770695},{"name":"表慶館","province":"","city":"","address":"上野公園(博物館内)","lat":35.7187038,"lon":139.7752946},{"name":"清水観音堂","province":"","city":"","address":"上野公園","lat":35.71265429,"lon":139.7735549},{"name":"旧東京音楽学校奏楽堂","province":"","city":"","address":"上野公園","lat":35.71796381,"lon":139.7732448},{"name":"徳川慶喜墓","province":"","city":"","address":"谷中7(谷中墓地内)","lat":35.72340333,"lon":139.7719247},{"name":"西郷隆盛像","province":"","city":"","address":"上野公園","lat":35.71162439,"lon":139.7740049},{"name":"谷中天王寺五重塔跡","province":"","city":"","address":"谷中7(谷中墓地内)","lat":35.72519314,"lon":139.7708948},{"name":"不忍弁天堂","province":"","city":"","address":"上野公園","lat":35.71207427,"lon":139.7712751},{"name":"上野の大仏","province":"","city":"","address":"上野公園","lat":35.71444411,"lon":139.7727649},{"name":"北村季吟墓","province":"","city":"","address":"池之端2-4-22(正慶寺内)","lat":35.71413388,"lon":139.7660253},{"name":"下谷神社","province":"","city":"","address":"東上野3-29-8","lat":35.71074465,"lon":139.7812946},{"name":"雷門","province":"","city":"","address":"浅草1(浅草寺境内)","lat":35.71120485,"lon":139.7963834},{"name":"曹源寺(かっぱ寺)","province":"","city":"","address":"松が谷3-7-2","lat":35.71533434,"lon":139.786504},{"name":"東本願寺","province":"","city":"","address":"西浅草1-5-5","lat":35.7117147,"lon":139.7895539},{"name":"利島村郷土資料館","province":"","city":"","address":"利島村248","lat":34.529991,"lon":139.278015},{"name":"初代川柳墓","province":"","city":"","address":"蔵前4丁目36番7号(竜宝寺内)","lat":35.70591527,"lon":139.7887445},{"name":"勝川春章墓","province":"","city":"","address":"蔵前4丁目16番16号(西福寺内)","lat":35.70353551,"lon":139.7888147},{"name":"寛永寺","province":"","city":"","address":"上野桜木1丁目14番","lat":35.72179353,"lon":139.7745046},{"name":"浅草文庫跡碑","province":"","city":"","address":"蔵前1丁目4番3号(榊神社内)","lat":35.70008591,"lon":139.789365},{"name":"鷲神社","province":"","city":"","address":"千束3丁目18番7号","lat":35.7224137,"lon":139.792013},{"name":"待乳山聖天","province":"","city":"","address":"浅草7丁目4番1号","lat":35.7173148,"lon":139.8030326},{"name":"江戸六地蔵","province":"","city":"","address":"東浅草2丁目12番13号(東禅寺内)","lat":35.72407391,"lon":139.8002925},{"name":"安藤東野墓","province":"","city":"","address":"橋場1丁目16番2号(福寿院内)","lat":35.72406483,"lon":139.806683},{"name":"妙亀塚","province":"","city":"","address":"橋場1丁目28番12号(妙亀塚公園内)","lat":35.72535454,"lon":139.8055229},{"name":"橋場のお化け地蔵","province":"","city":"","address":"橋場2丁目5番3号(松吟寺内)","lat":35.72632449,"lon":139.805803},{"name":"鳥越神社","province":"","city":"","address":"鳥越2丁目4番1号","lat":35.70198564,"lon":139.785695},{"name":"浅間神社","province":"","city":"","address":"浅草5-3-2","lat":35.71919427,"lon":139.7983128},{"name":"岡倉天心記念公園","province":"","city":"","address":"谷中5-7","lat":35.72637281,"lon":139.766555},{"name":"山岡鉄舟墓","province":"","city":"","address":"谷中5-4-7(全生庵内)","lat":35.72413302,"lon":139.766875},{"name":"三遊亭円朝墓","province":"","city":"","address":"谷中5-4-7(全生庵内)","lat":35.72413302,"lon":139.766875},{"name":"大久保主水墓","province":"","city":"","address":"谷中4-2-5(瑞輪寺内)","lat":35.72314316,"lon":139.767865},{"name":"鈴木春信碑","province":"","city":"","address":"谷中3-1-2(大円寺内)","lat":35.72464291,"lon":139.7657051},{"name":"蒲生君平墓","province":"","city":"","address":"谷中1-4-13(臨江寺内)","lat":35.72006336,"lon":139.7664151},{"name":"太宰春台墓","province":"","city":"","address":"谷中1-2-14(天眼寺内)","lat":35.71872351,"lon":139.7670951},{"name":"子規庵","province":"","city":"","address":"根岸2-5-11","lat":35.72448339,"lon":139.7763844},{"name":"葛飾北斎墓","province":"","city":"","address":"元浅草4-6-9(誓教寺内)","lat":35.70972485,"lon":139.7855144},{"name":"中村不折旧宅（書道博物館）","province":"","city":"","address":"根岸2-10-4","lat":35.72464337,"lon":139.7762944},{"name":"浄名院八万四千体地蔵","province":"","city":"","address":"上野桜木2-6-4(浄名院内)","lat":35.72238346,"lon":139.7734047},{"name":"入谷鬼子母神","province":"","city":"","address":"下谷1-12-16(真源寺内)","lat":35.71975389,"lon":139.782834},{"name":"小野照崎神社","province":"","city":"","address":"下谷2-13-14","lat":35.72200377,"lon":139.7836639},{"name":"飛不動","province":"","city":"","address":"竜泉3-11-11(正宝院内)","lat":35.72423348,"lon":139.7919428},{"name":"浅草寺","province":"","city":"","address":"浅草2-3-1","lat":35.71467453,"lon":139.7968231},{"name":"浅草神社","province":"","city":"","address":"浅草2-3-1","lat":35.71505453,"lon":139.797523},{"name":"伝法院","province":"","city":"","address":"浅草2-3-1(浅草寺境内)","lat":35.71329464,"lon":139.7953633},{"name":"玉川兄弟の墓","province":"","city":"","address":"松が谷2-3-3(聖徳寺内)","lat":35.71278457,"lon":139.7866941},{"name":"旧寛永寺五重塔","province":"","city":"","address":"上野公園(動物園内)","lat":35.71570398,"lon":139.7717649},{"name":"上野東照宮","province":"","city":"","address":"上野公園","lat":35.71531397,"lon":139.770695},{"name":"表慶館","province":"","city":"","address":"上野公園(博物館内)","lat":35.7187038,"lon":139.7752946},{"name":"清水観音堂","province":"","city":"","address":"上野公園","lat":35.71265429,"lon":139.7735549},{"name":"旧東京音楽学校奏楽堂","province":"","city":"","address":"上野公園","lat":35.71796381,"lon":139.7732448},{"name":"徳川慶喜墓","province":"","city":"","address":"谷中7(谷中墓地内)","lat":35.72340333,"lon":139.7719247},{"name":"西郷隆盛像","province":"","city":"","address":"上野公園","lat":35.71162439,"lon":139.7740049},{"name":"谷中天王寺五重塔跡","province":"","city":"","address":"谷中7(谷中墓地内)","lat":35.72519314,"lon":139.7708948},{"name":"不忍弁天堂","province":"","city":"","address":"上野公園","lat":35.71207427,"lon":139.7712751},{"name":"上野の大仏","province":"","city":"","address":"上野公園","lat":35.71444411,"lon":139.7727649},{"name":"北村季吟墓","province":"","city":"","address":"池之端2-4-22(正慶寺内)","lat":35.71413388,"lon":139.7660253},{"name":"下谷神社","province":"","city":"","address":"東上野3-29-8","lat":35.71074465,"lon":139.7812946},{"name":"雷門","province":"","city":"","address":"浅草1(浅草寺境内)","lat":35.71120485,"lon":139.7963834},{"name":"曹源寺(かっぱ寺)","province":"","city":"","address":"松が谷3-7-2","lat":35.71533434,"lon":139.786504},{"name":"東本願寺","province":"","city":"","address":"西浅草1-5-5","lat":35.7117147,"lon":139.7895539},{"name":"利島村郷土資料館","province":"","city":"","address":"利島村248","lat":34.529991,"lon":139.278015}]}