{"keyword":"音響","data":[{"name":"中神駅入口","province":"東京都","city":"昭島市","address":"東京都昭島市朝日町3丁目6-1","lat":35.70723827,"lon":139.37555433},{"name":"拝島郵便局前","province":"東京都","city":"昭島市","address":"東京都昭島市拝島町2丁目8-11","lat":35.70826805,"lon":139.34027673},{"name":"昭島文化地区","province":"東京都","city":"昭島市","address":"東京都昭島市中神町1157","lat":35.71204326,"lon":139.37613747},{"name":"昭島市民図書館前","province":"東京都","city":"昭島市","address":"東京都昭島市東町2丁目6-33","lat":35.70546647,"lon":139.3851868},{"name":"昭島昭和町四丁目","province":"東京都","city":"昭島市","address":"東京都昭島市昭和町4丁目7-19","lat":35.71119312,"lon":139.36371919},{"name":"馬頭観音前","province":"東京都","city":"昭島市","address":"東京都昭島市朝日町3丁目1","lat":35.70625228,"lon":139.3758932},{"name":"昭島駅南口","province":"東京都","city":"昭島市","address":"東京都昭島市昭和町2丁目4","lat":35.71301785,"lon":139.36052498},{"name":"昭島駅北口","province":"東京都","city":"昭島市","address":"東京都昭島市田中町584-14","lat":35.7152176,"lon":139.36123598},{"name":"昭島市民会館西第二","province":"東京都","city":"昭島市","address":"東京都昭島市田中町562","lat":35.71341783,"lon":139.3620804},{"name":"昭島市役所中央第一","province":"東京都","city":"昭島市","address":"東京都昭島市田中町1丁目27","lat":35.70512424,"lon":139.3544729},{"name":"昭島十二神社南","province":"東京都","city":"昭島市","address":"東京都昭島市玉川町5丁目6","lat":35.7032999,"lon":139.37779867},{"name":"五日市出張所入口","province":"東京都","city":"あきる野市","address":"東京都あきる野市五日市1","lat":35.72813464,"lon":139.22196731},{"name":"五日市駅前","province":"東京都","city":"あきる野市","address":"東京都あきる野市舘谷219-7","lat":35.73131422,"lon":139.22827732},{"name":"東町","province":"東京都","city":"あきる野市","address":"東京都あきる野市五日市164","lat":35.72992849,"lon":139.22599994},{"name":"五日市小学校入口","province":"東京都","city":"あきる野市","address":"東京都あきる野市五日市53","lat":35.72892884,"lon":139.22352813},{"name":"五日市給食センター入口","province":"東京都","city":"あきる野市","address":"東京都あきる野市五日市1140","lat":35.72706238,"lon":139.22383384},{"name":"西秋留","province":"東京都","city":"あきる野市","address":"東京都あきる野市雨間260","lat":35.72856131,"lon":139.28939962},{"name":"あきる野市役所秋川庁舎前","province":"東京都","city":"あきる野市","address":"東京都あきる野市二宮350","lat":35.72920304,"lon":139.29349922},{"name":"秋川駅前","province":"東京都","city":"あきる野市","address":"東京都あきる野市秋川2丁目1-6","lat":35.72876952,"lon":139.28645823},{"name":"秋川キララホール前","province":"東京都","city":"あきる野市","address":"東京都あきる野市秋川1丁目17-1","lat":35.73073043,"lon":139.28730808},{"name":"油平","province":"東京都","city":"あきる野市","address":"東京都あきる野市油平249","lat":35.7235118,"lon":139.28669168},{"name":"北千住駅入口","province":"東京都","city":"足立区","address":"東京都足立区千住寿町31-10","lat":35.75350276,"lon":139.79971364},{"name":"千住宮元町","province":"東京都","city":"足立区","address":"東京都足立区千住河原町10-7","lat":35.74408741,"lon":139.79795904},{"name":"千住寿町","province":"東京都","city":"足立区","address":"東京都足立区千住寿町33-11","lat":35.7533167,"lon":139.8004997},{"name":"千住警察署入口","province":"東京都","city":"足立区","address":"東京都足立区千住緑町1丁目1-35","lat":35.74380682,"lon":139.79370944},{"name":"北千住駅前通り","province":"東京都","city":"足立区","address":"東京都足立区千住2丁目58","lat":35.75036999,"lon":139.80322753},{"name":"千住五丁目","province":"東京都","city":"足立区","address":"東京都足立区千住4丁目10-3","lat":35.75463044,"lon":139.80160506},{"name":"千住関屋町","province":"東京都","city":"足立区","address":"東京都足立区千住東1丁目7-11","lat":35.7433933,"lon":139.80485865},{"name":"北千住駅西口","province":"東京都","city":"足立区","address":"東京都足立区千住2丁目59","lat":35.75018115,"lon":139.80373306},{"name":"東京藝大前","province":"東京都","city":"足立区","address":"東京都足立区千住1丁目25-1","lat":35.74716488,"lon":139.80215014},{"name":"千住大橋駅前","province":"東京都","city":"足立区","address":"東京都足立区千住橋戸町11","lat":35.74247922,"lon":139.79727028},{"name":"足立郵便局前","province":"東京都","city":"足立区","address":"東京都足立区千住曙町2-2","lat":35.74404065,"lon":139.81164137},{"name":"千寿桜堤中学校前","province":"東京都","city":"足立区","address":"東京都足立区柳原2丁目54","lat":35.75017578,"lon":139.81243782},{"name":"島根","province":"東京都","city":"足立区","address":"東京都足立区梅島3丁目43-16","lat":35.77835795,"lon":139.79742631},{"name":"梅島","province":"東京都","city":"足立区","address":"東京都足立区梅田7丁目25-2","lat":35.76909805,"lon":139.80328733},{"name":"梅田支所前","province":"東京都","city":"足立区","address":"東京都足立区梅田6丁目33-6","lat":35.77037275,"lon":139.7973711},{"name":"西新井第二小学校入口","province":"東京都","city":"足立区","address":"東京都足立区西新井3丁目17","lat":35.78915063,"lon":139.77988569},{"name":"梅島一丁目","province":"東京都","city":"足立区","address":"東京都足立区梅島1丁目13-17","lat":35.77283361,"lon":139.79849035},{"name":"梅島駅前","province":"東京都","city":"足立区","address":"東京都足立区梅島3丁目1-7","lat":35.77295301,"lon":139.79737377},{"name":"梅島小学校前","province":"東京都","city":"足立区","address":"東京都足立区梅田8丁目2-14","lat":35.77176426,"lon":139.79740715},{"name":"梅田七丁目交番前","province":"東京都","city":"足立区","address":"東京都足立区梅田7丁目17-6","lat":35.76982006,"lon":139.79784887},{"name":"島根第二","province":"東京都","city":"足立区","address":"東京都足立区梅島2丁目20-6","lat":35.77701088,"lon":139.79776245},{"name":"栗原二丁目","province":"東京都","city":"足立区","address":"東京都足立区栗原2丁目7","lat":35.7818767,"lon":139.78727978},{"name":"谷在家二丁目","province":"東京都","city":"足立区","address":"東京都足立区谷在家2丁目19-7","lat":35.78508408,"lon":139.76949507},{"name":"島根郵便局前","province":"東京都","city":"足立区","address":"東京都足立区島根4丁目1-9","lat":35.78222139,"lon":139.79710118},{"name":"日光街道梅島一丁目","province":"東京都","city":"足立区","address":"東京都足立区梅島1丁目24-1","lat":35.77185884,"lon":139.80321776},{"name":"江北六丁目団地東","province":"東京都","city":"足立区","address":"東京都足立区西新井7丁目11","lat":35.77999584,"lon":139.77055907},{"name":"梅島二丁目","province":"東京都","city":"足立区","address":"東京都足立区梅島2丁目28-20","lat":35.77706378,"lon":139.80296201},{"name":"足立四中前","province":"東京都","city":"足立区","address":"東京都足立区梅島1丁目24-8","lat":35.77188936,"lon":139.80194287},{"name":"西新井一丁目第二","province":"東京都","city":"足立区","address":"東京都足立区西新井1丁目6-5","lat":35.77819079,"lon":139.77995832},{"name":"梅田七丁目公園前","province":"東京都","city":"足立区","address":"東京都足立区梅田7丁目28-9","lat":35.77019506,"lon":139.79988756},{"name":"梅島北","province":"東京都","city":"足立区","address":"東京都足立区梅島1丁目2-39","lat":35.77044789,"lon":139.80319838},{"name":"江北団地入口","province":"東京都","city":"足立区","address":"東京都足立区江北6丁目27-5","lat":35.78285376,"lon":139.76799253},{"name":"足立区役所南","province":"東京都","city":"足立区","address":"東京都足立区梅島1丁目26-24","lat":35.77358364,"lon":139.80305104},{"name":"日光街道平野二丁目","province":"東京都","city":"足立区","address":"東京都足立区平野2丁目1-10","lat":35.78290759,"lon":139.80322565},{"name":"足立中央本町庁舎前","province":"東京都","city":"足立区","address":"東京都足立区中央本町1丁目17-1","lat":35.77489463,"lon":139.80457862},{"name":"上沼田第六公園","province":"東京都","city":"足立区","address":"東京都足立区江北4丁目15","lat":35.77295766,"lon":139.76524596},{"name":"大谷田橋","province":"東京都","city":"足立区","address":"東京都足立区東和4丁目24-10","lat":35.77572004,"lon":139.84322258},{"name":"青井五丁目","province":"東京都","city":"足立区","address":"東京都足立区一ツ家4丁目1-22","lat":35.77878051,"lon":139.81618582},{"name":"東栗原町","province":"東京都","city":"足立区","address":"東京都足立区一ツ家1丁目2-8","lat":35.77913039,"lon":139.81058906},{"name":"末広","province":"東京都","city":"足立区","address":"東京都足立区中央本町2丁目24-1","lat":35.76744281,"lon":139.80768149},{"name":"六町駅南","province":"東京都","city":"足立区","address":"東京都足立区六町4丁目1","lat":35.7849243,"lon":139.82121574},{"name":"中川四丁目西","province":"東京都","city":"足立区","address":"東京都足立区中川4丁目24-8","lat":35.77008747,"lon":139.84652524},{"name":"綾瀬駅東口","province":"東京都","city":"足立区","address":"東京都足立区綾瀬3丁目4","lat":35.76297143,"lon":139.82570503},{"name":"辰沼団地北","province":"東京都","city":"足立区","address":"東京都足立区辰沼1丁目2","lat":35.78517432,"lon":139.83540348},{"name":"北綾瀬駅前","province":"東京都","city":"足立区","address":"東京都足立区谷中4丁目9-22","lat":35.77762527,"lon":139.83244283},{"name":"中央本町二丁目","province":"東京都","city":"足立区","address":"東京都足立区中央本町2丁目21-6","lat":35.76885378,"lon":139.80902019},{"name":"東京武道館南","province":"東京都","city":"足立区","address":"東京都足立区綾瀬3丁目15-5","lat":35.76415461,"lon":139.82546335},{"name":"六町駅前","province":"東京都","city":"足立区","address":"東京都足立区六町4丁目2-27","lat":35.78554923,"lon":139.82157958},{"name":"竹の塚駅西","province":"東京都","city":"足立区","address":"東京都足立区西竹の塚2丁目2-3","lat":35.7942976,"lon":139.78996244},{"name":"西竹の塚一丁目","province":"東京都","city":"足立区","address":"東京都足立区伊興3丁目17-29","lat":35.79436697,"lon":139.7877904},{"name":"竹ノ塚駅前","province":"東京都","city":"足立区","address":"東京都足立区竹の塚1丁目41-1","lat":35.79371994,"lon":139.79149845},{"name":"竹ノ塚駅東","province":"東京都","city":"足立区","address":"東京都足立区竹の塚1丁目39-14","lat":35.79345333,"lon":139.79216507},{"name":"舎人公園","province":"東京都","city":"足立区","address":"東京都足立区古千谷本町4丁目1-18","lat":35.80559315,"lon":139.78273212},{"name":"足立老人ホーム前","province":"東京都","city":"足立区","address":"東京都足立区花畑3丁目33-19","lat":35.80514695,"lon":139.81076598},{"name":"花畑町団地中央","province":"東京都","city":"足立区","address":"東京都足立区花畑5丁目12","lat":35.80699954,"lon":139.80992711},{"name":"竹の塚警察署前","province":"東京都","city":"足立区","address":"東京都足立区保木間1丁目16-4","lat":35.79099557,"lon":139.80305315},{"name":"大関横丁第二","province":"東京都","city":"荒川区","address":"東京都荒川区東日暮里1丁目3-4","lat":35.73041082,"lon":139.79079062},{"name":"東尾久五丁目","province":"東京都","city":"荒川区","address":"東京都荒川区東尾久2丁目49-7","lat":35.74498085,"lon":139.76946398},{"name":"熊の前","province":"東京都","city":"荒川区","address":"東京都荒川区東尾久8丁目14-1","lat":35.74944131,"lon":139.76929143},{"name":"宮の前","province":"東京都","city":"荒川区","address":"東京都荒川区西尾久2丁目4-17","lat":35.74989939,"lon":139.7651167},{"name":"熊野前交番前","province":"東京都","city":"荒川区","address":"東京都荒川区東尾久6丁目50-9","lat":35.74931641,"lon":139.77100242},{"name":"北豊島学園前","province":"東京都","city":"荒川区","address":"東京都荒川区東尾久6丁目34-24","lat":35.74915541,"lon":139.77331614},{"name":"東京都立大学前","province":"東京都","city":"荒川区","address":"東京都荒川区東尾久7丁目2-10","lat":35.74998303,"lon":139.77211339},{"name":"大門小学校入口","province":"東京都","city":"荒川区","address":"東京都荒川区町屋5丁目7","lat":35.74967765,"lon":139.77732407},{"name":"南千住警察署入口","province":"東京都","city":"荒川区","address":"東京都荒川区南千住6丁目47-8","lat":35.73462169,"lon":139.79419311},{"name":"泪橋","province":"東京都","city":"荒川区","address":"東京都荒川区南千住3丁目5-20","lat":35.72923876,"lon":139.79962882},{"name":"天王神社前","province":"東京都","city":"荒川区","address":"東京都荒川区南千住6丁目60-17","lat":35.73682984,"lon":139.79637343},{"name":"東日暮里一丁目都住前","province":"東京都","city":"荒川区","address":"東京都荒川区東日暮里1丁目5","lat":35.73125248,"lon":139.79047683},{"name":"千住大橋南","province":"東京都","city":"荒川区","address":"東京都荒川区南千住7丁目17-5","lat":35.73736035,"lon":139.79724834},{"name":"南千住二丁目","province":"東京都","city":"荒川区","address":"東京都荒川区南千住2丁目15-5","lat":35.72908002,"lon":139.79570084},{"name":"南千住五丁目","province":"東京都","city":"荒川区","address":"東京都荒川区南千住5丁目12-1","lat":35.73471054,"lon":139.79489023},{"name":"南千住七丁目","province":"東京都","city":"荒川区","address":"東京都荒川区南千住7丁目3","lat":35.73384948,"lon":139.79813714},{"name":"泪橋西","province":"東京都","city":"荒川区","address":"東京都荒川区南千住2丁目27-10","lat":35.72909684,"lon":139.79802027},{"name":"南千住二丁目仲通り","province":"東京都","city":"荒川区","address":"東京都荒川区南千住2丁目20-15","lat":35.730405,"lon":139.7957176},{"name":"南千住七丁目北","province":"東京都","city":"荒川区","address":"東京都荒川区南千住7丁目24-24","lat":35.73666891,"lon":139.799465},{"name":"南千住一丁目","province":"東京都","city":"荒川区","address":"東京都荒川区南千住1丁目32-9","lat":35.73291903,"lon":139.79228219},{"name":"南千住三丁目西交番前","province":"東京都","city":"荒川区","address":"東京都荒川区南千住2丁目31-8","lat":35.73001358,"lon":139.79867038},{"name":"南千住四丁目","province":"東京都","city":"荒川区","address":"東京都荒川区南千住4丁目9","lat":35.7362609,"lon":139.8037205},{"name":"南千住駅前","province":"東京都","city":"荒川区","address":"東京都荒川区南千住7丁目1-1","lat":35.73318285,"lon":139.79828712},{"name":"橋場橋通り入口","province":"東京都","city":"荒川区","address":"東京都荒川区南千住4丁目1-1","lat":35.7338137,"lon":139.80141504},{"name":"南千住三丁目","province":"東京都","city":"荒川区","address":"東京都荒川区南千住2丁目31-8","lat":35.73001358,"lon":139.79867038},{"name":"南千住八丁目","province":"東京都","city":"荒川区","address":"東京都荒川区南千住8丁目13","lat":35.73642518,"lon":139.81024806},{"name":"瑞光橋公園前","province":"東京都","city":"荒川区","address":"東京都荒川区南千住8丁目17-1","lat":35.73456159,"lon":139.80941238},{"name":"南千住けやき通り入口","province":"東京都","city":"荒川区","address":"東京都荒川区南千住4丁目9-4","lat":35.73695531,"lon":139.80453431},{"name":"隅田川駅北","province":"東京都","city":"荒川区","address":"東京都荒川区南千住4丁目9","lat":35.7362609,"lon":139.8037205},{"name":"白鬚橋西詰","province":"東京都","city":"荒川区","address":"東京都荒川区南千住3丁目28-67","lat":35.72846805,"lon":139.8084078},{"name":"日暮里中央通り","province":"東京都","city":"荒川区","address":"東京都荒川区東日暮里6丁目15-1","lat":35.72879428,"lon":139.77860864},{"name":"宮地","province":"東京都","city":"荒川区","address":"東京都荒川区荒川5丁目1-1","lat":35.73756853,"lon":139.77661979},{"name":"三河島駅前","province":"東京都","city":"荒川区","address":"東京都荒川区西日暮里1丁目6-10","lat":35.7334439,"lon":139.77674766},{"name":"サンパール荒川前","province":"東京都","city":"荒川区","address":"東京都荒川区荒川1丁目49-2","lat":35.73439995,"lon":139.78501953},{"name":"荒川三丁目","province":"東京都","city":"荒川区","address":"東京都荒川区荒川2丁目4-2","lat":35.73561922,"lon":139.78205309},{"name":"日暮里二丁目","province":"東京都","city":"荒川区","address":"東京都荒川区東日暮里4丁目36-18","lat":35.72504454,"lon":139.77908921},{"name":"西日暮里四丁目","province":"東京都","city":"荒川区","address":"東京都荒川区西日暮里3丁目23-14","lat":35.73128501,"lon":139.76493992},{"name":"西日暮里二丁目","province":"東京都","city":"荒川区","address":"東京都荒川区西日暮里2丁目25-1","lat":35.7295939,"lon":139.77148686},{"name":"第三日暮里小前","province":"東京都","city":"荒川区","address":"東京都荒川区東日暮里3丁目10-17","lat":35.72886384,"lon":139.78137513},{"name":"荒川七丁目","province":"東京都","city":"荒川区","address":"東京都荒川区荒川7丁目4-3","lat":35.74305417,"lon":139.7845799},{"name":"三河島駅前北","province":"東京都","city":"荒川区","address":"東京都荒川区荒川3丁目63-2","lat":35.7340579,"lon":139.77870315},{"name":"東日暮里六丁目","province":"東京都","city":"荒川区","address":"東京都荒川区東日暮里6丁目44-7","lat":35.72884694,"lon":139.77579772},{"name":"東日暮里五丁目","province":"東京都","city":"荒川区","address":"東京都荒川区東日暮里5丁目40-3","lat":35.72644708,"lon":139.77480338},{"name":"東日暮里三丁目","province":"東京都","city":"荒川区","address":"東京都荒川区東日暮里3丁目42-8","lat":35.73165527,"lon":139.77904754},{"name":"東日暮里四丁目","province":"東京都","city":"荒川区","address":"東京都荒川区東日暮里4丁目35-10","lat":35.72597504,"lon":139.77909476},{"name":"西日暮里一丁目東","province":"東京都","city":"荒川区","address":"東京都荒川区西日暮里1丁目3-1","lat":35.73554381,"lon":139.77718099},{"name":"町屋第二","province":"東京都","city":"荒川区","address":"東京都荒川区荒川7丁目46-1","lat":35.74194027,"lon":139.78047194},{"name":"西日暮里五丁目第二","province":"東京都","city":"荒川区","address":"東京都荒川区西日暮里5丁目10-9","lat":35.73234626,"lon":139.76898135},{"name":"西日暮里駅前","province":"東京都","city":"荒川区","address":"東京都荒川区西日暮里3丁目5-1","lat":35.73196836,"lon":139.76645372},{"name":"町屋一丁目","province":"東京都","city":"荒川区","address":"東京都荒川区町屋2丁目2-20","lat":35.74368443,"lon":139.78096337},{"name":"西日暮里一丁目西","province":"東京都","city":"荒川区","address":"東京都荒川区西日暮里1丁目18-5","lat":35.7359158,"lon":139.77484215},{"name":"東日暮里六丁目東","province":"東京都","city":"荒川区","address":"東京都荒川区東日暮里6丁目18-7","lat":35.72887198,"lon":139.77680599},{"name":"東日暮里三丁目南","province":"東京都","city":"荒川区","address":"東京都荒川区東日暮里6丁目6-8","lat":35.73056085,"lon":139.77850034},{"name":"新三河島駅前","province":"東京都","city":"荒川区","address":"東京都荒川区荒川5丁目18-3","lat":35.7378238,"lon":139.77374761},{"name":"西日暮里五丁目東","province":"東京都","city":"荒川区","address":"東京都荒川区西日暮里5丁目6-1","lat":35.73339342,"lon":139.76977294},{"name":"荒川区役所東","province":"東京都","city":"荒川区","address":"東京都荒川区荒川2丁目13-9","lat":35.73696654,"lon":139.7843308},{"name":"荒川区民会館北第一","province":"東京都","city":"荒川区","address":"東京都荒川区荒川2丁目14","lat":35.73626939,"lon":139.78453081},{"name":"荒川区民会館北第二","province":"東京都","city":"荒川区","address":"東京都荒川区荒川2丁目1-3","lat":35.73566385,"lon":139.78460854},{"name":"西日暮里六丁目","province":"東京都","city":"荒川区","address":"東京都荒川区西日暮里6丁目48-6","lat":35.73627917,"lon":139.76858125},{"name":"西日暮里二丁目北","province":"東京都","city":"荒川区","address":"東京都荒川区西日暮里2丁目40-10","lat":35.73146031,"lon":139.77015632},{"name":"地下鉄町屋駅南","province":"東京都","city":"荒川区","address":"東京都荒川区荒川7丁目43-3","lat":35.7409765,"lon":139.7795221},{"name":"日暮里南公園入口","province":"東京都","city":"荒川区","address":"東京都荒川区東日暮里5丁目7-1","lat":35.72707772,"lon":139.77872531},{"name":"かんかん森通り","province":"東京都","city":"荒川区","address":"東京都荒川区東日暮里6丁目14-2","lat":35.72931647,"lon":139.77861421},{"name":"アクロスあらかわ東","province":"東京都","city":"荒川区","address":"東京都荒川区荒川7丁目7-1","lat":35.74078519,"lon":139.78419137},{"name":"日暮里図書館入口","province":"東京都","city":"荒川区","address":"東京都荒川区西日暮里2丁目5-4","lat":35.73164111,"lon":139.77453943},{"name":"西日暮里駅東","province":"東京都","city":"荒川区","address":"東京都荒川区西日暮里5丁目34-5","lat":35.73280165,"lon":139.76727032},{"name":"ひぐらし小学校前","province":"東京都","city":"荒川区","address":"東京都荒川区西日暮里2丁目27-5","lat":35.73049102,"lon":139.77128406},{"name":"京成町屋駅前","province":"東京都","city":"荒川区","address":"東京都荒川区荒川7丁目40-1","lat":35.74234026,"lon":139.7815274},{"name":"ゆいの森あらかわ","province":"東京都","city":"荒川区","address":"東京都荒川区荒川2丁目28","lat":35.73854954,"lon":139.78417502},{"name":"西日暮里一丁目南","province":"東京都","city":"荒川区","address":"東京都荒川区西日暮里1丁目61-18","lat":35.7342129,"lon":139.77143117},{"name":"西日暮里二丁目東","province":"東京都","city":"荒川区","address":"東京都荒川区西日暮里2丁目13-1","lat":35.73030504,"lon":139.77343118},{"name":"第四日暮里小南","province":"東京都","city":"荒川区","address":"東京都荒川区西日暮里2丁目30-1","lat":35.73075217,"lon":139.77237289},{"name":"荒川町屋郵便局前","province":"東京都","city":"荒川区","address":"東京都荒川区町屋1丁目18-1","lat":35.74372064,"lon":139.78314102},{"name":"日大病院入口","province":"東京都","city":"板橋区","address":"東京都板橋区大山町57","lat":35.74984733,"lon":139.69578072},{"name":"大和町","province":"東京都","city":"板橋区","address":"東京都板橋区本町37-7","lat":35.76090186,"lon":139.70603215},{"name":"常盤台入口","province":"東京都","city":"板橋区","address":"東京都板橋区東山町50-10","lat":35.75582684,"lon":139.68663949},{"name":"板橋区民館入口","province":"東京都","city":"板橋区","address":"東京都板橋区大山東町31-1","lat":35.74961435,"lon":139.70811579},{"name":"板橋本町","province":"東京都","city":"板橋区","address":"東京都板橋区本町40-9","lat":35.7585466,"lon":139.7069544},{"name":"板橋駅前","province":"東京都","city":"板橋区","address":"東京都板橋区板橋1丁目44-6","lat":35.74867302,"lon":139.71760115},{"name":"板橋区役所前","province":"東京都","city":"板橋区","address":"東京都板橋区板橋2丁目66-1","lat":35.75091701,"lon":139.70919342},{"name":"板橋区役所駅前","province":"東京都","city":"板橋区","address":"東京都板橋区板橋2丁目66-16","lat":35.75148917,"lon":139.70964614},{"name":"岩の坂上","province":"東京都","city":"板橋区","address":"東京都板橋区本町35-13","lat":35.76130738,"lon":139.70665153},{"name":"大山駅入口","province":"東京都","city":"板橋区","address":"東京都板橋区大山金井町54-15","lat":35.74533967,"lon":139.70188039},{"name":"板橋中央陸橋下","province":"東京都","city":"板橋区","address":"東京都板橋区東山町48-4","lat":35.75524085,"lon":139.68766167},{"name":"武蔵野病院前","province":"東京都","city":"板橋区","address":"東京都板橋区小茂根4丁目10-1","lat":35.74608599,"lon":139.67504929},{"name":"南常盤台一丁目","province":"東京都","city":"板橋区","address":"東京都板橋区南常盤台1丁目18","lat":35.75685457,"lon":139.68869762},{"name":"加賀交番前","province":"東京都","city":"板橋区","address":"東京都板橋区加賀1丁目10-5","lat":35.7538085,"lon":139.71563721},{"name":"常盤台小学校前","province":"東京都","city":"板橋区","address":"東京都板橋区常盤台1丁目6-1","lat":35.75952655,"lon":139.69117507},{"name":"新板橋駅前","province":"東京都","city":"板橋区","address":"東京都板橋区板橋1丁目52-6","lat":35.74863141,"lon":139.71976208},{"name":"仲宿三差路","province":"東京都","city":"板橋区","address":"東京都板橋区板橋2丁目68-5","lat":35.75182801,"lon":139.70891008},{"name":"常盤台駅前中央通り","province":"東京都","city":"板橋区","address":"東京都板橋区常盤台1丁目10-8","lat":35.76124851,"lon":139.69019172},{"name":"南常盤台一丁目第二","province":"東京都","city":"板橋区","address":"東京都板橋区南常盤台1丁目35-2","lat":35.75699342,"lon":139.68795322},{"name":"板橋第一中前","province":"東京都","city":"板橋区","address":"東京都板橋区栄町35-1","lat":35.75211676,"lon":139.70474376},{"name":"板橋天祖神社前","province":"東京都","city":"板橋区","address":"東京都板橋区南常盤台1丁目32","lat":35.75800994,"lon":139.68779485},{"name":"常盤台駅北","province":"東京都","city":"板橋区","address":"東京都板橋区常盤台2丁目14-1","lat":35.76038471,"lon":139.68967236},{"name":"環七板橋本町","province":"東京都","city":"板橋区","address":"東京都板橋区本町11-2","lat":35.76257953,"lon":139.70947902},{"name":"めぐみ幼稚園前","province":"東京都","city":"板橋区","address":"東京都板橋区常盤台2丁目3-1","lat":35.75981526,"lon":139.68738645},{"name":"板橋大山公園前","province":"東京都","city":"板橋区","address":"東京都板橋区栄町36-1","lat":35.75082525,"lon":139.70499935},{"name":"蓮沼町","province":"東京都","city":"板橋区","address":"東京都板橋区泉町7-7","lat":35.76863411,"lon":139.70194327},{"name":"志村坂上","province":"東京都","city":"板橋区","address":"東京都板橋区志村2丁目3-1","lat":35.77656347,"lon":139.69438248},{"name":"前野町二丁目","province":"東京都","city":"板橋区","address":"東京都板橋区前野町2丁目13-4","lat":35.76358709,"lon":139.68902782},{"name":"蓮根三丁目","province":"東京都","city":"板橋区","address":"東京都板橋区坂下3丁目10-6","lat":35.78559254,"lon":139.6796473},{"name":"志村三丁目","province":"東京都","city":"板橋区","address":"東京都板橋区坂下1丁目7-1","lat":35.77891576,"lon":139.68546089},{"name":"小豆沢公園前","province":"東京都","city":"板橋区","address":"東京都板橋区小豆沢3丁目1","lat":35.77861607,"lon":139.69794601},{"name":"坂下一丁目都営住宅前","province":"東京都","city":"板橋区","address":"東京都板橋区坂下1丁目11-3","lat":35.7787185,"lon":139.68319998},{"name":"前野町二丁目東","province":"東京都","city":"板橋区","address":"東京都板橋区常盤台2丁目27-10","lat":35.76318995,"lon":139.69005554},{"name":"ナショナルトレーニングセンター前","province":"東京都","city":"板橋区","address":"東京都板橋区清水町60-11","lat":35.76596516,"lon":139.70760404},{"name":"小豆沢三丁目東","province":"東京都","city":"板橋区","address":"東京都板橋区小豆沢3丁目9-5","lat":35.78011301,"lon":139.6944379},{"name":"成増","province":"東京都","city":"板橋区","address":"東京都板橋区成増2丁目21-6","lat":35.7780173,"lon":139.62992967},{"name":"成増駅前","province":"東京都","city":"板橋区","address":"東京都板橋区成増2丁目16-1","lat":35.77645087,"lon":139.63214065},{"name":"西台駅南","province":"東京都","city":"板橋区","address":"東京都板橋区蓮根3丁目8-12","lat":35.78591733,"lon":139.67492551},{"name":"高島平三丁目","province":"東京都","city":"板橋区","address":"東京都板橋区高島平7丁目1-1","lat":35.79046608,"lon":139.65332458},{"name":"高島平二丁目","province":"東京都","city":"板橋区","address":"東京都板橋区高島平8丁目2-1","lat":35.7888276,"lon":139.66119894},{"name":"新河岸一丁目","province":"東京都","city":"板橋区","address":"東京都板橋区新河岸2丁目1-31","lat":35.79441288,"lon":139.66290424},{"name":"高島平八丁目東","province":"東京都","city":"板橋区","address":"東京都板橋区高島平8丁目11","lat":35.78961364,"lon":139.66311541},{"name":"高島平警察署前","province":"東京都","city":"板橋区","address":"東京都板橋区高島平2丁目33-6","lat":35.78590855,"lon":139.65968524},{"name":"高島平出張所前","province":"東京都","city":"板橋区","address":"東京都板橋区高島平3丁目13","lat":35.78795544,"lon":139.65866029},{"name":"西台駅前ガード下","province":"東京都","city":"板橋区","address":"東京都板橋区蓮根3丁目9-7","lat":35.78688387,"lon":139.67475327},{"name":"高島一の橋","province":"東京都","city":"板橋区","address":"東京都板橋区高島平9丁目23-1","lat":35.79038028,"lon":139.66622624},{"name":"板橋清掃工場入口","province":"東京都","city":"板橋区","address":"東京都板橋区高島平9丁目14","lat":35.78940268,"lon":139.66686785},{"name":"大東文化大学前","province":"東京都","city":"板橋区","address":"東京都板橋区高島平1丁目5-8","lat":35.78142053,"lon":139.66988722},{"name":"赤塚六丁目","province":"東京都","city":"板橋区","address":"東京都板橋区赤塚6丁目7-1","lat":35.77625681,"lon":139.64687551},{"name":"高島平九丁目第三","province":"東京都","city":"板橋区","address":"東京都板橋区高島平9丁目2","lat":35.78940003,"lon":139.67136466},{"name":"大東文化大学正門前","province":"東京都","city":"板橋区","address":"東京都板橋区西台2丁目42","lat":35.78094001,"lon":139.66864846},{"name":"高島平駅前","province":"東京都","city":"板橋区","address":"東京都板橋区高島平8丁目2","lat":35.78876373,"lon":139.6614767},{"name":"赤塚新町郵便局前","province":"東京都","city":"板橋区","address":"東京都板橋区赤塚新町1丁目25-10","lat":35.77062128,"lon":139.64333992},{"name":"高島平駅北","province":"東京都","city":"板橋区","address":"東京都板橋区高島平8丁目18","lat":35.79037459,"lon":139.66179608},{"name":"高島平駅西口","province":"東京都","city":"板橋区","address":"東京都板橋区高島平7丁目2","lat":35.78959132,"lon":139.65997682},{"name":"矢野口","province":"東京都","city":"稲城市","address":"東京都稲城市矢野口619-14","lat":35.64052914,"lon":139.51973182},{"name":"稲城長沼駅入口","province":"東京都","city":"稲城市","address":"東京都稲城市東長沼1040","lat":35.643933,"lon":139.50127698},{"name":"稲城大丸","province":"東京都","city":"稲城市","address":"東京都稲城市大丸928","lat":35.64816504,"lon":139.49215773},{"name":"稲城市福祉センター入口","province":"東京都","city":"稲城市","address":"東京都稲城市百村1601-2","lat":35.63885051,"lon":139.49928032},{"name":"稲城中央橋","province":"東京都","city":"稲城市","address":"東京都稲城市百村1605","lat":35.63702576,"lon":139.49798609},{"name":"稲城向陽台中央","province":"東京都","city":"稲城市","address":"東京都稲城市向陽台6丁目8-1","lat":35.64144378,"lon":139.49028885},{"name":"稲城市役所前","province":"東京都","city":"稲城市","address":"東京都稲城市東長沼2107-1","lat":35.63863147,"lon":139.50471896},{"name":"小松川橋西詰","province":"東京都","city":"江戸川区","address":"東京都江戸川区小松川4丁目52-3","lat":35.69975868,"lon":139.85051171},{"name":"八蔵橋","province":"東京都","city":"江戸川区","address":"東京都江戸川区中央1丁目6-3","lat":35.70827538,"lon":139.86776791},{"name":"松江西","province":"東京都","city":"江戸川区","address":"東京都江戸川区松江1丁目1-1","lat":35.69857377,"lon":139.86812381},{"name":"江戸川区役所前","province":"東京都","city":"江戸川区","address":"東京都江戸川区中央1丁目3-7","lat":35.70626449,"lon":139.86799296},{"name":"平井駅出口","province":"東京都","city":"江戸川区","address":"東京都江戸川区平井5丁目17-5","lat":35.70734687,"lon":139.84092033},{"name":"今井橋","province":"東京都","city":"江戸川区","address":"東京都江戸川区江戸川4丁目4","lat":35.68198045,"lon":139.88870854},{"name":"瑞江大橋西詰","province":"東京都","city":"江戸川区","address":"東京都江戸川区一之江8丁目18-14","lat":35.68547148,"lon":139.88430872},{"name":"環七一之江陸橋下","province":"東京都","city":"江戸川区","address":"東京都江戸川区一之江4丁目1-22","lat":35.68773221,"lon":139.88240325},{"name":"瑞江大橋","province":"東京都","city":"江戸川区","address":"東京都江戸川区西瑞江4丁目1-1","lat":35.68521045,"lon":139.8850559},{"name":"瑞江駅前","province":"東京都","city":"江戸川区","address":"東京都江戸川区瑞江2丁目3-1","lat":35.69285544,"lon":139.89814055},{"name":"平井駅北口第二","province":"東京都","city":"江戸川区","address":"東京都江戸川区平井5丁目23-1","lat":35.70704133,"lon":139.84262855},{"name":"平井駅南口","province":"東京都","city":"江戸川区","address":"東京都江戸川区平井4丁目11-6","lat":35.7063386,"lon":139.84345076},{"name":"平井駅南口第二","province":"東京都","city":"江戸川区","address":"東京都江戸川区平井4丁目10-4","lat":35.70595251,"lon":139.8441285},{"name":"環七一之江三丁目","province":"東京都","city":"江戸川区","address":"東京都江戸川区一之江4丁目14","lat":35.69097915,"lon":139.88233366},{"name":"柴又新道口","province":"東京都","city":"江戸川区","address":"東京都江戸川区北小岩2丁目1-17","lat":35.73635886,"lon":139.88481789},{"name":"菅原橋","province":"東京都","city":"江戸川区","address":"東京都江戸川区本一色2丁目1-9","lat":35.71608067,"lon":139.8739057},{"name":"篠崎コミュニティ会館入口","province":"東京都","city":"江戸川区","address":"東京都江戸川区上篠崎4丁目19","lat":35.70914768,"lon":139.90088687},{"name":"六軒島第二","province":"東京都","city":"江戸川区","address":"東京都江戸川区西小岩2丁目20-16","lat":35.73411472,"lon":139.87790459},{"name":"船堀小学校前","province":"東京都","city":"江戸川区","address":"東京都江戸川区船堀2丁目22-22","lat":35.68271987,"lon":139.86232762},{"name":"江戸川五丁目","province":"東京都","city":"江戸川区","address":"東京都江戸川区江戸川5丁目22","lat":35.67398887,"lon":139.88162334},{"name":"船堀駅","province":"東京都","city":"江戸川区","address":"東京都江戸川区船堀1丁目6-11","lat":35.68483914,"lon":139.86387187},{"name":"新船堀大橋東詰","province":"東京都","city":"江戸川区","address":"東京都江戸川区船堀1丁目4-13","lat":35.68619736,"lon":139.86473009},{"name":"中葛西二丁目","province":"東京都","city":"江戸川区","address":"東京都江戸川区中葛西2丁目16-6","lat":35.67234696,"lon":139.87588779},{"name":"新田通り宇喜田町","province":"東京都","city":"江戸川区","address":"東京都江戸川区西葛西5丁目8-14","lat":35.66810781,"lon":139.8610059},{"name":"第四葛西小学校前","province":"東京都","city":"江戸川区","address":"東京都江戸川区中葛西8丁目9-5","lat":35.65952589,"lon":139.87046094},{"name":"西葛西六丁目","province":"東京都","city":"江戸川区","address":"東京都江戸川区西葛西6丁目28-14","lat":35.66195034,"lon":139.86385307},{"name":"西葛西六丁目第三","province":"東京都","city":"江戸川区","address":"東京都江戸川区西葛西6丁目12-1","lat":35.66269451,"lon":139.85903403},{"name":"西葛西駅北","province":"東京都","city":"江戸川区","address":"東京都江戸川区西葛西5丁目1-1","lat":35.66529419,"lon":139.85911727},{"name":"葛西駅前第二","province":"東京都","city":"江戸川区","address":"東京都江戸川区中葛西5丁目42-8","lat":35.66278395,"lon":139.87273838},{"name":"中葛西三丁目","province":"東京都","city":"江戸川区","address":"東京都江戸川区中葛西3丁目36-8","lat":35.66543088,"lon":139.87287995},{"name":"葛西駅前","province":"東京都","city":"江戸川区","address":"東京都江戸川区中葛西3丁目37-16","lat":35.66394771,"lon":139.87279389},{"name":"なぎさ団地前","province":"東京都","city":"江戸川区","address":"東京都江戸川区南葛西6丁目15","lat":35.64704146,"lon":139.87910524},{"name":"レクリエーション公園","province":"東京都","city":"江戸川区","address":"東京都江戸川区南葛西3丁目23","lat":35.65069078,"lon":139.87071689},{"name":"葛西中学校北","province":"東京都","city":"江戸川区","address":"東京都江戸川区中葛西1丁目42-19","lat":35.67294659,"lon":139.87170481},{"name":"西葛西児童遊園前","province":"東京都","city":"江戸川区","address":"東京都江戸川区西葛西6丁目11","lat":35.66281668,"lon":139.85787023},{"name":"船堀駅前","province":"東京都","city":"江戸川区","address":"東京都江戸川区船堀3丁目6","lat":35.68362821,"lon":139.86435796},{"name":"清新第一小学校東","province":"東京都","city":"江戸川区","address":"東京都江戸川区清新町1丁目3-6","lat":35.66189452,"lon":139.85587597},{"name":"都住船堀四丁目東","province":"東京都","city":"江戸川区","address":"東京都江戸川区松江5丁目19-1","lat":35.68547268,"lon":139.86795478},{"name":"葛西臨海公園駅東","province":"東京都","city":"江戸川区","address":"東京都江戸川区臨海町6丁目3-8","lat":35.6430054,"lon":139.86559541},{"name":"葛西第七小学校前","province":"東京都","city":"江戸川区","address":"東京都江戸川区西葛西7丁目2","lat":35.66149462,"lon":139.85758696},{"name":"環七東葛西七丁目","province":"東京都","city":"江戸川区","address":"東京都江戸川区東葛西7丁目2-5","lat":35.65992597,"lon":139.873369},{"name":"青梅市役所前第一","province":"東京都","city":"青梅市","address":"東京都青梅市東青梅1丁目11-1","lat":35.78785689,"lon":139.27583503},{"name":"青梅末広町二丁目西","province":"東京都","city":"青梅市","address":"東京都青梅市末広町2丁目2-8","lat":35.77942258,"lon":139.30691877},{"name":"千ヶ瀬二丁目","province":"東京都","city":"青梅市","address":"東京都青梅市千ヶ瀬町2丁目243","lat":35.78593481,"lon":139.27255762},{"name":"河辺小学校南","province":"東京都","city":"青梅市","address":"東京都青梅市河辺町6丁目2","lat":35.7806081,"lon":139.28894797},{"name":"河辺駅北口","province":"東京都","city":"青梅市","address":"東京都青梅市河辺町10丁目7","lat":35.78578519,"lon":139.28627025},{"name":"わかぐさ公園前","province":"東京都","city":"青梅市","address":"東京都青梅市河辺町7丁目14-2","lat":35.78147483,"lon":139.29581681},{"name":"小作駅北","province":"東京都","city":"青梅市","address":"東京都青梅市新町3丁目2","lat":35.77804486,"lon":139.30261082},{"name":"みち境","province":"東京都","city":"青梅市","address":"東京都青梅市根ヶ布2丁目722","lat":35.8065628,"lon":139.2666466},{"name":"青梅合同庁舎前","province":"東京都","city":"青梅市","address":"東京都青梅市河辺町6丁目4-1","lat":35.77999986,"lon":139.28959793},{"name":"永山公園入口","province":"東京都","city":"青梅市","address":"東京都青梅市住江町55","lat":35.78902572,"lon":139.26029501},{"name":"平和島駅入口","province":"東京都","city":"大田区","address":"東京都大田区大森北6丁目28-1","lat":35.57832639,"lon":139.73504792},{"name":"大森第一小学校前","province":"東京都","city":"大田区","address":"東京都大田区大森中1丁目10-7","lat":35.57010797,"lon":139.73473729},{"name":"春日橋","province":"東京都","city":"大田区","address":"東京都大田区山王3丁目13-4","lat":35.58136716,"lon":139.72206254},{"name":"大田文化の森","province":"東京都","city":"大田区","address":"東京都大田区中央2丁目10-1","lat":35.57955621,"lon":139.7202711},{"name":"大森町駅入口","province":"東京都","city":"大田区","address":"東京都大田区大森中1丁目2-23","lat":35.57164102,"lon":139.73274287},{"name":"八幡中央通り","province":"東京都","city":"大田区","address":"東京都大田区大森北3丁目1-1","lat":35.58461988,"lon":139.730959},{"name":"大森東四丁目","province":"東京都","city":"大田区","address":"東京都大田区大森東4丁目19-31","lat":35.56830828,"lon":139.73574012},{"name":"山王","province":"東京都","city":"大田区","address":"東京都大田区山王2丁目1-8","lat":35.59048294,"lon":139.72853391},{"name":"山王二丁目","province":"東京都","city":"大田区","address":"東京都大田区山王2丁目3","lat":35.58694443,"lon":139.72633421},{"name":"大森赤十字病院入口","province":"東京都","city":"大田区","address":"東京都大田区中央3丁目1-3","lat":35.57884793,"lon":139.71882126},{"name":"大森本町二丁目","province":"東京都","city":"大田区","address":"東京都大田区大森本町2丁目1-19","lat":35.58116221,"lon":139.73656158},{"name":"入新井四小入口","province":"東京都","city":"大田区","address":"東京都大田区中央3丁目5-7","lat":35.57789523,"lon":139.71703814},{"name":"東邦大学病院前","province":"東京都","city":"大田区","address":"東京都大田区大森西6丁目11","lat":35.56913532,"lon":139.72386297},{"name":"入新井第一小学校前","province":"東京都","city":"大田区","address":"東京都大田区大森北4丁目6-7","lat":35.58365875,"lon":139.72740928},{"name":"臼田坂下","province":"東京都","city":"大田区","address":"東京都大田区中央4丁目31-1","lat":35.58022832,"lon":139.718524},{"name":"大森銀座入口","province":"東京都","city":"大田区","address":"東京都大田区大森北1丁目29-6","lat":35.5855669,"lon":139.72875077},{"name":"大森郵便局前","province":"東京都","city":"大田区","address":"東京都大田区山王3丁目9-13","lat":35.5826365,"lon":139.72315684},{"name":"環七美原通り","province":"東京都","city":"大田区","address":"東京都大田区大森本町2丁目33-5","lat":35.57772375,"lon":139.73632288},{"name":"大森青少年センター入口","province":"東京都","city":"大田区","address":"東京都大田区大森北1丁目15-1","lat":35.58616131,"lon":139.72953958},{"name":"八幡中央通り第二","province":"東京都","city":"大田区","address":"東京都大田区大森北1丁目19-12","lat":35.58593361,"lon":139.7312228},{"name":"大森駅西口第三","province":"東京都","city":"大田区","address":"東京都大田区山王2丁目8-26","lat":35.58931637,"lon":139.72727572},{"name":"大森東三丁目","province":"東京都","city":"大田区","address":"東京都大田区大森東2丁目23-11","lat":35.5715939,"lon":139.73493163},{"name":"中央一丁目","province":"東京都","city":"大田区","address":"東京都大田区中央2丁目7-3","lat":35.58038391,"lon":139.7211932},{"name":"入新井児童公園前","province":"東京都","city":"大田区","address":"東京都大田区大森北1丁目5-1","lat":35.587275,"lon":139.72784242},{"name":"大森駅西口第二","province":"東京都","city":"大田区","address":"東京都大田区山王2丁目8","lat":35.58883586,"lon":139.72641746},{"name":"入新井第一小学校東","province":"東京都","city":"大田区","address":"東京都大田区大森北4丁目7-4","lat":35.58450315,"lon":139.72859249},{"name":"洗足池駅前","province":"東京都","city":"大田区","address":"東京都大田区南千束2丁目1-5","lat":35.60029759,"lon":139.69135895},{"name":"長原駅入口","province":"東京都","city":"大田区","address":"東京都大田区上池台1丁目44-1","lat":35.60143924,"lon":139.6998109},{"name":"田園調布警察署前","province":"東京都","city":"大田区","address":"東京都大田区田園調布1丁目1-8","lat":35.58912681,"lon":139.67733048},{"name":"上池上稲荷坂","province":"東京都","city":"大田区","address":"東京都大田区上池台5丁目6-1","lat":35.59515661,"lon":139.70111376},{"name":"荏原病院前","province":"東京都","city":"大田区","address":"東京都大田区東雪谷4丁目5-10","lat":35.59460659,"lon":139.69367561},{"name":"貝塚","province":"東京都","city":"大田区","address":"東京都大田区中馬込1丁目1-17","lat":35.59840352,"lon":139.70376897},{"name":"御嶽神社入口","province":"東京都","city":"大田区","address":"東京都大田区田園調布本町56-5","lat":35.58554126,"lon":139.6796305},{"name":"大岡山駅前","province":"東京都","city":"大田区","address":"東京都大田区北千束3丁目27-1","lat":35.60763275,"lon":139.68575363},{"name":"大鳥居","province":"東京都","city":"大田区","address":"東京都大田区羽田1丁目1-1","lat":35.55213877,"lon":139.74081042},{"name":"蒲田郵便局前","province":"東京都","city":"大田区","address":"東京都大田区蒲田4丁目42-12","lat":35.558981,"lon":139.71870008},{"name":"蒲田消防署前","province":"東京都","city":"大田区","address":"東京都大田区蒲田本町2丁目29-12","lat":35.55599817,"lon":139.72014741},{"name":"蒲田四丁目北","province":"東京都","city":"大田区","address":"東京都大田区蒲田4丁目20-1","lat":35.56164436,"lon":139.72123287},{"name":"大田区役所入口","province":"東京都","city":"大田区","address":"東京都大田区蒲田本町1丁目1-3","lat":35.55855055,"lon":139.7163976},{"name":"夫婦橋","province":"東京都","city":"大田区","address":"東京都大田区南蒲田1丁目1-25","lat":35.56087802,"lon":139.7247883},{"name":"あやめ橋","province":"東京都","city":"大田区","address":"東京都大田区蒲田1丁目31-1","lat":35.56263314,"lon":139.7211023},{"name":"西蒲田八丁目第二","province":"東京都","city":"大田区","address":"東京都大田区新蒲田1丁目13-5","lat":35.55957269,"lon":139.710351},{"name":"蒲田駅東口南","province":"東京都","city":"大田区","address":"東京都大田区蒲田5丁目39-2","lat":35.56176389,"lon":139.71664453},{"name":"蒲田駅東口中央","province":"東京都","city":"大田区","address":"東京都大田区蒲田5丁目16-1","lat":35.56237491,"lon":139.71734442},{"name":"蒲田交差西口","province":"東京都","city":"大田区","address":"東京都大田区西蒲田5丁目27-10","lat":35.56435526,"lon":139.71442522},{"name":"蒲田五丁目","province":"東京都","city":"大田区","address":"東京都大田区蒲田5丁目24-2","lat":35.56264984,"lon":139.71930806},{"name":"糀谷駅入口","province":"東京都","city":"大田区","address":"東京都大田区萩中2丁目1-24","lat":35.55337958,"lon":139.72995532},{"name":"西蒲田七丁目","province":"東京都","city":"大田区","address":"東京都大田区西蒲田7丁目9-5","lat":35.56416085,"lon":139.71311427},{"name":"蒲田四丁目南","province":"東京都","city":"大田区","address":"東京都大田区蒲田4丁目29-1","lat":35.56092507,"lon":139.71998865},{"name":"御園神社前","province":"東京都","city":"大田区","address":"東京都大田区西蒲田7丁目39-5","lat":35.56295551,"lon":139.71024522},{"name":"蒲田警察署前","province":"東京都","city":"大田区","address":"東京都大田区蒲田本町2丁目3-3","lat":35.55811168,"lon":139.72037497},{"name":"大田区役所前","province":"東京都","city":"大田区","address":"東京都大田区蒲田5丁目40-10","lat":35.56058352,"lon":139.71651687},{"name":"御園神社前第二","province":"東京都","city":"大田区","address":"東京都大田区西蒲田7丁目51-5","lat":35.56261942,"lon":139.711334},{"name":"蒲田駅西口","province":"東京都","city":"大田区","address":"東京都大田区西蒲田7丁目47-3","lat":35.56256937,"lon":139.71468639},{"name":"御園神社前第三","province":"東京都","city":"大田区","address":"東京都大田区西蒲田7丁目48-1","lat":35.56252218,"lon":139.71328656},{"name":"蒲田五丁目第二","province":"東京都","city":"大田区","address":"東京都大田区蒲田5丁目17-2","lat":35.56259988,"lon":139.71745551},{"name":"蒲田駅西口第二","province":"東京都","city":"大田区","address":"東京都大田区西蒲田7丁目29-5","lat":35.56316374,"lon":139.71499188},{"name":"西蒲田七丁目第二","province":"東京都","city":"大田区","address":"東京都大田区西蒲田7丁目31-1","lat":35.56327764,"lon":139.71341706},{"name":"西蒲田七丁目第三","province":"東京都","city":"大田区","address":"東京都大田区西蒲田7丁目33-1","lat":35.56335265,"lon":139.71178114},{"name":"萩中小学校前","province":"東京都","city":"大田区","address":"東京都大田区萩中3丁目25","lat":35.55005288,"lon":139.73951895},{"name":"京急蒲田駅西口","province":"東京都","city":"大田区","address":"東京都大田区蒲田3丁目20-4","lat":35.5625083,"lon":139.72407434},{"name":"仲蒲田公園入口","province":"東京都","city":"大田区","address":"東京都大田区蒲田4丁目41-1","lat":35.55978918,"lon":139.71899442},{"name":"蒲田八幡神社前","province":"東京都","city":"大田区","address":"東京都大田区蒲田4丁目18-17","lat":35.56006968,"lon":139.72259958},{"name":"蒲田四丁目南第二","province":"東京都","city":"大田区","address":"東京都大田区蒲田5丁目36","lat":35.56134169,"lon":139.71861932},{"name":"蒲田二丁目","province":"東京都","city":"大田区","address":"東京都大田区蒲田2丁目18-24","lat":35.56626057,"lon":139.72262983},{"name":"蒲田東口公園前","province":"東京都","city":"大田区","address":"東京都大田区蒲田5丁目38-3","lat":35.56151391,"lon":139.71739445},{"name":"蒲田社会保険所前","province":"東京都","city":"大田区","address":"東京都大田区蒲田4丁目23-15","lat":35.56055844,"lon":139.72129407},{"name":"下丸子三丁目","province":"東京都","city":"大田区","address":"東京都大田区下丸子3丁目28-11","lat":35.56688332,"lon":139.68427323},{"name":"大田都税前","province":"東京都","city":"大田区","address":"東京都大田区西蒲田6丁目33-1","lat":35.56485524,"lon":139.71051452},{"name":"矢口二丁目南","province":"東京都","city":"大田区","address":"東京都大田区矢口2丁目10-6","lat":35.56323654,"lon":139.69113654},{"name":"谷中通り","province":"東京都","city":"大田区","address":"東京都大田区南馬込2丁目28-1","lat":35.59024374,"lon":139.71862356},{"name":"池上橋南","province":"東京都","city":"大田区","address":"東京都大田区池上3丁目2-1","lat":35.57769507,"lon":139.70037035},{"name":"千鳥二丁目西","province":"東京都","city":"大田区","address":"東京都大田区千鳥2丁目15-16","lat":35.57031304,"lon":139.69352176},{"name":"多摩川一丁目第二","province":"東京都","city":"大田区","address":"東京都大田区多摩川1丁目7-6","lat":35.56336683,"lon":139.69925215},{"name":"池上特別出張所前","province":"東京都","city":"大田区","address":"東京都大田区中央8丁目2-20","lat":35.5746011,"lon":139.71090832},{"name":"西蒲田六丁目第二","province":"東京都","city":"大田区","address":"東京都大田区西蒲田7丁目11-4","lat":35.56437195,"lon":139.71151166},{"name":"池上六丁目第二","province":"東京都","city":"大田区","address":"東京都大田区東矢口1丁目4-18","lat":35.56642735,"lon":139.7038569},{"name":"池上六丁目第三","province":"東京都","city":"大田区","address":"東京都大田区池上6丁目32-11","lat":35.56822984,"lon":139.70440114},{"name":"武蔵新田駅前第二","province":"東京都","city":"大田区","address":"東京都大田区矢口1丁目5-8","lat":35.56745795,"lon":139.69415525},{"name":"武蔵新田駅前","province":"東京都","city":"大田区","address":"東京都大田区矢口1丁目7-14","lat":35.56838562,"lon":139.69222764},{"name":"池上福祉事務所前","province":"東京都","city":"大田区","address":"東京都大田区池上6丁目40-3","lat":35.56784099,"lon":139.70555659},{"name":"第２ターミナル","province":"東京都","city":"大田区","address":"東京都大田区羽田空港3丁目4","lat":35.54998808,"lon":139.7900261},{"name":"大道中学校前","province":"東京都","city":"葛飾区","address":"東京都葛飾区立石5丁目3-8","lat":35.74409914,"lon":139.84374051},{"name":"小菅三丁目","province":"東京都","city":"葛飾区","address":"東京都葛飾区小菅4丁目22-20","lat":35.75687226,"lon":139.82796347},{"name":"小菅二丁目","province":"東京都","city":"葛飾区","address":"東京都葛飾区小菅3丁目14-17","lat":35.75388095,"lon":139.82711924},{"name":"金町三丁目","province":"東京都","city":"葛飾区","address":"東京都葛飾区金町6丁目1-18","lat":35.7671739,"lon":139.87115135},{"name":"亀有四丁目","province":"東京都","city":"葛飾区","address":"東京都葛飾区西亀有3丁目43-10","lat":35.76287171,"lon":139.84142314},{"name":"金町駅北口第二","province":"東京都","city":"葛飾区","address":"東京都葛飾区東金町1丁目45-2","lat":35.76986517,"lon":139.87100686},{"name":"帝釈天参道","province":"東京都","city":"葛飾区","address":"東京都葛飾区柴又7丁目3-7","lat":35.75760856,"lon":139.87611796},{"name":"帝釈天参道第二","province":"東京都","city":"葛飾区","address":"東京都葛飾区柴又7丁目1-10","lat":35.75691699,"lon":139.8764124},{"name":"東金町二丁目","province":"東京都","city":"葛飾区","address":"東京都葛飾区東金町2丁目3-13","lat":35.77092341,"lon":139.8670182},{"name":"葛飾盲学校東","province":"東京都","city":"葛飾区","address":"東京都葛飾区堀切7丁目27-5","lat":35.75620851,"lon":139.82978835},{"name":"ふれあい動物広場前","province":"東京都","city":"葛飾区","address":"東京都葛飾区西亀有1丁目27","lat":35.75759463,"lon":139.84162336},{"name":"曳舟川親水公園","province":"東京都","city":"葛飾区","address":"東京都葛飾区お花茶屋3丁目7-13","lat":35.75480612,"lon":139.84318167},{"name":"亀有駅前第一","province":"東京都","city":"葛飾区","address":"東京都葛飾区亀有3丁目26-1","lat":35.76658519,"lon":139.84842798},{"name":"お花茶屋公園東","province":"東京都","city":"葛飾区","address":"東京都葛飾区お花茶屋1丁目21-14","lat":35.74905131,"lon":139.84131828},{"name":"亀有二丁目西第二","province":"東京都","city":"葛飾区","address":"東京都葛飾区亀有2丁目62-5","lat":35.76283016,"lon":139.84977244},{"name":"金町駅南口交番南","province":"東京都","city":"葛飾区","address":"東京都葛飾区金町6丁目4-2","lat":35.76912359,"lon":139.87244845},{"name":"本田小学校前","province":"東京都","city":"葛飾区","address":"東京都葛飾区立石1丁目8-20","lat":35.73662209,"lon":139.84545455},{"name":"京成立石駅前","province":"東京都","city":"葛飾区","address":"東京都葛飾区立石1丁目21-1","lat":35.7374081,"lon":139.84960686},{"name":"上平井消防出張所前","province":"東京都","city":"葛飾区","address":"東京都葛飾区東新小岩7丁目1-1","lat":35.72344011,"lon":139.85292685},{"name":"新小岩駅前","province":"東京都","city":"葛飾区","address":"東京都葛飾区新小岩1丁目46-9","lat":35.71696561,"lon":139.85901013},{"name":"堀切五丁目","province":"東京都","city":"葛飾区","address":"東京都葛飾区堀切5丁目5-3","lat":35.74897622,"lon":139.8277002},{"name":"巽橋","province":"東京都","city":"葛飾区","address":"東京都葛飾区西新小岩4丁目42-16","lat":35.71929321,"lon":139.85652403},{"name":"シンフォニーヒルズ前","province":"東京都","city":"葛飾区","address":"東京都葛飾区立石6丁目33-1","lat":35.74245764,"lon":139.85221197},{"name":"立石一丁目","province":"東京都","city":"葛飾区","address":"東京都葛飾区立石1丁目11-7","lat":35.73688031,"lon":139.84686545},{"name":"立石駅前第二","province":"東京都","city":"葛飾区","address":"東京都葛飾区東立石4丁目46-6","lat":35.73720813,"lon":139.85044291},{"name":"青砥駅北口","province":"東京都","city":"葛飾区","address":"東京都葛飾区青戸3丁目31-8","lat":35.74579342,"lon":139.85460883},{"name":"堀切菖蒲園駅前","province":"東京都","city":"葛飾区","address":"東京都葛飾区堀切4丁目9-10","lat":35.74698488,"lon":139.82665328},{"name":"葛飾区役所前","province":"東京都","city":"葛飾区","address":"東京都葛飾区立石5丁目12-6","lat":35.74226037,"lon":139.84756795},{"name":"東新小岩三丁目","province":"東京都","city":"葛飾区","address":"東京都葛飾区東新小岩3丁目4-21","lat":35.721057,"lon":139.8588626},{"name":"葛飾税務署前","province":"東京都","city":"葛飾区","address":"東京都葛飾区立石7丁目11-11","lat":35.7423354,"lon":139.8499844},{"name":"新小岩一丁目","province":"東京都","city":"葛飾区","address":"東京都葛飾区新小岩1丁目50-8","lat":35.71575743,"lon":139.86033786},{"name":"西新小岩四丁目","province":"東京都","city":"葛飾区","address":"東京都葛飾区東新小岩5丁目12-1","lat":35.7211903,"lon":139.85524623},{"name":"渋江公園前","province":"東京都","city":"葛飾区","address":"東京都葛飾区立石1丁目6","lat":35.73668888,"lon":139.84359091},{"name":"堀切駅ガード下","province":"東京都","city":"葛飾区","address":"東京都葛飾区堀切4丁目52-5","lat":35.74787639,"lon":139.82665597},{"name":"小松中学校前","province":"東京都","city":"葛飾区","address":"東京都葛飾区新小岩4丁目30-1","lat":35.72039624,"lon":139.86414821},{"name":"立石七丁目","province":"東京都","city":"葛飾区","address":"東京都葛飾区立石7丁目4-9","lat":35.74061056,"lon":139.84961505},{"name":"新小岩駅前第二","province":"東京都","city":"葛飾区","address":"東京都葛飾区新小岩1丁目47-1","lat":35.71660451,"lon":139.85866297},{"name":"新小岩駅前第三","province":"東京都","city":"葛飾区","address":"東京都葛飾区新小岩1丁目45-1","lat":35.71660173,"lon":139.85776858},{"name":"新小岩駅北口","province":"東京都","city":"葛飾区","address":"東京都葛飾区西新小岩1丁目9-8","lat":35.7180933,"lon":139.85785457},{"name":"新小岩ＪＲ官舎前","province":"東京都","city":"葛飾区","address":"東京都葛飾区新小岩2丁目2-26","lat":35.71761568,"lon":139.86079321},{"name":"立石駅前第三","province":"東京都","city":"葛飾区","address":"東京都葛飾区東立石3丁目37-6","lat":35.73672201,"lon":139.84771539},{"name":"生活会館前","province":"東京都","city":"葛飾区","address":"東京都葛飾区立石6丁目33-1","lat":35.74245764,"lon":139.85221197},{"name":"西町停留所前","province":"東京都","city":"葛飾区","address":"東京都葛飾区立石7丁目2-9","lat":35.73936902,"lon":139.84973733},{"name":"松上小学校前","province":"東京都","city":"葛飾区","address":"東京都葛飾区西新小岩4丁目33-10","lat":35.71879599,"lon":139.85336877},{"name":"葛飾勤労福祉会館前","province":"東京都","city":"葛飾区","address":"東京都葛飾区立石3丁目13-4","lat":35.73948022,"lon":139.843588},{"name":"立石駅南","province":"東京都","city":"葛飾区","address":"東京都葛飾区東立石4丁目54-6","lat":35.73688313,"lon":139.8487014},{"name":"大道橋","province":"東京都","city":"葛飾区","address":"東京都葛飾区東立石3丁目24-11","lat":35.73650815,"lon":139.84636277},{"name":"新小岩東北広場入口","province":"東京都","city":"葛飾区","address":"東京都葛飾区東新小岩1丁目14-11","lat":35.72107373,"lon":139.86015413},{"name":"田端新町三丁目","province":"東京都","city":"北区","address":"東京都北区田端新町3丁目13-7","lat":35.74264464,"lon":139.76250344},{"name":"田端新町一丁目","province":"東京都","city":"北区","address":"東京都北区田端新町2丁目8-8","lat":35.73920376,"lon":139.7681311},{"name":"尾久駅前","province":"東京都","city":"北区","address":"東京都北区昭和町1丁目3-9","lat":35.74713812,"lon":139.75500649},{"name":"飛鳥山","province":"東京都","city":"北区","address":"東京都北区王子1丁目1","lat":35.75116487,"lon":139.73812432},{"name":"滝野川五丁目","province":"東京都","city":"北区","address":"東京都北区滝野川5丁目15-5","lat":35.74665676,"lon":139.72529504},{"name":"北谷端公園入口","province":"東京都","city":"北区","address":"東京都北区滝野川7丁目22","lat":35.74348204,"lon":139.72142883},{"name":"西ヶ原四丁目","province":"東京都","city":"北区","address":"東京都北区西ケ原4丁目47-4","lat":35.74463215,"lon":139.73313612},{"name":"平塚神社前","province":"東京都","city":"北区","address":"東京都北区西ケ原1丁目26-6","lat":35.74408523,"lon":139.74568787},{"name":"谷端市場通り","province":"東京都","city":"北区","address":"東京都北区滝野川7丁目30-7","lat":35.7430321,"lon":139.72174271},{"name":"西ヶ原三丁目","province":"東京都","city":"北区","address":"東京都北区西ケ原3丁目57-17","lat":35.74387401,"lon":139.73850793},{"name":"中里町","province":"東京都","city":"北区","address":"東京都北区中里2丁目5-5","lat":35.73821117,"lon":139.74966284},{"name":"童橋下","province":"東京都","city":"北区","address":"東京都北区田端2丁目7-28","lat":35.73526199,"lon":139.75910398},{"name":"板橋駅東口","province":"東京都","city":"北区","address":"東京都北区滝野川7丁目8-10","lat":35.74542624,"lon":139.72070659},{"name":"田端操駅前","province":"東京都","city":"北区","address":"東京都北区東田端2丁目2-1","lat":35.74018654,"lon":139.76124531},{"name":"田端銀座通り","province":"東京都","city":"北区","address":"東京都北区田端4丁目3-1","lat":35.73592826,"lon":139.75251552},{"name":"聖学院前","province":"東京都","city":"北区","address":"東京都北区中里3丁目12-2","lat":35.74138588,"lon":139.75187921},{"name":"滝野川一丁目三差路","province":"東京都","city":"北区","address":"東京都北区滝野川1丁目48-8","lat":35.74749853,"lon":139.73474976},{"name":"田端駅前","province":"東京都","city":"北区","address":"東京都北区田端1丁目21-8","lat":35.73790898,"lon":139.76033991},{"name":"滝野川六丁目","province":"東京都","city":"北区","address":"東京都北区滝野川5丁目40-1","lat":35.74777882,"lon":139.72353958},{"name":"飛鳥山公園前","province":"東京都","city":"北区","address":"東京都北区王子1丁目1","lat":35.75116487,"lon":139.73812432},{"name":"南谷端公園前南","province":"東京都","city":"北区","address":"東京都北区滝野川7丁目38-1","lat":35.74150452,"lon":139.72320376},{"name":"南谷端公園前北","province":"東京都","city":"北区","address":"東京都北区滝野川7丁目32-14","lat":35.74217943,"lon":139.72234548},{"name":"東田端一丁目","province":"東京都","city":"北区","address":"東京都北区東田端1丁目8-11","lat":35.73815916,"lon":139.76359806},{"name":"紅葉小学校前","province":"東京都","city":"北区","address":"東京都北区滝野川3丁目72-1","lat":35.750998,"lon":139.72840293},{"name":"田端大曲陸橋下","province":"東京都","city":"北区","address":"東京都北区東田端1丁目13-10","lat":35.73918951,"lon":139.76240641},{"name":"滝野川病院前","province":"東京都","city":"北区","address":"東京都北区滝野川3丁目66-10","lat":35.75048144,"lon":139.73043334},{"name":"駒込駅東","province":"東京都","city":"北区","address":"東京都北区中里2丁目16-3","lat":35.73899988,"lon":139.74836011},{"name":"田端高台交番前","province":"東京都","city":"北区","address":"東京都北区田端6丁目3-1","lat":35.73836715,"lon":139.75850111},{"name":"板橋駅東口第二","province":"東京都","city":"北区","address":"東京都北区滝野川7丁目3-1","lat":35.74516515,"lon":139.72017608},{"name":"中里ガード下第一","province":"東京都","city":"北区","address":"東京都北区中里2丁目6-1","lat":35.73811676,"lon":139.7502128},{"name":"中里ガード下第二","province":"東京都","city":"北区","address":"東京都北区中里1丁目7-5","lat":35.73755572,"lon":139.75018505},{"name":"滝野川小学校前","province":"東京都","city":"北区","address":"東京都北区西ケ原1丁目19-14","lat":35.74275215,"lon":139.74795164},{"name":"田端新町二丁目東","province":"東京都","city":"北区","address":"東京都北区田端新町2丁目24-5","lat":35.7407729,"lon":139.76651164},{"name":"東田端郵便局南","province":"東京都","city":"北区","address":"東京都北区東田端2丁目20-68","lat":35.74000875,"lon":139.76072035},{"name":"上中里駅前","province":"東京都","city":"北区","address":"東京都北区上中里1丁目47-34","lat":35.74627945,"lon":139.74657659},{"name":"田端新橋東","province":"東京都","city":"北区","address":"東京都北区東田端2丁目20-68","lat":35.74000875,"lon":139.76072035},{"name":"田端駅前第二","province":"東京都","city":"北区","address":"東京都北区東田端1丁目17","lat":35.73720644,"lon":139.7626565},{"name":"上中里二丁目","province":"東京都","city":"北区","address":"東京都北区上中里2丁目44-1","lat":35.74671276,"lon":139.74712098},{"name":"上中里二丁目第二","province":"東京都","city":"北区","address":"東京都北区上中里2丁目44-1","lat":35.74671276,"lon":139.74712098},{"name":"谷端小学校入口","province":"東京都","city":"北区","address":"東京都北区滝野川7丁目17-12","lat":35.7440986,"lon":139.72030946},{"name":"十条仲原二丁目","province":"東京都","city":"北区","address":"東京都北区十条仲原2丁目8-11","lat":35.76580722,"lon":139.72080851},{"name":"王子駅前","province":"東京都","city":"北区","address":"東京都北区王子1丁目4-12","lat":35.75319521,"lon":139.73808535},{"name":"王子本町","province":"東京都","city":"北区","address":"東京都北区王子本町1丁目18-5","lat":35.75380059,"lon":139.73372183},{"name":"東十条交番前","province":"東京都","city":"北区","address":"東京都北区東十条4丁目5-22","lat":35.76612126,"lon":139.72822454},{"name":"十条中学校入口","province":"東京都","city":"北区","address":"東京都北区上十条1丁目4-16","lat":35.75881925,"lon":139.72449739},{"name":"王子一丁目","province":"東京都","city":"北区","address":"東京都北区王子1丁目16-1","lat":35.75454505,"lon":139.73754369},{"name":"上十条四丁目","province":"東京都","city":"北区","address":"東京都北区上十条3丁目14-6","lat":35.76202698,"lon":139.7155591},{"name":"王子二丁目","province":"東京都","city":"北区","address":"東京都北区王子2丁目13-6","lat":35.75628929,"lon":139.73716865},{"name":"王子小公園前","province":"東京都","city":"北区","address":"東京都北区王子1丁目6-5","lat":35.75450899,"lon":139.73943518},{"name":"王子一丁目第二","province":"東京都","city":"北区","address":"東京都北区王子本町1丁目13-7","lat":35.75349227,"lon":139.73271358},{"name":"王子本町二丁目","province":"東京都","city":"北区","address":"東京都北区王子本町2丁目9-13","lat":35.75629469,"lon":139.73078863},{"name":"王子本町二丁目第二","province":"東京都","city":"北区","address":"東京都北区王子本町2丁目9-8","lat":35.75672797,"lon":139.73052475},{"name":"上十条二丁目","province":"東京都","city":"北区","address":"東京都北区上十条2丁目12-10","lat":35.75986348,"lon":139.72078098},{"name":"王子児童会館前","province":"東京都","city":"北区","address":"東京都北区豊島1丁目18-14","lat":35.75883353,"lon":139.73987386},{"name":"北都税事務所前","province":"東京都","city":"北区","address":"東京都北区十条台1丁目4-12","lat":35.7578889,"lon":139.72856653},{"name":"王子本町郵便局前","province":"東京都","city":"北区","address":"東京都北区王子本町1丁目1-10","lat":35.75283962,"lon":139.73542449},{"name":"王子保健所前","province":"東京都","city":"北区","address":"東京都北区東十条1丁目22-6","lat":35.76274118,"lon":139.73066894},{"name":"王子本町二丁目南","province":"東京都","city":"北区","address":"東京都北区王子本町2丁目16-15","lat":35.75524205,"lon":139.73158028},{"name":"北とぴあ前","province":"東京都","city":"北区","address":"東京都北区王子1丁目10","lat":35.75392844,"lon":139.73718818},{"name":"北特別支援学校前","province":"東京都","city":"北区","address":"東京都北区十条台1丁目2-3","lat":35.75403643,"lon":139.72307825},{"name":"東十条出張所前","province":"東京都","city":"北区","address":"東京都北区東十条3丁目3-1","lat":35.76462704,"lon":139.72977726},{"name":"南橋第二","province":"東京都","city":"北区","address":"東京都北区中十条1丁目5-6","lat":35.75867219,"lon":139.73040246},{"name":"志茂五丁目","province":"東京都","city":"北区","address":"東京都北区岩淵町1-2","lat":35.78298835,"lon":139.72646299},{"name":"赤羽北二丁目","province":"東京都","city":"北区","address":"東京都北区赤羽北2丁目8-1","lat":35.78519031,"lon":139.70796726},{"name":"浮間一丁目","province":"東京都","city":"北区","address":"東京都北区浮間1丁目1-12","lat":35.78852864,"lon":139.70419803},{"name":"赤羽西六丁目","province":"東京都","city":"北区","address":"東京都北区桐ケ丘1丁目22","lat":35.7755944,"lon":139.70503166},{"name":"赤羽一丁目","province":"東京都","city":"北区","address":"東京都北区赤羽2丁目16-3","lat":35.77940273,"lon":139.72271338},{"name":"赤羽南二丁目","province":"東京都","city":"北区","address":"東京都北区赤羽南2丁目8-21","lat":35.77412292,"lon":139.72378847},{"name":"浮間小学校前第一","province":"東京都","city":"北区","address":"東京都北区浮間3丁目13-15","lat":35.78704271,"lon":139.70014003},{"name":"浮間小学校前第二","province":"東京都","city":"北区","address":"東京都北区浮間3丁目4-27","lat":35.78595677,"lon":139.70060113},{"name":"赤羽北公団住宅前","province":"東京都","city":"北区","address":"東京都北区赤羽北2丁目22-5","lat":35.78518194,"lon":139.70556189},{"name":"西が丘サッカー場","province":"東京都","city":"北区","address":"東京都北区赤羽西6丁目1-4","lat":35.77044515,"lon":139.7077233},{"name":"赤羽北三丁目","province":"東京都","city":"北区","address":"東京都北区赤羽3丁目25-5","lat":35.78552108,"lon":139.71968297},{"name":"浮間橋南詰","province":"東京都","city":"北区","address":"東京都北区赤羽北2丁目26","lat":35.78593464,"lon":139.70772004},{"name":"志茂交番横","province":"東京都","city":"北区","address":"東京都北区赤羽南1丁目15-20","lat":35.77757252,"lon":139.72590483},{"name":"赤羽南一丁目","province":"東京都","city":"北区","address":"東京都北区赤羽南1丁目5-12","lat":35.77665867,"lon":139.72276068},{"name":"赤羽岩淵駅前","province":"東京都","city":"北区","address":"東京都北区岩淵町34-1","lat":35.78361313,"lon":139.72228833},{"name":"国立スポーツ科学センター","province":"東京都","city":"北区","address":"東京都北区西が丘3丁目12","lat":35.76718453,"lon":139.71039821},{"name":"浮間第二団地前","province":"東京都","city":"北区","address":"東京都北区浮間3丁目1-18","lat":35.78692331,"lon":139.70187601},{"name":"赤羽消防署前","province":"東京都","city":"北区","address":"東京都北区赤羽2丁目1-7","lat":35.77810016,"lon":139.7230106},{"name":"赤羽三丁目","province":"東京都","city":"北区","address":"東京都北区赤羽1丁目62-10","lat":35.78261877,"lon":139.71962192},{"name":"姥ヶ橋","province":"東京都","city":"北区","address":"東京都北区西が丘2丁目8-3","lat":35.7637767,"lon":139.71336476},{"name":"赤羽保健所前","province":"東京都","city":"北区","address":"東京都北区赤羽台3丁目17-57","lat":35.7794357,"lon":139.71157267},{"name":"赤羽駅西口","province":"東京都","city":"北区","address":"東京都北区赤羽西1丁目39-18","lat":35.77922765,"lon":139.71926367},{"name":"桐ヶ丘郵便局前","province":"東京都","city":"北区","address":"東京都北区桐ケ丘2丁目7-27","lat":35.77936339,"lon":139.70765911},{"name":"西が丘サッカー場北","province":"東京都","city":"北区","address":"東京都北区赤羽西6丁目37-2","lat":35.76975354,"lon":139.70635398},{"name":"赤羽西五丁目","province":"東京都","city":"北区","address":"東京都北区赤羽西5丁目2","lat":35.77326984,"lon":139.71003689},{"name":"西ヶ丘サッカー場前","province":"東京都","city":"北区","address":"東京都北区西が丘3丁目15-1","lat":35.76735389,"lon":139.70811227},{"name":"赤羽諏訪神社前","province":"東京都","city":"北区","address":"東京都北区赤羽北3丁目3-20","lat":35.78350724,"lon":139.70908944},{"name":"第三岩淵小学校前","province":"東京都","city":"北区","address":"東京都北区西が丘1丁目12-14","lat":35.77112581,"lon":139.7141644},{"name":"赤羽駅東口第二","province":"東京都","city":"北区","address":"東京都北区赤羽1丁目13-2","lat":35.77933048,"lon":139.7213996},{"name":"浮間舟渡駅前","province":"東京都","city":"北区","address":"東京都北区浮間2丁目31","lat":35.79145589,"lon":139.69327656},{"name":"赤羽台四丁目","province":"東京都","city":"北区","address":"東京都北区赤羽台4丁目1","lat":35.78300198,"lon":139.71712212},{"name":"赤羽西一丁目東","province":"東京都","city":"北区","address":"東京都北区赤羽西1丁目6","lat":35.77772508,"lon":139.71860266},{"name":"赤羽西六丁目東","province":"東京都","city":"北区","address":"東京都北区桐ケ丘1丁目22-1","lat":35.77541109,"lon":139.70518998},{"name":"西が丘サッカー場裏","province":"東京都","city":"北区","address":"東京都北区西が丘3丁目15","lat":35.76766219,"lon":139.70831224},{"name":"北赤羽駅入口","province":"東京都","city":"北区","address":"東京都北区赤羽南2丁目7-7","lat":35.77297582,"lon":139.72270249},{"name":"赤羽駅西口第二","province":"東京都","city":"北区","address":"東京都北区赤羽1丁目67","lat":35.78099123,"lon":139.7185387},{"name":"赤羽南二丁目西","province":"東京都","city":"北区","address":"東京都北区赤羽南2丁目9-62","lat":35.77325355,"lon":139.72241362},{"name":"赤羽駅南ガード下","province":"東京都","city":"北区","address":"東京都北区赤羽1丁目1-26","lat":35.77603652,"lon":139.72217464},{"name":"清瀬市役所入口","province":"東京都","city":"清瀬市","address":"東京都清瀬市中清戸3丁目205","lat":35.78096152,"lon":139.53019096},{"name":"清瀬水天宮前","province":"東京都","city":"清瀬市","address":"東京都清瀬市中清戸2丁目616","lat":35.78005876,"lon":139.52625248},{"name":"台田団地入口","province":"東京都","city":"清瀬市","address":"東京都清瀬市中里5丁目636-22","lat":35.78700223,"lon":139.52292789},{"name":"国立東京病院前","province":"東京都","city":"清瀬市","address":"東京都清瀬市竹丘1丁目17","lat":35.76976789,"lon":139.50637674},{"name":"中清戸駐在所前","province":"東京都","city":"清瀬市","address":"東京都清瀬市上清戸2丁目1","lat":35.77943659,"lon":139.52496373},{"name":"中清戸団地入口","province":"東京都","city":"清瀬市","address":"東京都清瀬市中清戸4丁目1096","lat":35.78254192,"lon":139.53263518},{"name":"長命寺前","province":"東京都","city":"清瀬市","address":"東京都清瀬市下清戸2丁目470","lat":35.7837668,"lon":139.53509054},{"name":"けやき通り元町一丁目","province":"東京都","city":"清瀬市","address":"東京都清瀬市元町1丁目4-17","lat":35.7745482,"lon":139.520617},{"name":"中清戸五丁目東","province":"東京都","city":"清瀬市","address":"東京都清瀬市中清戸5丁目47-4","lat":35.78114768,"lon":139.53326563},{"name":"日本社会事業大学入口","province":"東京都","city":"清瀬市","address":"東京都清瀬市竹丘1丁目16","lat":35.76764323,"lon":139.50961816},{"name":"福祉センター前","province":"東京都","city":"国立市","address":"東京都国立市富士見台1丁目7-1","lat":35.68457064,"lon":139.44888498},{"name":"富士見台第一団地","province":"東京都","city":"国立市","address":"東京都国立市富士見台1丁目12","lat":35.68318466,"lon":139.44756847},{"name":"国立市民総合体育館前","province":"東京都","city":"国立市","address":"東京都国立市富士見台2丁目48","lat":35.68475647,"lon":139.4401274},{"name":"国立富士見通り入口","province":"東京都","city":"国立市","address":"東京都国立市中1丁目9-52","lat":35.69809405,"lon":139.44623194},{"name":"国立旭通り入口","province":"東京都","city":"国立市","address":"東京都国立市東1丁目6-25","lat":35.69813573,"lon":139.44703465},{"name":"国立高校西","province":"東京都","city":"国立市","address":"東京都国立市富士見台2丁目1-1","lat":35.68666756,"lon":139.44659622},{"name":"国立駅交番前","province":"東京都","city":"国立市","address":"東京都国立市東1丁目4-13","lat":35.69882455,"lon":139.44735126},{"name":"谷保第三公園北","province":"東京都","city":"国立市","address":"東京都国立市富士見台2丁目33-1","lat":35.68590649,"lon":139.44506304},{"name":"国立駅南口西","province":"東京都","city":"国立市","address":"東京都国立市中1丁目8-43","lat":35.69879952,"lon":139.44602083},{"name":"辰巳二丁目","province":"東京都","city":"江東区","address":"東京都江東区辰巳1丁目10-57","lat":35.64684791,"lon":139.81136906},{"name":"辰巳第二小学校前","province":"東京都","city":"江東区","address":"東京都江東区辰巳1丁目9-60","lat":35.64925314,"lon":139.80949136},{"name":"船の科学館入口","province":"東京都","city":"江東区","address":"東京都江東区青海1丁目1","lat":35.62344145,"lon":139.77495385},{"name":"テレコム駅前","province":"東京都","city":"江東区","address":"東京都江東区青海2丁目6-3","lat":35.61612036,"lon":139.77722358},{"name":"辰巳の森公園前","province":"東京都","city":"江東区","address":"東京都江東区辰巳2丁目1","lat":35.64899491,"lon":139.81239389},{"name":"嘉悦学園入口","province":"東京都","city":"江東区","address":"東京都江東区有明1丁目1-17","lat":35.64231473,"lon":139.79573733},{"name":"夢の島","province":"東京都","city":"江東区","address":"東京都江東区新木場1丁目2-11","lat":35.64491513,"lon":139.82490129},{"name":"千石橋北","province":"東京都","city":"江東区","address":"東京都江東区新木場1丁目18-6","lat":35.64371254,"lon":139.8257263},{"name":"夢の島第二","province":"東京都","city":"江東区","address":"東京都江東区夢の島2丁目1","lat":35.64925356,"lon":139.82649544},{"name":"新木場駅前","province":"東京都","city":"江東区","address":"東京都江東区新木場1丁目18-11","lat":35.64412641,"lon":139.82744557},{"name":"木遣り橋南","province":"東京都","city":"江東区","address":"東京都江東区有明1丁目2-22","lat":35.64094542,"lon":139.79394867},{"name":"有明テニスの森駅前","province":"東京都","city":"江東区","address":"東京都江東区有明1丁目3-20","lat":35.63905107,"lon":139.79022683},{"name":"清澄三丁目","province":"東京都","city":"江東区","address":"東京都江東区清澄3丁目7-9","lat":35.68220214,"lon":139.79856599},{"name":"扇橋二丁目","province":"東京都","city":"江東区","address":"東京都江東区扇橋2丁目22-3","lat":35.6828521,"lon":139.81624074},{"name":"白河三丁目","province":"東京都","city":"江東区","address":"東京都江東区白河3丁目4-3","lat":35.68222989,"lon":139.80574246},{"name":"永代二丁目","province":"東京都","city":"江東区","address":"東京都江東区永代2丁目12-3","lat":35.67367779,"lon":139.79152619},{"name":"木場五丁目","province":"東京都","city":"江東区","address":"東京都江東区木場2丁目20","lat":35.66918415,"lon":139.80526639},{"name":"門前仲町","province":"東京都","city":"江東区","address":"東京都江東区門前仲町1丁目7-9","lat":35.67273633,"lon":139.79477891},{"name":"豊洲駅前","province":"東京都","city":"江東区","address":"東京都江東区豊洲2丁目2-12","lat":35.65470219,"lon":139.79594802},{"name":"東陽六丁目","province":"東京都","city":"江東区","address":"東京都江東区東陽6丁目4-5","lat":35.67593631,"lon":139.81551562},{"name":"東陽町駅前","province":"東京都","city":"江東区","address":"東京都江東区東陽4丁目2-1","lat":35.66993428,"lon":139.81666244},{"name":"白河二丁目","province":"東京都","city":"江東区","address":"東京都江東区白河1丁目4-11","lat":35.68196327,"lon":139.8008461},{"name":"扇橋三丁目","province":"東京都","city":"江東区","address":"東京都江東区扇橋3丁目11-7","lat":35.68335484,"lon":139.81850983},{"name":"千石二丁目","province":"東京都","city":"江東区","address":"東京都江東区千石2丁目8-17","lat":35.67898594,"lon":139.81573794},{"name":"千石一丁目","province":"東京都","city":"江東区","address":"東京都江東区千石1丁目13-24","lat":35.6784054,"lon":139.81160241},{"name":"深川不動前","province":"東京都","city":"江東区","address":"東京都江東区富岡1丁目6-6","lat":35.67104491,"lon":139.79711757},{"name":"東陽四丁目","province":"東京都","city":"江東区","address":"東京都江東区東陽4丁目1-20","lat":35.66948439,"lon":139.81948165},{"name":"深川高校前","province":"東京都","city":"江東区","address":"東京都江東区東陽4丁目10-8","lat":35.67195349,"lon":139.81653198},{"name":"枝川一丁目第二","province":"東京都","city":"江東区","address":"東京都江東区枝川1丁目6-14","lat":35.65686604,"lon":139.80393056},{"name":"新豊洲変電所前","province":"東京都","city":"江東区","address":"東京都江東区豊洲6丁目1","lat":35.65019974,"lon":139.79000422},{"name":"扇橋二丁目第二","province":"東京都","city":"江東区","address":"東京都江東区扇橋3丁目15-10","lat":35.68325206,"lon":139.81739889},{"name":"深川五中角","province":"東京都","city":"江東区","address":"東京都江東区豊洲5丁目5","lat":35.65340512,"lon":139.796398},{"name":"豊洲二丁目","province":"東京都","city":"江東区","address":"東京都江東区豊洲2丁目5","lat":35.65794337,"lon":139.79123171},{"name":"東陽三丁目東","province":"東京都","city":"江東区","address":"東京都江東区東陽3丁目22-1","lat":35.66898431,"lon":139.81218784},{"name":"東陽三丁目住宅前","province":"東京都","city":"江東区","address":"東京都江東区東陽3丁目22-32","lat":35.66918986,"lon":139.81313776},{"name":"漣橋北","province":"東京都","city":"江東区","address":"東京都江東区潮見2丁目3","lat":35.65735517,"lon":139.81617663},{"name":"東陽二丁目","province":"東京都","city":"江東区","address":"東京都江東区東陽2丁目4-24","lat":35.66836503,"lon":139.81698744},{"name":"森下駅西","province":"東京都","city":"江東区","address":"東京都江東区新大橋3丁目3-6","lat":35.68776824,"lon":139.79654747},{"name":"江東区役所前","province":"東京都","city":"江東区","address":"東京都江東区東陽5丁目31-19","lat":35.67283114,"lon":139.81570434},{"name":"東陽町駅東口","province":"東京都","city":"江東区","address":"東京都江東区東陽4丁目5-18","lat":35.67048425,"lon":139.81829565},{"name":"扇橋三丁目第二","province":"東京都","city":"江東区","address":"東京都江東区扇橋3丁目7-3","lat":35.68255774,"lon":139.82023454},{"name":"潮見駅南","province":"東京都","city":"江東区","address":"東京都江東区潮見2丁目10-22","lat":35.65700526,"lon":139.81812368},{"name":"江東区文化センター東","province":"東京都","city":"江東区","address":"東京都江東区東陽4丁目12-30","lat":35.67261456,"lon":139.81919007},{"name":"東陽図書館前","province":"東京都","city":"江東区","address":"東京都江東区東陽2丁目2-20","lat":35.66588197,"lon":139.816032},{"name":"清澄白河駅","province":"東京都","city":"江東区","address":"東京都江東区白河2丁目9-5","lat":35.68203826,"lon":139.8021431},{"name":"豊洲六丁目","province":"東京都","city":"江東区","address":"東京都江東区豊洲6丁目2","lat":35.64571973,"lon":139.79140145},{"name":"豊洲埠頭口前","province":"東京都","city":"江東区","address":"東京都江東区豊洲5丁目1","lat":35.6498916,"lon":139.79570094},{"name":"豊洲三丁目","province":"東京都","city":"江東区","address":"東京都江東区豊洲2丁目1","lat":35.65699075,"lon":139.79314545},{"name":"区民センター前","province":"東京都","city":"江東区","address":"東京都江東区大島2丁目41-18","lat":35.68959587,"lon":139.82617805},{"name":"亀戸五丁目","province":"東京都","city":"江東区","address":"東京都江東区亀戸5丁目15-2","lat":35.69990821,"lon":139.82578635},{"name":"中川新橋西詰","province":"東京都","city":"江東区","address":"東京都江東区亀戸9丁目8","lat":35.69656757,"lon":139.8436343},{"name":"大島仲の橋","province":"東京都","city":"江東区","address":"東京都江東区大島7丁目1-18","lat":35.69029342,"lon":139.83811537},{"name":"亀戸七丁目","province":"東京都","city":"江東区","address":"東京都江東区亀戸7丁目41-5","lat":35.69693989,"lon":139.83645134},{"name":"亀戸駅北口","province":"東京都","city":"江東区","address":"東京都江東区亀戸5丁目1-1","lat":35.69781692,"lon":139.82621403},{"name":"大島八丁目","province":"東京都","city":"江東区","address":"東京都江東区大島8丁目42-11","lat":35.69047391,"lon":139.84406775},{"name":"砂町橋","province":"東京都","city":"江東区","address":"東京都江東区南砂6丁目4-6","lat":35.67363145,"lon":139.83348855},{"name":"南砂三丁目","province":"東京都","city":"江東区","address":"東京都江東区南砂3丁目4-7","lat":35.67345352,"lon":139.82670594},{"name":"日曹橋北","province":"東京都","city":"江東区","address":"東京都江東区南砂3丁目2-1","lat":35.6705122,"lon":139.82621712},{"name":"第三大島小学校入口","province":"東京都","city":"江東区","address":"東京都江東区大島7丁目41-8","lat":35.69288472,"lon":139.8433094},{"name":"日曹橋","province":"東京都","city":"江東区","address":"東京都江東区南砂3丁目2","lat":35.67059,"lon":139.82714758},{"name":"南砂五差路","province":"東京都","city":"江東区","address":"東京都江東区南砂1丁目11-15","lat":35.67820564,"lon":139.82440897},{"name":"大島六丁目","province":"東京都","city":"江東区","address":"東京都江東区大島5丁目35-8","lat":35.68974071,"lon":139.83620996},{"name":"環四亀戸七丁目第二","province":"東京都","city":"江東区","address":"東京都江東区亀戸7丁目49-4","lat":35.6957429,"lon":139.83429587},{"name":"第三砂町小前","province":"東京都","city":"江東区","address":"東京都江東区南砂4丁目19-13","lat":35.67185386,"lon":139.83220261},{"name":"江東試験場入口","province":"東京都","city":"江東区","address":"東京都江東区南砂2丁目3","lat":35.67096762,"lon":139.82298967},{"name":"都立東高校角","province":"東京都","city":"江東区","address":"東京都江東区南砂6丁目7","lat":35.67234275,"lon":139.8348801},{"name":"南砂三丁目公園入口","province":"東京都","city":"江東区","address":"東京都江東区南砂6丁目2-1","lat":35.67136509,"lon":139.83436628},{"name":"南砂二丁目団地入口","province":"東京都","city":"江東区","address":"東京都江東区南砂2丁目3-3","lat":35.67328122,"lon":139.82288413},{"name":"北砂五丁目団地前","province":"東京都","city":"江東区","address":"東京都江東区北砂5丁目20-8","lat":35.68347745,"lon":139.83288003},{"name":"中川新橋西詰第二","province":"東京都","city":"江東区","address":"東京都江東区亀戸9丁目8","lat":35.69656757,"lon":139.8436343},{"name":"江東試験場前","province":"東京都","city":"江東区","address":"東京都江東区新砂1丁目7-24","lat":35.6689012,"lon":139.82269804},{"name":"南砂二丁目南公園前","province":"東京都","city":"江東区","address":"東京都江東区南砂2丁目3-6","lat":35.67042604,"lon":139.82382569},{"name":"東大島駅入口","province":"東京都","city":"江東区","address":"東京都江東区大島9丁目2","lat":35.68882412,"lon":139.84570657},{"name":"南砂三丁目公園前","province":"東京都","city":"江東区","address":"東京都江東区南砂3丁目14","lat":35.66992634,"lon":139.83271092},{"name":"南砂町駅前","province":"東京都","city":"江東区","address":"東京都江東区南砂3丁目14-1","lat":35.66877645,"lon":139.83174161},{"name":"江東医療センター入口","province":"東京都","city":"江東区","address":"東京都江東区新砂3丁目3","lat":35.66770714,"lon":139.83211937},{"name":"あゆみ橋","province":"東京都","city":"江東区","address":"東京都江東区新砂3丁目3","lat":35.66770714,"lon":139.83211937},{"name":"南砂町駅西口","province":"東京都","city":"江東区","address":"東京都江東区新砂2丁目1","lat":35.66886798,"lon":139.82686152},{"name":"前原坂上","province":"東京都","city":"小金井市","address":"東京都小金井市前原町3丁目41-24","lat":35.6986316,"lon":139.50591292},{"name":"小金井本町二丁目","province":"東京都","city":"小金井市","address":"東京都小金井市本町4丁目1-38","lat":35.70565307,"lon":139.50749306},{"name":"小金井第一小学校前第一","province":"東京都","city":"小金井市","address":"東京都小金井市中町1丁目9-19","lat":35.6972291,"lon":139.51038483},{"name":"貫井北町学芸大角","province":"東京都","city":"小金井市","address":"東京都小金井市貫井北町2丁目18-6","lat":35.70764141,"lon":139.4961078},{"name":"武蔵小金井駅北口","province":"東京都","city":"小金井市","address":"東京都小金井市本町5丁目1","lat":35.70118684,"lon":139.5051351},{"name":"小金井中町三丁目","province":"東京都","city":"小金井市","address":"東京都小金井市本町1丁目13-3","lat":35.69889837,"lon":139.51099305},{"name":"小金井市保健センター前","province":"東京都","city":"小金井市","address":"東京都小金井市貫井北町5丁目18-18","lat":35.70169192,"lon":139.49017242},{"name":"学芸大東門前","province":"東京都","city":"小金井市","address":"東京都小金井市貫井北町2丁目4-16","lat":35.70494728,"lon":139.49679119},{"name":"小金井郵便局前","province":"東京都","city":"小金井市","address":"東京都小金井市本町5丁目37-30","lat":35.70514197,"lon":139.50575434},{"name":"小金井消防署前","province":"東京都","city":"小金井市","address":"東京都小金井市本町6丁目6-1","lat":35.69930923,"lon":139.50345476},{"name":"貫井南町五丁目","province":"東京都","city":"小金井市","address":"東京都小金井市貫井南町4丁目1","lat":35.69376794,"lon":139.49453073},{"name":"小金井第一小学校前第二","province":"東京都","city":"小金井市","address":"東京都小金井市中町1丁目9-21","lat":35.69712911,"lon":139.51062092},{"name":"栗山公園前","province":"東京都","city":"小金井市","address":"東京都小金井市中町2丁目21","lat":35.69846815,"lon":139.52146721},{"name":"公園駐車場入口","province":"東京都","city":"小金井市","address":"東京都小金井市関野町1丁目7","lat":35.71356918,"lon":139.51856958},{"name":"小金井商工会館前","province":"東京都","city":"小金井市","address":"東京都小金井市本町5丁目9","lat":35.70193395,"lon":139.50385184},{"name":"市立南中学校前","province":"東京都","city":"小金井市","address":"東京都小金井市貫井南町1丁目24-1","lat":35.69076836,"lon":139.49776947},{"name":"小金井福祉会館前","province":"東京都","city":"小金井市","address":"東京都小金井市中町4丁目15-14","lat":35.69811781,"lon":139.50769057},{"name":"小金井本町二丁目南","province":"東京都","city":"小金井市","address":"東京都小金井市本町2丁目6-12","lat":35.70363109,"lon":139.50777923},{"name":"小金井本町五丁目","province":"東京都","city":"小金井市","address":"東京都小金井市本町5丁目13-1","lat":35.70211735,"lon":139.5070238},{"name":"農工大通り入口","province":"東京都","city":"小金井市","address":"東京都小金井市本町6丁目14-45","lat":35.7001731,"lon":139.50662947},{"name":"小金井公園西門","province":"東京都","city":"小金井市","address":"東京都小金井市桜町3丁目7","lat":35.71347722,"lon":139.50841486},{"name":"小金井東小学校前","province":"東京都","city":"小金井市","address":"東京都小金井市東町4丁目25-7","lat":35.69766002,"lon":139.5262946},{"name":"武蔵小金井駅北第二","province":"東京都","city":"小金井市","address":"東京都小金井市本町5丁目1","lat":35.70118684,"lon":139.5051351},{"name":"小金井市役所","province":"東京都","city":"小金井市","address":"東京都小金井市本町6丁目2","lat":35.69969535,"lon":139.5055018},{"name":"学芸大北門前","province":"東京都","city":"小金井市","address":"東京都小金井市貫井北町3丁目9-6","lat":35.70835512,"lon":139.49218866},{"name":"栗山公園北","province":"東京都","city":"小金井市","address":"東京都小金井市中町2丁目22-32","lat":35.69972913,"lon":139.52174491},{"name":"武蔵小金井駅南口","province":"東京都","city":"小金井市","address":"東京都小金井市本町1丁目18-10","lat":35.70068419,"lon":139.50759048},{"name":"武蔵小金井駅北口東","province":"東京都","city":"小金井市","address":"東京都小金井市本町5丁目12","lat":35.70177847,"lon":139.5061711},{"name":"前原交番東","province":"東京都","city":"小金井市","address":"東京都小金井市前原町4丁目10-11","lat":35.68921588,"lon":139.50260523},{"name":"稲荷神社前","province":"東京都","city":"国分寺市","address":"東京都国分寺市光町1丁目23-2","lat":35.70626243,"lon":139.44249866},{"name":"本多公民館西","province":"東京都","city":"国分寺市","address":"東京都国分寺市本多1丁目6-3","lat":35.70516631,"lon":139.48188687},{"name":"国分寺駅南口第一","province":"東京都","city":"国分寺市","address":"東京都国分寺市南町3丁目17-3","lat":35.69936417,"lon":139.48084276},{"name":"国分寺駅南口第二","province":"東京都","city":"国分寺市","address":"東京都国分寺市南町3丁目18-1","lat":35.6991975,"lon":139.47988451},{"name":"国分寺市役所前","province":"東京都","city":"国分寺市","address":"東京都国分寺市戸倉1丁目5","lat":35.71022915,"lon":139.46235786},{"name":"国分寺第二小学校前","province":"東京都","city":"国分寺市","address":"東京都国分寺市光町3丁目1-1","lat":35.70790396,"lon":139.44431232},{"name":"国分寺第四小学校入口","province":"東京都","city":"国分寺市","address":"東京都国分寺市西元町2丁目17","lat":35.69559765,"lon":139.46844954},{"name":"国分寺南町一丁目","province":"東京都","city":"国分寺市","address":"東京都国分寺市南町2丁目1-37","lat":35.69877271,"lon":139.48630621},{"name":"なかまちテラス前","province":"東京都","city":"小平市","address":"東京都小平市仲町164","lat":35.73089682,"lon":139.48542443},{"name":"喜平図書館前","province":"東京都","city":"小平市","address":"東京都小平市喜平町1丁目14-20","lat":35.71679857,"lon":139.49088286},{"name":"滝山南","province":"東京都","city":"小平市","address":"東京都小平市大沼町3丁目14-1","lat":35.7410544,"lon":139.50055593},{"name":"久右衛門橋南","province":"東京都","city":"小平市","address":"東京都小平市上水本町2丁目9-6","lat":35.72057523,"lon":139.46506832},{"name":"小平東部市民センター入口","province":"東京都","city":"小平市","address":"東京都小平市花小金井1丁目25-2","lat":35.72821456,"lon":139.51462747},{"name":"小平団地西","province":"東京都","city":"小平市","address":"東京都小平市喜平町3丁目3-4","lat":35.71766231,"lon":139.48886356},{"name":"小平合同庁舎前","province":"東京都","city":"小平市","address":"東京都小平市花小金井1丁目6-20","lat":35.7301171,"lon":139.51407743},{"name":"小平鈴木町二丁目","province":"東京都","city":"小平市","address":"東京都小平市鈴木町2丁目150","lat":35.72652021,"lon":139.51087789},{"name":"緑成会病院前","province":"東京都","city":"小平市","address":"東京都小平市小川西町4丁目12-12","lat":35.73721486,"lon":139.46164848},{"name":"小平駅南口","province":"東京都","city":"小平市","address":"東京都小平市美園町1丁目8-1","lat":35.73606018,"lon":139.48763232},{"name":"多摩済生病院入口","province":"東京都","city":"小平市","address":"東京都小平市美園町2丁目2-11","lat":35.73821829,"lon":139.48844882},{"name":"小平武道館前","province":"東京都","city":"小平市","address":"東京都小平市花小金井6丁目3-7","lat":35.73041963,"lon":139.50587815},{"name":"一橋学園駅前郵便局","province":"東京都","city":"小平市","address":"東京都小平市学園西町2丁目14-17","lat":35.72368359,"lon":139.47944193},{"name":"学園東町一丁目","province":"東京都","city":"小平市","address":"東京都小平市学園東町2丁目5-1","lat":35.72346427,"lon":139.48291385},{"name":"中央公民館前","province":"東京都","city":"小平市","address":"東京都小平市小川町2丁目1325","lat":35.72776638,"lon":139.47652812},{"name":"小平富士見橋","province":"東京都","city":"小平市","address":"東京都小平市小川西町2丁目5","lat":35.73848119,"lon":139.45588783},{"name":"ルネ小平","province":"東京都","city":"小平市","address":"東京都小平市美園町1丁目8-5","lat":35.73494087,"lon":139.48741851},{"name":"小平駅南口第三","province":"東京都","city":"小平市","address":"東京都小平市美園町1丁目6","lat":35.73709062,"lon":139.48732119},{"name":"小平市役所南","province":"東京都","city":"小平市","address":"東京都小平市学園東町1丁目19","lat":35.7267082,"lon":139.47805303},{"name":"小平障害者福祉センター前","province":"東京都","city":"小平市","address":"東京都小平市小川西町2丁目34-1","lat":35.73789253,"lon":139.46105684},{"name":"小平小川町一丁目東","province":"東京都","city":"小平市","address":"東京都小平市小川町1丁目1028","lat":35.73040173,"lon":139.46048498},{"name":"花小金井消防署前","province":"東京都","city":"小平市","address":"東京都小平市花小金井6丁目16","lat":35.73025861,"lon":139.50848347},{"name":"久右衛門橋北","province":"東京都","city":"小平市","address":"東京都小平市津田町2丁目1-1","lat":35.72186677,"lon":139.46597652},{"name":"小平仲宿通り","province":"東京都","city":"小平市","address":"東京都小平市小川西町3丁目18-10","lat":35.740084,"lon":139.46269271},{"name":"西部市民センター西","province":"東京都","city":"小平市","address":"東京都小平市小川西町5丁目39","lat":35.73603161,"lon":139.46009312},{"name":"狛江三差路","province":"東京都","city":"狛江市","address":"東京都狛江市東和泉1丁目5-13","lat":35.63171937,"lon":139.58209254},{"name":"狛江二の橋","province":"東京都","city":"狛江市","address":"東京都狛江市岩戸南2丁目5-5","lat":35.63282486,"lon":139.58888901},{"name":"狛江市役所前","province":"東京都","city":"狛江市","address":"東京都狛江市中和泉1丁目1-1","lat":35.63391331,"lon":139.57796492},{"name":"狛江駅入口","province":"東京都","city":"狛江市","address":"東京都狛江市東和泉1丁目33-2","lat":35.63022516,"lon":139.57860972},{"name":"狛江福祉会館前","province":"東京都","city":"狛江市","address":"東京都狛江市元和泉2丁目35-1","lat":35.6333052,"lon":139.56761624},{"name":"狛江市役所前第二","province":"東京都","city":"狛江市","address":"東京都狛江市和泉本町1丁目1-10","lat":35.6350242,"lon":139.57773147},{"name":"狛江水神東","province":"東京都","city":"狛江市","address":"東京都狛江市元和泉2丁目36","lat":35.63369411,"lon":139.56580536},{"name":"狛江駅北口","province":"東京都","city":"狛江市","address":"東京都狛江市元和泉1丁目3","lat":35.6328524,"lon":139.57728177},{"name":"八潮福祉センター前","province":"東京都","city":"品川区","address":"東京都品川区八潮1丁目4-1","lat":35.60946205,"lon":139.75402291},{"name":"北品川二丁目","province":"東京都","city":"品川区","address":"東京都品川区北品川2丁目34-3","lat":35.61659961,"lon":139.74127362},{"name":"北埠頭橋","province":"東京都","city":"品川区","address":"東京都品川区東品川3丁目27-16","lat":35.61165873,"lon":139.74736499},{"name":"東品川三丁目","province":"東京都","city":"品川区","address":"東京都品川区東品川3丁目6-7","lat":35.61553327,"lon":139.74747316},{"name":"八潮橋","province":"東京都","city":"品川区","address":"東京都品川区東品川4丁目11-34","lat":35.607301,"lon":139.74804846},{"name":"南品川五丁目","province":"東京都","city":"品川区","address":"東京都品川区南品川5丁目3-13","lat":35.61132248,"lon":139.74175433},{"name":"新東海橋","province":"東京都","city":"品川区","address":"東京都品川区東品川1丁目32-3","lat":35.62012434,"lon":139.74618419},{"name":"東品川公園入口","province":"東京都","city":"品川区","address":"東京都品川区東品川3丁目15-10","lat":35.61392513,"lon":139.74735102},{"name":"居木橋","province":"東京都","city":"品川区","address":"東京都品川区北品川4丁目10-5","lat":35.61812701,"lon":139.73499073},{"name":"西品川三丁目","province":"東京都","city":"品川区","address":"東京都品川区大崎2丁目10-14","lat":35.61760745,"lon":139.72900236},{"name":"東品川海上公園","province":"東京都","city":"品川区","address":"東京都品川区東品川3丁目32-36","lat":35.61646105,"lon":139.75092286},{"name":"都立高専前","province":"東京都","city":"品川区","address":"東京都品川区東大井1丁目11-25","lat":35.60682891,"lon":139.75000944},{"name":"品川職業技術専門校前","province":"東京都","city":"品川区","address":"東京都品川区東品川3丁目32-3","lat":35.6119477,"lon":139.75048419},{"name":"新八ツ山橋","province":"東京都","city":"品川区","address":"東京都品川区北品川4丁目7","lat":35.62179607,"lon":139.73699321},{"name":"北品川六丁目","province":"東京都","city":"品川区","address":"東京都品川区東五反田3丁目21-5","lat":35.6249733,"lon":139.73137689},{"name":"東海道北品川","province":"東京都","city":"品川区","address":"東京都品川区北品川2丁目24-5","lat":35.61814672,"lon":139.74379558},{"name":"品川図書館前","province":"東京都","city":"品川区","address":"東京都品川区北品川2丁目30","lat":35.6173746,"lon":139.74390116},{"name":"品川シーサイド駅","province":"東京都","city":"品川区","address":"東京都品川区東品川4丁目13-14","lat":35.60853703,"lon":139.75024546},{"name":"新東海橋東","province":"東京都","city":"品川区","address":"東京都品川区東品川2丁目2-28","lat":35.62179923,"lon":139.74896723},{"name":"八潮橋北","province":"東京都","city":"品川区","address":"東京都品川区東品川4丁目12-1","lat":35.60854805,"lon":139.7479262},{"name":"品川区役所前","province":"東京都","city":"品川区","address":"東京都品川区広町2丁目1-36","lat":35.60881128,"lon":139.73028866},{"name":"東品川シルバーセンター前","province":"東京都","city":"品川区","address":"東京都品川区東品川3丁目32-12","lat":35.61330587,"lon":139.75067301},{"name":"百反坂下","province":"東京都","city":"品川区","address":"東京都品川区西品川3丁目21-8","lat":35.61626598,"lon":139.73041617},{"name":"品川区役所前第二","province":"東京都","city":"品川区","address":"東京都品川区西品川1丁目27-14","lat":35.60922229,"lon":139.72882487},{"name":"大井町駅東口","province":"東京都","city":"品川区","address":"東京都品川区東大井5丁目16-5","lat":35.60713943,"lon":139.73552164},{"name":"立会川","province":"東京都","city":"品川区","address":"東京都品川区東大井2丁目23-2","lat":35.59826843,"lon":139.738369},{"name":"大井町駅西口","province":"東京都","city":"品川区","address":"東京都品川区南大井1丁目3-12","lat":35.5969797,"lon":139.73831627},{"name":"ゼームス坂上","province":"東京都","city":"品川区","address":"東京都品川区東大井5丁目15-4","lat":35.60706171,"lon":139.73642713},{"name":"鈴ヶ森","province":"東京都","city":"品川区","address":"東京都品川区南大井3丁目10","lat":35.59062486,"lon":139.73578617},{"name":"大井権現","province":"東京都","city":"品川区","address":"東京都品川区南大井1丁目1-16","lat":35.59775459,"lon":139.73799126},{"name":"西大井二丁目","province":"東京都","city":"品川区","address":"東京都品川区西大井2丁目4-7","lat":35.59992319,"lon":139.72314505},{"name":"大井一丁目","province":"東京都","city":"品川区","address":"東京都品川区大井1丁目37-10","lat":35.6048062,"lon":139.7307693},{"name":"鮫洲試験場前","province":"東京都","city":"品川区","address":"東京都品川区東大井1丁目12-5","lat":35.6038986,"lon":139.74647094},{"name":"品川区役所入口","province":"東京都","city":"品川区","address":"東京都品川区大井1丁目16-2","lat":35.60764196,"lon":139.73016647},{"name":"鈴ヶ森第二","province":"東京都","city":"品川区","address":"東京都品川区南大井2丁目10-6","lat":35.59019161,"lon":139.73658614},{"name":"大井一丁目第二","province":"東京都","city":"品川区","address":"東京都品川区大井1丁目35-3","lat":35.60507011,"lon":139.73187477},{"name":"大井町駅西口第二","province":"東京都","city":"品川区","address":"東京都品川区大井1丁目10-3","lat":35.60745598,"lon":139.73317737},{"name":"ＪＲ大井町駅南","province":"東京都","city":"品川区","address":"東京都品川区大井1丁目50-5","lat":35.60568679,"lon":139.73414401},{"name":"ＪＲ大井町駅前","province":"東京都","city":"品川区","address":"東京都品川区大井1丁目50-5","lat":35.60568679,"lon":139.73414401},{"name":"大井一本橋","province":"東京都","city":"品川区","address":"東京都品川区大井1丁目20-29","lat":35.60706703,"lon":139.73012762},{"name":"きゅりあん裏","province":"東京都","city":"品川区","address":"東京都品川区東大井5丁目23-37","lat":35.60514807,"lon":139.73690493},{"name":"大井鎧橋","province":"東京都","city":"品川区","address":"東京都品川区大井1丁目49-15","lat":35.60605615,"lon":139.73337462},{"name":"ＪＲ大井工場前","province":"東京都","city":"品川区","address":"東京都品川区大井1丁目1","lat":35.60767819,"lon":139.73352455},{"name":"大森駅北口入口","province":"東京都","city":"品川区","address":"東京都品川区南大井6丁目23-1","lat":35.58961922,"lon":139.73039492},{"name":"大井町駅東口第二","province":"東京都","city":"品川区","address":"東京都品川区大井1丁目2","lat":35.60672556,"lon":139.73428286},{"name":"八潮地域センター前","province":"東京都","city":"品川区","address":"東京都品川区八潮5丁目10-27","lat":35.60015206,"lon":139.7512541},{"name":"ちょうちょ橋","province":"東京都","city":"品川区","address":"東京都品川区八潮5丁目8","lat":35.5968109,"lon":139.75291526},{"name":"中央海浜公園前","province":"東京都","city":"品川区","address":"東京都品川区八潮4丁目2","lat":35.59275297,"lon":139.74978513},{"name":"大井海浜公園前","province":"東京都","city":"品川区","address":"東京都品川区八潮4丁目1","lat":35.59123385,"lon":139.75266834},{"name":"大井町駅入口","province":"東京都","city":"品川区","address":"東京都品川区大井2丁目1-5","lat":35.6065393,"lon":139.72985265},{"name":"五反田駅旧ガード下","province":"東京都","city":"品川区","address":"東京都品川区東五反田1丁目26-6","lat":35.62585636,"lon":139.7240636},{"name":"目黒駅西口前","province":"東京都","city":"品川区","address":"東京都品川区上大崎4丁目1","lat":35.633422,"lon":139.71450866},{"name":"大崎広小路","province":"東京都","city":"品川区","address":"東京都品川区西五反田8丁目4-13","lat":35.6229261,"lon":139.72211664},{"name":"目黒駅東口前","province":"東京都","city":"品川区","address":"東京都品川区上大崎3丁目1","lat":35.63269988,"lon":139.71636408},{"name":"西五反田一丁目","province":"東京都","city":"品川区","address":"東京都品川区西五反田1丁目33-10","lat":35.6240204,"lon":139.72136667},{"name":"五反田駅新ガード下","province":"東京都","city":"品川区","address":"東京都品川区東五反田1丁目26-1","lat":35.6265035,"lon":139.72369972},{"name":"目蒲線ガード下","province":"東京都","city":"品川区","address":"東京都品川区西五反田5丁目1-1","lat":35.62658389,"lon":139.71501159},{"name":"上大崎二丁目","province":"東京都","city":"品川区","address":"東京都品川区上大崎2丁目25-5","lat":35.63461074,"lon":139.71476139},{"name":"上大崎三丁目第二","province":"東京都","city":"品川区","address":"東京都品川区西五反田2丁目1-1","lat":35.62813381,"lon":139.72050273},{"name":"大崎四丁目","province":"東京都","city":"品川区","address":"東京都品川区大崎4丁目2-2","lat":35.62231509,"lon":139.72326656},{"name":"目黒駅ビル前","province":"東京都","city":"品川区","address":"東京都品川区上大崎2丁目15-21","lat":35.63442468,"lon":139.71631958},{"name":"大崎駅西口第二","province":"東京都","city":"品川区","address":"東京都品川区大崎1丁目21-4","lat":35.61970165,"lon":139.72879675},{"name":"大崎駅西口","province":"東京都","city":"品川区","address":"東京都品川区大崎2丁目1-1","lat":35.61837956,"lon":139.72802742},{"name":"平塚橋交番前","province":"東京都","city":"品川区","address":"東京都品川区西中延1丁目1-10","lat":35.61549615,"lon":139.7092402},{"name":"戸越銀座","province":"東京都","city":"品川区","address":"東京都品川区平塚1丁目6-14","lat":35.61544906,"lon":139.71649791},{"name":"昭和医大前","province":"東京都","city":"品川区","address":"東京都品川区旗の台1丁目2-14","lat":35.60944957,"lon":139.70490466},{"name":"昭和医大前第二","province":"東京都","city":"品川区","address":"東京都品川区旗の台1丁目6-16","lat":35.60916903,"lon":139.7039603},{"name":"旗の台駅入口","province":"東京都","city":"品川区","address":"東京都品川区旗の台1丁目4-13","lat":35.60742477,"lon":139.70386869},{"name":"旗の台二丁目","province":"東京都","city":"品川区","address":"東京都品川区旗の台2丁目11-6","lat":35.60577768,"lon":139.70077457},{"name":"戸越銀座入口","province":"東京都","city":"品川区","address":"東京都品川区平塚3丁目2-17","lat":35.61631275,"lon":139.71070949},{"name":"小山四丁目","province":"東京都","city":"品川区","address":"東京都品川区小山4丁目4-7","lat":35.61852353,"lon":139.70432109},{"name":"荏原四丁目","province":"東京都","city":"品川区","address":"東京都品川区荏原4丁目1-1","lat":35.61760698,"lon":139.70549602},{"name":"小山三丁目","province":"東京都","city":"品川区","address":"東京都品川区小山4丁目4-22","lat":35.61905678,"lon":139.70358781},{"name":"第二延山小角","province":"東京都","city":"品川区","address":"東京都品川区旗の台1丁目2-1","lat":35.61073553,"lon":139.70387693},{"name":"武蔵小山駅西","province":"東京都","city":"品川区","address":"東京都品川区小山4丁目2-1","lat":35.6196567,"lon":139.70292952},{"name":"戸越四丁目東","province":"東京都","city":"品川区","address":"東京都品川区戸越5丁目6-4","lat":35.61041631,"lon":139.71847011},{"name":"大森北一丁目","province":"東京都","city":"品川区","address":"東京都品川区南大井3丁目35-10","lat":35.58753902,"lon":139.73258653},{"name":"大森北五差路","province":"東京都","city":"品川区","address":"東京都品川区南大井6丁目27-20","lat":35.58751393,"lon":139.73003949},{"name":"大森海岸駅西","province":"東京都","city":"品川区","address":"東京都品川区南大井3丁目31","lat":35.58793351,"lon":139.73518633},{"name":"大森駅東口広場前","province":"東京都","city":"品川区","address":"東京都品川区南大井6丁目28-8","lat":35.5879583,"lon":139.72972838},{"name":"道玄坂下","province":"東京都","city":"渋谷区","address":"東京都渋谷区道玄坂2丁目5-9","lat":35.65930764,"lon":139.69951185},{"name":"渋谷駅前","province":"東京都","city":"渋谷区","address":"東京都渋谷区道玄坂2丁目1-1","lat":35.65929935,"lon":139.70101727},{"name":"宮下公園前","province":"東京都","city":"渋谷区","address":"東京都渋谷区松濤1丁目16-4","lat":35.66192666,"lon":139.69347894},{"name":"恵比寿南","province":"東京都","city":"渋谷区","address":"東京都渋谷区恵比寿南2丁目1-12","lat":35.64606209,"lon":139.7073534},{"name":"道玄坂上交番前","province":"東京都","city":"渋谷区","address":"東京都渋谷区円山町3-6","lat":35.65751331,"lon":139.69552615},{"name":"恵比寿駅前","province":"東京都","city":"渋谷区","address":"東京都渋谷区恵比寿南1丁目5-5","lat":35.64671485,"lon":139.71033922},{"name":"神宮前六丁目","province":"東京都","city":"渋谷区","address":"東京都渋谷区神宮前6丁目19-15","lat":35.66342392,"lon":139.70241976},{"name":"渋谷二丁目","province":"東京都","city":"渋谷区","address":"東京都渋谷区渋谷2丁目12-11","lat":35.65866902,"lon":139.70836944},{"name":"恵比寿駅東口","province":"東京都","city":"渋谷区","address":"東京都渋谷区恵比寿1丁目11-5","lat":35.6463677,"lon":139.71171966},{"name":"南平台","province":"東京都","city":"渋谷区","address":"東京都渋谷区桜丘町31-11","lat":35.65596354,"lon":139.69766492},{"name":"神南郵便局前","province":"東京都","city":"渋谷区","address":"東京都渋谷区神南1丁目22-14","lat":35.66189351,"lon":139.7011005},{"name":"東交番前","province":"東京都","city":"渋谷区","address":"東京都渋谷区東1丁目27-10","lat":35.6539362,"lon":139.70767803},{"name":"勤労福祉会館前","province":"東京都","city":"渋谷区","address":"東京都渋谷区宇田川町15-1","lat":35.66204899,"lon":139.69893957},{"name":"庚申橋","province":"東京都","city":"渋谷区","address":"東京都渋谷区恵比寿3丁目16-2","lat":35.64395141,"lon":139.71834411},{"name":"美竹交番東","province":"東京都","city":"渋谷区","address":"東京都渋谷区渋谷1丁目17-8","lat":35.6611742,"lon":139.70405305},{"name":"井の頭通り入口","province":"東京都","city":"渋谷区","address":"東京都渋谷区神南1丁目22-3","lat":35.66045478,"lon":139.70097557},{"name":"東電電力館前","province":"東京都","city":"渋谷区","address":"東京都渋谷区神南1丁目9-2","lat":35.66376553,"lon":139.70139762},{"name":"恵比寿駅前第二","province":"東京都","city":"渋谷区","address":"東京都渋谷区恵比寿南1丁目1-1","lat":35.64674539,"lon":139.70893101},{"name":"渋谷駅南口第一","province":"東京都","city":"渋谷区","address":"東京都渋谷区道玄坂1丁目2","lat":35.65751342,"lon":139.70031463},{"name":"広尾病院前","province":"東京都","city":"渋谷区","address":"東京都渋谷区広尾5丁目25-8","lat":35.64769271,"lon":139.7218131},{"name":"渋谷警察署東","province":"東京都","city":"渋谷区","address":"東京都渋谷区渋谷3丁目6-2","lat":35.65791348,"lon":139.70497532},{"name":"道玄坂二丁目東","province":"東京都","city":"渋谷区","address":"東京都渋谷区道玄坂2丁目29-20","lat":35.65976312,"lon":139.69815917},{"name":"宇田川町","province":"東京都","city":"渋谷区","address":"東京都渋谷区宇田川町3-1","lat":35.66317942,"lon":139.69879787},{"name":"並木橋北","province":"東京都","city":"渋谷区","address":"東京都渋谷区神宮前3丁目17-15","lat":35.67080662,"lon":139.71041043},{"name":"千駄ヶ谷駅前","province":"東京都","city":"渋谷区","address":"東京都渋谷区千駄ヶ谷1丁目35-7","lat":35.68080274,"lon":139.71177658},{"name":"明治神宮北参道","province":"東京都","city":"渋谷区","address":"東京都渋谷区千駄ヶ谷4丁目5-14","lat":35.68006098,"lon":139.70440227},{"name":"明治神宮北参道第二","province":"東京都","city":"渋谷区","address":"東京都渋谷区千駄ヶ谷4丁目27-1","lat":35.68059702,"lon":139.70414671},{"name":"明治神宮北参道第三","province":"東京都","city":"渋谷区","address":"東京都渋谷区千駄ヶ谷4丁目6-15","lat":35.68016931,"lon":139.70479111},{"name":"代々木駅前","province":"東京都","city":"渋谷区","address":"東京都渋谷区代々木1丁目32-12","lat":35.68265784,"lon":139.70206903},{"name":"鳩森小学校西","province":"東京都","city":"渋谷区","address":"東京都渋谷区千駄ヶ谷5丁目21-8","lat":35.68257736,"lon":139.70438272},{"name":"原宿駅竹下口","province":"東京都","city":"渋谷区","address":"東京都渋谷区神宮前1丁目17-1","lat":35.67144526,"lon":139.70321104},{"name":"代々木一丁目","province":"東京都","city":"渋谷区","address":"東京都渋谷区代々木1丁目10-1","lat":35.68201616,"lon":139.69793887},{"name":"東郷神社前","province":"東京都","city":"渋谷区","address":"東京都渋谷区神宮前1丁目5-1","lat":35.67127038,"lon":139.70703849},{"name":"代々木駅前第二","province":"東京都","city":"渋谷区","address":"東京都渋谷区代々木1丁目36-6","lat":35.68364382,"lon":139.70138851},{"name":"東京体育館南","province":"東京都","city":"渋谷区","address":"東京都渋谷区千駄ヶ谷1丁目14","lat":35.67772254,"lon":139.71225999},{"name":"国立能楽堂前","province":"東京都","city":"渋谷区","address":"東京都渋谷区千駄ヶ谷4丁目20-3","lat":35.68101373,"lon":139.70756583},{"name":"神宮前四丁目","province":"東京都","city":"渋谷区","address":"東京都渋谷区神宮前4丁目3-6","lat":35.66638488,"lon":139.71060503},{"name":"神宮前小学校南","province":"東京都","city":"渋谷区","address":"東京都渋谷区神宮前5丁目8-2","lat":35.66692088,"lon":139.7079247},{"name":"はあとぴあ原宿入口","province":"東京都","city":"渋谷区","address":"東京都渋谷区神宮前2丁目17","lat":35.67260364,"lon":139.7104409},{"name":"代々木八幡前","province":"東京都","city":"渋谷区","address":"東京都渋谷区元代々木町31-10","lat":35.67183649,"lon":139.6873652},{"name":"笹塚出張所前","province":"東京都","city":"渋谷区","address":"東京都渋谷区笹塚2丁目49-4","lat":35.67733544,"lon":139.67008317},{"name":"社会教育館前","province":"東京都","city":"渋谷区","address":"東京都渋谷区幡ヶ谷2丁目52-3","lat":35.67969088,"lon":139.6765214},{"name":"富士見丘高等学校前","province":"東京都","city":"渋谷区","address":"東京都渋谷区笹塚2丁目42-16","lat":35.67644938,"lon":139.66769176},{"name":"青少年センター前","province":"東京都","city":"渋谷区","address":"東京都渋谷区代々木神園町3","lat":35.67875255,"lon":139.69443097},{"name":"代々木上原駅南","province":"東京都","city":"渋谷区","address":"東京都渋谷区上原1丁目30-8","lat":35.66845335,"lon":139.67939102},{"name":"渋谷区役所総合庁舎前","province":"東京都","city":"渋谷区","address":"東京都渋谷区神南1丁目6","lat":35.66423765,"lon":139.69958665},{"name":"西新宿三丁目","province":"東京都","city":"渋谷区","address":"東京都渋谷区代々木3丁目25-3","lat":35.68469625,"lon":139.69232259},{"name":"初台","province":"東京都","city":"新宿区","address":"東京都新宿区西新宿3丁目19-2","lat":35.68342406,"lon":139.68792025},{"name":"牛込北町","province":"東京都","city":"新宿区","address":"東京都新宿区細工町3-17","lat":35.69972337,"lon":139.73309895},{"name":"柳町","province":"東京都","city":"新宿区","address":"東京都新宿区市谷柳町8","lat":35.69916215,"lon":139.72636901},{"name":"住吉町","province":"東京都","city":"新宿区","address":"東京都新宿区住吉町4-7","lat":35.69231556,"lon":139.72087532},{"name":"若松町","province":"東京都","city":"新宿区","address":"東京都新宿区原町3丁目35","lat":35.70033968,"lon":139.72127498},{"name":"市谷見附","province":"東京都","city":"新宿区","address":"東京都新宿区市谷八幡町2-1","lat":35.69234922,"lon":139.73487685},{"name":"馬場下町","province":"東京都","city":"新宿区","address":"東京都新宿区西早稲田2丁目1-12","lat":35.70665002,"lon":139.71847775},{"name":"地下鉄早稲田駅前","province":"東京都","city":"新宿区","address":"東京都新宿区馬場下町61","lat":35.70629455,"lon":139.72041094},{"name":"矢来町第二","province":"東京都","city":"新宿区","address":"東京都新宿区矢来町125","lat":35.70431176,"lon":139.73331542},{"name":"牛込河田町","province":"東京都","city":"新宿区","address":"東京都新宿区若松町28-7","lat":35.69958135,"lon":139.71846414},{"name":"原町三丁目","province":"東京都","city":"新宿区","address":"東京都新宿区若松町6-13","lat":35.6997342,"lon":139.72191661},{"name":"余丁町小学校前","province":"東京都","city":"新宿区","address":"東京都新宿区若松町15-2","lat":35.69834808,"lon":139.71542279},{"name":"東京女子医大前","province":"東京都","city":"新宿区","address":"東京都新宿区河田町8-1","lat":35.69807045,"lon":139.72011683},{"name":"統計局前","province":"東京都","city":"新宿区","address":"東京都新宿区若松町19-1","lat":35.70076446,"lon":139.71483386},{"name":"原町小学校前","province":"東京都","city":"新宿区","address":"東京都新宿区原町3丁目1","lat":35.69953148,"lon":139.72331649},{"name":"喜久井町","province":"東京都","city":"新宿区","address":"東京都新宿区喜久井町38","lat":35.70321158,"lon":139.72139708},{"name":"早稲田町","province":"東京都","city":"新宿区","address":"東京都新宿区早稲田町74","lat":35.70596131,"lon":139.72251909},{"name":"国立国際医療センター東","province":"東京都","city":"新宿区","address":"東京都新宿区戸山1丁目21-1","lat":35.70174214,"lon":139.71530878},{"name":"国立国際医療センター前","province":"東京都","city":"新宿区","address":"東京都新宿区若松町23-9","lat":35.70105335,"lon":139.71645038},{"name":"河田町西","province":"東京都","city":"新宿区","address":"東京都新宿区河田町10-10","lat":35.69832868,"lon":139.7175115},{"name":"若松町出張所前","province":"東京都","city":"新宿区","address":"東京都新宿区若松町29-7","lat":35.7006257,"lon":139.7191446},{"name":"龍善寺前","province":"東京都","city":"新宿区","address":"東京都新宿区早稲田町12","lat":35.70550026,"lon":139.72274965},{"name":"夏目坂上","province":"東京都","city":"新宿区","address":"東京都新宿区喜久井町14","lat":35.70447533,"lon":139.72117205},{"name":"戸山ハイツ前","province":"東京都","city":"新宿区","address":"東京都新宿区新宿7丁目20-10","lat":35.70064212,"lon":139.70980098},{"name":"税務大学入口","province":"東京都","city":"新宿区","address":"東京都新宿区河田町8-1","lat":35.69807045,"lon":139.72011683},{"name":"戸山町","province":"東京都","city":"新宿区","address":"東京都新宿区戸山3丁目15-1","lat":35.70448057,"lon":139.70974528},{"name":"児童相談センター前","province":"東京都","city":"新宿区","address":"東京都新宿区大久保3丁目4-1","lat":35.70606921,"lon":139.70680936},{"name":"戸山ハイツ西","province":"東京都","city":"新宿区","address":"東京都新宿区戸山2丁目33","lat":35.70169476,"lon":139.70910377},{"name":"早稲田大学文学部前","province":"東京都","city":"新宿区","address":"東京都新宿区西早稲田2丁目2-2","lat":35.70686105,"lon":139.71635849},{"name":"戸山サンライズ前","province":"東京都","city":"新宿区","address":"東京都新宿区戸山1丁目20-1","lat":35.70270043,"lon":139.7174641},{"name":"戸山ハイツ北","province":"東京都","city":"新宿区","address":"東京都新宿区戸山1丁目23","lat":35.70442523,"lon":139.71728905},{"name":"市谷台町第二","province":"東京都","city":"新宿区","address":"東京都新宿区市谷台町9-12","lat":35.69398198,"lon":139.71898654},{"name":"若松町北","province":"東京都","city":"新宿区","address":"東京都新宿区原町3丁目61","lat":35.70155621,"lon":139.72160267},{"name":"新隆慶橋西詰","province":"東京都","city":"新宿区","address":"東京都新宿区新小川町4-1","lat":35.70523969,"lon":139.74339782},{"name":"新宿駅東口","province":"東京都","city":"新宿区","address":"東京都新宿区新宿3丁目24-1","lat":35.69265391,"lon":139.70164368},{"name":"新宿三丁目第二","province":"東京都","city":"新宿区","address":"東京都新宿区西落合3丁目26-15","lat":35.72421077,"lon":139.6771473},{"name":"新宿大ガード西","province":"東京都","city":"新宿区","address":"東京都新宿区西新宿7丁目10-1","lat":35.69390926,"lon":139.69875499},{"name":"大久保二丁目","province":"東京都","city":"新宿区","address":"東京都新宿区大久保1丁目3-15","lat":35.70079204,"lon":139.70768171},{"name":"新宿大ガード東","province":"東京都","city":"新宿区","address":"東京都新宿区新宿3丁目23-7","lat":35.69332882,"lon":139.70076595},{"name":"新宿七丁目","province":"東京都","city":"新宿区","address":"東京都新宿区新宿6丁目29-10","lat":35.69769795,"lon":139.70768183},{"name":"成子坂下","province":"東京都","city":"新宿区","address":"東京都新宿区北新宿2丁目21-2","lat":35.69621706,"lon":139.68858913},{"name":"新宿駅南口","province":"東京都","city":"新宿区","address":"東京都新宿区新宿3丁目38","lat":35.69278442,"lon":139.70010492},{"name":"新宿六丁目","province":"東京都","city":"新宿区","address":"東京都新宿区歌舞伎町2丁目1-11","lat":35.69512876,"lon":139.70657925},{"name":"一番街前","province":"東京都","city":"新宿区","address":"東京都新宿区新宿3丁目23-7","lat":35.69332882,"lon":139.70076595},{"name":"歌舞伎町","province":"東京都","city":"新宿区","address":"東京都新宿区新宿3丁目23-12","lat":35.69338438,"lon":139.7011548},{"name":"桜通り前","province":"東京都","city":"新宿区","address":"東京都新宿区新宿3丁目22-13","lat":35.69316221,"lon":139.70208807},{"name":"北新宿百人町","province":"東京都","city":"新宿区","address":"東京都新宿区西新宿7丁目6-6","lat":35.69782545,"lon":139.69773549},{"name":"新宿消防署前","province":"東京都","city":"新宿区","address":"東京都新宿区百人町3丁目29-4","lat":35.706916,"lon":139.69469094},{"name":"新宿中央公園北","province":"東京都","city":"新宿区","address":"東京都新宿区西新宿2丁目7-1","lat":35.69172598,"lon":139.69108909},{"name":"新宿駅前","province":"東京都","city":"新宿区","address":"東京都新宿区新宿3丁目38-1","lat":35.69130129,"lon":139.70113545},{"name":"東京医大病院前","province":"東京都","city":"新宿区","address":"東京都新宿区西新宿8丁目4-2","lat":35.69457293,"lon":139.69336378},{"name":"新宿区役所前","province":"東京都","city":"新宿区","address":"東京都新宿区新宿3丁目15-11","lat":35.69280117,"lon":139.7032602},{"name":"新大久保駅前","province":"東京都","city":"新宿区","address":"東京都新宿区百人町2丁目4-1","lat":35.70169452,"lon":139.70008235},{"name":"地下鉄新宿駅西口前","province":"東京都","city":"新宿区","address":"東京都新宿区西新宿1丁目5-1","lat":35.69259273,"lon":139.69867728},{"name":"成子天神下","province":"東京都","city":"新宿区","address":"東京都新宿区西新宿8丁目19-2","lat":35.69538665,"lon":139.69056676},{"name":"西新宿一丁目","province":"東京都","city":"新宿区","address":"東京都新宿区西新宿1丁目18-3","lat":35.68871541,"lon":139.6986191},{"name":"抜弁天","province":"東京都","city":"新宿区","address":"東京都新宿区余丁町8-5","lat":35.69760089,"lon":139.71332856},{"name":"副都心八号線入口","province":"東京都","city":"新宿区","address":"東京都新宿区西新宿1丁目19-8","lat":35.68802099,"lon":139.69680818},{"name":"都立戸山高等学校前","province":"東京都","city":"新宿区","address":"東京都新宿区大久保3丁目14-9","lat":35.70718024,"lon":139.70858695},{"name":"大久保駅前","province":"東京都","city":"新宿区","address":"東京都新宿区百人町1丁目17-1","lat":35.70151667,"lon":139.69678543},{"name":"新宿警察署前","province":"東京都","city":"新宿区","address":"東京都新宿区西新宿1丁目26-2","lat":35.69300371,"lon":139.69533867},{"name":"新宿郵便局前","province":"東京都","city":"新宿区","address":"東京都新宿区西新宿1丁目23-1","lat":35.68992353,"lon":139.69616649},{"name":"西新宿","province":"東京都","city":"新宿区","address":"東京都新宿区西新宿3丁目2-4","lat":35.68703492,"lon":139.69411124},{"name":"大久保小学校入口","province":"東京都","city":"新宿区","address":"東京都新宿区大久保2丁目18-7","lat":35.70121695,"lon":139.70584297},{"name":"新宿中央公園前","province":"東京都","city":"新宿区","address":"東京都新宿区西新宿2丁目11","lat":35.69079265,"lon":139.68741167},{"name":"新宿中央公園南","province":"東京都","city":"新宿区","address":"東京都新宿区西新宿2丁目11","lat":35.69079265,"lon":139.68741167},{"name":"新宿警察署裏","province":"東京都","city":"新宿区","address":"東京都新宿区西新宿6丁目5-3","lat":35.69313145,"lon":139.69418599},{"name":"新宿副都心四号線入口","province":"東京都","city":"新宿区","address":"東京都新宿区西新宿1丁目24-1","lat":35.69040402,"lon":139.69588317},{"name":"中央通り東","province":"東京都","city":"新宿区","address":"東京都新宿区西新宿1丁目24-2","lat":35.69066787,"lon":139.69538042},{"name":"新宿西口地下道横","province":"東京都","city":"新宿区","address":"東京都新宿区西新宿1丁目4-2","lat":35.69286216,"lon":139.69891891},{"name":"西武新宿駅前第二","province":"東京都","city":"新宿区","address":"東京都新宿区歌舞伎町1丁目30","lat":35.69576463,"lon":139.69966873},{"name":"大久保二丁目第二","province":"東京都","city":"新宿区","address":"東京都新宿区新宿7丁目26-36","lat":35.70075041,"lon":139.70863441},{"name":"議事堂北","province":"東京都","city":"新宿区","address":"東京都新宿区西新宿6丁目5-1","lat":35.69311753,"lon":139.69308886},{"name":"都庁北","province":"東京都","city":"新宿区","address":"東京都新宿区西新宿6丁目6-2","lat":35.69272863,"lon":139.69106683},{"name":"新宿駅西口前通り","province":"東京都","city":"新宿区","address":"東京都新宿区西新宿1丁目10-1","lat":35.68984582,"lon":139.69833853},{"name":"新宿六丁目第二","province":"東京都","city":"新宿区","address":"東京都新宿区新宿5丁目18-7","lat":35.69469267,"lon":139.70552659},{"name":"大久保スポーツプラザ入口","province":"東京都","city":"新宿区","address":"東京都新宿区高田馬場1丁目31-18","lat":35.70961593,"lon":139.7031151},{"name":"新宿公務員住宅南","province":"東京都","city":"新宿区","address":"東京都新宿区百人町3丁目1-1","lat":35.70447476,"lon":139.70016556},{"name":"百人町二丁目","province":"東京都","city":"新宿区","address":"東京都新宿区百人町2丁目17-3","lat":35.70179167,"lon":139.69813808},{"name":"西武新宿駅前第三","province":"東京都","city":"新宿区","address":"東京都新宿区歌舞伎町1丁目30-1","lat":35.69621736,"lon":139.70011867},{"name":"副都心八号線入口第二","province":"東京都","city":"新宿区","address":"東京都新宿区西新宿1丁目19-11","lat":35.68828485,"lon":139.69668874},{"name":"国際電電ビル前","province":"東京都","city":"新宿区","address":"東京都新宿区西新宿2丁目3-2","lat":35.68797372,"lon":139.69479169},{"name":"都庁南","province":"東京都","city":"新宿区","address":"東京都新宿区西新宿3丁目2-9","lat":35.68693491,"lon":139.69311966},{"name":"副都心地下道入口","province":"東京都","city":"新宿区","address":"東京都新宿区西新宿2丁目2-1","lat":35.6896263,"lon":139.69440555},{"name":"保善高校入口","province":"東京都","city":"新宿区","address":"東京都新宿区高田馬場1丁目21-6","lat":35.7092771,"lon":139.70424835},{"name":"議事堂南","province":"東京都","city":"新宿区","address":"東京都新宿区西新宿2丁目3-2","lat":35.68797372,"lon":139.69479169},{"name":"新宿中央公園南第二","province":"東京都","city":"新宿区","address":"東京都新宿区西新宿2丁目9","lat":35.68815418,"lon":139.69192249},{"name":"東京都庁前","province":"東京都","city":"新宿区","address":"東京都新宿区西新宿2丁目5","lat":35.68970403,"lon":139.69296401},{"name":"都議会議事堂前","province":"東京都","city":"新宿区","address":"東京都新宿区西新宿2丁目2-1","lat":35.6896263,"lon":139.69440555},{"name":"新宿西口ロータリー入口","province":"東京都","city":"新宿区","address":"東京都新宿区西新宿1丁目6-1","lat":35.69217609,"lon":139.6972552},{"name":"新宿駅西口ロータリー","province":"東京都","city":"新宿区","address":"東京都新宿区西新宿1丁目7-2","lat":35.69161504,"lon":139.69734966},{"name":"バスタ新宿前","province":"東京都","city":"新宿区","address":"東京都新宿区新宿3丁目37-1","lat":35.68992645,"lon":139.70150769},{"name":"高田馬場口","province":"東京都","city":"新宿区","address":"東京都新宿区西早稲田2丁目21-12","lat":35.71122428,"lon":139.71020887},{"name":"中落合三丁目","province":"東京都","city":"新宿区","address":"東京都新宿区中落合2丁目27-17","lat":35.72230308,"lon":139.69272938},{"name":"高田馬場駅前","province":"東京都","city":"新宿区","address":"東京都新宿区高田馬場1丁目35-2","lat":35.71231564,"lon":139.70381216},{"name":"高田馬場駅ガード西","province":"東京都","city":"新宿区","address":"東京都新宿区高田馬場4丁目7-5","lat":35.71360994,"lon":139.70373712},{"name":"下落合四丁目","province":"東京都","city":"新宿区","address":"東京都新宿区中落合2丁目1-15","lat":35.7221337,"lon":139.69419315},