{"keyword":"点字","data":[{"name":"日本盲人会連合点字図書舘","province":"東京都","city":"新宿区","address":"新宿区西早稲田2-18-2","lat":35.710077,"lon":139.711164},{"name":"東京ヘレン・ケラー協会点字図書館","province":"東京都","city":"新宿区","address":"新宿区大久保3-14-20","lat":35.707863,"lon":139.708381},{"name":"日本点字図書館","province":"東京都","city":"新宿区","address":"新宿区高田馬場1-23-4","lat":35.710894,"lon":139.704682},{"name":"ロゴス点字図書館","province":"東京都","city":"江東区","address":"江東区潮見二丁目10番10号日本カトリック会館1階","lat":35.656691,"lon":139.816721},{"name":"大田区立障がい者総合サポートセンター声の図書室","province":"東京都","city":"大田区","address":"大田区中央4-30-11","lat":35.579492,"lon":139.718238},{"name":"豊島区立中央図書館（ひかり文庫）","province":"東京都","city":"豊島区","address":"豊島区東池袋4-5-2ライズアリーナビル5階","lat":35.726948,"lon":139.718902},{"name":"日本視覚障害者団体連合点字図書舘","province":"東京都","city":"新宿区","address":"新宿区西早稲田2-18-2","lat":35.71054,"lon":139.71118},{"name":"東京ヘレン・ケラー協会点字図書館","province":"東京都","city":"新宿区","address":"新宿区大久保3-14-20","lat":35.70773,"lon":139.70857},{"name":"日本点字図書館","province":"東京都","city":"新宿区","address":"新宿区高田馬場1-23-4","lat":35.7109,"lon":139.7048},{"name":"ロゴス点字図書館","province":"東京都","city":"江東区","address":"江東区潮見2-10-10日本カトリック会館1階","lat":35.6567,"lon":139.81723},{"name":"大田区立障がい者総合サポートセンター声の図書室","province":"東京都","city":"大田区","address":"大田区中央4-30-11","lat":35.5793,"lon":139.7179},{"name":"豊島区立中央図書館（ひかり文庫）","province":"東京都","city":"豊島区","address":"豊島区東池袋4-5-2ライズアリーナビル5階","lat":35.7267,"lon":139.71896},{"name":"日本視覚障害者団体連合点字図書舘","province":"東京都","city":"新宿区","address":"新宿区西早稲田2-18-2","lat":35.710077,"lon":139.711164},{"name":"日本視覚障害者団体連合点字図書舘","province":"東京都","city":"新宿区","address":"新宿区西早稲田2-18-2","lat":35.7101,"lon":139.71118},{"name":"日本視覚障害者団体連合点字図書舘","province":"東京都","city":"新宿区","address":"新宿区西早稲田2-18-2","lat":35.71031,"lon":139.71114}]}