{"keyword":"日野","data":[{"name":"日野市中央公民館","province":"東京都","city":"日野市","address":"日野市日野本町7-5-23","lat":35.679592,"lon":139.399765},{"name":"日野市立高幡図書館","province":"東京都","city":"日野市","address":"日野市三沢4-1-12","lat":35.658905,"lon":139.413284},{"name":"日野市立市政図書室","province":"東京都","city":"日野市","address":"日野市神明1-12-1","lat":35.670986,"lon":139.395279},{"name":"日野市立多摩平図書館","province":"東京都","city":"日野市","address":"日野市多摩平2-9","lat":35.663486,"lon":139.382278},{"name":"日野市立中央図書館","province":"東京都","city":"日野市","address":"日野市豊田2-49","lat":35.656235,"lon":139.382355},{"name":"日野市立日野図書館","province":"東京都","city":"日野市","address":"日野市日野本町7-5-14","lat":35.679592,"lon":139.399765},{"name":"日野市立百草図書館","province":"東京都","city":"日野市","address":"日野市百草204-1","lat":35.657471,"lon":139.431259},{"name":"日野市立平山図書館","province":"東京都","city":"日野市","address":"日野市平山5-18-2","lat":35.647282,"lon":139.380875},{"name":"郷土資料館","province":"東京都","city":"日野市","address":"日野市程久保550","lat":35.65221,"lon":139.411285},{"name":"男女平等推進センター","province":"東京都","city":"日野市","address":"日野市多摩平2-9多摩平の森ふれあい館2階","lat":35.66357,"lon":139.381699},{"name":"日野市立八ヶ岳高原大成荘","province":"山梨県","city":"北杜市","address":"山梨県北杜市高根町清里字念場原3545","lat":35.923233,"lon":138.435074},{"name":"日野市中央公民館高幡台分室","province":"東京都","city":"日野市","address":"日野市程久保550教育センター内","lat":35.65221,"lon":139.411285},{"name":"日野市埋蔵文化財整理保管室","province":"東京都","city":"日野市","address":"日野市日野本町2-4-7","lat":35.675179,"lon":139.398849},{"name":"復原住居","province":"東京都","city":"日野市","address":"日野市神明2-13","lat":35.670219,"lon":139.393448}]}