{"keyword":"青年","data":[{"name":"文京区青少年プラザ(b-lab)","province":"東京都","city":"文京区","address":"東京都文京区湯島4丁目7-10","lat":35.70884827,"lon":139.76576823},{"name":"ｓ青少年交流プラザ","province":"東京都","city":"江東区","address":"東京都江東区亀戸7丁目41-16","lat":35.69678434,"lon":139.83734573},{"name":"ｓ青少年プラザ","province":"東京都","city":"目黒区","address":"東京都目黒区中目黒2丁目10-13","lat":35.64045153,"lon":139.70302891},{"name":"ｓ平和島ユースセンター※再整備工事中","province":"東京都","city":"大田区","address":"東京都大田区平和島4丁目2-15","lat":35.58360665,"lon":139.74305272},{"name":"野毛青少年交流センター","province":"東京都","city":"世田谷区","address":"東京都世田谷区野毛2丁目15-19","lat":35.60345736,"lon":139.64166611},{"name":"ｓ青少年交流センター池之上青少年会館","province":"東京都","city":"世田谷区","address":"東京都世田谷区代沢2丁目37-18","lat":35.65937366,"lon":139.67336408},{"name":"初台青年館","province":"東京都","city":"渋谷区","address":"東京都渋谷区初台1丁目33-10","lat":35.67960221,"lon":139.68485123},{"name":"代官山ティーンズクリエイティブ","province":"東京都","city":"渋谷区","address":"東京都渋谷区代官山町7-9","lat":35.65073373,"lon":139.70500339},{"name":"児童青少年センターフレンズ本町","province":"福岡県","city":"大牟田市","address":"福岡県大牟田市本町6丁目6-2","lat":33.0250314,"lon":130.43906028},{"name":"児童青少年センター","province":"東京都","city":"杉並区","address":"東京都杉並区荻窪1丁目56-3","lat":35.69445721,"lon":139.62737507},{"name":"豊島区中高生センタージャンプ東池袋","province":"東京都","city":"豊島区","address":"東京都豊島区東池袋2丁目38-10","lat":35.73195835,"lon":139.72141541},{"name":"中高生センタージャンプ長崎","province":"東京都","city":"豊島区","address":"東京都豊島区長崎2丁目24-13","lat":35.72996886,"lon":139.69132084},{"name":"春日町青少年館","province":"東京都","city":"練馬区","address":"東京都練馬区春日町4丁目16-9","lat":35.75259543,"lon":139.63927992},{"name":"ｓ南大泉青少年館","province":"東京都","city":"練馬区","address":"東京都練馬区南大泉1丁目44-7","lat":35.74335034,"lon":139.57486067},{"name":"ｓこども未来創造館","province":"東京都","city":"足立区","address":"東京都足立区栗原1丁目3-1","lat":35.7799159,"lon":139.7903796},{"name":"共育プラザ 南小岩","province":"東京都","city":"江戸川区","address":"東京都江戸川区南小岩4丁目5-8","lat":35.72090009,"lon":139.88561549},{"name":"一之江","province":"東京都","city":"江戸川区","address":"東京都江戸川区西一之江3丁目13-7","lat":35.69457253,"lon":139.87653965},{"name":"小岩","province":"東京都","city":"江戸川区","address":"東京都江戸川区北小岩2丁目14-17","lat":35.74014163,"lon":139.88489001},{"name":"平井","province":"東京都","city":"江戸川区","address":"東京都江戸川区平井7丁目21-6","lat":35.71459347,"lon":139.84013389},{"name":"南篠崎","province":"東京都","city":"江戸川区","address":"東京都江戸川区南篠崎町3丁目12-8","lat":35.69679687,"lon":139.89907084},{"name":"葛西","province":"東京都","city":"江戸川区","address":"東京都江戸川区宇喜田町175","lat":35.67286832,"lon":139.8612113},{"name":"ｓ釜の淵市民館","province":"東京都","city":"青梅市","address":"東京都青梅市大柳町1392","lat":35.78482878,"lon":139.25300977},{"name":"ｓ調布市青少年交流館","province":"東京都","city":"調布市","address":"東京都調布市飛田給1丁目52-1","lat":35.66119492,"lon":139.52557389},{"name":"調布市青少年ステーションCAPS","province":"東京都","city":"調布市","address":"東京都調布市上石原1丁目36-2","lat":35.65957587,"lon":139.53231508},{"name":"ｓ青少年施設ひなた村","province":"東京都","city":"町田市","address":"東京都町田市本町田2863","lat":35.56775337,"lon":139.44543922},{"name":"ｓ大地沢青少年センター","province":"東京都","city":"町田市","address":"東京都町田市相原町5307-2","lat":35.61218563,"lon":139.27639482},{"name":"ｓ子どもセンターばあん","province":"東京都","city":"町田市","address":"東京都町田市金森4丁目5-7","lat":35.52386478,"lon":139.46705569},{"name":"ｓ子どもセンターつるっこ","province":"東京都","city":"町田市","address":"東京都町田市大蔵町1913","lat":35.58985811,"lon":139.46581521},{"name":"ｓ子どもセンターぱお","province":"東京都","city":"町田市","address":"東京都町田市相原町2025-2","lat":35.60832685,"lon":139.32153197},{"name":"ｓ子どもセンターただON","province":"東京都","city":"町田市","address":"東京都町田市忠生1丁目11-1","lat":35.57394956,"lon":139.42217174},{"name":"ｓ子どもセンターまあち","province":"東京都","city":"町田市","address":"東京都町田市中町1丁目31-22","lat":35.54817483,"lon":139.44880341},{"name":"勤労・青年会館","province":"東京都","city":"日野市","address":"東京都日野市多摩平1丁目10-1","lat":35.6594134,"lon":139.38054154},{"name":"ｓ大田区青少年交流センターゆいっつ","province":"東京都","city":"大田区","address":"東京都大田区平和島4丁目2-15","lat":35.58360665,"lon":139.74305272},{"name":"希望丘青少年交流センターアップス","province":"東京都","city":"世田谷区","address":"東京都世田谷区船橋6丁目25-1","lat":35.6589584,"lon":139.62072125},{"name":"中高生センタージャンプ東池袋","province":"東京都","city":"豊島区","address":"東京都豊島区東池袋2丁目38-10","lat":35.73195835,"lon":139.72141541},{"name":"共育プラザ 小岩","province":"東京都","city":"江戸川区","address":"東京都江戸川区北小岩2丁目14-17","lat":35.74014163,"lon":139.88489001},{"name":"共育プラザ 平井","province":"東京都","city":"江戸川区","address":"東京都江戸川区平井7丁目21-6","lat":35.71459347,"lon":139.84013389},{"name":"共育プラザ 葛西","province":"東京都","city":"江戸川区","address":"東京都江戸川区宇喜田町175","lat":35.67286832,"lon":139.8612113},{"name":"共育プラザ 一之江","province":"東京都","city":"江戸川区","address":"東京都江戸川区西一之江3丁目13-7","lat":35.69457253,"lon":139.87653965},{"name":"共育プラザ 南篠崎","province":"東京都","city":"江戸川区","address":"東京都江戸川区南篠崎町3丁目12-8","lat":35.69679687,"lon":139.89907084},{"name":"ｓ青少年交流館","province":"東京都","city":"調布市","address":"東京都調布市飛田給1丁目52-1","lat":35.66119492,"lon":139.52557389},{"name":"青少年ステーションCAPS","province":"東京都","city":"調布市","address":"東京都調布市上石原1丁目36-2","lat":35.65957587,"lon":139.53231508},{"name":"ｓ子ども創造キャンパスひなた村","province":"東京都","city":"町田市","address":"東京都町田市本町田2863","lat":35.56775337,"lon":139.44543922}]}