{"keyword":"更生","data":[{"name":"けやき荘","province":"東京都","city":"新宿区","address":"東京都新宿区","lat":35.69388716,"lon":139.70341014},{"name":"しのばず荘","province":"東京都","city":"台東区","address":"台東区上野公園17-9","lat":35.717237,"lon":139.778587},{"name":"新塩崎荘","province":"東京都","city":"江東区","address":"江東区塩浜2-5-15","lat":35.662182,"lon":139.804966},{"name":"塩崎荘","province":"東京都","city":"江東区","address":"江東区塩浜2-5-16","lat":35.662313,"lon":139.805408},{"name":"さざなみ苑","province":"東京都","city":"江東区","address":"江東区潮見1-29-23","lat":35.655436,"lon":139.815743},{"name":"浜川荘","province":"東京都","city":"品川区","address":"品川区勝島1-9-11","lat":35.597849,"lon":139.742919},{"name":"千駄ヶ谷荘","province":"東京都","city":"渋谷区","address":"渋谷区千駄ヶ谷5-34-3","lat":35.687843,"lon":139.703583},{"name":"更生施設ふじみ","province":"東京都","city":"板橋区","address":"東京都板橋区","lat":35.7511642,"lon":139.70924619},{"name":"本木荘","province":"東京都","city":"足立区","address":"足立区関原1-4-29","lat":35.761743,"lon":139.789717},{"name":"しのばず荘","province":"東京都","city":"台東区","address":"台東区上野公園17-9","lat":35.71701,"lon":139.77849},{"name":"新塩崎荘","province":"東京都","city":"江東区","address":"江東区塩浜2-5-15","lat":35.66123,"lon":139.80518},{"name":"塩崎荘","province":"東京都","city":"江東区","address":"江東区塩浜2-5-16","lat":35.66123,"lon":139.80518},{"name":"さざなみ苑","province":"東京都","city":"江東区","address":"江東区潮見1-29-23","lat":35.65589,"lon":139.81343},{"name":"浜川荘","province":"東京都","city":"品川区","address":"品川区勝島1-9-11","lat":35.59647,"lon":139.74246},{"name":"千駄ヶ谷荘","province":"東京都","city":"渋谷区","address":"渋谷区千駄ヶ谷5-34-3","lat":35.68776,"lon":139.70332},{"name":"本木荘","province":"東京都","city":"足立区","address":"足立区関原1-4-29","lat":35.76184,"lon":139.78984},{"name":"けやき荘","province":"東京都","city":"新宿区","address":"東京都新宿区内藤町","lat":35.68528565,"lon":139.71532331},{"name":"淀橋荘","province":"東京都","city":"新宿区","address":"東京都新宿区内藤町","lat":35.68528565,"lon":139.71532331},{"name":"さざなみ苑","province":"東京都","city":"江東区","address":"江東区潮見1-29-23","lat":35.673078,"lon":139.816968}]}