{"keyword":"し尿","data":[{"name":"武蔵村山市子ども家庭支援センター","province":"東京都","city":"武蔵村山市","address":"武蔵村山市学園4-5-1武蔵村山市民総合センター内","lat":35.746304,"lon":139.403259},{"name":"武蔵村山市保健相談センター","province":"東京都","city":"武蔵村山市","address":"武蔵村山市本町1-23","lat":35.752758,"lon":139.387455},{"name":"武蔵村山市保健相談センターお伊勢の森分室","province":"東京都","city":"武蔵村山市","address":"武蔵村山市中央2-118","lat":35.750959,"lon":139.393643},{"name":"武蔵村山市","province":"東京都","city":"武蔵村山市","address":"武蔵村山市本町1-1-1","lat":35.7549058,"lon":139.3874214},{"name":"野山北・六道山公園","province":"東京都","city":"武蔵村山市","address":"東京都武蔵村山市本町3丁目85","lat":35.762693,"lon":139.381346},{"name":"北多摩西部消防署武蔵村山出張所","province":"東京都","city":"武蔵村山市","address":"東京都武蔵村山市榎1丁目1-36","lat":35.742334,"lon":139.386443},{"name":"公民館さいかち分館","province":"東京都","city":"武蔵村山市","address":"東京都武蔵村山市緑が丘1460","lat":35.744437,"lon":139.405977},{"name":"武蔵村山市役所","province":"東京都","city":"武蔵村山市","address":"東京都武蔵村山市本町1丁目1-1","lat":35.754704,"lon":139.387479},{"name":"武蔵村山市民総合センター","province":"東京都","city":"武蔵村山市","address":"東京都武蔵村山市学園4丁目5-1","lat":35.74615,"lon":139.403336},{"name":"武蔵村山市民総合センター","province":"東京都","city":"武蔵村山市","address":"東京都武蔵村山市学園4丁目5-1","lat":35.746175,"lon":139.403363},{"name":"武蔵村山市民総合センター","province":"東京都","city":"武蔵村山市","address":"東京都武蔵村山市学園4丁目5-1","lat":35.746148,"lon":139.403317},{"name":"武蔵村山市民総合センター","province":"東京都","city":"武蔵村山市","address":"東京都武蔵村山市学園4丁目5-1","lat":35.746158,"lon":139.403384},{"name":"武蔵村山市民総合センター","province":"東京都","city":"武蔵村山市","address":"東京都武蔵村山市学園4丁目5-1","lat":35.746293,"lon":139.403342},{"name":"武蔵村山市民総合センター","province":"東京都","city":"武蔵村山市","address":"東京都武蔵村山市学園4丁目5-1","lat":35.746288,"lon":139.40329},{"name":"武蔵村山市民総合センター","province":"東京都","city":"武蔵村山市","address":"東京都武蔵村山市学園4丁目5-1","lat":35.746156,"lon":139.403362},{"name":"武蔵村山市役所緑が丘出張所","province":"東京都","city":"武蔵村山市","address":"東京都武蔵村山市緑が丘1460","lat":35.741814,"lon":139.405018},{"name":"武蔵村山市公民館","province":"東京都","city":"武蔵村山市","address":"東京都武蔵村山市大南2丁目78","lat":35.73997,"lon":139.401295},{"name":"武蔵村山市公民館","province":"東京都","city":"武蔵村山市","address":"東京都武蔵村山市大南2丁目78-1","lat":35.739922,"lon":139.401757},{"name":"中藤地区会館","province":"東京都","city":"武蔵村山市","address":"東京都武蔵村山市中藤3丁目16","lat":35.756965,"lon":139.400749},{"name":"三ツ木地区会館","province":"東京都","city":"武蔵村山市","address":"東京都武蔵村山市三ツ木2丁目39-2","lat":35.758542,"lon":139.368606},{"name":"大南地区会館","province":"東京都","city":"武蔵村山市","address":"東京都武蔵村山市大南5丁目1-69","lat":35.735694,"lon":139.405892},{"name":"大南地区会館","province":"東京都","city":"武蔵村山市","address":"東京都武蔵村山市大南5丁目1","lat":35.735492,"lon":139.405821},{"name":"残堀・伊奈平地区会館","province":"東京都","city":"武蔵村山市","address":"東京都武蔵村山市残堀1丁目60-3","lat":35.746194,"lon":139.375197},{"name":"武蔵村山市保健相談センター","province":"東京都","city":"武蔵村山市","address":"東京都武蔵村山市本町1丁目23","lat":35.752902,"lon":139.387421},{"name":"武蔵村山市保健相談センターお伊勢の森分室","province":"東京都","city":"武蔵村山市","address":"東京都武蔵村山市中央2丁目118","lat":35.75106,"lon":139.39355},{"name":"雷塚図書館","province":"東京都","city":"武蔵村山市","address":"東京都武蔵村山市学園4丁目4","lat":35.745837,"lon":139.400405},{"name":"三ツ木地区図書館","province":"東京都","city":"武蔵村山市","address":"東京都武蔵村山市三ツ木2丁目39-2","lat":35.758663,"lon":139.368589},{"name":"大南地区図書館","province":"東京都","city":"武蔵村山市","address":"東京都武蔵村山市大南5丁目1-69","lat":35.735679,"lon":139.405895},{"name":"中藤地区図書館","province":"東京都","city":"武蔵村山市","address":"東京都武蔵村山市中藤3丁目16","lat":35.756933,"lon":139.400716},{"name":"残堀・伊奈平地区図書館","province":"東京都","city":"武蔵村山市","address":"東京都武蔵村山市残堀1丁目60-3","lat":35.746172,"lon":139.375192},{"name":"中久保図書館","province":"東京都","city":"武蔵村山市","address":"東京都武蔵村山市本町2丁目77-1","lat":35.754566,"lon":139.382909},{"name":"武蔵村山市立歴史民俗資料館","province":"東京都","city":"武蔵村山市","address":"東京都武蔵村山市本町5丁目21-1","lat":35.762425,"lon":139.387428},{"name":"歴史民俗資料館分館","province":"東京都","city":"武蔵村山市","address":"東京都武蔵村山市大南3丁目5-7","lat":35.737584,"lon":139.400805},{"name":"武蔵村山市民会館","province":"東京都","city":"武蔵村山市","address":"東京都武蔵村山市本町1丁目17-1","lat":35.753985,"lon":139.386945},{"name":"武蔵村山市民会館","province":"東京都","city":"武蔵村山市","address":"東京都武蔵村山市本町1丁目17-1","lat":35.753944,"lon":139.386984},{"name":"武蔵村山市民会館","province":"東京都","city":"武蔵村山市","address":"東京都武蔵村山市本町1丁目17-1","lat":35.753918,"lon":139.386977},{"name":"伊奈平公園","province":"東京都","city":"武蔵村山市","address":"東京都武蔵村山市伊奈平5丁目84","lat":35.740054,"lon":139.371137},{"name":"大南公園","province":"東京都","city":"武蔵村山市","address":"東京都武蔵村山市緑が丘","lat":35.738627,"lon":139.409069},{"name":"大南公園","province":"東京都","city":"武蔵村山市","address":"東京都武蔵村山市緑が丘","lat":35.738888,"lon":139.406427},{"name":"大南東公園","province":"東京都","city":"武蔵村山市","address":"東京都武蔵村山市大南5丁目2","lat":35.735127,"lon":139.409561},{"name":"経塚向公園","province":"東京都","city":"武蔵村山市","address":"東京都武蔵村山市中原2丁目50","lat":35.754738,"lon":139.360355},{"name":"さいかち公園","province":"東京都","city":"武蔵村山市","address":"東京都武蔵村山市学園4丁目5","lat":35.745813,"lon":139.403513},{"name":"山王森公園","province":"東京都","city":"武蔵村山市","address":"東京都武蔵村山市三ツ藤3丁目27","lat":35.755988,"lon":139.370846},{"name":"中原公園","province":"東京都","city":"武蔵村山市","address":"東京都武蔵村山市中原2丁目21","lat":35.756726,"lon":139.363073},{"name":"プリンスの丘公園","province":"東京都","city":"武蔵村山市","address":"東京都武蔵村山市榎1丁目1","lat":35.743457,"lon":139.387197},{"name":"雷塚公園","province":"東京都","city":"武蔵村山市","address":"東京都武蔵村山市学園4丁目4","lat":35.746065,"lon":139.400923},{"name":"横田児童遊園","province":"東京都","city":"武蔵村山市","address":"東京都武蔵村山市本町4丁目41","lat":35.758494,"lon":139.386416},{"name":"学園四丁目西児童遊園","province":"東京都","city":"武蔵村山市","address":"東京都武蔵村山市学園4丁目3","lat":35.745046,"lon":139.398608},{"name":"伊奈平四丁目児童遊園","province":"東京都","city":"武蔵村山市","address":"東京都武蔵村山市伊奈平4丁目18","lat":35.737644,"lon":139.376887},{"name":"武蔵の野路休憩所","province":"東京都","city":"武蔵村山市","address":"東京都武蔵村山市本町4丁目36","lat":35.758199,"lon":139.386865},{"name":"武蔵村山市総合体育館","province":"東京都","city":"武蔵村山市","address":"東京都武蔵村山市岸3丁目45-6","lat":35.764984,"lon":139.371874},{"name":"武蔵村山市総合体育館","province":"東京都","city":"武蔵村山市","address":"東京都武蔵村山市岸3丁目45-6","lat":35.764961,"lon":139.372275},{"name":"野山北公園","province":"東京都","city":"武蔵村山市","address":"東京都武蔵村山市本町5丁目31","lat":35.763552,"lon":139.384599},{"name":"総合運動公園運動場","province":"東京都","city":"武蔵村山市","address":"東京都武蔵村山市岸5丁目30","lat":35.766134,"lon":139.373528},{"name":"総合運動公園運動場","province":"東京都","city":"武蔵村山市","address":"東京都武蔵村山市岸5丁目31","lat":35.765201,"lon":139.374229},{"name":"三ツ木地域運動場","province":"東京都","city":"武蔵村山市","address":"東京都武蔵村山市三ツ木1丁目15","lat":35.756746,"lon":139.378735},{"name":"残堀・伊奈平地域運動場","province":"東京都","city":"武蔵村山市","address":"東京都武蔵村山市残堀4丁目38","lat":35.747756,"lon":139.368979},{"name":"新大南運動場","province":"東京都","city":"武蔵村山市","address":"東京都武蔵村山市大南3丁目64","lat":35.736615,"lon":139.403147},{"name":"中藤五丁目運動広場","province":"東京都","city":"武蔵村山市","address":"東京都武蔵村山市中藤5丁目7","lat":35.75612,"lon":139.407043},{"name":"三ツ木庭球場","province":"東京都","city":"武蔵村山市","address":"東京都武蔵村山市三ツ木1丁目20","lat":35.756884,"lon":139.376649},{"name":"武蔵村山市福祉会館","province":"東京都","city":"武蔵村山市","address":"東京都武蔵村山市中央2丁目117-1","lat":35.750835,"lon":139.393353},{"name":"村山温泉かたくりの湯","province":"東京都","city":"武蔵村山市","address":"東京都武蔵村山市本町5丁目29-1","lat":35.76281,"lon":139.38699},{"name":"さいかち老人福祉館","province":"東京都","city":"武蔵村山市","address":"東京都武蔵村山市緑が丘1460","lat":35.744221,"lon":139.406634},{"name":"有限会社 成華園","province":"東京都","city":"武蔵村山市","address":"東京都武蔵村山市学園3丁目61-5","lat":35.74423764,"lon":139.40527261},{"name":"有限会社  アヤノセレモニー","province":"東京都","city":"武蔵村山市","address":"東京都武蔵村山市学園5丁目15-14","lat":35.74475949,"lon":139.39270994},{"name":"合同会社 大南葬祭","province":"東京都","city":"武蔵村山市","address":"東京都武蔵村山市大南5丁目70-1","lat":35.74057152,"lon":139.41082221},{"name":"株式会社 セレモの森","province":"東京都","city":"武蔵村山市","address":"東京都武蔵村山市大南3丁目97-2","lat":35.73523306,"lon":139.402976},{"name":"有限会社 アヴィル 市民葬祭センター","province":"東京都","city":"武蔵村山市","address":"東京都武蔵村山市大南4丁目61-9","lat":35.73485551,"lon":139.41111687},{"name":"株式会社 むらやま葬祭","province":"東京都","city":"武蔵村山市","address":"東京都武蔵村山市大南1丁目2-1","lat":35.74221812,"lon":139.39303223},{"name":"株式会社 トータルプラン","province":"東京都","city":"武蔵村山市","address":"東京都武蔵村山市大南1丁目168-1","lat":35.73481073,"lon":139.39657665},{"name":"武蔵村山市立保健相談センター","province":"東京都","city":"武蔵村山市","address":"東京都武蔵村山市本町1丁目23","lat":35.75275842,"lon":139.38745453},{"name":"武蔵村山市立保健相談センター","province":"東京都","city":"武蔵村山市","address":"武蔵村山市本町1-23","lat":35.75282,"lon":139.38742},{"name":"武蔵村山市子ども家庭支援センター","province":"東京都","city":"武蔵村山市","address":"武蔵村山市学園4-5-1武蔵村山市民総合センター内","lat":35.74613,"lon":139.40326},{"name":"武蔵村山市立保健相談センター","province":"東京都","city":"武蔵村山市","address":"武蔵村山市本町1-23","lat":35.752758,"lon":139.387455},{"name":"比留間運送(株)  中間処理工場","province":"東京都","city":"武蔵村山市","address":"武蔵村山市伊奈平3-25-5","lat":35.736393,"lon":139.38028},{"name":"(有)富商","province":"東京都","city":"武蔵村山市","address":"武蔵村山市伊奈平2-8","lat":35.74202,"lon":139.380173},{"name":"(株)前原紙業  武蔵村山営業所","province":"東京都","city":"武蔵村山市","address":"武蔵村山市榎2-92-1","lat":35.740997,"lon":139.390793},{"name":"武蔵村山市選挙管理委員会","province":"東京都","city":"武蔵村山市","address":"武蔵村山市本町1-1-1","lat":35.754859,"lon":139.38743},{"name":"武蔵村山市本庁舎","province":"東京都","city":"武蔵村山市","address":"武蔵村山市本町1-1-1","lat":35.754906,"lon":139.387421},{"name":"武蔵村山市子ども家庭支援センター","province":"東京都","city":"武蔵村山市","address":"武蔵村山市学園4-5-1武蔵村山市民総合センター内","lat":35.746304,"lon":139.403259},{"name":"武蔵村山市保健相談センター","province":"東京都","city":"武蔵村山市","address":"武蔵村山市本町1-23","lat":35.752758,"lon":139.387455},{"name":"武蔵村山市保健相談センターお伊勢の森分室","province":"東京都","city":"武蔵村山市","address":"武蔵村山市中央2-118","lat":35.750959,"lon":139.393643},{"name":"武蔵村山市","province":"東京都","city":"武蔵村山市","address":"武蔵村山市本町1-1-1","lat":35.7549058,"lon":139.3874214},{"name":"野山北・六道山公園","province":"東京都","city":"武蔵村山市","address":"東京都武蔵村山市本町3丁目85","lat":35.762693,"lon":139.381346},{"name":"北多摩西部消防署武蔵村山出張所","province":"東京都","city":"武蔵村山市","address":"東京都武蔵村山市榎1丁目1-36","lat":35.742334,"lon":139.386443},{"name":"公民館さいかち分館","province":"東京都","city":"武蔵村山市","address":"東京都武蔵村山市緑が丘1460","lat":35.744437,"lon":139.405977},{"name":"武蔵村山市役所","province":"東京都","city":"武蔵村山市","address":"東京都武蔵村山市本町1丁目1-1","lat":35.754704,"lon":139.387479},{"name":"武蔵村山市民総合センター","province":"東京都","city":"武蔵村山市","address":"東京都武蔵村山市学園4丁目5-1","lat":35.74615,"lon":139.403336},{"name":"武蔵村山市民総合センター","province":"東京都","city":"武蔵村山市","address":"東京都武蔵村山市学園4丁目5-1","lat":35.746175,"lon":139.403363},{"name":"武蔵村山市民総合センター","province":"東京都","city":"武蔵村山市","address":"東京都武蔵村山市学園4丁目5-1","lat":35.746148,"lon":139.403317},{"name":"武蔵村山市民総合センター","province":"東京都","city":"武蔵村山市","address":"東京都武蔵村山市学園4丁目5-1","lat":35.746158,"lon":139.403384},{"name":"武蔵村山市民総合センター","province":"東京都","city":"武蔵村山市","address":"東京都武蔵村山市学園4丁目5-1","lat":35.746293,"lon":139.403342},{"name":"武蔵村山市民総合センター","province":"東京都","city":"武蔵村山市","address":"東京都武蔵村山市学園4丁目5-1","lat":35.746288,"lon":139.40329},{"name":"武蔵村山市民総合センター","province":"東京都","city":"武蔵村山市","address":"東京都武蔵村山市学園4丁目5-1","lat":35.746156,"lon":139.403362},{"name":"武蔵村山市役所緑が丘出張所","province":"東京都","city":"武蔵村山市","address":"東京都武蔵村山市緑が丘1460","lat":35.741814,"lon":139.405018},{"name":"武蔵村山市公民館","province":"東京都","city":"武蔵村山市","address":"東京都武蔵村山市大南2丁目78","lat":35.73997,"lon":139.401295},{"name":"武蔵村山市公民館","province":"東京都","city":"武蔵村山市","address":"東京都武蔵村山市大南2丁目78-1","lat":35.739922,"lon":139.401757},{"name":"中藤地区会館","province":"東京都","city":"武蔵村山市","address":"東京都武蔵村山市中藤3丁目16","lat":35.756965,"lon":139.400749},{"name":"三ツ木地区会館","province":"東京都","city":"武蔵村山市","address":"東京都武蔵村山市三ツ木2丁目39-2","lat":35.758542,"lon":139.368606},{"name":"大南地区会館","province":"東京都","city":"武蔵村山市","address":"東京都武蔵村山市大南5丁目1-69","lat":35.735694,"lon":139.405892},{"name":"大南地区会館","province":"東京都","city":"武蔵村山市","address":"東京都武蔵村山市大南5丁目1","lat":35.735492,"lon":139.405821},{"name":"残堀・伊奈平地区会館","province":"東京都","city":"武蔵村山市","address":"東京都武蔵村山市残堀1丁目60-3","lat":35.746194,"lon":139.375197},{"name":"武蔵村山市保健相談センター","province":"東京都","city":"武蔵村山市","address":"東京都武蔵村山市本町1丁目23","lat":35.752902,"lon":139.387421},{"name":"武蔵村山市保健相談センターお伊勢の森分室","province":"東京都","city":"武蔵村山市","address":"東京都武蔵村山市中央2丁目118","lat":35.75106,"lon":139.39355},{"name":"雷塚図書館","province":"東京都","city":"武蔵村山市","address":"東京都武蔵村山市学園4丁目4","lat":35.745837,"lon":139.400405},{"name":"三ツ木地区図書館","province":"東京都","city":"武蔵村山市","address":"東京都武蔵村山市三ツ木2丁目39-2","lat":35.758663,"lon":139.368589},{"name":"大南地区図書館","province":"東京都","city":"武蔵村山市","address":"東京都武蔵村山市大南5丁目1-69","lat":35.735679,"lon":139.405895},{"name":"中藤地区図書館","province":"東京都","city":"武蔵村山市","address":"東京都武蔵村山市中藤3丁目16","lat":35.756933,"lon":139.400716},{"name":"残堀・伊奈平地区図書館","province":"東京都","city":"武蔵村山市","address":"東京都武蔵村山市残堀1丁目60-3","lat":35.746172,"lon":139.375192},{"name":"中久保図書館","province":"東京都","city":"武蔵村山市","address":"東京都武蔵村山市本町2丁目77-1","lat":35.754566,"lon":139.382909},{"name":"武蔵村山市立歴史民俗資料館","province":"東京都","city":"武蔵村山市","address":"東京都武蔵村山市本町5丁目21-1","lat":35.762425,"lon":139.387428},{"name":"歴史民俗資料館分館","province":"東京都","city":"武蔵村山市","address":"東京都武蔵村山市大南3丁目5-7","lat":35.737584,"lon":139.400805},{"name":"武蔵村山市民会館","province":"東京都","city":"武蔵村山市","address":"東京都武蔵村山市本町1丁目17-1","lat":35.753985,"lon":139.386945},{"name":"武蔵村山市民会館","province":"東京都","city":"武蔵村山市","address":"東京都武蔵村山市本町1丁目17-1","lat":35.753944,"lon":139.386984},{"name":"武蔵村山市民会館","province":"東京都","city":"武蔵村山市","address":"東京都武蔵村山市本町1丁目17-1","lat":35.753918,"lon":139.386977},{"name":"伊奈平公園","province":"東京都","city":"武蔵村山市","address":"東京都武蔵村山市伊奈平5丁目84","lat":35.740054,"lon":139.371137},{"name":"大南公園","province":"東京都","city":"武蔵村山市","address":"東京都武蔵村山市緑が丘","lat":35.738627,"lon":139.409069},{"name":"大南公園","province":"東京都","city":"武蔵村山市","address":"東京都武蔵村山市緑が丘","lat":35.738888,"lon":139.406427},{"name":"大南東公園","province":"東京都","city":"武蔵村山市","address":"東京都武蔵村山市大南5丁目2","lat":35.735127,"lon":139.409561},{"name":"経塚向公園","province":"東京都","city":"武蔵村山市","address":"東京都武蔵村山市中原2丁目50","lat":35.754738,"lon":139.360355},{"name":"さいかち公園","province":"東京都","city":"武蔵村山市","address":"東京都武蔵村山市学園4丁目5","lat":35.745813,"lon":139.403513},{"name":"山王森公園","province":"東京都","city":"武蔵村山市","address":"東京都武蔵村山市三ツ藤3丁目27","lat":35.755988,"lon":139.370846},{"name":"中原公園","province":"東京都","city":"武蔵村山市","address":"東京都武蔵村山市中原2丁目21","lat":35.756726,"lon":139.363073},{"name":"プリンスの丘公園","province":"東京都","city":"武蔵村山市","address":"東京都武蔵村山市榎1丁目1","lat":35.743457,"lon":139.387197},{"name":"雷塚公園","province":"東京都","city":"武蔵村山市","address":"東京都武蔵村山市学園4丁目4","lat":35.746065,"lon":139.400923},{"name":"横田児童遊園","province":"東京都","city":"武蔵村山市","address":"東京都武蔵村山市本町4丁目41","lat":35.758494,"lon":139.386416},{"name":"学園四丁目西児童遊園","province":"東京都","city":"武蔵村山市","address":"東京都武蔵村山市学園4丁目3","lat":35.745046,"lon":139.398608},{"name":"伊奈平四丁目児童遊園","province":"東京都","city":"武蔵村山市","address":"東京都武蔵村山市伊奈平4丁目18","lat":35.737644,"lon":139.376887},{"name":"武蔵の野路休憩所","province":"東京都","city":"武蔵村山市","address":"東京都武蔵村山市本町4丁目36","lat":35.758199,"lon":139.386865},{"name":"武蔵村山市総合体育館","province":"東京都","city":"武蔵村山市","address":"東京都武蔵村山市岸3丁目45-6","lat":35.764984,"lon":139.371874},{"name":"武蔵村山市総合体育館","province":"東京都","city":"武蔵村山市","address":"東京都武蔵村山市岸3丁目45-6","lat":35.764961,"lon":139.372275},{"name":"野山北公園","province":"東京都","city":"武蔵村山市","address":"東京都武蔵村山市本町5丁目31","lat":35.763552,"lon":139.384599},{"name":"総合運動公園運動場","province":"東京都","city":"武蔵村山市","address":"東京都武蔵村山市岸5丁目30","lat":35.766134,"lon":139.373528},{"name":"総合運動公園運動場","province":"東京都","city":"武蔵村山市","address":"東京都武蔵村山市岸5丁目31","lat":35.765201,"lon":139.374229},{"name":"三ツ木地域運動場","province":"東京都","city":"武蔵村山市","address":"東京都武蔵村山市三ツ木1丁目15","lat":35.756746,"lon":139.378735},{"name":"残堀・伊奈平地域運動場","province":"東京都","city":"武蔵村山市","address":"東京都武蔵村山市残堀4丁目38","lat":35.747756,"lon":139.368979},{"name":"新大南運動場","province":"東京都","city":"武蔵村山市","address":"東京都武蔵村山市大南3丁目64","lat":35.736615,"lon":139.403147},{"name":"中藤五丁目運動広場","province":"東京都","city":"武蔵村山市","address":"東京都武蔵村山市中藤5丁目7","lat":35.75612,"lon":139.407043},{"name":"三ツ木庭球場","province":"東京都","city":"武蔵村山市","address":"東京都武蔵村山市三ツ木1丁目20","lat":35.756884,"lon":139.376649},{"name":"武蔵村山市福祉会館","province":"東京都","city":"武蔵村山市","address":"東京都武蔵村山市中央2丁目117-1","lat":35.750835,"lon":139.393353},{"name":"村山温泉かたくりの湯","province":"東京都","city":"武蔵村山市","address":"東京都武蔵村山市本町5丁目29-1","lat":35.76281,"lon":139.38699},{"name":"さいかち老人福祉館","province":"東京都","city":"武蔵村山市","address":"東京都武蔵村山市緑が丘1460","lat":35.744221,"lon":139.406634},{"name":"有限会社 成華園","province":"東京都","city":"武蔵村山市","address":"東京都武蔵村山市学園3丁目61-5","lat":35.74423764,"lon":139.40527261},{"name":"有限会社  アヤノセレモニー","province":"東京都","city":"武蔵村山市","address":"東京都武蔵村山市学園5丁目15-14","lat":35.74475949,"lon":139.39270994},{"name":"合同会社 大南葬祭","province":"東京都","city":"武蔵村山市","address":"東京都武蔵村山市大南5丁目70-1","lat":35.74057152,"lon":139.41082221},{"name":"株式会社 セレモの森","province":"東京都","city":"武蔵村山市","address":"東京都武蔵村山市大南3丁目97-2","lat":35.73523306,"lon":139.402976},{"name":"有限会社 アヴィル 市民葬祭センター","province":"東京都","city":"武蔵村山市","address":"東京都武蔵村山市大南4丁目61-9","lat":35.73485551,"lon":139.41111687},{"name":"株式会社 むらやま葬祭","province":"東京都","city":"武蔵村山市","address":"東京都武蔵村山市大南1丁目2-1","lat":35.74221812,"lon":139.39303223},{"name":"株式会社 トータルプラン","province":"東京都","city":"武蔵村山市","address":"東京都武蔵村山市大南1丁目168-1","lat":35.73481073,"lon":139.39657665},{"name":"武蔵村山市立保健相談センター","province":"東京都","city":"武蔵村山市","address":"東京都武蔵村山市本町1丁目23","lat":35.75275842,"lon":139.38745453},{"name":"武蔵村山市立保健相談センター","province":"東京都","city":"武蔵村山市","address":"武蔵村山市本町1-23","lat":35.75282,"lon":139.38742},{"name":"武蔵村山市子ども家庭支援センター","province":"東京都","city":"武蔵村山市","address":"武蔵村山市学園4-5-1武蔵村山市民総合センター内","lat":35.74613,"lon":139.40326},{"name":"武蔵村山市立保健相談センター","province":"東京都","city":"武蔵村山市","address":"武蔵村山市本町1-23","lat":35.752758,"lon":139.387455},{"name":"比留間運送(株)  中間処理工場","province":"東京都","city":"武蔵村山市","address":"武蔵村山市伊奈平3-25-5","lat":35.736393,"lon":139.38028},{"name":"(有)富商","province":"東京都","city":"武蔵村山市","address":"武蔵村山市伊奈平2-8","lat":35.74202,"lon":139.380173},{"name":"(株)前原紙業  武蔵村山営業所","province":"東京都","city":"武蔵村山市","address":"武蔵村山市榎2-92-1","lat":35.740997,"lon":139.390793},{"name":"武蔵村山市選挙管理委員会","province":"東京都","city":"武蔵村山市","address":"武蔵村山市本町1-1-1","lat":35.754859,"lon":139.38743},{"name":"武蔵村山市子ども家庭支援センター","province":"東京都","city":"武蔵村山市","address":"武蔵村山市学園4-5-1武蔵村山市民総合センター内","lat":35.746304,"lon":139.403259},{"name":"武蔵村山市保健相談センター","province":"東京都","city":"武蔵村山市","address":"武蔵村山市本町1-23","lat":35.752758,"lon":139.387455},{"name":"武蔵村山市保健相談センターお伊勢の森分室","province":"東京都","city":"武蔵村山市","address":"武蔵村山市中央2-118","lat":35.750959,"lon":139.393643},{"name":"武蔵村山市","province":"東京都","city":"武蔵村山市","address":"武蔵村山市本町1-1-1","lat":35.7549058,"lon":139.3874214},{"name":"有限会社 成華園","province":"東京都","city":"武蔵村山市","address":"東京都武蔵村山市学園3丁目61-5","lat":35.74423764,"lon":139.40527261},{"name":"有限会社  アヤノセレモニー","province":"東京都","city":"武蔵村山市","address":"東京都武蔵村山市学園5丁目15-14","lat":35.74475949,"lon":139.39270994},{"name":"合同会社 大南葬祭","province":"東京都","city":"武蔵村山市","address":"東京都武蔵村山市大南5丁目70-1","lat":35.74057152,"lon":139.41082221},{"name":"株式会社 セレモの森","province":"東京都","city":"武蔵村山市","address":"東京都武蔵村山市大南3丁目97-2","lat":35.73523306,"lon":139.402976},{"name":"有限会社 アヴィル 市民葬祭センター","province":"東京都","city":"武蔵村山市","address":"東京都武蔵村山市大南4丁目61-9","lat":35.73485551,"lon":139.41111687},{"name":"株式会社 むらやま葬祭","province":"東京都","city":"武蔵村山市","address":"東京都武蔵村山市大南1丁目2-1","lat":35.74221812,"lon":139.39303223},{"name":"株式会社 トータルプラン","province":"東京都","city":"武蔵村山市","address":"東京都武蔵村山市大南1丁目168-1","lat":35.73481073,"lon":139.39657665},{"name":"武蔵村山市立保健相談センター","province":"東京都","city":"武蔵村山市","address":"東京都武蔵村山市本町1丁目23","lat":35.75275842,"lon":139.38745453},{"name":"武蔵村山市立保健相談センター","province":"東京都","city":"武蔵村山市","address":"武蔵村山市本町1-23","lat":35.75282,"lon":139.38742},{"name":"武蔵村山市子ども家庭支援センター","province":"東京都","city":"武蔵村山市","address":"武蔵村山市学園4-5-1武蔵村山市民総合センター内","lat":35.74613,"lon":139.40326},{"name":"武蔵村山市立保健相談センター","province":"東京都","city":"武蔵村山市","address":"武蔵村山市本町1-23","lat":35.752758,"lon":139.387455},{"name":"比留間運送(株)  中間処理工場","province":"東京都","city":"武蔵村山市","address":"武蔵村山市伊奈平3-25-5","lat":35.736393,"lon":139.38028},{"name":"(有)富商","province":"東京都","city":"武蔵村山市","address":"武蔵村山市伊奈平2-8","lat":35.74202,"lon":139.380173},{"name":"(株)前原紙業  武蔵村山営業所","province":"東京都","city":"武蔵村山市","address":"武蔵村山市榎2-92-1","lat":35.740997,"lon":139.390793},{"name":"武蔵村山市選挙管理委員会","province":"東京都","city":"武蔵村山市","address":"武蔵村山市本町1-1-1","lat":35.754859,"lon":139.38743},{"name":"武蔵村山市保健相談センター","province":"東京都","city":"武蔵村山市","address":"武蔵村山市本町1-23","lat":35.752758,"lon":139.387455},{"name":"武蔵村山市保健相談センターお伊勢の森分室","province":"東京都","city":"武蔵村山市","address":"武蔵村山市中央2-118","lat":35.750959,"lon":139.393643},{"name":"武蔵村山市","province":"東京都","city":"武蔵村山市","address":"武蔵村山市本町1-1-1","lat":35.7549058,"lon":139.3874214},{"name":"有限会社 成華園","province":"東京都","city":"武蔵村山市","address":"東京都武蔵村山市学園3丁目61-5","lat":35.74423764,"lon":139.40527261},{"name":"有限会社  アヤノセレモニー","province":"東京都","city":"武蔵村山市","address":"東京都武蔵村山市学園5丁目15-14","lat":35.74475949,"lon":139.39270994},{"name":"合同会社 大南葬祭","province":"東京都","city":"武蔵村山市","address":"東京都武蔵村山市大南5丁目70-1","lat":35.74057152,"lon":139.41082221},{"name":"株式会社 セレモの森","province":"東京都","city":"武蔵村山市","address":"東京都武蔵村山市大南3丁目97-2","lat":35.73523306,"lon":139.402976},{"name":"有限会社 アヴィル 市民葬祭センター","province":"東京都","city":"武蔵村山市","address":"東京都武蔵村山市大南4丁目61-9","lat":35.73485551,"lon":139.41111687},{"name":"株式会社 むらやま葬祭","province":"東京都","city":"武蔵村山市","address":"東京都武蔵村山市大南1丁目2-1","lat":35.74221812,"lon":139.39303223},{"name":"株式会社 トータルプラン","province":"東京都","city":"武蔵村山市","address":"東京都武蔵村山市大南1丁目168-1","lat":35.73481073,"lon":139.39657665},{"name":"武蔵村山市立保健相談センター","province":"東京都","city":"武蔵村山市","address":"東京都武蔵村山市本町1丁目23","lat":35.75275842,"lon":139.38745453},{"name":"武蔵村山市立保健相談センター","province":"東京都","city":"武蔵村山市","address":"武蔵村山市本町1-23","lat":35.75282,"lon":139.38742},{"name":"武蔵村山市立保健相談センター","province":"東京都","city":"武蔵村山市","address":"武蔵村山市本町1-23","lat":35.752758,"lon":139.387455},{"name":"比留間運送(株)  中間処理工場","province":"東京都","city":"武蔵村山市","address":"武蔵村山市伊奈平3-25-5","lat":35.736393,"lon":139.38028},{"name":"(有)富商","province":"東京都","city":"武蔵村山市","address":"武蔵村山市伊奈平2-8","lat":35.74202,"lon":139.380173},{"name":"(株)前原紙業  武蔵村山営業所","province":"東京都","city":"武蔵村山市","address":"武蔵村山市榎2-92-1","lat":35.740997,"lon":139.390793},{"name":"武蔵村山市選挙管理委員会","province":"東京都","city":"武蔵村山市","address":"武蔵村山市本町1-1-1","lat":35.754859,"lon":139.38743},{"name":"武蔵村山市保健相談センター","province":"東京都","city":"武蔵村山市","address":"武蔵村山市本町1-23","lat":35.752758,"lon":139.387455},{"name":"武蔵村山市保健相談センターお伊勢の森分室","province":"東京都","city":"武蔵村山市","address":"武蔵村山市中央2-118","lat":35.750959,"lon":139.393643},{"name":"武蔵村山市","province":"東京都","city":"武蔵村山市","address":"武蔵村山市本町1-1-1","lat":35.7549058,"lon":139.3874214},{"name":"有限会社 成華園","province":"東京都","city":"武蔵村山市","address":"東京都武蔵村山市学園3丁目61-5","lat":35.74423764,"lon":139.40527261},{"name":"有限会社  アヤノセレモニー","province":"東京都","city":"武蔵村山市","address":"東京都武蔵村山市学園5丁目15-14","lat":35.74475949,"lon":139.39270994},{"name":"合同会社 大南葬祭","province":"東京都","city":"武蔵村山市","address":"東京都武蔵村山市大南5丁目70-1","lat":35.74057152,"lon":139.41082221},{"name":"株式会社 セレモの森","province":"東京都","city":"武蔵村山市","address":"東京都武蔵村山市大南3丁目97-2","lat":35.73523306,"lon":139.402976},{"name":"有限会社 アヴィル 市民葬祭センター","province":"東京都","city":"武蔵村山市","address":"東京都武蔵村山市大南4丁目61-9","lat":35.73485551,"lon":139.41111687},{"name":"株式会社 むらやま葬祭","province":"東京都","city":"武蔵村山市","address":"東京都武蔵村山市大南1丁目2-1","lat":35.74221812,"lon":139.39303223},{"name":"株式会社 トータルプラン","province":"東京都","city":"武蔵村山市","address":"東京都武蔵村山市大南1丁目168-1","lat":35.73481073,"lon":139.39657665},{"name":"武蔵村山市立保健相談センター","province":"東京都","city":"武蔵村山市","address":"東京都武蔵村山市本町1丁目23","lat":35.75275842,"lon":139.38745453},{"name":"武蔵村山市立保健相談センター","province":"東京都","city":"武蔵村山市","address":"武蔵村山市本町1-23","lat":35.75282,"lon":139.38742},{"name":"武蔵村山市立保健相談センター","province":"東京都","city":"武蔵村山市","address":"武蔵村山市本町1-23","lat":35.752758,"lon":139.387455},{"name":"比留間運送(株)  中間処理工場","province":"東京都","city":"武蔵村山市","address":"武蔵村山市伊奈平3-25-5","lat":35.736393,"lon":139.38028},{"name":"(有)富商","province":"東京都","city":"武蔵村山市","address":"武蔵村山市伊奈平2-8","lat":35.74202,"lon":139.380173},{"name":"(株)前原紙業  武蔵村山営業所","province":"東京都","city":"武蔵村山市","address":"武蔵村山市榎2-92-1","lat":35.740997,"lon":139.390793},{"name":"武蔵村山市選挙管理委員会","province":"東京都","city":"武蔵村山市","address":"武蔵村山市本町1-1-1","lat":35.754859,"lon":139.38743},{"name":"武蔵村山市保健相談センター","province":"東京都","city":"武蔵村山市","address":"武蔵村山市本町1-23","lat":35.752758,"lon":139.387455},{"name":"武蔵村山市保健相談センターお伊勢の森分室","province":"東京都","city":"武蔵村山市","address":"武蔵村山市中央2-118","lat":35.750959,"lon":139.393643},{"name":"武蔵村山市","province":"東京都","city":"武蔵村山市","address":"武蔵村山市本町1-1-1","lat":35.7549058,"lon":139.3874214},{"name":"武蔵村山市立保健相談センター","province":"東京都","city":"武蔵村山市","address":"東京都武蔵村山市本町1丁目23","lat":35.75275842,"lon":139.38745453},{"name":"武蔵村山市立保健相談センター","province":"東京都","city":"武蔵村山市","address":"武蔵村山市本町1-23","lat":35.75282,"lon":139.38742},{"name":"武蔵村山市立保健相談センター","province":"東京都","city":"武蔵村山市","address":"武蔵村山市本町1-23","lat":35.752758,"lon":139.387455},{"name":"比留間運送(株)  中間処理工場","province":"東京都","city":"武蔵村山市","address":"武蔵村山市伊奈平3-25-5","lat":35.736393,"lon":139.38028},{"name":"(有)富商","province":"東京都","city":"武蔵村山市","address":"武蔵村山市伊奈平2-8","lat":35.74202,"lon":139.380173},{"name":"(株)前原紙業  武蔵村山営業所","province":"東京都","city":"武蔵村山市","address":"武蔵村山市榎2-92-1","lat":35.740997,"lon":139.390793},{"name":"武蔵村山市選挙管理委員会","province":"東京都","city":"武蔵村山市","address":"武蔵村山市本町1-1-1","lat":35.754859,"lon":139.38743},{"name":"武蔵村山市保健相談センター","province":"東京都","city":"武蔵村山市","address":"武蔵村山市本町1-23","lat":35.752758,"lon":139.387455},{"name":"武蔵村山市保健相談センターお伊勢の森分室","province":"東京都","city":"武蔵村山市","address":"武蔵村山市中央2-118","lat":35.750959,"lon":139.393643},{"name":"武蔵村山市立保健相談センター","province":"東京都","city":"武蔵村山市","address":"東京都武蔵村山市本町1丁目23","lat":35.75275842,"lon":139.38745453},{"name":"武蔵村山市立保健相談センター","province":"東京都","city":"武蔵村山市","address":"武蔵村山市本町1-23","lat":35.75282,"lon":139.38742},{"name":"武蔵村山市立保健相談センター","province":"東京都","city":"武蔵村山市","address":"武蔵村山市本町1-23","lat":35.752758,"lon":139.387455},{"name":"比留間運送(株)  中間処理工場","province":"東京都","city":"武蔵村山市","address":"武蔵村山市伊奈平3-25-5","lat":35.736393,"lon":139.38028},{"name":"(有)富商","province":"東京都","city":"武蔵村山市","address":"武蔵村山市伊奈平2-8","lat":35.74202,"lon":139.380173},{"name":"(株)前原紙業  武蔵村山営業所","province":"東京都","city":"武蔵村山市","address":"武蔵村山市榎2-92-1","lat":35.740997,"lon":139.390793},{"name":"武蔵村山市選挙管理委員会","province":"東京都","city":"武蔵村山市","address":"武蔵村山市本町1-1-1","lat":35.754859,"lon":139.38743},{"name":"武蔵村山市保健相談センター","province":"東京都","city":"武蔵村山市","address":"武蔵村山市本町1-23","lat":35.752758,"lon":139.387455},{"name":"武蔵村山市保健相談センターお伊勢の森分室","province":"東京都","city":"武蔵村山市","address":"武蔵村山市中央2-118","lat":35.750959,"lon":139.393643},{"name":"武蔵村山市立保健相談センター","province":"東京都","city":"武蔵村山市","address":"東京都武蔵村山市本町1丁目23","lat":35.75275842,"lon":139.38745453},{"name":"武蔵村山市立保健相談センター","province":"東京都","city":"武蔵村山市","address":"武蔵村山市本町1-23","lat":35.75282,"lon":139.38742},{"name":"武蔵村山市立保健相談センター","province":"東京都","city":"武蔵村山市","address":"武蔵村山市本町1-23","lat":35.752758,"lon":139.387455},{"name":"武蔵村山市選挙管理委員会","province":"東京都","city":"武蔵村山市","address":"武蔵村山市本町1-1-1","lat":35.754859,"lon":139.38743},{"name":"武蔵村山市保健相談センター","province":"東京都","city":"武蔵村山市","address":"武蔵村山市本町1-23","lat":35.752758,"lon":139.387455},{"name":"武蔵村山市保健相談センターお伊勢の森分室","province":"東京都","city":"武蔵村山市","address":"武蔵村山市中央2-118","lat":35.750959,"lon":139.393643},{"name":"武蔵村山市立保健相談センター","province":"東京都","city":"武蔵村山市","address":"東京都武蔵村山市本町1丁目23","lat":35.75275842,"lon":139.38745453},{"name":"武蔵村山市立保健相談センター","province":"東京都","city":"武蔵村山市","address":"武蔵村山市本町1-23","lat":35.75282,"lon":139.38742},{"name":"武蔵村山市立保健相談センター","province":"東京都","city":"武蔵村山市","address":"武蔵村山市本町1-23","lat":35.752758,"lon":139.387455},{"name":"武蔵村山市選挙管理委員会","province":"東京都","city":"武蔵村山市","address":"武蔵村山市本町1-1-1","lat":35.754859,"lon":139.38743},{"name":"武蔵村山市保健相談センター","province":"東京都","city":"武蔵村山市","address":"武蔵村山市本町1-23","lat":35.752758,"lon":139.387455},{"name":"武蔵村山市保健相談センターお伊勢の森分室","province":"東京都","city":"武蔵村山市","address":"武蔵村山市中央2-118","lat":35.750959,"lon":139.393643},{"name":"武蔵村山市立保健相談センター","province":"東京都","city":"武蔵村山市","address":"東京都武蔵村山市本町1丁目23","lat":35.75275842,"lon":139.38745453},{"name":"武蔵村山市立保健相談センター","province":"東京都","city":"武蔵村山市","address":"武蔵村山市本町1-23","lat":35.75282,"lon":139.38742},{"name":"武蔵村山市立保健相談センター","province":"東京都","city":"武蔵村山市","address":"武蔵村山市本町1-23","lat":35.752758,"lon":139.387455},{"name":"武蔵村山市選挙管理委員会","province":"東京都","city":"武蔵村山市","address":"武蔵村山市本町1-1-1","lat":35.754859,"lon":139.38743},{"name":"武蔵村山市保健相談センター","province":"東京都","city":"武蔵村山市","address":"武蔵村山市本町1-23","lat":35.752758,"lon":139.387455},{"name":"武蔵村山市保健相談センターお伊勢の森分室","province":"東京都","city":"武蔵村山市","address":"武蔵村山市中央2-118","lat":35.750959,"lon":139.393643},{"name":"武蔵村山市立保健相談センター","province":"東京都","city":"武蔵村山市","address":"東京都武蔵村山市本町1丁目23","lat":35.75275842,"lon":139.38745453},{"name":"武蔵村山市立保健相談センター","province":"東京都","city":"武蔵村山市","address":"武蔵村山市本町1-23","lat":35.75282,"lon":139.38742},{"name":"武蔵村山市立保健相談センター","province":"東京都","city":"武蔵村山市","address":"武蔵村山市本町1-23","lat":35.752758,"lon":139.387455},{"name":"武蔵村山市選挙管理委員会","province":"東京都","city":"武蔵村山市","address":"武蔵村山市本町1-1-1","lat":35.754859,"lon":139.38743},{"name":"武蔵村山市保健相談センター","province":"東京都","city":"武蔵村山市","address":"武蔵村山市本町1-23","lat":35.752758,"lon":139.387455},{"name":"武蔵村山市保健相談センターお伊勢の森分室","province":"東京都","city":"武蔵村山市","address":"武蔵村山市中央2-118","lat":35.750959,"lon":139.393643},{"name":"武蔵村山市立保健相談センター","province":"東京都","city":"武蔵村山市","address":"東京都武蔵村山市本町1丁目23","lat":35.75275842,"lon":139.38745453},{"name":"武蔵村山市立保健相談センター","province":"東京都","city":"武蔵村山市","address":"武蔵村山市本町1-23","lat":35.75282,"lon":139.38742},{"name":"武蔵村山市立保健相談センター","province":"東京都","city":"武蔵村山市","address":"武蔵村山市本町1-23","lat":35.752758,"lon":139.387455},{"name":"武蔵村山市選挙管理委員会","province":"東京都","city":"武蔵村山市","address":"武蔵村山市本町1-1-1","lat":35.754859,"lon":139.38743},{"name":"武蔵村山市保健相談センター","province":"東京都","city":"武蔵村山市","address":"武蔵村山市本町1-23","lat":35.752758,"lon":139.387455},{"name":"武蔵村山市保健相談センターお伊勢の森分室","province":"東京都","city":"武蔵村山市","address":"武蔵村山市中央2-118","lat":35.750959,"lon":139.393643},{"name":"武蔵村山市立保健相談センター","province":"東京都","city":"武蔵村山市","address":"東京都武蔵村山市本町1丁目23","lat":35.75275842,"lon":139.38745453},{"name":"武蔵村山市立保健相談センター","province":"東京都","city":"武蔵村山市","address":"武蔵村山市本町1-23","lat":35.75282,"lon":139.38742},{"name":"武蔵村山市立保健相談センター","province":"東京都","city":"武蔵村山市","address":"武蔵村山市本町1-23","lat":35.752758,"lon":139.387455},{"name":"武蔵村山市選挙管理委員会","province":"東京都","city":"武蔵村山市","address":"武蔵村山市本町1-1-1","lat":35.754859,"lon":139.38743},{"name":"武蔵村山市保健相談センター","province":"東京都","city":"武蔵村山市","address":"武蔵村山市本町1-23","lat":35.752758,"lon":139.387455},{"name":"武蔵村山市保健相談センターお伊勢の森分室","province":"東京都","city":"武蔵村山市","address":"武蔵村山市中央2-118","lat":35.750959,"lon":139.393643},{"name":"武蔵村山市立保健相談センター","province":"東京都","city":"武蔵村山市","address":"東京都武蔵村山市本町1丁目23","lat":35.75275842,"lon":139.38745453},{"name":"武蔵村山市立保健相談センター","province":"東京都","city":"武蔵村山市","address":"武蔵村山市本町1-23","lat":35.75282,"lon":139.38742},{"name":"武蔵村山市立保健相談センター","province":"東京都","city":"武蔵村山市","address":"武蔵村山市本町1-23","lat":35.752758,"lon":139.387455},{"name":"武蔵村山市選挙管理委員会","province":"東京都","city":"武蔵村山市","address":"武蔵村山市本町1-1-1","lat":35.754859,"lon":139.38743},{"name":"武蔵村山市保健相談センター","province":"東京都","city":"武蔵村山市","address":"武蔵村山市本町1-23","lat":35.752758,"lon":139.387455},{"name":"武蔵村山市保健相談センターお伊勢の森分室","province":"東京都","city":"武蔵村山市","address":"武蔵村山市中央2-118","lat":35.750959,"lon":139.393643},{"name":"武蔵村山市立保健相談センター","province":"東京都","city":"武蔵村山市","address":"東京都武蔵村山市本町1丁目23","lat":35.75275842,"lon":139.38745453},{"name":"武蔵村山市立保健相談センター","province":"東京都","city":"武蔵村山市","address":"武蔵村山市本町1-23","lat":35.75282,"lon":139.38742},{"name":"武蔵村山市立保健相談センター","province":"東京都","city":"武蔵村山市","address":"武蔵村山市本町1-23","lat":35.752758,"lon":139.387455},{"name":"武蔵村山市選挙管理委員会","province":"東京都","city":"武蔵村山市","address":"武蔵村山市本町1-1-1","lat":35.754859,"lon":139.38743},{"name":"武蔵村山市保健相談センター","province":"東京都","city":"武蔵村山市","address":"武蔵村山市本町1-23","lat":35.752758,"lon":139.387455},{"name":"武蔵村山市保健相談センターお伊勢の森分室","province":"東京都","city":"武蔵村山市","address":"武蔵村山市中央2-118","lat":35.750959,"lon":139.393643},{"name":"武蔵村山市立保健相談センター","province":"東京都","city":"武蔵村山市","address":"東京都武蔵村山市本町1丁目23","lat":35.75275842,"lon":139.38745453},{"name":"武蔵村山市立保健相談センター","province":"東京都","city":"武蔵村山市","address":"武蔵村山市本町1-23","lat":35.75282,"lon":139.38742},{"name":"武蔵村山市立保健相談センター","province":"東京都","city":"武蔵村山市","address":"武蔵村山市本町1-23","lat":35.752758,"lon":139.387455},{"name":"武蔵村山市選挙管理委員会","province":"東京都","city":"武蔵村山市","address":"武蔵村山市本町1-1-1","lat":35.754859,"lon":139.38743},{"name":"武蔵村山市保健相談センター","province":"東京都","city":"武蔵村山市","address":"武蔵村山市本町1-23","lat":35.752758,"lon":139.387455},{"name":"武蔵村山市保健相談センターお伊勢の森分室","province":"東京都","city":"武蔵村山市","address":"武蔵村山市中央2-118","lat":35.750959,"lon":139.393643},{"name":"武蔵村山市立保健相談センター","province":"東京都","city":"武蔵村山市","address":"東京都武蔵村山市本町1丁目23","lat":35.75275842,"lon":139.38745453},{"name":"武蔵村山市立保健相談センター","province":"東京都","city":"武蔵村山市","address":"武蔵村山市本町1-23","lat":35.75282,"lon":139.38742},{"name":"武蔵村山市立保健相談センター","province":"東京都","city":"武蔵村山市","address":"武蔵村山市本町1-23","lat":35.752758,"lon":139.387455},{"name":"武蔵村山市選挙管理委員会","province":"東京都","city":"武蔵村山市","address":"武蔵村山市本町1-1-1","lat":35.754859,"lon":139.38743},{"name":"武蔵村山市保健相談センター","province":"東京都","city":"武蔵村山市","address":"武蔵村山市本町1-23","lat":35.752758,"lon":139.387455},{"name":"武蔵村山市保健相談センターお伊勢の森分室","province":"東京都","city":"武蔵村山市","address":"武蔵村山市中央2-118","lat":35.750959,"lon":139.393643},{"name":"武蔵村山市立保健相談センター","province":"東京都","city":"武蔵村山市","address":"東京都武蔵村山市本町1丁目23","lat":35.75275842,"lon":139.38745453},{"name":"武蔵村山市立保健相談センター","province":"東京都","city":"武蔵村山市","address":"武蔵村山市本町1-23","lat":35.75282,"lon":139.38742},{"name":"武蔵村山市立保健相談センター","province":"東京都","city":"武蔵村山市","address":"武蔵村山市本町1-23","lat":35.752758,"lon":139.387455},{"name":"武蔵村山市選挙管理委員会","province":"東京都","city":"武蔵村山市","address":"武蔵村山市本町1-1-1","lat":35.754859,"lon":139.38743},{"name":"武蔵村山市保健相談センター","province":"東京都","city":"武蔵村山市","address":"武蔵村山市本町1-23","lat":35.752758,"lon":139.387455},{"name":"武蔵村山市保健相談センターお伊勢の森分室","province":"東京都","city":"武蔵村山市","address":"武蔵村山市中央2-118","lat":35.750959,"lon":139.393643},{"name":"武蔵村山市立保健相談センター","province":"東京都","city":"武蔵村山市","address":"東京都武蔵村山市本町1丁目23","lat":35.75275842,"lon":139.38745453},{"name":"武蔵村山市立保健相談センター","province":"東京都","city":"武蔵村山市","address":"武蔵村山市本町1-23","lat":35.75282,"lon":139.38742},{"name":"武蔵村山市立保健相談センター","province":"東京都","city":"武蔵村山市","address":"武蔵村山市本町1-23","lat":35.752758,"lon":139.387455},{"name":"武蔵村山市選挙管理委員会","province":"東京都","city":"武蔵村山市","address":"武蔵村山市本町1-1-1","lat":35.754859,"lon":139.38743},{"name":"武蔵村山市保健相談センター","province":"東京都","city":"武蔵村山市","address":"武蔵村山市本町1-23","lat":35.752758,"lon":139.387455},{"name":"武蔵村山市保健相談センターお伊勢の森分室","province":"東京都","city":"武蔵村山市","address":"武蔵村山市中央2-118","lat":35.750959,"lon":139.393643},{"name":"武蔵村山市立保健相談センター","province":"東京都","city":"武蔵村山市","address":"東京都武蔵村山市本町1丁目23","lat":35.75275842,"lon":139.38745453},{"name":"武蔵村山市立保健相談センター","province":"東京都","city":"武蔵村山市","address":"武蔵村山市本町1-23","lat":35.75282,"lon":139.38742},{"name":"武蔵村山市立保健相談センター","province":"東京都","city":"武蔵村山市","address":"武蔵村山市本町1-23","lat":35.752758,"lon":139.387455},{"name":"武蔵村山市選挙管理委員会","province":"東京都","city":"武蔵村山市","address":"武蔵村山市本町1-1-1","lat":35.754859,"lon":139.38743},{"name":"武蔵村山市保健相談センター","province":"東京都","city":"武蔵村山市","address":"武蔵村山市本町1-23","lat":35.752758,"lon":139.387455},{"name":"武蔵村山市保健相談センターお伊勢の森分室","province":"東京都","city":"武蔵村山市","address":"武蔵村山市中央2-118","lat":35.750959,"lon":139.393643},{"name":"武蔵村山市立保健相談センター","province":"東京都","city":"武蔵村山市","address":"東京都武蔵村山市本町1丁目23","lat":35.75275842,"lon":139.38745453},{"name":"武蔵村山市立保健相談センター","province":"東京都","city":"武蔵村山市","address":"武蔵村山市本町1-23","lat":35.75282,"lon":139.38742},{"name":"武蔵村山市立保健相談センター","province":"東京都","city":"武蔵村山市","address":"武蔵村山市本町1-23","lat":35.752758,"lon":139.387455},{"name":"武蔵村山市選挙管理委員会","province":"東京都","city":"武蔵村山市","address":"武蔵村山市本町1-1-1","lat":35.754859,"lon":139.38743},{"name":"武蔵村山市保健相談センター","province":"東京都","city":"武蔵村山市","address":"武蔵村山市本町1-23","lat":35.752758,"lon":139.387455},{"name":"武蔵村山市保健相談センターお伊勢の森分室","province":"東京都","city":"武蔵村山市","address":"武蔵村山市中央2-118","lat":35.750959,"lon":139.393643},{"name":"武蔵村山市立保健相談センター","province":"東京都","city":"武蔵村山市","address":"東京都武蔵村山市本町1丁目23","lat":35.75275842,"lon":139.38745453},{"name":"武蔵村山市立保健相談センター","province":"東京都","city":"武蔵村山市","address":"武蔵村山市本町1-23","lat":35.75282,"lon":139.38742},{"name":"武蔵村山市立保健相談センター","province":"東京都","city":"武蔵村山市","address":"武蔵村山市本町1-23","lat":35.752758,"lon":139.387455},{"name":"武蔵村山市選挙管理委員会","province":"東京都","city":"武蔵村山市","address":"武蔵村山市本町1-1-1","lat":35.754859,"lon":139.38743},{"name":"武蔵村山市保健相談センター","province":"東京都","city":"武蔵村山市","address":"武蔵村山市本町1-23","lat":35.752758,"lon":139.387455},{"name":"武蔵村山市保健相談センターお伊勢の森分室","province":"東京都","city":"武蔵村山市","address":"武蔵村山市中央2-118","lat":35.750959,"lon":139.393643},{"name":"武蔵村山市立保健相談センター","province":"東京都","city":"武蔵村山市","address":"東京都武蔵村山市本町1丁目23","lat":35.75275842,"lon":139.38745453},{"name":"武蔵村山市立保健相談センター","province":"東京都","city":"武蔵村山市","address":"武蔵村山市本町1-23","lat":35.75282,"lon":139.38742},{"name":"武蔵村山市立保健相談センター","province":"東京都","city":"武蔵村山市","address":"武蔵村山市本町1-23","lat":35.752758,"lon":139.387455},{"name":"武蔵村山市選挙管理委員会","province":"東京都","city":"武蔵村山市","address":"武蔵村山市本町1-1-1","lat":35.754859,"lon":139.38743},{"name":"武蔵村山市保健相談センター","province":"東京都","city":"武蔵村山市","address":"武蔵村山市本町1-23","lat":35.752758,"lon":139.387455},{"name":"武蔵村山市保健相談センターお伊勢の森分室","province":"東京都","city":"武蔵村山市","address":"武蔵村山市中央2-118","lat":35.750959,"lon":139.393643},{"name":"武蔵村山市立保健相談センター","province":"東京都","city":"武蔵村山市","address":"東京都武蔵村山市本町1丁目23","lat":35.75275842,"lon":139.38745453},{"name":"武蔵村山市立保健相談センター","province":"東京都","city":"武蔵村山市","address":"武蔵村山市本町1-23","lat":35.75282,"lon":139.38742},{"name":"武蔵村山市立保健相談センター","province":"東京都","city":"武蔵村山市","address":"武蔵村山市本町1-23","lat":35.752758,"lon":139.387455},{"name":"武蔵村山市選挙管理委員会","province":"東京都","city":"武蔵村山市","address":"武蔵村山市本町1-1-1","lat":35.754859,"lon":139.38743},{"name":"武蔵村山市保健相談センター","province":"東京都","city":"武蔵村山市","address":"武蔵村山市本町1-23","lat":35.752758,"lon":139.387455},{"name":"武蔵村山市保健相談センターお伊勢の森分室","province":"東京都","city":"武蔵村山市","address":"武蔵村山市中央2-118","lat":35.750959,"lon":139.393643},{"name":"武蔵村山市立保健相談センター","province":"東京都","city":"武蔵村山市","address":"東京都武蔵村山市本町1丁目23","lat":35.75275842,"lon":139.38745453},{"name":"武蔵村山市立保健相談センター","province":"東京都","city":"武蔵村山市","address":"武蔵村山市本町1-23","lat":35.75282,"lon":139.38742},{"name":"武蔵村山市立保健相談センター","province":"東京都","city":"武蔵村山市","address":"武蔵村山市本町1-23","lat":35.752758,"lon":139.387455},{"name":"武蔵村山市選挙管理委員会","province":"東京都","city":"武蔵村山市","address":"武蔵村山市本町1-1-1","lat":35.754859,"lon":139.38743},{"name":"武蔵村山市保健相談センター","province":"東京都","city":"武蔵村山市","address":"武蔵村山市本町1-23","lat":35.752758,"lon":139.387455},{"name":"武蔵村山市保健相談センターお伊勢の森分室","province":"東京都","city":"武蔵村山市","address":"武蔵村山市中央2-118","lat":35.750959,"lon":139.393643},{"name":"武蔵村山市立保健相談センター","province":"東京都","city":"武蔵村山市","address":"東京都武蔵村山市本町1丁目23","lat":35.75275842,"lon":139.38745453},{"name":"武蔵村山市立保健相談センター","province":"東京都","city":"武蔵村山市","address":"武蔵村山市本町1-23","lat":35.75282,"lon":139.38742},{"name":"武蔵村山市立保健相談センター","province":"東京都","city":"武蔵村山市","address":"武蔵村山市本町1-23","lat":35.752758,"lon":139.387455},{"name":"武蔵村山市選挙管理委員会","province":"東京都","city":"武蔵村山市","address":"武蔵村山市本町1-1-1","lat":35.754859,"lon":139.38743},{"name":"武蔵村山市保健相談センター","province":"東京都","city":"武蔵村山市","address":"武蔵村山市本町1-23","lat":35.752758,"lon":139.387455},{"name":"武蔵村山市保健相談センターお伊勢の森分室","province":"東京都","city":"武蔵村山市","address":"武蔵村山市中央2-118","lat":35.750959,"lon":139.393643},{"name":"武蔵村山市立保健相談センター","province":"東京都","city":"武蔵村山市","address":"東京都武蔵村山市本町1丁目23","lat":35.75275842,"lon":139.38745453},{"name":"武蔵村山市立保健相談センター","province":"東京都","city":"武蔵村山市","address":"武蔵村山市本町1-23","lat":35.75282,"lon":139.38742},{"name":"武蔵村山市立保健相談センター","province":"東京都","city":"武蔵村山市","address":"武蔵村山市本町1-23","lat":35.752758,"lon":139.387455},{"name":"武蔵村山市選挙管理委員会","province":"東京都","city":"武蔵村山市","address":"武蔵村山市本町1-1-1","lat":35.754859,"lon":139.38743},{"name":"武蔵村山市保健相談センター","province":"東京都","city":"武蔵村山市","address":"武蔵村山市本町1-23","lat":35.752758,"lon":139.387455},{"name":"武蔵村山市保健相談センターお伊勢の森分室","province":"東京都","city":"武蔵村山市","address":"武蔵村山市中央2-118","lat":35.750959,"lon":139.393643},{"name":"武蔵村山市立保健相談センター","province":"東京都","city":"武蔵村山市","address":"東京都武蔵村山市本町1丁目23","lat":35.75275842,"lon":139.38745453},{"name":"武蔵村山市立保健相談センター","province":"東京都","city":"武蔵村山市","address":"武蔵村山市本町1-23","lat":35.75282,"lon":139.38742},{"name":"武蔵村山市立保健相談センター","province":"東京都","city":"武蔵村山市","address":"武蔵村山市本町1-23","lat":35.752758,"lon":139.387455},{"name":"武蔵村山市選挙管理委員会","province":"東京都","city":"武蔵村山市","address":"武蔵村山市本町1-1-1","lat":35.754859,"lon":139.38743},{"name":"武蔵村山市保健相談センター","province":"東京都","city":"武蔵村山市","address":"武蔵村山市本町1-23","lat":35.752758,"lon":139.387455},{"name":"武蔵村山市保健相談センターお伊勢の森分室","province":"東京都","city":"武蔵村山市","address":"武蔵村山市中央2-118","lat":35.750959,"lon":139.393643},{"name":"武蔵村山市立保健相談センター","province":"東京都","city":"武蔵村山市","address":"東京都武蔵村山市本町1丁目23","lat":35.75275842,"lon":139.38745453},{"name":"武蔵村山市立保健相談センター","province":"東京都","city":"武蔵村山市","address":"武蔵村山市本町1-23","lat":35.75282,"lon":139.38742},{"name":"武蔵村山市立保健相談センター","province":"東京都","city":"武蔵村山市","address":"武蔵村山市本町1-23","lat":35.752758,"lon":139.387455},{"name":"武蔵村山市選挙管理委員会","province":"東京都","city":"武蔵村山市","address":"武蔵村山市本町1-1-1","lat":35.754859,"lon":139.38743},{"name":"武蔵村山市保健相談センター","province":"東京都","city":"武蔵村山市","address":"武蔵村山市本町1-23","lat":35.752758,"lon":139.387455},{"name":"武蔵村山市保健相談センターお伊勢の森分室","province":"東京都","city":"武蔵村山市","address":"武蔵村山市中央2-118","lat":35.750959,"lon":139.393643},{"name":"武蔵村山市立保健相談センター","province":"東京都","city":"武蔵村山市","address":"東京都武蔵村山市本町1丁目23","lat":35.75275842,"lon":139.38745453},{"name":"武蔵村山市立保健相談センター","province":"東京都","city":"武蔵村山市","address":"武蔵村山市本町1-23","lat":35.75282,"lon":139.38742},{"name":"武蔵村山市立保健相談センター","province":"東京都","city":"武蔵村山市","address":"武蔵村山市本町1-23","lat":35.752758,"lon":139.387455},{"name":"武蔵村山市選挙管理委員会","province":"東京都","city":"武蔵村山市","address":"武蔵村山市本町1-1-1","lat":35.754859,"lon":139.38743},{"name":"武蔵村山市保健相談センター","province":"東京都","city":"武蔵村山市","address":"武蔵村山市本町1-23","lat":35.752758,"lon":139.387455},{"name":"武蔵村山市保健相談センターお伊勢の森分室","province":"東京都","city":"武蔵村山市","address":"武蔵村山市中央2-118","lat":35.750959,"lon":139.393643},{"name":"武蔵村山市立保健相談センター","province":"東京都","city":"武蔵村山市","address":"東京都武蔵村山市本町1丁目23","lat":35.75275842,"lon":139.38745453},{"name":"武蔵村山市立保健相談センター","province":"東京都","city":"武蔵村山市","address":"武蔵村山市本町1-23","lat":35.75282,"lon":139.38742},{"name":"武蔵村山市立保健相談センター","province":"東京都","city":"武蔵村山市","address":"武蔵村山市本町1-23","lat":35.752758,"lon":139.387455},{"name":"武蔵村山市選挙管理委員会","province":"東京都","city":"武蔵村山市","address":"武蔵村山市本町1-1-1","lat":35.754859,"lon":139.38743},{"name":"武蔵村山市保健相談センター","province":"東京都","city":"武蔵村山市","address":"武蔵村山市本町1-23","lat":35.752758,"lon":139.387455},{"name":"武蔵村山市保健相談センターお伊勢の森分室","province":"東京都","city":"武蔵村山市","address":"武蔵村山市中央2-118","lat":35.750959,"lon":139.393643},{"name":"武蔵村山市立保健相談センター","province":"東京都","city":"武蔵村山市","address":"東京都武蔵村山市本町1丁目23","lat":35.75275842,"lon":139.38745453},{"name":"武蔵村山市立保健相談センター","province":"東京都","city":"武蔵村山市","address":"武蔵村山市本町1-23","lat":35.75282,"lon":139.38742},{"name":"武蔵村山市立保健相談センター","province":"東京都","city":"武蔵村山市","address":"武蔵村山市本町1-23","lat":35.752758,"lon":139.387455},{"name":"武蔵村山市選挙管理委員会","province":"東京都","city":"武蔵村山市","address":"武蔵村山市本町1-1-1","lat":35.754859,"lon":139.38743},{"name":"武蔵村山市保健相談センター","province":"東京都","city":"武蔵村山市","address":"武蔵村山市本町1-23","lat":35.752758,"lon":139.387455},{"name":"武蔵村山市保健相談センターお伊勢の森分室","province":"東京都","city":"武蔵村山市","address":"武蔵村山市中央2-118","lat":35.750959,"lon":139.393643},{"name":"武蔵村山市立保健相談センター","province":"東京都","city":"武蔵村山市","address":"東京都武蔵村山市本町1丁目23","lat":35.75275842,"lon":139.38745453},{"name":"武蔵村山市立保健相談センター","province":"東京都","city":"武蔵村山市","address":"武蔵村山市本町1-23","lat":35.75282,"lon":139.38742},{"name":"武蔵村山市立保健相談センター","province":"東京都","city":"武蔵村山市","address":"武蔵村山市本町1-23","lat":35.752758,"lon":139.387455},{"name":"武蔵村山市選挙管理委員会","province":"東京都","city":"武蔵村山市","address":"武蔵村山市本町1-1-1","lat":35.754859,"lon":139.38743},{"name":"武蔵村山市保健相談センター","province":"東京都","city":"武蔵村山市","address":"武蔵村山市本町1-23","lat":35.752758,"lon":139.387455},{"name":"武蔵村山市保健相談センターお伊勢の森分室","province":"東京都","city":"武蔵村山市","address":"武蔵村山市中央2-118","lat":35.750959,"lon":139.393643},{"name":"武蔵村山市立保健相談センター","province":"東京都","city":"武蔵村山市","address":"東京都武蔵村山市本町1丁目23","lat":35.75275842,"lon":139.38745453},{"name":"武蔵村山市立保健相談センター","province":"東京都","city":"武蔵村山市","address":"武蔵村山市本町1-23","lat":35.75282,"lon":139.38742},{"name":"武蔵村山市立保健相談センター","province":"東京都","city":"武蔵村山市","address":"武蔵村山市本町1-23","lat":35.752758,"lon":139.387455},{"name":"武蔵村山市選挙管理委員会","province":"東京都","city":"武蔵村山市","address":"武蔵村山市本町1-1-1","lat":35.754859,"lon":139.38743},{"name":"武蔵村山市保健相談センター","province":"東京都","city":"武蔵村山市","address":"武蔵村山市本町1-23","lat":35.752758,"lon":139.387455},{"name":"武蔵村山市保健相談センターお伊勢の森分室","province":"東京都","city":"武蔵村山市","address":"武蔵村山市中央2-118","lat":35.750959,"lon":139.393643},{"name":"武蔵村山市立保健相談センター","province":"東京都","city":"武蔵村山市","address":"東京都武蔵村山市本町1丁目23","lat":35.75275842,"lon":139.38745453},{"name":"武蔵村山市立保健相談センター","province":"東京都","city":"武蔵村山市","address":"武蔵村山市本町1-23","lat":35.75282,"lon":139.38742},{"name":"武蔵村山市立保健相談センター","province":"東京都","city":"武蔵村山市","address":"武蔵村山市本町1-23","lat":35.752758,"lon":139.387455},{"name":"武蔵村山市選挙管理委員会","province":"東京都","city":"武蔵村山市","address":"武蔵村山市本町1-1-1","lat":35.754859,"lon":139.38743},{"name":"武蔵村山市保健相談センター","province":"東京都","city":"武蔵村山市","address":"武蔵村山市本町1-23","lat":35.752758,"lon":139.387455},{"name":"武蔵村山市保健相談センターお伊勢の森分室","province":"東京都","city":"武蔵村山市","address":"武蔵村山市中央2-118","lat":35.750959,"lon":139.393643},{"name":"武蔵村山市立保健相談センター","province":"東京都","city":"武蔵村山市","address":"東京都武蔵村山市本町1丁目23","lat":35.75275842,"lon":139.38745453},{"name":"武蔵村山市立保健相談センター","province":"東京都","city":"武蔵村山市","address":"武蔵村山市本町1-23","lat":35.75282,"lon":139.38742},{"name":"武蔵村山市立保健相談センター","province":"東京都","city":"武蔵村山市","address":"武蔵村山市本町1-23","lat":35.752758,"lon":139.387455},{"name":"武蔵村山市選挙管理委員会","province":"東京都","city":"武蔵村山市","address":"武蔵村山市本町1-1-1","lat":35.754859,"lon":139.38743},{"name":"武蔵村山市保健相談センター","province":"東京都","city":"武蔵村山市","address":"武蔵村山市本町1-23","lat":35.752758,"lon":139.387455},{"name":"武蔵村山市保健相談センターお伊勢の森分室","province":"東京都","city":"武蔵村山市","address":"武蔵村山市中央2-118","lat":35.750959,"lon":139.393643},{"name":"武蔵村山市立保健相談センター","province":"東京都","city":"武蔵村山市","address":"東京都武蔵村山市本町1丁目23","lat":35.75275842,"lon":139.38745453},{"name":"武蔵村山市立保健相談センター","province":"東京都","city":"武蔵村山市","address":"武蔵村山市本町1-23","lat":35.75282,"lon":139.38742},{"name":"武蔵村山市立保健相談センター","province":"東京都","city":"武蔵村山市","address":"武蔵村山市本町1-23","lat":35.752758,"lon":139.387455},{"name":"武蔵村山市選挙管理委員会","province":"東京都","city":"武蔵村山市","address":"武蔵村山市本町1-1-1","lat":35.754859,"lon":139.38743},{"name":"武蔵村山市保健相談センター","province":"東京都","city":"武蔵村山市","address":"武蔵村山市本町1-23","lat":35.752758,"lon":139.387455},{"name":"武蔵村山市保健相談センターお伊勢の森分室","province":"東京都","city":"武蔵村山市","address":"武蔵村山市中央2-118","lat":35.750959,"lon":139.393643},{"name":"武蔵村山市立保健相談センター","province":"東京都","city":"武蔵村山市","address":"東京都武蔵村山市本町1丁目23","lat":35.75275842,"lon":139.38745453},{"name":"武蔵村山市立保健相談センター","province":"東京都","city":"武蔵村山市","address":"武蔵村山市本町1-23","lat":35.75282,"lon":139.38742},{"name":"武蔵村山市立保健相談センター","province":"東京都","city":"武蔵村山市","address":"武蔵村山市本町1-23","lat":35.752758,"lon":139.387455},{"name":"武蔵村山市選挙管理委員会","province":"東京都","city":"武蔵村山市","address":"武蔵村山市本町1-1-1","lat":35.754859,"lon":139.38743},{"name":"武蔵村山市保健相談センター","province":"東京都","city":"武蔵村山市","address":"武蔵村山市本町1-23","lat":35.752758,"lon":139.387455},{"name":"武蔵村山市保健相談センターお伊勢の森分室","province":"東京都","city":"武蔵村山市","address":"武蔵村山市中央2-118","lat":35.750959,"lon":139.393643},{"name":"武蔵村山市立保健相談センター","province":"東京都","city":"武蔵村山市","address":"東京都武蔵村山市本町1丁目23","lat":35.75275842,"lon":139.38745453},{"name":"武蔵村山市立保健相談センター","province":"東京都","city":"武蔵村山市","address":"武蔵村山市本町1-23","lat":35.75282,"lon":139.38742},{"name":"武蔵村山市立保健相談センター","province":"東京都","city":"武蔵村山市","address":"武蔵村山市本町1-23","lat":35.752758,"lon":139.387455},{"name":"武蔵村山市選挙管理委員会","province":"東京都","city":"武蔵村山市","address":"武蔵村山市本町1-1-1","lat":35.754859,"lon":139.38743},{"name":"武蔵村山市保健相談センター","province":"東京都","city":"武蔵村山市","address":"武蔵村山市本町1-23","lat":35.752758,"lon":139.387455},{"name":"武蔵村山市保健相談センターお伊勢の森分室","province":"東京都","city":"武蔵村山市","address":"武蔵村山市中央2-118","lat":35.750959,"lon":139.393643},{"name":"武蔵村山市立保健相談センター","province":"東京都","city":"武蔵村山市","address":"東京都武蔵村山市本町1丁目23","lat":35.75275842,"lon":139.38745453},{"name":"武蔵村山市立保健相談センター","province":"東京都","city":"武蔵村山市","address":"武蔵村山市本町1-23","lat":35.75282,"lon":139.38742},{"name":"武蔵村山市立保健相談センター","province":"東京都","city":"武蔵村山市","address":"武蔵村山市本町1-23","lat":35.752758,"lon":139.387455},{"name":"武蔵村山市選挙管理委員会","province":"東京都","city":"武蔵村山市","address":"武蔵村山市本町1-1-1","lat":35.754859,"lon":139.38743},{"name":"武蔵村山市保健相談センター","province":"東京都","city":"武蔵村山市","address":"武蔵村山市本町1-23","lat":35.752758,"lon":139.387455},{"name":"武蔵村山市保健相談センターお伊勢の森分室","province":"東京都","city":"武蔵村山市","address":"武蔵村山市中央2-118","lat":35.750959,"lon":139.393643},{"name":"武蔵村山市立保健相談センター","province":"東京都","city":"武蔵村山市","address":"東京都武蔵村山市本町1丁目23","lat":35.75275842,"lon":139.38745453},{"name":"武蔵村山市立保健相談センター","province":"東京都","city":"武蔵村山市","address":"武蔵村山市本町1-23","lat":35.75282,"lon":139.38742},{"name":"武蔵村山市立保健相談センター","province":"東京都","city":"武蔵村山市","address":"武蔵村山市本町1-23","lat":35.752758,"lon":139.387455},{"name":"武蔵村山市選挙管理委員会","province":"東京都","city":"武蔵村山市","address":"武蔵村山市本町1-1-1","lat":35.754859,"lon":139.38743},{"name":"武蔵村山市保健相談センター","province":"東京都","city":"武蔵村山市","address":"武蔵村山市本町1-23","lat":35.752758,"lon":139.387455},{"name":"武蔵村山市保健相談センターお伊勢の森分室","province":"東京都","city":"武蔵村山市","address":"武蔵村山市中央2-118","lat":35.750959,"lon":139.393643},{"name":"武蔵村山市立保健相談センター","province":"東京都","city":"武蔵村山市","address":"東京都武蔵村山市本町1丁目23","lat":35.75275842,"lon":139.38745453},{"name":"武蔵村山市立保健相談センター","province":"東京都","city":"武蔵村山市","address":"武蔵村山市本町1-23","lat":35.75282,"lon":139.38742},{"name":"武蔵村山市立保健相談センター","province":"東京都","city":"武蔵村山市","address":"武蔵村山市本町1-23","lat":35.752758,"lon":139.387455},{"name":"武蔵村山市選挙管理委員会","province":"東京都","city":"武蔵村山市","address":"武蔵村山市本町1-1-1","lat":35.754859,"lon":139.38743},{"name":"武蔵村山市保健相談センター","province":"東京都","city":"武蔵村山市","address":"武蔵村山市本町1-23","lat":35.752758,"lon":139.387455},{"name":"武蔵村山市保健相談センターお伊勢の森分室","province":"東京都","city":"武蔵村山市","address":"武蔵村山市中央2-118","lat":35.750959,"lon":139.393643},{"name":"武蔵村山市立保健相談センター","province":"東京都","city":"武蔵村山市","address":"東京都武蔵村山市本町1丁目23","lat":35.75275842,"lon":139.38745453},{"name":"武蔵村山市立保健相談センター","province":"東京都","city":"武蔵村山市","address":"武蔵村山市本町1-23","lat":35.75282,"lon":139.38742},{"name":"武蔵村山市立保健相談センター","province":"東京都","city":"武蔵村山市","address":"武蔵村山市本町1-23","lat":35.752758,"lon":139.387455},{"name":"武蔵村山市選挙管理委員会","province":"東京都","city":"武蔵村山市","address":"武蔵村山市本町1-1-1","lat":35.754859,"lon":139.38743},{"name":"武蔵村山市保健相談センター","province":"東京都","city":"武蔵村山市","address":"武蔵村山市本町1-23","lat":35.752758,"lon":139.387455},{"name":"武蔵村山市保健相談センターお伊勢の森分室","province":"東京都","city":"武蔵村山市","address":"武蔵村山市中央2-118","lat":35.750959,"lon":139.393643},{"name":"武蔵村山市立保健相談センター","province":"東京都","city":"武蔵村山市","address":"東京都武蔵村山市本町1丁目23","lat":35.75275842,"lon":139.38745453},{"name":"武蔵村山市立保健相談センター","province":"東京都","city":"武蔵村山市","address":"武蔵村山市本町1-23","lat":35.75282,"lon":139.38742},{"name":"武蔵村山市立保健相談センター","province":"東京都","city":"武蔵村山市","address":"武蔵村山市本町1-23","lat":35.752758,"lon":139.387455},{"name":"武蔵村山市選挙管理委員会","province":"東京都","city":"武蔵村山市","address":"武蔵村山市本町1-1-1","lat":35.754859,"lon":139.38743},{"name":"武蔵村山市保健相談センター","province":"東京都","city":"武蔵村山市","address":"武蔵村山市本町1-23","lat":35.752758,"lon":139.387455},{"name":"武蔵村山市保健相談センターお伊勢の森分室","province":"東京都","city":"武蔵村山市","address":"武蔵村山市中央2-118","lat":35.750959,"lon":139.393643},{"name":"武蔵村山市立保健相談センター","province":"東京都","city":"武蔵村山市","address":"東京都武蔵村山市本町1丁目23","lat":35.75275842,"lon":139.38745453},{"name":"武蔵村山市立保健相談センター","province":"東京都","city":"武蔵村山市","address":"武蔵村山市本町1-23","lat":35.75282,"lon":139.38742},{"name":"武蔵村山市立保健相談センター","province":"東京都","city":"武蔵村山市","address":"武蔵村山市本町1-23","lat":35.752758,"lon":139.387455},{"name":"武蔵村山市選挙管理委員会","province":"東京都","city":"武蔵村山市","address":"武蔵村山市本町1-1-1","lat":35.754859,"lon":139.38743},{"name":"武蔵村山市保健相談センター","province":"東京都","city":"武蔵村山市","address":"武蔵村山市本町1-23","lat":35.752758,"lon":139.387455},{"name":"武蔵村山市保健相談センターお伊勢の森分室","province":"東京都","city":"武蔵村山市","address":"武蔵村山市中央2-118","lat":35.750959,"lon":139.393643},{"name":"武蔵村山市立保健相談センター","province":"東京都","city":"武蔵村山市","address":"東京都武蔵村山市本町1丁目23","lat":35.75275842,"lon":139.38745453},{"name":"武蔵村山市立保健相談センター","province":"東京都","city":"武蔵村山市","address":"武蔵村山市本町1-23","lat":35.75282,"lon":139.38742},{"name":"武蔵村山市立保健相談センター","province":"東京都","city":"武蔵村山市","address":"武蔵村山市本町1-23","lat":35.752758,"lon":139.387455},{"name":"武蔵村山市選挙管理委員会","province":"東京都","city":"武蔵村山市","address":"武蔵村山市本町1-1-1","lat":35.754859,"lon":139.38743},{"name":"武蔵村山市保健相談センター","province":"東京都","city":"武蔵村山市","address":"武蔵村山市本町1-23","lat":35.752758,"lon":139.387455},{"name":"武蔵村山市保健相談センターお伊勢の森分室","province":"東京都","city":"武蔵村山市","address":"武蔵村山市中央2-118","lat":35.750959,"lon":139.393643},{"name":"武蔵村山市立保健相談センター","province":"東京都","city":"武蔵村山市","address":"東京都武蔵村山市本町1丁目23","lat":35.75275842,"lon":139.38745453},{"name":"武蔵村山市立保健相談センター","province":"東京都","city":"武蔵村山市","address":"武蔵村山市本町1-23","lat":35.75282,"lon":139.38742},{"name":"武蔵村山市立保健相談センター","province":"東京都","city":"武蔵村山市","address":"武蔵村山市本町1-23","lat":35.752758,"lon":139.387455},{"name":"武蔵村山市選挙管理委員会","province":"東京都","city":"武蔵村山市","address":"武蔵村山市本町1-1-1","lat":35.754859,"lon":139.38743},{"name":"武蔵村山市保健相談センター","province":"東京都","city":"武蔵村山市","address":"武蔵村山市本町1-23","lat":35.752758,"lon":139.387455},{"name":"武蔵村山市保健相談センターお伊勢の森分室","province":"東京都","city":"武蔵村山市","address":"武蔵村山市中央2-118","lat":35.750959,"lon":139.393643},{"name":"武蔵村山市立保健相談センター","province":"東京都","city":"武蔵村山市","address":"東京都武蔵村山市本町1丁目23","lat":35.75275842,"lon":139.38745453},{"name":"武蔵村山市立保健相談センター","province":"東京都","city":"武蔵村山市","address":"武蔵村山市本町1-23","lat":35.75282,"lon":139.38742},{"name":"武蔵村山市立保健相談センター","province":"東京都","city":"武蔵村山市","address":"武蔵村山市本町1-23","lat":35.752758,"lon":139.387455},{"name":"武蔵村山市選挙管理委員会","province":"東京都","city":"武蔵村山市","address":"武蔵村山市本町1-1-1","lat":35.754859,"lon":139.38743},{"name":"武蔵村山市保健相談センター","province":"東京都","city":"武蔵村山市","address":"武蔵村山市本町1-23","lat":35.752758,"lon":139.387455},{"name":"武蔵村山市保健相談センターお伊勢の森分室","province":"東京都","city":"武蔵村山市","address":"武蔵村山市中央2-118","lat":35.750959,"lon":139.393643},{"name":"武蔵村山市立保健相談センター","province":"東京都","city":"武蔵村山市","address":"東京都武蔵村山市本町1丁目23","lat":35.75275842,"lon":139.38745453},{"name":"武蔵村山市立保健相談センター","province":"東京都","city":"武蔵村山市","address":"武蔵村山市本町1-23","lat":35.75282,"lon":139.38742},{"name":"武蔵村山市立保健相談センター","province":"東京都","city":"武蔵村山市","address":"武蔵村山市本町1-23","lat":35.752758,"lon":139.387455},{"name":"武蔵村山市選挙管理委員会","province":"東京都","city":"武蔵村山市","address":"武蔵村山市本町1-1-1","lat":35.754859,"lon":139.38743},{"name":"武蔵村山市保健相談センター","province":"東京都","city":"武蔵村山市","address":"武蔵村山市本町1-23","lat":35.752758,"lon":139.387455},{"name":"武蔵村山市保健相談センターお伊勢の森分室","province":"東京都","city":"武蔵村山市","address":"武蔵村山市中央2-118","lat":35.750959,"lon":139.393643},{"name":"武蔵村山市立保健相談センター","province":"東京都","city":"武蔵村山市","address":"東京都武蔵村山市本町1丁目23","lat":35.75275842,"lon":139.38745453},{"name":"武蔵村山市立保健相談センター","province":"東京都","city":"武蔵村山市","address":"武蔵村山市本町1-23","lat":35.75282,"lon":139.38742},{"name":"武蔵村山市立保健相談センター","province":"東京都","city":"武蔵村山市","address":"武蔵村山市本町1-23","lat":35.752758,"lon":139.387455},{"name":"武蔵村山市保健相談センター","province":"東京都","city":"武蔵村山市","address":"武蔵村山市本町1-23","lat":35.752758,"lon":139.387455},{"name":"武蔵村山市保健相談センターお伊勢の森分室","province":"東京都","city":"武蔵村山市","address":"武蔵村山市中央2-118","lat":35.750959,"lon":139.393643},{"name":"武蔵村山市立保健相談センター","province":"東京都","city":"武蔵村山市","address":"東京都武蔵村山市本町1丁目23","lat":35.75275842,"lon":139.38745453},{"name":"武蔵村山市立保健相談センター","province":"東京都","city":"武蔵村山市","address":"武蔵村山市本町1-23","lat":35.75282,"lon":139.38742},{"name":"武蔵村山市立保健相談センター","province":"東京都","city":"武蔵村山市","address":"武蔵村山市本町1-23","lat":35.752758,"lon":139.387455},{"name":"武蔵村山市保健相談センター","province":"東京都","city":"武蔵村山市","address":"武蔵村山市本町1-23","lat":35.752758,"lon":139.387455},{"name":"武蔵村山市保健相談センターお伊勢の森分室","province":"東京都","city":"武蔵村山市","address":"武蔵村山市中央2-118","lat":35.750959,"lon":139.393643},{"name":"武蔵村山市立保健相談センター","province":"東京都","city":"武蔵村山市","address":"東京都武蔵村山市本町1丁目23","lat":35.75275842,"lon":139.38745453},{"name":"武蔵村山市立保健相談センター","province":"東京都","city":"武蔵村山市","address":"武蔵村山市本町1-23","lat":35.75282,"lon":139.38742},{"name":"武蔵村山市立保健相談センター","province":"東京都","city":"武蔵村山市","address":"武蔵村山市本町1-23","lat":35.752758,"lon":139.387455},{"name":"武蔵村山市保健相談センター","province":"東京都","city":"武蔵村山市","address":"武蔵村山市本町1-23","lat":35.752758,"lon":139.387455},{"name":"武蔵村山市保健相談センターお伊勢の森分室","province":"東京都","city":"武蔵村山市","address":"武蔵村山市中央2-118","lat":35.750959,"lon":139.393643},{"name":"武蔵村山市立保健相談センター","province":"東京都","city":"武蔵村山市","address":"東京都武蔵村山市本町1丁目23","lat":35.75275842,"lon":139.38745453},{"name":"武蔵村山市立保健相談センター","province":"東京都","city":"武蔵村山市","address":"武蔵村山市本町1-23","lat":35.75282,"lon":139.38742},{"name":"武蔵村山市立保健相談センター","province":"東京都","city":"武蔵村山市","address":"武蔵村山市本町1-23","lat":35.752758,"lon":139.387455}]}