{"keyword":"スモッグ","data":[{"name":"中藤公園","province":"東京都","city":"武蔵村山市","address":"東京都武蔵村山市中央4・5丁目地内","lat":35.759998,"lon":139.389301},{"name":"野山北・六道山公園","province":"東京都","city":"武蔵村山市","address":"東京都武蔵村山市三ツ木4-2","lat":35.765884,"lon":139.379757},{"name":"中藤配水所","province":"東京都","city":"武蔵村山市","address":"東京都武蔵村山市中藤2丁目1-3","lat":35.7588829,"lon":139.3936565},{"name":"東京経済大学運動場","province":"東京都","city":"武蔵村山市","address":"東京都武蔵村山市学園5丁目22-1","lat":35.74428181,"lon":139.39444868},{"name":"比留間運送(株)  中間処理工場","province":"東京都","city":"武蔵村山市","address":"武蔵村山市伊奈平3-25-5","lat":35.736393,"lon":139.38028},{"name":"(有)富商","province":"東京都","city":"武蔵村山市","address":"武蔵村山市伊奈平2-8","lat":35.74202,"lon":139.380173},{"name":"(株)前原紙業  武蔵村山営業所","province":"東京都","city":"武蔵村山市","address":"武蔵村山市榎2-92-1","lat":35.740997,"lon":139.390793},{"name":"中藤公園","province":"東京都","city":"武蔵村山市","address":"東京都武蔵村山市中央4・5丁目地内","lat":35.759998,"lon":139.389301},{"name":"野山北・六道山公園","province":"東京都","city":"武蔵村山市","address":"東京都武蔵村山市三ツ木4-2","lat":35.765884,"lon":139.379757},{"name":"比留間運送(株)  中間処理工場","province":"東京都","city":"武蔵村山市","address":"武蔵村山市伊奈平3-25-5","lat":35.736393,"lon":139.38028},{"name":"(有)富商","province":"東京都","city":"武蔵村山市","address":"武蔵村山市伊奈平2-8","lat":35.74202,"lon":139.380173},{"name":"(株)前原紙業  武蔵村山営業所","province":"東京都","city":"武蔵村山市","address":"武蔵村山市榎2-92-1","lat":35.740997,"lon":139.390793},{"name":"中藤公園","province":"東京都","city":"武蔵村山市","address":"東京都武蔵村山市中央4・5丁目地内","lat":35.759998,"lon":139.389301},{"name":"野山北・六道山公園","province":"東京都","city":"武蔵村山市","address":"東京都武蔵村山市三ツ木4-2","lat":35.765884,"lon":139.379757},{"name":"比留間運送(株)  中間処理工場","province":"東京都","city":"武蔵村山市","address":"武蔵村山市伊奈平3-25-5","lat":35.736393,"lon":139.38028},{"name":"(有)富商","province":"東京都","city":"武蔵村山市","address":"武蔵村山市伊奈平2-8","lat":35.74202,"lon":139.380173},{"name":"(株)前原紙業  武蔵村山営業所","province":"東京都","city":"武蔵村山市","address":"武蔵村山市榎2-92-1","lat":35.740997,"lon":139.390793},{"name":"中藤公園","province":"東京都","city":"武蔵村山市","address":"東京都武蔵村山市中央4・5丁目地内","lat":35.759998,"lon":139.389301},{"name":"野山北・六道山公園","province":"東京都","city":"武蔵村山市","address":"東京都武蔵村山市三ツ木4-2","lat":35.765884,"lon":139.379757},{"name":"比留間運送(株)  中間処理工場","province":"東京都","city":"武蔵村山市","address":"武蔵村山市伊奈平3-25-5","lat":35.736393,"lon":139.38028},{"name":"(有)富商","province":"東京都","city":"武蔵村山市","address":"武蔵村山市伊奈平2-8","lat":35.74202,"lon":139.380173},{"name":"(株)前原紙業  武蔵村山営業所","province":"東京都","city":"武蔵村山市","address":"武蔵村山市榎2-92-1","lat":35.740997,"lon":139.390793},{"name":"中藤公園","province":"東京都","city":"武蔵村山市","address":"東京都武蔵村山市中央4・5丁目地内","lat":35.759998,"lon":139.389301},{"name":"野山北・六道山公園","province":"東京都","city":"武蔵村山市","address":"東京都武蔵村山市三ツ木4-2","lat":35.765884,"lon":139.379757},{"name":"比留間運送(株)  中間処理工場","province":"東京都","city":"武蔵村山市","address":"武蔵村山市伊奈平3-25-5","lat":35.736393,"lon":139.38028},{"name":"(有)富商","province":"東京都","city":"武蔵村山市","address":"武蔵村山市伊奈平2-8","lat":35.74202,"lon":139.380173},{"name":"(株)前原紙業  武蔵村山営業所","province":"東京都","city":"武蔵村山市","address":"武蔵村山市榎2-92-1","lat":35.740997,"lon":139.390793},{"name":"中藤公園","province":"東京都","city":"武蔵村山市","address":"東京都武蔵村山市中央4・5丁目地内","lat":35.759998,"lon":139.389301},{"name":"野山北・六道山公園","province":"東京都","city":"武蔵村山市","address":"東京都武蔵村山市三ツ木4-2","lat":35.765884,"lon":139.379757},{"name":"比留間運送(株)  中間処理工場","province":"東京都","city":"武蔵村山市","address":"武蔵村山市伊奈平3-25-5","lat":35.736393,"lon":139.38028},{"name":"(有)富商","province":"東京都","city":"武蔵村山市","address":"武蔵村山市伊奈平2-8","lat":35.74202,"lon":139.380173},{"name":"(株)前原紙業  武蔵村山営業所","province":"東京都","city":"武蔵村山市","address":"武蔵村山市榎2-92-1","lat":35.740997,"lon":139.390793},{"name":"中藤公園","province":"東京都","city":"武蔵村山市","address":"東京都武蔵村山市中央4・5丁目地内","lat":35.759998,"lon":139.389301},{"name":"野山北・六道山公園","province":"東京都","city":"武蔵村山市","address":"東京都武蔵村山市三ツ木4-2","lat":35.765884,"lon":139.379757},{"name":"比留間運送(株)  中間処理工場","province":"東京都","city":"武蔵村山市","address":"武蔵村山市伊奈平3-25-5","lat":35.736393,"lon":139.38028},{"name":"(有)富商","province":"東京都","city":"武蔵村山市","address":"武蔵村山市伊奈平2-8","lat":35.74202,"lon":139.380173},{"name":"(株)前原紙業  武蔵村山営業所","province":"東京都","city":"武蔵村山市","address":"武蔵村山市榎2-92-1","lat":35.740997,"lon":139.390793},{"name":"中藤公園","province":"東京都","city":"武蔵村山市","address":"東京都武蔵村山市中央4・5丁目地内","lat":35.759998,"lon":139.389301},{"name":"野山北・六道山公園","province":"東京都","city":"武蔵村山市","address":"東京都武蔵村山市三ツ木4-2","lat":35.765884,"lon":139.379757},{"name":"比留間運送(株)  中間処理工場","province":"東京都","city":"武蔵村山市","address":"武蔵村山市伊奈平3-25-5","lat":35.736393,"lon":139.38028},{"name":"(有)富商","province":"東京都","city":"武蔵村山市","address":"武蔵村山市伊奈平2-8","lat":35.74202,"lon":139.380173},{"name":"(株)前原紙業  武蔵村山営業所","province":"東京都","city":"武蔵村山市","address":"武蔵村山市榎2-92-1","lat":35.740997,"lon":139.390793},{"name":"中藤公園","province":"東京都","city":"武蔵村山市","address":"東京都武蔵村山市中央4・5丁目地内","lat":35.759998,"lon":139.389301},{"name":"野山北・六道山公園","province":"東京都","city":"武蔵村山市","address":"東京都武蔵村山市三ツ木4-2","lat":35.765884,"lon":139.379757},{"name":"比留間運送(株)  中間処理工場","province":"東京都","city":"武蔵村山市","address":"武蔵村山市伊奈平3-25-5","lat":35.736393,"lon":139.38028},{"name":"(有)富商","province":"東京都","city":"武蔵村山市","address":"武蔵村山市伊奈平2-8","lat":35.74202,"lon":139.380173},{"name":"(株)前原紙業  武蔵村山営業所","province":"東京都","city":"武蔵村山市","address":"武蔵村山市榎2-92-1","lat":35.740997,"lon":139.390793},{"name":"中藤公園","province":"東京都","city":"武蔵村山市","address":"東京都武蔵村山市中央4・5丁目地内","lat":35.759998,"lon":139.389301},{"name":"野山北・六道山公園","province":"東京都","city":"武蔵村山市","address":"東京都武蔵村山市三ツ木4-2","lat":35.765884,"lon":139.379757},{"name":"比留間運送(株)  中間処理工場","province":"東京都","city":"武蔵村山市","address":"武蔵村山市伊奈平3-25-5","lat":35.736393,"lon":139.38028},{"name":"(有)富商","province":"東京都","city":"武蔵村山市","address":"武蔵村山市伊奈平2-8","lat":35.74202,"lon":139.380173},{"name":"(株)前原紙業  武蔵村山営業所","province":"東京都","city":"武蔵村山市","address":"武蔵村山市榎2-92-1","lat":35.740997,"lon":139.390793},{"name":"中藤公園","province":"東京都","city":"武蔵村山市","address":"東京都武蔵村山市中央4・5丁目地内","lat":35.759998,"lon":139.389301},{"name":"野山北・六道山公園","province":"東京都","city":"武蔵村山市","address":"東京都武蔵村山市三ツ木4-2","lat":35.765884,"lon":139.379757},{"name":"比留間運送(株)  中間処理工場","province":"東京都","city":"武蔵村山市","address":"武蔵村山市伊奈平3-25-5","lat":35.736393,"lon":139.38028},{"name":"(有)富商","province":"東京都","city":"武蔵村山市","address":"武蔵村山市伊奈平2-8","lat":35.74202,"lon":139.380173},{"name":"(株)前原紙業  武蔵村山営業所","province":"東京都","city":"武蔵村山市","address":"武蔵村山市榎2-92-1","lat":35.740997,"lon":139.390793},{"name":"中藤公園","province":"東京都","city":"武蔵村山市","address":"東京都武蔵村山市中央4・5丁目地内","lat":35.759998,"lon":139.389301},{"name":"野山北・六道山公園","province":"東京都","city":"武蔵村山市","address":"東京都武蔵村山市三ツ木4-2","lat":35.765884,"lon":139.379757},{"name":"比留間運送(株)  中間処理工場","province":"東京都","city":"武蔵村山市","address":"武蔵村山市伊奈平3-25-5","lat":35.736393,"lon":139.38028},{"name":"(有)富商","province":"東京都","city":"武蔵村山市","address":"武蔵村山市伊奈平2-8","lat":35.74202,"lon":139.380173},{"name":"(株)前原紙業  武蔵村山営業所","province":"東京都","city":"武蔵村山市","address":"武蔵村山市榎2-92-1","lat":35.740997,"lon":139.390793},{"name":"中藤公園","province":"東京都","city":"武蔵村山市","address":"東京都武蔵村山市中央4・5丁目地内","lat":35.759998,"lon":139.389301},{"name":"野山北・六道山公園","province":"東京都","city":"武蔵村山市","address":"東京都武蔵村山市三ツ木4-2","lat":35.765884,"lon":139.379757},{"name":"比留間運送(株)  中間処理工場","province":"東京都","city":"武蔵村山市","address":"武蔵村山市伊奈平3-25-5","lat":35.736393,"lon":139.38028},{"name":"(有)富商","province":"東京都","city":"武蔵村山市","address":"武蔵村山市伊奈平2-8","lat":35.74202,"lon":139.380173},{"name":"(株)前原紙業  武蔵村山営業所","province":"東京都","city":"武蔵村山市","address":"武蔵村山市榎2-92-1","lat":35.740997,"lon":139.390793},{"name":"中藤公園","province":"東京都","city":"武蔵村山市","address":"東京都武蔵村山市中央4・5丁目地内","lat":35.759998,"lon":139.389301},{"name":"野山北・六道山公園","province":"東京都","city":"武蔵村山市","address":"東京都武蔵村山市三ツ木4-2","lat":35.765884,"lon":139.379757},{"name":"比留間運送(株)  中間処理工場","province":"東京都","city":"武蔵村山市","address":"武蔵村山市伊奈平3-25-5","lat":35.736393,"lon":139.38028},{"name":"(有)富商","province":"東京都","city":"武蔵村山市","address":"武蔵村山市伊奈平2-8","lat":35.74202,"lon":139.380173},{"name":"(株)前原紙業  武蔵村山営業所","province":"東京都","city":"武蔵村山市","address":"武蔵村山市榎2-92-1","lat":35.740997,"lon":139.390793},{"name":"中藤公園","province":"東京都","city":"武蔵村山市","address":"東京都武蔵村山市中央4・5丁目地内","lat":35.759998,"lon":139.389301},{"name":"野山北・六道山公園","province":"東京都","city":"武蔵村山市","address":"東京都武蔵村山市三ツ木4-2","lat":35.765884,"lon":139.379757},{"name":"比留間運送(株)  中間処理工場","province":"東京都","city":"武蔵村山市","address":"武蔵村山市伊奈平3-25-5","lat":35.736393,"lon":139.38028},{"name":"(有)富商","province":"東京都","city":"武蔵村山市","address":"武蔵村山市伊奈平2-8","lat":35.74202,"lon":139.380173},{"name":"(株)前原紙業  武蔵村山営業所","province":"東京都","city":"武蔵村山市","address":"武蔵村山市榎2-92-1","lat":35.740997,"lon":139.390793},{"name":"中藤公園","province":"東京都","city":"武蔵村山市","address":"東京都武蔵村山市中央4・5丁目地内","lat":35.759998,"lon":139.389301},{"name":"野山北・六道山公園","province":"東京都","city":"武蔵村山市","address":"東京都武蔵村山市三ツ木4-2","lat":35.765884,"lon":139.379757},{"name":"比留間運送(株)  中間処理工場","province":"東京都","city":"武蔵村山市","address":"武蔵村山市伊奈平3-25-5","lat":35.736393,"lon":139.38028},{"name":"(有)富商","province":"東京都","city":"武蔵村山市","address":"武蔵村山市伊奈平2-8","lat":35.74202,"lon":139.380173},{"name":"(株)前原紙業  武蔵村山営業所","province":"東京都","city":"武蔵村山市","address":"武蔵村山市榎2-92-1","lat":35.740997,"lon":139.390793},{"name":"中藤公園","province":"東京都","city":"武蔵村山市","address":"東京都武蔵村山市中央4・5丁目地内","lat":35.759998,"lon":139.389301},{"name":"野山北・六道山公園","province":"東京都","city":"武蔵村山市","address":"東京都武蔵村山市三ツ木4-2","lat":35.765884,"lon":139.379757},{"name":"比留間運送(株)  中間処理工場","province":"東京都","city":"武蔵村山市","address":"武蔵村山市伊奈平3-25-5","lat":35.736393,"lon":139.38028},{"name":"(有)富商","province":"東京都","city":"武蔵村山市","address":"武蔵村山市伊奈平2-8","lat":35.74202,"lon":139.380173},{"name":"(株)前原紙業  武蔵村山営業所","province":"東京都","city":"武蔵村山市","address":"武蔵村山市榎2-92-1","lat":35.740997,"lon":139.390793},{"name":"中藤公園","province":"東京都","city":"武蔵村山市","address":"東京都武蔵村山市中央4・5丁目地内","lat":35.759998,"lon":139.389301},{"name":"野山北・六道山公園","province":"東京都","city":"武蔵村山市","address":"東京都武蔵村山市三ツ木4-2","lat":35.765884,"lon":139.379757},{"name":"比留間運送(株)  中間処理工場","province":"東京都","city":"武蔵村山市","address":"武蔵村山市伊奈平3-25-5","lat":35.736393,"lon":139.38028},{"name":"(有)富商","province":"東京都","city":"武蔵村山市","address":"武蔵村山市伊奈平2-8","lat":35.74202,"lon":139.380173},{"name":"(株)前原紙業  武蔵村山営業所","province":"東京都","city":"武蔵村山市","address":"武蔵村山市榎2-92-1","lat":35.740997,"lon":139.390793},{"name":"中藤公園","province":"東京都","city":"武蔵村山市","address":"東京都武蔵村山市中央4・5丁目地内","lat":35.759998,"lon":139.389301},{"name":"野山北・六道山公園","province":"東京都","city":"武蔵村山市","address":"東京都武蔵村山市三ツ木4-2","lat":35.765884,"lon":139.379757},{"name":"比留間運送(株)  中間処理工場","province":"東京都","city":"武蔵村山市","address":"武蔵村山市伊奈平3-25-5","lat":35.736393,"lon":139.38028},{"name":"(有)富商","province":"東京都","city":"武蔵村山市","address":"武蔵村山市伊奈平2-8","lat":35.74202,"lon":139.380173},{"name":"(株)前原紙業  武蔵村山営業所","province":"東京都","city":"武蔵村山市","address":"武蔵村山市榎2-92-1","lat":35.740997,"lon":139.390793},{"name":"中藤公園","province":"東京都","city":"武蔵村山市","address":"東京都武蔵村山市中央4・5丁目地内","lat":35.759998,"lon":139.389301},{"name":"野山北・六道山公園","province":"東京都","city":"武蔵村山市","address":"東京都武蔵村山市三ツ木4-2","lat":35.765884,"lon":139.379757},{"name":"比留間運送(株)  中間処理工場","province":"東京都","city":"武蔵村山市","address":"武蔵村山市伊奈平3-25-5","lat":35.736393,"lon":139.38028},{"name":"(有)富商","province":"東京都","city":"武蔵村山市","address":"武蔵村山市伊奈平2-8","lat":35.74202,"lon":139.380173},{"name":"(株)前原紙業  武蔵村山営業所","province":"東京都","city":"武蔵村山市","address":"武蔵村山市榎2-92-1","lat":35.740997,"lon":139.390793},{"name":"中藤公園","province":"東京都","city":"武蔵村山市","address":"東京都武蔵村山市中央4・5丁目地内","lat":35.759998,"lon":139.389301},{"name":"野山北・六道山公園","province":"東京都","city":"武蔵村山市","address":"東京都武蔵村山市三ツ木4-2","lat":35.765884,"lon":139.379757},{"name":"比留間運送(株)  中間処理工場","province":"東京都","city":"武蔵村山市","address":"武蔵村山市伊奈平3-25-5","lat":35.736393,"lon":139.38028},{"name":"(有)富商","province":"東京都","city":"武蔵村山市","address":"武蔵村山市伊奈平2-8","lat":35.74202,"lon":139.380173},{"name":"(株)前原紙業  武蔵村山営業所","province":"東京都","city":"武蔵村山市","address":"武蔵村山市榎2-92-1","lat":35.740997,"lon":139.390793},{"name":"中藤公園","province":"東京都","city":"武蔵村山市","address":"東京都武蔵村山市中央4・5丁目地内","lat":35.759998,"lon":139.389301},{"name":"野山北・六道山公園","province":"東京都","city":"武蔵村山市","address":"東京都武蔵村山市三ツ木4-2","lat":35.765884,"lon":139.379757},{"name":"比留間運送(株)  中間処理工場","province":"東京都","city":"武蔵村山市","address":"武蔵村山市伊奈平3-25-5","lat":35.736393,"lon":139.38028},{"name":"(有)富商","province":"東京都","city":"武蔵村山市","address":"武蔵村山市伊奈平2-8","lat":35.74202,"lon":139.380173},{"name":"(株)前原紙業  武蔵村山営業所","province":"東京都","city":"武蔵村山市","address":"武蔵村山市榎2-92-1","lat":35.740997,"lon":139.390793},{"name":"中藤公園","province":"東京都","city":"武蔵村山市","address":"東京都武蔵村山市中央4・5丁目地内","lat":35.759998,"lon":139.389301},{"name":"野山北・六道山公園","province":"東京都","city":"武蔵村山市","address":"東京都武蔵村山市三ツ木4-2","lat":35.765884,"lon":139.379757},{"name":"比留間運送(株)  中間処理工場","province":"東京都","city":"武蔵村山市","address":"武蔵村山市伊奈平3-25-5","lat":35.736393,"lon":139.38028},{"name":"(有)富商","province":"東京都","city":"武蔵村山市","address":"武蔵村山市伊奈平2-8","lat":35.74202,"lon":139.380173},{"name":"(株)前原紙業  武蔵村山営業所","province":"東京都","city":"武蔵村山市","address":"武蔵村山市榎2-92-1","lat":35.740997,"lon":139.390793},{"name":"中藤公園","province":"東京都","city":"武蔵村山市","address":"東京都武蔵村山市中央4・5丁目地内","lat":35.759998,"lon":139.389301},{"name":"野山北・六道山公園","province":"東京都","city":"武蔵村山市","address":"東京都武蔵村山市三ツ木4-2","lat":35.765884,"lon":139.379757},{"name":"比留間運送(株)  中間処理工場","province":"東京都","city":"武蔵村山市","address":"武蔵村山市伊奈平3-25-5","lat":35.736393,"lon":139.38028},{"name":"(有)富商","province":"東京都","city":"武蔵村山市","address":"武蔵村山市伊奈平2-8","lat":35.74202,"lon":139.380173},{"name":"(株)前原紙業  武蔵村山営業所","province":"東京都","city":"武蔵村山市","address":"武蔵村山市榎2-92-1","lat":35.740997,"lon":139.390793},{"name":"中藤公園","province":"東京都","city":"武蔵村山市","address":"東京都武蔵村山市中央4・5丁目地内","lat":35.759998,"lon":139.389301},{"name":"野山北・六道山公園","province":"東京都","city":"武蔵村山市","address":"東京都武蔵村山市三ツ木4-2","lat":35.765884,"lon":139.379757},{"name":"比留間運送(株)  中間処理工場","province":"東京都","city":"武蔵村山市","address":"武蔵村山市伊奈平3-25-5","lat":35.736393,"lon":139.38028},{"name":"(有)富商","province":"東京都","city":"武蔵村山市","address":"武蔵村山市伊奈平2-8","lat":35.74202,"lon":139.380173},{"name":"(株)前原紙業  武蔵村山営業所","province":"東京都","city":"武蔵村山市","address":"武蔵村山市榎2-92-1","lat":35.740997,"lon":139.390793},{"name":"中藤公園","province":"東京都","city":"武蔵村山市","address":"東京都武蔵村山市中央4・5丁目地内","lat":35.759998,"lon":139.389301},{"name":"野山北・六道山公園","province":"東京都","city":"武蔵村山市","address":"東京都武蔵村山市三ツ木4-2","lat":35.765884,"lon":139.379757},{"name":"比留間運送(株)  中間処理工場","province":"東京都","city":"武蔵村山市","address":"武蔵村山市伊奈平3-25-5","lat":35.736393,"lon":139.38028},{"name":"(有)富商","province":"東京都","city":"武蔵村山市","address":"武蔵村山市伊奈平2-8","lat":35.74202,"lon":139.380173},{"name":"(株)前原紙業  武蔵村山営業所","province":"東京都","city":"武蔵村山市","address":"武蔵村山市榎2-92-1","lat":35.740997,"lon":139.390793},{"name":"中藤公園","province":"東京都","city":"武蔵村山市","address":"東京都武蔵村山市中央4・5丁目地内","lat":35.759998,"lon":139.389301},{"name":"野山北・六道山公園","province":"東京都","city":"武蔵村山市","address":"東京都武蔵村山市三ツ木4-2","lat":35.765884,"lon":139.379757},{"name":"比留間運送(株)  中間処理工場","province":"東京都","city":"武蔵村山市","address":"武蔵村山市伊奈平3-25-5","lat":35.736393,"lon":139.38028},{"name":"(有)富商","province":"東京都","city":"武蔵村山市","address":"武蔵村山市伊奈平2-8","lat":35.74202,"lon":139.380173},{"name":"(株)前原紙業  武蔵村山営業所","province":"東京都","city":"武蔵村山市","address":"武蔵村山市榎2-92-1","lat":35.740997,"lon":139.390793},{"name":"中藤公園","province":"東京都","city":"武蔵村山市","address":"東京都武蔵村山市中央4・5丁目地内","lat":35.759998,"lon":139.389301},{"name":"野山北・六道山公園","province":"東京都","city":"武蔵村山市","address":"東京都武蔵村山市三ツ木4-2","lat":35.765884,"lon":139.379757},{"name":"比留間運送(株)  中間処理工場","province":"東京都","city":"武蔵村山市","address":"武蔵村山市伊奈平3-25-5","lat":35.736393,"lon":139.38028},{"name":"(有)富商","province":"東京都","city":"武蔵村山市","address":"武蔵村山市伊奈平2-8","lat":35.74202,"lon":139.380173},{"name":"(株)前原紙業  武蔵村山営業所","province":"東京都","city":"武蔵村山市","address":"武蔵村山市榎2-92-1","lat":35.740997,"lon":139.390793},{"name":"中藤公園","province":"東京都","city":"武蔵村山市","address":"東京都武蔵村山市中央4・5丁目地内","lat":35.759998,"lon":139.389301},{"name":"野山北・六道山公園","province":"東京都","city":"武蔵村山市","address":"東京都武蔵村山市三ツ木4-2","lat":35.765884,"lon":139.379757},{"name":"比留間運送(株)  中間処理工場","province":"東京都","city":"武蔵村山市","address":"武蔵村山市伊奈平3-25-5","lat":35.736393,"lon":139.38028},{"name":"(有)富商","province":"東京都","city":"武蔵村山市","address":"武蔵村山市伊奈平2-8","lat":35.74202,"lon":139.380173},{"name":"(株)前原紙業  武蔵村山営業所","province":"東京都","city":"武蔵村山市","address":"武蔵村山市榎2-92-1","lat":35.740997,"lon":139.390793},{"name":"中藤公園","province":"東京都","city":"武蔵村山市","address":"東京都武蔵村山市中央4・5丁目地内","lat":35.759998,"lon":139.389301},{"name":"野山北・六道山公園","province":"東京都","city":"武蔵村山市","address":"東京都武蔵村山市三ツ木4-2","lat":35.765884,"lon":139.379757},{"name":"比留間運送(株)  中間処理工場","province":"東京都","city":"武蔵村山市","address":"武蔵村山市伊奈平3-25-5","lat":35.736393,"lon":139.38028},{"name":"(有)富商","province":"東京都","city":"武蔵村山市","address":"武蔵村山市伊奈平2-8","lat":35.74202,"lon":139.380173},{"name":"(株)前原紙業  武蔵村山営業所","province":"東京都","city":"武蔵村山市","address":"武蔵村山市榎2-92-1","lat":35.740997,"lon":139.390793},{"name":"中藤公園","province":"東京都","city":"武蔵村山市","address":"東京都武蔵村山市中央4・5丁目地内","lat":35.759998,"lon":139.389301},{"name":"野山北・六道山公園","province":"東京都","city":"武蔵村山市","address":"東京都武蔵村山市三ツ木4-2","lat":35.765884,"lon":139.379757},{"name":"比留間運送(株)  中間処理工場","province":"東京都","city":"武蔵村山市","address":"武蔵村山市伊奈平3-25-5","lat":35.736393,"lon":139.38028},{"name":"(有)富商","province":"東京都","city":"武蔵村山市","address":"武蔵村山市伊奈平2-8","lat":35.74202,"lon":139.380173},{"name":"(株)前原紙業  武蔵村山営業所","province":"東京都","city":"武蔵村山市","address":"武蔵村山市榎2-92-1","lat":35.740997,"lon":139.390793},{"name":"中藤公園","province":"東京都","city":"武蔵村山市","address":"東京都武蔵村山市中央4・5丁目地内","lat":35.759998,"lon":139.389301},{"name":"野山北・六道山公園","province":"東京都","city":"武蔵村山市","address":"東京都武蔵村山市三ツ木4-2","lat":35.765884,"lon":139.379757},{"name":"比留間運送(株)  中間処理工場","province":"東京都","city":"武蔵村山市","address":"武蔵村山市伊奈平3-25-5","lat":35.736393,"lon":139.38028},{"name":"(有)富商","province":"東京都","city":"武蔵村山市","address":"武蔵村山市伊奈平2-8","lat":35.74202,"lon":139.380173},{"name":"(株)前原紙業  武蔵村山営業所","province":"東京都","city":"武蔵村山市","address":"武蔵村山市榎2-92-1","lat":35.740997,"lon":139.390793},{"name":"中藤公園","province":"東京都","city":"武蔵村山市","address":"東京都武蔵村山市中央4・5丁目地内","lat":35.759998,"lon":139.389301},{"name":"野山北・六道山公園","province":"東京都","city":"武蔵村山市","address":"東京都武蔵村山市三ツ木4-2","lat":35.765884,"lon":139.379757},{"name":"比留間運送(株)  中間処理工場","province":"東京都","city":"武蔵村山市","address":"武蔵村山市伊奈平3-25-5","lat":35.736393,"lon":139.38028},{"name":"(有)富商","province":"東京都","city":"武蔵村山市","address":"武蔵村山市伊奈平2-8","lat":35.74202,"lon":139.380173},{"name":"(株)前原紙業  武蔵村山営業所","province":"東京都","city":"武蔵村山市","address":"武蔵村山市榎2-92-1","lat":35.740997,"lon":139.390793},{"name":"中藤公園","province":"東京都","city":"武蔵村山市","address":"東京都武蔵村山市中央4・5丁目地内","lat":35.759998,"lon":139.389301},{"name":"野山北・六道山公園","province":"東京都","city":"武蔵村山市","address":"東京都武蔵村山市三ツ木4-2","lat":35.765884,"lon":139.379757},{"name":"比留間運送(株)  中間処理工場","province":"東京都","city":"武蔵村山市","address":"武蔵村山市伊奈平3-25-5","lat":35.736393,"lon":139.38028},{"name":"(有)富商","province":"東京都","city":"武蔵村山市","address":"武蔵村山市伊奈平2-8","lat":35.74202,"lon":139.380173},{"name":"(株)前原紙業  武蔵村山営業所","province":"東京都","city":"武蔵村山市","address":"武蔵村山市榎2-92-1","lat":35.740997,"lon":139.390793},{"name":"中藤公園","province":"東京都","city":"武蔵村山市","address":"東京都武蔵村山市中央4・5丁目地内","lat":35.759998,"lon":139.389301},{"name":"野山北・六道山公園","province":"東京都","city":"武蔵村山市","address":"東京都武蔵村山市三ツ木4-2","lat":35.765884,"lon":139.379757},{"name":"比留間運送(株)  中間処理工場","province":"東京都","city":"武蔵村山市","address":"武蔵村山市伊奈平3-25-5","lat":35.736393,"lon":139.38028},{"name":"(有)富商","province":"東京都","city":"武蔵村山市","address":"武蔵村山市伊奈平2-8","lat":35.74202,"lon":139.380173},{"name":"(株)前原紙業  武蔵村山営業所","province":"東京都","city":"武蔵村山市","address":"武蔵村山市榎2-92-1","lat":35.740997,"lon":139.390793},{"name":"中藤公園","province":"東京都","city":"武蔵村山市","address":"東京都武蔵村山市中央4・5丁目地内","lat":35.759998,"lon":139.389301},{"name":"野山北・六道山公園","province":"東京都","city":"武蔵村山市","address":"東京都武蔵村山市三ツ木4-2","lat":35.765884,"lon":139.379757},{"name":"比留間運送(株)  中間処理工場","province":"東京都","city":"武蔵村山市","address":"武蔵村山市伊奈平3-25-5","lat":35.736393,"lon":139.38028},{"name":"(有)富商","province":"東京都","city":"武蔵村山市","address":"武蔵村山市伊奈平2-8","lat":35.74202,"lon":139.380173},{"name":"(株)前原紙業  武蔵村山営業所","province":"東京都","city":"武蔵村山市","address":"武蔵村山市榎2-92-1","lat":35.740997,"lon":139.390793},{"name":"中藤公園","province":"東京都","city":"武蔵村山市","address":"東京都武蔵村山市中央4・5丁目地内","lat":35.759998,"lon":139.389301},{"name":"野山北・六道山公園","province":"東京都","city":"武蔵村山市","address":"東京都武蔵村山市三ツ木4-2","lat":35.765884,"lon":139.379757},{"name":"比留間運送(株)  中間処理工場","province":"東京都","city":"武蔵村山市","address":"武蔵村山市伊奈平3-25-5","lat":35.736393,"lon":139.38028},{"name":"(有)富商","province":"東京都","city":"武蔵村山市","address":"武蔵村山市伊奈平2-8","lat":35.74202,"lon":139.380173},{"name":"(株)前原紙業  武蔵村山営業所","province":"東京都","city":"武蔵村山市","address":"武蔵村山市榎2-92-1","lat":35.740997,"lon":139.390793},{"name":"中藤公園","province":"東京都","city":"武蔵村山市","address":"東京都武蔵村山市中央4・5丁目地内","lat":35.759998,"lon":139.389301},{"name":"野山北・六道山公園","province":"東京都","city":"武蔵村山市","address":"東京都武蔵村山市三ツ木4-2","lat":35.765884,"lon":139.379757},{"name":"比留間運送(株)  中間処理工場","province":"東京都","city":"武蔵村山市","address":"武蔵村山市伊奈平3-25-5","lat":35.736393,"lon":139.38028},{"name":"(有)富商","province":"東京都","city":"武蔵村山市","address":"武蔵村山市伊奈平2-8","lat":35.74202,"lon":139.380173},{"name":"(株)前原紙業  武蔵村山営業所","province":"東京都","city":"武蔵村山市","address":"武蔵村山市榎2-92-1","lat":35.740997,"lon":139.390793},{"name":"中藤公園","province":"東京都","city":"武蔵村山市","address":"東京都武蔵村山市中央4・5丁目地内","lat":35.759998,"lon":139.389301},{"name":"野山北・六道山公園","province":"東京都","city":"武蔵村山市","address":"東京都武蔵村山市三ツ木4-2","lat":35.765884,"lon":139.379757},{"name":"比留間運送(株)  中間処理工場","province":"東京都","city":"武蔵村山市","address":"武蔵村山市伊奈平3-25-5","lat":35.736393,"lon":139.38028},{"name":"(有)富商","province":"東京都","city":"武蔵村山市","address":"武蔵村山市伊奈平2-8","lat":35.74202,"lon":139.380173},{"name":"(株)前原紙業  武蔵村山営業所","province":"東京都","city":"武蔵村山市","address":"武蔵村山市榎2-92-1","lat":35.740997,"lon":139.390793},{"name":"中藤公園","province":"東京都","city":"武蔵村山市","address":"東京都武蔵村山市中央4・5丁目地内","lat":35.759998,"lon":139.389301},{"name":"野山北・六道山公園","province":"東京都","city":"武蔵村山市","address":"東京都武蔵村山市三ツ木4-2","lat":35.765884,"lon":139.379757},{"name":"比留間運送(株)  中間処理工場","province":"東京都","city":"武蔵村山市","address":"武蔵村山市伊奈平3-25-5","lat":35.736393,"lon":139.38028},{"name":"(有)富商","province":"東京都","city":"武蔵村山市","address":"武蔵村山市伊奈平2-8","lat":35.74202,"lon":139.380173},{"name":"(株)前原紙業  武蔵村山営業所","province":"東京都","city":"武蔵村山市","address":"武蔵村山市榎2-92-1","lat":35.740997,"lon":139.390793},{"name":"中藤公園","province":"東京都","city":"武蔵村山市","address":"東京都武蔵村山市中央4・5丁目地内","lat":35.759998,"lon":139.389301},{"name":"野山北・六道山公園","province":"東京都","city":"武蔵村山市","address":"東京都武蔵村山市三ツ木4-2","lat":35.765884,"lon":139.379757},{"name":"比留間運送(株)  中間処理工場","province":"東京都","city":"武蔵村山市","address":"武蔵村山市伊奈平3-25-5","lat":35.736393,"lon":139.38028},{"name":"(有)富商","province":"東京都","city":"武蔵村山市","address":"武蔵村山市伊奈平2-8","lat":35.74202,"lon":139.380173},{"name":"(株)前原紙業  武蔵村山営業所","province":"東京都","city":"武蔵村山市","address":"武蔵村山市榎2-92-1","lat":35.740997,"lon":139.390793},{"name":"中藤公園","province":"東京都","city":"武蔵村山市","address":"東京都武蔵村山市中央4・5丁目地内","lat":35.759998,"lon":139.389301},{"name":"野山北・六道山公園","province":"東京都","city":"武蔵村山市","address":"東京都武蔵村山市三ツ木4-2","lat":35.765884,"lon":139.379757},{"name":"比留間運送(株)  中間処理工場","province":"東京都","city":"武蔵村山市","address":"武蔵村山市伊奈平3-25-5","lat":35.736393,"lon":139.38028},{"name":"(有)富商","province":"東京都","city":"武蔵村山市","address":"武蔵村山市伊奈平2-8","lat":35.74202,"lon":139.380173},{"name":"(株)前原紙業  武蔵村山営業所","province":"東京都","city":"武蔵村山市","address":"武蔵村山市榎2-92-1","lat":35.740997,"lon":139.390793},{"name":"中藤公園","province":"東京都","city":"武蔵村山市","address":"東京都武蔵村山市中央4・5丁目地内","lat":35.759998,"lon":139.389301},{"name":"野山北・六道山公園","province":"東京都","city":"武蔵村山市","address":"東京都武蔵村山市三ツ木4-2","lat":35.765884,"lon":139.379757},{"name":"比留間運送(株)  中間処理工場","province":"東京都","city":"武蔵村山市","address":"武蔵村山市伊奈平3-25-5","lat":35.736393,"lon":139.38028},{"name":"(有)富商","province":"東京都","city":"武蔵村山市","address":"武蔵村山市伊奈平2-8","lat":35.74202,"lon":139.380173},{"name":"(株)前原紙業  武蔵村山営業所","province":"東京都","city":"武蔵村山市","address":"武蔵村山市榎2-92-1","lat":35.740997,"lon":139.390793},{"name":"中藤公園","province":"東京都","city":"武蔵村山市","address":"東京都武蔵村山市中央4・5丁目地内","lat":35.759998,"lon":139.389301},{"name":"野山北・六道山公園","province":"東京都","city":"武蔵村山市","address":"東京都武蔵村山市三ツ木4-2","lat":35.765884,"lon":139.379757},{"name":"比留間運送(株)  中間処理工場","province":"東京都","city":"武蔵村山市","address":"武蔵村山市伊奈平3-25-5","lat":35.736393,"lon":139.38028},{"name":"(有)富商","province":"東京都","city":"武蔵村山市","address":"武蔵村山市伊奈平2-8","lat":35.74202,"lon":139.380173},{"name":"(株)前原紙業  武蔵村山営業所","province":"東京都","city":"武蔵村山市","address":"武蔵村山市榎2-92-1","lat":35.740997,"lon":139.390793},{"name":"中藤公園","province":"東京都","city":"武蔵村山市","address":"東京都武蔵村山市中央4・5丁目地内","lat":35.759998,"lon":139.389301},{"name":"野山北・六道山公園","province":"東京都","city":"武蔵村山市","address":"東京都武蔵村山市三ツ木4-2","lat":35.765884,"lon":139.379757},{"name":"比留間運送(株)  中間処理工場","province":"東京都","city":"武蔵村山市","address":"武蔵村山市伊奈平3-25-5","lat":35.736393,"lon":139.38028},{"name":"(有)富商","province":"東京都","city":"武蔵村山市","address":"武蔵村山市伊奈平2-8","lat":35.74202,"lon":139.380173},{"name":"(株)前原紙業  武蔵村山営業所","province":"東京都","city":"武蔵村山市","address":"武蔵村山市榎2-92-1","lat":35.740997,"lon":139.390793},{"name":"中藤公園","province":"東京都","city":"武蔵村山市","address":"東京都武蔵村山市中央4・5丁目地内","lat":35.759998,"lon":139.389301},{"name":"野山北・六道山公園","province":"東京都","city":"武蔵村山市","address":"東京都武蔵村山市三ツ木4-2","lat":35.765884,"lon":139.379757},{"name":"比留間運送(株)  中間処理工場","province":"東京都","city":"武蔵村山市","address":"武蔵村山市伊奈平3-25-5","lat":35.736393,"lon":139.38028},{"name":"(有)富商","province":"東京都","city":"武蔵村山市","address":"武蔵村山市伊奈平2-8","lat":35.74202,"lon":139.380173},{"name":"(株)前原紙業  武蔵村山営業所","province":"東京都","city":"武蔵村山市","address":"武蔵村山市榎2-92-1","lat":35.740997,"lon":139.390793}]}