{"keyword":"センター","data":[{"name":"武蔵村山市第五老人福祉館","province":"東京都","city":"武蔵村山市","address":"武蔵村山市神明2-7","lat":35.75391,"lon":139.40135},{"name":"武蔵村山市福祉会館","province":"東京都","city":"武蔵村山市","address":"武蔵村山市中央2-117-1","lat":35.7508,"lon":139.39337},{"name":"武蔵村山市第三老人福祉館","province":"東京都","city":"武蔵村山市","address":"武蔵村山市本町4-40-1","lat":35.75829,"lon":139.38658},{"name":"武蔵村山市第一老人福祉館","province":"東京都","city":"武蔵村山市","address":"武蔵村山市緑が丘14601111号棟1階","lat":35.74021,"lon":139.40782},{"name":"武蔵村山市さいかち老人福祉館","province":"東京都","city":"武蔵村山市","address":"武蔵村山市緑が丘14601133号棟1階","lat":35.74021,"lon":139.40782},{"name":"武蔵村山市第四老人福祉館","province":"東京都","city":"武蔵村山市","address":"武蔵村山市岸町3-47-7","lat":35.74366,"lon":139.35962},{"name":"武蔵村山市第二老人福祉館","province":"東京都","city":"武蔵村山市","address":"武蔵村山市残堀2-22-1","lat":35.7477,"lon":139.37215},{"name":"武蔵村山市第一老人福祉館","province":"東京都","city":"武蔵村山市","address":"武蔵村山市緑が丘14601111号棟1階","lat":35.74292,"lon":139.40791},{"name":"武蔵村山市さいかち老人福祉館","province":"東京都","city":"武蔵村山市","address":"武蔵村山市緑が丘14601133号棟1階","lat":35.74292,"lon":139.40791},{"name":"武蔵村山市福祉会館","province":"東京都","city":"武蔵村山市","address":"武蔵村山市中央2-117-1","lat":35.750828,"lon":139.393287},{"name":"武蔵村山市第五老人福祉館","province":"東京都","city":"武蔵村山市","address":"武蔵村山市神明2-7","lat":35.753903,"lon":139.401398},{"name":"武蔵村山市第三老人福祉館","province":"東京都","city":"武蔵村山市","address":"武蔵村山市本町4-40-1","lat":35.758208,"lon":139.386382},{"name":"武蔵村山市第一老人福祉館","province":"東京都","city":"武蔵村山市","address":"武蔵村山市緑が丘14601111号棟1階","lat":35.743477,"lon":139.407886},{"name":"武蔵村山市さいかち老人福祉館","province":"東京都","city":"武蔵村山市","address":"武蔵村山市緑が丘14601133号棟1階","lat":35.743477,"lon":139.407886},{"name":"武蔵村山市第四老人福祉館","province":"東京都","city":"武蔵村山市","address":"武蔵村山市岸町3-47-7","lat":35.766032,"lon":139.373067},{"name":"武蔵村山市第二老人福祉館","province":"東京都","city":"武蔵村山市","address":"武蔵村山市残堀2-22-1","lat":35.747561,"lon":139.371876},{"name":"武蔵村山市第一老人福祉館","province":"東京都","city":"武蔵村山市","address":"武蔵村山市緑が丘14601111号棟1階","lat":35.74046,"lon":139.40483},{"name":"武蔵村山市さいかち老人福祉館","province":"東京都","city":"武蔵村山市","address":"武蔵村山市緑が丘14601133号棟1階","lat":35.74046,"lon":139.40483},{"name":"武蔵村山市第四老人福祉館","province":"東京都","city":"武蔵村山市","address":"武蔵村山市岸町3-47-7","lat":35.75818,"lon":139.37148},{"name":"武蔵村山市第一老人福祉館（市立緑が丘ふれあいセンター内）","province":"東京都","city":"武蔵村山市","address":"武蔵村山市緑が丘1460","lat":35.743477,"lon":139.407886}]}