{"keyword":"保育","data":[{"name":"あゆみ保育園","province":"東京都","city":"武蔵村山市","address":"武蔵村山市中央2-53-3","lat":35.752373,"lon":139.397642},{"name":"村山中藤保育園「櫻」","province":"東京都","city":"武蔵村山市","address":"武蔵村山市中央1-28-1","lat":35.753214,"lon":139.389952},{"name":"まどか保育園","province":"東京都","city":"武蔵村山市","address":"武蔵村山市本町3-40-3","lat":35.758555,"lon":139.381521},{"name":"つみき保育園","province":"東京都","city":"武蔵村山市","address":"武蔵村山市学園3-12-1","lat":35.747732,"lon":139.404128},{"name":"聖光緑が丘保育園","province":"東京都","city":"武蔵村山市","address":"武蔵村山市緑が丘1610-1","lat":35.745404,"lon":139.407967},{"name":"れんげ武蔵保育園","province":"東京都","city":"武蔵村山市","address":"武蔵村山市緑が丘1732-1","lat":35.742057,"lon":139.407903},{"name":"みらい保育園","province":"東京都","city":"武蔵村山市","address":"武蔵村山市大南1-8-1","lat":35.742493,"lon":139.394118},{"name":"育成会ひまわり保育園","province":"東京都","city":"武蔵村山市","address":"武蔵村山市大南3-94-1","lat":35.735266,"lon":139.403509},{"name":"育成会めぐみ保育園","province":"東京都","city":"武蔵村山市","address":"武蔵村山市大南1-33-3","lat":35.741552,"lon":139.39794},{"name":"聖光三ツ藤保育園","province":"東京都","city":"武蔵村山市","address":"武蔵村山市三ツ藤3-36-10","lat":35.754838,"lon":139.37172},{"name":"つむぎ保育園","province":"東京都","city":"武蔵村山市","address":"武蔵村山市伊奈平5-66","lat":35.738599,"lon":139.374179},{"name":"きし保育園","province":"東京都","city":"武蔵村山市","address":"武蔵村山市岸1-5-11","lat":35.761565,"lon":139.36672},{"name":"村山中藤保育園「白樺」","province":"東京都","city":"武蔵村山市","address":"武蔵村山市残堀4-90-1","lat":35.749583,"lon":139.367356}]}