{"keyword":"収蔵","data":[{"name":"学園配水所","province":"東京都","city":"武蔵村山市","address":"東京都武蔵村山市学園1-5-7","lat":35.7499647,"lon":139.390535},{"name":"中藤配水所","province":"東京都","city":"武蔵村山市","address":"東京都武蔵村山市中藤2-1-3","lat":35.7588747,"lon":139.393662},{"name":"市立中原公園","province":"東京都","city":"武蔵村山市","address":"東京都武蔵村山市中原2-21-4","lat":35.7568554,"lon":139.363293},{"name":"中藤配水所","province":"東京都","city":"武蔵村山市","address":"東京都武蔵村山市中藤2丁目1-3","lat":35.7588829,"lon":139.3936565},{"name":"東京経済大学運動場","province":"東京都","city":"武蔵村山市","address":"東京都武蔵村山市学園5丁目22-1","lat":35.74428181,"lon":139.39444868},{"name":"＊?公民館","province":"東京都","city":"武蔵村山市","address":"武蔵村山市大南2-78-1","lat":35.739893,"lon":139.401866},{"name":"＊?公民館中久保分館","province":"東京都","city":"武蔵村山市","address":"武蔵村山市本町2-77-1","lat":35.754543,"lon":139.382963},{"name":"学園配水所","province":"東京都","city":"武蔵村山市","address":"東京都武蔵村山市学園1-5-7","lat":35.7499647,"lon":139.390535},{"name":"中藤配水所","province":"東京都","city":"武蔵村山市","address":"東京都武蔵村山市中藤2-1-3","lat":35.7588747,"lon":139.393662},{"name":"市立中原公園","province":"東京都","city":"武蔵村山市","address":"東京都武蔵村山市中原2-21-4","lat":35.7568554,"lon":139.363293},{"name":"中藤配水所","province":"東京都","city":"武蔵村山市","address":"東京都武蔵村山市中藤2丁目1-3","lat":35.7588829,"lon":139.3936565},{"name":"東京経済大学運動場","province":"東京都","city":"武蔵村山市","address":"東京都武蔵村山市学園5丁目22-1","lat":35.74428181,"lon":139.39444868},{"name":"＊?公民館","province":"東京都","city":"武蔵村山市","address":"武蔵村山市大南2-78-1","lat":35.739893,"lon":139.401866},{"name":"＊?公民館中久保分館","province":"東京都","city":"武蔵村山市","address":"武蔵村山市本町2-77-1","lat":35.754543,"lon":139.382963},{"name":"学園配水所","province":"東京都","city":"武蔵村山市","address":"東京都武蔵村山市学園1-5-7","lat":35.7499647,"lon":139.390535},{"name":"中藤配水所","province":"東京都","city":"武蔵村山市","address":"東京都武蔵村山市中藤2-1-3","lat":35.7588747,"lon":139.393662},{"name":"市立中原公園","province":"東京都","city":"武蔵村山市","address":"東京都武蔵村山市中原2-21-4","lat":35.7568554,"lon":139.363293},{"name":"中藤配水所","province":"東京都","city":"武蔵村山市","address":"東京都武蔵村山市中藤2丁目1-3","lat":35.7588829,"lon":139.3936565},{"name":"東京経済大学運動場","province":"東京都","city":"武蔵村山市","address":"東京都武蔵村山市学園5丁目22-1","lat":35.74428181,"lon":139.39444868},{"name":"＊?公民館","province":"東京都","city":"武蔵村山市","address":"武蔵村山市大南2-78-1","lat":35.739893,"lon":139.401866},{"name":"＊?公民館中久保分館","province":"東京都","city":"武蔵村山市","address":"武蔵村山市本町2-77-1","lat":35.754543,"lon":139.382963},{"name":"学園配水所","province":"東京都","city":"武蔵村山市","address":"東京都武蔵村山市学園1-5-7","lat":35.7499647,"lon":139.390535},{"name":"中藤配水所","province":"東京都","city":"武蔵村山市","address":"東京都武蔵村山市中藤2-1-3","lat":35.7588747,"lon":139.393662},{"name":"市立中原公園","province":"東京都","city":"武蔵村山市","address":"東京都武蔵村山市中原2-21-4","lat":35.7568554,"lon":139.363293},{"name":"東京経済大学運動場","province":"東京都","city":"武蔵村山市","address":"東京都武蔵村山市学園5丁目22-1","lat":35.74428181,"lon":139.39444868},{"name":"＊?公民館","province":"東京都","city":"武蔵村山市","address":"武蔵村山市大南2-78-1","lat":35.739893,"lon":139.401866},{"name":"＊?公民館中久保分館","province":"東京都","city":"武蔵村山市","address":"武蔵村山市本町2-77-1","lat":35.754543,"lon":139.382963},{"name":"学園配水所","province":"東京都","city":"武蔵村山市","address":"東京都武蔵村山市学園1-5-7","lat":35.7499647,"lon":139.390535},{"name":"中藤配水所","province":"東京都","city":"武蔵村山市","address":"東京都武蔵村山市中藤2-1-3","lat":35.7588747,"lon":139.393662},{"name":"市立中原公園","province":"東京都","city":"武蔵村山市","address":"東京都武蔵村山市中原2-21-4","lat":35.7568554,"lon":139.363293},{"name":"＊?公民館","province":"東京都","city":"武蔵村山市","address":"武蔵村山市大南2-78-1","lat":35.739893,"lon":139.401866},{"name":"＊?公民館中久保分館","province":"東京都","city":"武蔵村山市","address":"武蔵村山市本町2-77-1","lat":35.754543,"lon":139.382963},{"name":"学園配水所","province":"東京都","city":"武蔵村山市","address":"東京都武蔵村山市学園1-5-7","lat":35.7499647,"lon":139.390535},{"name":"中藤配水所","province":"東京都","city":"武蔵村山市","address":"東京都武蔵村山市中藤2-1-3","lat":35.7588747,"lon":139.393662},{"name":"市立中原公園","province":"東京都","city":"武蔵村山市","address":"東京都武蔵村山市中原2-21-4","lat":35.7568554,"lon":139.363293},{"name":"＊?公民館","province":"東京都","city":"武蔵村山市","address":"武蔵村山市大南2-78-1","lat":35.739893,"lon":139.401866},{"name":"＊?公民館中久保分館","province":"東京都","city":"武蔵村山市","address":"武蔵村山市本町2-77-1","lat":35.754543,"lon":139.382963},{"name":"学園配水所","province":"東京都","city":"武蔵村山市","address":"東京都武蔵村山市学園1-5-7","lat":35.7499647,"lon":139.390535},{"name":"中藤配水所","province":"東京都","city":"武蔵村山市","address":"東京都武蔵村山市中藤2-1-3","lat":35.7588747,"lon":139.393662},{"name":"市立中原公園","province":"東京都","city":"武蔵村山市","address":"東京都武蔵村山市中原2-21-4","lat":35.7568554,"lon":139.363293},{"name":"＊?公民館","province":"東京都","city":"武蔵村山市","address":"武蔵村山市大南2-78-1","lat":35.739893,"lon":139.401866},{"name":"＊?公民館中久保分館","province":"東京都","city":"武蔵村山市","address":"武蔵村山市本町2-77-1","lat":35.754543,"lon":139.382963},{"name":"学園配水所","province":"東京都","city":"武蔵村山市","address":"東京都武蔵村山市学園1-5-7","lat":35.7499647,"lon":139.390535},{"name":"中藤配水所","province":"東京都","city":"武蔵村山市","address":"東京都武蔵村山市中藤2-1-3","lat":35.7588747,"lon":139.393662},{"name":"市立中原公園","province":"東京都","city":"武蔵村山市","address":"東京都武蔵村山市中原2-21-4","lat":35.7568554,"lon":139.363293},{"name":"＊?公民館","province":"東京都","city":"武蔵村山市","address":"武蔵村山市大南2-78-1","lat":35.739893,"lon":139.401866},{"name":"＊?公民館中久保分館","province":"東京都","city":"武蔵村山市","address":"武蔵村山市本町2-77-1","lat":35.754543,"lon":139.382963},{"name":"学園配水所","province":"東京都","city":"武蔵村山市","address":"東京都武蔵村山市学園1-5-7","lat":35.7499647,"lon":139.390535},{"name":"中藤配水所","province":"東京都","city":"武蔵村山市","address":"東京都武蔵村山市中藤2-1-3","lat":35.7588747,"lon":139.393662},{"name":"市立中原公園","province":"東京都","city":"武蔵村山市","address":"東京都武蔵村山市中原2-21-4","lat":35.7568554,"lon":139.363293},{"name":"＊?公民館","province":"東京都","city":"武蔵村山市","address":"武蔵村山市大南2-78-1","lat":35.739893,"lon":139.401866},{"name":"＊?公民館中久保分館","province":"東京都","city":"武蔵村山市","address":"武蔵村山市本町2-77-1","lat":35.754543,"lon":139.382963},{"name":"学園配水所","province":"東京都","city":"武蔵村山市","address":"東京都武蔵村山市学園1-5-7","lat":35.7499647,"lon":139.390535},{"name":"中藤配水所","province":"東京都","city":"武蔵村山市","address":"東京都武蔵村山市中藤2-1-3","lat":35.7588747,"lon":139.393662},{"name":"市立中原公園","province":"東京都","city":"武蔵村山市","address":"東京都武蔵村山市中原2-21-4","lat":35.7568554,"lon":139.363293},{"name":"＊?公民館","province":"東京都","city":"武蔵村山市","address":"武蔵村山市大南2-78-1","lat":35.739893,"lon":139.401866},{"name":"＊?公民館中久保分館","province":"東京都","city":"武蔵村山市","address":"武蔵村山市本町2-77-1","lat":35.754543,"lon":139.382963},{"name":"学園配水所","province":"東京都","city":"武蔵村山市","address":"東京都武蔵村山市学園1-5-7","lat":35.7499647,"lon":139.390535},{"name":"中藤配水所","province":"東京都","city":"武蔵村山市","address":"東京都武蔵村山市中藤2-1-3","lat":35.7588747,"lon":139.393662},{"name":"市立中原公園","province":"東京都","city":"武蔵村山市","address":"東京都武蔵村山市中原2-21-4","lat":35.7568554,"lon":139.363293},{"name":"＊?公民館","province":"東京都","city":"武蔵村山市","address":"武蔵村山市大南2-78-1","lat":35.739893,"lon":139.401866},{"name":"＊?公民館中久保分館","province":"東京都","city":"武蔵村山市","address":"武蔵村山市本町2-77-1","lat":35.754543,"lon":139.382963},{"name":"学園配水所","province":"東京都","city":"武蔵村山市","address":"東京都武蔵村山市学園1-5-7","lat":35.7499647,"lon":139.390535},{"name":"中藤配水所","province":"東京都","city":"武蔵村山市","address":"東京都武蔵村山市中藤2-1-3","lat":35.7588747,"lon":139.393662},{"name":"市立中原公園","province":"東京都","city":"武蔵村山市","address":"東京都武蔵村山市中原2-21-4","lat":35.7568554,"lon":139.363293},{"name":"＊?公民館","province":"東京都","city":"武蔵村山市","address":"武蔵村山市大南2-78-1","lat":35.739893,"lon":139.401866},{"name":"＊?公民館中久保分館","province":"東京都","city":"武蔵村山市","address":"武蔵村山市本町2-77-1","lat":35.754543,"lon":139.382963},{"name":"学園配水所","province":"東京都","city":"武蔵村山市","address":"東京都武蔵村山市学園1-5-7","lat":35.7499647,"lon":139.390535},{"name":"中藤配水所","province":"東京都","city":"武蔵村山市","address":"東京都武蔵村山市中藤2-1-3","lat":35.7588747,"lon":139.393662},{"name":"市立中原公園","province":"東京都","city":"武蔵村山市","address":"東京都武蔵村山市中原2-21-4","lat":35.7568554,"lon":139.363293},{"name":"＊?公民館","province":"東京都","city":"武蔵村山市","address":"武蔵村山市大南2-78-1","lat":35.739893,"lon":139.401866},{"name":"＊?公民館中久保分館","province":"東京都","city":"武蔵村山市","address":"武蔵村山市本町2-77-1","lat":35.754543,"lon":139.382963},{"name":"学園配水所","province":"東京都","city":"武蔵村山市","address":"東京都武蔵村山市学園1-5-7","lat":35.7499647,"lon":139.390535},{"name":"中藤配水所","province":"東京都","city":"武蔵村山市","address":"東京都武蔵村山市中藤2-1-3","lat":35.7588747,"lon":139.393662},{"name":"市立中原公園","province":"東京都","city":"武蔵村山市","address":"東京都武蔵村山市中原2-21-4","lat":35.7568554,"lon":139.363293},{"name":"＊?公民館","province":"東京都","city":"武蔵村山市","address":"武蔵村山市大南2-78-1","lat":35.739893,"lon":139.401866},{"name":"＊?公民館中久保分館","province":"東京都","city":"武蔵村山市","address":"武蔵村山市本町2-77-1","lat":35.754543,"lon":139.382963},{"name":"学園配水所","province":"東京都","city":"武蔵村山市","address":"東京都武蔵村山市学園1-5-7","lat":35.7499647,"lon":139.390535},{"name":"中藤配水所","province":"東京都","city":"武蔵村山市","address":"東京都武蔵村山市中藤2-1-3","lat":35.7588747,"lon":139.393662},{"name":"市立中原公園","province":"東京都","city":"武蔵村山市","address":"東京都武蔵村山市中原2-21-4","lat":35.7568554,"lon":139.363293},{"name":"＊?公民館","province":"東京都","city":"武蔵村山市","address":"武蔵村山市大南2-78-1","lat":35.739893,"lon":139.401866},{"name":"＊?公民館中久保分館","province":"東京都","city":"武蔵村山市","address":"武蔵村山市本町2-77-1","lat":35.754543,"lon":139.382963},{"name":"学園配水所","province":"東京都","city":"武蔵村山市","address":"東京都武蔵村山市学園1-5-7","lat":35.7499647,"lon":139.390535},{"name":"中藤配水所","province":"東京都","city":"武蔵村山市","address":"東京都武蔵村山市中藤2-1-3","lat":35.7588747,"lon":139.393662},{"name":"市立中原公園","province":"東京都","city":"武蔵村山市","address":"東京都武蔵村山市中原2-21-4","lat":35.7568554,"lon":139.363293},{"name":"＊?公民館","province":"東京都","city":"武蔵村山市","address":"武蔵村山市大南2-78-1","lat":35.739893,"lon":139.401866},{"name":"＊?公民館中久保分館","province":"東京都","city":"武蔵村山市","address":"武蔵村山市本町2-77-1","lat":35.754543,"lon":139.382963},{"name":"学園配水所","province":"東京都","city":"武蔵村山市","address":"東京都武蔵村山市学園1-5-7","lat":35.7499647,"lon":139.390535},{"name":"中藤配水所","province":"東京都","city":"武蔵村山市","address":"東京都武蔵村山市中藤2-1-3","lat":35.7588747,"lon":139.393662},{"name":"市立中原公園","province":"東京都","city":"武蔵村山市","address":"東京都武蔵村山市中原2-21-4","lat":35.7568554,"lon":139.363293},{"name":"＊?公民館","province":"東京都","city":"武蔵村山市","address":"武蔵村山市大南2-78-1","lat":35.739893,"lon":139.401866},{"name":"＊?公民館中久保分館","province":"東京都","city":"武蔵村山市","address":"武蔵村山市本町2-77-1","lat":35.754543,"lon":139.382963},{"name":"学園配水所","province":"東京都","city":"武蔵村山市","address":"東京都武蔵村山市学園1-5-7","lat":35.7499647,"lon":139.390535},{"name":"中藤配水所","province":"東京都","city":"武蔵村山市","address":"東京都武蔵村山市中藤2-1-3","lat":35.7588747,"lon":139.393662},{"name":"市立中原公園","province":"東京都","city":"武蔵村山市","address":"東京都武蔵村山市中原2-21-4","lat":35.7568554,"lon":139.363293},{"name":"＊?公民館","province":"東京都","city":"武蔵村山市","address":"武蔵村山市大南2-78-1","lat":35.739893,"lon":139.401866},{"name":"＊?公民館中久保分館","province":"東京都","city":"武蔵村山市","address":"武蔵村山市本町2-77-1","lat":35.754543,"lon":139.382963},{"name":"学園配水所","province":"東京都","city":"武蔵村山市","address":"東京都武蔵村山市学園1-5-7","lat":35.7499647,"lon":139.390535},{"name":"中藤配水所","province":"東京都","city":"武蔵村山市","address":"東京都武蔵村山市中藤2-1-3","lat":35.7588747,"lon":139.393662},{"name":"市立中原公園","province":"東京都","city":"武蔵村山市","address":"東京都武蔵村山市中原2-21-4","lat":35.7568554,"lon":139.363293},{"name":"＊?公民館","province":"東京都","city":"武蔵村山市","address":"武蔵村山市大南2-78-1","lat":35.739893,"lon":139.401866},{"name":"＊?公民館中久保分館","province":"東京都","city":"武蔵村山市","address":"武蔵村山市本町2-77-1","lat":35.754543,"lon":139.382963},{"name":"学園配水所","province":"東京都","city":"武蔵村山市","address":"東京都武蔵村山市学園1-5-7","lat":35.7499647,"lon":139.390535},{"name":"中藤配水所","province":"東京都","city":"武蔵村山市","address":"東京都武蔵村山市中藤2-1-3","lat":35.7588747,"lon":139.393662},{"name":"市立中原公園","province":"東京都","city":"武蔵村山市","address":"東京都武蔵村山市中原2-21-4","lat":35.7568554,"lon":139.363293},{"name":"＊?公民館","province":"東京都","city":"武蔵村山市","address":"武蔵村山市大南2-78-1","lat":35.739893,"lon":139.401866},{"name":"＊?公民館中久保分館","province":"東京都","city":"武蔵村山市","address":"武蔵村山市本町2-77-1","lat":35.754543,"lon":139.382963},{"name":"学園配水所","province":"東京都","city":"武蔵村山市","address":"東京都武蔵村山市学園1-5-7","lat":35.7499647,"lon":139.390535},{"name":"中藤配水所","province":"東京都","city":"武蔵村山市","address":"東京都武蔵村山市中藤2-1-3","lat":35.7588747,"lon":139.393662},{"name":"市立中原公園","province":"東京都","city":"武蔵村山市","address":"東京都武蔵村山市中原2-21-4","lat":35.7568554,"lon":139.363293},{"name":"＊?公民館","province":"東京都","city":"武蔵村山市","address":"武蔵村山市大南2-78-1","lat":35.739893,"lon":139.401866},{"name":"＊?公民館中久保分館","province":"東京都","city":"武蔵村山市","address":"武蔵村山市本町2-77-1","lat":35.754543,"lon":139.382963},{"name":"学園配水所","province":"東京都","city":"武蔵村山市","address":"東京都武蔵村山市学園1-5-7","lat":35.7499647,"lon":139.390535},{"name":"中藤配水所","province":"東京都","city":"武蔵村山市","address":"東京都武蔵村山市中藤2-1-3","lat":35.7588747,"lon":139.393662},{"name":"市立中原公園","province":"東京都","city":"武蔵村山市","address":"東京都武蔵村山市中原2-21-4","lat":35.7568554,"lon":139.363293},{"name":"＊?公民館","province":"東京都","city":"武蔵村山市","address":"武蔵村山市大南2-78-1","lat":35.739893,"lon":139.401866},{"name":"＊?公民館中久保分館","province":"東京都","city":"武蔵村山市","address":"武蔵村山市本町2-77-1","lat":35.754543,"lon":139.382963},{"name":"学園配水所","province":"東京都","city":"武蔵村山市","address":"東京都武蔵村山市学園1-5-7","lat":35.7499647,"lon":139.390535},{"name":"中藤配水所","province":"東京都","city":"武蔵村山市","address":"東京都武蔵村山市中藤2-1-3","lat":35.7588747,"lon":139.393662},{"name":"市立中原公園","province":"東京都","city":"武蔵村山市","address":"東京都武蔵村山市中原2-21-4","lat":35.7568554,"lon":139.363293},{"name":"＊?公民館","province":"東京都","city":"武蔵村山市","address":"武蔵村山市大南2-78-1","lat":35.739893,"lon":139.401866},{"name":"＊?公民館中久保分館","province":"東京都","city":"武蔵村山市","address":"武蔵村山市本町2-77-1","lat":35.754543,"lon":139.382963},{"name":"学園配水所","province":"東京都","city":"武蔵村山市","address":"東京都武蔵村山市学園1-5-7","lat":35.7499647,"lon":139.390535},{"name":"中藤配水所","province":"東京都","city":"武蔵村山市","address":"東京都武蔵村山市中藤2-1-3","lat":35.7588747,"lon":139.393662},{"name":"市立中原公園","province":"東京都","city":"武蔵村山市","address":"東京都武蔵村山市中原2-21-4","lat":35.7568554,"lon":139.363293},{"name":"＊?公民館","province":"東京都","city":"武蔵村山市","address":"武蔵村山市大南2-78-1","lat":35.739893,"lon":139.401866},{"name":"＊?公民館中久保分館","province":"東京都","city":"武蔵村山市","address":"武蔵村山市本町2-77-1","lat":35.754543,"lon":139.382963},{"name":"学園配水所","province":"東京都","city":"武蔵村山市","address":"東京都武蔵村山市学園1-5-7","lat":35.7499647,"lon":139.390535},{"name":"中藤配水所","province":"東京都","city":"武蔵村山市","address":"東京都武蔵村山市中藤2-1-3","lat":35.7588747,"lon":139.393662},{"name":"市立中原公園","province":"東京都","city":"武蔵村山市","address":"東京都武蔵村山市中原2-21-4","lat":35.7568554,"lon":139.363293},{"name":"＊?公民館","province":"東京都","city":"武蔵村山市","address":"武蔵村山市大南2-78-1","lat":35.739893,"lon":139.401866},{"name":"＊?公民館中久保分館","province":"東京都","city":"武蔵村山市","address":"武蔵村山市本町2-77-1","lat":35.754543,"lon":139.382963},{"name":"学園配水所","province":"東京都","city":"武蔵村山市","address":"東京都武蔵村山市学園1-5-7","lat":35.7499647,"lon":139.390535},{"name":"中藤配水所","province":"東京都","city":"武蔵村山市","address":"東京都武蔵村山市中藤2-1-3","lat":35.7588747,"lon":139.393662},{"name":"市立中原公園","province":"東京都","city":"武蔵村山市","address":"東京都武蔵村山市中原2-21-4","lat":35.7568554,"lon":139.363293},{"name":"＊?公民館","province":"東京都","city":"武蔵村山市","address":"武蔵村山市大南2-78-1","lat":35.739893,"lon":139.401866},{"name":"＊?公民館中久保分館","province":"東京都","city":"武蔵村山市","address":"武蔵村山市本町2-77-1","lat":35.754543,"lon":139.382963},{"name":"学園配水所","province":"東京都","city":"武蔵村山市","address":"東京都武蔵村山市学園1-5-7","lat":35.7499647,"lon":139.390535},{"name":"中藤配水所","province":"東京都","city":"武蔵村山市","address":"東京都武蔵村山市中藤2-1-3","lat":35.7588747,"lon":139.393662},{"name":"市立中原公園","province":"東京都","city":"武蔵村山市","address":"東京都武蔵村山市中原2-21-4","lat":35.7568554,"lon":139.363293},{"name":"＊?公民館","province":"東京都","city":"武蔵村山市","address":"武蔵村山市大南2-78-1","lat":35.739893,"lon":139.401866},{"name":"＊?公民館中久保分館","province":"東京都","city":"武蔵村山市","address":"武蔵村山市本町2-77-1","lat":35.754543,"lon":139.382963},{"name":"学園配水所","province":"東京都","city":"武蔵村山市","address":"東京都武蔵村山市学園1-5-7","lat":35.7499647,"lon":139.390535},{"name":"中藤配水所","province":"東京都","city":"武蔵村山市","address":"東京都武蔵村山市中藤2-1-3","lat":35.7588747,"lon":139.393662},{"name":"市立中原公園","province":"東京都","city":"武蔵村山市","address":"東京都武蔵村山市中原2-21-4","lat":35.7568554,"lon":139.363293},{"name":"＊?公民館","province":"東京都","city":"武蔵村山市","address":"武蔵村山市大南2-78-1","lat":35.739893,"lon":139.401866},{"name":"＊?公民館中久保分館","province":"東京都","city":"武蔵村山市","address":"武蔵村山市本町2-77-1","lat":35.754543,"lon":139.382963},{"name":"学園配水所","province":"東京都","city":"武蔵村山市","address":"東京都武蔵村山市学園1-5-7","lat":35.7499647,"lon":139.390535},{"name":"中藤配水所","province":"東京都","city":"武蔵村山市","address":"東京都武蔵村山市中藤2-1-3","lat":35.7588747,"lon":139.393662},{"name":"市立中原公園","province":"東京都","city":"武蔵村山市","address":"東京都武蔵村山市中原2-21-4","lat":35.7568554,"lon":139.363293},{"name":"＊?公民館","province":"東京都","city":"武蔵村山市","address":"武蔵村山市大南2-78-1","lat":35.739893,"lon":139.401866},{"name":"＊?公民館中久保分館","province":"東京都","city":"武蔵村山市","address":"武蔵村山市本町2-77-1","lat":35.754543,"lon":139.382963},{"name":"学園配水所","province":"東京都","city":"武蔵村山市","address":"東京都武蔵村山市学園1-5-7","lat":35.7499647,"lon":139.390535},{"name":"中藤配水所","province":"東京都","city":"武蔵村山市","address":"東京都武蔵村山市中藤2-1-3","lat":35.7588747,"lon":139.393662},{"name":"市立中原公園","province":"東京都","city":"武蔵村山市","address":"東京都武蔵村山市中原2-21-4","lat":35.7568554,"lon":139.363293},{"name":"＊?公民館","province":"東京都","city":"武蔵村山市","address":"武蔵村山市大南2-78-1","lat":35.739893,"lon":139.401866},{"name":"＊?公民館中久保分館","province":"東京都","city":"武蔵村山市","address":"武蔵村山市本町2-77-1","lat":35.754543,"lon":139.382963},{"name":"学園配水所","province":"東京都","city":"武蔵村山市","address":"東京都武蔵村山市学園1-5-7","lat":35.7499647,"lon":139.390535},{"name":"中藤配水所","province":"東京都","city":"武蔵村山市","address":"東京都武蔵村山市中藤2-1-3","lat":35.7588747,"lon":139.393662},{"name":"市立中原公園","province":"東京都","city":"武蔵村山市","address":"東京都武蔵村山市中原2-21-4","lat":35.7568554,"lon":139.363293},{"name":"＊?公民館","province":"東京都","city":"武蔵村山市","address":"武蔵村山市大南2-78-1","lat":35.739893,"lon":139.401866},{"name":"＊?公民館中久保分館","province":"東京都","city":"武蔵村山市","address":"武蔵村山市本町2-77-1","lat":35.754543,"lon":139.382963},{"name":"学園配水所","province":"東京都","city":"武蔵村山市","address":"東京都武蔵村山市学園1-5-7","lat":35.7499647,"lon":139.390535},{"name":"中藤配水所","province":"東京都","city":"武蔵村山市","address":"東京都武蔵村山市中藤2-1-3","lat":35.7588747,"lon":139.393662},{"name":"市立中原公園","province":"東京都","city":"武蔵村山市","address":"東京都武蔵村山市中原2-21-4","lat":35.7568554,"lon":139.363293},{"name":"＊?公民館","province":"東京都","city":"武蔵村山市","address":"武蔵村山市大南2-78-1","lat":35.739893,"lon":139.401866},{"name":"＊?公民館中久保分館","province":"東京都","city":"武蔵村山市","address":"武蔵村山市本町2-77-1","lat":35.754543,"lon":139.382963},{"name":"学園配水所","province":"東京都","city":"武蔵村山市","address":"東京都武蔵村山市学園1-5-7","lat":35.7499647,"lon":139.390535},{"name":"中藤配水所","province":"東京都","city":"武蔵村山市","address":"東京都武蔵村山市中藤2-1-3","lat":35.7588747,"lon":139.393662},{"name":"市立中原公園","province":"東京都","city":"武蔵村山市","address":"東京都武蔵村山市中原2-21-4","lat":35.7568554,"lon":139.363293},{"name":"＊?公民館","province":"東京都","city":"武蔵村山市","address":"武蔵村山市大南2-78-1","lat":35.739893,"lon":139.401866},{"name":"＊?公民館中久保分館","province":"東京都","city":"武蔵村山市","address":"武蔵村山市本町2-77-1","lat":35.754543,"lon":139.382963},{"name":"学園配水所","province":"東京都","city":"武蔵村山市","address":"東京都武蔵村山市学園1-5-7","lat":35.7499647,"lon":139.390535},{"name":"中藤配水所","province":"東京都","city":"武蔵村山市","address":"東京都武蔵村山市中藤2-1-3","lat":35.7588747,"lon":139.393662},{"name":"市立中原公園","province":"東京都","city":"武蔵村山市","address":"東京都武蔵村山市中原2-21-4","lat":35.7568554,"lon":139.363293},{"name":"＊?公民館","province":"東京都","city":"武蔵村山市","address":"武蔵村山市大南2-78-1","lat":35.739893,"lon":139.401866},{"name":"＊?公民館中久保分館","province":"東京都","city":"武蔵村山市","address":"武蔵村山市本町2-77-1","lat":35.754543,"lon":139.382963},{"name":"学園配水所","province":"東京都","city":"武蔵村山市","address":"東京都武蔵村山市学園1-5-7","lat":35.7499647,"lon":139.390535},{"name":"中藤配水所","province":"東京都","city":"武蔵村山市","address":"東京都武蔵村山市中藤2-1-3","lat":35.7588747,"lon":139.393662},{"name":"市立中原公園","province":"東京都","city":"武蔵村山市","address":"東京都武蔵村山市中原2-21-4","lat":35.7568554,"lon":139.363293},{"name":"＊?公民館","province":"東京都","city":"武蔵村山市","address":"武蔵村山市大南2-78-1","lat":35.739893,"lon":139.401866},{"name":"＊?公民館中久保分館","province":"東京都","city":"武蔵村山市","address":"武蔵村山市本町2-77-1","lat":35.754543,"lon":139.382963},{"name":"学園配水所","province":"東京都","city":"武蔵村山市","address":"東京都武蔵村山市学園1-5-7","lat":35.7499647,"lon":139.390535},{"name":"中藤配水所","province":"東京都","city":"武蔵村山市","address":"東京都武蔵村山市中藤2-1-3","lat":35.7588747,"lon":139.393662},{"name":"市立中原公園","province":"東京都","city":"武蔵村山市","address":"東京都武蔵村山市中原2-21-4","lat":35.7568554,"lon":139.363293},{"name":"＊?公民館","province":"東京都","city":"武蔵村山市","address":"武蔵村山市大南2-78-1","lat":35.739893,"lon":139.401866},{"name":"＊?公民館中久保分館","province":"東京都","city":"武蔵村山市","address":"武蔵村山市本町2-77-1","lat":35.754543,"lon":139.382963},{"name":"学園配水所","province":"東京都","city":"武蔵村山市","address":"東京都武蔵村山市学園1-5-7","lat":35.7499647,"lon":139.390535},{"name":"中藤配水所","province":"東京都","city":"武蔵村山市","address":"東京都武蔵村山市中藤2-1-3","lat":35.7588747,"lon":139.393662},{"name":"市立中原公園","province":"東京都","city":"武蔵村山市","address":"東京都武蔵村山市中原2-21-4","lat":35.7568554,"lon":139.363293},{"name":"＊?公民館","province":"東京都","city":"武蔵村山市","address":"武蔵村山市大南2-78-1","lat":35.739893,"lon":139.401866},{"name":"＊?公民館中久保分館","province":"東京都","city":"武蔵村山市","address":"武蔵村山市本町2-77-1","lat":35.754543,"lon":139.382963},{"name":"学園配水所","province":"東京都","city":"武蔵村山市","address":"東京都武蔵村山市学園1-5-7","lat":35.7499647,"lon":139.390535},{"name":"中藤配水所","province":"東京都","city":"武蔵村山市","address":"東京都武蔵村山市中藤2-1-3","lat":35.7588747,"lon":139.393662},{"name":"市立中原公園","province":"東京都","city":"武蔵村山市","address":"東京都武蔵村山市中原2-21-4","lat":35.7568554,"lon":139.363293},{"name":"＊?公民館","province":"東京都","city":"武蔵村山市","address":"武蔵村山市大南2-78-1","lat":35.739893,"lon":139.401866},{"name":"＊?公民館中久保分館","province":"東京都","city":"武蔵村山市","address":"武蔵村山市本町2-77-1","lat":35.754543,"lon":139.382963},{"name":"学園配水所","province":"東京都","city":"武蔵村山市","address":"東京都武蔵村山市学園1-5-7","lat":35.7499647,"lon":139.390535},{"name":"中藤配水所","province":"東京都","city":"武蔵村山市","address":"東京都武蔵村山市中藤2-1-3","lat":35.7588747,"lon":139.393662},{"name":"市立中原公園","province":"東京都","city":"武蔵村山市","address":"東京都武蔵村山市中原2-21-4","lat":35.7568554,"lon":139.363293},{"name":"＊?公民館","province":"東京都","city":"武蔵村山市","address":"武蔵村山市大南2-78-1","lat":35.739893,"lon":139.401866},{"name":"＊?公民館中久保分館","province":"東京都","city":"武蔵村山市","address":"武蔵村山市本町2-77-1","lat":35.754543,"lon":139.382963},{"name":"学園配水所","province":"東京都","city":"武蔵村山市","address":"東京都武蔵村山市学園1-5-7","lat":35.7499647,"lon":139.390535},{"name":"中藤配水所","province":"東京都","city":"武蔵村山市","address":"東京都武蔵村山市中藤2-1-3","lat":35.7588747,"lon":139.393662},{"name":"市立中原公園","province":"東京都","city":"武蔵村山市","address":"東京都武蔵村山市中原2-21-4","lat":35.7568554,"lon":139.363293},{"name":"＊?公民館","province":"東京都","city":"武蔵村山市","address":"武蔵村山市大南2-78-1","lat":35.739893,"lon":139.401866},{"name":"＊?公民館中久保分館","province":"東京都","city":"武蔵村山市","address":"武蔵村山市本町2-77-1","lat":35.754543,"lon":139.382963},{"name":"学園配水所","province":"東京都","city":"武蔵村山市","address":"東京都武蔵村山市学園1-5-7","lat":35.7499647,"lon":139.390535},{"name":"中藤配水所","province":"東京都","city":"武蔵村山市","address":"東京都武蔵村山市中藤2-1-3","lat":35.7588747,"lon":139.393662},{"name":"市立中原公園","province":"東京都","city":"武蔵村山市","address":"東京都武蔵村山市中原2-21-4","lat":35.7568554,"lon":139.363293},{"name":"＊?公民館","province":"東京都","city":"武蔵村山市","address":"武蔵村山市大南2-78-1","lat":35.739893,"lon":139.401866},{"name":"＊?公民館中久保分館","province":"東京都","city":"武蔵村山市","address":"武蔵村山市本町2-77-1","lat":35.754543,"lon":139.382963},{"name":"学園配水所","province":"東京都","city":"武蔵村山市","address":"東京都武蔵村山市学園1-5-7","lat":35.7499647,"lon":139.390535},{"name":"中藤配水所","province":"東京都","city":"武蔵村山市","address":"東京都武蔵村山市中藤2-1-3","lat":35.7588747,"lon":139.393662},{"name":"市立中原公園","province":"東京都","city":"武蔵村山市","address":"東京都武蔵村山市中原2-21-4","lat":35.7568554,"lon":139.363293},{"name":"＊?公民館","province":"東京都","city":"武蔵村山市","address":"武蔵村山市大南2-78-1","lat":35.739893,"lon":139.401866},{"name":"＊?公民館中久保分館","province":"東京都","city":"武蔵村山市","address":"武蔵村山市本町2-77-1","lat":35.754543,"lon":139.382963},{"name":"学園配水所","province":"東京都","city":"武蔵村山市","address":"東京都武蔵村山市学園1-5-7","lat":35.7499647,"lon":139.390535},{"name":"中藤配水所","province":"東京都","city":"武蔵村山市","address":"東京都武蔵村山市中藤2-1-3","lat":35.7588747,"lon":139.393662},{"name":"市立中原公園","province":"東京都","city":"武蔵村山市","address":"東京都武蔵村山市中原2-21-4","lat":35.7568554,"lon":139.363293},{"name":"＊?公民館","province":"東京都","city":"武蔵村山市","address":"武蔵村山市大南2-78-1","lat":35.739893,"lon":139.401866},{"name":"＊?公民館中久保分館","province":"東京都","city":"武蔵村山市","address":"武蔵村山市本町2-77-1","lat":35.754543,"lon":139.382963},{"name":"学園配水所","province":"東京都","city":"武蔵村山市","address":"東京都武蔵村山市学園1-5-7","lat":35.7499647,"lon":139.390535},{"name":"中藤配水所","province":"東京都","city":"武蔵村山市","address":"東京都武蔵村山市中藤2-1-3","lat":35.7588747,"lon":139.393662},{"name":"市立中原公園","province":"東京都","city":"武蔵村山市","address":"東京都武蔵村山市中原2-21-4","lat":35.7568554,"lon":139.363293},{"name":"＊?公民館","province":"東京都","city":"武蔵村山市","address":"武蔵村山市大南2-78-1","lat":35.739893,"lon":139.401866},{"name":"＊?公民館中久保分館","province":"東京都","city":"武蔵村山市","address":"武蔵村山市本町2-77-1","lat":35.754543,"lon":139.382963},{"name":"学園配水所","province":"東京都","city":"武蔵村山市","address":"東京都武蔵村山市学園1-5-7","lat":35.7499647,"lon":139.390535},{"name":"中藤配水所","province":"東京都","city":"武蔵村山市","address":"東京都武蔵村山市中藤2-1-3","lat":35.7588747,"lon":139.393662},{"name":"市立中原公園","province":"東京都","city":"武蔵村山市","address":"東京都武蔵村山市中原2-21-4","lat":35.7568554,"lon":139.363293},{"name":"＊?公民館","province":"東京都","city":"武蔵村山市","address":"武蔵村山市大南2-78-1","lat":35.739893,"lon":139.401866},{"name":"＊?公民館中久保分館","province":"東京都","city":"武蔵村山市","address":"武蔵村山市本町2-77-1","lat":35.754543,"lon":139.382963}]}