{"keyword":"戸数","data":[{"name":"武蔵村山市社会福祉協議会","province":"東京都","city":"武蔵村山市","address":"武蔵村山市学園4-5-1武蔵村山市民総合センター2階","lat":35.746304,"lon":139.403259},{"name":"武蔵村山市","province":"東京都","city":"武蔵村山市","address":"武蔵村山市本町1-1-1","lat":35.7549058,"lon":139.3874214},{"name":"有限会社 成華園","province":"東京都","city":"武蔵村山市","address":"東京都武蔵村山市学園3丁目61-5","lat":35.74423764,"lon":139.40527261},{"name":"有限会社  アヤノセレモニー","province":"東京都","city":"武蔵村山市","address":"東京都武蔵村山市学園5丁目15-14","lat":35.74475949,"lon":139.39270994},{"name":"合同会社 大南葬祭","province":"東京都","city":"武蔵村山市","address":"東京都武蔵村山市大南5丁目70-1","lat":35.74057152,"lon":139.41082221},{"name":"株式会社 セレモの森","province":"東京都","city":"武蔵村山市","address":"東京都武蔵村山市大南3丁目97-2","lat":35.73523306,"lon":139.402976},{"name":"有限会社 アヴィル 市民葬祭センター","province":"東京都","city":"武蔵村山市","address":"東京都武蔵村山市大南4丁目61-9","lat":35.73485551,"lon":139.41111687},{"name":"株式会社 むらやま葬祭","province":"東京都","city":"武蔵村山市","address":"東京都武蔵村山市大南1丁目2-1","lat":35.74221812,"lon":139.39303223},{"name":"株式会社 トータルプラン","province":"東京都","city":"武蔵村山市","address":"東京都武蔵村山市大南1丁目168-1","lat":35.73481073,"lon":139.39657665},{"name":"武蔵村山市社会福祉協議会","province":"東京都","city":"武蔵村山市","address":"武蔵村山市学園4-5-1武蔵村山市民総合センター2階","lat":35.74613,"lon":139.40326},{"name":"西部地域包括支援センター","province":"東京都","city":"武蔵村山市","address":"武蔵村山市伊奈平6-14-2特別養護老人ホーム伊奈平苑内","lat":35.744324,"lon":139.373657},{"name":"北部地域包括支援センター","province":"東京都","city":"武蔵村山市","address":"武蔵村山市中央2-13-1","lat":35.754345,"lon":139.394852},{"name":"南部地域包括支援センター","province":"東京都","city":"武蔵村山市","address":"武蔵村山市学園4-5-1市民総合センター内","lat":35.746132,"lon":139.403259},{"name":"緑が丘地域包括支援センター","province":"東京都","city":"武蔵村山市","address":"武蔵村山市緑が丘14601103号棟緑が丘高齢者サービスセンター内","lat":35.742924,"lon":139.407913},{"name":"村山団地高齢者みまもり相談室","province":"東京都","city":"武蔵村山市","address":"武蔵村山市緑が丘146045号棟","lat":35.740459,"lon":139.404831},{"name":"武蔵村山市役所健康福祉部高齢福祉課","province":"東京都","city":"武蔵村山市","address":"武蔵村山市学園4-5-1市民総合センター内","lat":35.746132,"lon":139.403259},{"name":"武蔵村山市役所健康福祉部地域福祉課","province":"東京都","city":"武蔵村山市","address":"武蔵村山市本町1-1-1","lat":35.754745,"lon":139.38736},{"name":"武蔵村山市役所総務部福祉総務課","province":"東京都","city":"武蔵村山市","address":"武蔵村山市本町1-1-1","lat":35.754745,"lon":139.38736},{"name":"武蔵村山市消費生活センター","province":"東京都","city":"武蔵村山市","address":"武蔵村山市本町1-1-1","lat":35.754745,"lon":139.38736},{"name":"武蔵村山市役所協働推進部協働推進課","province":"東京都","city":"武蔵村山市","address":"武蔵村山市本町1-1-1","lat":35.754745,"lon":139.38736},{"name":"中藤配水所","province":"東京都","city":"武蔵村山市","address":"東京都武蔵村山市中藤2丁目1-3","lat":35.7588829,"lon":139.3936565},{"name":"東京経済大学運動場","province":"東京都","city":"武蔵村山市","address":"東京都武蔵村山市学園5丁目22-1","lat":35.74428181,"lon":139.39444868},{"name":"武蔵村山市選挙管理委員会","province":"東京都","city":"武蔵村山市","address":"武蔵村山市本町1-1-1","lat":35.754859,"lon":139.38743},{"name":"上水高等学校","province":"東京都","city":"武蔵村山市","address":"東京都武蔵村山市大南4丁目62-1","lat":35.73534715,"lon":139.41235562},{"name":"武蔵村山高等学校","province":"東京都","city":"武蔵村山市","address":"東京都武蔵村山市中原1丁目7-1","lat":35.75687123,"lon":139.36591733},{"name":"武蔵村山市社会福祉協議会","province":"東京都","city":"武蔵村山市","address":"武蔵村山市学園4-5-1武蔵村山市民総合センター2階","lat":35.746304,"lon":139.403259},{"name":"武蔵村山市社会福祉協議会","province":"東京都","city":"武蔵村山市","address":"武蔵村山市学園4-5-1武蔵村山市民総合センター2階","lat":35.74613,"lon":139.40326},{"name":"西部地域包括支援センター","province":"東京都","city":"武蔵村山市","address":"武蔵村山市伊奈平6-14-2特別養護老人ホーム伊奈平苑内","lat":35.744324,"lon":139.373657},{"name":"北部地域包括支援センター","province":"東京都","city":"武蔵村山市","address":"武蔵村山市中央2-13-1","lat":35.754345,"lon":139.394852},{"name":"南部地域包括支援センター","province":"東京都","city":"武蔵村山市","address":"武蔵村山市学園4-5-1市民総合センター内","lat":35.746132,"lon":139.403259},{"name":"緑が丘地域包括支援センター","province":"東京都","city":"武蔵村山市","address":"武蔵村山市緑が丘14601103号棟緑が丘高齢者サービスセンター内","lat":35.742924,"lon":139.407913},{"name":"村山団地高齢者みまもり相談室","province":"東京都","city":"武蔵村山市","address":"武蔵村山市緑が丘146045号棟","lat":35.740459,"lon":139.404831},{"name":"武蔵村山市役所健康福祉部高齢福祉課","province":"東京都","city":"武蔵村山市","address":"武蔵村山市学園4-5-1市民総合センター内","lat":35.746132,"lon":139.403259},{"name":"武蔵村山市役所健康福祉部地域福祉課","province":"東京都","city":"武蔵村山市","address":"武蔵村山市本町1-1-1","lat":35.754745,"lon":139.38736},{"name":"武蔵村山市役所総務部福祉総務課","province":"東京都","city":"武蔵村山市","address":"武蔵村山市本町1-1-1","lat":35.754745,"lon":139.38736},{"name":"武蔵村山市消費生活センター","province":"東京都","city":"武蔵村山市","address":"武蔵村山市本町1-1-1","lat":35.754745,"lon":139.38736},{"name":"武蔵村山市役所協働推進部協働推進課","province":"東京都","city":"武蔵村山市","address":"武蔵村山市本町1-1-1","lat":35.754745,"lon":139.38736},{"name":"中藤配水所","province":"東京都","city":"武蔵村山市","address":"東京都武蔵村山市中藤2丁目1-3","lat":35.7588829,"lon":139.3936565},{"name":"東京経済大学運動場","province":"東京都","city":"武蔵村山市","address":"東京都武蔵村山市学園5丁目22-1","lat":35.74428181,"lon":139.39444868},{"name":"上水高等学校","province":"東京都","city":"武蔵村山市","address":"東京都武蔵村山市大南4丁目62-1","lat":35.73534715,"lon":139.41235562},{"name":"武蔵村山高等学校","province":"東京都","city":"武蔵村山市","address":"東京都武蔵村山市中原1丁目7-1","lat":35.75687123,"lon":139.36591733},{"name":"西部地域包括支援センター","province":"東京都","city":"武蔵村山市","address":"武蔵村山市伊奈平6-14-2特別養護老人ホーム伊奈平苑内","lat":35.744324,"lon":139.373657},{"name":"北部地域包括支援センター","province":"東京都","city":"武蔵村山市","address":"武蔵村山市中央2-13-1","lat":35.754345,"lon":139.394852},{"name":"南部地域包括支援センター","province":"東京都","city":"武蔵村山市","address":"武蔵村山市学園4-5-1市民総合センター内","lat":35.746132,"lon":139.403259},{"name":"緑が丘地域包括支援センター","province":"東京都","city":"武蔵村山市","address":"武蔵村山市緑が丘14601103号棟緑が丘高齢者サービスセンター内","lat":35.742924,"lon":139.407913},{"name":"村山団地高齢者みまもり相談室","province":"東京都","city":"武蔵村山市","address":"武蔵村山市緑が丘146045号棟","lat":35.740459,"lon":139.404831},{"name":"武蔵村山市役所健康福祉部高齢福祉課","province":"東京都","city":"武蔵村山市","address":"武蔵村山市学園4-5-1市民総合センター内","lat":35.746132,"lon":139.403259},{"name":"武蔵村山市役所健康福祉部地域福祉課","province":"東京都","city":"武蔵村山市","address":"武蔵村山市本町1-1-1","lat":35.754745,"lon":139.38736},{"name":"武蔵村山市役所総務部福祉総務課","province":"東京都","city":"武蔵村山市","address":"武蔵村山市本町1-1-1","lat":35.754745,"lon":139.38736},{"name":"武蔵村山市消費生活センター","province":"東京都","city":"武蔵村山市","address":"武蔵村山市本町1-1-1","lat":35.754745,"lon":139.38736},{"name":"武蔵村山市役所協働推進部協働推進課","province":"東京都","city":"武蔵村山市","address":"武蔵村山市本町1-1-1","lat":35.754745,"lon":139.38736},{"name":"上水高等学校","province":"東京都","city":"武蔵村山市","address":"東京都武蔵村山市大南4丁目62-1","lat":35.73534715,"lon":139.41235562},{"name":"武蔵村山高等学校","province":"東京都","city":"武蔵村山市","address":"東京都武蔵村山市中原1丁目7-1","lat":35.75687123,"lon":139.36591733},{"name":"西部地域包括支援センター","province":"東京都","city":"武蔵村山市","address":"武蔵村山市伊奈平6-14-2特別養護老人ホーム伊奈平苑内","lat":35.744324,"lon":139.373657},{"name":"北部地域包括支援センター","province":"東京都","city":"武蔵村山市","address":"武蔵村山市中央2-13-1","lat":35.754345,"lon":139.394852},{"name":"南部地域包括支援センター","province":"東京都","city":"武蔵村山市","address":"武蔵村山市学園4-5-1市民総合センター内","lat":35.746132,"lon":139.403259},{"name":"緑が丘地域包括支援センター","province":"東京都","city":"武蔵村山市","address":"武蔵村山市緑が丘14601103号棟緑が丘高齢者サービスセンター内","lat":35.742924,"lon":139.407913},{"name":"村山団地高齢者みまもり相談室","province":"東京都","city":"武蔵村山市","address":"武蔵村山市緑が丘146045号棟","lat":35.740459,"lon":139.404831},{"name":"武蔵村山市役所健康福祉部高齢福祉課","province":"東京都","city":"武蔵村山市","address":"武蔵村山市学園4-5-1市民総合センター内","lat":35.746132,"lon":139.403259},{"name":"武蔵村山市役所健康福祉部地域福祉課","province":"東京都","city":"武蔵村山市","address":"武蔵村山市本町1-1-1","lat":35.754745,"lon":139.38736},{"name":"武蔵村山市役所総務部福祉総務課","province":"東京都","city":"武蔵村山市","address":"武蔵村山市本町1-1-1","lat":35.754745,"lon":139.38736},{"name":"武蔵村山市消費生活センター","province":"東京都","city":"武蔵村山市","address":"武蔵村山市本町1-1-1","lat":35.754745,"lon":139.38736},{"name":"武蔵村山市役所協働推進部協働推進課","province":"東京都","city":"武蔵村山市","address":"武蔵村山市本町1-1-1","lat":35.754745,"lon":139.38736},{"name":"上水高等学校","province":"東京都","city":"武蔵村山市","address":"東京都武蔵村山市大南4丁目62-1","lat":35.73534715,"lon":139.41235562},{"name":"武蔵村山高等学校","province":"東京都","city":"武蔵村山市","address":"東京都武蔵村山市中原1丁目7-1","lat":35.75687123,"lon":139.36591733},{"name":"西部地域包括支援センター","province":"東京都","city":"武蔵村山市","address":"武蔵村山市伊奈平6-14-2特別養護老人ホーム伊奈平苑内","lat":35.744324,"lon":139.373657},{"name":"北部地域包括支援センター","province":"東京都","city":"武蔵村山市","address":"武蔵村山市中央2-13-1","lat":35.754345,"lon":139.394852},{"name":"南部地域包括支援センター","province":"東京都","city":"武蔵村山市","address":"武蔵村山市学園4-5-1市民総合センター内","lat":35.746132,"lon":139.403259},{"name":"緑が丘地域包括支援センター","province":"東京都","city":"武蔵村山市","address":"武蔵村山市緑が丘14601103号棟緑が丘高齢者サービスセンター内","lat":35.742924,"lon":139.407913},{"name":"村山団地高齢者みまもり相談室","province":"東京都","city":"武蔵村山市","address":"武蔵村山市緑が丘146045号棟","lat":35.740459,"lon":139.404831},{"name":"武蔵村山市役所健康福祉部高齢福祉課","province":"東京都","city":"武蔵村山市","address":"武蔵村山市学園4-5-1市民総合センター内","lat":35.746132,"lon":139.403259},{"name":"武蔵村山市役所健康福祉部地域福祉課","province":"東京都","city":"武蔵村山市","address":"武蔵村山市本町1-1-1","lat":35.754745,"lon":139.38736},{"name":"武蔵村山市役所総務部福祉総務課","province":"東京都","city":"武蔵村山市","address":"武蔵村山市本町1-1-1","lat":35.754745,"lon":139.38736},{"name":"武蔵村山市消費生活センター","province":"東京都","city":"武蔵村山市","address":"武蔵村山市本町1-1-1","lat":35.754745,"lon":139.38736},{"name":"武蔵村山市役所協働推進部協働推進課","province":"東京都","city":"武蔵村山市","address":"武蔵村山市本町1-1-1","lat":35.754745,"lon":139.38736},{"name":"西部地域包括支援センター","province":"東京都","city":"武蔵村山市","address":"武蔵村山市伊奈平6-14-2特別養護老人ホーム伊奈平苑内","lat":35.744324,"lon":139.373657},{"name":"北部地域包括支援センター","province":"東京都","city":"武蔵村山市","address":"武蔵村山市中央2-13-1","lat":35.754345,"lon":139.394852},{"name":"南部地域包括支援センター","province":"東京都","city":"武蔵村山市","address":"武蔵村山市学園4-5-1市民総合センター内","lat":35.746132,"lon":139.403259},{"name":"緑が丘地域包括支援センター","province":"東京都","city":"武蔵村山市","address":"武蔵村山市緑が丘14601103号棟緑が丘高齢者サービスセンター内","lat":35.742924,"lon":139.407913},{"name":"村山団地高齢者みまもり相談室","province":"東京都","city":"武蔵村山市","address":"武蔵村山市緑が丘146045号棟","lat":35.740459,"lon":139.404831},{"name":"武蔵村山市役所健康福祉部高齢福祉課","province":"東京都","city":"武蔵村山市","address":"武蔵村山市学園4-5-1市民総合センター内","lat":35.746132,"lon":139.403259},{"name":"武蔵村山市役所健康福祉部地域福祉課","province":"東京都","city":"武蔵村山市","address":"武蔵村山市本町1-1-1","lat":35.754745,"lon":139.38736},{"name":"武蔵村山市役所総務部福祉総務課","province":"東京都","city":"武蔵村山市","address":"武蔵村山市本町1-1-1","lat":35.754745,"lon":139.38736},{"name":"武蔵村山市消費生活センター","province":"東京都","city":"武蔵村山市","address":"武蔵村山市本町1-1-1","lat":35.754745,"lon":139.38736},{"name":"武蔵村山市役所協働推進部協働推進課","province":"東京都","city":"武蔵村山市","address":"武蔵村山市本町1-1-1","lat":35.754745,"lon":139.38736},{"name":"西部地域包括支援センター","province":"東京都","city":"武蔵村山市","address":"武蔵村山市伊奈平6-14-2特別養護老人ホーム伊奈平苑内","lat":35.744324,"lon":139.373657},{"name":"北部地域包括支援センター","province":"東京都","city":"武蔵村山市","address":"武蔵村山市中央2-13-1","lat":35.754345,"lon":139.394852},{"name":"南部地域包括支援センター","province":"東京都","city":"武蔵村山市","address":"武蔵村山市学園4-5-1市民総合センター内","lat":35.746132,"lon":139.403259},{"name":"緑が丘地域包括支援センター","province":"東京都","city":"武蔵村山市","address":"武蔵村山市緑が丘14601103号棟緑が丘高齢者サービスセンター内","lat":35.742924,"lon":139.407913},{"name":"村山団地高齢者みまもり相談室","province":"東京都","city":"武蔵村山市","address":"武蔵村山市緑が丘146045号棟","lat":35.740459,"lon":139.404831},{"name":"武蔵村山市役所健康福祉部高齢福祉課","province":"東京都","city":"武蔵村山市","address":"武蔵村山市学園4-5-1市民総合センター内","lat":35.746132,"lon":139.403259},{"name":"武蔵村山市役所健康福祉部地域福祉課","province":"東京都","city":"武蔵村山市","address":"武蔵村山市本町1-1-1","lat":35.754745,"lon":139.38736},{"name":"武蔵村山市役所総務部福祉総務課","province":"東京都","city":"武蔵村山市","address":"武蔵村山市本町1-1-1","lat":35.754745,"lon":139.38736},{"name":"武蔵村山市消費生活センター","province":"東京都","city":"武蔵村山市","address":"武蔵村山市本町1-1-1","lat":35.754745,"lon":139.38736},{"name":"武蔵村山市役所協働推進部協働推進課","province":"東京都","city":"武蔵村山市","address":"武蔵村山市本町1-1-1","lat":35.754745,"lon":139.38736},{"name":"西部地域包括支援センター","province":"東京都","city":"武蔵村山市","address":"武蔵村山市伊奈平6-14-2特別養護老人ホーム伊奈平苑内","lat":35.744324,"lon":139.373657},{"name":"北部地域包括支援センター","province":"東京都","city":"武蔵村山市","address":"武蔵村山市中央2-13-1","lat":35.754345,"lon":139.394852},{"name":"南部地域包括支援センター","province":"東京都","city":"武蔵村山市","address":"武蔵村山市学園4-5-1市民総合センター内","lat":35.746132,"lon":139.403259},{"name":"緑が丘地域包括支援センター","province":"東京都","city":"武蔵村山市","address":"武蔵村山市緑が丘14601103号棟緑が丘高齢者サービスセンター内","lat":35.742924,"lon":139.407913},{"name":"村山団地高齢者みまもり相談室","province":"東京都","city":"武蔵村山市","address":"武蔵村山市緑が丘146045号棟","lat":35.740459,"lon":139.404831},{"name":"武蔵村山市役所健康福祉部高齢福祉課","province":"東京都","city":"武蔵村山市","address":"武蔵村山市学園4-5-1市民総合センター内","lat":35.746132,"lon":139.403259},{"name":"武蔵村山市役所健康福祉部地域福祉課","province":"東京都","city":"武蔵村山市","address":"武蔵村山市本町1-1-1","lat":35.754745,"lon":139.38736},{"name":"武蔵村山市役所総務部福祉総務課","province":"東京都","city":"武蔵村山市","address":"武蔵村山市本町1-1-1","lat":35.754745,"lon":139.38736},{"name":"武蔵村山市消費生活センター","province":"東京都","city":"武蔵村山市","address":"武蔵村山市本町1-1-1","lat":35.754745,"lon":139.38736},{"name":"武蔵村山市役所協働推進部協働推進課","province":"東京都","city":"武蔵村山市","address":"武蔵村山市本町1-1-1","lat":35.754745,"lon":139.38736},{"name":"西部地域包括支援センター","province":"東京都","city":"武蔵村山市","address":"武蔵村山市伊奈平6-14-2特別養護老人ホーム伊奈平苑内","lat":35.744324,"lon":139.373657},{"name":"北部地域包括支援センター","province":"東京都","city":"武蔵村山市","address":"武蔵村山市中央2-13-1","lat":35.754345,"lon":139.394852},{"name":"南部地域包括支援センター","province":"東京都","city":"武蔵村山市","address":"武蔵村山市学園4-5-1市民総合センター内","lat":35.746132,"lon":139.403259},{"name":"緑が丘地域包括支援センター","province":"東京都","city":"武蔵村山市","address":"武蔵村山市緑が丘14601103号棟緑が丘高齢者サービスセンター内","lat":35.742924,"lon":139.407913},{"name":"村山団地高齢者みまもり相談室","province":"東京都","city":"武蔵村山市","address":"武蔵村山市緑が丘146045号棟","lat":35.740459,"lon":139.404831},{"name":"武蔵村山市役所健康福祉部高齢福祉課","province":"東京都","city":"武蔵村山市","address":"武蔵村山市学園4-5-1市民総合センター内","lat":35.746132,"lon":139.403259},{"name":"武蔵村山市役所健康福祉部地域福祉課","province":"東京都","city":"武蔵村山市","address":"武蔵村山市本町1-1-1","lat":35.754745,"lon":139.38736},{"name":"武蔵村山市役所総務部福祉総務課","province":"東京都","city":"武蔵村山市","address":"武蔵村山市本町1-1-1","lat":35.754745,"lon":139.38736},{"name":"武蔵村山市消費生活センター","province":"東京都","city":"武蔵村山市","address":"武蔵村山市本町1-1-1","lat":35.754745,"lon":139.38736},{"name":"武蔵村山市役所協働推進部協働推進課","province":"東京都","city":"武蔵村山市","address":"武蔵村山市本町1-1-1","lat":35.754745,"lon":139.38736},{"name":"西部地域包括支援センター","province":"東京都","city":"武蔵村山市","address":"武蔵村山市伊奈平6-14-2特別養護老人ホーム伊奈平苑内","lat":35.744324,"lon":139.373657},{"name":"北部地域包括支援センター","province":"東京都","city":"武蔵村山市","address":"武蔵村山市中央2-13-1","lat":35.754345,"lon":139.394852},{"name":"南部地域包括支援センター","province":"東京都","city":"武蔵村山市","address":"武蔵村山市学園4-5-1市民総合センター内","lat":35.746132,"lon":139.403259},{"name":"緑が丘地域包括支援センター","province":"東京都","city":"武蔵村山市","address":"武蔵村山市緑が丘14601103号棟緑が丘高齢者サービスセンター内","lat":35.742924,"lon":139.407913},{"name":"村山団地高齢者みまもり相談室","province":"東京都","city":"武蔵村山市","address":"武蔵村山市緑が丘146045号棟","lat":35.740459,"lon":139.404831},{"name":"武蔵村山市役所健康福祉部高齢福祉課","province":"東京都","city":"武蔵村山市","address":"武蔵村山市学園4-5-1市民総合センター内","lat":35.746132,"lon":139.403259},{"name":"武蔵村山市役所健康福祉部地域福祉課","province":"東京都","city":"武蔵村山市","address":"武蔵村山市本町1-1-1","lat":35.754745,"lon":139.38736},{"name":"武蔵村山市役所総務部福祉総務課","province":"東京都","city":"武蔵村山市","address":"武蔵村山市本町1-1-1","lat":35.754745,"lon":139.38736},{"name":"武蔵村山市消費生活センター","province":"東京都","city":"武蔵村山市","address":"武蔵村山市本町1-1-1","lat":35.754745,"lon":139.38736},{"name":"武蔵村山市役所協働推進部協働推進課","province":"東京都","city":"武蔵村山市","address":"武蔵村山市本町1-1-1","lat":35.754745,"lon":139.38736},{"name":"西部地域包括支援センター","province":"東京都","city":"武蔵村山市","address":"武蔵村山市伊奈平6-14-2特別養護老人ホーム伊奈平苑内","lat":35.744324,"lon":139.373657},{"name":"北部地域包括支援センター","province":"東京都","city":"武蔵村山市","address":"武蔵村山市中央2-13-1","lat":35.754345,"lon":139.394852},{"name":"南部地域包括支援センター","province":"東京都","city":"武蔵村山市","address":"武蔵村山市学園4-5-1市民総合センター内","lat":35.746132,"lon":139.403259},{"name":"緑が丘地域包括支援センター","province":"東京都","city":"武蔵村山市","address":"武蔵村山市緑が丘14601103号棟緑が丘高齢者サービスセンター内","lat":35.742924,"lon":139.407913},{"name":"村山団地高齢者みまもり相談室","province":"東京都","city":"武蔵村山市","address":"武蔵村山市緑が丘146045号棟","lat":35.740459,"lon":139.404831},{"name":"武蔵村山市役所健康福祉部高齢福祉課","province":"東京都","city":"武蔵村山市","address":"武蔵村山市学園4-5-1市民総合センター内","lat":35.746132,"lon":139.403259},{"name":"武蔵村山市役所健康福祉部地域福祉課","province":"東京都","city":"武蔵村山市","address":"武蔵村山市本町1-1-1","lat":35.754745,"lon":139.38736},{"name":"武蔵村山市役所総務部福祉総務課","province":"東京都","city":"武蔵村山市","address":"武蔵村山市本町1-1-1","lat":35.754745,"lon":139.38736},{"name":"武蔵村山市消費生活センター","province":"東京都","city":"武蔵村山市","address":"武蔵村山市本町1-1-1","lat":35.754745,"lon":139.38736},{"name":"武蔵村山市役所協働推進部協働推進課","province":"東京都","city":"武蔵村山市","address":"武蔵村山市本町1-1-1","lat":35.754745,"lon":139.38736},{"name":"西部地域包括支援センター","province":"東京都","city":"武蔵村山市","address":"武蔵村山市伊奈平6-14-2特別養護老人ホーム伊奈平苑内","lat":35.744324,"lon":139.373657},{"name":"北部地域包括支援センター","province":"東京都","city":"武蔵村山市","address":"武蔵村山市中央2-13-1","lat":35.754345,"lon":139.394852},{"name":"南部地域包括支援センター","province":"東京都","city":"武蔵村山市","address":"武蔵村山市学園4-5-1市民総合センター内","lat":35.746132,"lon":139.403259},{"name":"緑が丘地域包括支援センター","province":"東京都","city":"武蔵村山市","address":"武蔵村山市緑が丘14601103号棟緑が丘高齢者サービスセンター内","lat":35.742924,"lon":139.407913},{"name":"村山団地高齢者みまもり相談室","province":"東京都","city":"武蔵村山市","address":"武蔵村山市緑が丘146045号棟","lat":35.740459,"lon":139.404831},{"name":"武蔵村山市役所健康福祉部高齢福祉課","province":"東京都","city":"武蔵村山市","address":"武蔵村山市学園4-5-1市民総合センター内","lat":35.746132,"lon":139.403259},{"name":"武蔵村山市役所健康福祉部地域福祉課","province":"東京都","city":"武蔵村山市","address":"武蔵村山市本町1-1-1","lat":35.754745,"lon":139.38736},{"name":"武蔵村山市役所総務部福祉総務課","province":"東京都","city":"武蔵村山市","address":"武蔵村山市本町1-1-1","lat":35.754745,"lon":139.38736},{"name":"武蔵村山市消費生活センター","province":"東京都","city":"武蔵村山市","address":"武蔵村山市本町1-1-1","lat":35.754745,"lon":139.38736},{"name":"武蔵村山市役所協働推進部協働推進課","province":"東京都","city":"武蔵村山市","address":"武蔵村山市本町1-1-1","lat":35.754745,"lon":139.38736},{"name":"西部地域包括支援センター","province":"東京都","city":"武蔵村山市","address":"武蔵村山市伊奈平6-14-2特別養護老人ホーム伊奈平苑内","lat":35.744324,"lon":139.373657},{"name":"北部地域包括支援センター","province":"東京都","city":"武蔵村山市","address":"武蔵村山市中央2-13-1","lat":35.754345,"lon":139.394852},{"name":"南部地域包括支援センター","province":"東京都","city":"武蔵村山市","address":"武蔵村山市学園4-5-1市民総合センター内","lat":35.746132,"lon":139.403259},{"name":"緑が丘地域包括支援センター","province":"東京都","city":"武蔵村山市","address":"武蔵村山市緑が丘14601103号棟緑が丘高齢者サービスセンター内","lat":35.742924,"lon":139.407913},{"name":"村山団地高齢者みまもり相談室","province":"東京都","city":"武蔵村山市","address":"武蔵村山市緑が丘146045号棟","lat":35.740459,"lon":139.404831},{"name":"武蔵村山市役所健康福祉部高齢福祉課","province":"東京都","city":"武蔵村山市","address":"武蔵村山市学園4-5-1市民総合センター内","lat":35.746132,"lon":139.403259},{"name":"武蔵村山市役所健康福祉部地域福祉課","province":"東京都","city":"武蔵村山市","address":"武蔵村山市本町1-1-1","lat":35.754745,"lon":139.38736},{"name":"武蔵村山市役所総務部福祉総務課","province":"東京都","city":"武蔵村山市","address":"武蔵村山市本町1-1-1","lat":35.754745,"lon":139.38736},{"name":"武蔵村山市消費生活センター","province":"東京都","city":"武蔵村山市","address":"武蔵村山市本町1-1-1","lat":35.754745,"lon":139.38736},{"name":"武蔵村山市役所協働推進部協働推進課","province":"東京都","city":"武蔵村山市","address":"武蔵村山市本町1-1-1","lat":35.754745,"lon":139.38736},{"name":"西部地域包括支援センター","province":"東京都","city":"武蔵村山市","address":"武蔵村山市伊奈平6-14-2特別養護老人ホーム伊奈平苑内","lat":35.744324,"lon":139.373657},{"name":"北部地域包括支援センター","province":"東京都","city":"武蔵村山市","address":"武蔵村山市中央2-13-1","lat":35.754345,"lon":139.394852},{"name":"南部地域包括支援センター","province":"東京都","city":"武蔵村山市","address":"武蔵村山市学園4-5-1市民総合センター内","lat":35.746132,"lon":139.403259},{"name":"緑が丘地域包括支援センター","province":"東京都","city":"武蔵村山市","address":"武蔵村山市緑が丘14601103号棟緑が丘高齢者サービスセンター内","lat":35.742924,"lon":139.407913},{"name":"村山団地高齢者みまもり相談室","province":"東京都","city":"武蔵村山市","address":"武蔵村山市緑が丘146045号棟","lat":35.740459,"lon":139.404831},{"name":"武蔵村山市役所健康福祉部高齢福祉課","province":"東京都","city":"武蔵村山市","address":"武蔵村山市学園4-5-1市民総合センター内","lat":35.746132,"lon":139.403259},{"name":"武蔵村山市役所健康福祉部地域福祉課","province":"東京都","city":"武蔵村山市","address":"武蔵村山市本町1-1-1","lat":35.754745,"lon":139.38736},{"name":"武蔵村山市役所総務部福祉総務課","province":"東京都","city":"武蔵村山市","address":"武蔵村山市本町1-1-1","lat":35.754745,"lon":139.38736},{"name":"武蔵村山市消費生活センター","province":"東京都","city":"武蔵村山市","address":"武蔵村山市本町1-1-1","lat":35.754745,"lon":139.38736},{"name":"武蔵村山市役所協働推進部協働推進課","province":"東京都","city":"武蔵村山市","address":"武蔵村山市本町1-1-1","lat":35.754745,"lon":139.38736},{"name":"西部地域包括支援センター","province":"東京都","city":"武蔵村山市","address":"武蔵村山市伊奈平6-14-2特別養護老人ホーム伊奈平苑内","lat":35.744324,"lon":139.373657},{"name":"北部地域包括支援センター","province":"東京都","city":"武蔵村山市","address":"武蔵村山市中央2-13-1","lat":35.754345,"lon":139.394852},{"name":"南部地域包括支援センター","province":"東京都","city":"武蔵村山市","address":"武蔵村山市学園4-5-1市民総合センター内","lat":35.746132,"lon":139.403259},{"name":"緑が丘地域包括支援センター","province":"東京都","city":"武蔵村山市","address":"武蔵村山市緑が丘14601103号棟緑が丘高齢者サービスセンター内","lat":35.742924,"lon":139.407913},{"name":"村山団地高齢者みまもり相談室","province":"東京都","city":"武蔵村山市","address":"武蔵村山市緑が丘146045号棟","lat":35.740459,"lon":139.404831},{"name":"武蔵村山市役所健康福祉部高齢福祉課","province":"東京都","city":"武蔵村山市","address":"武蔵村山市学園4-5-1市民総合センター内","lat":35.746132,"lon":139.403259},{"name":"武蔵村山市役所健康福祉部地域福祉課","province":"東京都","city":"武蔵村山市","address":"武蔵村山市本町1-1-1","lat":35.754745,"lon":139.38736},{"name":"武蔵村山市役所総務部福祉総務課","province":"東京都","city":"武蔵村山市","address":"武蔵村山市本町1-1-1","lat":35.754745,"lon":139.38736},{"name":"武蔵村山市消費生活センター","province":"東京都","city":"武蔵村山市","address":"武蔵村山市本町1-1-1","lat":35.754745,"lon":139.38736},{"name":"武蔵村山市役所協働推進部協働推進課","province":"東京都","city":"武蔵村山市","address":"武蔵村山市本町1-1-1","lat":35.754745,"lon":139.38736},{"name":"西部地域包括支援センター","province":"東京都","city":"武蔵村山市","address":"武蔵村山市伊奈平6-14-2特別養護老人ホーム伊奈平苑内","lat":35.744324,"lon":139.373657},{"name":"北部地域包括支援センター","province":"東京都","city":"武蔵村山市","address":"武蔵村山市中央2-13-1","lat":35.754345,"lon":139.394852},{"name":"南部地域包括支援センター","province":"東京都","city":"武蔵村山市","address":"武蔵村山市学園4-5-1市民総合センター内","lat":35.746132,"lon":139.403259},{"name":"緑が丘地域包括支援センター","province":"東京都","city":"武蔵村山市","address":"武蔵村山市緑が丘14601103号棟緑が丘高齢者サービスセンター内","lat":35.742924,"lon":139.407913},{"name":"村山団地高齢者みまもり相談室","province":"東京都","city":"武蔵村山市","address":"武蔵村山市緑が丘146045号棟","lat":35.740459,"lon":139.404831},{"name":"武蔵村山市役所健康福祉部高齢福祉課","province":"東京都","city":"武蔵村山市","address":"武蔵村山市学園4-5-1市民総合センター内","lat":35.746132,"lon":139.403259},{"name":"武蔵村山市役所健康福祉部地域福祉課","province":"東京都","city":"武蔵村山市","address":"武蔵村山市本町1-1-1","lat":35.754745,"lon":139.38736},{"name":"武蔵村山市役所総務部福祉総務課","province":"東京都","city":"武蔵村山市","address":"武蔵村山市本町1-1-1","lat":35.754745,"lon":139.38736},{"name":"武蔵村山市消費生活センター","province":"東京都","city":"武蔵村山市","address":"武蔵村山市本町1-1-1","lat":35.754745,"lon":139.38736},{"name":"武蔵村山市役所協働推進部協働推進課","province":"東京都","city":"武蔵村山市","address":"武蔵村山市本町1-1-1","lat":35.754745,"lon":139.38736},{"name":"西部地域包括支援センター","province":"東京都","city":"武蔵村山市","address":"武蔵村山市伊奈平6-14-2特別養護老人ホーム伊奈平苑内","lat":35.744324,"lon":139.373657},{"name":"北部地域包括支援センター","province":"東京都","city":"武蔵村山市","address":"武蔵村山市中央2-13-1","lat":35.754345,"lon":139.394852},{"name":"南部地域包括支援センター","province":"東京都","city":"武蔵村山市","address":"武蔵村山市学園4-5-1市民総合センター内","lat":35.746132,"lon":139.403259},{"name":"緑が丘地域包括支援センター","province":"東京都","city":"武蔵村山市","address":"武蔵村山市緑が丘14601103号棟緑が丘高齢者サービスセンター内","lat":35.742924,"lon":139.407913},{"name":"村山団地高齢者みまもり相談室","province":"東京都","city":"武蔵村山市","address":"武蔵村山市緑が丘146045号棟","lat":35.740459,"lon":139.404831},{"name":"武蔵村山市役所健康福祉部高齢福祉課","province":"東京都","city":"武蔵村山市","address":"武蔵村山市学園4-5-1市民総合センター内","lat":35.746132,"lon":139.403259},{"name":"武蔵村山市役所健康福祉部地域福祉課","province":"東京都","city":"武蔵村山市","address":"武蔵村山市本町1-1-1","lat":35.754745,"lon":139.38736},{"name":"武蔵村山市役所総務部福祉総務課","province":"東京都","city":"武蔵村山市","address":"武蔵村山市本町1-1-1","lat":35.754745,"lon":139.38736},{"name":"武蔵村山市消費生活センター","province":"東京都","city":"武蔵村山市","address":"武蔵村山市本町1-1-1","lat":35.754745,"lon":139.38736},{"name":"武蔵村山市役所協働推進部協働推進課","province":"東京都","city":"武蔵村山市","address":"武蔵村山市本町1-1-1","lat":35.754745,"lon":139.38736},{"name":"西部地域包括支援センター","province":"東京都","city":"武蔵村山市","address":"武蔵村山市伊奈平6-14-2特別養護老人ホーム伊奈平苑内","lat":35.744324,"lon":139.373657},{"name":"北部地域包括支援センター","province":"東京都","city":"武蔵村山市","address":"武蔵村山市中央2-13-1","lat":35.754345,"lon":139.394852},{"name":"南部地域包括支援センター","province":"東京都","city":"武蔵村山市","address":"武蔵村山市学園4-5-1市民総合センター内","lat":35.746132,"lon":139.403259},{"name":"緑が丘地域包括支援センター","province":"東京都","city":"武蔵村山市","address":"武蔵村山市緑が丘14601103号棟緑が丘高齢者サービスセンター内","lat":35.742924,"lon":139.407913},{"name":"村山団地高齢者みまもり相談室","province":"東京都","city":"武蔵村山市","address":"武蔵村山市緑が丘146045号棟","lat":35.740459,"lon":139.404831},{"name":"武蔵村山市役所健康福祉部高齢福祉課","province":"東京都","city":"武蔵村山市","address":"武蔵村山市学園4-5-1市民総合センター内","lat":35.746132,"lon":139.403259},{"name":"武蔵村山市役所健康福祉部地域福祉課","province":"東京都","city":"武蔵村山市","address":"武蔵村山市本町1-1-1","lat":35.754745,"lon":139.38736},{"name":"武蔵村山市役所総務部福祉総務課","province":"東京都","city":"武蔵村山市","address":"武蔵村山市本町1-1-1","lat":35.754745,"lon":139.38736},{"name":"武蔵村山市消費生活センター","province":"東京都","city":"武蔵村山市","address":"武蔵村山市本町1-1-1","lat":35.754745,"lon":139.38736},{"name":"武蔵村山市役所協働推進部協働推進課","province":"東京都","city":"武蔵村山市","address":"武蔵村山市本町1-1-1","lat":35.754745,"lon":139.38736},{"name":"西部地域包括支援センター","province":"東京都","city":"武蔵村山市","address":"武蔵村山市伊奈平6-14-2特別養護老人ホーム伊奈平苑内","lat":35.744324,"lon":139.373657},{"name":"北部地域包括支援センター","province":"東京都","city":"武蔵村山市","address":"武蔵村山市中央2-13-1","lat":35.754345,"lon":139.394852},{"name":"南部地域包括支援センター","province":"東京都","city":"武蔵村山市","address":"武蔵村山市学園4-5-1市民総合センター内","lat":35.746132,"lon":139.403259},{"name":"緑が丘地域包括支援センター","province":"東京都","city":"武蔵村山市","address":"武蔵村山市緑が丘14601103号棟緑が丘高齢者サービスセンター内","lat":35.742924,"lon":139.407913},{"name":"村山団地高齢者みまもり相談室","province":"東京都","city":"武蔵村山市","address":"武蔵村山市緑が丘146045号棟","lat":35.740459,"lon":139.404831},{"name":"武蔵村山市役所健康福祉部高齢福祉課","province":"東京都","city":"武蔵村山市","address":"武蔵村山市学園4-5-1市民総合センター内","lat":35.746132,"lon":139.403259},{"name":"武蔵村山市役所健康福祉部地域福祉課","province":"東京都","city":"武蔵村山市","address":"武蔵村山市本町1-1-1","lat":35.754745,"lon":139.38736},{"name":"武蔵村山市役所総務部福祉総務課","province":"東京都","city":"武蔵村山市","address":"武蔵村山市本町1-1-1","lat":35.754745,"lon":139.38736},{"name":"武蔵村山市消費生活センター","province":"東京都","city":"武蔵村山市","address":"武蔵村山市本町1-1-1","lat":35.754745,"lon":139.38736},{"name":"武蔵村山市役所協働推進部協働推進課","province":"東京都","city":"武蔵村山市","address":"武蔵村山市本町1-1-1","lat":35.754745,"lon":139.38736},{"name":"西部地域包括支援センター","province":"東京都","city":"武蔵村山市","address":"武蔵村山市伊奈平6-14-2特別養護老人ホーム伊奈平苑内","lat":35.744324,"lon":139.373657},{"name":"北部地域包括支援センター","province":"東京都","city":"武蔵村山市","address":"武蔵村山市中央2-13-1","lat":35.754345,"lon":139.394852},{"name":"南部地域包括支援センター","province":"東京都","city":"武蔵村山市","address":"武蔵村山市学園4-5-1市民総合センター内","lat":35.746132,"lon":139.403259},{"name":"緑が丘地域包括支援センター","province":"東京都","city":"武蔵村山市","address":"武蔵村山市緑が丘14601103号棟緑が丘高齢者サービスセンター内","lat":35.742924,"lon":139.407913},{"name":"村山団地高齢者みまもり相談室","province":"東京都","city":"武蔵村山市","address":"武蔵村山市緑が丘146045号棟","lat":35.740459,"lon":139.404831},{"name":"武蔵村山市役所健康福祉部高齢福祉課","province":"東京都","city":"武蔵村山市","address":"武蔵村山市学園4-5-1市民総合センター内","lat":35.746132,"lon":139.403259},{"name":"武蔵村山市役所健康福祉部地域福祉課","province":"東京都","city":"武蔵村山市","address":"武蔵村山市本町1-1-1","lat":35.754745,"lon":139.38736},{"name":"武蔵村山市役所総務部福祉総務課","province":"東京都","city":"武蔵村山市","address":"武蔵村山市本町1-1-1","lat":35.754745,"lon":139.38736},{"name":"武蔵村山市消費生活センター","province":"東京都","city":"武蔵村山市","address":"武蔵村山市本町1-1-1","lat":35.754745,"lon":139.38736},{"name":"武蔵村山市役所協働推進部協働推進課","province":"東京都","city":"武蔵村山市","address":"武蔵村山市本町1-1-1","lat":35.754745,"lon":139.38736},{"name":"西部地域包括支援センター","province":"東京都","city":"武蔵村山市","address":"武蔵村山市伊奈平6-14-2特別養護老人ホーム伊奈平苑内","lat":35.744324,"lon":139.373657},{"name":"北部地域包括支援センター","province":"東京都","city":"武蔵村山市","address":"武蔵村山市中央2-13-1","lat":35.754345,"lon":139.394852},{"name":"南部地域包括支援センター","province":"東京都","city":"武蔵村山市","address":"武蔵村山市学園4-5-1市民総合センター内","lat":35.746132,"lon":139.403259},{"name":"緑が丘地域包括支援センター","province":"東京都","city":"武蔵村山市","address":"武蔵村山市緑が丘14601103号棟緑が丘高齢者サービスセンター内","lat":35.742924,"lon":139.407913},{"name":"村山団地高齢者みまもり相談室","province":"東京都","city":"武蔵村山市","address":"武蔵村山市緑が丘146045号棟","lat":35.740459,"lon":139.404831},{"name":"武蔵村山市役所健康福祉部高齢福祉課","province":"東京都","city":"武蔵村山市","address":"武蔵村山市学園4-5-1市民総合センター内","lat":35.746132,"lon":139.403259},{"name":"武蔵村山市役所健康福祉部地域福祉課","province":"東京都","city":"武蔵村山市","address":"武蔵村山市本町1-1-1","lat":35.754745,"lon":139.38736},{"name":"武蔵村山市役所総務部福祉総務課","province":"東京都","city":"武蔵村山市","address":"武蔵村山市本町1-1-1","lat":35.754745,"lon":139.38736},{"name":"武蔵村山市消費生活センター","province":"東京都","city":"武蔵村山市","address":"武蔵村山市本町1-1-1","lat":35.754745,"lon":139.38736},{"name":"武蔵村山市役所協働推進部協働推進課","province":"東京都","city":"武蔵村山市","address":"武蔵村山市本町1-1-1","lat":35.754745,"lon":139.38736}]}