{"keyword":"月間","data":[{"name":"放課後等デイサービス　あかぐみ","province":"東京都","city":"武蔵村山市","address":"武蔵村山市中央1-25-14ハウスオブブーケC棟101","lat":35.753247,"lon":139.389335},{"name":"放課後デイサービスひだまり","province":"東京都","city":"武蔵村山市","address":"武蔵村山市本町1-63-1","lat":35.753064,"lon":139.385857},{"name":"クローバー","province":"東京都","city":"武蔵村山市","address":"武蔵村山市学園1-112-8","lat":35.746232,"lon":139.396723},{"name":"放課後等デイサービス　トライきっず","province":"東京都","city":"武蔵村山市","address":"武蔵村山市大南3-72-1柏木マンション102号","lat":35.735569,"lon":139.405404},{"name":"放課後デイサービス　せせらぎ","province":"東京都","city":"武蔵村山市","address":"武蔵村山市大南1-111-23","lat":35.736438,"lon":139.396896},{"name":"放課後等デイサービス　どりーむ","province":"東京都","city":"武蔵村山市","address":"武蔵村山市三ツ藤2丁目27番地4","lat":35.752008,"lon":139.375195},{"name":"妖精の杜","province":"東京都","city":"武蔵村山市","address":"武蔵村山市残堀1-110-9","lat":35.744628,"lon":139.37552},{"name":"あい武蔵村山","province":"東京都","city":"武蔵村山市","address":"武蔵村山市中原4-3-2","lat":35.752699,"lon":139.363795},{"name":"武蔵村山市子ども家庭支援センター","province":"東京都","city":"武蔵村山市","address":"武蔵村山市学園4-5-1武蔵村山市民総合センター内","lat":35.746304,"lon":139.403259},{"name":"武蔵村山市子ども家庭支援センター","province":"東京都","city":"武蔵村山市","address":"武蔵村山市学園4-5-1武蔵村山市民総合センター内","lat":35.74613,"lon":139.40326},{"name":"学園通り入口","province":"東京都","city":"武蔵村山市","address":"東京都武蔵村山市緑が丘1460","lat":35.7429045,"lon":139.40695028},{"name":"中藤配水所","province":"東京都","city":"武蔵村山市","address":"東京都武蔵村山市中藤2丁目1-3","lat":35.7588829,"lon":139.3936565},{"name":"東京経済大学運動場","province":"東京都","city":"武蔵村山市","address":"東京都武蔵村山市学園5丁目22-1","lat":35.74428181,"lon":139.39444868},{"name":"武蔵村山市保健相談センター","province":"東京都","city":"武蔵村山市","address":"東京都武蔵村山市本町1丁目23","lat":35.75275842,"lon":139.38745453},{"name":"上水高等学校","province":"東京都","city":"武蔵村山市","address":"東京都武蔵村山市大南4丁目62-1","lat":35.73534715,"lon":139.41235562},{"name":"武蔵村山高等学校","province":"東京都","city":"武蔵村山市","address":"東京都武蔵村山市中原1丁目7-1","lat":35.75687123,"lon":139.36591733},{"name":"武蔵村山市本庁舎","province":"東京都","city":"武蔵村山市","address":"東京都武蔵村山市本町1丁目1-1","lat":35.7548304,"lon":139.38737668},{"name":"武蔵村山市本庁舎","province":"東京都","city":"武蔵村山市","address":"武蔵村山市本町1-1-1","lat":35.754906,"lon":139.387421},{"name":"※武蔵村山市本庁舎","province":"東京都","city":"武蔵村山市","address":"東京都武蔵村山市本町1丁目1-1","lat":35.7548304,"lon":139.38737668},{"name":"放課後等デイサービス　あかぐみ","province":"東京都","city":"武蔵村山市","address":"武蔵村山市中央1-25-14ハウスオブブーケC棟101","lat":35.753247,"lon":139.389335},{"name":"放課後デイサービスひだまり","province":"東京都","city":"武蔵村山市","address":"武蔵村山市本町1-63-1","lat":35.753064,"lon":139.385857},{"name":"クローバー","province":"東京都","city":"武蔵村山市","address":"武蔵村山市学園1-112-8","lat":35.746232,"lon":139.396723},{"name":"放課後等デイサービス　トライきっず","province":"東京都","city":"武蔵村山市","address":"武蔵村山市大南3-72-1柏木マンション102号","lat":35.735569,"lon":139.405404},{"name":"放課後デイサービス　せせらぎ","province":"東京都","city":"武蔵村山市","address":"武蔵村山市大南1-111-23","lat":35.736438,"lon":139.396896},{"name":"放課後等デイサービス　どりーむ","province":"東京都","city":"武蔵村山市","address":"武蔵村山市三ツ藤2丁目27番地4","lat":35.752008,"lon":139.375195},{"name":"妖精の杜","province":"東京都","city":"武蔵村山市","address":"武蔵村山市残堀1-110-9","lat":35.744628,"lon":139.37552},{"name":"あい武蔵村山","province":"東京都","city":"武蔵村山市","address":"武蔵村山市中原4-3-2","lat":35.752699,"lon":139.363795},{"name":"武蔵村山市子ども家庭支援センター","province":"東京都","city":"武蔵村山市","address":"武蔵村山市学園4-5-1武蔵村山市民総合センター内","lat":35.746304,"lon":139.403259},{"name":"武蔵村山市子ども家庭支援センター","province":"東京都","city":"武蔵村山市","address":"武蔵村山市学園4-5-1武蔵村山市民総合センター内","lat":35.74613,"lon":139.40326},{"name":"学園通り入口","province":"東京都","city":"武蔵村山市","address":"東京都武蔵村山市緑が丘1460","lat":35.7429045,"lon":139.40695028},{"name":"中藤配水所","province":"東京都","city":"武蔵村山市","address":"東京都武蔵村山市中藤2丁目1-3","lat":35.7588829,"lon":139.3936565},{"name":"東京経済大学運動場","province":"東京都","city":"武蔵村山市","address":"東京都武蔵村山市学園5丁目22-1","lat":35.74428181,"lon":139.39444868},{"name":"上水高等学校","province":"東京都","city":"武蔵村山市","address":"東京都武蔵村山市大南4丁目62-1","lat":35.73534715,"lon":139.41235562},{"name":"武蔵村山高等学校","province":"東京都","city":"武蔵村山市","address":"東京都武蔵村山市中原1丁目7-1","lat":35.75687123,"lon":139.36591733},{"name":"放課後等デイサービス　あかぐみ","province":"東京都","city":"武蔵村山市","address":"武蔵村山市中央1-25-14ハウスオブブーケC棟101","lat":35.753247,"lon":139.389335},{"name":"放課後デイサービスひだまり","province":"東京都","city":"武蔵村山市","address":"武蔵村山市本町1-63-1","lat":35.753064,"lon":139.385857},{"name":"クローバー","province":"東京都","city":"武蔵村山市","address":"武蔵村山市学園1-112-8","lat":35.746232,"lon":139.396723},{"name":"放課後等デイサービス　トライきっず","province":"東京都","city":"武蔵村山市","address":"武蔵村山市大南3-72-1柏木マンション102号","lat":35.735569,"lon":139.405404},{"name":"放課後デイサービス　せせらぎ","province":"東京都","city":"武蔵村山市","address":"武蔵村山市大南1-111-23","lat":35.736438,"lon":139.396896},{"name":"放課後等デイサービス　どりーむ","province":"東京都","city":"武蔵村山市","address":"武蔵村山市三ツ藤2丁目27番地4","lat":35.752008,"lon":139.375195},{"name":"妖精の杜","province":"東京都","city":"武蔵村山市","address":"武蔵村山市残堀1-110-9","lat":35.744628,"lon":139.37552},{"name":"あい武蔵村山","province":"東京都","city":"武蔵村山市","address":"武蔵村山市中原4-3-2","lat":35.752699,"lon":139.363795},{"name":"武蔵村山市子ども家庭支援センター","province":"東京都","city":"武蔵村山市","address":"武蔵村山市学園4-5-1武蔵村山市民総合センター内","lat":35.746304,"lon":139.403259},{"name":"武蔵村山市子ども家庭支援センター","province":"東京都","city":"武蔵村山市","address":"武蔵村山市学園4-5-1武蔵村山市民総合センター内","lat":35.74613,"lon":139.40326},{"name":"学園通り入口","province":"東京都","city":"武蔵村山市","address":"東京都武蔵村山市緑が丘1460","lat":35.7429045,"lon":139.40695028},{"name":"中藤配水所","province":"東京都","city":"武蔵村山市","address":"東京都武蔵村山市中藤2丁目1-3","lat":35.7588829,"lon":139.3936565},{"name":"東京経済大学運動場","province":"東京都","city":"武蔵村山市","address":"東京都武蔵村山市学園5丁目22-1","lat":35.74428181,"lon":139.39444868},{"name":"上水高等学校","province":"東京都","city":"武蔵村山市","address":"東京都武蔵村山市大南4丁目62-1","lat":35.73534715,"lon":139.41235562},{"name":"武蔵村山高等学校","province":"東京都","city":"武蔵村山市","address":"東京都武蔵村山市中原1丁目7-1","lat":35.75687123,"lon":139.36591733},{"name":"放課後等デイサービス　あかぐみ","province":"東京都","city":"武蔵村山市","address":"武蔵村山市中央1-25-14ハウスオブブーケC棟101","lat":35.753247,"lon":139.389335},{"name":"放課後デイサービスひだまり","province":"東京都","city":"武蔵村山市","address":"武蔵村山市本町1-63-1","lat":35.753064,"lon":139.385857},{"name":"クローバー","province":"東京都","city":"武蔵村山市","address":"武蔵村山市学園1-112-8","lat":35.746232,"lon":139.396723},{"name":"放課後等デイサービス　トライきっず","province":"東京都","city":"武蔵村山市","address":"武蔵村山市大南3-72-1柏木マンション102号","lat":35.735569,"lon":139.405404},{"name":"放課後デイサービス　せせらぎ","province":"東京都","city":"武蔵村山市","address":"武蔵村山市大南1-111-23","lat":35.736438,"lon":139.396896},{"name":"放課後等デイサービス　どりーむ","province":"東京都","city":"武蔵村山市","address":"武蔵村山市三ツ藤2丁目27番地4","lat":35.752008,"lon":139.375195},{"name":"妖精の杜","province":"東京都","city":"武蔵村山市","address":"武蔵村山市残堀1-110-9","lat":35.744628,"lon":139.37552},{"name":"あい武蔵村山","province":"東京都","city":"武蔵村山市","address":"武蔵村山市中原4-3-2","lat":35.752699,"lon":139.363795},{"name":"武蔵村山市子ども家庭支援センター","province":"東京都","city":"武蔵村山市","address":"武蔵村山市学園4-5-1武蔵村山市民総合センター内","lat":35.746304,"lon":139.403259},{"name":"武蔵村山市子ども家庭支援センター","province":"東京都","city":"武蔵村山市","address":"武蔵村山市学園4-5-1武蔵村山市民総合センター内","lat":35.74613,"lon":139.40326},{"name":"東京経済大学運動場","province":"東京都","city":"武蔵村山市","address":"東京都武蔵村山市学園5丁目22-1","lat":35.74428181,"lon":139.39444868},{"name":"上水高等学校","province":"東京都","city":"武蔵村山市","address":"東京都武蔵村山市大南4丁目62-1","lat":35.73534715,"lon":139.41235562},{"name":"武蔵村山高等学校","province":"東京都","city":"武蔵村山市","address":"東京都武蔵村山市中原1丁目7-1","lat":35.75687123,"lon":139.36591733},{"name":"放課後等デイサービス　あかぐみ","province":"東京都","city":"武蔵村山市","address":"武蔵村山市中央1-25-14ハウスオブブーケC棟101","lat":35.753247,"lon":139.389335},{"name":"放課後デイサービスひだまり","province":"東京都","city":"武蔵村山市","address":"武蔵村山市本町1-63-1","lat":35.753064,"lon":139.385857},{"name":"クローバー","province":"東京都","city":"武蔵村山市","address":"武蔵村山市学園1-112-8","lat":35.746232,"lon":139.396723},{"name":"放課後等デイサービス　トライきっず","province":"東京都","city":"武蔵村山市","address":"武蔵村山市大南3-72-1柏木マンション102号","lat":35.735569,"lon":139.405404},{"name":"放課後デイサービス　せせらぎ","province":"東京都","city":"武蔵村山市","address":"武蔵村山市大南1-111-23","lat":35.736438,"lon":139.396896},{"name":"放課後等デイサービス　どりーむ","province":"東京都","city":"武蔵村山市","address":"武蔵村山市三ツ藤2丁目27番地4","lat":35.752008,"lon":139.375195},{"name":"妖精の杜","province":"東京都","city":"武蔵村山市","address":"武蔵村山市残堀1-110-9","lat":35.744628,"lon":139.37552},{"name":"あい武蔵村山","province":"東京都","city":"武蔵村山市","address":"武蔵村山市中原4-3-2","lat":35.752699,"lon":139.363795},{"name":"武蔵村山市子ども家庭支援センター","province":"東京都","city":"武蔵村山市","address":"武蔵村山市学園4-5-1武蔵村山市民総合センター内","lat":35.746304,"lon":139.403259},{"name":"武蔵村山市子ども家庭支援センター","province":"東京都","city":"武蔵村山市","address":"武蔵村山市学園4-5-1武蔵村山市民総合センター内","lat":35.74613,"lon":139.40326},{"name":"上水高等学校","province":"東京都","city":"武蔵村山市","address":"東京都武蔵村山市大南4丁目62-1","lat":35.73534715,"lon":139.41235562},{"name":"武蔵村山高等学校","province":"東京都","city":"武蔵村山市","address":"東京都武蔵村山市中原1丁目7-1","lat":35.75687123,"lon":139.36591733},{"name":"放課後等デイサービス　あかぐみ","province":"東京都","city":"武蔵村山市","address":"武蔵村山市中央1-25-14ハウスオブブーケC棟101","lat":35.753247,"lon":139.389335},{"name":"放課後デイサービスひだまり","province":"東京都","city":"武蔵村山市","address":"武蔵村山市本町1-63-1","lat":35.753064,"lon":139.385857},{"name":"クローバー","province":"東京都","city":"武蔵村山市","address":"武蔵村山市学園1-112-8","lat":35.746232,"lon":139.396723},{"name":"放課後等デイサービス　トライきっず","province":"東京都","city":"武蔵村山市","address":"武蔵村山市大南3-72-1柏木マンション102号","lat":35.735569,"lon":139.405404},{"name":"放課後デイサービス　せせらぎ","province":"東京都","city":"武蔵村山市","address":"武蔵村山市大南1-111-23","lat":35.736438,"lon":139.396896},{"name":"放課後等デイサービス　どりーむ","province":"東京都","city":"武蔵村山市","address":"武蔵村山市三ツ藤2丁目27番地4","lat":35.752008,"lon":139.375195},{"name":"妖精の杜","province":"東京都","city":"武蔵村山市","address":"武蔵村山市残堀1-110-9","lat":35.744628,"lon":139.37552},{"name":"あい武蔵村山","province":"東京都","city":"武蔵村山市","address":"武蔵村山市中原4-3-2","lat":35.752699,"lon":139.363795},{"name":"武蔵村山市子ども家庭支援センター","province":"東京都","city":"武蔵村山市","address":"武蔵村山市学園4-5-1武蔵村山市民総合センター内","lat":35.746304,"lon":139.403259},{"name":"武蔵村山市子ども家庭支援センター","province":"東京都","city":"武蔵村山市","address":"武蔵村山市学園4-5-1武蔵村山市民総合センター内","lat":35.74613,"lon":139.40326},{"name":"上水高等学校","province":"東京都","city":"武蔵村山市","address":"東京都武蔵村山市大南4丁目62-1","lat":35.73534715,"lon":139.41235562},{"name":"武蔵村山高等学校","province":"東京都","city":"武蔵村山市","address":"東京都武蔵村山市中原1丁目7-1","lat":35.75687123,"lon":139.36591733},{"name":"放課後等デイサービス　あかぐみ","province":"東京都","city":"武蔵村山市","address":"武蔵村山市中央1-25-14ハウスオブブーケC棟101","lat":35.753247,"lon":139.389335},{"name":"放課後デイサービスひだまり","province":"東京都","city":"武蔵村山市","address":"武蔵村山市本町1-63-1","lat":35.753064,"lon":139.385857},{"name":"クローバー","province":"東京都","city":"武蔵村山市","address":"武蔵村山市学園1-112-8","lat":35.746232,"lon":139.396723},{"name":"放課後等デイサービス　トライきっず","province":"東京都","city":"武蔵村山市","address":"武蔵村山市大南3-72-1柏木マンション102号","lat":35.735569,"lon":139.405404},{"name":"放課後デイサービス　せせらぎ","province":"東京都","city":"武蔵村山市","address":"武蔵村山市大南1-111-23","lat":35.736438,"lon":139.396896},{"name":"放課後等デイサービス　どりーむ","province":"東京都","city":"武蔵村山市","address":"武蔵村山市三ツ藤2丁目27番地4","lat":35.752008,"lon":139.375195},{"name":"妖精の杜","province":"東京都","city":"武蔵村山市","address":"武蔵村山市残堀1-110-9","lat":35.744628,"lon":139.37552},{"name":"あい武蔵村山","province":"東京都","city":"武蔵村山市","address":"武蔵村山市中原4-3-2","lat":35.752699,"lon":139.363795},{"name":"武蔵村山市子ども家庭支援センター","province":"東京都","city":"武蔵村山市","address":"武蔵村山市学園4-5-1武蔵村山市民総合センター内","lat":35.746304,"lon":139.403259},{"name":"武蔵村山市子ども家庭支援センター","province":"東京都","city":"武蔵村山市","address":"武蔵村山市学園4-5-1武蔵村山市民総合センター内","lat":35.74613,"lon":139.40326},{"name":"上水高等学校","province":"東京都","city":"武蔵村山市","address":"東京都武蔵村山市大南4丁目62-1","lat":35.73534715,"lon":139.41235562},{"name":"武蔵村山高等学校","province":"東京都","city":"武蔵村山市","address":"東京都武蔵村山市中原1丁目7-1","lat":35.75687123,"lon":139.36591733},{"name":"放課後等デイサービス　あかぐみ","province":"東京都","city":"武蔵村山市","address":"武蔵村山市中央1-25-14ハウスオブブーケC棟101","lat":35.753247,"lon":139.389335},{"name":"放課後デイサービスひだまり","province":"東京都","city":"武蔵村山市","address":"武蔵村山市本町1-63-1","lat":35.753064,"lon":139.385857},{"name":"クローバー","province":"東京都","city":"武蔵村山市","address":"武蔵村山市学園1-112-8","lat":35.746232,"lon":139.396723},{"name":"放課後等デイサービス　トライきっず","province":"東京都","city":"武蔵村山市","address":"武蔵村山市大南3-72-1柏木マンション102号","lat":35.735569,"lon":139.405404},{"name":"放課後デイサービス　せせらぎ","province":"東京都","city":"武蔵村山市","address":"武蔵村山市大南1-111-23","lat":35.736438,"lon":139.396896},{"name":"放課後等デイサービス　どりーむ","province":"東京都","city":"武蔵村山市","address":"武蔵村山市三ツ藤2丁目27番地4","lat":35.752008,"lon":139.375195},{"name":"妖精の杜","province":"東京都","city":"武蔵村山市","address":"武蔵村山市残堀1-110-9","lat":35.744628,"lon":139.37552},{"name":"あい武蔵村山","province":"東京都","city":"武蔵村山市","address":"武蔵村山市中原4-3-2","lat":35.752699,"lon":139.363795},{"name":"武蔵村山市子ども家庭支援センター","province":"東京都","city":"武蔵村山市","address":"武蔵村山市学園4-5-1武蔵村山市民総合センター内","lat":35.746304,"lon":139.403259},{"name":"武蔵村山市子ども家庭支援センター","province":"東京都","city":"武蔵村山市","address":"武蔵村山市学園4-5-1武蔵村山市民総合センター内","lat":35.74613,"lon":139.40326},{"name":"上水高等学校","province":"東京都","city":"武蔵村山市","address":"東京都武蔵村山市大南4丁目62-1","lat":35.73534715,"lon":139.41235562},{"name":"武蔵村山高等学校","province":"東京都","city":"武蔵村山市","address":"東京都武蔵村山市中原1丁目7-1","lat":35.75687123,"lon":139.36591733},{"name":"放課後等デイサービス　あかぐみ","province":"東京都","city":"武蔵村山市","address":"武蔵村山市中央1-25-14ハウスオブブーケC棟101","lat":35.753247,"lon":139.389335},{"name":"放課後デイサービスひだまり","province":"東京都","city":"武蔵村山市","address":"武蔵村山市本町1-63-1","lat":35.753064,"lon":139.385857},{"name":"クローバー","province":"東京都","city":"武蔵村山市","address":"武蔵村山市学園1-112-8","lat":35.746232,"lon":139.396723},{"name":"放課後等デイサービス　トライきっず","province":"東京都","city":"武蔵村山市","address":"武蔵村山市大南3-72-1柏木マンション102号","lat":35.735569,"lon":139.405404},{"name":"放課後デイサービス　せせらぎ","province":"東京都","city":"武蔵村山市","address":"武蔵村山市大南1-111-23","lat":35.736438,"lon":139.396896},{"name":"放課後等デイサービス　どりーむ","province":"東京都","city":"武蔵村山市","address":"武蔵村山市三ツ藤2丁目27番地4","lat":35.752008,"lon":139.375195},{"name":"妖精の杜","province":"東京都","city":"武蔵村山市","address":"武蔵村山市残堀1-110-9","lat":35.744628,"lon":139.37552},{"name":"あい武蔵村山","province":"東京都","city":"武蔵村山市","address":"武蔵村山市中原4-3-2","lat":35.752699,"lon":139.363795},{"name":"武蔵村山市子ども家庭支援センター","province":"東京都","city":"武蔵村山市","address":"武蔵村山市学園4-5-1武蔵村山市民総合センター内","lat":35.746304,"lon":139.403259},{"name":"武蔵村山市子ども家庭支援センター","province":"東京都","city":"武蔵村山市","address":"武蔵村山市学園4-5-1武蔵村山市民総合センター内","lat":35.74613,"lon":139.40326},{"name":"上水高等学校","province":"東京都","city":"武蔵村山市","address":"東京都武蔵村山市大南4丁目62-1","lat":35.73534715,"lon":139.41235562},{"name":"武蔵村山高等学校","province":"東京都","city":"武蔵村山市","address":"東京都武蔵村山市中原1丁目7-1","lat":35.75687123,"lon":139.36591733},{"name":"放課後等デイサービス　あかぐみ","province":"東京都","city":"武蔵村山市","address":"武蔵村山市中央1-25-14ハウスオブブーケC棟101","lat":35.753247,"lon":139.389335},{"name":"放課後デイサービスひだまり","province":"東京都","city":"武蔵村山市","address":"武蔵村山市本町1-63-1","lat":35.753064,"lon":139.385857},{"name":"クローバー","province":"東京都","city":"武蔵村山市","address":"武蔵村山市学園1-112-8","lat":35.746232,"lon":139.396723},{"name":"放課後等デイサービス　トライきっず","province":"東京都","city":"武蔵村山市","address":"武蔵村山市大南3-72-1柏木マンション102号","lat":35.735569,"lon":139.405404},{"name":"放課後デイサービス　せせらぎ","province":"東京都","city":"武蔵村山市","address":"武蔵村山市大南1-111-23","lat":35.736438,"lon":139.396896},{"name":"放課後等デイサービス　どりーむ","province":"東京都","city":"武蔵村山市","address":"武蔵村山市三ツ藤2丁目27番地4","lat":35.752008,"lon":139.375195},{"name":"妖精の杜","province":"東京都","city":"武蔵村山市","address":"武蔵村山市残堀1-110-9","lat":35.744628,"lon":139.37552},{"name":"あい武蔵村山","province":"東京都","city":"武蔵村山市","address":"武蔵村山市中原4-3-2","lat":35.752699,"lon":139.363795},{"name":"武蔵村山市子ども家庭支援センター","province":"東京都","city":"武蔵村山市","address":"武蔵村山市学園4-5-1武蔵村山市民総合センター内","lat":35.746304,"lon":139.403259},{"name":"武蔵村山市子ども家庭支援センター","province":"東京都","city":"武蔵村山市","address":"武蔵村山市学園4-5-1武蔵村山市民総合センター内","lat":35.74613,"lon":139.40326},{"name":"上水高等学校","province":"東京都","city":"武蔵村山市","address":"東京都武蔵村山市大南4丁目62-1","lat":35.73534715,"lon":139.41235562},{"name":"武蔵村山高等学校","province":"東京都","city":"武蔵村山市","address":"東京都武蔵村山市中原1丁目7-1","lat":35.75687123,"lon":139.36591733},{"name":"放課後等デイサービス　あかぐみ","province":"東京都","city":"武蔵村山市","address":"武蔵村山市中央1-25-14ハウスオブブーケC棟101","lat":35.753247,"lon":139.389335},{"name":"放課後デイサービスひだまり","province":"東京都","city":"武蔵村山市","address":"武蔵村山市本町1-63-1","lat":35.753064,"lon":139.385857},{"name":"クローバー","province":"東京都","city":"武蔵村山市","address":"武蔵村山市学園1-112-8","lat":35.746232,"lon":139.396723},{"name":"放課後等デイサービス　トライきっず","province":"東京都","city":"武蔵村山市","address":"武蔵村山市大南3-72-1柏木マンション102号","lat":35.735569,"lon":139.405404},{"name":"放課後デイサービス　せせらぎ","province":"東京都","city":"武蔵村山市","address":"武蔵村山市大南1-111-23","lat":35.736438,"lon":139.396896},{"name":"放課後等デイサービス　どりーむ","province":"東京都","city":"武蔵村山市","address":"武蔵村山市三ツ藤2丁目27番地4","lat":35.752008,"lon":139.375195},{"name":"妖精の杜","province":"東京都","city":"武蔵村山市","address":"武蔵村山市残堀1-110-9","lat":35.744628,"lon":139.37552},{"name":"あい武蔵村山","province":"東京都","city":"武蔵村山市","address":"武蔵村山市中原4-3-2","lat":35.752699,"lon":139.363795},{"name":"武蔵村山市子ども家庭支援センター","province":"東京都","city":"武蔵村山市","address":"武蔵村山市学園4-5-1武蔵村山市民総合センター内","lat":35.746304,"lon":139.403259},{"name":"武蔵村山市子ども家庭支援センター","province":"東京都","city":"武蔵村山市","address":"武蔵村山市学園4-5-1武蔵村山市民総合センター内","lat":35.74613,"lon":139.40326},{"name":"上水高等学校","province":"東京都","city":"武蔵村山市","address":"東京都武蔵村山市大南4丁目62-1","lat":35.73534715,"lon":139.41235562},{"name":"武蔵村山高等学校","province":"東京都","city":"武蔵村山市","address":"東京都武蔵村山市中原1丁目7-1","lat":35.75687123,"lon":139.36591733},{"name":"放課後等デイサービス　あかぐみ","province":"東京都","city":"武蔵村山市","address":"武蔵村山市中央1-25-14ハウスオブブーケC棟101","lat":35.753247,"lon":139.389335},{"name":"放課後デイサービスひだまり","province":"東京都","city":"武蔵村山市","address":"武蔵村山市本町1-63-1","lat":35.753064,"lon":139.385857},{"name":"クローバー","province":"東京都","city":"武蔵村山市","address":"武蔵村山市学園1-112-8","lat":35.746232,"lon":139.396723},{"name":"放課後等デイサービス　トライきっず","province":"東京都","city":"武蔵村山市","address":"武蔵村山市大南3-72-1柏木マンション102号","lat":35.735569,"lon":139.405404},{"name":"放課後デイサービス　せせらぎ","province":"東京都","city":"武蔵村山市","address":"武蔵村山市大南1-111-23","lat":35.736438,"lon":139.396896},{"name":"放課後等デイサービス　どりーむ","province":"東京都","city":"武蔵村山市","address":"武蔵村山市三ツ藤2丁目27番地4","lat":35.752008,"lon":139.375195},{"name":"妖精の杜","province":"東京都","city":"武蔵村山市","address":"武蔵村山市残堀1-110-9","lat":35.744628,"lon":139.37552},{"name":"あい武蔵村山","province":"東京都","city":"武蔵村山市","address":"武蔵村山市中原4-3-2","lat":35.752699,"lon":139.363795},{"name":"武蔵村山市子ども家庭支援センター","province":"東京都","city":"武蔵村山市","address":"武蔵村山市学園4-5-1武蔵村山市民総合センター内","lat":35.746304,"lon":139.403259},{"name":"武蔵村山市子ども家庭支援センター","province":"東京都","city":"武蔵村山市","address":"武蔵村山市学園4-5-1武蔵村山市民総合センター内","lat":35.74613,"lon":139.40326},{"name":"上水高等学校","province":"東京都","city":"武蔵村山市","address":"東京都武蔵村山市大南4丁目62-1","lat":35.73534715,"lon":139.41235562},{"name":"武蔵村山高等学校","province":"東京都","city":"武蔵村山市","address":"東京都武蔵村山市中原1丁目7-1","lat":35.75687123,"lon":139.36591733},{"name":"放課後等デイサービス　あかぐみ","province":"東京都","city":"武蔵村山市","address":"武蔵村山市中央1-25-14ハウスオブブーケC棟101","lat":35.753247,"lon":139.389335},{"name":"放課後デイサービスひだまり","province":"東京都","city":"武蔵村山市","address":"武蔵村山市本町1-63-1","lat":35.753064,"lon":139.385857},{"name":"クローバー","province":"東京都","city":"武蔵村山市","address":"武蔵村山市学園1-112-8","lat":35.746232,"lon":139.396723},{"name":"放課後等デイサービス　トライきっず","province":"東京都","city":"武蔵村山市","address":"武蔵村山市大南3-72-1柏木マンション102号","lat":35.735569,"lon":139.405404},{"name":"放課後デイサービス　せせらぎ","province":"東京都","city":"武蔵村山市","address":"武蔵村山市大南1-111-23","lat":35.736438,"lon":139.396896},{"name":"放課後等デイサービス　どりーむ","province":"東京都","city":"武蔵村山市","address":"武蔵村山市三ツ藤2丁目27番地4","lat":35.752008,"lon":139.375195},{"name":"妖精の杜","province":"東京都","city":"武蔵村山市","address":"武蔵村山市残堀1-110-9","lat":35.744628,"lon":139.37552},{"name":"あい武蔵村山","province":"東京都","city":"武蔵村山市","address":"武蔵村山市中原4-3-2","lat":35.752699,"lon":139.363795},{"name":"武蔵村山市子ども家庭支援センター","province":"東京都","city":"武蔵村山市","address":"武蔵村山市学園4-5-1武蔵村山市民総合センター内","lat":35.746304,"lon":139.403259},{"name":"武蔵村山市子ども家庭支援センター","province":"東京都","city":"武蔵村山市","address":"武蔵村山市学園4-5-1武蔵村山市民総合センター内","lat":35.74613,"lon":139.40326},{"name":"上水高等学校","province":"東京都","city":"武蔵村山市","address":"東京都武蔵村山市大南4丁目62-1","lat":35.73534715,"lon":139.41235562},{"name":"武蔵村山高等学校","province":"東京都","city":"武蔵村山市","address":"東京都武蔵村山市中原1丁目7-1","lat":35.75687123,"lon":139.36591733},{"name":"放課後等デイサービス　あかぐみ","province":"東京都","city":"武蔵村山市","address":"武蔵村山市中央1-25-14ハウスオブブーケC棟101","lat":35.753247,"lon":139.389335},{"name":"放課後デイサービスひだまり","province":"東京都","city":"武蔵村山市","address":"武蔵村山市本町1-63-1","lat":35.753064,"lon":139.385857},{"name":"クローバー","province":"東京都","city":"武蔵村山市","address":"武蔵村山市学園1-112-8","lat":35.746232,"lon":139.396723},{"name":"放課後等デイサービス　トライきっず","province":"東京都","city":"武蔵村山市","address":"武蔵村山市大南3-72-1柏木マンション102号","lat":35.735569,"lon":139.405404},{"name":"放課後デイサービス　せせらぎ","province":"東京都","city":"武蔵村山市","address":"武蔵村山市大南1-111-23","lat":35.736438,"lon":139.396896},{"name":"放課後等デイサービス　どりーむ","province":"東京都","city":"武蔵村山市","address":"武蔵村山市三ツ藤2丁目27番地4","lat":35.752008,"lon":139.375195},{"name":"妖精の杜","province":"東京都","city":"武蔵村山市","address":"武蔵村山市残堀1-110-9","lat":35.744628,"lon":139.37552},{"name":"あい武蔵村山","province":"東京都","city":"武蔵村山市","address":"武蔵村山市中原4-3-2","lat":35.752699,"lon":139.363795},{"name":"武蔵村山市子ども家庭支援センター","province":"東京都","city":"武蔵村山市","address":"武蔵村山市学園4-5-1武蔵村山市民総合センター内","lat":35.746304,"lon":139.403259},{"name":"武蔵村山市子ども家庭支援センター","province":"東京都","city":"武蔵村山市","address":"武蔵村山市学園4-5-1武蔵村山市民総合センター内","lat":35.74613,"lon":139.40326},{"name":"上水高等学校","province":"東京都","city":"武蔵村山市","address":"東京都武蔵村山市大南4丁目62-1","lat":35.73534715,"lon":139.41235562},{"name":"武蔵村山高等学校","province":"東京都","city":"武蔵村山市","address":"東京都武蔵村山市中原1丁目7-1","lat":35.75687123,"lon":139.36591733},{"name":"放課後等デイサービス　あかぐみ","province":"東京都","city":"武蔵村山市","address":"武蔵村山市中央1-25-14ハウスオブブーケC棟101","lat":35.753247,"lon":139.389335},{"name":"放課後デイサービスひだまり","province":"東京都","city":"武蔵村山市","address":"武蔵村山市本町1-63-1","lat":35.753064,"lon":139.385857},{"name":"クローバー","province":"東京都","city":"武蔵村山市","address":"武蔵村山市学園1-112-8","lat":35.746232,"lon":139.396723},{"name":"放課後等デイサービス　トライきっず","province":"東京都","city":"武蔵村山市","address":"武蔵村山市大南3-72-1柏木マンション102号","lat":35.735569,"lon":139.405404},{"name":"放課後デイサービス　せせらぎ","province":"東京都","city":"武蔵村山市","address":"武蔵村山市大南1-111-23","lat":35.736438,"lon":139.396896},{"name":"放課後等デイサービス　どりーむ","province":"東京都","city":"武蔵村山市","address":"武蔵村山市三ツ藤2丁目27番地4","lat":35.752008,"lon":139.375195},{"name":"妖精の杜","province":"東京都","city":"武蔵村山市","address":"武蔵村山市残堀1-110-9","lat":35.744628,"lon":139.37552},{"name":"あい武蔵村山","province":"東京都","city":"武蔵村山市","address":"武蔵村山市中原4-3-2","lat":35.752699,"lon":139.363795},{"name":"武蔵村山市子ども家庭支援センター","province":"東京都","city":"武蔵村山市","address":"武蔵村山市学園4-5-1武蔵村山市民総合センター内","lat":35.746304,"lon":139.403259},{"name":"武蔵村山市子ども家庭支援センター","province":"東京都","city":"武蔵村山市","address":"武蔵村山市学園4-5-1武蔵村山市民総合センター内","lat":35.74613,"lon":139.40326},{"name":"上水高等学校","province":"東京都","city":"武蔵村山市","address":"東京都武蔵村山市大南4丁目62-1","lat":35.73534715,"lon":139.41235562},{"name":"武蔵村山高等学校","province":"東京都","city":"武蔵村山市","address":"東京都武蔵村山市中原1丁目7-1","lat":35.75687123,"lon":139.36591733},{"name":"放課後等デイサービス　あかぐみ","province":"東京都","city":"武蔵村山市","address":"武蔵村山市中央1-25-14ハウスオブブーケC棟101","lat":35.753247,"lon":139.389335},{"name":"放課後デイサービスひだまり","province":"東京都","city":"武蔵村山市","address":"武蔵村山市本町1-63-1","lat":35.753064,"lon":139.385857},{"name":"クローバー","province":"東京都","city":"武蔵村山市","address":"武蔵村山市学園1-112-8","lat":35.746232,"lon":139.396723},{"name":"放課後等デイサービス　トライきっず","province":"東京都","city":"武蔵村山市","address":"武蔵村山市大南3-72-1柏木マンション102号","lat":35.735569,"lon":139.405404},{"name":"放課後デイサービス　せせらぎ","province":"東京都","city":"武蔵村山市","address":"武蔵村山市大南1-111-23","lat":35.736438,"lon":139.396896},{"name":"放課後等デイサービス　どりーむ","province":"東京都","city":"武蔵村山市","address":"武蔵村山市三ツ藤2丁目27番地4","lat":35.752008,"lon":139.375195},{"name":"妖精の杜","province":"東京都","city":"武蔵村山市","address":"武蔵村山市残堀1-110-9","lat":35.744628,"lon":139.37552},{"name":"あい武蔵村山","province":"東京都","city":"武蔵村山市","address":"武蔵村山市中原4-3-2","lat":35.752699,"lon":139.363795},{"name":"武蔵村山市子ども家庭支援センター","province":"東京都","city":"武蔵村山市","address":"武蔵村山市学園4-5-1武蔵村山市民総合センター内","lat":35.746304,"lon":139.403259},{"name":"武蔵村山市子ども家庭支援センター","province":"東京都","city":"武蔵村山市","address":"武蔵村山市学園4-5-1武蔵村山市民総合センター内","lat":35.74613,"lon":139.40326},{"name":"上水高等学校","province":"東京都","city":"武蔵村山市","address":"東京都武蔵村山市大南4丁目62-1","lat":35.73534715,"lon":139.41235562},{"name":"武蔵村山高等学校","province":"東京都","city":"武蔵村山市","address":"東京都武蔵村山市中原1丁目7-1","lat":35.75687123,"lon":139.36591733},{"name":"放課後等デイサービス　あかぐみ","province":"東京都","city":"武蔵村山市","address":"武蔵村山市中央1-25-14ハウスオブブーケC棟101","lat":35.753247,"lon":139.389335},{"name":"放課後デイサービスひだまり","province":"東京都","city":"武蔵村山市","address":"武蔵村山市本町1-63-1","lat":35.753064,"lon":139.385857},{"name":"クローバー","province":"東京都","city":"武蔵村山市","address":"武蔵村山市学園1-112-8","lat":35.746232,"lon":139.396723},{"name":"放課後等デイサービス　トライきっず","province":"東京都","city":"武蔵村山市","address":"武蔵村山市大南3-72-1柏木マンション102号","lat":35.735569,"lon":139.405404},{"name":"放課後デイサービス　せせらぎ","province":"東京都","city":"武蔵村山市","address":"武蔵村山市大南1-111-23","lat":35.736438,"lon":139.396896},{"name":"放課後等デイサービス　どりーむ","province":"東京都","city":"武蔵村山市","address":"武蔵村山市三ツ藤2丁目27番地4","lat":35.752008,"lon":139.375195},{"name":"妖精の杜","province":"東京都","city":"武蔵村山市","address":"武蔵村山市残堀1-110-9","lat":35.744628,"lon":139.37552},{"name":"あい武蔵村山","province":"東京都","city":"武蔵村山市","address":"武蔵村山市中原4-3-2","lat":35.752699,"lon":139.363795},{"name":"武蔵村山市子ども家庭支援センター","province":"東京都","city":"武蔵村山市","address":"武蔵村山市学園4-5-1武蔵村山市民総合センター内","lat":35.746304,"lon":139.403259},{"name":"武蔵村山市子ども家庭支援センター","province":"東京都","city":"武蔵村山市","address":"武蔵村山市学園4-5-1武蔵村山市民総合センター内","lat":35.74613,"lon":139.40326},{"name":"上水高等学校","province":"東京都","city":"武蔵村山市","address":"東京都武蔵村山市大南4丁目62-1","lat":35.73534715,"lon":139.41235562},{"name":"武蔵村山高等学校","province":"東京都","city":"武蔵村山市","address":"東京都武蔵村山市中原1丁目7-1","lat":35.75687123,"lon":139.36591733},{"name":"放課後等デイサービス　あかぐみ","province":"東京都","city":"武蔵村山市","address":"武蔵村山市中央1-25-14ハウスオブブーケC棟101","lat":35.753247,"lon":139.389335},{"name":"放課後デイサービスひだまり","province":"東京都","city":"武蔵村山市","address":"武蔵村山市本町1-63-1","lat":35.753064,"lon":139.385857},{"name":"クローバー","province":"東京都","city":"武蔵村山市","address":"武蔵村山市学園1-112-8","lat":35.746232,"lon":139.396723},{"name":"放課後等デイサービス　トライきっず","province":"東京都","city":"武蔵村山市","address":"武蔵村山市大南3-72-1柏木マンション102号","lat":35.735569,"lon":139.405404},{"name":"放課後デイサービス　せせらぎ","province":"東京都","city":"武蔵村山市","address":"武蔵村山市大南1-111-23","lat":35.736438,"lon":139.396896},{"name":"放課後等デイサービス　どりーむ","province":"東京都","city":"武蔵村山市","address":"武蔵村山市三ツ藤2丁目27番地4","lat":35.752008,"lon":139.375195},{"name":"妖精の杜","province":"東京都","city":"武蔵村山市","address":"武蔵村山市残堀1-110-9","lat":35.744628,"lon":139.37552},{"name":"あい武蔵村山","province":"東京都","city":"武蔵村山市","address":"武蔵村山市中原4-3-2","lat":35.752699,"lon":139.363795},{"name":"武蔵村山市子ども家庭支援センター","province":"東京都","city":"武蔵村山市","address":"武蔵村山市学園4-5-1武蔵村山市民総合センター内","lat":35.746304,"lon":139.403259},{"name":"武蔵村山市子ども家庭支援センター","province":"東京都","city":"武蔵村山市","address":"武蔵村山市学園4-5-1武蔵村山市民総合センター内","lat":35.74613,"lon":139.40326},{"name":"上水高等学校","province":"東京都","city":"武蔵村山市","address":"東京都武蔵村山市大南4丁目62-1","lat":35.73534715,"lon":139.41235562},{"name":"武蔵村山高等学校","province":"東京都","city":"武蔵村山市","address":"東京都武蔵村山市中原1丁目7-1","lat":35.75687123,"lon":139.36591733},{"name":"放課後等デイサービス　あかぐみ","province":"東京都","city":"武蔵村山市","address":"武蔵村山市中央1-25-14ハウスオブブーケC棟101","lat":35.753247,"lon":139.389335},{"name":"放課後デイサービスひだまり","province":"東京都","city":"武蔵村山市","address":"武蔵村山市本町1-63-1","lat":35.753064,"lon":139.385857},{"name":"クローバー","province":"東京都","city":"武蔵村山市","address":"武蔵村山市学園1-112-8","lat":35.746232,"lon":139.396723},{"name":"放課後等デイサービス　トライきっず","province":"東京都","city":"武蔵村山市","address":"武蔵村山市大南3-72-1柏木マンション102号","lat":35.735569,"lon":139.405404},{"name":"放課後デイサービス　せせらぎ","province":"東京都","city":"武蔵村山市","address":"武蔵村山市大南1-111-23","lat":35.736438,"lon":139.396896},{"name":"放課後等デイサービス　どりーむ","province":"東京都","city":"武蔵村山市","address":"武蔵村山市三ツ藤2丁目27番地4","lat":35.752008,"lon":139.375195},{"name":"妖精の杜","province":"東京都","city":"武蔵村山市","address":"武蔵村山市残堀1-110-9","lat":35.744628,"lon":139.37552},{"name":"あい武蔵村山","province":"東京都","city":"武蔵村山市","address":"武蔵村山市中原4-3-2","lat":35.752699,"lon":139.363795},{"name":"武蔵村山市子ども家庭支援センター","province":"東京都","city":"武蔵村山市","address":"武蔵村山市学園4-5-1武蔵村山市民総合センター内","lat":35.746304,"lon":139.403259},{"name":"武蔵村山市子ども家庭支援センター","province":"東京都","city":"武蔵村山市","address":"武蔵村山市学園4-5-1武蔵村山市民総合センター内","lat":35.74613,"lon":139.40326},{"name":"放課後等デイサービス　あかぐみ","province":"東京都","city":"武蔵村山市","address":"武蔵村山市中央1-25-14ハウスオブブーケC棟101","lat":35.753247,"lon":139.389335},{"name":"放課後デイサービスひだまり","province":"東京都","city":"武蔵村山市","address":"武蔵村山市本町1-63-1","lat":35.753064,"lon":139.385857},{"name":"クローバー","province":"東京都","city":"武蔵村山市","address":"武蔵村山市学園1-112-8","lat":35.746232,"lon":139.396723},{"name":"放課後等デイサービス　トライきっず","province":"東京都","city":"武蔵村山市","address":"武蔵村山市大南3-72-1柏木マンション102号","lat":35.735569,"lon":139.405404},{"name":"放課後デイサービス　せせらぎ","province":"東京都","city":"武蔵村山市","address":"武蔵村山市大南1-111-23","lat":35.736438,"lon":139.396896},{"name":"放課後等デイサービス　どりーむ","province":"東京都","city":"武蔵村山市","address":"武蔵村山市三ツ藤2丁目27番地4","lat":35.752008,"lon":139.375195},{"name":"妖精の杜","province":"東京都","city":"武蔵村山市","address":"武蔵村山市残堀1-110-9","lat":35.744628,"lon":139.37552},{"name":"あい武蔵村山","province":"東京都","city":"武蔵村山市","address":"武蔵村山市中原4-3-2","lat":35.752699,"lon":139.363795},{"name":"武蔵村山市子ども家庭支援センター","province":"東京都","city":"武蔵村山市","address":"武蔵村山市学園4-5-1武蔵村山市民総合センター内","lat":35.746304,"lon":139.403259},{"name":"武蔵村山市子ども家庭支援センター","province":"東京都","city":"武蔵村山市","address":"武蔵村山市学園4-5-1武蔵村山市民総合センター内","lat":35.74613,"lon":139.40326},{"name":"放課後等デイサービス　あかぐみ","province":"東京都","city":"武蔵村山市","address":"武蔵村山市中央1-25-14ハウスオブブーケC棟101","lat":35.753247,"lon":139.389335},{"name":"放課後デイサービスひだまり","province":"東京都","city":"武蔵村山市","address":"武蔵村山市本町1-63-1","lat":35.753064,"lon":139.385857},{"name":"クローバー","province":"東京都","city":"武蔵村山市","address":"武蔵村山市学園1-112-8","lat":35.746232,"lon":139.396723},{"name":"放課後等デイサービス　トライきっず","province":"東京都","city":"武蔵村山市","address":"武蔵村山市大南3-72-1柏木マンション102号","lat":35.735569,"lon":139.405404},{"name":"放課後デイサービス　せせらぎ","province":"東京都","city":"武蔵村山市","address":"武蔵村山市大南1-111-23","lat":35.736438,"lon":139.396896},{"name":"放課後等デイサービス　どりーむ","province":"東京都","city":"武蔵村山市","address":"武蔵村山市三ツ藤2丁目27番地4","lat":35.752008,"lon":139.375195},{"name":"妖精の杜","province":"東京都","city":"武蔵村山市","address":"武蔵村山市残堀1-110-9","lat":35.744628,"lon":139.37552},{"name":"あい武蔵村山","province":"東京都","city":"武蔵村山市","address":"武蔵村山市中原4-3-2","lat":35.752699,"lon":139.363795},{"name":"武蔵村山市子ども家庭支援センター","province":"東京都","city":"武蔵村山市","address":"武蔵村山市学園4-5-1武蔵村山市民総合センター内","lat":35.746304,"lon":139.403259},{"name":"武蔵村山市子ども家庭支援センター","province":"東京都","city":"武蔵村山市","address":"武蔵村山市学園4-5-1武蔵村山市民総合センター内","lat":35.74613,"lon":139.40326},{"name":"放課後等デイサービス　あかぐみ","province":"東京都","city":"武蔵村山市","address":"武蔵村山市中央1-25-14ハウスオブブーケC棟101","lat":35.753247,"lon":139.389335},{"name":"放課後デイサービスひだまり","province":"東京都","city":"武蔵村山市","address":"武蔵村山市本町1-63-1","lat":35.753064,"lon":139.385857},{"name":"クローバー","province":"東京都","city":"武蔵村山市","address":"武蔵村山市学園1-112-8","lat":35.746232,"lon":139.396723},{"name":"放課後等デイサービス　トライきっず","province":"東京都","city":"武蔵村山市","address":"武蔵村山市大南3-72-1柏木マンション102号","lat":35.735569,"lon":139.405404},{"name":"放課後デイサービス　せせらぎ","province":"東京都","city":"武蔵村山市","address":"武蔵村山市大南1-111-23","lat":35.736438,"lon":139.396896},{"name":"放課後等デイサービス　どりーむ","province":"東京都","city":"武蔵村山市","address":"武蔵村山市三ツ藤2丁目27番地4","lat":35.752008,"lon":139.375195},{"name":"妖精の杜","province":"東京都","city":"武蔵村山市","address":"武蔵村山市残堀1-110-9","lat":35.744628,"lon":139.37552},{"name":"あい武蔵村山","province":"東京都","city":"武蔵村山市","address":"武蔵村山市中原4-3-2","lat":35.752699,"lon":139.363795},{"name":"武蔵村山市子ども家庭支援センター","province":"東京都","city":"武蔵村山市","address":"武蔵村山市学園4-5-1武蔵村山市民総合センター内","lat":35.746304,"lon":139.403259},{"name":"武蔵村山市子ども家庭支援センター","province":"東京都","city":"武蔵村山市","address":"武蔵村山市学園4-5-1武蔵村山市民総合センター内","lat":35.74613,"lon":139.40326},{"name":"放課後等デイサービス　あかぐみ","province":"東京都","city":"武蔵村山市","address":"武蔵村山市中央1-25-14ハウスオブブーケC棟101","lat":35.753247,"lon":139.389335},{"name":"放課後デイサービスひだまり","province":"東京都","city":"武蔵村山市","address":"武蔵村山市本町1-63-1","lat":35.753064,"lon":139.385857},{"name":"クローバー","province":"東京都","city":"武蔵村山市","address":"武蔵村山市学園1-112-8","lat":35.746232,"lon":139.396723},{"name":"放課後等デイサービス　トライきっず","province":"東京都","city":"武蔵村山市","address":"武蔵村山市大南3-72-1柏木マンション102号","lat":35.735569,"lon":139.405404},{"name":"放課後デイサービス　せせらぎ","province":"東京都","city":"武蔵村山市","address":"武蔵村山市大南1-111-23","lat":35.736438,"lon":139.396896},{"name":"放課後等デイサービス　どりーむ","province":"東京都","city":"武蔵村山市","address":"武蔵村山市三ツ藤2丁目27番地4","lat":35.752008,"lon":139.375195},{"name":"妖精の杜","province":"東京都","city":"武蔵村山市","address":"武蔵村山市残堀1-110-9","lat":35.744628,"lon":139.37552},{"name":"あい武蔵村山","province":"東京都","city":"武蔵村山市","address":"武蔵村山市中原4-3-2","lat":35.752699,"lon":139.363795},{"name":"武蔵村山市子ども家庭支援センター","province":"東京都","city":"武蔵村山市","address":"武蔵村山市学園4-5-1武蔵村山市民総合センター内","lat":35.746304,"lon":139.403259},{"name":"武蔵村山市子ども家庭支援センター","province":"東京都","city":"武蔵村山市","address":"武蔵村山市学園4-5-1武蔵村山市民総合センター内","lat":35.74613,"lon":139.40326},{"name":"放課後等デイサービス　あかぐみ","province":"東京都","city":"武蔵村山市","address":"武蔵村山市中央1-25-14ハウスオブブーケC棟101","lat":35.753247,"lon":139.389335},{"name":"放課後デイサービスひだまり","province":"東京都","city":"武蔵村山市","address":"武蔵村山市本町1-63-1","lat":35.753064,"lon":139.385857},{"name":"クローバー","province":"東京都","city":"武蔵村山市","address":"武蔵村山市学園1-112-8","lat":35.746232,"lon":139.396723},{"name":"放課後等デイサービス　トライきっず","province":"東京都","city":"武蔵村山市","address":"武蔵村山市大南3-72-1柏木マンション102号","lat":35.735569,"lon":139.405404},{"name":"放課後デイサービス　せせらぎ","province":"東京都","city":"武蔵村山市","address":"武蔵村山市大南1-111-23","lat":35.736438,"lon":139.396896},{"name":"放課後等デイサービス　どりーむ","province":"東京都","city":"武蔵村山市","address":"武蔵村山市三ツ藤2丁目27番地4","lat":35.752008,"lon":139.375195},{"name":"妖精の杜","province":"東京都","city":"武蔵村山市","address":"武蔵村山市残堀1-110-9","lat":35.744628,"lon":139.37552},{"name":"あい武蔵村山","province":"東京都","city":"武蔵村山市","address":"武蔵村山市中原4-3-2","lat":35.752699,"lon":139.363795},{"name":"武蔵村山市子ども家庭支援センター","province":"東京都","city":"武蔵村山市","address":"武蔵村山市学園4-5-1武蔵村山市民総合センター内","lat":35.746304,"lon":139.403259},{"name":"武蔵村山市子ども家庭支援センター","province":"東京都","city":"武蔵村山市","address":"武蔵村山市学園4-5-1武蔵村山市民総合センター内","lat":35.74613,"lon":139.40326},{"name":"放課後等デイサービス　あかぐみ","province":"東京都","city":"武蔵村山市","address":"武蔵村山市中央1-25-14ハウスオブブーケC棟101","lat":35.753247,"lon":139.389335},{"name":"放課後デイサービスひだまり","province":"東京都","city":"武蔵村山市","address":"武蔵村山市本町1-63-1","lat":35.753064,"lon":139.385857},{"name":"クローバー","province":"東京都","city":"武蔵村山市","address":"武蔵村山市学園1-112-8","lat":35.746232,"lon":139.396723},{"name":"放課後等デイサービス　トライきっず","province":"東京都","city":"武蔵村山市","address":"武蔵村山市大南3-72-1柏木マンション102号","lat":35.735569,"lon":139.405404},{"name":"放課後デイサービス　せせらぎ","province":"東京都","city":"武蔵村山市","address":"武蔵村山市大南1-111-23","lat":35.736438,"lon":139.396896},{"name":"放課後等デイサービス　どりーむ","province":"東京都","city":"武蔵村山市","address":"武蔵村山市三ツ藤2丁目27番地4","lat":35.752008,"lon":139.375195},{"name":"妖精の杜","province":"東京都","city":"武蔵村山市","address":"武蔵村山市残堀1-110-9","lat":35.744628,"lon":139.37552},{"name":"あい武蔵村山","province":"東京都","city":"武蔵村山市","address":"武蔵村山市中原4-3-2","lat":35.752699,"lon":139.363795},{"name":"武蔵村山市子ども家庭支援センター","province":"東京都","city":"武蔵村山市","address":"武蔵村山市学園4-5-1武蔵村山市民総合センター内","lat":35.746304,"lon":139.403259},{"name":"武蔵村山市子ども家庭支援センター","province":"東京都","city":"武蔵村山市","address":"武蔵村山市学園4-5-1武蔵村山市民総合センター内","lat":35.74613,"lon":139.40326},{"name":"放課後等デイサービス　あかぐみ","province":"東京都","city":"武蔵村山市","address":"武蔵村山市中央1-25-14ハウスオブブーケC棟101","lat":35.753247,"lon":139.389335},{"name":"放課後デイサービスひだまり","province":"東京都","city":"武蔵村山市","address":"武蔵村山市本町1-63-1","lat":35.753064,"lon":139.385857},{"name":"クローバー","province":"東京都","city":"武蔵村山市","address":"武蔵村山市学園1-112-8","lat":35.746232,"lon":139.396723},{"name":"放課後等デイサービス　トライきっず","province":"東京都","city":"武蔵村山市","address":"武蔵村山市大南3-72-1柏木マンション102号","lat":35.735569,"lon":139.405404},{"name":"放課後デイサービス　せせらぎ","province":"東京都","city":"武蔵村山市","address":"武蔵村山市大南1-111-23","lat":35.736438,"lon":139.396896},{"name":"放課後等デイサービス　どりーむ","province":"東京都","city":"武蔵村山市","address":"武蔵村山市三ツ藤2丁目27番地4","lat":35.752008,"lon":139.375195},{"name":"妖精の杜","province":"東京都","city":"武蔵村山市","address":"武蔵村山市残堀1-110-9","lat":35.744628,"lon":139.37552},{"name":"あい武蔵村山","province":"東京都","city":"武蔵村山市","address":"武蔵村山市中原4-3-2","lat":35.752699,"lon":139.363795},{"name":"武蔵村山市子ども家庭支援センター","province":"東京都","city":"武蔵村山市","address":"武蔵村山市学園4-5-1武蔵村山市民総合センター内","lat":35.746304,"lon":139.403259},{"name":"武蔵村山市子ども家庭支援センター","province":"東京都","city":"武蔵村山市","address":"武蔵村山市学園4-5-1武蔵村山市民総合センター内","lat":35.74613,"lon":139.40326},{"name":"放課後等デイサービス　あかぐみ","province":"東京都","city":"武蔵村山市","address":"武蔵村山市中央1-25-14ハウスオブブーケC棟101","lat":35.753247,"lon":139.389335},{"name":"放課後デイサービスひだまり","province":"東京都","city":"武蔵村山市","address":"武蔵村山市本町1-63-1","lat":35.753064,"lon":139.385857},{"name":"クローバー","province":"東京都","city":"武蔵村山市","address":"武蔵村山市学園1-112-8","lat":35.746232,"lon":139.396723},{"name":"放課後等デイサービス　トライきっず","province":"東京都","city":"武蔵村山市","address":"武蔵村山市大南3-72-1柏木マンション102号","lat":35.735569,"lon":139.405404},{"name":"放課後デイサービス　せせらぎ","province":"東京都","city":"武蔵村山市","address":"武蔵村山市大南1-111-23","lat":35.736438,"lon":139.396896},{"name":"放課後等デイサービス　どりーむ","province":"東京都","city":"武蔵村山市","address":"武蔵村山市三ツ藤2丁目27番地4","lat":35.752008,"lon":139.375195},{"name":"妖精の杜","province":"東京都","city":"武蔵村山市","address":"武蔵村山市残堀1-110-9","lat":35.744628,"lon":139.37552},{"name":"あい武蔵村山","province":"東京都","city":"武蔵村山市","address":"武蔵村山市中原4-3-2","lat":35.752699,"lon":139.363795},{"name":"武蔵村山市子ども家庭支援センター","province":"東京都","city":"武蔵村山市","address":"武蔵村山市学園4-5-1武蔵村山市民総合センター内","lat":35.746304,"lon":139.403259},{"name":"武蔵村山市子ども家庭支援センター","province":"東京都","city":"武蔵村山市","address":"武蔵村山市学園4-5-1武蔵村山市民総合センター内","lat":35.74613,"lon":139.40326},{"name":"放課後等デイサービス　あかぐみ","province":"東京都","city":"武蔵村山市","address":"武蔵村山市中央1-25-14ハウスオブブーケC棟101","lat":35.753247,"lon":139.389335},{"name":"放課後デイサービスひだまり","province":"東京都","city":"武蔵村山市","address":"武蔵村山市本町1-63-1","lat":35.753064,"lon":139.385857},{"name":"クローバー","province":"東京都","city":"武蔵村山市","address":"武蔵村山市学園1-112-8","lat":35.746232,"lon":139.396723},{"name":"放課後等デイサービス　トライきっず","province":"東京都","city":"武蔵村山市","address":"武蔵村山市大南3-72-1柏木マンション102号","lat":35.735569,"lon":139.405404},{"name":"放課後デイサービス　せせらぎ","province":"東京都","city":"武蔵村山市","address":"武蔵村山市大南1-111-23","lat":35.736438,"lon":139.396896},{"name":"放課後等デイサービス　どりーむ","province":"東京都","city":"武蔵村山市","address":"武蔵村山市三ツ藤2丁目27番地4","lat":35.752008,"lon":139.375195},{"name":"妖精の杜","province":"東京都","city":"武蔵村山市","address":"武蔵村山市残堀1-110-9","lat":35.744628,"lon":139.37552},{"name":"あい武蔵村山","province":"東京都","city":"武蔵村山市","address":"武蔵村山市中原4-3-2","lat":35.752699,"lon":139.363795},{"name":"武蔵村山市子ども家庭支援センター","province":"東京都","city":"武蔵村山市","address":"武蔵村山市学園4-5-1武蔵村山市民総合センター内","lat":35.746304,"lon":139.403259},{"name":"武蔵村山市子ども家庭支援センター","province":"東京都","city":"武蔵村山市","address":"武蔵村山市学園4-5-1武蔵村山市民総合センター内","lat":35.74613,"lon":139.40326},{"name":"放課後等デイサービス　あかぐみ","province":"東京都","city":"武蔵村山市","address":"武蔵村山市中央1-25-14ハウスオブブーケC棟101","lat":35.753247,"lon":139.389335},{"name":"放課後デイサービスひだまり","province":"東京都","city":"武蔵村山市","address":"武蔵村山市本町1-63-1","lat":35.753064,"lon":139.385857},{"name":"クローバー","province":"東京都","city":"武蔵村山市","address":"武蔵村山市学園1-112-8","lat":35.746232,"lon":139.396723},{"name":"放課後等デイサービス　トライきっず","province":"東京都","city":"武蔵村山市","address":"武蔵村山市大南3-72-1柏木マンション102号","lat":35.735569,"lon":139.405404},{"name":"放課後デイサービス　せせらぎ","province":"東京都","city":"武蔵村山市","address":"武蔵村山市大南1-111-23","lat":35.736438,"lon":139.396896},{"name":"放課後等デイサービス　どりーむ","province":"東京都","city":"武蔵村山市","address":"武蔵村山市三ツ藤2丁目27番地4","lat":35.752008,"lon":139.375195},{"name":"妖精の杜","province":"東京都","city":"武蔵村山市","address":"武蔵村山市残堀1-110-9","lat":35.744628,"lon":139.37552},{"name":"あい武蔵村山","province":"東京都","city":"武蔵村山市","address":"武蔵村山市中原4-3-2","lat":35.752699,"lon":139.363795},{"name":"武蔵村山市子ども家庭支援センター","province":"東京都","city":"武蔵村山市","address":"武蔵村山市学園4-5-1武蔵村山市民総合センター内","lat":35.746304,"lon":139.403259},{"name":"武蔵村山市子ども家庭支援センター","province":"東京都","city":"武蔵村山市","address":"武蔵村山市学園4-5-1武蔵村山市民総合センター内","lat":35.74613,"lon":139.40326},{"name":"放課後等デイサービス　あかぐみ","province":"東京都","city":"武蔵村山市","address":"武蔵村山市中央1-25-14ハウスオブブーケC棟101","lat":35.753247,"lon":139.389335},{"name":"放課後デイサービスひだまり","province":"東京都","city":"武蔵村山市","address":"武蔵村山市本町1-63-1","lat":35.753064,"lon":139.385857},{"name":"クローバー","province":"東京都","city":"武蔵村山市","address":"武蔵村山市学園1-112-8","lat":35.746232,"lon":139.396723},{"name":"放課後等デイサービス　トライきっず","province":"東京都","city":"武蔵村山市","address":"武蔵村山市大南3-72-1柏木マンション102号","lat":35.735569,"lon":139.405404},{"name":"放課後デイサービス　せせらぎ","province":"東京都","city":"武蔵村山市","address":"武蔵村山市大南1-111-23","lat":35.736438,"lon":139.396896},{"name":"放課後等デイサービス　どりーむ","province":"東京都","city":"武蔵村山市","address":"武蔵村山市三ツ藤2丁目27番地4","lat":35.752008,"lon":139.375195},{"name":"妖精の杜","province":"東京都","city":"武蔵村山市","address":"武蔵村山市残堀1-110-9","lat":35.744628,"lon":139.37552},{"name":"あい武蔵村山","province":"東京都","city":"武蔵村山市","address":"武蔵村山市中原4-3-2","lat":35.752699,"lon":139.363795},{"name":"武蔵村山市子ども家庭支援センター","province":"東京都","city":"武蔵村山市","address":"武蔵村山市学園4-5-1武蔵村山市民総合センター内","lat":35.746304,"lon":139.403259},{"name":"武蔵村山市子ども家庭支援センター","province":"東京都","city":"武蔵村山市","address":"武蔵村山市学園4-5-1武蔵村山市民総合センター内","lat":35.74613,"lon":139.40326},{"name":"放課後等デイサービス　あかぐみ","province":"東京都","city":"武蔵村山市","address":"武蔵村山市中央1-25-14ハウスオブブーケC棟101","lat":35.753247,"lon":139.389335},{"name":"放課後デイサービスひだまり","province":"東京都","city":"武蔵村山市","address":"武蔵村山市本町1-63-1","lat":35.753064,"lon":139.385857},{"name":"クローバー","province":"東京都","city":"武蔵村山市","address":"武蔵村山市学園1-112-8","lat":35.746232,"lon":139.396723},{"name":"放課後等デイサービス　トライきっず","province":"東京都","city":"武蔵村山市","address":"武蔵村山市大南3-72-1柏木マンション102号","lat":35.735569,"lon":139.405404},{"name":"放課後デイサービス　せせらぎ","province":"東京都","city":"武蔵村山市","address":"武蔵村山市大南1-111-23","lat":35.736438,"lon":139.396896},{"name":"放課後等デイサービス　どりーむ","province":"東京都","city":"武蔵村山市","address":"武蔵村山市三ツ藤2丁目27番地4","lat":35.752008,"lon":139.375195},{"name":"妖精の杜","province":"東京都","city":"武蔵村山市","address":"武蔵村山市残堀1-110-9","lat":35.744628,"lon":139.37552},{"name":"あい武蔵村山","province":"東京都","city":"武蔵村山市","address":"武蔵村山市中原4-3-2","lat":35.752699,"lon":139.363795},{"name":"武蔵村山市子ども家庭支援センター","province":"東京都","city":"武蔵村山市","address":"武蔵村山市学園4-5-1武蔵村山市民総合センター内","lat":35.746304,"lon":139.403259},{"name":"武蔵村山市子ども家庭支援センター","province":"東京都","city":"武蔵村山市","address":"武蔵村山市学園4-5-1武蔵村山市民総合センター内","lat":35.74613,"lon":139.40326},{"name":"放課後等デイサービス　あかぐみ","province":"東京都","city":"武蔵村山市","address":"武蔵村山市中央1-25-14ハウスオブブーケC棟101","lat":35.753247,"lon":139.389335},{"name":"放課後デイサービスひだまり","province":"東京都","city":"武蔵村山市","address":"武蔵村山市本町1-63-1","lat":35.753064,"lon":139.385857},{"name":"クローバー","province":"東京都","city":"武蔵村山市","address":"武蔵村山市学園1-112-8","lat":35.746232,"lon":139.396723},{"name":"放課後等デイサービス　トライきっず","province":"東京都","city":"武蔵村山市","address":"武蔵村山市大南3-72-1柏木マンション102号","lat":35.735569,"lon":139.405404},{"name":"放課後デイサービス　せせらぎ","province":"東京都","city":"武蔵村山市","address":"武蔵村山市大南1-111-23","lat":35.736438,"lon":139.396896},{"name":"放課後等デイサービス　どりーむ","province":"東京都","city":"武蔵村山市","address":"武蔵村山市三ツ藤2丁目27番地4","lat":35.752008,"lon":139.375195},{"name":"妖精の杜","province":"東京都","city":"武蔵村山市","address":"武蔵村山市残堀1-110-9","lat":35.744628,"lon":139.37552},{"name":"あい武蔵村山","province":"東京都","city":"武蔵村山市","address":"武蔵村山市中原4-3-2","lat":35.752699,"lon":139.363795},{"name":"武蔵村山市子ども家庭支援センター","province":"東京都","city":"武蔵村山市","address":"武蔵村山市学園4-5-1武蔵村山市民総合センター内","lat":35.746304,"lon":139.403259},{"name":"武蔵村山市子ども家庭支援センター","province":"東京都","city":"武蔵村山市","address":"武蔵村山市学園4-5-1武蔵村山市民総合センター内","lat":35.74613,"lon":139.40326},{"name":"放課後等デイサービス　あかぐみ","province":"東京都","city":"武蔵村山市","address":"武蔵村山市中央1-25-14ハウスオブブーケC棟101","lat":35.753247,"lon":139.389335},{"name":"放課後デイサービスひだまり","province":"東京都","city":"武蔵村山市","address":"武蔵村山市本町1-63-1","lat":35.753064,"lon":139.385857},{"name":"クローバー","province":"東京都","city":"武蔵村山市","address":"武蔵村山市学園1-112-8","lat":35.746232,"lon":139.396723},{"name":"放課後等デイサービス　トライきっず","province":"東京都","city":"武蔵村山市","address":"武蔵村山市大南3-72-1柏木マンション102号","lat":35.735569,"lon":139.405404},{"name":"放課後デイサービス　せせらぎ","province":"東京都","city":"武蔵村山市","address":"武蔵村山市大南1-111-23","lat":35.736438,"lon":139.396896},{"name":"放課後等デイサービス　どりーむ","province":"東京都","city":"武蔵村山市","address":"武蔵村山市三ツ藤2丁目27番地4","lat":35.752008,"lon":139.375195},{"name":"妖精の杜","province":"東京都","city":"武蔵村山市","address":"武蔵村山市残堀1-110-9","lat":35.744628,"lon":139.37552},{"name":"あい武蔵村山","province":"東京都","city":"武蔵村山市","address":"武蔵村山市中原4-3-2","lat":35.752699,"lon":139.363795},{"name":"武蔵村山市子ども家庭支援センター","province":"東京都","city":"武蔵村山市","address":"武蔵村山市学園4-5-1武蔵村山市民総合センター内","lat":35.746304,"lon":139.403259},{"name":"武蔵村山市子ども家庭支援センター","province":"東京都","city":"武蔵村山市","address":"武蔵村山市学園4-5-1武蔵村山市民総合センター内","lat":35.74613,"lon":139.40326},{"name":"放課後等デイサービス　あかぐみ","province":"東京都","city":"武蔵村山市","address":"武蔵村山市中央1-25-14ハウスオブブーケC棟101","lat":35.753247,"lon":139.389335},{"name":"放課後デイサービスひだまり","province":"東京都","city":"武蔵村山市","address":"武蔵村山市本町1-63-1","lat":35.753064,"lon":139.385857},{"name":"クローバー","province":"東京都","city":"武蔵村山市","address":"武蔵村山市学園1-112-8","lat":35.746232,"lon":139.396723},{"name":"放課後等デイサービス　トライきっず","province":"東京都","city":"武蔵村山市","address":"武蔵村山市大南3-72-1柏木マンション102号","lat":35.735569,"lon":139.405404},{"name":"放課後デイサービス　せせらぎ","province":"東京都","city":"武蔵村山市","address":"武蔵村山市大南1-111-23","lat":35.736438,"lon":139.396896},{"name":"放課後等デイサービス　どりーむ","province":"東京都","city":"武蔵村山市","address":"武蔵村山市三ツ藤2丁目27番地4","lat":35.752008,"lon":139.375195},{"name":"妖精の杜","province":"東京都","city":"武蔵村山市","address":"武蔵村山市残堀1-110-9","lat":35.744628,"lon":139.37552},{"name":"あい武蔵村山","province":"東京都","city":"武蔵村山市","address":"武蔵村山市中原4-3-2","lat":35.752699,"lon":139.363795},{"name":"武蔵村山市子ども家庭支援センター","province":"東京都","city":"武蔵村山市","address":"武蔵村山市学園4-5-1武蔵村山市民総合センター内","lat":35.746304,"lon":139.403259},{"name":"武蔵村山市子ども家庭支援センター","province":"東京都","city":"武蔵村山市","address":"武蔵村山市学園4-5-1武蔵村山市民総合センター内","lat":35.74613,"lon":139.40326},{"name":"放課後等デイサービス　あかぐみ","province":"東京都","city":"武蔵村山市","address":"武蔵村山市中央1-25-14ハウスオブブーケC棟101","lat":35.753247,"lon":139.389335},{"name":"放課後デイサービスひだまり","province":"東京都","city":"武蔵村山市","address":"武蔵村山市本町1-63-1","lat":35.753064,"lon":139.385857},{"name":"クローバー","province":"東京都","city":"武蔵村山市","address":"武蔵村山市学園1-112-8","lat":35.746232,"lon":139.396723},{"name":"放課後等デイサービス　トライきっず","province":"東京都","city":"武蔵村山市","address":"武蔵村山市大南3-72-1柏木マンション102号","lat":35.735569,"lon":139.405404},{"name":"放課後デイサービス　せせらぎ","province":"東京都","city":"武蔵村山市","address":"武蔵村山市大南1-111-23","lat":35.736438,"lon":139.396896},{"name":"放課後等デイサービス　どりーむ","province":"東京都","city":"武蔵村山市","address":"武蔵村山市三ツ藤2丁目27番地4","lat":35.752008,"lon":139.375195},{"name":"妖精の杜","province":"東京都","city":"武蔵村山市","address":"武蔵村山市残堀1-110-9","lat":35.744628,"lon":139.37552},{"name":"あい武蔵村山","province":"東京都","city":"武蔵村山市","address":"武蔵村山市中原4-3-2","lat":35.752699,"lon":139.363795},{"name":"武蔵村山市子ども家庭支援センター","province":"東京都","city":"武蔵村山市","address":"武蔵村山市学園4-5-1武蔵村山市民総合センター内","lat":35.746304,"lon":139.403259},{"name":"武蔵村山市子ども家庭支援センター","province":"東京都","city":"武蔵村山市","address":"武蔵村山市学園4-5-1武蔵村山市民総合センター内","lat":35.74613,"lon":139.40326},{"name":"放課後等デイサービス　あかぐみ","province":"東京都","city":"武蔵村山市","address":"武蔵村山市中央1-25-14ハウスオブブーケC棟101","lat":35.753247,"lon":139.389335},{"name":"放課後デイサービスひだまり","province":"東京都","city":"武蔵村山市","address":"武蔵村山市本町1-63-1","lat":35.753064,"lon":139.385857},{"name":"クローバー","province":"東京都","city":"武蔵村山市","address":"武蔵村山市学園1-112-8","lat":35.746232,"lon":139.396723},{"name":"放課後等デイサービス　トライきっず","province":"東京都","city":"武蔵村山市","address":"武蔵村山市大南3-72-1柏木マンション102号","lat":35.735569,"lon":139.405404},{"name":"放課後デイサービス　せせらぎ","province":"東京都","city":"武蔵村山市","address":"武蔵村山市大南1-111-23","lat":35.736438,"lon":139.396896},{"name":"放課後等デイサービス　どりーむ","province":"東京都","city":"武蔵村山市","address":"武蔵村山市三ツ藤2丁目27番地4","lat":35.752008,"lon":139.375195},{"name":"妖精の杜","province":"東京都","city":"武蔵村山市","address":"武蔵村山市残堀1-110-9","lat":35.744628,"lon":139.37552},{"name":"あい武蔵村山","province":"東京都","city":"武蔵村山市","address":"武蔵村山市中原4-3-2","lat":35.752699,"lon":139.363795},{"name":"武蔵村山市子ども家庭支援センター","province":"東京都","city":"武蔵村山市","address":"武蔵村山市学園4-5-1武蔵村山市民総合センター内","lat":35.746304,"lon":139.403259},{"name":"武蔵村山市子ども家庭支援センター","province":"東京都","city":"武蔵村山市","address":"武蔵村山市学園4-5-1武蔵村山市民総合センター内","lat":35.74613,"lon":139.40326},{"name":"放課後等デイサービス　あかぐみ","province":"東京都","city":"武蔵村山市","address":"武蔵村山市中央1-25-14ハウスオブブーケC棟101","lat":35.753247,"lon":139.389335},{"name":"放課後デイサービスひだまり","province":"東京都","city":"武蔵村山市","address":"武蔵村山市本町1-63-1","lat":35.753064,"lon":139.385857},{"name":"クローバー","province":"東京都","city":"武蔵村山市","address":"武蔵村山市学園1-112-8","lat":35.746232,"lon":139.396723},{"name":"放課後等デイサービス　トライきっず","province":"東京都","city":"武蔵村山市","address":"武蔵村山市大南3-72-1柏木マンション102号","lat":35.735569,"lon":139.405404},{"name":"放課後デイサービス　せせらぎ","province":"東京都","city":"武蔵村山市","address":"武蔵村山市大南1-111-23","lat":35.736438,"lon":139.396896},{"name":"放課後等デイサービス　どりーむ","province":"東京都","city":"武蔵村山市","address":"武蔵村山市三ツ藤2丁目27番地4","lat":35.752008,"lon":139.375195},{"name":"妖精の杜","province":"東京都","city":"武蔵村山市","address":"武蔵村山市残堀1-110-9","lat":35.744628,"lon":139.37552},{"name":"あい武蔵村山","province":"東京都","city":"武蔵村山市","address":"武蔵村山市中原4-3-2","lat":35.752699,"lon":139.363795},{"name":"武蔵村山市子ども家庭支援センター","province":"東京都","city":"武蔵村山市","address":"武蔵村山市学園4-5-1武蔵村山市民総合センター内","lat":35.746304,"lon":139.403259},{"name":"武蔵村山市子ども家庭支援センター","province":"東京都","city":"武蔵村山市","address":"武蔵村山市学園4-5-1武蔵村山市民総合センター内","lat":35.74613,"lon":139.40326},{"name":"放課後等デイサービス　あかぐみ","province":"東京都","city":"武蔵村山市","address":"武蔵村山市中央1-25-14ハウスオブブーケC棟101","lat":35.753247,"lon":139.389335},{"name":"放課後デイサービスひだまり","province":"東京都","city":"武蔵村山市","address":"武蔵村山市本町1-63-1","lat":35.753064,"lon":139.385857},{"name":"クローバー","province":"東京都","city":"武蔵村山市","address":"武蔵村山市学園1-112-8","lat":35.746232,"lon":139.396723},{"name":"放課後等デイサービス　トライきっず","province":"東京都","city":"武蔵村山市","address":"武蔵村山市大南3-72-1柏木マンション102号","lat":35.735569,"lon":139.405404},{"name":"放課後デイサービス　せせらぎ","province":"東京都","city":"武蔵村山市","address":"武蔵村山市大南1-111-23","lat":35.736438,"lon":139.396896},{"name":"放課後等デイサービス　どりーむ","province":"東京都","city":"武蔵村山市","address":"武蔵村山市三ツ藤2丁目27番地4","lat":35.752008,"lon":139.375195},{"name":"妖精の杜","province":"東京都","city":"武蔵村山市","address":"武蔵村山市残堀1-110-9","lat":35.744628,"lon":139.37552},{"name":"あい武蔵村山","province":"東京都","city":"武蔵村山市","address":"武蔵村山市中原4-3-2","lat":35.752699,"lon":139.363795},{"name":"武蔵村山市子ども家庭支援センター","province":"東京都","city":"武蔵村山市","address":"武蔵村山市学園4-5-1武蔵村山市民総合センター内","lat":35.746304,"lon":139.403259},{"name":"武蔵村山市子ども家庭支援センター","province":"東京都","city":"武蔵村山市","address":"武蔵村山市学園4-5-1武蔵村山市民総合センター内","lat":35.74613,"lon":139.40326},{"name":"放課後等デイサービス　あかぐみ","province":"東京都","city":"武蔵村山市","address":"武蔵村山市中央1-25-14ハウスオブブーケC棟101","lat":35.753247,"lon":139.389335},{"name":"放課後デイサービスひだまり","province":"東京都","city":"武蔵村山市","address":"武蔵村山市本町1-63-1","lat":35.753064,"lon":139.385857},{"name":"クローバー","province":"東京都","city":"武蔵村山市","address":"武蔵村山市学園1-112-8","lat":35.746232,"lon":139.396723},{"name":"放課後等デイサービス　トライきっず","province":"東京都","city":"武蔵村山市","address":"武蔵村山市大南3-72-1柏木マンション102号","lat":35.735569,"lon":139.405404},{"name":"放課後デイサービス　せせらぎ","province":"東京都","city":"武蔵村山市","address":"武蔵村山市大南1-111-23","lat":35.736438,"lon":139.396896},{"name":"放課後等デイサービス　どりーむ","province":"東京都","city":"武蔵村山市","address":"武蔵村山市三ツ藤2丁目27番地4","lat":35.752008,"lon":139.375195},{"name":"妖精の杜","province":"東京都","city":"武蔵村山市","address":"武蔵村山市残堀1-110-9","lat":35.744628,"lon":139.37552},{"name":"あい武蔵村山","province":"東京都","city":"武蔵村山市","address":"武蔵村山市中原4-3-2","lat":35.752699,"lon":139.363795},{"name":"武蔵村山市子ども家庭支援センター","province":"東京都","city":"武蔵村山市","address":"武蔵村山市学園4-5-1武蔵村山市民総合センター内","lat":35.746304,"lon":139.403259},{"name":"武蔵村山市子ども家庭支援センター","province":"東京都","city":"武蔵村山市","address":"武蔵村山市学園4-5-1武蔵村山市民総合センター内","lat":35.74613,"lon":139.40326},{"name":"放課後等デイサービス　あかぐみ","province":"東京都","city":"武蔵村山市","address":"武蔵村山市中央1-25-14ハウスオブブーケC棟101","lat":35.753247,"lon":139.389335},{"name":"放課後デイサービスひだまり","province":"東京都","city":"武蔵村山市","address":"武蔵村山市本町1-63-1","lat":35.753064,"lon":139.385857},{"name":"クローバー","province":"東京都","city":"武蔵村山市","address":"武蔵村山市学園1-112-8","lat":35.746232,"lon":139.396723},{"name":"放課後等デイサービス　トライきっず","province":"東京都","city":"武蔵村山市","address":"武蔵村山市大南3-72-1柏木マンション102号","lat":35.735569,"lon":139.405404},{"name":"放課後デイサービス　せせらぎ","province":"東京都","city":"武蔵村山市","address":"武蔵村山市大南1-111-23","lat":35.736438,"lon":139.396896},{"name":"放課後等デイサービス　どりーむ","province":"東京都","city":"武蔵村山市","address":"武蔵村山市三ツ藤2丁目27番地4","lat":35.752008,"lon":139.375195},{"name":"妖精の杜","province":"東京都","city":"武蔵村山市","address":"武蔵村山市残堀1-110-9","lat":35.744628,"lon":139.37552},{"name":"あい武蔵村山","province":"東京都","city":"武蔵村山市","address":"武蔵村山市中原4-3-2","lat":35.752699,"lon":139.363795},{"name":"武蔵村山市子ども家庭支援センター","province":"東京都","city":"武蔵村山市","address":"武蔵村山市学園4-5-1武蔵村山市民総合センター内","lat":35.746304,"lon":139.403259},{"name":"武蔵村山市子ども家庭支援センター","province":"東京都","city":"武蔵村山市","address":"武蔵村山市学園4-5-1武蔵村山市民総合センター内","lat":35.74613,"lon":139.40326},{"name":"放課後等デイサービス　あかぐみ","province":"東京都","city":"武蔵村山市","address":"武蔵村山市中央1-25-14ハウスオブブーケC棟101","lat":35.753247,"lon":139.389335},{"name":"放課後デイサービスひだまり","province":"東京都","city":"武蔵村山市","address":"武蔵村山市本町1-63-1","lat":35.753064,"lon":139.385857},{"name":"クローバー","province":"東京都","city":"武蔵村山市","address":"武蔵村山市学園1-112-8","lat":35.746232,"lon":139.396723},{"name":"放課後等デイサービス　トライきっず","province":"東京都","city":"武蔵村山市","address":"武蔵村山市大南3-72-1柏木マンション102号","lat":35.735569,"lon":139.405404},{"name":"放課後デイサービス　せせらぎ","province":"東京都","city":"武蔵村山市","address":"武蔵村山市大南1-111-23","lat":35.736438,"lon":139.396896},{"name":"放課後等デイサービス　どりーむ","province":"東京都","city":"武蔵村山市","address":"武蔵村山市三ツ藤2丁目27番地4","lat":35.752008,"lon":139.375195},{"name":"妖精の杜","province":"東京都","city":"武蔵村山市","address":"武蔵村山市残堀1-110-9","lat":35.744628,"lon":139.37552},{"name":"あい武蔵村山","province":"東京都","city":"武蔵村山市","address":"武蔵村山市中原4-3-2","lat":35.752699,"lon":139.363795},{"name":"武蔵村山市子ども家庭支援センター","province":"東京都","city":"武蔵村山市","address":"武蔵村山市学園4-5-1武蔵村山市民総合センター内","lat":35.746304,"lon":139.403259},{"name":"武蔵村山市子ども家庭支援センター","province":"東京都","city":"武蔵村山市","address":"武蔵村山市学園4-5-1武蔵村山市民総合センター内","lat":35.74613,"lon":139.40326},{"name":"放課後等デイサービス　あかぐみ","province":"東京都","city":"武蔵村山市","address":"武蔵村山市中央1-25-14ハウスオブブーケC棟101","lat":35.753247,"lon":139.389335},{"name":"放課後デイサービスひだまり","province":"東京都","city":"武蔵村山市","address":"武蔵村山市本町1-63-1","lat":35.753064,"lon":139.385857},{"name":"クローバー","province":"東京都","city":"武蔵村山市","address":"武蔵村山市学園1-112-8","lat":35.746232,"lon":139.396723},{"name":"放課後等デイサービス　トライきっず","province":"東京都","city":"武蔵村山市","address":"武蔵村山市大南3-72-1柏木マンション102号","lat":35.735569,"lon":139.405404},{"name":"放課後デイサービス　せせらぎ","province":"東京都","city":"武蔵村山市","address":"武蔵村山市大南1-111-23","lat":35.736438,"lon":139.396896},{"name":"放課後等デイサービス　どりーむ","province":"東京都","city":"武蔵村山市","address":"武蔵村山市三ツ藤2丁目27番地4","lat":35.752008,"lon":139.375195},{"name":"妖精の杜","province":"東京都","city":"武蔵村山市","address":"武蔵村山市残堀1-110-9","lat":35.744628,"lon":139.37552},{"name":"あい武蔵村山","province":"東京都","city":"武蔵村山市","address":"武蔵村山市中原4-3-2","lat":35.752699,"lon":139.363795},{"name":"武蔵村山市子ども家庭支援センター","province":"東京都","city":"武蔵村山市","address":"武蔵村山市学園4-5-1武蔵村山市民総合センター内","lat":35.746304,"lon":139.403259},{"name":"武蔵村山市子ども家庭支援センター","province":"東京都","city":"武蔵村山市","address":"武蔵村山市学園4-5-1武蔵村山市民総合センター内","lat":35.74613,"lon":139.40326},{"name":"放課後等デイサービス　あかぐみ","province":"東京都","city":"武蔵村山市","address":"武蔵村山市中央1-25-14ハウスオブブーケC棟101","lat":35.753247,"lon":139.389335},{"name":"放課後デイサービスひだまり","province":"東京都","city":"武蔵村山市","address":"武蔵村山市本町1-63-1","lat":35.753064,"lon":139.385857},{"name":"クローバー","province":"東京都","city":"武蔵村山市","address":"武蔵村山市学園1-112-8","lat":35.746232,"lon":139.396723},{"name":"放課後等デイサービス　トライきっず","province":"東京都","city":"武蔵村山市","address":"武蔵村山市大南3-72-1柏木マンション102号","lat":35.735569,"lon":139.405404},{"name":"放課後デイサービス　せせらぎ","province":"東京都","city":"武蔵村山市","address":"武蔵村山市大南1-111-23","lat":35.736438,"lon":139.396896},{"name":"放課後等デイサービス　どりーむ","province":"東京都","city":"武蔵村山市","address":"武蔵村山市三ツ藤2丁目27番地4","lat":35.752008,"lon":139.375195},{"name":"妖精の杜","province":"東京都","city":"武蔵村山市","address":"武蔵村山市残堀1-110-9","lat":35.744628,"lon":139.37552},{"name":"あい武蔵村山","province":"東京都","city":"武蔵村山市","address":"武蔵村山市中原4-3-2","lat":35.752699,"lon":139.363795},{"name":"武蔵村山市子ども家庭支援センター","province":"東京都","city":"武蔵村山市","address":"武蔵村山市学園4-5-1武蔵村山市民総合センター内","lat":35.746304,"lon":139.403259},{"name":"武蔵村山市子ども家庭支援センター","province":"東京都","city":"武蔵村山市","address":"武蔵村山市学園4-5-1武蔵村山市民総合センター内","lat":35.74613,"lon":139.40326},{"name":"放課後等デイサービス　あかぐみ","province":"東京都","city":"武蔵村山市","address":"武蔵村山市中央1-25-14ハウスオブブーケC棟101","lat":35.753247,"lon":139.389335},{"name":"放課後デイサービスひだまり","province":"東京都","city":"武蔵村山市","address":"武蔵村山市本町1-63-1","lat":35.753064,"lon":139.385857},{"name":"クローバー","province":"東京都","city":"武蔵村山市","address":"武蔵村山市学園1-112-8","lat":35.746232,"lon":139.396723},{"name":"放課後等デイサービス　トライきっず","province":"東京都","city":"武蔵村山市","address":"武蔵村山市大南3-72-1柏木マンション102号","lat":35.735569,"lon":139.405404},{"name":"放課後デイサービス　せせらぎ","province":"東京都","city":"武蔵村山市","address":"武蔵村山市大南1-111-23","lat":35.736438,"lon":139.396896},{"name":"放課後等デイサービス　どりーむ","province":"東京都","city":"武蔵村山市","address":"武蔵村山市三ツ藤2丁目27番地4","lat":35.752008,"lon":139.375195},{"name":"妖精の杜","province":"東京都","city":"武蔵村山市","address":"武蔵村山市残堀1-110-9","lat":35.744628,"lon":139.37552},{"name":"あい武蔵村山","province":"東京都","city":"武蔵村山市","address":"武蔵村山市中原4-3-2","lat":35.752699,"lon":139.363795},{"name":"武蔵村山市子ども家庭支援センター","province":"東京都","city":"武蔵村山市","address":"武蔵村山市学園4-5-1武蔵村山市民総合センター内","lat":35.746304,"lon":139.403259},{"name":"武蔵村山市子ども家庭支援センター","province":"東京都","city":"武蔵村山市","address":"武蔵村山市学園4-5-1武蔵村山市民総合センター内","lat":35.74613,"lon":139.40326},{"name":"放課後等デイサービス　あかぐみ","province":"東京都","city":"武蔵村山市","address":"武蔵村山市中央1-25-14ハウスオブブーケC棟101","lat":35.753247,"lon":139.389335},{"name":"放課後デイサービスひだまり","province":"東京都","city":"武蔵村山市","address":"武蔵村山市本町1-63-1","lat":35.753064,"lon":139.385857},{"name":"クローバー","province":"東京都","city":"武蔵村山市","address":"武蔵村山市学園1-112-8","lat":35.746232,"lon":139.396723},{"name":"放課後等デイサービス　トライきっず","province":"東京都","city":"武蔵村山市","address":"武蔵村山市大南3-72-1柏木マンション102号","lat":35.735569,"lon":139.405404},{"name":"放課後デイサービス　せせらぎ","province":"東京都","city":"武蔵村山市","address":"武蔵村山市大南1-111-23","lat":35.736438,"lon":139.396896},{"name":"放課後等デイサービス　どりーむ","province":"東京都","city":"武蔵村山市","address":"武蔵村山市三ツ藤2丁目27番地4","lat":35.752008,"lon":139.375195},{"name":"妖精の杜","province":"東京都","city":"武蔵村山市","address":"武蔵村山市残堀1-110-9","lat":35.744628,"lon":139.37552},{"name":"あい武蔵村山","province":"東京都","city":"武蔵村山市","address":"武蔵村山市中原4-3-2","lat":35.752699,"lon":139.363795},{"name":"武蔵村山市子ども家庭支援センター","province":"東京都","city":"武蔵村山市","address":"武蔵村山市学園4-5-1武蔵村山市民総合センター内","lat":35.746304,"lon":139.403259},{"name":"武蔵村山市子ども家庭支援センター","province":"東京都","city":"武蔵村山市","address":"武蔵村山市学園4-5-1武蔵村山市民総合センター内","lat":35.74613,"lon":139.40326},{"name":"放課後等デイサービス　あかぐみ","province":"東京都","city":"武蔵村山市","address":"武蔵村山市中央1-25-14ハウスオブブーケC棟101","lat":35.753247,"lon":139.389335},{"name":"放課後デイサービスひだまり","province":"東京都","city":"武蔵村山市","address":"武蔵村山市本町1-63-1","lat":35.753064,"lon":139.385857},{"name":"クローバー","province":"東京都","city":"武蔵村山市","address":"武蔵村山市学園1-112-8","lat":35.746232,"lon":139.396723},{"name":"放課後等デイサービス　トライきっず","province":"東京都","city":"武蔵村山市","address":"武蔵村山市大南3-72-1柏木マンション102号","lat":35.735569,"lon":139.405404},{"name":"放課後デイサービス　せせらぎ","province":"東京都","city":"武蔵村山市","address":"武蔵村山市大南1-111-23","lat":35.736438,"lon":139.396896},{"name":"放課後等デイサービス　どりーむ","province":"東京都","city":"武蔵村山市","address":"武蔵村山市三ツ藤2丁目27番地4","lat":35.752008,"lon":139.375195},{"name":"妖精の杜","province":"東京都","city":"武蔵村山市","address":"武蔵村山市残堀1-110-9","lat":35.744628,"lon":139.37552},{"name":"あい武蔵村山","province":"東京都","city":"武蔵村山市","address":"武蔵村山市中原4-3-2","lat":35.752699,"lon":139.363795},{"name":"武蔵村山市子ども家庭支援センター","province":"東京都","city":"武蔵村山市","address":"武蔵村山市学園4-5-1武蔵村山市民総合センター内","lat":35.746304,"lon":139.403259},{"name":"武蔵村山市子ども家庭支援センター","province":"東京都","city":"武蔵村山市","address":"武蔵村山市学園4-5-1武蔵村山市民総合センター内","lat":35.74613,"lon":139.40326},{"name":"放課後等デイサービス　あかぐみ","province":"東京都","city":"武蔵村山市","address":"武蔵村山市中央1-25-14ハウスオブブーケC棟101","lat":35.753247,"lon":139.389335},{"name":"放課後デイサービスひだまり","province":"東京都","city":"武蔵村山市","address":"武蔵村山市本町1-63-1","lat":35.753064,"lon":139.385857},{"name":"クローバー","province":"東京都","city":"武蔵村山市","address":"武蔵村山市学園1-112-8","lat":35.746232,"lon":139.396723},{"name":"放課後等デイサービス　トライきっず","province":"東京都","city":"武蔵村山市","address":"武蔵村山市大南3-72-1柏木マンション102号","lat":35.735569,"lon":139.405404},{"name":"放課後デイサービス　せせらぎ","province":"東京都","city":"武蔵村山市","address":"武蔵村山市大南1-111-23","lat":35.736438,"lon":139.396896},{"name":"放課後等デイサービス　どりーむ","province":"東京都","city":"武蔵村山市","address":"武蔵村山市三ツ藤2丁目27番地4","lat":35.752008,"lon":139.375195},{"name":"妖精の杜","province":"東京都","city":"武蔵村山市","address":"武蔵村山市残堀1-110-9","lat":35.744628,"lon":139.37552},{"name":"あい武蔵村山","province":"東京都","city":"武蔵村山市","address":"武蔵村山市中原4-3-2","lat":35.752699,"lon":139.363795},{"name":"武蔵村山市子ども家庭支援センター","province":"東京都","city":"武蔵村山市","address":"武蔵村山市学園4-5-1武蔵村山市民総合センター内","lat":35.746304,"lon":139.403259},{"name":"武蔵村山市子ども家庭支援センター","province":"東京都","city":"武蔵村山市","address":"武蔵村山市学園4-5-1武蔵村山市民総合センター内","lat":35.74613,"lon":139.40326},{"name":"放課後等デイサービス　あかぐみ","province":"東京都","city":"武蔵村山市","address":"武蔵村山市中央1-25-14ハウスオブブーケC棟101","lat":35.753247,"lon":139.389335},{"name":"放課後デイサービスひだまり","province":"東京都","city":"武蔵村山市","address":"武蔵村山市本町1-63-1","lat":35.753064,"lon":139.385857},{"name":"クローバー","province":"東京都","city":"武蔵村山市","address":"武蔵村山市学園1-112-8","lat":35.746232,"lon":139.396723},{"name":"放課後等デイサービス　トライきっず","province":"東京都","city":"武蔵村山市","address":"武蔵村山市大南3-72-1柏木マンション102号","lat":35.735569,"lon":139.405404},{"name":"放課後デイサービス　せせらぎ","province":"東京都","city":"武蔵村山市","address":"武蔵村山市大南1-111-23","lat":35.736438,"lon":139.396896},{"name":"放課後等デイサービス　どりーむ","province":"東京都","city":"武蔵村山市","address":"武蔵村山市三ツ藤2丁目27番地4","lat":35.752008,"lon":139.375195},{"name":"妖精の杜","province":"東京都","city":"武蔵村山市","address":"武蔵村山市残堀1-110-9","lat":35.744628,"lon":139.37552},{"name":"あい武蔵村山","province":"東京都","city":"武蔵村山市","address":"武蔵村山市中原4-3-2","lat":35.752699,"lon":139.363795},{"name":"武蔵村山市子ども家庭支援センター","province":"東京都","city":"武蔵村山市","address":"武蔵村山市学園4-5-1武蔵村山市民総合センター内","lat":35.746304,"lon":139.403259},{"name":"武蔵村山市子ども家庭支援センター","province":"東京都","city":"武蔵村山市","address":"武蔵村山市学園4-5-1武蔵村山市民総合センター内","lat":35.74613,"lon":139.40326},{"name":"放課後等デイサービス　あかぐみ","province":"東京都","city":"武蔵村山市","address":"武蔵村山市中央1-25-14ハウスオブブーケC棟101","lat":35.753247,"lon":139.389335},{"name":"放課後デイサービスひだまり","province":"東京都","city":"武蔵村山市","address":"武蔵村山市本町1-63-1","lat":35.753064,"lon":139.385857},{"name":"クローバー","province":"東京都","city":"武蔵村山市","address":"武蔵村山市学園1-112-8","lat":35.746232,"lon":139.396723},{"name":"放課後等デイサービス　トライきっず","province":"東京都","city":"武蔵村山市","address":"武蔵村山市大南3-72-1柏木マンション102号","lat":35.735569,"lon":139.405404},{"name":"放課後デイサービス　せせらぎ","province":"東京都","city":"武蔵村山市","address":"武蔵村山市大南1-111-23","lat":35.736438,"lon":139.396896},{"name":"放課後等デイサービス　どりーむ","province":"東京都","city":"武蔵村山市","address":"武蔵村山市三ツ藤2丁目27番地4","lat":35.752008,"lon":139.375195},{"name":"妖精の杜","province":"東京都","city":"武蔵村山市","address":"武蔵村山市残堀1-110-9","lat":35.744628,"lon":139.37552},{"name":"あい武蔵村山","province":"東京都","city":"武蔵村山市","address":"武蔵村山市中原4-3-2","lat":35.752699,"lon":139.363795},{"name":"武蔵村山市子ども家庭支援センター","province":"東京都","city":"武蔵村山市","address":"武蔵村山市学園4-5-1武蔵村山市民総合センター内","lat":35.746304,"lon":139.403259},{"name":"武蔵村山市子ども家庭支援センター","province":"東京都","city":"武蔵村山市","address":"武蔵村山市学園4-5-1武蔵村山市民総合センター内","lat":35.74613,"lon":139.40326},{"name":"放課後等デイサービス　あかぐみ","province":"東京都","city":"武蔵村山市","address":"武蔵村山市中央1-25-14ハウスオブブーケC棟101","lat":35.753247,"lon":139.389335},{"name":"放課後デイサービスひだまり","province":"東京都","city":"武蔵村山市","address":"武蔵村山市本町1-63-1","lat":35.753064,"lon":139.385857},{"name":"クローバー","province":"東京都","city":"武蔵村山市","address":"武蔵村山市学園1-112-8","lat":35.746232,"lon":139.396723},{"name":"放課後等デイサービス　トライきっず","province":"東京都","city":"武蔵村山市","address":"武蔵村山市大南3-72-1柏木マンション102号","lat":35.735569,"lon":139.405404},{"name":"放課後デイサービス　せせらぎ","province":"東京都","city":"武蔵村山市","address":"武蔵村山市大南1-111-23","lat":35.736438,"lon":139.396896},{"name":"放課後等デイサービス　どりーむ","province":"東京都","city":"武蔵村山市","address":"武蔵村山市三ツ藤2丁目27番地4","lat":35.752008,"lon":139.375195},{"name":"妖精の杜","province":"東京都","city":"武蔵村山市","address":"武蔵村山市残堀1-110-9","lat":35.744628,"lon":139.37552},{"name":"あい武蔵村山","province":"東京都","city":"武蔵村山市","address":"武蔵村山市中原4-3-2","lat":35.752699,"lon":139.363795},{"name":"武蔵村山市子ども家庭支援センター","province":"東京都","city":"武蔵村山市","address":"武蔵村山市学園4-5-1武蔵村山市民総合センター内","lat":35.746304,"lon":139.403259},{"name":"武蔵村山市子ども家庭支援センター","province":"東京都","city":"武蔵村山市","address":"武蔵村山市学園4-5-1武蔵村山市民総合センター内","lat":35.74613,"lon":139.40326}]}