{"keyword":"朝","data":[{"name":"有限会社 成華園","province":"東京都","city":"武蔵村山市","address":"東京都武蔵村山市学園3丁目61-5","lat":35.74423764,"lon":139.40527261},{"name":"有限会社  アヤノセレモニー","province":"東京都","city":"武蔵村山市","address":"東京都武蔵村山市学園5丁目15-14","lat":35.74475949,"lon":139.39270994},{"name":"合同会社 大南葬祭","province":"東京都","city":"武蔵村山市","address":"東京都武蔵村山市大南5丁目70-1","lat":35.74057152,"lon":139.41082221},{"name":"株式会社 セレモの森","province":"東京都","city":"武蔵村山市","address":"東京都武蔵村山市大南3丁目97-2","lat":35.73523306,"lon":139.402976},{"name":"有限会社 アヴィル 市民葬祭センター","province":"東京都","city":"武蔵村山市","address":"東京都武蔵村山市大南4丁目61-9","lat":35.73485551,"lon":139.41111687},{"name":"株式会社 むらやま葬祭","province":"東京都","city":"武蔵村山市","address":"東京都武蔵村山市大南1丁目2-1","lat":35.74221812,"lon":139.39303223},{"name":"株式会社 トータルプラン","province":"東京都","city":"武蔵村山市","address":"東京都武蔵村山市大南1丁目168-1","lat":35.73481073,"lon":139.39657665},{"name":"武蔵村山子ども食堂","province":"東京都","city":"武蔵村山市","address":"東京都武蔵村山市神明4丁目17-1","lat":35.75268109,"lon":139.40421683},{"name":"まどか食堂","province":"東京都","city":"武蔵村山市","address":"東京都武蔵村山市本町3丁目40-3","lat":35.75855478,"lon":139.38152149},{"name":"\"children’s kitchenうぉーく \"","province":"東京都","city":"武蔵村山市","address":"東京都武蔵村山市学園4丁目5-1","lat":35.74627625,"lon":139.40299776},{"name":"子ども食堂ぶどうハウス","province":"東京都","city":"武蔵村山市","address":"東京都武蔵村山市中原3丁目11-6","lat":35.75835147,"lon":139.36046217},{"name":"みんなの食堂　みっつ武蔵村山","province":"東京都","city":"武蔵村山市","address":"東京都武蔵村山市大南2丁目47-14","lat":35.74071024,"lon":139.40423952},{"name":"\"SOMPOの子ども食堂 \"","province":"東京都","city":"武蔵村山市","address":"東京都武蔵村山市三ツ藤1丁目4-1","lat":35.75192504,"lon":139.38247447},{"name":"学園通り入口","province":"東京都","city":"武蔵村山市","address":"東京都武蔵村山市緑が丘1460","lat":35.7429045,"lon":139.40695028},{"name":"中藤配水所","province":"東京都","city":"武蔵村山市","address":"東京都武蔵村山市中藤2丁目1-3","lat":35.7588829,"lon":139.3936565},{"name":"有限会社 成華園","province":"東京都","city":"武蔵村山市","address":"東京都武蔵村山市学園3丁目61-5","lat":35.74423764,"lon":139.40527261},{"name":"有限会社  アヤノセレモニー","province":"東京都","city":"武蔵村山市","address":"東京都武蔵村山市学園5丁目15-14","lat":35.74475949,"lon":139.39270994},{"name":"合同会社 大南葬祭","province":"東京都","city":"武蔵村山市","address":"東京都武蔵村山市大南5丁目70-1","lat":35.74057152,"lon":139.41082221},{"name":"株式会社 セレモの森","province":"東京都","city":"武蔵村山市","address":"東京都武蔵村山市大南3丁目97-2","lat":35.73523306,"lon":139.402976},{"name":"有限会社 アヴィル 市民葬祭センター","province":"東京都","city":"武蔵村山市","address":"東京都武蔵村山市大南4丁目61-9","lat":35.73485551,"lon":139.41111687},{"name":"株式会社 むらやま葬祭","province":"東京都","city":"武蔵村山市","address":"東京都武蔵村山市大南1丁目2-1","lat":35.74221812,"lon":139.39303223},{"name":"株式会社 トータルプラン","province":"東京都","city":"武蔵村山市","address":"東京都武蔵村山市大南1丁目168-1","lat":35.73481073,"lon":139.39657665},{"name":"武蔵村山子ども食堂","province":"東京都","city":"武蔵村山市","address":"東京都武蔵村山市神明4丁目17-1","lat":35.75268109,"lon":139.40421683},{"name":"まどか食堂","province":"東京都","city":"武蔵村山市","address":"東京都武蔵村山市本町3丁目40-3","lat":35.75855478,"lon":139.38152149},{"name":"\"children’s kitchenうぉーく \"","province":"東京都","city":"武蔵村山市","address":"東京都武蔵村山市学園4丁目5-1","lat":35.74627625,"lon":139.40299776},{"name":"子ども食堂ぶどうハウス","province":"東京都","city":"武蔵村山市","address":"東京都武蔵村山市中原3丁目11-6","lat":35.75835147,"lon":139.36046217},{"name":"みんなの食堂　みっつ武蔵村山","province":"東京都","city":"武蔵村山市","address":"東京都武蔵村山市大南2丁目47-14","lat":35.74071024,"lon":139.40423952},{"name":"\"SOMPOの子ども食堂 \"","province":"東京都","city":"武蔵村山市","address":"東京都武蔵村山市三ツ藤1丁目4-1","lat":35.75192504,"lon":139.38247447},{"name":"学園通り入口","province":"東京都","city":"武蔵村山市","address":"東京都武蔵村山市緑が丘1460","lat":35.7429045,"lon":139.40695028},{"name":"中藤配水所","province":"東京都","city":"武蔵村山市","address":"東京都武蔵村山市中藤2丁目1-3","lat":35.7588829,"lon":139.3936565},{"name":"有限会社 成華園","province":"東京都","city":"武蔵村山市","address":"東京都武蔵村山市学園3丁目61-5","lat":35.74423764,"lon":139.40527261},{"name":"有限会社  アヤノセレモニー","province":"東京都","city":"武蔵村山市","address":"東京都武蔵村山市学園5丁目15-14","lat":35.74475949,"lon":139.39270994},{"name":"合同会社 大南葬祭","province":"東京都","city":"武蔵村山市","address":"東京都武蔵村山市大南5丁目70-1","lat":35.74057152,"lon":139.41082221},{"name":"株式会社 セレモの森","province":"東京都","city":"武蔵村山市","address":"東京都武蔵村山市大南3丁目97-2","lat":35.73523306,"lon":139.402976},{"name":"有限会社 アヴィル 市民葬祭センター","province":"東京都","city":"武蔵村山市","address":"東京都武蔵村山市大南4丁目61-9","lat":35.73485551,"lon":139.41111687},{"name":"株式会社 むらやま葬祭","province":"東京都","city":"武蔵村山市","address":"東京都武蔵村山市大南1丁目2-1","lat":35.74221812,"lon":139.39303223},{"name":"株式会社 トータルプラン","province":"東京都","city":"武蔵村山市","address":"東京都武蔵村山市大南1丁目168-1","lat":35.73481073,"lon":139.39657665},{"name":"武蔵村山子ども食堂","province":"東京都","city":"武蔵村山市","address":"東京都武蔵村山市神明4丁目17-1","lat":35.75268109,"lon":139.40421683},{"name":"まどか食堂","province":"東京都","city":"武蔵村山市","address":"東京都武蔵村山市本町3丁目40-3","lat":35.75855478,"lon":139.38152149},{"name":"\"children’s kitchenうぉーく \"","province":"東京都","city":"武蔵村山市","address":"東京都武蔵村山市学園4丁目5-1","lat":35.74627625,"lon":139.40299776},{"name":"子ども食堂ぶどうハウス","province":"東京都","city":"武蔵村山市","address":"東京都武蔵村山市中原3丁目11-6","lat":35.75835147,"lon":139.36046217},{"name":"みんなの食堂　みっつ武蔵村山","province":"東京都","city":"武蔵村山市","address":"東京都武蔵村山市大南2丁目47-14","lat":35.74071024,"lon":139.40423952},{"name":"\"SOMPOの子ども食堂 \"","province":"東京都","city":"武蔵村山市","address":"東京都武蔵村山市三ツ藤1丁目4-1","lat":35.75192504,"lon":139.38247447},{"name":"学園通り入口","province":"東京都","city":"武蔵村山市","address":"東京都武蔵村山市緑が丘1460","lat":35.7429045,"lon":139.40695028},{"name":"中藤配水所","province":"東京都","city":"武蔵村山市","address":"東京都武蔵村山市中藤2丁目1-3","lat":35.7588829,"lon":139.3936565},{"name":"有限会社 成華園","province":"東京都","city":"武蔵村山市","address":"東京都武蔵村山市学園3丁目61-5","lat":35.74423764,"lon":139.40527261},{"name":"有限会社  アヤノセレモニー","province":"東京都","city":"武蔵村山市","address":"東京都武蔵村山市学園5丁目15-14","lat":35.74475949,"lon":139.39270994},{"name":"合同会社 大南葬祭","province":"東京都","city":"武蔵村山市","address":"東京都武蔵村山市大南5丁目70-1","lat":35.74057152,"lon":139.41082221},{"name":"株式会社 セレモの森","province":"東京都","city":"武蔵村山市","address":"東京都武蔵村山市大南3丁目97-2","lat":35.73523306,"lon":139.402976},{"name":"有限会社 アヴィル 市民葬祭センター","province":"東京都","city":"武蔵村山市","address":"東京都武蔵村山市大南4丁目61-9","lat":35.73485551,"lon":139.41111687},{"name":"株式会社 むらやま葬祭","province":"東京都","city":"武蔵村山市","address":"東京都武蔵村山市大南1丁目2-1","lat":35.74221812,"lon":139.39303223},{"name":"株式会社 トータルプラン","province":"東京都","city":"武蔵村山市","address":"東京都武蔵村山市大南1丁目168-1","lat":35.73481073,"lon":139.39657665},{"name":"武蔵村山子ども食堂","province":"東京都","city":"武蔵村山市","address":"東京都武蔵村山市神明4丁目17-1","lat":35.75268109,"lon":139.40421683},{"name":"まどか食堂","province":"東京都","city":"武蔵村山市","address":"東京都武蔵村山市本町3丁目40-3","lat":35.75855478,"lon":139.38152149},{"name":"\"children’s kitchenうぉーく \"","province":"東京都","city":"武蔵村山市","address":"東京都武蔵村山市学園4丁目5-1","lat":35.74627625,"lon":139.40299776},{"name":"子ども食堂ぶどうハウス","province":"東京都","city":"武蔵村山市","address":"東京都武蔵村山市中原3丁目11-6","lat":35.75835147,"lon":139.36046217},{"name":"みんなの食堂　みっつ武蔵村山","province":"東京都","city":"武蔵村山市","address":"東京都武蔵村山市大南2丁目47-14","lat":35.74071024,"lon":139.40423952},{"name":"\"SOMPOの子ども食堂 \"","province":"東京都","city":"武蔵村山市","address":"東京都武蔵村山市三ツ藤1丁目4-1","lat":35.75192504,"lon":139.38247447},{"name":"学園通り入口","province":"東京都","city":"武蔵村山市","address":"東京都武蔵村山市緑が丘1460","lat":35.7429045,"lon":139.40695028},{"name":"中藤配水所","province":"東京都","city":"武蔵村山市","address":"東京都武蔵村山市中藤2丁目1-3","lat":35.7588829,"lon":139.3936565},{"name":"有限会社 成華園","province":"東京都","city":"武蔵村山市","address":"東京都武蔵村山市学園3丁目61-5","lat":35.74423764,"lon":139.40527261},{"name":"有限会社  アヤノセレモニー","province":"東京都","city":"武蔵村山市","address":"東京都武蔵村山市学園5丁目15-14","lat":35.74475949,"lon":139.39270994},{"name":"合同会社 大南葬祭","province":"東京都","city":"武蔵村山市","address":"東京都武蔵村山市大南5丁目70-1","lat":35.74057152,"lon":139.41082221},{"name":"株式会社 セレモの森","province":"東京都","city":"武蔵村山市","address":"東京都武蔵村山市大南3丁目97-2","lat":35.73523306,"lon":139.402976},{"name":"有限会社 アヴィル 市民葬祭センター","province":"東京都","city":"武蔵村山市","address":"東京都武蔵村山市大南4丁目61-9","lat":35.73485551,"lon":139.41111687},{"name":"株式会社 むらやま葬祭","province":"東京都","city":"武蔵村山市","address":"東京都武蔵村山市大南1丁目2-1","lat":35.74221812,"lon":139.39303223},{"name":"株式会社 トータルプラン","province":"東京都","city":"武蔵村山市","address":"東京都武蔵村山市大南1丁目168-1","lat":35.73481073,"lon":139.39657665},{"name":"武蔵村山子ども食堂","province":"東京都","city":"武蔵村山市","address":"東京都武蔵村山市神明4丁目17-1","lat":35.75268109,"lon":139.40421683},{"name":"まどか食堂","province":"東京都","city":"武蔵村山市","address":"東京都武蔵村山市本町3丁目40-3","lat":35.75855478,"lon":139.38152149},{"name":"\"children’s kitchenうぉーく \"","province":"東京都","city":"武蔵村山市","address":"東京都武蔵村山市学園4丁目5-1","lat":35.74627625,"lon":139.40299776},{"name":"子ども食堂ぶどうハウス","province":"東京都","city":"武蔵村山市","address":"東京都武蔵村山市中原3丁目11-6","lat":35.75835147,"lon":139.36046217},{"name":"みんなの食堂　みっつ武蔵村山","province":"東京都","city":"武蔵村山市","address":"東京都武蔵村山市大南2丁目47-14","lat":35.74071024,"lon":139.40423952},{"name":"\"SOMPOの子ども食堂 \"","province":"東京都","city":"武蔵村山市","address":"東京都武蔵村山市三ツ藤1丁目4-1","lat":35.75192504,"lon":139.38247447},{"name":"学園通り入口","province":"東京都","city":"武蔵村山市","address":"東京都武蔵村山市緑が丘1460","lat":35.7429045,"lon":139.40695028},{"name":"中藤配水所","province":"東京都","city":"武蔵村山市","address":"東京都武蔵村山市中藤2丁目1-3","lat":35.7588829,"lon":139.3936565},{"name":"有限会社 成華園","province":"東京都","city":"武蔵村山市","address":"東京都武蔵村山市学園3丁目61-5","lat":35.74423764,"lon":139.40527261},{"name":"有限会社  アヤノセレモニー","province":"東京都","city":"武蔵村山市","address":"東京都武蔵村山市学園5丁目15-14","lat":35.74475949,"lon":139.39270994},{"name":"合同会社 大南葬祭","province":"東京都","city":"武蔵村山市","address":"東京都武蔵村山市大南5丁目70-1","lat":35.74057152,"lon":139.41082221},{"name":"株式会社 セレモの森","province":"東京都","city":"武蔵村山市","address":"東京都武蔵村山市大南3丁目97-2","lat":35.73523306,"lon":139.402976},{"name":"有限会社 アヴィル 市民葬祭センター","province":"東京都","city":"武蔵村山市","address":"東京都武蔵村山市大南4丁目61-9","lat":35.73485551,"lon":139.41111687},{"name":"株式会社 むらやま葬祭","province":"東京都","city":"武蔵村山市","address":"東京都武蔵村山市大南1丁目2-1","lat":35.74221812,"lon":139.39303223},{"name":"株式会社 トータルプラン","province":"東京都","city":"武蔵村山市","address":"東京都武蔵村山市大南1丁目168-1","lat":35.73481073,"lon":139.39657665},{"name":"武蔵村山子ども食堂","province":"東京都","city":"武蔵村山市","address":"東京都武蔵村山市神明4丁目17-1","lat":35.75268109,"lon":139.40421683},{"name":"まどか食堂","province":"東京都","city":"武蔵村山市","address":"東京都武蔵村山市本町3丁目40-3","lat":35.75855478,"lon":139.38152149},{"name":"\"children’s kitchenうぉーく \"","province":"東京都","city":"武蔵村山市","address":"東京都武蔵村山市学園4丁目5-1","lat":35.74627625,"lon":139.40299776},{"name":"子ども食堂ぶどうハウス","province":"東京都","city":"武蔵村山市","address":"東京都武蔵村山市中原3丁目11-6","lat":35.75835147,"lon":139.36046217},{"name":"みんなの食堂　みっつ武蔵村山","province":"東京都","city":"武蔵村山市","address":"東京都武蔵村山市大南2丁目47-14","lat":35.74071024,"lon":139.40423952},{"name":"\"SOMPOの子ども食堂 \"","province":"東京都","city":"武蔵村山市","address":"東京都武蔵村山市三ツ藤1丁目4-1","lat":35.75192504,"lon":139.38247447},{"name":"学園通り入口","province":"東京都","city":"武蔵村山市","address":"東京都武蔵村山市緑が丘1460","lat":35.7429045,"lon":139.40695028},{"name":"中藤配水所","province":"東京都","city":"武蔵村山市","address":"東京都武蔵村山市中藤2丁目1-3","lat":35.7588829,"lon":139.3936565},{"name":"有限会社 成華園","province":"東京都","city":"武蔵村山市","address":"東京都武蔵村山市学園3丁目61-5","lat":35.74423764,"lon":139.40527261},{"name":"有限会社  アヤノセレモニー","province":"東京都","city":"武蔵村山市","address":"東京都武蔵村山市学園5丁目15-14","lat":35.74475949,"lon":139.39270994},{"name":"合同会社 大南葬祭","province":"東京都","city":"武蔵村山市","address":"東京都武蔵村山市大南5丁目70-1","lat":35.74057152,"lon":139.41082221},{"name":"株式会社 セレモの森","province":"東京都","city":"武蔵村山市","address":"東京都武蔵村山市大南3丁目97-2","lat":35.73523306,"lon":139.402976},{"name":"有限会社 アヴィル 市民葬祭センター","province":"東京都","city":"武蔵村山市","address":"東京都武蔵村山市大南4丁目61-9","lat":35.73485551,"lon":139.41111687},{"name":"株式会社 むらやま葬祭","province":"東京都","city":"武蔵村山市","address":"東京都武蔵村山市大南1丁目2-1","lat":35.74221812,"lon":139.39303223},{"name":"株式会社 トータルプラン","province":"東京都","city":"武蔵村山市","address":"東京都武蔵村山市大南1丁目168-1","lat":35.73481073,"lon":139.39657665},{"name":"武蔵村山子ども食堂","province":"東京都","city":"武蔵村山市","address":"東京都武蔵村山市神明4丁目17-1","lat":35.75268109,"lon":139.40421683},{"name":"まどか食堂","province":"東京都","city":"武蔵村山市","address":"東京都武蔵村山市本町3丁目40-3","lat":35.75855478,"lon":139.38152149},{"name":"\"children’s kitchenうぉーく \"","province":"東京都","city":"武蔵村山市","address":"東京都武蔵村山市学園4丁目5-1","lat":35.74627625,"lon":139.40299776},{"name":"子ども食堂ぶどうハウス","province":"東京都","city":"武蔵村山市","address":"東京都武蔵村山市中原3丁目11-6","lat":35.75835147,"lon":139.36046217},{"name":"みんなの食堂　みっつ武蔵村山","province":"東京都","city":"武蔵村山市","address":"東京都武蔵村山市大南2丁目47-14","lat":35.74071024,"lon":139.40423952},{"name":"\"SOMPOの子ども食堂 \"","province":"東京都","city":"武蔵村山市","address":"東京都武蔵村山市三ツ藤1丁目4-1","lat":35.75192504,"lon":139.38247447},{"name":"学園通り入口","province":"東京都","city":"武蔵村山市","address":"東京都武蔵村山市緑が丘1460","lat":35.7429045,"lon":139.40695028},{"name":"中藤配水所","province":"東京都","city":"武蔵村山市","address":"東京都武蔵村山市中藤2丁目1-3","lat":35.7588829,"lon":139.3936565},{"name":"有限会社 成華園","province":"東京都","city":"武蔵村山市","address":"東京都武蔵村山市学園3丁目61-5","lat":35.74423764,"lon":139.40527261},{"name":"有限会社  アヤノセレモニー","province":"東京都","city":"武蔵村山市","address":"東京都武蔵村山市学園5丁目15-14","lat":35.74475949,"lon":139.39270994},{"name":"合同会社 大南葬祭","province":"東京都","city":"武蔵村山市","address":"東京都武蔵村山市大南5丁目70-1","lat":35.74057152,"lon":139.41082221},{"name":"株式会社 セレモの森","province":"東京都","city":"武蔵村山市","address":"東京都武蔵村山市大南3丁目97-2","lat":35.73523306,"lon":139.402976},{"name":"有限会社 アヴィル 市民葬祭センター","province":"東京都","city":"武蔵村山市","address":"東京都武蔵村山市大南4丁目61-9","lat":35.73485551,"lon":139.41111687},{"name":"株式会社 むらやま葬祭","province":"東京都","city":"武蔵村山市","address":"東京都武蔵村山市大南1丁目2-1","lat":35.74221812,"lon":139.39303223},{"name":"株式会社 トータルプラン","province":"東京都","city":"武蔵村山市","address":"東京都武蔵村山市大南1丁目168-1","lat":35.73481073,"lon":139.39657665},{"name":"武蔵村山子ども食堂","province":"東京都","city":"武蔵村山市","address":"東京都武蔵村山市神明4丁目17-1","lat":35.75268109,"lon":139.40421683},{"name":"まどか食堂","province":"東京都","city":"武蔵村山市","address":"東京都武蔵村山市本町3丁目40-3","lat":35.75855478,"lon":139.38152149},{"name":"\"children’s kitchenうぉーく \"","province":"東京都","city":"武蔵村山市","address":"東京都武蔵村山市学園4丁目5-1","lat":35.74627625,"lon":139.40299776},{"name":"子ども食堂ぶどうハウス","province":"東京都","city":"武蔵村山市","address":"東京都武蔵村山市中原3丁目11-6","lat":35.75835147,"lon":139.36046217},{"name":"みんなの食堂　みっつ武蔵村山","province":"東京都","city":"武蔵村山市","address":"東京都武蔵村山市大南2丁目47-14","lat":35.74071024,"lon":139.40423952},{"name":"\"SOMPOの子ども食堂 \"","province":"東京都","city":"武蔵村山市","address":"東京都武蔵村山市三ツ藤1丁目4-1","lat":35.75192504,"lon":139.38247447},{"name":"学園通り入口","province":"東京都","city":"武蔵村山市","address":"東京都武蔵村山市緑が丘1460","lat":35.7429045,"lon":139.40695028},{"name":"中藤配水所","province":"東京都","city":"武蔵村山市","address":"東京都武蔵村山市中藤2丁目1-3","lat":35.7588829,"lon":139.3936565},{"name":"有限会社 成華園","province":"東京都","city":"武蔵村山市","address":"東京都武蔵村山市学園3丁目61-5","lat":35.74423764,"lon":139.40527261},{"name":"有限会社  アヤノセレモニー","province":"東京都","city":"武蔵村山市","address":"東京都武蔵村山市学園5丁目15-14","lat":35.74475949,"lon":139.39270994},{"name":"合同会社 大南葬祭","province":"東京都","city":"武蔵村山市","address":"東京都武蔵村山市大南5丁目70-1","lat":35.74057152,"lon":139.41082221},{"name":"株式会社 セレモの森","province":"東京都","city":"武蔵村山市","address":"東京都武蔵村山市大南3丁目97-2","lat":35.73523306,"lon":139.402976},{"name":"有限会社 アヴィル 市民葬祭センター","province":"東京都","city":"武蔵村山市","address":"東京都武蔵村山市大南4丁目61-9","lat":35.73485551,"lon":139.41111687},{"name":"株式会社 むらやま葬祭","province":"東京都","city":"武蔵村山市","address":"東京都武蔵村山市大南1丁目2-1","lat":35.74221812,"lon":139.39303223},{"name":"株式会社 トータルプラン","province":"東京都","city":"武蔵村山市","address":"東京都武蔵村山市大南1丁目168-1","lat":35.73481073,"lon":139.39657665},{"name":"武蔵村山子ども食堂","province":"東京都","city":"武蔵村山市","address":"東京都武蔵村山市神明4丁目17-1","lat":35.75268109,"lon":139.40421683},{"name":"まどか食堂","province":"東京都","city":"武蔵村山市","address":"東京都武蔵村山市本町3丁目40-3","lat":35.75855478,"lon":139.38152149},{"name":"\"children’s kitchenうぉーく \"","province":"東京都","city":"武蔵村山市","address":"東京都武蔵村山市学園4丁目5-1","lat":35.74627625,"lon":139.40299776},{"name":"子ども食堂ぶどうハウス","province":"東京都","city":"武蔵村山市","address":"東京都武蔵村山市中原3丁目11-6","lat":35.75835147,"lon":139.36046217},{"name":"みんなの食堂　みっつ武蔵村山","province":"東京都","city":"武蔵村山市","address":"東京都武蔵村山市大南2丁目47-14","lat":35.74071024,"lon":139.40423952},{"name":"\"SOMPOの子ども食堂 \"","province":"東京都","city":"武蔵村山市","address":"東京都武蔵村山市三ツ藤1丁目4-1","lat":35.75192504,"lon":139.38247447},{"name":"学園通り入口","province":"東京都","city":"武蔵村山市","address":"東京都武蔵村山市緑が丘1460","lat":35.7429045,"lon":139.40695028},{"name":"中藤配水所","province":"東京都","city":"武蔵村山市","address":"東京都武蔵村山市中藤2丁目1-3","lat":35.7588829,"lon":139.3936565},{"name":"有限会社 成華園","province":"東京都","city":"武蔵村山市","address":"東京都武蔵村山市学園3丁目61-5","lat":35.74423764,"lon":139.40527261},{"name":"有限会社  アヤノセレモニー","province":"東京都","city":"武蔵村山市","address":"東京都武蔵村山市学園5丁目15-14","lat":35.74475949,"lon":139.39270994},{"name":"合同会社 大南葬祭","province":"東京都","city":"武蔵村山市","address":"東京都武蔵村山市大南5丁目70-1","lat":35.74057152,"lon":139.41082221},{"name":"株式会社 セレモの森","province":"東京都","city":"武蔵村山市","address":"東京都武蔵村山市大南3丁目97-2","lat":35.73523306,"lon":139.402976},{"name":"有限会社 アヴィル 市民葬祭センター","province":"東京都","city":"武蔵村山市","address":"東京都武蔵村山市大南4丁目61-9","lat":35.73485551,"lon":139.41111687},{"name":"株式会社 むらやま葬祭","province":"東京都","city":"武蔵村山市","address":"東京都武蔵村山市大南1丁目2-1","lat":35.74221812,"lon":139.39303223},{"name":"株式会社 トータルプラン","province":"東京都","city":"武蔵村山市","address":"東京都武蔵村山市大南1丁目168-1","lat":35.73481073,"lon":139.39657665},{"name":"武蔵村山子ども食堂","province":"東京都","city":"武蔵村山市","address":"東京都武蔵村山市神明4丁目17-1","lat":35.75268109,"lon":139.40421683},{"name":"まどか食堂","province":"東京都","city":"武蔵村山市","address":"東京都武蔵村山市本町3丁目40-3","lat":35.75855478,"lon":139.38152149},{"name":"\"children’s kitchenうぉーく \"","province":"東京都","city":"武蔵村山市","address":"東京都武蔵村山市学園4丁目5-1","lat":35.74627625,"lon":139.40299776},{"name":"子ども食堂ぶどうハウス","province":"東京都","city":"武蔵村山市","address":"東京都武蔵村山市中原3丁目11-6","lat":35.75835147,"lon":139.36046217},{"name":"みんなの食堂　みっつ武蔵村山","province":"東京都","city":"武蔵村山市","address":"東京都武蔵村山市大南2丁目47-14","lat":35.74071024,"lon":139.40423952},{"name":"\"SOMPOの子ども食堂 \"","province":"東京都","city":"武蔵村山市","address":"東京都武蔵村山市三ツ藤1丁目4-1","lat":35.75192504,"lon":139.38247447},{"name":"有限会社 成華園","province":"東京都","city":"武蔵村山市","address":"東京都武蔵村山市学園3丁目61-5","lat":35.74423764,"lon":139.40527261},{"name":"有限会社  アヤノセレモニー","province":"東京都","city":"武蔵村山市","address":"東京都武蔵村山市学園5丁目15-14","lat":35.74475949,"lon":139.39270994},{"name":"合同会社 大南葬祭","province":"東京都","city":"武蔵村山市","address":"東京都武蔵村山市大南5丁目70-1","lat":35.74057152,"lon":139.41082221},{"name":"株式会社 セレモの森","province":"東京都","city":"武蔵村山市","address":"東京都武蔵村山市大南3丁目97-2","lat":35.73523306,"lon":139.402976},{"name":"有限会社 アヴィル 市民葬祭センター","province":"東京都","city":"武蔵村山市","address":"東京都武蔵村山市大南4丁目61-9","lat":35.73485551,"lon":139.41111687},{"name":"株式会社 むらやま葬祭","province":"東京都","city":"武蔵村山市","address":"東京都武蔵村山市大南1丁目2-1","lat":35.74221812,"lon":139.39303223},{"name":"株式会社 トータルプラン","province":"東京都","city":"武蔵村山市","address":"東京都武蔵村山市大南1丁目168-1","lat":35.73481073,"lon":139.39657665},{"name":"武蔵村山子ども食堂","province":"東京都","city":"武蔵村山市","address":"東京都武蔵村山市神明4丁目17-1","lat":35.75268109,"lon":139.40421683},{"name":"まどか食堂","province":"東京都","city":"武蔵村山市","address":"東京都武蔵村山市本町3丁目40-3","lat":35.75855478,"lon":139.38152149},{"name":"\"children’s kitchenうぉーく \"","province":"東京都","city":"武蔵村山市","address":"東京都武蔵村山市学園4丁目5-1","lat":35.74627625,"lon":139.40299776},{"name":"子ども食堂ぶどうハウス","province":"東京都","city":"武蔵村山市","address":"東京都武蔵村山市中原3丁目11-6","lat":35.75835147,"lon":139.36046217},{"name":"みんなの食堂　みっつ武蔵村山","province":"東京都","city":"武蔵村山市","address":"東京都武蔵村山市大南2丁目47-14","lat":35.74071024,"lon":139.40423952},{"name":"\"SOMPOの子ども食堂 \"","province":"東京都","city":"武蔵村山市","address":"東京都武蔵村山市三ツ藤1丁目4-1","lat":35.75192504,"lon":139.38247447},{"name":"有限会社 成華園","province":"東京都","city":"武蔵村山市","address":"東京都武蔵村山市学園3丁目61-5","lat":35.74423764,"lon":139.40527261},{"name":"有限会社  アヤノセレモニー","province":"東京都","city":"武蔵村山市","address":"東京都武蔵村山市学園5丁目15-14","lat":35.74475949,"lon":139.39270994},{"name":"合同会社 大南葬祭","province":"東京都","city":"武蔵村山市","address":"東京都武蔵村山市大南5丁目70-1","lat":35.74057152,"lon":139.41082221},{"name":"株式会社 セレモの森","province":"東京都","city":"武蔵村山市","address":"東京都武蔵村山市大南3丁目97-2","lat":35.73523306,"lon":139.402976},{"name":"有限会社 アヴィル 市民葬祭センター","province":"東京都","city":"武蔵村山市","address":"東京都武蔵村山市大南4丁目61-9","lat":35.73485551,"lon":139.41111687},{"name":"株式会社 むらやま葬祭","province":"東京都","city":"武蔵村山市","address":"東京都武蔵村山市大南1丁目2-1","lat":35.74221812,"lon":139.39303223},{"name":"株式会社 トータルプラン","province":"東京都","city":"武蔵村山市","address":"東京都武蔵村山市大南1丁目168-1","lat":35.73481073,"lon":139.39657665},{"name":"武蔵村山子ども食堂","province":"東京都","city":"武蔵村山市","address":"東京都武蔵村山市神明4丁目17-1","lat":35.75268109,"lon":139.40421683},{"name":"まどか食堂","province":"東京都","city":"武蔵村山市","address":"東京都武蔵村山市本町3丁目40-3","lat":35.75855478,"lon":139.38152149},{"name":"\"children’s kitchenうぉーく \"","province":"東京都","city":"武蔵村山市","address":"東京都武蔵村山市学園4丁目5-1","lat":35.74627625,"lon":139.40299776},{"name":"子ども食堂ぶどうハウス","province":"東京都","city":"武蔵村山市","address":"東京都武蔵村山市中原3丁目11-6","lat":35.75835147,"lon":139.36046217},{"name":"みんなの食堂　みっつ武蔵村山","province":"東京都","city":"武蔵村山市","address":"東京都武蔵村山市大南2丁目47-14","lat":35.74071024,"lon":139.40423952},{"name":"\"SOMPOの子ども食堂 \"","province":"東京都","city":"武蔵村山市","address":"東京都武蔵村山市三ツ藤1丁目4-1","lat":35.75192504,"lon":139.38247447},{"name":"有限会社 成華園","province":"東京都","city":"武蔵村山市","address":"東京都武蔵村山市学園3丁目61-5","lat":35.74423764,"lon":139.40527261},{"name":"有限会社  アヤノセレモニー","province":"東京都","city":"武蔵村山市","address":"東京都武蔵村山市学園5丁目15-14","lat":35.74475949,"lon":139.39270994},{"name":"合同会社 大南葬祭","province":"東京都","city":"武蔵村山市","address":"東京都武蔵村山市大南5丁目70-1","lat":35.74057152,"lon":139.41082221},{"name":"株式会社 セレモの森","province":"東京都","city":"武蔵村山市","address":"東京都武蔵村山市大南3丁目97-2","lat":35.73523306,"lon":139.402976},{"name":"有限会社 アヴィル 市民葬祭センター","province":"東京都","city":"武蔵村山市","address":"東京都武蔵村山市大南4丁目61-9","lat":35.73485551,"lon":139.41111687},{"name":"株式会社 むらやま葬祭","province":"東京都","city":"武蔵村山市","address":"東京都武蔵村山市大南1丁目2-1","lat":35.74221812,"lon":139.39303223},{"name":"株式会社 トータルプラン","province":"東京都","city":"武蔵村山市","address":"東京都武蔵村山市大南1丁目168-1","lat":35.73481073,"lon":139.39657665},{"name":"武蔵村山子ども食堂","province":"東京都","city":"武蔵村山市","address":"東京都武蔵村山市神明4丁目17-1","lat":35.75268109,"lon":139.40421683},{"name":"まどか食堂","province":"東京都","city":"武蔵村山市","address":"東京都武蔵村山市本町3丁目40-3","lat":35.75855478,"lon":139.38152149},{"name":"\"children’s kitchenうぉーく \"","province":"東京都","city":"武蔵村山市","address":"東京都武蔵村山市学園4丁目5-1","lat":35.74627625,"lon":139.40299776},{"name":"子ども食堂ぶどうハウス","province":"東京都","city":"武蔵村山市","address":"東京都武蔵村山市中原3丁目11-6","lat":35.75835147,"lon":139.36046217},{"name":"みんなの食堂　みっつ武蔵村山","province":"東京都","city":"武蔵村山市","address":"東京都武蔵村山市大南2丁目47-14","lat":35.74071024,"lon":139.40423952},{"name":"\"SOMPOの子ども食堂 \"","province":"東京都","city":"武蔵村山市","address":"東京都武蔵村山市三ツ藤1丁目4-1","lat":35.75192504,"lon":139.38247447},{"name":"有限会社 成華園","province":"東京都","city":"武蔵村山市","address":"東京都武蔵村山市学園3丁目61-5","lat":35.74423764,"lon":139.40527261},{"name":"有限会社  アヤノセレモニー","province":"東京都","city":"武蔵村山市","address":"東京都武蔵村山市学園5丁目15-14","lat":35.74475949,"lon":139.39270994},{"name":"合同会社 大南葬祭","province":"東京都","city":"武蔵村山市","address":"東京都武蔵村山市大南5丁目70-1","lat":35.74057152,"lon":139.41082221},{"name":"株式会社 セレモの森","province":"東京都","city":"武蔵村山市","address":"東京都武蔵村山市大南3丁目97-2","lat":35.73523306,"lon":139.402976},{"name":"有限会社 アヴィル 市民葬祭センター","province":"東京都","city":"武蔵村山市","address":"東京都武蔵村山市大南4丁目61-9","lat":35.73485551,"lon":139.41111687},{"name":"株式会社 むらやま葬祭","province":"東京都","city":"武蔵村山市","address":"東京都武蔵村山市大南1丁目2-1","lat":35.74221812,"lon":139.39303223},{"name":"株式会社 トータルプラン","province":"東京都","city":"武蔵村山市","address":"東京都武蔵村山市大南1丁目168-1","lat":35.73481073,"lon":139.39657665},{"name":"武蔵村山子ども食堂","province":"東京都","city":"武蔵村山市","address":"東京都武蔵村山市神明4丁目17-1","lat":35.75268109,"lon":139.40421683},{"name":"まどか食堂","province":"東京都","city":"武蔵村山市","address":"東京都武蔵村山市本町3丁目40-3","lat":35.75855478,"lon":139.38152149},{"name":"\"children’s kitchenうぉーく \"","province":"東京都","city":"武蔵村山市","address":"東京都武蔵村山市学園4丁目5-1","lat":35.74627625,"lon":139.40299776},{"name":"子ども食堂ぶどうハウス","province":"東京都","city":"武蔵村山市","address":"東京都武蔵村山市中原3丁目11-6","lat":35.75835147,"lon":139.36046217},{"name":"みんなの食堂　みっつ武蔵村山","province":"東京都","city":"武蔵村山市","address":"東京都武蔵村山市大南2丁目47-14","lat":35.74071024,"lon":139.40423952},{"name":"\"SOMPOの子ども食堂 \"","province":"東京都","city":"武蔵村山市","address":"東京都武蔵村山市三ツ藤1丁目4-1","lat":35.75192504,"lon":139.38247447},{"name":"有限会社 成華園","province":"東京都","city":"武蔵村山市","address":"東京都武蔵村山市学園3丁目61-5","lat":35.74423764,"lon":139.40527261},{"name":"有限会社  アヤノセレモニー","province":"東京都","city":"武蔵村山市","address":"東京都武蔵村山市学園5丁目15-14","lat":35.74475949,"lon":139.39270994},{"name":"合同会社 大南葬祭","province":"東京都","city":"武蔵村山市","address":"東京都武蔵村山市大南5丁目70-1","lat":35.74057152,"lon":139.41082221},{"name":"株式会社 セレモの森","province":"東京都","city":"武蔵村山市","address":"東京都武蔵村山市大南3丁目97-2","lat":35.73523306,"lon":139.402976},{"name":"有限会社 アヴィル 市民葬祭センター","province":"東京都","city":"武蔵村山市","address":"東京都武蔵村山市大南4丁目61-9","lat":35.73485551,"lon":139.41111687},{"name":"株式会社 むらやま葬祭","province":"東京都","city":"武蔵村山市","address":"東京都武蔵村山市大南1丁目2-1","lat":35.74221812,"lon":139.39303223},{"name":"株式会社 トータルプラン","province":"東京都","city":"武蔵村山市","address":"東京都武蔵村山市大南1丁目168-1","lat":35.73481073,"lon":139.39657665},{"name":"武蔵村山子ども食堂","province":"東京都","city":"武蔵村山市","address":"東京都武蔵村山市神明4丁目17-1","lat":35.75268109,"lon":139.40421683},{"name":"まどか食堂","province":"東京都","city":"武蔵村山市","address":"東京都武蔵村山市本町3丁目40-3","lat":35.75855478,"lon":139.38152149},{"name":"\"children’s kitchenうぉーく \"","province":"東京都","city":"武蔵村山市","address":"東京都武蔵村山市学園4丁目5-1","lat":35.74627625,"lon":139.40299776},{"name":"子ども食堂ぶどうハウス","province":"東京都","city":"武蔵村山市","address":"東京都武蔵村山市中原3丁目11-6","lat":35.75835147,"lon":139.36046217},{"name":"みんなの食堂　みっつ武蔵村山","province":"東京都","city":"武蔵村山市","address":"東京都武蔵村山市大南2丁目47-14","lat":35.74071024,"lon":139.40423952},{"name":"\"SOMPOの子ども食堂 \"","province":"東京都","city":"武蔵村山市","address":"東京都武蔵村山市三ツ藤1丁目4-1","lat":35.75192504,"lon":139.38247447},{"name":"有限会社 成華園","province":"東京都","city":"武蔵村山市","address":"東京都武蔵村山市学園3丁目61-5","lat":35.74423764,"lon":139.40527261},{"name":"有限会社  アヤノセレモニー","province":"東京都","city":"武蔵村山市","address":"東京都武蔵村山市学園5丁目15-14","lat":35.74475949,"lon":139.39270994},{"name":"合同会社 大南葬祭","province":"東京都","city":"武蔵村山市","address":"東京都武蔵村山市大南5丁目70-1","lat":35.74057152,"lon":139.41082221},{"name":"株式会社 セレモの森","province":"東京都","city":"武蔵村山市","address":"東京都武蔵村山市大南3丁目97-2","lat":35.73523306,"lon":139.402976},{"name":"有限会社 アヴィル 市民葬祭センター","province":"東京都","city":"武蔵村山市","address":"東京都武蔵村山市大南4丁目61-9","lat":35.73485551,"lon":139.41111687},{"name":"株式会社 むらやま葬祭","province":"東京都","city":"武蔵村山市","address":"東京都武蔵村山市大南1丁目2-1","lat":35.74221812,"lon":139.39303223},{"name":"株式会社 トータルプラン","province":"東京都","city":"武蔵村山市","address":"東京都武蔵村山市大南1丁目168-1","lat":35.73481073,"lon":139.39657665},{"name":"武蔵村山子ども食堂","province":"東京都","city":"武蔵村山市","address":"東京都武蔵村山市神明4丁目17-1","lat":35.75268109,"lon":139.40421683},{"name":"まどか食堂","province":"東京都","city":"武蔵村山市","address":"東京都武蔵村山市本町3丁目40-3","lat":35.75855478,"lon":139.38152149},{"name":"\"children’s kitchenうぉーく \"","province":"東京都","city":"武蔵村山市","address":"東京都武蔵村山市学園4丁目5-1","lat":35.74627625,"lon":139.40299776},{"name":"子ども食堂ぶどうハウス","province":"東京都","city":"武蔵村山市","address":"東京都武蔵村山市中原3丁目11-6","lat":35.75835147,"lon":139.36046217},{"name":"みんなの食堂　みっつ武蔵村山","province":"東京都","city":"武蔵村山市","address":"東京都武蔵村山市大南2丁目47-14","lat":35.74071024,"lon":139.40423952},{"name":"\"SOMPOの子ども食堂 \"","province":"東京都","city":"武蔵村山市","address":"東京都武蔵村山市三ツ藤1丁目4-1","lat":35.75192504,"lon":139.38247447},{"name":"有限会社 成華園","province":"東京都","city":"武蔵村山市","address":"東京都武蔵村山市学園3丁目61-5","lat":35.74423764,"lon":139.40527261},{"name":"有限会社  アヤノセレモニー","province":"東京都","city":"武蔵村山市","address":"東京都武蔵村山市学園5丁目15-14","lat":35.74475949,"lon":139.39270994},{"name":"合同会社 大南葬祭","province":"東京都","city":"武蔵村山市","address":"東京都武蔵村山市大南5丁目70-1","lat":35.74057152,"lon":139.41082221},{"name":"株式会社 セレモの森","province":"東京都","city":"武蔵村山市","address":"東京都武蔵村山市大南3丁目97-2","lat":35.73523306,"lon":139.402976},{"name":"有限会社 アヴィル 市民葬祭センター","province":"東京都","city":"武蔵村山市","address":"東京都武蔵村山市大南4丁目61-9","lat":35.73485551,"lon":139.41111687},{"name":"株式会社 むらやま葬祭","province":"東京都","city":"武蔵村山市","address":"東京都武蔵村山市大南1丁目2-1","lat":35.74221812,"lon":139.39303223},{"name":"株式会社 トータルプラン","province":"東京都","city":"武蔵村山市","address":"東京都武蔵村山市大南1丁目168-1","lat":35.73481073,"lon":139.39657665},{"name":"武蔵村山子ども食堂","province":"東京都","city":"武蔵村山市","address":"東京都武蔵村山市神明4丁目17-1","lat":35.75268109,"lon":139.40421683},{"name":"まどか食堂","province":"東京都","city":"武蔵村山市","address":"東京都武蔵村山市本町3丁目40-3","lat":35.75855478,"lon":139.38152149},{"name":"\"children’s kitchenうぉーく \"","province":"東京都","city":"武蔵村山市","address":"東京都武蔵村山市学園4丁目5-1","lat":35.74627625,"lon":139.40299776},{"name":"子ども食堂ぶどうハウス","province":"東京都","city":"武蔵村山市","address":"東京都武蔵村山市中原3丁目11-6","lat":35.75835147,"lon":139.36046217},{"name":"みんなの食堂　みっつ武蔵村山","province":"東京都","city":"武蔵村山市","address":"東京都武蔵村山市大南2丁目47-14","lat":35.74071024,"lon":139.40423952},{"name":"\"SOMPOの子ども食堂 \"","province":"東京都","city":"武蔵村山市","address":"東京都武蔵村山市三ツ藤1丁目4-1","lat":35.75192504,"lon":139.38247447},{"name":"有限会社 成華園","province":"東京都","city":"武蔵村山市","address":"東京都武蔵村山市学園3丁目61-5","lat":35.74423764,"lon":139.40527261},{"name":"有限会社  アヤノセレモニー","province":"東京都","city":"武蔵村山市","address":"東京都武蔵村山市学園5丁目15-14","lat":35.74475949,"lon":139.39270994},{"name":"合同会社 大南葬祭","province":"東京都","city":"武蔵村山市","address":"東京都武蔵村山市大南5丁目70-1","lat":35.74057152,"lon":139.41082221},{"name":"株式会社 セレモの森","province":"東京都","city":"武蔵村山市","address":"東京都武蔵村山市大南3丁目97-2","lat":35.73523306,"lon":139.402976},{"name":"有限会社 アヴィル 市民葬祭センター","province":"東京都","city":"武蔵村山市","address":"東京都武蔵村山市大南4丁目61-9","lat":35.73485551,"lon":139.41111687},{"name":"株式会社 むらやま葬祭","province":"東京都","city":"武蔵村山市","address":"東京都武蔵村山市大南1丁目2-1","lat":35.74221812,"lon":139.39303223},{"name":"株式会社 トータルプラン","province":"東京都","city":"武蔵村山市","address":"東京都武蔵村山市大南1丁目168-1","lat":35.73481073,"lon":139.39657665},{"name":"武蔵村山子ども食堂","province":"東京都","city":"武蔵村山市","address":"東京都武蔵村山市神明4丁目17-1","lat":35.75268109,"lon":139.40421683},{"name":"まどか食堂","province":"東京都","city":"武蔵村山市","address":"東京都武蔵村山市本町3丁目40-3","lat":35.75855478,"lon":139.38152149},{"name":"\"children’s kitchenうぉーく \"","province":"東京都","city":"武蔵村山市","address":"東京都武蔵村山市学園4丁目5-1","lat":35.74627625,"lon":139.40299776},{"name":"子ども食堂ぶどうハウス","province":"東京都","city":"武蔵村山市","address":"東京都武蔵村山市中原3丁目11-6","lat":35.75835147,"lon":139.36046217},{"name":"みんなの食堂　みっつ武蔵村山","province":"東京都","city":"武蔵村山市","address":"東京都武蔵村山市大南2丁目47-14","lat":35.74071024,"lon":139.40423952},{"name":"\"SOMPOの子ども食堂 \"","province":"東京都","city":"武蔵村山市","address":"東京都武蔵村山市三ツ藤1丁目4-1","lat":35.75192504,"lon":139.38247447},{"name":"有限会社 成華園","province":"東京都","city":"武蔵村山市","address":"東京都武蔵村山市学園3丁目61-5","lat":35.74423764,"lon":139.40527261},{"name":"有限会社  アヤノセレモニー","province":"東京都","city":"武蔵村山市","address":"東京都武蔵村山市学園5丁目15-14","lat":35.74475949,"lon":139.39270994},{"name":"合同会社 大南葬祭","province":"東京都","city":"武蔵村山市","address":"東京都武蔵村山市大南5丁目70-1","lat":35.74057152,"lon":139.41082221},{"name":"株式会社 セレモの森","province":"東京都","city":"武蔵村山市","address":"東京都武蔵村山市大南3丁目97-2","lat":35.73523306,"lon":139.402976},{"name":"有限会社 アヴィル 市民葬祭センター","province":"東京都","city":"武蔵村山市","address":"東京都武蔵村山市大南4丁目61-9","lat":35.73485551,"lon":139.41111687},{"name":"株式会社 むらやま葬祭","province":"東京都","city":"武蔵村山市","address":"東京都武蔵村山市大南1丁目2-1","lat":35.74221812,"lon":139.39303223},{"name":"株式会社 トータルプラン","province":"東京都","city":"武蔵村山市","address":"東京都武蔵村山市大南1丁目168-1","lat":35.73481073,"lon":139.39657665},{"name":"武蔵村山子ども食堂","province":"東京都","city":"武蔵村山市","address":"東京都武蔵村山市神明4丁目17-1","lat":35.75268109,"lon":139.40421683},{"name":"まどか食堂","province":"東京都","city":"武蔵村山市","address":"東京都武蔵村山市本町3丁目40-3","lat":35.75855478,"lon":139.38152149},{"name":"\"children’s kitchenうぉーく \"","province":"東京都","city":"武蔵村山市","address":"東京都武蔵村山市学園4丁目5-1","lat":35.74627625,"lon":139.40299776},{"name":"子ども食堂ぶどうハウス","province":"東京都","city":"武蔵村山市","address":"東京都武蔵村山市中原3丁目11-6","lat":35.75835147,"lon":139.36046217},{"name":"みんなの食堂　みっつ武蔵村山","province":"東京都","city":"武蔵村山市","address":"東京都武蔵村山市大南2丁目47-14","lat":35.74071024,"lon":139.40423952},{"name":"\"SOMPOの子ども食堂 \"","province":"東京都","city":"武蔵村山市","address":"東京都武蔵村山市三ツ藤1丁目4-1","lat":35.75192504,"lon":139.38247447},{"name":"有限会社 成華園","province":"東京都","city":"武蔵村山市","address":"東京都武蔵村山市学園3丁目61-5","lat":35.74423764,"lon":139.40527261},{"name":"有限会社  アヤノセレモニー","province":"東京都","city":"武蔵村山市","address":"東京都武蔵村山市学園5丁目15-14","lat":35.74475949,"lon":139.39270994},{"name":"合同会社 大南葬祭","province":"東京都","city":"武蔵村山市","address":"東京都武蔵村山市大南5丁目70-1","lat":35.74057152,"lon":139.41082221},{"name":"株式会社 セレモの森","province":"東京都","city":"武蔵村山市","address":"東京都武蔵村山市大南3丁目97-2","lat":35.73523306,"lon":139.402976},{"name":"有限会社 アヴィル 市民葬祭センター","province":"東京都","city":"武蔵村山市","address":"東京都武蔵村山市大南4丁目61-9","lat":35.73485551,"lon":139.41111687},{"name":"株式会社 むらやま葬祭","province":"東京都","city":"武蔵村山市","address":"東京都武蔵村山市大南1丁目2-1","lat":35.74221812,"lon":139.39303223},{"name":"株式会社 トータルプラン","province":"東京都","city":"武蔵村山市","address":"東京都武蔵村山市大南1丁目168-1","lat":35.73481073,"lon":139.39657665},{"name":"武蔵村山子ども食堂","province":"東京都","city":"武蔵村山市","address":"東京都武蔵村山市神明4丁目17-1","lat":35.75268109,"lon":139.40421683},{"name":"まどか食堂","province":"東京都","city":"武蔵村山市","address":"東京都武蔵村山市本町3丁目40-3","lat":35.75855478,"lon":139.38152149},{"name":"\"children’s kitchenうぉーく \"","province":"東京都","city":"武蔵村山市","address":"東京都武蔵村山市学園4丁目5-1","lat":35.74627625,"lon":139.40299776},{"name":"子ども食堂ぶどうハウス","province":"東京都","city":"武蔵村山市","address":"東京都武蔵村山市中原3丁目11-6","lat":35.75835147,"lon":139.36046217},{"name":"みんなの食堂　みっつ武蔵村山","province":"東京都","city":"武蔵村山市","address":"東京都武蔵村山市大南2丁目47-14","lat":35.74071024,"lon":139.40423952},{"name":"\"SOMPOの子ども食堂 \"","province":"東京都","city":"武蔵村山市","address":"東京都武蔵村山市三ツ藤1丁目4-1","lat":35.75192504,"lon":139.38247447},{"name":"有限会社 成華園","province":"東京都","city":"武蔵村山市","address":"東京都武蔵村山市学園3丁目61-5","lat":35.74423764,"lon":139.40527261},{"name":"有限会社  アヤノセレモニー","province":"東京都","city":"武蔵村山市","address":"東京都武蔵村山市学園5丁目15-14","lat":35.74475949,"lon":139.39270994},{"name":"合同会社 大南葬祭","province":"東京都","city":"武蔵村山市","address":"東京都武蔵村山市大南5丁目70-1","lat":35.74057152,"lon":139.41082221},{"name":"株式会社 セレモの森","province":"東京都","city":"武蔵村山市","address":"東京都武蔵村山市大南3丁目97-2","lat":35.73523306,"lon":139.402976},{"name":"有限会社 アヴィル 市民葬祭センター","province":"東京都","city":"武蔵村山市","address":"東京都武蔵村山市大南4丁目61-9","lat":35.73485551,"lon":139.41111687},{"name":"株式会社 むらやま葬祭","province":"東京都","city":"武蔵村山市","address":"東京都武蔵村山市大南1丁目2-1","lat":35.74221812,"lon":139.39303223},{"name":"株式会社 トータルプラン","province":"東京都","city":"武蔵村山市","address":"東京都武蔵村山市大南1丁目168-1","lat":35.73481073,"lon":139.39657665},{"name":"武蔵村山子ども食堂","province":"東京都","city":"武蔵村山市","address":"東京都武蔵村山市神明4丁目17-1","lat":35.75268109,"lon":139.40421683},{"name":"まどか食堂","province":"東京都","city":"武蔵村山市","address":"東京都武蔵村山市本町3丁目40-3","lat":35.75855478,"lon":139.38152149},{"name":"\"children’s kitchenうぉーく \"","province":"東京都","city":"武蔵村山市","address":"東京都武蔵村山市学園4丁目5-1","lat":35.74627625,"lon":139.40299776},{"name":"子ども食堂ぶどうハウス","province":"東京都","city":"武蔵村山市","address":"東京都武蔵村山市中原3丁目11-6","lat":35.75835147,"lon":139.36046217},{"name":"みんなの食堂　みっつ武蔵村山","province":"東京都","city":"武蔵村山市","address":"東京都武蔵村山市大南2丁目47-14","lat":35.74071024,"lon":139.40423952},{"name":"\"SOMPOの子ども食堂 \"","province":"東京都","city":"武蔵村山市","address":"東京都武蔵村山市三ツ藤1丁目4-1","lat":35.75192504,"lon":139.38247447},{"name":"有限会社 成華園","province":"東京都","city":"武蔵村山市","address":"東京都武蔵村山市学園3丁目61-5","lat":35.74423764,"lon":139.40527261},{"name":"有限会社  アヤノセレモニー","province":"東京都","city":"武蔵村山市","address":"東京都武蔵村山市学園5丁目15-14","lat":35.74475949,"lon":139.39270994},{"name":"合同会社 大南葬祭","province":"東京都","city":"武蔵村山市","address":"東京都武蔵村山市大南5丁目70-1","lat":35.74057152,"lon":139.41082221},{"name":"株式会社 セレモの森","province":"東京都","city":"武蔵村山市","address":"東京都武蔵村山市大南3丁目97-2","lat":35.73523306,"lon":139.402976},{"name":"有限会社 アヴィル 市民葬祭センター","province":"東京都","city":"武蔵村山市","address":"東京都武蔵村山市大南4丁目61-9","lat":35.73485551,"lon":139.41111687},{"name":"株式会社 むらやま葬祭","province":"東京都","city":"武蔵村山市","address":"東京都武蔵村山市大南1丁目2-1","lat":35.74221812,"lon":139.39303223},{"name":"株式会社 トータルプラン","province":"東京都","city":"武蔵村山市","address":"東京都武蔵村山市大南1丁目168-1","lat":35.73481073,"lon":139.39657665},{"name":"武蔵村山子ども食堂","province":"東京都","city":"武蔵村山市","address":"東京都武蔵村山市神明4丁目17-1","lat":35.75268109,"lon":139.40421683},{"name":"まどか食堂","province":"東京都","city":"武蔵村山市","address":"東京都武蔵村山市本町3丁目40-3","lat":35.75855478,"lon":139.38152149},{"name":"\"children’s kitchenうぉーく \"","province":"東京都","city":"武蔵村山市","address":"東京都武蔵村山市学園4丁目5-1","lat":35.74627625,"lon":139.40299776},{"name":"子ども食堂ぶどうハウス","province":"東京都","city":"武蔵村山市","address":"東京都武蔵村山市中原3丁目11-6","lat":35.75835147,"lon":139.36046217},{"name":"みんなの食堂　みっつ武蔵村山","province":"東京都","city":"武蔵村山市","address":"東京都武蔵村山市大南2丁目47-14","lat":35.74071024,"lon":139.40423952},{"name":"\"SOMPOの子ども食堂 \"","province":"東京都","city":"武蔵村山市","address":"東京都武蔵村山市三ツ藤1丁目4-1","lat":35.75192504,"lon":139.38247447},{"name":"有限会社 成華園","province":"東京都","city":"武蔵村山市","address":"東京都武蔵村山市学園3丁目61-5","lat":35.74423764,"lon":139.40527261},{"name":"有限会社  アヤノセレモニー","province":"東京都","city":"武蔵村山市","address":"東京都武蔵村山市学園5丁目15-14","lat":35.74475949,"lon":139.39270994},{"name":"合同会社 大南葬祭","province":"東京都","city":"武蔵村山市","address":"東京都武蔵村山市大南5丁目70-1","lat":35.74057152,"lon":139.41082221},{"name":"株式会社 セレモの森","province":"東京都","city":"武蔵村山市","address":"東京都武蔵村山市大南3丁目97-2","lat":35.73523306,"lon":139.402976},{"name":"有限会社 アヴィル 市民葬祭センター","province":"東京都","city":"武蔵村山市","address":"東京都武蔵村山市大南4丁目61-9","lat":35.73485551,"lon":139.41111687},{"name":"株式会社 むらやま葬祭","province":"東京都","city":"武蔵村山市","address":"東京都武蔵村山市大南1丁目2-1","lat":35.74221812,"lon":139.39303223},{"name":"株式会社 トータルプラン","province":"東京都","city":"武蔵村山市","address":"東京都武蔵村山市大南1丁目168-1","lat":35.73481073,"lon":139.39657665},{"name":"武蔵村山子ども食堂","province":"東京都","city":"武蔵村山市","address":"東京都武蔵村山市神明4丁目17-1","lat":35.75268109,"lon":139.40421683},{"name":"まどか食堂","province":"東京都","city":"武蔵村山市","address":"東京都武蔵村山市本町3丁目40-3","lat":35.75855478,"lon":139.38152149},{"name":"\"children’s kitchenうぉーく \"","province":"東京都","city":"武蔵村山市","address":"東京都武蔵村山市学園4丁目5-1","lat":35.74627625,"lon":139.40299776},{"name":"子ども食堂ぶどうハウス","province":"東京都","city":"武蔵村山市","address":"東京都武蔵村山市中原3丁目11-6","lat":35.75835147,"lon":139.36046217},{"name":"みんなの食堂　みっつ武蔵村山","province":"東京都","city":"武蔵村山市","address":"東京都武蔵村山市大南2丁目47-14","lat":35.74071024,"lon":139.40423952},{"name":"\"SOMPOの子ども食堂 \"","province":"東京都","city":"武蔵村山市","address":"東京都武蔵村山市三ツ藤1丁目4-1","lat":35.75192504,"lon":139.38247447},{"name":"有限会社 成華園","province":"東京都","city":"武蔵村山市","address":"東京都武蔵村山市学園3丁目61-5","lat":35.74423764,"lon":139.40527261},{"name":"有限会社  アヤノセレモニー","province":"東京都","city":"武蔵村山市","address":"東京都武蔵村山市学園5丁目15-14","lat":35.74475949,"lon":139.39270994},{"name":"合同会社 大南葬祭","province":"東京都","city":"武蔵村山市","address":"東京都武蔵村山市大南5丁目70-1","lat":35.74057152,"lon":139.41082221},{"name":"株式会社 セレモの森","province":"東京都","city":"武蔵村山市","address":"東京都武蔵村山市大南3丁目97-2","lat":35.73523306,"lon":139.402976},{"name":"有限会社 アヴィル 市民葬祭センター","province":"東京都","city":"武蔵村山市","address":"東京都武蔵村山市大南4丁目61-9","lat":35.73485551,"lon":139.41111687},{"name":"株式会社 むらやま葬祭","province":"東京都","city":"武蔵村山市","address":"東京都武蔵村山市大南1丁目2-1","lat":35.74221812,"lon":139.39303223},{"name":"株式会社 トータルプラン","province":"東京都","city":"武蔵村山市","address":"東京都武蔵村山市大南1丁目168-1","lat":35.73481073,"lon":139.39657665},{"name":"武蔵村山子ども食堂","province":"東京都","city":"武蔵村山市","address":"東京都武蔵村山市神明4丁目17-1","lat":35.75268109,"lon":139.40421683},{"name":"まどか食堂","province":"東京都","city":"武蔵村山市","address":"東京都武蔵村山市本町3丁目40-3","lat":35.75855478,"lon":139.38152149},{"name":"\"children’s kitchenうぉーく \"","province":"東京都","city":"武蔵村山市","address":"東京都武蔵村山市学園4丁目5-1","lat":35.74627625,"lon":139.40299776},{"name":"子ども食堂ぶどうハウス","province":"東京都","city":"武蔵村山市","address":"東京都武蔵村山市中原3丁目11-6","lat":35.75835147,"lon":139.36046217},{"name":"みんなの食堂　みっつ武蔵村山","province":"東京都","city":"武蔵村山市","address":"東京都武蔵村山市大南2丁目47-14","lat":35.74071024,"lon":139.40423952},{"name":"\"SOMPOの子ども食堂 \"","province":"東京都","city":"武蔵村山市","address":"東京都武蔵村山市三ツ藤1丁目4-1","lat":35.75192504,"lon":139.38247447},{"name":"有限会社 成華園","province":"東京都","city":"武蔵村山市","address":"東京都武蔵村山市学園3丁目61-5","lat":35.74423764,"lon":139.40527261},{"name":"有限会社  アヤノセレモニー","province":"東京都","city":"武蔵村山市","address":"東京都武蔵村山市学園5丁目15-14","lat":35.74475949,"lon":139.39270994},{"name":"合同会社 大南葬祭","province":"東京都","city":"武蔵村山市","address":"東京都武蔵村山市大南5丁目70-1","lat":35.74057152,"lon":139.41082221},{"name":"株式会社 セレモの森","province":"東京都","city":"武蔵村山市","address":"東京都武蔵村山市大南3丁目97-2","lat":35.73523306,"lon":139.402976},{"name":"有限会社 アヴィル 市民葬祭センター","province":"東京都","city":"武蔵村山市","address":"東京都武蔵村山市大南4丁目61-9","lat":35.73485551,"lon":139.41111687},{"name":"株式会社 むらやま葬祭","province":"東京都","city":"武蔵村山市","address":"東京都武蔵村山市大南1丁目2-1","lat":35.74221812,"lon":139.39303223},{"name":"株式会社 トータルプラン","province":"東京都","city":"武蔵村山市","address":"東京都武蔵村山市大南1丁目168-1","lat":35.73481073,"lon":139.39657665},{"name":"武蔵村山子ども食堂","province":"東京都","city":"武蔵村山市","address":"東京都武蔵村山市神明4丁目17-1","lat":35.75268109,"lon":139.40421683},{"name":"まどか食堂","province":"東京都","city":"武蔵村山市","address":"東京都武蔵村山市本町3丁目40-3","lat":35.75855478,"lon":139.38152149},{"name":"\"children’s kitchenうぉーく \"","province":"東京都","city":"武蔵村山市","address":"東京都武蔵村山市学園4丁目5-1","lat":35.74627625,"lon":139.40299776},{"name":"子ども食堂ぶどうハウス","province":"東京都","city":"武蔵村山市","address":"東京都武蔵村山市中原3丁目11-6","lat":35.75835147,"lon":139.36046217},{"name":"みんなの食堂　みっつ武蔵村山","province":"東京都","city":"武蔵村山市","address":"東京都武蔵村山市大南2丁目47-14","lat":35.74071024,"lon":139.40423952},{"name":"\"SOMPOの子ども食堂 \"","province":"東京都","city":"武蔵村山市","address":"東京都武蔵村山市三ツ藤1丁目4-1","lat":35.75192504,"lon":139.38247447},{"name":"有限会社 成華園","province":"東京都","city":"武蔵村山市","address":"東京都武蔵村山市学園3丁目61-5","lat":35.74423764,"lon":139.40527261},{"name":"有限会社  アヤノセレモニー","province":"東京都","city":"武蔵村山市","address":"東京都武蔵村山市学園5丁目15-14","lat":35.74475949,"lon":139.39270994},{"name":"合同会社 大南葬祭","province":"東京都","city":"武蔵村山市","address":"東京都武蔵村山市大南5丁目70-1","lat":35.74057152,"lon":139.41082221},{"name":"株式会社 セレモの森","province":"東京都","city":"武蔵村山市","address":"東京都武蔵村山市大南3丁目97-2","lat":35.73523306,"lon":139.402976},{"name":"有限会社 アヴィル 市民葬祭センター","province":"東京都","city":"武蔵村山市","address":"東京都武蔵村山市大南4丁目61-9","lat":35.73485551,"lon":139.41111687},{"name":"株式会社 むらやま葬祭","province":"東京都","city":"武蔵村山市","address":"東京都武蔵村山市大南1丁目2-1","lat":35.74221812,"lon":139.39303223},{"name":"株式会社 トータルプラン","province":"東京都","city":"武蔵村山市","address":"東京都武蔵村山市大南1丁目168-1","lat":35.73481073,"lon":139.39657665},{"name":"武蔵村山子ども食堂","province":"東京都","city":"武蔵村山市","address":"東京都武蔵村山市神明4丁目17-1","lat":35.75268109,"lon":139.40421683},{"name":"まどか食堂","province":"東京都","city":"武蔵村山市","address":"東京都武蔵村山市本町3丁目40-3","lat":35.75855478,"lon":139.38152149},{"name":"\"children’s kitchenうぉーく \"","province":"東京都","city":"武蔵村山市","address":"東京都武蔵村山市学園4丁目5-1","lat":35.74627625,"lon":139.40299776},{"name":"子ども食堂ぶどうハウス","province":"東京都","city":"武蔵村山市","address":"東京都武蔵村山市中原3丁目11-6","lat":35.75835147,"lon":139.36046217},{"name":"みんなの食堂　みっつ武蔵村山","province":"東京都","city":"武蔵村山市","address":"東京都武蔵村山市大南2丁目47-14","lat":35.74071024,"lon":139.40423952},{"name":"\"SOMPOの子ども食堂 \"","province":"東京都","city":"武蔵村山市","address":"東京都武蔵村山市三ツ藤1丁目4-1","lat":35.75192504,"lon":139.38247447},{"name":"有限会社 成華園","province":"東京都","city":"武蔵村山市","address":"東京都武蔵村山市学園3丁目61-5","lat":35.74423764,"lon":139.40527261},{"name":"有限会社  アヤノセレモニー","province":"東京都","city":"武蔵村山市","address":"東京都武蔵村山市学園5丁目15-14","lat":35.74475949,"lon":139.39270994},{"name":"合同会社 大南葬祭","province":"東京都","city":"武蔵村山市","address":"東京都武蔵村山市大南5丁目70-1","lat":35.74057152,"lon":139.41082221},{"name":"株式会社 セレモの森","province":"東京都","city":"武蔵村山市","address":"東京都武蔵村山市大南3丁目97-2","lat":35.73523306,"lon":139.402976},{"name":"有限会社 アヴィル 市民葬祭センター","province":"東京都","city":"武蔵村山市","address":"東京都武蔵村山市大南4丁目61-9","lat":35.73485551,"lon":139.41111687},{"name":"株式会社 むらやま葬祭","province":"東京都","city":"武蔵村山市","address":"東京都武蔵村山市大南1丁目2-1","lat":35.74221812,"lon":139.39303223},{"name":"株式会社 トータルプラン","province":"東京都","city":"武蔵村山市","address":"東京都武蔵村山市大南1丁目168-1","lat":35.73481073,"lon":139.39657665},{"name":"武蔵村山子ども食堂","province":"東京都","city":"武蔵村山市","address":"東京都武蔵村山市神明4丁目17-1","lat":35.75268109,"lon":139.40421683},{"name":"まどか食堂","province":"東京都","city":"武蔵村山市","address":"東京都武蔵村山市本町3丁目40-3","lat":35.75855478,"lon":139.38152149},{"name":"\"children’s kitchenうぉーく \"","province":"東京都","city":"武蔵村山市","address":"東京都武蔵村山市学園4丁目5-1","lat":35.74627625,"lon":139.40299776},{"name":"子ども食堂ぶどうハウス","province":"東京都","city":"武蔵村山市","address":"東京都武蔵村山市中原3丁目11-6","lat":35.75835147,"lon":139.36046217},{"name":"みんなの食堂　みっつ武蔵村山","province":"東京都","city":"武蔵村山市","address":"東京都武蔵村山市大南2丁目47-14","lat":35.74071024,"lon":139.40423952},{"name":"\"SOMPOの子ども食堂 \"","province":"東京都","city":"武蔵村山市","address":"東京都武蔵村山市三ツ藤1丁目4-1","lat":35.75192504,"lon":139.38247447},{"name":"有限会社 成華園","province":"東京都","city":"武蔵村山市","address":"東京都武蔵村山市学園3丁目61-5","lat":35.74423764,"lon":139.40527261},{"name":"有限会社  アヤノセレモニー","province":"東京都","city":"武蔵村山市","address":"東京都武蔵村山市学園5丁目15-14","lat":35.74475949,"lon":139.39270994},{"name":"合同会社 大南葬祭","province":"東京都","city":"武蔵村山市","address":"東京都武蔵村山市大南5丁目70-1","lat":35.74057152,"lon":139.41082221},{"name":"株式会社 セレモの森","province":"東京都","city":"武蔵村山市","address":"東京都武蔵村山市大南3丁目97-2","lat":35.73523306,"lon":139.402976},{"name":"有限会社 アヴィル 市民葬祭センター","province":"東京都","city":"武蔵村山市","address":"東京都武蔵村山市大南4丁目61-9","lat":35.73485551,"lon":139.41111687},{"name":"株式会社 むらやま葬祭","province":"東京都","city":"武蔵村山市","address":"東京都武蔵村山市大南1丁目2-1","lat":35.74221812,"lon":139.39303223},{"name":"株式会社 トータルプラン","province":"東京都","city":"武蔵村山市","address":"東京都武蔵村山市大南1丁目168-1","lat":35.73481073,"lon":139.39657665},{"name":"武蔵村山子ども食堂","province":"東京都","city":"武蔵村山市","address":"東京都武蔵村山市神明4丁目17-1","lat":35.75268109,"lon":139.40421683},{"name":"まどか食堂","province":"東京都","city":"武蔵村山市","address":"東京都武蔵村山市本町3丁目40-3","lat":35.75855478,"lon":139.38152149},{"name":"\"children’s kitchenうぉーく \"","province":"東京都","city":"武蔵村山市","address":"東京都武蔵村山市学園4丁目5-1","lat":35.74627625,"lon":139.40299776},{"name":"子ども食堂ぶどうハウス","province":"東京都","city":"武蔵村山市","address":"東京都武蔵村山市中原3丁目11-6","lat":35.75835147,"lon":139.36046217},{"name":"みんなの食堂　みっつ武蔵村山","province":"東京都","city":"武蔵村山市","address":"東京都武蔵村山市大南2丁目47-14","lat":35.74071024,"lon":139.40423952},{"name":"\"SOMPOの子ども食堂 \"","province":"東京都","city":"武蔵村山市","address":"東京都武蔵村山市三ツ藤1丁目4-1","lat":35.75192504,"lon":139.38247447},{"name":"有限会社 成華園","province":"東京都","city":"武蔵村山市","address":"東京都武蔵村山市学園3丁目61-5","lat":35.74423764,"lon":139.40527261},{"name":"有限会社  アヤノセレモニー","province":"東京都","city":"武蔵村山市","address":"東京都武蔵村山市学園5丁目15-14","lat":35.74475949,"lon":139.39270994},{"name":"合同会社 大南葬祭","province":"東京都","city":"武蔵村山市","address":"東京都武蔵村山市大南5丁目70-1","lat":35.74057152,"lon":139.41082221},{"name":"株式会社 セレモの森","province":"東京都","city":"武蔵村山市","address":"東京都武蔵村山市大南3丁目97-2","lat":35.73523306,"lon":139.402976},{"name":"有限会社 アヴィル 市民葬祭センター","province":"東京都","city":"武蔵村山市","address":"東京都武蔵村山市大南4丁目61-9","lat":35.73485551,"lon":139.41111687},{"name":"株式会社 むらやま葬祭","province":"東京都","city":"武蔵村山市","address":"東京都武蔵村山市大南1丁目2-1","lat":35.74221812,"lon":139.39303223},{"name":"株式会社 トータルプラン","province":"東京都","city":"武蔵村山市","address":"東京都武蔵村山市大南1丁目168-1","lat":35.73481073,"lon":139.39657665},{"name":"武蔵村山子ども食堂","province":"東京都","city":"武蔵村山市","address":"東京都武蔵村山市神明4丁目17-1","lat":35.75268109,"lon":139.40421683},{"name":"まどか食堂","province":"東京都","city":"武蔵村山市","address":"東京都武蔵村山市本町3丁目40-3","lat":35.75855478,"lon":139.38152149},{"name":"\"children’s kitchenうぉーく \"","province":"東京都","city":"武蔵村山市","address":"東京都武蔵村山市学園4丁目5-1","lat":35.74627625,"lon":139.40299776},{"name":"子ども食堂ぶどうハウス","province":"東京都","city":"武蔵村山市","address":"東京都武蔵村山市中原3丁目11-6","lat":35.75835147,"lon":139.36046217},{"name":"みんなの食堂　みっつ武蔵村山","province":"東京都","city":"武蔵村山市","address":"東京都武蔵村山市大南2丁目47-14","lat":35.74071024,"lon":139.40423952},{"name":"\"SOMPOの子ども食堂 \"","province":"東京都","city":"武蔵村山市","address":"東京都武蔵村山市三ツ藤1丁目4-1","lat":35.75192504,"lon":139.38247447},{"name":"有限会社 成華園","province":"東京都","city":"武蔵村山市","address":"東京都武蔵村山市学園3丁目61-5","lat":35.74423764,"lon":139.40527261},{"name":"有限会社  アヤノセレモニー","province":"東京都","city":"武蔵村山市","address":"東京都武蔵村山市学園5丁目15-14","lat":35.74475949,"lon":139.39270994},{"name":"合同会社 大南葬祭","province":"東京都","city":"武蔵村山市","address":"東京都武蔵村山市大南5丁目70-1","lat":35.74057152,"lon":139.41082221},{"name":"株式会社 セレモの森","province":"東京都","city":"武蔵村山市","address":"東京都武蔵村山市大南3丁目97-2","lat":35.73523306,"lon":139.402976},{"name":"有限会社 アヴィル 市民葬祭センター","province":"東京都","city":"武蔵村山市","address":"東京都武蔵村山市大南4丁目61-9","lat":35.73485551,"lon":139.41111687},{"name":"株式会社 むらやま葬祭","province":"東京都","city":"武蔵村山市","address":"東京都武蔵村山市大南1丁目2-1","lat":35.74221812,"lon":139.39303223},{"name":"株式会社 トータルプラン","province":"東京都","city":"武蔵村山市","address":"東京都武蔵村山市大南1丁目168-1","lat":35.73481073,"lon":139.39657665},{"name":"武蔵村山子ども食堂","province":"東京都","city":"武蔵村山市","address":"東京都武蔵村山市神明4丁目17-1","lat":35.75268109,"lon":139.40421683},{"name":"まどか食堂","province":"東京都","city":"武蔵村山市","address":"東京都武蔵村山市本町3丁目40-3","lat":35.75855478,"lon":139.38152149},{"name":"\"children’s kitchenうぉーく \"","province":"東京都","city":"武蔵村山市","address":"東京都武蔵村山市学園4丁目5-1","lat":35.74627625,"lon":139.40299776},{"name":"子ども食堂ぶどうハウス","province":"東京都","city":"武蔵村山市","address":"東京都武蔵村山市中原3丁目11-6","lat":35.75835147,"lon":139.36046217},{"name":"みんなの食堂　みっつ武蔵村山","province":"東京都","city":"武蔵村山市","address":"東京都武蔵村山市大南2丁目47-14","lat":35.74071024,"lon":139.40423952},{"name":"\"SOMPOの子ども食堂 \"","province":"東京都","city":"武蔵村山市","address":"東京都武蔵村山市三ツ藤1丁目4-1","lat":35.75192504,"lon":139.38247447},{"name":"有限会社 成華園","province":"東京都","city":"武蔵村山市","address":"東京都武蔵村山市学園3丁目61-5","lat":35.74423764,"lon":139.40527261},{"name":"有限会社  アヤノセレモニー","province":"東京都","city":"武蔵村山市","address":"東京都武蔵村山市学園5丁目15-14","lat":35.74475949,"lon":139.39270994},{"name":"合同会社 大南葬祭","province":"東京都","city":"武蔵村山市","address":"東京都武蔵村山市大南5丁目70-1","lat":35.74057152,"lon":139.41082221},{"name":"株式会社 セレモの森","province":"東京都","city":"武蔵村山市","address":"東京都武蔵村山市大南3丁目97-2","lat":35.73523306,"lon":139.402976},{"name":"有限会社 アヴィル 市民葬祭センター","province":"東京都","city":"武蔵村山市","address":"東京都武蔵村山市大南4丁目61-9","lat":35.73485551,"lon":139.41111687},{"name":"株式会社 むらやま葬祭","province":"東京都","city":"武蔵村山市","address":"東京都武蔵村山市大南1丁目2-1","lat":35.74221812,"lon":139.39303223},{"name":"株式会社 トータルプラン","province":"東京都","city":"武蔵村山市","address":"東京都武蔵村山市大南1丁目168-1","lat":35.73481073,"lon":139.39657665},{"name":"武蔵村山子ども食堂","province":"東京都","city":"武蔵村山市","address":"東京都武蔵村山市神明4丁目17-1","lat":35.75268109,"lon":139.40421683},{"name":"まどか食堂","province":"東京都","city":"武蔵村山市","address":"東京都武蔵村山市本町3丁目40-3","lat":35.75855478,"lon":139.38152149},{"name":"\"children’s kitchenうぉーく \"","province":"東京都","city":"武蔵村山市","address":"東京都武蔵村山市学園4丁目5-1","lat":35.74627625,"lon":139.40299776},{"name":"子ども食堂ぶどうハウス","province":"東京都","city":"武蔵村山市","address":"東京都武蔵村山市中原3丁目11-6","lat":35.75835147,"lon":139.36046217},{"name":"みんなの食堂　みっつ武蔵村山","province":"東京都","city":"武蔵村山市","address":"東京都武蔵村山市大南2丁目47-14","lat":35.74071024,"lon":139.40423952},{"name":"\"SOMPOの子ども食堂 \"","province":"東京都","city":"武蔵村山市","address":"東京都武蔵村山市三ツ藤1丁目4-1","lat":35.75192504,"lon":139.38247447},{"name":"有限会社 成華園","province":"東京都","city":"武蔵村山市","address":"東京都武蔵村山市学園3丁目61-5","lat":35.74423764,"lon":139.40527261},{"name":"有限会社  アヤノセレモニー","province":"東京都","city":"武蔵村山市","address":"東京都武蔵村山市学園5丁目15-14","lat":35.74475949,"lon":139.39270994},{"name":"合同会社 大南葬祭","province":"東京都","city":"武蔵村山市","address":"東京都武蔵村山市大南5丁目70-1","lat":35.74057152,"lon":139.41082221},{"name":"株式会社 セレモの森","province":"東京都","city":"武蔵村山市","address":"東京都武蔵村山市大南3丁目97-2","lat":35.73523306,"lon":139.402976},{"name":"有限会社 アヴィル 市民葬祭センター","province":"東京都","city":"武蔵村山市","address":"東京都武蔵村山市大南4丁目61-9","lat":35.73485551,"lon":139.41111687},{"name":"株式会社 むらやま葬祭","province":"東京都","city":"武蔵村山市","address":"東京都武蔵村山市大南1丁目2-1","lat":35.74221812,"lon":139.39303223},{"name":"株式会社 トータルプラン","province":"東京都","city":"武蔵村山市","address":"東京都武蔵村山市大南1丁目168-1","lat":35.73481073,"lon":139.39657665},{"name":"武蔵村山子ども食堂","province":"東京都","city":"武蔵村山市","address":"東京都武蔵村山市神明4丁目17-1","lat":35.75268109,"lon":139.40421683},{"name":"まどか食堂","province":"東京都","city":"武蔵村山市","address":"東京都武蔵村山市本町3丁目40-3","lat":35.75855478,"lon":139.38152149},{"name":"\"children’s kitchenうぉーく \"","province":"東京都","city":"武蔵村山市","address":"東京都武蔵村山市学園4丁目5-1","lat":35.74627625,"lon":139.40299776},{"name":"子ども食堂ぶどうハウス","province":"東京都","city":"武蔵村山市","address":"東京都武蔵村山市中原3丁目11-6","lat":35.75835147,"lon":139.36046217},{"name":"みんなの食堂　みっつ武蔵村山","province":"東京都","city":"武蔵村山市","address":"東京都武蔵村山市大南2丁目47-14","lat":35.74071024,"lon":139.40423952},{"name":"\"SOMPOの子ども食堂 \"","province":"東京都","city":"武蔵村山市","address":"東京都武蔵村山市三ツ藤1丁目4-1","lat":35.75192504,"lon":139.38247447},{"name":"有限会社 成華園","province":"東京都","city":"武蔵村山市","address":"東京都武蔵村山市学園3丁目61-5","lat":35.74423764,"lon":139.40527261},{"name":"有限会社  アヤノセレモニー","province":"東京都","city":"武蔵村山市","address":"東京都武蔵村山市学園5丁目15-14","lat":35.74475949,"lon":139.39270994},{"name":"合同会社 大南葬祭","province":"東京都","city":"武蔵村山市","address":"東京都武蔵村山市大南5丁目70-1","lat":35.74057152,"lon":139.41082221},{"name":"株式会社 セレモの森","province":"東京都","city":"武蔵村山市","address":"東京都武蔵村山市大南3丁目97-2","lat":35.73523306,"lon":139.402976},{"name":"有限会社 アヴィル 市民葬祭センター","province":"東京都","city":"武蔵村山市","address":"東京都武蔵村山市大南4丁目61-9","lat":35.73485551,"lon":139.41111687},{"name":"株式会社 むらやま葬祭","province":"東京都","city":"武蔵村山市","address":"東京都武蔵村山市大南1丁目2-1","lat":35.74221812,"lon":139.39303223},{"name":"株式会社 トータルプラン","province":"東京都","city":"武蔵村山市","address":"東京都武蔵村山市大南1丁目168-1","lat":35.73481073,"lon":139.39657665},{"name":"武蔵村山子ども食堂","province":"東京都","city":"武蔵村山市","address":"東京都武蔵村山市神明4丁目17-1","lat":35.75268109,"lon":139.40421683},{"name":"まどか食堂","province":"東京都","city":"武蔵村山市","address":"東京都武蔵村山市本町3丁目40-3","lat":35.75855478,"lon":139.38152149},{"name":"\"children’s kitchenうぉーく \"","province":"東京都","city":"武蔵村山市","address":"東京都武蔵村山市学園4丁目5-1","lat":35.74627625,"lon":139.40299776},{"name":"子ども食堂ぶどうハウス","province":"東京都","city":"武蔵村山市","address":"東京都武蔵村山市中原3丁目11-6","lat":35.75835147,"lon":139.36046217},{"name":"みんなの食堂　みっつ武蔵村山","province":"東京都","city":"武蔵村山市","address":"東京都武蔵村山市大南2丁目47-14","lat":35.74071024,"lon":139.40423952},{"name":"\"SOMPOの子ども食堂 \"","province":"東京都","city":"武蔵村山市","address":"東京都武蔵村山市三ツ藤1丁目4-1","lat":35.75192504,"lon":139.38247447},{"name":"有限会社 成華園","province":"東京都","city":"武蔵村山市","address":"東京都武蔵村山市学園3丁目61-5","lat":35.74423764,"lon":139.40527261},{"name":"有限会社  アヤノセレモニー","province":"東京都","city":"武蔵村山市","address":"東京都武蔵村山市学園5丁目15-14","lat":35.74475949,"lon":139.39270994},{"name":"合同会社 大南葬祭","province":"東京都","city":"武蔵村山市","address":"東京都武蔵村山市大南5丁目70-1","lat":35.74057152,"lon":139.41082221},{"name":"株式会社 セレモの森","province":"東京都","city":"武蔵村山市","address":"東京都武蔵村山市大南3丁目97-2","lat":35.73523306,"lon":139.402976},{"name":"有限会社 アヴィル 市民葬祭センター","province":"東京都","city":"武蔵村山市","address":"東京都武蔵村山市大南4丁目61-9","lat":35.73485551,"lon":139.41111687},{"name":"株式会社 むらやま葬祭","province":"東京都","city":"武蔵村山市","address":"東京都武蔵村山市大南1丁目2-1","lat":35.74221812,"lon":139.39303223},{"name":"株式会社 トータルプラン","province":"東京都","city":"武蔵村山市","address":"東京都武蔵村山市大南1丁目168-1","lat":35.73481073,"lon":139.39657665},{"name":"武蔵村山子ども食堂","province":"東京都","city":"武蔵村山市","address":"東京都武蔵村山市神明4丁目17-1","lat":35.75268109,"lon":139.40421683},{"name":"まどか食堂","province":"東京都","city":"武蔵村山市","address":"東京都武蔵村山市本町3丁目40-3","lat":35.75855478,"lon":139.38152149},{"name":"\"children’s kitchenうぉーく \"","province":"東京都","city":"武蔵村山市","address":"東京都武蔵村山市学園4丁目5-1","lat":35.74627625,"lon":139.40299776},{"name":"子ども食堂ぶどうハウス","province":"東京都","city":"武蔵村山市","address":"東京都武蔵村山市中原3丁目11-6","lat":35.75835147,"lon":139.36046217},{"name":"みんなの食堂　みっつ武蔵村山","province":"東京都","city":"武蔵村山市","address":"東京都武蔵村山市大南2丁目47-14","lat":35.74071024,"lon":139.40423952},{"name":"\"SOMPOの子ども食堂 \"","province":"東京都","city":"武蔵村山市","address":"東京都武蔵村山市三ツ藤1丁目4-1","lat":35.75192504,"lon":139.38247447},{"name":"有限会社 成華園","province":"東京都","city":"武蔵村山市","address":"東京都武蔵村山市学園3丁目61-5","lat":35.74423764,"lon":139.40527261},{"name":"有限会社  アヤノセレモニー","province":"東京都","city":"武蔵村山市","address":"東京都武蔵村山市学園5丁目15-14","lat":35.74475949,"lon":139.39270994},{"name":"合同会社 大南葬祭","province":"東京都","city":"武蔵村山市","address":"東京都武蔵村山市大南5丁目70-1","lat":35.74057152,"lon":139.41082221},{"name":"株式会社 セレモの森","province":"東京都","city":"武蔵村山市","address":"東京都武蔵村山市大南3丁目97-2","lat":35.73523306,"lon":139.402976},{"name":"有限会社 アヴィル 市民葬祭センター","province":"東京都","city":"武蔵村山市","address":"東京都武蔵村山市大南4丁目61-9","lat":35.73485551,"lon":139.41111687},{"name":"株式会社 むらやま葬祭","province":"東京都","city":"武蔵村山市","address":"東京都武蔵村山市大南1丁目2-1","lat":35.74221812,"lon":139.39303223},{"name":"株式会社 トータルプラン","province":"東京都","city":"武蔵村山市","address":"東京都武蔵村山市大南1丁目168-1","lat":35.73481073,"lon":139.39657665},{"name":"武蔵村山子ども食堂","province":"東京都","city":"武蔵村山市","address":"東京都武蔵村山市神明4丁目17-1","lat":35.75268109,"lon":139.40421683},{"name":"まどか食堂","province":"東京都","city":"武蔵村山市","address":"東京都武蔵村山市本町3丁目40-3","lat":35.75855478,"lon":139.38152149},{"name":"\"children’s kitchenうぉーく \"","province":"東京都","city":"武蔵村山市","address":"東京都武蔵村山市学園4丁目5-1","lat":35.74627625,"lon":139.40299776},{"name":"子ども食堂ぶどうハウス","province":"東京都","city":"武蔵村山市","address":"東京都武蔵村山市中原3丁目11-6","lat":35.75835147,"lon":139.36046217},{"name":"みんなの食堂　みっつ武蔵村山","province":"東京都","city":"武蔵村山市","address":"東京都武蔵村山市大南2丁目47-14","lat":35.74071024,"lon":139.40423952},{"name":"\"SOMPOの子ども食堂 \"","province":"東京都","city":"武蔵村山市","address":"東京都武蔵村山市三ツ藤1丁目4-1","lat":35.75192504,"lon":139.38247447},{"name":"有限会社 成華園","province":"東京都","city":"武蔵村山市","address":"東京都武蔵村山市学園3丁目61-5","lat":35.74423764,"lon":139.40527261},{"name":"有限会社  アヤノセレモニー","province":"東京都","city":"武蔵村山市","address":"東京都武蔵村山市学園5丁目15-14","lat":35.74475949,"lon":139.39270994},{"name":"合同会社 大南葬祭","province":"東京都","city":"武蔵村山市","address":"東京都武蔵村山市大南5丁目70-1","lat":35.74057152,"lon":139.41082221},{"name":"株式会社 セレモの森","province":"東京都","city":"武蔵村山市","address":"東京都武蔵村山市大南3丁目97-2","lat":35.73523306,"lon":139.402976},{"name":"有限会社 アヴィル 市民葬祭センター","province":"東京都","city":"武蔵村山市","address":"東京都武蔵村山市大南4丁目61-9","lat":35.73485551,"lon":139.41111687},{"name":"株式会社 むらやま葬祭","province":"東京都","city":"武蔵村山市","address":"東京都武蔵村山市大南1丁目2-1","lat":35.74221812,"lon":139.39303223},{"name":"株式会社 トータルプラン","province":"東京都","city":"武蔵村山市","address":"東京都武蔵村山市大南1丁目168-1","lat":35.73481073,"lon":139.39657665},{"name":"武蔵村山子ども食堂","province":"東京都","city":"武蔵村山市","address":"東京都武蔵村山市神明4丁目17-1","lat":35.75268109,"lon":139.40421683},{"name":"まどか食堂","province":"東京都","city":"武蔵村山市","address":"東京都武蔵村山市本町3丁目40-3","lat":35.75855478,"lon":139.38152149},{"name":"\"children’s kitchenうぉーく \"","province":"東京都","city":"武蔵村山市","address":"東京都武蔵村山市学園4丁目5-1","lat":35.74627625,"lon":139.40299776},{"name":"子ども食堂ぶどうハウス","province":"東京都","city":"武蔵村山市","address":"東京都武蔵村山市中原3丁目11-6","lat":35.75835147,"lon":139.36046217},{"name":"みんなの食堂　みっつ武蔵村山","province":"東京都","city":"武蔵村山市","address":"東京都武蔵村山市大南2丁目47-14","lat":35.74071024,"lon":139.40423952},{"name":"\"SOMPOの子ども食堂 \"","province":"東京都","city":"武蔵村山市","address":"東京都武蔵村山市三ツ藤1丁目4-1","lat":35.75192504,"lon":139.38247447},{"name":"有限会社 成華園","province":"東京都","city":"武蔵村山市","address":"東京都武蔵村山市学園3丁目61-5","lat":35.74423764,"lon":139.40527261},{"name":"有限会社  アヤノセレモニー","province":"東京都","city":"武蔵村山市","address":"東京都武蔵村山市学園5丁目15-14","lat":35.74475949,"lon":139.39270994},{"name":"合同会社 大南葬祭","province":"東京都","city":"武蔵村山市","address":"東京都武蔵村山市大南5丁目70-1","lat":35.74057152,"lon":139.41082221},{"name":"株式会社 セレモの森","province":"東京都","city":"武蔵村山市","address":"東京都武蔵村山市大南3丁目97-2","lat":35.73523306,"lon":139.402976},{"name":"有限会社 アヴィル 市民葬祭センター","province":"東京都","city":"武蔵村山市","address":"東京都武蔵村山市大南4丁目61-9","lat":35.73485551,"lon":139.41111687},{"name":"株式会社 むらやま葬祭","province":"東京都","city":"武蔵村山市","address":"東京都武蔵村山市大南1丁目2-1","lat":35.74221812,"lon":139.39303223},{"name":"株式会社 トータルプラン","province":"東京都","city":"武蔵村山市","address":"東京都武蔵村山市大南1丁目168-1","lat":35.73481073,"lon":139.39657665},{"name":"武蔵村山子ども食堂","province":"東京都","city":"武蔵村山市","address":"東京都武蔵村山市神明4丁目17-1","lat":35.75268109,"lon":139.40421683},{"name":"まどか食堂","province":"東京都","city":"武蔵村山市","address":"東京都武蔵村山市本町3丁目40-3","lat":35.75855478,"lon":139.38152149},{"name":"\"children’s kitchenうぉーく \"","province":"東京都","city":"武蔵村山市","address":"東京都武蔵村山市学園4丁目5-1","lat":35.74627625,"lon":139.40299776},{"name":"子ども食堂ぶどうハウス","province":"東京都","city":"武蔵村山市","address":"東京都武蔵村山市中原3丁目11-6","lat":35.75835147,"lon":139.36046217},{"name":"みんなの食堂　みっつ武蔵村山","province":"東京都","city":"武蔵村山市","address":"東京都武蔵村山市大南2丁目47-14","lat":35.74071024,"lon":139.40423952},{"name":"\"SOMPOの子ども食堂 \"","province":"東京都","city":"武蔵村山市","address":"東京都武蔵村山市三ツ藤1丁目4-1","lat":35.75192504,"lon":139.38247447},{"name":"有限会社 成華園","province":"東京都","city":"武蔵村山市","address":"東京都武蔵村山市学園3丁目61-5","lat":35.74423764,"lon":139.40527261},{"name":"有限会社  アヤノセレモニー","province":"東京都","city":"武蔵村山市","address":"東京都武蔵村山市学園5丁目15-14","lat":35.74475949,"lon":139.39270994},{"name":"合同会社 大南葬祭","province":"東京都","city":"武蔵村山市","address":"東京都武蔵村山市大南5丁目70-1","lat":35.74057152,"lon":139.41082221},{"name":"株式会社 セレモの森","province":"東京都","city":"武蔵村山市","address":"東京都武蔵村山市大南3丁目97-2","lat":35.73523306,"lon":139.402976},{"name":"有限会社 アヴィル 市民葬祭センター","province":"東京都","city":"武蔵村山市","address":"東京都武蔵村山市大南4丁目61-9","lat":35.73485551,"lon":139.41111687},{"name":"株式会社 むらやま葬祭","province":"東京都","city":"武蔵村山市","address":"東京都武蔵村山市大南1丁目2-1","lat":35.74221812,"lon":139.39303223},{"name":"株式会社 トータルプラン","province":"東京都","city":"武蔵村山市","address":"東京都武蔵村山市大南1丁目168-1","lat":35.73481073,"lon":139.39657665},{"name":"武蔵村山子ども食堂","province":"東京都","city":"武蔵村山市","address":"東京都武蔵村山市神明4丁目17-1","lat":35.75268109,"lon":139.40421683},{"name":"まどか食堂","province":"東京都","city":"武蔵村山市","address":"東京都武蔵村山市本町3丁目40-3","lat":35.75855478,"lon":139.38152149},{"name":"\"children’s kitchenうぉーく \"","province":"東京都","city":"武蔵村山市","address":"東京都武蔵村山市学園4丁目5-1","lat":35.74627625,"lon":139.40299776},{"name":"子ども食堂ぶどうハウス","province":"東京都","city":"武蔵村山市","address":"東京都武蔵村山市中原3丁目11-6","lat":35.75835147,"lon":139.36046217},{"name":"みんなの食堂　みっつ武蔵村山","province":"東京都","city":"武蔵村山市","address":"東京都武蔵村山市大南2丁目47-14","lat":35.74071024,"lon":139.40423952},{"name":"\"SOMPOの子ども食堂 \"","province":"東京都","city":"武蔵村山市","address":"東京都武蔵村山市三ツ藤1丁目4-1","lat":35.75192504,"lon":139.38247447},{"name":"有限会社 成華園","province":"東京都","city":"武蔵村山市","address":"東京都武蔵村山市学園3丁目61-5","lat":35.74423764,"lon":139.40527261},{"name":"有限会社  アヤノセレモニー","province":"東京都","city":"武蔵村山市","address":"東京都武蔵村山市学園5丁目15-14","lat":35.74475949,"lon":139.39270994},{"name":"合同会社 大南葬祭","province":"東京都","city":"武蔵村山市","address":"東京都武蔵村山市大南5丁目70-1","lat":35.74057152,"lon":139.41082221},{"name":"株式会社 セレモの森","province":"東京都","city":"武蔵村山市","address":"東京都武蔵村山市大南3丁目97-2","lat":35.73523306,"lon":139.402976},{"name":"有限会社 アヴィル 市民葬祭センター","province":"東京都","city":"武蔵村山市","address":"東京都武蔵村山市大南4丁目61-9","lat":35.73485551,"lon":139.41111687},{"name":"株式会社 むらやま葬祭","province":"東京都","city":"武蔵村山市","address":"東京都武蔵村山市大南1丁目2-1","lat":35.74221812,"lon":139.39303223},{"name":"株式会社 トータルプラン","province":"東京都","city":"武蔵村山市","address":"東京都武蔵村山市大南1丁目168-1","lat":35.73481073,"lon":139.39657665},{"name":"武蔵村山子ども食堂","province":"東京都","city":"武蔵村山市","address":"東京都武蔵村山市神明4丁目17-1","lat":35.75268109,"lon":139.40421683},{"name":"まどか食堂","province":"東京都","city":"武蔵村山市","address":"東京都武蔵村山市本町3丁目40-3","lat":35.75855478,"lon":139.38152149},{"name":"\"children’s kitchenうぉーく \"","province":"東京都","city":"武蔵村山市","address":"東京都武蔵村山市学園4丁目5-1","lat":35.74627625,"lon":139.40299776},{"name":"子ども食堂ぶどうハウス","province":"東京都","city":"武蔵村山市","address":"東京都武蔵村山市中原3丁目11-6","lat":35.75835147,"lon":139.36046217},{"name":"みんなの食堂　みっつ武蔵村山","province":"東京都","city":"武蔵村山市","address":"東京都武蔵村山市大南2丁目47-14","lat":35.74071024,"lon":139.40423952},{"name":"\"SOMPOの子ども食堂 \"","province":"東京都","city":"武蔵村山市","address":"東京都武蔵村山市三ツ藤1丁目4-1","lat":35.75192504,"lon":139.38247447},{"name":"有限会社 成華園","province":"東京都","city":"武蔵村山市","address":"東京都武蔵村山市学園3丁目61-5","lat":35.74423764,"lon":139.40527261},{"name":"有限会社  アヤノセレモニー","province":"東京都","city":"武蔵村山市","address":"東京都武蔵村山市学園5丁目15-14","lat":35.74475949,"lon":139.39270994},{"name":"合同会社 大南葬祭","province":"東京都","city":"武蔵村山市","address":"東京都武蔵村山市大南5丁目70-1","lat":35.74057152,"lon":139.41082221},{"name":"株式会社 セレモの森","province":"東京都","city":"武蔵村山市","address":"東京都武蔵村山市大南3丁目97-2","lat":35.73523306,"lon":139.402976},{"name":"有限会社 アヴィル 市民葬祭センター","province":"東京都","city":"武蔵村山市","address":"東京都武蔵村山市大南4丁目61-9","lat":35.73485551,"lon":139.41111687},{"name":"株式会社 むらやま葬祭","province":"東京都","city":"武蔵村山市","address":"東京都武蔵村山市大南1丁目2-1","lat":35.74221812,"lon":139.39303223},{"name":"株式会社 トータルプラン","province":"東京都","city":"武蔵村山市","address":"東京都武蔵村山市大南1丁目168-1","lat":35.73481073,"lon":139.39657665},{"name":"武蔵村山子ども食堂","province":"東京都","city":"武蔵村山市","address":"東京都武蔵村山市神明4丁目17-1","lat":35.75268109,"lon":139.40421683},{"name":"まどか食堂","province":"東京都","city":"武蔵村山市","address":"東京都武蔵村山市本町3丁目40-3","lat":35.75855478,"lon":139.38152149},{"name":"\"children’s kitchenうぉーく \"","province":"東京都","city":"武蔵村山市","address":"東京都武蔵村山市学園4丁目5-1","lat":35.74627625,"lon":139.40299776},{"name":"子ども食堂ぶどうハウス","province":"東京都","city":"武蔵村山市","address":"東京都武蔵村山市中原3丁目11-6","lat":35.75835147,"lon":139.36046217},{"name":"みんなの食堂　みっつ武蔵村山","province":"東京都","city":"武蔵村山市","address":"東京都武蔵村山市大南2丁目47-14","lat":35.74071024,"lon":139.40423952},{"name":"\"SOMPOの子ども食堂 \"","province":"東京都","city":"武蔵村山市","address":"東京都武蔵村山市三ツ藤1丁目4-1","lat":35.75192504,"lon":139.38247447},{"name":"有限会社 成華園","province":"東京都","city":"武蔵村山市","address":"東京都武蔵村山市学園3丁目61-5","lat":35.74423764,"lon":139.40527261},{"name":"有限会社  アヤノセレモニー","province":"東京都","city":"武蔵村山市","address":"東京都武蔵村山市学園5丁目15-14","lat":35.74475949,"lon":139.39270994},{"name":"合同会社 大南葬祭","province":"東京都","city":"武蔵村山市","address":"東京都武蔵村山市大南5丁目70-1","lat":35.74057152,"lon":139.41082221},{"name":"株式会社 セレモの森","province":"東京都","city":"武蔵村山市","address":"東京都武蔵村山市大南3丁目97-2","lat":35.73523306,"lon":139.402976},{"name":"有限会社 アヴィル 市民葬祭センター","province":"東京都","city":"武蔵村山市","address":"東京都武蔵村山市大南4丁目61-9","lat":35.73485551,"lon":139.41111687},{"name":"株式会社 むらやま葬祭","province":"東京都","city":"武蔵村山市","address":"東京都武蔵村山市大南1丁目2-1","lat":35.74221812,"lon":139.39303223},{"name":"株式会社 トータルプラン","province":"東京都","city":"武蔵村山市","address":"東京都武蔵村山市大南1丁目168-1","lat":35.73481073,"lon":139.39657665},{"name":"武蔵村山子ども食堂","province":"東京都","city":"武蔵村山市","address":"東京都武蔵村山市神明4丁目17-1","lat":35.75268109,"lon":139.40421683},{"name":"まどか食堂","province":"東京都","city":"武蔵村山市","address":"東京都武蔵村山市本町3丁目40-3","lat":35.75855478,"lon":139.38152149},{"name":"\"children’s kitchenうぉーく \"","province":"東京都","city":"武蔵村山市","address":"東京都武蔵村山市学園4丁目5-1","lat":35.74627625,"lon":139.40299776},{"name":"子ども食堂ぶどうハウス","province":"東京都","city":"武蔵村山市","address":"東京都武蔵村山市中原3丁目11-6","lat":35.75835147,"lon":139.36046217},{"name":"みんなの食堂　みっつ武蔵村山","province":"東京都","city":"武蔵村山市","address":"東京都武蔵村山市大南2丁目47-14","lat":35.74071024,"lon":139.40423952},{"name":"\"SOMPOの子ども食堂 \"","province":"東京都","city":"武蔵村山市","address":"東京都武蔵村山市三ツ藤1丁目4-1","lat":35.75192504,"lon":139.38247447},{"name":"有限会社 成華園","province":"東京都","city":"武蔵村山市","address":"東京都武蔵村山市学園3丁目61-5","lat":35.74423764,"lon":139.40527261},{"name":"有限会社  アヤノセレモニー","province":"東京都","city":"武蔵村山市","address":"東京都武蔵村山市学園5丁目15-14","lat":35.74475949,"lon":139.39270994},{"name":"合同会社 大南葬祭","province":"東京都","city":"武蔵村山市","address":"東京都武蔵村山市大南5丁目70-1","lat":35.74057152,"lon":139.41082221},{"name":"株式会社 セレモの森","province":"東京都","city":"武蔵村山市","address":"東京都武蔵村山市大南3丁目97-2","lat":35.73523306,"lon":139.402976},{"name":"有限会社 アヴィル 市民葬祭センター","province":"東京都","city":"武蔵村山市","address":"東京都武蔵村山市大南4丁目61-9","lat":35.73485551,"lon":139.41111687},{"name":"株式会社 むらやま葬祭","province":"東京都","city":"武蔵村山市","address":"東京都武蔵村山市大南1丁目2-1","lat":35.74221812,"lon":139.39303223},{"name":"株式会社 トータルプラン","province":"東京都","city":"武蔵村山市","address":"東京都武蔵村山市大南1丁目168-1","lat":35.73481073,"lon":139.39657665},{"name":"武蔵村山子ども食堂","province":"東京都","city":"武蔵村山市","address":"東京都武蔵村山市神明4丁目17-1","lat":35.75268109,"lon":139.40421683},{"name":"まどか食堂","province":"東京都","city":"武蔵村山市","address":"東京都武蔵村山市本町3丁目40-3","lat":35.75855478,"lon":139.38152149},{"name":"\"children’s kitchenうぉーく \"","province":"東京都","city":"武蔵村山市","address":"東京都武蔵村山市学園4丁目5-1","lat":35.74627625,"lon":139.40299776},{"name":"子ども食堂ぶどうハウス","province":"東京都","city":"武蔵村山市","address":"東京都武蔵村山市中原3丁目11-6","lat":35.75835147,"lon":139.36046217},{"name":"みんなの食堂　みっつ武蔵村山","province":"東京都","city":"武蔵村山市","address":"東京都武蔵村山市大南2丁目47-14","lat":35.74071024,"lon":139.40423952},{"name":"\"SOMPOの子ども食堂 \"","province":"東京都","city":"武蔵村山市","address":"東京都武蔵村山市三ツ藤1丁目4-1","lat":35.75192504,"lon":139.38247447}]}