{"keyword":"男女","data":[{"name":"あゆみ保育園","province":"東京都","city":"武蔵村山市","address":"武蔵村山市中央2-53-3","lat":35.752373,"lon":139.397642},{"name":"村山中藤保育園「櫻」","province":"東京都","city":"武蔵村山市","address":"武蔵村山市中央1-28-1","lat":35.753214,"lon":139.389952},{"name":"まどか保育園","province":"東京都","city":"武蔵村山市","address":"武蔵村山市本町3-40-3","lat":35.758555,"lon":139.381521},{"name":"つみき保育園","province":"東京都","city":"武蔵村山市","address":"武蔵村山市学園3-12-1","lat":35.747732,"lon":139.404128},{"name":"聖光緑が丘保育園","province":"東京都","city":"武蔵村山市","address":"武蔵村山市緑が丘1610-1","lat":35.745404,"lon":139.407967},{"name":"れんげ武蔵保育園","province":"東京都","city":"武蔵村山市","address":"武蔵村山市緑が丘1732-1","lat":35.742057,"lon":139.407903},{"name":"みらい保育園","province":"東京都","city":"武蔵村山市","address":"武蔵村山市大南1-8-1","lat":35.742493,"lon":139.394118},{"name":"育成会ひまわり保育園","province":"東京都","city":"武蔵村山市","address":"武蔵村山市大南3-94-1","lat":35.735266,"lon":139.403509},{"name":"育成会めぐみ保育園","province":"東京都","city":"武蔵村山市","address":"武蔵村山市大南1-33-3","lat":35.741552,"lon":139.39794},{"name":"聖光三ツ藤保育園","province":"東京都","city":"武蔵村山市","address":"武蔵村山市三ツ藤3-36-10","lat":35.754838,"lon":139.37172},{"name":"つむぎ保育園","province":"東京都","city":"武蔵村山市","address":"武蔵村山市伊奈平5-66","lat":35.738599,"lon":139.374179},{"name":"きし保育園","province":"東京都","city":"武蔵村山市","address":"武蔵村山市岸1-5-11","lat":35.761565,"lon":139.36672},{"name":"村山中藤保育園「白樺」","province":"東京都","city":"武蔵村山市","address":"武蔵村山市残堀4-90-1","lat":35.749583,"lon":139.367356},{"name":"放課後等デイサービス　あかぐみ","province":"東京都","city":"武蔵村山市","address":"武蔵村山市中央1-25-14ハウスオブブーケC棟101","lat":35.753247,"lon":139.389335},{"name":"放課後デイサービスひだまり","province":"東京都","city":"武蔵村山市","address":"武蔵村山市本町1-63-1","lat":35.753064,"lon":139.385857},{"name":"クローバー","province":"東京都","city":"武蔵村山市","address":"武蔵村山市学園1-112-8","lat":35.746232,"lon":139.396723},{"name":"放課後等デイサービス　トライきっず","province":"東京都","city":"武蔵村山市","address":"武蔵村山市大南3-72-1柏木マンション102号","lat":35.735569,"lon":139.405404},{"name":"放課後デイサービス　せせらぎ","province":"東京都","city":"武蔵村山市","address":"武蔵村山市大南1-111-23","lat":35.736438,"lon":139.396896},{"name":"放課後等デイサービス　どりーむ","province":"東京都","city":"武蔵村山市","address":"武蔵村山市三ツ藤2丁目27番地4","lat":35.752008,"lon":139.375195},{"name":"妖精の杜","province":"東京都","city":"武蔵村山市","address":"武蔵村山市残堀1-110-9","lat":35.744628,"lon":139.37552},{"name":"あい武蔵村山","province":"東京都","city":"武蔵村山市","address":"武蔵村山市中原4-3-2","lat":35.752699,"lon":139.363795},{"name":"福生第二学園","province":"東京都","city":"武蔵村山市","address":"武蔵村山市三ツ藤2-34-1","lat":35.752636,"lon":139.376733},{"name":"武蔵村山市保健相談センター","province":"東京都","city":"武蔵村山市","address":"武蔵村山市本町1-23","lat":35.752758,"lon":139.387455},{"name":"武蔵村山市保健相談センターお伊勢の森分室","province":"東京都","city":"武蔵村山市","address":"武蔵村山市中央2-118","lat":35.750959,"lon":139.393643},{"name":"野山北・六道山公園","province":"東京都","city":"武蔵村山市","address":"東京都武蔵村山市本町3丁目85","lat":35.762693,"lon":139.381346},{"name":"北多摩西部消防署武蔵村山出張所","province":"東京都","city":"武蔵村山市","address":"東京都武蔵村山市榎1丁目1-36","lat":35.742334,"lon":139.386443},{"name":"公民館さいかち分館","province":"東京都","city":"武蔵村山市","address":"東京都武蔵村山市緑が丘1460","lat":35.744437,"lon":139.405977},{"name":"武蔵村山市役所","province":"東京都","city":"武蔵村山市","address":"東京都武蔵村山市本町1丁目1-1","lat":35.754704,"lon":139.387479},{"name":"武蔵村山市民総合センター","province":"東京都","city":"武蔵村山市","address":"東京都武蔵村山市学園4丁目5-1","lat":35.74615,"lon":139.403336},{"name":"武蔵村山市民総合センター","province":"東京都","city":"武蔵村山市","address":"東京都武蔵村山市学園4丁目5-1","lat":35.746175,"lon":139.403363},{"name":"武蔵村山市民総合センター","province":"東京都","city":"武蔵村山市","address":"東京都武蔵村山市学園4丁目5-1","lat":35.746148,"lon":139.403317},{"name":"武蔵村山市民総合センター","province":"東京都","city":"武蔵村山市","address":"東京都武蔵村山市学園4丁目5-1","lat":35.746158,"lon":139.403384},{"name":"武蔵村山市民総合センター","province":"東京都","city":"武蔵村山市","address":"東京都武蔵村山市学園4丁目5-1","lat":35.746293,"lon":139.403342},{"name":"武蔵村山市民総合センター","province":"東京都","city":"武蔵村山市","address":"東京都武蔵村山市学園4丁目5-1","lat":35.746288,"lon":139.40329},{"name":"武蔵村山市民総合センター","province":"東京都","city":"武蔵村山市","address":"東京都武蔵村山市学園4丁目5-1","lat":35.746156,"lon":139.403362},{"name":"武蔵村山市役所緑が丘出張所","province":"東京都","city":"武蔵村山市","address":"東京都武蔵村山市緑が丘1460","lat":35.741814,"lon":139.405018},{"name":"武蔵村山市公民館","province":"東京都","city":"武蔵村山市","address":"東京都武蔵村山市大南2丁目78","lat":35.73997,"lon":139.401295},{"name":"武蔵村山市公民館","province":"東京都","city":"武蔵村山市","address":"東京都武蔵村山市大南2丁目78-1","lat":35.739922,"lon":139.401757},{"name":"中藤地区会館","province":"東京都","city":"武蔵村山市","address":"東京都武蔵村山市中藤3丁目16","lat":35.756965,"lon":139.400749},{"name":"三ツ木地区会館","province":"東京都","city":"武蔵村山市","address":"東京都武蔵村山市三ツ木2丁目39-2","lat":35.758542,"lon":139.368606},{"name":"大南地区会館","province":"東京都","city":"武蔵村山市","address":"東京都武蔵村山市大南5丁目1-69","lat":35.735694,"lon":139.405892},{"name":"大南地区会館","province":"東京都","city":"武蔵村山市","address":"東京都武蔵村山市大南5丁目1","lat":35.735492,"lon":139.405821},{"name":"残堀・伊奈平地区会館","province":"東京都","city":"武蔵村山市","address":"東京都武蔵村山市残堀1丁目60-3","lat":35.746194,"lon":139.375197},{"name":"武蔵村山市保健相談センター","province":"東京都","city":"武蔵村山市","address":"東京都武蔵村山市本町1丁目23","lat":35.752902,"lon":139.387421},{"name":"武蔵村山市保健相談センターお伊勢の森分室","province":"東京都","city":"武蔵村山市","address":"東京都武蔵村山市中央2丁目118","lat":35.75106,"lon":139.39355},{"name":"雷塚図書館","province":"東京都","city":"武蔵村山市","address":"東京都武蔵村山市学園4丁目4","lat":35.745837,"lon":139.400405},{"name":"三ツ木地区図書館","province":"東京都","city":"武蔵村山市","address":"東京都武蔵村山市三ツ木2丁目39-2","lat":35.758663,"lon":139.368589},{"name":"大南地区図書館","province":"東京都","city":"武蔵村山市","address":"東京都武蔵村山市大南5丁目1-69","lat":35.735679,"lon":139.405895},{"name":"中藤地区図書館","province":"東京都","city":"武蔵村山市","address":"東京都武蔵村山市中藤3丁目16","lat":35.756933,"lon":139.400716},{"name":"残堀・伊奈平地区図書館","province":"東京都","city":"武蔵村山市","address":"東京都武蔵村山市残堀1丁目60-3","lat":35.746172,"lon":139.375192},{"name":"中久保図書館","province":"東京都","city":"武蔵村山市","address":"東京都武蔵村山市本町2丁目77-1","lat":35.754566,"lon":139.382909},{"name":"武蔵村山市立歴史民俗資料館","province":"東京都","city":"武蔵村山市","address":"東京都武蔵村山市本町5丁目21-1","lat":35.762425,"lon":139.387428},{"name":"歴史民俗資料館分館","province":"東京都","city":"武蔵村山市","address":"東京都武蔵村山市大南3丁目5-7","lat":35.737584,"lon":139.400805},{"name":"武蔵村山市民会館","province":"東京都","city":"武蔵村山市","address":"東京都武蔵村山市本町1丁目17-1","lat":35.753985,"lon":139.386945},{"name":"武蔵村山市民会館","province":"東京都","city":"武蔵村山市","address":"東京都武蔵村山市本町1丁目17-1","lat":35.753944,"lon":139.386984},{"name":"武蔵村山市民会館","province":"東京都","city":"武蔵村山市","address":"東京都武蔵村山市本町1丁目17-1","lat":35.753918,"lon":139.386977},{"name":"伊奈平公園","province":"東京都","city":"武蔵村山市","address":"東京都武蔵村山市伊奈平5丁目84","lat":35.740054,"lon":139.371137},{"name":"大南公園","province":"東京都","city":"武蔵村山市","address":"東京都武蔵村山市緑が丘","lat":35.738627,"lon":139.409069},{"name":"大南公園","province":"東京都","city":"武蔵村山市","address":"東京都武蔵村山市緑が丘","lat":35.738888,"lon":139.406427},{"name":"大南東公園","province":"東京都","city":"武蔵村山市","address":"東京都武蔵村山市大南5丁目2","lat":35.735127,"lon":139.409561},{"name":"経塚向公園","province":"東京都","city":"武蔵村山市","address":"東京都武蔵村山市中原2丁目50","lat":35.754738,"lon":139.360355},{"name":"さいかち公園","province":"東京都","city":"武蔵村山市","address":"東京都武蔵村山市学園4丁目5","lat":35.745813,"lon":139.403513},{"name":"山王森公園","province":"東京都","city":"武蔵村山市","address":"東京都武蔵村山市三ツ藤3丁目27","lat":35.755988,"lon":139.370846},{"name":"中原公園","province":"東京都","city":"武蔵村山市","address":"東京都武蔵村山市中原2丁目21","lat":35.756726,"lon":139.363073},{"name":"プリンスの丘公園","province":"東京都","city":"武蔵村山市","address":"東京都武蔵村山市榎1丁目1","lat":35.743457,"lon":139.387197},{"name":"雷塚公園","province":"東京都","city":"武蔵村山市","address":"東京都武蔵村山市学園4丁目4","lat":35.746065,"lon":139.400923},{"name":"横田児童遊園","province":"東京都","city":"武蔵村山市","address":"東京都武蔵村山市本町4丁目41","lat":35.758494,"lon":139.386416},{"name":"学園四丁目西児童遊園","province":"東京都","city":"武蔵村山市","address":"東京都武蔵村山市学園4丁目3","lat":35.745046,"lon":139.398608},{"name":"伊奈平四丁目児童遊園","province":"東京都","city":"武蔵村山市","address":"東京都武蔵村山市伊奈平4丁目18","lat":35.737644,"lon":139.376887},{"name":"武蔵の野路休憩所","province":"東京都","city":"武蔵村山市","address":"東京都武蔵村山市本町4丁目36","lat":35.758199,"lon":139.386865},{"name":"武蔵村山市総合体育館","province":"東京都","city":"武蔵村山市","address":"東京都武蔵村山市岸3丁目45-6","lat":35.764984,"lon":139.371874},{"name":"武蔵村山市総合体育館","province":"東京都","city":"武蔵村山市","address":"東京都武蔵村山市岸3丁目45-6","lat":35.764961,"lon":139.372275},{"name":"野山北公園","province":"東京都","city":"武蔵村山市","address":"東京都武蔵村山市本町5丁目31","lat":35.763552,"lon":139.384599},{"name":"総合運動公園運動場","province":"東京都","city":"武蔵村山市","address":"東京都武蔵村山市岸5丁目30","lat":35.766134,"lon":139.373528},{"name":"総合運動公園運動場","province":"東京都","city":"武蔵村山市","address":"東京都武蔵村山市岸5丁目31","lat":35.765201,"lon":139.374229},{"name":"三ツ木地域運動場","province":"東京都","city":"武蔵村山市","address":"東京都武蔵村山市三ツ木1丁目15","lat":35.756746,"lon":139.378735},{"name":"残堀・伊奈平地域運動場","province":"東京都","city":"武蔵村山市","address":"東京都武蔵村山市残堀4丁目38","lat":35.747756,"lon":139.368979},{"name":"新大南運動場","province":"東京都","city":"武蔵村山市","address":"東京都武蔵村山市大南3丁目64","lat":35.736615,"lon":139.403147},{"name":"中藤五丁目運動広場","province":"東京都","city":"武蔵村山市","address":"東京都武蔵村山市中藤5丁目7","lat":35.75612,"lon":139.407043},{"name":"三ツ木庭球場","province":"東京都","city":"武蔵村山市","address":"東京都武蔵村山市三ツ木1丁目20","lat":35.756884,"lon":139.376649},{"name":"武蔵村山市福祉会館","province":"東京都","city":"武蔵村山市","address":"東京都武蔵村山市中央2丁目117-1","lat":35.750835,"lon":139.393353},{"name":"村山温泉かたくりの湯","province":"東京都","city":"武蔵村山市","address":"東京都武蔵村山市本町5丁目29-1","lat":35.76281,"lon":139.38699},{"name":"さいかち老人福祉館","province":"東京都","city":"武蔵村山市","address":"東京都武蔵村山市緑が丘1460","lat":35.744221,"lon":139.406634},{"name":"武蔵村山子ども食堂","province":"東京都","city":"武蔵村山市","address":"東京都武蔵村山市神明4丁目17-1","lat":35.75268109,"lon":139.40421683},{"name":"まどか食堂","province":"東京都","city":"武蔵村山市","address":"東京都武蔵村山市本町3丁目40-3","lat":35.75855478,"lon":139.38152149},{"name":"\"children’s kitchenうぉーく \"","province":"東京都","city":"武蔵村山市","address":"東京都武蔵村山市学園4丁目5-1","lat":35.74627625,"lon":139.40299776},{"name":"子ども食堂ぶどうハウス","province":"東京都","city":"武蔵村山市","address":"東京都武蔵村山市中原3丁目11-6","lat":35.75835147,"lon":139.36046217},{"name":"みんなの食堂　みっつ武蔵村山","province":"東京都","city":"武蔵村山市","address":"東京都武蔵村山市大南2丁目47-14","lat":35.74071024,"lon":139.40423952},{"name":"\"SOMPOの子ども食堂 \"","province":"東京都","city":"武蔵村山市","address":"東京都武蔵村山市三ツ藤1丁目4-1","lat":35.75192504,"lon":139.38247447},{"name":"中藤公園","province":"東京都","city":"武蔵村山市","address":"東京都武蔵村山市中央4・5丁目地内","lat":35.759998,"lon":139.389301},{"name":"野山北・六道山公園","province":"東京都","city":"武蔵村山市","address":"東京都武蔵村山市三ツ木4-2","lat":35.765884,"lon":139.379757},{"name":"学園配水所","province":"東京都","city":"武蔵村山市","address":"東京都武蔵村山市学園1-5-7","lat":35.7499647,"lon":139.390535},{"name":"中藤配水所","province":"東京都","city":"武蔵村山市","address":"東京都武蔵村山市中藤2-1-3","lat":35.7588747,"lon":139.393662},{"name":"市立中原公園","province":"東京都","city":"武蔵村山市","address":"東京都武蔵村山市中原2-21-4","lat":35.7568554,"lon":139.363293},{"name":"村山中藤保育園「櫻」","province":"東京都","city":"武蔵村山市","address":"武蔵村山市中央1-28-1","lat":35.75309,"lon":139.39008},{"name":"あゆみ保育園","province":"東京都","city":"武蔵村山市","address":"武蔵村山市中央2-53-3","lat":35.75285,"lon":139.39786},{"name":"まどか保育園","province":"東京都","city":"武蔵村山市","address":"武蔵村山市本町3-40-3","lat":35.75862,"lon":139.38214},{"name":"つみき保育園","province":"東京都","city":"武蔵村山市","address":"武蔵村山市学園3-12-1","lat":35.74775,"lon":139.4041},{"name":"聖光緑が丘保育園","province":"東京都","city":"武蔵村山市","address":"武蔵村山市緑が丘1610-1","lat":35.74545,"lon":139.40796},{"name":"れんげ武蔵保育園","province":"東京都","city":"武蔵村山市","address":"武蔵村山市緑が丘1732-1","lat":35.742,"lon":139.40799},{"name":"育成会めぐみ保育園","province":"東京都","city":"武蔵村山市","address":"武蔵村山市大南1-33-3","lat":35.74149,"lon":139.39796},{"name":"育成会ひまわり保育園","province":"東京都","city":"武蔵村山市","address":"武蔵村山市大南3-71-1","lat":35.73565,"lon":139.40508},{"name":"聖光三ツ藤保育園","province":"東京都","city":"武蔵村山市","address":"武蔵村山市三ツ藤3-36-10","lat":35.75512,"lon":139.37183},{"name":"みらい保育園","province":"東京都","city":"武蔵村山市","address":"武蔵村山市榎2-36-1","lat":35.74312,"lon":139.39133},{"name":"つむぎ保育園","province":"東京都","city":"武蔵村山市","address":"武蔵村山市伊奈平5-66","lat":35.73886,"lon":139.37404},{"name":"きし保育園","province":"東京都","city":"武蔵村山市","address":"武蔵村山市岸1-5-11","lat":35.76182,"lon":139.36681},{"name":"村山中藤保育園「白樺」","province":"東京都","city":"武蔵村山市","address":"武蔵村山市残堀4-90-1","lat":35.7499,"lon":139.36794},{"name":"武蔵村山市（生活援護第一グループ）","province":"東京都","city":"武蔵村山市","address":"武蔵村山市本町1-1-1","lat":35.75475,"lon":139.38736},{"name":"武蔵村山市（生活援護第二グループ）","province":"東京都","city":"武蔵村山市","address":"武蔵村山市緑が丘1460-1104-1階","lat":35.74046,"lon":139.40483},{"name":"学園自転車駐車場","province":"東京都","city":"武蔵村山市","address":"東京都武蔵村山市学園3丁目41-5","lat":35.74615967,"lon":139.40626409},{"name":"峰自転車駐車場","province":"東京都","city":"武蔵村山市","address":"東京都武蔵村山市三ツ木5丁目23","lat":35.75976561,"lon":139.37708849},{"name":"西部地域包括支援センター","province":"東京都","city":"武蔵村山市","address":"武蔵村山市伊奈平6-14-2特別養護老人ホーム伊奈平苑内","lat":35.744324,"lon":139.373657},{"name":"北部地域包括支援センター","province":"東京都","city":"武蔵村山市","address":"武蔵村山市中央2-13-1","lat":35.754345,"lon":139.394852},{"name":"南部地域包括支援センター","province":"東京都","city":"武蔵村山市","address":"武蔵村山市学園4-5-1市民総合センター内","lat":35.746132,"lon":139.403259},{"name":"緑が丘地域包括支援センター","province":"東京都","city":"武蔵村山市","address":"武蔵村山市緑が丘14601103号棟緑が丘高齢者サービスセンター内","lat":35.742924,"lon":139.407913},{"name":"村山団地高齢者みまもり相談室","province":"東京都","city":"武蔵村山市","address":"武蔵村山市緑が丘146045号棟","lat":35.740459,"lon":139.404831},{"name":"武蔵村山市役所健康福祉部高齢福祉課","province":"東京都","city":"武蔵村山市","address":"武蔵村山市学園4-5-1市民総合センター内","lat":35.746132,"lon":139.403259},{"name":"武蔵村山市役所健康福祉部地域福祉課","province":"東京都","city":"武蔵村山市","address":"武蔵村山市本町1-1-1","lat":35.754745,"lon":139.38736},{"name":"武蔵村山市役所総務部福祉総務課","province":"東京都","city":"武蔵村山市","address":"武蔵村山市本町1-1-1","lat":35.754745,"lon":139.38736},{"name":"武蔵村山市消費生活センター","province":"東京都","city":"武蔵村山市","address":"武蔵村山市本町1-1-1","lat":35.754745,"lon":139.38736},{"name":"武蔵村山市役所協働推進部協働推進課","province":"東京都","city":"武蔵村山市","address":"武蔵村山市本町1-1-1","lat":35.754745,"lon":139.38736},{"name":"武蔵村山市身体障害者福祉センター","province":"東京都","city":"武蔵村山市","address":"東京都武蔵村山市学園4丁目5-1","lat":35.74627625,"lon":139.40299776},{"name":"特定非営利活動法人村山たんぽぽ","province":"東京都","city":"武蔵村山市","address":"東京都武蔵村山市学園3丁目59-3","lat":35.74500978,"lon":139.40565032},{"name":"社会福祉法人あかつきコロニーあかつき授産所","province":"東京都","city":"武蔵村山市","address":"東京都武蔵村山市伊奈平1丁目64-1","lat":35.74549788,"lon":139.37780573},{"name":"社会福祉法人あかつきコロニセルプあかつき","province":"東京都","city":"武蔵村山市","address":"東京都武蔵村山市伊奈平1丁目64-1","lat":35.74549788,"lon":139.37780573},{"name":"社会福祉法人あかつきコロニースペース・まどか","province":"東京都","city":"武蔵村山市","address":"東京都武蔵村山市伊奈平1丁目64-1","lat":35.74549788,"lon":139.37780573},{"name":"育成会ひまわり保育園","province":"東京都","city":"武蔵村山市","address":"武蔵村山市大南3-71-1","lat":35.73524,"lon":139.40349},{"name":"みらい保育園","province":"東京都","city":"武蔵村山市","address":"武蔵村山市大南1-8-1","lat":35.74248,"lon":139.39426},{"name":"学園通り入口","province":"東京都","city":"武蔵村山市","address":"東京都武蔵村山市緑が丘1460","lat":35.7429045,"lon":139.40695028},{"name":"中藤配水所","province":"東京都","city":"武蔵村山市","address":"東京都武蔵村山市中藤2丁目1-3","lat":35.7588829,"lon":139.3936565},{"name":"東京経済大学運動場","province":"東京都","city":"武蔵村山市","address":"東京都武蔵村山市学園5丁目22-1","lat":35.74428181,"lon":139.39444868},{"name":"＊?歴史民俗資料館分館","province":"東京都","city":"武蔵村山市","address":"武蔵村山市大南3-5-7","lat":35.737605,"lon":139.400815},{"name":"比留間運送(株)  中間処理工場","province":"東京都","city":"武蔵村山市","address":"武蔵村山市伊奈平3-25-5","lat":35.736393,"lon":139.38028},{"name":"(有)富商","province":"東京都","city":"武蔵村山市","address":"武蔵村山市伊奈平2-8","lat":35.74202,"lon":139.380173},{"name":"(株)前原紙業  武蔵村山営業所","province":"東京都","city":"武蔵村山市","address":"武蔵村山市榎2-92-1","lat":35.740997,"lon":139.390793},{"name":"武蔵村山市（生活援護第一グループ）","province":"東京都","city":"武蔵村山市","address":"武蔵村山市本町1-1-1","lat":35.754905,"lon":139.387421},{"name":"武蔵村山市（生活援護第二グループ）","province":"東京都","city":"武蔵村山市","address":"武蔵村山市緑が丘1460番地1104-1F","lat":35.743477,"lon":139.407886},{"name":"武蔵村山市役所本庁舎","province":"東京都","city":"武蔵村山市","address":"東京都武蔵村山市本町1丁目1-1","lat":35.7548304,"lon":139.38737668},{"name":"武蔵村山市民総合センター","province":"東京都","city":"武蔵村山市","address":"東京都武蔵村山市学園4丁目5-1","lat":35.74627625,"lon":139.40299776},{"name":"武蔵村山市保健相談センター","province":"東京都","city":"武蔵村山市","address":"東京都武蔵村山市本町1丁目23","lat":35.75275842,"lon":139.38745453},{"name":"上水高等学校","province":"東京都","city":"武蔵村山市","address":"東京都武蔵村山市大南4丁目62-1","lat":35.73534715,"lon":139.41235562},{"name":"武蔵村山高等学校","province":"東京都","city":"武蔵村山市","address":"東京都武蔵村山市中原1丁目7-1","lat":35.75687123,"lon":139.36591733},{"name":"武蔵村山市本庁舎","province":"東京都","city":"武蔵村山市","address":"東京都武蔵村山市本町1丁目1-1","lat":35.7548304,"lon":139.38737668},{"name":"武蔵村山市本庁舎","province":"東京都","city":"武蔵村山市","address":"武蔵村山市本町1-1-1","lat":35.754906,"lon":139.387421},{"name":"※武蔵村山市本庁舎","province":"東京都","city":"武蔵村山市","address":"東京都武蔵村山市本町1丁目1-1","lat":35.7548304,"lon":139.38737668},{"name":"放課後等デイサービス　あかぐみ","province":"東京都","city":"武蔵村山市","address":"武蔵村山市中央1-25-14ハウスオブブーケC棟101","lat":35.753247,"lon":139.389335},{"name":"放課後デイサービスひだまり","province":"東京都","city":"武蔵村山市","address":"武蔵村山市本町1-63-1","lat":35.753064,"lon":139.385857},{"name":"クローバー","province":"東京都","city":"武蔵村山市","address":"武蔵村山市学園1-112-8","lat":35.746232,"lon":139.396723},{"name":"放課後等デイサービス　トライきっず","province":"東京都","city":"武蔵村山市","address":"武蔵村山市大南3-72-1柏木マンション102号","lat":35.735569,"lon":139.405404},{"name":"放課後デイサービス　せせらぎ","province":"東京都","city":"武蔵村山市","address":"武蔵村山市大南1-111-23","lat":35.736438,"lon":139.396896},{"name":"放課後等デイサービス　どりーむ","province":"東京都","city":"武蔵村山市","address":"武蔵村山市三ツ藤2丁目27番地4","lat":35.752008,"lon":139.375195},{"name":"妖精の杜","province":"東京都","city":"武蔵村山市","address":"武蔵村山市残堀1-110-9","lat":35.744628,"lon":139.37552},{"name":"あい武蔵村山","province":"東京都","city":"武蔵村山市","address":"武蔵村山市中原4-3-2","lat":35.752699,"lon":139.363795},{"name":"武蔵村山子ども食堂","province":"東京都","city":"武蔵村山市","address":"東京都武蔵村山市神明4丁目17-1","lat":35.75268109,"lon":139.40421683},{"name":"まどか食堂","province":"東京都","city":"武蔵村山市","address":"東京都武蔵村山市本町3丁目40-3","lat":35.75855478,"lon":139.38152149},{"name":"\"children’s kitchenうぉーく \"","province":"東京都","city":"武蔵村山市","address":"東京都武蔵村山市学園4丁目5-1","lat":35.74627625,"lon":139.40299776},{"name":"子ども食堂ぶどうハウス","province":"東京都","city":"武蔵村山市","address":"東京都武蔵村山市中原3丁目11-6","lat":35.75835147,"lon":139.36046217},{"name":"みんなの食堂　みっつ武蔵村山","province":"東京都","city":"武蔵村山市","address":"東京都武蔵村山市大南2丁目47-14","lat":35.74071024,"lon":139.40423952},{"name":"\"SOMPOの子ども食堂 \"","province":"東京都","city":"武蔵村山市","address":"東京都武蔵村山市三ツ藤1丁目4-1","lat":35.75192504,"lon":139.38247447},{"name":"中藤公園","province":"東京都","city":"武蔵村山市","address":"東京都武蔵村山市中央4・5丁目地内","lat":35.759998,"lon":139.389301},{"name":"野山北・六道山公園","province":"東京都","city":"武蔵村山市","address":"東京都武蔵村山市三ツ木4-2","lat":35.765884,"lon":139.379757},{"name":"学園配水所","province":"東京都","city":"武蔵村山市","address":"東京都武蔵村山市学園1-5-7","lat":35.7499647,"lon":139.390535},{"name":"中藤配水所","province":"東京都","city":"武蔵村山市","address":"東京都武蔵村山市中藤2-1-3","lat":35.7588747,"lon":139.393662},{"name":"市立中原公園","province":"東京都","city":"武蔵村山市","address":"東京都武蔵村山市中原2-21-4","lat":35.7568554,"lon":139.363293},{"name":"武蔵村山市（生活援護第一グループ）","province":"東京都","city":"武蔵村山市","address":"武蔵村山市本町1-1-1","lat":35.75475,"lon":139.38736},{"name":"武蔵村山市（生活援護第二グループ）","province":"東京都","city":"武蔵村山市","address":"武蔵村山市緑が丘1460-1104-1階","lat":35.74046,"lon":139.40483},{"name":"学園自転車駐車場","province":"東京都","city":"武蔵村山市","address":"東京都武蔵村山市学園3丁目41-5","lat":35.74615967,"lon":139.40626409},{"name":"峰自転車駐車場","province":"東京都","city":"武蔵村山市","address":"東京都武蔵村山市三ツ木5丁目23","lat":35.75976561,"lon":139.37708849},{"name":"西部地域包括支援センター","province":"東京都","city":"武蔵村山市","address":"武蔵村山市伊奈平6-14-2特別養護老人ホーム伊奈平苑内","lat":35.744324,"lon":139.373657},{"name":"北部地域包括支援センター","province":"東京都","city":"武蔵村山市","address":"武蔵村山市中央2-13-1","lat":35.754345,"lon":139.394852},{"name":"南部地域包括支援センター","province":"東京都","city":"武蔵村山市","address":"武蔵村山市学園4-5-1市民総合センター内","lat":35.746132,"lon":139.403259},{"name":"緑が丘地域包括支援センター","province":"東京都","city":"武蔵村山市","address":"武蔵村山市緑が丘14601103号棟緑が丘高齢者サービスセンター内","lat":35.742924,"lon":139.407913},{"name":"村山団地高齢者みまもり相談室","province":"東京都","city":"武蔵村山市","address":"武蔵村山市緑が丘146045号棟","lat":35.740459,"lon":139.404831},{"name":"武蔵村山市役所健康福祉部高齢福祉課","province":"東京都","city":"武蔵村山市","address":"武蔵村山市学園4-5-1市民総合センター内","lat":35.746132,"lon":139.403259},{"name":"武蔵村山市役所健康福祉部地域福祉課","province":"東京都","city":"武蔵村山市","address":"武蔵村山市本町1-1-1","lat":35.754745,"lon":139.38736},{"name":"武蔵村山市役所総務部福祉総務課","province":"東京都","city":"武蔵村山市","address":"武蔵村山市本町1-1-1","lat":35.754745,"lon":139.38736},{"name":"武蔵村山市消費生活センター","province":"東京都","city":"武蔵村山市","address":"武蔵村山市本町1-1-1","lat":35.754745,"lon":139.38736},{"name":"武蔵村山市役所協働推進部協働推進課","province":"東京都","city":"武蔵村山市","address":"武蔵村山市本町1-1-1","lat":35.754745,"lon":139.38736},{"name":"学園通り入口","province":"東京都","city":"武蔵村山市","address":"東京都武蔵村山市緑が丘1460","lat":35.7429045,"lon":139.40695028},{"name":"＊?歴史民俗資料館分館","province":"東京都","city":"武蔵村山市","address":"武蔵村山市大南3-5-7","lat":35.737605,"lon":139.400815},{"name":"比留間運送(株)  中間処理工場","province":"東京都","city":"武蔵村山市","address":"武蔵村山市伊奈平3-25-5","lat":35.736393,"lon":139.38028},{"name":"(有)富商","province":"東京都","city":"武蔵村山市","address":"武蔵村山市伊奈平2-8","lat":35.74202,"lon":139.380173},{"name":"(株)前原紙業  武蔵村山営業所","province":"東京都","city":"武蔵村山市","address":"武蔵村山市榎2-92-1","lat":35.740997,"lon":139.390793},{"name":"武蔵村山市（生活援護第一グループ）","province":"東京都","city":"武蔵村山市","address":"武蔵村山市本町1-1-1","lat":35.754905,"lon":139.387421},{"name":"武蔵村山市（生活援護第二グループ）","province":"東京都","city":"武蔵村山市","address":"武蔵村山市緑が丘1460番地1104-1F","lat":35.743477,"lon":139.407886},{"name":"武蔵村山市役所本庁舎","province":"東京都","city":"武蔵村山市","address":"東京都武蔵村山市本町1丁目1-1","lat":35.7548304,"lon":139.38737668},{"name":"武蔵村山市民総合センター","province":"東京都","city":"武蔵村山市","address":"東京都武蔵村山市学園4丁目5-1","lat":35.74627625,"lon":139.40299776},{"name":"放課後等デイサービス　あかぐみ","province":"東京都","city":"武蔵村山市","address":"武蔵村山市中央1-25-14ハウスオブブーケC棟101","lat":35.753247,"lon":139.389335},{"name":"放課後デイサービスひだまり","province":"東京都","city":"武蔵村山市","address":"武蔵村山市本町1-63-1","lat":35.753064,"lon":139.385857},{"name":"クローバー","province":"東京都","city":"武蔵村山市","address":"武蔵村山市学園1-112-8","lat":35.746232,"lon":139.396723},{"name":"放課後等デイサービス　トライきっず","province":"東京都","city":"武蔵村山市","address":"武蔵村山市大南3-72-1柏木マンション102号","lat":35.735569,"lon":139.405404},{"name":"放課後デイサービス　せせらぎ","province":"東京都","city":"武蔵村山市","address":"武蔵村山市大南1-111-23","lat":35.736438,"lon":139.396896},{"name":"放課後等デイサービス　どりーむ","province":"東京都","city":"武蔵村山市","address":"武蔵村山市三ツ藤2丁目27番地4","lat":35.752008,"lon":139.375195},{"name":"妖精の杜","province":"東京都","city":"武蔵村山市","address":"武蔵村山市残堀1-110-9","lat":35.744628,"lon":139.37552},{"name":"あい武蔵村山","province":"東京都","city":"武蔵村山市","address":"武蔵村山市中原4-3-2","lat":35.752699,"lon":139.363795},{"name":"武蔵村山子ども食堂","province":"東京都","city":"武蔵村山市","address":"東京都武蔵村山市神明4丁目17-1","lat":35.75268109,"lon":139.40421683},{"name":"まどか食堂","province":"東京都","city":"武蔵村山市","address":"東京都武蔵村山市本町3丁目40-3","lat":35.75855478,"lon":139.38152149},{"name":"\"children’s kitchenうぉーく \"","province":"東京都","city":"武蔵村山市","address":"東京都武蔵村山市学園4丁目5-1","lat":35.74627625,"lon":139.40299776},{"name":"子ども食堂ぶどうハウス","province":"東京都","city":"武蔵村山市","address":"東京都武蔵村山市中原3丁目11-6","lat":35.75835147,"lon":139.36046217},{"name":"みんなの食堂　みっつ武蔵村山","province":"東京都","city":"武蔵村山市","address":"東京都武蔵村山市大南2丁目47-14","lat":35.74071024,"lon":139.40423952},{"name":"\"SOMPOの子ども食堂 \"","province":"東京都","city":"武蔵村山市","address":"東京都武蔵村山市三ツ藤1丁目4-1","lat":35.75192504,"lon":139.38247447},{"name":"中藤公園","province":"東京都","city":"武蔵村山市","address":"東京都武蔵村山市中央4・5丁目地内","lat":35.759998,"lon":139.389301},{"name":"野山北・六道山公園","province":"東京都","city":"武蔵村山市","address":"東京都武蔵村山市三ツ木4-2","lat":35.765884,"lon":139.379757},{"name":"学園配水所","province":"東京都","city":"武蔵村山市","address":"東京都武蔵村山市学園1-5-7","lat":35.7499647,"lon":139.390535},{"name":"中藤配水所","province":"東京都","city":"武蔵村山市","address":"東京都武蔵村山市中藤2-1-3","lat":35.7588747,"lon":139.393662},{"name":"市立中原公園","province":"東京都","city":"武蔵村山市","address":"東京都武蔵村山市中原2-21-4","lat":35.7568554,"lon":139.363293},{"name":"学園自転車駐車場","province":"東京都","city":"武蔵村山市","address":"東京都武蔵村山市学園3丁目41-5","lat":35.74615967,"lon":139.40626409},{"name":"峰自転車駐車場","province":"東京都","city":"武蔵村山市","address":"東京都武蔵村山市三ツ木5丁目23","lat":35.75976561,"lon":139.37708849},{"name":"西部地域包括支援センター","province":"東京都","city":"武蔵村山市","address":"武蔵村山市伊奈平6-14-2特別養護老人ホーム伊奈平苑内","lat":35.744324,"lon":139.373657},{"name":"北部地域包括支援センター","province":"東京都","city":"武蔵村山市","address":"武蔵村山市中央2-13-1","lat":35.754345,"lon":139.394852},{"name":"南部地域包括支援センター","province":"東京都","city":"武蔵村山市","address":"武蔵村山市学園4-5-1市民総合センター内","lat":35.746132,"lon":139.403259},{"name":"緑が丘地域包括支援センター","province":"東京都","city":"武蔵村山市","address":"武蔵村山市緑が丘14601103号棟緑が丘高齢者サービスセンター内","lat":35.742924,"lon":139.407913},{"name":"村山団地高齢者みまもり相談室","province":"東京都","city":"武蔵村山市","address":"武蔵村山市緑が丘146045号棟","lat":35.740459,"lon":139.404831},{"name":"武蔵村山市役所健康福祉部高齢福祉課","province":"東京都","city":"武蔵村山市","address":"武蔵村山市学園4-5-1市民総合センター内","lat":35.746132,"lon":139.403259},{"name":"武蔵村山市役所健康福祉部地域福祉課","province":"東京都","city":"武蔵村山市","address":"武蔵村山市本町1-1-1","lat":35.754745,"lon":139.38736},{"name":"武蔵村山市役所総務部福祉総務課","province":"東京都","city":"武蔵村山市","address":"武蔵村山市本町1-1-1","lat":35.754745,"lon":139.38736},{"name":"武蔵村山市消費生活センター","province":"東京都","city":"武蔵村山市","address":"武蔵村山市本町1-1-1","lat":35.754745,"lon":139.38736},{"name":"武蔵村山市役所協働推進部協働推進課","province":"東京都","city":"武蔵村山市","address":"武蔵村山市本町1-1-1","lat":35.754745,"lon":139.38736},{"name":"学園通り入口","province":"東京都","city":"武蔵村山市","address":"東京都武蔵村山市緑が丘1460","lat":35.7429045,"lon":139.40695028},{"name":"＊?歴史民俗資料館分館","province":"東京都","city":"武蔵村山市","address":"武蔵村山市大南3-5-7","lat":35.737605,"lon":139.400815},{"name":"比留間運送(株)  中間処理工場","province":"東京都","city":"武蔵村山市","address":"武蔵村山市伊奈平3-25-5","lat":35.736393,"lon":139.38028},{"name":"(有)富商","province":"東京都","city":"武蔵村山市","address":"武蔵村山市伊奈平2-8","lat":35.74202,"lon":139.380173},{"name":"(株)前原紙業  武蔵村山営業所","province":"東京都","city":"武蔵村山市","address":"武蔵村山市榎2-92-1","lat":35.740997,"lon":139.390793},{"name":"武蔵村山市役所本庁舎","province":"東京都","city":"武蔵村山市","address":"東京都武蔵村山市本町1丁目1-1","lat":35.7548304,"lon":139.38737668},{"name":"武蔵村山市民総合センター","province":"東京都","city":"武蔵村山市","address":"東京都武蔵村山市学園4丁目5-1","lat":35.74627625,"lon":139.40299776},{"name":"放課後等デイサービス　あかぐみ","province":"東京都","city":"武蔵村山市","address":"武蔵村山市中央1-25-14ハウスオブブーケC棟101","lat":35.753247,"lon":139.389335},{"name":"放課後デイサービスひだまり","province":"東京都","city":"武蔵村山市","address":"武蔵村山市本町1-63-1","lat":35.753064,"lon":139.385857},{"name":"クローバー","province":"東京都","city":"武蔵村山市","address":"武蔵村山市学園1-112-8","lat":35.746232,"lon":139.396723},{"name":"放課後等デイサービス　トライきっず","province":"東京都","city":"武蔵村山市","address":"武蔵村山市大南3-72-1柏木マンション102号","lat":35.735569,"lon":139.405404},{"name":"放課後デイサービス　せせらぎ","province":"東京都","city":"武蔵村山市","address":"武蔵村山市大南1-111-23","lat":35.736438,"lon":139.396896},{"name":"放課後等デイサービス　どりーむ","province":"東京都","city":"武蔵村山市","address":"武蔵村山市三ツ藤2丁目27番地4","lat":35.752008,"lon":139.375195},{"name":"妖精の杜","province":"東京都","city":"武蔵村山市","address":"武蔵村山市残堀1-110-9","lat":35.744628,"lon":139.37552},{"name":"あい武蔵村山","province":"東京都","city":"武蔵村山市","address":"武蔵村山市中原4-3-2","lat":35.752699,"lon":139.363795},{"name":"武蔵村山子ども食堂","province":"東京都","city":"武蔵村山市","address":"東京都武蔵村山市神明4丁目17-1","lat":35.75268109,"lon":139.40421683},{"name":"まどか食堂","province":"東京都","city":"武蔵村山市","address":"東京都武蔵村山市本町3丁目40-3","lat":35.75855478,"lon":139.38152149},{"name":"\"children’s kitchenうぉーく \"","province":"東京都","city":"武蔵村山市","address":"東京都武蔵村山市学園4丁目5-1","lat":35.74627625,"lon":139.40299776},{"name":"子ども食堂ぶどうハウス","province":"東京都","city":"武蔵村山市","address":"東京都武蔵村山市中原3丁目11-6","lat":35.75835147,"lon":139.36046217},{"name":"みんなの食堂　みっつ武蔵村山","province":"東京都","city":"武蔵村山市","address":"東京都武蔵村山市大南2丁目47-14","lat":35.74071024,"lon":139.40423952},{"name":"\"SOMPOの子ども食堂 \"","province":"東京都","city":"武蔵村山市","address":"東京都武蔵村山市三ツ藤1丁目4-1","lat":35.75192504,"lon":139.38247447},{"name":"中藤公園","province":"東京都","city":"武蔵村山市","address":"東京都武蔵村山市中央4・5丁目地内","lat":35.759998,"lon":139.389301},{"name":"野山北・六道山公園","province":"東京都","city":"武蔵村山市","address":"東京都武蔵村山市三ツ木4-2","lat":35.765884,"lon":139.379757},{"name":"学園配水所","province":"東京都","city":"武蔵村山市","address":"東京都武蔵村山市学園1-5-7","lat":35.7499647,"lon":139.390535},{"name":"中藤配水所","province":"東京都","city":"武蔵村山市","address":"東京都武蔵村山市中藤2-1-3","lat":35.7588747,"lon":139.393662},{"name":"市立中原公園","province":"東京都","city":"武蔵村山市","address":"東京都武蔵村山市中原2-21-4","lat":35.7568554,"lon":139.363293},{"name":"学園自転車駐車場","province":"東京都","city":"武蔵村山市","address":"東京都武蔵村山市学園3丁目41-5","lat":35.74615967,"lon":139.40626409},{"name":"峰自転車駐車場","province":"東京都","city":"武蔵村山市","address":"東京都武蔵村山市三ツ木5丁目23","lat":35.75976561,"lon":139.37708849},{"name":"学園通り入口","province":"東京都","city":"武蔵村山市","address":"東京都武蔵村山市緑が丘1460","lat":35.7429045,"lon":139.40695028},{"name":"＊?歴史民俗資料館分館","province":"東京都","city":"武蔵村山市","address":"武蔵村山市大南3-5-7","lat":35.737605,"lon":139.400815},{"name":"比留間運送(株)  中間処理工場","province":"東京都","city":"武蔵村山市","address":"武蔵村山市伊奈平3-25-5","lat":35.736393,"lon":139.38028},{"name":"(有)富商","province":"東京都","city":"武蔵村山市","address":"武蔵村山市伊奈平2-8","lat":35.74202,"lon":139.380173},{"name":"(株)前原紙業  武蔵村山営業所","province":"東京都","city":"武蔵村山市","address":"武蔵村山市榎2-92-1","lat":35.740997,"lon":139.390793},{"name":"武蔵村山市役所本庁舎","province":"東京都","city":"武蔵村山市","address":"東京都武蔵村山市本町1丁目1-1","lat":35.7548304,"lon":139.38737668},{"name":"武蔵村山市民総合センター","province":"東京都","city":"武蔵村山市","address":"東京都武蔵村山市学園4丁目5-1","lat":35.74627625,"lon":139.40299776},{"name":"放課後等デイサービス　あかぐみ","province":"東京都","city":"武蔵村山市","address":"武蔵村山市中央1-25-14ハウスオブブーケC棟101","lat":35.753247,"lon":139.389335},{"name":"放課後デイサービスひだまり","province":"東京都","city":"武蔵村山市","address":"武蔵村山市本町1-63-1","lat":35.753064,"lon":139.385857},{"name":"クローバー","province":"東京都","city":"武蔵村山市","address":"武蔵村山市学園1-112-8","lat":35.746232,"lon":139.396723},{"name":"放課後等デイサービス　トライきっず","province":"東京都","city":"武蔵村山市","address":"武蔵村山市大南3-72-1柏木マンション102号","lat":35.735569,"lon":139.405404},{"name":"放課後デイサービス　せせらぎ","province":"東京都","city":"武蔵村山市","address":"武蔵村山市大南1-111-23","lat":35.736438,"lon":139.396896},{"name":"放課後等デイサービス　どりーむ","province":"東京都","city":"武蔵村山市","address":"武蔵村山市三ツ藤2丁目27番地4","lat":35.752008,"lon":139.375195},{"name":"妖精の杜","province":"東京都","city":"武蔵村山市","address":"武蔵村山市残堀1-110-9","lat":35.744628,"lon":139.37552},{"name":"あい武蔵村山","province":"東京都","city":"武蔵村山市","address":"武蔵村山市中原4-3-2","lat":35.752699,"lon":139.363795},{"name":"武蔵村山子ども食堂","province":"東京都","city":"武蔵村山市","address":"東京都武蔵村山市神明4丁目17-1","lat":35.75268109,"lon":139.40421683},{"name":"まどか食堂","province":"東京都","city":"武蔵村山市","address":"東京都武蔵村山市本町3丁目40-3","lat":35.75855478,"lon":139.38152149},{"name":"\"children’s kitchenうぉーく \"","province":"東京都","city":"武蔵村山市","address":"東京都武蔵村山市学園4丁目5-1","lat":35.74627625,"lon":139.40299776},{"name":"子ども食堂ぶどうハウス","province":"東京都","city":"武蔵村山市","address":"東京都武蔵村山市中原3丁目11-6","lat":35.75835147,"lon":139.36046217},{"name":"みんなの食堂　みっつ武蔵村山","province":"東京都","city":"武蔵村山市","address":"東京都武蔵村山市大南2丁目47-14","lat":35.74071024,"lon":139.40423952},{"name":"\"SOMPOの子ども食堂 \"","province":"東京都","city":"武蔵村山市","address":"東京都武蔵村山市三ツ藤1丁目4-1","lat":35.75192504,"lon":139.38247447},{"name":"中藤公園","province":"東京都","city":"武蔵村山市","address":"東京都武蔵村山市中央4・5丁目地内","lat":35.759998,"lon":139.389301},{"name":"野山北・六道山公園","province":"東京都","city":"武蔵村山市","address":"東京都武蔵村山市三ツ木4-2","lat":35.765884,"lon":139.379757},{"name":"学園配水所","province":"東京都","city":"武蔵村山市","address":"東京都武蔵村山市学園1-5-7","lat":35.7499647,"lon":139.390535},{"name":"中藤配水所","province":"東京都","city":"武蔵村山市","address":"東京都武蔵村山市中藤2-1-3","lat":35.7588747,"lon":139.393662},{"name":"市立中原公園","province":"東京都","city":"武蔵村山市","address":"東京都武蔵村山市中原2-21-4","lat":35.7568554,"lon":139.363293},{"name":"学園自転車駐車場","province":"東京都","city":"武蔵村山市","address":"東京都武蔵村山市学園3丁目41-5","lat":35.74615967,"lon":139.40626409},{"name":"峰自転車駐車場","province":"東京都","city":"武蔵村山市","address":"東京都武蔵村山市三ツ木5丁目23","lat":35.75976561,"lon":139.37708849},{"name":"学園通り入口","province":"東京都","city":"武蔵村山市","address":"東京都武蔵村山市緑が丘1460","lat":35.7429045,"lon":139.40695028},{"name":"＊?歴史民俗資料館分館","province":"東京都","city":"武蔵村山市","address":"武蔵村山市大南3-5-7","lat":35.737605,"lon":139.400815},{"name":"武蔵村山市役所本庁舎","province":"東京都","city":"武蔵村山市","address":"東京都武蔵村山市本町1丁目1-1","lat":35.7548304,"lon":139.38737668},{"name":"武蔵村山市民総合センター","province":"東京都","city":"武蔵村山市","address":"東京都武蔵村山市学園4丁目5-1","lat":35.74627625,"lon":139.40299776},{"name":"放課後等デイサービス　あかぐみ","province":"東京都","city":"武蔵村山市","address":"武蔵村山市中央1-25-14ハウスオブブーケC棟101","lat":35.753247,"lon":139.389335},{"name":"放課後デイサービスひだまり","province":"東京都","city":"武蔵村山市","address":"武蔵村山市本町1-63-1","lat":35.753064,"lon":139.385857},{"name":"クローバー","province":"東京都","city":"武蔵村山市","address":"武蔵村山市学園1-112-8","lat":35.746232,"lon":139.396723},{"name":"放課後等デイサービス　トライきっず","province":"東京都","city":"武蔵村山市","address":"武蔵村山市大南3-72-1柏木マンション102号","lat":35.735569,"lon":139.405404},{"name":"放課後デイサービス　せせらぎ","province":"東京都","city":"武蔵村山市","address":"武蔵村山市大南1-111-23","lat":35.736438,"lon":139.396896},{"name":"放課後等デイサービス　どりーむ","province":"東京都","city":"武蔵村山市","address":"武蔵村山市三ツ藤2丁目27番地4","lat":35.752008,"lon":139.375195},{"name":"妖精の杜","province":"東京都","city":"武蔵村山市","address":"武蔵村山市残堀1-110-9","lat":35.744628,"lon":139.37552},{"name":"あい武蔵村山","province":"東京都","city":"武蔵村山市","address":"武蔵村山市中原4-3-2","lat":35.752699,"lon":139.363795},{"name":"武蔵村山子ども食堂","province":"東京都","city":"武蔵村山市","address":"東京都武蔵村山市神明4丁目17-1","lat":35.75268109,"lon":139.40421683},{"name":"まどか食堂","province":"東京都","city":"武蔵村山市","address":"東京都武蔵村山市本町3丁目40-3","lat":35.75855478,"lon":139.38152149},{"name":"\"children’s kitchenうぉーく \"","province":"東京都","city":"武蔵村山市","address":"東京都武蔵村山市学園4丁目5-1","lat":35.74627625,"lon":139.40299776},{"name":"子ども食堂ぶどうハウス","province":"東京都","city":"武蔵村山市","address":"東京都武蔵村山市中原3丁目11-6","lat":35.75835147,"lon":139.36046217},{"name":"みんなの食堂　みっつ武蔵村山","province":"東京都","city":"武蔵村山市","address":"東京都武蔵村山市大南2丁目47-14","lat":35.74071024,"lon":139.40423952},{"name":"\"SOMPOの子ども食堂 \"","province":"東京都","city":"武蔵村山市","address":"東京都武蔵村山市三ツ藤1丁目4-1","lat":35.75192504,"lon":139.38247447},{"name":"中藤公園","province":"東京都","city":"武蔵村山市","address":"東京都武蔵村山市中央4・5丁目地内","lat":35.759998,"lon":139.389301},{"name":"野山北・六道山公園","province":"東京都","city":"武蔵村山市","address":"東京都武蔵村山市三ツ木4-2","lat":35.765884,"lon":139.379757},{"name":"学園配水所","province":"東京都","city":"武蔵村山市","address":"東京都武蔵村山市学園1-5-7","lat":35.7499647,"lon":139.390535},{"name":"中藤配水所","province":"東京都","city":"武蔵村山市","address":"東京都武蔵村山市中藤2-1-3","lat":35.7588747,"lon":139.393662},{"name":"市立中原公園","province":"東京都","city":"武蔵村山市","address":"東京都武蔵村山市中原2-21-4","lat":35.7568554,"lon":139.363293},{"name":"学園自転車駐車場","province":"東京都","city":"武蔵村山市","address":"東京都武蔵村山市学園3丁目41-5","lat":35.74615967,"lon":139.40626409},{"name":"峰自転車駐車場","province":"東京都","city":"武蔵村山市","address":"東京都武蔵村山市三ツ木5丁目23","lat":35.75976561,"lon":139.37708849},{"name":"学園通り入口","province":"東京都","city":"武蔵村山市","address":"東京都武蔵村山市緑が丘1460","lat":35.7429045,"lon":139.40695028},{"name":"武蔵村山市役所本庁舎","province":"東京都","city":"武蔵村山市","address":"東京都武蔵村山市本町1丁目1-1","lat":35.7548304,"lon":139.38737668},{"name":"武蔵村山市民総合センター","province":"東京都","city":"武蔵村山市","address":"東京都武蔵村山市学園4丁目5-1","lat":35.74627625,"lon":139.40299776},{"name":"放課後等デイサービス　あかぐみ","province":"東京都","city":"武蔵村山市","address":"武蔵村山市中央1-25-14ハウスオブブーケC棟101","lat":35.753247,"lon":139.389335},{"name":"放課後デイサービスひだまり","province":"東京都","city":"武蔵村山市","address":"武蔵村山市本町1-63-1","lat":35.753064,"lon":139.385857},{"name":"クローバー","province":"東京都","city":"武蔵村山市","address":"武蔵村山市学園1-112-8","lat":35.746232,"lon":139.396723},{"name":"放課後等デイサービス　トライきっず","province":"東京都","city":"武蔵村山市","address":"武蔵村山市大南3-72-1柏木マンション102号","lat":35.735569,"lon":139.405404},{"name":"放課後デイサービス　せせらぎ","province":"東京都","city":"武蔵村山市","address":"武蔵村山市大南1-111-23","lat":35.736438,"lon":139.396896},{"name":"放課後等デイサービス　どりーむ","province":"東京都","city":"武蔵村山市","address":"武蔵村山市三ツ藤2丁目27番地4","lat":35.752008,"lon":139.375195},{"name":"妖精の杜","province":"東京都","city":"武蔵村山市","address":"武蔵村山市残堀1-110-9","lat":35.744628,"lon":139.37552},{"name":"あい武蔵村山","province":"東京都","city":"武蔵村山市","address":"武蔵村山市中原4-3-2","lat":35.752699,"lon":139.363795},{"name":"中藤公園","province":"東京都","city":"武蔵村山市","address":"東京都武蔵村山市中央4・5丁目地内","lat":35.759998,"lon":139.389301},{"name":"野山北・六道山公園","province":"東京都","city":"武蔵村山市","address":"東京都武蔵村山市三ツ木4-2","lat":35.765884,"lon":139.379757},{"name":"学園配水所","province":"東京都","city":"武蔵村山市","address":"東京都武蔵村山市学園1-5-7","lat":35.7499647,"lon":139.390535},{"name":"中藤配水所","province":"東京都","city":"武蔵村山市","address":"東京都武蔵村山市中藤2-1-3","lat":35.7588747,"lon":139.393662},{"name":"市立中原公園","province":"東京都","city":"武蔵村山市","address":"東京都武蔵村山市中原2-21-4","lat":35.7568554,"lon":139.363293},{"name":"学園自転車駐車場","province":"東京都","city":"武蔵村山市","address":"東京都武蔵村山市学園3丁目41-5","lat":35.74615967,"lon":139.40626409},{"name":"峰自転車駐車場","province":"東京都","city":"武蔵村山市","address":"東京都武蔵村山市三ツ木5丁目23","lat":35.75976561,"lon":139.37708849},{"name":"学園通り入口","province":"東京都","city":"武蔵村山市","address":"東京都武蔵村山市緑が丘1460","lat":35.7429045,"lon":139.40695028},{"name":"武蔵村山市役所本庁舎","province":"東京都","city":"武蔵村山市","address":"東京都武蔵村山市本町1丁目1-1","lat":35.7548304,"lon":139.38737668},{"name":"武蔵村山市民総合センター","province":"東京都","city":"武蔵村山市","address":"東京都武蔵村山市学園4丁目5-1","lat":35.74627625,"lon":139.40299776},{"name":"中藤公園","province":"東京都","city":"武蔵村山市","address":"東京都武蔵村山市中央4・5丁目地内","lat":35.759998,"lon":139.389301},{"name":"野山北・六道山公園","province":"東京都","city":"武蔵村山市","address":"東京都武蔵村山市三ツ木4-2","lat":35.765884,"lon":139.379757},{"name":"学園配水所","province":"東京都","city":"武蔵村山市","address":"東京都武蔵村山市学園1-5-7","lat":35.7499647,"lon":139.390535},{"name":"中藤配水所","province":"東京都","city":"武蔵村山市","address":"東京都武蔵村山市中藤2-1-3","lat":35.7588747,"lon":139.393662},{"name":"市立中原公園","province":"東京都","city":"武蔵村山市","address":"東京都武蔵村山市中原2-21-4","lat":35.7568554,"lon":139.363293},{"name":"学園自転車駐車場","province":"東京都","city":"武蔵村山市","address":"東京都武蔵村山市学園3丁目41-5","lat":35.74615967,"lon":139.40626409},{"name":"峰自転車駐車場","province":"東京都","city":"武蔵村山市","address":"東京都武蔵村山市三ツ木5丁目23","lat":35.75976561,"lon":139.37708849},{"name":"武蔵村山市役所本庁舎","province":"東京都","city":"武蔵村山市","address":"東京都武蔵村山市本町1丁目1-1","lat":35.7548304,"lon":139.38737668},{"name":"武蔵村山市民総合センター","province":"東京都","city":"武蔵村山市","address":"東京都武蔵村山市学園4丁目5-1","lat":35.74627625,"lon":139.40299776},{"name":"中藤公園","province":"東京都","city":"武蔵村山市","address":"東京都武蔵村山市中央4・5丁目地内","lat":35.759998,"lon":139.389301},{"name":"野山北・六道山公園","province":"東京都","city":"武蔵村山市","address":"東京都武蔵村山市三ツ木4-2","lat":35.765884,"lon":139.379757},{"name":"学園配水所","province":"東京都","city":"武蔵村山市","address":"東京都武蔵村山市学園1-5-7","lat":35.7499647,"lon":139.390535},{"name":"中藤配水所","province":"東京都","city":"武蔵村山市","address":"東京都武蔵村山市中藤2-1-3","lat":35.7588747,"lon":139.393662},{"name":"市立中原公園","province":"東京都","city":"武蔵村山市","address":"東京都武蔵村山市中原2-21-4","lat":35.7568554,"lon":139.363293},{"name":"学園自転車駐車場","province":"東京都","city":"武蔵村山市","address":"東京都武蔵村山市学園3丁目41-5","lat":35.74615967,"lon":139.40626409},{"name":"峰自転車駐車場","province":"東京都","city":"武蔵村山市","address":"東京都武蔵村山市三ツ木5丁目23","lat":35.75976561,"lon":139.37708849},{"name":"武蔵村山市役所本庁舎","province":"東京都","city":"武蔵村山市","address":"東京都武蔵村山市本町1丁目1-1","lat":35.7548304,"lon":139.38737668},{"name":"武蔵村山市民総合センター","province":"東京都","city":"武蔵村山市","address":"東京都武蔵村山市学園4丁目5-1","lat":35.74627625,"lon":139.40299776},{"name":"中藤公園","province":"東京都","city":"武蔵村山市","address":"東京都武蔵村山市中央4・5丁目地内","lat":35.759998,"lon":139.389301},{"name":"野山北・六道山公園","province":"東京都","city":"武蔵村山市","address":"東京都武蔵村山市三ツ木4-2","lat":35.765884,"lon":139.379757},{"name":"学園配水所","province":"東京都","city":"武蔵村山市","address":"東京都武蔵村山市学園1-5-7","lat":35.7499647,"lon":139.390535},{"name":"中藤配水所","province":"東京都","city":"武蔵村山市","address":"東京都武蔵村山市中藤2-1-3","lat":35.7588747,"lon":139.393662},{"name":"市立中原公園","province":"東京都","city":"武蔵村山市","address":"東京都武蔵村山市中原2-21-4","lat":35.7568554,"lon":139.363293},{"name":"学園自転車駐車場","province":"東京都","city":"武蔵村山市","address":"東京都武蔵村山市学園3丁目41-5","lat":35.74615967,"lon":139.40626409},{"name":"峰自転車駐車場","province":"東京都","city":"武蔵村山市","address":"東京都武蔵村山市三ツ木5丁目23","lat":35.75976561,"lon":139.37708849},{"name":"武蔵村山市役所本庁舎","province":"東京都","city":"武蔵村山市","address":"東京都武蔵村山市本町1丁目1-1","lat":35.7548304,"lon":139.38737668},{"name":"武蔵村山市民総合センター","province":"東京都","city":"武蔵村山市","address":"東京都武蔵村山市学園4丁目5-1","lat":35.74627625,"lon":139.40299776},{"name":"中藤公園","province":"東京都","city":"武蔵村山市","address":"東京都武蔵村山市中央4・5丁目地内","lat":35.759998,"lon":139.389301},{"name":"野山北・六道山公園","province":"東京都","city":"武蔵村山市","address":"東京都武蔵村山市三ツ木4-2","lat":35.765884,"lon":139.379757},{"name":"武蔵村山市役所本庁舎","province":"東京都","city":"武蔵村山市","address":"東京都武蔵村山市本町1丁目1-1","lat":35.7548304,"lon":139.38737668},{"name":"武蔵村山市民総合センター","province":"東京都","city":"武蔵村山市","address":"東京都武蔵村山市学園4丁目5-1","lat":35.74627625,"lon":139.40299776},{"name":"武蔵村山市役所本庁舎","province":"東京都","city":"武蔵村山市","address":"東京都武蔵村山市本町1丁目1-1","lat":35.7548304,"lon":139.38737668},{"name":"武蔵村山市民総合センター","province":"東京都","city":"武蔵村山市","address":"東京都武蔵村山市学園4丁目5-1","lat":35.74627625,"lon":139.40299776},{"name":"武蔵村山市役所本庁舎","province":"東京都","city":"武蔵村山市","address":"東京都武蔵村山市本町1丁目1-1","lat":35.7548304,"lon":139.38737668},{"name":"武蔵村山市民総合センター","province":"東京都","city":"武蔵村山市","address":"東京都武蔵村山市学園4丁目5-1","lat":35.74627625,"lon":139.40299776},{"name":"武蔵村山市役所本庁舎","province":"東京都","city":"武蔵村山市","address":"東京都武蔵村山市本町1丁目1-1","lat":35.7548304,"lon":139.38737668},{"name":"武蔵村山市民総合センター","province":"東京都","city":"武蔵村山市","address":"東京都武蔵村山市学園4丁目5-1","lat":35.74627625,"lon":139.40299776},{"name":"武蔵村山市役所本庁舎","province":"東京都","city":"武蔵村山市","address":"東京都武蔵村山市本町1丁目1-1","lat":35.7548304,"lon":139.38737668},{"name":"武蔵村山市民総合センター","province":"東京都","city":"武蔵村山市","address":"東京都武蔵村山市学園4丁目5-1","lat":35.74627625,"lon":139.40299776},{"name":"武蔵村山市役所本庁舎","province":"東京都","city":"武蔵村山市","address":"東京都武蔵村山市本町1丁目1-1","lat":35.7548304,"lon":139.38737668},{"name":"武蔵村山市民総合センター","province":"東京都","city":"武蔵村山市","address":"東京都武蔵村山市学園4丁目5-1","lat":35.74627625,"lon":139.40299776},{"name":"武蔵村山市役所本庁舎","province":"東京都","city":"武蔵村山市","address":"東京都武蔵村山市本町1丁目1-1","lat":35.7548304,"lon":139.38737668},{"name":"武蔵村山市民総合センター","province":"東京都","city":"武蔵村山市","address":"東京都武蔵村山市学園4丁目5-1","lat":35.74627625,"lon":139.40299776},{"name":"武蔵村山市役所本庁舎","province":"東京都","city":"武蔵村山市","address":"東京都武蔵村山市本町1丁目1-1","lat":35.7548304,"lon":139.38737668},{"name":"武蔵村山市民総合センター","province":"東京都","city":"武蔵村山市","address":"東京都武蔵村山市学園4丁目5-1","lat":35.74627625,"lon":139.40299776},{"name":"武蔵村山市役所本庁舎","province":"東京都","city":"武蔵村山市","address":"東京都武蔵村山市本町1丁目1-1","lat":35.7548304,"lon":139.38737668},{"name":"武蔵村山市民総合センター","province":"東京都","city":"武蔵村山市","address":"東京都武蔵村山市学園4丁目5-1","lat":35.74627625,"lon":139.40299776},{"name":"武蔵村山市役所本庁舎","province":"東京都","city":"武蔵村山市","address":"東京都武蔵村山市本町1丁目1-1","lat":35.7548304,"lon":139.38737668},{"name":"武蔵村山市民総合センター","province":"東京都","city":"武蔵村山市","address":"東京都武蔵村山市学園4丁目5-1","lat":35.74627625,"lon":139.40299776},{"name":"武蔵村山市役所本庁舎","province":"東京都","city":"武蔵村山市","address":"東京都武蔵村山市本町1丁目1-1","lat":35.7548304,"lon":139.38737668},{"name":"武蔵村山市民総合センター","province":"東京都","city":"武蔵村山市","address":"東京都武蔵村山市学園4丁目5-1","lat":35.74627625,"lon":139.40299776},{"name":"武蔵村山市役所本庁舎","province":"東京都","city":"武蔵村山市","address":"東京都武蔵村山市本町1丁目1-1","lat":35.7548304,"lon":139.38737668},{"name":"武蔵村山市民総合センター","province":"東京都","city":"武蔵村山市","address":"東京都武蔵村山市学園4丁目5-1","lat":35.74627625,"lon":139.40299776},{"name":"武蔵村山市役所本庁舎","province":"東京都","city":"武蔵村山市","address":"東京都武蔵村山市本町1丁目1-1","lat":35.7548304,"lon":139.38737668},{"name":"武蔵村山市民総合センター","province":"東京都","city":"武蔵村山市","address":"東京都武蔵村山市学園4丁目5-1","lat":35.74627625,"lon":139.40299776},{"name":"武蔵村山市役所本庁舎","province":"東京都","city":"武蔵村山市","address":"東京都武蔵村山市本町1丁目1-1","lat":35.7548304,"lon":139.38737668},{"name":"武蔵村山市民総合センター","province":"東京都","city":"武蔵村山市","address":"東京都武蔵村山市学園4丁目5-1","lat":35.74627625,"lon":139.40299776},{"name":"武蔵村山市役所本庁舎","province":"東京都","city":"武蔵村山市","address":"東京都武蔵村山市本町1丁目1-1","lat":35.7548304,"lon":139.38737668},{"name":"武蔵村山市民総合センター","province":"東京都","city":"武蔵村山市","address":"東京都武蔵村山市学園4丁目5-1","lat":35.74627625,"lon":139.40299776},{"name":"武蔵村山市役所本庁舎","province":"東京都","city":"武蔵村山市","address":"東京都武蔵村山市本町1丁目1-1","lat":35.7548304,"lon":139.38737668},{"name":"武蔵村山市民総合センター","province":"東京都","city":"武蔵村山市","address":"東京都武蔵村山市学園4丁目5-1","lat":35.74627625,"lon":139.40299776},{"name":"武蔵村山市役所本庁舎","province":"東京都","city":"武蔵村山市","address":"東京都武蔵村山市本町1丁目1-1","lat":35.7548304,"lon":139.38737668},{"name":"武蔵村山市民総合センター","province":"東京都","city":"武蔵村山市","address":"東京都武蔵村山市学園4丁目5-1","lat":35.74627625,"lon":139.40299776},{"name":"武蔵村山市役所本庁舎","province":"東京都","city":"武蔵村山市","address":"東京都武蔵村山市本町1丁目1-1","lat":35.7548304,"lon":139.38737668},{"name":"武蔵村山市民総合センター","province":"東京都","city":"武蔵村山市","address":"東京都武蔵村山市学園4丁目5-1","lat":35.74627625,"lon":139.40299776},{"name":"武蔵村山市役所本庁舎","province":"東京都","city":"武蔵村山市","address":"東京都武蔵村山市本町1丁目1-1","lat":35.7548304,"lon":139.38737668},{"name":"武蔵村山市民総合センター","province":"東京都","city":"武蔵村山市","address":"東京都武蔵村山市学園4丁目5-1","lat":35.74627625,"lon":139.40299776},{"name":"武蔵村山市役所本庁舎","province":"東京都","city":"武蔵村山市","address":"東京都武蔵村山市本町1丁目1-1","lat":35.7548304,"lon":139.38737668},{"name":"武蔵村山市民総合センター","province":"東京都","city":"武蔵村山市","address":"東京都武蔵村山市学園4丁目5-1","lat":35.74627625,"lon":139.40299776},{"name":"武蔵村山市役所本庁舎","province":"東京都","city":"武蔵村山市","address":"東京都武蔵村山市本町1丁目1-1","lat":35.7548304,"lon":139.38737668},{"name":"武蔵村山市民総合センター","province":"東京都","city":"武蔵村山市","address":"東京都武蔵村山市学園4丁目5-1","lat":35.74627625,"lon":139.40299776},{"name":"武蔵村山市役所本庁舎","province":"東京都","city":"武蔵村山市","address":"東京都武蔵村山市本町1丁目1-1","lat":35.7548304,"lon":139.38737668},{"name":"武蔵村山市民総合センター","province":"東京都","city":"武蔵村山市","address":"東京都武蔵村山市学園4丁目5-1","lat":35.74627625,"lon":139.40299776},{"name":"武蔵村山市役所本庁舎","province":"東京都","city":"武蔵村山市","address":"東京都武蔵村山市本町1丁目1-1","lat":35.7548304,"lon":139.38737668},{"name":"武蔵村山市民総合センター","province":"東京都","city":"武蔵村山市","address":"東京都武蔵村山市学園4丁目5-1","lat":35.74627625,"lon":139.40299776},{"name":"武蔵村山市役所本庁舎","province":"東京都","city":"武蔵村山市","address":"東京都武蔵村山市本町1丁目1-1","lat":35.7548304,"lon":139.38737668},{"name":"武蔵村山市民総合センター","province":"東京都","city":"武蔵村山市","address":"東京都武蔵村山市学園4丁目5-1","lat":35.74627625,"lon":139.40299776},{"name":"武蔵村山市役所本庁舎","province":"東京都","city":"武蔵村山市","address":"東京都武蔵村山市本町1丁目1-1","lat":35.7548304,"lon":139.38737668},{"name":"武蔵村山市民総合センター","province":"東京都","city":"武蔵村山市","address":"東京都武蔵村山市学園4丁目5-1","lat":35.74627625,"lon":139.40299776},{"name":"武蔵村山市役所本庁舎","province":"東京都","city":"武蔵村山市","address":"東京都武蔵村山市本町1丁目1-1","lat":35.7548304,"lon":139.38737668},{"name":"武蔵村山市民総合センター","province":"東京都","city":"武蔵村山市","address":"東京都武蔵村山市学園4丁目5-1","lat":35.74627625,"lon":139.40299776},{"name":"武蔵村山市役所本庁舎","province":"東京都","city":"武蔵村山市","address":"東京都武蔵村山市本町1丁目1-1","lat":35.7548304,"lon":139.38737668},{"name":"武蔵村山市民総合センター","province":"東京都","city":"武蔵村山市","address":"東京都武蔵村山市学園4丁目5-1","lat":35.74627625,"lon":139.40299776},{"name":"武蔵村山市役所本庁舎","province":"東京都","city":"武蔵村山市","address":"東京都武蔵村山市本町1丁目1-1","lat":35.7548304,"lon":139.38737668},{"name":"武蔵村山市民総合センター","province":"東京都","city":"武蔵村山市","address":"東京都武蔵村山市学園4丁目5-1","lat":35.74627625,"lon":139.40299776},{"name":"武蔵村山市役所本庁舎","province":"東京都","city":"武蔵村山市","address":"東京都武蔵村山市本町1丁目1-1","lat":35.7548304,"lon":139.38737668},{"name":"武蔵村山市民総合センター","province":"東京都","city":"武蔵村山市","address":"東京都武蔵村山市学園4丁目5-1","lat":35.74627625,"lon":139.40299776},{"name":"武蔵村山市役所本庁舎","province":"東京都","city":"武蔵村山市","address":"東京都武蔵村山市本町1丁目1-1","lat":35.7548304,"lon":139.38737668},{"name":"武蔵村山市民総合センター","province":"東京都","city":"武蔵村山市","address":"東京都武蔵村山市学園4丁目5-1","lat":35.74627625,"lon":139.40299776},{"name":"武蔵村山市役所本庁舎","province":"東京都","city":"武蔵村山市","address":"東京都武蔵村山市本町1丁目1-1","lat":35.7548304,"lon":139.38737668},{"name":"武蔵村山市民総合センター","province":"東京都","city":"武蔵村山市","address":"東京都武蔵村山市学園4丁目5-1","lat":35.74627625,"lon":139.40299776},{"name":"武蔵村山市役所本庁舎","province":"東京都","city":"武蔵村山市","address":"東京都武蔵村山市本町1丁目1-1","lat":35.7548304,"lon":139.38737668},{"name":"武蔵村山市民総合センター","province":"東京都","city":"武蔵村山市","address":"東京都武蔵村山市学園4丁目5-1","lat":35.74627625,"lon":139.40299776},{"name":"武蔵村山市役所本庁舎","province":"東京都","city":"武蔵村山市","address":"東京都武蔵村山市本町1丁目1-1","lat":35.7548304,"lon":139.38737668},{"name":"武蔵村山市民総合センター","province":"東京都","city":"武蔵村山市","address":"東京都武蔵村山市学園4丁目5-1","lat":35.74627625,"lon":139.40299776},{"name":"武蔵村山市役所本庁舎","province":"東京都","city":"武蔵村山市","address":"東京都武蔵村山市本町1丁目1-1","lat":35.7548304,"lon":139.38737668},{"name":"武蔵村山市民総合センター","province":"東京都","city":"武蔵村山市","address":"東京都武蔵村山市学園4丁目5-1","lat":35.74627625,"lon":139.40299776},{"name":"武蔵村山市役所本庁舎","province":"東京都","city":"武蔵村山市","address":"東京都武蔵村山市本町1丁目1-1","lat":35.7548304,"lon":139.38737668},{"name":"武蔵村山市民総合センター","province":"東京都","city":"武蔵村山市","address":"東京都武蔵村山市学園4丁目5-1","lat":35.74627625,"lon":139.40299776},{"name":"武蔵村山市役所本庁舎","province":"東京都","city":"武蔵村山市","address":"東京都武蔵村山市本町1丁目1-1","lat":35.7548304,"lon":139.38737668},{"name":"武蔵村山市民総合センター","province":"東京都","city":"武蔵村山市","address":"東京都武蔵村山市学園4丁目5-1","lat":35.74627625,"lon":139.40299776},{"name":"武蔵村山市役所本庁舎","province":"東京都","city":"武蔵村山市","address":"東京都武蔵村山市本町1丁目1-1","lat":35.7548304,"lon":139.38737668},{"name":"武蔵村山市民総合センター","province":"東京都","city":"武蔵村山市","address":"東京都武蔵村山市学園4丁目5-1","lat":35.74627625,"lon":139.40299776},{"name":"武蔵村山市役所本庁舎","province":"東京都","city":"武蔵村山市","address":"東京都武蔵村山市本町1丁目1-1","lat":35.7548304,"lon":139.38737668},{"name":"武蔵村山市民総合センター","province":"東京都","city":"武蔵村山市","address":"東京都武蔵村山市学園4丁目5-1","lat":35.74627625,"lon":139.40299776},{"name":"武蔵村山市役所本庁舎","province":"東京都","city":"武蔵村山市","address":"東京都武蔵村山市本町1丁目1-1","lat":35.7548304,"lon":139.38737668},{"name":"武蔵村山市民総合センター","province":"東京都","city":"武蔵村山市","address":"東京都武蔵村山市学園4丁目5-1","lat":35.74627625,"lon":139.40299776},{"name":"武蔵村山市役所本庁舎","province":"東京都","city":"武蔵村山市","address":"東京都武蔵村山市本町1丁目1-1","lat":35.7548304,"lon":139.38737668},{"name":"武蔵村山市民総合センター","province":"東京都","city":"武蔵村山市","address":"東京都武蔵村山市学園4丁目5-1","lat":35.74627625,"lon":139.40299776},{"name":"武蔵村山市役所本庁舎","province":"東京都","city":"武蔵村山市","address":"東京都武蔵村山市本町1丁目1-1","lat":35.7548304,"lon":139.38737668},{"name":"武蔵村山市民総合センター","province":"東京都","city":"武蔵村山市","address":"東京都武蔵村山市学園4丁目5-1","lat":35.74627625,"lon":139.40299776},{"name":"武蔵村山市役所本庁舎","province":"東京都","city":"武蔵村山市","address":"東京都武蔵村山市本町1丁目1-1","lat":35.7548304,"lon":139.38737668},{"name":"武蔵村山市民総合センター","province":"東京都","city":"武蔵村山市","address":"東京都武蔵村山市学園4丁目5-1","lat":35.74627625,"lon":139.40299776},{"name":"武蔵村山市役所本庁舎","province":"東京都","city":"武蔵村山市","address":"東京都武蔵村山市本町1丁目1-1","lat":35.7548304,"lon":139.38737668},{"name":"武蔵村山市民総合センター","province":"東京都","city":"武蔵村山市","address":"東京都武蔵村山市学園4丁目5-1","lat":35.74627625,"lon":139.40299776},{"name":"武蔵村山市役所本庁舎","province":"東京都","city":"武蔵村山市","address":"東京都武蔵村山市本町1丁目1-1","lat":35.7548304,"lon":139.38737668},{"name":"武蔵村山市民総合センター","province":"東京都","city":"武蔵村山市","address":"東京都武蔵村山市学園4丁目5-1","lat":35.74627625,"lon":139.40299776},{"name":"武蔵村山市役所本庁舎","province":"東京都","city":"武蔵村山市","address":"東京都武蔵村山市本町1丁目1-1","lat":35.7548304,"lon":139.38737668},{"name":"武蔵村山市民総合センター","province":"東京都","city":"武蔵村山市","address":"東京都武蔵村山市学園4丁目5-1","lat":35.74627625,"lon":139.40299776},{"name":"武蔵村山市役所本庁舎","province":"東京都","city":"武蔵村山市","address":"東京都武蔵村山市本町1丁目1-1","lat":35.7548304,"lon":139.38737668},{"name":"武蔵村山市民総合センター","province":"東京都","city":"武蔵村山市","address":"東京都武蔵村山市学園4丁目5-1","lat":35.74627625,"lon":139.40299776},{"name":"武蔵村山市役所本庁舎","province":"東京都","city":"武蔵村山市","address":"東京都武蔵村山市本町1丁目1-1","lat":35.7548304,"lon":139.38737668},{"name":"武蔵村山市民総合センター","province":"東京都","city":"武蔵村山市","address":"東京都武蔵村山市学園4丁目5-1","lat":35.74627625,"lon":139.40299776}]}