{"keyword":"週","data":[{"name":"お伊勢の森児童館","province":"東京都","city":"武蔵村山市","address":"武蔵村山市中央2-117-1","lat":35.750828,"lon":139.393287},{"name":"山王森児童館","province":"東京都","city":"武蔵村山市","address":"武蔵村山市三ツ藤3-6-10","lat":35.755802,"lon":139.371822},{"name":"武蔵村山市社会福祉協議会","province":"東京都","city":"武蔵村山市","address":"武蔵村山市学園4-5-1武蔵村山市民総合センター2階","lat":35.746304,"lon":139.403259},{"name":"お伊勢の森児童館","province":"東京都","city":"武蔵村山市","address":"武蔵村山市中央2-117-1","lat":35.7508,"lon":139.39337},{"name":"さいかち児童館","province":"東京都","city":"武蔵村山市","address":"武蔵村山市緑が丘1460","lat":35.74046,"lon":139.40483},{"name":"山王森児童館","province":"東京都","city":"武蔵村山市","address":"武蔵村山市三ツ藤3-6-10","lat":35.75573,"lon":139.3721},{"name":"武蔵村山市社会福祉協議会","province":"東京都","city":"武蔵村山市","address":"武蔵村山市学園4-5-1武蔵村山市民総合センター2階","lat":35.74613,"lon":139.40326},{"name":"中藤配水所","province":"東京都","city":"武蔵村山市","address":"東京都武蔵村山市中藤2丁目1-3","lat":35.7588829,"lon":139.3936565},{"name":"東京経済大学運動場","province":"東京都","city":"武蔵村山市","address":"東京都武蔵村山市学園5丁目22-1","lat":35.74428181,"lon":139.39444868},{"name":"＊?公民館","province":"東京都","city":"武蔵村山市","address":"武蔵村山市大南2-78-1","lat":35.739893,"lon":139.401866},{"name":"＊?公民館中久保分館","province":"東京都","city":"武蔵村山市","address":"武蔵村山市本町2-77-1","lat":35.754543,"lon":139.382963},{"name":"＊?歴史民俗資料館分館","province":"東京都","city":"武蔵村山市","address":"武蔵村山市大南3-5-7","lat":35.737605,"lon":139.400815},{"name":"＊?歴史民俗資料館","province":"東京都","city":"武蔵村山市","address":"武蔵村山市本町5-21-1","lat":35.762357,"lon":139.387322},{"name":"＊?残堀・伊奈平地区図書館","province":"東京都","city":"武蔵村山市","address":"武蔵村山市残堀1-60-3","lat":35.746169,"lon":139.375101},{"name":"＊?三ツ木地区図書館","province":"東京都","city":"武蔵村山市","address":"武蔵村山市三ツ木2-39-2","lat":35.758531,"lon":139.368584},{"name":"＊?大南地区図書館","province":"東京都","city":"武蔵村山市","address":"武蔵村山市大南5-1-69","lat":35.735662,"lon":139.40584},{"name":"＊?雷塚地区図書館","province":"東京都","city":"武蔵村山市","address":"武蔵村山市学園4-4","lat":35.745877,"lon":139.400497},{"name":"＊?中藤地区図書館","province":"東京都","city":"武蔵村山市","address":"武蔵村山市中藤3-16","lat":35.756927,"lon":139.400763},{"name":"＊?中久保図書館","province":"東京都","city":"武蔵村山市","address":"武蔵村山市本町2-77-1","lat":35.754543,"lon":139.382963},{"name":"武蔵村山市保健相談センター","province":"東京都","city":"武蔵村山市","address":"東京都武蔵村山市本町1丁目23","lat":35.75275842,"lon":139.38745453},{"name":"武蔵村山市本庁舎","province":"東京都","city":"武蔵村山市","address":"武蔵村山市本町1-1-1","lat":35.754906,"lon":139.387421},{"name":"※武蔵村山市本庁舎","province":"東京都","city":"武蔵村山市","address":"東京都武蔵村山市本町1丁目1-1","lat":35.7548304,"lon":139.38737668},{"name":"お伊勢の森児童館","province":"東京都","city":"武蔵村山市","address":"武蔵村山市中央2-117-1","lat":35.750828,"lon":139.393287},{"name":"山王森児童館","province":"東京都","city":"武蔵村山市","address":"武蔵村山市三ツ藤3-6-10","lat":35.755802,"lon":139.371822},{"name":"武蔵村山市社会福祉協議会","province":"東京都","city":"武蔵村山市","address":"武蔵村山市学園4-5-1武蔵村山市民総合センター2階","lat":35.746304,"lon":139.403259},{"name":"お伊勢の森児童館","province":"東京都","city":"武蔵村山市","address":"武蔵村山市中央2-117-1","lat":35.7508,"lon":139.39337},{"name":"さいかち児童館","province":"東京都","city":"武蔵村山市","address":"武蔵村山市緑が丘1460","lat":35.74046,"lon":139.40483},{"name":"山王森児童館","province":"東京都","city":"武蔵村山市","address":"武蔵村山市三ツ藤3-6-10","lat":35.75573,"lon":139.3721},{"name":"武蔵村山市社会福祉協議会","province":"東京都","city":"武蔵村山市","address":"武蔵村山市学園4-5-1武蔵村山市民総合センター2階","lat":35.74613,"lon":139.40326},{"name":"中藤配水所","province":"東京都","city":"武蔵村山市","address":"東京都武蔵村山市中藤2丁目1-3","lat":35.7588829,"lon":139.3936565},{"name":"＊?公民館","province":"東京都","city":"武蔵村山市","address":"武蔵村山市大南2-78-1","lat":35.739893,"lon":139.401866},{"name":"＊?公民館中久保分館","province":"東京都","city":"武蔵村山市","address":"武蔵村山市本町2-77-1","lat":35.754543,"lon":139.382963},{"name":"＊?歴史民俗資料館分館","province":"東京都","city":"武蔵村山市","address":"武蔵村山市大南3-5-7","lat":35.737605,"lon":139.400815},{"name":"＊?歴史民俗資料館","province":"東京都","city":"武蔵村山市","address":"武蔵村山市本町5-21-1","lat":35.762357,"lon":139.387322},{"name":"＊?残堀・伊奈平地区図書館","province":"東京都","city":"武蔵村山市","address":"武蔵村山市残堀1-60-3","lat":35.746169,"lon":139.375101},{"name":"＊?三ツ木地区図書館","province":"東京都","city":"武蔵村山市","address":"武蔵村山市三ツ木2-39-2","lat":35.758531,"lon":139.368584},{"name":"＊?大南地区図書館","province":"東京都","city":"武蔵村山市","address":"武蔵村山市大南5-1-69","lat":35.735662,"lon":139.40584},{"name":"＊?雷塚地区図書館","province":"東京都","city":"武蔵村山市","address":"武蔵村山市学園4-4","lat":35.745877,"lon":139.400497},{"name":"＊?中藤地区図書館","province":"東京都","city":"武蔵村山市","address":"武蔵村山市中藤3-16","lat":35.756927,"lon":139.400763},{"name":"＊?中久保図書館","province":"東京都","city":"武蔵村山市","address":"武蔵村山市本町2-77-1","lat":35.754543,"lon":139.382963},{"name":"武蔵村山市保健相談センター","province":"東京都","city":"武蔵村山市","address":"東京都武蔵村山市本町1丁目23","lat":35.75275842,"lon":139.38745453},{"name":"武蔵村山市本庁舎","province":"東京都","city":"武蔵村山市","address":"武蔵村山市本町1-1-1","lat":35.754906,"lon":139.387421},{"name":"お伊勢の森児童館","province":"東京都","city":"武蔵村山市","address":"武蔵村山市中央2-117-1","lat":35.750828,"lon":139.393287},{"name":"山王森児童館","province":"東京都","city":"武蔵村山市","address":"武蔵村山市三ツ藤3-6-10","lat":35.755802,"lon":139.371822},{"name":"武蔵村山市社会福祉協議会","province":"東京都","city":"武蔵村山市","address":"武蔵村山市学園4-5-1武蔵村山市民総合センター2階","lat":35.746304,"lon":139.403259},{"name":"お伊勢の森児童館","province":"東京都","city":"武蔵村山市","address":"武蔵村山市中央2-117-1","lat":35.7508,"lon":139.39337},{"name":"さいかち児童館","province":"東京都","city":"武蔵村山市","address":"武蔵村山市緑が丘1460","lat":35.74046,"lon":139.40483},{"name":"山王森児童館","province":"東京都","city":"武蔵村山市","address":"武蔵村山市三ツ藤3-6-10","lat":35.75573,"lon":139.3721},{"name":"武蔵村山市社会福祉協議会","province":"東京都","city":"武蔵村山市","address":"武蔵村山市学園4-5-1武蔵村山市民総合センター2階","lat":35.74613,"lon":139.40326},{"name":"＊?公民館","province":"東京都","city":"武蔵村山市","address":"武蔵村山市大南2-78-1","lat":35.739893,"lon":139.401866},{"name":"＊?公民館中久保分館","province":"東京都","city":"武蔵村山市","address":"武蔵村山市本町2-77-1","lat":35.754543,"lon":139.382963},{"name":"＊?歴史民俗資料館分館","province":"東京都","city":"武蔵村山市","address":"武蔵村山市大南3-5-7","lat":35.737605,"lon":139.400815},{"name":"＊?歴史民俗資料館","province":"東京都","city":"武蔵村山市","address":"武蔵村山市本町5-21-1","lat":35.762357,"lon":139.387322},{"name":"＊?残堀・伊奈平地区図書館","province":"東京都","city":"武蔵村山市","address":"武蔵村山市残堀1-60-3","lat":35.746169,"lon":139.375101},{"name":"＊?三ツ木地区図書館","province":"東京都","city":"武蔵村山市","address":"武蔵村山市三ツ木2-39-2","lat":35.758531,"lon":139.368584},{"name":"＊?大南地区図書館","province":"東京都","city":"武蔵村山市","address":"武蔵村山市大南5-1-69","lat":35.735662,"lon":139.40584},{"name":"＊?雷塚地区図書館","province":"東京都","city":"武蔵村山市","address":"武蔵村山市学園4-4","lat":35.745877,"lon":139.400497},{"name":"＊?中藤地区図書館","province":"東京都","city":"武蔵村山市","address":"武蔵村山市中藤3-16","lat":35.756927,"lon":139.400763},{"name":"＊?中久保図書館","province":"東京都","city":"武蔵村山市","address":"武蔵村山市本町2-77-1","lat":35.754543,"lon":139.382963},{"name":"お伊勢の森児童館","province":"東京都","city":"武蔵村山市","address":"武蔵村山市中央2-117-1","lat":35.750828,"lon":139.393287},{"name":"山王森児童館","province":"東京都","city":"武蔵村山市","address":"武蔵村山市三ツ藤3-6-10","lat":35.755802,"lon":139.371822},{"name":"武蔵村山市社会福祉協議会","province":"東京都","city":"武蔵村山市","address":"武蔵村山市学園4-5-1武蔵村山市民総合センター2階","lat":35.746304,"lon":139.403259},{"name":"お伊勢の森児童館","province":"東京都","city":"武蔵村山市","address":"武蔵村山市中央2-117-1","lat":35.7508,"lon":139.39337},{"name":"さいかち児童館","province":"東京都","city":"武蔵村山市","address":"武蔵村山市緑が丘1460","lat":35.74046,"lon":139.40483},{"name":"山王森児童館","province":"東京都","city":"武蔵村山市","address":"武蔵村山市三ツ藤3-6-10","lat":35.75573,"lon":139.3721},{"name":"武蔵村山市社会福祉協議会","province":"東京都","city":"武蔵村山市","address":"武蔵村山市学園4-5-1武蔵村山市民総合センター2階","lat":35.74613,"lon":139.40326},{"name":"＊?公民館","province":"東京都","city":"武蔵村山市","address":"武蔵村山市大南2-78-1","lat":35.739893,"lon":139.401866},{"name":"＊?公民館中久保分館","province":"東京都","city":"武蔵村山市","address":"武蔵村山市本町2-77-1","lat":35.754543,"lon":139.382963},{"name":"＊?歴史民俗資料館分館","province":"東京都","city":"武蔵村山市","address":"武蔵村山市大南3-5-7","lat":35.737605,"lon":139.400815},{"name":"＊?歴史民俗資料館","province":"東京都","city":"武蔵村山市","address":"武蔵村山市本町5-21-1","lat":35.762357,"lon":139.387322},{"name":"＊?残堀・伊奈平地区図書館","province":"東京都","city":"武蔵村山市","address":"武蔵村山市残堀1-60-3","lat":35.746169,"lon":139.375101},{"name":"＊?三ツ木地区図書館","province":"東京都","city":"武蔵村山市","address":"武蔵村山市三ツ木2-39-2","lat":35.758531,"lon":139.368584},{"name":"＊?大南地区図書館","province":"東京都","city":"武蔵村山市","address":"武蔵村山市大南5-1-69","lat":35.735662,"lon":139.40584},{"name":"＊?雷塚地区図書館","province":"東京都","city":"武蔵村山市","address":"武蔵村山市学園4-4","lat":35.745877,"lon":139.400497},{"name":"＊?中藤地区図書館","province":"東京都","city":"武蔵村山市","address":"武蔵村山市中藤3-16","lat":35.756927,"lon":139.400763},{"name":"＊?中久保図書館","province":"東京都","city":"武蔵村山市","address":"武蔵村山市本町2-77-1","lat":35.754543,"lon":139.382963},{"name":"お伊勢の森児童館","province":"東京都","city":"武蔵村山市","address":"武蔵村山市中央2-117-1","lat":35.750828,"lon":139.393287},{"name":"山王森児童館","province":"東京都","city":"武蔵村山市","address":"武蔵村山市三ツ藤3-6-10","lat":35.755802,"lon":139.371822},{"name":"お伊勢の森児童館","province":"東京都","city":"武蔵村山市","address":"武蔵村山市中央2-117-1","lat":35.7508,"lon":139.39337},{"name":"さいかち児童館","province":"東京都","city":"武蔵村山市","address":"武蔵村山市緑が丘1460","lat":35.74046,"lon":139.40483},{"name":"山王森児童館","province":"東京都","city":"武蔵村山市","address":"武蔵村山市三ツ藤3-6-10","lat":35.75573,"lon":139.3721},{"name":"＊?公民館","province":"東京都","city":"武蔵村山市","address":"武蔵村山市大南2-78-1","lat":35.739893,"lon":139.401866},{"name":"＊?公民館中久保分館","province":"東京都","city":"武蔵村山市","address":"武蔵村山市本町2-77-1","lat":35.754543,"lon":139.382963},{"name":"＊?歴史民俗資料館分館","province":"東京都","city":"武蔵村山市","address":"武蔵村山市大南3-5-7","lat":35.737605,"lon":139.400815},{"name":"＊?歴史民俗資料館","province":"東京都","city":"武蔵村山市","address":"武蔵村山市本町5-21-1","lat":35.762357,"lon":139.387322},{"name":"＊?残堀・伊奈平地区図書館","province":"東京都","city":"武蔵村山市","address":"武蔵村山市残堀1-60-3","lat":35.746169,"lon":139.375101},{"name":"＊?三ツ木地区図書館","province":"東京都","city":"武蔵村山市","address":"武蔵村山市三ツ木2-39-2","lat":35.758531,"lon":139.368584},{"name":"＊?大南地区図書館","province":"東京都","city":"武蔵村山市","address":"武蔵村山市大南5-1-69","lat":35.735662,"lon":139.40584},{"name":"＊?雷塚地区図書館","province":"東京都","city":"武蔵村山市","address":"武蔵村山市学園4-4","lat":35.745877,"lon":139.400497},{"name":"＊?中藤地区図書館","province":"東京都","city":"武蔵村山市","address":"武蔵村山市中藤3-16","lat":35.756927,"lon":139.400763},{"name":"＊?中久保図書館","province":"東京都","city":"武蔵村山市","address":"武蔵村山市本町2-77-1","lat":35.754543,"lon":139.382963},{"name":"お伊勢の森児童館","province":"東京都","city":"武蔵村山市","address":"武蔵村山市中央2-117-1","lat":35.750828,"lon":139.393287},{"name":"山王森児童館","province":"東京都","city":"武蔵村山市","address":"武蔵村山市三ツ藤3-6-10","lat":35.755802,"lon":139.371822},{"name":"お伊勢の森児童館","province":"東京都","city":"武蔵村山市","address":"武蔵村山市中央2-117-1","lat":35.7508,"lon":139.39337},{"name":"さいかち児童館","province":"東京都","city":"武蔵村山市","address":"武蔵村山市緑が丘1460","lat":35.74046,"lon":139.40483},{"name":"山王森児童館","province":"東京都","city":"武蔵村山市","address":"武蔵村山市三ツ藤3-6-10","lat":35.75573,"lon":139.3721},{"name":"＊?公民館","province":"東京都","city":"武蔵村山市","address":"武蔵村山市大南2-78-1","lat":35.739893,"lon":139.401866},{"name":"＊?公民館中久保分館","province":"東京都","city":"武蔵村山市","address":"武蔵村山市本町2-77-1","lat":35.754543,"lon":139.382963},{"name":"＊?歴史民俗資料館分館","province":"東京都","city":"武蔵村山市","address":"武蔵村山市大南3-5-7","lat":35.737605,"lon":139.400815},{"name":"＊?歴史民俗資料館","province":"東京都","city":"武蔵村山市","address":"武蔵村山市本町5-21-1","lat":35.762357,"lon":139.387322},{"name":"＊?残堀・伊奈平地区図書館","province":"東京都","city":"武蔵村山市","address":"武蔵村山市残堀1-60-3","lat":35.746169,"lon":139.375101},{"name":"＊?三ツ木地区図書館","province":"東京都","city":"武蔵村山市","address":"武蔵村山市三ツ木2-39-2","lat":35.758531,"lon":139.368584},{"name":"＊?大南地区図書館","province":"東京都","city":"武蔵村山市","address":"武蔵村山市大南5-1-69","lat":35.735662,"lon":139.40584},{"name":"＊?雷塚地区図書館","province":"東京都","city":"武蔵村山市","address":"武蔵村山市学園4-4","lat":35.745877,"lon":139.400497},{"name":"＊?中藤地区図書館","province":"東京都","city":"武蔵村山市","address":"武蔵村山市中藤3-16","lat":35.756927,"lon":139.400763},{"name":"＊?中久保図書館","province":"東京都","city":"武蔵村山市","address":"武蔵村山市本町2-77-1","lat":35.754543,"lon":139.382963},{"name":"お伊勢の森児童館","province":"東京都","city":"武蔵村山市","address":"武蔵村山市中央2-117-1","lat":35.750828,"lon":139.393287},{"name":"山王森児童館","province":"東京都","city":"武蔵村山市","address":"武蔵村山市三ツ藤3-6-10","lat":35.755802,"lon":139.371822},{"name":"お伊勢の森児童館","province":"東京都","city":"武蔵村山市","address":"武蔵村山市中央2-117-1","lat":35.7508,"lon":139.39337},{"name":"さいかち児童館","province":"東京都","city":"武蔵村山市","address":"武蔵村山市緑が丘1460","lat":35.74046,"lon":139.40483},{"name":"山王森児童館","province":"東京都","city":"武蔵村山市","address":"武蔵村山市三ツ藤3-6-10","lat":35.75573,"lon":139.3721},{"name":"＊?公民館","province":"東京都","city":"武蔵村山市","address":"武蔵村山市大南2-78-1","lat":35.739893,"lon":139.401866},{"name":"＊?公民館中久保分館","province":"東京都","city":"武蔵村山市","address":"武蔵村山市本町2-77-1","lat":35.754543,"lon":139.382963},{"name":"＊?歴史民俗資料館分館","province":"東京都","city":"武蔵村山市","address":"武蔵村山市大南3-5-7","lat":35.737605,"lon":139.400815},{"name":"＊?歴史民俗資料館","province":"東京都","city":"武蔵村山市","address":"武蔵村山市本町5-21-1","lat":35.762357,"lon":139.387322},{"name":"＊?残堀・伊奈平地区図書館","province":"東京都","city":"武蔵村山市","address":"武蔵村山市残堀1-60-3","lat":35.746169,"lon":139.375101},{"name":"＊?三ツ木地区図書館","province":"東京都","city":"武蔵村山市","address":"武蔵村山市三ツ木2-39-2","lat":35.758531,"lon":139.368584},{"name":"＊?大南地区図書館","province":"東京都","city":"武蔵村山市","address":"武蔵村山市大南5-1-69","lat":35.735662,"lon":139.40584},{"name":"＊?雷塚地区図書館","province":"東京都","city":"武蔵村山市","address":"武蔵村山市学園4-4","lat":35.745877,"lon":139.400497},{"name":"＊?中藤地区図書館","province":"東京都","city":"武蔵村山市","address":"武蔵村山市中藤3-16","lat":35.756927,"lon":139.400763},{"name":"＊?中久保図書館","province":"東京都","city":"武蔵村山市","address":"武蔵村山市本町2-77-1","lat":35.754543,"lon":139.382963},{"name":"お伊勢の森児童館","province":"東京都","city":"武蔵村山市","address":"武蔵村山市中央2-117-1","lat":35.750828,"lon":139.393287},{"name":"山王森児童館","province":"東京都","city":"武蔵村山市","address":"武蔵村山市三ツ藤3-6-10","lat":35.755802,"lon":139.371822},{"name":"お伊勢の森児童館","province":"東京都","city":"武蔵村山市","address":"武蔵村山市中央2-117-1","lat":35.7508,"lon":139.39337},{"name":"さいかち児童館","province":"東京都","city":"武蔵村山市","address":"武蔵村山市緑が丘1460","lat":35.74046,"lon":139.40483},{"name":"山王森児童館","province":"東京都","city":"武蔵村山市","address":"武蔵村山市三ツ藤3-6-10","lat":35.75573,"lon":139.3721},{"name":"＊?歴史民俗資料館分館","province":"東京都","city":"武蔵村山市","address":"武蔵村山市大南3-5-7","lat":35.737605,"lon":139.400815},{"name":"＊?歴史民俗資料館","province":"東京都","city":"武蔵村山市","address":"武蔵村山市本町5-21-1","lat":35.762357,"lon":139.387322},{"name":"＊?残堀・伊奈平地区図書館","province":"東京都","city":"武蔵村山市","address":"武蔵村山市残堀1-60-3","lat":35.746169,"lon":139.375101},{"name":"＊?三ツ木地区図書館","province":"東京都","city":"武蔵村山市","address":"武蔵村山市三ツ木2-39-2","lat":35.758531,"lon":139.368584},{"name":"＊?大南地区図書館","province":"東京都","city":"武蔵村山市","address":"武蔵村山市大南5-1-69","lat":35.735662,"lon":139.40584},{"name":"＊?雷塚地区図書館","province":"東京都","city":"武蔵村山市","address":"武蔵村山市学園4-4","lat":35.745877,"lon":139.400497},{"name":"＊?中藤地区図書館","province":"東京都","city":"武蔵村山市","address":"武蔵村山市中藤3-16","lat":35.756927,"lon":139.400763},{"name":"＊?中久保図書館","province":"東京都","city":"武蔵村山市","address":"武蔵村山市本町2-77-1","lat":35.754543,"lon":139.382963},{"name":"お伊勢の森児童館","province":"東京都","city":"武蔵村山市","address":"武蔵村山市中央2-117-1","lat":35.750828,"lon":139.393287},{"name":"山王森児童館","province":"東京都","city":"武蔵村山市","address":"武蔵村山市三ツ藤3-6-10","lat":35.755802,"lon":139.371822},{"name":"お伊勢の森児童館","province":"東京都","city":"武蔵村山市","address":"武蔵村山市中央2-117-1","lat":35.7508,"lon":139.39337},{"name":"さいかち児童館","province":"東京都","city":"武蔵村山市","address":"武蔵村山市緑が丘1460","lat":35.74046,"lon":139.40483},{"name":"山王森児童館","province":"東京都","city":"武蔵村山市","address":"武蔵村山市三ツ藤3-6-10","lat":35.75573,"lon":139.3721},{"name":"＊?歴史民俗資料館分館","province":"東京都","city":"武蔵村山市","address":"武蔵村山市大南3-5-7","lat":35.737605,"lon":139.400815},{"name":"＊?歴史民俗資料館","province":"東京都","city":"武蔵村山市","address":"武蔵村山市本町5-21-1","lat":35.762357,"lon":139.387322},{"name":"＊?残堀・伊奈平地区図書館","province":"東京都","city":"武蔵村山市","address":"武蔵村山市残堀1-60-3","lat":35.746169,"lon":139.375101},{"name":"＊?三ツ木地区図書館","province":"東京都","city":"武蔵村山市","address":"武蔵村山市三ツ木2-39-2","lat":35.758531,"lon":139.368584},{"name":"＊?大南地区図書館","province":"東京都","city":"武蔵村山市","address":"武蔵村山市大南5-1-69","lat":35.735662,"lon":139.40584},{"name":"＊?雷塚地区図書館","province":"東京都","city":"武蔵村山市","address":"武蔵村山市学園4-4","lat":35.745877,"lon":139.400497},{"name":"＊?中藤地区図書館","province":"東京都","city":"武蔵村山市","address":"武蔵村山市中藤3-16","lat":35.756927,"lon":139.400763},{"name":"＊?中久保図書館","province":"東京都","city":"武蔵村山市","address":"武蔵村山市本町2-77-1","lat":35.754543,"lon":139.382963},{"name":"お伊勢の森児童館","province":"東京都","city":"武蔵村山市","address":"武蔵村山市中央2-117-1","lat":35.750828,"lon":139.393287},{"name":"山王森児童館","province":"東京都","city":"武蔵村山市","address":"武蔵村山市三ツ藤3-6-10","lat":35.755802,"lon":139.371822},{"name":"お伊勢の森児童館","province":"東京都","city":"武蔵村山市","address":"武蔵村山市中央2-117-1","lat":35.7508,"lon":139.39337},{"name":"さいかち児童館","province":"東京都","city":"武蔵村山市","address":"武蔵村山市緑が丘1460","lat":35.74046,"lon":139.40483},{"name":"山王森児童館","province":"東京都","city":"武蔵村山市","address":"武蔵村山市三ツ藤3-6-10","lat":35.75573,"lon":139.3721},{"name":"＊?歴史民俗資料館","province":"東京都","city":"武蔵村山市","address":"武蔵村山市本町5-21-1","lat":35.762357,"lon":139.387322},{"name":"＊?残堀・伊奈平地区図書館","province":"東京都","city":"武蔵村山市","address":"武蔵村山市残堀1-60-3","lat":35.746169,"lon":139.375101},{"name":"＊?三ツ木地区図書館","province":"東京都","city":"武蔵村山市","address":"武蔵村山市三ツ木2-39-2","lat":35.758531,"lon":139.368584},{"name":"＊?大南地区図書館","province":"東京都","city":"武蔵村山市","address":"武蔵村山市大南5-1-69","lat":35.735662,"lon":139.40584},{"name":"＊?雷塚地区図書館","province":"東京都","city":"武蔵村山市","address":"武蔵村山市学園4-4","lat":35.745877,"lon":139.400497},{"name":"＊?中藤地区図書館","province":"東京都","city":"武蔵村山市","address":"武蔵村山市中藤3-16","lat":35.756927,"lon":139.400763},{"name":"＊?中久保図書館","province":"東京都","city":"武蔵村山市","address":"武蔵村山市本町2-77-1","lat":35.754543,"lon":139.382963},{"name":"お伊勢の森児童館","province":"東京都","city":"武蔵村山市","address":"武蔵村山市中央2-117-1","lat":35.750828,"lon":139.393287},{"name":"山王森児童館","province":"東京都","city":"武蔵村山市","address":"武蔵村山市三ツ藤3-6-10","lat":35.755802,"lon":139.371822},{"name":"お伊勢の森児童館","province":"東京都","city":"武蔵村山市","address":"武蔵村山市中央2-117-1","lat":35.7508,"lon":139.39337},{"name":"さいかち児童館","province":"東京都","city":"武蔵村山市","address":"武蔵村山市緑が丘1460","lat":35.74046,"lon":139.40483},{"name":"山王森児童館","province":"東京都","city":"武蔵村山市","address":"武蔵村山市三ツ藤3-6-10","lat":35.75573,"lon":139.3721},{"name":"＊?歴史民俗資料館","province":"東京都","city":"武蔵村山市","address":"武蔵村山市本町5-21-1","lat":35.762357,"lon":139.387322},{"name":"＊?残堀・伊奈平地区図書館","province":"東京都","city":"武蔵村山市","address":"武蔵村山市残堀1-60-3","lat":35.746169,"lon":139.375101},{"name":"＊?三ツ木地区図書館","province":"東京都","city":"武蔵村山市","address":"武蔵村山市三ツ木2-39-2","lat":35.758531,"lon":139.368584},{"name":"＊?大南地区図書館","province":"東京都","city":"武蔵村山市","address":"武蔵村山市大南5-1-69","lat":35.735662,"lon":139.40584},{"name":"＊?雷塚地区図書館","province":"東京都","city":"武蔵村山市","address":"武蔵村山市学園4-4","lat":35.745877,"lon":139.400497},{"name":"＊?中藤地区図書館","province":"東京都","city":"武蔵村山市","address":"武蔵村山市中藤3-16","lat":35.756927,"lon":139.400763},{"name":"＊?中久保図書館","province":"東京都","city":"武蔵村山市","address":"武蔵村山市本町2-77-1","lat":35.754543,"lon":139.382963},{"name":"お伊勢の森児童館","province":"東京都","city":"武蔵村山市","address":"武蔵村山市中央2-117-1","lat":35.750828,"lon":139.393287},{"name":"山王森児童館","province":"東京都","city":"武蔵村山市","address":"武蔵村山市三ツ藤3-6-10","lat":35.755802,"lon":139.371822},{"name":"お伊勢の森児童館","province":"東京都","city":"武蔵村山市","address":"武蔵村山市中央2-117-1","lat":35.7508,"lon":139.39337},{"name":"さいかち児童館","province":"東京都","city":"武蔵村山市","address":"武蔵村山市緑が丘1460","lat":35.74046,"lon":139.40483},{"name":"山王森児童館","province":"東京都","city":"武蔵村山市","address":"武蔵村山市三ツ藤3-6-10","lat":35.75573,"lon":139.3721},{"name":"＊?歴史民俗資料館","province":"東京都","city":"武蔵村山市","address":"武蔵村山市本町5-21-1","lat":35.762357,"lon":139.387322},{"name":"＊?残堀・伊奈平地区図書館","province":"東京都","city":"武蔵村山市","address":"武蔵村山市残堀1-60-3","lat":35.746169,"lon":139.375101},{"name":"＊?三ツ木地区図書館","province":"東京都","city":"武蔵村山市","address":"武蔵村山市三ツ木2-39-2","lat":35.758531,"lon":139.368584},{"name":"＊?大南地区図書館","province":"東京都","city":"武蔵村山市","address":"武蔵村山市大南5-1-69","lat":35.735662,"lon":139.40584},{"name":"＊?雷塚地区図書館","province":"東京都","city":"武蔵村山市","address":"武蔵村山市学園4-4","lat":35.745877,"lon":139.400497},{"name":"＊?中藤地区図書館","province":"東京都","city":"武蔵村山市","address":"武蔵村山市中藤3-16","lat":35.756927,"lon":139.400763},{"name":"＊?中久保図書館","province":"東京都","city":"武蔵村山市","address":"武蔵村山市本町2-77-1","lat":35.754543,"lon":139.382963},{"name":"お伊勢の森児童館","province":"東京都","city":"武蔵村山市","address":"武蔵村山市中央2-117-1","lat":35.750828,"lon":139.393287},{"name":"山王森児童館","province":"東京都","city":"武蔵村山市","address":"武蔵村山市三ツ藤3-6-10","lat":35.755802,"lon":139.371822},{"name":"お伊勢の森児童館","province":"東京都","city":"武蔵村山市","address":"武蔵村山市中央2-117-1","lat":35.7508,"lon":139.39337},{"name":"さいかち児童館","province":"東京都","city":"武蔵村山市","address":"武蔵村山市緑が丘1460","lat":35.74046,"lon":139.40483},{"name":"山王森児童館","province":"東京都","city":"武蔵村山市","address":"武蔵村山市三ツ藤3-6-10","lat":35.75573,"lon":139.3721},{"name":"＊?歴史民俗資料館","province":"東京都","city":"武蔵村山市","address":"武蔵村山市本町5-21-1","lat":35.762357,"lon":139.387322},{"name":"＊?残堀・伊奈平地区図書館","province":"東京都","city":"武蔵村山市","address":"武蔵村山市残堀1-60-3","lat":35.746169,"lon":139.375101},{"name":"＊?三ツ木地区図書館","province":"東京都","city":"武蔵村山市","address":"武蔵村山市三ツ木2-39-2","lat":35.758531,"lon":139.368584},{"name":"＊?大南地区図書館","province":"東京都","city":"武蔵村山市","address":"武蔵村山市大南5-1-69","lat":35.735662,"lon":139.40584},{"name":"＊?雷塚地区図書館","province":"東京都","city":"武蔵村山市","address":"武蔵村山市学園4-4","lat":35.745877,"lon":139.400497},{"name":"＊?中藤地区図書館","province":"東京都","city":"武蔵村山市","address":"武蔵村山市中藤3-16","lat":35.756927,"lon":139.400763},{"name":"＊?中久保図書館","province":"東京都","city":"武蔵村山市","address":"武蔵村山市本町2-77-1","lat":35.754543,"lon":139.382963},{"name":"お伊勢の森児童館","province":"東京都","city":"武蔵村山市","address":"武蔵村山市中央2-117-1","lat":35.750828,"lon":139.393287},{"name":"山王森児童館","province":"東京都","city":"武蔵村山市","address":"武蔵村山市三ツ藤3-6-10","lat":35.755802,"lon":139.371822},{"name":"お伊勢の森児童館","province":"東京都","city":"武蔵村山市","address":"武蔵村山市中央2-117-1","lat":35.7508,"lon":139.39337},{"name":"さいかち児童館","province":"東京都","city":"武蔵村山市","address":"武蔵村山市緑が丘1460","lat":35.74046,"lon":139.40483},{"name":"山王森児童館","province":"東京都","city":"武蔵村山市","address":"武蔵村山市三ツ藤3-6-10","lat":35.75573,"lon":139.3721},{"name":"＊?歴史民俗資料館","province":"東京都","city":"武蔵村山市","address":"武蔵村山市本町5-21-1","lat":35.762357,"lon":139.387322},{"name":"＊?残堀・伊奈平地区図書館","province":"東京都","city":"武蔵村山市","address":"武蔵村山市残堀1-60-3","lat":35.746169,"lon":139.375101},{"name":"＊?三ツ木地区図書館","province":"東京都","city":"武蔵村山市","address":"武蔵村山市三ツ木2-39-2","lat":35.758531,"lon":139.368584},{"name":"＊?大南地区図書館","province":"東京都","city":"武蔵村山市","address":"武蔵村山市大南5-1-69","lat":35.735662,"lon":139.40584},{"name":"＊?雷塚地区図書館","province":"東京都","city":"武蔵村山市","address":"武蔵村山市学園4-4","lat":35.745877,"lon":139.400497},{"name":"＊?中藤地区図書館","province":"東京都","city":"武蔵村山市","address":"武蔵村山市中藤3-16","lat":35.756927,"lon":139.400763},{"name":"＊?中久保図書館","province":"東京都","city":"武蔵村山市","address":"武蔵村山市本町2-77-1","lat":35.754543,"lon":139.382963},{"name":"お伊勢の森児童館","province":"東京都","city":"武蔵村山市","address":"武蔵村山市中央2-117-1","lat":35.750828,"lon":139.393287},{"name":"山王森児童館","province":"東京都","city":"武蔵村山市","address":"武蔵村山市三ツ藤3-6-10","lat":35.755802,"lon":139.371822},{"name":"お伊勢の森児童館","province":"東京都","city":"武蔵村山市","address":"武蔵村山市中央2-117-1","lat":35.7508,"lon":139.39337},{"name":"さいかち児童館","province":"東京都","city":"武蔵村山市","address":"武蔵村山市緑が丘1460","lat":35.74046,"lon":139.40483},{"name":"山王森児童館","province":"東京都","city":"武蔵村山市","address":"武蔵村山市三ツ藤3-6-10","lat":35.75573,"lon":139.3721},{"name":"＊?歴史民俗資料館","province":"東京都","city":"武蔵村山市","address":"武蔵村山市本町5-21-1","lat":35.762357,"lon":139.387322},{"name":"＊?残堀・伊奈平地区図書館","province":"東京都","city":"武蔵村山市","address":"武蔵村山市残堀1-60-3","lat":35.746169,"lon":139.375101},{"name":"＊?三ツ木地区図書館","province":"東京都","city":"武蔵村山市","address":"武蔵村山市三ツ木2-39-2","lat":35.758531,"lon":139.368584},{"name":"＊?大南地区図書館","province":"東京都","city":"武蔵村山市","address":"武蔵村山市大南5-1-69","lat":35.735662,"lon":139.40584},{"name":"＊?雷塚地区図書館","province":"東京都","city":"武蔵村山市","address":"武蔵村山市学園4-4","lat":35.745877,"lon":139.400497},{"name":"＊?中藤地区図書館","province":"東京都","city":"武蔵村山市","address":"武蔵村山市中藤3-16","lat":35.756927,"lon":139.400763},{"name":"＊?中久保図書館","province":"東京都","city":"武蔵村山市","address":"武蔵村山市本町2-77-1","lat":35.754543,"lon":139.382963},{"name":"お伊勢の森児童館","province":"東京都","city":"武蔵村山市","address":"武蔵村山市中央2-117-1","lat":35.750828,"lon":139.393287},{"name":"山王森児童館","province":"東京都","city":"武蔵村山市","address":"武蔵村山市三ツ藤3-6-10","lat":35.755802,"lon":139.371822},{"name":"お伊勢の森児童館","province":"東京都","city":"武蔵村山市","address":"武蔵村山市中央2-117-1","lat":35.7508,"lon":139.39337},{"name":"さいかち児童館","province":"東京都","city":"武蔵村山市","address":"武蔵村山市緑が丘1460","lat":35.74046,"lon":139.40483},{"name":"山王森児童館","province":"東京都","city":"武蔵村山市","address":"武蔵村山市三ツ藤3-6-10","lat":35.75573,"lon":139.3721},{"name":"＊?歴史民俗資料館","province":"東京都","city":"武蔵村山市","address":"武蔵村山市本町5-21-1","lat":35.762357,"lon":139.387322},{"name":"＊?残堀・伊奈平地区図書館","province":"東京都","city":"武蔵村山市","address":"武蔵村山市残堀1-60-3","lat":35.746169,"lon":139.375101},{"name":"＊?三ツ木地区図書館","province":"東京都","city":"武蔵村山市","address":"武蔵村山市三ツ木2-39-2","lat":35.758531,"lon":139.368584},{"name":"＊?大南地区図書館","province":"東京都","city":"武蔵村山市","address":"武蔵村山市大南5-1-69","lat":35.735662,"lon":139.40584},{"name":"＊?雷塚地区図書館","province":"東京都","city":"武蔵村山市","address":"武蔵村山市学園4-4","lat":35.745877,"lon":139.400497},{"name":"＊?中藤地区図書館","province":"東京都","city":"武蔵村山市","address":"武蔵村山市中藤3-16","lat":35.756927,"lon":139.400763},{"name":"＊?中久保図書館","province":"東京都","city":"武蔵村山市","address":"武蔵村山市本町2-77-1","lat":35.754543,"lon":139.382963},{"name":"お伊勢の森児童館","province":"東京都","city":"武蔵村山市","address":"武蔵村山市中央2-117-1","lat":35.750828,"lon":139.393287},{"name":"山王森児童館","province":"東京都","city":"武蔵村山市","address":"武蔵村山市三ツ藤3-6-10","lat":35.755802,"lon":139.371822},{"name":"お伊勢の森児童館","province":"東京都","city":"武蔵村山市","address":"武蔵村山市中央2-117-1","lat":35.7508,"lon":139.39337},{"name":"さいかち児童館","province":"東京都","city":"武蔵村山市","address":"武蔵村山市緑が丘1460","lat":35.74046,"lon":139.40483},{"name":"山王森児童館","province":"東京都","city":"武蔵村山市","address":"武蔵村山市三ツ藤3-6-10","lat":35.75573,"lon":139.3721},{"name":"＊?歴史民俗資料館","province":"東京都","city":"武蔵村山市","address":"武蔵村山市本町5-21-1","lat":35.762357,"lon":139.387322},{"name":"＊?残堀・伊奈平地区図書館","province":"東京都","city":"武蔵村山市","address":"武蔵村山市残堀1-60-3","lat":35.746169,"lon":139.375101},{"name":"＊?三ツ木地区図書館","province":"東京都","city":"武蔵村山市","address":"武蔵村山市三ツ木2-39-2","lat":35.758531,"lon":139.368584},{"name":"＊?大南地区図書館","province":"東京都","city":"武蔵村山市","address":"武蔵村山市大南5-1-69","lat":35.735662,"lon":139.40584},{"name":"＊?雷塚地区図書館","province":"東京都","city":"武蔵村山市","address":"武蔵村山市学園4-4","lat":35.745877,"lon":139.400497},{"name":"＊?中藤地区図書館","province":"東京都","city":"武蔵村山市","address":"武蔵村山市中藤3-16","lat":35.756927,"lon":139.400763},{"name":"＊?中久保図書館","province":"東京都","city":"武蔵村山市","address":"武蔵村山市本町2-77-1","lat":35.754543,"lon":139.382963},{"name":"お伊勢の森児童館","province":"東京都","city":"武蔵村山市","address":"武蔵村山市中央2-117-1","lat":35.750828,"lon":139.393287},{"name":"山王森児童館","province":"東京都","city":"武蔵村山市","address":"武蔵村山市三ツ藤3-6-10","lat":35.755802,"lon":139.371822},{"name":"お伊勢の森児童館","province":"東京都","city":"武蔵村山市","address":"武蔵村山市中央2-117-1","lat":35.7508,"lon":139.39337},{"name":"さいかち児童館","province":"東京都","city":"武蔵村山市","address":"武蔵村山市緑が丘1460","lat":35.74046,"lon":139.40483},{"name":"山王森児童館","province":"東京都","city":"武蔵村山市","address":"武蔵村山市三ツ藤3-6-10","lat":35.75573,"lon":139.3721},{"name":"＊?歴史民俗資料館","province":"東京都","city":"武蔵村山市","address":"武蔵村山市本町5-21-1","lat":35.762357,"lon":139.387322},{"name":"＊?残堀・伊奈平地区図書館","province":"東京都","city":"武蔵村山市","address":"武蔵村山市残堀1-60-3","lat":35.746169,"lon":139.375101},{"name":"＊?三ツ木地区図書館","province":"東京都","city":"武蔵村山市","address":"武蔵村山市三ツ木2-39-2","lat":35.758531,"lon":139.368584},{"name":"＊?大南地区図書館","province":"東京都","city":"武蔵村山市","address":"武蔵村山市大南5-1-69","lat":35.735662,"lon":139.40584},{"name":"＊?雷塚地区図書館","province":"東京都","city":"武蔵村山市","address":"武蔵村山市学園4-4","lat":35.745877,"lon":139.400497},{"name":"＊?中藤地区図書館","province":"東京都","city":"武蔵村山市","address":"武蔵村山市中藤3-16","lat":35.756927,"lon":139.400763},{"name":"＊?中久保図書館","province":"東京都","city":"武蔵村山市","address":"武蔵村山市本町2-77-1","lat":35.754543,"lon":139.382963},{"name":"お伊勢の森児童館","province":"東京都","city":"武蔵村山市","address":"武蔵村山市中央2-117-1","lat":35.750828,"lon":139.393287},{"name":"山王森児童館","province":"東京都","city":"武蔵村山市","address":"武蔵村山市三ツ藤3-6-10","lat":35.755802,"lon":139.371822},{"name":"お伊勢の森児童館","province":"東京都","city":"武蔵村山市","address":"武蔵村山市中央2-117-1","lat":35.7508,"lon":139.39337},{"name":"さいかち児童館","province":"東京都","city":"武蔵村山市","address":"武蔵村山市緑が丘1460","lat":35.74046,"lon":139.40483},{"name":"山王森児童館","province":"東京都","city":"武蔵村山市","address":"武蔵村山市三ツ藤3-6-10","lat":35.75573,"lon":139.3721},{"name":"＊?歴史民俗資料館","province":"東京都","city":"武蔵村山市","address":"武蔵村山市本町5-21-1","lat":35.762357,"lon":139.387322},{"name":"＊?残堀・伊奈平地区図書館","province":"東京都","city":"武蔵村山市","address":"武蔵村山市残堀1-60-3","lat":35.746169,"lon":139.375101},{"name":"＊?三ツ木地区図書館","province":"東京都","city":"武蔵村山市","address":"武蔵村山市三ツ木2-39-2","lat":35.758531,"lon":139.368584},{"name":"＊?大南地区図書館","province":"東京都","city":"武蔵村山市","address":"武蔵村山市大南5-1-69","lat":35.735662,"lon":139.40584},{"name":"＊?雷塚地区図書館","province":"東京都","city":"武蔵村山市","address":"武蔵村山市学園4-4","lat":35.745877,"lon":139.400497},{"name":"＊?中藤地区図書館","province":"東京都","city":"武蔵村山市","address":"武蔵村山市中藤3-16","lat":35.756927,"lon":139.400763},{"name":"＊?中久保図書館","province":"東京都","city":"武蔵村山市","address":"武蔵村山市本町2-77-1","lat":35.754543,"lon":139.382963},{"name":"お伊勢の森児童館","province":"東京都","city":"武蔵村山市","address":"武蔵村山市中央2-117-1","lat":35.750828,"lon":139.393287},{"name":"山王森児童館","province":"東京都","city":"武蔵村山市","address":"武蔵村山市三ツ藤3-6-10","lat":35.755802,"lon":139.371822},{"name":"お伊勢の森児童館","province":"東京都","city":"武蔵村山市","address":"武蔵村山市中央2-117-1","lat":35.7508,"lon":139.39337},{"name":"さいかち児童館","province":"東京都","city":"武蔵村山市","address":"武蔵村山市緑が丘1460","lat":35.74046,"lon":139.40483},{"name":"山王森児童館","province":"東京都","city":"武蔵村山市","address":"武蔵村山市三ツ藤3-6-10","lat":35.75573,"lon":139.3721},{"name":"＊?歴史民俗資料館","province":"東京都","city":"武蔵村山市","address":"武蔵村山市本町5-21-1","lat":35.762357,"lon":139.387322},{"name":"＊?残堀・伊奈平地区図書館","province":"東京都","city":"武蔵村山市","address":"武蔵村山市残堀1-60-3","lat":35.746169,"lon":139.375101},{"name":"＊?三ツ木地区図書館","province":"東京都","city":"武蔵村山市","address":"武蔵村山市三ツ木2-39-2","lat":35.758531,"lon":139.368584},{"name":"＊?大南地区図書館","province":"東京都","city":"武蔵村山市","address":"武蔵村山市大南5-1-69","lat":35.735662,"lon":139.40584},{"name":"＊?雷塚地区図書館","province":"東京都","city":"武蔵村山市","address":"武蔵村山市学園4-4","lat":35.745877,"lon":139.400497},{"name":"＊?中藤地区図書館","province":"東京都","city":"武蔵村山市","address":"武蔵村山市中藤3-16","lat":35.756927,"lon":139.400763},{"name":"＊?中久保図書館","province":"東京都","city":"武蔵村山市","address":"武蔵村山市本町2-77-1","lat":35.754543,"lon":139.382963},{"name":"お伊勢の森児童館","province":"東京都","city":"武蔵村山市","address":"武蔵村山市中央2-117-1","lat":35.750828,"lon":139.393287},{"name":"山王森児童館","province":"東京都","city":"武蔵村山市","address":"武蔵村山市三ツ藤3-6-10","lat":35.755802,"lon":139.371822},{"name":"お伊勢の森児童館","province":"東京都","city":"武蔵村山市","address":"武蔵村山市中央2-117-1","lat":35.7508,"lon":139.39337},{"name":"さいかち児童館","province":"東京都","city":"武蔵村山市","address":"武蔵村山市緑が丘1460","lat":35.74046,"lon":139.40483},{"name":"山王森児童館","province":"東京都","city":"武蔵村山市","address":"武蔵村山市三ツ藤3-6-10","lat":35.75573,"lon":139.3721},{"name":"＊?歴史民俗資料館","province":"東京都","city":"武蔵村山市","address":"武蔵村山市本町5-21-1","lat":35.762357,"lon":139.387322},{"name":"＊?残堀・伊奈平地区図書館","province":"東京都","city":"武蔵村山市","address":"武蔵村山市残堀1-60-3","lat":35.746169,"lon":139.375101},{"name":"＊?三ツ木地区図書館","province":"東京都","city":"武蔵村山市","address":"武蔵村山市三ツ木2-39-2","lat":35.758531,"lon":139.368584},{"name":"＊?大南地区図書館","province":"東京都","city":"武蔵村山市","address":"武蔵村山市大南5-1-69","lat":35.735662,"lon":139.40584},{"name":"＊?雷塚地区図書館","province":"東京都","city":"武蔵村山市","address":"武蔵村山市学園4-4","lat":35.745877,"lon":139.400497},{"name":"＊?中藤地区図書館","province":"東京都","city":"武蔵村山市","address":"武蔵村山市中藤3-16","lat":35.756927,"lon":139.400763},{"name":"＊?中久保図書館","province":"東京都","city":"武蔵村山市","address":"武蔵村山市本町2-77-1","lat":35.754543,"lon":139.382963},{"name":"お伊勢の森児童館","province":"東京都","city":"武蔵村山市","address":"武蔵村山市中央2-117-1","lat":35.750828,"lon":139.393287},{"name":"山王森児童館","province":"東京都","city":"武蔵村山市","address":"武蔵村山市三ツ藤3-6-10","lat":35.755802,"lon":139.371822},{"name":"お伊勢の森児童館","province":"東京都","city":"武蔵村山市","address":"武蔵村山市中央2-117-1","lat":35.7508,"lon":139.39337},{"name":"さいかち児童館","province":"東京都","city":"武蔵村山市","address":"武蔵村山市緑が丘1460","lat":35.74046,"lon":139.40483},{"name":"山王森児童館","province":"東京都","city":"武蔵村山市","address":"武蔵村山市三ツ藤3-6-10","lat":35.75573,"lon":139.3721},{"name":"＊?歴史民俗資料館","province":"東京都","city":"武蔵村山市","address":"武蔵村山市本町5-21-1","lat":35.762357,"lon":139.387322},{"name":"＊?残堀・伊奈平地区図書館","province":"東京都","city":"武蔵村山市","address":"武蔵村山市残堀1-60-3","lat":35.746169,"lon":139.375101},{"name":"＊?三ツ木地区図書館","province":"東京都","city":"武蔵村山市","address":"武蔵村山市三ツ木2-39-2","lat":35.758531,"lon":139.368584},{"name":"＊?大南地区図書館","province":"東京都","city":"武蔵村山市","address":"武蔵村山市大南5-1-69","lat":35.735662,"lon":139.40584},{"name":"＊?雷塚地区図書館","province":"東京都","city":"武蔵村山市","address":"武蔵村山市学園4-4","lat":35.745877,"lon":139.400497},{"name":"＊?中藤地区図書館","province":"東京都","city":"武蔵村山市","address":"武蔵村山市中藤3-16","lat":35.756927,"lon":139.400763},{"name":"＊?中久保図書館","province":"東京都","city":"武蔵村山市","address":"武蔵村山市本町2-77-1","lat":35.754543,"lon":139.382963},{"name":"お伊勢の森児童館","province":"東京都","city":"武蔵村山市","address":"武蔵村山市中央2-117-1","lat":35.750828,"lon":139.393287},{"name":"山王森児童館","province":"東京都","city":"武蔵村山市","address":"武蔵村山市三ツ藤3-6-10","lat":35.755802,"lon":139.371822},{"name":"お伊勢の森児童館","province":"東京都","city":"武蔵村山市","address":"武蔵村山市中央2-117-1","lat":35.7508,"lon":139.39337},{"name":"さいかち児童館","province":"東京都","city":"武蔵村山市","address":"武蔵村山市緑が丘1460","lat":35.74046,"lon":139.40483},{"name":"山王森児童館","province":"東京都","city":"武蔵村山市","address":"武蔵村山市三ツ藤3-6-10","lat":35.75573,"lon":139.3721},{"name":"＊?歴史民俗資料館","province":"東京都","city":"武蔵村山市","address":"武蔵村山市本町5-21-1","lat":35.762357,"lon":139.387322},{"name":"＊?残堀・伊奈平地区図書館","province":"東京都","city":"武蔵村山市","address":"武蔵村山市残堀1-60-3","lat":35.746169,"lon":139.375101},{"name":"＊?三ツ木地区図書館","province":"東京都","city":"武蔵村山市","address":"武蔵村山市三ツ木2-39-2","lat":35.758531,"lon":139.368584},{"name":"＊?大南地区図書館","province":"東京都","city":"武蔵村山市","address":"武蔵村山市大南5-1-69","lat":35.735662,"lon":139.40584},{"name":"＊?雷塚地区図書館","province":"東京都","city":"武蔵村山市","address":"武蔵村山市学園4-4","lat":35.745877,"lon":139.400497},{"name":"＊?中藤地区図書館","province":"東京都","city":"武蔵村山市","address":"武蔵村山市中藤3-16","lat":35.756927,"lon":139.400763},{"name":"＊?中久保図書館","province":"東京都","city":"武蔵村山市","address":"武蔵村山市本町2-77-1","lat":35.754543,"lon":139.382963},{"name":"お伊勢の森児童館","province":"東京都","city":"武蔵村山市","address":"武蔵村山市中央2-117-1","lat":35.750828,"lon":139.393287},{"name":"山王森児童館","province":"東京都","city":"武蔵村山市","address":"武蔵村山市三ツ藤3-6-10","lat":35.755802,"lon":139.371822},{"name":"お伊勢の森児童館","province":"東京都","city":"武蔵村山市","address":"武蔵村山市中央2-117-1","lat":35.7508,"lon":139.39337},{"name":"さいかち児童館","province":"東京都","city":"武蔵村山市","address":"武蔵村山市緑が丘1460","lat":35.74046,"lon":139.40483},{"name":"山王森児童館","province":"東京都","city":"武蔵村山市","address":"武蔵村山市三ツ藤3-6-10","lat":35.75573,"lon":139.3721},{"name":"＊?歴史民俗資料館","province":"東京都","city":"武蔵村山市","address":"武蔵村山市本町5-21-1","lat":35.762357,"lon":139.387322},{"name":"＊?残堀・伊奈平地区図書館","province":"東京都","city":"武蔵村山市","address":"武蔵村山市残堀1-60-3","lat":35.746169,"lon":139.375101},{"name":"＊?三ツ木地区図書館","province":"東京都","city":"武蔵村山市","address":"武蔵村山市三ツ木2-39-2","lat":35.758531,"lon":139.368584},{"name":"＊?大南地区図書館","province":"東京都","city":"武蔵村山市","address":"武蔵村山市大南5-1-69","lat":35.735662,"lon":139.40584},{"name":"＊?雷塚地区図書館","province":"東京都","city":"武蔵村山市","address":"武蔵村山市学園4-4","lat":35.745877,"lon":139.400497},{"name":"＊?中藤地区図書館","province":"東京都","city":"武蔵村山市","address":"武蔵村山市中藤3-16","lat":35.756927,"lon":139.400763},{"name":"＊?中久保図書館","province":"東京都","city":"武蔵村山市","address":"武蔵村山市本町2-77-1","lat":35.754543,"lon":139.382963},{"name":"お伊勢の森児童館","province":"東京都","city":"武蔵村山市","address":"武蔵村山市中央2-117-1","lat":35.750828,"lon":139.393287},{"name":"山王森児童館","province":"東京都","city":"武蔵村山市","address":"武蔵村山市三ツ藤3-6-10","lat":35.755802,"lon":139.371822},{"name":"お伊勢の森児童館","province":"東京都","city":"武蔵村山市","address":"武蔵村山市中央2-117-1","lat":35.7508,"lon":139.39337},{"name":"さいかち児童館","province":"東京都","city":"武蔵村山市","address":"武蔵村山市緑が丘1460","lat":35.74046,"lon":139.40483},{"name":"山王森児童館","province":"東京都","city":"武蔵村山市","address":"武蔵村山市三ツ藤3-6-10","lat":35.75573,"lon":139.3721},{"name":"＊?歴史民俗資料館","province":"東京都","city":"武蔵村山市","address":"武蔵村山市本町5-21-1","lat":35.762357,"lon":139.387322},{"name":"＊?残堀・伊奈平地区図書館","province":"東京都","city":"武蔵村山市","address":"武蔵村山市残堀1-60-3","lat":35.746169,"lon":139.375101},{"name":"＊?三ツ木地区図書館","province":"東京都","city":"武蔵村山市","address":"武蔵村山市三ツ木2-39-2","lat":35.758531,"lon":139.368584},{"name":"＊?大南地区図書館","province":"東京都","city":"武蔵村山市","address":"武蔵村山市大南5-1-69","lat":35.735662,"lon":139.40584},{"name":"＊?雷塚地区図書館","province":"東京都","city":"武蔵村山市","address":"武蔵村山市学園4-4","lat":35.745877,"lon":139.400497},{"name":"＊?中藤地区図書館","province":"東京都","city":"武蔵村山市","address":"武蔵村山市中藤3-16","lat":35.756927,"lon":139.400763},{"name":"＊?中久保図書館","province":"東京都","city":"武蔵村山市","address":"武蔵村山市本町2-77-1","lat":35.754543,"lon":139.382963},{"name":"お伊勢の森児童館","province":"東京都","city":"武蔵村山市","address":"武蔵村山市中央2-117-1","lat":35.750828,"lon":139.393287},{"name":"山王森児童館","province":"東京都","city":"武蔵村山市","address":"武蔵村山市三ツ藤3-6-10","lat":35.755802,"lon":139.371822},{"name":"お伊勢の森児童館","province":"東京都","city":"武蔵村山市","address":"武蔵村山市中央2-117-1","lat":35.7508,"lon":139.39337},{"name":"さいかち児童館","province":"東京都","city":"武蔵村山市","address":"武蔵村山市緑が丘1460","lat":35.74046,"lon":139.40483},{"name":"山王森児童館","province":"東京都","city":"武蔵村山市","address":"武蔵村山市三ツ藤3-6-10","lat":35.75573,"lon":139.3721},{"name":"＊?歴史民俗資料館","province":"東京都","city":"武蔵村山市","address":"武蔵村山市本町5-21-1","lat":35.762357,"lon":139.387322},{"name":"＊?残堀・伊奈平地区図書館","province":"東京都","city":"武蔵村山市","address":"武蔵村山市残堀1-60-3","lat":35.746169,"lon":139.375101},{"name":"＊?三ツ木地区図書館","province":"東京都","city":"武蔵村山市","address":"武蔵村山市三ツ木2-39-2","lat":35.758531,"lon":139.368584},{"name":"＊?大南地区図書館","province":"東京都","city":"武蔵村山市","address":"武蔵村山市大南5-1-69","lat":35.735662,"lon":139.40584},{"name":"＊?雷塚地区図書館","province":"東京都","city":"武蔵村山市","address":"武蔵村山市学園4-4","lat":35.745877,"lon":139.400497},{"name":"＊?中藤地区図書館","province":"東京都","city":"武蔵村山市","address":"武蔵村山市中藤3-16","lat":35.756927,"lon":139.400763},{"name":"＊?中久保図書館","province":"東京都","city":"武蔵村山市","address":"武蔵村山市本町2-77-1","lat":35.754543,"lon":139.382963},{"name":"お伊勢の森児童館","province":"東京都","city":"武蔵村山市","address":"武蔵村山市中央2-117-1","lat":35.750828,"lon":139.393287},{"name":"山王森児童館","province":"東京都","city":"武蔵村山市","address":"武蔵村山市三ツ藤3-6-10","lat":35.755802,"lon":139.371822},{"name":"お伊勢の森児童館","province":"東京都","city":"武蔵村山市","address":"武蔵村山市中央2-117-1","lat":35.7508,"lon":139.39337},{"name":"さいかち児童館","province":"東京都","city":"武蔵村山市","address":"武蔵村山市緑が丘1460","lat":35.74046,"lon":139.40483},{"name":"山王森児童館","province":"東京都","city":"武蔵村山市","address":"武蔵村山市三ツ藤3-6-10","lat":35.75573,"lon":139.3721},{"name":"＊?歴史民俗資料館","province":"東京都","city":"武蔵村山市","address":"武蔵村山市本町5-21-1","lat":35.762357,"lon":139.387322},{"name":"＊?残堀・伊奈平地区図書館","province":"東京都","city":"武蔵村山市","address":"武蔵村山市残堀1-60-3","lat":35.746169,"lon":139.375101},{"name":"＊?三ツ木地区図書館","province":"東京都","city":"武蔵村山市","address":"武蔵村山市三ツ木2-39-2","lat":35.758531,"lon":139.368584},{"name":"＊?大南地区図書館","province":"東京都","city":"武蔵村山市","address":"武蔵村山市大南5-1-69","lat":35.735662,"lon":139.40584},{"name":"＊?雷塚地区図書館","province":"東京都","city":"武蔵村山市","address":"武蔵村山市学園4-4","lat":35.745877,"lon":139.400497},{"name":"＊?中藤地区図書館","province":"東京都","city":"武蔵村山市","address":"武蔵村山市中藤3-16","lat":35.756927,"lon":139.400763},{"name":"＊?中久保図書館","province":"東京都","city":"武蔵村山市","address":"武蔵村山市本町2-77-1","lat":35.754543,"lon":139.382963},{"name":"お伊勢の森児童館","province":"東京都","city":"武蔵村山市","address":"武蔵村山市中央2-117-1","lat":35.750828,"lon":139.393287},{"name":"山王森児童館","province":"東京都","city":"武蔵村山市","address":"武蔵村山市三ツ藤3-6-10","lat":35.755802,"lon":139.371822},{"name":"お伊勢の森児童館","province":"東京都","city":"武蔵村山市","address":"武蔵村山市中央2-117-1","lat":35.7508,"lon":139.39337},{"name":"さいかち児童館","province":"東京都","city":"武蔵村山市","address":"武蔵村山市緑が丘1460","lat":35.74046,"lon":139.40483},{"name":"山王森児童館","province":"東京都","city":"武蔵村山市","address":"武蔵村山市三ツ藤3-6-10","lat":35.75573,"lon":139.3721},{"name":"＊?歴史民俗資料館","province":"東京都","city":"武蔵村山市","address":"武蔵村山市本町5-21-1","lat":35.762357,"lon":139.387322},{"name":"＊?残堀・伊奈平地区図書館","province":"東京都","city":"武蔵村山市","address":"武蔵村山市残堀1-60-3","lat":35.746169,"lon":139.375101},{"name":"＊?三ツ木地区図書館","province":"東京都","city":"武蔵村山市","address":"武蔵村山市三ツ木2-39-2","lat":35.758531,"lon":139.368584},{"name":"＊?大南地区図書館","province":"東京都","city":"武蔵村山市","address":"武蔵村山市大南5-1-69","lat":35.735662,"lon":139.40584},{"name":"＊?雷塚地区図書館","province":"東京都","city":"武蔵村山市","address":"武蔵村山市学園4-4","lat":35.745877,"lon":139.400497},{"name":"＊?中藤地区図書館","province":"東京都","city":"武蔵村山市","address":"武蔵村山市中藤3-16","lat":35.756927,"lon":139.400763},{"name":"＊?中久保図書館","province":"東京都","city":"武蔵村山市","address":"武蔵村山市本町2-77-1","lat":35.754543,"lon":139.382963},{"name":"お伊勢の森児童館","province":"東京都","city":"武蔵村山市","address":"武蔵村山市中央2-117-1","lat":35.750828,"lon":139.393287},{"name":"山王森児童館","province":"東京都","city":"武蔵村山市","address":"武蔵村山市三ツ藤3-6-10","lat":35.755802,"lon":139.371822},{"name":"お伊勢の森児童館","province":"東京都","city":"武蔵村山市","address":"武蔵村山市中央2-117-1","lat":35.7508,"lon":139.39337},{"name":"さいかち児童館","province":"東京都","city":"武蔵村山市","address":"武蔵村山市緑が丘1460","lat":35.74046,"lon":139.40483},{"name":"山王森児童館","province":"東京都","city":"武蔵村山市","address":"武蔵村山市三ツ藤3-6-10","lat":35.75573,"lon":139.3721},{"name":"＊?歴史民俗資料館","province":"東京都","city":"武蔵村山市","address":"武蔵村山市本町5-21-1","lat":35.762357,"lon":139.387322},{"name":"＊?残堀・伊奈平地区図書館","province":"東京都","city":"武蔵村山市","address":"武蔵村山市残堀1-60-3","lat":35.746169,"lon":139.375101},{"name":"＊?三ツ木地区図書館","province":"東京都","city":"武蔵村山市","address":"武蔵村山市三ツ木2-39-2","lat":35.758531,"lon":139.368584},{"name":"＊?大南地区図書館","province":"東京都","city":"武蔵村山市","address":"武蔵村山市大南5-1-69","lat":35.735662,"lon":139.40584},{"name":"＊?雷塚地区図書館","province":"東京都","city":"武蔵村山市","address":"武蔵村山市学園4-4","lat":35.745877,"lon":139.400497},{"name":"＊?中藤地区図書館","province":"東京都","city":"武蔵村山市","address":"武蔵村山市中藤3-16","lat":35.756927,"lon":139.400763},{"name":"＊?中久保図書館","province":"東京都","city":"武蔵村山市","address":"武蔵村山市本町2-77-1","lat":35.754543,"lon":139.382963},{"name":"お伊勢の森児童館","province":"東京都","city":"武蔵村山市","address":"武蔵村山市中央2-117-1","lat":35.750828,"lon":139.393287},{"name":"山王森児童館","province":"東京都","city":"武蔵村山市","address":"武蔵村山市三ツ藤3-6-10","lat":35.755802,"lon":139.371822},{"name":"お伊勢の森児童館","province":"東京都","city":"武蔵村山市","address":"武蔵村山市中央2-117-1","lat":35.7508,"lon":139.39337},{"name":"さいかち児童館","province":"東京都","city":"武蔵村山市","address":"武蔵村山市緑が丘1460","lat":35.74046,"lon":139.40483},{"name":"山王森児童館","province":"東京都","city":"武蔵村山市","address":"武蔵村山市三ツ藤3-6-10","lat":35.75573,"lon":139.3721},{"name":"＊?歴史民俗資料館","province":"東京都","city":"武蔵村山市","address":"武蔵村山市本町5-21-1","lat":35.762357,"lon":139.387322},{"name":"＊?残堀・伊奈平地区図書館","province":"東京都","city":"武蔵村山市","address":"武蔵村山市残堀1-60-3","lat":35.746169,"lon":139.375101},{"name":"＊?三ツ木地区図書館","province":"東京都","city":"武蔵村山市","address":"武蔵村山市三ツ木2-39-2","lat":35.758531,"lon":139.368584},{"name":"＊?大南地区図書館","province":"東京都","city":"武蔵村山市","address":"武蔵村山市大南5-1-69","lat":35.735662,"lon":139.40584},{"name":"＊?雷塚地区図書館","province":"東京都","city":"武蔵村山市","address":"武蔵村山市学園4-4","lat":35.745877,"lon":139.400497},{"name":"＊?中藤地区図書館","province":"東京都","city":"武蔵村山市","address":"武蔵村山市中藤3-16","lat":35.756927,"lon":139.400763},{"name":"＊?中久保図書館","province":"東京都","city":"武蔵村山市","address":"武蔵村山市本町2-77-1","lat":35.754543,"lon":139.382963},{"name":"お伊勢の森児童館","province":"東京都","city":"武蔵村山市","address":"武蔵村山市中央2-117-1","lat":35.750828,"lon":139.393287},{"name":"山王森児童館","province":"東京都","city":"武蔵村山市","address":"武蔵村山市三ツ藤3-6-10","lat":35.755802,"lon":139.371822},{"name":"お伊勢の森児童館","province":"東京都","city":"武蔵村山市","address":"武蔵村山市中央2-117-1","lat":35.7508,"lon":139.39337},{"name":"さいかち児童館","province":"東京都","city":"武蔵村山市","address":"武蔵村山市緑が丘1460","lat":35.74046,"lon":139.40483},{"name":"山王森児童館","province":"東京都","city":"武蔵村山市","address":"武蔵村山市三ツ藤3-6-10","lat":35.75573,"lon":139.3721},{"name":"＊?歴史民俗資料館","province":"東京都","city":"武蔵村山市","address":"武蔵村山市本町5-21-1","lat":35.762357,"lon":139.387322},{"name":"＊?残堀・伊奈平地区図書館","province":"東京都","city":"武蔵村山市","address":"武蔵村山市残堀1-60-3","lat":35.746169,"lon":139.375101},{"name":"＊?三ツ木地区図書館","province":"東京都","city":"武蔵村山市","address":"武蔵村山市三ツ木2-39-2","lat":35.758531,"lon":139.368584},{"name":"＊?大南地区図書館","province":"東京都","city":"武蔵村山市","address":"武蔵村山市大南5-1-69","lat":35.735662,"lon":139.40584},{"name":"＊?雷塚地区図書館","province":"東京都","city":"武蔵村山市","address":"武蔵村山市学園4-4","lat":35.745877,"lon":139.400497},{"name":"＊?中藤地区図書館","province":"東京都","city":"武蔵村山市","address":"武蔵村山市中藤3-16","lat":35.756927,"lon":139.400763},{"name":"＊?中久保図書館","province":"東京都","city":"武蔵村山市","address":"武蔵村山市本町2-77-1","lat":35.754543,"lon":139.382963},{"name":"お伊勢の森児童館","province":"東京都","city":"武蔵村山市","address":"武蔵村山市中央2-117-1","lat":35.750828,"lon":139.393287},{"name":"山王森児童館","province":"東京都","city":"武蔵村山市","address":"武蔵村山市三ツ藤3-6-10","lat":35.755802,"lon":139.371822},{"name":"お伊勢の森児童館","province":"東京都","city":"武蔵村山市","address":"武蔵村山市中央2-117-1","lat":35.7508,"lon":139.39337},{"name":"さいかち児童館","province":"東京都","city":"武蔵村山市","address":"武蔵村山市緑が丘1460","lat":35.74046,"lon":139.40483},{"name":"山王森児童館","province":"東京都","city":"武蔵村山市","address":"武蔵村山市三ツ藤3-6-10","lat":35.75573,"lon":139.3721},{"name":"＊?歴史民俗資料館","province":"東京都","city":"武蔵村山市","address":"武蔵村山市本町5-21-1","lat":35.762357,"lon":139.387322},{"name":"＊?残堀・伊奈平地区図書館","province":"東京都","city":"武蔵村山市","address":"武蔵村山市残堀1-60-3","lat":35.746169,"lon":139.375101},{"name":"＊?三ツ木地区図書館","province":"東京都","city":"武蔵村山市","address":"武蔵村山市三ツ木2-39-2","lat":35.758531,"lon":139.368584},{"name":"＊?大南地区図書館","province":"東京都","city":"武蔵村山市","address":"武蔵村山市大南5-1-69","lat":35.735662,"lon":139.40584},{"name":"＊?雷塚地区図書館","province":"東京都","city":"武蔵村山市","address":"武蔵村山市学園4-4","lat":35.745877,"lon":139.400497},{"name":"＊?中藤地区図書館","province":"東京都","city":"武蔵村山市","address":"武蔵村山市中藤3-16","lat":35.756927,"lon":139.400763},{"name":"＊?中久保図書館","province":"東京都","city":"武蔵村山市","address":"武蔵村山市本町2-77-1","lat":35.754543,"lon":139.382963},{"name":"お伊勢の森児童館","province":"東京都","city":"武蔵村山市","address":"武蔵村山市中央2-117-1","lat":35.750828,"lon":139.393287},{"name":"山王森児童館","province":"東京都","city":"武蔵村山市","address":"武蔵村山市三ツ藤3-6-10","lat":35.755802,"lon":139.371822},{"name":"お伊勢の森児童館","province":"東京都","city":"武蔵村山市","address":"武蔵村山市中央2-117-1","lat":35.7508,"lon":139.39337},{"name":"さいかち児童館","province":"東京都","city":"武蔵村山市","address":"武蔵村山市緑が丘1460","lat":35.74046,"lon":139.40483},{"name":"山王森児童館","province":"東京都","city":"武蔵村山市","address":"武蔵村山市三ツ藤3-6-10","lat":35.75573,"lon":139.3721},{"name":"＊?歴史民俗資料館","province":"東京都","city":"武蔵村山市","address":"武蔵村山市本町5-21-1","lat":35.762357,"lon":139.387322},{"name":"＊?残堀・伊奈平地区図書館","province":"東京都","city":"武蔵村山市","address":"武蔵村山市残堀1-60-3","lat":35.746169,"lon":139.375101},{"name":"＊?三ツ木地区図書館","province":"東京都","city":"武蔵村山市","address":"武蔵村山市三ツ木2-39-2","lat":35.758531,"lon":139.368584},{"name":"＊?大南地区図書館","province":"東京都","city":"武蔵村山市","address":"武蔵村山市大南5-1-69","lat":35.735662,"lon":139.40584},{"name":"＊?雷塚地区図書館","province":"東京都","city":"武蔵村山市","address":"武蔵村山市学園4-4","lat":35.745877,"lon":139.400497},{"name":"＊?中藤地区図書館","province":"東京都","city":"武蔵村山市","address":"武蔵村山市中藤3-16","lat":35.756927,"lon":139.400763},{"name":"＊?中久保図書館","province":"東京都","city":"武蔵村山市","address":"武蔵村山市本町2-77-1","lat":35.754543,"lon":139.382963},{"name":"お伊勢の森児童館","province":"東京都","city":"武蔵村山市","address":"武蔵村山市中央2-117-1","lat":35.750828,"lon":139.393287},{"name":"山王森児童館","province":"東京都","city":"武蔵村山市","address":"武蔵村山市三ツ藤3-6-10","lat":35.755802,"lon":139.371822},{"name":"お伊勢の森児童館","province":"東京都","city":"武蔵村山市","address":"武蔵村山市中央2-117-1","lat":35.7508,"lon":139.39337},{"name":"さいかち児童館","province":"東京都","city":"武蔵村山市","address":"武蔵村山市緑が丘1460","lat":35.74046,"lon":139.40483},{"name":"山王森児童館","province":"東京都","city":"武蔵村山市","address":"武蔵村山市三ツ藤3-6-10","lat":35.75573,"lon":139.3721},{"name":"＊?歴史民俗資料館","province":"東京都","city":"武蔵村山市","address":"武蔵村山市本町5-21-1","lat":35.762357,"lon":139.387322},{"name":"＊?残堀・伊奈平地区図書館","province":"東京都","city":"武蔵村山市","address":"武蔵村山市残堀1-60-3","lat":35.746169,"lon":139.375101},{"name":"＊?三ツ木地区図書館","province":"東京都","city":"武蔵村山市","address":"武蔵村山市三ツ木2-39-2","lat":35.758531,"lon":139.368584},{"name":"＊?大南地区図書館","province":"東京都","city":"武蔵村山市","address":"武蔵村山市大南5-1-69","lat":35.735662,"lon":139.40584},{"name":"＊?雷塚地区図書館","province":"東京都","city":"武蔵村山市","address":"武蔵村山市学園4-4","lat":35.745877,"lon":139.400497},{"name":"＊?中藤地区図書館","province":"東京都","city":"武蔵村山市","address":"武蔵村山市中藤3-16","lat":35.756927,"lon":139.400763},{"name":"＊?中久保図書館","province":"東京都","city":"武蔵村山市","address":"武蔵村山市本町2-77-1","lat":35.754543,"lon":139.382963},{"name":"お伊勢の森児童館","province":"東京都","city":"武蔵村山市","address":"武蔵村山市中央2-117-1","lat":35.750828,"lon":139.393287},{"name":"山王森児童館","province":"東京都","city":"武蔵村山市","address":"武蔵村山市三ツ藤3-6-10","lat":35.755802,"lon":139.371822},{"name":"お伊勢の森児童館","province":"東京都","city":"武蔵村山市","address":"武蔵村山市中央2-117-1","lat":35.7508,"lon":139.39337},{"name":"さいかち児童館","province":"東京都","city":"武蔵村山市","address":"武蔵村山市緑が丘1460","lat":35.74046,"lon":139.40483},{"name":"山王森児童館","province":"東京都","city":"武蔵村山市","address":"武蔵村山市三ツ藤3-6-10","lat":35.75573,"lon":139.3721},{"name":"＊?歴史民俗資料館","province":"東京都","city":"武蔵村山市","address":"武蔵村山市本町5-21-1","lat":35.762357,"lon":139.387322},{"name":"＊?残堀・伊奈平地区図書館","province":"東京都","city":"武蔵村山市","address":"武蔵村山市残堀1-60-3","lat":35.746169,"lon":139.375101},{"name":"＊?三ツ木地区図書館","province":"東京都","city":"武蔵村山市","address":"武蔵村山市三ツ木2-39-2","lat":35.758531,"lon":139.368584},{"name":"＊?大南地区図書館","province":"東京都","city":"武蔵村山市","address":"武蔵村山市大南5-1-69","lat":35.735662,"lon":139.40584},{"name":"＊?雷塚地区図書館","province":"東京都","city":"武蔵村山市","address":"武蔵村山市学園4-4","lat":35.745877,"lon":139.400497},{"name":"＊?中藤地区図書館","province":"東京都","city":"武蔵村山市","address":"武蔵村山市中藤3-16","lat":35.756927,"lon":139.400763},{"name":"＊?中久保図書館","province":"東京都","city":"武蔵村山市","address":"武蔵村山市本町2-77-1","lat":35.754543,"lon":139.382963},{"name":"お伊勢の森児童館","province":"東京都","city":"武蔵村山市","address":"武蔵村山市中央2-117-1","lat":35.750828,"lon":139.393287},{"name":"山王森児童館","province":"東京都","city":"武蔵村山市","address":"武蔵村山市三ツ藤3-6-10","lat":35.755802,"lon":139.371822},{"name":"お伊勢の森児童館","province":"東京都","city":"武蔵村山市","address":"武蔵村山市中央2-117-1","lat":35.7508,"lon":139.39337},{"name":"さいかち児童館","province":"東京都","city":"武蔵村山市","address":"武蔵村山市緑が丘1460","lat":35.74046,"lon":139.40483},{"name":"山王森児童館","province":"東京都","city":"武蔵村山市","address":"武蔵村山市三ツ藤3-6-10","lat":35.75573,"lon":139.3721},{"name":"＊?歴史民俗資料館","province":"東京都","city":"武蔵村山市","address":"武蔵村山市本町5-21-1","lat":35.762357,"lon":139.387322},{"name":"＊?残堀・伊奈平地区図書館","province":"東京都","city":"武蔵村山市","address":"武蔵村山市残堀1-60-3","lat":35.746169,"lon":139.375101},{"name":"＊?三ツ木地区図書館","province":"東京都","city":"武蔵村山市","address":"武蔵村山市三ツ木2-39-2","lat":35.758531,"lon":139.368584},{"name":"＊?大南地区図書館","province":"東京都","city":"武蔵村山市","address":"武蔵村山市大南5-1-69","lat":35.735662,"lon":139.40584},{"name":"＊?雷塚地区図書館","province":"東京都","city":"武蔵村山市","address":"武蔵村山市学園4-4","lat":35.745877,"lon":139.400497},{"name":"＊?中藤地区図書館","province":"東京都","city":"武蔵村山市","address":"武蔵村山市中藤3-16","lat":35.756927,"lon":139.400763},{"name":"＊?中久保図書館","province":"東京都","city":"武蔵村山市","address":"武蔵村山市本町2-77-1","lat":35.754543,"lon":139.382963},{"name":"お伊勢の森児童館","province":"東京都","city":"武蔵村山市","address":"武蔵村山市中央2-117-1","lat":35.750828,"lon":139.393287},{"name":"山王森児童館","province":"東京都","city":"武蔵村山市","address":"武蔵村山市三ツ藤3-6-10","lat":35.755802,"lon":139.371822},{"name":"お伊勢の森児童館","province":"東京都","city":"武蔵村山市","address":"武蔵村山市中央2-117-1","lat":35.7508,"lon":139.39337},{"name":"さいかち児童館","province":"東京都","city":"武蔵村山市","address":"武蔵村山市緑が丘1460","lat":35.74046,"lon":139.40483},{"name":"山王森児童館","province":"東京都","city":"武蔵村山市","address":"武蔵村山市三ツ藤3-6-10","lat":35.75573,"lon":139.3721},{"name":"＊?歴史民俗資料館","province":"東京都","city":"武蔵村山市","address":"武蔵村山市本町5-21-1","lat":35.762357,"lon":139.387322},{"name":"＊?残堀・伊奈平地区図書館","province":"東京都","city":"武蔵村山市","address":"武蔵村山市残堀1-60-3","lat":35.746169,"lon":139.375101},{"name":"＊?三ツ木地区図書館","province":"東京都","city":"武蔵村山市","address":"武蔵村山市三ツ木2-39-2","lat":35.758531,"lon":139.368584},{"name":"＊?大南地区図書館","province":"東京都","city":"武蔵村山市","address":"武蔵村山市大南5-1-69","lat":35.735662,"lon":139.40584},{"name":"＊?雷塚地区図書館","province":"東京都","city":"武蔵村山市","address":"武蔵村山市学園4-4","lat":35.745877,"lon":139.400497},{"name":"＊?中藤地区図書館","province":"東京都","city":"武蔵村山市","address":"武蔵村山市中藤3-16","lat":35.756927,"lon":139.400763},{"name":"＊?中久保図書館","province":"東京都","city":"武蔵村山市","address":"武蔵村山市本町2-77-1","lat":35.754543,"lon":139.382963},{"name":"お伊勢の森児童館","province":"東京都","city":"武蔵村山市","address":"武蔵村山市中央2-117-1","lat":35.750828,"lon":139.393287},{"name":"山王森児童館","province":"東京都","city":"武蔵村山市","address":"武蔵村山市三ツ藤3-6-10","lat":35.755802,"lon":139.371822},{"name":"お伊勢の森児童館","province":"東京都","city":"武蔵村山市","address":"武蔵村山市中央2-117-1","lat":35.7508,"lon":139.39337},{"name":"さいかち児童館","province":"東京都","city":"武蔵村山市","address":"武蔵村山市緑が丘1460","lat":35.74046,"lon":139.40483},{"name":"山王森児童館","province":"東京都","city":"武蔵村山市","address":"武蔵村山市三ツ藤3-6-10","lat":35.75573,"lon":139.3721},{"name":"＊?歴史民俗資料館","province":"東京都","city":"武蔵村山市","address":"武蔵村山市本町5-21-1","lat":35.762357,"lon":139.387322},{"name":"＊?残堀・伊奈平地区図書館","province":"東京都","city":"武蔵村山市","address":"武蔵村山市残堀1-60-3","lat":35.746169,"lon":139.375101},{"name":"＊?三ツ木地区図書館","province":"東京都","city":"武蔵村山市","address":"武蔵村山市三ツ木2-39-2","lat":35.758531,"lon":139.368584},{"name":"＊?大南地区図書館","province":"東京都","city":"武蔵村山市","address":"武蔵村山市大南5-1-69","lat":35.735662,"lon":139.40584},{"name":"＊?雷塚地区図書館","province":"東京都","city":"武蔵村山市","address":"武蔵村山市学園4-4","lat":35.745877,"lon":139.400497},{"name":"＊?中藤地区図書館","province":"東京都","city":"武蔵村山市","address":"武蔵村山市中藤3-16","lat":35.756927,"lon":139.400763},{"name":"＊?中久保図書館","province":"東京都","city":"武蔵村山市","address":"武蔵村山市本町2-77-1","lat":35.754543,"lon":139.382963},{"name":"お伊勢の森児童館","province":"東京都","city":"武蔵村山市","address":"武蔵村山市中央2-117-1","lat":35.750828,"lon":139.393287},{"name":"山王森児童館","province":"東京都","city":"武蔵村山市","address":"武蔵村山市三ツ藤3-6-10","lat":35.755802,"lon":139.371822},{"name":"お伊勢の森児童館","province":"東京都","city":"武蔵村山市","address":"武蔵村山市中央2-117-1","lat":35.7508,"lon":139.39337},{"name":"さいかち児童館","province":"東京都","city":"武蔵村山市","address":"武蔵村山市緑が丘1460","lat":35.74046,"lon":139.40483},{"name":"山王森児童館","province":"東京都","city":"武蔵村山市","address":"武蔵村山市三ツ藤3-6-10","lat":35.75573,"lon":139.3721},{"name":"＊?歴史民俗資料館","province":"東京都","city":"武蔵村山市","address":"武蔵村山市本町5-21-1","lat":35.762357,"lon":139.387322},{"name":"＊?残堀・伊奈平地区図書館","province":"東京都","city":"武蔵村山市","address":"武蔵村山市残堀1-60-3","lat":35.746169,"lon":139.375101},{"name":"＊?三ツ木地区図書館","province":"東京都","city":"武蔵村山市","address":"武蔵村山市三ツ木2-39-2","lat":35.758531,"lon":139.368584},{"name":"＊?大南地区図書館","province":"東京都","city":"武蔵村山市","address":"武蔵村山市大南5-1-69","lat":35.735662,"lon":139.40584},{"name":"＊?雷塚地区図書館","province":"東京都","city":"武蔵村山市","address":"武蔵村山市学園4-4","lat":35.745877,"lon":139.400497},{"name":"＊?中藤地区図書館","province":"東京都","city":"武蔵村山市","address":"武蔵村山市中藤3-16","lat":35.756927,"lon":139.400763},{"name":"＊?中久保図書館","province":"東京都","city":"武蔵村山市","address":"武蔵村山市本町2-77-1","lat":35.754543,"lon":139.382963},{"name":"お伊勢の森児童館","province":"東京都","city":"武蔵村山市","address":"武蔵村山市中央2-117-1","lat":35.750828,"lon":139.393287},{"name":"山王森児童館","province":"東京都","city":"武蔵村山市","address":"武蔵村山市三ツ藤3-6-10","lat":35.755802,"lon":139.371822},{"name":"お伊勢の森児童館","province":"東京都","city":"武蔵村山市","address":"武蔵村山市中央2-117-1","lat":35.7508,"lon":139.39337},{"name":"さいかち児童館","province":"東京都","city":"武蔵村山市","address":"武蔵村山市緑が丘1460","lat":35.74046,"lon":139.40483},{"name":"山王森児童館","province":"東京都","city":"武蔵村山市","address":"武蔵村山市三ツ藤3-6-10","lat":35.75573,"lon":139.3721},{"name":"＊?歴史民俗資料館","province":"東京都","city":"武蔵村山市","address":"武蔵村山市本町5-21-1","lat":35.762357,"lon":139.387322},{"name":"＊?残堀・伊奈平地区図書館","province":"東京都","city":"武蔵村山市","address":"武蔵村山市残堀1-60-3","lat":35.746169,"lon":139.375101},{"name":"＊?三ツ木地区図書館","province":"東京都","city":"武蔵村山市","address":"武蔵村山市三ツ木2-39-2","lat":35.758531,"lon":139.368584},{"name":"＊?大南地区図書館","province":"東京都","city":"武蔵村山市","address":"武蔵村山市大南5-1-69","lat":35.735662,"lon":139.40584},{"name":"＊?雷塚地区図書館","province":"東京都","city":"武蔵村山市","address":"武蔵村山市学園4-4","lat":35.745877,"lon":139.400497},{"name":"＊?中藤地区図書館","province":"東京都","city":"武蔵村山市","address":"武蔵村山市中藤3-16","lat":35.756927,"lon":139.400763},{"name":"＊?中久保図書館","province":"東京都","city":"武蔵村山市","address":"武蔵村山市本町2-77-1","lat":35.754543,"lon":139.382963},{"name":"お伊勢の森児童館","province":"東京都","city":"武蔵村山市","address":"武蔵村山市中央2-117-1","lat":35.750828,"lon":139.393287},{"name":"山王森児童館","province":"東京都","city":"武蔵村山市","address":"武蔵村山市三ツ藤3-6-10","lat":35.755802,"lon":139.371822},{"name":"お伊勢の森児童館","province":"東京都","city":"武蔵村山市","address":"武蔵村山市中央2-117-1","lat":35.7508,"lon":139.39337},{"name":"さいかち児童館","province":"東京都","city":"武蔵村山市","address":"武蔵村山市緑が丘1460","lat":35.74046,"lon":139.40483},{"name":"山王森児童館","province":"東京都","city":"武蔵村山市","address":"武蔵村山市三ツ藤3-6-10","lat":35.75573,"lon":139.3721},{"name":"＊?歴史民俗資料館","province":"東京都","city":"武蔵村山市","address":"武蔵村山市本町5-21-1","lat":35.762357,"lon":139.387322},{"name":"＊?残堀・伊奈平地区図書館","province":"東京都","city":"武蔵村山市","address":"武蔵村山市残堀1-60-3","lat":35.746169,"lon":139.375101},{"name":"＊?三ツ木地区図書館","province":"東京都","city":"武蔵村山市","address":"武蔵村山市三ツ木2-39-2","lat":35.758531,"lon":139.368584},{"name":"＊?大南地区図書館","province":"東京都","city":"武蔵村山市","address":"武蔵村山市大南5-1-69","lat":35.735662,"lon":139.40584},{"name":"＊?雷塚地区図書館","province":"東京都","city":"武蔵村山市","address":"武蔵村山市学園4-4","lat":35.745877,"lon":139.400497},{"name":"＊?中藤地区図書館","province":"東京都","city":"武蔵村山市","address":"武蔵村山市中藤3-16","lat":35.756927,"lon":139.400763},{"name":"＊?中久保図書館","province":"東京都","city":"武蔵村山市","address":"武蔵村山市本町2-77-1","lat":35.754543,"lon":139.382963},{"name":"お伊勢の森児童館","province":"東京都","city":"武蔵村山市","address":"武蔵村山市中央2-117-1","lat":35.750828,"lon":139.393287},{"name":"山王森児童館","province":"東京都","city":"武蔵村山市","address":"武蔵村山市三ツ藤3-6-10","lat":35.755802,"lon":139.371822},{"name":"お伊勢の森児童館","province":"東京都","city":"武蔵村山市","address":"武蔵村山市中央2-117-1","lat":35.7508,"lon":139.39337},{"name":"さいかち児童館","province":"東京都","city":"武蔵村山市","address":"武蔵村山市緑が丘1460","lat":35.74046,"lon":139.40483},{"name":"山王森児童館","province":"東京都","city":"武蔵村山市","address":"武蔵村山市三ツ藤3-6-10","lat":35.75573,"lon":139.3721},{"name":"＊?歴史民俗資料館","province":"東京都","city":"武蔵村山市","address":"武蔵村山市本町5-21-1","lat":35.762357,"lon":139.387322},{"name":"＊?残堀・伊奈平地区図書館","province":"東京都","city":"武蔵村山市","address":"武蔵村山市残堀1-60-3","lat":35.746169,"lon":139.375101},{"name":"＊?三ツ木地区図書館","province":"東京都","city":"武蔵村山市","address":"武蔵村山市三ツ木2-39-2","lat":35.758531,"lon":139.368584},{"name":"＊?大南地区図書館","province":"東京都","city":"武蔵村山市","address":"武蔵村山市大南5-1-69","lat":35.735662,"lon":139.40584},{"name":"＊?雷塚地区図書館","province":"東京都","city":"武蔵村山市","address":"武蔵村山市学園4-4","lat":35.745877,"lon":139.400497},{"name":"＊?中藤地区図書館","province":"東京都","city":"武蔵村山市","address":"武蔵村山市中藤3-16","lat":35.756927,"lon":139.400763},{"name":"＊?中久保図書館","province":"東京都","city":"武蔵村山市","address":"武蔵村山市本町2-77-1","lat":35.754543,"lon":139.382963},{"name":"お伊勢の森児童館","province":"東京都","city":"武蔵村山市","address":"武蔵村山市中央2-117-1","lat":35.750828,"lon":139.393287},{"name":"山王森児童館","province":"東京都","city":"武蔵村山市","address":"武蔵村山市三ツ藤3-6-10","lat":35.755802,"lon":139.371822},{"name":"お伊勢の森児童館","province":"東京都","city":"武蔵村山市","address":"武蔵村山市中央2-117-1","lat":35.7508,"lon":139.39337},{"name":"さいかち児童館","province":"東京都","city":"武蔵村山市","address":"武蔵村山市緑が丘1460","lat":35.74046,"lon":139.40483},{"name":"山王森児童館","province":"東京都","city":"武蔵村山市","address":"武蔵村山市三ツ藤3-6-10","lat":35.75573,"lon":139.3721},{"name":"＊?歴史民俗資料館","province":"東京都","city":"武蔵村山市","address":"武蔵村山市本町5-21-1","lat":35.762357,"lon":139.387322},{"name":"＊?残堀・伊奈平地区図書館","province":"東京都","city":"武蔵村山市","address":"武蔵村山市残堀1-60-3","lat":35.746169,"lon":139.375101},{"name":"＊?三ツ木地区図書館","province":"東京都","city":"武蔵村山市","address":"武蔵村山市三ツ木2-39-2","lat":35.758531,"lon":139.368584},{"name":"＊?大南地区図書館","province":"東京都","city":"武蔵村山市","address":"武蔵村山市大南5-1-69","lat":35.735662,"lon":139.40584},{"name":"＊?雷塚地区図書館","province":"東京都","city":"武蔵村山市","address":"武蔵村山市学園4-4","lat":35.745877,"lon":139.400497},{"name":"＊?中藤地区図書館","province":"東京都","city":"武蔵村山市","address":"武蔵村山市中藤3-16","lat":35.756927,"lon":139.400763},{"name":"＊?中久保図書館","province":"東京都","city":"武蔵村山市","address":"武蔵村山市本町2-77-1","lat":35.754543,"lon":139.382963},{"name":"お伊勢の森児童館","province":"東京都","city":"武蔵村山市","address":"武蔵村山市中央2-117-1","lat":35.750828,"lon":139.393287},{"name":"山王森児童館","province":"東京都","city":"武蔵村山市","address":"武蔵村山市三ツ藤3-6-10","lat":35.755802,"lon":139.371822},{"name":"お伊勢の森児童館","province":"東京都","city":"武蔵村山市","address":"武蔵村山市中央2-117-1","lat":35.7508,"lon":139.39337},{"name":"さいかち児童館","province":"東京都","city":"武蔵村山市","address":"武蔵村山市緑が丘1460","lat":35.74046,"lon":139.40483},{"name":"山王森児童館","province":"東京都","city":"武蔵村山市","address":"武蔵村山市三ツ藤3-6-10","lat":35.75573,"lon":139.3721},{"name":"＊?歴史民俗資料館","province":"東京都","city":"武蔵村山市","address":"武蔵村山市本町5-21-1","lat":35.762357,"lon":139.387322},{"name":"＊?残堀・伊奈平地区図書館","province":"東京都","city":"武蔵村山市","address":"武蔵村山市残堀1-60-3","lat":35.746169,"lon":139.375101},{"name":"＊?三ツ木地区図書館","province":"東京都","city":"武蔵村山市","address":"武蔵村山市三ツ木2-39-2","lat":35.758531,"lon":139.368584},{"name":"＊?大南地区図書館","province":"東京都","city":"武蔵村山市","address":"武蔵村山市大南5-1-69","lat":35.735662,"lon":139.40584},{"name":"＊?雷塚地区図書館","province":"東京都","city":"武蔵村山市","address":"武蔵村山市学園4-4","lat":35.745877,"lon":139.400497},{"name":"＊?中藤地区図書館","province":"東京都","city":"武蔵村山市","address":"武蔵村山市中藤3-16","lat":35.756927,"lon":139.400763},{"name":"＊?中久保図書館","province":"東京都","city":"武蔵村山市","address":"武蔵村山市本町2-77-1","lat":35.754543,"lon":139.382963},{"name":"お伊勢の森児童館","province":"東京都","city":"武蔵村山市","address":"武蔵村山市中央2-117-1","lat":35.750828,"lon":139.393287},{"name":"山王森児童館","province":"東京都","city":"武蔵村山市","address":"武蔵村山市三ツ藤3-6-10","lat":35.755802,"lon":139.371822},{"name":"お伊勢の森児童館","province":"東京都","city":"武蔵村山市","address":"武蔵村山市中央2-117-1","lat":35.7508,"lon":139.39337},{"name":"さいかち児童館","province":"東京都","city":"武蔵村山市","address":"武蔵村山市緑が丘1460","lat":35.74046,"lon":139.40483},{"name":"山王森児童館","province":"東京都","city":"武蔵村山市","address":"武蔵村山市三ツ藤3-6-10","lat":35.75573,"lon":139.3721},{"name":"＊?歴史民俗資料館","province":"東京都","city":"武蔵村山市","address":"武蔵村山市本町5-21-1","lat":35.762357,"lon":139.387322},{"name":"＊?残堀・伊奈平地区図書館","province":"東京都","city":"武蔵村山市","address":"武蔵村山市残堀1-60-3","lat":35.746169,"lon":139.375101},{"name":"＊?三ツ木地区図書館","province":"東京都","city":"武蔵村山市","address":"武蔵村山市三ツ木2-39-2","lat":35.758531,"lon":139.368584},{"name":"＊?大南地区図書館","province":"東京都","city":"武蔵村山市","address":"武蔵村山市大南5-1-69","lat":35.735662,"lon":139.40584},{"name":"＊?雷塚地区図書館","province":"東京都","city":"武蔵村山市","address":"武蔵村山市学園4-4","lat":35.745877,"lon":139.400497},{"name":"＊?中藤地区図書館","province":"東京都","city":"武蔵村山市","address":"武蔵村山市中藤3-16","lat":35.756927,"lon":139.400763},{"name":"＊?中久保図書館","province":"東京都","city":"武蔵村山市","address":"武蔵村山市本町2-77-1","lat":35.754543,"lon":139.382963},{"name":"お伊勢の森児童館","province":"東京都","city":"武蔵村山市","address":"武蔵村山市中央2-117-1","lat":35.750828,"lon":139.393287},{"name":"山王森児童館","province":"東京都","city":"武蔵村山市","address":"武蔵村山市三ツ藤3-6-10","lat":35.755802,"lon":139.371822},{"name":"お伊勢の森児童館","province":"東京都","city":"武蔵村山市","address":"武蔵村山市中央2-117-1","lat":35.7508,"lon":139.39337},{"name":"さいかち児童館","province":"東京都","city":"武蔵村山市","address":"武蔵村山市緑が丘1460","lat":35.74046,"lon":139.40483},{"name":"山王森児童館","province":"東京都","city":"武蔵村山市","address":"武蔵村山市三ツ藤3-6-10","lat":35.75573,"lon":139.3721},{"name":"＊?歴史民俗資料館","province":"東京都","city":"武蔵村山市","address":"武蔵村山市本町5-21-1","lat":35.762357,"lon":139.387322},{"name":"＊?残堀・伊奈平地区図書館","province":"東京都","city":"武蔵村山市","address":"武蔵村山市残堀1-60-3","lat":35.746169,"lon":139.375101},{"name":"＊?三ツ木地区図書館","province":"東京都","city":"武蔵村山市","address":"武蔵村山市三ツ木2-39-2","lat":35.758531,"lon":139.368584},{"name":"＊?大南地区図書館","province":"東京都","city":"武蔵村山市","address":"武蔵村山市大南5-1-69","lat":35.735662,"lon":139.40584},{"name":"＊?雷塚地区図書館","province":"東京都","city":"武蔵村山市","address":"武蔵村山市学園4-4","lat":35.745877,"lon":139.400497},{"name":"＊?中藤地区図書館","province":"東京都","city":"武蔵村山市","address":"武蔵村山市中藤3-16","lat":35.756927,"lon":139.400763},{"name":"＊?中久保図書館","province":"東京都","city":"武蔵村山市","address":"武蔵村山市本町2-77-1","lat":35.754543,"lon":139.382963},{"name":"お伊勢の森児童館","province":"東京都","city":"武蔵村山市","address":"武蔵村山市中央2-117-1","lat":35.750828,"lon":139.393287},{"name":"山王森児童館","province":"東京都","city":"武蔵村山市","address":"武蔵村山市三ツ藤3-6-10","lat":35.755802,"lon":139.371822},{"name":"お伊勢の森児童館","province":"東京都","city":"武蔵村山市","address":"武蔵村山市中央2-117-1","lat":35.7508,"lon":139.39337},{"name":"さいかち児童館","province":"東京都","city":"武蔵村山市","address":"武蔵村山市緑が丘1460","lat":35.74046,"lon":139.40483},{"name":"山王森児童館","province":"東京都","city":"武蔵村山市","address":"武蔵村山市三ツ藤3-6-10","lat":35.75573,"lon":139.3721},{"name":"＊?歴史民俗資料館","province":"東京都","city":"武蔵村山市","address":"武蔵村山市本町5-21-1","lat":35.762357,"lon":139.387322},{"name":"＊?残堀・伊奈平地区図書館","province":"東京都","city":"武蔵村山市","address":"武蔵村山市残堀1-60-3","lat":35.746169,"lon":139.375101},{"name":"＊?三ツ木地区図書館","province":"東京都","city":"武蔵村山市","address":"武蔵村山市三ツ木2-39-2","lat":35.758531,"lon":139.368584},{"name":"＊?大南地区図書館","province":"東京都","city":"武蔵村山市","address":"武蔵村山市大南5-1-69","lat":35.735662,"lon":139.40584},{"name":"＊?雷塚地区図書館","province":"東京都","city":"武蔵村山市","address":"武蔵村山市学園4-4","lat":35.745877,"lon":139.400497},{"name":"＊?中藤地区図書館","province":"東京都","city":"武蔵村山市","address":"武蔵村山市中藤3-16","lat":35.756927,"lon":139.400763},{"name":"＊?中久保図書館","province":"東京都","city":"武蔵村山市","address":"武蔵村山市本町2-77-1","lat":35.754543,"lon":139.382963},{"name":"お伊勢の森児童館","province":"東京都","city":"武蔵村山市","address":"武蔵村山市中央2-117-1","lat":35.750828,"lon":139.393287},{"name":"山王森児童館","province":"東京都","city":"武蔵村山市","address":"武蔵村山市三ツ藤3-6-10","lat":35.755802,"lon":139.371822},{"name":"お伊勢の森児童館","province":"東京都","city":"武蔵村山市","address":"武蔵村山市中央2-117-1","lat":35.7508,"lon":139.39337},{"name":"さいかち児童館","province":"東京都","city":"武蔵村山市","address":"武蔵村山市緑が丘1460","lat":35.74046,"lon":139.40483},{"name":"山王森児童館","province":"東京都","city":"武蔵村山市","address":"武蔵村山市三ツ藤3-6-10","lat":35.75573,"lon":139.3721},{"name":"＊?歴史民俗資料館","province":"東京都","city":"武蔵村山市","address":"武蔵村山市本町5-21-1","lat":35.762357,"lon":139.387322},{"name":"＊?残堀・伊奈平地区図書館","province":"東京都","city":"武蔵村山市","address":"武蔵村山市残堀1-60-3","lat":35.746169,"lon":139.375101},{"name":"＊?三ツ木地区図書館","province":"東京都","city":"武蔵村山市","address":"武蔵村山市三ツ木2-39-2","lat":35.758531,"lon":139.368584},{"name":"＊?大南地区図書館","province":"東京都","city":"武蔵村山市","address":"武蔵村山市大南5-1-69","lat":35.735662,"lon":139.40584},{"name":"＊?雷塚地区図書館","province":"東京都","city":"武蔵村山市","address":"武蔵村山市学園4-4","lat":35.745877,"lon":139.400497},{"name":"＊?中藤地区図書館","province":"東京都","city":"武蔵村山市","address":"武蔵村山市中藤3-16","lat":35.756927,"lon":139.400763},{"name":"＊?中久保図書館","province":"東京都","city":"武蔵村山市","address":"武蔵村山市本町2-77-1","lat":35.754543,"lon":139.382963},{"name":"お伊勢の森児童館","province":"東京都","city":"武蔵村山市","address":"武蔵村山市中央2-117-1","lat":35.750828,"lon":139.393287},{"name":"山王森児童館","province":"東京都","city":"武蔵村山市","address":"武蔵村山市三ツ藤3-6-10","lat":35.755802,"lon":139.371822},{"name":"お伊勢の森児童館","province":"東京都","city":"武蔵村山市","address":"武蔵村山市中央2-117-1","lat":35.7508,"lon":139.39337},{"name":"さいかち児童館","province":"東京都","city":"武蔵村山市","address":"武蔵村山市緑が丘1460","lat":35.74046,"lon":139.40483},{"name":"山王森児童館","province":"東京都","city":"武蔵村山市","address":"武蔵村山市三ツ藤3-6-10","lat":35.75573,"lon":139.3721},{"name":"＊?歴史民俗資料館","province":"東京都","city":"武蔵村山市","address":"武蔵村山市本町5-21-1","lat":35.762357,"lon":139.387322},{"name":"＊?残堀・伊奈平地区図書館","province":"東京都","city":"武蔵村山市","address":"武蔵村山市残堀1-60-3","lat":35.746169,"lon":139.375101},{"name":"＊?三ツ木地区図書館","province":"東京都","city":"武蔵村山市","address":"武蔵村山市三ツ木2-39-2","lat":35.758531,"lon":139.368584},{"name":"＊?大南地区図書館","province":"東京都","city":"武蔵村山市","address":"武蔵村山市大南5-1-69","lat":35.735662,"lon":139.40584},{"name":"＊?雷塚地区図書館","province":"東京都","city":"武蔵村山市","address":"武蔵村山市学園4-4","lat":35.745877,"lon":139.400497},{"name":"＊?中藤地区図書館","province":"東京都","city":"武蔵村山市","address":"武蔵村山市中藤3-16","lat":35.756927,"lon":139.400763},{"name":"＊?中久保図書館","province":"東京都","city":"武蔵村山市","address":"武蔵村山市本町2-77-1","lat":35.754543,"lon":139.382963},{"name":"お伊勢の森児童館","province":"東京都","city":"武蔵村山市","address":"武蔵村山市中央2-117-1","lat":35.750828,"lon":139.393287},{"name":"山王森児童館","province":"東京都","city":"武蔵村山市","address":"武蔵村山市三ツ藤3-6-10","lat":35.755802,"lon":139.371822},{"name":"お伊勢の森児童館","province":"東京都","city":"武蔵村山市","address":"武蔵村山市中央2-117-1","lat":35.7508,"lon":139.39337},{"name":"さいかち児童館","province":"東京都","city":"武蔵村山市","address":"武蔵村山市緑が丘1460","lat":35.74046,"lon":139.40483},{"name":"山王森児童館","province":"東京都","city":"武蔵村山市","address":"武蔵村山市三ツ藤3-6-10","lat":35.75573,"lon":139.3721},{"name":"＊?歴史民俗資料館","province":"東京都","city":"武蔵村山市","address":"武蔵村山市本町5-21-1","lat":35.762357,"lon":139.387322},{"name":"＊?残堀・伊奈平地区図書館","province":"東京都","city":"武蔵村山市","address":"武蔵村山市残堀1-60-3","lat":35.746169,"lon":139.375101},{"name":"＊?三ツ木地区図書館","province":"東京都","city":"武蔵村山市","address":"武蔵村山市三ツ木2-39-2","lat":35.758531,"lon":139.368584},{"name":"＊?大南地区図書館","province":"東京都","city":"武蔵村山市","address":"武蔵村山市大南5-1-69","lat":35.735662,"lon":139.40584},{"name":"＊?雷塚地区図書館","province":"東京都","city":"武蔵村山市","address":"武蔵村山市学園4-4","lat":35.745877,"lon":139.400497},{"name":"＊?中藤地区図書館","province":"東京都","city":"武蔵村山市","address":"武蔵村山市中藤3-16","lat":35.756927,"lon":139.400763},{"name":"＊?中久保図書館","province":"東京都","city":"武蔵村山市","address":"武蔵村山市本町2-77-1","lat":35.754543,"lon":139.382963},{"name":"お伊勢の森児童館","province":"東京都","city":"武蔵村山市","address":"武蔵村山市中央2-117-1","lat":35.750828,"lon":139.393287},{"name":"山王森児童館","province":"東京都","city":"武蔵村山市","address":"武蔵村山市三ツ藤3-6-10","lat":35.755802,"lon":139.371822},{"name":"お伊勢の森児童館","province":"東京都","city":"武蔵村山市","address":"武蔵村山市中央2-117-1","lat":35.7508,"lon":139.39337},{"name":"さいかち児童館","province":"東京都","city":"武蔵村山市","address":"武蔵村山市緑が丘1460","lat":35.74046,"lon":139.40483},{"name":"山王森児童館","province":"東京都","city":"武蔵村山市","address":"武蔵村山市三ツ藤3-6-10","lat":35.75573,"lon":139.3721},{"name":"＊?歴史民俗資料館","province":"東京都","city":"武蔵村山市","address":"武蔵村山市本町5-21-1","lat":35.762357,"lon":139.387322},{"name":"＊?残堀・伊奈平地区図書館","province":"東京都","city":"武蔵村山市","address":"武蔵村山市残堀1-60-3","lat":35.746169,"lon":139.375101},{"name":"＊?三ツ木地区図書館","province":"東京都","city":"武蔵村山市","address":"武蔵村山市三ツ木2-39-2","lat":35.758531,"lon":139.368584},{"name":"＊?大南地区図書館","province":"東京都","city":"武蔵村山市","address":"武蔵村山市大南5-1-69","lat":35.735662,"lon":139.40584},{"name":"＊?雷塚地区図書館","province":"東京都","city":"武蔵村山市","address":"武蔵村山市学園4-4","lat":35.745877,"lon":139.400497},{"name":"＊?中藤地区図書館","province":"東京都","city":"武蔵村山市","address":"武蔵村山市中藤3-16","lat":35.756927,"lon":139.400763},{"name":"＊?中久保図書館","province":"東京都","city":"武蔵村山市","address":"武蔵村山市本町2-77-1","lat":35.754543,"lon":139.382963},{"name":"お伊勢の森児童館","province":"東京都","city":"武蔵村山市","address":"武蔵村山市中央2-117-1","lat":35.750828,"lon":139.393287},{"name":"山王森児童館","province":"東京都","city":"武蔵村山市","address":"武蔵村山市三ツ藤3-6-10","lat":35.755802,"lon":139.371822},{"name":"お伊勢の森児童館","province":"東京都","city":"武蔵村山市","address":"武蔵村山市中央2-117-1","lat":35.7508,"lon":139.39337},{"name":"さいかち児童館","province":"東京都","city":"武蔵村山市","address":"武蔵村山市緑が丘1460","lat":35.74046,"lon":139.40483},{"name":"山王森児童館","province":"東京都","city":"武蔵村山市","address":"武蔵村山市三ツ藤3-6-10","lat":35.75573,"lon":139.3721},{"name":"＊?歴史民俗資料館","province":"東京都","city":"武蔵村山市","address":"武蔵村山市本町5-21-1","lat":35.762357,"lon":139.387322},{"name":"＊?残堀・伊奈平地区図書館","province":"東京都","city":"武蔵村山市","address":"武蔵村山市残堀1-60-3","lat":35.746169,"lon":139.375101},{"name":"＊?三ツ木地区図書館","province":"東京都","city":"武蔵村山市","address":"武蔵村山市三ツ木2-39-2","lat":35.758531,"lon":139.368584},{"name":"＊?大南地区図書館","province":"東京都","city":"武蔵村山市","address":"武蔵村山市大南5-1-69","lat":35.735662,"lon":139.40584},{"name":"＊?雷塚地区図書館","province":"東京都","city":"武蔵村山市","address":"武蔵村山市学園4-4","lat":35.745877,"lon":139.400497},{"name":"＊?中藤地区図書館","province":"東京都","city":"武蔵村山市","address":"武蔵村山市中藤3-16","lat":35.756927,"lon":139.400763},{"name":"＊?中久保図書館","province":"東京都","city":"武蔵村山市","address":"武蔵村山市本町2-77-1","lat":35.754543,"lon":139.382963}]}