{"keyword":"男女","data":[{"name":"NewWork戸塚","province":"神奈川県","city":"横浜市戸塚区","address":"神奈川県横浜市戸塚区戸塚町16-1","lat":35.40092013,"lon":139.53307656},{"name":"（株）メディセオ神奈川ＡＬＣ","province":"神奈川県","city":"横浜市戸塚区","address":"神奈川県横浜市戸塚区吉田町180-9","lat":35.40058,"lon":139.5407},{"name":"NewWork戸塚","province":"神奈川県","city":"横浜市戸塚区","address":"神奈川県横浜市戸塚区戸塚町16-1","lat":35.40092013,"lon":139.53307656},{"name":"（株）メディセオ神奈川ＡＬＣ","province":"神奈川県","city":"横浜市戸塚区","address":"神奈川県横浜市戸塚区吉田町180-9","lat":35.40058,"lon":139.5407},{"name":"NewWork戸塚","province":"神奈川県","city":"横浜市戸塚区","address":"神奈川県横浜市戸塚区戸塚町16-1","lat":35.40092013,"lon":139.53307656},{"name":"NewWork戸塚","province":"神奈川県","city":"横浜市戸塚区","address":"神奈川県横浜市戸塚区戸塚町16-1","lat":35.40092013,"lon":139.53307656},{"name":"NewWork戸塚","province":"神奈川県","city":"横浜市戸塚区","address":"神奈川県横浜市戸塚区戸塚町16-1","lat":35.40092013,"lon":139.53307656},{"name":"NewWork戸塚","province":"神奈川県","city":"横浜市戸塚区","address":"神奈川県横浜市戸塚区戸塚町16-1","lat":35.40092013,"lon":139.53307656},{"name":"NewWork戸塚","province":"神奈川県","city":"横浜市戸塚区","address":"神奈川県横浜市戸塚区戸塚町16-1","lat":35.40092013,"lon":139.53307656},{"name":"NewWork戸塚","province":"神奈川県","city":"横浜市戸塚区","address":"神奈川県横浜市戸塚区戸塚町16-1","lat":35.40092013,"lon":139.53307656},{"name":"NewWork戸塚","province":"神奈川県","city":"横浜市戸塚区","address":"神奈川県横浜市戸塚区戸塚町16-1","lat":35.40092013,"lon":139.53307656},{"name":"NewWork戸塚","province":"神奈川県","city":"横浜市戸塚区","address":"神奈川県横浜市戸塚区戸塚町16-1","lat":35.40092013,"lon":139.53307656},{"name":"NewWork戸塚","province":"神奈川県","city":"横浜市戸塚区","address":"神奈川県横浜市戸塚区戸塚町16-1","lat":35.40092013,"lon":139.53307656},{"name":"NewWork戸塚","province":"神奈川県","city":"横浜市戸塚区","address":"神奈川県横浜市戸塚区戸塚町16-1","lat":35.40092013,"lon":139.53307656},{"name":"NewWork戸塚","province":"神奈川県","city":"横浜市戸塚区","address":"神奈川県横浜市戸塚区戸塚町16-1","lat":35.40092013,"lon":139.53307656},{"name":"NewWork戸塚","province":"神奈川県","city":"横浜市戸塚区","address":"神奈川県横浜市戸塚区戸塚町16-1","lat":35.40092013,"lon":139.53307656},{"name":"NewWork戸塚","province":"神奈川県","city":"横浜市戸塚区","address":"神奈川県横浜市戸塚区戸塚町16-1","lat":35.40092013,"lon":139.53307656},{"name":"NewWork戸塚","province":"神奈川県","city":"横浜市戸塚区","address":"神奈川県横浜市戸塚区戸塚町16-1","lat":35.40092013,"lon":139.53307656},{"name":"NewWork戸塚","province":"神奈川県","city":"横浜市戸塚区","address":"神奈川県横浜市戸塚区戸塚町16-1","lat":35.40092013,"lon":139.53307656},{"name":"NewWork戸塚","province":"神奈川県","city":"横浜市戸塚区","address":"神奈川県横浜市戸塚区戸塚町16-1","lat":35.40092013,"lon":139.53307656},{"name":"NewWork戸塚","province":"神奈川県","city":"横浜市戸塚区","address":"神奈川県横浜市戸塚区戸塚町16-1","lat":35.40092013,"lon":139.53307656},{"name":"NewWork戸塚","province":"神奈川県","city":"横浜市戸塚区","address":"神奈川県横浜市戸塚区戸塚町16-1","lat":35.40092013,"lon":139.53307656},{"name":"NewWork戸塚","province":"神奈川県","city":"横浜市戸塚区","address":"神奈川県横浜市戸塚区戸塚町16-1","lat":35.40092013,"lon":139.53307656},{"name":"NewWork戸塚","province":"神奈川県","city":"横浜市戸塚区","address":"神奈川県横浜市戸塚区戸塚町16-1","lat":35.40092013,"lon":139.53307656},{"name":"NewWork戸塚","province":"神奈川県","city":"横浜市戸塚区","address":"神奈川県横浜市戸塚区戸塚町16-1","lat":35.40092013,"lon":139.53307656}]}