{"category":"wireless","data":[{"name":"麻布十番駅地下","province":"東京都","city":"港区","address":"東京都港区麻布十番1丁目2","lat":35.6567087,"lon":139.73647254},{"name":"五色橋教育庁","province":"東京都","city":"港区","address":"東京都港区港南3丁目1-26","lat":35.63463387,"lon":139.75040273},{"name":"東京都済生会中央病院","province":"東京都","city":"港区","address":"東京都港区三田1丁目4-17","lat":35.65404529,"lon":139.74356645},{"name":"東京慈恵会医科大学附属病院","province":"東京都","city":"港区","address":"東京都港区西新橋3丁目19-18","lat":35.6636611,"lon":139.75126545},{"name":"北里大学北里研究所病院","province":"東京都","city":"港区","address":"東京都港区白金5丁目9-1","lat":35.64559303,"lon":139.72544895},{"name":"芝給水所","province":"東京都","city":"港区","address":"東京都港区芝公園3丁目6-7","lat":35.66128065,"lon":139.74511884},{"name":"都立青山公園","province":"東京都","city":"港区","address":"東京都港区六本木7丁目23","lat":35.66340494,"lon":139.72510664},{"name":"シティハイツ桂坂（港区防災活動拠点）","province":"東京都","city":"港区","address":"東京都港区高輪2丁目13-8","lat":35.63454181,"lon":139.73785377},{"name":"北里研究所病院","province":"東京都","city":"港区","address":"東京都港区白金5丁目9-1","lat":35.64559303,"lon":139.72544895},{"name":"芝浦排水機場","province":"東京都","city":"港区","address":"東京都港区港南3丁目9-63","lat":35.63486722,"lon":139.75208869},{"name":"計量検定所","province":"東京都","city":"港区","address":"東京都港区海岸1丁目7-4","lat":35.65533448,"lon":139.76116768},{"name":"島しょ農林水産総合センター","province":"東京都","city":"港区","address":"東京都港区海岸2丁目7-104","lat":35.65068776,"lon":139.76047345},{"name":"産業貿易センター浜松町館","province":"東京都","city":"港区","address":"東京都港区海岸1丁目7-8","lat":35.65482622,"lon":139.76147045},{"name":"東京港建設事務所","province":"東京都","city":"港区","address":"東京都港区港南3丁目9-56","lat":35.63343128,"lon":139.75198321},{"name":"台場フロンティアビル","province":"東京都","city":"港区","address":"東京都港区台場2丁目3-2","lat":35.6286435,"lon":139.7778532},{"name":"ニューピア竹芝ノースタワー（ニューピアホール）","province":"東京都","city":"港区","address":"東京都港区海岸1丁目11-1","lat":35.65570119,"lon":139.76375079},{"name":"三田高等学校","province":"東京都","city":"港区","address":"東京都港区三田1丁目4-46","lat":35.65236491,"lon":139.7434554},{"name":"芝商業高等学校","province":"東京都","city":"港区","address":"東京都港区海岸1丁目8-25","lat":35.65652323,"lon":139.76054825},{"name":"六本木高等学校","province":"東京都","city":"港区","address":"東京都港区六本木6丁目16-36","lat":35.65773624,"lon":139.73120909},{"name":"東京都立中央図書館","province":"東京都","city":"港区","address":"東京都港区南麻布5丁目7-13","lat":35.65211452,"lon":139.72637084},{"name":"ホテルアジュール竹芝","province":"東京都","city":"港区","address":"東京都港区海岸1丁目11-2","lat":35.655304,"lon":139.76326473},{"name":"芝浦ふ頭","province":"東京都","city":"港区","address":"東京都港区海岸3丁目","lat":35.64538548,"lon":139.75711002},{"name":"品川ふ頭","province":"東京都","city":"港区","address":"東京都港区港南5丁目","lat":35.62511297,"lon":139.75680258},{"name":"竹芝ふ頭","province":"東京都","city":"港区","address":"東京都港区海岸1丁目","lat":35.65311254,"lon":139.76222323},{"name":"日の出ふ頭","province":"東京都","city":"港区","address":"東京都港区海岸2丁目","lat":35.65130158,"lon":139.76054565},{"name":"港区スポーツセンター","province":"東京都","city":"港区","address":"東京都港区芝浦3丁目1-19","lat":35.64547419,"lon":139.75030505},{"name":"品川ふ頭","province":"東京都","city":"港区","address":"東京都港区港南5丁目","lat":35.62511297,"lon":139.75680258},{"name":"虎ノ門駅9番口","province":"東京都","city":"港区","address":"東京都港区虎ノ門一丁目1番15号","lat":35.669865,"lon":139.751303,"ID":"EE0000000001","名称_カナ":"トラノモンエキ9バングチ"},{"name":"内幸町駅A4番口","province":"東京都","city":"港区","address":"東京都港区西新橋一丁目3番12号","lat":35.668889,"lon":139.754194,"ID":"EE0000000002","名称_カナ":"ウチサイワイチョウエキA4バングチ"},{"name":"新橋駅銀座口","province":"東京都","city":"港区","address":"東京都港区新橋一丁目11番","lat":35.667359,"lon":139.758966,"ID":"EE0000000003","名称_カナ":"シンバシエキギンザクチ"},{"name":"海洋船舶ビル前","province":"東京都","city":"港区","address":"東京都港区虎ノ門一丁目15番16号","lat":35.669506,"lon":139.748946,"ID":"EE0000000131","名称_カナ":"カイヨウセンパクビルマエ"},{"name":"第2岡名ビル前","province":"東京都","city":"港区","address":"東京都港区新橋一丁目24番16号","lat":35.668772,"lon":139.751228,"ID":"EE0000000132","名称_カナ":"ダイ2オカナビルマエ"},{"name":"新橋駅前西口広場","province":"東京都","city":"港区","address":"東京都港区新橋二丁目16番1号","lat":35.667038,"lon":139.757554,"ID":"EE0000000004","名称_カナ":"シンバシエキマエニシグチヒロバ"},{"name":"新橋駅前西口広場2","province":"東京都","city":"港区","address":"東京都港区新橋二丁目16番1号","lat":35.666869,"lon":139.75745,"ID":"EE0000000005","名称_カナ":"シンバシエキマエニシグチヒロバ2"},{"name":"神谷町駅4番口","province":"東京都","city":"港区","address":"東京都港区虎ノ門五丁目1番8号","lat":35.663448,"lon":139.745311,"ID":"EE0000000006","名称_カナ":"カミヤチョウエキ4バングチ"},{"name":"慈恵大学旧館裏門","province":"東京都","city":"港区","address":"東京都港区西新橋三丁目25番8号","lat":35.662551,"lon":139.749532,"ID":"EE0000000133","名称_カナ":"ジケイダイガクキュウカンウラモン"},{"name":"百楽ビル前","province":"東京都","city":"港区","address":"東京都港区新橋五丁目8番1号","lat":35.663898,"lon":139.755106,"ID":"EE0000000134","名称_カナ":"ヒャクラクビルマエ"},{"name":"御成門駅A5番口","province":"東京都","city":"港区","address":"東京都港区西新橋三丁目24番","lat":35.661268,"lon":139.751402,"ID":"EE0000000007","名称_カナ":"オナリモンエキA5バングチ"},{"name":"港区本庁舎(芝地区総合支所)","province":"東京都","city":"港区","address":"東京都港区芝公園一丁目5番25号","lat":35.65802,"lon":139.751476,"ID":"EE0000000008","名称_カナ":"ミナトクホンチョウシャ(シバチクソウゴウシショ)"},{"name":"大門駅A6番口","province":"東京都","city":"港区","address":"東京都港区芝大門二丁目3番1号","lat":35.656786,"lon":139.753784,"ID":"EE0000000009","名称_カナ":"ダイモンエキA6バングチ"},{"name":"浜松町駅北口","province":"東京都","city":"港区","address":"東京都港区浜松町二丁目4番1号","lat":35.656527,"lon":139.756391,"ID":"EE0000000010","名称_カナ":"ハママツチョウエキキタグチ"},{"name":"都営芝公園駅前出入口方","province":"東京都","city":"港区","address":"東京都港区芝公園二丁目7番1号","lat":35.65405,"lon":139.75016,"ID":"EE0000000135","名称_カナ":"トエイシバコウエンエキマエデイリグチカタ"},{"name":"竹芝客船ターミナル公園入口","province":"東京都","city":"港区","address":"東京都港区海岸一丁目12番2号","lat":35.65501,"lon":139.76267,"ID":"EE0000000136","名称_カナ":"タケシバキャクセンターミナルコウエンイリグチ"},{"name":"田町駅三田口","province":"東京都","city":"港区","address":"東京都港区芝五丁目34番","lat":35.646297,"lon":139.747229,"ID":"EE0000000011","名称_カナ":"タマチエキミタグチ"},{"name":"乃木坂駅駅前郵便局付近","province":"東京都","city":"港区","address":"東京都港区六本木七丁目3番10号","lat":35.666466,"lon":139.727938,"ID":"EE0000000013","名称_カナ":"ノギザカエキエキマエユウビンキョクフキン"},{"name":"六本木駅4番口","province":"東京都","city":"港区","address":"東京都港区六本木七丁目14番12号","lat":35.663036,"lon":139.731505,"ID":"EE0000000015","名称_カナ":"ロッポンギエキ4バングチ"},{"name":"六本木駅6番口","province":"東京都","city":"港区","address":"東京都港区六本木四丁目8番5号","lat":35.663946,"lon":139.733384,"ID":"EE0000000014","名称_カナ":"ロッポンギエキ6バングチ"},{"name":"六本木一丁目駅3番口","province":"東京都","city":"港区","address":"東京都港区六本木一丁目4番","lat":35.666436,"lon":139.739212,"ID":"EE0000000012","名称_カナ":"ロッポンギイッチョウメエキ3バングチ"},{"name":"麻布地区総合支所","province":"東京都","city":"港区","address":"東京都港区六本木五丁目16番45号","lat":35.660606,"lon":139.735062,"ID":"EE0000000016","名称_カナ":"アザブチクソウゴウシショ"},{"name":"麻布十番駅5番口","province":"東京都","city":"港区","address":"東京都港区麻布十番一丁目11番8号","lat":35.655585,"lon":139.736938,"ID":"EE0000000017","名称_カナ":"アザブジュウバンエキ5バングチ"},{"name":"ツイン一の橋NO1ビル前","province":"東京都","city":"港区","address":"東京都港区麻布十番四丁目3番","lat":35.65456,"lon":139.73715,"ID":"EE0000000137","名称_カナ":"ツインイチノハシナンバー1ビルマエ"},{"name":"広尾駅1番口","province":"東京都","city":"港区","address":"東京都港区南麻布五丁目15番","lat":35.651159,"lon":139.722362,"ID":"EE0000000018","名称_カナ":"ヒロオエキ1バングチ"},{"name":"有栖川公園広尾門","province":"東京都","city":"港区","address":"東京都港区南麻布五丁目7番1号","lat":35.65146,"lon":139.72394,"ID":"EE0000000138","名称_カナ":"アリスガワコウエンヒロオモン"},{"name":"仙台坂交差点脇","province":"東京都","city":"港区","address":"東京都港区南麻布三丁目3番39号","lat":35.65185,"lon":139.73057,"ID":"EE0000000139","名称_カナ":"センダイザカコウサテンワキ"},{"name":"福泉寺前","province":"東京都","city":"港区","address":"東京都港区南麻布一丁目6番8号","lat":35.65229,"lon":139.73639,"ID":"EE0000000140","名称_カナ":"フクセンジマエ"},{"name":"本村公園前","province":"東京都","city":"港区","address":"東京都港区南麻布三丁目4番","lat":35.65027,"lon":139.73111,"ID":"EE0000000141","名称_カナ":"ホンムラコウエンマエ"},{"name":"みずほ銀行麻布支店前","province":"東京都","city":"港区","address":"東京都港区南麻布二丁目11番4号","lat":35.64776,"lon":139.73633,"ID":"EE0000000142","名称_カナ":"ミズホギンコウアザブシテンマエ"},{"name":"赤坂見附駅豊川稲荷前歩道橋付近","province":"東京都","city":"港区","address":"東京都港区元赤坂一丁目3番9号","lat":35.677096,"lon":139.734456,"ID":"EE0000000019","名称_カナ":"アカサカミツケエキトヨカワイナリマエホドウキョウフキン"},{"name":"赤坂見附駅歩道橋下","province":"東京都","city":"港区","address":"東京都港区赤坂三丁目1番2号","lat":35.6776,"lon":139.7368,"ID":"EE0000000143","名称_カナ":"アカサカミツケエキホドウキョウシタ"},{"name":"赤坂見附駅1番口","province":"東京都","city":"港区","address":"東京都港区赤坂三丁目3番3号","lat":35.675371,"lon":139.738006,"ID":"EE0000000020","名称_カナ":"アカサカミツケエキ1バングチ"},{"name":"赤坂地区総合支所","province":"東京都","city":"港区","address":"東京都港区赤坂四丁目18番13号","lat":35.674754,"lon":139.731628,"ID":"EE0000000021","名称_カナ":"アカサカチクソウゴウシショ"},{"name":"赤坂駅氷川公園付近","province":"東京都","city":"港区","address":"東京都港区赤坂六丁目5番1号","lat":35.671436,"lon":139.7374,"ID":"EE0000000023","名称_カナ":"アカサカエキヒカワコウエンフキン"},{"name":"ランディック第2赤坂ビル前","province":"東京都","city":"港区","address":"東京都港区赤坂二丁目10番9号","lat":35.67011,"lon":139.74173,"ID":"EE0000000144","名称_カナ":"ランディックダイ2アカサカビルマエ"},{"name":"東京スター銀行前","province":"東京都","city":"港区","address":"東京都港区赤坂一丁目6番16号","lat":35.66997,"lon":139.74208,"ID":"EE0000000145","名称_カナ":"トウキョウスターギンコウマエ"},{"name":"青山一丁目駅NTTビル付近","province":"東京都","city":"港区","address":"東京都港区赤坂八丁目4番23号","lat":35.673428,"lon":139.726761,"ID":"EE0000000022","名称_カナ":"アオヤマイッチョウメエキNTTビルフキン"},{"name":"青葉公園","province":"東京都","city":"港区","address":"東京都港区南青山一丁目4番4号","lat":35.67094,"lon":139.72508,"ID":"EE0000000146","名称_カナ":"アオバコウエン"},{"name":"外苑いちょう並木入口","province":"東京都","city":"港区","address":"東京都港区北青山二丁目1番","lat":35.66957,"lon":139.716135,"ID":"EE0000000024","名称_カナ":"ガイエンイチョウナミキイリグチ"},{"name":"外苑前駅外苑前歩道橋付近","province":"東京都","city":"港区","address":"東京都港区北青山二丁目14番","lat":35.670247,"lon":139.716667,"ID":"EE0000000025","名称_カナ":"ガイエンマエエキガイエンマエホドウキョウフキン"},{"name":"表参道駅B5番口","province":"東京都","city":"港区","address":"東京都港区北青山三丁目6番12号","lat":35.665303,"lon":139.712018,"ID":"EE0000000026","名称_カナ":"オモテサンドウエキB5バングチ"},{"name":"表参道駅B3番口","province":"東京都","city":"港区","address":"東京都港区南青山五丁目1番22号","lat":35.664156,"lon":139.711909,"ID":"EE0000000027","名称_カナ":"オモテサンドウエキB3バングチ"},{"name":"高輪地区総合支所","province":"東京都","city":"港区","address":"東京都港区高輪一丁目16番25号","lat":35.641957,"lon":139.73408,"ID":"EE0000000028","名称_カナ":"タカナワチクソウゴウシショ"},{"name":"東海大学専門職大学院横","province":"東京都","city":"港区","address":"東京都港区高輪二丁目3番12号","lat":35.6385,"lon":139.73447,"ID":"EE0000000147","名称_カナ":"トウカイダイガクセンモンショクダイガクインヨコ"},{"name":"東京研修センター三田教室正面前","province":"東京都","city":"港区","address":"東京都港区三田三丁目10番5号","lat":35.64062,"lon":139.74081,"ID":"EE0000000148","名称_カナ":"トウキョウケンシュウセンターミタキョウシツショウメンマエ"},{"name":"大和消火器際","province":"東京都","city":"港区","address":"東京都港区白金台五丁目18番2号","lat":35.63731,"lon":139.72372,"ID":"EE0000000149","名称_カナ":"ダイワショウカキキワ"},{"name":"白金台駅1番口","province":"東京都","city":"港区","address":"東京都港区白金台三丁目14番6号","lat":35.637516,"lon":139.725505,"ID":"EE0000000029","名称_カナ":"シロガネダイエキ1バングチ"},{"name":"明治学院歩道橋下","province":"東京都","city":"港区","address":"東京都港区白金台一丁目2番37号","lat":35.63598,"lon":139.73121,"ID":"EE0000000150","名称_カナ":"メイジガクインホドウキョウシタ"},{"name":"泉岳寺交差点付近","province":"東京都","city":"港区","address":"東京都港区高輪二丁目15番16号","lat":35.636808,"lon":139.738942,"ID":"EE0000000030","名称_カナ":"センガクジコウサテンフキン"},{"name":"港区立高輪公園前","province":"東京都","city":"港区","address":"東京都港区高輪三丁目18番18号","lat":35.63311,"lon":139.73622,"ID":"EE0000000151","名称_カナ":"ミナトクリツタカナワコウエンマエ"},{"name":"芝浦1丁目交差点際","province":"東京都","city":"港区","address":"東京都港区芝浦一丁目4番11号","lat":35.64868,"lon":139.75496,"ID":"EE0000000152","名称_カナ":"シバウラ1チョウメコウサテンキワ"},{"name":"芝浦港南地区総合支所","province":"東京都","city":"港区","address":"東京都港区芝浦一丁目16番1号","lat":35.646566,"lon":139.751907,"ID":"EE0000000031","名称_カナ":"シバウラコウナンチクソウゴウシショ"},{"name":"田町駅芝浦口","province":"東京都","city":"港区","address":"東京都港区芝浦三丁目3番","lat":35.645036,"lon":139.748183,"ID":"EE0000000032","名称_カナ":"タマチエキシバウラグチ"},{"name":"グランパーク前","province":"東京都","city":"港区","address":"東京都港区芝浦三丁目4番19号","lat":35.64335,"lon":139.74679,"ID":"EE0000000153","名称_カナ":"グランパークマエ"},{"name":"芝浦工大前左","province":"東京都","city":"港区","address":"東京都港区芝浦三丁目7番12号","lat":35.64366,"lon":139.74956,"ID":"EE0000000154","名称_カナ":"シバウラコウダイマエヒダリ"},{"name":"品川駅港南口","province":"東京都","city":"港区","address":"東京都港区港南二丁目14番","lat":35.628948,"lon":139.741558,"ID":"EE0000000034","名称_カナ":"シナガワエキコウナングチ"},{"name":"東八ツ山公園前","province":"東京都","city":"港区","address":"東京都港区港南二丁目8番","lat":35.62494,"lon":139.74366,"ID":"EE0000000155","名称_カナ":"ヒガシヤツヤマコウエンマエ"},{"name":"お台場学園前","province":"東京都","city":"港区","address":"東京都港区台場一丁目1番","lat":35.634165,"lon":139.776363,"ID":"EE0000000035","名称_カナ":"オダイバガクエンマエ"},{"name":"お台場レインボー公園前","province":"東京都","city":"港区","address":"東京都港区台場一丁目3番1号","lat":35.632065,"lon":139.778071,"ID":"EE0000000036","名称_カナ":"オダイバレインボーコウエンマエ"},{"name":"お台場海浜公園東口広場","province":"東京都","city":"港区","address":"東京都港区台場一丁目4番","lat":35.631181,"lon":139.777459,"ID":"EE0000000037","名称_カナ":"オダイバカイヒンコウエンヒガシグチヒロバ"},{"name":"お台場海浜公園中央駐車場付近","province":"東京都","city":"港区","address":"東京都港区台場一丁目4番","lat":35.626501,"lon":139.769378,"ID":"EE0000000039","名称_カナ":"オダイバカイヒンコウエンチュウオウチュウシャジョウフキン"},{"name":"台場交差点付近","province":"東京都","city":"港区","address":"東京都港区台場一丁目6番","lat":35.628485,"lon":139.775005,"ID":"EE0000000040","名称_カナ":"ダイバコウサテンフキン"},{"name":"港区役所(芝地区総合支所)","province":"東京都","city":"港区","address":"東京都港区芝公園一丁目5番25号","lat":35.65802,"lon":139.751476,"ID":"EE0000000041","名称_カナ":"ミナトクヤクショ(シバチクソウゴウシショ)"},{"name":"虎ノ門いきいきプラザ","province":"東京都","city":"港区","address":"東京都港区虎ノ門一丁目21番10号","lat":35.667896,"lon":139.748736,"ID":"EE0000000053","名称_カナ":"トラノモンイキイキプラザ"},{"name":"港南いきいきプラザ","province":"東京都","city":"港区","address":"東京都港区港南四丁目2番1号","lat":35.629675,"lon":139.747065,"ID":"EE0000000066","名称_カナ":"コウナンイキイキプラザ"},{"name":"赤坂子ども中高生プラザ 青山館(カリッパ)","province":"東京都","city":"港区","address":"東京都港区北青山三丁目4番1-201号","lat":35.667302,"lon":139.712219,"ID":"EE0000000070","名称_カナ":"アカサカコドモチュウコウセイプラザ アオヤマカン(カリッパ)"},{"name":"障害者グループホーム芝浦","province":"東京都","city":"港区","address":"東京都港区芝浦三丁目5番34号","lat":35.64355,"lon":139.74784,"ID":"EE0000000087","名称_カナ":"ショウガイシャグループホームシバウラ"},{"name":"やすらぎ会館","province":"東京都","city":"港区","address":"東京都港区南青山二丁目34番1号","lat":35.665826,"lon":139.724349,"ID":"EE0000000093","名称_カナ":"ヤスラギカイカン"},{"name":"ふれあいの湯","province":"東京都","city":"港区","address":"東京都港区芝二丁目2番18号","lat":35.653044,"lon":139.752746,"ID":"EE0000000094","名称_カナ":"フレアイノユ"},{"name":"子ども家庭総合支援センター","province":"東京都","city":"港区","address":"東京都港区南青山五丁目7番11号及び12号","lat":35.662774,"lon":139.713122,"ID":"EE0000000101","名称_カナ":"コドモカテイソウゴウシエンセンター"},{"name":"麻布区民協働スペース","province":"東京都","city":"港区","address":"東京都港区六本木五丁目16番46号麻布保育園3階","lat":35.661075,"lon":139.735447,"ID":"EE0000000107","名称_カナ":"アザブクミンキョウドウスペース"},{"name":"高輪台区民協働スペース","province":"東京都","city":"港区","address":"東京都港区高輪三丁目10番16号優っくり村高輪台1階","lat":35.631001,"lon":139.732164,"ID":"EE0000000111","名称_カナ":"タカナワダイクミンキョウドウスペース"},{"name":"三田図書館","province":"東京都","city":"港区","address":"東京都港区芝五丁目36番4号札の辻スクエア4階~6階","lat":35.645225,"lon":139.744764,"ID":"EE0000000115","名称_カナ":"ミタトショカン"},{"name":"産業振興センター","province":"東京都","city":"港区","address":"東京都港区芝五丁目36番4号札の辻スクエア9階~11階","lat":35.645225,"lon":139.744764,"ID":"EE0000000116","名称_カナ":"サンギョウシンコウセンター"},{"name":"子育てひろば あっぴぃ赤坂","province":"東京都","city":"港区","address":"東京都港区赤坂九丁目4番2号パークコート赤坂檜町ザタワー2階","lat":35.668377,"lon":139.729839,"ID":"EE0000000120","名称_カナ":"コソダテヒロバ アッピイアカサカ"},{"name":"子育てひろば あっぴぃ白金台","province":"東京都","city":"港区","address":"東京都港区白金台四丁目6番2号ゆかしの杜1階","lat":35.639161,"lon":139.726711,"ID":"EE0000000121","名称_カナ":"コソダテヒロバ アッピイシロカネダイ"},{"name":"白金台学童クラブ","province":"東京都","city":"港区","address":"東京都港区白金台四丁目6番2号ゆかしの杜6階","lat":35.639144,"lon":139.726727,"ID":"EE0000000126","名称_カナ":"シロカネダイガクドウクラブ"},{"name":"がん在宅緩和ケア支援センター","province":"東京都","city":"港区","address":"東京都港区白金台四丁目6番2号ゆかしの杜5階","lat":35.639085,"lon":139.726394,"ID":"EE0000000158","名称_カナ":"ガンザイタクカンワケアシエンセンター"},{"name":"みなと保育サポート白金","province":"東京都","city":"港区","address":"東京都港区白金三丁目10番12号2階","lat":35.644938,"lon":139.731052,"ID":"EE0000000170","名称_カナ":"ミナトホイクサポートシロガネ"},{"name":"港区国際交流スペース","province":"東京都","city":"港区","address":"東京都港区北青山一丁目6番3号アパート3号棟地下1階","lat":35.674579,"lon":139.721404,"ID":"EE0000000173","名称_カナ":"ミナトクコクサイコウリュウスペース"},{"name":"御成門小学校","province":"東京都","city":"港区","address":"東京都港区芝公園三丁目2番4号","lat":35.660982,"lon":139.749524,"分類":"区民避難所(地域防災拠点)","地区":"芝地区","構造":"鉄骨鉄筋コンクリート造","ふりがな":"おなりもんしょうがっこう","英語名称":"Onarimon Elementary School","電話番号1":"03-3431-2766","電話番号2":"","自治体コード":"131032","一時受入人員可能数":"2104","長期受入人員可能数":"1271"},{"name":"芝小学校","province":"東京都","city":"港区","address":"東京都港区芝二丁目21番3号","lat":35.651298,"lon":139.750139,"分類":"区民避難所(地域防災拠点)","地区":"芝地区","構造":"鉄骨鉄筋コンクリート造","ふりがな":"しばしょうがっこう","英語名称":"Shiba Elementary School","電話番号1":"03-3456-3072","電話番号2":"","自治体コード":"131032","一時受入人員可能数":"855","長期受入人員可能数":"513"},{"name":"札の辻スクエア(産業振興センター)","province":"東京都","city":"港区","address":"東京都港区芝五丁目36番4号","lat":35.645114,"lon":139.744617,"分類":"区民避難所(地域防災拠点)","地区":"芝地区","構造":"鉄筋コンクリート造","ふりがな":"ふだのつじすくえあ(さんぎょうしんこうせんたー)","英語名称":"","電話番号1":"03-6435-3670","電話番号2":"","自治体コード":"131032","一時受入人員可能数":"672","長期受入人員可能数":"407"},{"name":"赤羽小学校","province":"東京都","city":"港区","address":"東京都港区三田一丁目4番52号","lat":35.653237,"lon":139.74248,"分類":"区民避難所(地域防災拠点)","地区":"芝地区","構造":"鉄筋コンクリート造","ふりがな":"あかばねしょうがっこう","英語名称":"Akabane Elementary School","電話番号1":"03-3451-1988","電話番号2":"","自治体コード":"131032","一時受入人員可能数":"1597","長期受入人員可能数":"964"},{"name":"御成門中学校","province":"東京都","city":"港区","address":"東京都港区西新橋三丁目25番30号","lat":35.66164,"lon":139.750329,"分類":"区民避難所(地域防災拠点)","地区":"芝地区","構造":"鉄骨鉄筋コンクリート造","ふりがな":"おなりもんちゅうがっこう","英語名称":"Onarimon Junior High School","電話番号1":"03-3436-3568","電話番号2":"","自治体コード":"131032","一時受入人員可能数":"2536","長期受入人員可能数":"1528"},{"name":"生涯学習センター","province":"東京都","city":"港区","address":"東京都港区西新橋三丁目16番3号","lat":35.665575,"lon":139.757085,"分類":"区民避難所(地域防災拠点)","地区":"芝地区","構造":"鉄骨造","ふりがな":"しょうがいがくしゅうせんたー","英語名称":"Lifelong Learning Center","電話番号1":"03-3431-1606","電話番号2":"","自治体コード":"131032","一時受入人員可能数":"838","長期受入人員可能数":"504"},{"name":"エコプラザ","province":"東京都","city":"港区","address":"東京都港区浜松町一丁目13番1号","lat":35.658866,"lon":139.756851,"分類":"区民避難所(地域防災拠点)","地区":"芝地区","構造":"鉄骨鉄筋コンクリート造","ふりがな":"えこぷらざ","英語名称":"Eco Plaza","電話番号1":"03-5404-7764","電話番号2":"","自治体コード":"131032","一時受入人員可能数":"556","長期受入人員可能数":"335"},{"name":"福祉プラザさくら川","province":"東京都","city":"港区","address":"東京都港区浜松町六丁目19番2号","lat":35.661172,"lon":139.753823,"分類":"区民避難所(地域防災拠点)","地区":"芝地区","構造":"鉄骨鉄筋コンクリート造","ふりがな":"ふくしぷらざさくらがわ","英語名称":"Welfare Plaza Sakuragawa","電話番号1":"03-3433-0180","電話番号2":"","自治体コード":"131032","一時受入人員可能数":"144","長期受入人員可能数":"86"},{"name":"神明子ども中高生プラザ・神明いきいきプラザ","province":"東京都","city":"港区","address":"東京都港区浜松町一丁目6番7号","lat":35.65877,"lon":139.757557,"分類":"区民避難所(地域防災拠点)","地区":"芝地区","構造":"鉄骨鉄筋コンクリート造","ふりがな":"しんめいこどもちゅうこうせいぷらざ・しんめいいきいきぷらざ","英語名称":"Shimmei Kids-to-Teens Hall/Shimmei Iki-iki Plaza","電話番号1":"03-5733-5199","電話番号2":"03-3436-2500","自治体コード":"131032","一時受入人員可能数":"852","長期受入人員可能数":"511"},{"name":"虎ノ門いきいきプラザ","province":"東京都","city":"港区","address":"東京都港区虎ノ門一丁目21番10号","lat":35.667859,"lon":139.748668,"分類":"区民避難所(地域防災拠点)","地区":"芝地区","構造":"鉄骨鉄筋コンクリート造","ふりがな":"とらのもんいきいきぷらざ","英語名称":"Toranomon Iki-iki Plaza","電話番号1":"03-3539-2941","電話番号2":"","自治体コード":"131032","一時受入人員可能数":"132","長期受入人員可能数":"79"},{"name":"三田いきいきプラザ","province":"東京都","city":"港区","address":"東京都港区芝四丁目1番17号","lat":35.648781,"lon":139.749768,"分類":"区民避難所(地域防災拠点)","地区":"高輪地区","構造":"鉄筋コンクリート造","ふりがな":"みたいきいきぷらざ","英語名称":"Mita Iki-iki Plaza","電話番号1":"03-3452-9421","電話番号2":"","自治体コード":"131032","一時受入人員可能数":"332","長期受入人員可能数":"199"},{"name":"麻布小学校","province":"東京都","city":"港区","address":"東京都港区麻布台一丁目5番15号","lat":35.661832,"lon":139.738648,"分類":"区民避難所(地域防災拠点)","地区":"麻布地区","構造":"鉄筋コンクリート造","ふりがな":"あざぶしょうがっこう","英語名称":"Azabu Elementary School","電話番号1":"03-3583-0014","電話番号2":"","自治体コード":"131032","一時受入人員可能数":"1435","長期受入人員可能数":"865"},{"name":"旧飯倉小学校","province":"東京都","city":"港区","address":"東京都港区東麻布二丁目1番1号","lat":35.658162,"lon":139.742551,"分類":"区民避難所(地域防災拠点)","地区":"麻布地区","構造":"鉄筋コンクリート造","ふりがな":"きゅういいくらしょうがっこう","英語名称":"Former Iigura Elementary School","電話番号1":"","電話番号2":"","自治体コード":"131032","一時受入人員可能数":"419","長期受入人員可能数":"208"},{"name":"本村小学校","province":"東京都","city":"港区","address":"東京都港区麻布三丁目9番33号","lat":35.649829,"lon":139.72991,"分類":"区民避難所(地域防災拠点)","地区":"麻布地区","構造":"鉄骨鉄筋コンクリート造","ふりがな":"ほんむらしょうがっこう","英語名称":"Hommura Elementary School","電話番号1":"03-3473-1462","電話番号2":"","自治体コード":"131032","一時受入人員可能数":"2017","長期受入人員可能数":"1217"},{"name":"東町小学校","province":"東京都","city":"港区","address":"東京都港区南麻布一丁目8番11号","lat":35.650901,"lon":139.73584,"分類":"区民避難所(地域防災拠点)","地区":"麻布地区","構造":"鉄筋コンクリート造","ふりがな":"ひがしまちしょうがっこう","英語名称":"Higashimachi Elementary School","電話番号1":"03-3451-7726","電話番号2":"","自治体コード":"131032","一時受入人員可能数":"1073","長期受入人員可能数":"647"},{"name":"笄小学校","province":"東京都","city":"港区","address":"東京都港区西麻布三丁目11番16号","lat":35.65648,"lon":139.724891,"分類":"区民避難所(地域防災拠点)","地区":"麻布地区","構造":"鉄筋コンクリート造","ふりがな":"こうがいしょうがっこう","英語名称":"Kogai Elementary School","電話番号1":"03-3404-1530","電話番号2":"","自治体コード":"131032","一時受入人員可能数":"1412","長期受入人員可能数":"853"},{"name":"六本木中学校","province":"東京都","city":"港区","address":"東京都港区六本木六丁目8番16号","lat":35.660826,"lon":139.732266,"分類":"区民避難所(地域防災拠点)","地区":"麻布地区","構造":"鉄筋コンクリート造","ふりがな":"ろっぽんぎちゅうがっこう","英語名称":"Roppongi Junior High School","電話番号1":"03-3404-8855","電話番号2":"","自治体コード":"131032","一時受入人員可能数":"1534","長期受入人員可能数":"926"},{"name":"高陵中学校","province":"東京都","city":"港区","address":"東京都港区西麻布4-14-8","lat":35.656991,"lon":139.720539,"分類":"区民避難所(地域防災拠点)","地区":"麻布地区","構造":"鉄骨鉄筋コンクリート造","ふりがな":"こうりょうちゅうがっこう","英語名称":"Koryo Junior High School","電話番号1":"03-3409-7687","電話番号2":"","自治体コード":"131032","一時受入人員可能数":"1130","長期受入人員可能数":"565"},{"name":"南山小学校","province":"東京都","city":"港区","address":"東京都港区元麻布三丁目8番15号","lat":35.657271,"lon":139.731056,"分類":"区民避難所(地域防災拠点)","地区":"麻布地区","構造":"鉄筋コンクリート造","ふりがな":"なんざんしょうがっこう","英語名称":"Nanzan Elementary School","電話番号1":"03-3403-5773","電話番号2":"","自治体コード":"131032","一時受入人員可能数":"1173","長期受入人員可能数":"702"},{"name":"麻布区民センター","province":"東京都","city":"港区","address":"東京都港区六本木五丁目16番45号","lat":35.66067,"lon":139.735011,"分類":"区民避難所(地域防災拠点)","地区":"麻布地区","構造":"鉄骨鉄筋コンクリート造","ふりがな":"あざぶくみんせんたー","英語名称":"Azabu Civic Center","電話番号1":"03-3583-5487","電話番号2":"","自治体コード":"131032","一時受入人員可能数":"326","長期受入人員可能数":"195"},{"name":"南麻布いきいきプラザ","province":"東京都","city":"港区","address":"東京都港区南麻布一丁目5番26号","lat":35.651414,"lon":139.73509,"分類":"区民避難所(地域防災拠点)","地区":"麻布地区","構造":"鉄筋コンクリート造","ふりがな":"みなみあざぶいきいきぷらざ","英語名称":"Minami-azabu Iki-iki Plaza","電話番号1":"03-5232-9671","電話番号2":"","自治体コード":"131032","一時受入人員可能数":"224","長期受入人員可能数":"135"},{"name":"麻布子ども中高生プラザ・ありすいきいきプラザ","province":"東京都","city":"港区","address":"東京都港区南麻布四丁目6番7号","lat":35.651082,"lon":139.727468,"分類":"区民避難所(地域防災拠点)","地区":"麻布地区","構造":"鉄筋コンクリート造","ふりがな":"あざぶこどもちゅうこうせいぷらざ・ありすいきいきぷらざ","英語名称":"Azabu Kids-to-Teens Hall Arisu Iki-iki Plaza","電話番号1":"03-5447-0611","電話番号2":"","自治体コード":"131032","一時受入人員可能数":"1027","長期受入人員可能数":"619"},{"name":"西麻布いきいきプラザ","province":"東京都","city":"港区","address":"東京都港区西麻布二丁目13番3号","lat":35.660801,"lon":139.722696,"分類":"区民避難所(地域防災拠点)","地区":"麻布地区","構造":"鉄骨鉄筋コンクリート造","ふりがな":"にしあざぶいきいきぷらざ","英語名称":"Nishi-azabu Iki-iki Plaza","電話番号1":"03-3486-9166","電話番号2":"","自治体コード":"131032","一時受入人員可能数":"297","長期受入人員可能数":"180"},{"name":"飯倉いきいきプラザ","province":"東京都","city":"港区","address":"東京都港区東麻布二丁目16番11号","lat":35.65693,"lon":139.740929,"分類":"区民避難所(地域防災拠点)","地区":"麻布地区","構造":"鉄骨造","ふりがな":"いいくらいきいきぷらざ","英語名称":"Iigura Iki-iki Plaza","電話番号1":"03-3583-6366","電話番号2":"","自治体コード":"131032","一時受入人員可能数":"157","長期受入人員可能数":"92"},{"name":"赤坂小学校","province":"東京都","city":"港区","address":"東京都港区赤坂八丁目13番29号","lat":35.669305,"lon":139.731065,"分類":"区民避難所(地域防災拠点)","地区":"赤坂地区","構造":"鉄筋コンクリート造","ふりがな":"あかさかしょうがっこう","英語名称":"Akasaka Elementary School","電話番号1":"03-3404-8602","電話番号2":"","自治体コード":"131032","一時受入人員可能数":"2001","長期受入人員可能数":"1208"},{"name":"青山小学校","province":"東京都","city":"港区","address":"東京都港区南青山二丁目21番2号","lat":35.669882,"lon":139.719084,"分類":"区民避難所(地域防災拠点)","地区":"赤坂地区","構造":"鉄筋コンクリート造","ふりがな":"あおやましょうがっこう","英語名称":"Aoyama Elementary School","電話番号1":"03-3403-5588","電話番号2":"","自治体コード":"131032","一時受入人員可能数":"1691","長期受入人員可能数":"1020"},{"name":"青南小学校","province":"東京都","city":"港区","address":"東京都港区南青山四丁目21番15号","lat":35.663506,"lon":139.716153,"分類":"区民避難所(地域防災拠点)","地区":"赤坂地区","構造":"鉄筋コンクリート造","ふりがな":"せいなんしょうがっこう","英語名称":"Seinan Elementary School","電話番号1":"03-3404-8608","電話番号2":"","自治体コード":"131032","一時受入人員可能数":"1723","長期受入人員可能数":"1039"},{"name":"赤坂中学校","province":"東京都","city":"港区","address":"東京都港区赤坂九丁目2番3号","lat":35.668183,"lon":139.731405,"分類":"区民避難所(地域防災拠点)","地区":"赤坂地区","構造":"鉄筋コンクリート造","ふりがな":"あかさかちゅうがっこう","英語名称":"Akasaka Junior High School","電話番号1":"03-3402-9306","電話番号2":"","自治体コード":"131032","一時受入人員可能数":"1114","長期受入人員可能数":"672"},{"name":"青山中学校","province":"東京都","city":"港区","address":"東京都港区北青山一丁目1番9号","lat":35.674188,"lon":139.72218,"分類":"区民避難所(地域防災拠点)","地区":"赤坂地区","構造":"鉄骨鉄筋コンクリート造","ふりがな":"あおやまちゅうがっこう","英語名称":"Aoyama Junior High Shool","電話番号1":"03-3404-7522","電話番号2":"","自治体コード":"131032","一時受入人員可能数":"2621","長期受入人員可能数":"1581"},{"name":"赤坂区民センター","province":"東京都","city":"港区","address":"東京都港区北青山一丁目1番9号","lat":35.674759,"lon":139.731598,"分類":"区民避難所(地域防災拠点)","地区":"赤坂地区","構造":"鉄骨鉄筋コンクリート造","ふりがな":"あかさかくみんせんたー","英語名称":"Akasaka Civic Center","電話番号1":"03-5413-2711","電話番号2":"","自治体コード":"131032","一時受入人員可能数":"475","長期受入人員可能数":"285"},{"name":"サン・サン赤坂(赤坂子ども中高生プラザ)","province":"東京都","city":"港区","address":"東京都港区赤坂六丁目6番14号","lat":35.669966,"lon":139.737659,"分類":"区民避難所(地域防災拠点)","地区":"赤坂地区","構造":"鉄筋コンクリート造","ふりがな":"さん・さんあかさか(あかさかこどもちゅうこうせいぷらざ)","英語名称":"Sun-Sun Akasaka(Akasaka Kids-to-Teens Hall)","電話番号1":"03-5561-7833","電話番号2":"","自治体コード":"131032","一時受入人員可能数":"888","長期受入人員可能数":"535"},{"name":"赤坂いきいきプラザ","province":"東京都","city":"港区","address":"東京都港区赤坂六丁目4番8号","lat":35.670334,"lon":139.734952,"分類":"区民避難所(地域防災拠点)","地区":"赤坂地区","構造":"鉄筋コンクリート造","ふりがな":"あかさかいきいきぷらざ","英語名称":"Akasaka Iki-iki Plaza","電話番号1":"03-3583-1207","電話番号2":"","自治体コード":"131032","一時受入人員可能数":"118","長期受入人員可能数":"70"},{"name":"青山いきいきプラザ","province":"東京都","city":"港区","address":"東京都港区南青山二丁目16番5号","lat":35.669189,"lon":139.721262,"分類":"区民避難所(地域防災拠点)","地区":"赤坂地区","構造":"鉄骨鉄筋コンクリート造","ふりがな":"あおやまいきいきぷらざ","英語名称":"Aoyama Iki-iki Plaza","電話番号1":"03-3403-2011","電話番号2":"","自治体コード":"131032","一時受入人員可能数":"585","長期受入人員可能数":"350"},{"name":"青南いきいきプラザ","province":"東京都","city":"港区","address":"東京都港区南青山四丁目10番1号","lat":35.666464,"lon":139.717321,"分類":"区民避難所(地域防災拠点)","地区":"赤坂地区","構造":"鉄筋コンクリート造","ふりがな":"せいなんいきいきぷらざ","英語名称":"Seinan Iki-iki Plaza","電話番号1":"03-3423-4920","電話番号2":"","自治体コード":"131032","一時受入人員可能数":"138","長期受入人員可能数":"80"},{"name":"御田小学校","province":"東京都","city":"港区","address":"東京都港区三田四丁目11番38号","lat":35.643181,"lon":139.738044,"分類":"区民避難所(地域防災拠点)","地区":"高輪地区","構造":"鉄筋コンクリート造","ふりがな":"みたしょうがっこう","英語名称":"Mita Elementary School","電話番号1":"03-3451-3997","電話番号2":"","自治体コード":"131032","一時受入人員可能数":"1213","長期受入人員可能数":"732"},{"name":"高輪区民センター","province":"東京都","city":"港区","address":"東京都港区高輪一丁目16番25号","lat":35.641984,"lon":139.733975,"分類":"区民避難所(地域防災拠点)","地区":"高輪地区","構造":"鉄骨鉄筋コンクリート造","ふりがな":"たかなわくみんせんたー","英語名称":"Takanawa Civic Center","電話番号1":"03-5421-7616","電話番号2":"","自治体コード":"131032","一時受入人員可能数":"393","長期受入人員可能数":"235"},{"name":"白金小学校","province":"東京都","city":"港区","address":"東京都港区白金台一丁目4番26号","lat":35.636807,"lon":139.728541,"分類":"区民避難所(地域防災拠点)","地区":"高輪地区","構造":"鉄筋コンクリート造","ふりがな":"しろかねしょうがっこう","英語名称":"Shirokane Elementary School","電話番号1":"03-3441-5407","電話番号2":"","自治体コード":"131032","一時受入人員可能数":"1805","長期受入人員可能数":"1090"},{"name":"旧三光小学校","province":"東京都","city":"港区","address":"東京都港区白白金三丁目18番2号","lat":35.644328,"lon":139.729204,"分類":"区民避難所(地域防災拠点)","地区":"高輪地区","構造":"鉄筋コンクリート造","ふりがな":"きゅうさんこうしょうがっこう","英語名称":"Former Sanko Elementary School","電話番号1":"03-3441-1001","電話番号2":"","自治体コード":"131032","一時受入人員可能数":"1717","長期受入人員可能数":"1037"},{"name":"白金の丘学園白金の丘小・中学校","province":"東京都","city":"港区","address":"東京都港区白金四丁目1番12号","lat":35.643658,"lon":139.726753,"分類":"区民避難所(地域防災拠点)","地区":"高輪地区","構造":"鉄筋コンクリート造","ふりがな":"しろかねのおかがくえんしろかねのおかしょう・ちゅうがっこう","英語名称":"Shirokane-no-oka Gakuen Shirokane-no-oka Elementaryand Junior High School","電話番号1":"03-3441-5363","電話番号2":"03-3441-5631","自治体コード":"131032","一時受入人員可能数":"4556","長期受入人員可能数":"2756"},{"name":"旧神応小学校","province":"東京都","city":"港区","address":"東京都港区白金六丁目9番5号","lat":35.643633,"lon":139.724277,"分類":"区民避難所(地域防災拠点)","地区":"高輪地区","構造":"鉄筋コンクリート造","ふりがな":"きゅうしんのうしょうがっこう","英語名称":"Former Shinno Elementary School","電話番号1":"03-3441-8391","電話番号2":"","自治体コード":"131032","一時受入人員可能数":"1104","長期受入人員可能数":"660"},{"name":"三田中学校","province":"東京都","city":"港区","address":"東京都港区三田四丁目13番13号","lat":35.645242,"lon":139.740818,"分類":"区民避難所(地域防災拠点)","地区":"高輪地区","構造":"鉄骨鉄筋コンクリート造","ふりがな":"みたちゅうがっこう","英語名称":"Mita Junior High School","電話番号1":"03-5441-7348","電話番号2":"","自治体コード":"131032","一時受入人員可能数":"1443","長期受入人員可能数":"721"},{"name":"高松中学校","province":"東京都","city":"港区","address":"東京都港区高輪一丁目16番25号","lat":35.640624,"lon":139.733937,"分類":"区民避難所(地域防災拠点)","地区":"高輪地区","構造":"鉄骨鉄筋コンクリート造","ふりがな":"たかまつちゅうがっこう","英語名称":"Takamatsu Junior High School","電話番号1":"03-3441-6239","電話番号2":"","自治体コード":"131032","一時受入人員可能数":"2306","長期受入人員可能数":"1394"},{"name":"高輪台小学校","province":"東京都","city":"港区","address":"東京都港区高輪二丁目8番24号","lat":35.636383,"lon":139.734193,"分類":"区民避難所(地域防災拠点)","地区":"高輪地区","構造":"鉄筋コンクリート造","ふりがな":"たかなわだいしょうがっこう","英語名称":"Takanawadai Elementary School","電話番号1":"03-5447-0616","電話番号2":"","自治体コード":"131032","一時受入人員可能数":"943","長期受入人員可能数":"568"},{"name":"高輪子ども中高生プラザ","province":"東京都","city":"港区","address":"東京都港区高輪一丁目4番35号","lat":35.642437,"lon":139.734846,"分類":"区民避難所(地域防災拠点)","地区":"高輪地区","構造":"鉄骨鉄筋コンクリート造","ふりがな":"たかなわこどもちゅうこうせいぷらざ","英語名称":"Takanawa Kids-to-Teens Plaza","電話番号1":"03-3443-1555","電話番号2":"","自治体コード":"131032","一時受入人員可能数":"1005","長期受入人員可能数":"670"},{"name":"豊岡いきいきプラザ","province":"東京都","city":"港区","address":"東京都港区三田五丁目7番7号","lat":35.646517,"lon":139.739624,"分類":"区民避難所(地域防災拠点)","地区":"高輪地区","構造":"鉄筋コンクリート造","ふりがな":"とよおかいきいきぷらざ","英語名称":"Toyooka Iki-iki Plaza","電話番号1":"03-3453-1591","電話番号2":"","自治体コード":"131032","一時受入人員可能数":"121","長期受入人員可能数":"72"},{"name":"高輪いきいきプラザ","province":"東京都","city":"港区","address":"東京都港区高輪三丁目18番15号","lat":35.63322,"lon":139.73571,"分類":"区民避難所(地域防災拠点)","地区":"高輪地区","構造":"鉄筋コンクリート造","ふりがな":"たかなわいきいきぷらざ","英語名称":"Takanawa Iki-iki Plaza","電話番号1":"03-3449-1643","電話番号2":"","自治体コード":"131032","一時受入人員可能数":"138","長期受入人員可能数":"81"},{"name":"白金いきいきプラザ","province":"東京都","city":"港区","address":"東京都港区白金三丁目10番12号","lat":35.644875,"lon":139.731098,"分類":"区民避難所(地域防災拠点)","地区":"高輪地区","構造":"鉄筋コンクリート造","ふりがな":"しろかねいきいきぷらざ","英語名称":"Shirokane Iki-iki Plaza","電話番号1":"03-3441-3680","電話番号2":"","自治体コード":"131032","一時受入人員可能数":"129","長期受入人員可能数":"76"},{"name":"白金台いきいきプラザ","province":"東京都","city":"港区","address":"東京都港区白金台四丁目8番5号","lat":35.637738,"lon":139.724908,"分類":"区民避難所(地域防災拠点)","地区":"高輪地区","構造":"鉄骨鉄筋コンクリート造","ふりがな":"しろかねだいいきいきぷらざ","英語名称":"Shirokanedai Iki-iki Plaza","電話番号1":"03-3440-4627","電話番号2":"","自治体コード":"131032","一時受入人員可能数":"424","長期受入人員可能数":"255"},{"name":"芝浦小学校","province":"東京都","city":"港区","address":"東京都港区芝浦四丁目8番18号","lat":35.638124,"lon":139.746205,"分類":"区民避難所(地域防災拠点)","地区":"芝浦港南地区","構造":"鉄骨鉄筋コンクリート造","ふりがな":"しばうらしょうがっこう","英語名称":"Shibaura Elementary School","電話番号1":"03-3451-4992","電話番号2":"","自治体コード":"131032","一時受入人員可能数":"1339","長期受入人員可能数":"803"},{"name":"港南小学校","province":"東京都","city":"港区","address":"東京都港区港南四丁目3番28号","lat":35.629227,"lon":139.749657,"分類":"区民避難所(地域防災拠点)","地区":"芝浦港南地区","構造":"鉄筋コンクリート造","ふりがな":"こうなんしょうがっこう","英語名称":"Konan Elementary School","電話番号1":"03-3474-1501","電話番号2":"","自治体コード":"131032","一時受入人員可能数":"2427","長期受入人員可能数":"1468"},{"name":"港南中学校","province":"東京都","city":"港区","address":"東京都港区港南四丁目3番3号","lat":35.631207,"lon":139.749078,"分類":"区民避難所(地域防災拠点)","地区":"芝浦港南地区","構造":"鉄筋コンクリート造","ふりがな":"こうなんちゅうがっこう","英語名称":"Konan Junior High School","電話番号1":"03-3471-0238","電話番号2":"","自治体コード":"131032","一時受入人員可能数":"2236","長期受入人員可能数":"1351"},{"name":"芝浦港南区民センター","province":"東京都","city":"港区","address":"東京都港区芝浦四丁目13番1号","lat":35.640555,"lon":139.748687,"分類":"区民避難所(地域防災拠点)","地区":"芝浦港南地区","構造":"鉄筋コンクリート造","ふりがな":"しばうらこうなんくみんセンター","英語名称":"Shibaura-konan Civic Center","電話番号1":"03-3769-8864","電話番号2":"","自治体コード":"131032","一時受入人員可能数":"433","長期受入人員可能数":"259"},{"name":"みなとパーク芝浦(港区スポーツセンター・男女平等参画センター)","province":"東京都","city":"港区","address":"東京都港区芝浦一丁目16番1号","lat":35.646717,"lon":139.751751,"分類":"区民避難所(地域防災拠点)","地区":"芝浦港南地区","構造":"鉄骨造","ふりがな":"みなとぱーくしばうら(みなとくすぽーつせんたー・だんじょびょうどうさんかくせんたー)","英語名称":"Minato Park Shibaura(Minato City Sports Center Gender Equality Center)","電話番号1":"03-6400-0036","電話番号2":"","自治体コード":"131032","一時受入人員可能数":"7442","長期受入人員可能数":"4502"},{"name":"港南子ども中高生プラザ(港区スポーツセンター・男女平等参画センター)","province":"東京都","city":"港区","address":"東京都港区港南四丁目3番7号","lat":35.631063,"lon":139.749897,"分類":"区民避難所(地域防災拠点)","地区":"芝浦港南地区","構造":"鉄骨鉄筋コンクリート造","ふりがな":"こうなんこどもちゅうこうせいぷらざ(みなとくすぽーつせんたー・だんじょびょうどうさんかくせんたー)","英語名称":"Konan Kids-to-Teens Plaza","電話番号1":"03-3450-9576","電話番号2":"","自治体コード":"131032","一時受入人員可能数":"1218","長期受入人員可能数":"730"},{"name":"港南いきいきプラザ","province":"東京都","city":"港区","address":"東京都港区港南四丁目2番1号","lat":35.629624,"lon":139.747098,"分類":"区民避難所(地域防災拠点)","地区":"芝浦港南地区","構造":"鉄筋コンクリート造","ふりがな":"こうなんいきいきぷらざ","英語名称":"Konan Iki-iki Plaza","電話番号1":"03-3450-9915","電話番号2":"","自治体コード":"131032","一時受入人員可能数":"191","長期受入人員可能数":"112"},{"name":"お台場学園港陽小・中学校","province":"東京都","city":"港区","address":"東京都港区台場一丁目1番5号","lat":35.633775,"lon":139.77704,"分類":"区民避難所(地域防災拠点)","地区":"芝浦港南地区","構造":"鉄筋コンクリート造","ふりがな":"おだいばがくえんこうようしょう・ちゅうがっこう","英語名称":"Odaiba Gakuen Koyo Elementary and Junior High School","電話番号1":"03-5500-2575","電話番号2":"","自治体コード":"131032","一時受入人員可能数":"3360","長期受入人員可能数":"2026"},{"name":"台場区民センター","province":"東京都","city":"港区","address":"東京都港区台場一丁目5番1号","lat":35.629987,"lon":139.776995,"分類":"区民避難所(地域防災拠点)","地区":"芝浦港南地区","構造":"鉄骨鉄筋コンクリート造","ふりがな":"だいばくみんせんたー","英語名称":"Daiba Civic Center","電話番号1":"03-5500-2355","電話番号2":"","自治体コード":"131032","一時受入人員可能数":"298","長期受入人員可能数":"179"},{"name":"芝浜小学校","province":"東京都","city":"港区","address":"東京都港区芝浦1丁目16番31号","lat":35.645975,"lon":139.751472,"分類":"区民避難所(地域防災拠点)","地区":"芝浦港南地区","構造":"PcaPc造","ふりがな":"しばはましょうがっこう","英語名称":"Shibahama Elementary School","電話番号1":"03-3769-3051","電話番号2":"","自治体コード":"131032","一時受入人員可能数":"932","長期受入人員可能数":"563"},{"name":"障害保健福祉センター","province":"東京都","city":"港区","address":"東京都港区芝一丁目8番23号","lat":35.651557,"lon":139.755573,"分類":"福祉避難所","地区":"芝地区","構造":"鉄骨鉄筋コンクリート造","ふりがな":"しょうがいほけんふくしせんたー","英語名称":"Health and Welfare Center for the Disabled","電話番号1":"03-5439-2511","電話番号2":"","自治体コード":"131032","一時受入人員可能数":"90","長期受入人員可能数":""},{"name":"新橋はつらつ太陽","province":"東京都","city":"港区","address":"東京都港区新橋六丁目19番2号","lat":35.661205,"lon":139.754003,"分類":"福祉避難所","地区":"芝地区","構造":"鉄骨鉄筋コンクリート造","ふりがな":"しんばしはつらつたいよう","英語名称":"Shimbashi Hatsuratsu Taiyo","電話番号1":"03-3433-0180","電話番号2":"","自治体コード":"131032","一時受入人員可能数":"60","長期受入人員可能数":""},{"name":"特別養護老人ホーム白金の森","province":"東京都","city":"港区","address":"東京都港区白金台五丁目20番5号","lat":35.63709,"lon":139.722072,"分類":"福祉避難所","地区":"高輪地区","構造":"鉄筋コンクリート造","ふりがな":"とくべつようごろうじんほーむしろかねのもり","英語名称":"Shirokane no Mori","電話番号1":"03-3449-9611","電話番号2":"","自治体コード":"131032","一時受入人員可能数":"49","長期受入人員可能数":""},{"name":"特別養護老人ホーム港南の郷","province":"東京都","city":"港区","address":"東京都港区港南三丁目3番23号","lat":35.633266,"lon":139.749263,"分類":"福祉避難所","地区":"芝浦港南地区","構造":"鉄骨鉄筋コンクリート造","ふりがな":"とくべつようごろうじんほーむこうなんのさと","英語名称":"Konan-no-Sato","電話番号1":"03-3450-5571","電話番号2":"","自治体コード":"131032","一時受入人員可能数":"50","長期受入人員可能数":""},{"name":"特別養護老人ホームサン・サン赤坂","province":"東京都","city":"港区","address":"東京都港区赤坂六丁目6番14号","lat":35.669761,"lon":139.737559,"分類":"福祉避難所","地区":"赤坂地区","構造":"鉄筋コンクリート造","ふりがな":"とくべつようごろうじんほーむさん・さんあかさか","英語名称":"Sun-Sun Akasaka","電話番号1":"03-5561-7833","電話番号2":"","自治体コード":"131032","一時受入人員可能数":"50","長期受入人員可能数":""},{"name":"特別養護老人ホーム麻布慶福苑","province":"東京都","city":"港区","address":"東京都港区南麻布五丁目1番20号","lat":35.653668,"lon":139.721819,"分類":"福祉避難所","地区":"麻布地区","構造":"鉄筋コンクリート造","ふりがな":"とくべつようごろうじんほーむあざぶけいふくえん","英語名称":"Azabu Keifukuen","電話番号1":"03-3446-5501","電話番号2":"","自治体コード":"131032","一時受入人員可能数":"52","長期受入人員可能数":""},{"name":"特別養護老人ホームベル","province":"東京都","city":"港区","address":"東京都港区西麻布四丁目7番2号","lat":35.656127,"lon":139.722306,"分類":"福祉避難所","地区":"麻布地区","構造":"鉄筋コンクリート造","ふりがな":"とくべつようごろうじんほーむべる","英語名称":"Bell","電話番号1":"03-3499-2823","電話番号2":"","自治体コード":"131032","一時受入人員可能数":"28","長期受入人員可能数":""},{"name":"特別養護老人ホーム新橋さくらの園","province":"東京都","city":"港区","address":"東京都港区新橋六丁目19番2号","lat":35.661201,"lon":139.753707,"分類":"福祉避難所","地区":"芝地区","構造":"鉄骨鉄筋コンクリート造","ふりがな":"とくべつようごろうじんほーむしんばしさくらのその","英語名称":"Shimbashi Sakura-no-Sono","電話番号1":"03-3433-0183","電話番号2":"","自治体コード":"131032","一時受入人員可能数":"120","長期受入人員可能数":""},{"name":"特別養護老人ホームありすの杜きのこ南麻布","province":"東京都","city":"港区","address":"東京都港区南麻布四丁目6番1号","lat":35.650765,"lon":139.72666,"分類":"福祉避難所","地区":"麻布地区","構造":"鉄筋コンクリート造","ふりがな":"とくべつようごろうじんほーむありすのもりきのこみなみあざぶ","英語名称":"Arisu-no-mori Kinoko Minami-azabu","電話番号1":"03-5739-0585","電話番号2":"","自治体コード":"131032","一時受入人員可能数":"110","長期受入人員可能数":""},{"name":"特別養護老人ホーム洛和ヴィラ南麻布","province":"東京都","city":"港区","address":"東京都港区南麻布四丁目6番1号","lat":35.650244,"lon":139.72673,"分類":"福祉避難所","地区":"麻布地区","構造":"鉄筋コンクリート造","ふりがな":"とくべつようごろうじんほーむらくわヴぃらみなみあざぶ","英語名称":"Rakuwa Villa Minami-azabu","電話番号1":"03-6408-8677","電話番号2":"","自治体コード":"131032","一時受入人員可能数":"110","長期受入人員可能数":""},{"name":"老人保健施設ルネサンス麻布","province":"東京都","city":"港区","address":"東京都港区南麻布二丁目10番21号","lat":35.647927,"lon":139.735179,"分類":"福祉避難所","地区":"麻布地区","構造":"鉄筋コンクリート造","ふりがな":"ろうじんほけんしせつるねさんすあざぶ","英語名称":"Renaissance Azabu","電話番号1":"03-3453-5015","電話番号2":"","自治体コード":"131032","一時受入人員可能数":"50","長期受入人員可能数":""},{"name":"老人保健施設新橋ばらの園","province":"東京都","city":"港区","address":"東京都港区新橋六丁目19番2号","lat":35.661181,"lon":139.753838,"分類":"福祉避難所","地区":"芝地区","構造":"鉄筋コンクリート造","ふりがな":"ろうじんほけんしせつしんばしばらのその","英語名称":"Shimbashi Bara-no-Sono","電話番号1":"03-3433-0182","電話番号2":"","自治体コード":"131032","一時受入人員可能数":"100","長期受入人員可能数":""},{"name":"老人保健施設洛和ヴィラサラサ","province":"東京都","city":"港区","address":"東京都港区南麻布四丁目6番1号","lat":35.650309,"lon":139.726778,"分類":"福祉避難所","地区":"芝地区","構造":"鉄筋コンクリート造","ふりがな":"ろうじんほけんしせつらくわヴぃらさらさ","英語名称":"Rakuwa Villa Sarasa","電話番号1":"03-6408-8676","電話番号2":"","自治体コード":"131032","一時受入人員可能数":"50","長期受入人員可能数":""},{"name":"高齢者在宅サービスセンター白金の森","province":"東京都","city":"港区","address":"東京都港区白金台五丁目20番5号","lat":35.637094,"lon":139.722065,"分類":"福祉避難所","地区":"高輪地区","構造":"鉄筋コンクリート造","ふりがな":"こうれいしゃざいたくさーびすせんたーしろかねのもり","英語名称":"Shirokane-no-Mori","電話番号1":"03-3449-9615","電話番号2":"","自治体コード":"131032","一時受入人員可能数":"60","長期受入人員可能数":""},{"name":"高齢者在宅サービスセンター港南の郷","province":"東京都","city":"港区","address":"東京都港区港南三丁目3番23号","lat":35.633218,"lon":139.749097,"分類":"福祉避難所","地区":"高輪地区","構造":"鉄骨鉄筋コンクリート造","ふりがな":"こうれいしゃざいたくさーびすせんたーこうなんのさと","英語名称":"Konan-no-Sato","電話番号1":"03-3450-5571","電話番号2":"","自治体コード":"131032","一時受入人員可能数":"153","長期受入人員可能数":""},{"name":"高齢者在宅サービスセンターサン・サン赤坂","province":"東京都","city":"港区","address":"東京都港区赤坂六丁目6番14号","lat":35.669778,"lon":139.737515,"分類":"福祉避難所","地区":"赤坂地区","構造":"鉄筋コンクリート造","ふりがな":"こうれいしゃざいたくさーびすせんたーさん・さんあかさか","英語名称":"Sun-Sun Akasaka","電話番号1":"03-5561-7831","電話番号2":"","自治体コード":"131032","一時受入人員可能数":"83","長期受入人員可能数":""},{"name":"南麻布高齢者在宅サービスセンター","province":"東京都","city":"港区","address":"東京都港区南麻布一丁目5番26号","lat":35.651364,"lon":139.735194,"分類":"福祉避難所","地区":"麻布地区","構造":"鉄筋コンクリート造","ふりがな":"みなみあざぶこうれいしゃざいたくさーびすせんたー","英語名称":"Minami-azabu","電話番号1":"03-5232-9672","電話番号2":"","自治体コード":"131032","一時受入人員可能数":"56","長期受入人員可能数":""},{"name":"台場高齢者在宅サービスセンター","province":"東京都","city":"港区","address":"東京都港区台場一丁目5番5号","lat":35.630595,"lon":139.778018,"分類":"福祉避難所","地区":"芝浦港南地区","構造":"鉄骨鉄筋コンクリート造","ふりがな":"だいばこうれいしゃざいたくさーびすせんたー","英語名称":"Daiba","電話番号1":"03-5531-0520","電話番号2":"","自治体コード":"131032","一時受入人員可能数":"59","長期受入人員可能数":""},{"name":"北青山高齢者在宅サービスセンター","province":"東京都","city":"港区","address":"東京都港区北青山一丁目6番1号","lat":35.673546,"lon":139.721794,"分類":"福祉避難所","地区":"芝浦港南地区","構造":"鉄筋コンクリート造","ふりがな":"きたあおやまこうれいしゃざいたくさーびすせんたー","英語名称":"Kita-aoyama","電話番号1":"03-5410-3410","電話番号2":"","自治体コード":"131032","一時受入人員可能数":"116","長期受入人員可能数":""},{"name":"芝高齢者在宅サービスセンター","province":"東京都","city":"港区","address":"東京都港区芝三丁目24番5号","lat":35.651384,"lon":139.748125,"分類":"福祉避難所","地区":"芝地区","構造":"鉄骨造","ふりがな":"しばこうれいしゃざいたくさーびすせんたー","英語名称":"Shiba","電話番号1":"03-5232-0848","電話番号2":"","自治体コード":"131032","一時受入人員可能数":"53","長期受入人員可能数":""},{"name":"虎ノ門高齢者在宅サービスセンター","province":"東京都","city":"港区","address":"東京都港区虎ノ門一丁目21番10号","lat":35.667853,"lon":139.748728,"分類":"福祉避難所","地区":"芝地区","構造":"鉄筋コンクリート造","ふりがな":"とらのもんこうれいしゃざいたくさーびすせんたー","英語名称":"Toranomon","電話番号1":"03-3539-3710","電話番号2":"","自治体コード":"131032","一時受入人員可能数":"45","長期受入人員可能数":""},{"name":"特別養護老人ホーム南麻布シニアガーデンアリス","province":"東京都","city":"港区","address":"東京都港区南麻布四丁目6番13号","lat":35.650591,"lon":139.727203,"分類":"福祉避難所","地区":"麻布地区","構造":"鉄筋コンクリート造","ふりがな":"とくべつようごろうじんほーむみなみあざぶしにあがーでんありす","英語名称":"Minamiazabushiniaga-denarisu","電話番号1":"03-3578-2421","電話番号2":"","自治体コード":"131032","一時受入人員可能数":"","長期受入人員可能数":""},{"name":"区立障害者支援施設 港区立障害者支援ホーム南麻布","province":"東京都","city":"港区","address":"東京都港区南麻布四丁目6番13号","lat":35.650591,"lon":139.727203,"分類":"福祉避難所","地区":"麻布地区","構造":"鉄筋コンクリート造","ふりがな":"みなとくりつしょうがいしゃしえんほーむみなみあざぶ","英語名称":"Minatokuritu syougaisyasienho-muminamiazabu","電話番号1":"03-3578-2387","電話番号2":"","自治体コード":"131032","一時受入人員可能数":"","長期受入人員可能数":""},{"name":"児童発達支援センター","province":"東京都","city":"港区","address":"東京都港区南麻布四丁目6番13号","lat":35.650591,"lon":139.727203,"分類":"福祉避難所","地区":"麻布地区","構造":"鉄筋コンクリート造","ふりがな":"じどうはったつしえんせんたー","英語名称":"","電話番号1":"03-6277-3106","電話番号2":"","自治体コード":"131032","一時受入人員可能数":"","長期受入人員可能数":""},{"name":"ありすの杜きのこ南麻布","province":"東京都","city":"港区","address":"東京都港区南麻布四丁目6番1号","lat":35.650254,"lon":139.726638,"利用場所":"B1階MDF内","設置台数":"3"},{"name":"エコプラザ","province":"東京都","city":"港区","address":"東京都港区浜松町一丁目13番1号","lat":35.658632,"lon":139.7568238,"利用場所":"1階事務室内IDF","設置台数":"4"},{"name":"お台場海浜公園マリンハウス","province":"東京都","city":"港区","address":"東京都港区台場一丁目4番","lat":35.629803,"lon":139.775275,"利用場所":"1階公衆電話横","設置台数":"5"},{"name":"お台場学園","province":"東京都","city":"港区","address":"東京都港区台場一丁目1番5号","lat":35.633775,"lon":139.77704,"利用場所":"校舎入口","設置台数":"15"},{"name":"ニューピア竹芝ノースタワー(ニューピアホール)","province":"東京都","city":"港区","address":"東京都港区海岸一丁目11番1号","lat":35.655729,"lon":139.763709,"利用場所":"出入口","設置台数":"5"},{"name":"ベル","province":"東京都","city":"港区","address":"東京都港区西麻布四丁目7番2号","lat":35.656239,"lon":139.722244,"利用場所":"施設入口","設置台数":"1"},{"name":"ホテルアジュール竹芝","province":"東京都","city":"港区","address":"東京都港区海岸一丁目11番2号","lat":35.655304,"lon":139.763265,"利用場所":"出入口","設置台数":"5"},{"name":"ホテルオークラ","province":"東京都","city":"港区","address":"東京都港区虎ノ門二丁目10番4号","lat":35.666749,"lon":139.743497,"利用場所":"","設置台数":"10"},{"name":"ルネサンス麻布","province":"東京都","city":"港区","address":"東京都港区南麻布二丁目10番21号","lat":35.647968,"lon":139.735206,"利用場所":"1階:受付わき","設置台数":"1"},{"name":"旧氷川小学校","province":"東京都","city":"港区","address":"東京都港区赤坂六丁目6番14号","lat":35.669966,"lon":139.737659,"利用場所":"出入り口横","設置台数":"5"},{"name":"虎ノ門いきいきプラザ","province":"東京都","city":"港区","address":"東京都港区港区虎ノ門一丁目21番10号","lat":35.667905,"lon":139.748713,"利用場所":"1階IDF内","設置台数":"2"},{"name":"港パーク芝浦1階リーブラホール","province":"東京都","city":"港区","address":"東京都港区芝浦一丁目16番1号","lat":35.646717,"lon":139.751751,"利用場所":"1階空調室","設置台数":"5"},{"name":"港パーク芝浦5階スポーツセンタ","province":"東京都","city":"港区","address":"東京都港区芝浦一丁目16番1号","lat":35.646717,"lon":139.751751,"利用場所":"5階空調室","設置台数":"5"},{"name":"港勤労福祉会館","province":"東京都","city":"港区","address":"東京都港区芝五丁目18番2号","lat":35.648013,"lon":139.748491,"利用場所":"1階ロビー","設置台数":"4"},{"name":"港南いきいきプラザ(ゆとりーむ)","province":"東京都","city":"港区","address":"東京都港区港南四丁目2番1号","lat":35.629624,"lon":139.747098,"利用場所":"出入り口横","設置台数":"5"},{"name":"港南の郷","province":"東京都","city":"港区","address":"東京都港区港南三丁目3番23号","lat":35.633266,"lon":139.749263,"利用場所":"1階事務室端子盤内","設置台数":"2"},{"name":"港南子ども中高生プラザ","province":"東京都","city":"港区","address":"東京都港区港南四丁目3番7号","lat":35.631006,"lon":139.749703,"利用場所":"1階:受付裏MDF内","設置台数":"8"},{"name":"国際医療福祉大学","province":"東京都","city":"港区","address":"東京都港区赤坂四丁目1番26号","lat":35.676527,"lon":139.7347778,"利用場所":"1F通路壁面ホール","設置台数":"5"},{"name":"三光小学校","province":"東京都","city":"港区","address":"東京都港区白金三丁目18番2号","lat":35.644328,"lon":139.729204,"利用場所":"校舎入口","設置台数":"9"},{"name":"三田高等学校","province":"東京都","city":"港区","address":"東京都港区三田一丁目4番46号","lat":35.652365,"lon":139.743455,"利用場所":"1Fエントランス","設置台数":"5"},{"name":"三田小学校","province":"東京都","city":"港区","address":"東京都港区三田四丁目13番13号","lat":35.645357,"lon":139.740831,"利用場所":"校舎入口","設置台数":"5"},{"name":"資生堂","province":"東京都","city":"港区","address":"東京都港区東新橋一丁目6番2号","lat":35.664383,"lon":139.760667,"利用場所":"汐留鹿島棟B4Fオフィス","設置台数":"1"},{"name":"芝浦港南区民センター","province":"東京都","city":"港区","address":"東京都港区芝浦四丁目13番1号","lat":35.640522,"lon":139.74863,"利用場所":"1階ホール","設置台数":"4"},{"name":"芝商業高等学校","province":"東京都","city":"港区","address":"東京都港区海岸一丁目8番25号","lat":35.656523,"lon":139.760548,"利用場所":"1Fエントランス","設置台数":"5"},{"name":"障害保険福祉センター","province":"東京都","city":"港区","address":"東京都港区芝一丁目8番23号","lat":35.651557,"lon":139.755573,"利用場所":"1階IDF内","設置台数":"5"},{"name":"神応小学校","province":"東京都","city":"港区","address":"東京都港区白金六丁目9番5号","lat":35.643722,"lon":139.724481,"利用場所":"校舎入口","設置台数":"10"},{"name":"神明いきいきプラザ","province":"東京都","city":"港区","address":"東京都港区浜松町一丁目6番7号","lat":35.658826,"lon":139.757554,"利用場所":"1階喫茶コーナー","設置台数":"8"},{"name":"赤羽小学校","province":"東京都","city":"港区","address":"東京都港区三田一丁目4番52号","lat":35.653347,"lon":139.742537,"利用場所":"出入り口横","設置台数":"5"},{"name":"赤坂いきいきプラザ","province":"東京都","city":"港区","address":"東京都港区赤坂六丁目4番8号","lat":35.669966,"lon":139.737659,"利用場所":"出入り口横","設置台数":"5"},{"name":"赤坂区民センター","province":"東京都","city":"港区","address":"東京都港区赤坂四丁目18番13号","lat":35.674749,"lon":139.731634,"利用場所":"出入り口横","設置台数":"5"},{"name":"台場フロンティアビル","province":"東京都","city":"港区","address":"東京都港区台場二丁目3番2号","lat":35.628671,"lon":139.777767,"利用場所":"出入口","設置台数":"5"},{"name":"台場高齢者在宅サービスセンター","province":"東京都","city":"港区","address":"東京都港区港区台場一丁目5番5号","lat":35.630566,"lon":139.777984,"利用場所":"1階:元公衆電話台","設置台数":"1"},{"name":"島しょ農林水産総合センター","province":"東京都","city":"港区","address":"東京都港区海岸二丁目7番104号","lat":35.650688,"lon":139.760473,"利用場所":"出入口","設置台数":"5"},{"name":"東京港建設事務所","province":"東京都","city":"港区","address":"東京都港区港南三丁目9番56号","lat":35.633409,"lon":139.751978,"利用場所":"出入口","設置台数":"5"},{"name":"東京都立中央図書館","province":"東京都","city":"港区","address":"東京都港区南麻布五丁目7番13号","lat":35.652115,"lon":139.726371,"利用場所":"1F廊下","設置台数":"5"},{"name":"東麻布保育園","province":"東京都","city":"港区","address":"東京都港区東麻布二丁目1番1号","lat":35.658162,"lon":139.742551,"利用場所":"校舎入口","設置台数":"4"},{"name":"白金いきいきプラザ","province":"東京都","city":"港区","address":"東京都港区白金三丁目10番12号","lat":35.645216,"lon":139.731238,"利用場所":"出入り口横","設置台数":"5"},{"name":"白金の丘学園","province":"東京都","city":"港区","address":"東京都港区白金四丁目1番12号","lat":35.6437,"lon":139.726835,"利用場所":"1階MDF","設置台数":"5"},{"name":"白金の森特別養護老人ホーム","province":"東京都","city":"港区","address":"東京都港区白金台五丁目20番5号","lat":35.637152,"lon":139.721938,"利用場所":"施設入口","設置台数":"1"},{"name":"飯倉いきいきプラザ","province":"東京都","city":"港区","address":"東京都港区東麻布二丁目16番11号","lat":35.656904,"lon":139.740889,"利用場所":"校舎入口","設置台数":"2"},{"name":"福祉プラザさくら川","province":"東京都","city":"港区","address":"東京都港区新橋六丁目19番2号","lat":35.661192,"lon":139.753738,"利用場所":"1階体育館","設置台数":"5"},{"name":"本村いきいきプラザ","province":"東京都","city":"港区","address":"東京都港区南麻布三丁目5番15号","lat":35.651087,"lon":139.730365,"利用場所":"施設入口","設置台数":"2"},{"name":"本村小学校","province":"東京都","city":"港区","address":"東京都港区南麻布三丁目9番33号","lat":35.649818,"lon":139.729959,"利用場所":"2階IDF内","設置台数":"5"},{"name":"麻布慶福苑","province":"東京都","city":"港区","address":"東京都港区南麻布五丁目1番20号","lat":35.653745,"lon":139.721924,"利用場所":"1階:元公衆電話台","設置台数":"1"},{"name":"六本木高等学校","province":"東京都","city":"港区","address":"東京都港区六本木六丁目16番36号","lat":35.657736,"lon":139.731209,"利用場所":"1Fエントランス","設置台数":"5"},{"name":"セブン-イレブン赤坂1丁目","province":"東京都","city":"港区","address":"東京都港区赤坂一丁目11番30号","lat":35.668991,"lon":139.741408,"利用場所":"","設置台数":"1"},{"name":"セブン-イレブン港区三田3丁目","province":"東京都","city":"港区","address":"東京都港区三田三丁目7番15号","lat":35.643099,"lon":139.741948,"利用場所":"","設置台数":"1"},{"name":"セブン-イレブン港区北青山3丁目","province":"東京都","city":"港区","address":"東京都港区北青山三丁目8番9号","lat":35.664996,"lon":139.710402,"利用場所":"","設置台数":"1"},{"name":"セブン-イレブン港区海岸3丁目","province":"東京都","city":"港区","address":"東京都港区海岸三丁目7番20号","lat":35.636709,"lon":139.752577,"利用場所":"","設置台数":"1"},{"name":"セブン-イレブン虎ノ門駅前","province":"東京都","city":"港区","address":"東京都港区虎ノ門一丁目1番23号","lat":35.670405,"lon":139.750149,"利用場所":"","設置台数":"1"},{"name":"セブン-イレブン港区麻布十番3丁目","province":"東京都","city":"港区","address":"東京都港区麻布十番三丁目5番7号","lat":35.653167,"lon":139.735789,"利用場所":"","設置台数":"1"},{"name":"セブン-イレブン芝大門1丁目","province":"東京都","city":"港区","address":"東京都港区芝大門一丁目14番6号","lat":35.657201,"lon":139.753699,"利用場所":"","設置台数":"1"},{"name":"セブン-イレブン白金台駅前","province":"東京都","city":"港区","address":"東京都港区白金台三丁目2番3号","lat":35.637491,"lon":139.725949,"利用場所":"","設置台数":"1"},{"name":"セブン-イレブン港区西麻布3丁目","province":"東京都","city":"港区","address":"東京都港区西麻布三丁目13番13号","lat":35.656961,"lon":139.72406,"利用場所":"","設置台数":"1"},{"name":"セブン-イレブン港区芝3丁目","province":"東京都","city":"港区","address":"東京都港区芝三丁目15番9号","lat":35.653115,"lon":139.745402,"利用場所":"","設置台数":"1"},{"name":"セブン-イレブン六本木5丁目","province":"東京都","city":"港区","address":"東京都港区六本木五丁目2番1号","lat":35.662408,"lon":139.733573,"利用場所":"","設置台数":"1"},{"name":"セブン-イレブン新橋第一京浜","province":"東京都","city":"港区","address":"東京都港区新橋五丁目13番1号","lat":35.663139,"lon":139.757082,"利用場所":"","設置台数":"1"},{"name":"セブン-イレブン赤坂5丁目","province":"東京都","city":"港区","address":"東京都港区赤坂五丁目4番8号","lat":35.67191,"lon":139.735758,"利用場所":"","設置台数":"1"},{"name":"セブン-イレブン六本木7丁目","province":"東京都","city":"港区","address":"東京都港区六本木七丁目10番3号","lat":35.664624,"lon":139.72912,"利用場所":"","設置台数":"1"},{"name":"セブン-イレブン港区汐彩橋","province":"東京都","city":"港区","address":"東京都港区海岸三丁目3番20号","lat":35.640575,"lon":139.753572,"利用場所":"","設置台数":"1"},{"name":"セブン-イレブン虎ノ門1丁目桜田通り","province":"東京都","city":"港区","address":"東京都港区虎ノ門一丁目22番15号","lat":35.667302,"lon":139.748096,"利用場所":"","設置台数":"1"},{"name":"セブン-イレブン港区南青山7丁目","province":"東京都","city":"港区","address":"東京都港区南青山七丁目3番1号","lat":35.658822,"lon":139.715691,"利用場所":"","設置台数":"1"},{"name":"セブン-イレブン虎ノ門4丁目","province":"東京都","city":"港区","address":"東京都港区虎ノ門四丁目3番10号虎ノ門きよしビル","lat":35.66435,"lon":139.744169,"利用場所":"","設置台数":"1"},{"name":"セブン-イレブン虎ノ門5丁目","province":"東京都","city":"港区","address":"東京都港区虎ノ門五丁目12番1号","lat":35.6628,"lon":139.745372,"利用場所":"","設置台数":"1"},{"name":"セブン-イレブン港区飯倉","province":"東京都","city":"港区","address":"東京都港区麻布台一丁目9番8号","lat":35.659856,"lon":139.742425,"利用場所":"","設置台数":"1"},{"name":"セブン-イレブン虎ノ門1丁目","province":"東京都","city":"港区","address":"東京都港区虎ノ門一丁目14番1号","lat":35.668888,"lon":139.74931,"利用場所":"","設置台数":"1"},{"name":"セブン-イレブン新橋5丁目","province":"東京都","city":"港区","address":"東京都港区新橋五丁目34番3号","lat":35.662981,"lon":139.753635,"利用場所":"","設置台数":"1"},{"name":"セブン-イレブン港区芝5丁目北","province":"東京都","city":"港区","address":"東京都港区芝五丁目3番2号","lat":35.650101,"lon":139.74595,"利用場所":"","設置台数":"1"},{"name":"セブン-イレブン芝浦ベイワード","province":"東京都","city":"港区","address":"東京都港区芝浦二丁目6番11号","lat":35.644055,"lon":139.75333,"利用場所":"","設置台数":"1"},{"name":"セブン-イレブン港区三田1丁目","province":"東京都","city":"港区","address":"東京都港区三田一丁目7番1号パ-クコ-ト麻布十番1階","lat":35.654651,"lon":139.739406,"利用場所":"","設置台数":"1"},{"name":"セブン-イレブン白金台プラチナ通り","province":"東京都","city":"港区","address":"東京都港区白金台五丁目14番1号","lat":35.638605,"lon":139.722694,"利用場所":"","設置台数":"1"},{"name":"セブン-イレブン日立ハイテクビル","province":"東京都","city":"港区","address":"東京都港区西新橋一丁目24番14号-B1F","lat":35.668377,"lon":139.751362,"利用場所":"","設置台数":"1"},{"name":"セブン-イレブン港区溜池山王","province":"東京都","city":"港区","address":"東京都港区赤坂一丁目4番1号","lat":35.670385,"lon":139.743391,"利用場所":"","設置台数":"1"},{"name":"セブン-イレブン赤坂4丁目","province":"東京都","city":"港区","address":"東京都港区赤坂四丁目9番9号","lat":35.675193,"lon":139.733003,"利用場所":"","設置台数":"1"},{"name":"セブン-イレブン新橋SL広場前","province":"東京都","city":"港区","address":"東京都港区新橋二丁目8番9号","lat":35.667108,"lon":139.756976,"利用場所":"","設置台数":"1"},{"name":"セブン-イレブン六本木駅北","province":"東京都","city":"港区","address":"東京都港区六本木七丁目14番23号","lat":35.663722,"lon":139.730764,"利用場所":"","設置台数":"1"},{"name":"セブン-イレブン新橋1丁目","province":"東京都","city":"港区","address":"東京都港区新橋一丁目16番4号","lat":35.668241,"lon":139.756912,"利用場所":"","設置台数":"1"},{"name":"セブン-イレブン赤坂6丁目","province":"東京都","city":"港区","address":"東京都港区赤坂六丁目14番15号","lat":35.669702,"lon":139.733286,"利用場所":"","設置台数":"1"},{"name":"セブン-イレブン芝浦4丁目","province":"東京都","city":"港区","address":"東京都港区芝浦四丁目15番33号","lat":35.638447,"lon":139.747517,"利用場所":"","設置台数":"1"},{"name":"セブン-イレブン浜松町1丁目北","province":"東京都","city":"港区","address":"東京都港区浜松町一丁目2番1号","lat":35.660039,"lon":139.755924,"利用場所":"","設置台数":"1"},{"name":"セブン-イレブン赤坂ガーデンシティ","province":"東京都","city":"港区","address":"東京都港区赤坂四丁目15番1号","lat":35.674057,"lon":139.731439,"利用場所":"","設置台数":"1"},{"name":"セブン-イレブン港区広尾駅北","province":"東京都","city":"港区","address":"東京都港区南麻布五丁目10番38号","lat":35.6543,"lon":139.722935,"利用場所":"","設置台数":"1"},{"name":"セブン-イレブン虎ノ門37森ビル","province":"東京都","city":"港区","address":"東京都港区虎ノ門三丁目5番1号","lat":35.666544,"lon":139.746149,"利用場所":"","設置台数":"1"},{"name":"セブン-イレブン新橋2丁目","province":"東京都","city":"港区","address":"東京都港区新橋二丁目10番3号","lat":35.667289,"lon":139.755873,"利用場所":"","設置台数":"1"},{"name":"セブン-イレブン港区芝浦ふ頭","province":"東京都","city":"港区","address":"東京都港区海岸三丁目12番7号","lat":35.640228,"lon":139.755905,"利用場所":"","設置台数":"1"},{"name":"セブン-イレブン西麻布3丁目六本木通り","province":"東京都","city":"港区","address":"東京都港区西麻布三丁目1番22号","lat":35.660647,"lon":139.727132,"利用場所":"","設置台数":"1"},{"name":"セブン-イレブン浜松町2丁目","province":"東京都","city":"港区","address":"東京都港区浜松町二丁目13番5号","lat":35.653279,"lon":139.754829,"利用場所":"","設置台数":"1"},{"name":"セブン-イレブン港区南青山7丁目中央","province":"東京都","city":"港区","address":"東京都港区南青山七丁目10番3号","lat":35.659102,"lon":139.718294,"利用場所":"","設置台数":"1"},{"name":"セブン-イレブン赤坂8丁目","province":"東京都","city":"港区","address":"東京都港区赤坂八丁目10番22号","lat":35.670379,"lon":139.726959,"利用場所":"","設置台数":"1"},{"name":"セブン-イレブン西新橋1丁目外堀通り","province":"東京都","city":"港区","address":"東京都港区西新橋一丁目6番13号","lat":35.669588,"lon":139.752826,"利用場所":"","設置台数":"1"},{"name":"セブン-イレブン芝フロントビル","province":"東京都","city":"港区","address":"東京都港区芝四丁目11番3号","lat":35.648135,"lon":139.750894,"利用場所":"","設置台数":"1"},{"name":"セブン-イレブン青山1丁目駅前","province":"東京都","city":"港区","address":"東京都港区赤坂八丁目4番23号","lat":35.673279,"lon":139.726692,"利用場所":"","設置台数":"1"},{"name":"セブン-イレブン赤坂3丁目みすじ通り","province":"東京都","city":"港区","address":"東京都港区赤坂三丁目10番12号","lat":35.675543,"lon":139.736863,"利用場所":"","設置台数":"1"},{"name":"セブン-イレブン芝浦3丁目","province":"東京都","city":"港区","address":"東京都港区芝浦三丁目14番15号","lat":35.642436,"lon":139.747,"利用場所":"","設置台数":"1"},{"name":"セブン-イレブン赤坂3丁目一ツ木通り","province":"東京都","city":"港区","address":"東京都港区赤坂三丁目16番7号","lat":35.674687,"lon":139.736422,"利用場所":"","設置台数":"1"},{"name":"セブン-イレブン品川駅前","province":"東京都","city":"港区","address":"東京都港区高輪三丁目25番20号","lat":35.630301,"lon":139.737793,"利用場所":"","設置台数":"1"},{"name":"セブン-イレブン六本木3丁目","province":"東京都","city":"港区","address":"東京都港区六本木三丁目4番31号","lat":35.664774,"lon":139.735833,"利用場所":"","設置台数":"1"},{"name":"セブン-イレブン芝公園1丁目","province":"東京都","city":"港区","address":"東京都港区芝公園一丁目7番6号","lat":35.657967,"lon":139.752402,"利用場所":"","設置台数":"1"},{"name":"セブン-イレブン港区白金1丁目南","province":"東京都","city":"港区","address":"東京都港区白金一丁目25番20号","lat":35.643832,"lon":139.732251,"利用場所":"","設置台数":"1"},{"name":"セブン-イレブングランドプリンスホテル新高輪","province":"東京都","city":"港区","address":"東京都港区高輪三丁目13番1号","lat":35.630959,"lon":139.735268,"利用場所":"","設置台数":"1"},{"name":"セブン-イレブン港区南青山3丁目","province":"東京都","city":"港区","address":"東京都港区南青山三丁目15番6号","lat":35.665121,"lon":139.715641,"利用場所":"","設置台数":"1"},{"name":"セブン-イレブンセレスティン芝三井ビル","province":"東京都","city":"港区","address":"東京都港区芝三丁目23番1号","lat":35.651112,"lon":139.748958,"利用場所":"","設置台数":"1"},{"name":"セブン-イレブン港区虎ノ門駅南","province":"東京都","city":"港区","address":"東京都港区虎ノ門一丁目2番4号","lat":35.669952,"lon":139.748807,"利用場所":"","設置台数":"1"},{"name":"セブン-イレブン港区一の橋","province":"東京都","city":"港区","address":"東京都港区麻布十番四丁目1番8号","lat":35.654914,"lon":139.737345,"利用場所":"","設置台数":"1"},{"name":"セブン-イレブン泉岳寺駅前","province":"東京都","city":"港区","address":"東京都港区三田三丁目11番22号","lat":35.640172,"lon":139.741251,"利用場所":"","設置台数":"1"},{"name":"セブン-イレブン南麻布","province":"東京都","city":"港区","address":"東京都港区南麻布二丁目8番10号ベルナール麻布1F","lat":35.648637,"lon":139.736492,"利用場所":"","設置台数":"1"},{"name":"セブン-イレブン高輪台駅前","province":"東京都","city":"港区","address":"東京都港区白金台二丁目26番8号ハイツ白金台1F","lat":35.632017,"lon":139.730243,"利用場所":"","設置台数":"1"},{"name":"セブン-イレブン浜松町1丁目中央","province":"東京都","city":"港区","address":"東京都港区浜松町一丁目20番8号山市ビル1F","lat":35.657745,"lon":139.756737,"利用場所":"","設置台数":"1"},{"name":"セブン-イレブン港区赤坂駅南","province":"東京都","city":"港区","address":"東京都港区赤坂二丁目17番54号グランドメゾン赤坂1F","lat":35.670185,"lon":139.738425,"利用場所":"","設置台数":"1"},{"name":"セブン-イレブンテレビ東京本社","province":"東京都","city":"港区","address":"東京都港区六本木三丁目2番1号住友不動産六本木グランドタワー<テレビ東京>11F","lat":35.664588,"lon":139.737767,"利用場所":"","設置台数":"1"},{"name":"セブン-イレブン六本木ティーキューブ","province":"東京都","city":"港区","address":"東京都港区六本木三丁目1番1号","lat":35.665638,"lon":139.738111,"利用場所":"","設置台数":"1"},{"name":"セブン-イレブン赤坂2丁目","province":"東京都","city":"港区","address":"東京都港区赤坂二丁目13番1号ルーセント赤坂1F","lat":35.673046,"lon":139.738266,"利用場所":"","設置台数":"1"},{"name":"セブン-イレブン港区芝2丁目","province":"東京都","city":"港区","address":"東京都港区芝二丁目16番7号-1F","lat":35.651235,"lon":139.752227,"利用場所":"","設置台数":"1"},{"name":"セブン-イレブン品川イーストワンタワー","province":"東京都","city":"港区","address":"東京都港区港南二丁目16番1号","lat":35.627765,"lon":139.740768,"利用場所":"","設置台数":"1"},{"name":"セブン-イレブン港区乃木坂駅南","province":"東京都","city":"港区","address":"東京都港区六本木七丁目3番12号","lat":35.665952,"lon":139.728417,"利用場所":"","設置台数":"1"},{"name":"セブン-イレブン港区芝浦3なぎさ通り","province":"東京都","city":"港区","address":"東京都港区芝浦三丁目11番8号","lat":35.642816,"lon":139.749786,"利用場所":"","設置台数":"1"},{"name":"セブン-イレブン外苑前駅前","province":"東京都","city":"港区","address":"東京都港区北青山二丁目7番19号","lat":35.670596,"lon":139.717004,"利用場所":"","設置台数":"1"},{"name":"セブン-イレブン7FS芝浦スクエアビル","province":"東京都","city":"港区","address":"東京都港区芝浦四丁目9番25号","lat":35.640097,"lon":139.745889,"利用場所":"","設置台数":"1"},{"name":"セブン-イレブン港区芝4丁目","province":"東京都","city":"港区","address":"東京都港区芝四丁目7番8号","lat":35.649035,"lon":139.752149,"利用場所":"","設置台数":"1"},{"name":"セブン-イレブン品川プリンスホテル","province":"東京都","city":"港区","address":"東京都港区高輪四丁目10番30号","lat":35.627923,"lon":139.735154,"利用場所":"","設置台数":"1"},{"name":"セブン-イレブン南青山5丁目","province":"東京都","city":"港区","address":"東京都港区南青山五丁目13番3号","lat":35.661119,"lon":139.713905,"利用場所":"","設置台数":"1"},{"name":"セブン-イレブン港区芝浦1丁目","province":"東京都","city":"港区","address":"東京都港区芝浦一丁目13番10号","lat":35.646357,"lon":139.752991,"利用場所":"","設置台数":"1"},{"name":"セブン-イレブン三田駅北","province":"東京都","city":"港区","address":"東京都港区芝四丁目3番5号","lat":35.649018,"lon":139.750285,"利用場所":"","設置台数":"1"},{"name":"セブン-イレブン三田国際ビル","province":"東京都","city":"港区","address":"東京都港区三田一丁目4番28号","lat":35.653656,"lon":139.744744,"利用場所":"","設置台数":"1"},{"name":"セブン-イレブン西新橋3丁目","province":"東京都","city":"港区","address":"東京都港区西新橋三丁目6番10号","lat":35.664855,"lon":139.751896,"利用場所":"","設置台数":"1"},{"name":"セブン-イレブン港区白金台1丁目","province":"東京都","city":"港区","address":"東京都港区白金台一丁目4番20号","lat":35.636372,"lon":139.728727,"利用場所":"","設置台数":"1"},{"name":"セブン-イレブンなぎさテラス","province":"東京都","city":"港区","address":"東京都港区芝浦三丁目1番32号","lat":35.644708,"lon":139.748655,"利用場所":"","設置台数":"1"},{"name":"セブン-イレブン神谷町駅東","province":"東京都","city":"港区","address":"東京都港区虎ノ門三丁目17番1号","lat":35.66408,"lon":139.746524,"利用場所":"","設置台数":"1"},{"name":"セブン-イレブン神谷町駅北","province":"東京都","city":"港区","address":"東京都港区虎ノ門四丁目3番13号","lat":35.663761,"lon":139.744202,"利用場所":"","設置台数":"1"},{"name":"セブン-イレブン港区芝1丁目","province":"東京都","city":"港区","address":"東京都港区芝一丁目12番7号","lat":35.650826,"lon":139.755027,"利用場所":"","設置台数":"1"},{"name":"セブン-イレブン南麻布5外苑西通り","province":"東京都","city":"港区","address":"東京都港区南麻布五丁目1番10号","lat":35.655222,"lon":139.722796,"利用場所":"","設置台数":"1"},{"name":"セブン-イレブン港区三田5丁目","province":"東京都","city":"港区","address":"東京都港区三田五丁目18番3号","lat":35.644763,"lon":139.737287,"利用場所":"","設置台数":"1"},{"name":"セブン-イレブン赤坂氷川坂下","province":"東京都","city":"港区","address":"東京都港区赤坂六丁目11番1号","lat":35.669561,"lon":139.734926,"利用場所":"","設置台数":"1"},{"name":"セブン-イレブン御成門駅北","province":"東京都","city":"港区","address":"東京都港区新橋六丁目16番10号","lat":35.66212,"lon":139.752254,"利用場所":"","設置台数":"1"},{"name":"新堀会館前緑地","province":"東京都","city":"港区","address":"東京都港区芝二丁目17番地","lat":35.651352,"lon":139.7516772,"行政管内":"芝地区","設備種別":"無線放送塔"},{"name":"芝三田森ビル","province":"東京都","city":"港区","address":"東京都港区芝五丁目13番地15号","lat":35.649252,"lon":139.7450223,"行政管内":"芝地区","設備種別":"無線放送塔"},{"name":"都営芝五丁目アパート","province":"東京都","city":"港区","address":"東京都港区芝五丁目18番地1号","lat":35.648405,"lon":139.7477776,"行政管内":"芝地区","設備種別":"無線放送塔"},{"name":"区立生涯学習センター","province":"東京都","city":"港区","address":"東京都港区西新橋三丁目16番3号","lat":35.665575,"lon":139.757085,"行政管内":"芝地区","設備種別":"無線放送塔"},{"name":"きらきらプラザ新橋","province":"東京都","city":"港区","address":"東京都港区新橋六丁目4番2号","lat":35.662287,"lon":139.7540266,"行政管内":"芝地区","設備種別":"無線放送塔"},{"name":"讃岐会館前区道","province":"東京都","city":"港区","address":"東京都港区三田一丁目11号","lat":35.653018,"lon":139.7382145,"行政管内":"芝地区","設備種別":"無線放送塔"},{"name":"聖徳学園三田幼稚園・専門学校","province":"東京都","city":"港区","address":"東京都港区三田三丁目4番28号","lat":35.645884,"lon":139.743269,"行政管内":"芝地区","設備種別":"無線放送塔"},{"name":"シティハイツ神明","province":"東京都","city":"港区","address":"東京都港区浜松町一丁目13番地","lat":35.658632,"lon":139.7568238,"行政管内":"芝地区","設備種別":"無線放送塔"},{"name":"郵政福祉琴平ビル","province":"東京都","city":"港区","address":"東京都港区虎ノ門一丁目14番1号","lat":35.668821,"lon":139.749355,"行政管内":"芝地区","設備種別":"無線放送塔"},{"name":"芝ロイヤルビル","province":"東京都","city":"港区","address":"東京都港区虎ノ門三丁目25番地3号","lat":35.662404,"lon":139.7460051,"行政管内":"芝地区","設備種別":"無線放送塔"},{"name":"虎ノ門33森ビル","province":"東京都","city":"港区","address":"東京都港区虎ノ門三丁目8番地21号","lat":35.665531,"lon":139.7472105,"行政管内":"芝地区","設備種別":"無線放送塔"},{"name":"仙石山アネックス","province":"東京都","city":"港区","address":"東京都港区虎ノ門五丁目3番地20号","lat":35.663639,"lon":139.7428082,"行政管内":"芝地区","設備種別":"無線放送塔"},{"name":"芝商業高校","province":"東京都","city":"港区","address":"東京都港区海岸一丁目8番25号","lat":35.65647,"lon":139.760575,"行政管内":"芝地区","設備種別":"無線放送塔"},{"name":"狸穴公園","province":"東京都","city":"港区","address":"東京都港区麻布狸穴町63","lat":35.658021,"lon":139.738992,"行政管内":"麻布地区","設備種別":"無線放送塔"},{"name":"都営南麻布四丁目アパート","province":"東京都","city":"港区","address":"東京都港区南麻布四丁目2番地29号","lat":35.647821,"lon":139.7240687,"行政管内":"麻布地区","設備種別":"無線放送塔"},{"name":"ありすいきいきプラザ","province":"東京都","city":"港区","address":"東京都港区南麻布四丁目6番7号","lat":35.650976,"lon":139.727544,"行政管内":"麻布地区","設備種別":"無線放送塔"},{"name":"公団西麻布一丁目アパート","province":"東京都","city":"港区","address":"東京都港区西麻布一丁目7番地2号","lat":35.660842,"lon":139.726207,"行政管内":"麻布地区","設備種別":"無線放送塔"},{"name":"永平寺東京別院長谷寺","province":"東京都","city":"港区","address":"東京都港区西麻布二丁目21番地34号","lat":35.661136,"lon":139.7190104,"行政管内":"麻布地区","設備種別":"無線放送塔"},{"name":"麻布警察署","province":"東京都","city":"港区","address":"東京都港区六本木四丁目16番1号","lat":35.665619,"lon":139.733908,"行政管内":"麻布地区","設備種別":"無線放送塔"},{"name":"六本木電気ビル","province":"東京都","city":"港区","address":"東京都港区六本木六丁目1番地20号","lat":35.662411,"lon":139.7313037,"行政管内":"麻布地区","設備種別":"無線放送塔"},{"name":"衆議院宿舎横区道","province":"東京都","city":"港区","address":"東京都港区六本木七丁目1号","lat":35.6662,"lon":139.725318,"行政管内":"麻布地区","設備種別":"無線放送塔"},{"name":"麻布十番中央マンション","province":"東京都","city":"港区","address":"東京都港区麻布十番二丁目9番地8号","lat":35.654521,"lon":139.735323,"行政管内":"麻布地区","設備種別":"無線放送塔"},{"name":"赤坂スクエアービル","province":"東京都","city":"港区","address":"東京都港区赤坂二丁目10番地16号","lat":35.670566,"lon":139.7415664,"行政管内":"赤坂地区","設備種別":"無線放送塔"},{"name":"ウインド赤坂","province":"東京都","city":"港区","address":"東京都港区赤坂二丁目14番31号","lat":35.672683,"lon":139.7373195,"行政管内":"赤坂地区","設備種別":"無線放送塔"},{"name":"シティーハイツ一ツ木","province":"東京都","city":"港区","address":"東京都港区赤坂五丁目2番50号","lat":35.673205,"lon":139.7342058,"行政管内":"赤坂地区","設備種別":"無線放送塔"},{"name":"都営赤坂五丁目アパート","province":"東京都","city":"港区","address":"東京都港区赤坂五丁目5番地26号","lat":35.67103,"lon":139.7340504,"行政管内":"赤坂地区","設備種別":"無線放送塔"},{"name":"氷川武道館","province":"東京都","city":"港区","address":"東京都港区赤坂六丁目6番14号","lat":35.669742,"lon":139.73769,"行政管内":"赤坂地区","設備種別":"無線放送塔"},{"name":"赤坂中学校","province":"東京都","city":"港区","address":"東京都港区赤坂九丁目2番3号","lat":35.668253,"lon":139.731481,"行政管内":"赤坂地区","設備種別":"無線放送塔"},{"name":"都立青山公園","province":"東京都","city":"港区","address":"東京都港区南青山一丁目5号","lat":35.670241,"lon":139.7241235,"行政管内":"赤坂地区","設備種別":"無線放送塔"},{"name":"都立青山公園(東側)","province":"東京都","city":"港区","address":"東京都港区南青山一丁目6番地","lat":35.670346,"lon":139.724754,"行政管内":"赤坂地区","設備種別":"無線放送塔"},{"name":"青山霊園内区道","province":"東京都","city":"港区","address":"東京都港区南青山二丁目34番地","lat":35.664036,"lon":139.7233682,"行政管内":"赤坂地区","設備種別":"無線放送塔"},{"name":"南青山児童遊園","province":"東京都","city":"港区","address":"東京都港区南青山六丁目13番24号","lat":35.660123,"lon":139.714479,"行政管内":"赤坂地区","設備種別":"無線放送塔"},{"name":"青山児童館","province":"東京都","city":"港区","address":"東京都港区北青山三丁目3番16号","lat":35.667726,"lon":139.714285,"行政管内":"赤坂地区","設備種別":"無線放送塔"},{"name":"御田小学校","province":"東京都","city":"港区","address":"東京都港区三田四丁目11番38号","lat":35.643277,"lon":139.738031,"行政管内":"高輪地区","設備種別":"無線放送塔"},{"name":"豊岡第二児童遊園","province":"東京都","city":"港区","address":"東京都港区三田五丁目4番地2号","lat":35.64778,"lon":139.7387285,"行政管内":"高輪地区","設備種別":"無線放送塔"},{"name":"シティーハイツ桂坂","province":"東京都","city":"港区","address":"東京都港区高輪二丁目13番地8号","lat":35.634543,"lon":139.737854,"行政管内":"高輪地区","設備種別":"無線放送塔"},{"name":"国民生活センター","province":"東京都","city":"港区","address":"東京都港区高輪一丁目13番地22号","lat":35.629629,"lon":139.734868,"行政管内":"高輪地区","設備種別":"無線放送塔"},{"name":"三光坂上区道","province":"東京都","city":"港区","address":"東京都港区白金二丁目5番地","lat":35.64165,"lon":139.7299544,"行政管内":"高輪地区","設備種別":"無線放送塔"},{"name":"はなみずき白金","province":"東京都","city":"港区","address":"東京都港区白金三丁目3番3号","lat":35.646534,"lon":139.729271,"行政管内":"高輪地区","設備種別":"無線放送塔"},{"name":"三光小学校(港区教育センター)","province":"東京都","city":"港区","address":"東京都港区白金三丁目18番2号","lat":35.644328,"lon":139.729204,"行政管内":"高輪地区","設備種別":"無線放送塔"},{"name":"自然教育園東側区道","province":"東京都","city":"港区","address":"東京都港区白金台五丁目11番","lat":35.640989,"lon":139.72026,"行政管内":"高輪地区","設備種別":"無線放送塔"},{"name":"芝浦内貿2号上屋","province":"東京都","city":"港区","address":"東京都港区海岸三丁目29番地1号","lat":35.641984,"lon":139.7596963,"行政管内":"芝浦港南地区","設備種別":"無線放送塔"},{"name":"日の出桟橋大型バス駐車場先","province":"東京都","city":"港区","address":"東京都港区海岸二丁目7番地先","lat":35.650872,"lon":139.7604801,"行政管内":"芝浦港南地区","設備種別":"無線放送塔"},{"name":"みなとパーク芝浦","province":"東京都","city":"港区","address":"東京都港区芝浦一丁目16番1号","lat":35.646717,"lon":139.751751,"行政管内":"芝浦港南地区","設備種別":"無線放送塔"},{"name":"JR変電所前区道","province":"東京都","city":"港区","address":"東京都港区芝浦一丁目7番地","lat":35.648003,"lon":139.7544631,"行政管内":"芝浦港南地区","設備種別":"無線放送塔"},{"name":"吾妻ビル","province":"東京都","city":"港区","address":"東京都港区芝浦三丁目17番地12号","lat":35.642559,"lon":139.7504526,"行政管内":"芝浦港南地区","設備種別":"無線放送塔"},{"name":"都営芝浦四丁目アパート","province":"東京都","city":"港区","address":"東京都港区芝浦四丁目4番地38号","lat":35.641473,"lon":139.7450836,"行政管内":"芝浦港南地区","設備種別":"無線放送塔"},{"name":"芝浦四丁目下水道局敷地","province":"東京都","city":"港区","address":"東京都港区芝浦四丁目20番地","lat":35.63954,"lon":139.7517331,"行政管内":"芝浦港南地区","設備種別":"無線放送塔"},{"name":"コクヨ株式会社社屋","province":"東京都","city":"港区","address":"東京都港区港南一丁目8番地35号","lat":35.630268,"lon":139.7433037,"行政管内":"芝浦港南地区","設備種別":"無線放送塔"},{"name":"特別養護老人ホーム 港南の郷","province":"東京都","city":"港区","address":"東京都港区港南三丁目3番23号","lat":35.633266,"lon":139.749263,"行政管内":"芝浦港南地区","設備種別":"無線放送塔"},{"name":"みなと清掃事務所","province":"東京都","city":"港区","address":"東京都港区港南三丁目9番地59号","lat":35.634452,"lon":139.7514972,"行政管内":"芝浦港南地区","設備種別":"無線放送塔"},{"name":"都営港南四丁目第3アパート","province":"東京都","city":"港区","address":"東京都港区港南四丁目2番地4号","lat":35.629624,"lon":139.747098,"行政管内":"芝浦港南地区","設備種別":"無線放送塔"},{"name":"都営港南四丁目アパート","province":"東京都","city":"港区","address":"東京都港区港南四丁目5番地3号","lat":35.626519,"lon":139.7464897,"行政管内":"芝浦港南地区","設備種別":"無線放送塔"},{"name":"都立北品川埠頭公園","province":"東京都","city":"港区","address":"東京都港区港南五丁目2番5号","lat":35.627147,"lon":139.7550473,"行政管内":"芝浦港南地区","設備種別":"無線放送塔"},{"name":"品川ふ頭","province":"東京都","city":"港区","address":"東京都港区港南五丁目11番地2号","lat":35.629841,"lon":139.7579303,"行政管内":"芝浦港南地区","設備種別":"無線放送塔"},{"name":"港陽中学校","province":"東京都","city":"港区","address":"東京都港区台場一丁目1番5号","lat":35.634155,"lon":139.77713,"行政管内":"芝浦港南地区","設備種別":"無線放送塔"},{"name":"都立お台場海浜公園","province":"東京都","city":"港区","address":"東京都港区台場一丁目4番","lat":35.629803,"lon":139.775275,"行政管内":"芝浦港南地区","設備種別":"無線放送塔"},{"name":"都立お台場海浜公園(西側)","province":"東京都","city":"港区","address":"東京都港区台場一丁目5番","lat":35.634155,"lon":139.77713,"行政管内":"芝浦港南地区","設備種別":"無線放送塔"}]}