{"keyword":"リサイクル","data":[{"name":"エコプラザ","province":"東京都","city":"港区","address":"港区浜松町一丁目13番1号","lat":35.658833,"lon":139.756852,"URL":"<a href='https://www.city.minato.tokyo.jp/shisetsu/kankyo/kankyo/01.html' target='_blank'>https://www.city.minato.tokyo.jp/shisetsu/kankyo/kankyo/01.html</a>","分類":"環境施設","地区":"芝地区","連絡先":"電話:03-5404-7764 ファックス:03-5404-7765"},{"name":"みなとリサイクル清掃事務所","province":"東京都","city":"港区","address":"港区港南三丁目9番59号","lat":35.634364,"lon":139.751329,"URL":"<a href='https://www.city.minato.tokyo.jp/shisetsu/kankyo/seso/01.html' target='_blank'>https://www.city.minato.tokyo.jp/shisetsu/kankyo/seso/01.html</a>","分類":"清掃・リサイクル施設","地区":"芝浦港南地区","連絡先":"電話:03-3450-8025 ファックス:03-3450-8063"},{"name":"港資源化センター","province":"東京都","city":"港区","address":"港区港南五丁目7番1号","lat":35.631227,"lon":139.757018,"URL":"<a href='https://www.city.minato.tokyo.jp/shisetsu/kankyo/seso/02.html' target='_blank'>https://www.city.minato.tokyo.jp/shisetsu/kankyo/seso/02.html</a>","分類":"清掃・リサイクル施設","地区":"芝浦港南地区","連絡先":""},{"name":"港清掃工場","province":"東京都","city":"港区","address":"港区港南五丁目7番1号","lat":35.631576,"lon":139.755846,"URL":"<a href='https://www.city.minato.tokyo.jp/shisetsu/kankyo/seso/03.html' target='_blank'>https://www.city.minato.tokyo.jp/shisetsu/kankyo/seso/03.html</a>","分類":"清掃・リサイクル施設","地区":"芝浦港南地区","連絡先":"電話:03-5479-5300"},{"name":"芝浦清掃作業所","province":"東京都","city":"港区","address":"港区港南三丁目1番18号","lat":35.63509,"lon":139.75075,"URL":"<a href='https://www.city.minato.tokyo.jp/shisetsu/kankyo/seso/05.html' target='_blank'>https://www.city.minato.tokyo.jp/shisetsu/kankyo/seso/05.html</a>","分類":"清掃・リサイクル施設","地区":"芝浦港南地区","連絡先":""},{"name":"新堀粗大ごみ中継所","province":"東京都","city":"港区","address":"港区芝三丁目2番14号","lat":35.653484,"lon":139.746429,"URL":"<a href='https://www.city.minato.tokyo.jp/shisetsu/kankyo/seso/06.html' target='_blank'>https://www.city.minato.tokyo.jp/shisetsu/kankyo/seso/06.html</a>","分類":"清掃・リサイクル施設","地区":"芝地区","連絡先":""}]}