{"keyword":"一覧","data":[{"name":"赤坂図書館","province":"東京都","city":"港区","address":"東京都港区南青山1丁目3-3","lat":35.67151795,"lon":139.72528963},{"name":"六本木駅（都営大江戸線）","province":"東京都","city":"港区","address":"東京都港区赤坂9丁目7-39","lat":35.66469937,"lon":139.73077692},{"name":"麻布十番駅（都営大江戸線）","province":"東京都","city":"港区","address":"東京都港区麻布十番1丁目4-6","lat":35.65701141,"lon":139.73505877},{"name":"芝浦中央公園運動場","province":"東京都","city":"港区","address":"東京都港区港南1丁目4-1","lat":35.6345032,"lon":139.74641974},{"name":"港南図書館","province":"東京都","city":"港区","address":"東京都港区港南3丁目3-17","lat":35.63295626,"lon":139.74956398},{"name":"（郷土資料館）\"","province":"東京都","city":"港区","address":"東京都港区芝5丁目28-4","lat":35.64695446,"lon":139.74543875},{"name":"港勤労福祉会館","province":"東京都","city":"港区","address":"東京都港区芝5丁目18-2","lat":35.64827938,"lon":139.74831901},{"name":"港区スポーツセンター","province":"東京都","city":"港区","address":"東京都港区芝浦1丁目16-1","lat":35.6465852,"lon":139.75137714},{"name":"港区役所庁舎","province":"東京都","city":"港区","address":"東京都港区芝公園1丁目5-25","lat":35.65806727,"lon":139.75154062},{"name":"みなと図書館","province":"東京都","city":"港区","address":"東京都港区芝公園3丁目2-25","lat":35.65989482,"lon":139.75012402},{"name":"芝給水所公園運動場","province":"東京都","city":"港区","address":"東京都港区芝公園3丁目6-7","lat":35.66128065,"lon":139.74511884},{"name":"高輪台駅（都営浅草線）","province":"東京都","city":"港区","address":"東京都港区白金台2丁目26-7","lat":35.63204745,"lon":139.73042949},{"name":"新橋駅（都営浅草線）","province":"東京都","city":"港区","address":"東京都港区新橋2丁目21-1","lat":35.66556387,"lon":139.75903971},{"name":"泉岳寺駅（都営浅草線）","province":"東京都","city":"港区","address":"東京都港区高輪2丁目16-34","lat":35.63792756,"lon":139.73904522},{"name":"港区子どもふれあいルーム","province":"東京都","city":"港区","address":"東京都港区西麻布2丁目13-3","lat":35.66090238,"lon":139.72272084},{"name":"御成門駅（都営三田線）","province":"東京都","city":"港区","address":"東京都港区西新橋3丁目24-6","lat":35.66139191,"lon":139.75129053},{"name":"大門駅（都営浅草線）","province":"東京都","city":"港区","address":"東京都港区浜松町1丁目27-12","lat":35.65699803,"lon":139.75499314},{"name":"神明いきいきプラザ","province":"東京都","city":"港区","address":"東京都港区浜松町1丁目6-7","lat":35.65882013,"lon":139.75754287},{"name":"赤羽橋駅（都営大江戸線）","province":"東京都","city":"港区","address":"東京都港区東麻布1丁目28-13","lat":35.65530903,"lon":139.74347752},{"name":"汐留駅（都営大江戸線）","province":"東京都","city":"港区","address":"東京都港区東新橋1丁目9-1","lat":35.66309753,"lon":139.76125074},{"name":"青山運動場","province":"東京都","city":"港区","address":"東京都港区南青山2丁目21-12","lat":35.66895143,"lon":139.718582},{"name":"青山生涯学習館","province":"東京都","city":"港区","address":"東京都港区南青山4丁目19-7","lat":35.66413247,"lon":139.71713788},{"name":"都立中央図書館","province":"東京都","city":"港区","address":"東京都港区南麻布5丁目7-13","lat":35.65211452,"lon":139.72637084},{"name":"麻布運動場","province":"東京都","city":"港区","address":"東京都港区南麻布5丁目6-33","lat":35.65242008,"lon":139.72772071},{"name":"麻布図書館","province":"東京都","city":"港区","address":"東京都港区六本木5丁目12-24","lat":35.65757804,"lon":139.73579757}]}