{"keyword":"伐採","data":[{"name":"東京都済生会中央病院","province":"東京都","city":"港区","address":"東京都港区三田1丁目4-17","lat":35.65404529,"lon":139.74356645},{"name":"東京慈恵会医科大学附属病院","province":"東京都","city":"港区","address":"東京都港区西新橋3丁目19-18","lat":35.6636611,"lon":139.75126545},{"name":"北里大学北里研究所病院","province":"東京都","city":"港区","address":"東京都港区白金5丁目9-1","lat":35.64559303,"lon":139.72544895},{"name":"北里研究所病院","province":"東京都","city":"港区","address":"東京都港区白金5丁目9-1","lat":35.64559303,"lon":139.72544895},{"name":"都立芝公園グラウンド","province":"東京都","city":"港区","address":"東京都港区芝公園1丁目","lat":35.65760623,"lon":139.75195171},{"name":"港区立麻布運動場・野球場","province":"東京都","city":"港区","address":"東京都港区南麻布5丁目6-33","lat":35.65242008,"lon":139.72772071},{"name":"聖心女子学院グラウンド","province":"東京都","city":"港区","address":"東京都港区白金4丁目11-1","lat":35.64241563,"lon":139.72635453},{"name":"国立大学法人東京海洋大学グラウンド","province":"東京都","city":"港区","address":"東京都港区港南4丁目5-7","lat":35.6269708,"lon":139.74764492},{"name":"迎賓館ヘリポート","province":"東京都","city":"港区","address":"東京都港区元赤坂2丁目","lat":35.67849212,"lon":139.72208963},{"name":"品川駅","province":"東京都","city":"港区","address":"東京都港区港南2丁目","lat":35.6287472,"lon":139.7393921},{"name":"東京都済生会中央病院","province":"東京都","city":"港区","address":"東京都港区三田1丁目4-17","lat":35.65404529,"lon":139.74356645},{"name":"東京慈恵会医科大学附属病院","province":"東京都","city":"港区","address":"東京都港区西新橋3丁目19-18","lat":35.6636611,"lon":139.75126545},{"name":"北里大学北里研究所病院","province":"東京都","city":"港区","address":"東京都港区白金5丁目9-1","lat":35.64559303,"lon":139.72544895},{"name":"北里研究所病院","province":"東京都","city":"港区","address":"東京都港区白金5丁目9-1","lat":35.64559303,"lon":139.72544895},{"name":"都立芝公園グラウンド","province":"東京都","city":"港区","address":"東京都港区芝公園1丁目","lat":35.65760623,"lon":139.75195171},{"name":"港区立麻布運動場・野球場","province":"東京都","city":"港区","address":"東京都港区南麻布5丁目6-33","lat":35.65242008,"lon":139.72772071},{"name":"聖心女子学院グラウンド","province":"東京都","city":"港区","address":"東京都港区白金4丁目11-1","lat":35.64241563,"lon":139.72635453},{"name":"国立大学法人東京海洋大学グラウンド","province":"東京都","city":"港区","address":"東京都港区港南4丁目5-7","lat":35.6269708,"lon":139.74764492},{"name":"迎賓館ヘリポート","province":"東京都","city":"港区","address":"東京都港区元赤坂2丁目","lat":35.67849212,"lon":139.72208963},{"name":"品川駅","province":"東京都","city":"港区","address":"東京都港区港南2丁目","lat":35.6287472,"lon":139.7393921},{"name":"東京都済生会中央病院","province":"東京都","city":"港区","address":"東京都港区三田1丁目4-17","lat":35.65404529,"lon":139.74356645},{"name":"東京慈恵会医科大学附属病院","province":"東京都","city":"港区","address":"東京都港区西新橋3丁目19-18","lat":35.6636611,"lon":139.75126545},{"name":"北里大学北里研究所病院","province":"東京都","city":"港区","address":"東京都港区白金5丁目9-1","lat":35.64559303,"lon":139.72544895},{"name":"北里研究所病院","province":"東京都","city":"港区","address":"東京都港区白金5丁目9-1","lat":35.64559303,"lon":139.72544895},{"name":"都立芝公園グラウンド","province":"東京都","city":"港区","address":"東京都港区芝公園1丁目","lat":35.65760623,"lon":139.75195171},{"name":"港区立麻布運動場・野球場","province":"東京都","city":"港区","address":"東京都港区南麻布5丁目6-33","lat":35.65242008,"lon":139.72772071},{"name":"聖心女子学院グラウンド","province":"東京都","city":"港区","address":"東京都港区白金4丁目11-1","lat":35.64241563,"lon":139.72635453},{"name":"国立大学法人東京海洋大学グラウンド","province":"東京都","city":"港区","address":"東京都港区港南4丁目5-7","lat":35.6269708,"lon":139.74764492},{"name":"迎賓館ヘリポート","province":"東京都","city":"港区","address":"東京都港区元赤坂2丁目","lat":35.67849212,"lon":139.72208963},{"name":"品川駅","province":"東京都","city":"港区","address":"東京都港区港南2丁目","lat":35.6287472,"lon":139.7393921},{"name":"東京都済生会中央病院","province":"東京都","city":"港区","address":"東京都港区三田1丁目4-17","lat":35.65404529,"lon":139.74356645},{"name":"東京慈恵会医科大学附属病院","province":"東京都","city":"港区","address":"東京都港区西新橋3丁目19-18","lat":35.6636611,"lon":139.75126545},{"name":"北里大学北里研究所病院","province":"東京都","city":"港区","address":"東京都港区白金5丁目9-1","lat":35.64559303,"lon":139.72544895},{"name":"北里研究所病院","province":"東京都","city":"港区","address":"東京都港区白金5丁目9-1","lat":35.64559303,"lon":139.72544895},{"name":"品川駅","province":"東京都","city":"港区","address":"東京都港区港南2丁目","lat":35.6287472,"lon":139.7393921},{"name":"東京都済生会中央病院","province":"東京都","city":"港区","address":"東京都港区三田1丁目4-17","lat":35.65404529,"lon":139.74356645},{"name":"東京慈恵会医科大学附属病院","province":"東京都","city":"港区","address":"東京都港区西新橋3丁目19-18","lat":35.6636611,"lon":139.75126545},{"name":"北里大学北里研究所病院","province":"東京都","city":"港区","address":"東京都港区白金5丁目9-1","lat":35.64559303,"lon":139.72544895},{"name":"北里研究所病院","province":"東京都","city":"港区","address":"東京都港区白金5丁目9-1","lat":35.64559303,"lon":139.72544895},{"name":"品川駅","province":"東京都","city":"港区","address":"東京都港区港南2丁目","lat":35.6287472,"lon":139.7393921},{"name":"東京都済生会中央病院","province":"東京都","city":"港区","address":"東京都港区三田1丁目4-17","lat":35.65404529,"lon":139.74356645},{"name":"東京慈恵会医科大学附属病院","province":"東京都","city":"港区","address":"東京都港区西新橋3丁目19-18","lat":35.6636611,"lon":139.75126545},{"name":"北里大学北里研究所病院","province":"東京都","city":"港区","address":"東京都港区白金5丁目9-1","lat":35.64559303,"lon":139.72544895},{"name":"北里研究所病院","province":"東京都","city":"港区","address":"東京都港区白金5丁目9-1","lat":35.64559303,"lon":139.72544895},{"name":"品川駅","province":"東京都","city":"港区","address":"東京都港区港南2丁目","lat":35.6287472,"lon":139.7393921},{"name":"東京都済生会中央病院","province":"東京都","city":"港区","address":"東京都港区三田1丁目4-17","lat":35.65404529,"lon":139.74356645},{"name":"東京慈恵会医科大学附属病院","province":"東京都","city":"港区","address":"東京都港区西新橋3丁目19-18","lat":35.6636611,"lon":139.75126545},{"name":"北里大学北里研究所病院","province":"東京都","city":"港区","address":"東京都港区白金5丁目9-1","lat":35.64559303,"lon":139.72544895},{"name":"北里研究所病院","province":"東京都","city":"港区","address":"東京都港区白金5丁目9-1","lat":35.64559303,"lon":139.72544895},{"name":"品川駅","province":"東京都","city":"港区","address":"東京都港区港南2丁目","lat":35.6287472,"lon":139.7393921},{"name":"東京都済生会中央病院","province":"東京都","city":"港区","address":"東京都港区三田1丁目4-17","lat":35.65404529,"lon":139.74356645},{"name":"東京慈恵会医科大学附属病院","province":"東京都","city":"港区","address":"東京都港区西新橋3丁目19-18","lat":35.6636611,"lon":139.75126545},{"name":"北里大学北里研究所病院","province":"東京都","city":"港区","address":"東京都港区白金5丁目9-1","lat":35.64559303,"lon":139.72544895},{"name":"北里研究所病院","province":"東京都","city":"港区","address":"東京都港区白金5丁目9-1","lat":35.64559303,"lon":139.72544895},{"name":"品川駅","province":"東京都","city":"港区","address":"東京都港区港南2丁目","lat":35.6287472,"lon":139.7393921},{"name":"東京都済生会中央病院","province":"東京都","city":"港区","address":"東京都港区三田1丁目4-17","lat":35.65404529,"lon":139.74356645},{"name":"東京慈恵会医科大学附属病院","province":"東京都","city":"港区","address":"東京都港区西新橋3丁目19-18","lat":35.6636611,"lon":139.75126545},{"name":"北里大学北里研究所病院","province":"東京都","city":"港区","address":"東京都港区白金5丁目9-1","lat":35.64559303,"lon":139.72544895},{"name":"北里研究所病院","province":"東京都","city":"港区","address":"東京都港区白金5丁目9-1","lat":35.64559303,"lon":139.72544895},{"name":"品川駅","province":"東京都","city":"港区","address":"東京都港区港南2丁目","lat":35.6287472,"lon":139.7393921},{"name":"東京都済生会中央病院","province":"東京都","city":"港区","address":"東京都港区三田1丁目4-17","lat":35.65404529,"lon":139.74356645},{"name":"東京慈恵会医科大学附属病院","province":"東京都","city":"港区","address":"東京都港区西新橋3丁目19-18","lat":35.6636611,"lon":139.75126545},{"name":"北里大学北里研究所病院","province":"東京都","city":"港区","address":"東京都港区白金5丁目9-1","lat":35.64559303,"lon":139.72544895},{"name":"北里研究所病院","province":"東京都","city":"港区","address":"東京都港区白金5丁目9-1","lat":35.64559303,"lon":139.72544895},{"name":"品川駅","province":"東京都","city":"港区","address":"東京都港区港南2丁目","lat":35.6287472,"lon":139.7393921},{"name":"東京都済生会中央病院","province":"東京都","city":"港区","address":"東京都港区三田1丁目4-17","lat":35.65404529,"lon":139.74356645},{"name":"東京慈恵会医科大学附属病院","province":"東京都","city":"港区","address":"東京都港区西新橋3丁目19-18","lat":35.6636611,"lon":139.75126545},{"name":"北里大学北里研究所病院","province":"東京都","city":"港区","address":"東京都港区白金5丁目9-1","lat":35.64559303,"lon":139.72544895},{"name":"北里研究所病院","province":"東京都","city":"港区","address":"東京都港区白金5丁目9-1","lat":35.64559303,"lon":139.72544895},{"name":"品川駅","province":"東京都","city":"港区","address":"東京都港区港南2丁目","lat":35.6287472,"lon":139.7393921},{"name":"東京都済生会中央病院","province":"東京都","city":"港区","address":"東京都港区三田1丁目4-17","lat":35.65404529,"lon":139.74356645},{"name":"東京慈恵会医科大学附属病院","province":"東京都","city":"港区","address":"東京都港区西新橋3丁目19-18","lat":35.6636611,"lon":139.75126545},{"name":"北里大学北里研究所病院","province":"東京都","city":"港区","address":"東京都港区白金5丁目9-1","lat":35.64559303,"lon":139.72544895},{"name":"北里研究所病院","province":"東京都","city":"港区","address":"東京都港区白金5丁目9-1","lat":35.64559303,"lon":139.72544895},{"name":"品川駅","province":"東京都","city":"港区","address":"東京都港区港南2丁目","lat":35.6287472,"lon":139.7393921},{"name":"東京都済生会中央病院","province":"東京都","city":"港区","address":"東京都港区三田1丁目4-17","lat":35.65404529,"lon":139.74356645},{"name":"東京慈恵会医科大学附属病院","province":"東京都","city":"港区","address":"東京都港区西新橋3丁目19-18","lat":35.6636611,"lon":139.75126545},{"name":"北里大学北里研究所病院","province":"東京都","city":"港区","address":"東京都港区白金5丁目9-1","lat":35.64559303,"lon":139.72544895},{"name":"北里研究所病院","province":"東京都","city":"港区","address":"東京都港区白金5丁目9-1","lat":35.64559303,"lon":139.72544895},{"name":"品川駅","province":"東京都","city":"港区","address":"東京都港区港南2丁目","lat":35.6287472,"lon":139.7393921},{"name":"東京都済生会中央病院","province":"東京都","city":"港区","address":"東京都港区三田1丁目4-17","lat":35.65404529,"lon":139.74356645},{"name":"東京慈恵会医科大学附属病院","province":"東京都","city":"港区","address":"東京都港区西新橋3丁目19-18","lat":35.6636611,"lon":139.75126545},{"name":"北里大学北里研究所病院","province":"東京都","city":"港区","address":"東京都港区白金5丁目9-1","lat":35.64559303,"lon":139.72544895},{"name":"北里研究所病院","province":"東京都","city":"港区","address":"東京都港区白金5丁目9-1","lat":35.64559303,"lon":139.72544895},{"name":"品川駅","province":"東京都","city":"港区","address":"東京都港区港南2丁目","lat":35.6287472,"lon":139.7393921},{"name":"東京都済生会中央病院","province":"東京都","city":"港区","address":"東京都港区三田1丁目4-17","lat":35.65404529,"lon":139.74356645},{"name":"東京慈恵会医科大学附属病院","province":"東京都","city":"港区","address":"東京都港区西新橋3丁目19-18","lat":35.6636611,"lon":139.75126545},{"name":"北里大学北里研究所病院","province":"東京都","city":"港区","address":"東京都港区白金5丁目9-1","lat":35.64559303,"lon":139.72544895},{"name":"北里研究所病院","province":"東京都","city":"港区","address":"東京都港区白金5丁目9-1","lat":35.64559303,"lon":139.72544895},{"name":"品川駅","province":"東京都","city":"港区","address":"東京都港区港南2丁目","lat":35.6287472,"lon":139.7393921},{"name":"東京都済生会中央病院","province":"東京都","city":"港区","address":"東京都港区三田1丁目4-17","lat":35.65404529,"lon":139.74356645},{"name":"東京慈恵会医科大学附属病院","province":"東京都","city":"港区","address":"東京都港区西新橋3丁目19-18","lat":35.6636611,"lon":139.75126545},{"name":"北里大学北里研究所病院","province":"東京都","city":"港区","address":"東京都港区白金5丁目9-1","lat":35.64559303,"lon":139.72544895},{"name":"北里研究所病院","province":"東京都","city":"港区","address":"東京都港区白金5丁目9-1","lat":35.64559303,"lon":139.72544895},{"name":"品川駅","province":"東京都","city":"港区","address":"東京都港区港南2丁目","lat":35.6287472,"lon":139.7393921},{"name":"東京都済生会中央病院","province":"東京都","city":"港区","address":"東京都港区三田1丁目4-17","lat":35.65404529,"lon":139.74356645},{"name":"東京慈恵会医科大学附属病院","province":"東京都","city":"港区","address":"東京都港区西新橋3丁目19-18","lat":35.6636611,"lon":139.75126545},{"name":"北里大学北里研究所病院","province":"東京都","city":"港区","address":"東京都港区白金5丁目9-1","lat":35.64559303,"lon":139.72544895},{"name":"北里研究所病院","province":"東京都","city":"港区","address":"東京都港区白金5丁目9-1","lat":35.64559303,"lon":139.72544895},{"name":"品川駅","province":"東京都","city":"港区","address":"東京都港区港南2丁目","lat":35.6287472,"lon":139.7393921},{"name":"東京都済生会中央病院","province":"東京都","city":"港区","address":"東京都港区三田1丁目4-17","lat":35.65404529,"lon":139.74356645},{"name":"東京慈恵会医科大学附属病院","province":"東京都","city":"港区","address":"東京都港区西新橋3丁目19-18","lat":35.6636611,"lon":139.75126545},{"name":"北里大学北里研究所病院","province":"東京都","city":"港区","address":"東京都港区白金5丁目9-1","lat":35.64559303,"lon":139.72544895},{"name":"北里研究所病院","province":"東京都","city":"港区","address":"東京都港区白金5丁目9-1","lat":35.64559303,"lon":139.72544895},{"name":"品川駅","province":"東京都","city":"港区","address":"東京都港区港南2丁目","lat":35.6287472,"lon":139.7393921},{"name":"東京都済生会中央病院","province":"東京都","city":"港区","address":"東京都港区三田1丁目4-17","lat":35.65404529,"lon":139.74356645},{"name":"東京慈恵会医科大学附属病院","province":"東京都","city":"港区","address":"東京都港区西新橋3丁目19-18","lat":35.6636611,"lon":139.75126545},{"name":"北里大学北里研究所病院","province":"東京都","city":"港区","address":"東京都港区白金5丁目9-1","lat":35.64559303,"lon":139.72544895},{"name":"北里研究所病院","province":"東京都","city":"港区","address":"東京都港区白金5丁目9-1","lat":35.64559303,"lon":139.72544895},{"name":"品川駅","province":"東京都","city":"港区","address":"東京都港区港南2丁目","lat":35.6287472,"lon":139.7393921},{"name":"東京都済生会中央病院","province":"東京都","city":"港区","address":"東京都港区三田1丁目4-17","lat":35.65404529,"lon":139.74356645},{"name":"東京慈恵会医科大学附属病院","province":"東京都","city":"港区","address":"東京都港区西新橋3丁目19-18","lat":35.6636611,"lon":139.75126545},{"name":"北里大学北里研究所病院","province":"東京都","city":"港区","address":"東京都港区白金5丁目9-1","lat":35.64559303,"lon":139.72544895},{"name":"北里研究所病院","province":"東京都","city":"港区","address":"東京都港区白金5丁目9-1","lat":35.64559303,"lon":139.72544895},{"name":"品川駅","province":"東京都","city":"港区","address":"東京都港区港南2丁目","lat":35.6287472,"lon":139.7393921},{"name":"東京都済生会中央病院","province":"東京都","city":"港区","address":"東京都港区三田1丁目4-17","lat":35.65404529,"lon":139.74356645},{"name":"東京慈恵会医科大学附属病院","province":"東京都","city":"港区","address":"東京都港区西新橋3丁目19-18","lat":35.6636611,"lon":139.75126545},{"name":"北里大学北里研究所病院","province":"東京都","city":"港区","address":"東京都港区白金5丁目9-1","lat":35.64559303,"lon":139.72544895},{"name":"北里研究所病院","province":"東京都","city":"港区","address":"東京都港区白金5丁目9-1","lat":35.64559303,"lon":139.72544895},{"name":"品川駅","province":"東京都","city":"港区","address":"東京都港区港南2丁目","lat":35.6287472,"lon":139.7393921},{"name":"東京都済生会中央病院","province":"東京都","city":"港区","address":"東京都港区三田1丁目4-17","lat":35.65404529,"lon":139.74356645},{"name":"東京慈恵会医科大学附属病院","province":"東京都","city":"港区","address":"東京都港区西新橋3丁目19-18","lat":35.6636611,"lon":139.75126545},{"name":"北里大学北里研究所病院","province":"東京都","city":"港区","address":"東京都港区白金5丁目9-1","lat":35.64559303,"lon":139.72544895},{"name":"北里研究所病院","province":"東京都","city":"港区","address":"東京都港区白金5丁目9-1","lat":35.64559303,"lon":139.72544895},{"name":"品川駅","province":"東京都","city":"港区","address":"東京都港区港南2丁目","lat":35.6287472,"lon":139.7393921},{"name":"東京都済生会中央病院","province":"東京都","city":"港区","address":"東京都港区三田1丁目4-17","lat":35.65404529,"lon":139.74356645},{"name":"東京慈恵会医科大学附属病院","province":"東京都","city":"港区","address":"東京都港区西新橋3丁目19-18","lat":35.6636611,"lon":139.75126545},{"name":"北里大学北里研究所病院","province":"東京都","city":"港区","address":"東京都港区白金5丁目9-1","lat":35.64559303,"lon":139.72544895},{"name":"北里研究所病院","province":"東京都","city":"港区","address":"東京都港区白金5丁目9-1","lat":35.64559303,"lon":139.72544895},{"name":"品川駅","province":"東京都","city":"港区","address":"東京都港区港南2丁目","lat":35.6287472,"lon":139.7393921},{"name":"東京都済生会中央病院","province":"東京都","city":"港区","address":"東京都港区三田1丁目4-17","lat":35.65404529,"lon":139.74356645},{"name":"東京慈恵会医科大学附属病院","province":"東京都","city":"港区","address":"東京都港区西新橋3丁目19-18","lat":35.6636611,"lon":139.75126545},{"name":"北里大学北里研究所病院","province":"東京都","city":"港区","address":"東京都港区白金5丁目9-1","lat":35.64559303,"lon":139.72544895},{"name":"北里研究所病院","province":"東京都","city":"港区","address":"東京都港区白金5丁目9-1","lat":35.64559303,"lon":139.72544895},{"name":"品川駅","province":"東京都","city":"港区","address":"東京都港区港南2丁目","lat":35.6287472,"lon":139.7393921},{"name":"東京都済生会中央病院","province":"東京都","city":"港区","address":"東京都港区三田1丁目4-17","lat":35.65404529,"lon":139.74356645},{"name":"東京慈恵会医科大学附属病院","province":"東京都","city":"港区","address":"東京都港区西新橋3丁目19-18","lat":35.6636611,"lon":139.75126545},{"name":"北里大学北里研究所病院","province":"東京都","city":"港区","address":"東京都港区白金5丁目9-1","lat":35.64559303,"lon":139.72544895},{"name":"北里研究所病院","province":"東京都","city":"港区","address":"東京都港区白金5丁目9-1","lat":35.64559303,"lon":139.72544895},{"name":"品川駅","province":"東京都","city":"港区","address":"東京都港区港南2丁目","lat":35.6287472,"lon":139.7393921},{"name":"東京都済生会中央病院","province":"東京都","city":"港区","address":"東京都港区三田1丁目4-17","lat":35.65404529,"lon":139.74356645},{"name":"東京慈恵会医科大学附属病院","province":"東京都","city":"港区","address":"東京都港区西新橋3丁目19-18","lat":35.6636611,"lon":139.75126545},{"name":"北里大学北里研究所病院","province":"東京都","city":"港区","address":"東京都港区白金5丁目9-1","lat":35.64559303,"lon":139.72544895},{"name":"北里研究所病院","province":"東京都","city":"港区","address":"東京都港区白金5丁目9-1","lat":35.64559303,"lon":139.72544895},{"name":"品川駅","province":"東京都","city":"港区","address":"東京都港区港南2丁目","lat":35.6287472,"lon":139.7393921},{"name":"東京都済生会中央病院","province":"東京都","city":"港区","address":"東京都港区三田1丁目4-17","lat":35.65404529,"lon":139.74356645},{"name":"東京慈恵会医科大学附属病院","province":"東京都","city":"港区","address":"東京都港区西新橋3丁目19-18","lat":35.6636611,"lon":139.75126545},{"name":"北里大学北里研究所病院","province":"東京都","city":"港区","address":"東京都港区白金5丁目9-1","lat":35.64559303,"lon":139.72544895},{"name":"北里研究所病院","province":"東京都","city":"港区","address":"東京都港区白金5丁目9-1","lat":35.64559303,"lon":139.72544895},{"name":"品川駅","province":"東京都","city":"港区","address":"東京都港区港南2丁目","lat":35.6287472,"lon":139.7393921},{"name":"東京都済生会中央病院","province":"東京都","city":"港区","address":"東京都港区三田1丁目4-17","lat":35.65404529,"lon":139.74356645},{"name":"東京慈恵会医科大学附属病院","province":"東京都","city":"港区","address":"東京都港区西新橋3丁目19-18","lat":35.6636611,"lon":139.75126545},{"name":"北里大学北里研究所病院","province":"東京都","city":"港区","address":"東京都港区白金5丁目9-1","lat":35.64559303,"lon":139.72544895},{"name":"北里研究所病院","province":"東京都","city":"港区","address":"東京都港区白金5丁目9-1","lat":35.64559303,"lon":139.72544895},{"name":"品川駅","province":"東京都","city":"港区","address":"東京都港区港南2丁目","lat":35.6287472,"lon":139.7393921},{"name":"東京都済生会中央病院","province":"東京都","city":"港区","address":"東京都港区三田1丁目4-17","lat":35.65404529,"lon":139.74356645},{"name":"東京慈恵会医科大学附属病院","province":"東京都","city":"港区","address":"東京都港区西新橋3丁目19-18","lat":35.6636611,"lon":139.75126545},{"name":"北里大学北里研究所病院","province":"東京都","city":"港区","address":"東京都港区白金5丁目9-1","lat":35.64559303,"lon":139.72544895},{"name":"北里研究所病院","province":"東京都","city":"港区","address":"東京都港区白金5丁目9-1","lat":35.64559303,"lon":139.72544895},{"name":"品川駅","province":"東京都","city":"港区","address":"東京都港区港南2丁目","lat":35.6287472,"lon":139.7393921},{"name":"東京都済生会中央病院","province":"東京都","city":"港区","address":"東京都港区三田1丁目4-17","lat":35.65404529,"lon":139.74356645},{"name":"東京慈恵会医科大学附属病院","province":"東京都","city":"港区","address":"東京都港区西新橋3丁目19-18","lat":35.6636611,"lon":139.75126545},{"name":"北里大学北里研究所病院","province":"東京都","city":"港区","address":"東京都港区白金5丁目9-1","lat":35.64559303,"lon":139.72544895},{"name":"北里研究所病院","province":"東京都","city":"港区","address":"東京都港区白金5丁目9-1","lat":35.64559303,"lon":139.72544895},{"name":"品川駅","province":"東京都","city":"港区","address":"東京都港区港南2丁目","lat":35.6287472,"lon":139.7393921},{"name":"東京都済生会中央病院","province":"東京都","city":"港区","address":"東京都港区三田1丁目4-17","lat":35.65404529,"lon":139.74356645},{"name":"東京慈恵会医科大学附属病院","province":"東京都","city":"港区","address":"東京都港区西新橋3丁目19-18","lat":35.6636611,"lon":139.75126545},{"name":"北里大学北里研究所病院","province":"東京都","city":"港区","address":"東京都港区白金5丁目9-1","lat":35.64559303,"lon":139.72544895},{"name":"北里研究所病院","province":"東京都","city":"港区","address":"東京都港区白金5丁目9-1","lat":35.64559303,"lon":139.72544895},{"name":"品川駅","province":"東京都","city":"港区","address":"東京都港区港南2丁目","lat":35.6287472,"lon":139.7393921},{"name":"東京都済生会中央病院","province":"東京都","city":"港区","address":"東京都港区三田1丁目4-17","lat":35.65404529,"lon":139.74356645},{"name":"東京慈恵会医科大学附属病院","province":"東京都","city":"港区","address":"東京都港区西新橋3丁目19-18","lat":35.6636611,"lon":139.75126545},{"name":"北里大学北里研究所病院","province":"東京都","city":"港区","address":"東京都港区白金5丁目9-1","lat":35.64559303,"lon":139.72544895},{"name":"北里研究所病院","province":"東京都","city":"港区","address":"東京都港区白金5丁目9-1","lat":35.64559303,"lon":139.72544895},{"name":"品川駅","province":"東京都","city":"港区","address":"東京都港区港南2丁目","lat":35.6287472,"lon":139.7393921},{"name":"東京都済生会中央病院","province":"東京都","city":"港区","address":"東京都港区三田1丁目4-17","lat":35.65404529,"lon":139.74356645},{"name":"東京慈恵会医科大学附属病院","province":"東京都","city":"港区","address":"東京都港区西新橋3丁目19-18","lat":35.6636611,"lon":139.75126545},{"name":"北里大学北里研究所病院","province":"東京都","city":"港区","address":"東京都港区白金5丁目9-1","lat":35.64559303,"lon":139.72544895},{"name":"北里研究所病院","province":"東京都","city":"港区","address":"東京都港区白金5丁目9-1","lat":35.64559303,"lon":139.72544895},{"name":"品川駅","province":"東京都","city":"港区","address":"東京都港区港南2丁目","lat":35.6287472,"lon":139.7393921},{"name":"東京都済生会中央病院","province":"東京都","city":"港区","address":"東京都港区三田1丁目4-17","lat":35.65404529,"lon":139.74356645},{"name":"東京慈恵会医科大学附属病院","province":"東京都","city":"港区","address":"東京都港区西新橋3丁目19-18","lat":35.6636611,"lon":139.75126545},{"name":"北里大学北里研究所病院","province":"東京都","city":"港区","address":"東京都港区白金5丁目9-1","lat":35.64559303,"lon":139.72544895},{"name":"北里研究所病院","province":"東京都","city":"港区","address":"東京都港区白金5丁目9-1","lat":35.64559303,"lon":139.72544895},{"name":"品川駅","province":"東京都","city":"港区","address":"東京都港区港南2丁目","lat":35.6287472,"lon":139.7393921},{"name":"東京都済生会中央病院","province":"東京都","city":"港区","address":"東京都港区三田1丁目4-17","lat":35.65404529,"lon":139.74356645},{"name":"東京慈恵会医科大学附属病院","province":"東京都","city":"港区","address":"東京都港区西新橋3丁目19-18","lat":35.6636611,"lon":139.75126545},{"name":"北里大学北里研究所病院","province":"東京都","city":"港区","address":"東京都港区白金5丁目9-1","lat":35.64559303,"lon":139.72544895},{"name":"北里研究所病院","province":"東京都","city":"港区","address":"東京都港区白金5丁目9-1","lat":35.64559303,"lon":139.72544895},{"name":"品川駅","province":"東京都","city":"港区","address":"東京都港区港南2丁目","lat":35.6287472,"lon":139.7393921}]}