{"keyword":"便所","data":[{"name":"新橋二丁目公衆便所","province":"東京都","city":"港区","address":"東京都港区新橋二丁目20番4号","lat":35.6658116,"lon":139.75216,"開設年月日":"19690131"},{"name":"新橋三丁目公衆便所","province":"東京都","city":"港区","address":"東京都港区新橋三丁目25番16号","lat":35.6650229,"lon":139.7566097,"開設年月日":"19641009"},{"name":"天徳寺脇公衆便所","province":"東京都","city":"港区","address":"東京都港区虎ノ門三丁目13番3号","lat":35.66442,"lon":139.7474855,"開設年月日":"19291221"},{"name":"正則学院前公衆便所","province":"東京都","city":"港区","address":"東京都港区虎ノ門三丁目22番1号先","lat":35.661562,"lon":139.7481355,"開設年月日":"19211016"},{"name":"大門際公衆便所","province":"東京都","city":"港区","address":"東京都港区芝公園一丁目7番11号先","lat":35.6575015,"lon":139.7521575,"開設年月日":"19320307"},{"name":"金杉橋際公衆便所","province":"東京都","city":"港区","address":"東京都港区芝一丁目1番26号","lat":35.6529355,"lon":139.7545297,"開設年月日":"19291204"},{"name":"芝園橋際公衆便所","province":"東京都","city":"港区","address":"東京都港区芝三丁目4番9号","lat":35.652877,"lon":139.7494912,"開設年月日":"19260727"},{"name":"芝四丁目公衆便所","province":"東京都","city":"港区","address":"東京都港区芝四丁目1番18号","lat":35.6485914,"lon":139.7495136,"開設年月日":"19280216"},{"name":"三田図書館脇公衆便所","province":"東京都","city":"港区","address":"東京都港区芝五丁目28番4号","lat":35.6470442,"lon":139.7452084,"開設年月日":"19331122"},{"name":"中ノ橋際公衆便所","province":"東京都","city":"港区","address":"東京都港区東麻布一丁目30番1号","lat":35.655057,"lon":139.7418224,"開設年月日":"19251018"},{"name":"一ノ橋際公衆便所","province":"東京都","city":"港区","address":"東京都港区東麻布三丁目9番12号","lat":35.655493,"lon":139.7374561,"開設年月日":"19260902"},{"name":"二ノ橋際公衆便所","province":"東京都","city":"港区","address":"東京都港区麻布十番四丁目6番5号先","lat":35.6529766,"lon":139.7369562,"開設年月日":"19690401"},{"name":"古川橋際公衆便所","province":"東京都","city":"港区","address":"東京都港区南麻布二丁目15番11号","lat":35.6507517,"lon":139.7305291,"開設年月日":"19720410"},{"name":"仙台坂上公衆便所","province":"東京都","city":"港区","address":"東京都港区南麻布三丁目3番41号先","lat":35.6515738,"lon":139.7305235,"開設年月日":"19290413"},{"name":"南麻布三丁目公衆便所","province":"東京都","city":"港区","address":"東京都港区南麻布三丁目22番5号","lat":35.6507517,"lon":139.7305291,"開設年月日":"19720410"},{"name":"十番通宮村町公衆便所","province":"東京都","city":"港区","address":"東京都港区元麻布三丁目11番1号","lat":35.6570537,"lon":139.7325676,"開設年月日":"19511126"},{"name":"西麻布二丁目公衆便所","province":"東京都","city":"港区","address":"東京都港区西麻布二丁目1番2号","lat":35.6641553,"lon":139.7198547,"開設年月日":"19780401"},{"name":"今井町公衆便所","province":"東京都","city":"港区","address":"東京都港区六本木二丁目1番32号先","lat":35.6641222,"lon":139.729426,"開設年月日":"19250401"},{"name":"六本木三丁目公衆便所","province":"東京都","city":"港区","address":"東京都港区六本木三丁目15番25号","lat":35.6626309,"lon":139.7350756,"開設年月日":"19720410"},{"name":"芋洗坂上公衆便所","province":"東京都","city":"港区","address":"東京都港区六本木五丁目8番1号","lat":35.6641222,"lon":139.729426,"開設年月日":"19260828"},{"name":"永坂上公衆便所","province":"東京都","city":"港区","address":"東京都港区六本木五丁目18番6号","lat":35.6641222,"lon":139.729426,"開設年月日":"19060401"},{"name":"権田原公衆便所","province":"東京都","city":"港区","address":"東京都港区元赤坂二丁目2番29号先","lat":35.6781981,"lon":139.7206595,"開設年月日":"19380416"},{"name":"氷川神社前公衆便所","province":"東京都","city":"港区","address":"東京都港区赤坂六丁目10番18号","lat":35.6749184,"lon":139.736775,"開設年月日":"19080401"},{"name":"高輪一丁目公衆便所","province":"東京都","city":"港区","address":"東京都港区高輪一丁目16番25号","lat":35.641995,"lon":139.734192,"開設年月日":"19660630"},{"name":"老増町公衆便所","province":"東京都","city":"港区","address":"東京都港区白金一丁目28番8号","lat":35.6436248,"lon":139.734129,"開設年月日":"19250331"},{"name":"三光坂下公衆便所","province":"東京都","city":"港区","address":"東京都港区白金四丁目3番7号先","lat":35.6437969,"lon":139.730096,"開設年月日":"19260330"},{"name":"香取橋際公衆便所","province":"東京都","city":"港区","address":"東京都港区芝浦二丁目17番15号","lat":35.6447252,"lon":139.7516357,"開設年月日":"19720104"},{"name":"田町駅東口公衆便所","province":"東京都","city":"港区","address":"東京都港区芝浦三丁目1番39号","lat":35.6426949,"lon":139.749011,"開設年月日":"19820401"},{"name":"新芝橋際公衆便所","province":"東京都","city":"港区","address":"東京都港区芝浦三丁目5番40号先","lat":35.6426949,"lon":139.749011,"開設年月日":"19530331"},{"name":"浦島橋際公衆便所","province":"東京都","city":"港区","address":"東京都港区海岸三丁目2番2号","lat":35.6448587,"lon":139.7558326,"開設年月日":"19510301"},{"name":"品川駅港南口公衆便所","province":"東京都","city":"港区","address":"東京都港区港南二丁目14番24号","lat":35.6290074,"lon":139.7413261,"開設年月日":"19730401"}]}