{"keyword":"保育","data":[{"name":"グローバルキッズ虎ノ門保育園","province":"東京都","city":"港区","address":"港区虎ノ門三丁目19番13号","lat":35.663042,"lon":139.746896},{"name":"こころ新橋保育園","province":"東京都","city":"港区","address":"港区新橋6-4-3ル・グランシエルビル7号館2階","lat":35.662261,"lon":139.754179},{"name":"芝公園保育園","province":"東京都","city":"港区","address":"港区芝公園二丁目7番3号","lat":35.654215,"lon":139.750638},{"name":"神明保育園","province":"東京都","city":"港区","address":"港区浜松町一丁目6番7号","lat":35.658826,"lon":139.757554},{"name":"アスク芝公園保育園","province":"東京都","city":"港区","address":"港区芝二丁目12番16号","lat":35.651554,"lon":139.752563},{"name":"太陽の子芝浦一丁目保育園","province":"東京都","city":"港区","address":"港区芝浦一丁目9番7号","lat":35.648116,"lon":139.753474},{"name":"太陽の子シーバンス保育園","province":"東京都","city":"港区","address":"港区芝浦一丁目2番2号シーバンスア・モール3階","lat":35.649913,"lon":139.756479},{"name":"アンジェリカ田町保育園","province":"東京都","city":"港区","address":"港区芝浦一丁目6番41号","lat":35.647466,"lon":139.755299},{"name":"西麻布保育園","province":"東京都","city":"港区","address":"港区西麻布二丁目13番3号","lat":35.660902,"lon":139.722721},{"name":"コスモス西麻布保育園","province":"東京都","city":"港区","address":"港区西麻布2-2-2NKホームズ1階B","lat":35.663688,"lon":139.720288},{"name":"麻布保育園","province":"東京都","city":"港区","address":"港区六本木五丁目16番46号","lat":35.661047,"lon":139.73552},{"name":"まちの保育園六本木","province":"東京都","city":"港区","address":"港区六本木一丁目9番10号","lat":35.663691,"lon":139.741805},{"name":"飯倉保育園","province":"東京都","city":"港区","address":"港区東麻布一丁目21番2号","lat":35.655859,"lon":139.743536},{"name":"東麻布保育園","province":"東京都","city":"港区","address":"港区東麻布2-1-1","lat":35.658211,"lon":139.742619},{"name":"あい・あい保育園麻布十番園","province":"東京都","city":"港区","address":"港区東麻布2-32-7","lat":35.656031,"lon":139.740453},{"name":"あい保育園元麻布","province":"東京都","city":"港区","address":"港区元麻布三丁目2番19号","lat":35.657392,"lon":139.727343},{"name":"南麻布保育園","province":"東京都","city":"港区","address":"港区南麻布四丁目2番29号","lat":35.647821,"lon":139.724068},{"name":"本村保育園","province":"東京都","city":"港区","address":"港区南麻布四丁目6番7号","lat":35.651037,"lon":139.72741},{"name":"まなびの森保育園麻布","province":"東京都","city":"港区","address":"港区南麻布一丁目8番11号","lat":35.650701,"lon":139.735478},{"name":"太陽の子南麻布保育園","province":"東京都","city":"港区","address":"港区南麻布四丁目11番30号","lat":35.646982,"lon":139.727157},{"name":"あい保育園南麻布","province":"東京都","city":"港区","address":"港区南麻布二丁目11番10号","lat":35.647626,"lon":139.735745},{"name":"赤坂保育園","province":"東京都","city":"港区","address":"港区赤坂五丁目5番26号","lat":35.671029,"lon":139.73405},{"name":"赤坂ちとせ保育園","province":"東京都","city":"港区","address":"港区赤坂四丁目7番15号","lat":35.675501,"lon":139.734011},{"name":"太陽の子赤坂保育園","province":"東京都","city":"港区","address":"港区赤坂八丁目12番16号","lat":35.66999,"lon":139.730486},{"name":"青山保育園","province":"東京都","city":"港区","address":"港区北青山三丁目4番14号","lat":35.668021,"lon":139.714038},{"name":"南青山保育園","province":"東京都","city":"港区","address":"港区南青山一丁目3番15号","lat":35.671216,"lon":139.725536},{"name":"あい保育園青山一丁目","province":"東京都","city":"港区","address":"港区南青山一丁目3番1号","lat":35.671632,"lon":139.725473},{"name":"太陽の子南青山保育園","province":"東京都","city":"港区","address":"港区南青山四丁目1番6号セブン南青山ビル1.2F","lat":35.667363,"lon":139.719146},{"name":"小学館アカデミー南青山保育園","province":"東京都","city":"港区","address":"港区南青山四丁目15番8号","lat":35.664969,"lon":139.71831},{"name":"芝保育園","province":"東京都","city":"港区","address":"港区芝五丁目18番1号","lat":35.648404,"lon":139.747777},{"name":"芝浦アイランドこども園","province":"東京都","city":"港区","address":"港区芝浦四丁目20番1号","lat":35.640372,"lon":139.752419},{"name":"にじのいるか保育園","province":"東京都","city":"港区","address":"港区芝浦二丁目3番31号","lat":35.644108,"lon":139.754505},{"name":"太陽の子芝浦二丁目保育園","province":"東京都","city":"港区","address":"港区芝浦二丁目17番9号","lat":35.645142,"lon":139.752596},{"name":"太陽の子芝浦三丁目保育園","province":"東京都","city":"港区","address":"港区芝浦三丁目20番2号山楽ビル2・3階","lat":35.642261,"lon":139.746481},{"name":"アスク芝浦４丁目保育園","province":"東京都","city":"港区","address":"港区芝浦四丁目12番28号","lat":35.639519,"lon":139.749005},{"name":"しばうら保育園","province":"東京都","city":"港区","address":"港区芝浦三丁目1番16号","lat":35.645105,"lon":139.750191},{"name":"ニチイキッズ白金台保育園","province":"東京都","city":"港区","address":"港区白金台二丁目26番10号GREENOAK高輪2F","lat":35.631836,"lon":139.729907},{"name":"白金保育園","province":"東京都","city":"港区","address":"港区白金三丁目10番12号","lat":35.644893,"lon":139.731073},{"name":"ゆらりん白金保育園","province":"東京都","city":"港区","address":"港区白金一丁目26番10号","lat":35.64388,"lon":139.73347},{"name":"みつばち保育園","province":"東京都","city":"港区","address":"港区白金四丁目7番2号","lat":35.642724,"lon":139.727552},{"name":"太陽の子三田保育園","province":"東京都","city":"港区","address":"港区三田一丁目2番18号","lat":35.655056,"lon":139.7406},{"name":"あい保育園赤羽橋","province":"東京都","city":"港区","address":"港区三田一丁目3番31号","lat":35.654576,"lon":139.743539},{"name":"伊皿子坂保育園","province":"東京都","city":"港区","address":"港区三田四丁目19番30号","lat":35.640299,"lon":139.738726},{"name":"太陽の子三田五丁目保育園","province":"東京都","city":"港区","address":"港区三田五丁目4番3号","lat":35.647632,"lon":139.738873},{"name":"高輪保育園","province":"東京都","city":"港区","address":"港区高輪三丁目18番15号","lat":35.6332,"lon":139.735693},{"name":"みなと保育園","province":"東京都","city":"港区","address":"港区高輪一丁目6番9号","lat":35.642305,"lon":139.735329},{"name":"愛星保育園","province":"東京都","city":"港区","address":"港区高輪一丁目27番40号","lat":35.636708,"lon":139.732043},{"name":"高輪夢保育園","province":"東京都","city":"港区","address":"港区高輪三丁目25番33号","lat":35.631923,"lon":139.737887},{"name":"ゆらりん高輪保育園","province":"東京都","city":"港区","address":"港区高輪一丁目5番38号","lat":35.641749,"lon":139.736859},{"name":"こうなん保育園","province":"東京都","city":"港区","address":"港区港南四丁目2番3号","lat":35.629729,"lon":139.747903},{"name":"ゆらりん港南保育園","province":"東京都","city":"港区","address":"港区港南一丁目6番27号","lat":35.629529,"lon":139.745459},{"name":"ベネッセ港南保育園","province":"東京都","city":"港区","address":"港区港南四丁目6番7号ワールドシティタワーズキャピタルタワー2F","lat":35.627665,"lon":139.750578},{"name":"たかはま保育園","province":"東京都","city":"港区","address":"港区港南四丁目3番7号","lat":35.630943,"lon":139.74965},{"name":"グローバルキッズ港南保育園","province":"東京都","city":"港区","address":"港区港南四丁目1番10号","lat":35.629632,"lon":139.746667},{"name":"ふたばクラブ港南保育園","province":"東京都","city":"港区","address":"港区港南2-16-6CanonSタワー","lat":35.625626,"lon":139.740154},{"name":"台場保育園","province":"東京都","city":"港区","address":"港区台場一丁目5番1号","lat":35.629993,"lon":139.777081}]}