{"keyword":"公共","data":[{"name":"セコム医療システム株式会社セコム高輪訪問看護ステーション","province":"東京都","city":"港区","address":"東京都港区高輪3-25-27アベニュー高輪1306","lat":35.631471,"lon":139.73787},{"name":"東京水上警察署","province":"東京都","city":"港区","address":"東京都港区港南5-8-36","lat":35.632557,"lon":139.7551},{"name":"東京都立中央図書館","province":"東京都","city":"港区","address":"東京都港区南麻布5-7-13","lat":35.652096,"lon":139.726341},{"name":"東京都庭園美術館","province":"東京都","city":"港区","address":"東京都港区白金台5-21-9","lat":35.636947,"lon":139.719041},{"name":"お台場海浜公園","province":"東京都","city":"港区","address":"東京都港区台場一丁目4番地","lat":35.630845,"lon":139.776087},{"name":"シンボルプロムナード公園","province":"東京都","city":"港区","address":"東京都港区台場一丁目・二丁目、江東区青海一丁目・二丁目、有明二丁目・三丁目","lat":35.623908,"lon":139.77443},{"name":"品川北ふ頭公園","province":"東京都","city":"港区","address":"東京都港区港南五丁目","lat":35.628471,"lon":139.73876},{"name":"芝浦南ふ頭公園","province":"東京都","city":"港区","address":"東京都港区海岸三丁目","lat":35.637118,"lon":139.759962},{"name":"青山公園","province":"東京都","city":"港区","address":"東京都港区六本木七丁目、南青山一丁目","lat":35.668524,"lon":139.720671},{"name":"芝公園","province":"東京都","city":"港区","address":"東京都港区芝公園一・二・三・四丁目","lat":35.654938,"lon":139.747984},{"name":"石神井公園","province":"東京都","city":"港区","address":"東京都港区台場一丁目10番1号","lat":35.743429,"lon":139.604122},{"name":"旧芝離宮恩賜庭園","province":"東京都","city":"港区","address":"東京都港区海岸一丁目","lat":35.655799,"lon":139.758046}]}