{"keyword":"初動","data":[{"name":"警視庁新橋庁舎","province":"東京都","city":"港区","address":"港区新橋6-18-8","lat":35.66142,"lon":139.7528},{"name":"第一自動車警ら隊","province":"東京都","city":"港区","address":"港区海岸3-12-1","lat":35.64033,"lon":139.7552},{"name":"赤坂警察署","province":"東京都","city":"港区","address":"港区赤坂4-18-19","lat":35.675,"lon":139.7321},{"name":"麻布警察署","province":"東京都","city":"港区","address":"港区六本木6-2-37","lat":35.66231,"lon":139.7309},{"name":"愛宕警察署","province":"東京都","city":"港区","address":"港区新橋6-18-12","lat":35.66097,"lon":139.7527},{"name":"高輪警察署","province":"東京都","city":"港区","address":"港区高輪3-15-20","lat":35.63544,"lon":139.7332},{"name":"三田警察署","province":"東京都","city":"港区","address":"港区芝浦4-2-12","lat":35.64222,"lon":139.7444},{"name":"赤坂消防署","province":"東京都","city":"港区","address":"港区南青山2-16-9","lat":35.66905,"lon":139.7209},{"name":"麻布消防署","province":"東京都","city":"港区","address":"港区元麻布3-4-42","lat":35.65714,"lon":139.7273},{"name":"芝消防署","province":"東京都","city":"港区","address":"港区新橋6-18-15","lat":35.6611,"lon":139.7523},{"name":"高輪消防署","province":"東京都","city":"港区","address":"港区白金2-4-12","lat":35.64107,"lon":139.7328},{"name":"都営大江戸線麻布十番駅内備蓄倉庫","province":"東京都","city":"港区","address":"港区麻布十番4-4-9","lat":35.65378,"lon":139.737},{"name":"港区","province":"東京都","city":"港区","address":"港区新橋4-28-5","lat":35.66431,"lon":139.7545}]}