{"keyword":"区","data":[{"name":"みなと保健所","province":"東京都","city":"港区","address":"港区三田1-4-10","lat":35.654031,"lon":139.742558},{"name":"みなと保健所","province":"東京都","city":"港区","address":"東京都港区三田1丁目4-10","lat":35.65403081,"lon":139.7425582},{"name":"みなと保健所","province":"東京都","city":"港区","address":"港区三田1-4-10","lat":35.65316,"lon":139.74274},{"name":"公益財団法人 港区スポーツふれあい文化健康財団(Kissポート財団)","province":"東京都","city":"港区","address":"港区赤坂四丁目18番13号赤坂コミュニティーぷらざ内","lat":35.674729,"lon":139.731722,"URL":"<a href='https://www.city.minato.tokyo.jp/shisetsu/kankekikan/kankekikan/02.html' target='_blank'>https://www.city.minato.tokyo.jp/shisetsu/kankekikan/kankekikan/02.html</a>","分類":"区関係機関","地区":"赤坂地区","連絡先":"電話番号:03-5770-6837 ファックス番号:03-5770-6884"},{"name":"社会福祉法人 港区社会福祉協議会","province":"東京都","city":"港区","address":"港区六本木五丁目16番45号麻布地区総合支所2階","lat":35.660657,"lon":139.735078,"URL":"<a href='https://www.city.minato.tokyo.jp/shisetsu/kankekikan/kankekikan/03.html' target='_blank'>https://www.city.minato.tokyo.jp/shisetsu/kankekikan/kankekikan/03.html</a>","分類":"区関係機関","地区":"麻布地区","連絡先":"電話番号:03-6230-0280 ファックス番号:03-6230-0285"},{"name":"公益社団法人 港区シルバー人材センター","province":"東京都","city":"港区","address":"港区南麻布一丁目5番26号(ゆうあい南麻布内)","lat":35.651307,"lon":139.735279,"URL":"<a href='https://www.city.minato.tokyo.jp/shisetsu/kankekikan/kankekikan/05.html' target='_blank'>https://www.city.minato.tokyo.jp/shisetsu/kankekikan/kankekikan/05.html</a>","分類":"区関係機関","地区":"麻布地区","連絡先":"電話番号:03-5232-9681 ファックス番号:03-5232-9680"},{"name":"一般財団法人 港区国際交流協会","province":"東京都","city":"港区","address":"港区北青山一丁目6番3号都営北青山一丁目アパート3号棟地下1階","lat":35.674568,"lon":139.721294,"URL":"<a href='https://www.city.minato.tokyo.jp/shisetsu/kankekikan/kankekikan/06.html' target='_blank'>https://www.city.minato.tokyo.jp/shisetsu/kankekikan/kankekikan/06.html</a>","分類":"区関係機関","地区":"赤坂地区","連絡先":"電話番号:03-6440-0233 ファックス番号:03-6440-0234"},{"name":"特定非営利活動法人 みなと障がい者福祉事業団","province":"東京都","city":"港区","address":"港区芝一丁目8番23号障害保健福祉センター内","lat":35.651756,"lon":139.755562,"URL":"<a href='https://www.city.minato.tokyo.jp/shisetsu/kankekikan/kankekikan/07.html' target='_blank'>https://www.city.minato.tokyo.jp/shisetsu/kankekikan/kankekikan/07.html</a>","分類":"区関係機関","地区":"芝地区","連絡先":"電話:03-5439-8062"}]}