{"keyword":"喫煙","data":[{"name":"KDX南青山ビル1階指定喫煙場所(セブンイレブン南青山5丁目店内)","province":"東京都","city":"港区","address":"港区南青山五丁目13番3号","lat":35.661191,"lon":139.713931,"URL":"<a href='https://www.city.minato.tokyo.jp/shisetsu/sonota/kitsuen/59.html' target='_blank'>https://www.city.minato.tokyo.jp/shisetsu/sonota/kitsuen/59.html</a>","分類":"指定喫煙場所(屋内)","地区":"赤坂地区","連絡先":""},{"name":"ファースト岡田ビル1階指定喫煙場所(セブンイレブン三田駅北店内)","province":"東京都","city":"港区","address":"港区芝四丁目3番5号","lat":35.649021,"lon":139.750182,"URL":"<a href='https://www.city.minato.tokyo.jp/shisetsu/sonota/kitsuen/60.html' target='_blank'>https://www.city.minato.tokyo.jp/shisetsu/sonota/kitsuen/60.html</a>","分類":"指定喫煙場所(屋内)","地区":"芝地区","連絡先":""},{"name":"芝浦SECビル1階指定喫煙場所(ファミリーマート田町東口店内)","province":"東京都","city":"港区","address":"港区芝四丁目3番5号","lat":35.643075,"lon":139.749265,"URL":"<a href='https://www.city.minato.tokyo.jp/shisetsu/sonota/kitsuen/61.html' target='_blank'>https://www.city.minato.tokyo.jp/shisetsu/sonota/kitsuen/61.html</a>","分類":"指定喫煙場所(屋内)","地区":"芝浦港南地区","連絡先":""},{"name":"セブンイレブン新橋駅前店内指定喫煙場所","province":"東京都","city":"港区","address":"港区新橋一丁目13番7号","lat":35.667732,"lon":139.758132,"URL":"<a href='https://www.city.minato.tokyo.jp/shisetsu/sonota/kitsuen/63.html' target='_blank'>https://www.city.minato.tokyo.jp/shisetsu/sonota/kitsuen/63.html</a>","分類":"指定喫煙場所(屋内)","地区":"芝地区","連絡先":""},{"name":"イケダヤ品川ビル1階指定喫煙場所(セブンイレブン港区港南2丁目店内)","province":"東京都","city":"港区","address":"港区港南二丁目2番27号","lat":35.625492,"lon":139.745194,"URL":"<a href='https://www.city.minato.tokyo.jp/shisetsu/sonota/kitsuen/64.html' target='_blank'>https://www.city.minato.tokyo.jp/shisetsu/sonota/kitsuen/64.html</a>","分類":"指定喫煙場所(屋内)","地区":"芝浦港南地区","連絡先":""},{"name":"ステップ六本木1階指定喫煙場所(ファミリーマート六本木六丁目店内)","province":"東京都","city":"港区","address":"港区六本木六丁目8番10号","lat":35.661244,"lon":139.732752,"URL":"<a href='https://www.city.minato.tokyo.jp/shisetsu/sonota/kitsuen/65.html' target='_blank'>https://www.city.minato.tokyo.jp/shisetsu/sonota/kitsuen/65.html</a>","分類":"指定喫煙場所(屋内)","地区":"麻布地区","連絡先":""},{"name":"汐留ビルディング1階指定喫煙場所(セブンイレブン汐留ビルディング店内)","province":"東京都","city":"港区","address":"港区海岸一丁目2番20号","lat":35.657247,"lon":139.759569,"URL":"<a href='https://www.city.minato.tokyo.jp/shisetsu/sonota/kitsuen/66.html' target='_blank'>https://www.city.minato.tokyo.jp/shisetsu/sonota/kitsuen/66.html</a>","分類":"指定喫煙場所(屋内)","地区":"芝地区","連絡先":""},{"name":"台場フロンティアビル2階指定喫煙場所","province":"東京都","city":"港区","address":"港区台場二丁目3番2号","lat":35.628608,"lon":139.777603,"URL":"<a href='https://www.city.minato.tokyo.jp/shisetsu/sonota/kitsuen/67.html' target='_blank'>https://www.city.minato.tokyo.jp/shisetsu/sonota/kitsuen/67.html</a>","分類":"指定喫煙場所(屋内)","地区":"芝浦港南地区","連絡先":""},{"name":"デックス東京ビーチ1階指定喫煙場所(ファミリーマートお台場東京ビーチ店内)","province":"東京都","city":"港区","address":"港区台場一丁目6番1号","lat":35.62897,"lon":139.776453,"URL":"<a href='https://www.city.minato.tokyo.jp/shisetsu/sonota/kitsuen/68.html' target='_blank'>https://www.city.minato.tokyo.jp/shisetsu/sonota/kitsuen/68.html</a>","分類":"指定喫煙場所(屋内)","地区":"芝浦港南地区","連絡先":""},{"name":"六本木ファーストビル1階指定喫煙場所","province":"東京都","city":"港区","address":"港区六本木一丁目9番9号","lat":35.663237,"lon":139.741008,"URL":"<a href='https://www.city.minato.tokyo.jp/shisetsu/sonota/kitsuen/69.html' target='_blank'>https://www.city.minato.tokyo.jp/shisetsu/sonota/kitsuen/69.html</a>","分類":"指定喫煙場所(屋内)","地区":"麻布地区","連絡先":""},{"name":"No.R浜松町1階指定喫煙場所(セブンイレブン浜松町1丁目北店内)","province":"東京都","city":"港区","address":"港区浜松町一丁目2番1号","lat":35.660106,"lon":139.755971,"URL":"<a href='https://www.city.minato.tokyo.jp/shisetsu/sonota/kitsuen/70.html' target='_blank'>https://www.city.minato.tokyo.jp/shisetsu/sonota/kitsuen/70.html</a>","分類":"指定喫煙場所(屋内)","地区":"芝浦港南地区","連絡先":""},{"name":"TOKYU REIT虎ノ門ビル1階指定喫煙場所(セブンイレブン神谷町駅東店)","province":"東京都","city":"港区","address":"港区虎ノ門三丁目17番1号","lat":35.663863,"lon":139.746357,"URL":"<a href='https://www.city.minato.tokyo.jp/shisetsu/sonota/kitsuen/71.html' target='_blank'>https://www.city.minato.tokyo.jp/shisetsu/sonota/kitsuen/71.html</a>","分類":"指定喫煙場所(屋内)","地区":"麻布地区","連絡先":""},{"name":"フォーシーズ溜池山王ビル2階指定喫煙場所(ファミリーマート溜池山王駅南店内)","province":"東京都","city":"港区","address":"港区赤坂2丁目10番11号","lat":35.670065,"lon":139.741517,"URL":"<a href='https://www.city.minato.tokyo.jp/shisetsu/sonota/kitsuen/72.html' target='_blank'>https://www.city.minato.tokyo.jp/shisetsu/sonota/kitsuen/72.html</a>","分類":"指定喫煙場所(屋内)","地区":"赤坂地区","連絡先":""},{"name":"竹芝客船ターミナル指定喫煙場所(1)","province":"東京都","city":"港区","address":"港区海岸一丁目12番2号","lat":35.654166,"lon":139.762262,"URL":"<a href='https://www.city.minato.tokyo.jp/shisetsu/sonota/kitsuen/78.html' target='_blank'>https://www.city.minato.tokyo.jp/shisetsu/sonota/kitsuen/78.html</a>","分類":"指定喫煙場所(屋外)","地区":"芝地区","連絡先":""},{"name":"竹芝客船ターミナル指定喫煙場所(2)","province":"東京都","city":"港区","address":"港区海岸一丁目12番2号","lat":35.654218,"lon":139.762606,"URL":"<a href='https://www.city.minato.tokyo.jp/shisetsu/sonota/kitsuen/79.html' target='_blank'>https://www.city.minato.tokyo.jp/shisetsu/sonota/kitsuen/79.html</a>","分類":"指定喫煙場所(屋外)","地区":"芝地区","連絡先":""},{"name":"竹芝客船ターミナル指定喫煙場所(3)","province":"東京都","city":"港区","address":"港区海岸一丁目12番2号","lat":35.654712,"lon":139.76327,"URL":"<a href='https://www.city.minato.tokyo.jp/shisetsu/sonota/kitsuen/80.html' target='_blank'>https://www.city.minato.tokyo.jp/shisetsu/sonota/kitsuen/80.html</a>","分類":"指定喫煙場所(屋外)","地区":"芝地区","連絡先":""},{"name":"芝1丁目ビル階指定喫煙場所(セブンイレブン港区芝1丁目店内)","province":"東京都","city":"港区","address":"港区芝一丁目12番7号","lat":35.650904,"lon":139.75507,"URL":"<a href='https://www.city.minato.tokyo.jp/shisetsu/sonota/kitsuen/81.html' target='_blank'>https://www.city.minato.tokyo.jp/shisetsu/sonota/kitsuen/81.html</a>","分類":"指定喫煙場所(屋内)","地区":"芝地区","連絡先":""},{"name":"ラピロス六本木地下1階指定喫煙場所(ファミリーマート地下鉄六本木店内)","province":"東京都","city":"港区","address":"港区六本木六丁目1番24号","lat":35.662429,"lon":139.731886,"URL":"<a href='https://www.city.minato.tokyo.jp/shisetsu/sonota/kitsuen/82.html' target='_blank'>https://www.city.minato.tokyo.jp/shisetsu/sonota/kitsuen/82.html</a>","分類":"指定喫煙場所(屋内)","地区":"麻布地区","連絡先":""},{"name":"msb Tamachi 田町ステーションタワーS 1階指定喫煙場所","province":"東京都","city":"港区","address":"港区芝浦三丁目1番21号","lat":35.644973,"lon":139.749108,"URL":"<a href='https://www.city.minato.tokyo.jp/shisetsu/sonota/kitsuen/83.html' target='_blank'>https://www.city.minato.tokyo.jp/shisetsu/sonota/kitsuen/83.html</a>","分類":"指定喫煙場所(屋内)","地区":"芝浦港南地区","連絡先":""},{"name":"msb Tamachi 田町ステーションタワーS 2階指定喫煙場所","province":"東京都","city":"港区","address":"港区芝浦三丁目1番21号","lat":35.644973,"lon":139.749108,"URL":"<a href='https://www.city.minato.tokyo.jp/shisetsu/sonota/kitsuen/84.html' target='_blank'>https://www.city.minato.tokyo.jp/shisetsu/sonota/kitsuen/84.html</a>","分類":"指定喫煙場所(屋内)","地区":"芝浦港南地区","連絡先":""},{"name":"浜松町エクセレントビル2階指定喫煙場所","province":"東京都","city":"港区","address":"港区浜松町二丁目6番5号","lat":35.654439,"lon":139.755862,"URL":"<a href='https://www.city.minato.tokyo.jp/shisetsu/sonota/kitsuen/85.html' target='_blank'>https://www.city.minato.tokyo.jp/shisetsu/sonota/kitsuen/85.html</a>","分類":"指定喫煙場所(屋内)","地区":"芝地区","連絡先":""},{"name":"キャピタル赤坂ビル1階指定喫煙場所(ファミリーマート赤坂一丁目店内)","province":"東京都","city":"港区","address":"港区赤坂一丁目7番19号","lat":35.669355,"lon":139.741481,"URL":"<a href='https://www.city.minato.tokyo.jp/shisetsu/sonota/kitsuen/86.html' target='_blank'>https://www.city.minato.tokyo.jp/shisetsu/sonota/kitsuen/86.html</a>","分類":"指定喫煙場所(屋内)","地区":"赤坂地区","連絡先":""},{"name":"御成門BNビル1階指定喫煙場所 (セブンイレブン御成門駅北店内)","province":"東京都","city":"港区","address":"港区新橋六丁目16番10号","lat":35.662117,"lon":139.752195,"URL":"<a href='https://www.city.minato.tokyo.jp/shisetsu/sonota/kitsuen/87.html' target='_blank'>https://www.city.minato.tokyo.jp/shisetsu/sonota/kitsuen/87.html</a>","分類":"指定喫煙場所(屋内)","地区":"芝地区","連絡先":""},{"name":"新橋2丁目指定喫煙場所","province":"東京都","city":"港区","address":"港区新橋二丁目20番先","lat":35.666414,"lon":139.759852,"URL":"<a href='https://www.city.minato.tokyo.jp/shisetsu/sonota/kitsuen/88.html' target='_blank'>https://www.city.minato.tokyo.jp/shisetsu/sonota/kitsuen/88.html</a>","分類":"指定喫煙場所(屋外)","地区":"芝地区","連絡先":""},{"name":"芝生花ビル1階指定喫煙場所 (ファミリーマート芝五丁目店内)","province":"東京都","city":"港区","address":"港区芝五丁目10番8号","lat":35.648981,"lon":139.746268,"URL":"<a href='https://www.city.minato.tokyo.jp/shisetsu/sonota/kitsuen/89.html' target='_blank'>https://www.city.minato.tokyo.jp/shisetsu/sonota/kitsuen/89.html</a>","分類":"指定喫煙場所(屋内)","地区":"芝地区","連絡先":""},{"name":"エスプラザ弥生ビルII2階指定喫煙場所(ファミリーマート新橋駅西店内)","province":"東京都","city":"港区","address":"港区新橋二丁目15番9号","lat":35.666261,"lon":139.756655,"URL":"<a href='https://www.city.minato.tokyo.jp/shisetsu/sonota/kitsuen/90.html' target='_blank'>https://www.city.minato.tokyo.jp/shisetsu/sonota/kitsuen/90.html</a>","分類":"指定喫煙場所(屋内)","地区":"芝地区","連絡先":""},{"name":"鈴与竹芝ビル1階指定喫煙場所 (ファミリーマート南山堂竹芝駅前店内)","province":"東京都","city":"港区","address":"港区海岸一丁目13番3号","lat":35.654796,"lon":139.762177,"URL":"<a href='https://www.city.minato.tokyo.jp/shisetsu/sonota/kitsuen/91.html' target='_blank'>https://www.city.minato.tokyo.jp/shisetsu/sonota/kitsuen/91.html</a>","分類":"指定喫煙場所(屋内)","地区":"芝地区","連絡先":""},{"name":"鳳月堂ビル2階指定喫煙場所(ファミリーマート赤坂駅前店内)","province":"東京都","city":"港区","address":"港区赤坂二丁目14番28号","lat":35.672603,"lon":139.737053,"URL":"<a href='https://www.city.minato.tokyo.jp/shisetsu/sonota/kitsuen/93.html' target='_blank'>https://www.city.minato.tokyo.jp/shisetsu/sonota/kitsuen/93.html</a>","分類":"指定喫煙場所(屋内)","地区":"赤坂地区","連絡先":""},{"name":"the ARGYLE aoyamaビル2階指定喫煙場所","province":"東京都","city":"港区","address":"港区北青山二丁目14番4号","lat":35.669557,"lon":139.715792,"URL":"<a href='https://www.city.minato.tokyo.jp/shisetsu/sonota/kitsuen/95.html' target='_blank'>https://www.city.minato.tokyo.jp/shisetsu/sonota/kitsuen/95.html</a>","分類":"指定喫煙場所(屋内)","地区":"赤坂地区","連絡先":""},{"name":"msb Tamachi田町ステーションタワーN(1)","province":"東京都","city":"港区","address":"港区芝浦三丁目1番1号","lat":35.645843,"lon":139.749787,"URL":"<a href='https://www.city.minato.tokyo.jp/shisetsu/sonota/kitsuen/96.html' target='_blank'>https://www.city.minato.tokyo.jp/shisetsu/sonota/kitsuen/96.html</a>","分類":"指定喫煙場所(屋内)","地区":"芝浦港南地区","連絡先":""},{"name":"ファミリーマート港南一丁目店内指定喫煙場所","province":"東京都","city":"港区","address":"港区港南1-7-18A-PLACE品川東1階","lat":35.630965,"lon":139.744849,"URL":"<a href='https://www.city.minato.tokyo.jp/shisetsu/sonota/kitsuen/98.html' target='_blank'>https://www.city.minato.tokyo.jp/shisetsu/sonota/kitsuen/98.html</a>","分類":"指定喫煙場所(屋内)","地区":"芝浦港南地区","連絡先":""},{"name":"ウォーターズ竹芝シアター棟1F 指定喫煙場所","province":"東京都","city":"港区","address":"港区海岸1丁目10番45号","lat":35.656207,"lon":139.76267,"URL":"<a href='https://www.city.minato.tokyo.jp/shisetsu/sonota/kitsuen/99.html' target='_blank'>https://www.city.minato.tokyo.jp/shisetsu/sonota/kitsuen/99.html</a>","分類":"指定喫煙場所(屋内)","地区":"芝地区","連絡先":""},{"name":"ウォーターズ竹芝シアター棟2F 指定喫煙場所","province":"東京都","city":"港区","address":"港区海岸1丁目10番45号","lat":35.656207,"lon":139.76267,"URL":"<a href='https://www.city.minato.tokyo.jp/shisetsu/sonota/kitsuen/100.html' target='_blank'>https://www.city.minato.tokyo.jp/shisetsu/sonota/kitsuen/100.html</a>","分類":"指定喫煙場所(屋内)","地区":"芝地区","連絡先":""},{"name":"ヒューリックJP赤坂ビル1階 指定喫煙場所","province":"東京都","city":"港区","address":"港区赤坂二丁目5番8号","lat":35.672676,"lon":139.740019,"URL":"<a href='https://www.city.minato.tokyo.jp/shisetsu/sonota/kitsuen/101.html' target='_blank'>https://www.city.minato.tokyo.jp/shisetsu/sonota/kitsuen/101.html</a>","分類":"指定喫煙場所(屋内)","地区":"赤坂地区","連絡先":""},{"name":"セブンイレブン港区芝5丁目東店内 指定喫煙場所","province":"東京都","city":"港区","address":"港区芝五丁目22番3号","lat":35.648439,"lon":139.746563,"URL":"<a href='https://www.city.minato.tokyo.jp/shisetsu/sonota/kitsuen/102.html' target='_blank'>https://www.city.minato.tokyo.jp/shisetsu/sonota/kitsuen/102.html</a>","分類":"指定喫煙場所(屋内)","地区":"芝地区","連絡先":""},{"name":"関根ビル1階 指定喫煙場所","province":"東京都","city":"港区","address":"港区赤坂二丁目13番21号","lat":35.67282633371143,"lon":139.7380944073847,"URL":"<a href='https://www.city.minato.tokyo.jp/shisetsu/sonota/kitsuen/103.html' target='_blank'>https://www.city.minato.tokyo.jp/shisetsu/sonota/kitsuen/103.html</a>","分類":"指定喫煙場所(屋内)","地区":"赤坂地区","連絡先":""},{"name":"セブンイレブン芝2丁目金杉橋店内 指定喫煙場所","province":"東京都","city":"港区","address":"港区芝二丁目3番3号芝二丁目大門ビルディング1階","lat":35.65262436865979,"lon":139.7537560730543,"URL":"<a href='https://www.city.minato.tokyo.jp/shisetsu/sonota/kitsuen/104.html' target='_blank'>https://www.city.minato.tokyo.jp/shisetsu/sonota/kitsuen/104.html</a>","分類":"指定喫煙場所(屋内)","地区":"芝地区","連絡先":""},{"name":"日比谷フォートタワー1階 指定喫煙場所","province":"東京都","city":"港区","address":"港区西新橋一丁目1番1号1階","lat":35.67015324912093,"lon":139.7527055748486,"URL":"<a href='https://www.city.minato.tokyo.jp/shisetsu/sonota/kitsuen/105.html' target='_blank'>https://www.city.minato.tokyo.jp/shisetsu/sonota/kitsuen/105.html</a>","分類":"指定喫煙場所(屋内)","地区":"芝地区","連絡先":""},{"name":"日比谷フォートタワー2階 指定喫煙場所","province":"東京都","city":"港区","address":"港区西新橋一丁目1番1号2階","lat":35.67015324912093,"lon":139.7527055748486,"URL":"<a href='https://www.city.minato.tokyo.jp/shisetsu/sonota/kitsuen/106.html' target='_blank'>https://www.city.minato.tokyo.jp/shisetsu/sonota/kitsuen/106.html</a>","分類":"指定喫煙場所(屋内)","地区":"芝地区","連絡先":""},{"name":"日比谷フォートタワー11階 指定喫煙場所","province":"東京都","city":"港区","address":"港区西新橋一丁目1番1号11階","lat":35.67015324912093,"lon":139.7527055748486,"URL":"<a href='https://www.city.minato.tokyo.jp/shisetsu/sonota/kitsuen/107.html' target='_blank'>https://www.city.minato.tokyo.jp/shisetsu/sonota/kitsuen/107.html</a>","分類":"指定喫煙場所(屋内)","地区":"芝地区","連絡先":""},{"name":"エコロパーク芝大門第3駐車場内指定喫煙場所","province":"東京都","city":"港区","address":"港区芝大門二丁目12番18号","lat":35.65459195376365,"lon":139.7539333332906,"URL":"<a href='https://www.city.minato.tokyo.jp/shisetsu/sonota/kitsuen/109.html' target='_blank'>https://www.city.minato.tokyo.jp/shisetsu/sonota/kitsuen/109.html</a>","分類":"指定喫煙場所(屋外)","地区":"芝地区","連絡先":""},{"name":"ニュー新橋ビル3階THE CAFE内指定喫煙場所","province":"東京都","city":"港区","address":"港区新橋二丁目16番1号","lat":35.66647972407418,"lon":139.7573496313515,"URL":"<a href='https://www.city.minato.tokyo.jp/shisetsu/sonota/kitsuen/110.html' target='_blank'>https://www.city.minato.tokyo.jp/shisetsu/sonota/kitsuen/110.html</a>","分類":"指定喫煙場所(屋内)","地区":"芝地区","連絡先":""},{"name":"paspa新橋4丁目指定喫煙場所","province":"東京都","city":"港区","address":"港区新橋四丁目24番7号","lat":35.66353334267899,"lon":139.7567875205811,"URL":"<a href='https://www.city.minato.tokyo.jp/shisetsu/sonota/kitsuen/111.html' target='_blank'>https://www.city.minato.tokyo.jp/shisetsu/sonota/kitsuen/111.html</a>","分類":"指定喫煙場所(屋内)","地区":"芝地区","連絡先":""},{"name":"加藤たばこ店内指定喫煙場所","province":"東京都","city":"港区","address":"港区高輪四丁目23番3号","lat":35.62639752239338,"lon":139.7375778783882,"URL":"<a href='https://www.city.minato.tokyo.jp/shisetsu/sonota/kitsuen/112.html' target='_blank'>https://www.city.minato.tokyo.jp/shisetsu/sonota/kitsuen/112.html</a>","分類":"指定喫煙場所(屋内)","地区":"高輪地区","連絡先":""},{"name":"四方ビル2階指定喫煙場所","province":"東京都","city":"港区","address":"港区赤坂三丁目12番21号","lat":35.67410936406294,"lon":139.737539382539,"URL":"<a href='https://www.city.minato.tokyo.jp/shisetsu/sonota/kitsuen/113.html' target='_blank'>https://www.city.minato.tokyo.jp/shisetsu/sonota/kitsuen/113.html</a>","分類":"指定喫煙場所(屋内)","地区":"赤坂地区","連絡先":""},{"name":"paspa赤坂指定喫煙場所","province":"東京都","city":"港区","address":"港区赤坂三丁目14番2号ドルミ赤坂103号室","lat":35.67385477205119,"lon":139.7373797433988,"URL":"<a href='https://www.city.minato.tokyo.jp/shisetsu/sonota/kitsuen/115.html' target='_blank'>https://www.city.minato.tokyo.jp/shisetsu/sonota/kitsuen/115.html</a>","分類":"指定喫煙場所(屋内)","地区":"麻布地区","連絡先":""},{"name":"セブンイレブン田町駅前店店内指定喫煙場所","province":"東京都","city":"港区","address":"港区芝五丁目34番7号田町センタービル1階","lat":35.64633321588096,"lon":139.7467817220754,"URL":"<a href='https://www.city.minato.tokyo.jp/shisetsu/sonota/kitsuen/117.html' target='_blank'>https://www.city.minato.tokyo.jp/shisetsu/sonota/kitsuen/117.html</a>","分類":"指定喫煙場所(屋内)","地区":"芝地区","連絡先":""},{"name":"THE TOBACCO SHIODOME指定喫煙場所","province":"東京都","city":"港区","address":"港区東新橋一丁目8番2号","lat":35.66300379341111,"lon":139.7620788104351,"URL":"<a href='https://www.city.minato.tokyo.jp/shisetsu/sonota/kitsuen/118.html' target='_blank'>https://www.city.minato.tokyo.jp/shisetsu/sonota/kitsuen/118.html</a>","分類":"指定喫煙場所(屋内)","地区":"芝地区","連絡先":""},{"name":"THE TOBACCO TORANOMON指定喫煙場所","province":"東京都","city":"港区","address":"港区虎ノ門二丁目3番17号虎ノ門2丁目タワー1階","lat":35.66836261273509,"lon":139.7467293104326,"URL":"<a href='https://www.city.minato.tokyo.jp/shisetsu/sonota/kitsuen/119.html' target='_blank'>https://www.city.minato.tokyo.jp/shisetsu/sonota/kitsuen/119.html</a>","分類":"指定喫煙場所(屋内)","地区":"芝地区","連絡先":""},{"name":"paspa浜松町指定喫煙場所","province":"東京都","city":"港区","address":"港区浜松町二丁目5番2号","lat":35.65437800798922,"lon":139.7564674852955,"URL":"<a href='https://www.city.minato.tokyo.jp/shisetsu/sonota/kitsuen/120.html' target='_blank'>https://www.city.minato.tokyo.jp/shisetsu/sonota/kitsuen/120.html</a>","分類":"指定喫煙場所(屋内)","地区":"芝地区","連絡先":""},{"name":"ファミリーマート南山堂第一京浜芝店内指定喫煙場所","province":"東京都","city":"港区","address":"港区芝二丁目14番5号芝二丁目大広ビル","lat":35.65079360569771,"lon":139.7535039032701,"URL":"<a href='https://www.city.minato.tokyo.jp/shisetsu/sonota/kitsuen/121.html' target='_blank'>https://www.city.minato.tokyo.jp/shisetsu/sonota/kitsuen/121.html</a>","分類":"指定喫煙場所(屋内)","地区":"芝地区","連絡先":""},{"name":"田町タワー1階指定喫煙場所","province":"東京都","city":"港区","address":"港区芝五丁目33番11号","lat":35.64713812384016,"lon":139.7485596597526,"URL":"<a href='https://www.city.minato.tokyo.jp/shisetsu/sonota/kitsuen/122.html' target='_blank'>https://www.city.minato.tokyo.jp/shisetsu/sonota/kitsuen/122.html</a>","分類":"指定喫煙場所(屋内)","地区":"芝地区","連絡先":""},{"name":"エコロパーク新橋第7駐車場内指定喫煙場所","province":"東京都","city":"港区","address":"港区新橋一丁目4番3号","lat":35.66782586108805,"lon":139.7593097174049,"URL":"<a href='https://www.city.minato.tokyo.jp/shisetsu/sonota/kitsuen/123.html' target='_blank'>https://www.city.minato.tokyo.jp/shisetsu/sonota/kitsuen/123.html</a>","分類":"指定喫煙場所(屋外)","地区":"芝地区","連絡先":""},{"name":"ファミリーマート西新橋一丁目店内指定喫煙場所","province":"東京都","city":"港区","address":"港区西新橋一丁目5番11号11東洋海事ビル","lat":35.66932362441603,"lon":139.7536083124461,"URL":"<a href='https://www.city.minato.tokyo.jp/shisetsu/sonota/kitsuen/124.html' target='_blank'>https://www.city.minato.tokyo.jp/shisetsu/sonota/kitsuen/124.html</a>","分類":"指定喫煙場所(屋内)","地区":"芝地区","連絡先":""},{"name":"ファミリーマート+ミヤモトドラッグ御成門店内指定喫煙場所","province":"東京都","city":"港区","address":"港区新橋六丁目17番15号菱進御成門ビル","lat":35.66104285562862,"lon":139.7518489068715,"URL":"<a href='https://www.city.minato.tokyo.jp/shisetsu/sonota/kitsuen/125.html' target='_blank'>https://www.city.minato.tokyo.jp/shisetsu/sonota/kitsuen/125.html</a>","分類":"指定喫煙場所(屋内)","地区":"芝地区","連絡先":""},{"name":"ゆうらいふセンター1階北側指定喫煙場所","province":"東京都","city":"港区","address":"港区海岸1丁目4番26号","lat":35.65412840172168,"lon":139.7598493835847,"URL":"<a href='https://www.city.minato.tokyo.jp/shisetsu/sonota/kitsuen/126.html' target='_blank'>https://www.city.minato.tokyo.jp/shisetsu/sonota/kitsuen/126.html</a>","分類":"指定喫煙場所(屋内)","地区":"芝浦港南地区","連絡先":""},{"name":"新虎安田ビル1階指定喫煙場所","province":"東京都","city":"港区","address":"港区新橋4丁目3番1号","lat":35.6649221834583,"lon":139.7546699576714,"URL":"<a href='https://www.city.minato.tokyo.jp/shisetsu/sonota/kitsuen/127.html' target='_blank'>https://www.city.minato.tokyo.jp/shisetsu/sonota/kitsuen/127.html</a>","分類":"指定喫煙場所(屋内)","地区":"芝地区","連絡先":""},{"name":"paspa溜池指定喫煙場所","province":"東京都","city":"港区","address":"港区赤坂1丁目1番16号細川ビルB1F","lat":35.67096587259067,"lon":139.7440452142706,"URL":"<a href='https://www.city.minato.tokyo.jp/shisetsu/sonota/kitsuen/128.html' target='_blank'>https://www.city.minato.tokyo.jp/shisetsu/sonota/kitsuen/128.html</a>","分類":"指定喫煙場所(屋内)","地区":"芝地区","連絡先":""},{"name":"ファミリーマート浜松町駅南店内指定喫煙場所","province":"東京都","city":"港区","address":"港区浜松町2丁目9番3号NBC浜松町ビル","lat":35.65399677259604,"lon":139.7564247546088,"URL":"<a href='https://www.city.minato.tokyo.jp/shisetsu/sonota/kitsuen/129.html' target='_blank'>https://www.city.minato.tokyo.jp/shisetsu/sonota/kitsuen/129.html</a>","分類":"指定喫煙場所(屋内)","地区":"芝地区","連絡先":""},{"name":"paspa虎ノ門3丁目指定喫煙場所","province":"東京都","city":"港区","address":"港区虎ノ門3丁目4番7号虎ノ門36森ビル地下1階","lat":35.66619527419011,"lon":139.7468429528997,"URL":"<a href='https://www.city.minato.tokyo.jp/shisetsu/sonota/kitsuen/130.html' target='_blank'>https://www.city.minato.tokyo.jp/shisetsu/sonota/kitsuen/130.html</a>","分類":"指定喫煙場所(屋内)","地区":"芝地区","連絡先":""}]}