{"keyword":"変更","data":[{"name":"表参道GLPクリニック","province":"東京都","city":"港区","address":"東京都港区北青山三丁目6番19号","lat":35.664514,"lon":139.711432,"年月":"202110","旧名称":"東京GLPクリニック","発生日":"2021/10/1","施設方書":"三和実業表参道ビル5階","施設電話番号":"03-6721-9233"},{"name":"THE CLINIC 東京 Annex","province":"東京都","city":"港区","address":"東京都港区西麻布三丁目17番15号","lat":35.658437,"lon":139.72499,"年月":"202112","旧名称":"AZACLI麻布クリニック","発生日":"2021/10/25","施設方書":"中島ビル2階","施設電話番号":"03-6386-8676"},{"name":"医療法人社団紡潤会 マグマクリニックbyウィルAGA","province":"東京都","city":"港区","address":"東京都港区南青山三丁目18番19号","lat":35.665264,"lon":139.712988,"年月":"202202","旧名称":"医療法人社団紡潤会 ウィルAGAクリニック","発生日":"2022/2/9","施設方書":"南青山キミジマビル4階、5階","施設電話番号":"03-5413-4884"},{"name":"湘南美容クリニック南青山院","province":"東京都","city":"港区","address":"東京都港区南青山五丁目6番26号","lat":35.663998,"lon":139.711929,"年月":"202203","旧名称":"湘南美容クリニック表参道アネックス院","発生日":"2022/1/19","施設方書":"青山246ビル8階","施設電話番号":"050-5865-5210"},{"name":"東京表参道矯正歯科","province":"東京都","city":"港区","address":"東京都港区北青山三丁目15番5号","lat":35.664286,"lon":139.70941,"年月":"202111","旧名称":"Oh my teeth 表参道矯正歯科","発生日":"2021/10/26","施設方書":"ポルトフィーノB棟地上1階12号室","施設電話番号":""},{"name":"NEO DENTAL","province":"東京都","city":"港区","address":"東京都港区芝二丁目6番3号","lat":35.652891,"lon":139.750698,"年月":"202111","旧名称":"芝二丁目歯科","発生日":"2021/11/11","施設方書":"三宅ビル1階","施設電話番号":"03-6453-6365"},{"name":"猿田彦内科びようクリニック","province":"東京都","city":"港区","address":"東京都港区港南二丁目6番10号","lat":35.628782,"lon":139.74233,"年月":"202204","旧名称":"猿田彦クリニック","発生日":"2022/4/1","施設方書":"三矢ビル4階","施設電話番号":"03-6712-3364"},{"name":"芝公園もちもち訪問クリニック","province":"東京都","city":"港区","address":"東京都港区芝三丁目13番12号","lat":35.652527,"lon":139.745583,"年月":"202211","旧名称":"芝公園訪問クリニック","発生日":"2022/10/1","施設方書":"301","施設電話番号":"050-3150-8580"},{"name":"麻布訪問クリニック","province":"東京都","city":"港区","address":"東京都港区南麻布四丁目5番56号","lat":35.650121,"lon":139.724111,"年月":"202212","旧名称":"麻布もちもち訪問クリニック","発生日":"2022/12/13","施設方書":"キャッスル佐藤102号","施設電話番号":"050-3184-1591"},{"name":"表参道Mix矯正歯科","province":"東京都","city":"港区","address":"東京都港区南青山三丁目18番19号","lat":35.665213,"lon":139.712948,"年月":"202307","旧名称":"東京stellaデンタルクリニック表参道院","発生日":"2023/7/6","施設方書":"東亜バッヂビル5階","施設電話番号":"03-6459-2139"},{"name":"大森真帆麻布十番内科クリニック","province":"東京都","city":"港区","address":"東京都港区麻布十番一丁目5番9号","lat":35.656973,"lon":139.733409,"年月":"202404","旧名称":"大森真帆麻布十番クリニック","発生日":"2024/4/1","施設方書":"高橋ビル2階","施設電話番号":"03-6455-4317"},{"name":"UBE株式会社 本社医務室","province":"東京都","city":"港区","address":"東京都港区芝浦一丁目2番1号","lat":35.649921,"lon":139.756897,"年月":"202404","旧名称":"UBE株式会社東京本部医務室","発生日":"2024/3/26","施設方書":"シーバンスN館","施設電話番号":"03-5419-6124"},{"name":"BBClinic表参道","province":"東京都","city":"港区","address":"東京都港区南青山五丁目6番24号","lat":35.663553,"lon":139.712078,"年月":"202404","旧名称":"レカルカクリニック表参道","発生日":"2024/4/1","施設方書":"Barbizon23 2階","施設電話番号":"03-6427-4190"},{"name":"東京ペインクリニック","province":"東京都","city":"港区","address":"東京都港区港南二丁目6番3号","lat":35.628695,"lon":139.74265,"年月":"202405","旧名称":"肩こり・腰の痛みクリニック 品川院","発生日":"2024/5/24","施設方書":"シントミビル2階","施設電話番号":"03-6433-3296"},{"name":"表参道イーグルクリニック","province":"東京都","city":"港区","address":"東京都港区南青山三丁目18番11号","lat":35.664675,"lon":139.713596,"年月":"202405","旧名称":"どすこい膝クリニック","発生日":"2024/5/1","施設方書":"ヴァンセットビル2階202","施設電話番号":"03-6630-6239"},{"name":"田町三田こころみクリニック・内科・心療内科・糖尿病内科","province":"東京都","city":"港区","address":"東京都港区芝浦三丁目13番1号","lat":35.643246,"lon":139.749097,"年月":"202406","旧名称":"田町三田こころみクリニック・心療内科・精神科","発生日":"2024/4/16","施設方書":"矢島ビル501号","施設電話番号":"03-6435-1553"},{"name":"THE N にじいろクリニック新橋","province":"東京都","city":"港区","address":"東京都港区新橋二丁目10番3号","lat":35.667279,"lon":139.755888,"年月":"202406","旧名称":"にじいろクリニック新橋","発生日":"2021/7/5","施設方書":"ブラザービル4階","施設電話番号":"03-3501-0022"},{"name":"医療法人星敬会 DAILY SKIN CLINIC 表参道院","province":"東京都","city":"港区","address":"東京都港区南青山五丁目11番2号","lat":35.669439,"lon":139.716711,"年月":"202406","旧名称":"医療法人星敬会 RENATA CLINIC 表参道院","発生日":"2024/6/19","施設方書":"SANWA南青山Bidg.8階","施設電話番号":"03-6433-5300"},{"name":"TCB 東京中央美容外科 BSクリニック 六本木院","province":"東京都","city":"港区","address":"東京都港区六本木五丁目1番3号","lat":35.66268,"lon":139.732751,"年月":"202406","旧名称":"TCB 東京中央美容外科 六本木院","発生日":"2024/6/3","施設方書":"ゴトウビルディング1st8階","施設電話番号":"03-6804-5841"},{"name":"エニキュアメンタルクリニック","province":"東京都","city":"港区","address":"東京都港区西麻布三丁目22番7号","lat":35.659011,"lon":139.72486,"年月":"202407","旧名称":"ポケセラメンタルクリニック","発生日":"2024/7/30","施設方書":"西麻布KY101","施設電話番号":"03-6680-7321"},{"name":"美容皮膚科タカミクリニック 本院","province":"東京都","city":"港区","address":"東京都港区南青山三丁目18番5号","lat":35.66488,"lon":139.713616,"年月":"202407","旧名称":"医療法人社団美高会タカミクリニックモンテプラザ","発生日":"2024/7/1","施設方書":"モンテプラザ南青山2階・3階・4階","施設電話番号":"03-5414-6000"},{"name":"美容皮膚科タカミクリニック ニキビ治療院","province":"東京都","city":"港区","address":"東京都港区南青山三丁目18番20号","lat":35.665409,"lon":139.713058,"年月":"202407","旧名称":"医療法人社団美高会 タカミクリニック南青山","発生日":"2024/7/1","施設方書":"南青山松本ビル3階・4階・5階","施設電話番号":"03-5414-6000"},{"name":"アリシア クリニック 表参道院","province":"東京都","city":"港区","address":"東京都港区南青山五丁目6番24号","lat":35.663853,"lon":139.711861,"年月":"202407","旧名称":"じぶんクリニック表参道院","発生日":"2024/7/1","施設方書":"南青山ステラハウス3階","施設電話番号":""},{"name":"Re:Born Clinic 麻布院","province":"東京都","city":"港区","address":"東京都港区南麻布一丁目3番2号","lat":35.651717,"lon":139.733314,"年月":"202407","旧名称":"Tokyo Re:Born Clinic 麻布院","発生日":"2024/7/25","施設方書":"Espace TeTe1階","施設電話番号":"03-6722-6972"},{"name":"ひろこデンタルクリニック plus Beauty","province":"東京都","city":"港区","address":"東京都港区芝浦三丁目13番12号","lat":35.642906,"lon":139.74832,"年月":"202406","旧名称":"ひろこデンタルクリニック plus beauty","発生日":"2024/6/1","施設方書":"PhilPark田町Shibaura6階","施設電話番号":"03-3453-9700"},{"name":"オーラルケアクリニック青山 表参道 若林歯科医院","province":"東京都","city":"港区","address":"東京都港区南青山三丁目15番6号","lat":35.665145,"lon":139.715611,"年月":"202407","旧名称":"オーラルケアクリニック青山","発生日":"2024/5/17","施設方書":"ripple square D3階","施設電話番号":"03-6447-0046"}]}