{"keyword":"大使","data":[{"name":"アイスランド大使館","province":"東京都","city":"港区","address":"東京都港区高輪四丁目18番26号","lat":35.6264331,"lon":139.7337885,"郵便番号":"108-0074","電話番号":"03-3447-1944"},{"name":"アフガニスタン・イスラム共和国大使館","province":"東京都","city":"港区","address":"東京都港区麻布台二丁目2番1号","lat":35.6581733,"lon":139.7421556,"郵便番号":"106-0041","電話番号":"03-5574-7611"},{"name":"アメリカ合衆国大使館","province":"東京都","city":"港区","address":"東京都港区赤坂一丁目10番5号","lat":35.6687277,"lon":139.7433496,"郵便番号":"107-8420","電話番号":"03-3224-5000"},{"name":"アルゼンチン共和国大使館","province":"東京都","city":"港区","address":"東京都港区元麻布二丁目14番14号","lat":35.6526709,"lon":139.7302902,"郵便番号":"106-0046","電話番号":"03-5420-7101/5"},{"name":"アルメニア共和国大使館","province":"東京都","city":"港区","address":"東京都港区赤坂一丁目11番36号ResidenceViscountess#230","lat":35.6687471,"lon":139.7416664,"郵便番号":"107-0052","電話番号":"03-6277-7453"},{"name":"イタリア大使館","province":"東京都","city":"港区","address":"東京都港区三田二丁目5番4号","lat":35.6507323,"lon":139.7424901,"郵便番号":"108-8302","電話番号":"03-3453-5291"},{"name":"イラン・イスラム共和国大使館","province":"東京都","city":"港区","address":"東京都港区南麻布三丁目13番9号","lat":35.6480215,"lon":139.7312458,"郵便番号":"106-0047","電話番号":"03-3446-8011/5"},{"name":"ウガンダ共和国大使館","province":"東京都","city":"港区","address":"東京都港区赤坂九丁目6番44号乃木坂フォレスト3階","lat":35.667884,"lon":139.728201,"郵便番号":"107-0052","電話番号":"03-6384-5516"},{"name":"ウクライナ大使館","province":"東京都","city":"港区","address":"東京都港区西麻布三丁目5番31号","lat":35.6571702,"lon":139.7251627,"郵便番号":"106-0031","電話番号":"03-5474-9770"},{"name":"ウズベキスタン共和国大使館","province":"東京都","city":"港区","address":"東京都港区高輪二丁目1番52号","lat":35.6396365,"lon":139.7369983,"郵便番号":"108-0074","電話番号":"03-6277-2166/3442"},{"name":"ウルグアイ東方共和国大使館","province":"東京都","city":"港区","address":"東京都港区芝大門一丁目2番1号大門KSビル7階","lat":35.660137,"lon":139.754308,"郵便番号":"105-0012","電話番号":"03-6452-9150"},{"name":"エクアドル共和国大使館","province":"東京都","city":"港区","address":"東京都港区麻布台三丁目5番7号麻布アメレックスビル8階","lat":35.659912,"lon":139.740334,"郵便番号":"106-0041","電話番号":"03-6441-0122"},{"name":"エチオピア連邦民主共和国大使館","province":"東京都","city":"港区","address":"東京都港区高輪三丁目4番1号高輪偕成ビル2階","lat":35.6349036,"lon":139.7315462,"郵便番号":"108-0074","電話番号":"03-5420-6860/1"},{"name":"エリトリア国大使館","province":"東京都","city":"港区","address":"東京都港区白金台四丁目7番4号白金台STビル第401号室","lat":35.6382058,"lon":139.7260688,"郵便番号":"108-0071","電話番号":"03-5791-1815"},{"name":"エルサルバドル共和国大使館","province":"東京都","city":"港区","address":"東京都港区西麻布三丁目20番5号西麻布清美堂ビル","lat":35.660122,"lon":139.726176,"郵便番号":"106-0031","電話番号":"03-6804-2177"},{"name":"オーストラリア大使館","province":"東京都","city":"港区","address":"東京都港区三田二丁目1番14号","lat":35.6518768,"lon":139.7392561,"郵便番号":"108-8361","電話番号":"03-5232-4111"},{"name":"オーストリア共和国大使館","province":"東京都","city":"港区","address":"東京都港区元麻布一丁目1番20号","lat":35.6559233,"lon":139.7328506,"郵便番号":"106-0046","電話番号":"03-3451-8281/2"},{"name":"オランダ王国大使館","province":"東京都","city":"港区","address":"東京都港区芝公園三丁目6番3号","lat":35.6617308,"lon":139.7457635,"郵便番号":"105-0011","電話番号":"03-5776-5400"},{"name":"ガーナ共和国大使館","province":"東京都","city":"港区","address":"東京都港区西麻布一丁目5番21号","lat":35.6616585,"lon":139.7254015,"郵便番号":"106-0031","電話番号":"03-5410-8631/3"},{"name":"カザフスタン共和国大使館","province":"東京都","city":"港区","address":"東京都港区麻布台一丁目8番14号","lat":35.6601054,"lon":139.7415321,"郵便番号":"106-0041","電話番号":"03-3589-1821/6(領事部)"},{"name":"カタール国大使館","province":"東京都","city":"港区","address":"東京都港区元麻布二丁目3番28号","lat":35.6536651,"lon":139.727446,"郵便番号":"106-0046","電話番号":"03-5475-0611~3"},{"name":"カナダ大使館","province":"東京都","city":"港区","address":"東京都港区赤坂七丁目3番38号","lat":35.6728851,"lon":139.7290507,"郵便番号":"107-8503","電話番号":"03-5412-6200"},{"name":"カンボジア王国大使館","province":"東京都","city":"港区","address":"東京都港区赤坂八丁目6番9号","lat":35.6711075,"lon":139.7287814,"郵便番号":"107-0052","電話番号":"03-5412-8521"},{"name":"キプロス共和国大使館","province":"東京都","city":"港区","address":"東京都港区南麻布四丁目6番28号ヨーロッパハウス4階","lat":35.649859,"lon":139.727095,"郵便番号":"106-0047","電話番号":"03-6432-5040/1/2"},{"name":"キューバ共和国大使館","province":"東京都","city":"港区","address":"東京都港区東麻布一丁目28番4号","lat":35.6554404,"lon":139.7439639,"郵便番号":"106-0044","電話番号":"03-5570-3182"},{"name":"ギリシャ大使館","province":"東京都","city":"港区","address":"東京都港区西麻布三丁目16番30号","lat":35.6583589,"lon":139.7260126,"郵便番号":"106-0031","電話番号":"03-3403-0871/2"},{"name":"キルギス共和国大使館","province":"東京都","city":"港区","address":"東京都港区三田一丁目5番7号","lat":35.6534121,"lon":139.7402048,"郵便番号":"108-0073","電話番号":"03-6453-8277"},{"name":"グアテマラ共和国大使館","province":"東京都","city":"港区","address":"東京都港区東麻布一丁目10番11号東麻布アベビル4階","lat":35.656787,"lon":139.744699,"郵便番号":"106-0044","電話番号":"03-5797-7502"},{"name":"クウェート国大使館","province":"東京都","city":"港区","address":"東京都港区三田四丁目13番12号","lat":35.6453832,"lon":139.7415477,"郵便番号":"108-0073","電話番号":"03-3455-0361"},{"name":"コスタリカ共和国大使館","province":"東京都","city":"港区","address":"東京都港区六本木六丁目6番2号R-WEST","lat":35.662057,"lon":139.730388,"郵便番号":"106-0032","電話番号":"03-6434-0426"},{"name":"コソボ共和国大使館","province":"東京都","city":"港区","address":"東京都港区西新橋三丁目13番7号VORT虎ノ門サウスビル10階","lat":35.6644617,"lon":139.7508019,"郵便番号":"105-0003","電話番号":"03-6809-2577"},{"name":"コンゴ民主共和国大使館","province":"東京都","city":"港区","address":"東京都港区南青山二丁目9番21号","lat":35.670013,"lon":139.721764,"郵便番号":"107-0062","電話番号":"03-6456-4394"},{"name":"サウジアラビア王国大使館","province":"東京都","city":"港区","address":"東京都港区六本木一丁目8番4号","lat":35.6633476,"lon":139.7392807,"郵便番号":"106-0032","電話番号":"03-3589-5241"},{"name":"サモア独立国大使館","province":"東京都","city":"港区","address":"東京都港区麻布台三丁目5番7号麻布アメレックスビル5階","lat":35.659912,"lon":139.740334,"郵便番号":"106-0041","電話番号":"03-6228-3692"},{"name":"サンマリノ共和国大使館","province":"東京都","city":"港区","address":"東京都港区元麻布三丁目5番1号","lat":35.6568536,"lon":139.7283125,"郵便番号":"106-0046","電話番号":"03-5414-7745"},{"name":"ジャマイカ大使館","province":"東京都","city":"港区","address":"東京都港区元麻布二丁目13番1号","lat":35.6542929,"lon":139.7306929,"郵便番号":"106-0046","電話番号":"03-3435-1861"},{"name":"ジョージア大使館","province":"東京都","city":"港区","address":"東京都港区北青山二丁目10番22号K2ビル","lat":35.671564,"lon":139.715588,"郵便番号":"107-0061","電話番号":"03-4361-4470"},{"name":"シリア・アラブ共和国大使館","province":"東京都","city":"港区","address":"東京都港区赤坂六丁目19番45号ホーマット・ジェイド","lat":35.6674275,"lon":139.7337144,"郵便番号":"107-0052","電話番号":"03-3586-8977/8"},{"name":"シンガポール共和国大使館","province":"東京都","city":"港区","address":"東京都港区六本木五丁目12番3号","lat":35.6575179,"lon":139.7341877,"郵便番号":"106-0032","電話番号":"03-3586-9111/2"},{"name":"ジンバブエ共和国大使館","province":"東京都","city":"港区","address":"東京都港区三田五丁目4番3号三田プラザビル6階","lat":35.647706,"lon":139.738902,"郵便番号":"108-0073","電話番号":"03-6416-8434/5"},{"name":"スイス大使館","province":"東京都","city":"港区","address":"東京都港区南麻布五丁目9番12号","lat":35.6533543,"lon":139.7238112,"郵便番号":"106-8589","電話番号":"03-5449-8400"},{"name":"スウェーデン王国大使館","province":"東京都","city":"港区","address":"東京都港区赤坂一丁目12番32号アーク森ビル16階","lat":35.667113,"lon":139.740135,"郵便番号":"107-6016","電話番号":"03-5562-5050"},{"name":"スペイン王国大使館","province":"東京都","city":"港区","address":"東京都港区六本木一丁目3番29号","lat":35.6656197,"lon":139.7415027,"郵便番号":"106-0032","電話番号":"03-3583-8531/2"},{"name":"スリランカ民主社会主義共和国大使館","province":"東京都","city":"港区","address":"東京都港区高輪二丁目1番54号","lat":35.6398548,"lon":139.7368818,"郵便番号":"108-0074","電話番号":"03-3440-6911/2"},{"name":"スロバキア共和国大使館","province":"東京都","city":"港区","address":"東京都港区元麻布二丁目11番33号","lat":35.6543957,"lon":139.7304846,"郵便番号":"106-0046","電話番号":"03-3451-2200/1033"},{"name":"スロベニア共和国大使館","province":"東京都","city":"港区","address":"東京都港区南青山七丁目14番12号","lat":35.6567233,"lon":139.7173269,"郵便番号":"107-0062","電話番号":"03-5468-6275"},{"name":"セルビア共和国大使館","province":"東京都","city":"港区","address":"東京都港区高輪四丁目16番12号","lat":35.626481,"lon":139.733066,"郵便番号":"108-0074","電話番号":"03-3447-3571/3572"},{"name":"大韓民国大使館","province":"東京都","city":"港区","address":"東京都港区南麻布一丁目2番5号","lat":35.6519849,"lon":139.7327622,"郵便番号":"106-0047","電話番号":"03-3452-7611~9"},{"name":"中華人民共和国大使館","province":"東京都","city":"港区","address":"東京都港区元麻布三丁目4番33号","lat":35.6562898,"lon":139.7272209,"郵便番号":"106-0046","電話番号":"03-3403-3388"},{"name":"チリ共和国大使館","province":"東京都","city":"港区","address":"東京都港区芝三丁目1番14号芝公園阪神ビル7階、8階","lat":35.6541906,"lon":139.745636,"郵便番号":"105-0014","電話番号":"03-3452-7561/2/7585"},{"name":"ドイツ連邦共和国大使館","province":"東京都","city":"港区","address":"東京都港区南麻布四丁目5番10号","lat":35.6507821,"lon":139.7252074,"郵便番号":"106-0047","電話番号":"03-5791-7700"},{"name":"トンガ王国大使館","province":"東京都","city":"港区","address":"東京都港区麻布台一丁目9番10号飯倉ITビル2階","lat":35.6597232,"lon":139.7426027,"郵便番号":"106-0041","電話番号":"03-6441-2481"},{"name":"ナイジェリア連邦共和国大使館","province":"東京都","city":"港区","address":"東京都港区虎ノ門三丁目6番1号(3階を除く)","lat":35.6666085,"lon":139.7453606,"郵便番号":"105-0001","電話番号":"03-5425-8011"},{"name":"ナミビア共和国大使館","province":"東京都","city":"港区","address":"東京都港区麻布台三丁目5番7号AMEREXビル","lat":35.6599509,"lon":139.7402891,"郵便番号":"106-0041","電話番号":"03-6426-5460"},{"name":"ノルウェー王国大使館","province":"東京都","city":"港区","address":"東京都港区芝公園三丁目4番30号32芝公園ビル9階","lat":35.658906,"lon":139.746403,"郵便番号":"105-0011","電話番号":"03-5422-1200"},{"name":"バーレーン王国大使館","province":"東京都","city":"港区","address":"東京都港区赤坂一丁目11番36号レジデンス・バイカウンテス710号","lat":35.6687471,"lon":139.7416664,"郵便番号":"107-0052","電話番号":"03-3584-8001"},{"name":"ハイチ共和国大使館","province":"東京都","city":"港区","address":"東京都港区東麻布一丁目10番11号東麻布アベビル7階","lat":35.656787,"lon":139.744699,"郵便番号":"106-0044","電話番号":"03-6277-8413"},{"name":"パキスタン・イスラム共和国大使館","province":"東京都","city":"港区","address":"東京都港区南麻布四丁目6番17号","lat":35.6500156,"lon":139.7278433,"郵便番号":"106-0047","電話番号":"03-5421-7741/2"},{"name":"パナマ共和国大使館","province":"東京都","city":"港区","address":"東京都港区六本木三丁目15番5号六本木アシャラヒルズ・ビル2階","lat":35.662997,"lon":139.735864,"郵便番号":"106-0032","電話番号":"03-3505-3661"},{"name":"パラオ共和国大使館","province":"東京都","city":"港区","address":"東京都港区東麻布二丁目21番11号","lat":35.6565624,"lon":139.7413391,"郵便番号":"106-0044","電話番号":"03-5797-7480"},{"name":"ハンガリー大使館","province":"東京都","city":"港区","address":"東京都港区三田二丁目17番14号","lat":35.6485772,"lon":139.7403255,"郵便番号":"108-0073","電話番号":"03-5730-7120/1"},{"name":"フィジー共和国大使館","province":"東京都","city":"港区","address":"東京都港区麻布台二丁目3番5号ノア・ビルディング14階","lat":35.6593204,"lon":139.7425305,"郵便番号":"106-0041","電話番号":"03-3587-2038"},{"name":"フィリピン共和国大使館","province":"東京都","city":"港区","address":"東京都港区六本木五丁目15番5号","lat":35.6600674,"lon":139.7355256,"郵便番号":"106-8537","電話番号":"03-5562-1600"},{"name":"フィンランド大使館","province":"東京都","city":"港区","address":"東京都港区南麻布三丁目5番39号","lat":35.65021,"lon":139.7286876,"郵便番号":"106-8561","電話番号":"03-5447-6000"},{"name":"ブラジル連邦共和国大使館","province":"東京都","city":"港区","address":"東京都港区北青山二丁目11番12号","lat":35.670846,"lon":139.7145132,"郵便番号":"107-8633","電話番号":"03-3404-5211"},{"name":"フランス大使館","province":"東京都","city":"港区","address":"東京都港区南麻布四丁目11番44号","lat":35.6471686,"lon":139.7260991,"郵便番号":"106-8514","電話番号":"03-5798-6000"},{"name":"ボスニア・ヘルツェゴビナ大使館","province":"東京都","city":"港区","address":"東京都港区南麻布五丁目3番29号ガーデニアビルディング2階、3階","lat":35.65354,"lon":139.7245268,"郵便番号":"106-0047","電話番号":"03-5422-8231"},{"name":"ボツワナ共和国大使館","province":"東京都","city":"港区","address":"東京都港区芝四丁目5番10号ACN田町ビル6階","lat":35.648743,"lon":139.750956,"郵便番号":"108-0014","電話番号":"03-5440-5676"},{"name":"ボリビア多民族国大使館","province":"東京都","city":"港区","address":"東京都港区芝公園三丁目4番30号32芝公園ビル802、804号室","lat":35.658906,"lon":139.746403,"郵便番号":"105-0011","電話番号":"03-6803-4362"},{"name":"ポルトガル大使館","province":"東京都","city":"港区","address":"東京都港区西麻布三丁目6番6号","lat":35.655652,"lon":139.726186,"郵便番号":"106-0031","電話番号":"03-6447-7870"},{"name":"ホンジュラス共和国大使館","province":"東京都","city":"港区","address":"東京都港区東麻布一丁目10番11号東麻布アベビル5階","lat":35.656787,"lon":139.744699,"郵便番号":"106-0044","電話番号":"03-4361-8142"},{"name":"マダガスカル共和国大使館","province":"東京都","city":"港区","address":"東京都港区元麻布二丁目3番23号","lat":35.6536385,"lon":139.727782,"郵便番号":"106-0046","電話番号":"03-3446-7252/3"},{"name":"マラウイ共和国大使館","province":"東京都","city":"港区","address":"東京都港区高輪三丁目4番1号高輪偕成ビル5階、7階","lat":35.6349036,"lon":139.7315462,"郵便番号":"108-0074","電話番号":"03-3449-3010"},{"name":"マルタ共和国大使館","province":"東京都","city":"港区","address":"東京都港区虎ノ門四丁目3番20号神谷町MTビル14階41~43号室","lat":35.663522,"lon":139.744543,"郵便番号":"105-0001","電話番号":"03-5404-3450/1"},{"name":"南スーダン共和国大使館","province":"東京都","city":"港区","address":"東京都港区赤坂二丁目21番15号赤坂OSビル4階","lat":35.6683317,"lon":139.7391071,"郵便番号":"107-0052","電話番号":"080-8718-3700"},{"name":"モロッコ王国大使館","province":"東京都","city":"港区","address":"東京都港区南青山五丁目4番30号","lat":35.6619887,"lon":139.7142941,"郵便番号":"107-0062","電話番号":"03-5485-7171"},{"name":"ラオス人民民主共和国大使館","province":"東京都","city":"港区","address":"東京都港区西麻布三丁目3番22号","lat":35.6581581,"lon":139.7268442,"郵便番号":"106-0031","電話番号":"03-5411-2291/2"},{"name":"リトアニア共和国大使館","province":"東京都","city":"港区","address":"東京都港区元麻布三丁目7番18号","lat":35.656276,"lon":139.729729,"郵便番号":"106-0046","電話番号":"03-3408-5091"},{"name":"ルーマニア大使館","province":"東京都","city":"港区","address":"東京都港区西麻布三丁目16番19号","lat":35.6579466,"lon":139.7245295,"郵便番号":"106-0031","電話番号":"03-3479-0311/3"},{"name":"レソト王国大使館","province":"東京都","city":"港区","address":"東京都港区赤坂七丁目5番47号U&M赤坂ビル1階、3階","lat":35.6721019,"lon":139.7299785,"郵便番号":"107-0052","電話番号":"03-3584-7455"},{"name":"ロシア連邦大使館","province":"東京都","city":"港区","address":"東京都港区麻布台二丁目1番1号","lat":35.6594343,"lon":139.7413362,"郵便番号":"106-0041","電話番号":"03-3583-4224/5982"}]}