{"keyword":"子ども","data":[{"name":"芝保育園","province":"東京都","city":"港区","address":"港区芝五丁目18番1-101号","lat":35.6484,"lon":139.747716,"URL":"<a href='https://www.city.minato.tokyo.jp/shisetsu/gakkokyoiku/hoikuen/01.html' target='_blank'>https://www.city.minato.tokyo.jp/shisetsu/gakkokyoiku/hoikuen/01.html</a>","分類":"区立認可保育園","地区":"芝地区","連絡先":"電話番号:03-3455-4669 ファックス番号:03-3455-5137"},{"name":"芝公園保育園","province":"東京都","city":"港区","address":"港区芝公園二丁目7番3号","lat":35.654291,"lon":139.750533,"URL":"<a href='https://www.city.minato.tokyo.jp/shisetsu/gakkokyoiku/hoikuen/02.html' target='_blank'>https://www.city.minato.tokyo.jp/shisetsu/gakkokyoiku/hoikuen/02.html</a>","分類":"区立認可保育園","地区":"芝地区","連絡先":"電話:03-3438-0435 ファックス:03-5473-7569"},{"name":"飯倉保育園","province":"東京都","city":"港区","address":"港区東麻布一丁目21番2号","lat":35.655912,"lon":139.743532,"URL":"<a href='https://www.city.minato.tokyo.jp/shisetsu/gakkokyoiku/hoikuen/03.html' target='_blank'>https://www.city.minato.tokyo.jp/shisetsu/gakkokyoiku/hoikuen/03.html</a>","分類":"区立認可保育園","地区":"麻布地区","連絡先":"電話番号:03-3583-1786 ファックス番号:03-3583-4347"},{"name":"本村保育園","province":"東京都","city":"港区","address":"港区南麻布丁目四丁目6番7号","lat":35.651113,"lon":139.727587,"URL":"<a href='https://www.city.minato.tokyo.jp/shisetsu/gakkokyoiku/hoikuen/04.html' target='_blank'>https://www.city.minato.tokyo.jp/shisetsu/gakkokyoiku/hoikuen/04.html</a>","分類":"区立認可保育園","地区":"麻布地区","連絡先":"電話番号:03-3444-2385 ファックス番号:03-3444-2436"},{"name":"南麻布保育園","province":"東京都","city":"港区","address":"港区南麻布四丁目2番29-101号","lat":35.647872,"lon":139.72407,"URL":"<a href='https://www.city.minato.tokyo.jp/shisetsu/gakkokyoiku/hoikuen/05.html' target='_blank'>https://www.city.minato.tokyo.jp/shisetsu/gakkokyoiku/hoikuen/05.html</a>","分類":"区立認可保育園","地区":"麻布地区","連絡先":"電話番号:03-3442-8068 ファックス番号:03-3442-0823"},{"name":"西麻布保育園","province":"東京都","city":"港区","address":"港区西麻布二丁目13番3号※平成26年11月より、現在地へ移転","lat":35.660833,"lon":139.722718,"URL":"<a href='https://www.city.minato.tokyo.jp/shisetsu/gakkokyoiku/hoikuen/06.html' target='_blank'>https://www.city.minato.tokyo.jp/shisetsu/gakkokyoiku/hoikuen/06.html</a>","分類":"区立認可保育園","地区":"麻布地区","連絡先":"電話番号:03-3409-4924 ファックス番号:03-3486-9190"},{"name":"麻布保育園","province":"東京都","city":"港区","address":"港区六本木五丁目16番46号","lat":35.66126125908505,"lon":139.7350372625683,"URL":"<a href='https://www.city.minato.tokyo.jp/shisetsu/gakkokyoiku/hoikuen/07.html' target='_blank'>https://www.city.minato.tokyo.jp/shisetsu/gakkokyoiku/hoikuen/07.html</a>","分類":"区立認可保育園","地区":"麻布地区","連絡先":"電話番号:03-5545-7135 ファックス番号:03-3583-0647"},{"name":"赤坂保育園","province":"東京都","city":"港区","address":"港区赤坂五丁目5番26-101号","lat":35.671125,"lon":139.734061,"URL":"<a href='https://www.city.minato.tokyo.jp/shisetsu/gakkokyoiku/hoikuen/08.html' target='_blank'>https://www.city.minato.tokyo.jp/shisetsu/gakkokyoiku/hoikuen/08.html</a>","分類":"区立認可保育園","地区":"赤坂地区","連絡先":"電話番号:03-3583-2155 ファックス番号:03-3583-5642"},{"name":"南青山保育園","province":"東京都","city":"港区","address":"港区南青山一丁目3番15号","lat":35.671188,"lon":139.725527,"URL":"<a href='https://www.city.minato.tokyo.jp/shisetsu/gakkokyoiku/hoikuen/09.html' target='_blank'>https://www.city.minato.tokyo.jp/shisetsu/gakkokyoiku/hoikuen/09.html</a>","分類":"区立認可保育園","地区":"赤坂地区","連絡先":"電話番号:03-3401-1650 ファックス番号:03-3401-1756"},{"name":"青山保育園","province":"東京都","city":"港区","address":"港区北青山三丁目4番1-101号","lat":35.667216,"lon":139.71267,"URL":"<a href='https://www.city.minato.tokyo.jp/shisetsu/gakkokyoiku/hoikuen/10.html' target='_blank'>https://www.city.minato.tokyo.jp/shisetsu/gakkokyoiku/hoikuen/10.html</a>","分類":"区立認可保育園","地区":"赤坂地区","連絡先":"電話番号:03-3401-1723 ファックス番号:03-3401-0536"},{"name":"高輪保育園","province":"東京都","city":"港区","address":"港区高輪三丁目18番15号","lat":35.633207,"lon":139.735724,"URL":"<a href='https://www.city.minato.tokyo.jp/shisetsu/gakkokyoiku/hoikuen/11.html' target='_blank'>https://www.city.minato.tokyo.jp/shisetsu/gakkokyoiku/hoikuen/11.html</a>","分類":"区立認可保育園","地区":"高輪地区","連絡先":"電話番号:03-3449-1641 ファックス番号:03-3449-0858"},{"name":"伊皿子坂保育園","province":"東京都","city":"港区","address":"港区三田四丁目19番30号","lat":35.640411,"lon":139.738726,"URL":"<a href='https://www.city.minato.tokyo.jp/shisetsu/gakkokyoiku/hoikuen/12.html' target='_blank'>https://www.city.minato.tokyo.jp/shisetsu/gakkokyoiku/hoikuen/12.html</a>","分類":"区立認可保育園","地区":"高輪地区","連絡先":"電話:03-3444-7601 ファックス:03-3444-0167"},{"name":"白金保育園","province":"東京都","city":"港区","address":"港区白金三丁目10番12号","lat":35.644936,"lon":139.731076,"URL":"<a href='https://www.city.minato.tokyo.jp/shisetsu/gakkokyoiku/hoikuen/13.html' target='_blank'>https://www.city.minato.tokyo.jp/shisetsu/gakkokyoiku/hoikuen/13.html</a>","分類":"区立認可保育園","地区":"高輪地区","連絡先":"電話番号:03-3441-5076 ファックス番号:03-3444-9825"},{"name":"こうなん保育園","province":"東京都","city":"港区","address":"港区港南四丁目2番3-101号","lat":35.629827,"lon":139.747918,"URL":"<a href='https://www.city.minato.tokyo.jp/shisetsu/gakkokyoiku/hoikuen/14.html' target='_blank'>https://www.city.minato.tokyo.jp/shisetsu/gakkokyoiku/hoikuen/14.html</a>","分類":"区立認可保育園","地区":"芝浦港南地区","連絡先":"電話番号:03-3450-3800 ファックス番号:03-3450-9129"},{"name":"台場保育園","province":"東京都","city":"港区","address":"港区台場一丁目5番1号","lat":35.62953779653265,"lon":139.7773040343295,"URL":"<a href='https://www.city.minato.tokyo.jp/shisetsu/gakkokyoiku/hoikuen/15.html' target='_blank'>https://www.city.minato.tokyo.jp/shisetsu/gakkokyoiku/hoikuen/15.html</a>","分類":"区立認可保育園","地区":"芝浦港南地区","連絡先":"電話番号:03-5500-2360 ファックス番号:03-5500-2368"},{"name":"芝浦アイランドこども園","province":"東京都","city":"港区","address":"港区芝浦四丁目20番1号","lat":35.640426,"lon":139.752365,"URL":"<a href='https://www.city.minato.tokyo.jp/shisetsu/gakkokyoiku/hoikuen/16.html' target='_blank'>https://www.city.minato.tokyo.jp/shisetsu/gakkokyoiku/hoikuen/16.html</a>","分類":"認定こども園","地区":"芝浦港南地区","連絡先":"電話番号:03-5443-7337 ファックス番号:03-5443-7337"},{"name":"東麻布保育園","province":"東京都","city":"港区","address":"港区東麻布二丁目1番1号","lat":35.658203,"lon":139.742559,"URL":"<a href='https://www.city.minato.tokyo.jp/shisetsu/gakkokyoiku/hoikuen/17.html' target='_blank'>https://www.city.minato.tokyo.jp/shisetsu/gakkokyoiku/hoikuen/17.html</a>","分類":"区立認可保育園","地区":"麻布地区","連絡先":"電話番号:03-3584-3811 ファックス番号:03-3584-3812"},{"name":"青南保育室","province":"東京都","city":"港区","address":"港区南青山四丁目19番18号","lat":35.66396,"lon":139.716584,"URL":"<a href='https://www.city.minato.tokyo.jp/shisetsu/gakkokyoiku/hoikuen/20.html' target='_blank'>https://www.city.minato.tokyo.jp/shisetsu/gakkokyoiku/hoikuen/20.html</a>","分類":"港区保育室","地区":"赤坂地区","連絡先":"電話番号:03-5770-3933 ファックス番号:03-5770-3934"},{"name":"たまち保育室","province":"東京都","city":"港区","address":"港区芝浦三丁目4番1号グランパークプラザ棟","lat":35.643735,"lon":139.745528,"URL":"<a href='https://www.city.minato.tokyo.jp/shisetsu/gakkokyoiku/hoikuen/21.html' target='_blank'>https://www.city.minato.tokyo.jp/shisetsu/gakkokyoiku/hoikuen/21.html</a>","分類":"港区保育室","地区":"芝浦港南地区","連絡先":"電話番号:03-5484-6088 ファックス番号:03-5484-6089"},{"name":"桂坂保育室","province":"東京都","city":"港区","address":"港区高輪三丁目19番36号","lat":35.633431,"lon":139.737205,"URL":"<a href='https://www.city.minato.tokyo.jp/shisetsu/gakkokyoiku/hoikuen/22.html' target='_blank'>https://www.city.minato.tokyo.jp/shisetsu/gakkokyoiku/hoikuen/22.html</a>","分類":"港区保育室","地区":"高輪地区","連絡先":"電話番号:03-5475-6646 ファックス番号:03-6277-4235"},{"name":"愛星保育園","province":"東京都","city":"港区","address":"港区高輪一丁目27番40号","lat":35.63676,"lon":139.731967,"URL":"<a href='https://www.city.minato.tokyo.jp/shisetsu/gakkokyoiku/hoikuen/23.html' target='_blank'>https://www.city.minato.tokyo.jp/shisetsu/gakkokyoiku/hoikuen/23.html</a>","分類":"私立認可保育園","地区":"高輪地区","連絡先":"電話番号:03-3441-5410 ファックス番号:03-3441-5436"},{"name":"みつばち保育園","province":"東京都","city":"港区","address":"港区白金四丁目7番2号","lat":35.642807,"lon":139.727554,"URL":"<a href='https://www.city.minato.tokyo.jp/shisetsu/gakkokyoiku/hoikuen/24.html' target='_blank'>https://www.city.minato.tokyo.jp/shisetsu/gakkokyoiku/hoikuen/24.html</a>","分類":"私立認可保育園","地区":"高輪地区","連絡先":"電話番号:03-3444-8767 ファックス番号:03-3444-8367"},{"name":"みなと保育園","province":"東京都","city":"港区","address":"港区高輪一丁目6番9号","lat":35.642366,"lon":139.735335,"URL":"<a href='https://www.city.minato.tokyo.jp/shisetsu/gakkokyoiku/hoikuen/25.html' target='_blank'>https://www.city.minato.tokyo.jp/shisetsu/gakkokyoiku/hoikuen/25.html</a>","分類":"私立認可保育園","地区":"高輪地区","連絡先":"電話番号:03-3443-3406 ファックス番号:03-3443-3573"},{"name":"ベネッセ港南保育園","province":"東京都","city":"港区","address":"港区港南四丁目6番7号","lat":35.627761,"lon":139.750726,"URL":"<a href='https://www.city.minato.tokyo.jp/shisetsu/gakkokyoiku/hoikuen/26.html' target='_blank'>https://www.city.minato.tokyo.jp/shisetsu/gakkokyoiku/hoikuen/26.html</a>","分類":"私立認可保育園","地区":"芝浦港南地区","連絡先":"電話番号:03-5783-5871 ファックス番号:03-5783-5873"},{"name":"三田プチ・クレイシュ","province":"東京都","city":"港区","address":"港区芝五丁目29番22号ライオンズマンションフェリス三田1階","lat":35.646408,"lon":139.744637,"URL":"<a href='https://www.city.minato.tokyo.jp/shisetsu/gakkokyoiku/hoikuen/27.html' target='_blank'>https://www.city.minato.tokyo.jp/shisetsu/gakkokyoiku/hoikuen/27.html</a>","分類":"認証保育所","地区":"芝地区","連絡先":"電話番号:03-5440-5950 ファックス番号:03-5440-5950"},{"name":"プチ・ナーサリー田町","province":"東京都","city":"港区","address":"港区芝四丁目16番1号","lat":35.647526,"lon":139.750265,"URL":"<a href='https://www.city.minato.tokyo.jp/shisetsu/gakkokyoiku/hoikuen/31.html' target='_blank'>https://www.city.minato.tokyo.jp/shisetsu/gakkokyoiku/hoikuen/31.html</a>","分類":"認証保育所","地区":"芝地区","連絡先":"電話番号:03-3451-5670 ファックス番号:03-3451-5670"},{"name":"ホームデイケア・六本木","province":"東京都","city":"港区","address":"港区西麻布一丁目4番46号西麻布ムラタビル","lat":35.662176,"lon":139.726034,"URL":"<a href='https://www.city.minato.tokyo.jp/shisetsu/gakkokyoiku/hoikuen/33.html' target='_blank'>https://www.city.minato.tokyo.jp/shisetsu/gakkokyoiku/hoikuen/33.html</a>","分類":"認証保育所","地区":"赤坂地区","連絡先":"電話番号:03-3401-2155 ファックス番号:03-3401-2155"},{"name":"ニチイキッズさわやか麻布十番保育園","province":"東京都","city":"港区","address":"港区麻布十番一丁目10番3号モンテプラザ2階","lat":35.656228,"lon":139.736347,"URL":"<a href='https://www.city.minato.tokyo.jp/shisetsu/gakkokyoiku/hoikuen/34.html' target='_blank'>https://www.city.minato.tokyo.jp/shisetsu/gakkokyoiku/hoikuen/34.html</a>","分類":"認証保育所","地区":"麻布地区","連絡先":"電話番号:03-3586-3887 ファックス番号:03-3586-3887"},{"name":"ナーサリールーム","province":"東京都","city":"港区","address":"港区南麻布五丁目6番8号","lat":35.653543,"lon":139.726801,"URL":"<a href='https://www.city.minato.tokyo.jp/shisetsu/gakkokyoiku/hoikuen/35.html' target='_blank'>https://www.city.minato.tokyo.jp/shisetsu/gakkokyoiku/hoikuen/35.html</a>","分類":"認証保育所","地区":"麻布地区","連絡先":"電話番号:03-3473-8317 ファックス番号:03-3445-2228"},{"name":"コンビプラザ白金台保育園","province":"東京都","city":"港区","address":"港区白金台三丁目15番6号ラミアール白金台2階","lat":35.636836,"lon":139.72418,"URL":"<a href='https://www.city.minato.tokyo.jp/shisetsu/gakkokyoiku/hoikuen/39.html' target='_blank'>https://www.city.minato.tokyo.jp/shisetsu/gakkokyoiku/hoikuen/39.html</a>","分類":"認証保育所","地区":"高輪地区","連絡先":"電話番号:03-5447-7600 ファックス番号:03-5447-0066"},{"name":"ニチイキッズさわやか白金高輪保育園","province":"東京都","city":"港区","address":"港区白金一丁目25番25号","lat":35.643866,"lon":139.731465,"URL":"<a href='https://www.city.minato.tokyo.jp/shisetsu/gakkokyoiku/hoikuen/40.html' target='_blank'>https://www.city.minato.tokyo.jp/shisetsu/gakkokyoiku/hoikuen/40.html</a>","分類":"認証保育所","地区":"高輪地区","連絡先":"電話番号:03-3441-6734 ファックス番号:03-3441-6734"},{"name":"ポピンズナーサリースクール高輪","province":"東京都","city":"港区","address":"港区三田四丁目9番7号コンフォリア三田伊皿子坂2階","lat":35.641512,"lon":139.737865,"URL":"<a href='https://www.city.minato.tokyo.jp/shisetsu/gakkokyoiku/hoikuen/41.html' target='_blank'>https://www.city.minato.tokyo.jp/shisetsu/gakkokyoiku/hoikuen/41.html</a>","分類":"認証保育所","地区":"高輪地区","連絡先":"電話番号:03-5419-2115 ファックス番号:03-5419-2116"},{"name":"アスクお台場保育園","province":"東京都","city":"港区","address":"港区台場二丁目2番3号","lat":35.629904,"lon":139.780179,"URL":"<a href='https://www.city.minato.tokyo.jp/shisetsu/gakkokyoiku/hoikuen/42.html' target='_blank'>https://www.city.minato.tokyo.jp/shisetsu/gakkokyoiku/hoikuen/42.html</a>","分類":"認証保育所","地区":"芝浦港南地区","連絡先":"電話番号:03-3599-2829 ファックス番号:03-3528-0380"},{"name":"アンジェリカ保育園芝浦園","province":"東京都","city":"港区","address":"港区芝浦四丁目22番2号エアテラス2階","lat":35.641229,"lon":139.752853,"URL":"<a href='https://www.city.minato.tokyo.jp/shisetsu/gakkokyoiku/hoikuen/43.html' target='_blank'>https://www.city.minato.tokyo.jp/shisetsu/gakkokyoiku/hoikuen/43.html</a>","分類":"認証保育所","地区":"芝浦港南地区","連絡先":"電話番号:03-5439-4340 ファックス番号:03-5439-4341"},{"name":"ポピンズナーサリースクール芝浦","province":"東京都","city":"港区","address":"港区芝浦四丁目10番1号キャピタルマークタワー2階","lat":35.641425,"lon":139.746174,"URL":"<a href='https://www.city.minato.tokyo.jp/shisetsu/gakkokyoiku/hoikuen/45.html' target='_blank'>https://www.city.minato.tokyo.jp/shisetsu/gakkokyoiku/hoikuen/45.html</a>","分類":"認証保育所","地区":"芝浦港南地区","連絡先":"電話番号:03-5444-2120 ファックス番号:03-5444-2126"},{"name":"ニチイキッズさわやか港南保育園","province":"東京都","city":"港区","address":"港区港南四丁目2番5号シティタワー品川西棟2・3階","lat":35.631406,"lon":139.747397,"URL":"<a href='https://www.city.minato.tokyo.jp/shisetsu/gakkokyoiku/hoikuen/46.html' target='_blank'>https://www.city.minato.tokyo.jp/shisetsu/gakkokyoiku/hoikuen/46.html</a>","分類":"認証保育所","地区":"芝浦港南地区","連絡先":"電話番号:03-3471-9826 ファックス番号:03-3471-9826"},{"name":"アンジェリカ保育園品川園","province":"東京都","city":"港区","address":"港区港南二丁目3番13号品川フロントビルキッズ館2階","lat":35.629058,"lon":139.744179,"URL":"<a href='https://www.city.minato.tokyo.jp/shisetsu/gakkokyoiku/hoikuen/47.html' target='_blank'>https://www.city.minato.tokyo.jp/shisetsu/gakkokyoiku/hoikuen/47.html</a>","分類":"認証保育所","地区":"芝浦港南地区","連絡先":"電話番号:03-5781-9736 ファックス番号:03-5781-9737"},{"name":"赤羽幼稚園","province":"東京都","city":"港区","address":"港区三田一丁目4番52号","lat":35.653275,"lon":139.742502,"URL":"<a href='https://www.city.minato.tokyo.jp/shisetsu/gakkokyoiku/yochien/01.html' target='_blank'>https://www.city.minato.tokyo.jp/shisetsu/gakkokyoiku/yochien/01.html</a>","分類":"幼稚園","地区":"芝地区","連絡先":"電話番号:03-3452-0246 ファックス番号:03-3452-8188"},{"name":"芝浦幼稚園","province":"東京都","city":"港区","address":"港区芝浦四丁目8番18号","lat":35.638325,"lon":139.74618,"URL":"<a href='https://www.city.minato.tokyo.jp/shisetsu/gakkokyoiku/yochien/02.html' target='_blank'>https://www.city.minato.tokyo.jp/shisetsu/gakkokyoiku/yochien/02.html</a>","分類":"幼稚園","地区":"芝浦港南地区","連絡先":"電話:03-3452-0574 ファックス:03-3452-6433"},{"name":"高輪幼稚園","province":"東京都","city":"港区","address":"港区高輪二丁目12番31号","lat":35.635513,"lon":139.735274,"URL":"<a href='https://www.city.minato.tokyo.jp/shisetsu/gakkokyoiku/yochien/03.html' target='_blank'>https://www.city.minato.tokyo.jp/shisetsu/gakkokyoiku/yochien/03.html</a>","分類":"幼稚園","地区":"高輪地区","連絡先":"電話:03-3447-3356 ファックス:03-3447-3357"},{"name":"白金台幼稚園","province":"東京都","city":"港区","address":"港区白金台三丁目7番1号","lat":35.635683,"lon":139.726546,"URL":"<a href='https://www.city.minato.tokyo.jp/shisetsu/gakkokyoiku/yochien/04.html' target='_blank'>https://www.city.minato.tokyo.jp/shisetsu/gakkokyoiku/yochien/04.html</a>","分類":"幼稚園","地区":"高輪地区","連絡先":"電話:03-3443-5666 ファックス:03-3443-5618"},{"name":"三光幼稚園","province":"東京都","city":"港区","address":"港区白金三丁目13番8号","lat":35.645013,"lon":139.728861,"URL":"<a href='https://www.city.minato.tokyo.jp/shisetsu/gakkokyoiku/yochien/05.html' target='_blank'>https://www.city.minato.tokyo.jp/shisetsu/gakkokyoiku/yochien/05.html</a>","分類":"幼稚園","地区":"高輪地区","連絡先":"電話:03-3444-4233 ファックス:03-5795-4039"},{"name":"港南幼稚園","province":"東京都","city":"港区","address":"港区港南四丁目3番27号","lat":35.629337,"lon":139.748862,"URL":"<a href='https://www.city.minato.tokyo.jp/shisetsu/gakkokyoiku/yochien/06.html' target='_blank'>https://www.city.minato.tokyo.jp/shisetsu/gakkokyoiku/yochien/06.html</a>","分類":"幼稚園","地区":"芝浦港南地区","連絡先":"電話:03-3471-7347 ファックス:03-5796-0566"},{"name":"麻布幼稚園","province":"東京都","city":"港区","address":"港区麻布台一丁目5番15号","lat":35.662051,"lon":139.738546,"URL":"<a href='https://www.city.minato.tokyo.jp/shisetsu/gakkokyoiku/yochien/07.html' target='_blank'>https://www.city.minato.tokyo.jp/shisetsu/gakkokyoiku/yochien/07.html</a>","分類":"幼稚園","地区":"麻布地区","連絡先":"電話番号:03-3583-1858 ファックス番号:03-3583-2313"},{"name":"南山幼稚園","province":"東京都","city":"港区","address":"港区元麻布三丁目8番15号","lat":35.657268,"lon":139.73058,"URL":"<a href='https://www.city.minato.tokyo.jp/shisetsu/gakkokyoiku/yochien/08.html' target='_blank'>https://www.city.minato.tokyo.jp/shisetsu/gakkokyoiku/yochien/08.html</a>","分類":"幼稚園","地区":"麻布地区","連絡先":"電話番号:03-3408-4785 ファックス番号:03-3408-4751"},{"name":"本村幼稚園","province":"東京都","city":"港区","address":"港区南麻布三丁目9番33号","lat":35.649917,"lon":139.730274,"URL":"<a href='https://www.city.minato.tokyo.jp/shisetsu/gakkokyoiku/yochien/09.html' target='_blank'>https://www.city.minato.tokyo.jp/shisetsu/gakkokyoiku/yochien/09.html</a>","分類":"幼稚園","地区":"麻布地区","連絡先":"電話番号:03-3446-3677 ファックス番号:03-3446-4491"},{"name":"中之町幼稚園","province":"東京都","city":"港区","address":"港区赤坂九丁目2番26号","lat":35.66785562689406,"lon":139.7314396272871,"URL":"<a href='https://www.city.minato.tokyo.jp/shisetsu/gakkokyoiku/yochien/10.html' target='_blank'>https://www.city.minato.tokyo.jp/shisetsu/gakkokyoiku/yochien/10.html</a>","分類":"幼稚園","地区":"赤坂地区","連絡先":"電話:03-3405-7619 ファックス:03-3401-5814"},{"name":"青南幼稚園","province":"東京都","city":"港区","address":"港区南青山四丁目18番17号","lat":35.663577,"lon":139.716965,"URL":"<a href='https://www.city.minato.tokyo.jp/shisetsu/gakkokyoiku/yochien/11.html' target='_blank'>https://www.city.minato.tokyo.jp/shisetsu/gakkokyoiku/yochien/11.html</a>","分類":"幼稚園","地区":"赤坂地区","連絡先":"電話:03-3402-0758 ファックス:03-3402-0830"},{"name":"にじのはし幼稚園","province":"東京都","city":"港区","address":"港区台場一丁目1番5号","lat":35.633486,"lon":139.777476,"URL":"<a href='https://www.city.minato.tokyo.jp/shisetsu/gakkokyoiku/yochien/12.html' target='_blank'>https://www.city.minato.tokyo.jp/shisetsu/gakkokyoiku/yochien/12.html</a>","分類":"幼稚園","地区":"芝浦港南地区","連絡先":"電話:03-5500-2577 ファックス:03-5500-2577"},{"name":"愛育幼稚園","province":"東京都","city":"港区","address":"港区南麻布五丁目6番8号","lat":35.653225,"lon":139.726817,"URL":"<a href='https://www.city.minato.tokyo.jp/shisetsu/gakkokyoiku/yochien/13.html' target='_blank'>https://www.city.minato.tokyo.jp/shisetsu/gakkokyoiku/yochien/13.html</a>","分類":"幼稚園","地区":"麻布地区","連絡先":"電話番号:03-3473-8318 ファックス番号:03-3473-8495"},{"name":"麻布山幼稚園","province":"東京都","city":"港区","address":"港区元麻布一丁目6番21号","lat":35.654027,"lon":139.732766,"URL":"<a href='https://www.city.minato.tokyo.jp/shisetsu/gakkokyoiku/yochien/14.html' target='_blank'>https://www.city.minato.tokyo.jp/shisetsu/gakkokyoiku/yochien/14.html</a>","分類":"幼稚園","地区":"麻布地区","連絡先":"電話番号:03-3453-6710 ファックス番号:03-3453-4336"},{"name":"麻布みこころ幼稚園","province":"東京都","city":"港区","address":"港区西麻布三丁目21番6号","lat":35.659208,"lon":139.72551,"URL":"<a href='https://www.city.minato.tokyo.jp/shisetsu/gakkokyoiku/yochien/15.html' target='_blank'>https://www.city.minato.tokyo.jp/shisetsu/gakkokyoiku/yochien/15.html</a>","分類":"幼稚園","地区":"麻布地区","連絡先":"電話番号:03-3408-8848 ファックス番号:03-3408-8849"},{"name":"安藤記念教会附属幼稚園","province":"東京都","city":"港区","address":"港区元麻布二丁目14番16号","lat":35.65246,"lon":139.730296,"URL":"<a href='https://www.city.minato.tokyo.jp/shisetsu/gakkokyoiku/yochien/16.html' target='_blank'>https://www.city.minato.tokyo.jp/shisetsu/gakkokyoiku/yochien/16.html</a>","分類":"幼稚園","地区":"麻布地区","連絡先":"電話番号:03-3446-5231 ファックス番号:03-3446-5231"},{"name":"サンタ・セシリア幼稚園","province":"東京都","city":"港区","address":"港区白金四丁目7番23号","lat":35.642427,"lon":139.727587,"URL":"<a href='https://www.city.minato.tokyo.jp/shisetsu/gakkokyoiku/yochien/17.html' target='_blank'>https://www.city.minato.tokyo.jp/shisetsu/gakkokyoiku/yochien/17.html</a>","分類":"幼稚園","地区":"高輪地区","連絡先":"電話番号:03-3446-9884 ファックス番号:03-3446-9884"},{"name":"枝光会附属幼稚園","province":"東京都","city":"港区","address":"港区三田四丁目19番36号","lat":35.641041,"lon":139.739364,"URL":"<a href='https://www.city.minato.tokyo.jp/shisetsu/gakkokyoiku/yochien/18.html' target='_blank'>https://www.city.minato.tokyo.jp/shisetsu/gakkokyoiku/yochien/18.html</a>","分類":"幼稚園","地区":"芝浦港南地区","連絡先":"電話番号:03-3441-8147 ファックス番号:03-5791-5234"},{"name":"白金幼稚園","province":"東京都","city":"港区","address":"港区白金台五丁目23番11号","lat":35.635884,"lon":139.717893,"URL":"<a href='https://www.city.minato.tokyo.jp/shisetsu/gakkokyoiku/yochien/19.html' target='_blank'>https://www.city.minato.tokyo.jp/shisetsu/gakkokyoiku/yochien/19.html</a>","分類":"幼稚園","地区":"高輪地区","連絡先":"電話番号:03-3441-8497 ファックス番号:03-3442-4090"},{"name":"聖徳学園三田幼稚園","province":"東京都","city":"港区","address":"港区三田三丁目4番28号","lat":35.645884,"lon":139.743269,"URL":"<a href='https://www.city.minato.tokyo.jp/shisetsu/gakkokyoiku/yochien/20.html' target='_blank'>https://www.city.minato.tokyo.jp/shisetsu/gakkokyoiku/yochien/20.html</a>","分類":"幼稚園","地区":"芝地区","連絡先":"電話番号:03-5476-8811 ファックス番号:03-5476-8820"},{"name":"東洋英和幼稚園","province":"東京都","city":"港区","address":"港区六本木五丁目6番14号","lat":35.661047,"lon":139.734271,"URL":"<a href='https://www.city.minato.tokyo.jp/shisetsu/gakkokyoiku/yochien/21.html' target='_blank'>https://www.city.minato.tokyo.jp/shisetsu/gakkokyoiku/yochien/21.html</a>","分類":"幼稚園","地区":"麻布地区","連絡先":"電話番号:03-3401-3014 ファックス番号:03-3408-3338"},{"name":"南部坂幼稚園","province":"東京都","city":"港区","address":"港区南麻布四丁目5番6号","lat":35.651159,"lon":139.724749,"URL":"<a href='https://www.city.minato.tokyo.jp/shisetsu/gakkokyoiku/yochien/22.html' target='_blank'>https://www.city.minato.tokyo.jp/shisetsu/gakkokyoiku/yochien/22.html</a>","分類":"幼稚園","地区":"麻布地区","連絡先":"電話番号:03-3473-1283 ファックス番号:03-3473-1283"},{"name":"みなと幼稚園","province":"東京都","city":"港区","address":"港区芝二丁目25番6号","lat":35.650636,"lon":139.751278,"URL":"<a href='https://www.city.minato.tokyo.jp/shisetsu/gakkokyoiku/yochien/23.html' target='_blank'>https://www.city.minato.tokyo.jp/shisetsu/gakkokyoiku/yochien/23.html</a>","分類":"幼稚園","地区":"芝地区","連絡先":"電話番号:03-3451-5495 ファックス番号:03-3451-5456"},{"name":"明徳幼稚園","province":"東京都","city":"港区","address":"港区芝公園四丁目7番4号","lat":35.657227,"lon":139.74685,"URL":"<a href='https://www.city.minato.tokyo.jp/shisetsu/gakkokyoiku/yochien/24.html' target='_blank'>https://www.city.minato.tokyo.jp/shisetsu/gakkokyoiku/yochien/24.html</a>","分類":"幼稚園","地区":"芝地区","連絡先":"電話番号:03-3431-0592 ファックス番号:03-3431-0592"},{"name":"霊南坂幼稚園","province":"東京都","city":"港区","address":"港区赤坂一丁目14番3号","lat":35.667138,"lon":139.741829,"URL":"<a href='https://www.city.minato.tokyo.jp/shisetsu/gakkokyoiku/yochien/25.html' target='_blank'>https://www.city.minato.tokyo.jp/shisetsu/gakkokyoiku/yochien/25.html</a>","分類":"幼稚園","地区":"赤坂地区","連絡先":"電話番号:03-3582-3995 ファックス番号:03-3582-3996"},{"name":"若葉会幼稚園","province":"東京都","city":"港区","address":"港区西麻布四丁目13番25号","lat":35.657837,"lon":139.722463,"URL":"<a href='https://www.city.minato.tokyo.jp/shisetsu/gakkokyoiku/yochien/26.html' target='_blank'>https://www.city.minato.tokyo.jp/shisetsu/gakkokyoiku/yochien/26.html</a>","分類":"幼稚園","地区":"麻布地区","連絡先":"電話番号:03-3409-0039 ファックス番号:03-3409-4976"},{"name":"御成門小学校","province":"東京都","city":"港区","address":"港区芝公園三丁目2番4号","lat":35.661084,"lon":139.749586,"URL":"<a href='https://www.city.minato.tokyo.jp/shisetsu/gakkokyoiku/sho/01.html' target='_blank'>https://www.city.minato.tokyo.jp/shisetsu/gakkokyoiku/sho/01.html</a>","分類":"小学校","地区":"芝地区","連絡先":"電話:03-3431-2766 ファックス:03-3431-0727"},{"name":"芝小学校","province":"東京都","city":"港区","address":"港区芝二丁目21番3号","lat":35.651349,"lon":139.750176,"URL":"<a href='https://www.city.minato.tokyo.jp/shisetsu/gakkokyoiku/sho/02.html' target='_blank'>https://www.city.minato.tokyo.jp/shisetsu/gakkokyoiku/sho/02.html</a>","分類":"小学校","地区":"芝地区","連絡先":"電話:03-3456-3072 ファックス:03-3456-3071"},{"name":"赤羽小学校","province":"東京都","city":"港区","address":"港区三田二丁目6番2号","lat":35.65182432164082,"lon":139.7424793706974,"URL":"<a href='https://www.city.minato.tokyo.jp/shisetsu/gakkokyoiku/sho/03.html' target='_blank'>https://www.city.minato.tokyo.jp/shisetsu/gakkokyoiku/sho/03.html</a>","分類":"小学校","地区":"芝地区","連絡先":"電話:03-3451-1988 ファックス:03-3451-8040"},{"name":"芝浦小学校","province":"東京都","city":"港区","address":"港区芝浦四丁目8番18号","lat":35.638203,"lon":139.746255,"URL":"<a href='https://www.city.minato.tokyo.jp/shisetsu/gakkokyoiku/sho/04.html' target='_blank'>https://www.city.minato.tokyo.jp/shisetsu/gakkokyoiku/sho/04.html</a>","分類":"小学校","地区":"芝浦港南地区","連絡先":"電話:03-3451-4992 ファックス:03-3451-4949"},{"name":"御田小学校","province":"東京都","city":"港区","address":"港区白金3丁目18番2号※校舎改築に伴い、令和6年4月から仮校舎で運営しています。","lat":35.64438113948525,"lon":139.7291847450826,"URL":"<a href='https://www.city.minato.tokyo.jp/shisetsu/gakkokyoiku/sho/05.html' target='_blank'>https://www.city.minato.tokyo.jp/shisetsu/gakkokyoiku/sho/05.html</a>","分類":"小学校","地区":"高輪地区","連絡先":"電話:03-3473-3436 ファックス:03-5475-3439"},{"name":"高輪台小学校","province":"東京都","city":"港区","address":"港区高輪二丁目8番24号","lat":35.63642,"lon":139.734367,"URL":"<a href='https://www.city.minato.tokyo.jp/shisetsu/gakkokyoiku/sho/06.html' target='_blank'>https://www.city.minato.tokyo.jp/shisetsu/gakkokyoiku/sho/06.html</a>","分類":"小学校","地区":"高輪地区","連絡先":"電話:03-5447-0616 ファックス:03-5447-5335"},{"name":"白金小学校","province":"東京都","city":"港区","address":"港区白金台一丁目4番26号","lat":35.636912,"lon":139.728568,"URL":"<a href='https://www.city.minato.tokyo.jp/shisetsu/gakkokyoiku/sho/07.html' target='_blank'>https://www.city.minato.tokyo.jp/shisetsu/gakkokyoiku/sho/07.html</a>","分類":"小学校","地区":"高輪地区","連絡先":"電話:03-3441-5407 ファックス:03-3441-8895"},{"name":"白金の丘学園 白金の丘小学校","province":"東京都","city":"港区","address":"港区白金四丁目1番12号","lat":35.6437,"lon":139.726835,"URL":"<a href='https://www.city.minato.tokyo.jp/shisetsu/gakkokyoiku/sho/08.html' target='_blank'>https://www.city.minato.tokyo.jp/shisetsu/gakkokyoiku/sho/08.html</a>","分類":"小学校","地区":"高輪地区","連絡先":"電話:03-3441-5363 ファックス:03-3441-0762"},{"name":"港南小学校","province":"東京都","city":"港区","address":"港区港南四丁目3番28号","lat":35.629326,"lon":139.749618,"URL":"<a href='https://www.city.minato.tokyo.jp/shisetsu/gakkokyoiku/sho/10.html' target='_blank'>https://www.city.minato.tokyo.jp/shisetsu/gakkokyoiku/sho/10.html</a>","分類":"小学校","地区":"芝浦港南地区","連絡先":"電話:03-3474-1501 ファックス:03-3474-1500"},{"name":"麻布小学校","province":"東京都","city":"港区","address":"港区麻布台一丁目5番15号","lat":35.662043,"lon":139.738551,"URL":"<a href='https://www.city.minato.tokyo.jp/shisetsu/gakkokyoiku/sho/11.html' target='_blank'>https://www.city.minato.tokyo.jp/shisetsu/gakkokyoiku/sho/11.html</a>","分類":"小学校","地区":"麻布地区","連絡先":"電話:03-3583-0014 ファックス:03-3583-7223"},{"name":"南山小学校","province":"東京都","city":"港区","address":"港区元麻布三丁目8番15号","lat":35.657344,"lon":139.731122,"URL":"<a href='https://www.city.minato.tokyo.jp/shisetsu/gakkokyoiku/sho/12.html' target='_blank'>https://www.city.minato.tokyo.jp/shisetsu/gakkokyoiku/sho/12.html</a>","分類":"小学校","地区":"麻布地区","連絡先":"電話:03-3403-5773 ファックス:03-3408-4532"},{"name":"本村小学校","province":"東京都","city":"港区","address":"港区南麻布三丁目9番33号","lat":35.64993,"lon":139.729979,"URL":"<a href='https://www.city.minato.tokyo.jp/shisetsu/gakkokyoiku/sho/13.html' target='_blank'>https://www.city.minato.tokyo.jp/shisetsu/gakkokyoiku/sho/13.html</a>","分類":"小学校","地区":"麻布地区","連絡先":"電話:03-3473-1462 ファックス:03-3443-8535"},{"name":"笄小学校","province":"東京都","city":"港区","address":"港区西麻布三丁目11番16号","lat":35.656564,"lon":139.72491,"URL":"<a href='https://www.city.minato.tokyo.jp/shisetsu/gakkokyoiku/sho/14.html' target='_blank'>https://www.city.minato.tokyo.jp/shisetsu/gakkokyoiku/sho/14.html</a>","分類":"小学校","地区":"麻布地区","連絡先":"電話:03-3404-1530 ファックス:03-3408-4079"},{"name":"東町小学校","province":"東京都","city":"港区","address":"港区南麻布一丁目8番11号","lat":35.650937,"lon":139.735848,"URL":"<a href='https://www.city.minato.tokyo.jp/shisetsu/gakkokyoiku/sho/15.html' target='_blank'>https://www.city.minato.tokyo.jp/shisetsu/gakkokyoiku/sho/15.html</a>","分類":"小学校","地区":"麻布地区","連絡先":"電話:03-3451-7726 ファックス:03-3451-7711"},{"name":"赤坂小学校","province":"東京都","city":"港区","address":"港区赤坂八丁目13番29号","lat":35.669408,"lon":139.73102,"URL":"<a href='https://www.city.minato.tokyo.jp/shisetsu/gakkokyoiku/sho/16.html' target='_blank'>https://www.city.minato.tokyo.jp/shisetsu/gakkokyoiku/sho/16.html</a>","分類":"小学校","地区":"赤坂地区","連絡先":"電話:03-3404-8602 ファックス:03-3404-8601"},{"name":"青山小学校","province":"東京都","city":"港区","address":"港区南青山二丁目21番2号","lat":35.669901,"lon":139.719009,"URL":"<a href='https://www.city.minato.tokyo.jp/shisetsu/gakkokyoiku/sho/17.html' target='_blank'>https://www.city.minato.tokyo.jp/shisetsu/gakkokyoiku/sho/17.html</a>","分類":"小学校","地区":"赤坂地区","連絡先":"電話:03-3403-5588 ファックス:03-3403-5589"},{"name":"青南小学校","province":"東京都","city":"港区","address":"港区南青山四丁目21番15号","lat":35.663616,"lon":139.716123,"URL":"<a href='https://www.city.minato.tokyo.jp/shisetsu/gakkokyoiku/sho/18.html' target='_blank'>https://www.city.minato.tokyo.jp/shisetsu/gakkokyoiku/sho/18.html</a>","分類":"小学校","地区":"赤坂地区","連絡先":"電話:03-3404-8608 ファックス:03-3404-8600"},{"name":"お台場学園 港陽小学校","province":"東京都","city":"港区","address":"港区台場一丁目1番5号","lat":35.633708,"lon":139.777116,"URL":"<a href='https://www.city.minato.tokyo.jp/shisetsu/gakkokyoiku/sho/19.html' target='_blank'>https://www.city.minato.tokyo.jp/shisetsu/gakkokyoiku/sho/19.html</a>","分類":"小学校","地区":"芝浦港南地区","連絡先":"電話:03-5500-2572 ファックス:03-5500-2571"},{"name":"御成門中学校","province":"東京都","city":"港区","address":"港区西新橋三丁目25番30号","lat":35.661742,"lon":139.750385,"URL":"<a href='https://www.city.minato.tokyo.jp/shisetsu/gakkokyoiku/chu/01.html' target='_blank'>https://www.city.minato.tokyo.jp/shisetsu/gakkokyoiku/chu/01.html</a>","分類":"中学校","地区":"芝地区","連絡先":"電話:03-3436-3568 ファックス:03-3436-3552"},{"name":"三田中学校","province":"東京都","city":"港区","address":"港区三田四丁目13番13号","lat":35.645357,"lon":139.740831,"URL":"<a href='https://www.city.minato.tokyo.jp/shisetsu/gakkokyoiku/chu/02.html' target='_blank'>https://www.city.minato.tokyo.jp/shisetsu/gakkokyoiku/chu/02.html</a>","分類":"中学校","地区":"高輪地区","連絡先":"電話:03-5441-7348 ファックス:03-5441-2699"},{"name":"高松中学校","province":"東京都","city":"港区","address":"港区高輪一丁目16番25号","lat":35.640627,"lon":139.734131,"URL":"<a href='https://www.city.minato.tokyo.jp/shisetsu/gakkokyoiku/chu/03.html' target='_blank'>https://www.city.minato.tokyo.jp/shisetsu/gakkokyoiku/chu/03.html</a>","分類":"中学校","地区":"高輪地区","連絡先":"電話:03-3441-6239 ファックス:03-3441-6230"},{"name":"港南中学校","province":"東京都","city":"港区","address":"港区港南四丁目3番3号","lat":35.631301,"lon":139.749119,"URL":"<a href='https://www.city.minato.tokyo.jp/shisetsu/gakkokyoiku/chu/04.html' target='_blank'>https://www.city.minato.tokyo.jp/shisetsu/gakkokyoiku/chu/04.html</a>","分類":"中学校","地区":"芝浦港南地区","連絡先":"電話:03-3471-0238 ファックス:03-3471-0239"},{"name":"白金の丘学園 白金の丘中学校","province":"東京都","city":"港区","address":"港区白金四丁目1番12号","lat":35.6437,"lon":139.726835,"URL":"<a href='https://www.city.minato.tokyo.jp/shisetsu/gakkokyoiku/chu/05.html' target='_blank'>https://www.city.minato.tokyo.jp/shisetsu/gakkokyoiku/chu/05.html</a>","分類":"中学校","地区":"高輪地区","連絡先":"電話:03-3441-5361 ファックス:03-3441-0761"},{"name":"六本木中学校","province":"東京都","city":"港区","address":"港区六本木六丁目8番16号","lat":35.660552,"lon":139.732184,"URL":"<a href='https://www.city.minato.tokyo.jp/shisetsu/gakkokyoiku/chu/06.html' target='_blank'>https://www.city.minato.tokyo.jp/shisetsu/gakkokyoiku/chu/06.html</a>","分類":"中学校","地区":"麻布地区","連絡先":"電話:03-3404-8855 ファックス:03-3404-8856"},{"name":"高陵中学校","province":"東京都","city":"港区","address":"港区西麻布四丁目14番8号","lat":35.65703,"lon":139.720543,"URL":"<a href='https://www.city.minato.tokyo.jp/shisetsu/gakkokyoiku/chu/07.html' target='_blank'>https://www.city.minato.tokyo.jp/shisetsu/gakkokyoiku/chu/07.html</a>","分類":"中学校","地区":"麻布地区","連絡先":"電話:03-3409-7687 ファックス:03-3406-1495"},{"name":"赤坂中学校","province":"東京都","city":"港区","address":"港区赤坂九丁目2番3号","lat":35.66806326009347,"lon":139.7316882038357,"URL":"<a href='https://www.city.minato.tokyo.jp/shisetsu/gakkokyoiku/chu/08.html' target='_blank'>https://www.city.minato.tokyo.jp/shisetsu/gakkokyoiku/chu/08.html</a>","分類":"中学校","地区":"赤坂地区","連絡先":"電話:03-3402-9306 ファックス:03-3402-9302"},{"name":"青山中学校","province":"東京都","city":"港区","address":"港区北青山一丁目1番9号","lat":35.674389,"lon":139.722158,"URL":"<a href='https://www.city.minato.tokyo.jp/shisetsu/gakkokyoiku/chu/09.html' target='_blank'>https://www.city.minato.tokyo.jp/shisetsu/gakkokyoiku/chu/09.html</a>","分類":"中学校","地区":"赤坂地区","連絡先":"電話:03-3404-7522 ファックス:03-3404-7523"},{"name":"お台場学園 港陽中学校","province":"東京都","city":"港区","address":"港区台場一丁目1番5号","lat":35.634209,"lon":139.777132,"URL":"<a href='https://www.city.minato.tokyo.jp/shisetsu/gakkokyoiku/chu/10.html' target='_blank'>https://www.city.minato.tokyo.jp/shisetsu/gakkokyoiku/chu/10.html</a>","分類":"中学校","地区":"芝浦港南地区","連絡先":"電話:03-5500-2575 ファックス:03-5500-2574"},{"name":"高輪児童館","province":"東京都","city":"港区","address":"港区高輪三丁目18番15号","lat":35.633222,"lon":139.735722,"URL":"<a href='https://www.city.minato.tokyo.jp/shisetsu/gakkokyoiku/jidokan/07.html' target='_blank'>https://www.city.minato.tokyo.jp/shisetsu/gakkokyoiku/jidokan/07.html</a>","分類":"児童館・飯倉学童クラブ","地区":"高輪地区","連絡先":"電話:03-3449-1642 ファックス:03-3449-0819"},{"name":"豊岡児童館","province":"東京都","city":"港区","address":"港区三田五丁目7番7号","lat":35.646538,"lon":139.739584,"URL":"<a href='https://www.city.minato.tokyo.jp/shisetsu/gakkokyoiku/jidokan/08.html' target='_blank'>https://www.city.minato.tokyo.jp/shisetsu/gakkokyoiku/jidokan/08.html</a>","分類":"児童館・飯倉学童クラブ","地区":"高輪地区","連絡先":"電話:03-3453-1592 ファックス:03-3453-0624"},{"name":"白金台児童館","province":"東京都","city":"港区","address":"港区白金台四丁目8番5号","lat":35.637797,"lon":139.72499,"URL":"<a href='https://www.city.minato.tokyo.jp/shisetsu/gakkokyoiku/jidokan/09.html' target='_blank'>https://www.city.minato.tokyo.jp/shisetsu/gakkokyoiku/jidokan/09.html</a>","分類":"児童館・飯倉学童クラブ","地区":"高輪地区","連絡先":"電話:03-3444-1899 ファックス:03-3444-1647"},{"name":"台場児童館","province":"東京都","city":"港区","address":"港区台場一丁目5番1号","lat":35.630093,"lon":139.777095,"URL":"<a href='https://www.city.minato.tokyo.jp/shisetsu/gakkokyoiku/jidokan/10.html' target='_blank'>https://www.city.minato.tokyo.jp/shisetsu/gakkokyoiku/jidokan/10.html</a>","分類":"児童館・飯倉学童クラブ","地区":"芝浦港南地区","連絡先":"電話:03-5500-2363 ファックス:03-5500-2369"},{"name":"赤坂子ども中高生プラザ(なんで~も)","province":"東京都","city":"港区","address":"港区赤坂六丁目6番14号","lat":35.670071,"lon":139.73765,"URL":"<a href='https://www.city.minato.tokyo.jp/shisetsu/gakkokyoiku/jidokan/11.html' target='_blank'>https://www.city.minato.tokyo.jp/shisetsu/gakkokyoiku/jidokan/11.html</a>","分類":"子ども中高生プラザ・児童高齢者交流プラザ","地区":"赤坂地区","連絡先":"電話番号:03-5561-7830 ファックス番号:03-5561-7836"},{"name":"港南子ども中高生プラザ(プラリバ)","province":"東京都","city":"港区","address":"港区港南四丁目3番7号","lat":35.631151,"lon":139.749972,"URL":"<a href='https://www.city.minato.tokyo.jp/shisetsu/gakkokyoiku/jidokan/12.html' target='_blank'>https://www.city.minato.tokyo.jp/shisetsu/gakkokyoiku/jidokan/12.html</a>","分類":"子ども中高生プラザ・児童高齢者交流プラザ","地区":"芝浦港南地区","連絡先":"電話番号:03-3450-9576 ファックス番号:03-3450-9515"},{"name":"高輪子ども中高生プラザ(TAP(たっぷ))","province":"東京都","city":"港区","address":"港区高輪一丁目4番35号","lat":35.642362,"lon":139.734778,"URL":"<a href='https://www.city.minato.tokyo.jp/shisetsu/gakkokyoiku/jidokan/13.html' target='_blank'>https://www.city.minato.tokyo.jp/shisetsu/gakkokyoiku/jidokan/13.html</a>","分類":"子ども中高生プラザ・児童高齢者交流プラザ","地区":"高輪地区","連絡先":"電話番号:03-3443-1555 ファックス番号:03-3443-3433"},{"name":"子ども家庭支援センター(みなとキッズサポートセンター)","province":"東京都","city":"港区","address":"港区南青山五丁目7番11号","lat":35.662774,"lon":139.713122,"URL":"<a href='https://www.city.minato.tokyo.jp/shisetsu/gakkokyoiku/jidokan/14.html' target='_blank'>https://www.city.minato.tokyo.jp/shisetsu/gakkokyoiku/jidokan/14.html</a>","分類":"子育てひろば・子育て関連施設","地区":"芝地区","連絡先":"電話:03-5962-7201 港区子ども家庭相談ダイヤル:03-5962-7215 ファックス:03-5962-7205"},{"name":"芝浦アイランド児童高齢者交流プラザ(あいぷら)","province":"東京都","city":"港区","address":"港区芝浦四丁目20番1号","lat":35.640413,"lon":139.752402,"URL":"<a href='https://www.city.minato.tokyo.jp/shisetsu/gakkokyoiku/jidokan/15.html' target='_blank'>https://www.city.minato.tokyo.jp/shisetsu/gakkokyoiku/jidokan/15.html</a>","分類":"子ども中高生プラザ・児童高齢者交流プラザ","地区":"芝浦港南地区","連絡先":"電話番号:03-5443-7338 ファックス番号:03-5443-2512"},{"name":"子育てひろば あい・ぽーと","province":"東京都","city":"港区","address":"港区南青山二丁目25番1号","lat":35.669903,"lon":139.718451,"URL":"<a href='https://www.city.minato.tokyo.jp/shisetsu/gakkokyoiku/jidokan/17.html' target='_blank'>https://www.city.minato.tokyo.jp/shisetsu/gakkokyoiku/jidokan/17.html</a>","分類":"子育てひろば・子育て関連施設","地区":"赤坂地区","連絡先":"電話:03-5786-3250 ファックス:03-5786-3256"},{"name":"子育てひろば あっぴぃ港南","province":"東京都","city":"港区","address":"港区港南二丁目3番13号品川フロントビルキッズ館3階","lat":35.629186,"lon":139.743229,"URL":"<a href='https://www.city.minato.tokyo.jp/shisetsu/gakkokyoiku/jidokan/18.html' target='_blank'>https://www.city.minato.tokyo.jp/shisetsu/gakkokyoiku/jidokan/18.html</a>","分類":"子育てひろば・子育て関連施設","地区":"芝浦港南地区","連絡先":"電話:03-6712-0688 ファックス:03-6712-0689"},{"name":"子育てひろば あっぴぃ台場","province":"東京都","city":"港区","address":"港区台場一丁目7番1号アクアシティお台場4F","lat":35.628175,"lon":139.774373,"URL":"<a href='https://www.city.minato.tokyo.jp/shisetsu/gakkokyoiku/jidokan/19.html' target='_blank'>https://www.city.minato.tokyo.jp/shisetsu/gakkokyoiku/jidokan/19.html</a>","分類":"子育てひろば・子育て関連施設","地区":"芝浦港南地区","連絡先":"電話番号:03-5520-9061 ファックス番号:03-5520-9062"},{"name":"子育てひろば あっぴぃ麻布","province":"東京都","city":"港区","address":"港区六本木五丁目12番24号港区立麻布図書館1階","lat":35.657508,"lon":139.735818,"URL":"<a href='https://www.city.minato.tokyo.jp/shisetsu/gakkokyoiku/jidokan/20.html' target='_blank'>https://www.city.minato.tokyo.jp/shisetsu/gakkokyoiku/jidokan/20.html</a>","分類":"子育てひろば・子育て関連施設","地区":"麻布地区","連絡先":"電話:03-5114-9900 ファックス:03-5114-9911"},{"name":"みなと子育て応援プラザPokke","province":"東京都","city":"港区","address":"港区芝五丁目18番1-102号","lat":35.648186,"lon":139.747741,"URL":"<a href='https://www.city.minato.tokyo.jp/shisetsu/gakkokyoiku/jidokan/21.html' target='_blank'>https://www.city.minato.tokyo.jp/shisetsu/gakkokyoiku/jidokan/21.html</a>","分類":"子育てひろば・子育て関連施設","地区":"芝地区","連絡先":"電話:03-6435-0411 ファックス:03-6435-0412"},{"name":"教育センター","province":"東京都","city":"港区","address":"港区虎ノ門三丁目6番9号","lat":35.666068,"lon":139.745744,"URL":"<a href='https://www.city.minato.tokyo.jp/shisetsu/gakkokyoiku/sonohoka/02.html' target='_blank'>https://www.city.minato.tokyo.jp/shisetsu/gakkokyoiku/sonohoka/02.html</a>","分類":"その他の教育施設","地区":"高輪地区","連絡先":"電話:03-5422-1541(代表) ファックス:03-5422-1547  来所相談・電話相談については関連リンク「教育相談」のページをご覧ください。"},{"name":"神明保育園","province":"東京都","city":"港区","address":"港区浜松町一丁目6番7号","lat":35.658802,"lon":139.757421,"URL":"<a href='https://www.city.minato.tokyo.jp/shisetsu/gakkokyoiku/hoikuen/48.html' target='_blank'>https://www.city.minato.tokyo.jp/shisetsu/gakkokyoiku/hoikuen/48.html</a>","分類":"区立認可保育園","地区":"芝地区","連絡先":"電話:03-5733-6822 ファックス:03-3433-2055"},{"name":"神明子ども中高生プラザ","province":"東京都","city":"港区","address":"港区浜松町一丁目6番7号","lat":35.658743,"lon":139.757469,"URL":"<a href='https://www.city.minato.tokyo.jp/shisetsu/gakkokyoiku/jidokan/22.html' target='_blank'>https://www.city.minato.tokyo.jp/shisetsu/gakkokyoiku/jidokan/22.html</a>","分類":"子ども中高生プラザ・児童高齢者交流プラザ","地区":"芝地区","連絡先":"電話番号:03-5733-5199 ファックス番号:03-6809-2625"},{"name":"ポピンズナーサリースクール広尾","province":"東京都","city":"港区","address":"港区南麻布五丁目1番11号Qiz広尾3F","lat":35.654921,"lon":139.722595,"URL":"<a href='https://www.city.minato.tokyo.jp/shisetsu/gakkokyoiku/hoikuen/49.html' target='_blank'>https://www.city.minato.tokyo.jp/shisetsu/gakkokyoiku/hoikuen/49.html</a>","分類":"認証保育所","地区":"麻布地区","連絡先":"電話番号:03-5475-2185 ファックス番号:03-5475-2186"},{"name":"ゆらりん東麻布保育園","province":"東京都","city":"港区","address":"港区東麻布一丁目26番2号SERAPH10AZABU1・2F","lat":35.655455,"lon":139.744812,"URL":"<a href='https://www.city.minato.tokyo.jp/shisetsu/gakkokyoiku/hoikuen/50.html' target='_blank'>https://www.city.minato.tokyo.jp/shisetsu/gakkokyoiku/hoikuen/50.html</a>","分類":"認証保育所","地区":"麻布地区","連絡先":"電話番号:03-6426-5567 ファックス番号:03-6426-5568"},{"name":"アスク芝浦4丁目保育園","province":"東京都","city":"港区","address":"港区芝浦四丁目12番28号","lat":35.639594,"lon":139.749084,"URL":"<a href='https://www.city.minato.tokyo.jp/shisetsu/gakkokyoiku/hoikuen/51.html' target='_blank'>https://www.city.minato.tokyo.jp/shisetsu/gakkokyoiku/hoikuen/51.html</a>","分類":"私立認可保育園","地区":"芝浦港南地区","連絡先":"電話番号:03-6435-2855 ファックス番号:03-5765-8280"},{"name":"まなびの森保育園麻布","province":"東京都","city":"港区","address":"港区南麻布一丁目8番11号東町小学校内","lat":35.650887,"lon":139.735832,"URL":"<a href='https://www.city.minato.tokyo.jp/shisetsu/gakkokyoiku/hoikuen/52.html' target='_blank'>https://www.city.minato.tokyo.jp/shisetsu/gakkokyoiku/hoikuen/52.html</a>","分類":"私立認可保育園","地区":"麻布地区","連絡先":"電話番号:03-3455-3066 ファックス番号:03-3455-3066"},{"name":"ゆらりん港南保育園","province":"東京都","city":"港区","address":"港区港南一丁目6番27号SSJ品川ビル2F","lat":35.62962,"lon":139.745437,"URL":"<a href='https://www.city.minato.tokyo.jp/shisetsu/gakkokyoiku/hoikuen/53.html' target='_blank'>https://www.city.minato.tokyo.jp/shisetsu/gakkokyoiku/hoikuen/53.html</a>","分類":"私立認可保育園","地区":"芝浦港南地区","連絡先":"電話番号:03-6712-1188 ファックス番号:03-6712-1189"},{"name":"小学館アカデミー南青山保育園","province":"東京都","city":"港区","address":"港区南青山四丁目15番8号南青山246ビル","lat":35.66495,"lon":139.718306,"URL":"<a href='https://www.city.minato.tokyo.jp/shisetsu/gakkokyoiku/hoikuen/54.html' target='_blank'>https://www.city.minato.tokyo.jp/shisetsu/gakkokyoiku/hoikuen/54.html</a>","分類":"私立認可保育園","地区":"赤坂地区","連絡先":"電話番号:03-5770-1512 ファックス番号:03-5770-1513"},{"name":"たかはま保育園","province":"東京都","city":"港区","address":"港区港南四丁目3番7号","lat":35.631151,"lon":139.749972,"URL":"<a href='https://www.city.minato.tokyo.jp/shisetsu/gakkokyoiku/hoikuen/55.html' target='_blank'>https://www.city.minato.tokyo.jp/shisetsu/gakkokyoiku/hoikuen/55.html</a>","分類":"区立認可保育園","地区":"芝浦港南地区","連絡先":"電話番号:03-5781-0255 ファックス番号:03-5460-9220"},{"name":"まちの保育園六本木","province":"東京都","city":"港区","address":"港区六本木一丁目9番10号アークヒルズ仙石山森タワー","lat":35.663588,"lon":139.741813,"URL":"<a href='https://www.city.minato.tokyo.jp/shisetsu/gakkokyoiku/hoikuen/56.html' target='_blank'>https://www.city.minato.tokyo.jp/shisetsu/gakkokyoiku/hoikuen/56.html</a>","分類":"私立認可保育園","地区":"赤坂地区","連絡先":"電話番号:03-6441-2478 ファックス番号:03-6441-2479"},{"name":"芝浦橋保育室","province":"東京都","city":"港区","address":"港区芝浦四丁目6番8号田町ファーストビル2階","lat":35.638959,"lon":139.74483,"URL":"<a href='https://www.city.minato.tokyo.jp/shisetsu/gakkokyoiku/hoikuen/59.html' target='_blank'>https://www.city.minato.tokyo.jp/shisetsu/gakkokyoiku/hoikuen/59.html</a>","分類":"港区保育室","地区":"芝浦港南地区","連絡先":"電話番号:03-6865-1004 ファックス番号:03-6865-1005"},{"name":"志田町保育室","province":"東京都","city":"港区","address":"港区白金一丁目11番16号","lat":35.645795,"lon":139.73367,"URL":"<a href='https://www.city.minato.tokyo.jp/shisetsu/gakkokyoiku/hoikuen/60.html' target='_blank'>https://www.city.minato.tokyo.jp/shisetsu/gakkokyoiku/hoikuen/60.html</a>","分類":"港区保育室","地区":"高輪地区","連絡先":"電話番号:03-6277-2582 ファックス番号:03-6277-2583"},{"name":"子育てひろば あっぴぃ新橋","province":"東京都","city":"港区","address":"港区新橋六丁目4番2号きらきらプラザ新橋2・3階","lat":35.662317,"lon":139.754025,"URL":"<a href='https://www.city.minato.tokyo.jp/shisetsu/gakkokyoiku/jidokan/23.html' target='_blank'>https://www.city.minato.tokyo.jp/shisetsu/gakkokyoiku/jidokan/23.html</a>","分類":"子育てひろば・子育て関連施設","地区":"芝地区","連絡先":"電話:03-5425-7525 ファックス:03-5425-7526"},{"name":"アイグラン保育園赤羽橋","province":"東京都","city":"港区","address":"港区三田一丁目3番31号Forecast三田2階","lat":35.654526,"lon":139.74357,"URL":"<a href='https://www.city.minato.tokyo.jp/shisetsu/gakkokyoiku/hoikuen/62.html' target='_blank'>https://www.city.minato.tokyo.jp/shisetsu/gakkokyoiku/hoikuen/62.html</a>","分類":"私立認可保育園","地区":"芝地区","連絡先":"電話番号:03-6453-9325 ファックス番号:03-6453-9326"},{"name":"にじのいるか保育園芝浦","province":"東京都","city":"港区","address":"港区芝浦二丁目3番31号高取ビル2階","lat":35.644138,"lon":139.754543,"URL":"<a href='https://www.city.minato.tokyo.jp/shisetsu/gakkokyoiku/hoikuen/63.html' target='_blank'>https://www.city.minato.tokyo.jp/shisetsu/gakkokyoiku/hoikuen/63.html</a>","分類":"私立認可保育園","地区":"芝浦港南地区","連絡先":"電話番号:03-6435-3804 ファックス番号:03-6435-3805"},{"name":"アイグラン保育園元麻布","province":"東京都","city":"港区","address":"港区元麻布三丁目2番19号MOMON六本木ビル2階","lat":35.657381,"lon":139.727326,"URL":"<a href='https://www.city.minato.tokyo.jp/shisetsu/gakkokyoiku/hoikuen/64.html' target='_blank'>https://www.city.minato.tokyo.jp/shisetsu/gakkokyoiku/hoikuen/64.html</a>","分類":"私立認可保育園","地区":"麻布地区","連絡先":"電話番号:03-6447-1871 ファックス番号:03-6447-1872"},{"name":"ゆらりん白金保育園","province":"東京都","city":"港区","address":"港区白金一丁目26番10号白金K-FLAT1階、2階の一部","lat":35.643907,"lon":139.733517,"URL":"<a href='https://www.city.minato.tokyo.jp/shisetsu/gakkokyoiku/hoikuen/65.html' target='_blank'>https://www.city.minato.tokyo.jp/shisetsu/gakkokyoiku/hoikuen/65.html</a>","分類":"私立認可保育園","地区":"高輪地区","連絡先":"電話番号:03-6409-6310 ファックス番号:03-6409-6311"},{"name":"まちの保育園六本木分園","province":"東京都","city":"港区","address":"港区虎ノ門5丁目5番1号アークヒルズ仙石山テラス103","lat":35.662894,"lon":139.741663,"URL":"<a href='https://www.city.minato.tokyo.jp/shisetsu/gakkokyoiku/hoikuen/66.html' target='_blank'>https://www.city.minato.tokyo.jp/shisetsu/gakkokyoiku/hoikuen/66.html</a>","分類":"私立認可保育園","地区":"麻布地区","連絡先":"電話番号:03-6450-1726 ファックス番号:03-6450-1746"},{"name":"太陽の子南麻布保育園","province":"東京都","city":"港区","address":"港区南麻布四丁目11番30号南麻布渋谷ビル2階","lat":35.646992,"lon":139.727149,"URL":"<a href='https://www.city.minato.tokyo.jp/shisetsu/gakkokyoiku/hoikuen/67.html' target='_blank'>https://www.city.minato.tokyo.jp/shisetsu/gakkokyoiku/hoikuen/67.html</a>","分類":"私立認可保育園","地区":"麻布地区","連絡先":"電話番号:03-5488-8070 ファックス番号:03-5488-8071"},{"name":"アイグラン保育園青山一丁目","province":"東京都","city":"港区","address":"港区南青山一丁目3番1号パークアクシス青山一丁目タワー2階","lat":35.671674,"lon":139.725591,"URL":"<a href='https://www.city.minato.tokyo.jp/shisetsu/gakkokyoiku/hoikuen/68.html' target='_blank'>https://www.city.minato.tokyo.jp/shisetsu/gakkokyoiku/hoikuen/68.html</a>","分類":"私立認可保育園","地区":"赤坂地区","連絡先":"電話番号:03-6459-2860 ファックス番号:03-6459-2861"},{"name":"太陽の子南青山保育園","province":"東京都","city":"港区","address":"港区南青山四丁目1番6号セブン南青山1階、2階","lat":35.667301,"lon":139.719068,"URL":"<a href='https://www.city.minato.tokyo.jp/shisetsu/gakkokyoiku/hoikuen/69.html' target='_blank'>https://www.city.minato.tokyo.jp/shisetsu/gakkokyoiku/hoikuen/69.html</a>","分類":"私立認可保育園","地区":"赤坂地区","連絡先":"電話番号:03-5413-5512 ファックス番号:03-5413-5514"},{"name":"高輪夢保育園","province":"東京都","city":"港区","address":"港区高輪三丁目25番33号長田ビル3階","lat":35.631944,"lon":139.737918,"URL":"<a href='https://www.city.minato.tokyo.jp/shisetsu/gakkokyoiku/hoikuen/70.html' target='_blank'>https://www.city.minato.tokyo.jp/shisetsu/gakkokyoiku/hoikuen/70.html</a>","分類":"私立認可保育園","地区":"高輪地区","連絡先":"電話番号:03-5791-9680 ファックス番号:03-3440-9614"},{"name":"ニチイキッズ白金台保育園","province":"東京都","city":"港区","address":"港区白金台二丁目26番10号グリーンオーク高輪台2階","lat":35.631759,"lon":139.729917,"URL":"<a href='https://www.city.minato.tokyo.jp/shisetsu/gakkokyoiku/hoikuen/71.html' target='_blank'>https://www.city.minato.tokyo.jp/shisetsu/gakkokyoiku/hoikuen/71.html</a>","分類":"私立認可保育園","地区":"高輪地区","連絡先":"電話番号:03-5791-2161 ファックス番号:03-5420-2171"},{"name":"太陽の子芝浦二丁目保育園","province":"東京都","city":"港区","address":"港区芝浦二丁目9番1号ブランズタワー芝浦2階","lat":35.64346792662261,"lon":139.7529240504291,"URL":"<a href='https://www.city.minato.tokyo.jp/shisetsu/gakkokyoiku/hoikuen/72.html' target='_blank'>https://www.city.minato.tokyo.jp/shisetsu/gakkokyoiku/hoikuen/72.html</a>","分類":"私立認可保育園","地区":"芝浦港南地区","連絡先":"電話番号:03-6435-4635 ファックス番号:03-6435-4640"},{"name":"太陽の子芝浦三丁目保育園","province":"東京都","city":"港区","address":"港区芝浦三丁目20番2号山楽ビル2階3階","lat":35.642236,"lon":139.746501,"URL":"<a href='https://www.city.minato.tokyo.jp/shisetsu/gakkokyoiku/hoikuen/73.html' target='_blank'>https://www.city.minato.tokyo.jp/shisetsu/gakkokyoiku/hoikuen/73.html</a>","分類":"私立認可保育園","地区":"芝浦港南地区","連絡先":"電話番号:03-5439-6206 ファックス番号:03-5439-6207"},{"name":"太陽の子三田保育園","province":"東京都","city":"港区","address":"港区三田一丁目2番18号TTDPLAZAビル2階","lat":35.655004,"lon":139.740635,"URL":"<a href='https://www.city.minato.tokyo.jp/shisetsu/gakkokyoiku/hoikuen/74.html' target='_blank'>https://www.city.minato.tokyo.jp/shisetsu/gakkokyoiku/hoikuen/74.html</a>","分類":"私立認可保育園","地区":"芝浦港南地区","連絡先":"電話番号:03-5439-6390 ファックス番号:03-5439-6391"},{"name":"ポピンズナーサリースクール白金台","province":"東京都","city":"港区","address":"港区白金台四丁目8番16号ダリアコート白金台1階101号室","lat":35.637551,"lon":139.72432,"URL":"<a href='https://www.city.minato.tokyo.jp/shisetsu/gakkokyoiku/hoikuen/75.html' target='_blank'>https://www.city.minato.tokyo.jp/shisetsu/gakkokyoiku/hoikuen/75.html</a>","分類":"認証保育所","地区":"高輪地区","連絡先":"電話番号:03-5789-2166 ファックス番号:03-5789-2167"},{"name":"子育てひろば あっぴぃ港南四丁目・みなと保育サポート港南四丁目","province":"東京都","city":"港区","address":"港区港南四丁目2番4号都営住宅内","lat":35.630213,"lon":139.747604,"URL":"<a href='https://www.city.minato.tokyo.jp/shisetsu/gakkokyoiku/jidokan/24.html' target='_blank'>https://www.city.minato.tokyo.jp/shisetsu/gakkokyoiku/jidokan/24.html</a>","分類":"子育てひろば・子育て関連施設","地区":"芝浦港南地区","連絡先":"電話:03-5796-8862 ファックス:03-5796-8867"},{"name":"麻布子ども中高生プラザ","province":"東京都","city":"港区","address":"港区南麻布四丁目6番7号","lat":35.650976,"lon":139.727544,"URL":"<a href='https://www.city.minato.tokyo.jp/shisetsu/gakkokyoiku/jidokan/25.html' target='_blank'>https://www.city.minato.tokyo.jp/shisetsu/gakkokyoiku/jidokan/25.html</a>","分類":"子ども中高生プラザ・児童高齢者交流プラザ","地区":"麻布地区","連絡先":"電話番号:03-5447-0611 ファックス番号:03-5447-0612"},{"name":"子育てひろば あっぴぃ西麻布","province":"東京都","city":"港区","address":"港区西麻布二丁目13番3号西麻布いきいきプラザ3階","lat":35.660764,"lon":139.722809,"URL":"<a href='https://www.city.minato.tokyo.jp/shisetsu/gakkokyoiku/jidokan/26.html' target='_blank'>https://www.city.minato.tokyo.jp/shisetsu/gakkokyoiku/jidokan/26.html</a>","分類":"子育てひろば・子育て関連施設","地区":"麻布地区","連絡先":"電話:03-5467-7175 ファックス:03-5467-2117"},{"name":"桂坂学童クラブ","province":"東京都","city":"港区","address":"港区高輪二丁目12番24号高輪桂坂ビル","lat":35.635088,"lon":139.735378,"URL":"<a href='https://www.city.minato.tokyo.jp/shisetsu/gakkokyoiku/jidokan/28.html' target='_blank'>https://www.city.minato.tokyo.jp/shisetsu/gakkokyoiku/jidokan/28.html</a>","分類":"緊急暫定学童クラブ","地区":"高輪地区","連絡先":"電話番号:03-6455-7973 ファックス番号:03-6455-7974"},{"name":"芝浦学童クラブ","province":"東京都","city":"港区","address":"港区芝浦四丁目12番28号芝浦中島ビル","lat":35.639616,"lon":139.749001,"URL":"<a href='https://www.city.minato.tokyo.jp/shisetsu/gakkokyoiku/jidokan/29.html' target='_blank'>https://www.city.minato.tokyo.jp/shisetsu/gakkokyoiku/jidokan/29.html</a>","分類":"緊急暫定学童クラブ","地区":"芝浦港南地区","連絡先":"電話番号:03-5439-5680 ファックス番号:03-3455-1680"},{"name":"東麻布学童クラブ","province":"東京都","city":"港区","address":"港区東麻布二丁目1番1号旧飯倉小学校4階","lat":35.658172,"lon":139.742569,"URL":"<a href='https://www.city.minato.tokyo.jp/shisetsu/gakkokyoiku/jidokan/30.html' target='_blank'>https://www.city.minato.tokyo.jp/shisetsu/gakkokyoiku/jidokan/30.html</a>","分類":"緊急暫定学童クラブ","地区":"麻布地区","連絡先":"電話番号:03-3568-1042 ファックス番号:03-3568-1046"},{"name":"南麻布学童クラブ","province":"東京都","city":"港区","address":"港区南麻布二丁目11番10号OJビル4階","lat":35.647692,"lon":139.735764,"URL":"<a href='https://www.city.minato.tokyo.jp/shisetsu/gakkokyoiku/jidokan/31.html' target='_blank'>https://www.city.minato.tokyo.jp/shisetsu/gakkokyoiku/jidokan/31.html</a>","分類":"緊急暫定学童クラブ","地区":"麻布地区","連絡先":"電話番号:03-6809-5291 ファックス番号:03-6809-5292"},{"name":"神応学童クラブ","province":"東京都","city":"港区","address":"港区白金六丁目9番5号神応ほっとプラザ3階","lat":35.64374442539137,"lon":139.7246147625989,"URL":"<a href='https://www.city.minato.tokyo.jp/shisetsu/gakkokyoiku/jidokan/32.html' target='_blank'>https://www.city.minato.tokyo.jp/shisetsu/gakkokyoiku/jidokan/32.html</a>","分類":"緊急暫定学童クラブ","地区":"高輪地区","連絡先":"電話番号:03-5422-7535 ファックス番号:03-5447-0068"},{"name":"第二青南保育室","province":"東京都","city":"港区","address":"港区南青山四丁目19番5号","lat":35.664202,"lon":139.716788,"URL":"<a href='https://www.city.minato.tokyo.jp/shisetsu/gakkokyoiku/hoikuen/77.html' target='_blank'>https://www.city.minato.tokyo.jp/shisetsu/gakkokyoiku/hoikuen/77.html</a>","分類":"港区保育室","地区":"麻布地区","連絡先":"電話番号:03-5770-5366 ファックス番号:03-3478-3278"},{"name":"しばうら保育園","province":"東京都","city":"港区","address":"港区芝浦三丁目1番16号","lat":35.645136,"lon":139.750214,"URL":"<a href='https://www.city.minato.tokyo.jp/shisetsu/gakkokyoiku/hoikuen/78.html' target='_blank'>https://www.city.minato.tokyo.jp/shisetsu/gakkokyoiku/hoikuen/78.html</a>","分類":"区立認可保育園","地区":"芝浦港南地区","連絡先":"電話:03-5232-1130 ファックス:03-5232-1126"},{"name":"子育てひろば あっぴぃ芝浦","province":"東京都","city":"港区","address":"港区芝浦三丁目1番16号","lat":35.645216,"lon":139.750407,"URL":"<a href='https://www.city.minato.tokyo.jp/shisetsu/gakkokyoiku/jidokan/33.html' target='_blank'>https://www.city.minato.tokyo.jp/shisetsu/gakkokyoiku/jidokan/33.html</a>","分類":"子育てひろば・子育て関連施設","地区":"芝浦港南地区","連絡先":"電話: 03-5730-3252(代表) 03-5730-3253(乳幼児一時預かり専用)"},{"name":"太陽の子芝浦一丁目保育園","province":"東京都","city":"港区","address":"港区芝浦一丁目9番7号芝浦おもだかビル2階、3階","lat":35.648178,"lon":139.753541,"URL":"<a href='https://www.city.minato.tokyo.jp/shisetsu/gakkokyoiku/hoikuen/79.html' target='_blank'>https://www.city.minato.tokyo.jp/shisetsu/gakkokyoiku/hoikuen/79.html</a>","分類":"私立認可保育園","地区":"芝浦港南地区","連絡先":"電話番号:03-5439-5251 ファックス番号:03-5439-5252"},{"name":"グローバルキッズ虎ノ門保育園","province":"東京都","city":"港区","address":"港区虎ノ門三丁目19番13号虎ノ門スピリットビル3階","lat":35.663091,"lon":139.74683,"URL":"<a href='https://www.city.minato.tokyo.jp/shisetsu/gakkokyoiku/hoikuen/80.html' target='_blank'>https://www.city.minato.tokyo.jp/shisetsu/gakkokyoiku/hoikuen/80.html</a>","分類":"私立認可保育園","地区":"芝地区","連絡先":"電話番号:03-5473-7668 ファックス番号:03-6459-0044"},{"name":"アイグラン保育園南麻布","province":"東京都","city":"港区","address":"港区南麻布二丁目11番10号OJビル3階","lat":35.647686,"lon":139.735729,"URL":"<a href='https://www.city.minato.tokyo.jp/shisetsu/gakkokyoiku/hoikuen/81.html' target='_blank'>https://www.city.minato.tokyo.jp/shisetsu/gakkokyoiku/hoikuen/81.html</a>","分類":"私立認可保育園","地区":"麻布地区","連絡先":"電話番号:03-6453-7970 ファックス番号:03-6453-7971"},{"name":"赤坂ちとせ保育園","province":"東京都","city":"港区","address":"港区赤坂四丁目7番15号陽栄光和ビル1階","lat":35.675503,"lon":139.734069,"URL":"<a href='https://www.city.minato.tokyo.jp/shisetsu/gakkokyoiku/hoikuen/82.html' target='_blank'>https://www.city.minato.tokyo.jp/shisetsu/gakkokyoiku/hoikuen/82.html</a>","分類":"私立認可保育園","地区":"赤坂地区","連絡先":"電話番号:03-6459-1012 ファックス番号:03-6459-1013"},{"name":"グローバルキッズ港南保育園","province":"東京都","city":"港区","address":"港区港南四丁目1番8号リバージュ品川2階","lat":35.629617,"lon":139.746672,"URL":"<a href='https://www.city.minato.tokyo.jp/shisetsu/gakkokyoiku/hoikuen/83.html' target='_blank'>https://www.city.minato.tokyo.jp/shisetsu/gakkokyoiku/hoikuen/83.html</a>","分類":"私立認可保育園","地区":"芝浦港南地区","連絡先":"電話番号:03-3450-6130 ファックス番号:03-6712-8825"},{"name":"太陽の子三田五丁目保育園","province":"東京都","city":"港区","address":"港区三田五丁目4番3号三田プラザビル3階","lat":35.647706,"lon":139.738902,"URL":"<a href='https://www.city.minato.tokyo.jp/shisetsu/gakkokyoiku/hoikuen/84.html' target='_blank'>https://www.city.minato.tokyo.jp/shisetsu/gakkokyoiku/hoikuen/84.html</a>","分類":"私立認可保育園","地区":"芝地区","連絡先":"電話番号:03-5439-6775 ファックス番号:03-5439-6774"},{"name":"太陽の子シーバンス保育園","province":"東京都","city":"港区","address":"港区芝浦一丁目2番2号シーバンスアモール3階","lat":35.649696,"lon":139.756524,"URL":"<a href='https://www.city.minato.tokyo.jp/shisetsu/gakkokyoiku/hoikuen/85.html' target='_blank'>https://www.city.minato.tokyo.jp/shisetsu/gakkokyoiku/hoikuen/85.html</a>","分類":"私立認可保育園","地区":"芝浦港南地区","連絡先":"電話番号:03-5439-4014 ファックス番号:03-5439-4015"},{"name":"アスク芝公園保育園","province":"東京都","city":"港区","address":"港区芝二丁目12番16号","lat":35.651603,"lon":139.752593,"URL":"<a href='https://www.city.minato.tokyo.jp/shisetsu/gakkokyoiku/hoikuen/86.html' target='_blank'>https://www.city.minato.tokyo.jp/shisetsu/gakkokyoiku/hoikuen/86.html</a>","分類":"私立認可保育園","地区":"芝地区","連絡先":"電話番号:03-5439-9398 ファックス番号:03-6459-4410"},{"name":"太陽の子赤坂保育園","province":"東京都","city":"港区","address":"港区赤坂八丁目12番16号NOZYAKASAKA1階、2階、3階","lat":35.669165,"lon":139.729383,"URL":"<a href='https://www.city.minato.tokyo.jp/shisetsu/gakkokyoiku/hoikuen/87.html' target='_blank'>https://www.city.minato.tokyo.jp/shisetsu/gakkokyoiku/hoikuen/87.html</a>","分類":"私立認可保育園","地区":"赤坂地区","連絡先":"電話番号:03-6434-9431 ファックス番号:03-6434-9432"},{"name":"ゆらりん高輪保育園","province":"東京都","city":"港区","address":"港区高輪一丁目5番38号HUG高輪1階、2階","lat":35.641758,"lon":139.736717,"URL":"<a href='https://www.city.minato.tokyo.jp/shisetsu/gakkokyoiku/hoikuen/88.html' target='_blank'>https://www.city.minato.tokyo.jp/shisetsu/gakkokyoiku/hoikuen/88.html</a>","分類":"私立認可保育園","地区":"高輪地区","連絡先":"電話番号:03-5422-6170 ファックス番号:03-5422-6633"},{"name":"アンジェリカ田町保育園","province":"東京都","city":"港区","address":"港区芝浦一丁目6番41号グローバルフロントタワー1階","lat":35.647586,"lon":139.75497,"URL":"<a href='https://www.city.minato.tokyo.jp/shisetsu/gakkokyoiku/hoikuen/89.html' target='_blank'>https://www.city.minato.tokyo.jp/shisetsu/gakkokyoiku/hoikuen/89.html</a>","分類":"私立認可保育園","地区":"芝浦港南地区","連絡先":"電話番号:03-6435-2157 ファックス番号:03-6435-2159"},{"name":"港南あおぞら保育園","province":"東京都","city":"港区","address":"港区港南三丁目8番1号森永乳業港南ビル1階","lat":35.631948,"lon":139.750074,"URL":"<a href='https://www.city.minato.tokyo.jp/shisetsu/gakkokyoiku/hoikuen/90.html' target='_blank'>https://www.city.minato.tokyo.jp/shisetsu/gakkokyoiku/hoikuen/90.html</a>","分類":"小規模保育事業","地区":"芝浦港南地区","連絡先":"電話番号:03-6712-1988 ファックス番号:03-6712-9807"},{"name":"こころ新橋保育園","province":"東京都","city":"港区","address":"港区新橋六丁目4番3号ル・グラシエルビル7号館2階","lat":35.661758,"lon":139.75466,"URL":"<a href='https://www.city.minato.tokyo.jp/shisetsu/gakkokyoiku/hoikuen/92.html' target='_blank'>https://www.city.minato.tokyo.jp/shisetsu/gakkokyoiku/hoikuen/92.html</a>","分類":"私立認可保育園","地区":"芝地区","連絡先":"電話番号:03-6432-0941 ファックス番号:03-6432-0942"},{"name":"デイジー保育園麻布十番","province":"東京都","city":"港区","address":"港区麻布十番三丁目10番12号シティ麻布2階","lat":35.652843,"lon":139.734475,"URL":"<a href='https://www.city.minato.tokyo.jp/shisetsu/gakkokyoiku/hoikuen/93.html' target='_blank'>https://www.city.minato.tokyo.jp/shisetsu/gakkokyoiku/hoikuen/93.html</a>","分類":"小規模保育事業","地区":"麻布地区","連絡先":"電話番号:03-6809-6353 ファックス番号:03-6809-6354"},{"name":"ふらわぁきっず保育園三田","province":"東京都","city":"港区","address":"港区三田5丁目5番7号三田5ゲートタワー1階","lat":35.647077,"lon":139.740175,"URL":"<a href='https://www.city.minato.tokyo.jp/shisetsu/gakkokyoiku/hoikuen/94.html' target='_blank'>https://www.city.minato.tokyo.jp/shisetsu/gakkokyoiku/hoikuen/94.html</a>","分類":"小規模保育事業","地区":"芝地区","連絡先":"電話番号:03-6809-5303 ファックス番号:03-6809-5303"},{"name":"五色橋保育室","province":"東京都","city":"港区","address":"港区海岸3丁目5番13号五色橋ビル1階","lat":35.636657,"lon":139.75161,"URL":"<a href='https://www.city.minato.tokyo.jp/shisetsu/gakkokyoiku/hoikuen/95.html' target='_blank'>https://www.city.minato.tokyo.jp/shisetsu/gakkokyoiku/hoikuen/95.html</a>","分類":"港区保育室","地区":"芝浦港南地区","連絡先":"電話番号:03-6435-3201 ファックス番号:03-6435-3202"},{"name":"ポピンズナーサリースクール赤坂","province":"東京都","city":"港区","address":"港区赤坂一丁目8番1号赤坂インターシティAIR2階","lat":35.670184,"lon":139.741293,"URL":"<a href='https://www.city.minato.tokyo.jp/shisetsu/gakkokyoiku/hoikuen/96.html' target='_blank'>https://www.city.minato.tokyo.jp/shisetsu/gakkokyoiku/hoikuen/96.html</a>","分類":"認証保育所","地区":"赤坂地区","連絡先":"電話番号 03-5545-5341 ファックス番号 03-5545-5342"},{"name":"五色橋学童クラブ","province":"東京都","city":"港区","address":"港区海岸三丁目5番13号五色橋ビル2階","lat":35.636657,"lon":139.75161,"URL":"<a href='https://www.city.minato.tokyo.jp/shisetsu/gakkokyoiku/jidokan/34.html' target='_blank'>https://www.city.minato.tokyo.jp/shisetsu/gakkokyoiku/jidokan/34.html</a>","分類":"緊急暫定学童クラブ","地区":"芝浦港南地区","連絡先":"電話番号:03-6435-2745 ファックス番号:03-6435-2746"},{"name":"子育てひろば あっぴぃ赤坂・みなと保育サポート赤坂","province":"東京都","city":"港区","address":"港区赤坂九丁目4番2号パークコート赤坂檜町ザタワー2階","lat":35.668377,"lon":139.729839,"URL":"<a href='https://www.city.minato.tokyo.jp/shisetsu/gakkokyoiku/jidokan/35.html' target='_blank'>https://www.city.minato.tokyo.jp/shisetsu/gakkokyoiku/jidokan/35.html</a>","分類":"子育てひろば・子育て関連施設","地区":"赤坂地区","連絡先":"電話: 03-3475-3900(子育てひろば) 03-3475-3902(みなと保育サポート)"},{"name":"子育てひろば あっぴぃ白金台・みなと保育サポート白金台","province":"東京都","city":"港区","address":"港区白金台四丁目6番2号ゆかしの杜1階","lat":35.639161,"lon":139.726711,"URL":"<a href='https://www.city.minato.tokyo.jp/shisetsu/gakkokyoiku/jidokan/36.html' target='_blank'>https://www.city.minato.tokyo.jp/shisetsu/gakkokyoiku/jidokan/36.html</a>","分類":"子育てひろば・子育て関連施設","地区":"高輪地区","連絡先":"電話: 03-6450-4249(子育てひろば) 03-6450-4298(みなと保育サポート)"},{"name":"しばうら保育園分園","province":"東京都","city":"港区","address":"港区芝浦一丁目16番1号","lat":35.646473,"lon":139.751919,"URL":"<a href='https://www.city.minato.tokyo.jp/shisetsu/gakkokyoiku/hoikuen/97.html' target='_blank'>https://www.city.minato.tokyo.jp/shisetsu/gakkokyoiku/hoikuen/97.html</a>","分類":"区立認可保育園","地区":"芝浦港南地区","連絡先":"電話番号:03-6453-6346 ファックス番号:03-6453-6348"},{"name":"AIAI NURSERY 麻布十番","province":"東京都","city":"港区","address":"港区東麻布ニ丁目32番7号","lat":35.656018,"lon":139.740541,"URL":"<a href='https://www.city.minato.tokyo.jp/shisetsu/gakkokyoiku/hoikuen/98.html' target='_blank'>https://www.city.minato.tokyo.jp/shisetsu/gakkokyoiku/hoikuen/98.html</a>","分類":"私立認可保育園","地区":"麻布地区","連絡先":"電話番号:03-5545-5461 ファックス番号:03-5545-5462"},{"name":"ふたばクラブ港南保育園","province":"東京都","city":"港区","address":"港区港南ニ丁目16番6号CanonSタワー","lat":35.625593,"lon":139.740628,"URL":"<a href='https://www.city.minato.tokyo.jp/shisetsu/gakkokyoiku/hoikuen/99.html' target='_blank'>https://www.city.minato.tokyo.jp/shisetsu/gakkokyoiku/hoikuen/99.html</a>","分類":"私立認可保育園","地区":"芝浦港南地区","連絡先":"電話番号:03-6712-9428 ファックス番号:03-6712-9428"},{"name":"高輪さつき保育園","province":"東京都","city":"港区","address":"港区高輪一丁目16番15号自動車部品会館2階","lat":35.640918,"lon":139.733455,"URL":"<a href='https://www.city.minato.tokyo.jp/shisetsu/gakkokyoiku/hoikuen/100.html' target='_blank'>https://www.city.minato.tokyo.jp/shisetsu/gakkokyoiku/hoikuen/100.html</a>","分類":"私立認可保育園","地区":"高輪地区","連絡先":"電話番号:03-3473-2320 ファックス番号:03-6459-3361"},{"name":"デイジー保育園麻布十番フォレスト","province":"東京都","city":"港区","address":"港区麻布十番三丁目10番12号シティ麻布3階","lat":35.652841,"lon":139.734462,"URL":"<a href='https://www.city.minato.tokyo.jp/shisetsu/gakkokyoiku/hoikuen/101.html' target='_blank'>https://www.city.minato.tokyo.jp/shisetsu/gakkokyoiku/hoikuen/101.html</a>","分類":"小規模保育事業","地区":"麻布地区","連絡先":"電話番号:03-5439-9241 ファックス番号:03-5439-9242"},{"name":"sakura保育園","province":"東京都","city":"港区","address":"港区赤坂ニ丁目12番17号","lat":35.670623,"lon":139.74108,"URL":"<a href='https://www.city.minato.tokyo.jp/shisetsu/gakkokyoiku/hoikuen/102.html' target='_blank'>https://www.city.minato.tokyo.jp/shisetsu/gakkokyoiku/hoikuen/102.html</a>","分類":"小規模保育事業","地区":"赤坂地区","連絡先":"電話番号:03-6426-5097 ファックス番号:03-6426-5098"},{"name":"にじのそら保育園芝浦","province":"東京都","city":"港区","address":"港区芝浦一丁目14番6号","lat":35.647062,"lon":139.753168,"URL":"<a href='https://www.city.minato.tokyo.jp/shisetsu/gakkokyoiku/hoikuen/103.html' target='_blank'>https://www.city.minato.tokyo.jp/shisetsu/gakkokyoiku/hoikuen/103.html</a>","分類":"小規模保育事業","地区":"芝浦港南地区","連絡先":"電話番号:03-6722-0425 ファックス番号:03-6722-0426"},{"name":"ここいく保育園西麻布","province":"東京都","city":"港区","address":"港区西麻布四丁目10番1号","lat":35.657978,"lon":139.723016,"URL":"<a href='https://www.city.minato.tokyo.jp/shisetsu/gakkokyoiku/hoikuen/104.html' target='_blank'>https://www.city.minato.tokyo.jp/shisetsu/gakkokyoiku/hoikuen/104.html</a>","分類":"小規模保育事業","地区":"麻布地区","連絡先":"電話番号:03-6419-7333 ファックス番号:03-6419-7333"},{"name":"こころナーサリー新橋","province":"東京都","city":"港区","address":"港区新橋五丁目35番10号新橋アネックス1階","lat":35.663023,"lon":139.753382,"URL":"<a href='https://www.city.minato.tokyo.jp/shisetsu/gakkokyoiku/hoikuen/106.html' target='_blank'>https://www.city.minato.tokyo.jp/shisetsu/gakkokyoiku/hoikuen/106.html</a>","分類":"小規模保育事業","地区":"芝地区","連絡先":"電話番号:03-6435-8377 ファックス番号:03-6435-8378"},{"name":"ふらわぁきっず保育園新橋","province":"東京都","city":"港区","address":"港区新橋三丁目3番13号TsaoHibiya1階","lat":35.665994,"lon":139.75415,"URL":"<a href='https://www.city.minato.tokyo.jp/shisetsu/gakkokyoiku/hoikuen/107.html' target='_blank'>https://www.city.minato.tokyo.jp/shisetsu/gakkokyoiku/hoikuen/107.html</a>","分類":"小規模保育事業","地区":"芝地区","連絡先":"電話番号:03-6550-8800 ファックス番号:03-6550-8800"},{"name":"ちゃいるど・はっぴっぴ!!白金保育園","province":"東京都","city":"港区","address":"港区白金三丁目2番9号1階","lat":35.646351,"lon":139.731269,"URL":"<a href='https://www.city.minato.tokyo.jp/shisetsu/gakkokyoiku/hoikuen/108.html' target='_blank'>https://www.city.minato.tokyo.jp/shisetsu/gakkokyoiku/hoikuen/108.html</a>","分類":"小規模保育事業","地区":"高輪地区","連絡先":"電話番号:080-5875-9716 ファックス番号:03-3499-5260"},{"name":"芝公園二丁目保育室","province":"東京都","city":"港区","address":"港区芝公園ニ丁目12番10号","lat":35.653838,"lon":139.750758,"URL":"<a href='https://www.city.minato.tokyo.jp/shisetsu/gakkokyoiku/hoikuen/109.html' target='_blank'>https://www.city.minato.tokyo.jp/shisetsu/gakkokyoiku/hoikuen/109.html</a>","分類":"港区保育室","地区":"芝地区","連絡先":"電話番号:03-3436-6611 ファックス番号:03-3436-6612"},{"name":"愛育クリニック附属あいいく病児保育室","province":"東京都","city":"港区","address":"港区南麻布五丁目6番8号","lat":35.653495,"lon":139.726881,"URL":"<a href='https://www.city.minato.tokyo.jp/shisetsu/gakkokyoiku/byouji/01.html' target='_blank'>https://www.city.minato.tokyo.jp/shisetsu/gakkokyoiku/byouji/01.html</a>","分類":"病児・病後児保育室","地区":"麻布地区","連絡先":"電話番号:03-5420-6419"},{"name":"とようら小児科附属ひまわり保育室","province":"東京都","city":"港区","address":"港区芝浦三丁目11番5号第三協栄ビル2階","lat":35.643486,"lon":139.748896,"URL":"<a href='https://www.city.minato.tokyo.jp/shisetsu/gakkokyoiku/byouji/02.html' target='_blank'>https://www.city.minato.tokyo.jp/shisetsu/gakkokyoiku/byouji/02.html</a>","分類":"病児・病後児保育室","地区":"芝浦港南地区","連絡先":"電話番号:03-5442-8872"},{"name":"芝浦こどもクリニック附属芝浦病児保育室","province":"東京都","city":"港区","address":"港区芝浦四丁目20番4号芝浦アイランドブルームホームズクリニックモールドクターズポート芝浦アイランド1階","lat":35.63894,"lon":139.75184,"URL":"<a href='https://www.city.minato.tokyo.jp/shisetsu/gakkokyoiku/byouji/03.html' target='_blank'>https://www.city.minato.tokyo.jp/shisetsu/gakkokyoiku/byouji/03.html</a>","分類":"病児・病後児保育室","地区":"芝浦港南地区","連絡先":"電話番号:03-5730-0117"},{"name":"チャイルドケアばんびぃに病児保育室","province":"東京都","city":"港区","address":"港区白金台三丁目16番8号クレール白金台2階","lat":35.636224,"lon":139.723215,"URL":"<a href='https://www.city.minato.tokyo.jp/shisetsu/gakkokyoiku/byouji/04.html' target='_blank'>https://www.city.minato.tokyo.jp/shisetsu/gakkokyoiku/byouji/04.html</a>","分類":"病児・病後児保育室","地区":"高輪地区","連絡先":"電話番号:03-5424-6003"},{"name":"赤坂山王病児保育室","province":"東京都","city":"港区","address":"港区赤坂四丁目1番26号3階","lat":35.676538,"lon":139.73475,"URL":"<a href='https://www.city.minato.tokyo.jp/shisetsu/gakkokyoiku/byouji/05.html' target='_blank'>https://www.city.minato.tokyo.jp/shisetsu/gakkokyoiku/byouji/05.html</a>","分類":"病児・病後児保育室","地区":"赤坂地区","連絡先":"電話番号:03-6230-3761"},{"name":"南青山病後児保育室","province":"東京都","city":"港区","address":"港区南青山一丁目3番15号青山一丁目スクエア内S棟1階","lat":35.671296,"lon":139.725501,"URL":"<a href='https://www.city.minato.tokyo.jp/shisetsu/gakkokyoiku/byouji/06.html' target='_blank'>https://www.city.minato.tokyo.jp/shisetsu/gakkokyoiku/byouji/06.html</a>","分類":"病児・病後児保育室","地区":"赤坂地区","連絡先":"電話番号:03-3408-0466"},{"name":"ゆかしの杜学童クラブ(白金台学童クラブ)","province":"東京都","city":"港区","address":"港区白金台四丁目6番2号ゆかしの杜6階","lat":35.639144,"lon":139.726727,"URL":"<a href='https://www.city.minato.tokyo.jp/shisetsu/gakkokyoiku/jidokan/37.html' target='_blank'>https://www.city.minato.tokyo.jp/shisetsu/gakkokyoiku/jidokan/37.html</a>","分類":"緊急暫定学童クラブ","地区":"高輪地区","連絡先":"電話番号:03-6450-4014 ファックス番号:03-6450-4146"},{"name":"白金三丁目保育室","province":"東京都","city":"港区","address":"港区白金三丁目7番13号","lat":35.64577,"lon":139.730247,"URL":"<a href='https://www.city.minato.tokyo.jp/shisetsu/gakkokyoiku/hoikuen/111.html' target='_blank'>https://www.city.minato.tokyo.jp/shisetsu/gakkokyoiku/hoikuen/111.html</a>","分類":"港区保育室","地区":"高輪地区","連絡先":"電話番号:6455-7171 ファックス番号:6455-7172"},{"name":"小鳩ナーサリースクール浜離宮","province":"東京都","city":"港区","address":"港区浜松町一丁目3番1号","lat":35.65991,"lon":139.757009,"URL":"<a href='https://www.city.minato.tokyo.jp/shisetsu/gakkokyoiku/hoikuen/113.html' target='_blank'>https://www.city.minato.tokyo.jp/shisetsu/gakkokyoiku/hoikuen/113.html</a>","分類":"私立認可保育園","地区":"芝地区","連絡先":"電話番号:03-6432-0123 ファックス番号:03-6432-0122"},{"name":"ふたばクラブ東麻布保育園","province":"東京都","city":"港区","address":"港区東麻布一丁目5番6号","lat":35.657893,"lon":139.743166,"URL":"<a href='https://www.city.minato.tokyo.jp/shisetsu/gakkokyoiku/hoikuen/114.html' target='_blank'>https://www.city.minato.tokyo.jp/shisetsu/gakkokyoiku/hoikuen/114.html</a>","分類":"私立認可保育園","地区":"麻布地区","連絡先":"電話番号:03-5797-8728 ファックス番号:03-5797-8729"},{"name":"えほんのもり白金台保育園","province":"東京都","city":"港区","address":"港区白金台二丁目11番3号","lat":35.633188,"lon":139.730713,"URL":"<a href='https://www.city.minato.tokyo.jp/shisetsu/gakkokyoiku/hoikuen/115.html' target='_blank'>https://www.city.minato.tokyo.jp/shisetsu/gakkokyoiku/hoikuen/115.html</a>","分類":"私立認可保育園","地区":"高輪地区","連絡先":"電話番号:03-6450-3546 ファックス番号:03-6450-3547"},{"name":"さくらさくみらい高輪","province":"東京都","city":"港区","address":"港区高輪二丁目6番21号","lat":35.636168,"lon":139.733365,"URL":"<a href='https://www.city.minato.tokyo.jp/shisetsu/gakkokyoiku/hoikuen/116.html' target='_blank'>https://www.city.minato.tokyo.jp/shisetsu/gakkokyoiku/hoikuen/116.html</a>","分類":"私立認可保育園","地区":"高輪地区","連絡先":"電話番号:03-5860-2339 ファックス番号:03-5860-2309"},{"name":"ミアヘルサ保育園ひびき白金高輪","province":"東京都","city":"港区","address":"港区白金三丁目2番3号","lat":35.646602,"lon":139.731252,"URL":"<a href='https://www.city.minato.tokyo.jp/shisetsu/gakkokyoiku/hoikuen/117.html' target='_blank'>https://www.city.minato.tokyo.jp/shisetsu/gakkokyoiku/hoikuen/117.html</a>","分類":"私立認可保育園","地区":"高輪地区","連絡先":"電話番号:03-5860-2251 ファックス番号:03-5860-2252"},{"name":"ゆらりんはぁと保育園","province":"東京都","city":"港区","address":"港区港南一丁目8番23号","lat":35.629603,"lon":139.744481,"URL":"<a href='https://www.city.minato.tokyo.jp/shisetsu/gakkokyoiku/hoikuen/118.html' target='_blank'>https://www.city.minato.tokyo.jp/shisetsu/gakkokyoiku/hoikuen/118.html</a>","分類":"私立認可保育園","地区":"芝浦港南地区","連絡先":"電話番号:03-6260-0873 ファックス番号:03-6260-0874"},{"name":"ゆらりん港南緑水保育園","province":"東京都","city":"港区","address":"港区港南四丁目7番37号(港南緑水公園内)","lat":35.628838,"lon":139.751324,"URL":"<a href='https://www.city.minato.tokyo.jp/shisetsu/gakkokyoiku/hoikuen/119.html' target='_blank'>https://www.city.minato.tokyo.jp/shisetsu/gakkokyoiku/hoikuen/119.html</a>","分類":"私立認可保育園","地区":"芝浦港南地区","連絡先":"電話番号:03-5781-2781 ファックス番号:03-5781-2782"},{"name":"デイジー保育園芝浦","province":"東京都","city":"港区","address":"港区芝浦四丁目17番3号芝浦NAビル3階","lat":35.63712,"lon":139.74717,"URL":"<a href='https://www.city.minato.tokyo.jp/shisetsu/gakkokyoiku/hoikuen/120.html' target='_blank'>https://www.city.minato.tokyo.jp/shisetsu/gakkokyoiku/hoikuen/120.html</a>","分類":"私立認可保育園","地区":"芝浦港南地区","連絡先":"電話番号:03-6275-1903 ファックス番号:03-6275-1904"},{"name":"ニチイキッズ芝公園保育園","province":"東京都","city":"港区","address":"港区芝二丁目1番27号穴水ビル2階","lat":35.653351,"lon":139.751147,"URL":"<a href='https://www.city.minato.tokyo.jp/shisetsu/gakkokyoiku/hoikuen/121.html' target='_blank'>https://www.city.minato.tokyo.jp/shisetsu/gakkokyoiku/hoikuen/121.html</a>","分類":"私立認可保育園","地区":"芝地区","連絡先":"電話番号:03-5765-5075 ファックス番号:03-5765-5076"},{"name":"元麻布保育園","province":"東京都","city":"港区","address":"港区元麻布二丁目14番12号","lat":35.653119,"lon":139.730044,"URL":"<a href='https://www.city.minato.tokyo.jp/shisetsu/gakkokyoiku/hoikuen/122.html' target='_blank'>https://www.city.minato.tokyo.jp/shisetsu/gakkokyoiku/hoikuen/122.html</a>","分類":"区立認可保育園","地区":"麻布地区","連絡先":"電話番号:03-5422-7338 ファックス番号:03-5422-7998"},{"name":"まなびのもり保育園麻布十番","province":"東京都","city":"港区","address":"港区南麻布1丁目14番1号","lat":35.651185,"lon":139.734143,"URL":"<a href='https://www.city.minato.tokyo.jp/shisetsu/gakkokyoiku/hoikuen/123.html' target='_blank'>https://www.city.minato.tokyo.jp/shisetsu/gakkokyoiku/hoikuen/123.html</a>","分類":"私立認可保育園","地区":"麻布地区","連絡先":"電話番号:03-6436-7887 ファックス番号:03-6436-7887"},{"name":"麻布十番ちとせ保育園","province":"東京都","city":"港区","address":"港区麻布十番1丁目3番2号","lat":35.657006,"lon":139.735835,"URL":"<a href='https://www.city.minato.tokyo.jp/shisetsu/gakkokyoiku/hoikuen/124.html' target='_blank'>https://www.city.minato.tokyo.jp/shisetsu/gakkokyoiku/hoikuen/124.html</a>","分類":"私立認可保育園","地区":"麻布地区","連絡先":"電話番号:03-3586-1058 ファックス番号:03-3586-1059"},{"name":"赤坂山王保育園","province":"東京都","city":"港区","address":"港区赤坂4丁目1番26号","lat":35.67641,"lon":139.734701,"URL":"<a href='https://www.city.minato.tokyo.jp/shisetsu/gakkokyoiku/hoikuen/125.html' target='_blank'>https://www.city.minato.tokyo.jp/shisetsu/gakkokyoiku/hoikuen/125.html</a>","分類":"私立認可保育園","地区":"赤坂地区","連絡先":"電話番号:03-5114-5605 ファックス番号:03-5114-5606"},{"name":"赤坂クレア保育園","province":"東京都","city":"港区","address":"港区赤坂4丁目9番3号","lat":35.675589,"lon":139.732984,"URL":"<a href='https://www.city.minato.tokyo.jp/shisetsu/gakkokyoiku/hoikuen/126.html' target='_blank'>https://www.city.minato.tokyo.jp/shisetsu/gakkokyoiku/hoikuen/126.html</a>","分類":"私立認可保育園","地区":"赤坂地区","連絡先":"電話番号:03-6812-9268 ファックス番号:03-6812-9269"},{"name":"うれしい保育園白金高輪","province":"東京都","city":"港区","address":"港区三田5丁目17番2号","lat":35.645176,"lon":139.736961,"URL":"<a href='https://www.city.minato.tokyo.jp/shisetsu/gakkokyoiku/hoikuen/127.html' target='_blank'>https://www.city.minato.tokyo.jp/shisetsu/gakkokyoiku/hoikuen/127.html</a>","分類":"私立認可保育園","地区":"芝地区","連絡先":"電話番号:03-5795-2310 ファックス番号:03-3446-1631"},{"name":"ほっぺるランド高輪二丁目","province":"東京都","city":"港区","address":"港区高輪2丁目16番8号","lat":35.640175,"lon":139.739791,"URL":"<a href='https://www.city.minato.tokyo.jp/shisetsu/gakkokyoiku/hoikuen/128.html' target='_blank'>https://www.city.minato.tokyo.jp/shisetsu/gakkokyoiku/hoikuen/128.html</a>","分類":"私立認可保育園","地区":"高輪地区","連絡先":"電話番号:03-5422-9781 ファックス番号:03-5422-9782"},{"name":"にじいろ保育園海岸三丁目","province":"東京都","city":"港区","address":"港区海岸3丁目16番6号","lat":35.642483,"lon":139.755963,"URL":"<a href='https://www.city.minato.tokyo.jp/shisetsu/gakkokyoiku/hoikuen/129.html' target='_blank'>https://www.city.minato.tokyo.jp/shisetsu/gakkokyoiku/hoikuen/129.html</a>","分類":"私立認可保育園","地区":"芝浦港南地区","連絡先":"電話番号:03-6722-6865 ファックス番号:03-6722-6866"},{"name":"おはよう保育園ののあおやま","province":"東京都","city":"港区","address":"港区北青山3丁目4番3号","lat":35.666937,"lon":139.712592,"URL":"<a href='https://www.city.minato.tokyo.jp/shisetsu/gakkokyoiku/hoikuen/130.html' target='_blank'>https://www.city.minato.tokyo.jp/shisetsu/gakkokyoiku/hoikuen/130.html</a>","分類":"私立認可保育園","地区":"赤坂地区","連絡先":"電話番号:03-6447-0195 ファックス番号:03-6447-0196"},{"name":"にじいろ保育園竹芝","province":"東京都","city":"港区","address":"港区海岸一丁目13番15号","lat":35.65426,"lon":139.761607,"URL":"<a href='https://www.city.minato.tokyo.jp/shisetsu/gakkokyoiku/hoikuen/131.html' target='_blank'>https://www.city.minato.tokyo.jp/shisetsu/gakkokyoiku/hoikuen/131.html</a>","分類":"私立認可保育園","地区":"芝地区","連絡先":"電話番号:03-6381-5195 ファックス番号:03-6381-5196"},{"name":"赤坂子ども中高生プラザ青山館(カリッパ)","province":"東京都","city":"港区","address":"港区北青山三丁目4番1-201号","lat":35.667302,"lon":139.712219,"URL":"<a href='https://www.city.minato.tokyo.jp/shisetsu/gakkokyoiku/jidokan/39.html' target='_blank'>https://www.city.minato.tokyo.jp/shisetsu/gakkokyoiku/jidokan/39.html</a>","分類":"子ども中高生プラザ・児童高齢者交流プラザ","地区":"赤坂地区","連絡先":"電話番号:03-5786-6567 ファックス番号:03-3408-1722"},{"name":"sakura保育園六本木","province":"東京都","city":"港区","address":"港区六本木4丁目5番11号","lat":35.664738,"lon":139.732414,"URL":"<a href='https://www.city.minato.tokyo.jp/shisetsu/gakkokyoiku/hoikuen/132.html' target='_blank'>https://www.city.minato.tokyo.jp/shisetsu/gakkokyoiku/hoikuen/132.html</a>","分類":"私立認可保育園","地区":"麻布地区","連絡先":"電話番号:03-6434-5011"},{"name":"リトルパルズ保育園六本木","province":"東京都","city":"港区","address":"港区六本木6丁目5番27号","lat":35.661008,"lon":139.731147,"URL":"<a href='https://www.city.minato.tokyo.jp/shisetsu/gakkokyoiku/hoikuen/133.html' target='_blank'>https://www.city.minato.tokyo.jp/shisetsu/gakkokyoiku/hoikuen/133.html</a>","分類":"私立認可保育園","地区":"麻布地区","連絡先":"電話番号:050-1741-0790"},{"name":"アイグラン保育園白金台","province":"東京都","city":"港区","address":"港区白金台3丁目13番18号","lat":35.63577,"lon":139.725008,"URL":"<a href='https://www.city.minato.tokyo.jp/shisetsu/gakkokyoiku/hoikuen/134.html' target='_blank'>https://www.city.minato.tokyo.jp/shisetsu/gakkokyoiku/hoikuen/134.html</a>","分類":"私立認可保育園","地区":"高輪地区","連絡先":"電話番号:03-6277-4494"},{"name":"芝浜小学校","province":"東京都","city":"港区","address":"港区芝浦一丁目16番31号","lat":35.646369,"lon":139.750962,"URL":"<a href='https://www.city.minato.tokyo.jp/shisetsu/gakkokyoiku/sho/20.html' target='_blank'>https://www.city.minato.tokyo.jp/shisetsu/gakkokyoiku/sho/20.html</a>","分類":"小学校","地区":"芝浦港南地区","連絡先":"・電話:03-3769-3051 ・ファックス:03-3769-3050"},{"name":"にじいろ保育園新橋","province":"東京都","city":"港区","address":"港区新橋六丁目11番13号","lat":35.66161096645643,"lon":139.7546016280532,"URL":"<a href='https://www.city.minato.tokyo.jp/shisetsu/gakkokyoiku/hoikuen/135.html' target='_blank'>https://www.city.minato.tokyo.jp/shisetsu/gakkokyoiku/hoikuen/135.html</a>","分類":"私立認可保育園","地区":"芝地区","連絡先":"電話番号:03-6432-0540 ファックス番号:03-6432-0541"},{"name":"汐留サーノ保育園","province":"東京都","city":"港区","address":"港区浜松町一丁目1番11号","lat":35.6599892697372,"lon":139.7553697179248,"URL":"<a href='https://www.city.minato.tokyo.jp/shisetsu/gakkokyoiku/hoikuen/136.html' target='_blank'>https://www.city.minato.tokyo.jp/shisetsu/gakkokyoiku/hoikuen/136.html</a>","分類":"私立認可保育園","地区":"芝地区","連絡先":"電話番号:03-6452-8944 ファックス番号:03-6452-8966"},{"name":"神応保育園","province":"東京都","city":"港区","address":"港区白金六丁目9番5号神応ほっとプラザ1・2階","lat":35.64365287736521,"lon":139.7245772117504,"URL":"<a href='https://www.city.minato.tokyo.jp/shisetsu/gakkokyoiku/hoikuen/137.html' target='_blank'>https://www.city.minato.tokyo.jp/shisetsu/gakkokyoiku/hoikuen/137.html</a>","分類":"区立認可保育園","地区":"高輪地区","連絡先":"電話番号:03-5422-6363 ファックス番号:03-5422-6885"},{"name":"スターチャイルド白金高輪ナーサリー","province":"東京都","city":"港区","address":"港区白金一丁目2番1号","lat":35.64617509784009,"lon":139.7352304381393,"URL":"<a href='https://www.city.minato.tokyo.jp/shisetsu/gakkokyoiku/hoikuen/138.html' target='_blank'>https://www.city.minato.tokyo.jp/shisetsu/gakkokyoiku/hoikuen/138.html</a>","分類":"私立認可保育園","地区":"高輪地区","連絡先":"電話番号:03-5421-7061 ファックス番号:03-5338-0267"}]}