{"keyword":"拠点","data":[{"name":"港区スポーツセンター","province":"東京都","city":"港区","address":"東京都港区芝浦3丁目1-19","lat":35.64547419,"lon":139.75030505},{"name":"（株）ＴＢＳテレビ","province":"東京都","city":"港区","address":"港区赤坂5-3-6","lat":35.67164,"lon":139.7345},{"name":"（株）文化放送","province":"東京都","city":"港区","address":"港区浜松町1-31","lat":35.65687,"lon":139.7572},{"name":"（株）アール・エフ・ラジオ日本","province":"東京都","city":"港区","address":"港区麻布台2-2-1","lat":35.65817,"lon":139.7422},{"name":"（株）日経ラジオ社","province":"東京都","city":"港区","address":"港区赤坂1-9-15","lat":35.66936,"lon":139.7436},{"name":"日本テレビ放送網（株）","province":"東京都","city":"港区","address":"港区東新橋1-6-1","lat":35.6644,"lon":139.7599},{"name":"（株）フジテレビジョン","province":"東京都","city":"港区","address":"港区台場2-4-8","lat":35.62685,"lon":139.7741},{"name":"（株）テレビ朝日","province":"東京都","city":"港区","address":"港区六本木6-9-1","lat":35.65968,"lon":139.7309},{"name":"（株）テレビ東京","province":"東京都","city":"港区","address":"港区虎ノ門4-3-12","lat":35.66396,"lon":139.7435},{"name":"（株）Ｊ－ＷＡＶＥ","province":"東京都","city":"港区","address":"港区六本木6-10-1六本木ヒルズ森タワー","lat":35.660428,"lon":139.729182},{"name":"（株）ＴＢＳラジオ＆コミュニケーションズ","province":"東京都","city":"港区","address":"港区赤坂5-3-6","lat":35.67164,"lon":139.7345},{"name":"品川駅","province":"東京都","city":"港区","address":"東京都港区高輪3丁目26-27","lat":35.62871196,"lon":139.73940107},{"name":"芝浦ＰＡ","province":"東京都","city":"港区","address":"東京都港区","lat":35.65807282,"lon":139.75140452}]}