{"keyword":"放課後","data":[{"name":"メルケアみなとセンター","province":"東京都","city":"港区","address":"港区西新橋1-24-16平和ビル","lat":35.668738,"lon":139.751307},{"name":"スマートキッズプラス芝公園","province":"東京都","city":"港区","address":"港区芝3-25-2黒田芝ビル2階","lat":35.651554,"lon":139.747058},{"name":"スポーツ塾　ハートフルデイ東麻布","province":"東京都","city":"港区","address":"港区東麻布2-5-9サンエイビル2階","lat":35.657087,"lon":139.741828},{"name":"幸せの缶詰","province":"東京都","city":"港区","address":"港区南麻布2-1-18","lat":35.649398,"lon":139.733901},{"name":"ＫＯＫＯＺＯ　南青山","province":"東京都","city":"港区","address":"港区南青山4-3-24青山NKビル1階","lat":35.666224,"lon":139.720154},{"name":"ハッピーテラス芝浦教室","province":"東京都","city":"港区","address":"港区芝浦4-12-31","lat":35.640017,"lon":139.749103},{"name":"スポーツ塾　ハートフルデイ芝浦","province":"東京都","city":"港区","address":"港区芝浦2-17-10新大友ビル1階","lat":35.645135,"lon":139.75263},{"name":"ＴＯＤＡＹ児童デイサービス白金","province":"東京都","city":"港区","address":"港区白金3-16-9","lat":35.644418,"lon":139.728021},{"name":"こどもサポート教室「きらり」白金高輪校","province":"東京都","city":"港区","address":"港区三田4-10-5テラドール1階","lat":35.641838,"lon":139.73844},{"name":"プレミア・ケア・ジュニア　三田店","province":"東京都","city":"港区","address":"港区三田2-9-5みずほビル1階","lat":35.65064,"lon":139.744286},{"name":"すてっぷわん","province":"東京都","city":"港区","address":"港区高輪1-17-15オーク高輪ビル2階","lat":35.640388,"lon":139.733207},{"name":"ハービー＆マックローリン・陽だまり介護センター","province":"東京都","city":"港区","address":"港区高輪3-19-20-103号・102号","lat":35.633425,"lon":139.737529},{"name":"アフタースクール　クローバーキッズ麻布十番","province":"東京都","city":"港区","address":"港区麻布十番3-11-12","lat":35.65287,"lon":139.735226}]}