{"keyword":"椅子","data":[{"name":"東京都人権プラザ","province":"東京都","city":"港区","address":"東京都港区芝2丁目5-6","lat":35.652592,"lon":139.751659},{"name":"アジュール竹芝","province":"東京都","city":"港区","address":"東京都港区海岸1丁目11-2","lat":35.655244,"lon":139.763164},{"name":"アジュール竹芝","province":"東京都","city":"港区","address":"東京都港区海岸1丁目11-2","lat":35.655349,"lon":139.763372},{"name":"アジュール竹芝","province":"東京都","city":"港区","address":"東京都港区海岸1丁目11-2","lat":35.655362,"lon":139.763418},{"name":"アジュール竹芝","province":"東京都","city":"港区","address":"東京都港区海岸1丁目11-2","lat":35.655379,"lon":139.763441},{"name":"アジュール竹芝","province":"東京都","city":"港区","address":"東京都港区海岸1丁目11-2","lat":35.655258,"lon":139.763122},{"name":"港都税事務所","province":"東京都","city":"港区","address":"東京都港区麻布台3丁目5-6","lat":35.659957,"lon":139.740212},{"name":"港都税事務所","province":"東京都","city":"港区","address":"東京都港区麻布台3丁目5-6","lat":35.660015,"lon":139.740205},{"name":"東京都庭園美術館","province":"東京都","city":"港区","address":"東京都港区白金台5丁目21-9","lat":35.637014,"lon":139.719407},{"name":"東京都庭園美術館","province":"東京都","city":"港区","address":"東京都港区白金台5丁目21-9","lat":35.636921,"lon":139.718617},{"name":"東京都庭園美術館","province":"東京都","city":"港区","address":"東京都港区白金台5丁目21","lat":35.635675,"lon":139.720403},{"name":"東京都障害者福祉会館","province":"東京都","city":"港区","address":"東京都港区芝5丁目18-2","lat":35.648617,"lon":139.748339},{"name":"東京都障害者福祉会館","province":"東京都","city":"港区","address":"東京都港区芝5丁目18-2","lat":35.648591,"lon":139.748524},{"name":"東京都障害者福祉会館","province":"東京都","city":"港区","address":"東京都港区芝5丁目18-2","lat":35.648146,"lon":139.748422},{"name":"東京都立産業貿易センター浜松町館","province":"東京都","city":"港区","address":"東京都港区海岸1丁目7-1","lat":35.654622,"lon":139.760688},{"name":"東京都中央卸売市場食肉市場","province":"東京都","city":"港区","address":"東京都港区港南2丁目7-19","lat":35.627984,"lon":139.743626},{"name":"芝公園","province":"東京都","city":"港区","address":"東京都港区芝公園2丁目7","lat":35.654422,"lon":139.750275},{"name":"芝公園","province":"東京都","city":"港区","address":"東京都港区芝公園4丁目3","lat":35.65723,"lon":139.746127},{"name":"芝公園","province":"東京都","city":"港区","address":"東京都港区芝公園1丁目4","lat":35.659263,"lon":139.750903},{"name":"青山霊園","province":"東京都","city":"港区","address":"東京都港区南青山2丁目33","lat":35.668507,"lon":139.720988},{"name":"青山霊園","province":"東京都","city":"港区","address":"東京都港区南青山2丁目34","lat":35.66485,"lon":139.722604},{"name":"青山霊園","province":"東京都","city":"港区","address":"東京都港区南青山4丁目28","lat":35.6637,"lon":139.719382},{"name":"青山霊園","province":"東京都","city":"港区","address":"東京都港区南青山2丁目35","lat":35.662118,"lon":139.723175},{"name":"旧芝離宮恩賜庭園","province":"東京都","city":"港区","address":"東京都港区海岸1丁目4","lat":35.656008,"lon":139.758223},{"name":"お台場海浜公園","province":"東京都","city":"港区","address":"東京都港区台場1丁目4","lat":35.631043,"lon":139.777789},{"name":"お台場海浜公園","province":"東京都","city":"港区","address":"東京都港区台場1丁目4-2","lat":35.630018,"lon":139.775452},{"name":"お台場海浜公園","province":"東京都","city":"港区","address":"東京都港区台場1丁目4-1","lat":35.62887,"lon":139.773675},{"name":"お台場海浜公園","province":"東京都","city":"港区","address":"東京都港区台場1丁目4","lat":35.626649,"lon":139.769707},{"name":"お台場海浜公園","province":"東京都","city":"港区","address":"東京都港区台場1丁目4","lat":35.62786,"lon":139.771604},{"name":"お台場海浜公園","province":"東京都","city":"港区","address":"東京都港区台場1丁目4","lat":35.633196,"lon":139.77686},{"name":"シンボルプロムナード公園","province":"東京都","city":"港区","address":"東京都港区台場1丁目8-1","lat":35.626714,"lon":139.77191},{"name":"シンボルプロムナード公園","province":"東京都","city":"港区","address":"東京都港区台場2丁目5-1","lat":35.625747,"lon":139.772722},{"name":"品川北ふ頭公園","province":"東京都","city":"港区","address":"東京都港区港南5丁目2","lat":35.630681,"lon":139.754995},{"name":"台場ﾌﾛﾝﾃｨｱﾋﾞﾙ","province":"東京都","city":"港区","address":"東京都港区台場2丁目3-2","lat":35.628852,"lon":139.778214},{"name":"台場ﾌﾛﾝﾃｨｱﾋﾞﾙ","province":"東京都","city":"港区","address":"東京都港区台場2丁目3-2","lat":35.628573,"lon":139.777387},{"name":"台場ﾌﾛﾝﾃｨｱﾋﾞﾙ","province":"東京都","city":"港区","address":"東京都港区台場2丁目3-2","lat":35.628859,"lon":139.778229},{"name":"ﾆｭｰﾋﾟｱ竹芝ﾉｰｽﾀﾜｰ","province":"東京都","city":"港区","address":"東京都港区海岸1丁目11-1","lat":35.655553,"lon":139.763462},{"name":"ﾆｭｰﾋﾟｱ竹芝ﾉｰｽﾀﾜｰ","province":"東京都","city":"港区","address":"東京都港区海岸1丁目11-1","lat":35.655498,"lon":139.763437},{"name":"ﾆｭｰﾋﾟｱ竹芝ｻｳｽﾀﾜｰ","province":"東京都","city":"港区","address":"東京都港区海岸1丁目16-2","lat":35.653182,"lon":139.762288},{"name":"ﾆｭｰﾋﾟｱ竹芝ｻｳｽﾀﾜｰ","province":"東京都","city":"港区","address":"東京都港区海岸1丁目16-1","lat":35.653612,"lon":139.762342},{"name":"竹芝客船ターミナル","province":"東京都","city":"港区","address":"東京都港区海岸1丁目12-1","lat":35.654039,"lon":139.762613},{"name":"日の出ふ頭1号船客待合所","province":"東京都","city":"港区","address":"東京都港区海岸2丁目7-104","lat":35.650573,"lon":139.760405},{"name":"竹芝客船ターミナル","province":"東京都","city":"港区","address":"東京都港区海岸1丁目16-2","lat":35.653078,"lon":139.762367},{"name":"レインボーブリッジ芝浦アンカレイジ","province":"東京都","city":"港区","address":"東京都港区海岸3丁目33-19","lat":35.638047,"lon":139.758737},{"name":"都営浅草線高輪台駅","province":"東京都","city":"港区","address":"東京都港区高輪3丁目11","lat":35.631669,"lon":139.730353},{"name":"都営浅草線泉岳寺駅","province":"東京都","city":"港区","address":"東京都港区高輪2丁目17","lat":35.639594,"lon":139.740347},{"name":"都営浅草線三田駅","province":"東京都","city":"港区","address":"東京都港区芝5丁目31","lat":35.646616,"lon":139.746614},{"name":"都営浅草線大門駅","province":"東京都","city":"港区","address":"東京都港区芝大門2丁目4","lat":35.656834,"lon":139.754191},{"name":"都営浅草線大門駅","province":"東京都","city":"港区","address":"東京都港区浜松町2丁目1","lat":35.656804,"lon":139.754943},{"name":"都営浅草線新橋駅","province":"東京都","city":"港区","address":"東京都港区東新橋1丁目2","lat":35.665094,"lon":139.759255},{"name":"都営三田線三田駅","province":"東京都","city":"港区","address":"東京都港区芝5丁目18","lat":35.648406,"lon":139.74889},{"name":"都営三田線芝公園駅","province":"東京都","city":"港区","address":"東京都港区芝公園4丁目8","lat":35.65512,"lon":139.75002},{"name":"都営三田線駅御成門駅","province":"東京都","city":"港区","address":"東京都港区芝公園3丁目2","lat":35.660691,"lon":139.751273},{"name":"都営大江戸線汐留駅","province":"東京都","city":"港区","address":"東京都港区東新橋1丁目9-52","lat":35.662945,"lon":139.759917},{"name":"都営大江戸線大門駅","province":"東京都","city":"港区","address":"東京都港区浜松町2丁目3","lat":35.656739,"lon":139.755802},{"name":"都営大江戸線赤羽橋駅","province":"東京都","city":"港区","address":"東京都港区東麻布1丁目28","lat":35.655029,"lon":139.744196},{"name":"都営大江戸線麻布十番駅","province":"東京都","city":"港区","address":"東京都港区麻布十番1丁目2","lat":35.656455,"lon":139.736547},{"name":"都営大江戸線六本木駅","province":"東京都","city":"港区","address":"東京都港区六本木7丁目8","lat":35.664783,"lon":139.730338},{"name":"都営大江戸線六本木駅","province":"東京都","city":"港区","address":"東京都港区六本木7丁目14","lat":35.663597,"lon":139.731829},{"name":"都営大江戸線青山一丁目駅","province":"東京都","city":"港区","address":"東京都港区元赤坂2丁目1","lat":35.673714,"lon":139.723766},{"name":"都営大江戸線青山一丁目駅","province":"東京都","city":"港区","address":"東京都港区南青山2丁目1","lat":35.672374,"lon":139.724065},{"name":"東京都水道局港営業所","province":"東京都","city":"港区","address":"東京都港区三田1丁目3-25","lat":35.654492,"lon":139.744175},{"name":"東京都立中央図書館","province":"東京都","city":"港区","address":"東京都港区南麻布5丁目7-13","lat":35.652134,"lon":139.726622},{"name":"東京都立中央図書館","province":"東京都","city":"港区","address":"東京都港区南麻布5丁目7-13","lat":35.652114,"lon":139.726629},{"name":"東京都立中央図書館","province":"東京都","city":"港区","address":"東京都港区南麻布5丁目7-13","lat":35.652098,"lon":139.726642},{"name":"芝消防署","province":"東京都","city":"港区","address":"東京都港区東新橋2丁目13-7","lat":35.660288,"lon":139.756626},{"name":"赤坂消防署","province":"東京都","city":"港区","address":"東京都港区南青山2丁目16-9","lat":35.66901644,"lon":139.7207941},{"name":"高輪地区総合支所","province":"東京都","city":"港区","address":"東京都港区高輪1丁目16-25","lat":35.641846,"lon":139.733998},{"name":"麻布地区総合支所","province":"東京都","city":"港区","address":"東京都港区六本木5丁目16-45","lat":35.660742,"lon":139.734846},{"name":"港区赤坂地区総合支所","province":"東京都","city":"港区","address":"東京都港区赤坂4丁目18-13","lat":35.674785,"lon":139.731828},{"name":"港区赤坂地区総合支所","province":"東京都","city":"港区","address":"東京都港区赤坂4丁目18-13","lat":35.674716,"lon":139.731491},{"name":"港区スポーツセンター","province":"東京都","city":"港区","address":"東京都港区芝浦1丁目16","lat":35.646736,"lon":139.75188},{"name":"港区役所庁舎","province":"東京都","city":"港区","address":"東京都港区芝公園1丁目5-25","lat":35.658061,"lon":139.75145},{"name":"港区役所庁舎","province":"東京都","city":"港区","address":"東京都港区芝公園1丁目5-25","lat":35.658023,"lon":139.751428},{"name":"港区役所庁舎","province":"東京都","city":"港区","address":"東京都港区芝公園1丁目5-25","lat":35.658049,"lon":139.751366},{"name":"港区役所庁舎","province":"東京都","city":"港区","address":"東京都港区芝公園1丁目5-25","lat":35.658022,"lon":139.75143},{"name":"港区役所庁舎","province":"東京都","city":"港区","address":"東京都港区芝公園1丁目5-25","lat":35.658023,"lon":139.751431},{"name":"港区役所庁舎","province":"東京都","city":"港区","address":"東京都港区芝公園1丁目5-25","lat":35.658023,"lon":139.751429},{"name":"港区役所庁舎","province":"東京都","city":"港区","address":"東京都港区芝公園1丁目5-25","lat":35.658024,"lon":139.751428},{"name":"港区役所庁舎","province":"東京都","city":"港区","address":"東京都港区芝公園1丁目5-25","lat":35.658023,"lon":139.751426},{"name":"港区役所庁舎","province":"東京都","city":"港区","address":"東京都港区芝公園1丁目8","lat":35.657632,"lon":139.751287},{"name":"港区役所庁舎","province":"東京都","city":"港区","address":"東京都港区芝公園1丁目8","lat":35.657642,"lon":139.751202},{"name":"港区役所庁舎","province":"東京都","city":"港区","address":"東京都港区芝公園1丁目8","lat":35.657638,"lon":139.7512},{"name":"港区役所庁舎","province":"東京都","city":"港区","address":"東京都港区芝公園1丁目8","lat":35.657637,"lon":139.751199},{"name":"高輪地区総合支所","province":"東京都","city":"港区","address":"東京都港区高輪1丁目16-25","lat":35.641965,"lon":139.73397},{"name":"高輪地区総合支所","province":"東京都","city":"港区","address":"東京都港区高輪1丁目16-25","lat":35.641917,"lon":139.733927},{"name":"高輪地区総合支所","province":"東京都","city":"港区","address":"東京都港区高輪1丁目16-25","lat":35.642027,"lon":139.734086},{"name":"高輪地区総合支所","province":"東京都","city":"港区","address":"東京都港区高輪1丁目16-25","lat":35.641846,"lon":139.733999},{"name":"産業振興課","province":"東京都","city":"港区","address":"東京都港区芝5丁目36-4","lat":35.645055,"lon":139.744779},{"name":"芝浦港南地区総合支所","province":"東京都","city":"港区","address":"東京都港区芝浦1丁目16-1","lat":35.646214,"lon":139.751473},{"name":"芝浦港南地区総合支所","province":"東京都","city":"港区","address":"東京都港区芝浦1丁目16","lat":35.646722,"lon":139.751811},{"name":"芝浦港南地区総合支所","province":"東京都","city":"港区","address":"東京都港区芝浦1丁目16-1","lat":35.646325,"lon":139.75155},{"name":"産業振興センター","province":"東京都","city":"港区","address":"東京都港区芝5丁目36-4","lat":35.645055,"lon":139.744779},{"name":"高輪いきいきプラザ","province":"東京都","city":"港区","address":"東京都港区高輪3丁目18","lat":35.633212,"lon":139.735936},{"name":"芝コミュニティはうす","province":"東京都","city":"港区","address":"東京都港区芝5丁目13","lat":35.649244,"lon":139.745172},{"name":"きらきらプラザ新橋","province":"東京都","city":"港区","address":"東京都港区新橋6丁目4-2","lat":35.662237,"lon":139.754071},{"name":"芝公園区民協働スペース","province":"東京都","city":"港区","address":"東京都港区芝公園2丁目7-3","lat":35.6542,"lon":139.750673},{"name":"三田いきいきプラザ","province":"東京都","city":"港区","address":"東京都港区芝4丁目1-17","lat":35.648681,"lon":139.749784},{"name":"神明いきいきプラザ","province":"東京都","city":"港区","address":"東京都港区浜松町1丁目6-7","lat":35.658644,"lon":139.757599},{"name":"神明いきいきプラザ","province":"東京都","city":"港区","address":"東京都港区浜松町1丁目6-7","lat":35.65863,"lon":139.757598},{"name":"神明いきいきプラザ","province":"東京都","city":"港区","address":"東京都港区浜松町1丁目6-7","lat":35.658732,"lon":139.757681},{"name":"神明いきいきプラザ","province":"東京都","city":"港区","address":"東京都港区浜松町1丁目6-7","lat":35.658691,"lon":139.757693},{"name":"神明いきいきプラザ","province":"東京都","city":"港区","address":"東京都港区浜松町1丁目6-7","lat":35.658667,"lon":139.757583},{"name":"虎ノ門いきいきプラザ","province":"東京都","city":"港区","address":"東京都港区虎ノ門1丁目21-10","lat":35.667833,"lon":139.748701},{"name":"虎ノ門いきいきプラザ","province":"東京都","city":"港区","address":"東京都港区虎ノ門1丁目21-10","lat":35.667928,"lon":139.748636},{"name":"高輪区民センター","province":"東京都","city":"港区","address":"東京都港区高輪1丁目16","lat":35.641795,"lon":139.734295},{"name":"高輪区民センター","province":"東京都","city":"港区","address":"東京都港区高輪1丁目16","lat":35.642086,"lon":139.734266},{"name":"高輪区民センター","province":"東京都","city":"港区","address":"東京都港区高輪1丁目16-25","lat":35.641846,"lon":139.733998},{"name":"高輪いきいきプラザ","province":"東京都","city":"港区","address":"東京都港区高輪3丁目18","lat":35.633155,"lon":139.735951},{"name":"豊岡いきいきプラザ","province":"東京都","city":"港区","address":"東京都港区三田5丁目7","lat":35.646591,"lon":139.739599},{"name":"白金いきいきプラザ","province":"東京都","city":"港区","address":"東京都港区白金3丁目10-12","lat":35.644919,"lon":139.731108},{"name":"白金台いきいきプラザ","province":"東京都","city":"港区","address":"東京都港区白金台4丁目8-5","lat":35.637725,"lon":139.725098},{"name":"白金台いきいきプラザ","province":"東京都","city":"港区","address":"東京都港区白金台4丁目8-5","lat":35.637807,"lon":139.725025},{"name":"港区立みなと図書館","province":"東京都","city":"港区","address":"東京都港区芝公園3丁目2-25","lat":35.659995,"lon":139.750043},{"name":"港区立芝浦港南区民センター","province":"東京都","city":"港区","address":"東京都港区芝浦4丁目13-1","lat":35.640483,"lon":139.74863},{"name":"港区立芝浦港南区民センター","province":"東京都","city":"港区","address":"東京都港区芝浦4丁目13-1","lat":35.640687,"lon":139.748512},{"name":"青山いきいきプラザ","province":"東京都","city":"港区","address":"東京都港区南青山2丁目16-5","lat":35.669312,"lon":139.721335},{"name":"青山いきいきプラザ","province":"東京都","city":"港区","address":"東京都港区南青山2丁目16-5","lat":35.669258,"lon":139.721247},{"name":"青山いきいきプラザ","province":"東京都","city":"港区","address":"東京都港区南青山2丁目16-5","lat":35.669213,"lon":139.721217},{"name":"青南いきいきプラザ","province":"東京都","city":"港区","address":"東京都港区南青山4丁目10-1","lat":35.666472,"lon":139.717332},{"name":"赤坂いきいきプラザ","province":"東京都","city":"港区","address":"東京都港区赤坂6丁目4-8","lat":35.670363,"lon":139.734921},{"name":"西麻布いきいきﾌﾟﾗｻﾞ","province":"東京都","city":"港区","address":"東京都港区西麻布2丁目13-3","lat":35.660905,"lon":139.722783},{"name":"麻布いきいきﾌﾟﾗｻﾞ","province":"東京都","city":"港区","address":"東京都港区元麻布3丁目9-11","lat":35.656188,"lon":139.730794},{"name":"ありすいきいきプラザ","province":"東京都","city":"港区","address":"東京都港区南麻布4丁目6-7","lat":35.651055,"lon":139.727461},{"name":"ありすいきいきプラザ","province":"東京都","city":"港区","address":"東京都港区南麻布4丁目6-7","lat":35.651144,"lon":139.727523},{"name":"南麻布いきいきプラザ","province":"東京都","city":"港区","address":"東京都港区南麻布1丁目5-26","lat":35.651261,"lon":139.735305},{"name":"南麻布いきいきプラザ","province":"東京都","city":"港区","address":"東京都港区南麻布1丁目5-26","lat":35.65129,"lon":139.735348},{"name":"飯倉いきいきプラザ","province":"東京都","city":"港区","address":"東京都港区東麻布2丁目16-11","lat":35.656939,"lon":139.740923},{"name":"港区みなと保健所","province":"東京都","city":"港区","address":"東京都港区三田1丁目4-10","lat":35.654112,"lon":139.743055},{"name":"港区みなと保健所","province":"東京都","city":"港区","address":"東京都港区三田1丁目4-10","lat":35.65413,"lon":139.743108},{"name":"港区みなと保健所","province":"東京都","city":"港区","address":"東京都港区三田1丁目4-10","lat":35.653944,"lon":139.743046},{"name":"港区みなと保健所","province":"東京都","city":"港区","address":"東京都港区三田1丁目4-10","lat":35.653916,"lon":139.742982},{"name":"港区立健康増進センター（ヘルシーナ）","province":"東京都","city":"港区","address":"東京都港区赤坂4丁目18-13","lat":35.674799,"lon":139.731639},{"name":"港区立みなと図書館","province":"東京都","city":"港区","address":"東京都港区芝公園3丁目2-25","lat":35.659874,"lon":139.749964},{"name":"港区立みなと図書館","province":"東京都","city":"港区","address":"東京都港区芝公園3丁目2-25","lat":35.659917,"lon":139.750142},{"name":"港区立麻布図書館","province":"東京都","city":"港区","address":"東京都港区六本木5丁目12-24","lat":35.657631,"lon":139.735965},{"name":"港区立麻布図書館","province":"東京都","city":"港区","address":"東京都港区六本木5丁目12-24","lat":35.657634,"lon":139.735951},{"name":"港区立麻布図書館","province":"東京都","city":"港区","address":"東京都港区六本木5丁目12-24","lat":35.657534,"lon":139.735923},{"name":"港区立赤坂図書館","province":"東京都","city":"港区","address":"東京都港区南青山1丁目3-2","lat":35.671723,"lon":139.725274},{"name":"港区立高輪図書館分室","province":"東京都","city":"港区","address":"東京都港区高輪1丁目4-35","lat":35.642421,"lon":139.734774},{"name":"港区立港南図書館","province":"東京都","city":"港区","address":"東京都港区港南3丁目3-17","lat":35.632985,"lon":139.749564},{"name":"港区立港南図書館","province":"東京都","city":"港区","address":"東京都港区港南3丁目3-17","lat":35.632884,"lon":139.749705},{"name":"宮村児童遊園","province":"東京都","city":"港区","address":"東京都港区元麻布2丁目6","lat":35.654666,"lon":139.730072},{"name":"赤坂区民センター","province":"東京都","city":"港区","address":"東京都港区赤坂4丁目18-13","lat":35.674727,"lon":139.731622},{"name":"赤坂区民センター","province":"東京都","city":"港区","address":"東京都港区赤坂4丁目18-13","lat":35.674758,"lon":139.731786},{"name":"赤坂区民センター","province":"東京都","city":"港区","address":"東京都港区赤坂4丁目18-13","lat":35.674607,"lon":139.731937},{"name":"台場コミュニティぷらざ","province":"東京都","city":"港区","address":"東京都港区台場1丁目5","lat":35.629803,"lon":139.777023},{"name":"台場コミュニティぷらざ","province":"東京都","city":"港区","address":"東京都港区台場1丁目5","lat":35.629824,"lon":139.777107},{"name":"港区立エコプラザ","province":"東京都","city":"港区","address":"東京都港区浜松町1丁目13-1","lat":35.658876,"lon":139.756879},{"name":"港区立エコプラザ","province":"東京都","city":"港区","address":"東京都港区浜松町1丁目13-1","lat":35.658888,"lon":139.757014},{"name":"港区立青山生涯学習館","province":"東京都","city":"港区","address":"東京都港区南青山4丁目19","lat":35.6641,"lon":139.71699},{"name":"港区立生涯学習センター","province":"東京都","city":"港区","address":"東京都港区新橋3丁目16-3","lat":35.665598,"lon":139.7571},{"name":"港区立郷土歴史館","province":"東京都","city":"港区","address":"東京都港区白金台4丁目6-2","lat":35.638779,"lon":139.726622},{"name":"港区立郷土歴史館","province":"東京都","city":"港区","address":"東京都港区白金台4丁目6-2","lat":35.639062,"lon":139.726671},{"name":"港区立郷土歴史館","province":"東京都","city":"港区","address":"東京都港区白金台4丁目6-2","lat":35.639063,"lon":139.726674},{"name":"港区立郷土歴史館","province":"東京都","city":"港区","address":"東京都港区白金台4丁目6-2","lat":35.639062,"lon":139.726672},{"name":"港区立郷土歴史館","province":"東京都","city":"港区","address":"東京都港区白金台4丁目6-2","lat":35.639062,"lon":139.726674},{"name":"港区立郷土歴史館","province":"東京都","city":"港区","address":"東京都港区白金台4丁目6-2","lat":35.639063,"lon":139.726676},{"name":"教育センター","province":"東京都","city":"港区","address":"東京都港区虎ノ門3丁目6-9","lat":35.665855,"lon":139.74576},{"name":"教育センター","province":"東京都","city":"港区","address":"東京都港区虎ノ門3丁目6-9","lat":35.665888,"lon":139.745766},{"name":"教育センター","province":"東京都","city":"港区","address":"東京都港区虎ノ門3丁目6-9","lat":35.665871,"lon":139.745764},{"name":"港区立伝統文化交流館","province":"東京都","city":"港区","address":"東京都港区芝浦1丁目11-15","lat":35.64754,"lon":139.753851},{"name":"港区立伝統文化交流館","province":"東京都","city":"港区","address":"東京都港区芝浦1丁目11","lat":35.647665,"lon":139.753871},{"name":"赤坂子ども中高生プラザ","province":"東京都","city":"港区","address":"東京都港区赤坂6丁目6-14","lat":35.66973,"lon":139.7376432},{"name":"赤坂子ども中高生プラザ青山館","province":"東京都","city":"港区","address":"東京都港区北青山3丁目4","lat":35.666837,"lon":139.712936},{"name":"神応ほっとプラザ","province":"東京都","city":"港区","address":"東京都港区白金6丁目9","lat":35.643581,"lon":139.724436},{"name":"神応いきいきプラザ","province":"東京都","city":"港区","address":"東京都港区白金6丁目9-5","lat":35.643626,"lon":139.7244},{"name":"有栖川宮記念公園","province":"東京都","city":"港区","address":"東京都港区南麻布5丁目7","lat":35.651252,"lon":139.726377},{"name":"桑田記念児童遊園","province":"東京都","city":"港区","address":"東京都港区赤坂9丁目2","lat":35.668579,"lon":139.73041},{"name":"南麻布新堀児童遊園","province":"東京都","city":"港区","address":"東京都港区南麻布2丁目2","lat":35.64991,"lon":139.735764},{"name":"南麻布二丁目児童遊園","province":"東京都","city":"港区","address":"東京都港区南麻布2丁目3","lat":35.649131,"lon":139.736218},{"name":"飯倉公園","province":"東京都","city":"港区","address":"東京都港区東麻布1丁目21","lat":35.655818,"lon":139.743736},{"name":"網代公園","province":"東京都","city":"港区","address":"東京都港区麻布十番2丁目15","lat":35.654366,"lon":139.73571},{"name":"有栖川宮記念公園","province":"東京都","city":"港区","address":"東京都港区南麻布5丁目7","lat":35.651303,"lon":139.724597},{"name":"六本木西公園","province":"東京都","city":"港区","address":"東京都港区六本木7丁目17","lat":35.66334,"lon":139.729788},{"name":"区立桜田公園","province":"東京都","city":"港区","address":"東京都港区新橋3丁目16","lat":35.665126,"lon":139.756455},{"name":"区立塩釜公園","province":"東京都","city":"港区","address":"東京都港区新橋5丁目19","lat":35.663157,"lon":139.755052},{"name":"区立南桜公園","province":"東京都","city":"港区","address":"東京都港区西新橋2丁目10","lat":35.666166,"lon":139.752245},{"name":"港区立芝公園管理事務所横だれでもトイレ","province":"東京都","city":"港区","address":"東京都港区芝公園4丁目8","lat":35.655999,"lon":139.749456},{"name":"区立芝五丁目児童遊園","province":"東京都","city":"港区","address":"東京都港区芝5丁目18","lat":35.648147,"lon":139.748101},{"name":"一ツ木公園","province":"東京都","city":"港区","address":"東京都港区赤坂5丁目5","lat":35.670998,"lon":139.733487},{"name":"氷川公園","province":"東京都","city":"港区","address":"東京都港区赤坂6丁目5","lat":35.670931,"lon":139.737381},{"name":"青葉公園","province":"東京都","city":"港区","address":"東京都港区南青山1丁目4","lat":35.671016,"lon":139.724658},{"name":"青山公園","province":"東京都","city":"港区","address":"東京都港区南青山2丁目21","lat":35.669532,"lon":139.719404},{"name":"北青山一丁目児童遊園","province":"東京都","city":"港区","address":"東京都港区北青山1丁目6","lat":35.675722,"lon":139.721506},{"name":"高橋是清翁記念公園","province":"東京都","city":"港区","address":"東京都港区赤坂7丁目3","lat":35.674084,"lon":139.728898},{"name":"檜町公園","province":"東京都","city":"港区","address":"東京都港区赤坂9丁目7","lat":35.666973,"lon":139.733179},{"name":"亀塚公園","province":"東京都","city":"港区","address":"東京都港区三田4丁目16","lat":35.643749,"lon":139.740755},{"name":"三田台公園","province":"東京都","city":"港区","address":"東京都港区三田4丁目17","lat":35.642564,"lon":139.739228},{"name":"高輪公園","province":"東京都","city":"港区","address":"東京都港区高輪3丁目18","lat":35.633044,"lon":139.736093},{"name":"高輪森の公園","province":"東京都","city":"港区","address":"東京都港区高輪3丁目13","lat":35.630752,"lon":139.735322},{"name":"泉岳寺前児童遊園","province":"東京都","city":"港区","address":"東京都港区高輪2丁目15","lat":35.637304,"lon":139.737634},{"name":"白金児童遊園","province":"東京都","city":"港区","address":"東京都港区白金台2丁目24-3","lat":35.632895,"lon":139.729517},{"name":"白台児童遊園","province":"東京都","city":"港区","address":"東京都港区白金台4丁目7","lat":35.637993,"lon":139.725855},{"name":"白金台どんぐり児童遊園","province":"東京都","city":"港区","address":"東京都港区白金台5丁目19","lat":35.636577,"lon":139.722575},{"name":"白高児童遊園","province":"東京都","city":"港区","address":"東京都港区白金1丁目17","lat":35.645,"lon":139.733465},{"name":"プラタナス公園","province":"東京都","city":"港区","address":"東京都港区芝浦4丁目20","lat":35.640337,"lon":139.752036},{"name":"芝浦中央公園","province":"東京都","city":"港区","address":"東京都港区港南1丁目2","lat":35.6347,"lon":139.742776},{"name":"芝浦中央公園","province":"東京都","city":"港区","address":"東京都港区港南1丁目2","lat":35.635502,"lon":139.743405},{"name":"こうなん星の公園","province":"東京都","city":"港区","address":"東京都港区港南1丁目9","lat":35.629751,"lon":139.74257},{"name":"港南和楽公園","province":"東京都","city":"港区","address":"東京都港区港南4丁目2","lat":35.630541,"lon":139.748498},{"name":"港南公園","province":"東京都","city":"港区","address":"東京都港区港南4丁目5","lat":35.628817,"lon":139.746526},{"name":"港南公園","province":"東京都","city":"港区","address":"東京都港区港南4丁目5","lat":35.62433,"lon":139.746946},{"name":"港南緑水公園","province":"東京都","city":"港区","address":"東京都港区港南4丁目7","lat":35.628642,"lon":139.750715},{"name":"お台場レインボー公園","province":"東京都","city":"港区","address":"東京都港区台場1丁目3","lat":35.63248,"lon":139.777908},{"name":"港南三丁目遊び場","province":"東京都","city":"港区","address":"東京都港区港南3丁目2","lat":35.633885,"lon":139.750225},{"name":"本芝公園","province":"東京都","city":"港区","address":"東京都港区芝4丁目15","lat":35.647131,"lon":139.75001},{"name":"港区立芝給水所公園運動場","province":"東京都","city":"港区","address":"東京都港区芝公園3丁目6","lat":35.661042,"lon":139.74565},{"name":"港区立麻布運動場","province":"東京都","city":"港区","address":"東京都港区南麻布5丁目6-33","lat":35.65244,"lon":139.72773},{"name":"芝浦南ふ頭公園運動広場","province":"東京都","city":"港区","address":"東京都港区海岸3丁目33","lat":35.637321,"lon":139.75916},{"name":"埠頭少年野球場","province":"東京都","city":"港区","address":"東京都港区海岸3丁目14","lat":35.64185,"lon":139.755174},{"name":"芝浦中央公園運動場","province":"東京都","city":"港区","address":"東京都港区港南1丁目4-1","lat":35.634924,"lon":139.746244},{"name":"三田綱町児童遊園","province":"東京都","city":"港区","address":"東京都港区三田2丁目19","lat":35.649444,"lon":139.739664},{"name":"本村公園","province":"東京都","city":"港区","address":"東京都港区南麻布3丁目4","lat":35.650195,"lon":139.731049},{"name":"西町つなぐ児童遊園","province":"東京都","city":"港区","address":"東京都港区高輪3丁目5","lat":35.634463,"lon":139.73179},{"name":"古川橋際公衆便所","province":"東京都","city":"港区","address":"東京都港区南麻布2丁目15","lat":35.646463,"lon":139.735659},{"name":"港区立一ノ橋際公衆トイレ","province":"東京都","city":"港区","address":"東京都港区東麻布3丁目9-11","lat":35.65554,"lon":139.737393},{"name":"西麻布二丁目公衆便所","province":"東京都","city":"港区","address":"東京都港区西麻布2丁目1","lat":35.664209,"lon":139.720125},{"name":"中ノ橋際公衆便所","province":"東京都","city":"港区","address":"東京都港区東麻布1丁目30","lat":35.655012,"lon":139.741851},{"name":"豊岡児童館","province":"東京都","city":"港区","address":"東京都港区三田5丁目7","lat":35.646591,"lon":139.739599},{"name":"南麻布三丁目公衆便所","province":"東京都","city":"港区","address":"東京都港区南麻布3丁目22","lat":35.64678,"lon":139.728605},{"name":"二ノ橋際公衆便所","province":"東京都","city":"港区","address":"東京都港区麻布十番4丁目6","lat":35.652826,"lon":139.736905},{"name":"新橋三丁目公衆便所","province":"東京都","city":"港区","address":"東京都港区新橋3丁目24","lat":35.664742,"lon":139.758305},{"name":"芝四丁目公衆便所","province":"東京都","city":"港区","address":"東京都港区芝4丁目1","lat":35.64857,"lon":139.749443},{"name":"田町駅東口公衆便所","province":"東京都","city":"港区","address":"東京都港区芝浦3丁目1","lat":35.645256,"lon":139.748035},{"name":"品川駅港南口公衆便所","province":"東京都","city":"港区","address":"東京都港区港南2丁目14-24","lat":35.629004,"lon":139.74131},{"name":"品川駅港南口公衆便所","province":"東京都","city":"港区","address":"東京都港区港南2丁目14-24","lat":35.629003,"lon":139.741347},{"name":"氷川神社公衆便所","province":"東京都","city":"港区","address":"東京都港区赤坂6丁目10","lat":35.667902,"lon":139.736513},{"name":"権田原公衆便所","province":"東京都","city":"港区","address":"東京都港区元赤坂2丁目2","lat":35.678195,"lon":139.720644},{"name":"金杉橋際公衆便所","province":"東京都","city":"港区","address":"東京都港区芝1丁目1","lat":35.652954,"lon":139.754543},{"name":"高輪一丁目公衆便所","province":"東京都","city":"港区","address":"東京都港区高輪1丁目16","lat":35.641938,"lon":139.733854},{"name":"老増町公衆便所","province":"東京都","city":"港区","address":"東京都港区白金1丁目28","lat":35.643614,"lon":139.734119},{"name":"港区国際交流スペース","province":"東京都","city":"港区","address":"東京都港区北青山1丁目6-3","lat":35.674345,"lon":139.721418},{"name":"港区立障害保健福祉センター","province":"東京都","city":"港区","address":"東京都港区芝1丁目8-23","lat":35.651608,"lon":139.755587},{"name":"港区立障害保健福祉センター","province":"東京都","city":"港区","address":"東京都港区芝1丁目8-23","lat":35.651567,"lon":139.755581},{"name":"港区立障害保健福祉センター","province":"東京都","city":"港区","address":"東京都港区芝1丁目8-23","lat":35.651438,"lon":139.755492},{"name":"港区立障害保健福祉センター","province":"東京都","city":"港区","address":"東京都港区芝1丁目8-23","lat":35.651446,"lon":139.755528},{"name":"港区立障害保健福祉センター","province":"東京都","city":"港区","address":"東京都港区芝1丁目8-23","lat":35.651437,"lon":139.755484},{"name":"台場高齢者在宅サービスセンター","province":"東京都","city":"港区","address":"東京都港区台場1丁目5-5","lat":35.630571,"lon":139.77799},{"name":"台場高齢者在宅サービスセンター","province":"東京都","city":"港区","address":"東京都港区台場1丁目5-5","lat":35.630535,"lon":139.777918},{"name":"南麻布高齢者在宅サービスセンター","province":"東京都","city":"港区","address":"東京都港区南麻布1丁目5","lat":35.651189,"lon":139.735412},{"name":"高齢者在宅サービスセンター白金の森","province":"東京都","city":"港区","address":"東京都港区白金台5丁目20-5","lat":35.637068,"lon":139.72217},{"name":"虎ノ門高齢者在宅サービスセンター","province":"東京都","city":"港区","address":"東京都港区虎ノ門1丁目21-10","lat":35.667929,"lon":139.748605},{"name":"虎ノ門高齢者在宅サービスセンター","province":"東京都","city":"港区","address":"東京都港区虎ノ門1丁目21-10","lat":35.667795,"lon":139.748859},{"name":"芝高齢者在宅サービスセンター","province":"東京都","city":"港区","address":"東京都港区芝3丁目24-5","lat":35.651383,"lon":139.748122},{"name":"北青山高齢者在宅サービスセンター","province":"東京都","city":"港区","address":"東京都港区北青山1丁目6-1","lat":35.673525,"lon":139.721773},{"name":"北青山高齢者在宅サービスセンター","province":"東京都","city":"港区","address":"東京都港区北青山1丁目6-1","lat":35.673389,"lon":139.721759},{"name":"北青山高齢者在宅サービスセンター","province":"東京都","city":"港区","address":"東京都港区北青山1丁目6-1","lat":35.673454,"lon":139.721813},{"name":"北青山高齢者在宅サービスセンター","province":"東京都","city":"港区","address":"東京都港区北青山1丁目6-1","lat":35.673477,"lon":139.721799},{"name":"高齢者在宅サービスセンター港南の郷","province":"東京都","city":"港区","address":"東京都港区港南3丁目3-23","lat":35.633276,"lon":139.749242},{"name":"高齢者在宅サービスセンターサン・サン赤坂","province":"東京都","city":"港区","address":"東京都港区赤坂6丁目6-14","lat":35.669518,"lon":139.737582},{"name":"高齢者在宅サービスセンターサン・サン赤坂","province":"東京都","city":"港区","address":"東京都港区赤坂6丁目6-14","lat":35.669689,"lon":139.737447},{"name":"豊岡児童館","province":"東京都","city":"港区","address":"東京都港区三田5丁目7","lat":35.646634,"lon":139.739527},{"name":"高輪子ども中高生プラザ","province":"東京都","city":"港区","address":"東京都港区高輪1丁目4-35","lat":35.642465,"lon":139.734759},{"name":"高輪子ども中高生プラザ","province":"東京都","city":"港区","address":"東京都港区高輪1丁目4-35","lat":35.642402,"lon":139.734838},{"name":"高輪子ども中高生プラザ","province":"東京都","city":"港区","address":"東京都港区高輪1丁目4-35","lat":35.642427,"lon":139.734718},{"name":"高輪子ども中高生プラザ","province":"東京都","city":"港区","address":"東京都港区高輪1丁目4-35","lat":35.642536,"lon":139.73492},{"name":"ふれあいの湯","province":"東京都","city":"港区","address":"東京都港区芝2丁目2-18","lat":35.653068,"lon":139.752756},{"name":"シティハイツ神明","province":"東京都","city":"港区","address":"東京都港区浜松町1丁目13-1","lat":35.658879,"lon":139.756855},{"name":"シティハイツ港南","province":"東京都","city":"港区","address":"東京都港区港南3丁目3-17","lat":35.633034,"lon":139.749459},{"name":"シティハイツ港南","province":"東京都","city":"港区","address":"東京都港区港南3丁目3-17","lat":35.632935,"lon":139.749645},{"name":"シティハイツ港南","province":"東京都","city":"港区","address":"東京都港区港南3丁目3-17","lat":35.632987,"lon":139.749491},{"name":"シティハイツ桂坂","province":"東京都","city":"港区","address":"東京都港区高輪2丁目13-8","lat":35.634614,"lon":139.737889},{"name":"麻布十番公共駐車場","province":"東京都","city":"港区","address":"東京都港区麻布十番1丁目4-10","lat":35.657075,"lon":139.734435},{"name":"がん在宅緩和ケア支援センター","province":"東京都","city":"港区","address":"東京都港区白金台4丁目6-2","lat":35.638779,"lon":139.726622},{"name":"適応指導教室","province":"東京都","city":"港区","address":"東京都港区虎ノ門3丁目6-9","lat":35.665816,"lon":139.745903},{"name":"精神障害者支援センターあいはーと・みなと","province":"東京都","city":"港区","address":"東京都港区高輪1丁目4-8","lat":35.642967,"lon":139.734899},{"name":"児童相談所","province":"東京都","city":"港区","address":"東京都港区南青山5丁目7-12","lat":35.662527,"lon":139.713116},{"name":"札の辻スクエア","province":"東京都","city":"港区","address":"東京都港区芝5丁目36-4","lat":35.64496,"lon":139.744693},{"name":"アクアフィールド芝公園","province":"東京都","city":"港区","address":"東京都港区芝公園2丁目7-2","lat":35.65451,"lon":139.750678}]}