{"keyword":"浴場","data":[{"name":"港南小学校屋内プール","province":"東京都","city":"港区","address":"港区港南四丁目3番28号港区立港南小学校1階","lat":35.62957,"lon":139.749656,"URL":"<a href='https://www.city.minato.tokyo.jp/shisetsu/sport/sport/01.html' target='_blank'>https://www.city.minato.tokyo.jp/shisetsu/sport/sport/01.html</a>","分類":"スポーツ施設","地区":"芝浦港南地区","連絡先":"港南小学校屋内プール 電話番号:03-5460-9506 ファックス番号:03-5460-9506 (プール開放開始時刻30分前から終了時間まで)  生涯学習推進課スポーツ振興係 電話番号:03-3578-2750~2753 ファックス番号:03-3578-2749"},{"name":"高陵中学校屋内プール","province":"東京都","city":"港区","address":"港区西麻布四丁目14番8号港区立高陵中学校地下2階","lat":35.657139,"lon":139.720463,"URL":"<a href='https://www.city.minato.tokyo.jp/shisetsu/sport/sport/02.html' target='_blank'>https://www.city.minato.tokyo.jp/shisetsu/sport/sport/02.html</a>","分類":"スポーツ施設","地区":"麻布地区","連絡先":"高陵中学校屋内プール 電話番号:03-5464-7749 (プール開放開始時刻30分前から終了時間まで)  生涯学習推進課スポーツ振興係 電話番号:03-3578-2750~2753 ファックス番号:03-3578-2749"},{"name":"芝浦南ふ頭公園運動広場(かいがんぱ~く)","province":"東京都","city":"港区","address":"港区海岸三丁目33番20号","lat":35.637322,"lon":139.759891,"URL":"<a href='https://www.city.minato.tokyo.jp/shisetsu/sport/sport/03.html' target='_blank'>https://www.city.minato.tokyo.jp/shisetsu/sport/sport/03.html</a>","分類":"スポーツ施設","地区":"芝浦港南地区","連絡先":"電話:03-3452-4151"},{"name":"港区スポーツセンター","province":"東京都","city":"港区","address":"港区芝浦一丁目16番1号みなとパーク芝浦3~8階","lat":35.646408,"lon":139.751501,"URL":"<a href='https://www.city.minato.tokyo.jp/shisetsu/sport/sport/04.html' target='_blank'>https://www.city.minato.tokyo.jp/shisetsu/sport/sport/04.html</a>","分類":"スポーツ施設","地区":"芝浦港南地区","連絡先":"電話:03-3452-4151 ファックス:03-3452-4920"},{"name":"埠頭少年野球場","province":"東京都","city":"港区","address":"港区海岸三丁目14番34号","lat":35.641684,"lon":139.755597,"URL":"<a href='https://www.city.minato.tokyo.jp/shisetsu/sport/sport/05.html' target='_blank'>https://www.city.minato.tokyo.jp/shisetsu/sport/sport/05.html</a>","分類":"スポーツ施設","地区":"芝浦港南地区","連絡先":"電話番号:03-3451-3956 ファックス番号:03-3451-3956"},{"name":"麻布運動場","province":"東京都","city":"港区","address":"港区南麻布五丁目6番33号","lat":35.652458,"lon":139.727731,"URL":"<a href='https://www.city.minato.tokyo.jp/shisetsu/sport/sport/06.html' target='_blank'>https://www.city.minato.tokyo.jp/shisetsu/sport/sport/06.html</a>","分類":"スポーツ施設","地区":"麻布地区","連絡先":"電話番号:03-3446-6879 ファックス番号:03-3446-8679"},{"name":"青山運動場","province":"東京都","city":"港区","address":"港区南青山二丁目21番12号","lat":35.668957,"lon":139.718596,"URL":"<a href='https://www.city.minato.tokyo.jp/shisetsu/sport/sport/07.html' target='_blank'>https://www.city.minato.tokyo.jp/shisetsu/sport/sport/07.html</a>","分類":"スポーツ施設","地区":"赤坂地区","連絡先":"電話番号:03-3405-8383 ファックス番号:03-3405-1259"},{"name":"芝浦中央公園運動場(芝浦中央公園C面)","province":"東京都","city":"港区","address":"港区港南一丁目4番1号","lat":35.634584,"lon":139.746319,"URL":"<a href='https://www.city.minato.tokyo.jp/shisetsu/sport/sport/08.html' target='_blank'>https://www.city.minato.tokyo.jp/shisetsu/sport/sport/08.html</a>","分類":"スポーツ施設","地区":"芝浦港南地区","連絡先":"電話番号:03-3450-6343 ファックス番号:03-3450-6348"},{"name":"氷川武道場","province":"東京都","city":"港区","address":"港区赤坂六丁目6番14号","lat":35.669742,"lon":139.73769,"URL":"<a href='https://www.city.minato.tokyo.jp/shisetsu/sport/sport/10.html' target='_blank'>https://www.city.minato.tokyo.jp/shisetsu/sport/sport/10.html</a>","分類":"スポーツ施設","地区":"赤坂地区","連絡先":"電話番号:03-5561-7829 ファックス番号:03-5561-7835"},{"name":"本村小学校屋内プール","province":"東京都","city":"港区","address":"港区南麻布三丁目9番33号港区立本村小学校地下1階","lat":35.649869,"lon":139.729882,"URL":"<a href='https://www.city.minato.tokyo.jp/shisetsu/sport/sport/11.html' target='_blank'>https://www.city.minato.tokyo.jp/shisetsu/sport/sport/11.html</a>","分類":"スポーツ施設","地区":"麻布地区","連絡先":"本村小学校屋内プール 電話番号:03-5420-0980 (プール開放開始時刻30分前から終了時間まで)  生涯学習推進課スポーツ振興係 電話番号:03-3578-2750~2753 ファックス番号:03-3578-2749"},{"name":"赤坂小学校屋内プール","province":"東京都","city":"港区","address":"港区赤坂八丁目13番29号港区立赤坂小学校地下1階","lat":35.669238,"lon":139.731073,"URL":"<a href='https://www.city.minato.tokyo.jp/shisetsu/sport/sport/12.html' target='_blank'>https://www.city.minato.tokyo.jp/shisetsu/sport/sport/12.html</a>","分類":"スポーツ施設","地区":"赤坂地区","連絡先":"電話番号:03-3404-2943 (プール開放開始時刻30分前から終了時間まで)  生涯学習推進課スポーツ振興係 電話番号:03-3578-2750~2753 ファックス番号:03-3578-2749"},{"name":"御成門中学校屋内プール","province":"東京都","city":"港区","address":"港区西新橋三丁目25番30号港区立御成門中学校地下1階","lat":35.661661,"lon":139.750391,"URL":"<a href='https://www.city.minato.tokyo.jp/shisetsu/sport/sport/13.html' target='_blank'>https://www.city.minato.tokyo.jp/shisetsu/sport/sport/13.html</a>","分類":"スポーツ施設","地区":"芝地区","連絡先":"御成門中学校屋内プール 電話番号:03-3438-3494 ファックス番号:03-3438-3494 (プール開放開始時刻30分前から終了時間まで)  生涯学習推進課スポーツ振興係 電話番号:03-3578-2750~2753 ファックス番号:03-3578-2749"},{"name":"高松中学校屋内プール","province":"東京都","city":"港区","address":"港区高輪一丁目16番25号港区立高松中学校5階","lat":35.640655,"lon":139.734499,"URL":"<a href='https://www.city.minato.tokyo.jp/shisetsu/sport/sport/14.html' target='_blank'>https://www.city.minato.tokyo.jp/shisetsu/sport/sport/14.html</a>","分類":"スポーツ施設","地区":"高輪地区","連絡先":"高松中学校屋内プール 電話番号:03-3442-5278 (プール開放開始時刻30分前から終了時間まで)  生涯学習推進課スポーツ振興係 電話番号:03-3578-2750~2753 ファックス番号:03-3578-2749"},{"name":"お台場学園港陽中学校屋内プール","province":"東京都","city":"港区","address":"港区台場一丁目1番5号港区立港陽中学校地下1階","lat":35.634155,"lon":139.77713,"URL":"<a href='https://www.city.minato.tokyo.jp/shisetsu/sport/sport/15.html' target='_blank'>https://www.city.minato.tokyo.jp/shisetsu/sport/sport/15.html</a>","分類":"スポーツ施設","地区":"芝浦港南地区","連絡先":"港陽中学校屋内プール 電話番号:03-5500-2665 ファックス番号:03-5500-2665 (プール開放開始時刻30分前から終了時間まで)  生涯学習推進課スポーツ振興係 電話番号:03-3578-2750~2753 ファックス番号:03-3578-2749"},{"name":"芝公園多目的運動場(アクアフィールド芝公園)","province":"東京都","city":"港区","address":"港区芝公園二丁目7番2号","lat":35.654579,"lon":139.750659,"URL":"<a href='https://www.city.minato.tokyo.jp/shisetsu/sport/sport/16.html' target='_blank'>https://www.city.minato.tokyo.jp/shisetsu/sport/sport/16.html</a>","分類":"スポーツ施設","地区":"芝地区","連絡先":"アクアフィールド芝公園 電話番号:03-5733-0575 ファックス番号:03-5733-0565"},{"name":"健康増進センター(ヘルシーナ)","province":"東京都","city":"港区","address":"港区赤坂四丁目18番13号赤坂コミュニティーぷらざ6階","lat":35.674816,"lon":139.731629,"URL":"<a href='https://www.city.minato.tokyo.jp/shisetsu/sport/kenkozoshin/01.html' target='_blank'>https://www.city.minato.tokyo.jp/shisetsu/sport/kenkozoshin/01.html</a>","分類":"健康増進施設","地区":"赤坂地区","連絡先":"電話番号:03-5413-2717 ファックス番号:03-5413-2718"},{"name":"区立公衆浴場「ふれあいの湯」","province":"東京都","city":"港区","address":"港区芝二丁目2番18号","lat":35.653044,"lon":139.752746,"URL":"<a href='https://www.city.minato.tokyo.jp/shisetsu/sonota/koshuyokujo/01.html' target='_blank'>https://www.city.minato.tokyo.jp/shisetsu/sonota/koshuyokujo/01.html</a>","分類":"公衆浴場","地区":"芝地区","連絡先":"電話:03-5442-2639"}]}