{"keyword":"生涯","data":[{"name":"＊?生涯学習センター","province":"東京都","city":"港区","address":"港区新橋3-16-3","lat":35.665582,"lon":139.757069},{"name":"＊?青山生涯学習館","province":"東京都","city":"港区","address":"港区南青山4-18-17","lat":35.663546,"lon":139.717009},{"name":"みなと図書館","province":"東京都","city":"港区","address":"港区芝公園三丁目2番25号","lat":35.66002,"lon":139.750171,"URL":"<a href='https://www.city.minato.tokyo.jp/shisetsu/toshokan/toshokan/01.html' target='_blank'>https://www.city.minato.tokyo.jp/shisetsu/toshokan/toshokan/01.html</a>","分類":"図書館","地区":"芝地区","連絡先":"電話番号:03-3437-6621 ファックス番号:03-3437-6627"},{"name":"三田図書館","province":"東京都","city":"港区","address":"港区芝五丁目36番4号札の辻スクエア4階~6階","lat":35.647149,"lon":139.745214,"URL":"<a href='https://www.city.minato.tokyo.jp/shisetsu/toshokan/toshokan/02.html' target='_blank'>https://www.city.minato.tokyo.jp/shisetsu/toshokan/toshokan/02.html</a>","分類":"図書館","地区":"芝地区","連絡先":"電話番号:03-3452-4951 ファックス番号:03-3769-2363"},{"name":"麻布図書館","province":"東京都","city":"港区","address":"港区六本木五丁目12番24号","lat":35.657508,"lon":139.735818,"URL":"<a href='https://www.city.minato.tokyo.jp/shisetsu/toshokan/toshokan/03.html' target='_blank'>https://www.city.minato.tokyo.jp/shisetsu/toshokan/toshokan/03.html</a>","分類":"図書館","地区":"芝地区","連絡先":"電話番号:03-3585-9225 ファックス番号:03-3585-9228"},{"name":"赤坂図書館","province":"東京都","city":"港区","address":"港区南青山一丁目3番3号青山一丁目タワー3階","lat":35.671596,"lon":139.725328,"URL":"<a href='https://www.city.minato.tokyo.jp/shisetsu/toshokan/toshokan/04.html' target='_blank'>https://www.city.minato.tokyo.jp/shisetsu/toshokan/toshokan/04.html</a>","分類":"図書館","地区":"赤坂地区","連絡先":"電話番号:03-3408-5090 ファックス番号:03-3475-3918"},{"name":"高輪図書館","province":"東京都","city":"港区","address":"港区高輪一丁目16番25号高輪コミュニティーぷらざ3階","lat":35.642079,"lon":139.734035,"URL":"<a href='https://www.city.minato.tokyo.jp/shisetsu/toshokan/toshokan/05.html' target='_blank'>https://www.city.minato.tokyo.jp/shisetsu/toshokan/toshokan/05.html</a>","分類":"図書館","地区":"高輪地区","連絡先":"電話番号:03-5421-7617 ファックス番号:03-5421-7619"},{"name":"港南図書館","province":"東京都","city":"港区","address":"港区港南三丁目3番17号シティハイツ港南1階","lat":35.633141,"lon":139.749575,"URL":"<a href='https://www.city.minato.tokyo.jp/shisetsu/toshokan/toshokan/06.html' target='_blank'>https://www.city.minato.tokyo.jp/shisetsu/toshokan/toshokan/06.html</a>","分類":"図書館","地区":"芝浦港南地区","連絡先":"電話番号:03-3458-1085 ファックス番号:03-3458-1081"},{"name":"生涯学習センター(ばるーん)","province":"東京都","city":"港区","address":"港区新橋三丁目16番3号","lat":35.665603,"lon":139.757085,"URL":"<a href='https://www.city.minato.tokyo.jp/shisetsu/toshokan/shogaigakushu/01.html' target='_blank'>https://www.city.minato.tokyo.jp/shisetsu/toshokan/shogaigakushu/01.html</a>","分類":"生涯学習施設","地区":"芝地区","連絡先":"電話:03-3431-1606 ファックス:03-3431-1619"},{"name":"青山生涯学習館","province":"東京都","city":"港区","address":"港区南青山四丁目19番7号1階・2階放課GO→クラブせいなん併設","lat":35.664286,"lon":139.71689,"URL":"<a href='https://www.city.minato.tokyo.jp/shisetsu/toshokan/shogaigakushu/02.html' target='_blank'>https://www.city.minato.tokyo.jp/shisetsu/toshokan/shogaigakushu/02.html</a>","分類":"生涯学習施設","地区":"赤坂地区","連絡先":"電話:03-3470-4584 ファックス:03-3470-0856"},{"name":"高輪図書館分室","province":"東京都","city":"港区","address":"港区高輪一丁目4番35号高輪子ども中高生プラザ3階","lat":35.642412,"lon":139.734855,"URL":"<a href='https://www.city.minato.tokyo.jp/shisetsu/toshokan/toshokan/07.html' target='_blank'>https://www.city.minato.tokyo.jp/shisetsu/toshokan/toshokan/07.html</a>","分類":"図書館","地区":"高輪地区","連絡先":"電話番号:03-3443-1666 ファックス番号:03-3443-1668"},{"name":"台場図書館","province":"東京都","city":"港区","address":"港区台場一丁目5番1号台場コミュニティーぷらざ3階","lat":35.62996803013082,"lon":139.7770527375762,"URL":"<a href='https://www.city.minato.tokyo.jp/shisetsu/toshokan/toshokan/08.html' target='_blank'>https://www.city.minato.tokyo.jp/shisetsu/toshokan/toshokan/08.html</a>","分類":"図書館","地区":"芝浦港南地区","連絡先":"電話番号:03-5500-2356 ファックス番号:03-5500-3081"}]}