{"keyword":"福祉","data":[{"name":"港区芝地区総合支所","province":"東京都","city":"港区","address":"港区芝公園1-5-25","lat":35.65853,"lon":139.75154},{"name":"港区麻布地区総合支所","province":"東京都","city":"港区","address":"港区六本木5-16-45","lat":35.66081,"lon":139.73579},{"name":"港区赤坂地区総合支所","province":"東京都","city":"港区","address":"港区赤坂4-18-13","lat":35.6749,"lon":139.73186},{"name":"港区高輪地区総合支所","province":"東京都","city":"港区","address":"港区高輪1-16-25","lat":35.64091,"lon":139.73421},{"name":"港区芝浦港南地区総合支所","province":"東京都","city":"港区","address":"港区芝浦1-16-1","lat":35.6462,"lon":139.75166},{"name":"港区芝地区総合支所","province":"東京都","city":"港区","address":"港区芝公園1-5-25","lat":35.658015,"lon":139.751596},{"name":"港区麻布地区総合支所","province":"東京都","city":"港区","address":"港区六本木5-16-45","lat":35.660697,"lon":139.734967},{"name":"港区赤坂地区総合支所","province":"東京都","city":"港区","address":"港区赤坂4-18-13","lat":35.674748,"lon":139.731633},{"name":"港区高輪地区総合支所","province":"東京都","city":"港区","address":"港区高輪1-16-25","lat":35.641949,"lon":139.734104},{"name":"港区芝浦港南地区総合支所","province":"東京都","city":"港区","address":"港区芝浦1-16-1","lat":35.646635,"lon":139.751424},{"name":"三田いきいきプラザ","province":"東京都","city":"港区","address":"港区芝四丁目1番17号","lat":35.648901,"lon":139.749725,"URL":"<a href='https://www.city.minato.tokyo.jp/shisetsu/fukushi/ikiki/01.html' target='_blank'>https://www.city.minato.tokyo.jp/shisetsu/fukushi/ikiki/01.html</a>","分類":"いきいきプラザ","地区":"芝地区","連絡先":"電話:03-3452-9421 ファックス:03-3452-2018"},{"name":"虎ノ門いきいきプラザ(とらトピア)","province":"東京都","city":"港区","address":"港区虎ノ門一丁目21番10号","lat":35.667896,"lon":139.748736,"URL":"<a href='https://www.city.minato.tokyo.jp/shisetsu/fukushi/ikiki/02.html' target='_blank'>https://www.city.minato.tokyo.jp/shisetsu/fukushi/ikiki/02.html</a>","分類":"いきいきプラザ","地区":"芝地区","連絡先":"電話:03-3539-2941 ファックス:03-3539-2940"},{"name":"南麻布いきいきプラザ","province":"東京都","city":"港区","address":"港区南麻布一丁目5番26号","lat":35.651486,"lon":139.735051,"URL":"<a href='https://www.city.minato.tokyo.jp/shisetsu/fukushi/ikiki/05.html' target='_blank'>https://www.city.minato.tokyo.jp/shisetsu/fukushi/ikiki/05.html</a>","分類":"いきいきプラザ","地区":"麻布地区","連絡先":"電話:03-5232-9671 ファックス:03-5232-0568"},{"name":"麻布いきいきプラザ","province":"東京都","city":"港区","address":"港区元麻布三丁目9番6号","lat":35.656207,"lon":139.730752,"URL":"<a href='https://www.city.minato.tokyo.jp/shisetsu/fukushi/ikiki/07.html' target='_blank'>https://www.city.minato.tokyo.jp/shisetsu/fukushi/ikiki/07.html</a>","分類":"いきいきプラザ","地区":"麻布地区","連絡先":"電話:03-3408-7888 ファックス:03-3408-2585"},{"name":"西麻布いきいきプラザ","province":"東京都","city":"港区","address":"港区西麻布二丁目13番3号","lat":35.660781,"lon":139.722724,"URL":"<a href='https://www.city.minato.tokyo.jp/shisetsu/fukushi/ikiki/08.html' target='_blank'>https://www.city.minato.tokyo.jp/shisetsu/fukushi/ikiki/08.html</a>","分類":"いきいきプラザ","地区":"麻布地区","連絡先":"電話:03-3486-9166 ファックス:03-3486-9216"},{"name":"飯倉いきいきプラザ","province":"東京都","city":"港区","address":"港区東麻布二丁目16番11号","lat":35.656913,"lon":139.740984,"URL":"<a href='https://www.city.minato.tokyo.jp/shisetsu/fukushi/ikiki/09.html' target='_blank'>https://www.city.minato.tokyo.jp/shisetsu/fukushi/ikiki/09.html</a>","分類":"いきいきプラザ","地区":"麻布地区","連絡先":"電話:03-3583-6366 ファックス:03-3583-4339"},{"name":"赤坂いきいきプラザ","province":"東京都","city":"港区","address":"港区赤坂六丁目4番8号","lat":35.670363,"lon":139.734901,"URL":"<a href='https://www.city.minato.tokyo.jp/shisetsu/fukushi/ikiki/10.html' target='_blank'>https://www.city.minato.tokyo.jp/shisetsu/fukushi/ikiki/10.html</a>","分類":"いきいきプラザ","地区":"赤坂地区","連絡先":"電話:03-3583-1207 ファックス:03-3583-5627"},{"name":"青山いきいきプラザ","province":"東京都","city":"港区","address":"港区南青山二丁目16番5号","lat":35.669229,"lon":139.721248,"URL":"<a href='https://www.city.minato.tokyo.jp/shisetsu/fukushi/ikiki/11.html' target='_blank'>https://www.city.minato.tokyo.jp/shisetsu/fukushi/ikiki/11.html</a>","分類":"いきいきプラザ","地区":"赤坂地区","連絡先":"電話:03-3403-2011 ファックス:03-3403-3427"},{"name":"青南いきいきプラザ","province":"東京都","city":"港区","address":"港区南青山四丁目10番1号","lat":35.666534,"lon":139.717311,"URL":"<a href='https://www.city.minato.tokyo.jp/shisetsu/fukushi/ikiki/12.html' target='_blank'>https://www.city.minato.tokyo.jp/shisetsu/fukushi/ikiki/12.html</a>","分類":"いきいきプラザ","地区":"赤坂地区","連絡先":"電話:03-3423-4920 ファックス:03-3423-6158"},{"name":"豊岡いきいきプラザ","province":"東京都","city":"港区","address":"港区三田五丁目7番7号","lat":35.646551,"lon":139.739656,"URL":"<a href='https://www.city.minato.tokyo.jp/shisetsu/fukushi/ikiki/13.html' target='_blank'>https://www.city.minato.tokyo.jp/shisetsu/fukushi/ikiki/13.html</a>","分類":"いきいきプラザ","地区":"高輪地区","連絡先":"電話:03-3453-1591 ファックス:03-3453-3613"},{"name":"高輪いきいきプラザ","province":"東京都","city":"港区","address":"港区高輪三丁目18番15号","lat":35.633202,"lon":139.735579,"URL":"<a href='https://www.city.minato.tokyo.jp/shisetsu/fukushi/ikiki/14.html' target='_blank'>https://www.city.minato.tokyo.jp/shisetsu/fukushi/ikiki/14.html</a>","分類":"いきいきプラザ","地区":"高輪地区","連絡先":"電話:03-3449-1643 ファックス:03-3449-0783"},{"name":"白金いきいきプラザ","province":"東京都","city":"港区","address":"港区白金三丁目10番12号","lat":35.644938,"lon":139.731052,"URL":"<a href='https://www.city.minato.tokyo.jp/shisetsu/fukushi/ikiki/15.html' target='_blank'>https://www.city.minato.tokyo.jp/shisetsu/fukushi/ikiki/15.html</a>","分類":"いきいきプラザ","地区":"高輪地区","連絡先":"電話:03-3441-3680 ファックス:03-3444-9829"},{"name":"白金台いきいきプラザ","province":"東京都","city":"港区","address":"港区白金台四丁目8番5号","lat":35.63773,"lon":139.724966,"URL":"<a href='https://www.city.minato.tokyo.jp/shisetsu/fukushi/ikiki/16.html' target='_blank'>https://www.city.minato.tokyo.jp/shisetsu/fukushi/ikiki/16.html</a>","分類":"いきいきプラザ","地区":"高輪地区","連絡先":"電話:03-3440-4627 ファックス:03-3440-0795"},{"name":"港南いきいきプラザ(ゆとりーむ)","province":"東京都","city":"港区","address":"港区港南四丁目2番1号","lat":35.629675,"lon":139.747065,"URL":"<a href='https://www.city.minato.tokyo.jp/shisetsu/fukushi/ikiki/17.html' target='_blank'>https://www.city.minato.tokyo.jp/shisetsu/fukushi/ikiki/17.html</a>","分類":"いきいきプラザ","地区":"芝浦港南地区","連絡先":"電話:03-3450-9915 ファックス:03-3450-9916"},{"name":"特別養護老人ホーム 白金の森","province":"東京都","city":"港区","address":"港区白金台五丁目20番5号","lat":35.637152,"lon":139.721938,"URL":"<a href='https://www.city.minato.tokyo.jp/shisetsu/fukushi/tokubetsuyogo/01.html' target='_blank'>https://www.city.minato.tokyo.jp/shisetsu/fukushi/tokubetsuyogo/01.html</a>","分類":"特別養護老人ホーム","地区":"高輪地区","連絡先":"電話:03-3449-9611 ファックス:03-3449-9617"},{"name":"特別養護老人ホーム サン・サン赤坂","province":"東京都","city":"港区","address":"港区赤坂六丁目6番14号","lat":35.6698,"lon":139.737543,"URL":"<a href='https://www.city.minato.tokyo.jp/shisetsu/fukushi/tokubetsuyogo/03.html' target='_blank'>https://www.city.minato.tokyo.jp/shisetsu/fukushi/tokubetsuyogo/03.html</a>","分類":"特別養護老人ホーム","地区":"赤坂地区","連絡先":"電話:03-5561-7833 ファックス:03-5561-7837"},{"name":"特別養護老人ホーム 麻布慶福苑(社会福祉法人)","province":"東京都","city":"港区","address":"港区南麻布五丁目1番20号","lat":35.653729,"lon":139.721839,"URL":"<a href='https://www.city.minato.tokyo.jp/shisetsu/fukushi/tokubetsuyogo/04.html' target='_blank'>https://www.city.minato.tokyo.jp/shisetsu/fukushi/tokubetsuyogo/04.html</a>","分類":"特別養護老人ホーム","地区":"麻布地区","連絡先":"電話:03-3446-5501 ファックス:03-3443-8466"},{"name":"特別養護老人ホーム 新橋さくらの園(社会福祉法人)","province":"東京都","city":"港区","address":"港区新橋六丁目19番2号","lat":35.661263,"lon":139.753727,"URL":"<a href='https://www.city.minato.tokyo.jp/shisetsu/fukushi/tokubetsuyogo/06.html' target='_blank'>https://www.city.minato.tokyo.jp/shisetsu/fukushi/tokubetsuyogo/06.html</a>","分類":"特別養護老人ホーム","地区":"芝地区","連絡先":"電話:03-3433-0183 ファックス:03-3433-7320"},{"name":"特別養護老人ホーム ありすの杜きのこ南麻布(社会福祉法人)","province":"東京都","city":"港区","address":"港区南麻布四丁目6番1号","lat":35.650605,"lon":139.726712,"URL":"<a href='https://www.city.minato.tokyo.jp/shisetsu/fukushi/tokubetsuyogo/07.html' target='_blank'>https://www.city.minato.tokyo.jp/shisetsu/fukushi/tokubetsuyogo/07.html</a>","分類":"特別養護老人ホーム","地区":"麻布地区","連絡先":"電話:03-5739-0585 ファックス:03-3445-5309"},{"name":"特別養護老人ホーム 洛和ヴィラ南麻布(社会福祉法人)","province":"東京都","city":"港区","address":"港区南麻布四丁目6番1号","lat":35.650409,"lon":139.726798,"URL":"<a href='https://www.city.minato.tokyo.jp/shisetsu/fukushi/tokubetsuyogo/08.html' target='_blank'>https://www.city.minato.tokyo.jp/shisetsu/fukushi/tokubetsuyogo/08.html</a>","分類":"特別養護老人ホーム","地区":"麻布地区","連絡先":"電話:03-6408-8677 ファックス:03-5420-8711"},{"name":"虎ノ門高齢者在宅サービスセンター","province":"東京都","city":"港区","address":"港区虎ノ門一丁目21番10号","lat":35.667905,"lon":139.748725,"URL":"<a href='https://www.city.minato.tokyo.jp/shisetsu/fukushi/k-zaitaku/01.html' target='_blank'>https://www.city.minato.tokyo.jp/shisetsu/fukushi/k-zaitaku/01.html</a>","分類":"高齢者在宅サービスセンター(デイサービスセンター)","地区":"芝地区","連絡先":"電話:03-3539-3710 ファックス:03-3539-3709"},{"name":"高齢者在宅サービスセンター 白金の森","province":"東京都","city":"港区","address":"港区白金台五丁目20番5号","lat":35.637143,"lon":139.721954,"URL":"<a href='https://www.city.minato.tokyo.jp/shisetsu/fukushi/k-zaitaku/02.html' target='_blank'>https://www.city.minato.tokyo.jp/shisetsu/fukushi/k-zaitaku/02.html</a>","分類":"高齢者在宅サービスセンター(デイサービスセンター)","地区":"高輪地区","連絡先":"電話:03-3449-9615 ファックス:03-3442-3110"},{"name":"高齢者在宅サービスセンター 港南の郷","province":"東京都","city":"港区","address":"港区港南三丁目3番23号","lat":35.633385,"lon":139.749232,"URL":"<a href='https://www.city.minato.tokyo.jp/shisetsu/fukushi/k-zaitaku/03.html' target='_blank'>https://www.city.minato.tokyo.jp/shisetsu/fukushi/k-zaitaku/03.html</a>","分類":"高齢者在宅サービスセンター(デイサービスセンター)","地区":"芝浦港南地区","連絡先":"電話:03-3450-5571 ファックス:03-3450-3368"},{"name":"高齢者在宅サービスセンター サン・サン赤坂","province":"東京都","city":"港区","address":"港区赤坂六丁目6番14号","lat":35.670057,"lon":139.73765,"URL":"<a href='https://www.city.minato.tokyo.jp/shisetsu/fukushi/k-zaitaku/04.html' target='_blank'>https://www.city.minato.tokyo.jp/shisetsu/fukushi/k-zaitaku/04.html</a>","分類":"高齢者在宅サービスセンター(デイサービスセンター)","地区":"赤坂地区","連絡先":"電話:03-5561-7831 ファックス:03-5561-7837"},{"name":"南麻布高齢者在宅サービスセンター","province":"東京都","city":"港区","address":"港区南麻布一丁目5番26号","lat":35.651486,"lon":139.735051,"URL":"<a href='https://www.city.minato.tokyo.jp/shisetsu/fukushi/k-zaitaku/05.html' target='_blank'>https://www.city.minato.tokyo.jp/shisetsu/fukushi/k-zaitaku/05.html</a>","分類":"高齢者在宅サービスセンター(デイサービスセンター)","地区":"高輪地区","連絡先":"電話:03-5232-9672 ファックス:03-5232-9675"},{"name":"台場高齢者在宅サービスセンター","province":"東京都","city":"港区","address":"港区台場一丁目5番5号","lat":35.630669,"lon":139.777969,"URL":"<a href='https://www.city.minato.tokyo.jp/shisetsu/fukushi/k-zaitaku/06.html' target='_blank'>https://www.city.minato.tokyo.jp/shisetsu/fukushi/k-zaitaku/06.html</a>","分類":"高齢者在宅サービスセンター(デイサービスセンター)","地区":"芝浦港南地区","連絡先":"電話:03-5531-0520 ファックス:03-5531-0523"},{"name":"北青山高齢者在宅サービスセンター","province":"東京都","city":"港区","address":"港区北青山一丁目6番1号","lat":35.673644,"lon":139.72167,"URL":"<a href='https://www.city.minato.tokyo.jp/shisetsu/fukushi/k-zaitaku/07.html' target='_blank'>https://www.city.minato.tokyo.jp/shisetsu/fukushi/k-zaitaku/07.html</a>","分類":"高齢者在宅サービスセンター(デイサービスセンター)","地区":"赤坂地区","連絡先":"電話:03-5410-3410 ファックス:03-5410-3418"},{"name":"芝高齢者在宅サービスセンター","province":"東京都","city":"港区","address":"港区芝三丁目24番5号","lat":35.651516,"lon":139.748084,"URL":"<a href='https://www.city.minato.tokyo.jp/shisetsu/fukushi/k-zaitaku/08.html' target='_blank'>https://www.city.minato.tokyo.jp/shisetsu/fukushi/k-zaitaku/08.html</a>","分類":"高齢者在宅サービスセンター(デイサービスセンター)","地区":"芝地区","連絡先":"電話:03-5232-0848 ファックス:03-5446-5857"},{"name":"デイサービスセンター 新橋さくらの園(社会福祉法人)","province":"東京都","city":"港区","address":"港区新橋六丁目19番2号","lat":35.66128,"lon":139.75369,"URL":"<a href='https://www.city.minato.tokyo.jp/shisetsu/fukushi/k-zaitaku/10.html' target='_blank'>https://www.city.minato.tokyo.jp/shisetsu/fukushi/k-zaitaku/10.html</a>","分類":"高齢者在宅サービスセンター(デイサービスセンター)","地区":"芝地区","連絡先":"電話:03-3433-0185 ファックス:03-3433-7320"},{"name":"小規模多機能型居宅介護施設 ありすの杜きのこ南麻布(社会福祉法人)","province":"東京都","city":"港区","address":"港区南麻布四丁目6番1号","lat":35.650396,"lon":139.726798,"URL":"<a href='https://www.city.minato.tokyo.jp/shisetsu/fukushi/k-zaitaku/11.html' target='_blank'>https://www.city.minato.tokyo.jp/shisetsu/fukushi/k-zaitaku/11.html</a>","分類":"小規模多機能型居宅介護施設","地区":"麻布地区","連絡先":"電話:03-5739-0585 ファックス:03-3445-5309"},{"name":"デイサービスセンター 洛和デイセンター南麻布(社会福祉法人)","province":"東京都","city":"港区","address":"港区南麻布四丁目6番1号","lat":35.650383,"lon":139.726835,"URL":"<a href='https://www.city.minato.tokyo.jp/shisetsu/fukushi/k-zaitaku/12.html' target='_blank'>https://www.city.minato.tokyo.jp/shisetsu/fukushi/k-zaitaku/12.html</a>","分類":"高齢者在宅サービスセンター(デイサービスセンター)","地区":"麻布地区","連絡先":"電話:03-6408-8966 ファックス:03-5420-8711"},{"name":"デイサービスセンター みたて(社会福祉法人)","province":"東京都","city":"港区","address":"港区港南四丁目5番3号","lat":35.626636,"lon":139.746518,"URL":"<a href='https://www.city.minato.tokyo.jp/shisetsu/fukushi/k-zaitaku/13.html' target='_blank'>https://www.city.minato.tokyo.jp/shisetsu/fukushi/k-zaitaku/13.html</a>","分類":"高齢者在宅サービスセンター(デイサービスセンター)","地区":"芝浦港南地区","連絡先":"電話:03-5463-8521 ファックス:03-5463-8522"},{"name":"芝地区高齢者相談センター(芝地域包括支援センター)","province":"東京都","city":"港区","address":"港区芝三丁目24番5号","lat":35.651377,"lon":139.748148,"URL":"<a href='https://www.city.minato.tokyo.jp/shisetsu/fukushi/k-sodan/01.html' target='_blank'>https://www.city.minato.tokyo.jp/shisetsu/fukushi/k-sodan/01.html</a>","分類":"高齢者相談センター(地域包括支援センター)","地区":"芝地区","連絡先":"電話:03-5232-0840(代表) ファックス:03-5446-5857"},{"name":"麻布地区高齢者相談センター(南麻布地域包括支援センター)","province":"東京都","city":"港区","address":"港区南麻布一丁目5番26号","lat":35.651486,"lon":139.735051,"URL":"<a href='https://www.city.minato.tokyo.jp/shisetsu/fukushi/k-sodan/02.html' target='_blank'>https://www.city.minato.tokyo.jp/shisetsu/fukushi/k-sodan/02.html</a>","分類":"高齢者相談センター(地域包括支援センター)","地区":"麻布地区","連絡先":"電話:03-3453-8032(代表) ファックス:03-3453-6269"},{"name":"赤坂地区高齢者相談センター(北青山地域包括支援センター)","province":"東京都","city":"港区","address":"港区北青山一丁目6番1号","lat":35.673644,"lon":139.721696,"URL":"<a href='https://www.city.minato.tokyo.jp/shisetsu/fukushi/k-sodan/03.html' target='_blank'>https://www.city.minato.tokyo.jp/shisetsu/fukushi/k-sodan/03.html</a>","分類":"高齢者相談センター(地域包括支援センター)","地区":"赤坂地区","連絡先":"電話:03-5410-3415(代表) ファックス:03-5410-3417"},{"name":"高輪地区高齢者相談センター(地域包括支援センター白金の森)","province":"東京都","city":"港区","address":"港区白金台五丁目20番5号","lat":35.637102,"lon":139.721965,"URL":"<a href='https://www.city.minato.tokyo.jp/shisetsu/fukushi/k-sodan/04.html' target='_blank'>https://www.city.minato.tokyo.jp/shisetsu/fukushi/k-sodan/04.html</a>","分類":"高齢者相談センター(地域包括支援センター)","地区":"高輪地区","連絡先":"電話:03-3449-9669(代表) ファックス:03-3449-9668"},{"name":"芝浦港南地区高齢者相談センター(地域包括支援センター港南の郷)","province":"東京都","city":"港区","address":"港区港南三丁目3番23号","lat":35.633377,"lon":139.749243,"URL":"<a href='https://www.city.minato.tokyo.jp/shisetsu/fukushi/k-sodan/05.html' target='_blank'>https://www.city.minato.tokyo.jp/shisetsu/fukushi/k-sodan/05.html</a>","分類":"高齢者相談センター(地域包括支援センター)","地区":"芝浦港南地区","連絡先":"電話番号:03-3450-5905 ファックス番号:03-3450-5909"},{"name":"高齢者集合住宅 ピア白金","province":"東京都","city":"港区","address":"港区白金一丁目28番13号","lat":35.643687,"lon":139.733571,"URL":"<a href='https://www.city.minato.tokyo.jp/shisetsu/fukushi/k-shugojutaku/01.html' target='_blank'>https://www.city.minato.tokyo.jp/shisetsu/fukushi/k-shugojutaku/01.html</a>","分類":"高齢者集合住宅","地区":"高輪地区","連絡先":"高齢者支援課 高齢者施設係 電話:(代表)03-3578-2111  03-3473-2507"},{"name":"高齢者集合住宅 フィオーレ白金","province":"東京都","city":"港区","address":"港区白金三丁目10番11号","lat":35.644975,"lon":139.731387,"URL":"<a href='https://www.city.minato.tokyo.jp/shisetsu/fukushi/k-shugojutaku/02.html' target='_blank'>https://www.city.minato.tokyo.jp/shisetsu/fukushi/k-shugojutaku/02.html</a>","分類":"高齢者集合住宅","地区":"高輪地区","連絡先":"高齢者支援課 高齢者施設係 電話:(代表)03-3578-2111  03-5420-3710"},{"name":"高齢者集合住宅 はなみずき白金","province":"東京都","city":"港区","address":"港区白金三丁目3番3号","lat":35.646534,"lon":139.729271,"URL":"<a href='https://www.city.minato.tokyo.jp/shisetsu/fukushi/k-shugojutaku/03.html' target='_blank'>https://www.city.minato.tokyo.jp/shisetsu/fukushi/k-shugojutaku/03.html</a>","分類":"高齢者集合住宅","地区":"高輪地区","連絡先":"高齢者支援課 高齢者施設係 電話:(代表)03-3578-2111  03-3443-5810"},{"name":"高齢者集合住宅 はなみずき三田","province":"東京都","city":"港区","address":"港区三田一丁目11番14号","lat":35.653862,"lon":139.739624,"URL":"<a href='https://www.city.minato.tokyo.jp/shisetsu/fukushi/k-shugojutaku/04.html' target='_blank'>https://www.city.minato.tokyo.jp/shisetsu/fukushi/k-shugojutaku/04.html</a>","分類":"高齢者集合住宅","地区":"芝地区","連絡先":"高齢者支援課 高齢者施設係 電話:(代表)03-3578-2111  03-3453-7695"},{"name":"福祉事務所(芝地区総合支所内)","province":"東京都","city":"港区","address":"港区芝公園一丁目5番25号","lat":35.658066,"lon":139.751587,"URL":"<a href='https://www.city.minato.tokyo.jp/shisetsu/fukushi/fukushi/01.html' target='_blank'>https://www.city.minato.tokyo.jp/shisetsu/fukushi/fukushi/01.html</a>","分類":"福祉事務所","地区":"芝地区","連絡先":"電話:03-3578-3111(代表) ファックス:03-3578-3183"},{"name":"福祉事務所(麻布地区総合支所内)","province":"東京都","city":"港区","address":"港区六本木五丁目16番45号","lat":35.660731,"lon":139.735054,"URL":"<a href='https://www.city.minato.tokyo.jp/shisetsu/fukushi/fukushi/02.html' target='_blank'>https://www.city.minato.tokyo.jp/shisetsu/fukushi/fukushi/02.html</a>","分類":"福祉事務所","地区":"麻布地区","連絡先":"電話:03-3583-4151(代表) ファックス:03-3583-3782"},{"name":"福祉事務所(赤坂地区総合支所内)","province":"東京都","city":"港区","address":"港区赤坂四丁目18番13号","lat":35.67486,"lon":139.731626,"URL":"<a href='https://www.city.minato.tokyo.jp/shisetsu/fukushi/fukushi/03.html' target='_blank'>https://www.city.minato.tokyo.jp/shisetsu/fukushi/fukushi/03.html</a>","分類":"福祉事務所","地区":"赤坂地区","連絡先":"電話:03-5413-7011(代表) ファックス:03-5413-2019(管理課及び協働推進課) ファックス:03-3402-8192(区民課)"},{"name":"福祉事務所(高輪地区総合支所内)","province":"東京都","city":"港区","address":"港区高輪一丁目16番25号","lat":35.642035,"lon":139.734043,"URL":"<a href='https://www.city.minato.tokyo.jp/shisetsu/fukushi/fukushi/04.html' target='_blank'>https://www.city.minato.tokyo.jp/shisetsu/fukushi/fukushi/04.html</a>","分類":"福祉事務所","地区":"高輪地区","連絡先":"電話:03-5421-7611(代表) ファックス:03-5421-7613"},{"name":"福祉事務所(芝浦港南地区総合支所内)","province":"東京都","city":"港区","address":"港区芝浦一丁目16番1号","lat":35.645775,"lon":139.749012,"URL":"<a href='https://www.city.minato.tokyo.jp/shisetsu/fukushi/fukushi/05.html' target='_blank'>https://www.city.minato.tokyo.jp/shisetsu/fukushi/fukushi/05.html</a>","分類":"福祉事務所","地区":"芝浦港南地区","連絡先":"電話:03-3456-4151(代表) ファックス:03-5445-4590"},{"name":"ケアハウス 港南の郷","province":"東京都","city":"港区","address":"港区港南三丁目3番23号","lat":35.633385,"lon":139.749243,"URL":"<a href='https://www.city.minato.tokyo.jp/shisetsu/fukushi/care-house/01.html' target='_blank'>https://www.city.minato.tokyo.jp/shisetsu/fukushi/care-house/01.html</a>","分類":"ケアハウス","地区":"芝浦港南地区","連絡先":"電話番号:03-3450-5950 ファックス番号:03-3450-5577"},{"name":"ケアハウス ありすの杜きのこ南麻布","province":"東京都","city":"港区","address":"港区南麻布四丁目6番1号","lat":35.650392,"lon":139.726825,"URL":"<a href='https://www.city.minato.tokyo.jp/shisetsu/fukushi/care-house/02.html' target='_blank'>https://www.city.minato.tokyo.jp/shisetsu/fukushi/care-house/02.html</a>","分類":"ケアハウス","地区":"麻布地区","連絡先":"電話:03-5739-0595 ファックス:03-3445-5309"},{"name":"老人保健施設 ルネサンス麻布","province":"東京都","city":"港区","address":"港区南麻布二丁目10番21号","lat":35.647968,"lon":139.735153,"URL":"<a href='https://www.city.minato.tokyo.jp/shisetsu/fukushi/rojinhoken/01.html' target='_blank'>https://www.city.minato.tokyo.jp/shisetsu/fukushi/rojinhoken/01.html</a>","分類":"老人保健施設(介護老人保健施設)","地区":"麻布地区","連絡先":"電話:03-3453-5015 ファックス:03-3453-5026"},{"name":"老人保健施設 新橋ばらの園","province":"東京都","city":"港区","address":"港区新橋六丁目19番2号","lat":35.661258,"lon":139.7537,"URL":"<a href='https://www.city.minato.tokyo.jp/shisetsu/fukushi/rojinhoken/02.html' target='_blank'>https://www.city.minato.tokyo.jp/shisetsu/fukushi/rojinhoken/02.html</a>","分類":"老人保健施設(介護老人保健施設)","地区":"芝地区","連絡先":"電話:03-3433-0182"},{"name":"老人保健施設 洛和ヴィラサラサ","province":"東京都","city":"港区","address":"港区南麻布四丁目6番1号","lat":35.650392,"lon":139.726819,"URL":"<a href='https://www.city.minato.tokyo.jp/shisetsu/fukushi/rojinhoken/03.html' target='_blank'>https://www.city.minato.tokyo.jp/shisetsu/fukushi/rojinhoken/03.html</a>","分類":"老人保健施設(介護老人保健施設)","地区":"麻布地区","連絡先":"電話:03-6408-8677 ファックス:03-5420-8711"},{"name":"グループホーム すこやかの家みたて","province":"東京都","city":"港区","address":"港区港南四丁目5番3号","lat":35.62664,"lon":139.746475,"URL":"<a href='https://www.city.minato.tokyo.jp/shisetsu/fukushi/ninchisho/01.html' target='_blank'>https://www.city.minato.tokyo.jp/shisetsu/fukushi/ninchisho/01.html</a>","分類":"認知症高齢者グループホーム","地区":"芝浦港南地区","連絡先":"電話:03-5463-8735 ファックス:03-5463-8736"},{"name":"グループホーム しろかね","province":"東京都","city":"港区","address":"港区白金三丁目3番1号","lat":35.646418,"lon":139.729099,"URL":"<a href='https://www.city.minato.tokyo.jp/shisetsu/fukushi/ninchisho/02.html' target='_blank'>https://www.city.minato.tokyo.jp/shisetsu/fukushi/ninchisho/02.html</a>","分類":"認知症高齢者グループホーム","地区":"高輪地区","連絡先":"電話:03-5447-1573 ファックス:03-3440-6271"},{"name":"グループホーム 青山","province":"東京都","city":"港区","address":"港区南青山一丁目3番16号","lat":35.671289,"lon":139.725545,"URL":"<a href='https://www.city.minato.tokyo.jp/shisetsu/fukushi/ninchisho/03.html' target='_blank'>https://www.city.minato.tokyo.jp/shisetsu/fukushi/ninchisho/03.html</a>","分類":"認知症高齢者グループホーム","地区":"赤坂地区","連絡先":"電話:03-3402-3155 ファックス:03-3402-3155"},{"name":"グループホーム ありすの杜きのこ南麻布","province":"東京都","city":"港区","address":"港区南麻布四丁目6番1号","lat":35.650392,"lon":139.726793,"URL":"<a href='https://www.city.minato.tokyo.jp/shisetsu/fukushi/ninchisho/04.html' target='_blank'>https://www.city.minato.tokyo.jp/shisetsu/fukushi/ninchisho/04.html</a>","分類":"認知症高齢者グループホーム","地区":"麻布地区","連絡先":"電話:03-5739-0585 ファックス:03-3445-5309"},{"name":"グループリビング みたて","province":"東京都","city":"港区","address":"港区港南四丁目5番3号","lat":35.626636,"lon":139.746469,"URL":"<a href='https://www.city.minato.tokyo.jp/shisetsu/fukushi/group-living/01.html' target='_blank'>https://www.city.minato.tokyo.jp/shisetsu/fukushi/group-living/01.html</a>","分類":"高齢者グループリビング(見守りつき住宅)","地区":"芝浦港南地区","連絡先":"電話:03-5783-5120 ファックス:03-5783-5122"},{"name":"障害保健福祉センター(ヒューマンぷらざ)","province":"東京都","city":"港区","address":"港区芝一丁目8番23号","lat":35.651717,"lon":139.755562,"URL":"<a href='https://www.city.minato.tokyo.jp/shisetsu/fukushi/shogaisha/02.html' target='_blank'>https://www.city.minato.tokyo.jp/shisetsu/fukushi/shogaisha/02.html</a>","分類":"障害者施設","地区":"芝地区","連絡先":"電話:03-5439-2511(代表) ファックス:03-5439-2514"},{"name":"精神障害者支援センター(あいはーと・みなと)","province":"東京都","city":"港区","address":"港区高輪一丁目4番8号","lat":35.64310812761594,"lon":139.7350310484885,"URL":"<a href='https://www.city.minato.tokyo.jp/shisetsu/fukushi/shogaisha/03.html' target='_blank'>https://www.city.minato.tokyo.jp/shisetsu/fukushi/shogaisha/03.html</a>","分類":"障害者施設","地区":"高輪地区","連絡先":"電話:03-5449-6455 ファックス:03-5424-1391"},{"name":"神明いきいきプラザ","province":"東京都","city":"港区","address":"港区浜松町一丁目6番7号","lat":35.658791,"lon":139.757595,"URL":"<a href='https://www.city.minato.tokyo.jp/shisetsu/fukushi/ikiki/18.html' target='_blank'>https://www.city.minato.tokyo.jp/shisetsu/fukushi/ikiki/18.html</a>","分類":"いきいきプラザ","地区":"芝地区","連絡先":"電話:03-3436-2500 ファックス:03-3436-2510"},{"name":"ありすいきいきプラザ","province":"東京都","city":"港区","address":"港区南麻布四丁目6番7号","lat":35.650799,"lon":139.727458,"URL":"<a href='https://www.city.minato.tokyo.jp/shisetsu/fukushi/ikiki/19.html' target='_blank'>https://www.city.minato.tokyo.jp/shisetsu/fukushi/ikiki/19.html</a>","分類":"いきいきプラザ","地区":"麻布地区","連絡先":"電話:03-3444-3656 ファックス:03-3444-3298"},{"name":"介護予防総合センター(ラクっちゃ)","province":"東京都","city":"港区","address":"港区芝浦一丁目16番1号","lat":35.646408,"lon":139.751501,"URL":"<a href='https://www.city.minato.tokyo.jp/shisetsu/fukushi/rakutya.html' target='_blank'>https://www.city.minato.tokyo.jp/shisetsu/fukushi/rakutya.html</a>","分類":"介護予防総合センター(ラクっちゃ)","地区":"芝浦港南地区","連絡先":"電話:03-3456-4157 ファックス:03-3456-4153"},{"name":"小規模多機能型居宅介護施設 こゆらり高輪(株式会社)","province":"東京都","city":"港区","address":"港区高輪1丁目5番38号","lat":35.641669,"lon":139.736665,"URL":"<a href='https://www.city.minato.tokyo.jp/shisetsu/fukushi/k-zaitaku/15.html' target='_blank'>https://www.city.minato.tokyo.jp/shisetsu/fukushi/k-zaitaku/15.html</a>","分類":"小規模多機能型居宅介護施設","地区":"高輪地区","連絡先":"電話:03-5422-6921 ファックス:03-5422-6981"},{"name":"特別養護老人ホーム 南麻布シニアガーデン アリス","province":"東京都","city":"港区","address":"港区南麻布四丁目6番13号","lat":35.650549,"lon":139.727514,"URL":"<a href='https://www.city.minato.tokyo.jp/shisetsu/fukushi/tokubetsuyogo/09.html' target='_blank'>https://www.city.minato.tokyo.jp/shisetsu/fukushi/tokubetsuyogo/09.html</a>","分類":"特別養護老人ホーム","地区":"麻布地区","連絡先":"電話:03-5843-0975 ファックス:03-5843-0976"},{"name":"障害者支援ホーム南麻布(ホーム南部坂ありす)","province":"東京都","city":"港区","address":"港区南麻布四丁目6番13号","lat":35.650303,"lon":139.726224,"URL":"<a href='https://www.city.minato.tokyo.jp/shisetsu/fukushi/shogaisha/04.html' target='_blank'>https://www.city.minato.tokyo.jp/shisetsu/fukushi/shogaisha/04.html</a>","分類":"障害者施設","地区":"麻布地区","連絡先":"電話:03-6455-7797 ファックス:03-6455-7798"},{"name":"児童発達支援センター(ぱお)","province":"東京都","city":"港区","address":"港区南麻布四丁目6番13号","lat":35.650308,"lon":139.726235,"URL":"<a href='https://www.city.minato.tokyo.jp/shisetsu/fukushi/shogaisha/05.html' target='_blank'>https://www.city.minato.tokyo.jp/shisetsu/fukushi/shogaisha/05.html</a>","分類":"障害者施設","地区":"麻布地区","連絡先":"電話:03-6277-3106 ファックス:03-6277-3844"},{"name":"神応いきいきプラザ","province":"東京都","city":"港区","address":"港区白金六丁目9番5号神応ほっとプラザ4階","lat":35.64365287736521,"lon":139.7245772117504,"URL":"<a href='https://www.city.minato.tokyo.jp/shisetsu/fukushi/ikiki/20.html' target='_blank'>https://www.city.minato.tokyo.jp/shisetsu/fukushi/ikiki/20.html</a>","分類":"いきいきプラザ","地区":"高輪地区","連絡先":"電話:03-5422-8848 ファックス:03-5447-0078"}]}