{"keyword":"総務","data":[{"name":"都立芝公園グラウンド","province":"東京都","city":"港区","address":"東京都港区芝公園1丁目","lat":35.65760623,"lon":139.75195171},{"name":"港区立麻布運動場・野球場","province":"東京都","city":"港区","address":"東京都港区南麻布5丁目6-33","lat":35.65242008,"lon":139.72772071},{"name":"聖心女子学院グラウンド","province":"東京都","city":"港区","address":"東京都港区白金4丁目11-1","lat":35.64241563,"lon":139.72635453},{"name":"国立大学法人東京海洋大学グラウンド","province":"東京都","city":"港区","address":"東京都港区港南4丁目5-7","lat":35.6269708,"lon":139.74764492},{"name":"迎賓館ヘリポート","province":"東京都","city":"港区","address":"東京都港区元赤坂2丁目","lat":35.67849212,"lon":139.72208963},{"name":"計量検定所","province":"東京都","city":"港区","address":"東京都港区海岸1丁目7-4","lat":35.65533448,"lon":139.76116768},{"name":"島しょ農林水産総合センター","province":"東京都","city":"港区","address":"東京都港区海岸2丁目7-104","lat":35.65068776,"lon":139.76047345},{"name":"産業貿易センター浜松町館","province":"東京都","city":"港区","address":"東京都港区海岸1丁目7-8","lat":35.65482622,"lon":139.76147045},{"name":"東京港建設事務所","province":"東京都","city":"港区","address":"東京都港区港南3丁目9-56","lat":35.63343128,"lon":139.75198321},{"name":"台場フロンティアビル","province":"東京都","city":"港区","address":"東京都港区台場2丁目3-2","lat":35.6286435,"lon":139.7778532},{"name":"ニューピア竹芝ノースタワー（ニューピアホール）","province":"東京都","city":"港区","address":"東京都港区海岸1丁目11-1","lat":35.65570119,"lon":139.76375079},{"name":"三田高等学校","province":"東京都","city":"港区","address":"東京都港区三田1丁目4-46","lat":35.65236491,"lon":139.7434554},{"name":"芝商業高等学校","province":"東京都","city":"港区","address":"東京都港区海岸1丁目8-25","lat":35.65652323,"lon":139.76054825},{"name":"六本木高等学校","province":"東京都","city":"港区","address":"東京都港区六本木6丁目16-36","lat":35.65773624,"lon":139.73120909},{"name":"東京都立中央図書館","province":"東京都","city":"港区","address":"東京都港区南麻布5丁目7-13","lat":35.65211452,"lon":139.72637084},{"name":"ホテルアジュール竹芝","province":"東京都","city":"港区","address":"東京都港区海岸1丁目11-2","lat":35.655304,"lon":139.76326473}]}