{"keyword":"緑地","data":[{"name":"本芝公園","province":"東京都","city":"港区","address":"港区芝四丁目15番1号","lat":35.647275,"lon":139.750482,"URL":"<a href='https://www.city.minato.tokyo.jp/shisetsu/koen/shiba/01.html' target='_blank'>https://www.city.minato.tokyo.jp/shisetsu/koen/shiba/01.html</a>","分類":"公園・児童遊園・緑地","地区":"芝地区","連絡先":"まちづくり課土木担当 電話:03-3578-2032"},{"name":"浜崎公園","province":"東京都","city":"港区","address":"港区海岸一丁目5番37号","lat":35.653452,"lon":139.757493,"URL":"<a href='https://www.city.minato.tokyo.jp/shisetsu/koen/shiba/02.html' target='_blank'>https://www.city.minato.tokyo.jp/shisetsu/koen/shiba/02.html</a>","分類":"公園・児童遊園・緑地","地区":"芝地区","連絡先":"まちづくり課土木担当 電話:03-3578-2032"},{"name":"イタリア公園","province":"東京都","city":"港区","address":"港区東新橋一丁目10番20号","lat":35.659547,"lon":139.759204,"URL":"<a href='https://www.city.minato.tokyo.jp/shisetsu/koen/shiba/03.html' target='_blank'>https://www.city.minato.tokyo.jp/shisetsu/koen/shiba/03.html</a>","分類":"公園・児童遊園・緑地","地区":"芝地区","連絡先":"まちづくり課土木担当 電話:03-3578-2032"},{"name":"汐留西公園","province":"東京都","city":"港区","address":"港区東新橋二丁目17番1号","lat":35.661103,"lon":139.757603,"URL":"<a href='https://www.city.minato.tokyo.jp/shisetsu/koen/shiba/04.html' target='_blank'>https://www.city.minato.tokyo.jp/shisetsu/koen/shiba/04.html</a>","分類":"公園・児童遊園・緑地","地区":"芝地区","連絡先":"まちづくり課土木担当 電話:03-3578-2032"},{"name":"桜田公園","province":"東京都","city":"港区","address":"港区新橋三丁目16番15号","lat":35.665139,"lon":139.756509,"URL":"<a href='https://www.city.minato.tokyo.jp/shisetsu/koen/shiba/05.html' target='_blank'>https://www.city.minato.tokyo.jp/shisetsu/koen/shiba/05.html</a>","分類":"公園・児童遊園・緑地","地区":"芝地区","連絡先":"まちづくり課土木担当 電話:03-3578-2032"},{"name":"塩釜公園","province":"東京都","city":"港区","address":"港区新橋五丁目19番7号","lat":35.663169,"lon":139.755017,"URL":"<a href='https://www.city.minato.tokyo.jp/shisetsu/koen/shiba/06.html' target='_blank'>https://www.city.minato.tokyo.jp/shisetsu/koen/shiba/06.html</a>","分類":"公園・児童遊園・緑地","地区":"芝地区","連絡先":"まちづくり課土木担当 電話:03-3578-2032"},{"name":"南桜公園","province":"東京都","city":"港区","address":"港区西新橋二丁目10番13号","lat":35.666211,"lon":139.752236,"URL":"<a href='https://www.city.minato.tokyo.jp/shisetsu/koen/shiba/07.html' target='_blank'>https://www.city.minato.tokyo.jp/shisetsu/koen/shiba/07.html</a>","分類":"公園・児童遊園・緑地","地区":"芝地区","連絡先":"まちづくり課土木担当 電話:03-3578-2032"},{"name":"芝給水所公園","province":"東京都","city":"港区","address":"港区芝公園三丁目6番7号","lat":35.660857,"lon":139.744849,"URL":"<a href='https://www.city.minato.tokyo.jp/shisetsu/koen/shiba/08.html' target='_blank'>https://www.city.minato.tokyo.jp/shisetsu/koen/shiba/08.html</a>","分類":"公園・児童遊園・緑地","地区":"芝地区","連絡先":"管理事務所 電話:03-3431-2177"},{"name":"芝公園","province":"東京都","city":"港区","address":"港区芝公園四丁目8番4号","lat":35.655553,"lon":139.74854,"URL":"<a href='https://www.city.minato.tokyo.jp/shisetsu/koen/shiba/09.html' target='_blank'>https://www.city.minato.tokyo.jp/shisetsu/koen/shiba/09.html</a>","分類":"公園・児童遊園・緑地","地区":"芝地区","連絡先":"まちづくり課土木担当 電話:03-3578-2032"},{"name":"狸穴(まみあな)公園","province":"東京都","city":"港区","address":"港区麻布狸穴町63番地","lat":35.658081,"lon":139.738981,"URL":"<a href='https://www.city.minato.tokyo.jp/shisetsu/koen/azabu/01.html' target='_blank'>https://www.city.minato.tokyo.jp/shisetsu/koen/azabu/01.html</a>","分類":"公園・児童遊園・緑地","地区":"麻布地区","連絡先":"まちづくり課土木担当 電話:03-5114-8803"},{"name":"本村公園","province":"東京都","city":"港区","address":"港区南麻布三丁目4番9号","lat":35.650235,"lon":139.731022,"URL":"<a href='https://www.city.minato.tokyo.jp/shisetsu/koen/azabu/02.html' target='_blank'>https://www.city.minato.tokyo.jp/shisetsu/koen/azabu/02.html</a>","分類":"公園・児童遊園・緑地","地区":"麻布地区","連絡先":"まちづくり課土木担当 電話:03-5114-8803"},{"name":"笄(こうがい)公園","province":"東京都","city":"港区","address":"港区西麻布三丁目12番1号","lat":35.65659,"lon":139.723992,"URL":"<a href='https://www.city.minato.tokyo.jp/shisetsu/koen/azabu/04.html' target='_blank'>https://www.city.minato.tokyo.jp/shisetsu/koen/azabu/04.html</a>","分類":"公園・児童遊園・緑地","地区":"麻布地区","連絡先":"まちづくり課土木担当 電話:03-5114-8803"},{"name":"三河台公園","province":"東京都","city":"港区","address":"港区六本木四丁目2番27号","lat":35.664564,"lon":139.733833,"URL":"<a href='https://www.city.minato.tokyo.jp/shisetsu/koen/azabu/05.html' target='_blank'>https://www.city.minato.tokyo.jp/shisetsu/koen/azabu/05.html</a>","分類":"公園・児童遊園・緑地","地区":"麻布地区","連絡先":"まちづくり課土木担当 電話:03-5114-8803"},{"name":"さくら坂公園","province":"東京都","city":"港区","address":"港区六本木六丁目16番46号","lat":35.658321,"lon":139.729072,"URL":"<a href='https://www.city.minato.tokyo.jp/shisetsu/koen/azabu/06.html' target='_blank'>https://www.city.minato.tokyo.jp/shisetsu/koen/azabu/06.html</a>","分類":"公園・児童遊園・緑地","地区":"麻布地区","連絡先":"まちづくり課土木担当 電話:03-5114-8803"},{"name":"六本木西公園","province":"東京都","city":"港区","address":"港区六本木七丁目17番8号","lat":35.663398,"lon":139.72977,"URL":"<a href='https://www.city.minato.tokyo.jp/shisetsu/koen/azabu/07.html' target='_blank'>https://www.city.minato.tokyo.jp/shisetsu/koen/azabu/07.html</a>","分類":"公園・児童遊園・緑地","地区":"麻布地区","連絡先":"まちづくり課土木担当 電話:03-5114-8803"},{"name":"網代公園","province":"東京都","city":"港区","address":"港区麻布十番二丁目15番1号","lat":35.654509,"lon":139.73551,"URL":"<a href='https://www.city.minato.tokyo.jp/shisetsu/koen/azabu/09.html' target='_blank'>https://www.city.minato.tokyo.jp/shisetsu/koen/azabu/09.html</a>","分類":"公園・児童遊園・緑地","地区":"麻布地区","連絡先":"まちづくり課土木担当 電話:03-5114-8803"},{"name":"新広尾公園","province":"東京都","city":"港区","address":"港区麻布十番四丁目5番1号","lat":35.653827,"lon":139.737411,"URL":"<a href='https://www.city.minato.tokyo.jp/shisetsu/koen/azabu/10.html' target='_blank'>https://www.city.minato.tokyo.jp/shisetsu/koen/azabu/10.html</a>","分類":"公園・児童遊園・緑地","地区":"麻布地区","連絡先":"まちづくり課土木担当 電話:03-5114-8803"},{"name":"飯倉公園","province":"東京都","city":"港区","address":"港区東麻布一丁目21番8号","lat":35.655845,"lon":139.743741,"URL":"<a href='https://www.city.minato.tokyo.jp/shisetsu/koen/azabu/11.html' target='_blank'>https://www.city.minato.tokyo.jp/shisetsu/koen/azabu/11.html</a>","分類":"公園・児童遊園・緑地","地区":"麻布地区","連絡先":"まちづくり課土木担当 電話:03-5114-8803"},{"name":"一の橋公園","province":"東京都","city":"港区","address":"港区東麻布三丁目9番1号","lat":35.655928,"lon":139.737508,"URL":"<a href='https://www.city.minato.tokyo.jp/shisetsu/koen/azabu/12.html' target='_blank'>https://www.city.minato.tokyo.jp/shisetsu/koen/azabu/12.html</a>","分類":"公園・児童遊園・緑地","地区":"麻布地区","連絡先":"まちづくり課土木担当 電話:03-5114-8803"},{"name":"円通寺坂公園","province":"東京都","city":"港区","address":"港区赤坂五丁目2番47号","lat":35.672541,"lon":139.733235,"URL":"<a href='https://www.city.minato.tokyo.jp/shisetsu/koen/akasaka/01.html' target='_blank'>https://www.city.minato.tokyo.jp/shisetsu/koen/akasaka/01.html</a>","分類":"公園・児童遊園・緑地","地区":"赤坂地区","連絡先":""},{"name":"一ツ木公園","province":"東京都","city":"港区","address":"港区赤坂五丁目5番26号","lat":35.6708,"lon":139.733493,"URL":"<a href='https://www.city.minato.tokyo.jp/shisetsu/koen/akasaka/02.html' target='_blank'>https://www.city.minato.tokyo.jp/shisetsu/koen/akasaka/02.html</a>","分類":"公園・児童遊園・緑地","地区":"赤坂地区","連絡先":""},{"name":"氷川公園","province":"東京都","city":"港区","address":"港区赤坂六丁目5番4号","lat":35.670968,"lon":139.737422,"URL":"<a href='https://www.city.minato.tokyo.jp/shisetsu/koen/akasaka/03.html' target='_blank'>https://www.city.minato.tokyo.jp/shisetsu/koen/akasaka/03.html</a>","分類":"公園・児童遊園・緑地","地区":"赤坂地区","連絡先":""},{"name":"高橋是清翁記念公園","province":"東京都","city":"港区","address":"港区赤坂七丁目3番39号","lat":35.67381,"lon":139.728858,"URL":"<a href='https://www.city.minato.tokyo.jp/shisetsu/koen/akasaka/04.html' target='_blank'>https://www.city.minato.tokyo.jp/shisetsu/koen/akasaka/04.html</a>","分類":"公園・児童遊園・緑地","地区":"赤坂地区","連絡先":""},{"name":"乃木公園","province":"東京都","city":"港区","address":"港区赤坂八丁目11番32号","lat":35.668179,"lon":139.72768,"URL":"<a href='https://www.city.minato.tokyo.jp/shisetsu/koen/akasaka/05.html' target='_blank'>https://www.city.minato.tokyo.jp/shisetsu/koen/akasaka/05.html</a>","分類":"公園・児童遊園・緑地","地区":"赤坂地区","連絡先":""},{"name":"檜町公園","province":"東京都","city":"港区","address":"港区赤坂九丁目7番9号","lat":35.666894,"lon":139.732602,"URL":"<a href='https://www.city.minato.tokyo.jp/shisetsu/koen/akasaka/06.html' target='_blank'>https://www.city.minato.tokyo.jp/shisetsu/koen/akasaka/06.html</a>","分類":"公園・児童遊園・緑地","地区":"赤坂地区","連絡先":""},{"name":"青葉公園","province":"東京都","city":"港区","address":"港区南青山一丁目4番4号","lat":35.670984,"lon":139.724912,"URL":"<a href='https://www.city.minato.tokyo.jp/shisetsu/koen/akasaka/07.html' target='_blank'>https://www.city.minato.tokyo.jp/shisetsu/koen/akasaka/07.html</a>","分類":"公園・児童遊園・緑地","地区":"赤坂地区","連絡先":""},{"name":"青山公園","province":"東京都","city":"港区","address":"港区南青山二丁目21番12号","lat":35.669317,"lon":139.718993,"URL":"<a href='https://www.city.minato.tokyo.jp/shisetsu/koen/akasaka/08.html' target='_blank'>https://www.city.minato.tokyo.jp/shisetsu/koen/akasaka/08.html</a>","分類":"公園・児童遊園・緑地","地区":"赤坂地区","連絡先":""},{"name":"高輪森の公園","province":"東京都","city":"港区","address":"港区高輪三丁目13番21号","lat":35.630242,"lon":139.73515,"URL":"<a href='https://www.city.minato.tokyo.jp/shisetsu/koen/takanawa/01.html' target='_blank'>https://www.city.minato.tokyo.jp/shisetsu/koen/takanawa/01.html</a>","分類":"公園・児童遊園・緑地","地区":"高輪地区","連絡先":""},{"name":"亀塚公園","province":"東京都","city":"港区","address":"港区三田四丁目16番20号","lat":35.643635,"lon":139.740885,"URL":"<a href='https://www.city.minato.tokyo.jp/shisetsu/koen/takanawa/02.html' target='_blank'>https://www.city.minato.tokyo.jp/shisetsu/koen/takanawa/02.html</a>","分類":"公園・児童遊園・緑地","地区":"高輪地区","連絡先":""},{"name":"三田台公園","province":"東京都","city":"港区","address":"港区三田四丁目17番28号","lat":35.642641,"lon":139.739238,"URL":"<a href='https://www.city.minato.tokyo.jp/shisetsu/koen/takanawa/03.html' target='_blank'>https://www.city.minato.tokyo.jp/shisetsu/koen/takanawa/03.html</a>","分類":"公園・児童遊園・緑地","地区":"高輪地区","連絡先":""},{"name":"高輪公園","province":"東京都","city":"港区","address":"港区高輪三丁目18番18号","lat":35.633102,"lon":139.736108,"URL":"<a href='https://www.city.minato.tokyo.jp/shisetsu/koen/takanawa/04.html' target='_blank'>https://www.city.minato.tokyo.jp/shisetsu/koen/takanawa/04.html</a>","分類":"公園・児童遊園・緑地","地区":"高輪地区","連絡先":""},{"name":"白金公園","province":"東京都","city":"港区","address":"港区白金三丁目1番16号","lat":35.646809,"lon":139.729266,"URL":"<a href='https://www.city.minato.tokyo.jp/shisetsu/koen/takanawa/05.html' target='_blank'>https://www.city.minato.tokyo.jp/shisetsu/koen/takanawa/05.html</a>","分類":"公園・児童遊園・緑地","地区":"高輪地区","連絡先":""},{"name":"新浜公園","province":"東京都","city":"港区","address":"港区芝浦一丁目1番10号","lat":35.651037,"lon":139.757364,"URL":"<a href='https://www.city.minato.tokyo.jp/shisetsu/koen/konan/01.html' target='_blank'>https://www.city.minato.tokyo.jp/shisetsu/koen/konan/01.html</a>","分類":"公園・児童遊園・緑地","地区":"芝浦港南地区","連絡先":"まちづくり課土木担当 電話:03-6400-0032"},{"name":"芝浦公園","province":"東京都","city":"港区","address":"港区芝浦一丁目16番25号","lat":35.645711,"lon":139.751599,"URL":"<a href='https://www.city.minato.tokyo.jp/shisetsu/koen/konan/02.html' target='_blank'>https://www.city.minato.tokyo.jp/shisetsu/koen/konan/02.html</a>","分類":"公園・児童遊園・緑地","地区":"芝浦港南地区","連絡先":"まちづくり課土木担当 電話:03-6400-0032"},{"name":"プラタナス公園","province":"東京都","city":"港区","address":"港区芝浦四丁目20番56号","lat":35.640446,"lon":139.752083,"URL":"<a href='https://www.city.minato.tokyo.jp/shisetsu/koen/konan/04.html' target='_blank'>https://www.city.minato.tokyo.jp/shisetsu/koen/konan/04.html</a>","分類":"公園・児童遊園・緑地","地区":"芝浦港南地区","連絡先":"まちづくり課土木担当 電話:03-6400-0032"},{"name":"埠頭公園","province":"東京都","city":"港区","address":"港区海岸三丁目14番34号","lat":35.641651,"lon":139.755286,"URL":"<a href='https://www.city.minato.tokyo.jp/shisetsu/koen/konan/05.html' target='_blank'>https://www.city.minato.tokyo.jp/shisetsu/koen/konan/05.html</a>","分類":"公園・児童遊園・緑地","地区":"芝浦港南地区","連絡先":"まちづくり課土木担当 電話:03-6400-0032"},{"name":"芝浦中央公園","province":"東京都","city":"港区","address":"港区港南一丁目2番28号","lat":35.634688,"lon":139.742953,"URL":"<a href='https://www.city.minato.tokyo.jp/shisetsu/koen/konan/06.html' target='_blank'>https://www.city.minato.tokyo.jp/shisetsu/koen/konan/06.html</a>","分類":"公園・児童遊園・緑地","地区":"芝浦港南地区","連絡先":"■芝浦中央公園A・B・D面 電話:03-6433-2562 ファックス:03-6433-2563  ■芝浦中央公園C面(芝浦中央公園運動場) 電話:03-3450-6343"},{"name":"こうなん星の公園","province":"東京都","city":"港区","address":"港区港南一丁目9番24号","lat":35.62991,"lon":139.74221,"URL":"<a href='https://www.city.minato.tokyo.jp/shisetsu/koen/konan/07.html' target='_blank'>https://www.city.minato.tokyo.jp/shisetsu/koen/konan/07.html</a>","分類":"公園・児童遊園・緑地","地区":"芝浦港南地区","連絡先":"まちづくり課土木担当 電話:03-6400-0032"},{"name":"東八ツ山公園","province":"東京都","city":"港区","address":"港区港南二丁目8番8号","lat":35.624591,"lon":139.743841,"URL":"<a href='https://www.city.minato.tokyo.jp/shisetsu/koen/konan/08.html' target='_blank'>https://www.city.minato.tokyo.jp/shisetsu/koen/konan/08.html</a>","分類":"公園・児童遊園・緑地","地区":"芝浦港南地区","連絡先":"まちづくり課土木担当 電話:03-6400-0032"},{"name":"汐の公園","province":"東京都","city":"港区","address":"港区港南二丁目16番10号","lat":35.627815,"lon":139.74151,"URL":"<a href='https://www.city.minato.tokyo.jp/shisetsu/koen/konan/09.html' target='_blank'>https://www.city.minato.tokyo.jp/shisetsu/koen/konan/09.html</a>","分類":"公園・児童遊園・緑地","地区":"芝浦港南地区","連絡先":"まちづくり課土木担当 電話:03-6400-0032"},{"name":"杜の公園","province":"東京都","city":"港区","address":"港区港南二丁目16番30号","lat":35.625286,"lon":139.741215,"URL":"<a href='https://www.city.minato.tokyo.jp/shisetsu/koen/konan/10.html' target='_blank'>https://www.city.minato.tokyo.jp/shisetsu/koen/konan/10.html</a>","分類":"公園・児童遊園・緑地","地区":"芝浦港南地区","連絡先":"まちづくり課土木担当 電話:03-6400-0032"},{"name":"港南和楽公園","province":"東京都","city":"港区","address":"港区港南四丁目2番18号","lat":35.630588,"lon":139.748508,"URL":"<a href='https://www.city.minato.tokyo.jp/shisetsu/koen/konan/11.html' target='_blank'>https://www.city.minato.tokyo.jp/shisetsu/koen/konan/11.html</a>","分類":"公園・児童遊園・緑地","地区":"芝浦港南地区","連絡先":"まちづくり課土木担当 電話:03-6400-0032"},{"name":"港南公園","province":"東京都","city":"港区","address":"港区港南四丁目5番1号","lat":35.627421,"lon":139.74644,"URL":"<a href='https://www.city.minato.tokyo.jp/shisetsu/koen/konan/12.html' target='_blank'>https://www.city.minato.tokyo.jp/shisetsu/koen/konan/12.html</a>","分類":"公園・児童遊園・緑地","地区":"芝浦港南地区","連絡先":"まちづくり課土木担当 電話:03-6400-0032"},{"name":"港南緑水公園","province":"東京都","city":"港区","address":"港区港南四丁目7番47号","lat":35.628637,"lon":139.750643,"URL":"<a href='https://www.city.minato.tokyo.jp/shisetsu/koen/konan/13.html' target='_blank'>https://www.city.minato.tokyo.jp/shisetsu/koen/konan/13.html</a>","分類":"公園・児童遊園・緑地","地区":"芝浦港南地区","連絡先":"電話:080-4389-1044"},{"name":"お台場レインボー公園","province":"東京都","city":"港区","address":"港区台場一丁目3番1号","lat":35.633084,"lon":139.777934,"URL":"<a href='https://www.city.minato.tokyo.jp/shisetsu/koen/konan/14.html' target='_blank'>https://www.city.minato.tokyo.jp/shisetsu/koen/konan/14.html</a>","分類":"公園・児童遊園・緑地","地区":"芝浦港南地区","連絡先":"電話:080-4053-1033"},{"name":"金杉橋児童遊園","province":"東京都","city":"港区","address":"港区芝一丁目1番26号","lat":35.652992,"lon":139.754524,"URL":"<a href='https://www.city.minato.tokyo.jp/shisetsu/jidoyuen/shiba/01.html' target='_blank'>https://www.city.minato.tokyo.jp/shisetsu/jidoyuen/shiba/01.html</a>","分類":"公園・児童遊園・緑地","地区":"芝地区","連絡先":""},{"name":"芝園児童遊園","province":"東京都","city":"港区","address":"港区芝二丁目7番12号","lat":35.652571,"lon":139.749865,"URL":"<a href='https://www.city.minato.tokyo.jp/shisetsu/jidoyuen/shiba/02.html' target='_blank'>https://www.city.minato.tokyo.jp/shisetsu/jidoyuen/shiba/02.html</a>","分類":"公園・児童遊園・緑地","地区":"芝地区","連絡先":""},{"name":"芝新堀町児童遊園","province":"東京都","city":"港区","address":"港区芝二丁目12番3号","lat":35.651652,"lon":139.753159,"URL":"<a href='https://www.city.minato.tokyo.jp/shisetsu/jidoyuen/shiba/03.html' target='_blank'>https://www.city.minato.tokyo.jp/shisetsu/jidoyuen/shiba/03.html</a>","分類":"公園・児童遊園・緑地","地区":"芝地区","連絡先":""},{"name":"松本町児童遊園","province":"東京都","city":"港区","address":"港区芝三丁目12番19号","lat":35.652831,"lon":139.746016,"URL":"<a href='https://www.city.minato.tokyo.jp/shisetsu/jidoyuen/shiba/04.html' target='_blank'>https://www.city.minato.tokyo.jp/shisetsu/jidoyuen/shiba/04.html</a>","分類":"公園・児童遊園・緑地","地区":"芝地区","連絡先":""},{"name":"芝五丁目児童遊園","province":"東京都","city":"港区","address":"港区芝五丁目18番4号","lat":35.648421,"lon":139.748122,"URL":"<a href='https://www.city.minato.tokyo.jp/shisetsu/jidoyuen/shiba/05.html' target='_blank'>https://www.city.minato.tokyo.jp/shisetsu/jidoyuen/shiba/05.html</a>","分類":"公園・児童遊園・緑地","地区":"芝地区","連絡先":""},{"name":"三田小山町児童遊園","province":"東京都","city":"港区","address":"港区三田一丁目5番16号","lat":35.653779,"lon":139.740112,"URL":"<a href='https://www.city.minato.tokyo.jp/shisetsu/jidoyuen/shiba/06.html' target='_blank'>https://www.city.minato.tokyo.jp/shisetsu/jidoyuen/shiba/06.html</a>","分類":"公園・児童遊園・緑地","地区":"芝地区","連絡先":""},{"name":"三田二丁目児童遊園","province":"東京都","city":"港区","address":"港区三田二丁目10番7号","lat":35.650459,"lon":139.744479,"URL":"<a href='https://www.city.minato.tokyo.jp/shisetsu/jidoyuen/shiba/07.html' target='_blank'>https://www.city.minato.tokyo.jp/shisetsu/jidoyuen/shiba/07.html</a>","分類":"公園・児童遊園・緑地","地区":"芝地区","連絡先":""},{"name":"三田綱町児童遊園","province":"東京都","city":"港区","address":"港区三田二丁目19番11号","lat":35.649378,"lon":139.739597,"URL":"<a href='https://www.city.minato.tokyo.jp/shisetsu/jidoyuen/shiba/08.html' target='_blank'>https://www.city.minato.tokyo.jp/shisetsu/jidoyuen/shiba/08.html</a>","分類":"公園・児童遊園・緑地","地区":"芝地区","連絡先":""},{"name":"浜松町四丁目児童遊園","province":"東京都","city":"港区","address":"港区浜松町二丁目13番3号","lat":35.653328,"lon":139.75454,"URL":"<a href='https://www.city.minato.tokyo.jp/shisetsu/jidoyuen/shiba/09.html' target='_blank'>https://www.city.minato.tokyo.jp/shisetsu/jidoyuen/shiba/09.html</a>","分類":"公園・児童遊園・緑地","地区":"芝地区","連絡先":""},{"name":"芝大門二丁目児童遊園","province":"東京都","city":"港区","address":"港区芝大門二丁目13番9号","lat":35.653378,"lon":139.753789,"URL":"<a href='https://www.city.minato.tokyo.jp/shisetsu/jidoyuen/shiba/10.html' target='_blank'>https://www.city.minato.tokyo.jp/shisetsu/jidoyuen/shiba/10.html</a>","分類":"公園・児童遊園・緑地","地区":"芝地区","連絡先":""},{"name":"虎ノ門三丁目児童遊園","province":"東京都","city":"港区","address":"港区虎ノ門三丁目8番11号","lat":35.665767,"lon":139.747805,"URL":"<a href='https://www.city.minato.tokyo.jp/shisetsu/jidoyuen/shiba/11.html' target='_blank'>https://www.city.minato.tokyo.jp/shisetsu/jidoyuen/shiba/11.html</a>","分類":"公園・児童遊園・緑地","地区":"芝地区","連絡先":""},{"name":"西久保巴町児童遊園","province":"東京都","city":"港区","address":"港区虎ノ門三丁目18番18号","lat":35.663337,"lon":139.746107,"URL":"<a href='https://www.city.minato.tokyo.jp/shisetsu/jidoyuen/shiba/12.html' target='_blank'>https://www.city.minato.tokyo.jp/shisetsu/jidoyuen/shiba/12.html</a>","分類":"公園・児童遊園・緑地","地区":"芝地区","連絡先":""},{"name":"南麻布一丁目児童遊園","province":"東京都","city":"港区","address":"港区南麻布一丁目7番29号","lat":35.650965,"lon":139.737202,"URL":"<a href='https://www.city.minato.tokyo.jp/shisetsu/jidoyuen/azabu/01.html' target='_blank'>https://www.city.minato.tokyo.jp/shisetsu/jidoyuen/azabu/01.html</a>","分類":"公園・児童遊園・緑地","地区":"麻布地区","連絡先":""},{"name":"南麻布二丁目児童遊園","province":"東京都","city":"港区","address":"港区南麻布二丁目3番14号","lat":35.649171,"lon":139.736223,"URL":"<a href='https://www.city.minato.tokyo.jp/shisetsu/jidoyuen/azabu/02.html' target='_blank'>https://www.city.minato.tokyo.jp/shisetsu/jidoyuen/azabu/02.html</a>","分類":"公園・児童遊園・緑地","地区":"麻布地区","連絡先":""},{"name":"絶江児童遊園","province":"東京都","city":"港区","address":"港区南麻布二丁目9番22号","lat":35.648193,"lon":139.734319,"URL":"<a href='https://www.city.minato.tokyo.jp/shisetsu/jidoyuen/azabu/03.html' target='_blank'>https://www.city.minato.tokyo.jp/shisetsu/jidoyuen/azabu/03.html</a>","分類":"公園・児童遊園・緑地","地区":"麻布地区","連絡先":""},{"name":"古川橋児童遊園","province":"東京都","city":"港区","address":"港区南麻布二丁目15番11号","lat":35.646525,"lon":139.735421,"URL":"<a href='https://www.city.minato.tokyo.jp/shisetsu/jidoyuen/azabu/04.html' target='_blank'>https://www.city.minato.tokyo.jp/shisetsu/jidoyuen/azabu/04.html</a>","分類":"公園・児童遊園・緑地","地区":"麻布地区","連絡先":""},{"name":"広尾児童遊園","province":"東京都","city":"港区","address":"港区南麻布五丁目16番15号","lat":35.6518,"lon":139.723831,"URL":"<a href='https://www.city.minato.tokyo.jp/shisetsu/jidoyuen/azabu/05.html' target='_blank'>https://www.city.minato.tokyo.jp/shisetsu/jidoyuen/azabu/05.html</a>","分類":"公園・児童遊園・緑地","地区":"麻布地区","連絡先":""},{"name":"宮村児童遊園","province":"東京都","city":"港区","address":"港区元麻布二丁目6番2号","lat":35.654683,"lon":139.730086,"URL":"<a href='https://www.city.minato.tokyo.jp/shisetsu/jidoyuen/azabu/06.html' target='_blank'>https://www.city.minato.tokyo.jp/shisetsu/jidoyuen/azabu/06.html</a>","分類":"公園・児童遊園・緑地","地区":"麻布地区","連絡先":""},{"name":"西麻布二丁目児童遊園","province":"東京都","city":"港区","address":"港区西麻布二丁目18番9号","lat":35.662339,"lon":139.719041,"URL":"<a href='https://www.city.minato.tokyo.jp/shisetsu/jidoyuen/azabu/07.html' target='_blank'>https://www.city.minato.tokyo.jp/shisetsu/jidoyuen/azabu/07.html</a>","分類":"公園・児童遊園・緑地","地区":"麻布地区","連絡先":""},{"name":"六本木坂下児童遊園","province":"東京都","city":"港区","address":"港区六本木一丁目4番1号","lat":35.666525,"lon":139.739294,"URL":"<a href='https://www.city.minato.tokyo.jp/shisetsu/jidoyuen/azabu/08.html' target='_blank'>https://www.city.minato.tokyo.jp/shisetsu/jidoyuen/azabu/08.html</a>","分類":"公園・児童遊園・緑地","地区":"麻布地区","連絡先":""},{"name":"六本木坂上児童遊園","province":"東京都","city":"港区","address":"港区六本木一丁目4番11号","lat":35.665939,"lon":139.739372,"URL":"<a href='https://www.city.minato.tokyo.jp/shisetsu/jidoyuen/azabu/09.html' target='_blank'>https://www.city.minato.tokyo.jp/shisetsu/jidoyuen/azabu/09.html</a>","分類":"公園・児童遊園・緑地","地区":"麻布地区","連絡先":""},{"name":"六本木三丁目児童遊園","province":"東京都","city":"港区","address":"港区六本木三丁目15番25号","lat":35.662803,"lon":139.735107,"URL":"<a href='https://www.city.minato.tokyo.jp/shisetsu/jidoyuen/azabu/10.html' target='_blank'>https://www.city.minato.tokyo.jp/shisetsu/jidoyuen/azabu/10.html</a>","分類":"公園・児童遊園・緑地","地区":"麻布地区","連絡先":""},{"name":"飯倉雁木坂児童遊園","province":"東京都","city":"港区","address":"港区麻布台一丁目9番14号","lat":35.659981,"lon":139.742261,"URL":"<a href='https://www.city.minato.tokyo.jp/shisetsu/jidoyuen/azabu/11.html' target='_blank'>https://www.city.minato.tokyo.jp/shisetsu/jidoyuen/azabu/11.html</a>","分類":"公園・児童遊園・緑地","地区":"麻布地区","連絡先":""},{"name":"東麻布児童遊園","province":"東京都","city":"港区","address":"港区東麻布一丁目2番1号","lat":35.657887,"lon":139.744374,"URL":"<a href='https://www.city.minato.tokyo.jp/shisetsu/jidoyuen/azabu/12.html' target='_blank'>https://www.city.minato.tokyo.jp/shisetsu/jidoyuen/azabu/12.html</a>","分類":"公園・児童遊園・緑地","地区":"麻布地区","連絡先":""},{"name":"中ノ橋児童遊園","province":"東京都","city":"港区","address":"港区東麻布一丁目30番1号","lat":35.65511,"lon":139.741805,"URL":"<a href='https://www.city.minato.tokyo.jp/shisetsu/jidoyuen/azabu/13.html' target='_blank'>https://www.city.minato.tokyo.jp/shisetsu/jidoyuen/azabu/13.html</a>","分類":"公園・児童遊園・緑地","地区":"麻布地区","連絡先":""},{"name":"一ツ木児童遊園","province":"東京都","city":"港区","address":"港区赤坂五丁目1番24号","lat":35.673221,"lon":139.734708,"URL":"<a href='https://www.city.minato.tokyo.jp/shisetsu/jidoyuen/akasaka/01.html' target='_blank'>https://www.city.minato.tokyo.jp/shisetsu/jidoyuen/akasaka/01.html</a>","分類":"公園・児童遊園・緑地","地区":"赤坂地区","連絡先":""},{"name":"桑田記念児童遊園","province":"東京都","city":"港区","address":"港区赤坂九丁目3番21号","lat":35.668166,"lon":139.72985,"URL":"<a href='https://www.city.minato.tokyo.jp/shisetsu/jidoyuen/akasaka/02.html' target='_blank'>https://www.city.minato.tokyo.jp/shisetsu/jidoyuen/akasaka/02.html</a>","分類":"公園・児童遊園・緑地","地区":"赤坂地区","連絡先":""},{"name":"南青山三丁目児童遊園","province":"東京都","city":"港区","address":"港区南青山三丁目7番29号","lat":35.666832,"lon":139.71586,"URL":"<a href='https://www.city.minato.tokyo.jp/shisetsu/jidoyuen/akasaka/04.html' target='_blank'>https://www.city.minato.tokyo.jp/shisetsu/jidoyuen/akasaka/04.html</a>","分類":"公園・児童遊園・緑地","地区":"赤坂地区","連絡先":""},{"name":"南青山四丁目児童遊園","province":"東京都","city":"港区","address":"港区南青山四丁目9番7号","lat":35.667124,"lon":139.718808,"URL":"<a href='https://www.city.minato.tokyo.jp/shisetsu/jidoyuen/akasaka/05.html' target='_blank'>https://www.city.minato.tokyo.jp/shisetsu/jidoyuen/akasaka/05.html</a>","分類":"公園・児童遊園・緑地","地区":"赤坂地区","連絡先":""},{"name":"南青山六丁目児童遊園","province":"東京都","city":"港区","address":"港区南青山六丁目13番24号","lat":35.659964,"lon":139.714304,"URL":"<a href='https://www.city.minato.tokyo.jp/shisetsu/jidoyuen/akasaka/06.html' target='_blank'>https://www.city.minato.tokyo.jp/shisetsu/jidoyuen/akasaka/06.html</a>","分類":"公園・児童遊園・緑地","地区":"赤坂地区","連絡先":""},{"name":"北青山一丁目児童遊園","province":"東京都","city":"港区","address":"港区北青山一丁目6番6号","lat":35.67476,"lon":139.721176,"URL":"<a href='https://www.city.minato.tokyo.jp/shisetsu/jidoyuen/akasaka/07.html' target='_blank'>https://www.city.minato.tokyo.jp/shisetsu/jidoyuen/akasaka/07.html</a>","分類":"公園・児童遊園・緑地","地区":"赤坂地区","連絡先":""},{"name":"豊岡町児童遊園","province":"東京都","city":"港区","address":"港区三田五丁目11番6号","lat":35.645723,"lon":139.739115,"URL":"<a href='https://www.city.minato.tokyo.jp/shisetsu/jidoyuen/takanawa/01.html' target='_blank'>https://www.city.minato.tokyo.jp/shisetsu/jidoyuen/takanawa/01.html</a>","分類":"公園・児童遊園・緑地","地区":"高輪地区","連絡先":""},{"name":"三田松坂児童遊園","province":"東京都","city":"港区","address":"港区三田五丁目16番8号","lat":35.645261,"lon":139.736188,"URL":"<a href='https://www.city.minato.tokyo.jp/shisetsu/jidoyuen/takanawa/02.html' target='_blank'>https://www.city.minato.tokyo.jp/shisetsu/jidoyuen/takanawa/02.html</a>","分類":"公園・児童遊園・緑地","地区":"高輪地区","連絡先":""},{"name":"松ヶ丘児童遊園","province":"東京都","city":"港区","address":"東京都港区高輪1丁目11","lat":35.641717,"lon":139.735386,"URL":"<a href='https://www.city.minato.tokyo.jp/shisetsu/jidoyuen/takanawa/04.html' target='_blank'>https://www.city.minato.tokyo.jp/shisetsu/jidoyuen/takanawa/04.html</a>","分類":"公園・児童遊園・緑地","地区":"高輪地区","連絡先":""},{"name":"高松児童遊園","province":"東京都","city":"港区","address":"港区高輪一丁目15番22号","lat":35.639757,"lon":139.734273,"URL":"<a href='https://www.city.minato.tokyo.jp/shisetsu/jidoyuen/takanawa/05.html' target='_blank'>https://www.city.minato.tokyo.jp/shisetsu/jidoyuen/takanawa/05.html</a>","分類":"公園・児童遊園・緑地","地区":"高輪地区","連絡先":""},{"name":"二本榎児童遊園","province":"東京都","city":"港区","address":"港区高輪一丁目25番11号","lat":35.637902,"lon":139.732624,"URL":"<a href='https://www.city.minato.tokyo.jp/shisetsu/jidoyuen/takanawa/06.html' target='_blank'>https://www.city.minato.tokyo.jp/shisetsu/jidoyuen/takanawa/06.html</a>","分類":"公園・児童遊園・緑地","地区":"高輪地区","連絡先":""},{"name":"泉岳寺前児童遊園","province":"東京都","city":"港区","address":"港区高輪二丁目15番37号","lat":35.637366,"lon":139.737594,"URL":"<a href='https://www.city.minato.tokyo.jp/shisetsu/jidoyuen/takanawa/07.html' target='_blank'>https://www.city.minato.tokyo.jp/shisetsu/jidoyuen/takanawa/07.html</a>","分類":"公園・児童遊園・緑地","地区":"高輪地区","連絡先":""},{"name":"高輪南町児童遊園","province":"東京都","city":"港区","address":"港区高輪四丁目24番36号","lat":35.625031,"lon":139.735161,"URL":"<a href='https://www.city.minato.tokyo.jp/shisetsu/jidoyuen/takanawa/09.html' target='_blank'>https://www.city.minato.tokyo.jp/shisetsu/jidoyuen/takanawa/09.html</a>","分類":"公園・児童遊園・緑地","地区":"高輪地区","連絡先":""},{"name":"白金志田町児童遊園","province":"東京都","city":"港区","address":"港区白金一丁目12番16号","lat":35.645529,"lon":139.734689,"URL":"<a href='https://www.city.minato.tokyo.jp/shisetsu/jidoyuen/takanawa/10.html' target='_blank'>https://www.city.minato.tokyo.jp/shisetsu/jidoyuen/takanawa/10.html</a>","分類":"公園・児童遊園・緑地","地区":"高輪地区","連絡先":""},{"name":"白高児童遊園","province":"東京都","city":"港区","address":"港区白金一丁目17番4号","lat":35.645069,"lon":139.733528,"URL":"<a href='https://www.city.minato.tokyo.jp/shisetsu/jidoyuen/takanawa/11.html' target='_blank'>https://www.city.minato.tokyo.jp/shisetsu/jidoyuen/takanawa/11.html</a>","分類":"公園・児童遊園・緑地","地区":"高輪地区","連絡先":""},{"name":"白金一丁目児童遊園","province":"東京都","city":"港区","address":"港区白金一丁目25番3号","lat":35.644529,"lon":139.731969,"URL":"<a href='https://www.city.minato.tokyo.jp/shisetsu/jidoyuen/takanawa/12.html' target='_blank'>https://www.city.minato.tokyo.jp/shisetsu/jidoyuen/takanawa/12.html</a>","分類":"公園・児童遊園・緑地","地区":"高輪地区","連絡先":""},{"name":"四の橋通児童遊園","province":"東京都","city":"港区","address":"港区白金三丁目22番7号","lat":35.644269,"lon":139.731374,"URL":"<a href='https://www.city.minato.tokyo.jp/shisetsu/jidoyuen/takanawa/13.html' target='_blank'>https://www.city.minato.tokyo.jp/shisetsu/jidoyuen/takanawa/13.html</a>","分類":"公園・児童遊園・緑地","地区":"高輪地区","連絡先":""},{"name":"三光児童遊園","province":"東京都","city":"港区","address":"港区白金五丁目12番5号","lat":35.64598,"lon":139.724381,"URL":"<a href='https://www.city.minato.tokyo.jp/shisetsu/jidoyuen/takanawa/14.html' target='_blank'>https://www.city.minato.tokyo.jp/shisetsu/jidoyuen/takanawa/14.html</a>","分類":"公園・児童遊園・緑地","地区":"高輪地区","連絡先":""},{"name":"雷神山児童遊園","province":"東京都","city":"港区","address":"港区白金六丁目5番10号","lat":35.644145,"lon":139.724478,"URL":"<a href='https://www.city.minato.tokyo.jp/shisetsu/jidoyuen/takanawa/15.html' target='_blank'>https://www.city.minato.tokyo.jp/shisetsu/jidoyuen/takanawa/15.html</a>","分類":"公園・児童遊園・緑地","地区":"高輪地区","連絡先":""},{"name":"奥三光児童遊園","province":"東京都","city":"港区","address":"港区白金六丁目22番14号","lat":35.64399,"lon":139.721511,"URL":"<a href='https://www.city.minato.tokyo.jp/shisetsu/jidoyuen/takanawa/16.html' target='_blank'>https://www.city.minato.tokyo.jp/shisetsu/jidoyuen/takanawa/16.html</a>","分類":"公園・児童遊園・緑地","地区":"高輪地区","連絡先":""},{"name":"白金児童遊園","province":"東京都","city":"港区","address":"港区白金台二丁目24番3号","lat":35.63293,"lon":139.729499,"URL":"<a href='https://www.city.minato.tokyo.jp/shisetsu/jidoyuen/takanawa/17.html' target='_blank'>https://www.city.minato.tokyo.jp/shisetsu/jidoyuen/takanawa/17.html</a>","分類":"公園・児童遊園・緑地","地区":"高輪地区","連絡先":""},{"name":"白金台四丁目児童遊園","province":"東京都","city":"港区","address":"港区白金台四丁目4番14号","lat":35.639092,"lon":139.727257,"URL":"<a href='https://www.city.minato.tokyo.jp/shisetsu/jidoyuen/takanawa/18.html' target='_blank'>https://www.city.minato.tokyo.jp/shisetsu/jidoyuen/takanawa/18.html</a>","分類":"公園・児童遊園・緑地","地区":"高輪地区","連絡先":""},{"name":"白台児童遊園","province":"東京都","city":"港区","address":"港区白金台四丁目7番6号","lat":35.638005,"lon":139.725886,"URL":"<a href='https://www.city.minato.tokyo.jp/shisetsu/jidoyuen/takanawa/19.html' target='_blank'>https://www.city.minato.tokyo.jp/shisetsu/jidoyuen/takanawa/19.html</a>","分類":"公園・児童遊園・緑地","地区":"高輪地区","連絡先":""},{"name":"白金台どんぐり児童遊園","province":"東京都","city":"港区","address":"港区白金台五丁目19番1号","lat":35.636599,"lon":139.72205,"URL":"<a href='https://www.city.minato.tokyo.jp/shisetsu/jidoyuen/takanawa/20.html' target='_blank'>https://www.city.minato.tokyo.jp/shisetsu/jidoyuen/takanawa/20.html</a>","分類":"公園・児童遊園・緑地","地区":"高輪地区","連絡先":""},{"name":"南浜町児童遊園","province":"東京都","city":"港区","address":"港区芝浦一丁目12番12号","lat":35.647037,"lon":139.75373,"URL":"<a href='https://www.city.minato.tokyo.jp/shisetsu/jidoyuen/konan/01.html' target='_blank'>https://www.city.minato.tokyo.jp/shisetsu/jidoyuen/konan/01.html</a>","分類":"公園・児童遊園・緑地","地区":"芝浦港南地区","連絡先":"まちづくり課土木担当 電話:03-6400-0032"},{"name":"船路橋児童遊園","province":"東京都","city":"港区","address":"港区芝浦二丁目11番10号","lat":35.642188,"lon":139.752032,"URL":"<a href='https://www.city.minato.tokyo.jp/shisetsu/jidoyuen/konan/02.html' target='_blank'>https://www.city.minato.tokyo.jp/shisetsu/jidoyuen/konan/02.html</a>","分類":"公園・児童遊園・緑地","地区":"芝浦港南地区","連絡先":"まちづくり課土木担当 電話:03-6400-0032"},{"name":"末広橋児童遊園","province":"東京都","city":"港区","address":"港区海岸二丁目1番27号","lat":35.649163,"lon":139.758016,"URL":"<a href='https://www.city.minato.tokyo.jp/shisetsu/jidoyuen/konan/03.html' target='_blank'>https://www.city.minato.tokyo.jp/shisetsu/jidoyuen/konan/03.html</a>","分類":"公園・児童遊園・緑地","地区":"芝浦港南地区","連絡先":"まちづくり課土木担当 電話:03-6400-0032"},{"name":"高松くすのき公園","province":"東京都","city":"港区","address":"港区高輪一丁目5番44号","lat":35.642863,"lon":139.736173,"URL":"<a href='https://www.city.minato.tokyo.jp/shisetsu/koen/takanawa/kusunoki.html' target='_blank'>https://www.city.minato.tokyo.jp/shisetsu/koen/takanawa/kusunoki.html</a>","分類":"公園・児童遊園・緑地","地区":"高輪地区","連絡先":""},{"name":"南麻布新堀児童遊園","province":"東京都","city":"港区","address":"港区南麻布二丁目2番8号","lat":35.649949,"lon":139.735732,"URL":"<a href='https://www.city.minato.tokyo.jp/shisetsu/jidoyuen/azabu/14.html' target='_blank'>https://www.city.minato.tokyo.jp/shisetsu/jidoyuen/azabu/14.html</a>","分類":"公園・児童遊園・緑地","地区":"麻布地区","連絡先":""},{"name":"夕凪橋際遊び場","province":"東京都","city":"港区","address":"港区芝浦四丁目20番","lat":35.639288,"lon":139.750149,"URL":"<a href='https://www.city.minato.tokyo.jp/shisetsu/jidoyuen/konan/04.html' target='_blank'>https://www.city.minato.tokyo.jp/shisetsu/jidoyuen/konan/04.html</a>","分類":"公園・児童遊園・緑地","地区":"芝浦港南地区","連絡先":"まちづくり課土木担当 電話:03-6400-0032"},{"name":"港南三丁目遊び場","province":"東京都","city":"港区","address":"港区港南三丁目2番","lat":35.633299,"lon":139.750188,"URL":"<a href='https://www.city.minato.tokyo.jp/shisetsu/jidoyuen/konan/05.html' target='_blank'>https://www.city.minato.tokyo.jp/shisetsu/jidoyuen/konan/05.html</a>","分類":"公園・児童遊園・緑地","地区":"芝浦港南地区","連絡先":"まちづくり課土木担当 電話:03-6400-0032"},{"name":"笄(こうがい)児童遊園","province":"東京都","city":"港区","address":"港区西麻布二丁目1番2号","lat":35.664093,"lon":139.720022,"URL":"<a href='https://www.city.minato.tokyo.jp/shisetsu/koen/azabu/13.html' target='_blank'>https://www.city.minato.tokyo.jp/shisetsu/koen/azabu/13.html</a>","分類":"公園・児童遊園・緑地","地区":"麻布地区","連絡先":"協働推進課土木係 電話:03-5114-8803"},{"name":"高輪台遊び場","province":"東京都","city":"港区","address":"港区高輪三丁目9番","lat":35.632273,"lon":139.731773,"URL":"<a href='https://www.city.minato.tokyo.jp/shisetsu/jidoyuen/takanawa/23.html' target='_blank'>https://www.city.minato.tokyo.jp/shisetsu/jidoyuen/takanawa/23.html</a>","分類":"公園・児童遊園・緑地","地区":"高輪地区","連絡先":""},{"name":"承教寺前遊び場","province":"東京都","city":"港区","address":"港区高輪二丁目4番先","lat":35.637054,"lon":139.733879,"URL":"<a href='https://www.city.minato.tokyo.jp/shisetsu/jidoyuen/takanawa/24.html' target='_blank'>https://www.city.minato.tokyo.jp/shisetsu/jidoyuen/takanawa/24.html</a>","分類":"公園・児童遊園・緑地","地区":"高輪地区","連絡先":""},{"name":"日東坂下遊び場","province":"東京都","city":"港区","address":"港区白金台五丁目11番先","lat":35.641369,"lon":139.719468,"URL":"<a href='https://www.city.minato.tokyo.jp/shisetsu/jidoyuen/takanawa/25.html' target='_blank'>https://www.city.minato.tokyo.jp/shisetsu/jidoyuen/takanawa/25.html</a>","分類":"公園・児童遊園・緑地","地区":"高輪地区","連絡先":""},{"name":"氷川神社境内遊び場","province":"東京都","city":"港区","address":"港区赤坂六丁目10番","lat":35.667887,"lon":139.736369,"URL":"<a href='https://www.city.minato.tokyo.jp/shisetsu/koen/akasaka/09.html' target='_blank'>https://www.city.minato.tokyo.jp/shisetsu/koen/akasaka/09.html</a>","分類":"公園・児童遊園・緑地","地区":"赤坂地区","連絡先":""},{"name":"久国神社境内遊び場","province":"東京都","city":"港区","address":"港区六本木二丁目1番","lat":35.667504,"lon":139.738202,"URL":"<a href='https://www.city.minato.tokyo.jp/shisetsu/koen/azabu/15.html' target='_blank'>https://www.city.minato.tokyo.jp/shisetsu/koen/azabu/15.html</a>","分類":"公園・児童遊園・緑地","地区":"麻布地区","連絡先":""},{"name":"江戸見坂公園","province":"東京都","city":"港区","address":"港区虎ノ門二丁目10番2号","lat":35.667586,"lon":139.744121,"URL":"<a href='https://www.city.minato.tokyo.jp/shisetsu/koen/shiba/10.html' target='_blank'>https://www.city.minato.tokyo.jp/shisetsu/koen/shiba/10.html</a>","分類":"公園・児童遊園・緑地","地区":"芝地区","連絡先":""},{"name":"西桜公園","province":"東京都","city":"港区","address":"港区虎ノ門一丁目17番4号","lat":35.668062,"lon":139.74945,"URL":"<a href='https://www.city.minato.tokyo.jp/shisetsu/koen/shiba/11.html' target='_blank'>https://www.city.minato.tokyo.jp/shisetsu/koen/shiba/11.html</a>","分類":"公園・児童遊園・緑地","地区":"芝地区","連絡先":""},{"name":"西町つなぐ児童遊園","province":"東京都","city":"港区","address":"港区高輪三丁目5番5号","lat":35.63444966750826,"lon":139.7319426791163,"URL":"<a href='https://www.city.minato.tokyo.jp/shisetsu/jidoyuen/takanawa/27.html' target='_blank'>https://www.city.minato.tokyo.jp/shisetsu/jidoyuen/takanawa/27.html</a>","分類":"公園・児童遊園・緑地","地区":"高輪地区","連絡先":""},{"name":"古川さくら児童遊園","province":"東京都","city":"港区","address":"港区白金一丁目2番4号","lat":35.64660007402448,"lon":139.7335588938918,"URL":"<a href='https://www.city.minato.tokyo.jp/shisetsu/jidoyuen/takanawa/28.html' target='_blank'>https://www.city.minato.tokyo.jp/shisetsu/jidoyuen/takanawa/28.html</a>","分類":"公園・児童遊園・緑地","地区":"高輪地区","連絡先":""},{"name":"明舟公園","province":"東京都","city":"港区","address":"港区虎ノ門二丁目5番10号","lat":35.66798641448777,"lon":139.7475970705878,"URL":"<a href='https://www.city.minato.tokyo.jp/shisetsu/koen/shiba/12.html' target='_blank'>https://www.city.minato.tokyo.jp/shisetsu/koen/shiba/12.html</a>","分類":"公園・児童遊園・緑地","地区":"芝地区","連絡先":""},{"name":"愛宕一丁目緑地","province":"東京都","city":"港区","address":"港区愛宕一丁目3番1号","lat":35.66617567400436,"lon":139.7489772594872,"URL":"<a href='https://www.city.minato.tokyo.jp/shisetsu/koen/shiba/13.html' target='_blank'>https://www.city.minato.tokyo.jp/shisetsu/koen/shiba/13.html</a>","分類":"公園・児童遊園・緑地","地区":"芝地区","連絡先":""},{"name":"西新橋一丁目緑地","province":"東京都","city":"港区","address":"港区西新橋一丁目4番1号","lat":35.66969666987007,"lon":139.7534559369051,"URL":"<a href='https://www.city.minato.tokyo.jp/shisetsu/koen/shiba/14.html' target='_blank'>https://www.city.minato.tokyo.jp/shisetsu/koen/shiba/14.html</a>","分類":"公園・児童遊園・緑地","地区":"芝地区","連絡先":""}]}