{"keyword":"自転車","data":[{"name":"田町駅東口自転車等駐車場","province":"東京都","city":"港区","address":"東京都港区芝浦3丁目3","lat":35.64445202,"lon":139.74760532},{"name":"品川駅港南口自転車等駐車場","province":"東京都","city":"港区","address":"東京都港区港南2丁目14-6","lat":35.62858429,"lon":139.74182588},{"name":"白金高輪駅自転車駐車場","province":"東京都","city":"港区","address":"東京都港区高輪1丁目3-20","lat":35.64337404,"lon":139.73481206},{"name":"浜松町駅北口自転車等駐車場","province":"東京都","city":"港区","address":"東京都港区海岸1丁目2-34","lat":35.6564954,"lon":139.75840398},{"name":"こうなん星の公園自転車駐車場","province":"東京都","city":"港区","address":"東京都港区港南1丁目9-24","lat":35.62971474,"lon":139.74260355},{"name":"三河台公園自転車駐車場","province":"東京都","city":"港区","address":"東京都港区六本木4丁目2-27","lat":35.66428281,"lon":139.73380305},{"name":"桜田公園自転車駐車場","province":"東京都","city":"港区","address":"東京都港区新橋3丁目16-15","lat":35.66511941,"lon":139.75648717},{"name":"麻布十番駅自転車等駐車場","province":"東京都","city":"港区","address":"東京都港区麻布十番1丁目4-14","lat":35.65715582,"lon":139.73391164},{"name":"広尾駅自転車駐車場","province":"東京都","city":"港区","address":"東京都港区南麻布5丁目1-25","lat":35.65318651,"lon":139.72194065},{"name":"六本木駅自転車駐車場","province":"東京都","city":"港区","address":"東京都港区六本木6丁目5-19","lat":35.66165803,"lon":139.73080065},{"name":"白金台駅自転車駐車場","province":"東京都","city":"港区","address":"東京都港区白金台4丁目6-2","lat":35.63935487,"lon":139.72637686},{"name":"一の橋公園自転車駐車場","province":"東京都","city":"港区","address":"東京都港区東麻布3丁目9-1","lat":35.65603658,"lon":139.7376169}]}