{"keyword":"薬局","data":[{"name":"フレンド薬局 溜池山王店","province":"東京都","city":"港区","address":"東京都港区赤坂一丁目3番5号","lat":35.670425,"lon":139.744019,"業態":"薬局","施設方書":"赤坂アビタシオンビル1階","許可番号":"30港み生薬第98号","許可開始日":"2019/3/5","施設電話番号":"03-6441-0047"},{"name":"溜池薬局","province":"東京都","city":"港区","address":"東京都港区赤坂一丁目5番12号","lat":35.670442,"lon":139.742918,"業態":"薬局","施設方書":"","許可番号":"5港み生薬第13号","許可開始日":"2023/7/27","施設電話番号":"03-3583-0600"},{"name":"みらい薬局","province":"東京都","city":"港区","address":"東京都港区赤坂一丁目7番1号","lat":35.66922,"lon":139.741745,"業態":"薬局","施設方書":"赤坂榎坂ビル4F","許可番号":"4港み生薬第57号","許可開始日":"2023/2/1","施設電話番号":"03-5114-5101"},{"name":"そうごう薬局 赤坂インターシティAIR店","province":"東京都","city":"港区","address":"東京都港区赤坂一丁目8番1号","lat":35.669827,"lon":139.742197,"業態":"薬局","施設方書":"赤坂インターシティAIR地下1階","許可番号":"4港み生薬第15号","許可開始日":"2022/6/8","施設電話番号":"03-6441-0971"},{"name":"薬局トモズ アークヒルズ店","province":"東京都","city":"港区","address":"東京都港区赤坂一丁目12番32号","lat":35.667137,"lon":139.740015,"業態":"薬局","施設方書":"2階","許可番号":"30港み生薬第89号","許可開始日":"2019/2/8","施設電話番号":"03-6277-6381"},{"name":"エースタイル薬局","province":"東京都","city":"港区","address":"東京都港区赤坂二丁目3番5号","lat":35.671237,"lon":139.741652,"業態":"薬局","施設方書":"赤坂スターゲートプラザ地下1階","許可番号":"5港み生薬第56号","許可開始日":"2024/2/1","施設電話番号":"03-6441-0990"},{"name":"ルビー薬局 赤坂2丁目店","province":"東京都","city":"港区","address":"東京都港区赤坂二丁目10番13号","lat":35.670228,"lon":139.741517,"業態":"薬局","施設方書":"福田ビル1階","許可番号":"3港み生薬第64号","許可開始日":"2021/12/27","施設電話番号":"03-6441-0801"},{"name":"アイン薬局 赤坂溜池店","province":"東京都","city":"港区","address":"東京都港区赤坂二丁目11番15号","lat":35.670441,"lon":139.741028,"業態":"薬局","施設方書":"MY赤坂ビル1階","許可番号":"3港み生薬第66号","許可開始日":"2022/3/1","施設電話番号":"03-3568-7030"},{"name":"合資会社富谷薬局","province":"東京都","city":"港区","address":"東京都港区赤坂二丁目13番23号","lat":35.672994,"lon":139.738132,"業態":"薬局","施設方書":"","許可番号":"5港み生薬第41号","許可開始日":"2024/1/1","施設電話番号":"03-3583-3412"},{"name":"あかさか薬局","province":"東京都","city":"港区","address":"東京都港区赤坂三丁目5番2号","lat":35.673679,"lon":139.738596,"業態":"薬局","施設方書":"サンヨー赤坂ビル1階","許可番号":"4港み生薬第10号","許可開始日":"2022/5/30","施設電話番号":"03-6426-5639"},{"name":"めろん薬局","province":"東京都","city":"港区","address":"東京都港区赤坂三丁目9番2号","lat":35.677282,"lon":139.736203,"業態":"薬局","施設方書":"No.R赤坂見附302号","許可番号":"4港み生薬第60号","許可開始日":"2023/2/3","施設電話番号":"03-6459-1860"},{"name":"赤坂太陽薬局","province":"東京都","city":"港区","address":"東京都港区赤坂三丁目9番4号","lat":35.677066,"lon":139.736462,"業態":"薬局","施設方書":"サカタニビル3階","許可番号":"4港み生薬第19号","許可開始日":"2022/7/18","施設電話番号":"03-3505-4056"},{"name":"スギ薬局 赤坂見附店","province":"東京都","city":"港区","address":"東京都港区赤坂三丁目9番7号","lat":35.676733,"lon":139.736616,"業態":"薬局","施設方書":"","許可番号":"31港み生薬第7号","許可開始日":"2019/5/9","施設電話番号":"03-5797-8622"},{"name":"日本調剤 赤坂中央薬局","province":"東京都","city":"港区","address":"東京都港区赤坂三丁目13番11号","lat":35.673103,"lon":139.737251,"業態":"薬局","施設方書":"佐藤ビル1階","許可番号":"31港み生薬第35号","許可開始日":"2019/9/27","施設電話番号":"03-6230-9372"},{"name":"健康日本堂調剤薬局 赤坂店","province":"東京都","city":"港区","address":"東京都港区赤坂三丁目14番3号","lat":35.673761,"lon":139.737441,"業態":"薬局","施設方書":"渡林赤坂ビル1階","許可番号":"31港み生薬第3号","許可開始日":"2019/4/25","施設電話番号":"03-5797-8712"},{"name":"一ツ木薬局","province":"東京都","city":"港区","address":"東京都港区赤坂三丁目21番16号","lat":35.677039,"lon":139.735465,"業態":"薬局","施設方書":"SKI赤坂ビル1階","許可番号":"5港み生薬第54号","許可開始日":"2024/1/25","施設電話番号":"03-3583-0698"},{"name":"マイカ‐イ漢方薬局","province":"東京都","city":"港区","address":"東京都港区赤坂五丁目1番36号","lat":35.673974,"lon":139.736153,"業態":"薬局","施設方書":"","許可番号":"4港み生薬第73号","許可開始日":"2023/4/1","施設電話番号":"03-6824-4044"},{"name":"赤坂駅前薬局","province":"東京都","city":"港区","address":"東京都港区赤坂五丁目4番6号","lat":35.672202,"lon":139.736034,"業態":"薬局","施設方書":"赤坂三辻ビル地下1階","許可番号":"4港み生薬第56号","許可開始日":"2023/2/28","施設電話番号":"03-3560-0123"},{"name":"ニコニコ薬局 赤坂店","province":"東京都","city":"港区","address":"東京都港区赤坂五丁目4番8号","lat":35.671853,"lon":139.735724,"業態":"薬局","施設方書":"荒島ビル1F","許可番号":"31港み生薬第34号","許可開始日":"2019/10/4","施設電話番号":"03-6426-5157"},{"name":"スギ薬局 赤坂店","province":"東京都","city":"港区","address":"東京都港区赤坂五丁目5番13号","lat":35.670389,"lon":139.733775,"業態":"薬局","施設方書":"周山ビル1階","許可番号":"3港み生薬第46号","許可開始日":"2021/9/25","施設電話番号":"03-3568-7927"},{"name":"さくら薬局 東京ミッドタウン店","province":"東京都","city":"港区","address":"東京都港区赤坂九丁目7番1号","lat":35.666126,"lon":139.731247,"業態":"薬局","施設方書":"ミッドタウン・タワー 6階","許可番号":"3港み生薬第77号","許可開始日":"2022/4/1","施設電話番号":"03-5770-8361"},{"name":"さざなみ薬局 麻布十番店","province":"東京都","city":"港区","address":"東京都港区麻布十番一丁目5番12号","lat":35.65677,"lon":139.733888,"業態":"薬局","施設方書":"麻布永谷マンション1階","許可番号":"4港み生薬第50号","許可開始日":"2022/11/30","施設電話番号":"03-3478-3373"},{"name":"麻布十番調剤薬局","province":"東京都","city":"港区","address":"東京都港区麻布十番一丁目7番1号","lat":35.656628,"lon":139.734607,"業態":"薬局","施設方書":"ヨーロッパハウス1階","許可番号":"5港み生薬第49号","許可開始日":"2024/2/1","施設電話番号":"03-6434-9867"},{"name":"そうごう薬局 麻布十番店","province":"東京都","city":"港区","address":"東京都港区麻布十番一丁目7番11号","lat":35.656315,"lon":139.734587,"業態":"薬局","施設方書":"麻布井上ビル1階","許可番号":"4港み生薬第55号","許可開始日":"2023/1/1","施設電話番号":"03-3401-8717"},{"name":"南山堂薬局 麻布十番店","province":"東京都","city":"港区","address":"東京都港区麻布十番二丁目2番7号","lat":35.655289,"lon":139.735645,"業態":"薬局","施設方書":"野口ビル1階","許可番号":"4港み生薬第1号","許可開始日":"2022/5/7","施設電話番号":"03-6435-1572"},{"name":"ウエルシア薬局麻布十番店","province":"東京都","city":"港区","address":"東京都港区麻布十番二丁目9番2号","lat":35.655056,"lon":139.734454,"業態":"薬局","施設方書":"2階","許可番号":"4港み生薬第44号","許可開始日":"2022/11/28","施設電話番号":"03-5439-6682"},{"name":"ハピネス薬局 麻布十番店","province":"東京都","city":"港区","address":"東京都港区麻布十番二丁目13番1号","lat":35.65503,"lon":139.735006,"業態":"薬局","施設方書":"COLLET麻布1階","許可番号":"5港み生薬第48号","許可開始日":"2024/1/1","施設電話番号":"03-6665-8551"},{"name":"薬樹薬局 麻布十番","province":"東京都","city":"港区","address":"東京都港区麻布十番二丁目18番1号","lat":35.65456,"lon":139.735975,"業態":"薬局","施設方書":"","許可番号":"4港み生薬第24号","許可開始日":"2022/8/1","施設電話番号":"03-3457-0054"},{"name":"薬局日本メディカルシステム 麻布十番店","province":"東京都","city":"港区","address":"東京都港区麻布十番二丁目20番6号","lat":35.65495,"lon":139.736682,"業態":"薬局","施設方書":"麻布十番エムエービルディング1F","許可番号":"4港み生薬第64号","許可開始日":"2023/3/8","施設電話番号":"03-6275-1057"},{"name":"薬局トモズ 麻布十番店","province":"東京都","city":"港区","address":"東京都港区麻布十番三丁目7番11号","lat":35.653587,"lon":139.734806,"業態":"薬局","施設方書":"シャトーデスポワール麻布101号","許可番号":"3港み生薬第72号","許可開始日":"2022/4/1","施設電話番号":"03-5440-3250"},{"name":"そうごう薬局 麻布台ヒルズ店","province":"東京都","city":"港区","address":"東京都港区麻布台一丁目3番1号","lat":35.660882,"lon":139.740657,"業態":"薬局","施設方書":"麻布台ヒルズタワープラザ4階","許可番号":"5港み生薬第33号","許可開始日":"2023/10/2","施設電話番号":"03-5544-9351"},{"name":"ファイン薬局 ハマサイト","province":"東京都","city":"港区","address":"東京都港区海岸一丁目2番20号","lat":35.656822,"lon":139.759378,"業態":"薬局","施設方書":"汐留ビルディング2-10","許可番号":"2港み生薬第17号","許可開始日":"2020/8/1","施設電話番号":"03-5843-8857"},{"name":"セルフケア薬局 東京ポートシティ竹芝店","province":"東京都","city":"港区","address":"東京都港区海岸一丁目7番1号","lat":35.655311,"lon":139.7604,"業態":"薬局","施設方書":"東京ポートシティ竹芝オフィスタワー6階","許可番号":"4港み生薬第34号","許可開始日":"2022/10/1","施設電話番号":""},{"name":"ファーマライズ薬局 アトレ竹芝店","province":"東京都","city":"港区","address":"東京都港区海岸一丁目10番30号","lat":35.655961,"lon":139.762878,"業態":"薬局","施設方書":"タワー棟3階","許可番号":"2港み生薬第22号","許可開始日":"2020/8/7","施設電話番号":"03-6402-3434"},{"name":"MEGURU漢方薬局","province":"東京都","city":"港区","address":"東京都港区北青山二丁目9番13号","lat":35.671249,"lon":139.716529,"業態":"薬局","施設方書":"斎藤ビル201","許可番号":"3港み生薬第50号","許可開始日":"2021/10/14","施設電話番号":"03-6271-5800"},{"name":"薬樹薬局 青山","province":"東京都","city":"港区","address":"東京都港区北青山三丁目3番10号","lat":35.668151,"lon":139.714863,"業態":"薬局","施設方書":"紀文堂ビル1階","許可番号":"3港み生薬第25号","許可開始日":"2021/8/2","施設電話番号":"03-3402-7450"},{"name":"フレンド薬局 表参道店","province":"東京都","city":"港区","address":"東京都港区北青山三丁目10番6号","lat":35.664309,"lon":139.710943,"業態":"薬局","施設方書":"第二秋月ビル1階","許可番号":"5港み生薬第36号","許可開始日":"2023/12/21","施設電話番号":"03-6805-0962"},{"name":"ことぶき薬局 青山店","province":"東京都","city":"港区","address":"東京都港区北青山三丁目12番2号","lat":35.663689,"lon":139.710025,"業態":"薬局","施設方書":"武村ビル1-A","許可番号":"30港み生薬第81号","許可開始日":"2018/12/1","施設電話番号":"03-3499-5165"},{"name":"薬局ケーアイファーマシー 品川シーズンテラス","province":"東京都","city":"港区","address":"東京都港区港南一丁目2番70号","lat":35.632491,"lon":139.743066,"業態":"薬局","施設方書":"品川シーズンテラス2階","許可番号":"3港み生薬第32号","許可開始日":"2021/8/5","施設電話番号":"03-6712-8117"},{"name":"品川薬局","province":"東京都","city":"港区","address":"東京都港区港南二丁目2番2号","lat":35.629354,"lon":139.742184,"業態":"薬局","施設方書":"富士ビル1階","許可番号":"3港み生薬第73号","許可開始日":"2022/3/7","施設電話番号":"03-6260-0077"},{"name":"ミツバ薬局","province":"東京都","city":"港区","address":"東京都港区港南二丁目3番26号","lat":35.628927,"lon":139.742939,"業態":"薬局","施設方書":"モンテーヌ品川102","許可番号":"2港み生薬第19号","許可開始日":"2020/8/1","施設電話番号":"03-3474-3878"},{"name":"みらくる薬局 品川駅前店","province":"東京都","city":"港区","address":"東京都港区港南二丁目6番7号","lat":35.628461,"lon":139.74247,"業態":"薬局","施設方書":"大善ビル2階","許可番号":"31港み生薬第77号","許可開始日":"2020/3/5","施設電話番号":"03-6433-2670"},{"name":"薬局トモズ 品川インターシティ店","province":"東京都","city":"港区","address":"東京都港区港南二丁目15番2号","lat":35.627117,"lon":139.741899,"業態":"薬局","施設方書":"品川インターシティ2階","許可番号":"31港み生薬第76号","許可開始日":"2020/4/1","施設電話番号":"03-5782-8889"},{"name":"トリモ薬局","province":"東京都","city":"港区","address":"東京都港区港南二丁目16番1号","lat":35.62777,"lon":139.7409,"業態":"薬局","施設方書":"品川イーストワンタワー3階","許可番号":"30港み生薬第75号","許可開始日":"2018/12/1","施設電話番号":"03-6718-2938"},{"name":"トキワ調剤薬局","province":"東京都","city":"港区","address":"東京都港区港南二丁目16番7号","lat":35.624961,"lon":139.740378,"業態":"薬局","施設方書":"201-1","許可番号":"3港み生薬第3号","許可開始日":"2021/5/16","施設電話番号":"03-5783-6460"},{"name":"ファルマルシェ薬局 品川港南","province":"東京都","city":"港区","address":"東京都港区港南四丁目2番6‐203号","lat":35.630966,"lon":139.748045,"業態":"薬局","施設方書":"","許可番号":"30港み生薬第72号","許可開始日":"2018/12/1","施設電話番号":"03-3474-1781"},{"name":"株式会社湘南薬品 港南薬局","province":"東京都","city":"港区","address":"東京都港区港南四丁目6番7号","lat":35.627474,"lon":139.75059,"業態":"薬局","施設方書":"ワールドシティータワーズキャピタルタワー1階","許可番号":"5港み生薬第29号","許可開始日":"2023/10/1","施設電話番号":"03-3471-8375"},{"name":"薬局桑山清心堂","province":"東京都","city":"港区","address":"東京都港区芝二丁目12番1号","lat":35.651624,"lon":139.7526,"業態":"薬局","施設方書":"","許可番号":"30港み生薬第27号","許可開始日":"2018/7/1","施設電話番号":"03-3452-8721"},{"name":"ライオン薬局","province":"東京都","city":"港区","address":"東京都港区芝二丁目18番3号","lat":35.651645,"lon":139.750893,"業態":"薬局","施設方書":"カレン芝公園1階","許可番号":"3港み生薬第36号","許可開始日":"2021/8/8","施設電話番号":"03-3451-6278"},{"name":"アイン薬局 三田店","province":"東京都","city":"港区","address":"東京都港区芝四丁目5番8号","lat":35.648842,"lon":139.751266,"業態":"薬局","施設方書":"池藤ビル1階","許可番号":"3港み生薬第67号","許可開始日":"2022/3/1","施設電話番号":"03-6722-0971"},{"name":"三田薬局","province":"東京都","city":"港区","address":"東京都港区芝四丁目14番1号","lat":35.647414,"lon":139.749157,"業態":"薬局","施設方書":"第2田町ビル1階","許可番号":"30港み生薬第80号","許可開始日":"2018/12/17","施設電話番号":"03-5443-3515"},{"name":"薬局ユニファー 慶大前店","province":"東京都","city":"港区","address":"東京都港区芝五丁目1番12号","lat":35.649937,"lon":139.745137,"業態":"薬局","施設方書":"MAビル芝1階","許可番号":"5港み生薬第12号","許可開始日":"2023/8/1","施設電話番号":"03-6722-6488"},{"name":"薬局ユニファー","province":"東京都","city":"港区","address":"東京都港区芝五丁目15番1号","lat":35.648706,"lon":139.745332,"業態":"薬局","施設方書":"1階","許可番号":"31港み生薬第79号","許可開始日":"2020/4/1","施設電話番号":"03-6809-6591"},{"name":"ココカラファイン薬局 三田店","province":"東京都","city":"港区","address":"東京都港区芝五丁目25番11号","lat":35.647551,"lon":139.744845,"業態":"薬局","施設方書":"ヒューリック三田ビル1階","許可番号":"3港み生薬第39号","許可開始日":"2021/9/9","施設電話番号":"03-6435-1751"},{"name":"いるか田町薬局","province":"東京都","city":"港区","address":"東京都港区芝五丁目27番5号","lat":35.647121,"lon":139.746323,"業態":"薬局","施設方書":"山田ビル1階","許可番号":"5港み生薬第24号","許可開始日":"2023/10/1","施設電話番号":"03-6453-8207"},{"name":"クオール薬局田町店","province":"東京都","city":"港区","address":"東京都港区芝五丁目31番5号","lat":35.646742,"lon":139.746183,"業態":"薬局","施設方書":"MEFULL田町1階","許可番号":"4港み生薬第53号","許可開始日":"2023/1/23","施設電話番号":"03-6435-3089"},{"name":"ドラッグセイムス田町西口薬局","province":"東京都","city":"港区","address":"東京都港区芝五丁目32番12号","lat":35.647171,"lon":139.747269,"業態":"薬局","施設方書":"シャーメゾンステージ田町2階","許可番号":"2港み生薬第51号","許可開始日":"2021/1/13","施設電話番号":"03-6435-4071"},{"name":"浜松町スマイル薬局","province":"東京都","city":"港区","address":"東京都港区芝浦一丁目1番1号","lat":35.652259,"lon":139.757302,"業態":"薬局","施設方書":"浜松町ビルディング1階","許可番号":"2港み生薬第47号","許可開始日":"2021/1/1","施設電話番号":"03-5419-7855"},{"name":"あたご調剤薬局 浜松町店","province":"東京都","city":"港区","address":"東京都港区芝浦一丁目3番10号","lat":35.649863,"lon":139.755531,"業態":"薬局","施設方書":"チサンホテル浜松町1階","許可番号":"4港み生薬第11号","許可開始日":"2022/6/1","施設電話番号":"03-6811-5655"},{"name":"芝浦薬局","province":"東京都","city":"港区","address":"東京都港区芝浦二丁目16番5号","lat":35.644354,"lon":139.752258,"業態":"薬局","施設方書":"","許可番号":"30港み生薬第9号","許可開始日":"2018/5/20","施設電話番号":"03-3452-0687"},{"name":"ツヅノ薬局 田町店","province":"東京都","city":"港区","address":"東京都港区芝浦三丁目1番32号","lat":35.644924,"lon":139.748367,"業態":"薬局","施設方書":"なぎさテラス206","許可番号":"30港み生薬第1号","許可開始日":"2018/4/28","施設電話番号":"03-3452-5001"},{"name":"田町駅前薬局","province":"東京都","city":"港区","address":"東京都港区芝浦三丁目1番32号","lat":35.644924,"lon":139.748367,"業態":"薬局","施設方書":"なぎさテラス108‐B","許可番号":"4港み生薬第48号","許可開始日":"2022/12/1","施設電話番号":"03-3457-7700"},{"name":"ドラッグセイムス芝浦3丁目薬局","province":"東京都","city":"港区","address":"東京都港区芝浦三丁目2番22号","lat":35.644302,"lon":139.749614,"業態":"薬局","施設方書":"","許可番号":"31港み生薬第63号","許可開始日":"2020/3/1","施設電話番号":"03-6809-3144"},{"name":"田町芝浦ファミリー薬局","province":"東京都","city":"港区","address":"東京都港区芝浦三丁目2番29号","lat":35.644773,"lon":139.750814,"業態":"薬局","施設方書":"神田ビル1階","許可番号":"31港み生薬第82号","許可開始日":"2020/4/6","施設電話番号":"03-6436-7903"},{"name":"ウエルシア薬局田町グランパーク店","province":"東京都","city":"港区","address":"東京都港区芝浦三丁目4番1号","lat":35.643577,"lon":139.745802,"業態":"薬局","施設方書":"グランパークB1F","許可番号":"4港み生薬第14号","許可開始日":"2022/6/8","施設電話番号":"03-6435-0925"},{"name":"セイムス田町薬局","province":"東京都","city":"港区","address":"東京都港区芝浦三丁目12番2号","lat":35.642727,"lon":139.749401,"業態":"薬局","施設方書":"","許可番号":"31港み生薬第61号","許可開始日":"2020/3/1","施設電話番号":"03-6435-3310"},{"name":"ひむか薬局芝浦店","province":"東京都","city":"港区","address":"東京都港区芝浦三丁目13番11号","lat":35.642784,"lon":139.748431,"業態":"薬局","施設方書":"メディカルスクウェア芝浦1階","許可番号":"4港み生薬第35号","許可開始日":"2022/10/3","施設電話番号":"03-6275-1502"},{"name":"はなみずき薬局","province":"東京都","city":"港区","address":"東京都港区芝浦三丁目13番18号","lat":35.643222,"lon":139.748857,"業態":"薬局","施設方書":"TOHOビル1階","許可番号":"4港み生薬第27号","許可開始日":"2022/8/1","施設電話番号":"03-6809-3166"},{"name":"ドラッグセイムス芝浦海岸通薬局","province":"東京都","city":"港区","address":"東京都港区芝浦四丁目13番23号","lat":35.64024,"lon":139.748062,"業態":"薬局","施設方書":"MS芝浦ビル1階","許可番号":"5港み生薬第31号","許可開始日":"2023/10/2","施設電話番号":"03-6435-3181"},{"name":"日本調剤芝浦アイランド薬局","province":"東京都","city":"港区","address":"東京都港区芝浦四丁目20番4号","lat":35.638835,"lon":139.751832,"業態":"薬局","施設方書":"芝浦アイランドブルームホームズ1階","許可番号":"2港み生薬第48号","許可開始日":"2021/1/1","施設電話番号":"03-5730-2230"},{"name":"慶應義塾大学薬学部附属薬局","province":"東京都","city":"港区","address":"東京都港区芝公園一丁目5番30号","lat":35.658422,"lon":139.751686,"業態":"薬局","施設方書":"","許可番号":"31港み生薬第64号","許可開始日":"2020/4/1","施設電話番号":"03-5400-2636"},{"name":"ザ メディカル ディスペンサリー","province":"東京都","city":"港区","address":"東京都港区芝公園三丁目4番30号","lat":35.658906,"lon":139.746403,"業態":"薬局","施設方書":"32芝公園ビル1階","許可番号":"4港み生薬第5号","許可開始日":"2022/5/17","施設電話番号":"03-3434-5817"},{"name":"アイン薬局 芝大門店","province":"東京都","city":"港区","address":"東京都港区芝大門一丁目1番33号","lat":35.660038,"lon":139.752771,"業態":"薬局","施設方書":"三洋ビル1階","許可番号":"4港み生薬第23号","許可開始日":"2022/8/5","施設電話番号":"03-6452-8952"},{"name":"ナチュラルローソンクオール薬局 芝大門一丁目店","province":"東京都","city":"港区","address":"東京都港区芝大門一丁目6番3号","lat":35.658143,"lon":139.754208,"業態":"薬局","施設方書":"","許可番号":"30港み生薬第49号","許可開始日":"2018/10/1","施設電話番号":"03-5425-1389"},{"name":"スギ薬局 芝大門店","province":"東京都","city":"港区","address":"東京都港区芝大門二丁目2番1号","lat":35.656628,"lon":139.753387,"業態":"薬局","施設方書":"ACN芝大門ビルディング1F","許可番号":"3港み生薬第30号","許可開始日":"2021/7/29","施設電話番号":"03-6435-7676"},{"name":"清水薬局","province":"東京都","city":"港区","address":"東京都港区芝大門二丁目3番15号","lat":35.656014,"lon":139.753785,"業態":"薬局","施設方書":"","許可番号":"5港み生薬第39号","許可開始日":"2023/12/13","施設電話番号":"03-3431-0877"},{"name":"おだいじに薬局芝大門店","province":"東京都","city":"港区","address":"東京都港区芝大門二丁目5番1号","lat":35.653881,"lon":139.753611,"業態":"薬局","施設方書":"アルテビルディングB2階","許可番号":"4港み生薬第69号","許可開始日":"2023/4/1","施設電話番号":"03-5408-6623"},{"name":"清水薬局 芝公園店","province":"東京都","city":"港区","address":"東京都港区芝大門二丁目7番10号","lat":35.65495,"lon":139.753119,"業態":"薬局","施設方書":"NAKAJIMA・ナカヤビル1階","許可番号":"5港み生薬第51号","許可開始日":"2024/2/2","施設電話番号":"03-3434-0331"},{"name":"おだいじに薬局 芝公園店","province":"東京都","city":"港区","address":"東京都港区芝大門二丁目10番2号","lat":35.654753,"lon":139.753299,"業態":"薬局","施設方書":"竹内ビル1階","許可番号":"2港み生薬第61号","許可開始日":"2021/4/1","施設電話番号":"03-5733-3238"},{"name":"白金ザ・スカイ薬局","province":"東京都","city":"港区","address":"東京都港区白金一丁目2番2号","lat":35.646231,"lon":139.735073,"業態":"薬局","施設方書":"白金ザ・スカイ西棟1階W111-2","許可番号":"4港み生薬第63号","許可開始日":"2023/3/20","施設電話番号":"03-6432-5626"},{"name":"白金調剤薬局","province":"東京都","city":"港区","address":"東京都港区白金一丁目14番11号","lat":35.645313,"lon":139.73334,"業態":"薬局","施設方書":"","許可番号":"4港み生薬第75号","許可開始日":"2023/3/29","施設電話番号":"03-6277-3242"},{"name":"パーム薬局","province":"東京都","city":"港区","address":"東京都港区白金一丁目25番31号","lat":35.644431,"lon":139.731574,"業態":"薬局","施設方書":"レジデンス白金103","許可番号":"31港み生薬第14号","許可開始日":"2019/6/1","施設電話番号":"03-5447-5808"},{"name":"白金ヴェルデ薬局","province":"東京都","city":"港区","address":"東京都港区白金一丁目26番3号","lat":35.644106,"lon":139.733317,"業態":"薬局","施設方書":"白金ファクトリーファイブ101号室","許可番号":"2港み生薬第20号","許可開始日":"2020/10/1","施設電話番号":"03-6450-2645"},{"name":"ヤブザキ信栄堂薬局","province":"東京都","city":"港区","address":"東京都港区白金一丁目28番18号","lat":35.643758,"lon":139.732976,"業態":"薬局","施設方書":"","許可番号":"5港み生薬第46号","許可開始日":"2024/1/1","施設電話番号":"03-3441-4438"},{"name":"玉菊薬局","province":"東京都","city":"港区","address":"東京都港区白金三丁目1番4号","lat":35.646889,"lon":139.731254,"業態":"薬局","施設方書":"白金ハイツ1F","許可番号":"30港み生薬第88号","許可開始日":"2019/2/15","施設電話番号":"03-3441-1972"},{"name":"白金台南薬局","province":"東京都","city":"港区","address":"東京都港区白金六丁目6番1号","lat":35.644302,"lon":139.725567,"業態":"薬局","施設方書":"マンション芝白金1階106号","許可番号":"4港み生薬第70号","許可開始日":"2023/4/1","施設電話番号":"03-5421-0880"},{"name":"白金中央薬局","province":"東京都","city":"港区","address":"東京都港区白金六丁目22番11号","lat":35.643471,"lon":139.721148,"業態":"薬局","施設方書":"","許可番号":"30港み生薬第68号","許可開始日":"2018/11/1","施設電話番号":"03-3444-1574"},{"name":"太安居漢方薬局白金","province":"東京都","city":"港区","address":"東京都港区白金台一丁目1番16号","lat":35.639061,"lon":139.72871,"業態":"薬局","施設方書":"S白金台1階","許可番号":"2港み生薬第43号","許可開始日":"2020/12/15","施設電話番号":"03-4362-6026"},{"name":"ナチュラルローソンクオール薬局 高輪台駅前店","province":"東京都","city":"港区","address":"東京都港区白金台二丁目26番10号","lat":35.631766,"lon":139.729948,"業態":"薬局","施設方書":"グリーンオーク高輪台1階","許可番号":"30港み生薬第52号","許可開始日":"2018/10/1","施設電話番号":"03-5447-2211"},{"name":"調剤薬局ツルハドラッグ 白金台店","province":"東京都","city":"港区","address":"東京都港区白金台三丁目15番6号","lat":35.63666,"lon":139.724079,"業態":"薬局","施設方書":"マスレンビル1階","許可番号":"3港み生薬第5号","許可開始日":"2021/5/16","施設電話番号":"03-5789-9175"},{"name":"白金台鈴薬局","province":"東京都","city":"港区","address":"東京都港区白金台三丁目16番13号","lat":35.636541,"lon":139.723791,"業態":"薬局","施設方書":"白金台ウスイビル1階","許可番号":"31港み生薬第56号","許可開始日":"2020/2/1","施設電話番号":"03-3442-3493"},{"name":"ココカラファイン薬局 白金台店","province":"東京都","city":"港区","address":"東京都港区白金台四丁目3番19号","lat":35.639029,"lon":139.727802,"業態":"薬局","施設方書":"","許可番号":"31港み生薬第67号","許可開始日":"2020/3/1","施設電話番号":"03-5791-9235"},{"name":"白金台薬局","province":"東京都","city":"港区","address":"東京都港区白金台四丁目5番5号","lat":35.638859,"lon":139.727394,"業態":"薬局","施設方書":"","許可番号":"5港み生薬第40号","許可開始日":"2024/1/1","施設電話番号":"03-3446-4004"},{"name":"白金台調剤薬局","province":"東京都","city":"港区","address":"東京都港区白金台四丁目7番7号","lat":35.637954,"lon":139.725817,"業態":"薬局","施設方書":"姫路マッチ白金台ビル201号","許可番号":"2港み生薬第58号","許可開始日":"2021/4/1","施設電話番号":"03-3448-0521"},{"name":"有限会社芝口薬局","province":"東京都","city":"港区","address":"東京都港区新橋一丁目4番3号","lat":35.667846,"lon":139.759358,"業態":"薬局","施設方書":"芝ビル1階","許可番号":"30港み生薬第24号","許可開始日":"2018/7/1","施設電話番号":"03-3571-6809"},{"name":"スギ薬局 新橋駅前店","province":"東京都","city":"港区","address":"東京都港区新橋一丁目12番9号","lat":35.667649,"lon":139.758848,"業態":"薬局","施設方書":"新橋プレイス1階","許可番号":"30港み生薬第30号","許可開始日":"2018/7/2","施設電話番号":"03-6263-8992"},{"name":"宮﨑薬局","province":"東京都","city":"港区","address":"東京都港区新橋一丁目18番12号","lat":35.668295,"lon":139.756363,"業態":"薬局","施設方書":"新橋一丁目ビル1階","許可番号":"4港み生薬第28号","許可開始日":"2022/9/26","施設電話番号":"03-3591-2854"},{"name":"ドラッグセイムス新橋日比谷口薬局","province":"東京都","city":"港区","address":"東京都港区新橋二丁目6番2号","lat":35.667648,"lon":139.756942,"業態":"薬局","施設方書":"新橋アイマークビル1階","許可番号":"3港み生薬第7号","許可開始日":"2021/5/17","施設電話番号":"03-6811-2091"},{"name":"新橋内幸町薬局","province":"東京都","city":"港区","address":"東京都港区新橋二丁目12番16号","lat":35.667443,"lon":139.754686,"業態":"薬局","施設方書":"明和ビル5階5‐東号室","許可番号":"31港み生薬第20号","許可開始日":"2019/5/30","施設電話番号":"03-6811-2384"},{"name":"あかひげ薬局","province":"東京都","city":"港区","address":"東京都港区新橋二丁目15番16号","lat":35.666599,"lon":139.755914,"業態":"薬局","施設方書":"マクゲンビル1階","許可番号":"5港み生薬第70号","許可開始日":"2024/4/11","施設電話番号":"03-3591-0960"},{"name":"新橋調剤薬局","province":"東京都","city":"港区","address":"東京都港区新橋二丁目16番1号","lat":35.666423,"lon":139.757358,"業態":"薬局","施設方書":"ニュー新橋ビル345号","許可番号":"30港み生薬第44号","許可開始日":"2018/9/30","施設電話番号":"03-3580-6337"},{"name":"スギ薬局 ニュー新橋ビル店","province":"東京都","city":"港区","address":"東京都港区新橋二丁目16番1号","lat":35.666423,"lon":139.757358,"業態":"薬局","施設方書":"ニュー新橋ビル1階","許可番号":"31港み生薬第24号","許可開始日":"2019/8/16","施設電話番号":"03-6550-9310"},{"name":"バンビー薬局 ニュー新橋ビル店","province":"東京都","city":"港区","address":"東京都港区新橋二丁目16番1号","lat":35.666423,"lon":139.757358,"業態":"薬局","施設方書":"ニュー新橋ビル内344号","許可番号":"5港み生薬第25号","許可開始日":"2023/9/1","施設電話番号":"03-3580-3159"},{"name":"たんぽぽ薬局 新橋店","province":"東京都","city":"港区","address":"東京都港区新橋三丁目2番4号","lat":35.666317,"lon":139.754578,"業態":"薬局","施設方書":"MKプレイス1階","許可番号":"3港み生薬第80号","許可開始日":"2022/4/4","施設電話番号":"03-6268-8748"},{"name":"バンビー薬局 本店","province":"東京都","city":"港区","address":"東京都港区新橋三丁目19番2号","lat":35.665014,"lon":139.757551,"業態":"薬局","施設方書":"","許可番号":"5港み生薬第26号","許可開始日":"2023/9/1","施設電話番号":"03-3432-0288"},{"name":"ミテミィ薬局 新橋店","province":"東京都","city":"港区","address":"東京都港区新橋五丁目7番12号","lat":35.663688,"lon":139.754447,"業態":"薬局","施設方書":"丸石新橋ビル2階","許可番号":"5港み生薬第62号","許可開始日":"2024/3/6","施設電話番号":"03-6435-9753"},{"name":"台場薬局","province":"東京都","city":"港区","address":"東京都港区台場一丁目5番7号","lat":35.630205,"lon":139.777948,"業態":"薬局","施設方書":"トミンハイム台場五番街104号","許可番号":"4港み生薬第33号","許可開始日":"2022/10/1","施設電話番号":"03-5531-0606"},{"name":"幸城薬局 台場店","province":"東京都","city":"港区","address":"東京都港区台場二丁目6番1号","lat":35.625144,"lon":139.771569,"業態":"薬局","施設方書":"グランドニッコー東京台場2階","許可番号":"5港み生薬第47号","許可開始日":"2024/2/22","施設電話番号":"03-5324-2413"},{"name":"薬局トモズ白金高輪店","province":"東京都","city":"港区","address":"東京都港区高輪一丁目3番1号","lat":35.643617,"lon":139.735347,"業態":"薬局","施設方書":"プレミストタワー白金高輪1階","許可番号":"4港み生薬第76号","許可開始日":"2023/3/27","施設電話番号":"03-6432-5037"},{"name":"薬局マツモトキヨシ 白金高輪店","province":"東京都","city":"港区","address":"東京都港区高輪一丁目3番13号","lat":35.643965,"lon":139.735909,"業態":"薬局","施設方書":"NBF高輪ビル1階","許可番号":"4港み生薬第43号","許可開始日":"2023/2/1","施設電話番号":"03-5420-8696"},{"name":"日本調剤 白金高輪薬局","province":"東京都","city":"港区","address":"東京都港区高輪一丁目4番13号","lat":35.643458,"lon":139.735714,"業態":"薬局","施設方書":"高輪NYビル1階","許可番号":"3港み生薬第33号","許可開始日":"2021/8/1","施設電話番号":"03-6721-7071"},{"name":"オーベル薬局 白金高輪店","province":"東京都","city":"港区","address":"東京都港区高輪一丁目5番20号","lat":35.641119,"lon":139.73755,"業態":"薬局","施設方書":"井出ビル101号","許可番号":"2港み生薬第36号","許可開始日":"2021/1/7","施設電話番号":"03-6409-6220"},{"name":"高輪1丁目薬局","province":"東京都","city":"港区","address":"東京都港区高輪一丁目27番20号","lat":35.636664,"lon":139.733219,"業態":"薬局","施設方書":"","許可番号":"5港み生薬第53号","許可開始日":"2024/2/1","施設電話番号":"03-3445-5693"},{"name":"オーベル薬局 高輪店","province":"東京都","city":"港区","address":"東京都港区高輪二丁目15番8号","lat":35.637554,"lon":139.738838,"業態":"薬局","施設方書":"グレイスビル泉岳寺前102号","許可番号":"2港み生薬第57号","許可開始日":"2021/5/1","施設電話番号":"03-3440-6833"},{"name":"たかなわ台薬局","province":"東京都","city":"港区","address":"東京都港区高輪三丁目7番8号","lat":35.632756,"lon":139.732319,"業態":"薬局","施設方書":"西町ビル1F","許可番号":"4港み生薬第66号","許可開始日":"2023/3/7","施設電話番号":"03-5422-8158"},{"name":"メトロファーマシー高輪台","province":"東京都","city":"港区","address":"東京都港区高輪三丁目8番17号","lat":35.632912,"lon":139.731176,"業態":"薬局","施設方書":"メディカルプライム高輪1F","許可番号":"3港み生薬第15号","許可開始日":"2021/6/1","施設電話番号":"03-5424-1231"},{"name":"あさひ薬局 高輪店","province":"東京都","city":"港区","address":"東京都港区高輪三丁目9番11号","lat":35.632121,"lon":139.731964,"業態":"薬局","施設方書":"","許可番号":"4港み生薬第52号","許可開始日":"2023/2/28","施設電話番号":"03-3440-1100"},{"name":"調剤薬局ツルハドラッグ 高輪台店","province":"東京都","city":"港区","address":"東京都港区高輪三丁目10番1号","lat":35.631939,"lon":139.731234,"業態":"薬局","施設方書":"藤ビル1階","許可番号":"3港み生薬第4号","許可開始日":"2021/5/16","施設電話番号":"03-5739-1266"},{"name":"クオール薬局 高輪店","province":"東京都","city":"港区","address":"東京都港区高輪三丁目10番10号","lat":35.631746,"lon":139.731906,"業態":"薬局","施設方書":"","許可番号":"30港み生薬第53号","許可開始日":"2018/10/1","施設電話番号":"03-5447-6289"},{"name":"有限会社アカビシ薬局","province":"東京都","city":"港区","address":"東京都港区高輪三丁目10番38号","lat":35.631919,"lon":139.73109,"業態":"薬局","施設方書":"","許可番号":"31港み生薬第52号","許可開始日":"2020/2/1","施設電話番号":"03-3441-8092"},{"name":"パンダ薬局 高輪店","province":"東京都","city":"港区","address":"東京都港区高輪三丁目24番21号","lat":35.632835,"lon":139.738052,"業態":"薬局","施設方書":"DK 品川ビル1階","許可番号":"3港み生薬第6号","許可開始日":"2021/5/6","施設電話番号":"03-5422-8517"},{"name":"スギ薬局 虎ノ門店","province":"東京都","city":"港区","address":"東京都港区虎ノ門一丁目1番12号","lat":35.670057,"lon":139.751452,"業態":"薬局","施設方書":"虎ノ門ビル1階","許可番号":"31港み生薬第1号","許可開始日":"2019/5/7","施設電話番号":"03-5501-0470"},{"name":"日野薬局 虎ノ門店","province":"東京都","city":"港区","address":"東京都港区虎ノ門一丁目1番16号","lat":35.670031,"lon":139.75121,"業態":"薬局","施設方書":"小林ビル1階","許可番号":"5港み生薬第6号","許可開始日":"2023/6/29","施設電話番号":"03-3580-6400"},{"name":"なの花薬局 虎ノ門店","province":"東京都","city":"港区","address":"東京都港区虎ノ門一丁目1番18号","lat":35.670054,"lon":139.750888,"業態":"薬局","施設方書":"ヒューリック虎ノ門ビル1階","許可番号":"4港み生薬第18号","許可開始日":"2022/6/6","施設電話番号":"03-6206-7480"},{"name":"ひかり薬局","province":"東京都","city":"港区","address":"東京都港区虎ノ門一丁目1番20号","lat":35.670155,"lon":139.750592,"業態":"薬局","施設方書":"虎ノ門実業会館地下2階","許可番号":"5港み生薬第59号","許可開始日":"2024/4/1","施設電話番号":"03-3595-3057"},{"name":"あおい調剤薬局","province":"東京都","city":"港区","address":"東京都港区虎ノ門一丁目2番16号","lat":35.669273,"lon":139.74762,"業態":"薬局","施設方書":"浜崎ビル1階","許可番号":"30港み生薬第57号","許可開始日":"2018/9/5","施設電話番号":"03-3591-0356"},{"name":"日生薬局 2号店","province":"東京都","city":"港区","address":"東京都港区虎ノ門一丁目2番17号","lat":35.669299,"lon":139.747541,"業態":"薬局","施設方書":"","許可番号":"4港み生薬第49号","許可開始日":"2023/1/1","施設電話番号":"03-5251-4145"},{"name":"日生薬局 虎ノ門店","province":"東京都","city":"港区","address":"東京都港区虎ノ門一丁目2番18号","lat":35.666953,"lon":139.749203,"業態":"薬局","施設方書":"虎ノ門興業ビルディング地下1階","許可番号":"3港み生薬第9号","許可開始日":"2021/6/23","施設電話番号":"03-3539-1721"},{"name":"日本調剤 虎ノ門薬局","province":"東京都","city":"港区","address":"東京都港区虎ノ門一丁目2番18号","lat":35.666953,"lon":139.749203,"業態":"薬局","施設方書":"虎之門興業ビルディング1階・2階","許可番号":"4港み生薬第17号","許可開始日":"2022/6/28","施設電話番号":"03-3539-4712"},{"name":"クオール薬局 虎ノ門店","province":"東京都","city":"港区","address":"東京都港区虎ノ門一丁目16番17号","lat":35.668512,"lon":139.748569,"業態":"薬局","施設方書":"黒沢ビル1階","許可番号":"30港み生薬第63号","許可開始日":"2018/10/2","施設電話番号":"03-6205-8189"},{"name":"スギ薬局 虎ノ門ヒルズ駅前店","province":"東京都","city":"港区","address":"東京都港区虎ノ門一丁目21番17号","lat":35.667985,"lon":139.748478,"業態":"薬局","施設方書":"虎ノ門NNビル1階","許可番号":"31港み生薬第22号","許可開始日":"2019/7/26","施設電話番号":"03-5860-9555"},{"name":"さくら薬局 虎ノ門2丁目タワー店","province":"東京都","city":"港区","address":"東京都港区虎ノ門二丁目3番17号","lat":35.668408,"lon":139.746762,"業態":"薬局","施設方書":"虎ノ門2丁目タワー1階","許可番号":"2港み生薬第33号","許可開始日":"2020/12/1","施設電話番号":"03-3503-5500"},{"name":"さくら薬局 虎ノ門店","province":"東京都","city":"港区","address":"東京都港区虎ノ門二丁目3番22号","lat":35.668817,"lon":139.746977,"業態":"薬局","施設方書":"第1秋山ビルディング1階","許可番号":"3港み生薬第75号","許可開始日":"2022/4/1","施設電話番号":"03-5532-1805"},{"name":"ココカラファイン薬局 虎ノ門店","province":"東京都","city":"港区","address":"東京都港区虎ノ門二丁目4番1号","lat":35.668884,"lon":139.74768,"業態":"薬局","施設方書":"虎ノ門ピアザビル1階","許可番号":"30港み生薬第99号","許可開始日":"2019/4/1","施設電話番号":"03-5510-3727"},{"name":"薬局トモズ虎ノ門ヒルズステーションタワー店","province":"東京都","city":"港区","address":"東京都港区虎ノ門二丁目6番3号","lat":35.666953,"lon":139.749203,"業態":"薬局","施設方書":"虎ノ門ヒルズステーションタワー地下1F","許可番号":"5港み生薬第18号","許可開始日":"2023/8/1","施設電話番号":"03-6457-9560"},{"name":"あさひ薬局 虎ノ門ヒルズ店","province":"東京都","city":"港区","address":"東京都港区虎ノ門二丁目9番1号","lat":35.66778,"lon":139.745848,"業態":"薬局","施設方書":"江戸見坂テラス1F","許可番号":"5港み生薬第64号","許可開始日":"2024/3/6","施設電話番号":"03-6268-8780"},{"name":"大信薬局虎ノ門店","province":"東京都","city":"港区","address":"東京都港区虎ノ門三丁目10番4号","lat":35.664775,"lon":139.74772,"業態":"薬局","施設方書":"虎ノ門ガーデン102号室","許可番号":"4港み生薬第41号","許可開始日":"2022/11/1","施設電話番号":"03-6453-0617"},{"name":"ぱぱす薬局 神谷町店","province":"東京都","city":"港区","address":"東京都港区虎ノ門三丁目17番1号","lat":35.664043,"lon":139.746454,"業態":"薬局","施設方書":"TOKYU REIT虎ノ門ビル1階","許可番号":"5港み生薬第23号","許可開始日":"2023/9/8","施設電話番号":"03-6687-3088"},{"name":"ナチュラルローソンクオール薬局 城山トラストタワー店","province":"東京都","city":"港区","address":"東京都港区虎ノ門四丁目3番1号","lat":35.66464,"lon":139.743089,"業態":"薬局","施設方書":"城山トラストタワー1階","許可番号":"30港み生薬第50号","許可開始日":"2018/10/1","施設電話番号":"03-5776-1789"},{"name":"薬局トモズ 神谷町店","province":"東京都","city":"港区","address":"東京都港区虎ノ門五丁目1番5号","lat":35.663595,"lon":139.745402,"業態":"薬局","施設方書":"メトロシティ神谷町地下1階","許可番号":"4港み生薬第36号","許可開始日":"2022/11/26","施設電話番号":"03-5425-2977"},{"name":"アガペ神谷町薬局","province":"東京都","city":"港区","address":"東京都港区虎ノ門五丁目13番7号","lat":35.663068,"lon":139.745651,"業態":"薬局","施設方書":"虎ノ門A&K IPビル1階","許可番号":"31港み生薬第36号","許可開始日":"2019/10/7","施設電話番号":"03-6721-5691"},{"name":"メディプレイス365訪問薬局","province":"東京都","city":"港区","address":"東京都港区西麻布一丁目15番16号","lat":35.661911,"lon":139.723193,"業態":"薬局","施設方書":"西麻布SDビル202","許可番号":"4港み生薬第29号","許可開始日":"2022/8/30","施設電話番号":"03-6804-1959"},{"name":"霞町薬局","province":"東京都","city":"港区","address":"東京都港区西麻布三丁目1番19号","lat":35.660463,"lon":139.726681,"業態":"薬局","施設方書":"小山ビル1階","許可番号":"2港み生薬第2号","許可開始日":"2020/6/1","施設電話番号":"03-5411-9311"},{"name":"けやき坂薬局","province":"東京都","city":"港区","address":"東京都港区西麻布三丁目2番20号","lat":35.658647,"lon":139.727303,"業態":"薬局","施設方書":"六本木けやき坂サイドビル1階","許可番号":"4港み生薬第47号","許可開始日":"2023/1/5","施設電話番号":"03-5410-6066"},{"name":"マープル薬局","province":"東京都","city":"港区","address":"東京都港区西麻布四丁目10番1号","lat":35.657898,"lon":139.723008,"業態":"薬局","施設方書":"ラポート西麻布地下1階","許可番号":"5港み生薬第32号","許可開始日":"2023/10/1","施設電話番号":"03-6427-9330"},{"name":"シミズファーマシー","province":"東京都","city":"港区","address":"東京都港区西麻布四丁目18番16号-102","lat":35.658151,"lon":139.718741,"業態":"薬局","施設方書":"","許可番号":"5港み生薬第61号","許可開始日":"2024/3/5","施設電話番号":"03-3407-0794"},{"name":"西新橋調剤薬局","province":"東京都","city":"港区","address":"東京都港区西新橋一丁目2番9号","lat":35.669538,"lon":139.754644,"業態":"薬局","施設方書":"日比谷セントラルビル地下1階","許可番号":"31港み生薬第54号","許可開始日":"2020/1/6","施設電話番号":"03-3504-3449"},{"name":"アイセイ薬局 内幸町店","province":"東京都","city":"港区","address":"東京都港区西新橋一丁目3番1号","lat":35.668933,"lon":139.754666,"業態":"薬局","施設方書":"西新橋スクエア3階301区","許可番号":"4港み生薬第30号","許可開始日":"2022/10/1","施設電話番号":"03-3595-1601"},{"name":"株式会社植松薬局","province":"東京都","city":"港区","address":"東京都港区西新橋一丁目9番2号","lat":35.669046,"lon":139.752673,"業態":"薬局","施設方書":"","許可番号":"30港み生薬第23号","許可開始日":"2018/7/1","施設電話番号":"03-3501-3979"},{"name":"虎ノ門鈴薬局","province":"東京都","city":"港区","address":"東京都港区西新橋一丁目19番13号","lat":35.668059,"lon":139.7528,"業態":"薬局","施設方書":"斉木ビル1階","許可番号":"5港み生薬第68号","許可開始日":"2024/4/26","施設電話番号":"03-5521-2067"},{"name":"幸城薬局 虎ノ門新橋支店","province":"東京都","city":"港区","address":"東京都港区西新橋二丁目6番3号","lat":35.667054,"lon":139.753559,"業態":"薬局","施設方書":"1階","許可番号":"5港み生薬第52号","許可開始日":"2023/12/27","施設電話番号":""},{"name":"内山薬局","province":"東京都","city":"港区","address":"東京都港区西新橋三丁目9番3号","lat":35.664181,"lon":139.7527,"業態":"薬局","施設方書":"内山ビル1階","許可番号":"5港み生薬第50号","許可開始日":"2024/2/1","施設電話番号":"03-3431-5002"},{"name":"虎ノ門薬局","province":"東京都","city":"港区","address":"東京都港区西新橋三丁目15番12号","lat":35.664841,"lon":139.749895,"業態":"薬局","施設方書":"GGHOUSE 7階","許可番号":"5港み生薬第57号","許可開始日":"2024/2/5","施設電話番号":"03-6435-7872"},{"name":"さくら薬局 西新橋2号店","province":"東京都","city":"港区","address":"東京都港区西新橋三丁目19番11号","lat":35.663505,"lon":139.751932,"業態":"薬局","施設方書":"安達ビル1階","許可番号":"5港み生薬第15号","許可開始日":"2023/9/1","施設電話番号":"03-5402-6611"},{"name":"くすり箱薬局","province":"東京都","city":"港区","address":"東京都港区西新橋三丁目19番12号","lat":35.66346,"lon":139.751842,"業態":"薬局","施設方書":"メディコ西新橋ビル1階","許可番号":"31港み生薬第48号","許可開始日":"2019/12/27","施設電話番号":"03-5776-7064"},{"name":"さくら薬局 西新橋店","province":"東京都","city":"港区","address":"東京都港区西新橋三丁目19番14号","lat":35.663271,"lon":139.751752,"業態":"薬局","施設方書":"東京建硝ビル1階","許可番号":"3港み生薬第76号","許可開始日":"2022/4/1","施設電話番号":"03-5776-1831"},{"name":"日本調剤 西新橋薬局","province":"東京都","city":"港区","address":"東京都港区西新橋三丁目20番1号","lat":35.663746,"lon":139.752214,"業態":"薬局","施設方書":"MSC御成門ビル1階","許可番号":"5港み生薬第27号","許可開始日":"2023/10/3","施設電話番号":"03-6430-4131"},{"name":"日本調剤 御成門薬局","province":"東京都","city":"港区","address":"東京都港区西新橋三丁目22番8号","lat":35.662509,"lon":139.751674,"業態":"薬局","施設方書":"","許可番号":"2港み生薬第52号","許可開始日":"2021/3/1","施設電話番号":"03-3433-8781"},{"name":"日本調剤 すぎの木薬局","province":"東京都","city":"港区","address":"東京都港区西新橋三丁目23番6号","lat":35.661967,"lon":139.751562,"業態":"薬局","施設方書":"白川ビル1階","許可番号":"2港み生薬第28号","許可開始日":"2020/10/1","施設電話番号":"03-5776-1371"},{"name":"フロンティア薬局御成門店","province":"東京都","city":"港区","address":"東京都港区西新橋三丁目23番8号","lat":35.661805,"lon":139.751562,"業態":"薬局","施設方書":"馬場ビル1階","許可番号":"31港み生薬第17号","許可開始日":"2019/7/1","施設電話番号":"03-6809-1478"},{"name":"メディトピア 新橋薬局","province":"東京都","city":"港区","address":"東京都港区西新橋三丁目23番9号","lat":35.661678,"lon":139.75145,"業態":"薬局","施設方書":"東京御成門ビル1階","許可番号":"2港み生薬第55号","許可開始日":"2021/3/17","施設電話番号":"03-3433-8755"},{"name":"日生薬局 御成門2号店","province":"東京都","city":"港区","address":"東京都港区西新橋三丁目23番13号","lat":35.661822,"lon":139.751023,"業態":"薬局","施設方書":"石井ビル1F","許可番号":"31港み生薬第47号","許可開始日":"2019/12/4","施設電話番号":"03-6452-8137"},{"name":"惠堂薬局","province":"東京都","city":"港区","address":"東京都港区西新橋三丁目24番3号","lat":35.661567,"lon":139.751213,"業態":"薬局","施設方書":"川名ビル1階","許可番号":"3港み生薬第74号","許可開始日":"2022/2/28","施設電話番号":"03-3437-1353"},{"name":"薬局トモズ浜松町店","province":"東京都","city":"港区","address":"東京都港区浜松町一丁目29番10号","lat":35.656864,"lon":139.755532,"業態":"薬局","施設方書":"東京ラインビル1階","許可番号":"5港み生薬第16号","許可開始日":"2023/8/7","施設電話番号":"03-5402-8684"},{"name":"ミネ薬局 クレアタワー店","province":"東京都","city":"港区","address":"東京都港区浜松町二丁目3番1‐404号","lat":35.656067,"lon":139.755541,"業態":"薬局","施設方書":"","許可番号":"30港み生薬第69号","許可開始日":"2018/11/1","施設電話番号":"03-5843-8301"},{"name":"ナルト薬局","province":"東京都","city":"港区","address":"東京都港区東麻布一丁目18番11号","lat":35.655808,"lon":139.742283,"業態":"薬局","施設方書":"","許可番号":"30港み生薬第66号","許可開始日":"2018/11/1","施設電話番号":"03-3582-8982"},{"name":"南山堂薬局 東麻布三丁目店","province":"東京都","city":"港区","address":"東京都港区東麻布三丁目7番12号","lat":35.656315,"lon":139.738227,"業態":"薬局","施設方書":"ルアナ麻布十番1階","許可番号":"5港み生薬第8号","許可開始日":"2023/6/7","施設電話番号":"03-5797-7831"},{"name":"薬局くすりの福太郎 東麻布店","province":"東京都","city":"港区","address":"東京都港区東麻布三丁目10番5号","lat":35.65587,"lon":139.738853,"業態":"薬局","施設方書":"オークウッドホテル&アパートメンツ麻布1階","許可番号":"3港み生薬第53号","許可開始日":"2021/11/4","施設電話番号":"03-5545-5437"},{"name":"薬局トモズ 汐留シティセンター店","province":"東京都","city":"港区","address":"東京都港区東新橋一丁目5番2号","lat":35.665497,"lon":139.760881,"業態":"薬局","施設方書":"汐留シティセンター地下2階","許可番号":"2港み生薬第53号","許可開始日":"2021/2/27","施設電話番号":"03-6215-9933"},{"name":"ほほえみ薬局 汐留メディアタワー店","province":"東京都","city":"港区","address":"東京都港区東新橋一丁目7番1号","lat":35.663246,"lon":139.759688,"業態":"薬局","施設方書":"汐留メディアタワーB2F","許可番号":"2港み生薬第30号","許可開始日":"2020/11/4","施設電話番号":"03-6274-6310"},{"name":"薬局マツモトキヨシ カレッタ汐留店","province":"東京都","city":"港区","address":"東京都港区東新橋一丁目8番2号","lat":35.664459,"lon":139.762522,"業態":"薬局","施設方書":"カレッタ汐留B1階B143","許可番号":"2港み生薬第26号","許可開始日":"2020/10/30","施設電話番号":"03-6218-2201"},{"name":"みらくる薬局","province":"東京都","city":"港区","address":"東京都港区東新橋一丁目9番1号","lat":35.66294,"lon":139.761215,"業態":"薬局","施設方書":"東京汐留ビルディング地下2階","許可番号":"4港み生薬第6号","許可開始日":"2022/5/9","施設電話番号":"03-6263-8870"},{"name":"日生薬局 三田店","province":"東京都","city":"港区","address":"東京都港区三田一丁目3番33号","lat":35.654528,"lon":139.743368,"業態":"薬局","施設方書":"三田ネクサスビル1階","許可番号":"31港み生薬第12号","許可開始日":"2019/5/28","施設電話番号":"03-5765-5850"},{"name":"日本調剤 三田薬局","province":"東京都","city":"港区","address":"東京都港区三田一丁目4番28号","lat":35.653633,"lon":139.744765,"業態":"薬局","施設方書":"三田国際ビルアネックス1階","許可番号":"5港み生薬第34号","許可開始日":"2023/11/25","施設電話番号":"03-5419-3557"},{"name":"中川薬局","province":"東京都","city":"港区","address":"東京都港区三田二丁目7番9号","lat":35.651812,"lon":139.744646,"業態":"薬局","施設方書":"サニークレスト三田1階","許可番号":"2港み生薬第12号","許可開始日":"2020/7/25","施設電話番号":"03-5427-6728"},{"name":"アイビス薬局 三田店","province":"東京都","city":"港区","address":"東京都港区三田三丁目1番5号","lat":35.647789,"lon":139.74372,"業態":"薬局","施設方書":"1階","許可番号":"4港み生薬第16号","許可開始日":"2022/7/14","施設電話番号":"03-6453-8914"},{"name":"三田ハウス調剤薬局","province":"東京都","city":"港区","address":"東京都港区三田五丁目2番18号","lat":35.647031,"lon":139.737643,"業態":"薬局","施設方書":"103","許可番号":"5港み生薬第3号","許可開始日":"2023/6/1","施設電話番号":"03-6435-4347"},{"name":"さくら薬局 三田店","province":"東京都","city":"港区","address":"東京都港区三田五丁目12番3号","lat":35.645336,"lon":139.738339,"業態":"薬局","施設方書":"パークリュクス白金高輪101","許可番号":"4港み生薬第62号","許可開始日":"2023/2/9","施設電話番号":"03-6435-4551"},{"name":"日本調剤 南青山薬局","province":"東京都","city":"港区","address":"東京都港区南青山一丁目1番1号","lat":35.672567,"lon":139.724714,"業態":"薬局","施設方書":"新青山ビルヂング西館1階","許可番号":"5港み生薬第22号","許可開始日":"2023/9/1","施設電話番号":"03-3796-5371"},{"name":"青山薬局","province":"東京都","city":"港区","address":"東京都港区南青山二丁目10番9号","lat":35.670795,"lon":139.721097,"業態":"薬局","施設方書":"青山田中ビル 1階","許可番号":"30港み生薬第84号","許可開始日":"2019/2/1","施設電話番号":"03-3402-9313"},{"name":"レジーナ薬局 青山店","province":"東京都","city":"港区","address":"東京都港区南青山二丁目13番11号","lat":35.670712,"lon":139.720062,"業態":"薬局","施設方書":"マストライフ南青山1階","許可番号":"30港み生薬第97号","許可開始日":"2019/4/1","施設電話番号":"03-5775-7597"},{"name":"五行堂薬局","province":"東京都","city":"港区","address":"東京都港区南青山二丁目22番15号","lat":35.670542,"lon":139.719038,"業態":"薬局","施設方書":"内山ビル1階","許可番号":"4港み生薬第7号","許可開始日":"2022/5/17","施設電話番号":"03-3478-4020"},{"name":"万代薬局 外苑前店","province":"東京都","city":"港区","address":"東京都港区南青山二丁目22番17号","lat":35.670757,"lon":139.719322,"業態":"薬局","施設方書":"川上ビル1階","許可番号":"3港み生薬第48号","許可開始日":"2021/11/2","施設電話番号":"03-6447-4321"},{"name":"青山あすか薬局","province":"東京都","city":"港区","address":"東京都港区南青山二丁目26番35号","lat":35.669932,"lon":139.717088,"業態":"薬局","施設方書":"青山KKビル1階","許可番号":"5港み生薬第17号","許可開始日":"2023/9/1","施設電話番号":"03-6804-5810"},{"name":"青山薬局 外苑前","province":"東京都","city":"港区","address":"東京都港区南青山二丁目26番36号","lat":35.669947,"lon":139.717194,"業態":"薬局","施設方書":"","許可番号":"5港み生薬第55号","許可開始日":"2024/3/26","施設電話番号":"03-5772-3180"},{"name":"スギ薬局 南青山店","province":"東京都","city":"港区","address":"東京都港区南青山三丁目8番40号","lat":35.667425,"lon":139.715132,"業態":"薬局","施設方書":"青山センタービル1階","許可番号":"2港み生薬第29号","許可開始日":"2020/10/30","施設電話番号":"03-5771-4663"},{"name":"株式会社北村薬局","province":"東京都","city":"港区","address":"東京都港区南青山五丁目1番25号","lat":35.664613,"lon":139.712444,"業態":"薬局","施設方書":"","許可番号":"5港み生薬第38号","許可開始日":"2023/12/18","施設電話番号":"03-3400-2091"},{"name":"青山大師堂薬局","province":"東京都","city":"港区","address":"東京都港区南青山五丁目6番2号","lat":35.663897,"lon":139.71206,"業態":"薬局","施設方書":"青山菊正ビル1階","許可番号":"30港み生薬第29号","許可開始日":"2018/7/18","施設電話番号":"03-3407-3631"},{"name":"ニホンドウ漢方ブティック青山店","province":"東京都","city":"港区","address":"東京都港区南青山五丁目10番19号","lat":35.662878,"lon":139.71072,"業態":"薬局","施設方書":"青山真洋ビル1、2F","許可番号":"2港み生薬第38号","許可開始日":"2021/1/13","施設電話番号":"03-5774-4193"},{"name":"まゆみ薬局 南青山店","province":"東京都","city":"港区","address":"東京都港区南青山六丁目12番10号","lat":35.660336,"lon":139.71536,"業態":"薬局","施設方書":"ユニティ102号室","許可番号":"2港み生薬第46号","許可開始日":"2021/1/1","施設電話番号":"03-6427-2064"},{"name":"広尾中央薬局","province":"東京都","city":"港区","address":"東京都港区南青山七丁目14番6号","lat":35.656692,"lon":139.717896,"業態":"薬局","施設方書":"本間ビル1階","許可番号":"30港み生薬第105号","許可開始日":"2019/4/3","施設電話番号":"03-5774-0630"},{"name":"日生薬局 広尾店","province":"東京都","city":"港区","address":"東京都港区南青山七丁目14番7号","lat":35.656586,"lon":139.717856,"業態":"薬局","施設方書":"西川ビル1階","許可番号":"4港み生薬第25号","許可開始日":"2022/7/28","施設電話番号":"03-5469-8851"},{"name":"広尾調剤薬局","province":"東京都","city":"港区","address":"東京都港区南青山七丁目14番7号","lat":35.656542,"lon":139.717836,"業態":"薬局","施設方書":"小寺ビル1階","許可番号":"3港み生薬第42号","許可開始日":"2021/11/1","施設電話番号":"03-5468-8931"},{"name":"アガペ広尾薬局","province":"東京都","city":"港区","address":"東京都港区南青山七丁目14番8号","lat":35.656488,"lon":139.717836,"業態":"薬局","施設方書":"","許可番号":"2港み生薬第24号","許可開始日":"2020/10/1","施設電話番号":"03-6427-2978"},{"name":"日本調剤 麻布十番薬局","province":"東京都","city":"港区","address":"東京都港区南麻布一丁目6番36号","lat":35.652474,"lon":139.735235,"業態":"薬局","施設方書":"","許可番号":"2港み生薬第4号","許可開始日":"2020/6/1","施設電話番号":"03-5730-0563"},{"name":"クオール薬局 古川橋店","province":"東京都","city":"港区","address":"東京都港区南麻布二丁目10番19号","lat":35.647638,"lon":139.735445,"業態":"薬局","施設方書":"ボヌール南麻布101号室","許可番号":"30港み生薬第46号","許可開始日":"2018/10/1","施設電話番号":"03-3798-4789"},{"name":"子安薬局 広尾ガーデン店","province":"東京都","city":"港区","address":"東京都港区南麻布四丁目1番29号","lat":35.649909,"lon":139.722641,"業態":"薬局","施設方書":"広尾ガーデン1階","許可番号":"5港み生薬第14号","許可開始日":"2023/8/31","施設電話番号":"03-3446-4701"},{"name":"カーム調剤薬局 ありす店","province":"東京都","city":"港区","address":"東京都港区南麻布四丁目6番1号","lat":35.650536,"lon":139.726674,"業態":"薬局","施設方書":"1階","許可番号":"30港み生薬第6号","許可開始日":"2018/4/25","施設電話番号":"03-5422-6194"},{"name":"ゆりの木薬局 南麻布店","province":"東京都","city":"港区","address":"東京都港区南麻布四丁目11番30号","lat":35.647023,"lon":139.727163,"業態":"薬局","施設方書":"南麻布渋谷ビル6階","許可番号":"5港み生薬第45号","許可開始日":"2024/2/1","施設電話番号":"03-5422-9935"},{"name":"ウエルシア薬局南麻布店","province":"東京都","city":"港区","address":"東京都港区南麻布五丁目1番11号","lat":35.654895,"lon":139.722624,"業態":"薬局","施設方書":"1F","許可番号":"3港み生薬第26号","許可開始日":"2021/7/7","施設電話番号":"03-5793-1271"},{"name":"南麻布調剤薬局","province":"東京都","city":"港区","address":"東京都港区南麻布五丁目2番37号","lat":35.655205,"lon":139.723552,"業態":"薬局","施設方書":"デペッシュモード4階","許可番号":"3港み生薬第68号","許可開始日":"2022/2/7","施設電話番号":"03-6277-0037"},{"name":"クオール薬局 広尾駅前店","province":"東京都","city":"港区","address":"東京都港区南麻布五丁目10番25号","lat":35.65269,"lon":139.7224,"業態":"薬局","施設方書":"1階","許可番号":"30港み生薬第47号","許可開始日":"2018/10/1","施設電話番号":"03-6277-4689"},{"name":"ファイン薬局 元赤坂","province":"東京都","city":"港区","address":"東京都港区元赤坂一丁目5番1号","lat":35.678042,"lon":139.733809,"業態":"薬局","施設方書":"宮永ビル1階","許可番号":"3港み生薬第23号","許可開始日":"2021/6/1","施設電話番号":"03-5413-6070"},{"name":"薬樹薬局 六本木泉ガーデン","province":"東京都","city":"港区","address":"東京都港区六本木一丁目6番1号","lat":35.664823,"lon":139.739503,"業態":"薬局","施設方書":"泉ガーデンタワー4階","許可番号":"4港み生薬第32号","許可開始日":"2022/10/6","施設電話番号":"03-3568-3370"},{"name":"平井薬局","province":"東京都","city":"港区","address":"東京都港区六本木三丁目7番1号","lat":35.663913,"lon":139.734812,"業態":"薬局","施設方書":"THE ROPPONGI TOKYO 201","許可番号":"5港み生薬第44号","許可開始日":"2024/1/17","施設電話番号":"03-6441-0651"},{"name":"六本木漢方薬局","province":"東京都","city":"港区","address":"東京都港区六本木三丁目15番24号","lat":35.66266,"lon":139.735248,"業態":"薬局","施設方書":"アリエスビル1F","許可番号":"3港み生薬第61号","許可開始日":"2021/12/9","施設電話番号":"03-6807-4555"},{"name":"日本調剤 六本木薬局","province":"東京都","city":"港区","address":"東京都港区六本木六丁目1番20号","lat":35.662411,"lon":139.731304,"業態":"薬局","施設方書":"六本木電気ビル2階","許可番号":"30港み生薬第86号","許可開始日":"2019/1/30","施設電話番号":"03-5772-3940"},{"name":"日本調剤ケイリバー薬局","province":"東京都","city":"港区","address":"東京都港区六本木六丁目10番1号","lat":35.660552,"lon":139.729276,"業態":"薬局","施設方書":"六本木ヒルズ森タワー6階","許可番号":"2港み生薬第10号","許可開始日":"2020/7/1","施設電話番号":"03-5413-5551"},{"name":"薬局トモズ 六本木ヒルズ店","province":"東京都","city":"港区","address":"東京都港区六本木六丁目10番3号","lat":35.660705,"lon":139.729207,"業態":"薬局","施設方書":"六本木ヒルズウェストウォーク1階","許可番号":"2港み生薬第56号","許可開始日":"2021/3/28","施設電話番号":"03-5786-7717"},{"name":"イスクラ薬局 六本木店","province":"東京都","city":"港区","address":"東京都港区六本木七丁目3番4号","lat":35.666383,"lon":139.727543,"業態":"薬局","施設方書":"栗山ビル2階","許可番号":"4港み生薬第38号","許可開始日":"2022/11/24","施設電話番号":"03-3478-4382"},{"name":"子安薬局","province":"東京都","city":"港区","address":"東京都港区六本木七丁目14番7号","lat":35.663483,"lon":139.731713,"業態":"薬局","施設方書":"","許可番号":"5港み生薬第35号","許可開始日":"2023/11/24","施設電話番号":"03-3401-8667"},{"name":"スギ薬局 六本木店","province":"東京都","city":"港区","address":"東京都港区六本木七丁目14番10号","lat":35.663342,"lon":139.731853,"業態":"薬局","施設方書":"誠志堂ビル2階","許可番号":"31港み生薬第43号","許可開始日":"2019/11/27","施設電話番号":"03-5843-1361"},{"name":"メトロシティ六本木薬局","province":"東京都","city":"港区","address":"東京都港区六本木七丁目14番11号","lat":35.663195,"lon":139.731574,"業態":"薬局","施設方書":"メトロシティ六本木ビル5階","許可番号":"31港み生薬第81号","許可開始日":"2020/4/6","施設電話番号":"03-6434-0693"},{"name":"グリーン薬局","province":"東京都","city":"港区","address":"東京都港区六本木七丁目15番14号","lat":35.6625,"lon":139.729797,"業態":"薬局","施設方書":"塩業ビル地下1階","許可番号":"29港み生薬第99号","許可開始日":"2018/5/1","施設電話番号":"03-3497-0848"},{"name":"ルビー薬局","province":"東京都","city":"港区","address":"東京都港区赤坂二丁目10番13号","lat":35.670228,"lon":139.741517,"年月":"202112","業態":"薬局","収受日":"2021/12/8","届出種類":"新規","施設方書":"福田ビル1階","許可番号":"3港み生薬第64号","許可開始日":"2021/12/27","施設電話番号":"03-6441-0801"},{"name":"高輪薬局","province":"東京都","city":"港区","address":"東京都港区高輪三丁目7番8号","lat":35.632756,"lon":139.732319,"年月":"202202","業態":"薬局","収受日":"2022/1/14","届出種類":"新規","施設方書":"西町ビル1階","許可番号":"3港み生薬第69号","許可開始日":"2022/2/1","施設電話番号":"03-6721-7304"},{"name":"あおば薬局汐留店","province":"東京都","city":"港区","address":"東京都港区東新橋一丁目9番1号","lat":35.66294,"lon":139.761215,"年月":"202203","業態":"薬局","収受日":"2022/3/30","届出種類":"廃止","施設方書":"東京汐留ビルディング地下2階","許可番号":"2港み生薬第16号","業態廃止日":"2022/2/28","施設電話番号":"03-6274-1189"},{"name":"THE PHARMACY SHIROKANE","province":"東京都","city":"港区","address":"東京都港区白金一丁目14番11号","lat":35.645313,"lon":139.73334,"年月":"202303","業態":"薬局","収受日":"2023/3/15","届出種類":"新規","施設方書":"","許可番号":"4港み生薬第75号","許可開始日":"2023/3/29","施設電話番号":""},{"name":"西新橋中央薬局","province":"東京都","city":"港区","address":"東京都港区西新橋一丁目5番9号","lat":35.668188,"lon":139.751892,"年月":"202204","業態":"薬局","収受日":"2022/4/8","届出種類":"廃止","施設方書":"TSビル2階","許可番号":"27港み生薬第90号","業態廃止日":"2022/4/7","施設電話番号":"03-5251-8300"},{"name":"永井薬局","province":"東京都","city":"港区","address":"東京都港区麻布十番一丁目8番10号","lat":35.655959,"lon":139.735522,"年月":"202205","業態":"薬局","収受日":"2022/5/6","届出種類":"廃止","施設方書":"","許可番号":"28港み生薬第8号","業態廃止日":"2022/4/30","施設電話番号":"03-3583-3889"},{"name":"雄飛堂薬局 浜松町店","province":"東京都","city":"港区","address":"東京都港区芝浦一丁目3番10号","lat":35.649863,"lon":139.755531,"年月":"202206","業態":"薬局","収受日":"2022/6/1","届出種類":"廃止","施設方書":"チサンホテル浜松町1階","許可番号":"2港み生薬第37号","業態廃止日":"2022/5/31","施設電話番号":"03-6811-5655"},{"name":"ニホンドウ薬局","province":"東京都","city":"港区","address":"東京都港区高輪三丁目25番29号","lat":35.631471,"lon":139.73794,"年月":"202207","業態":"薬局","収受日":"2022/7/1","届出種類":"廃止","施設方書":"前川ビル1階","許可番号":"29港み生薬第41号","業態廃止日":"2022/6/26","施設電話番号":"03-5420-4193"},{"name":"フレンド薬局 芝大門店","province":"東京都","city":"港区","address":"東京都港区芝公園一丁目7番16号","lat":35.657185,"lon":139.751999,"年月":"202208","業態":"薬局","収受日":"2022/8/2","届出種類":"廃止","施設方書":"三堀ビル1階","許可番号":"29港み生薬第8号","業態廃止日":"2022/7/31","施設電話番号":"03-6450-1861"},{"name":"善光堂薬局","province":"東京都","city":"港区","address":"東京都港区南青山三丁目13番22号","lat":35.665741,"lon":139.71344,"年月":"202208","業態":"薬局","収受日":"2022/8/1","届出種類":"廃止","施設方書":"","許可番号":"29港み生薬第97号","業態廃止日":"2022/4/25","施設電話番号":"03-3401-3714"},{"name":"健康館薬局","province":"東京都","city":"港区","address":"東京都港区高輪四丁目1番18号","lat":35.629197,"lon":139.731554,"年月":"202209","業態":"薬局","収受日":"2022/9/9","届出種類":"廃止","施設方書":"高輪ビル1階","許可番号":"31港み生薬第69号","業態廃止日":"2022/8/31","施設電話番号":"050-3802-1631"},{"name":"いまくま薬局","province":"東京都","city":"港区","address":"東京都港区南青山四丁目2番4号","lat":35.666107,"lon":139.720379,"年月":"202209","業態":"薬局","収受日":"2022/9/14","届出種類":"廃止","施設方書":"シャトー青山第3  1階","許可番号":"3港み生薬第49号","業態廃止日":"2022/8/31","施設電話番号":"03-3479-9058"},{"name":"みなと虎ノ門薬局","province":"東京都","city":"港区","address":"東京都港区虎ノ門三丁目10番4号","lat":35.664775,"lon":139.74772,"年月":"202211","業態":"薬局","収受日":"2022/11/1","届出種類":"廃止","施設方書":"虎ノ門ガーデン102号室","許可番号":"2港み生薬第42号","業態廃止日":"2022/10/31","施設電話番号":"03-6453-0617"},{"name":"オバタ薬局","province":"東京都","city":"港区","address":"東京都港区麻布十番一丁目7番11号","lat":35.656315,"lon":139.734587,"年月":"202301","業態":"薬局","収受日":"2023/1/5","届出種類":"廃止","施設方書":"麻布井上ビル1階","許可番号":"30港み生薬第62号","業態廃止日":"2022/12/31","施設電話番号":"03-3401-8717"},{"name":"QOLサポート クオール薬局 田町店","province":"東京都","city":"港区","address":"東京都港区芝五丁目27番6号","lat":35.647095,"lon":139.746482,"年月":"202301","業態":"薬局","収受日":"2023/1/24","届出種類":"廃止","施設方書":"泉田町ビル1階","許可番号":"30港み生薬第48号","業態廃止日":"2023/1/22","施設電話番号":"03-6435-3089"},{"name":"麻布薬局","province":"東京都","city":"港区","address":"東京都港区東麻布一丁目25番3号","lat":35.655793,"lon":139.744731,"年月":"202305","業態":"薬局","収受日":"2023/4/20","届出種類":"新規","施設方書":"第2富田ビル7階","許可番号":"5港み生薬第2号","許可開始日":"2023/5/2","施設電話番号":"03-6277-8340"},{"name":"三田薬局","province":"東京都","city":"港区","address":"東京都港区南青山一丁目1番1号","lat":35.672567,"lon":139.724714,"年月":"202309","業態":"薬局","収受日":"2023/8/10","届出種類":"新規","施設方書":"新青山ビルヂング西館1階","許可番号":"5港み生薬第22号","許可開始日":"2023/9/1","施設電話番号":"03-3796-5371"},{"name":"おだいじに薬局 芝大門店","province":"東京都","city":"港区","address":"東京都港区芝大門二丁目5番1号","lat":35.653881,"lon":139.753611,"年月":"202304","業態":"薬局","収受日":"2023/4/5","届出種類":"廃止","施設方書":"アルテビルディングB2階","許可番号":"2港み生薬第60号","業態廃止日":"2023/3/31","施設電話番号":"03-5408-6622"},{"name":"三田調剤薬局","province":"東京都","city":"港区","address":"東京都港区芝五丁目16番1号","lat":35.648719,"lon":139.745744,"年月":"202305","業態":"薬局","収受日":"2023/5/1","届出種類":"廃止","施設方書":"千代ビル1階","許可番号":"29港み生薬第39号","業態廃止日":"2023/4/30","施設電話番号":"03-3451-0454"},{"name":"ミナト薬局","province":"東京都","city":"港区","address":"東京都港区高輪三丁目11番5号","lat":35.631533,"lon":139.730536,"年月":"202306","業態":"薬局","収受日":"2023/6/7","届出種類":"廃止","施設方書":"高輪ビューハイツ1階","許可番号":"4港み生薬第74号","業態廃止日":"2023/5/31","施設電話番号":"03-3447-7657"},{"name":"ミント薬局","province":"東京都","city":"港区","address":"東京都港区浜松町二丁目13番9号","lat":35.653219,"lon":139.755529,"年月":"202306","業態":"薬局","収受日":"2023/6/30","届出種類":"廃止","施設方書":"G1ビル1F","許可番号":"2港み生薬第7号","業態廃止日":"2023/6/14","施設電話番号":"03-6459-0982"},{"name":"薬局トモズ 浜松町店","province":"東京都","city":"港区","address":"東京都港区浜松町一丁目29番6号","lat":35.656912,"lon":139.756024,"年月":"202308","業態":"薬局","収受日":"2023/8/8","届出種類":"廃止","施設方書":"浜松町セントラルビル1階","許可番号":"2港み生薬第6号","業態廃止日":"2023/8/6","施設電話番号":"03-5402-8684"},{"name":"エヌビィ薬局","province":"東京都","city":"港区","address":"東京都港区新橋一丁目15番2号","lat":35.668295,"lon":139.756363,"年月":"202309","業態":"薬局","収受日":"2023/9/15","届出種類":"廃止","施設方書":"新橋TYビル1・2階","許可番号":"3港み生薬第10号","業態廃止日":"2023/8/31","施設電話番号":"03-3591-8277"},{"name":"バンビー薬局","province":"東京都","city":"港区","address":"東京都港区新橋三丁目19番2号","lat":35.665014,"lon":139.757551,"年月":"202309","業態":"薬局","収受日":"2023/9/1","届出種類":"廃止","施設方書":"","許可番号":"29港み生薬第48号","業態廃止日":"2023/8/31","施設電話番号":"03-3432-0288"},{"name":"健康ソムリエ 広尾中央薬局","province":"東京都","city":"港区","address":"東京都港区南青山七丁目14番7号","lat":35.656633,"lon":139.7179,"年月":"202309","業態":"薬局","収受日":"2023/9/6","届出種類":"廃止","施設方書":"南青NSビル1F","許可番号":"29港み生薬第32号","業態廃止日":"2023/8/1","施設電話番号":"03-6450-5801"},{"name":"スマイル薬局芝浦海岸通店","province":"東京都","city":"港区","address":"東京都港区芝浦四丁目13番23号","lat":35.64024,"lon":139.748062,"年月":"202310","業態":"薬局","収受日":"2023/10/2","届出種類":"廃止","施設方書":"MS芝浦ビル102号","許可番号":"31港み生薬第62号","業態廃止日":"2023/10/1","施設電話番号":"03-6435-3181"},{"name":"マープル薬局","province":"東京都","city":"港区","address":"東京都港区西麻布四丁目3番8号","lat":35.657828,"lon":139.723226,"年月":"202310","業態":"薬局","収受日":"2023/10/4","届出種類":"廃止","施設方書":"","許可番号":"2港み生薬第41号","業態廃止日":"2023/9/30","施設電話番号":"03-6427-9330"},{"name":"虎の門中央薬局","province":"東京都","city":"港区","address":"東京都港区虎ノ門一丁目1番25号","lat":35.670492,"lon":139.749856,"年月":"202311","業態":"薬局","収受日":"2023/11/9","届出種類":"廃止","施設方書":"虎ノ門一丁目ビル4階","許可番号":"4港み生薬第26号","業態廃止日":"2023/10/31","施設電話番号":"03-3591-6777"},{"name":"梅花堂薬局","province":"東京都","city":"港区","address":"東京都港区元赤坂一丁目5番2号","lat":35.677942,"lon":139.733938,"年月":"202312","業態":"薬局","収受日":"2023/12/1","届出種類":"廃止","施設方書":"","許可番号":"31港み生薬第59号","業態廃止日":"2023/11/30","施設電話番号":"03-5474-0538"},{"name":"セイムス三田慶應義塾前薬局","province":"東京都","city":"港区","address":"東京都港区芝五丁目13番14号","lat":35.649132,"lon":139.744985,"年月":"202404","業態":"薬局","収受日":"2024/3/28","届出種類":"新規","施設方書":"MAビル芝3 1階","許可番号":"5港み生薬第77号","許可開始日":"2024/4/24","施設電話番号":"03-6435-9590"},{"name":"株式会社中川薬局","province":"東京都","city":"港区","address":"東京都港区三田二丁目7番9号","lat":35.651812,"lon":139.744646,"年月":"202407","業態":"薬局","収受日":"2024/6/27","届出種類":"新規","施設方書":"サニークレスト三田1階","許可番号":"6港み生薬第19号","許可開始日":"2024/7/11","施設電話番号":"03-5427-6728"}]}