{"keyword":"複合","data":[{"name":"きらきらプラザ新橋","province":"東京都","city":"港区","address":"港区新橋六丁目4番2号","lat":35.662317,"lon":139.754025,"URL":"<a href='https://www.city.minato.tokyo.jp/shisetsu/sonota/sonota/02.html' target='_blank'>https://www.city.minato.tokyo.jp/shisetsu/sonota/sonota/02.html</a>","分類":"複合施設","地区":"芝地区","連絡先":"電話番号:03-3438-0421 ファックス番号:03-3438-0422"},{"name":"神応ほっとプラザ","province":"東京都","city":"港区","address":"港区白金六丁目9番5号","lat":35.64365287736521,"lon":139.7245772117504,"URL":"<a href='https://www.city.minato.tokyo.jp/shisetsu/sonota/sonota06.html' target='_blank'>https://www.city.minato.tokyo.jp/shisetsu/sonota/sonota06.html</a>","分類":"複合施設","地区":"高輪地区","連絡先":""},{"name":"札の辻スクエア","province":"東京都","city":"港区","address":"港区芝五丁目36番4号","lat":35.64522504360484,"lon":139.7447644196809,"URL":"<a href='https://www.city.minato.tokyo.jp/shisetsu/fukugo/fukugo/07.html' target='_blank'>https://www.city.minato.tokyo.jp/shisetsu/fukugo/fukugo/07.html</a>","分類":"複合施設","地区":"芝地区","連絡先":""},{"name":"港区子ども家庭総合支援センター(ミナトイク)","province":"東京都","city":"港区","address":"港区南青山五丁目7番11号","lat":35.662774,"lon":139.713122,"URL":"<a href='https://www.city.minato.tokyo.jp/shisetsu/fukugo/fukugo/08.html' target='_blank'>https://www.city.minato.tokyo.jp/shisetsu/fukugo/fukugo/08.html</a>","分類":"複合施設","地区":"赤坂地区","連絡先":""}]}