{"keyword":"診療","data":[{"name":"総合母子保健センター愛育病院","province":"東京都","city":"港区","address":"港区芝浦1-16-10","lat":35.645958,"lon":139.752402},{"name":"総合母子保健センター愛育クリニック","province":"東京都","city":"港区","address":"港区南麻布5-6-8","lat":35.653445,"lon":139.726843},{"name":"溜池眼科医院","province":"東京都","city":"港区","address":"東京都港区赤坂一丁目3番5号","lat":35.670425,"lon":139.744019,"施設方書":"赤坂アビタシオンビル1階","施設開設日":"2013/11/5","施設電話番号":"03-3586-9045","診療科目名称":"眼科"},{"name":"医療法人社団和風会 千里リハビリテーションクリニック東京","province":"東京都","city":"港区","address":"東京都港区赤坂一丁目3番18号","lat":35.670543,"lon":139.743628,"施設方書":"コカドビル1階","施設開設日":"2020/2/7","施設電話番号":"03-6441-2721","診療科目名称":"リハビリテーション科"},{"name":"赤坂溜池クリニック","province":"東京都","city":"港区","address":"東京都港区赤坂一丁目5番15号","lat":35.670637,"lon":139.743149,"施設方書":"溜池アネックスビル5階","施設開設日":"1997/6/23","施設電話番号":"03-5572-7821","診療科目名称":"内科、心療内科、精神科"},{"name":"医療法人社団南青山アイクリニック南青山アイクリニック東京","province":"東京都","city":"港区","address":"東京都港区赤坂一丁目7番1号","lat":35.66922,"lon":139.741745,"施設方書":"赤坂榎坂ビル2階","施設開設日":"2024/1/1","施設電話番号":"03-6633-4872","診療科目名称":"眼科"},{"name":"アメリカンクリニック東京","province":"東京都","city":"港区","address":"東京都港区赤坂一丁目7番4号","lat":35.669291,"lon":139.742031,"施設方書":"No.1ニイクラビル3階","施設開設日":"2013/9/18","施設電話番号":"03-6441-0969","診療科目名称":"内科"},{"name":"赤坂虎の門クリニック","province":"東京都","city":"港区","address":"東京都港区赤坂一丁目8番1号","lat":35.669827,"lon":139.742197,"施設方書":"赤坂インターシティAIR地下1階","施設開設日":"2017/9/1","施設電話番号":"03-3583-8080","診療科目名称":"内科、消化器内科、消化器内科(内視鏡)、呼吸器内科、循環器内科、糖尿病内科、老年内科、脳神経内科、耳鼻咽喉科、皮膚科、泌尿器科、産婦人科、脳神経外科"},{"name":"国家公務員共済組合連合会虎の門病院付属健康管理センター・画像診断センター","province":"東京都","city":"港区","address":"東京都港区赤坂一丁目8番1号","lat":35.669827,"lon":139.742197,"施設方書":"赤坂インターシティAIR5階","施設開設日":"2017/9/28","施設電話番号":"03-3560-7777","診療科目名称":"内科、放射線科"},{"name":"グラクソ・スミスクライン・クリニック","province":"東京都","city":"港区","address":"東京都港区赤坂一丁目8番1号","lat":35.669827,"lon":139.742197,"施設方書":"赤坂インターシティAIR17階","施設開設日":"2017/11/8","施設電話番号":"03-4231-5738","診療科目名称":"内科"},{"name":"医療法人社団好日会 南赤坂クリニック","province":"東京都","city":"港区","address":"東京都港区赤坂一丁目11番36号","lat":35.668674,"lon":139.741612,"施設方書":"レジデンスバイカウンテス4階","施設開設日":"1991/3/1","施設電話番号":"03-5561-9258","診療科目名称":"内科、放射線科、婦人科、循環器科"},{"name":"アークヒルズクリニック","province":"東京都","city":"港区","address":"東京都港区赤坂一丁目12番32号","lat":35.667113,"lon":139.740135,"施設方書":"アーク森ビル3階","施設開設日":"1986/11/27","施設電話番号":"03-3505-5151","診療科目名称":"内科、呼吸器科、消化器科、循環器科、整形外科、神経内科"},{"name":"NAクリニック","province":"東京都","city":"港区","address":"東京都港区赤坂一丁目12番32号","lat":35.667113,"lon":139.740135,"施設方書":"アーク森ビル24階","施設開設日":"2023/6/1","施設電話番号":"","診療科目名称":"内科"},{"name":"元赤坂クリニック","province":"東京都","city":"港区","address":"東京都港区赤坂一丁目12番33号","lat":35.66829,"lon":139.740831,"施設方書":"ANAインターコンチネンタルホテル東京1階","施設開設日":"2006/12/1","施設電話番号":"03-3560-6465","診療科目名称":"内科、整形外科、形成外科、アレルギー科"},{"name":"医療法人社団順幸会 小林メディカルクリニック東京","province":"東京都","city":"港区","address":"東京都港区赤坂二丁目3番5号","lat":35.671237,"lon":139.741652,"施設方書":"赤坂スターゲートプラザ2階","施設開設日":"2011/12/1","施設電話番号":"03-3589-3717","診療科目名称":"内科、皮膚科、アレルギー科"},{"name":"CLINICA BellaForma","province":"東京都","city":"港区","address":"東京都港区赤坂二丁目3番5号","lat":35.671237,"lon":139.741652,"施設方書":"","施設開設日":"2023/11/1","施設電話番号":"0120-140-220","診療科目名称":"形成外科、美容外科、皮膚科、美容皮膚科、整形外科、内科、泌尿器科、脳神経外科"},{"name":"関東ITソフトウェア健康保険組合山王診療所","province":"東京都","city":"港区","address":"東京都港区赤坂二丁目5番6号","lat":35.672787,"lon":139.73973,"施設方書":"","施設開設日":"2002/8/20","施設電話番号":"03-5570-1871","診療科目名称":"内科、外科、婦人科、放射線科"},{"name":"医療法人社団メディカルフェニックス メディカルスキャニング溜池山王クリニック","province":"東京都","city":"港区","address":"東京都港区赤坂二丁目5番7号","lat":35.672678,"lon":139.739836,"施設方書":"渡辺商事赤坂ビル1階","施設開設日":"2014/11/26","施設電話番号":"03-3568-3211","診療科目名称":"放射線科、内科"},{"name":"赤坂心療内科クリニック","province":"東京都","city":"港区","address":"東京都港区赤坂二丁目5番7号","lat":35.672678,"lon":139.739836,"施設方書":"渡辺商事赤坂ビル7階","施設開設日":"2022/12/1","施設電話番号":"03-5544-8485","診療科目名称":"心療内科、精神科"},{"name":"医療法人社団同心会KYBクリニック","province":"東京都","city":"港区","address":"東京都港区赤坂二丁目5番7号","lat":35.672678,"lon":139.739836,"施設方書":"渡辺商事赤坂ビル6階","施設開設日":"2022/10/1","施設電話番号":"03-5778-2188","診療科目名称":"内科、皮膚科、形成外科"},{"name":"医療法人社団赤坂坦誠会 赤坂整形外科クリニック","province":"東京都","city":"港区","address":"東京都港区赤坂二丁目6番24号","lat":35.673098,"lon":139.738563,"施設方書":"赤坂水野ビル4階","施設開設日":"2022/3/1","施設電話番号":"03-5545-4800","診療科目名称":"整形外科、リハビリテーション科、内科"},{"name":"医療法人社団大星会 大星クリニック","province":"東京都","city":"港区","address":"東京都港区赤坂二丁目9番11号","lat":35.671072,"lon":139.740973,"施設方書":"オリックス赤坂2丁目ビルB1","施設開設日":"2011/2/14","施設電話番号":"03-6426-5933","診療科目名称":"内科、皮膚科、泌尿器科、脳神経外科、婦人科、消化器内科(胃腸内科)、精神科、心療内科、内視鏡内科、整形外科"},{"name":"溜池山王伊藤眼科","province":"東京都","city":"港区","address":"東京都港区赤坂二丁目9番11号","lat":35.671072,"lon":139.740973,"施設方書":"オリックス赤坂2丁目ビル B1","施設開設日":"2023/9/1","施設電話番号":"03-5545-5377","診療科目名称":"眼科"},{"name":"Baseクリニック赤坂","province":"東京都","city":"港区","address":"東京都港区赤坂二丁目10番15号","lat":35.670485,"lon":139.74153,"施設方書":"溜池ミツワビル7階","施設開設日":"2022/12/1","施設電話番号":"03-6459-1401","診療科目名称":"精神科、心療内科、アレルギー科、麻酔科"},{"name":"湊メディカルクリニック","province":"東京都","city":"港区","address":"東京都港区赤坂二丁目11番3号","lat":35.670153,"lon":139.741185,"施設方書":"福田ビルウエスト2階","施設開設日":"2017/1/3","施設電話番号":"03-5570-5888","診療科目名称":"内科、消化器内科、肝臓内科"},{"name":"医療法人社団 星英会 眼科スターアイクリニック","province":"東京都","city":"港区","address":"東京都港区赤坂二丁目11番15号","lat":35.670508,"lon":139.741242,"施設方書":"第2堀内ビル4階","施設開設日":"2010/4/1","施設電話番号":"03-3505-9981","診療科目名称":"眼科、形成外科"},{"name":"赤坂三浦クリニック","province":"東京都","city":"港区","address":"東京都港区赤坂二丁目11番15号","lat":35.670508,"lon":139.741242,"施設方書":"第二堀内ビル2階","施設開設日":"2016/9/1","施設電話番号":"03-3560-6008","診療科目名称":"乳腺外科、乳腺内科、内分泌外科、内分泌内科、外科"},{"name":"陳瑞東クリニック","province":"東京都","city":"港区","address":"東京都港区赤坂二丁目13番5号","lat":35.672513,"lon":139.738547,"施設方書":"赤坂会館地下1階","施設開設日":"2008/4/1","施設電話番号":"03-5856-0015","診療科目名称":"婦人科、内科"},{"name":"医療法人社団江仁会 赤坂レディースクリニック","province":"東京都","city":"港区","address":"東京都港区赤坂二丁目14番32号","lat":35.672532,"lon":139.737461,"施設方書":"赤坂2・14プラザビル6階","施設開設日":"2022/4/6","施設電話番号":"03-5545-4123","診療科目名称":"婦人科"},{"name":"医療法人社団江仁会 赤坂皮膚科クリニック","province":"東京都","city":"港区","address":"東京都港区赤坂二丁目14番32号","lat":35.672532,"lon":139.737461,"施設方書":"赤坂2・14プラザビル6階","施設開設日":"2022/4/6","施設電話番号":"03-5545-4112","診療科目名称":"美容皮膚科、アレルギー科、皮膚科"},{"name":"大原皮膚泌尿器科","province":"東京都","city":"港区","address":"東京都港区赤坂二丁目14番33号","lat":35.672798,"lon":139.73772,"施設方書":"栄屋清水ビル5階","施設開設日":"1994/3/22","施設電話番号":"03-3584-4821","診療科目名称":"皮膚科、泌尿器科"},{"name":"赤坂ファミリークリニック","province":"東京都","city":"港区","address":"東京都港区赤坂二丁目15番15号","lat":35.672574,"lon":139.737489,"施設方書":"赤坂プラザビル3階","施設開設日":"2017/5/1","施設電話番号":"03-5562-8825","診療科目名称":"内科、小児科、リハビリテーション科"},{"name":"医療法人社団赤坂記念小澁会 メディカルスクエア赤坂","province":"東京都","city":"港区","address":"東京都港区赤坂二丁目17番17号","lat":35.670387,"lon":139.740654,"施設方書":"","施設開設日":"2004/4/1","施設電話番号":"03-3585-0600","診療科目名称":"内科、外科、婦人科、リウマチ科、乳腺外科、糖尿病内科"},{"name":"医療法人社団櫻雪会 キルシェクリニック","province":"東京都","city":"港区","address":"東京都港区赤坂二丁目17番58号","lat":35.670576,"lon":139.737774,"施設方書":"3階","施設開設日":"2019/4/1","施設電話番号":"03-6459-1661","診療科目名称":"美容外科、形成外科、美容皮膚科、麻酔科"},{"name":"声のクリニック赤坂","province":"東京都","city":"港区","address":"東京都港区赤坂二丁目17番65号","lat":35.670819,"lon":139.738957,"施設方書":"ウィンド赤坂2ビル2階","施設開設日":"2023/5/1","施設電話番号":"03-5797-8558","診療科目名称":"耳鼻いんこう科"},{"name":"小川聡クリニック","province":"東京都","city":"港区","address":"東京都港区赤坂二丁目19番4号","lat":35.668721,"lon":139.740078,"施設方書":"FORUM赤坂2階","施設開設日":"2016/4/1","施設電話番号":"03-5570-5055","診療科目名称":"内科、循環器内科"},{"name":"茂松クリニック","province":"東京都","city":"港区","address":"東京都港区赤坂二丁目22番20号","lat":35.668599,"lon":139.738284,"施設方書":"103","施設開設日":"2011/8/16","施設電話番号":"03-3583-5655","診療科目名称":"整形外科、形成外科、皮膚科、泌尿器科"},{"name":"医療法人社団成章会 岩沢医院","province":"東京都","city":"港区","address":"東京都港区赤坂三丁目1番16号","lat":35.677446,"lon":139.736523,"施設方書":"BIビル2階","施設開設日":"2014/5/1","施設電話番号":"03-3583-6155","診療科目名称":"耳鼻いんこう科"},{"name":"マリーゴールドクリニック","province":"東京都","city":"港区","address":"東京都港区赤坂三丁目2番2号","lat":35.676264,"lon":139.737241,"施設方書":"4階","施設開設日":"1999/12/16","施設電話番号":"03-3582-3131","診療科目名称":"胃腸科、肛門科、内科、外科"},{"name":"赤坂ステラクリニック","province":"東京都","city":"港区","address":"東京都港区赤坂三丁目4番3号","lat":35.674115,"lon":139.738399,"施設方書":"APA赤坂ゲイトウェイビル4階5階","施設開設日":"2021/1/28","施設電話番号":"03-3585-3741","診療科目名称":"美容皮膚科、形成外科、内科、循環器内科"},{"name":"永沢クリニック","province":"東京都","city":"港区","address":"東京都港区赤坂三丁目5番2号","lat":35.673679,"lon":139.738596,"施設方書":"サンヨー赤坂ビル2階","施設開設日":"2012/9/1","施設電話番号":"03-3583-6710","診療科目名称":"内科、循環器内科、消化器内科"},{"name":"赤坂内視鏡クリニック","province":"東京都","city":"港区","address":"東京都港区赤坂三丁目5番5号","lat":35.673442,"lon":139.738662,"施設方書":"ストロング赤坂ビル5階","施設開設日":"2019/11/1","施設電話番号":"03-6441-2528","診療科目名称":"内視鏡内科、消化器内科、胃腸内科"},{"name":"医療法人社団友徳会つつじクリニックAkasaka","province":"東京都","city":"港区","address":"東京都港区赤坂三丁目9番2号","lat":35.677282,"lon":139.736203,"施設方書":"No.R赤坂見附4階","施設開設日":"2017/3/1","施設電話番号":"03-6277-8580","診療科目名称":"皮膚科、形成外科、アレルギー科、美容皮膚科"},{"name":"e:Top clinic","province":"東京都","city":"港区","address":"東京都港区赤坂三丁目9番5号","lat":35.676921,"lon":139.736423,"施設方書":"マーブル赤坂3階","施設開設日":"2021/10/18","施設電話番号":"03-5544-8528","診療科目名称":"美容外科、美容皮膚科、形成外科、産婦人科"},{"name":"医療法人和楽会 心療内科・神経科赤坂クリニック","province":"東京都","city":"港区","address":"東京都港区赤坂三丁目9番18号","lat":35.677553,"lon":139.736163,"施設方書":"B.I.C赤坂ビル6階","施設開設日":"1998/12/1","施設電話番号":"03-5575-8198","診療科目名称":"心療内科、精神科、神経科、小児科、小児神経科、児童精神科"},{"name":"医療法人社団健若会赤坂スキンクリニック美容皮膚科","province":"東京都","city":"港区","address":"東京都港区赤坂三丁目13番10号","lat":35.673016,"lon":139.737281,"施設方書":"新赤坂ビル6~7階","施設開設日":"2021/7/1","施設電話番号":"03-3585-5330","診療科目名称":"皮膚科、美容皮膚科"},{"name":"医療法人社団健若会東京予防医療クリニック","province":"東京都","city":"港区","address":"東京都港区赤坂三丁目13番10号","lat":35.673016,"lon":139.737281,"施設方書":"新赤坂ビル3~5階","施設開設日":"2012/4/1","施設電話番号":"03-3585-1211","診療科目名称":"内科、心療内科、整形外科"},{"name":"美馬レディースクリニック","province":"東京都","city":"港区","address":"東京都港区赤坂三丁目13番13号","lat":35.673378,"lon":139.737201,"施設方書":"赤坂中村ビル4階","施設開設日":"2013/11/6","施設電話番号":"03-6277-7397","診療科目名称":"婦人科(不妊治療)、心療内科"},{"name":"赤坂診療所","province":"東京都","city":"港区","address":"東京都港区赤坂三丁目14番8号","lat":35.673813,"lon":139.737121,"施設方書":"赤坂相模屋ビル4階","施設開設日":"2015/2/23","施設電話番号":"03-6277-8258","診療科目名称":"心療内科、精神科"},{"name":"赤坂こころのクリニック「ケイローン」","province":"東京都","city":"港区","address":"東京都港区赤坂三丁目15番4号","lat":35.67426,"lon":139.737274,"施設方書":"赤坂バリ島ビル5階","施設開設日":"2020/1/1","施設電話番号":"03-5575-5575","診療科目名称":"心療内科、精神科"},{"name":"ふなきクリニック","province":"東京都","city":"港区","address":"東京都港区赤坂三丁目15番9号","lat":35.674415,"lon":139.736565,"施設方書":"萬屋ビル5階","施設開設日":"2009/1/1","施設電話番号":"03-3505-0300","診療科目名称":"内科、消化器・肝臓内科、循環器内科、糖尿病・脂質代謝内科"},{"name":"赤坂一ツ木通りクリニック","province":"東京都","city":"港区","address":"東京都港区赤坂三丁目15番9号","lat":35.67434,"lon":139.736645,"施設方書":"ACRビル3階","施設開設日":"2014/2/1","施設電話番号":"03-5544-8205","診療科目名称":"皮膚科、内科、循環器内科、心臓血管外科、外科"},{"name":"赤坂メディカルMクリニック","province":"東京都","city":"港区","address":"東京都港区赤坂三丁目15番9号","lat":35.67434,"lon":139.736645,"施設方書":"ACRビル2階","施設開設日":"2011/6/8","施設電話番号":"03-6426-5563","診療科目名称":"皮膚科、形成外科、美容皮膚科、美容外科"},{"name":"医療法人社団秀愛会 赤坂ビューティークリニック","province":"東京都","city":"港区","address":"東京都港区赤坂三丁目21番3号","lat":35.677036,"lon":139.735855,"施設方書":"赤坂牧野ビル4階","施設開設日":"2014/11/1","施設電話番号":"03-5545-8187","診療科目名称":"美容皮膚科、美容外科"},{"name":"湘南美容クリニック赤坂見附院","province":"東京都","city":"港区","address":"東京都港区赤坂三丁目21番13号","lat":35.676685,"lon":139.735666,"施設方書":"キーストーン赤坂ビル6階","施設開設日":"2019/7/17","施設電話番号":"050-5576-1291","診療科目名称":"美容外科、美容皮膚科"},{"name":"医療法人社団東京桜十字 赤坂桜十字クリニック","province":"東京都","city":"港区","address":"東京都港区赤坂三丁目21番13号","lat":35.676685,"lon":139.735666,"施設方書":"キーストーン赤坂ビル2階","施設開設日":"2014/9/16","施設電話番号":"03-5549-1901","診療科目名称":"内科、婦人科"},{"name":"医療法人社団泰山会 赤坂中央クリニック","province":"東京都","city":"港区","address":"東京都港区赤坂三丁目21番16号","lat":35.677039,"lon":139.735465,"施設方書":"SKI赤坂ビル2階","施設開設日":"2000/5/1","施設電話番号":"03-3582-4991","診療科目名称":"内科、整形外科、消化器科、リウマチ科、糖尿病内科"},{"name":"医療法人財団順和会 赤坂山王メディカルセンター","province":"東京都","city":"港区","address":"東京都港区赤坂四丁目1番26号","lat":35.676499,"lon":139.734379,"施設方書":"国際医療福祉大学 赤坂キャンパスW棟内 4階・5階・6階・7階・8階","施設開設日":"2020/8/1","施設電話番号":"03-6230-3701","診療科目名称":"内科、消化器内科、循環器内科、リウマチ科、脳神経内科、糖尿病内分泌代謝内科、小児科、整形外科、リハビリテーション科、放射線科、婦人科"},{"name":"東桜クリニック赤坂見附","province":"東京都","city":"港区","address":"東京都港区赤坂四丁目2番1号","lat":35.675182,"lon":139.735443,"施設方書":"JFBビル2階","施設開設日":"2022/9/21","施設電話番号":"03-5570-8711","診療科目名称":"耳鼻咽喉科、アレルギー科"},{"name":"清水クリニック","province":"東京都","city":"港区","address":"東京都港区赤坂四丁目4番11号","lat":35.673606,"lon":139.734371,"施設方書":"赤坂丹後町ビル1階","施設開設日":"2015/10/1","施設電話番号":"03-6441-0358","診療科目名称":"内科"},{"name":"ラソワレディースクリニック赤坂","province":"東京都","city":"港区","address":"東京都港区赤坂四丁目5番6号","lat":35.674491,"lon":139.734623,"施設方書":"クレアツィオーネ赤坂","施設開設日":"2020/4/1","施設電話番号":"03-6230-9990","診療科目名称":"婦人科"},{"name":"赤ちゃんのあたまのかたちクリニック","province":"東京都","city":"港区","address":"東京都港区赤坂四丁目7番15号","lat":35.675587,"lon":139.733929,"施設方書":"赤坂丹後ビル1階、2階","施設開設日":"2019/8/1","施設電話番号":"03-6230-9972","診療科目名称":"形成外科、小児形成外科、皮膚科、小児脳神経外科、リハビリテーション科、児童精神科"},{"name":"港区立健康増進センター診療所","province":"東京都","city":"港区","address":"東京都港区赤坂四丁目18番13号","lat":35.674707,"lon":139.731475,"施設方書":"赤坂コミュニティープラザ6階","施設開設日":"1996/4/1","施設電話番号":"03-5413-2717","診療科目名称":"内科"},{"name":"菅原クリニック東京脳ドック","province":"東京都","city":"港区","address":"東京都港区赤坂五丁目2番20号","lat":35.671857,"lon":139.733682,"施設方書":"赤坂パークビル2階","施設開設日":"2005/4/1","施設電話番号":"03-5573-8822","診療科目名称":"脳神経外科、内科、神経内科"},{"name":"医療法人順齡會赤坂おだやかクリニック","province":"東京都","city":"港区","address":"東京都港区赤坂五丁目3番1号","lat":35.673175,"lon":139.736359,"施設方書":"赤坂Bizタワー2階","施設開設日":"2010/11/1","施設電話番号":"03-6234-0511","診療科目名称":"内科、循環器内科、呼吸器内科、アレルギー科、リハビリテーション科、整形外科"},{"name":"坦誠会 赤坂内科クリニック","province":"東京都","city":"港区","address":"東京都港区赤坂五丁目4番6号","lat":35.672202,"lon":139.736034,"施設方書":"赤坂三辻ビル4階","施設開設日":"2009/9/18","施設電話番号":"03-5545-3500","診療科目名称":"内科、消化器内科、内視鏡内科"},{"name":"医療法人社団眞鋼会 赤坂耳鼻咽喉科クリニック","province":"東京都","city":"港区","address":"東京都港区赤坂五丁目4番8号","lat":35.671918,"lon":139.735774,"施設方書":"クレールタイヨー2階","施設開設日":"2020/10/1","施設電話番号":"03-3585-3387","診療科目名称":"耳鼻いんこう科、アレルギー科"},{"name":"医療法人社団瑶哲会島崎眼科","province":"東京都","city":"港区","address":"東京都港区赤坂五丁目4番8号","lat":35.671918,"lon":139.735774,"施設方書":"クレールタイヨー8階","施設開設日":"2022/12/24","施設電話番号":"03-3589-3518","診療科目名称":"眼科"},{"name":"医療法人社団裕祥会赤坂胃腸クリニック","province":"東京都","city":"港区","address":"東京都港区赤坂五丁目5番18号","lat":35.670392,"lon":139.733564,"施設方書":"AUSPICE赤坂8階","施設開設日":"2018/11/1","施設電話番号":"03-3560-1123","診療科目名称":"消化器内科(胃腸内科)"},{"name":"赤坂プレミアクリニック","province":"東京都","city":"港区","address":"東京都港区赤坂六丁目3番1号","lat":35.67145,"lon":139.735814,"施設方書":"アスモビル6階","施設開設日":"2015/4/1","施設電話番号":"03-6441-0808","診療科目名称":"美容外科、整形外科、リウマチ科、美容皮膚科"},{"name":"よしもとブレストクリニック","province":"東京都","city":"港区","address":"東京都港区赤坂六丁目3番20号","lat":35.671452,"lon":139.735714,"施設方書":"","施設開設日":"2012/1/4","施設電話番号":"03-3568-1155","診療科目名称":"乳腺外科、乳腺内科、内科、循環器内科"},{"name":"東京先進医療クリニック赤坂院","province":"東京都","city":"港区","address":"東京都港区赤坂六丁目6番3号","lat":35.670522,"lon":139.737465,"施設方書":"赤坂IDEAビル2階から6階","施設開設日":"2021/6/10","施設電話番号":"03-3585-1377","診療科目名称":"形成外科、美容外科、美容皮膚科、歯科、矯正歯科、歯科口腔外科"},{"name":"港区立特別養護老人ホーム サン・サン赤坂","province":"東京都","city":"港区","address":"東京都港区赤坂六丁目6番14号","lat":35.669759,"lon":139.737502,"施設方書":"","施設開設日":"2003/5/1","施設電話番号":"03-5561-7833","診療科目名称":"内科"},{"name":"赤坂ロイヤルクリニック","province":"東京都","city":"港区","address":"東京都港区赤坂七丁目6番15号","lat":35.671279,"lon":139.73313,"施設方書":"赤坂ロイヤルビルA302","施設開設日":"2002/6/1","施設電話番号":"","診療科目名称":"内科、心療内科"},{"name":"花輪診療所","province":"東京都","city":"港区","address":"東京都港区赤坂七丁目6番41号","lat":35.670337,"lon":139.731633,"施設方書":"赤坂七番館501.502","施設開設日":"1999/8/18","施設電話番号":"03-3583-9030","診療科目名称":"内科"},{"name":"七番館クリニック","province":"東京都","city":"港区","address":"東京都港区赤坂七丁目6番41号","lat":35.670337,"lon":139.731633,"施設方書":"赤坂七番館1階","施設開設日":"1989/9/15","施設電話番号":"03-3584-7177","診療科目名称":"消化器科、内科"},{"name":"医療法人社団栄和会 谷村クリニック","province":"東京都","city":"港区","address":"東京都港区赤坂七丁目6番52号","lat":35.670128,"lon":139.730755,"施設方書":"ハイツ赤坂112","施設開設日":"1999/12/31","施設電話番号":"03-3587-1239","診療科目名称":"内科、胃腸科、小児科"},{"name":"Skin Solution Clinic AOYAMA-DORI","province":"東京都","city":"港区","address":"東京都港区赤坂八丁目3番12号","lat":35.672054,"lon":139.727737,"施設方書":"AMSビル1階、2階","施設開設日":"2021/10/27","施設電話番号":"03-6455-5561","診療科目名称":"皮膚科、美容皮膚科"},{"name":"医療法人財団順和会 山王メディカルセンター","province":"東京都","city":"港区","address":"東京都港区赤坂八丁目5番35号","lat":35.672336,"lon":139.726317,"施設方書":"","施設開設日":"2001/1/4","施設電話番号":"03-3402-5581","診療科目名称":"内科、循環器内科、消化器内科、呼吸器内科、腎臓内科(人工透析)、内分泌内科、脳神経内科、リウマチ科、外科、消化器外科、血管外科、乳腺外科、婦人科、放射線科、脳神経外科、心療内科、産婦人科、耳鼻咽喉科"},{"name":"南青山ホームクリニック","province":"東京都","city":"港区","address":"東京都港区赤坂八丁目6番13号","lat":35.670993,"lon":139.728441,"施設方書":"新坂マンション404","施設開設日":"2017/9/1","施設電話番号":"03-6321-3696","診療科目名称":"内科"},{"name":"医療法人財団順和会 山王バースセンター","province":"東京都","city":"港区","address":"東京都港区赤坂八丁目10番16号","lat":35.669683,"lon":139.727256,"施設方書":"2階及び3階","施設開設日":"2015/2/1","施設電話番号":"03-3402-3150","診療科目名称":"産科"},{"name":"高沢内科クリニック","province":"東京都","city":"港区","address":"東京都港区赤坂八丁目13番12号","lat":35.669068,"lon":139.730299,"施設方書":"","施設開設日":"1997/10/1","施設電話番号":"03-3401-9630","診療科目名称":"内科、小児科"},{"name":"医療法人社団美匠会 シエルクリニック","province":"東京都","city":"港区","address":"東京都港区赤坂九丁目5番12号","lat":35.667463,"lon":139.729698,"施設方書":"パークサイドシックス1階","施設開設日":"2012/7/3","施設電話番号":"03-5775-3341","診療科目名称":"美容外科、形成外科、皮膚科"},{"name":"乃木坂ACクリニック","province":"東京都","city":"港区","address":"東京都港区赤坂九丁目6番28号","lat":35.666545,"lon":139.728445,"施設方書":"アルベルゴ乃木坂408","施設開設日":"2022/4/1","施設電話番号":"03-5414-1192","診療科目名称":"内科、美容外科、形成外科、整形外科、麻酔科"},{"name":"QUIC BEAUTY CLINIC","province":"東京都","city":"港区","address":"東京都港区赤坂九丁目6番28号","lat":35.666545,"lon":139.728445,"施設方書":"アルベルゴ乃木坂804号室","施設開設日":"2023/5/10","施設電話番号":"03-6756-5181","診療科目名称":"内科、精神科、皮膚科、美容皮膚科"},{"name":"赤坂慶友クリニック","province":"東京都","city":"港区","address":"東京都港区赤坂九丁目6番30号","lat":35.666968,"lon":139.7286,"施設方書":"ルイマーブル乃木坂1階109号室","施設開設日":"2006/4/18","施設電話番号":"03-5772-1419","診療科目名称":"内科、消化器科"},{"name":"医療法人社団ミッドタウンクリニック 東京ミッドタウンクリニック","province":"東京都","city":"港区","address":"東京都港区赤坂九丁目7番1号","lat":35.666126,"lon":139.731247,"施設方書":"ミッドタウン・タワー6階","施設開設日":"2007/2/1","施設電話番号":"03-5413-0080","診療科目名称":"内科、神経内科、リウマチ科、消化器内科、循環器内科、整形外科、婦人科、眼科、放射線科、乳腺外科、脳神経外科、糖尿病内科、肝臓内科、呼吸器内科"},{"name":"医療法人社団ミッドタウンクリニック 東京ミッドタウンクリニック 健診センター","province":"東京都","city":"港区","address":"東京都港区赤坂九丁目7番1号","lat":35.666126,"lon":139.731247,"施設方書":"ミッドタウン・タワー6階","施設開設日":"2008/4/1","施設電話番号":"03-5413-7935","診療科目名称":"内科、婦人科"},{"name":"医療法人社団ミッドタウンクリニック 東京ミッドタウン皮膚科形成外科ノアージュ","province":"東京都","city":"港区","address":"東京都港区赤坂九丁目7番1号","lat":35.666126,"lon":139.731247,"施設方書":"ミッドタウン・タワー6階","施設開設日":"2007/9/7","施設電話番号":"03-5413-0082","診療科目名称":"形成外科、皮膚科、美容外科、内科、外科、婦人科"},{"name":"富士ゼロックス 本社 健康推進室","province":"東京都","city":"港区","address":"東京都港区赤坂九丁目7番3号","lat":35.665548,"lon":139.730402,"施設方書":"東京ミッドタウン5階","施設開設日":"2007/3/1","施設電話番号":"03-6271-5136","診療科目名称":"内科"},{"name":"富士フイルム株式会社 健康管理室","province":"東京都","city":"港区","address":"東京都港区赤坂九丁目7番3号","lat":35.665548,"lon":139.730402,"施設方書":"東京ミッドタウン・ウエスト4階","施設開設日":"2007/3/23","施設電話番号":"03-6271-3450","診療科目名称":"内科"},{"name":"麻布アムールクリニック","province":"東京都","city":"港区","address":"東京都港区麻布十番一丁目4番7号","lat":35.656991,"lon":139.734886,"施設方書":"麻布マスターズビル5階","施設開設日":"2022/7/22","施設電話番号":"","診療科目名称":"形成外科、美容外科、皮膚科、美容皮膚科"},{"name":"医療法人社団みなとあおば あおば皮フ科クリニック","province":"東京都","city":"港区","address":"東京都港区麻布十番一丁目5番8号","lat":35.657048,"lon":139.73333,"施設方書":"ヴェスタビル2階","施設開設日":"2021/4/1","施設電話番号":"03-6447-1290","診療科目名称":"皮膚科、小児皮膚科、美容皮膚科、アレルギー科、内科"},{"name":"ホロン鳥居坂クリニック耳鼻咽喉科アレルギー科","province":"東京都","city":"港区","address":"東京都港区麻布十番一丁目5番8号","lat":35.657048,"lon":139.73333,"施設方書":"ヴェスタビル4階","施設開設日":"2015/1/26","施設電話番号":"03-5770-8733","診療科目名称":"耳鼻いんこう科、アレルギー科"},{"name":"大森真帆麻布十番クリニック","province":"東京都","city":"港区","address":"東京都港区麻布十番一丁目5番9号","lat":35.656973,"lon":139.733409,"施設方書":"高橋ビル2階","施設開設日":"2014/9/1","施設電話番号":"03-6455-4317","診療科目名称":"内科、腎臓内科、アレルギー科"},{"name":"アイリスター麻布クリニック","province":"東京都","city":"港区","address":"東京都港区麻布十番一丁目5番10号","lat":35.656853,"lon":139.733649,"施設方書":"アトラスビル3階","施設開設日":"2004/7/28","施設電話番号":"03-5772-3205","診療科目名称":"眼科、美容外科、内科、皮膚科"},{"name":"麻布モンテアールレディースクリニック","province":"東京都","city":"港区","address":"東京都港区麻布十番一丁目5番18号","lat":35.656595,"lon":139.733809,"施設方書":"カートブラン麻布十番3階・5階","施設開設日":"2020/8/1","施設電話番号":"03-6804-3208","診療科目名称":"婦人科"},{"name":"東京ブランシェクリニック","province":"東京都","city":"港区","address":"東京都港区麻布十番一丁目5番18号","lat":35.656595,"lon":139.733809,"施設方書":"カートブラン麻布十番7階","施設開設日":"2023/1/1","施設電話番号":"03-6721-1647","診療科目名称":"皮膚科、美容皮膚科、美容外科、形成外科"},{"name":"医療法人社団まなみウィメンズ 麻布十番まなみウィメンズクリニック","province":"東京都","city":"港区","address":"東京都港区麻布十番一丁目5番19号","lat":35.656613,"lon":139.733699,"施設方書":"ラトリエ・メモワールビル2階","施設開設日":"2015/10/1","施設電話番号":"03-3405-0928","診療科目名称":"産婦人科"},{"name":"一般社団法人橘麗会 Mast Beauty クリニック 麻布十番","province":"東京都","city":"港区","address":"東京都港区麻布十番一丁目6番5号","lat":35.656378,"lon":139.734238,"施設方書":"ラミュウーズビル5階","施設開設日":"2022/4/1","施設電話番号":"03-3478-1107","診療科目名称":"皮膚科、美容皮膚科、精神科、内科"},{"name":"MediLotus clinic","province":"東京都","city":"港区","address":"東京都港区麻布十番一丁目7番1号","lat":35.656628,"lon":139.734607,"施設方書":"ヨーロッパハウス9階","施設開設日":"2020/12/1","施設電話番号":"03-6804-1559","診療科目名称":"内科、心療内科、美容内科、リウマチ科、神経内科、漢方内科、整形外科、リハビリテーション科、精神科、アレルギー科、小児科、皮膚科、美容皮膚科、小児皮膚科、泌尿器科"},{"name":"たくま内科・神経内科クリニック","province":"東京都","city":"港区","address":"東京都港区麻布十番一丁目7番1号","lat":35.656668,"lon":139.734527,"施設方書":"MGB麻布十番ビル4階","施設開設日":"2015/4/1","施設電話番号":"03-6434-7478","診療科目名称":"内科、神経内科"},{"name":"なかむらそうクリニック","province":"東京都","city":"港区","address":"東京都港区麻布十番一丁目7番1号","lat":35.656668,"lon":139.734527,"施設方書":"MGB麻布十番ビル5階","施設開設日":"2015/7/27","施設電話番号":"03-6434-7828","診療科目名称":"内科、泌尿器科"},{"name":"イーメディカルクリニック麻布","province":"東京都","city":"港区","address":"東京都港区麻布十番一丁目7番11号","lat":35.656315,"lon":139.734587,"施設方書":"麻布井上ビル2階","施設開設日":"2022/8/20","施設電話番号":"050-5530-0965","診療科目名称":"美容皮膚科、美容外科"},{"name":"HEALTH PALACE CLINIC","province":"東京都","city":"港区","address":"東京都港区麻布十番一丁目8番1号","lat":35.656212,"lon":139.735173,"施設方書":"EX麻布十番5階","施設開設日":"2024/2/22","施設電話番号":"","診療科目名称":"美容内科"},{"name":"美容皮膚科エルムクリニック 麻布院","province":"東京都","city":"港区","address":"東京都港区麻布十番一丁目9番7号","lat":35.656341,"lon":139.735932,"施設方書":"4F","施設開設日":"2022/7/16","施設電話番号":"03-6807-4171","診療科目名称":"美容皮膚科、歯科"},{"name":"プリモ麻布十番クリニック","province":"東京都","city":"港区","address":"東京都港区麻布十番一丁目10番10号","lat":35.656052,"lon":139.736702,"施設方書":"ジュールAB1階","施設開設日":"2022/5/30","施設電話番号":"0120-062-069","診療科目名称":"内科、皮膚科、形成外科、美容外科、麻酔科"},{"name":"医療法人社団Veritas Medical Partners 麻布医院","province":"東京都","city":"港区","address":"東京都港区麻布十番一丁目11番1号","lat":35.655889,"lon":139.736163,"施設方書":"エスティメゾン麻布十番3階","施設開設日":"2007/5/1","施設電話番号":"03-5545-8177","診療科目名称":"内科、消化器内科、アレルギー科、皮膚科、肝臓内科、婦人科"},{"name":"みのやまクリニック","province":"東京都","city":"港区","address":"東京都港区麻布十番二丁目1番1号","lat":35.655509,"lon":139.735954,"施設方書":"あべちゃんビル4階","施設開設日":"2020/10/1","施設電話番号":"03-6459-2686","診療科目名称":"内科、消化器内科(胃腸内科)、アレルギー科"},{"name":"麻布十番こころメンタルクリニック","province":"東京都","city":"港区","address":"東京都港区麻布十番二丁目2番7号","lat":35.655289,"lon":139.735645,"施設方書":"野口ビル2階","施設開設日":"2024/3/7","施設電話番号":"03-6665-8901","診療科目名称":"精神科、心療内科"},{"name":"医療法人社団 慶希佑会 中村麻布十番クリニック","province":"東京都","city":"港区","address":"東京都港区麻布十番二丁目2番10号","lat":35.655586,"lon":139.735625,"施設方書":"麻布十番スクエア2階","施設開設日":"2018/11/1","施設電話番号":"03-5419-7300","診療科目名称":"内科、消化器内科、アレルギー科"},{"name":"医療法人敬愛会ザナチュラルビューティクリニック麻布十番","province":"東京都","city":"港区","address":"東京都港区麻布十番二丁目3番12号","lat":35.655708,"lon":139.735086,"施設方書":"ベルフォーレ麻布4階","施設開設日":"2020/9/16","施設電話番号":"03-6438-9567","診療科目名称":"皮膚科、形成外科、美容外科、美容皮膚科"},{"name":"麻布ウィメンズクリニック","province":"東京都","city":"港区","address":"東京都港区麻布十番二丁目3番12号","lat":35.655708,"lon":139.735086,"施設方書":"ベルフォーレ麻布3階","施設開設日":"2020/8/3","施設電話番号":"03-6809-3103","診療科目名称":"産科、婦人科、小児科、内科"},{"name":"筋肉・美容クリニック","province":"東京都","city":"港区","address":"東京都港区麻布十番二丁目3番12号","lat":35.655708,"lon":139.735086,"施設方書":"5階","施設開設日":"2021/10/1","施設電話番号":"03-3454-1975","診療科目名称":"内科、男性内科、女性内科、消化器内科(胃腸内科)、糖尿病内科(代謝内科)、美容内科、美容皮膚科、美容外科、整形外科、ペインクリニック内科、ペインクリニック外科"},{"name":"麻布十番駅前クリニック","province":"東京都","city":"港区","address":"東京都港区麻布十番二丁目8番6号","lat":35.655631,"lon":139.734632,"施設方書":"ラベイユ麻布十番3階A","施設開設日":"2023/12/1","施設電話番号":"03-6435-2202","診療科目名称":"皮膚科、美容皮膚科"},{"name":"麻布十番皮フ形成外科クリニック","province":"東京都","city":"港区","address":"東京都港区麻布十番二丁目12番4号","lat":35.654264,"lon":139.735087,"施設方書":"AZABU PARKHAUS201","施設開設日":"2014/4/1","施設電話番号":"03-5419-1103","診療科目名称":"皮膚科、形成外科、美容皮膚科"},{"name":"馬場クリニック","province":"東京都","city":"港区","address":"東京都港区麻布十番二丁目13番2号","lat":35.655013,"lon":139.735228,"施設方書":"","施設開設日":"1989/4/1","施設電話番号":"03-3454-7788","診療科目名称":"内科、小児科"},{"name":"NS Clinic","province":"東京都","city":"港区","address":"東京都港区麻布十番二丁目13番9号","lat":35.654609,"lon":139.734916,"施設方書":"COCOハウス十番401","施設開設日":"2023/9/15","施設電話番号":"","診療科目名称":"美容皮膚科、皮膚科"},{"name":"東京タワーヴュークリニック麻布十番","province":"東京都","city":"港区","address":"東京都港区麻布十番二丁目14番6号","lat":35.654802,"lon":139.735729,"施設方書":"イイダビル1階","施設開設日":"2022/6/1","施設電話番号":"03-6809-3207","診療科目名称":"内科、心療内科"},{"name":"麻布ビューティクリニック","province":"東京都","city":"港区","address":"東京都港区麻布十番二丁目14番11号","lat":35.654968,"lon":139.735565,"施設方書":"ルート麻布ビル5階、6階","施設開設日":"2015/10/1","施設電話番号":"03-6400-5511","診療科目名称":"美容皮膚科"},{"name":"サニーガーデンこどもクリニック","province":"東京都","city":"港区","address":"東京都港区麻布十番二丁目16番4号","lat":35.654197,"lon":139.735591,"施設方書":"プラスワンビル3階","施設開設日":"2021/5/1","施設電話番号":"03-6722-6623","診療科目名称":"小児科、アレルギー科"},{"name":"麻布十番眼科","province":"東京都","city":"港区","address":"東京都港区麻布十番二丁目18番8号","lat":35.654248,"lon":139.735894,"施設方書":"ABAアサミビル4階","施設開設日":"2015/3/1","施設電話番号":"03-5442-3543","診療科目名称":"眼科、小児眼科"},{"name":"麻布十番内科ブリッジヒルクリニック","province":"東京都","city":"港区","address":"東京都港区麻布十番二丁目18番8号","lat":35.654248,"lon":139.735894,"施設方書":"ABAアサミビル2階","施設開設日":"2023/11/1","施設電話番号":"03-3455-5577","診療科目名称":"内科、内分泌・代謝内科、腎臓内科"},{"name":"麻布十番たちばな泌尿器科・皮膚科クリニック","province":"東京都","city":"港区","address":"東京都港区麻布十番二丁目20番6号","lat":35.65495,"lon":139.736682,"施設方書":"麻布十番エムエービルディング4階","施設開設日":"2023/11/1","施設電話番号":"03-6665-8648","診療科目名称":"泌尿器科、男性泌尿器科、女性泌尿器科、小児泌尿器科、皮膚科"},{"name":"麻布十番内科・血液内科クリニック","province":"東京都","city":"港区","address":"東京都港区麻布十番二丁目20番6号","lat":35.65495,"lon":139.736682,"施設方書":"麻布十番エムエービルディング2階","施設開設日":"2023/2/21","施設電話番号":"03-6722-0258","診療科目名称":"内科、血液内科、老年内科、精神科"},{"name":"麻布十番整形外科","province":"東京都","city":"港区","address":"東京都港区麻布十番二丁目20番10号","lat":35.654667,"lon":139.736602,"施設方書":"グランドメゾン麻布一の橋1階","施設開設日":"2005/8/1","施設電話番号":"03-3452-5546","診療科目名称":"整形外科、リハビリテーション科、リウマチ科"},{"name":"医療法人社団香明会 草間かほるクリニック","province":"東京都","city":"港区","address":"東京都港区麻布十番三丁目5番1号","lat":35.653263,"lon":139.735248,"施設方書":"バルゴ麻布ビル5階","施設開設日":"2008/8/1","施設電話番号":"03-5730-1926","診療科目名称":"肛門外科、胃腸外科、内科"},{"name":"麻布ビューティクリニックANNEX","province":"東京都","city":"港区","address":"東京都港区麻布十番三丁目6番2号","lat":35.653284,"lon":139.734766,"施設方書":"NS麻布十番ビル6階、7階","施設開設日":"2022/6/20","施設電話番号":"03-6435-4980","診療科目名称":"美容皮膚科"},{"name":"医療法人社団桜倫会 麻布整形外科クリニック","province":"東京都","city":"港区","address":"東京都港区麻布十番三丁目6番9号","lat":35.653081,"lon":139.734527,"施設方書":"ヒルサイド麻布1階","施設開設日":"2005/1/4","施設電話番号":"03-5765-2020","診療科目名称":"整形外科、リウマチ科、リハビリテーション科、放射線科"},{"name":"ココクリニック","province":"東京都","city":"港区","address":"東京都港区麻布十番三丁目10番1号","lat":35.652878,"lon":139.734647,"施設方書":"デルプレシアード401号","施設開設日":"2019/8/17","施設電話番号":"03-6275-1866","診療科目名称":"美容皮膚科、形成外科"},{"name":"CZEN SKIN CLINIC","province":"東京都","city":"港区","address":"東京都港区麻布十番三丁目11番11号","lat":35.652722,"lon":139.735184,"施設方書":"airビル4階・5階","施設開設日":"2022/8/1","施設電話番号":"03-5484-5757","診療科目名称":"美容皮膚科"},{"name":"小田原医院","province":"東京都","city":"港区","address":"東京都港区麻布十番三丁目11番12号","lat":35.652734,"lon":139.73513,"施設方書":"","施設開設日":"1999/2/1","施設電話番号":"03-3451-4595","診療科目名称":"小児科、耳鼻いんこう科、内科、皮膚科"},{"name":"医療法人邦寿会NEW FACE AESTHETIC CLINIC","province":"東京都","city":"港区","address":"東京都港区麻布十番四丁目1番1号","lat":35.655238,"lon":139.737424,"施設方書":"MAXPLAN AZABU10 5階","施設開設日":"2021/3/1","施設電話番号":"03-6722-6795","診療科目名称":"皮膚科、形成外科"},{"name":"スタートクリニック麻布十番","province":"東京都","city":"港区","address":"東京都港区麻布十番四丁目1番1号","lat":35.655238,"lon":139.737424,"施設方書":"MAXPLANAZABU10 7階","施設開設日":"2024/3/25","施設電話番号":"03-6722-0341","診療科目名称":"美容皮膚科"},{"name":"麻布十番えむスキンクリニック","province":"東京都","city":"港区","address":"東京都港区麻布十番四丁目1番9号","lat":35.65513,"lon":139.737401,"施設方書":"麻布十番エムビル7F","施設開設日":"2022/1/1","施設電話番号":"03-6453-6558","診療科目名称":"美容皮膚科、皮膚科、形成外科"},{"name":"医療法人社団なかよし会 麻布台クリニック","province":"東京都","city":"港区","address":"東京都港区麻布台一丁目3番1号","lat":35.660882,"lon":139.740657,"施設方書":"麻布台ヒルズ森JPタワー4階","施設開設日":"2023/10/2","施設電話番号":"03-5544-9390","診療科目名称":"内科、消化器内科、リウマチ科、皮膚科、美容皮膚科"},{"name":"慶應義塾大学予防医療センター","province":"東京都","city":"港区","address":"東京都港区麻布台一丁目3番1号","lat":35.660882,"lon":139.740657,"施設方書":"麻布台ヒルズ森JPタワー5階・6階","施設開設日":"2023/9/1","施設電話番号":"03-5843-6085","診療科目名称":"内科、婦人科、眼科、放射線科、歯科"},{"name":"Art Lounge Clinic","province":"東京都","city":"港区","address":"東京都港区麻布台一丁目5番9号","lat":35.661225,"lon":139.738303,"施設方書":"55-1麻布台2階","施設開設日":"2022/3/28","施設電話番号":"03-5544-8648","診療科目名称":"美容皮膚科"},{"name":"Nu clinic","province":"東京都","city":"港区","address":"東京都港区麻布台一丁目5番9号-3階","lat":35.661225,"lon":139.738303,"施設方書":"","施設開設日":"2022/12/1","施設電話番号":"03-6823-8706","診療科目名称":"美容内科、美容皮膚科"},{"name":"銘煌CITクリニック","province":"東京都","city":"港区","address":"東京都港区麻布台一丁目7番1号","lat":35.661184,"lon":139.743227,"施設方書":"菅野ビル3階","施設開設日":"2018/8/20","施設電話番号":"03-6277-6871","診療科目名称":"腫瘍内科"},{"name":"海渡医院","province":"東京都","city":"港区","address":"東京都港区麻布台一丁目10番11号","lat":35.660443,"lon":139.74262,"施設方書":"","施設開設日":"1989/9/21","施設電話番号":"03-3583-0265","診療科目名称":"内科、小児科、リウマチ科"},{"name":"医療法人社団創輝会 東京国際美容クリニック","province":"東京都","city":"港区","address":"東京都港区麻布台二丁目3番5号","lat":35.659191,"lon":139.74265,"施設方書":"ノアビル9階","施設開設日":"2014/11/7","施設電話番号":"03-6435-5356","診療科目名称":"美容外科、美容内科、美容皮膚科"},{"name":"ラヴィエクリニック","province":"東京都","city":"港区","address":"東京都港区麻布台三丁目1番6号","lat":35.6608,"lon":139.738491,"施設方書":"BLUE BLDG.AZABUDAI3階","施設開設日":"2024/2/12","施設電話番号":"03-4400-2749","診療科目名称":"美容皮膚科、美容内科"},{"name":"祐ホームクリニック麻布台","province":"東京都","city":"港区","address":"東京都港区麻布台三丁目4番18号","lat":35.660007,"lon":139.738558,"施設方書":"クリーデンス麻布台101","施設開設日":"2016/8/18","施設電話番号":"050-3823-0159","診療科目名称":"内科、緩和ケア内科、精神科"},{"name":"虎ノ門ヒルズレジデンシャルタワー健康相談クリニック","province":"東京都","city":"港区","address":"東京都港区愛宕一丁目1番1号","lat":35.665986,"lon":139.748567,"施設方書":"虎ノ門ヒルズレジデンシャルタワー2階","施設開設日":"2022/9/1","施設電話番号":"03-5422-1056","診療科目名称":"内科"},{"name":"医療法人社団穆心会 クリントエグゼクリニック","province":"東京都","city":"港区","address":"東京都港区愛宕二丁目5番1号","lat":35.662142,"lon":139.748881,"施設方書":"愛宕グリーンヒルズMORIタワー 4階","施設開設日":"2001/12/3","施設電話番号":"03-5405-1095","診療科目名称":"内科、皮膚科、形成外科、放射線科、産婦人科、脳神経外科"},{"name":"医療法人恵仁会 松島クリニック汐留","province":"東京都","city":"港区","address":"東京都港区海岸一丁目1番1号","lat":35.658229,"lon":139.758707,"施設方書":"2階","施設開設日":"2017/12/28","施設電話番号":"03-3437-7311","診療科目名称":"内科、消化器内科(内視鏡)"},{"name":"医療法人社団進興会 浜松町ハマサイトクリニック","province":"東京都","city":"港区","address":"東京都港区海岸一丁目2番20号","lat":35.656822,"lon":139.759378,"施設方書":"汐留ビルディング2階","施設開設日":"2018/7/23","施設電話番号":"03-5472-1100","診療科目名称":"内科、婦人科"},{"name":"東京浜松町眼科クリニック","province":"東京都","city":"港区","address":"東京都港区海岸一丁目2番20号","lat":35.656822,"lon":139.759378,"施設方書":"汐留ビルディング2階","施設開設日":"2011/9/1","施設電話番号":"03-3434-4113","診療科目名称":"眼科"},{"name":"株式会社小松製作所本社診療所","province":"東京都","city":"港区","address":"東京都港区海岸一丁目2番20号","lat":35.656822,"lon":139.759378,"施設方書":"汐留ビルディング8階","施設開設日":"2024/1/5","施設電話番号":"03-6849-9793","診療科目名称":"内科"},{"name":"東京ガス株式会社 健康管理センター","province":"東京都","city":"港区","address":"東京都港区海岸一丁目5番20号","lat":35.65345,"lon":139.758554,"施設方書":"","施設開設日":"1984/2/13","施設電話番号":"03-5400-7684","診療科目名称":"内科、精神科、歯科"},{"name":"一般財団法人京浜保健衛生協会 健診センター","province":"東京都","city":"港区","address":"東京都港区海岸一丁目5番20号","lat":35.653284,"lon":139.758619,"施設方書":"東京ガスビルディング3階","施設開設日":"2009/7/1","施設電話番号":"03-5400-7812","診療科目名称":"内科"},{"name":"竹芝水辺のクリニック","province":"東京都","city":"港区","address":"東京都港区海岸一丁目10番30号","lat":35.655884,"lon":139.762831,"施設方書":"アトレ竹芝タワー棟3階","施設開設日":"2020/8/3","施設電話番号":"03-3432-3232","診療科目名称":"内科、腎臓内科"},{"name":"フォーシーズンズ美容皮膚科 東京竹芝院","province":"東京都","city":"港区","address":"東京都港区海岸一丁目10番30号","lat":35.655884,"lon":139.762831,"施設方書":"アトレ竹芝タワー棟3階","施設開設日":"2023/5/12","施設電話番号":"03-6803-4908","診療科目名称":"皮膚科、美容皮膚科、美容外科"},{"name":"アジュール竹芝 総合健診センター","province":"東京都","city":"港区","address":"東京都港区海岸一丁目11番2号","lat":35.655276,"lon":139.763249,"施設方書":"","施設開設日":"1991/11/28","施設電話番号":"03-3437-2701","診療科目名称":"内科、眼科、婦人科、耳鼻いんこう科"},{"name":"東京ベイクリニック","province":"東京都","city":"港区","address":"東京都港区海岸一丁目16番1号","lat":35.653403,"lon":139.762589,"施設方書":"ニューピア竹芝サウスタワー4階","施設開設日":"2004/10/19","施設電話番号":"03-5404-3842","診療科目名称":"内科、消化器科、外科"},{"name":"Total Cell Clinic TOKYO","province":"東京都","city":"港区","address":"東京都港区海岸一丁目16番1号","lat":35.653403,"lon":139.762589,"施設方書":"ニューピア竹芝サウスタワー13階","施設開設日":"2021/4/1","施設電話番号":"03-6435-7410","診療科目名称":"内科、外科"},{"name":"医療法人美喜有会 リペアセルクリニック東京院","province":"東京都","city":"港区","address":"東京都港区海岸一丁目16番1号","lat":35.653403,"lon":139.762589,"施設方書":"ニューピア竹芝サウスタワー3階","施設開設日":"2021/5/7","施設電話番号":"0120-706-313","診療科目名称":"整形外科"},{"name":"マブチメディカルクリニック","province":"東京都","city":"港区","address":"東京都港区海岸一丁目16番2号","lat":35.653006,"lon":139.762375,"施設方書":"インターコンチネンタル東京ベイ911号室","施設開設日":"2012/7/1","施設電話番号":"03-5404-3963","診療科目名称":"内科、皮膚科"},{"name":"株式会社紀文食品 産業医室","province":"東京都","city":"港区","address":"東京都港区海岸二丁目1番7号","lat":35.651518,"lon":139.759157,"施設方書":"","施設開設日":"2007/10/2","施設電話番号":"03-6891-2666","診療科目名称":"内科"},{"name":"東京港診療所","province":"東京都","city":"港区","address":"東京都港区海岸三丁目9番5号","lat":35.639667,"lon":139.754597,"施設方書":"2階","施設開設日":"2011/4/1","施設電話番号":"03-3451-4620","診療科目名称":"内科、眼科"},{"name":"医療法人社団スターセルアライアンススタークリニック","province":"東京都","city":"港区","address":"東京都港区海岸三丁目26番1号","lat":35.645293,"lon":139.758639,"施設方書":"バーク芝浦ビル11階","施設開設日":"2018/4/17","施設電話番号":"03-6453-7031","診療科目名称":"内科、形成外科、美容皮膚科"},{"name":"医療法人社団エムイーアール インディバークリニック","province":"東京都","city":"港区","address":"東京都港区海岸三丁目26番1号","lat":35.645293,"lon":139.758639,"施設方書":"バーク芝浦ビル5階","施設開設日":"2022/7/1","施設電話番号":"03-6436-7991","診療科目名称":"内科、歯科、神経内科、腫瘍外科"},{"name":"伊藤忠東京診療所","province":"東京都","city":"港区","address":"東京都港区北青山二丁目5番1号","lat":35.671557,"lon":139.719321,"施設方書":"","施設開設日":"2014/1/14","施設電話番号":"03-3497-7683","診療科目名称":"内科、歯科"},{"name":"ミネルバクリニック","province":"東京都","city":"港区","address":"東京都港区北青山二丁目7番25号","lat":35.671321,"lon":139.717258,"施設方書":"神宮外苑ビル1号館2階","施設開設日":"2019/10/4","施設電話番号":"03-3478-3768","診療科目名称":"内科、腫瘍内科、呼吸器内科、感染症内科"},{"name":"私の皮膚科","province":"東京都","city":"港区","address":"東京都港区北青山二丁目7番25号","lat":35.671321,"lon":139.717258,"施設方書":"神宮外苑ビル1号館3階","施設開設日":"2022/6/1","施設電話番号":"03-3475-1112","診療科目名称":"皮膚科、小児皮膚科、美容皮膚科"},{"name":"医療法人社団セレス 青山セレスクリニック","province":"東京都","city":"港区","address":"東京都港区北青山二丁目7番26号","lat":35.671454,"lon":139.717278,"施設方書":"フジビル28 7F","施設開設日":"2014/2/1","施設電話番号":"03-3405-7357","診療科目名称":"美容外科、形成外科、美容皮膚科、皮膚科、泌尿器科、美容内科、内科"},{"name":"青山レナセルクリニック","province":"東京都","city":"港区","address":"東京都港区北青山二丁目7番28号","lat":35.671815,"lon":139.717059,"施設方書":"N.A.ビル5階","施設開設日":"2020/7/18","施設電話番号":"03-5843-0425","診療科目名称":"内科、皮膚科、消化器内科、内分泌内科、腎臓内科、代謝内科、形成外科"},{"name":"STスキンクリニック青山","province":"東京都","city":"港区","address":"東京都港区北青山二丁目9番14号","lat":35.67126,"lon":139.716303,"施設方書":"シスター202号","施設開設日":"2021/4/15","施設電話番号":"","診療科目名称":"皮膚科、美容皮膚科"},{"name":"青山PHSクリニック","province":"東京都","city":"港区","address":"東京都港区北青山二丁目12番7号","lat":35.671053,"lon":139.71613,"施設方書":"K&Cビル2・3階","施設開設日":"2003/3/12","施設電話番号":"03-5770-3330","診療科目名称":"美容外科"},{"name":"アットホーム表参道クリニック","province":"東京都","city":"港区","address":"東京都港区北青山二丁目12番31号","lat":35.670168,"lon":139.714953,"施設方書":"第3イノセビル2階及び地下1階","施設開設日":"2020/10/1","施設電話番号":"03-3423-3232","診療科目名称":"整形外科、内科、リハビリテーション科、糖尿病内科、内分泌・代謝内科、老年内科、女性内科、漢方内科"},{"name":"東京メディカルテラス","province":"東京都","city":"港区","address":"東京都港区北青山二丁目13番4号","lat":35.670031,"lon":139.716423,"施設方書":"青山MYビル4階","施設開設日":"2022/5/1","施設電話番号":"03-6721-1899","診療科目名称":"内科、外科、消化器内科"},{"name":"医療法人社団嗣業の会 こどもとおとなのクリニック パウルーム","province":"東京都","city":"港区","address":"東京都港区北青山二丁目13番4号","lat":35.670031,"lon":139.716423,"施設方書":"青山MYビル","施設開設日":"2023/3/7","施設電話番号":"03-6804-1892","診療科目名称":"小児科、内科、精神科"},{"name":"新未来クリニック","province":"東京都","city":"港区","address":"東京都港区北青山三丁目2番2号","lat":35.669219,"lon":139.715492,"施設方書":"AYビル6階","施設開設日":"2023/12/1","施設電話番号":"03-6438-9146","診療科目名称":"内科、ペインクリニック整形外科、皮膚科"},{"name":"中井診療所","province":"東京都","city":"港区","address":"東京都港区北青山三丁目3番7号","lat":35.668363,"lon":139.714833,"施設方書":"102","施設開設日":"1963/7/10","施設電話番号":"03-3401-2055","診療科目名称":"産科、婦人科、内科"},{"name":"おりつこどもクリニック","province":"東京都","city":"港区","address":"東京都港区北青山三丁目5番4号","lat":35.667503,"lon":139.714255,"施設方書":"青山高野ビル5階","施設開設日":"2018/10/1","施設電話番号":"03-6721-1188","診療科目名称":"小児科、アレルギー科"},{"name":"医療法人社団プラス会 赤井クリニック","province":"東京都","city":"港区","address":"東京都港区北青山三丁目5番17号","lat":35.666065,"lon":139.712824,"施設方書":"KNKビル3,4階","施設開設日":"2005/9/1","施設電話番号":"03-5771-4114","診療科目名称":"形成外科、皮膚科、美容外科、内科"},{"name":"医療法人社団一信会 ティーアイクリニック","province":"東京都","city":"港区","address":"東京都港区北青山三丁目5番17号","lat":35.666198,"lon":139.713058,"施設方書":"はる木ビル4階","施設開設日":"2015/4/1","施設電話番号":"03-3405-1277","診療科目名称":"内、美皮"},{"name":"医療法人社団衣明会 衣理クリニック表参道","province":"東京都","city":"港区","address":"東京都港区北青山三丁目5番30号","lat":35.665994,"lon":139.711522,"施設方書":"入来ビル4階","施設開設日":"2004/10/13","施設電話番号":"03-5786-0077","診療科目名称":"内科、皮膚科"},{"name":"表参道Bjクリニック 美容外科・美容皮膚科","province":"東京都","city":"港区","address":"東京都港区北青山三丁目5番40号","lat":35.666756,"lon":139.711733,"施設方書":"YCビル2 2階","施設開設日":"2021/1/25","施設電話番号":"03-6438-9900","診療科目名称":"美容外科、美容皮膚科"},{"name":"表参道内科眼科","province":"東京都","city":"港区","address":"東京都港区北青山三丁目6番16号","lat":35.664846,"lon":139.711745,"施設方書":"表参道サンケイビル3階","施設開設日":"2008/12/1","施設電話番号":"03-5466-9971","診療科目名称":"内科、眼科"},{"name":"北青山診療所","province":"東京都","city":"港区","address":"東京都港区北青山三丁目6番19号","lat":35.664514,"lon":139.711432,"施設方書":"三和実業表参道ビル4階","施設開設日":"2004/4/1","施設電話番号":"03-3797-0551","診療科目名称":"内科、精神科、神経科、心療内科"},{"name":"表参道タウン形成外科クリニック","province":"東京都","city":"港区","address":"東京都港区北青山三丁目6番19号","lat":35.664514,"lon":139.711432,"施設方書":"三和実業表参道ビル8階","施設開設日":"2012/4/5","施設電話番号":"03-5467-0024","診療科目名称":"形成外科、美容外科、皮膚科"},{"name":"医療法人社団神優会東京GLPクリニック","province":"東京都","city":"港区","address":"東京都港区北青山三丁目6番19号","lat":35.664514,"lon":139.711432,"施設方書":"三和実業表参道ビル5階","施設開設日":"2022/9/28","施設電話番号":"03-6721-9233","診療科目名称":"内科"},{"name":"青山エミ・セントクリニック","province":"東京都","city":"港区","address":"東京都港区北青山三丁目6番20号","lat":35.664342,"lon":139.711414,"施設方書":"青山T&E 6F","施設開設日":"2013/6/1","施設電話番号":"03-6427-6562","診療科目名称":"内科、皮膚科、婦人科"},{"name":"青山外苑前クリニック","province":"東京都","city":"港区","address":"東京都港区北青山三丁目7番2号","lat":35.664831,"lon":139.71072,"施設方書":"FPG links OMOTESANDO2 2階","施設開設日":"2020/5/24","施設電話番号":"03-5772-4575","診療科目名称":"皮膚科、形成外科、美容外科、美容皮膚科"},{"name":"メディカルブランチ表参道","province":"東京都","city":"港区","address":"東京都港区北青山三丁目9番7号","lat":35.664691,"lon":139.710142,"施設方書":"表参道N&Nビル3F","施設開設日":"2016/9/1","施設電話番号":"03-5774-2057","診療科目名称":"内科、外科"},{"name":"医療法人ふじいやさか 表参道ウェルネス統合医療クリニック","province":"東京都","city":"港区","address":"東京都港区北青山三丁目9番8号","lat":35.664551,"lon":139.709946,"施設方書":"ノースアオヤマB1階","施設開設日":"2021/5/1","施設電話番号":"03-4500-9293","診療科目名称":"循環器内科、外科"},{"name":"表参道ソフィアクリニック","province":"東京都","city":"港区","address":"東京都港区北青山三丁目10番2号","lat":35.664504,"lon":139.710514,"施設方書":"","施設開設日":"2013/8/13","施設電話番号":"03-3805-0136","診療科目名称":"精神科、心療内科"},{"name":"表参道美容外科クリニック","province":"東京都","city":"港区","address":"東京都港区北青山三丁目10番9号","lat":35.664027,"lon":139.711113,"施設方書":"川島ビル8階","施設開設日":"2022/4/1","施設電話番号":"03-6450-5865","診療科目名称":"美容外科、美容皮膚科"},{"name":"三好クリニック","province":"東京都","city":"港区","address":"東京都港区北青山三丁目10番9号","lat":35.664027,"lon":139.711113,"施設方書":"川島ビル2階","施設開設日":"2011/9/26","施設電話番号":"03-5468-6363","診療科目名称":"内科、循環器内科"},{"name":"表参道ARTクリニック","province":"東京都","city":"港区","address":"東京都港区北青山三丁目11番7号","lat":35.663812,"lon":139.710655,"施設方書":"AOビル11階","施設開設日":"2021/4/1","施設電話番号":"03-6433-5461","診療科目名称":"産婦人科(不妊治療)、生殖医療外科、婦人科"},{"name":"湘南美容クリニック表参道院","province":"東京都","city":"港区","address":"東京都港区北青山三丁目11番7号","lat":35.663812,"lon":139.710655,"施設方書":"AOビル7階","施設開設日":"2021/6/8","施設電話番号":"050-5865-5210","診療科目名称":"美容外科、美容皮膚科"},{"name":"品川スキンクリニック 表参道院","province":"東京都","city":"港区","address":"東京都港区北青山三丁目11番7号","lat":35.663812,"lon":139.710655,"施設方書":"AOビル10階","施設開設日":"2013/8/23","施設電話番号":"03-6450-5912","診療科目名称":"美容皮膚科、美容外科"},{"name":"パルフェクリニック・医科歯科","province":"東京都","city":"港区","address":"東京都港区北青山三丁目11番7号","lat":35.663812,"lon":139.710655,"施設方書":"AOビル3階","施設開設日":"2023/7/17","施設電話番号":"03-6452-6035","診療科目名称":"内科、歯科、小児歯科、歯科口腔外科、矯正歯科"},{"name":"武村医院","province":"東京都","city":"港区","address":"東京都港区北青山三丁目12番2号","lat":35.663689,"lon":139.710025,"施設方書":"1階","施設開設日":"2023/7/1","施設電話番号":"03-3407-7826","診療科目名称":"内科、呼吸器内科、皮膚科"},{"name":"医療法人社団星美会 青山ヒフ科クリニック","province":"東京都","city":"港区","address":"東京都港区北青山三丁目12番9号","lat":35.663232,"lon":139.710225,"施設方書":"青山花茂ビル3階","施設開設日":"2008/2/1","施設電話番号":"03-3499-1214","診療科目名称":"皮膚科"},{"name":"表参道ウィズ・クリニック","province":"東京都","city":"港区","address":"東京都港区北青山三丁目12番9号","lat":35.663232,"lon":139.710225,"施設方書":"青山花茂ビル8階","施設開設日":"2022/2/1","施設電話番号":"03-5962-7018","診療科目名称":"美容皮膚科、アレルギー科、内科、整形外科"},{"name":"青山すみれクリニック","province":"東京都","city":"港区","address":"東京都港区北青山三丁目14番4号","lat":35.664106,"lon":139.71,"施設方書":"202","施設開設日":"2010/4/28","施設電話番号":"03-5778-6321","診療科目名称":"心療内科、内科、精神科"},{"name":"ロシュ・ダイアグノスティックス企業内診療所","province":"東京都","city":"港区","address":"東京都港区港南一丁目2番70号","lat":35.632491,"lon":139.743066,"施設方書":"品川シーズンテラス16階","施設開設日":"2021/8/19","施設電話番号":"03-6634-1111","診療科目名称":"内科"},{"name":"品川シーズンテラス港南口クリニック","province":"東京都","city":"港区","address":"東京都港区港南一丁目2番70号","lat":35.632491,"lon":139.743066,"施設方書":"品川シーズンテラスアネックス3階","施設開設日":"2015/9/3","施設電話番号":"03-6433-2530","診療科目名称":"内科"},{"name":"品川シーズンテラス健診クリニック","province":"東京都","city":"港区","address":"東京都港区港南一丁目2番70号","lat":35.632491,"lon":139.743066,"施設方書":"品川シーズンテラス5階","施設開設日":"2015/4/1","施設電話番号":"03-6712-1445","診療科目名称":"内科、婦人科"},{"name":"大同品川ビル診療所","province":"東京都","city":"港区","address":"東京都港区港南一丁目6番35号","lat":35.630755,"lon":139.745549,"施設方書":"6階","施設開設日":"2004/1/15","施設電話番号":"03-5495-1847","診療科目名称":"内科"},{"name":"ソニーピープルソリューションズ株式会社 本社診療所","province":"東京都","city":"港区","address":"東京都港区港南一丁目7番1号","lat":35.631111,"lon":139.743857,"施設方書":"ソニーシティ12階","施設開設日":"2016/10/1","施設電話番号":"050-3750-6930","診療科目名称":"内科"},{"name":"医療法人OJ会 ILC国際腰痛クリニック東京","province":"東京都","city":"港区","address":"東京都港区港南一丁目8番15号","lat":35.630334,"lon":139.74411,"施設方書":"Wビル1階","施設開設日":"2022/8/8","施設電話番号":"03-6712-3111","診療科目名称":"整形外科"},{"name":"コクヨ品川健康管理室","province":"東京都","city":"港区","address":"東京都港区港南一丁目8番35号","lat":35.629666,"lon":139.743143,"施設方書":"コクヨ品川オフィス9階","施設開設日":"2020/9/24","施設電話番号":"03-3474-6039","診療科目名称":"内科"},{"name":"NTTコムウェア株式会社 品川健康管理センタ","province":"東京都","city":"港区","address":"東京都港区港南一丁目9番1号","lat":35.63142,"lon":139.742855,"施設方書":"NTT品川TWINSアネックスビル1階","施設開設日":"2022/2/1","施設電話番号":"03-5463-6180","診療科目名称":"内科"},{"name":"JR東海 健康管理センター 東京健康管理室","province":"東京都","city":"港区","address":"東京都港区港南二丁目1番95号","lat":35.628893,"lon":139.74002,"施設方書":"JR東海品川ビルB棟 6階","施設開設日":"2023/10/10","施設電話番号":"03-6777-0231","診療科目名称":"内科"},{"name":"医療法人社団 躍心会 品川港南皮フ科","province":"東京都","city":"港区","address":"東京都港区港南二丁目2番2号","lat":35.629354,"lon":139.742184,"施設方書":"富士ビル2階","施設開設日":"2022/5/1","施設電話番号":"03-6260-0066","診療科目名称":"皮膚科、美容皮膚科、小児皮膚科、アレルギー科、形成外科"},{"name":"医療法人社団安緑会 新宿西口クリニック品川院","province":"東京都","city":"港区","address":"東京都港区港南二丁目2番16号","lat":35.6292224,"lon":139.7398423,"施設方書":"谷田企画第一ビル7階","施設開設日":"2023/11/6","施設電話番号":"03-6260-1541","診療科目名称":"泌尿器科、皮膚科、性感染症内科"},{"name":"品川心療内科ゆうメンタルクリニック品川院","province":"東京都","city":"港区","address":"東京都港区港南二丁目3番1号","lat":35.629253,"lon":139.742969,"施設方書":"大信秋山ビル5階","施設開設日":"2019/10/25","施設電話番号":"03-5460-8877","診療科目名称":"心療内科、精神科、神経精神科"},{"name":"豊田通商健康管理室","province":"東京都","city":"港区","address":"東京都港区港南二丁目3番13号","lat":35.62903,"lon":139.744217,"施設方書":"","施設開設日":"2010/12/6","施設電話番号":"03-4306-5000","診療科目名称":"内科"},{"name":"浅田レディース品川クリニック","province":"東京都","city":"港区","address":"東京都港区港南二丁目3番13号","lat":35.629068,"lon":139.744207,"施設方書":"品川フロントビル3階","施設開設日":"2018/5/1","施設電話番号":"03-3472-2203","診療科目名称":"婦人科(生殖医療・不妊治療)、泌尿器科"},{"name":"湘南美容クリニック品川院","province":"東京都","city":"港区","address":"東京都港区港南二丁目4番3号","lat":35.628609,"lon":139.744406,"施設方書":"三和港南ビル3階","施設開設日":"2012/10/11","施設電話番号":"050-5865-5320","診療科目名称":"美容外科、美容皮膚科"},{"name":"医療法人社団済仁会品川港南クリニック","province":"東京都","city":"港区","address":"東京都港区港南二丁目4番7号","lat":35.62866,"lon":139.744666,"施設方書":"石橋ビル3階","施設開設日":"2008/8/1","施設電話番号":"03-3472-0085","診療科目名称":"内科、外科、消化器内科、泌尿器科、呼吸器内科、胃腸内科、胃腸外科、アレルギー科、リウマチ科、小児科、神経内科、整形外科、肛門内科、肛門外科、皮膚科、放射線科、心療内科、小児外科、性感染症内科、性感染症外科、循環器内科"},{"name":"AGAスキンクリニック品川院","province":"東京都","city":"港区","address":"東京都港区港南二丁目4番18号","lat":35.628601,"lon":139.743847,"施設方書":"第2秋山ビル5階","施設開設日":"2021/5/15","施設電話番号":"050-5527-0273","診療科目名称":"頭部皮膚科"},{"name":"プルージュ美容クリニック","province":"東京都","city":"港区","address":"東京都港区港南二丁目4番18号","lat":35.628601,"lon":139.743847,"施設方書":"第2秋山ビル4階","施設開設日":"2021/5/10","施設電話番号":"050-1780-1178","診療科目名称":"美容外科、美容皮膚科"},{"name":"品川スキンクリニック 品川本院","province":"東京都","city":"港区","address":"東京都港区港南二丁目5番3号","lat":35.628671,"lon":139.743129,"施設方書":"オリックス品川ビル6階","施設開設日":"2012/9/15","施設電話番号":"03-6712-0331","診療科目名称":"美容皮膚科、美容外科、美容内科、内科、ペインクリニック整形外科"},{"name":"みなと健診クリニック","province":"東京都","city":"港区","address":"東京都港区港南二丁目5番3号","lat":35.628671,"lon":139.743129,"施設方書":"オリックス品川ビル2階","施設開設日":"2013/10/1","施設電話番号":"03-5781-5020","診療科目名称":"内科、消化器内科、胃腸内科、循環器内科、アレルギー科、呼吸器内科、乳腺外科、漢方内科"},{"name":"品川美容外科 品川本院","province":"東京都","city":"港区","address":"東京都港区港南二丁目5番3号","lat":35.628671,"lon":139.743129,"施設方書":"オリックス品川ビル9階","施設開設日":"2014/7/7","施設電話番号":"03-3474-4836","診療科目名称":"美容外科、美容皮膚科、歯科、麻酔科、ペインクリニック整形外科"},{"name":"肩こり・腰の痛みクリニック 品川院","province":"東京都","city":"港区","address":"東京都港区港南二丁目6番3号","lat":35.628695,"lon":139.74265,"施設方書":"シントミビル2階","施設開設日":"2010/6/1","施設電話番号":"03-6433-3296","診療科目名称":"ペインクリニック整形外科、美容皮膚科、小児科"},{"name":"品川メンタルクリニック 品川本院","province":"東京都","city":"港区","address":"東京都港区港南二丁目6番3号","lat":35.628695,"lon":139.74265,"施設方書":"シントミビル3階5階6階","施設開設日":"2020/9/18","施設電話番号":"03-6279-0230","診療科目名称":"精神科、心療内科"},{"name":"品川駅前メンタルクリニック","province":"東京都","city":"港区","address":"東京都港区港南二丁目6番7号","lat":35.628461,"lon":139.74247,"施設方書":"大善ビル3,4階","施設開設日":"2020/7/1","施設電話番号":"03-5796-0556","診療科目名称":"精神科、内科、神経内科"},{"name":"医療法人社団慶響会 東京ボイスクリニック品川耳鼻いんこう科","province":"東京都","city":"港区","address":"東京都港区港南二丁目6番7号","lat":35.628461,"lon":139.74247,"施設方書":"大善ビル7階","施設開設日":"2012/9/1","施設電話番号":"03-6712-9772","診療科目名称":"耳鼻いんこう科"},{"name":"さくら内視鏡クリニック品川","province":"東京都","city":"港区","address":"東京都港区港南二丁目6番7号","lat":35.628461,"lon":139.74247,"施設方書":"大善ビル6階","施設開設日":"2018/5/1","施設電話番号":"03-6433-2163","診療科目名称":"内科、消化器内科、内視鏡内科、胃腸内科、肛門外科"},{"name":"たかとく内科びようクリニック","province":"東京都","city":"港区","address":"東京都港区港南二丁目6番10号","lat":35.628782,"lon":139.74233,"施設方書":"三矢ビル4階","施設開設日":"2021/9/7","施設電話番号":"03-6712-3364","診療科目名称":"内科"},{"name":"品川腎クリニック","province":"東京都","city":"港区","address":"東京都港区港南二丁目6番10号","lat":35.628782,"lon":139.74233,"施設方書":"三矢ビル5階","施設開設日":"2016/11/1","施設電話番号":"03-3458-9801","診療科目名称":"内科"},{"name":"医療法人社団久信会 品川駅前皮膚科","province":"東京都","city":"港区","address":"東京都港区港南二丁目14番10号","lat":35.628545,"lon":139.742095,"施設方書":"品川駅前港南ビル7階","施設開設日":"2012/3/1","施設電話番号":"03-5715-1150","診療科目名称":"皮膚科"},{"name":"品川心療内科","province":"東京都","city":"港区","address":"東京都港区港南二丁目14番10号","lat":35.628545,"lon":139.742095,"施設方書":"品川駅前港南ビル10階","施設開設日":"2011/10/1","施設電話番号":"03-6712-9474","診療科目名称":"精神科、心療内科、神経内科、内科"},{"name":"株式会社大林組 健康管理センター","province":"東京都","city":"港区","address":"東京都港区港南二丁目15番2号","lat":35.626123,"lon":139.742018,"施設方書":"品川インターシティB棟24階","施設開設日":"1999/1/5","施設電話番号":"03-5769-1996","診療科目名称":"内科、歯科"},{"name":"医療法人社団佳有会 品川イーストクリニック","province":"東京都","city":"港区","address":"東京都港区港南二丁目15番2号","lat":35.626123,"lon":139.742018,"施設方書":"品川インターシティB棟2階","施設開設日":"2012/4/1","施設電話番号":"03-5783-5521","診療科目名称":"内科、眼科、感染症内科、循環器内科、呼吸器内科"},{"name":"にしたんARTクリニック品川院","province":"東京都","city":"港区","address":"東京都港区港南二丁目15番2号","lat":35.626576,"lon":139.741363,"施設方書":"品川インターシティS&R棟5階501区画","施設開設日":"2022/10/16","施設電話番号":"03-6712-3355","診療科目名称":"生殖医療婦人科"},{"name":"蝶理株式会社東京診療所","province":"東京都","city":"港区","address":"東京都港区港南二丁目15番3号","lat":35.625224,"lon":139.742189,"施設方書":"品川インターシティC棟16階","施設開設日":"2014/7/22","施設電話番号":"03-5781-6222","診療科目名称":"内科"},{"name":"ニコン本社健康支援室","province":"東京都","city":"港区","address":"東京都港区港南二丁目15番3号","lat":35.625224,"lon":139.742189,"施設方書":"品川インターシティC棟29階","施設開設日":"2014/11/25","施設電話番号":"03-6433-3736","診療科目名称":"内科、精神科、循環器内科"},{"name":"医療法人社団豊穣会 品川ベイ・サイド眼科","province":"東京都","city":"港区","address":"東京都港区港南二丁目16番1号","lat":35.62777,"lon":139.7409,"施設方書":"品川イーストワンタワー3階","施設開設日":"2020/5/1","施設電話番号":"03-6716-1881","診療科目名称":"眼科"},{"name":"医療法人邦寿会東京皮膚科・形成外科 品川院","province":"東京都","city":"港区","address":"東京都港区港南二丁目16番1号","lat":35.62777,"lon":139.7409,"施設方書":"品川イーストワンタワークリニックモール307-D","施設開設日":"2015/3/23","施設電話番号":"03-5479-3388","診療科目名称":"皮膚科、形成外科、美容外科"},{"name":"医療法人社団AOT 品川ストリングスクリニック","province":"東京都","city":"港区","address":"東京都港区港南二丁目16番1号","lat":35.62777,"lon":139.7409,"施設方書":"品川イーストワンタワー307A","施設開設日":"2022/5/1","施設電話番号":"03-3471-3014","診療科目名称":"内科、脳神経外科、リウマチ科、婦人科、循環器内科、脳神経内科、内分泌内科、糖尿病内科、呼吸器内科"},{"name":"医療法人社団同友会 品川クリニック","province":"東京都","city":"港区","address":"東京都港区港南二丁目16番3号","lat":35.626615,"lon":139.740774,"施設方書":"品川グランドセントラルタワー1階","施設開設日":"2007/4/1","施設電話番号":"03-6718-2816","診療科目名称":"内科"},{"name":"にしや耳鼻咽喉科クリニック","province":"東京都","city":"港区","address":"東京都港区港南二丁目16番7号","lat":35.625055,"lon":139.740528,"施設方書":"品川Vタワーメディカルゾーン2階","施設開設日":"2007/12/1","施設電話番号":"03-5715-0248","診療科目名称":"耳鼻いんこう科、気管食道科、アレルギー科"},{"name":"皮膚科クリニックいとう","province":"東京都","city":"港区","address":"東京都港区港南二丁目16番7号","lat":35.624961,"lon":139.740378,"施設方書":"101-1","施設開設日":"2003/5/26","施設電話番号":"03-3474-5263","診療科目名称":"皮膚科"},{"name":"品川Vタワー整形外科","province":"東京都","city":"港区","address":"東京都港区港南二丁目16番7号","lat":35.625103,"lon":139.740494,"施設方書":"品川Vタワー101B号室","施設開設日":"2019/1/1","施設電話番号":"03-5715-3383","診療科目名称":"整形外科、リハビリテーション科"},{"name":"港区立特別養護老人ホーム 「港南の郷」","province":"東京都","city":"港区","address":"東京都港区港南三丁目3番23号","lat":35.633217,"lon":139.749277,"施設方書":"","施設開設日":"1996/7/29","施設電話番号":"03-3450-5571","診療科目名称":"内科"},{"name":"医療法人社団 千秋双葉会 品川港南耳鼻咽喉科・アレルギー科","province":"東京都","city":"港区","address":"東京都港区港南四丁目2番5号","lat":35.631158,"lon":139.748079,"施設方書":"シティタワー品川西棟2階","施設開設日":"2024/3/3","施設電話番号":"03-5715-3387","診療科目名称":"耳鼻いんこう科、アレルギー科"},{"name":"若田クリニック シティタワー品川","province":"東京都","city":"港区","address":"東京都港区港南四丁目2番6号","lat":35.630966,"lon":139.748045,"施設方書":"201","施設開設日":"2007/11/1","施設電話番号":"03-3471-2972","診療科目名称":"内科、小児科、皮膚科、神経内科、整形外科"},{"name":"東京海洋大学保健管理センター品川地区","province":"東京都","city":"港区","address":"東京都港区港南四丁目5番7号","lat":35.624655,"lon":139.747134,"施設方書":"","施設開設日":"1970/4/17","施設電話番号":"03-5463-0388","診療科目名称":"内科"},{"name":"ワールドシティ益子クリニック","province":"東京都","city":"港区","address":"東京都港区港南四丁目6番7号","lat":35.627474,"lon":139.75059,"施設方書":"ワールドシティタワーズキャピタルタワー3階","施設開設日":"2019/3/1","施設電話番号":"03-5783-0331","診療科目名称":"内科、小児科"},{"name":"東京出入国在留管理局診療所","province":"東京都","city":"港区","address":"東京都港区港南五丁目5番30号","lat":35.628245,"lon":139.756544,"施設方書":"東京出入国在留管理局7階","施設開設日":"2005/3/1","施設電話番号":"03-5796-7217","診療科目名称":"内科、精神科、皮膚科"},{"name":"港区立障害保健福祉センター 専門医相談室","province":"東京都","city":"港区","address":"東京都港区芝一丁目8番23号","lat":35.651544,"lon":139.755597,"施設方書":"","施設開設日":"1998/5/15","施設電話番号":"03-5439-2511","診療科目名称":"内科、精神科、神経科、整形外科、眼科、耳鼻いんこう科"},{"name":"ぼだい樹クリニック","province":"東京都","city":"港区","address":"東京都港区芝一丁目15番13号","lat":35.649631,"lon":139.753569,"施設方書":"オフィスニューガイア浜松町No.17 6階","施設開設日":"2018/7/1","施設電話番号":"03-6809-6346","診療科目名称":"内科(ペインクリニック)、循環器内科"},{"name":"医療法人社団 神徳会 芝公園かみやまクリニック","province":"東京都","city":"港区","address":"東京都港区芝二丁目9番10号","lat":35.651943,"lon":139.751592,"施設方書":"ダイユウビル1階","施設開設日":"2008/10/1","施設電話番号":"03-6414-5641","診療科目名称":"産婦人科、内科、泌尿器科"},{"name":"みなと芝クリニック","province":"東京都","city":"港区","address":"東京都港区芝二丁目12番1号","lat":35.651644,"lon":139.752497,"施設方書":"桑山ビル2階","施設開設日":"2022/9/29","施設電話番号":"03-3457-0555","診療科目名称":"内科、外科、消化器内科、大腸・肛門外科、整形外科、皮膚科、乳腺外科"},{"name":"株式会社大広 芝2丁目診療所","province":"東京都","city":"港区","address":"東京都港区芝二丁目14番5号","lat":35.650801,"lon":139.753309,"施設方書":"オリックス芝2丁目ビル1階","施設開設日":"2019/9/30","施設電話番号":"03-4346-7350","診療科目名称":"内科"},{"name":"サンアンクリニック","province":"東京都","city":"港区","address":"東京都港区芝二丁目26番1号","lat":35.651028,"lon":139.751812,"施設方書":"iSmartビル401","施設開設日":"2020/8/2","施設電話番号":"","診療科目名称":"内科"},{"name":"長谷工クリニック","province":"東京都","city":"港区","address":"東京都港区芝二丁目32番1号","lat":35.650372,"lon":139.749771,"施設方書":"芝本社ビル12階","施設開設日":"1991/3/6","施設電話番号":"03-3456-4830","診療科目名称":"内科"},{"name":"みなと風クリニック","province":"東京都","city":"港区","address":"東京都港区芝三丁目6番5号","lat":35.652135,"lon":139.749007,"施設方書":"昇岐商事邸2階","施設開設日":"2022/2/22","施設電話番号":"03-5730-1207","診療科目名称":"内科、皮膚科、リハビリテーション科"},{"name":"赤塚医院","province":"東京都","city":"港区","address":"東京都港区芝三丁目6番9号","lat":35.652019,"lon":139.749277,"施設方書":"芝公園プラザビル2階","施設開設日":"1998/5/21","施設電話番号":"03-3451-3323","診療科目名称":"内科、消化器科"},{"name":"東ソー株式会社 本社診療所","province":"東京都","city":"港区","address":"東京都港区芝三丁目8番2号","lat":35.652359,"lon":139.74744,"施設方書":"芝公園ファーストビル8階","施設開設日":"2000/8/16","施設電話番号":"03-5427-5188","診療科目名称":"内科"},{"name":"芝公園クリニック","province":"東京都","city":"港区","address":"東京都港区芝三丁目15番5号","lat":35.653607,"lon":139.745364,"施設方書":"ジョイビレッジ芝公園3階","施設開設日":"2020/5/1","施設電話番号":"03-3455-5525","診療科目名称":"内科、外科、精神科、心療内科"},{"name":"医療法人社団有朋会 こどもメンタルクリニック芝","province":"東京都","city":"港区","address":"東京都港区芝三丁目15番13号","lat":35.653274,"lon":139.745384,"施設方書":"YODAビル3階","施設開設日":"2013/4/1","施設電話番号":"03-5765-6980","診療科目名称":"精神科、児童精神科"},{"name":"三井住友信託銀行株式会社 芝健康推進センター","province":"東京都","city":"港区","address":"東京都港区芝三丁目33番1号","lat":35.650325,"lon":139.748693,"施設方書":"18階","施設開設日":"2020/8/20","施設電話番号":"03-5232-8670","診療科目名称":"内科"},{"name":"三田皮膚科","province":"東京都","city":"港区","address":"東京都港区芝四丁目5番8号","lat":35.648842,"lon":139.751266,"施設方書":"池藤ビル9階","施設開設日":"2020/1/24","施設電話番号":"03-5439-9745","診療科目名称":"皮膚科"},{"name":"まつみレディースクリニック三田","province":"東京都","city":"港区","address":"東京都港区芝四丁目5番8号","lat":35.648842,"lon":139.751266,"施設方書":"池藤ビル3階","施設開設日":"2018/10/29","施設電話番号":"03-6453-8355","診療科目名称":"産科、婦人科、産婦人科"},{"name":"東京シティクリニック三田","province":"東京都","city":"港区","address":"東京都港区芝四丁目5番8号","lat":35.648842,"lon":139.751266,"施設方書":"池藤ビル2階","施設開設日":"2023/4/1","施設電話番号":"03-5439-5566","診療科目名称":"小児科、アレルギー科"},{"name":"しば胃腸こうもんクリニック","province":"東京都","city":"港区","address":"東京都港区芝四丁目11番5号","lat":35.648294,"lon":139.751282,"施設方書":"KTビル3階","施設開設日":"2013/5/28","施設電話番号":"03-6453-9307","診療科目名称":"外科、消化器内科、肛門外科"},{"name":"医療法人社団永康会 田町腎クリニック","province":"東京都","city":"港区","address":"東京都港区芝四丁目12番1号","lat":35.647942,"lon":139.750086,"施設方書":"グランシャリオ1~4階","施設開設日":"2016/11/1","施設電話番号":"03-3455-3033","診療科目名称":"人工透析内科"},{"name":"三田整形外科","province":"東京都","city":"港区","address":"東京都港区芝五丁目1番13号","lat":35.650026,"lon":139.745063,"施設方書":"MAビル三田2 1階","施設開設日":"2021/9/22","施設電話番号":"03-6722-6077","診療科目名称":"整形外科、リハビリテーション科"},{"name":"三田医院","province":"東京都","city":"港区","address":"東京都港区芝五丁目3番10号","lat":35.649886,"lon":139.745935,"施設方書":"","施設開設日":"2013/11/30","施設電話番号":"03-3451-7652","診療科目名称":"内科、消化器内科"},{"name":"日本電気株式会社 ウェルネスプロモーションセンター(本社)","province":"東京都","city":"港区","address":"東京都港区芝五丁目7番1号","lat":35.649428,"lon":139.74794,"施設方書":"","施設開設日":"1990/4/2","施設電話番号":"03-3798-6564","診療科目名称":"内科、精神科"},{"name":"医療法人社団健人会 横倉クリニック","province":"東京都","city":"港区","address":"東京都港区芝五丁目13番13号","lat":35.649024,"lon":139.744985,"施設方書":"サダカタビル3階","施設開設日":"1999/11/1","施設電話番号":"03-3456-2705","診療科目名称":"心療内科、内科、婦人科"},{"name":"医療法人社団佐伯耳鼻咽喉科","province":"東京都","city":"港区","address":"東京都港区芝五丁目13番14号","lat":35.649132,"lon":139.744985,"施設方書":"MAビル芝3 5F","施設開設日":"2023/5/1","施設電話番号":"03-3456-1187","診療科目名称":"耳鼻いんこう科、小児科、アレルギー科"},{"name":"医療法人社団珠玉会 芝皮フ科クリニック","province":"東京都","city":"港区","address":"東京都港区芝五丁目16番1号","lat":35.648719,"lon":139.745744,"施設方書":"千代ビル2階","施設開設日":"1999/4/15","施設電話番号":"03-5232-6733","診療科目名称":"皮膚科、形成外科"},{"name":"医療法人社団健勝会 港三田クリニック","province":"東京都","city":"港区","address":"東京都港区芝五丁目16番1号","lat":35.648719,"lon":139.745744,"施設方書":"千代ビル3階","施設開設日":"2001/4/1","施設電話番号":"03-3456-3391","診療科目名称":"内科、婦人科、小児科、循環器内科、消化器内科、心療内科、リハビリテーション科、胃腸内科、内視鏡内科"},{"name":"菅沼三田診療所","province":"東京都","city":"港区","address":"東京都港区芝五丁目19番5号","lat":35.647612,"lon":139.747905,"施設方書":"ジェイパークステーション田町101","施設開設日":"2010/9/1","施設電話番号":"03-3452-1748","診療科目名称":"内科、外科、皮膚科、泌尿器科、整形外科"},{"name":"医療法人社団寿勝会 篠原医院","province":"東京都","city":"港区","address":"東京都港区芝五丁目20番20号","lat":35.647784,"lon":139.746901,"施設方書":"","施設開設日":"2019/4/1","施設電話番号":"03-3451-0528","診療科目名称":"内科、皮膚科、外科、胃腸内科"},{"name":"おくむら整形外科内科クリニック","province":"東京都","city":"港区","address":"東京都港区芝五丁目26番30号","lat":35.647588,"lon":139.745205,"施設方書":"専売ビル1階","施設開設日":"2007/11/1","施設電話番号":"03-5439-5960","診療科目名称":"整形外科、内科、リハビリテーション科、リウマチ科、皮膚科"},{"name":"医療法人社団重宣会 鈴木胃腸消化器クリニック","province":"東京都","city":"港区","address":"東京都港区芝五丁目27番1号","lat":35.647116,"lon":139.745702,"施設方書":"地下1階、1階、2階","施設開設日":"2012/9/1","施設電話番号":"03-3455-6121","診療科目名称":"内科、消化器内科(胃腸内科)、循環器内科、外科、肛門外科、婦人科"},{"name":"レナトゥスクリニック","province":"東京都","city":"港区","address":"東京都港区芝五丁目27番13号","lat":35.646934,"lon":139.746302,"施設方書":"YA三田ビル2階、4階","施設開設日":"2019/4/1","施設電話番号":"03-6275-1879","診療科目名称":"美容外科、皮膚科、婦人科、美容皮膚科"},{"name":"フィデスレディースクリニック田町","province":"東京都","city":"港区","address":"東京都港区芝五丁目27番13号","lat":35.646934,"lon":139.746302,"施設方書":"Y・A三田ビル3階","施設開設日":"2020/10/1","施設電話番号":"03-6722-6281","診療科目名称":"産婦人科"},{"name":"田町眼科クリニック","province":"東京都","city":"港区","address":"東京都港区芝五丁目27番14号","lat":35.646941,"lon":139.746143,"施設方書":"小川ビル2階","施設開設日":"2023/5/1","施設電話番号":"03-5232-1366","診療科目名称":"眼科"},{"name":"田町三田駅前内科・呼吸器内科・アレルギー科","province":"東京都","city":"港区","address":"東京都港区芝五丁目31番5号","lat":35.646742,"lon":139.746183,"施設方書":"MEFULL田町2F","施設開設日":"2023/5/1","施設電話番号":"03-5442-4159","診療科目名称":"内科、呼吸器内科、アレルギー科"},{"name":"田町駅前こころの診療所","province":"東京都","city":"港区","address":"東京都港区芝五丁目31番5号","lat":35.646742,"lon":139.746183,"施設方書":"MEFULL田町7階","施設開設日":"2024/2/29","施設電話番号":"03-5443-0556","診療科目名称":"精神科、心療内科"},{"name":"ゆりクリニック","province":"東京都","city":"港区","address":"東京都港区芝五丁目31番15号","lat":35.646682,"lon":139.746302,"施設方書":"センチュリー三田ビル6階、4階","施設開設日":"2022/12/1","施設電話番号":"03-3455-1107","診療科目名称":"整形外科、リハビリテーション科、美容皮膚科、内科"},{"name":"きつかわクリニック","province":"東京都","city":"港区","address":"東京都港区芝五丁目31番16号","lat":35.646614,"lon":139.746223,"施設方書":"YCCビル4階~5階","施設開設日":"2013/7/1","施設電話番号":"03-3451-1731","診療科目名称":"泌尿器科、内科"},{"name":"メンズプライドクリニックMITA TOKYO","province":"東京都","city":"港区","address":"東京都港区芝五丁目32番3号","lat":35.647283,"lon":139.74757,"施設方書":"林ビル7階","施設開設日":"2022/4/25","施設電話番号":"03-6381-7258","診療科目名称":"内科"},{"name":"三田眼科","province":"東京都","city":"港区","address":"東京都港区芝五丁目32番9号","lat":35.647365,"lon":139.747801,"施設方書":"","施設開設日":"2006/3/28","施設電話番号":"03-3798-5969","診療科目名称":"眼科"},{"name":"MYメディカルクリニック田町三田","province":"東京都","city":"港区","address":"東京都港区芝五丁目33番11号","lat":35.64683,"lon":139.748731,"施設方書":"田町タワー4階","施設開設日":"2023/11/8","施設電話番号":"03-6665-8236","診療科目名称":"内科、消化器内科、内視鏡内科、乳腺外科、外科、婦人科、循環器内科、呼吸器内科、アレルギー科"},{"name":"田町メンタルクリニック","province":"東京都","city":"港区","address":"東京都港区芝五丁目34番6号","lat":35.645971,"lon":139.746722,"施設方書":"新田町ビル2階","施設開設日":"2011/12/16","施設電話番号":"03-6809-4132","診療科目名称":"心療内科、精神科"},{"name":"新田町ビル診療所","province":"東京都","city":"港区","address":"東京都港区芝五丁目34番6号","lat":35.645971,"lon":139.746722,"施設方書":"新田町ビル2階","施設開設日":"2016/6/1","施設電話番号":"03-3451-2619","診療科目名称":"内科、呼吸器内科、消化器内科、循環器内科、皮膚科、放射線科"},{"name":"労働衛生調査分析センター 健康管理室","province":"東京都","city":"港区","address":"東京都港区芝五丁目35番2号","lat":35.645273,"lon":139.745963,"施設方書":"安全衛生総合会館8階","施設開設日":"2015/9/1","施設電話番号":"03-3452-3062","診療科目名称":"内科"},{"name":"中溝クリニック","province":"東京都","city":"港区","address":"東京都港区芝浦一丁目1番1号","lat":35.652259,"lon":139.757302,"施設方書":"東芝ビル4階","施設開設日":"1995/5/1","施設電話番号":"03-3452-4468","診療科目名称":"内科、眼科、消化器科"},{"name":"東芝本社診療所","province":"東京都","city":"港区","address":"東京都港区芝浦一丁目1番1号","lat":35.651638,"lon":139.757975,"施設方書":"34階","施設開設日":"2013/12/9","施設電話番号":"03-3457-2210","診療科目名称":"内科"},{"name":"UBE株式会社東京本部医務室","province":"東京都","city":"港区","address":"東京都港区芝浦一丁目2番1号","lat":35.649921,"lon":139.756897,"施設方書":"シーバンスN館","施設開設日":"2000/10/10","施設電話番号":"03-5419-6124","診療科目名称":"内科"},{"name":"シャープ健康保険組合 東京健康管理室","province":"東京都","city":"港区","address":"東京都港区芝浦一丁目2番3号","lat":35.649311,"lon":139.756071,"施設方書":"シーバンスS館20階","施設開設日":"2016/10/25","施設電話番号":"03-5446-8221","診療科目名称":"内科"},{"name":"芝浦スリーワンクリニック","province":"東京都","city":"港区","address":"東京都港区芝浦一丁目3番10号","lat":35.649863,"lon":139.755531,"施設方書":"チサンホテル浜松町1階","施設開設日":"2020/12/17","施設電話番号":"03-6779-8181","診療科目名称":"内科、外科、循環器内科、消化器内科(胃腸内科)、呼吸器内科"},{"name":"森永健康管理室","province":"東京都","city":"港区","address":"東京都港区芝浦一丁目13番16号","lat":35.646541,"lon":139.752762,"施設方書":"森永芝浦ビル7階","施設開設日":"2024/3/18","施設電話番号":"03-3452-5030","診療科目名称":"内科"},{"name":"あすか製薬株式会社 本社 診療室","province":"東京都","city":"港区","address":"東京都港区芝浦二丁目5番1号","lat":35.64532,"lon":139.753947,"施設方書":"6階","施設開設日":"2020/4/1","施設電話番号":"03-5484-8321","診療科目名称":"内科、精神科"},{"name":"三菱自動車工業株式会社 本社診療所","province":"東京都","city":"港区","address":"東京都港区芝浦三丁目1番21号","lat":35.645424,"lon":139.749466,"施設方書":"msb Tamachi 田町ステーションタワーS25階","施設開設日":"2019/1/7","施設電話番号":"03-6852-5058","診療科目名称":"内科、精神科"},{"name":"クリニックフォア田町","province":"東京都","city":"港区","address":"東京都港区芝浦三丁目1番32号","lat":35.644924,"lon":139.748367,"施設方書":"なぎさテラス2階及び4階","施設開設日":"2019/12/1","施設電話番号":"03-4579-8189","診療科目名称":"内科、皮膚科、アレルギー科、美容皮膚科、糖尿病内科"},{"name":"たまち恒清会眼科","province":"東京都","city":"港区","address":"東京都港区芝浦三丁目1番32号","lat":35.644924,"lon":139.748367,"施設方書":"なぎさテラス3階302区画-2","施設開設日":"2018/10/1","施設電話番号":"03-6271-9033","診療科目名称":"アレルギー科、眼科、美容皮膚科"},{"name":"医療法人社団モルゲンロート 有明みんなクリニック田町芝浦院","province":"東京都","city":"港区","address":"東京都港区芝浦三丁目2番28号","lat":35.644774,"lon":139.750661,"施設方書":"HTアジール芝浦1、2階","施設開設日":"2019/7/9","施設電話番号":"03-6722-6300","診療科目名称":"小児科、耳鼻いんこう科、内科、アレルギー科、皮膚科"},{"name":"グランパーク田町クリニック","province":"東京都","city":"港区","address":"東京都港区芝浦三丁目4番1号","lat":35.643577,"lon":139.745802,"施設方書":"地下1階 1-B","施設開設日":"2022/11/1","施設電話番号":"03-3455-2525","診療科目名称":"精神科、心療内科、内科"},{"name":"医療法人社団 如水会 芝浦皮膚科","province":"東京都","city":"港区","address":"東京都港区芝浦三丁目6番1号","lat":35.643578,"lon":139.748967,"施設方書":"ふじやビル3階","施設開設日":"2010/4/20","施設電話番号":"03-5443-6677","診療科目名称":"皮膚科"},{"name":"梶田眼科","province":"東京都","city":"港区","address":"東京都港区芝浦三丁目6番3号","lat":35.643533,"lon":139.748877,"施設方書":"協栄ビル4階","施設開設日":"2003/4/22","施設電話番号":"03-5730-1313","診療科目名称":"眼科"},{"name":"とようら小児科","province":"東京都","city":"港区","address":"東京都港区芝浦三丁目11番5号","lat":35.642825,"lon":139.750015,"施設方書":"第三協栄ビル2階","施設開設日":"2007/4/1","施設電話番号":"03-5442-8872","診療科目名称":"小児科"},{"name":"高櫻内科・脳神経クリニック","province":"東京都","city":"港区","address":"東京都港区芝浦三丁目11番5号","lat":35.642825,"lon":139.750015,"施設方書":"第三協栄ビル1階","施設開設日":"2019/8/30","施設電話番号":"03-6722-6322","診療科目名称":"内科、脳神経内科"},{"name":"ありいずみ内科","province":"東京都","city":"港区","address":"東京都港区芝浦三丁目11番8号","lat":35.642817,"lon":139.749816,"施設方書":"ミナトヤビル3階","施設開設日":"1998/10/20","施設電話番号":"03-5419-7881","診療科目名称":"内科、消化器科"},{"name":"田町三田こころみクリニック・心療内科・精神科","province":"東京都","city":"港区","address":"東京都港区芝浦三丁目13番1号","lat":35.643246,"lon":139.749097,"施設方書":"矢島ビル501号","施設開設日":"2022/3/7","施設電話番号":"03-6435-1553","診療科目名称":"心療内科、精神科"},{"name":"東京横浜TMSクリニックみなと東京院","province":"東京都","city":"港区","address":"東京都港区芝浦三丁目13番1号","lat":35.643246,"lon":139.749097,"施設方書":"矢島ビル502号","施設開設日":"2022/4/1","施設電話番号":"03-6381-7515","診療科目名称":"心療内科、精神科"},{"name":"医療法人社団港風会 みなと整形外科内科クリニック","province":"東京都","city":"港区","address":"東京都港区芝浦三丁目13番1号","lat":35.643246,"lon":139.749097,"施設方書":"矢島ビル3階","施設開設日":"2022/8/19","施設電話番号":"03-6435-4122","診療科目名称":"整形外科、内科、皮膚科、リハビリテーション科"},{"name":"医療法人H&L会 芝浦メディカル","province":"東京都","city":"港区","address":"東京都港区芝浦三丁目13番11号","lat":35.642784,"lon":139.748431,"施設方書":"メディカルスクウェア芝浦5階・6階","施設開設日":"2022/10/1","施設電話番号":"03-5443-3583","診療科目名称":"循環器内科、内科、呼吸器内科、アレルギー科、糖尿病内科(代謝内科)、外科、肛門外科、消化器内科(胃腸内科)"},{"name":"かめさんキッズクリニック","province":"東京都","city":"港区","address":"東京都港区芝浦三丁目13番11号","lat":35.642784,"lon":139.748431,"施設方書":"MedicalSquare芝浦2階","施設開設日":"2023/10/1","施設電話番号":"03-6435-3810","診療科目名称":"小児科"},{"name":"芝浦クリニック","province":"東京都","city":"港区","address":"東京都港区芝浦三丁目16番1号","lat":35.642165,"lon":139.749756,"施設方書":"中野興産ビル1階","施設開設日":"2023/5/1","施設電話番号":"03-5765-5264","診療科目名称":"内科、消化器内科、整形外科、小児科"},{"name":"芝浦健診クリニック","province":"東京都","city":"港区","address":"東京都港区芝浦三丁目18番17号","lat":35.641909,"lon":139.750549,"施設方書":"東京港健保会館 3階","施設開設日":"2005/11/1","施設電話番号":"03-5765-7171","診療科目名称":"内科、消化器科"},{"name":"芝浦ゲートウェイクリニック","province":"東京都","city":"港区","address":"東京都港区芝浦三丁目19番19号","lat":35.641489,"lon":139.748737,"施設方書":"オー・アイ・芝浦3階","施設開設日":"2019/3/27","施設電話番号":"03-3454-7789","診療科目名称":"内科"},{"name":"医療法人社団nao田町芝浦耳鼻咽喉科","province":"東京都","city":"港区","address":"東京都港区芝浦三丁目19番19号","lat":35.641489,"lon":139.748737,"施設方書":"オー・アイ・芝浦2階","施設開設日":"2015/5/21","施設電話番号":"03-5418-8733","診療科目名称":"アレルギー科、耳鼻咽喉科"},{"name":"TOPPANグループ健康保険組合 芝浦診療所","province":"東京都","city":"港区","address":"東京都港区芝浦三丁目19番26号","lat":35.641625,"lon":139.749813,"施設方書":"5階","施設開設日":"2015/7/1","施設電話番号":"03-5418-3687","診療科目名称":"内科"},{"name":"横河ブリッジホールディングス診療所","province":"東京都","city":"港区","address":"東京都港区芝浦四丁目4番44号","lat":35.641959,"lon":139.74526,"施設方書":"","施設開設日":"2007/2/19","施設電話番号":"03-3453-4111","診療科目名称":"内科、外科"},{"name":"トヨタモビリティ東京株式会社診療所","province":"東京都","city":"港区","address":"東京都港区芝浦四丁目8番3号","lat":35.638827,"lon":139.745863,"施設方書":"9階","施設開設日":"2017/5/19","施設電話番号":"03-5439-1610","診療科目名称":"内科"},{"name":"株式会社関電工診療所","province":"東京都","city":"港区","address":"東京都港区芝浦四丁目8番33号","lat":35.638286,"lon":139.745579,"施設方書":"","施設開設日":"1988/12/12","施設電話番号":"03-5476-3963","診療科目名称":"内科"},{"name":"医療法人社団美加未会 芝浦ホームクリニック","province":"東京都","city":"港区","address":"東京都港区芝浦四丁目9番18号","lat":35.639745,"lon":139.747121,"施設方書":"グランドパレス田町613号室","施設開設日":"2013/5/1","施設電話番号":"03-5419-7746","診療科目名称":"内科、外科、整形外科、神経内科、呼吸器内科、精神科"},{"name":"沖電気工業株式会社 芝浦診療所","province":"東京都","city":"港区","address":"東京都港区芝浦四丁目10番16号","lat":35.640616,"lon":139.747241,"施設方書":"OKI芝浦オフィス2階","施設開設日":"2021/12/22","施設電話番号":"03-5635-8313","診療科目名称":"内科、外科"},{"name":"医療法人社団しらかば会 みなとウィメンズクリニック","province":"東京都","city":"港区","address":"東京都港区芝浦四丁目12番39号","lat":35.641097,"lon":139.748658,"施設方書":"ロジックビル三階","施設開設日":"2023/10/1","施設電話番号":"03-6435-1311","診療科目名称":"産婦人科、内科、皮膚科"},{"name":"一般財団法人関東電気保安協会 健康相談室","province":"東京都","city":"港区","address":"東京都港区芝浦四丁目13番23号","lat":35.64024,"lon":139.748062,"施設方書":"MS芝浦ビル7階","施設開設日":"2019/3/29","施設電話番号":"03-6453-8888","診療科目名称":"内科、精神科"},{"name":"医療法人社団小日向会 芝浦こどもクリニック","province":"東京都","city":"港区","address":"東京都港区芝浦四丁目20番4号","lat":35.638953,"lon":139.751855,"施設方書":"芝浦アイランドブルームホームズドクターズポート芝浦アイランド1階","施設開設日":"2013/8/1","施設電話番号":"03-5730-0108","診療科目名称":"小児科、アレルギー科、内科、形成外科、皮膚科"},{"name":"医療法人社団広進会 芝浦アイランド皮フ科","province":"東京都","city":"港区","address":"東京都港区芝浦四丁目20番4号","lat":35.638835,"lon":139.751832,"施設方書":"芝浦アイランドブルームホームズ2階","施設開設日":"2015/8/1","施設電話番号":"03-5765-2622","診療科目名称":"皮膚科、小児皮膚科、美容皮膚科、アレルギー科、形成外科"},{"name":"医療法人財団Chiron 芝浦アイランド内科クリニック","province":"東京都","city":"港区","address":"東京都港区芝浦四丁目20番4号","lat":35.638835,"lon":139.751832,"施設方書":"芝浦アイランドブルームホームズ2階","施設開設日":"2013/10/1","施設電話番号":"03-5730-0221","診療科目名称":"内科、リウマチ科"},{"name":"大野耳鼻咽喉科医院","province":"東京都","city":"港区","address":"東京都港区芝公園一丁目1番7号","lat":35.660216,"lon":139.752161,"施設方書":"","施設開設日":"1992/6/5","施設電話番号":"03-3431-3387","診療科目名称":"耳鼻いんこう科"},{"name":"医療法人社団NAOS 御成門内科クリニック","province":"東京都","city":"港区","address":"東京都港区芝公園一丁目3番10号","lat":35.659487,"lon":139.751932,"施設方書":"ハリファックス芝ビル2階","施設開設日":"2014/4/1","施設電話番号":"03-5425-2530","診療科目名称":"内科"},{"name":"港区役所職員保健室","province":"東京都","city":"港区","address":"東京都港区芝公園一丁目5番25号","lat":35.658044,"lon":139.751535,"施設方書":"","施設開設日":"1988/7/1","施設電話番号":"03-3578-2111","診療科目名称":"内科"},{"name":"藏本内科クリニック","province":"東京都","city":"港区","address":"東京都港区芝公園一丁目7番15号","lat":35.657398,"lon":139.752136,"施設方書":"池田ビル1階","施設開設日":"2003/12/18","施設電話番号":"03-5733-3355","診療科目名称":"内科、消化器内科"},{"name":"佐々木クリニック泌尿器科 芝大門","province":"東京都","city":"港区","address":"東京都港区芝公園一丁目7番15号","lat":35.657398,"lon":139.752136,"施設方書":"池田ビル3階","施設開設日":"2022/9/28","施設電話番号":"03-6435-7373","診療科目名称":"泌尿器科、腫瘍泌尿器科、感染症泌尿器科"},{"name":"芝国際クリニック","province":"東京都","city":"港区","address":"東京都港区芝公園二丁目3番3号","lat":35.656791,"lon":139.752093,"施設方書":"寺田ビル1階","施設開設日":"2020/9/1","施設電話番号":"03-6402-3288","診療科目名称":"内科、腫瘍内科、婦人科"},{"name":"医療法人社団潤康会 芝パーククリニック","province":"東京都","city":"港区","address":"東京都港区芝公園二丁目4番1号","lat":35.655623,"lon":139.752271,"施設方書":"芝パークビル2階208号室","施設開設日":"1994/11/1","施設電話番号":"03-3434-4485","診療科目名称":"内科、婦人科、心療内科、歯科"},{"name":"医療法人社団ケイセイ会パークサイドクリニック","province":"東京都","city":"港区","address":"東京都港区芝公園二丁目6番8号","lat":35.655577,"lon":139.75064,"施設方書":"日本女子会館ビル2階","施設開設日":"2005/8/30","施設電話番号":"03-3434-7800","診療科目名称":"内科、循環器科、消化器科、呼吸器科、婦人科、リハビリテーション科"},{"name":"AMT東京芝クリニック","province":"東京都","city":"港区","address":"東京都港区芝公園二丁目10番4号","lat":35.654673,"lon":139.752565,"施設方書":"浜松町ウエストビル5階","施設開設日":"2022/8/1","施設電話番号":"03-5422-1178","診療科目名称":"皮膚科、アレルギー科、内科"},{"name":"東京プリンスホテル 診療所","province":"東京都","city":"港区","address":"東京都港区芝公園三丁目3番1号","lat":35.658962,"lon":139.748139,"施設方書":"東京プリンスホテル地下3階","施設開設日":"2022/4/1","施設電話番号":"03-3432-1111","診療科目名称":"内科"},{"name":"トウキョウ メディカル エンド サージカル クリニック","province":"東京都","city":"港区","address":"東京都港区芝公園三丁目4番30号","lat":35.658906,"lon":139.746403,"施設方書":"32芝公園ビル2階","施設開設日":"2014/11/1","施設電話番号":"03-3436-3028","診療科目名称":"内科、消化器内科、外科、整形外科、産婦人科、循環器内科、皮膚科、眼科、耳鼻咽喉科、神経内科、精神科、泌尿器科、小児科"},{"name":"株式会社TOKYO TOWER医務室","province":"東京都","city":"港区","address":"東京都港区芝公園四丁目2番8号","lat":35.658577,"lon":139.745451,"施設方書":"","施設開設日":"1959/6/5","施設電話番号":"03-3433-5563","診療科目名称":"内科"},{"name":"ザ・プリンス パークタワー東京 診療所","province":"東京都","city":"港区","address":"東京都港区芝公園四丁目8番1号","lat":35.655223,"lon":139.747029,"施設方書":"ザ・プリンス パークタワー東京地下1階","施設開設日":"2022/4/1","施設電話番号":"03-5400-1111","診療科目名称":"内科"},{"name":"芝大門いまづクリニック","province":"東京都","city":"港区","address":"東京都港区芝大門一丁目1番14号","lat":35.659496,"lon":139.754003,"施設方書":"1階~5階","施設開設日":"2013/6/1","施設電話番号":"03-6432-4976","診療科目名称":"内科、消化器内科、外科、肛門外科、放射線科、漢方腫瘍内科(がん漢方)、漢方内科、漢方産婦人科"},{"name":"あたご皮フ科","province":"東京都","city":"港区","address":"東京都港区芝大門一丁目1番35号","lat":35.660294,"lon":139.752838,"施設方書":"サンセルモ大門ビル1階","施設開設日":"2018/4/1","施設電話番号":"03-6402-3636","診療科目名称":"皮膚科"},{"name":"山本クリニック 東京","province":"東京都","city":"港区","address":"東京都港区芝大門一丁目2番4号","lat":35.660018,"lon":139.754505,"施設方書":"6階","施設開設日":"2023/4/5","施設電話番号":"03-5843-7120","診療科目名称":"男性泌尿器科"},{"name":"浜松町メンタルクリニック","province":"東京都","city":"港区","address":"東京都港区芝大門一丁目14番10号","lat":35.657517,"lon":139.75373,"施設方書":"宮川ビル地下1階","施設開設日":"2006/3/1","施設電話番号":"03-6279-7473","診療科目名称":"心療内科、精神科、神経科"},{"name":"ひより内科クリニック 浜松町駅前院","province":"東京都","city":"港区","address":"東京都港区芝大門一丁目16番6号","lat":35.657124,"lon":139.754465,"施設方書":"新雅ビル4階","施設開設日":"2022/2/21","施設電話番号":"03-6459-0441","診療科目名称":"内科、小児科、アレルギー科、泌尿器科"},{"name":"芝大門クリニック","province":"東京都","city":"港区","address":"東京都港区芝大門一丁目16番10号","lat":35.657167,"lon":139.754287,"施設方書":"土木田ビル2階","施設開設日":"2011/10/1","施設電話番号":"03-6435-6930","診療科目名称":"内科"},{"name":"こころの健康クリニック芝大門","province":"東京都","city":"港区","address":"東京都港区芝大門二丁目1番13号","lat":35.655898,"lon":139.75298,"施設方書":"芝大友ビル6階","施設開設日":"2019/6/1","施設電話番号":"03-6435-8046","診療科目名称":"心療内科、精神科"},{"name":"医療法人社団生栄会 浜松町メディカルクリニック","province":"東京都","city":"港区","address":"東京都港区芝大門二丁目3番11号","lat":35.655781,"lon":139.753828,"施設方書":"芝清水ビル1階","施設開設日":"2013/3/4","施設電話番号":"03-6809-2152","診療科目名称":"内科、小児科"},{"name":"ひろ・やまクリニック","province":"東京都","city":"港区","address":"東京都港区芝大門二丁目5番1号","lat":35.655528,"lon":139.754057,"施設方書":"アルテビル3階","施設開設日":"2004/11/27","施設電話番号":"03-3437-6376","診療科目名称":"耳鼻いんこう科、内科、気管食道科、外科、頭頸部外科"},{"name":"DN画像診断クリニック東京","province":"東京都","city":"港区","address":"東京都港区芝大門二丁目5番5号","lat":35.655332,"lon":139.754088,"施設方書":"住友芝大門ビル1階","施設開設日":"2022/7/1","施設電話番号":"03-6823-7670","診療科目名称":"放射線科"},{"name":"さくらオンラインクリニック","province":"東京都","city":"港区","address":"東京都港区芝大門二丁目8番5号","lat":35.655394,"lon":139.75302,"施設方書":"MHKビル4階","施設開設日":"2024/3/11","施設電話番号":"","診療科目名称":"内科、産婦人科"},{"name":"あおきクリニック","province":"東京都","city":"港区","address":"東京都港区芝大門二丁目9番4号","lat":35.654617,"lon":139.752852,"施設方書":"VORT芝大門3 5階","施設開設日":"2024/2/15","施設電話番号":"03-6432-4340","診療科目名称":"内科、精神科、救急科"},{"name":"医療法人社団グッドスリープ グッドスリープ・クリニック","province":"東京都","city":"港区","address":"東京都港区芝大門二丁目10番1号","lat":35.654703,"lon":139.753109,"施設方書":"第一大門ビル 1階","施設開設日":"2001/3/1","施設電話番号":"03-5733-3251","診療科目名称":"内科"},{"name":"医療法人社団たくみ会細川内科クリニック","province":"東京都","city":"港区","address":"東京都港区芝大門二丁目10番2号","lat":35.654718,"lon":139.753369,"施設方書":"黒田ビル2階","施設開設日":"2007/5/1","施設電話番号":"03-5777-5331","診療科目名称":"内科、糖尿病内科"},{"name":"医療法人社団桜門会 山皇クリニック","province":"東京都","city":"港区","address":"東京都港区芝大門二丁目10番7号","lat":35.654177,"lon":139.753299,"施設方書":"桜門会ビル2 2階","施設開設日":"2008/10/1","施設電話番号":"03-3437-9901","診療科目名称":"内科"},{"name":"医療法人社団みなとあおば 白金あおば皮フ科クリニック","province":"東京都","city":"港区","address":"東京都港区白金一丁目2番2号","lat":35.646231,"lon":139.735073,"施設方書":"白金ザ・スカイ西棟1階W111","施設開設日":"2023/4/3","施設電話番号":"03-6456-2033","診療科目名称":"皮膚科、アレルギー科、小児皮膚科、美容皮膚科"},{"name":"もとやまクリニック","province":"東京都","city":"港区","address":"東京都港区白金一丁目8番9号","lat":35.645871,"lon":139.731543,"施設方書":"1階A","施設開設日":"2002/9/20","施設電話番号":"03-3473-2866","診療科目名称":"内科、循環器科"},{"name":"しろかねたかなわクリニック","province":"東京都","city":"港区","address":"東京都港区白金一丁目13番11号","lat":35.645137,"lon":139.73449,"施設方書":"","施設開設日":"2018/8/1","施設電話番号":"03-6721-7561","診療科目名称":"心療内科、精神科、児童精神科、老年精神科"},{"name":"医療法人社団千和会白金タワークリニック","province":"東京都","city":"港区","address":"東京都港区白金一丁目17番1号","lat":35.644583,"lon":139.733509,"施設方書":"白金タワー106号","施設開設日":"2012/12/1","施設電話番号":"03-5789-3882","診療科目名称":"内科、外科、小児科、肛門外科、肛門内科、胃腸内科"},{"name":"医療法人社団 健翠会 白金眼科クリニック","province":"東京都","city":"港区","address":"東京都港区白金一丁目17番2号","lat":35.644411,"lon":139.733478,"施設方書":"白金タワーテラス棟1階104号室","施設開設日":"2016/12/1","施設電話番号":"03-3447-2226","診療科目名称":"眼科"},{"name":"敬和国際医院","province":"東京都","city":"港区","address":"東京都港区白金一丁目25番27号","lat":35.643988,"lon":139.731534,"施設方書":"布施ビル2階","施設開設日":"2020/3/26","施設電話番号":"03-6432-5070","診療科目名称":"内科、外科"},{"name":"白金三光クリニック","province":"東京都","city":"港区","address":"東京都港区白金一丁目25番31号","lat":35.644431,"lon":139.731574,"施設方書":"レジデンス白金102","施設開設日":"2018/5/1","施設電話番号":"03-6456-4350","診療科目名称":"内科、外科、皮膚科、麻酔科"},{"name":"医療法人社団 健翠会 カピバラあかちゃんこどもクリニック","province":"東京都","city":"港区","address":"東京都港区白金一丁目26番4号","lat":35.644059,"lon":139.733556,"施設方書":"アイム白金高輪1階","施設開設日":"2013/3/1","施設電話番号":"03-6277-3008","診療科目名称":"小児科、アレルギー科"},{"name":"白金メンタルクリニック","province":"東京都","city":"港区","address":"東京都港区白金一丁目28番18号","lat":35.643758,"lon":139.732976,"施設方書":"Yビル3階","施設開設日":"2014/5/28","施設電話番号":"03-6721-9092","診療科目名称":"精神科"},{"name":"やまうち循環器内科クリニック","province":"東京都","city":"港区","address":"東京都港区白金二丁目3番3号","lat":35.643173,"lon":139.73317,"施設方書":"カームコート白金高輪1階","施設開設日":"2022/10/26","施設電話番号":"03-6456-4115","診療科目名称":"循環器内科、内科"},{"name":"エミネクロスメディカルクリニック","province":"東京都","city":"港区","address":"東京都港区白金三丁目7番18号","lat":35.645778,"lon":139.729738,"施設方書":"アポロホール&ルナハウス402","施設開設日":"2021/11/15","施設電話番号":"03-6804-2306","診療科目名称":"内科"},{"name":"後藤内科診療所","province":"東京都","city":"港区","address":"東京都港区白金三丁目7番24号","lat":35.64564,"lon":139.729072,"施設方書":"","施設開設日":"1994/10/13","施設電話番号":"03-3441-2408","診療科目名称":"内科、小児科"},{"name":"白金ハートクリニック","province":"東京都","city":"港区","address":"東京都港区白金三丁目10番6号","lat":35.645388,"lon":139.731314,"施設方書":"コスモ白金シティフォルム102号","施設開設日":"2022/9/1","施設電話番号":"03-5447-0810","診療科目名称":"内科、循環器内科、外科、心臓血管外科"},{"name":"白金耳鼻咽喉科望月医院","province":"東京都","city":"港区","address":"東京都港区白金三丁目10番16号","lat":35.645187,"lon":139.731214,"施設方書":"白金望月ビル1階","施設開設日":"2023/8/1","施設電話番号":"03-3442-3387","診療科目名称":"耳鼻いんこう科、小児耳鼻いんこう科、アレルギー科"},{"name":"白金ビューティフルエイジングクリニック","province":"東京都","city":"港区","address":"東京都港区白金六丁目6番1号","lat":35.644302,"lon":139.725567,"施設方書":"3階","施設開設日":"2006/8/4","施設電話番号":"03-5791-4800","診療科目名称":"美容外科、形成外科"},{"name":"仁クリニック","province":"東京都","city":"港区","address":"東京都港区白金六丁目7番3号","lat":35.643991,"lon":139.725839,"施設方書":"La Blancheur 101号室","施設開設日":"2024/2/12","施設電話番号":"","診療科目名称":"内科"},{"name":"白金スイートクリニック","province":"東京都","city":"港区","address":"東京都港区白金六丁目16番6号","lat":35.643241,"lon":139.722654,"施設方書":"ザ・レジデンス白金スイート2階","施設開設日":"2013/10/1","施設電話番号":"03-5793-5081","診療科目名称":"内科、整形外科"},{"name":"医療法人社団白峰会 白金クリニック","province":"東京都","city":"港区","address":"東京都港区白金六丁目22番12号","lat":35.643536,"lon":139.721175,"施設方書":"","施設開設日":"1996/10/1","施設電話番号":"03-3441-3408","診療科目名称":"内科、外科、整形外科、リウマチ科、消化器内科、胃腸内科、乳腺外科、呼吸器内科、循環器内科、皮膚科"},{"name":"医療法人社団研友会 都ホテル東京メディカルクリニック","province":"東京都","city":"港区","address":"東京都港区白金台一丁目1番50号","lat":35.639304,"lon":139.730649,"施設方書":"シェラトン都ホテル東京B1階","施設開設日":"2003/5/1","施設電話番号":"03-3473-1651","診療科目名称":"内科、小児科、外科、整形外科、皮膚科"},{"name":"明治学院大学健康支援センター","province":"東京都","city":"港区","address":"東京都港区白金台一丁目2番37号","lat":35.637427,"lon":139.730778,"施設方書":"明治学院大学本館内","施設開設日":"1996/9/24","施設電話番号":"03-5421-5183","診療科目名称":"内科、婦人科、精神科"},{"name":"高輪台おおみち循環器内科クリニック","province":"東京都","city":"港区","address":"東京都港区白金台二丁目11番8号","lat":35.632516,"lon":139.730637,"施設方書":"永昌高輪台ビル3階","施設開設日":"2021/8/1","施設電話番号":"03-5422-9105","診療科目名称":"内科、循環器内科"},{"name":"はな医院","province":"東京都","city":"港区","address":"東京都港区白金台二丁目23番2号","lat":35.633288,"lon":139.72874,"施設方書":"白金台フラッツB101","施設開設日":"2020/10/9","施設電話番号":"03-4405-2367","診療科目名称":"内科、外科、小児科、緩和ケア内科"},{"name":"山根耳鼻咽喉科医院","province":"東京都","city":"港区","address":"東京都港区白金台二丁目23番13号","lat":35.63314,"lon":139.728316,"施設方書":"","施設開設日":"1997/2/18","施設電話番号":"03-3444-5448","診療科目名称":"耳鼻いんこう科、小児科"},{"name":"白金台おがわクリニック","province":"東京都","city":"港区","address":"東京都港区白金台三丁目8番3号","lat":35.635117,"lon":139.728022,"施設方書":"","施設開設日":"2017/10/3","施設電話番号":"03-6447-7081","診療科目名称":"内科、糖尿病内科、消化器内科、内分泌内科、小児科"},{"name":"白金台クリニック","province":"東京都","city":"港区","address":"東京都港区白金台三丁目14番2号","lat":35.637082,"lon":139.724939,"施設方書":"クレアシオン白金台602","施設開設日":"2022/7/18","施設電話番号":"","診療科目名称":"内科、アレルギー科、皮膚科、心療内科、女性内科"},{"name":"NEOクリニック東京","province":"東京都","city":"港区","address":"東京都港区白金台三丁目14番4号","lat":35.637209,"lon":139.725188,"施設方書":"LBビル6F","施設開設日":"2020/6/30","施設電話番号":"03-6450-4796","診療科目名称":"内科、皮膚科、腫瘍内科"},{"name":"エムズクリニック白金","province":"東京都","city":"港区","address":"東京都港区白金台三丁目14番4号","lat":35.637209,"lon":139.725188,"施設方書":"LBビルディング 4F-A","施設開設日":"2017/2/7","施設電話番号":"03-3280-3387","診療科目名称":"耳鼻いんこう科、小児耳鼻いんこう科、消化器外科(胃腸外科)、脳神経外科"},{"name":"白金台耳鼻咽喉科","province":"東京都","city":"港区","address":"東京都港区白金台三丁目15番21号","lat":35.636258,"lon":139.724197,"施設方書":"谷島ビル2階","施設開設日":"2019/1/1","施設電話番号":"03-6408-5088","診療科目名称":"耳鼻いんこう科"},{"name":"白金台皮膚科","province":"東京都","city":"港区","address":"東京都港区白金台三丁目16番8号","lat":35.636183,"lon":139.723342,"施設方書":"クレール白金台2階","施設開設日":"2016/12/1","施設電話番号":"03-3447-8080","診療科目名称":"皮膚科、小児皮膚科"},{"name":"JUN CLINIC 白金","province":"東京都","city":"港区","address":"東京都港区白金台三丁目16番13号","lat":35.636541,"lon":139.723791,"施設方書":"白金台ウスイビル8階","施設開設日":"2020/9/1","施設電話番号":"03-6456-4997","診療科目名称":"形成外科、美容外科、美容皮膚科"},{"name":"クリニックばんびいに","province":"東京都","city":"港区","address":"東京都港区白金台三丁目16番13号","lat":35.636541,"lon":139.723791,"施設方書":"","施設開設日":"2015/3/1","施設電話番号":"03-3441-4150","診療科目名称":"小児科、アレルギー科、内科"},{"name":"医療法人社団白明会 古野眼科","province":"東京都","city":"港区","address":"東京都港区白金台三丁目16番16号","lat":35.636206,"lon":139.723929,"施設方書":"","施設開設日":"1991/9/30","施設電話番号":"03-3449-0888","診療科目名称":"眼科"},{"name":"白金台ファミリークリニック","province":"東京都","city":"港区","address":"東京都港区白金台三丁目18番1号","lat":35.635128,"lon":139.720719,"施設方書":"八百吉ビル2階","施設開設日":"2015/10/1","施設電話番号":"03-5795-2137","診療科目名称":"内科"},{"name":"加藤プラチナクリニック","province":"東京都","city":"港区","address":"東京都港区白金台三丁目18番12号","lat":35.635624,"lon":139.721597,"施設方書":"白金台AKETA 501号室","施設開設日":"2024/1/3","施設電話番号":"03-5422-8565","診療科目名称":"内科、小児科"},{"name":"医療法人社団潤生会 石原内科クリニック","province":"東京都","city":"港区","address":"東京都港区白金台四丁目2番11号","lat":35.639155,"lon":139.727982,"施設方書":"白金台クレスト3階","施設開設日":"2006/6/1","施設電話番号":"03-5423-5560","診療科目名称":"内科、リハビリテーション科、小児科、整形外科"},{"name":"あきよし皮フ科クリニック","province":"東京都","city":"港区","address":"東京都港区白金台四丁目2番11号","lat":35.639155,"lon":139.727982,"施設方書":"白金台クレスト5階","施設開設日":"2013/4/30","施設電話番号":"03-5422-8880","診療科目名称":"皮膚科、美容皮膚科"},{"name":"東京白金台クリニック","province":"東京都","city":"港区","address":"東京都港区白金台四丁目3番19号","lat":35.639029,"lon":139.727802,"施設方書":"エルスタンザ白金地下1階","施設開設日":"2020/12/25","施設電話番号":"03-6456-2205","診療科目名称":"内科、皮膚科"},{"name":"白金いびき・内科クリニック","province":"東京都","city":"港区","address":"東京都港区白金台四丁目3番19号","lat":35.639029,"lon":139.727802,"施設方書":"エルスタンザ白金 地下1階","施設開設日":"2016/5/2","施設電話番号":"03-3440-0800","診療科目名称":"内科、呼吸器内科、循環器内科、アレルギー科、小児科"},{"name":"白金台メディカルクリニック","province":"東京都","city":"港区","address":"東京都港区白金台四丁目7番4号","lat":35.638095,"lon":139.726146,"施設方書":"白金台STビル8階","施設開設日":"2014/1/24","施設電話番号":"03-5488-6810","診療科目名称":"心療内科、精神科"},{"name":"医療法人社団白慈会 白金坂の上診療所","province":"東京都","city":"港区","address":"東京都港区白金台四丁目7番8号","lat":35.637949,"lon":139.725647,"施設方書":"ストーリア白金2階","施設開設日":"2006/8/1","施設電話番号":"03-3447-3232","診療科目名称":"内科、皮膚科、形成外科、アレルギー科、放射線科、小児科"},{"name":"医療法人社団FAM biotope clinic 白金","province":"東京都","city":"港区","address":"東京都港区白金台四丁目9番10号","lat":35.637364,"lon":139.724076,"施設方書":"グリーンリーブス2階","施設開設日":"2022/8/20","施設電話番号":"03-5422-9901","診療科目名称":"形成外科、美容外科、皮膚科、美容皮膚科、婦人科、内科、心療内科、整形外科"},{"name":"東京CAクリニック","province":"東京都","city":"港区","address":"東京都港区白金台四丁目9番19号","lat":35.637984,"lon":139.723633,"施設方書":"HAPPO-EN URBAN SQUARE 4階","施設開設日":"2021/10/7","施設電話番号":"03-6407-9147","診療科目名称":"内科、外科、腫瘍内科"},{"name":"医療法人社団春央会 大澤プライベートクリニック","province":"東京都","city":"港区","address":"東京都港区白金台四丁目11番10号","lat":35.63836,"lon":139.724749,"施設方書":"1階","施設開設日":"2016/2/1","施設電話番号":"03-6432-5680","診療科目名称":"内科、外科"},{"name":"鈴木医院","province":"東京都","city":"港区","address":"東京都港区白金台四丁目12番11号","lat":35.638114,"lon":139.724815,"施設方書":"","施設開設日":"1998/9/24","施設電話番号":"03-3441-6668","診療科目名称":"内科、小児科"},{"name":"KUMIKO CLINIC","province":"東京都","city":"港区","address":"東京都港区白金台四丁目19番13号","lat":35.638684,"lon":139.723233,"施設方書":"白金台TFビル2F・3F","施設開設日":"2023/6/5","施設電話番号":"03-6206-6777","診療科目名称":"美容皮膚科"},{"name":"NAG整形外科","province":"東京都","city":"港区","address":"東京都港区白金台五丁目6番9号","lat":35.64012,"lon":139.722295,"施設方書":"ウィンドベース白金5階","施設開設日":"2023/5/4","施設電話番号":"03-6432-5880","診療科目名称":"整形外科"},{"name":"どんぐり眼科クリニック","province":"東京都","city":"港区","address":"東京都港区白金台五丁目13番14号","lat":35.637763,"lon":139.722634,"施設方書":"1階","施設開設日":"2018/1/1","施設電話番号":"03-5422-8836","診療科目名称":"眼科"},{"name":"医療法人社団キュアライフ東京ホームドクターズクリニック","province":"東京都","city":"港区","address":"東京都港区白金台五丁目13番16号","lat":35.637588,"lon":139.722719,"施設方書":"寺尾ビル1階","施設開設日":"2017/10/1","施設電話番号":"03-5422-6818","診療科目名称":"内科、外科、胸部外科"},{"name":"ルポール ビューティークリニック","province":"東京都","city":"港区","address":"東京都港区白金台五丁目13番31号","lat":35.637925,"lon":139.722218,"施設方書":"白金台MHテラス102号室","施設開設日":"2023/11/21","施設電話番号":"","診療科目名称":"皮膚科"},{"name":"白金台診療所","province":"東京都","city":"港区","address":"東京都港区白金台五丁目18番6号","lat":35.636997,"lon":139.723372,"施設方書":"2階","施設開設日":"1998/8/26","施設電話番号":"03-3473-4741","診療科目名称":"内科、小児科、皮膚科、リハビリテーション科"},{"name":"白金医療美容クリニック","province":"東京都","city":"港区","address":"東京都港区白金台五丁目18番18号","lat":35.637305,"lon":139.723608,"施設方書":"Barbizon18ビル5階","施設開設日":"2023/7/1","施設電話番号":"03-5422-7185","診療科目名称":"美容皮膚科"},{"name":"港区立特別養護老人ホーム 「白金の森」","province":"東京都","city":"港区","address":"東京都港区白金台五丁目20番5号","lat":35.637122,"lon":139.722231,"施設方書":"","施設開設日":"1988/9/1","施設電話番号":"03-3449-9611","診療科目名称":"内科、精神科、歯科"},{"name":"ミル訪問クリニック目黒","province":"東京都","city":"港区","address":"東京都港区白金台五丁目22番11号","lat":35.634992,"lon":139.717666,"施設方書":"ソフトタウン白金801号室","施設開設日":"2023/3/24","施設電話番号":"03-5422-9741","診療科目名称":"内科、小児科、精神科"},{"name":"日本軽金属診療室","province":"東京都","city":"港区","address":"東京都港区新橋一丁目1番13号","lat":35.669051,"lon":139.756163,"施設方書":"アーバンネット内幸町ビル10階","施設開設日":"2019/11/26","施設電話番号":"03-6810-7187","診療科目名称":"内科"},{"name":"医療法人笑顔会Dr.AGAクリニック東京新橋院","province":"東京都","city":"港区","address":"東京都港区新橋一丁目4番4号","lat":35.667899,"lon":139.759221,"施設方書":"","施設開設日":"2020/10/16","施設電話番号":"03-5962-8911","診療科目名称":"皮膚科"},{"name":"クリニックフォア新橋","province":"東京都","city":"港区","address":"東京都港区新橋一丁目4番5号","lat":35.667902,"lon":139.759065,"施設方書":"ヒューリックG10ビル9階、10階","施設開設日":"2020/10/1","施設電話番号":"03-4579-9029","診療科目名称":"内科、皮膚科、アレルギー科、糖尿病内科、循環器内科、内分泌内科、泌尿器科、美容皮膚科、産婦人科、眼科"},{"name":"ルナレディースクリニック新橋銀座口院","province":"東京都","city":"港区","address":"東京都港区新橋一丁目5番5号","lat":35.667631,"lon":139.760077,"施設方書":"グランベル銀座ビル2 10階","施設開設日":"2023/7/1","施設電話番号":"050-1753-0802","診療科目名称":"婦人科、内科"},{"name":"ダリア銀座スキンクリニック","province":"東京都","city":"港区","address":"東京都港区新橋一丁目5番5号","lat":35.667631,"lon":139.760077,"施設方書":"グランベル銀座ビル2 4階","施設開設日":"2023/3/1","施設電話番号":"03-6228-5427","診療科目名称":"美容皮膚科、皮膚科、形成外科"},{"name":"銀座グランフォレクリニック","province":"東京都","city":"港区","address":"東京都港区新橋一丁目7番11号","lat":35.666897,"lon":139.760995,"施設方書":"近鉄銀座中央通りビル2 301号","施設開設日":"2022/8/10","施設電話番号":"03-5226-0260","診療科目名称":"形成外科、美容外科、皮膚科、美容皮膚科"},{"name":"メンズケアクリニック新橋院","province":"東京都","city":"港区","address":"東京都港区新橋一丁目8番4号","lat":35.666978,"lon":139.760314,"施設方書":"丸忠ビル7F‐B","施設開設日":"2020/7/2","施設電話番号":"03-5962-8738","診療科目名称":"美容皮膚科、泌尿器科"},{"name":"銀座総合美容クリニック","province":"東京都","city":"港区","address":"東京都港区新橋一丁目9番5号","lat":35.667175,"lon":139.760057,"施設方書":"KDX新橋駅前ビル4・5・6階","施設開設日":"2018/12/7","施設電話番号":"03-6280-6970","診療科目名称":"皮膚科、形成外科、美容外科、美容皮膚科"},{"name":"東京AMHクリニック銀座","province":"東京都","city":"港区","address":"東京都港区新橋一丁目9番5号","lat":35.667175,"lon":139.760057,"施設方書":"KDX新橋駅前ビル2階","施設開設日":"2018/12/6","施設電話番号":"03-3573-4124","診療科目名称":"産婦人科、泌尿器科(不妊治療)、生殖医療外科、女性内科"},{"name":"患者目線のクリニック 銀座新橋","province":"東京都","city":"港区","address":"東京都港区新橋一丁目9番5号","lat":35.667175,"lon":139.760057,"施設方書":"KDX新橋駅前ビル8階","施設開設日":"2022/11/1","施設電話番号":"03-6264-6303","診療科目名称":"内科、整形外科"},{"name":"井上胃腸科内科医院","province":"東京都","city":"港区","address":"東京都港区新橋一丁目11番3号","lat":35.667613,"lon":139.759428,"施設方書":"岩井ビル3階","施設開設日":"2008/9/1","施設電話番号":"03-3573-1690","診療科目名称":"内科"},{"name":"新橋消化器内科・泌尿器科クリニック","province":"東京都","city":"港区","address":"東京都港区新橋一丁目11番5号","lat":35.667451,"lon":139.759358,"施設方書":"コルティーレ銀座口BLDG7階、8階","施設開設日":"2023/8/29","施設電話番号":"03-6263-9162","診療科目名称":"泌尿器科、消化器内科(胃腸内科)、内科、皮膚科、美容皮膚科"},{"name":"湘南美容クリニック新橋銀座口院","province":"東京都","city":"港区","address":"東京都港区新橋一丁目12番9号","lat":35.667649,"lon":139.758848,"施設方書":"新橋プレイス9階","施設開設日":"2018/8/15","施設電話番号":"050-5576-1150","診療科目名称":"美容外科、美容皮膚科"},{"name":"シーエスケー・クリニック","province":"東京都","city":"港区","address":"東京都港区新橋一丁目13番12号","lat":35.667989,"lon":139.757837,"施設方書":"","施設開設日":"2010/12/8","施設電話番号":"03-5157-5121","診療科目名称":"内科"},{"name":"医療法人社団南桜会松崎内科クリニック","province":"東京都","city":"港区","address":"東京都港区新橋一丁目15番5号","lat":35.668016,"lon":139.757501,"施設方書":"ペルサ115、9階","施設開設日":"2016/8/1","施設電話番号":"03-3591-7006","診療科目名称":"内科、皮膚科、血液内科、循環器内科"},{"name":"新橋駅前内科クリニック","province":"東京都","city":"港区","address":"東京都港区新橋一丁目15番7号","lat":35.668089,"lon":139.757282,"施設方書":"新橋NFビル501","施設開設日":"2010/3/1","施設電話番号":"03-3593-7660","診療科目名称":"内科、循環器内科"},{"name":"新橋DAYクリニック","province":"東京都","city":"港区","address":"東京都港区新橋一丁目15番7号","lat":35.668089,"lon":139.757282,"施設方書":"新橋NFビル6F","施設開設日":"2022/3/1","施設電話番号":"050-5527-1126","診療科目名称":"内科、外科、麻酔科"},{"name":"医療法人社団ワンデー新橋美容クリニック","province":"東京都","city":"港区","address":"東京都港区新橋一丁目15番地7号","lat":35.668089,"lon":139.757282,"施設方書":"新橋NFビル9階","施設開設日":"2011/8/4","施設電話番号":"03-6268-8012","診療科目名称":"皮膚科、形成外科"},{"name":"医療法人社団イースト会 新橋EDイースト駅前クリニック","province":"東京都","city":"港区","address":"東京都港区新橋一丁目15番7号","lat":35.668089,"lon":139.757282,"施設方書":"新橋NFビル地下1階","施設開設日":"2011/10/1","施設電話番号":"03-6206-1811","診療科目名称":"皮膚科、泌尿器科"},{"name":"アルト新橋胃腸肛門内視鏡クリニック","province":"東京都","city":"港区","address":"東京都港区新橋一丁目15番7号","lat":35.668089,"lon":139.757282,"施設方書":"新橋NFビル4階","施設開設日":"2023/9/1","施設電話番号":"03-5157-5841","診療科目名称":"内視鏡内科、胃腸内科、消化器内科、肛門内科、内科"},{"name":"医療法人社団 爽醒会 東京疲労・睡眠クリニック","province":"東京都","city":"港区","address":"東京都港区新橋一丁目15番7号","lat":35.668089,"lon":139.757282,"施設方書":"新橋NFビル3階","施設開設日":"2023/11/1","施設電話番号":"03-3504-0555","診療科目名称":"内科、リハビリテーション科、心療内科、精神科"},{"name":"新橋眼科","province":"東京都","city":"港区","address":"東京都港区新橋一丁目16番4号","lat":35.668222,"lon":139.756942,"施設方書":"りそな新橋ビル8階","施設開設日":"2016/6/1","施設電話番号":"03-3591-7024","診療科目名称":"眼科"},{"name":"DRIP BEAUTY CLINIC. SHINBASHI","province":"東京都","city":"港区","address":"東京都港区新橋一丁目16番8号","lat":35.668208,"lon":139.756639,"施設方書":"第3西欧ビル7階","施設開設日":"2019/11/22","施設電話番号":"03-6268-8202","診療科目名称":"内科、美容皮膚科"},{"name":"医療法人社団若葉の会 新橋メディカルアートクリニック","province":"東京都","city":"港区","address":"東京都港区新橋一丁目16番8号","lat":35.668208,"lon":139.756639,"施設方書":"第3西欧ビル9階及び10階","施設開設日":"2018/4/3","施設電話番号":"03-6268-8990","診療科目名称":"皮膚科、形成外科、泌尿器科"},{"name":"医療法人一門会新橋日比谷口クリニック","province":"東京都","city":"港区","address":"東京都港区新橋一丁目17番2号","lat":35.668479,"lon":139.75714,"施設方書":"ダイワロイネットホテル新橋B1","施設開設日":"2019/5/1","施設電話番号":"03-5251-9300","診療科目名称":"整形外科、形成外科、皮膚科、アレルギー科"},{"name":"東京予防クリニック","province":"東京都","city":"港区","address":"東京都港区新橋一丁目17番2号","lat":35.668479,"lon":139.75714,"施設方書":"ダイワロイネットホテル新橋地下1階","施設開設日":"2022/2/1","施設電話番号":"03-3507-6066","診療科目名称":"内科、脳神経内科"},{"name":"医療法人社団神州 日比谷公園健診クリニック","province":"東京都","city":"港区","address":"東京都港区新橋一丁目18番1号","lat":35.668908,"lon":139.755345,"施設方書":"航空会館4階","施設開設日":"2017/6/1","施設電話番号":"03-3595-0781","診療科目名称":"内科、消化器内科、呼吸器内科、婦人科"},{"name":"YGメディカルクリニック新橋院","province":"東京都","city":"港区","address":"東京都港区新橋一丁目18番11号","lat":35.668352,"lon":139.756393,"施設方書":"一松ビル5階","施設開設日":"2021/4/20","施設電話番号":"03-6550-9995","診療科目名称":"美容皮膚科"},{"name":"岡野内科診療所","province":"東京都","city":"港区","address":"東京都港区新橋一丁目18番14号","lat":35.668414,"lon":139.756124,"施設方書":"三洋堂本館ビル8階","施設開設日":"1997/5/26","施設電話番号":"03-3502-8060","診療科目名称":"内科、胃腸科、肛門科"},{"name":"日比谷内幸町クリニック","province":"東京都","city":"港区","address":"東京都港区新橋一丁目18番14号","lat":35.668438,"lon":139.756004,"施設方書":"新橋MMビル3階","施設開設日":"2005/5/16","施設電話番号":"03-5510-9050","診療科目名称":"内科"},{"name":"新橋メンタルクリニック","province":"東京都","city":"港区","address":"東京都港区新橋一丁目18番14号","lat":35.668438,"lon":139.756004,"施設方書":"新橋MMビル5階","施設開設日":"2023/4/1","施設電話番号":"03-3507-5560","診療科目名称":"心療内科、精神科"},{"name":"森野クリニック","province":"東京都","city":"港区","address":"東京都港区新橋一丁目18番19号","lat":35.668612,"lon":139.755365,"施設方書":"キムラヤ大塚ビル7階","施設開設日":"2019/11/1","施設電話番号":"03-3591-2200","診療科目名称":"脳神経内科、内科、外科"},{"name":"医療法人社団いわきたえこレディースクリニック","province":"東京都","city":"港区","address":"東京都港区新橋一丁目18番19号","lat":35.668612,"lon":139.755365,"施設方書":"キムラヤオオツカビル3階","施設開設日":"2017/4/1","施設電話番号":"03-3593-6321","診療科目名称":"産婦人科"},{"name":"医療法人社団永遠幸 新橋夢クリニック","province":"東京都","city":"港区","address":"東京都港区新橋二丁目5番1号","lat":35.667954,"lon":139.756007,"施設方書":"EXCEL新橋3~7階","施設開設日":"2007/10/1","施設電話番号":"03-3593-2121","診療科目名称":"婦人科、産科、泌尿器科"},{"name":"Dr.Black AGA クリニック","province":"東京都","city":"港区","address":"東京都港区新橋二丁目6番13号","lat":35.667687,"lon":139.756579,"施設方書":"ハイマートビル2階","施設開設日":"2022/9/1","施設電話番号":"03-6206-6265","診療科目名称":"美容皮膚科"},{"name":"エイトスキンクリニック","province":"東京都","city":"港区","address":"東京都港区新橋二丁目6番13号","lat":35.667687,"lon":139.756579,"施設方書":"ハイマートビル3階","施設開設日":"2022/6/3","施設電話番号":"03-6811-1456","診療科目名称":"美容皮膚科"},{"name":"にしだクリニック","province":"東京都","city":"港区","address":"東京都港区新橋二丁目9番7号","lat":35.666924,"lon":139.756992,"施設方書":"K-16ビル10階","施設開設日":"2007/11/29","施設電話番号":"03-3591-0095","診療科目名称":"内科、小児科、皮膚科、眼科、外科、整形外科、形成外科、婦人科"},{"name":"めぐみ糖尿病内科クリニック","province":"東京都","city":"港区","address":"東京都港区新橋二丁目9番16号","lat":35.666897,"lon":139.756058,"施設方書":"新橋萬楽庵ビル2階","施設開設日":"2019/12/1","施設電話番号":"03-6550-8508","診療科目名称":"糖尿病内科、内科"},{"name":"にじいろクリニック新橋","province":"東京都","city":"港区","address":"東京都港区新橋二丁目10番3号","lat":35.667279,"lon":139.755888,"施設方書":"ブラザービル4階","施設開設日":"2021/6/28","施設電話番号":"03-3501-0022","診療科目名称":"感染症内科、内科、皮膚科"},{"name":"医療法人社団インターナショナルヘルスケアクリニック","province":"東京都","city":"港区","address":"東京都港区新橋二丁目10番5号","lat":35.666967,"lon":139.755649,"施設方書":"末吉ビル3F","施設開設日":"2022/10/1","施設電話番号":"03-3501-1330","診療科目名称":"内科、心療内科"},{"name":"新橋アサイクリニック","province":"東京都","city":"港区","address":"東京都港区新橋二丁目11番8号","lat":35.667111,"lon":139.755205,"施設方書":"国土施設ビル3階","施設開設日":"2019/3/1","施設電話番号":"03-5512-4710","診療科目名称":"精神科、心療内科"},{"name":"松永ひろきクリニック","province":"東京都","city":"港区","address":"東京都港区新橋二丁目12番1号","lat":35.66762,"lon":139.754836,"施設方書":"ランディック第3新橋ビル3階","施設開設日":"2010/2/10","施設電話番号":"03-3595-0707","診療科目名称":"心療内科、精神科、内科"},{"name":"みま眼科","province":"東京都","city":"港区","address":"東京都港区新橋二丁目12番1号","lat":35.66762,"lon":139.754836,"施設方書":"ランディック第3新橋ビル2階B号室","施設開設日":"2018/12/3","施設電話番号":"03-6273-3103","診療科目名称":"眼科"},{"name":"新橋日比谷通りクリニック","province":"東京都","city":"港区","address":"東京都港区新橋二丁目12番16号","lat":35.667443,"lon":139.754686,"施設方書":"明和ビル3階","施設開設日":"2021/10/1","施設電話番号":"03-3595-4976","診療科目名称":"内科、泌尿器科"},{"name":"新橋烏森整形外科","province":"東京都","city":"港区","address":"東京都港区新橋二丁目15番7号","lat":35.666482,"lon":139.756765,"施設方書":"S-PLAZA弥生","施設開設日":"1996/12/2","施設電話番号":"03-3500-5353","診療科目名称":"整形外科、リハビリテーション科、リウマチ科"},{"name":"たけ内科新橋駅前院","province":"東京都","city":"港区","address":"東京都港区新橋二丁目15番8号","lat":35.666338,"lon":139.756695,"施設方書":"新橋W・Bビル4-7階","施設開設日":"2022/2/25","施設電話番号":"03-6770-0786","診療科目名称":"内科、感染症内科、呼吸器内科、消化器内科、循環器内科、糖尿病内科、精神科、心療内科、眼科"},{"name":"メンタルドクタークリニック","province":"東京都","city":"港区","address":"東京都港区新橋二丁目15番8号","lat":35.666338,"lon":139.756695,"施設方書":"新橋W・Bビル8階","施設開設日":"2022/10/24","施設電話番号":"03-6205-4448","診療科目名称":"精神科"},{"name":"医療法人社団山慈会 山田皮膚科医院","province":"東京都","city":"港区","address":"東京都港区新橋二丁目16番1号","lat":35.666423,"lon":139.757358,"施設方書":"ニュー新橋ビル321号352号","施設開設日":"1990/11/1","施設電話番号":"03-3580-7246","診療科目名称":"性病科、皮膚科、病理診断科"},{"name":"ヤマウチクリニック","province":"東京都","city":"港区","address":"東京都港区新橋二丁目16番1号","lat":35.666423,"lon":139.757358,"施設方書":"ニュー新橋ビル433","施設開設日":"2007/11/6","施設電話番号":"03-3593-5224","診療科目名称":"形成外科、皮膚科、内科"},{"name":"ニュー新橋クリニック","province":"東京都","city":"港区","address":"東京都港区新橋二丁目16番1号","lat":35.666423,"lon":139.757358,"施設方書":"ニュー新橋ビル407号室","施設開設日":"2007/7/1","施設電話番号":"03-3580-6775","診療科目名称":"内科、胃腸科、外科、整形外科"},{"name":"新橋アレルギー・リウマチクリニック","province":"東京都","city":"港区","address":"東京都港区新橋二丁目16番1号","lat":35.666423,"lon":139.757358,"施設方書":"ニュー新橋ビル3階318","施設開設日":"2018/4/1","施設電話番号":"03-3591-6409","診療科目名称":"内科、小児科、呼吸器内科、耳鼻咽喉科、アレルギー科、リウマチ科"},{"name":"医療法人社団祐光会 ファイト クリニック","province":"東京都","city":"港区","address":"東京都港区新橋二丁目16番1号","lat":35.666423,"lon":139.757358,"施設方書":"ニュー新橋ビル3階324号室","施設開設日":"2011/6/10","施設電話番号":"03-5510-7021","診療科目名称":"内科、美容皮膚科"},{"name":"医療法人社団七海会 あおぞらクリニック新橋院","province":"東京都","city":"港区","address":"東京都港区新橋二丁目16番1号","lat":35.666423,"lon":139.757358,"施設方書":"ニュー新橋ビル3階339号室","施設開設日":"2013/12/1","施設電話番号":"03-3506-8880","診療科目名称":"性感染症内科、泌尿器科、婦人科、皮膚科、内科"},{"name":"新橋田中内科","province":"東京都","city":"港区","address":"東京都港区新橋二丁目16番1号","lat":35.666423,"lon":139.757358,"施設方書":"ニュー新橋ビル319号","施設開設日":"2015/5/7","施設電話番号":"03-3580-9466","診療科目名称":"内科、循環器内科、呼吸器内科、肝臓・消化器内科、糖尿病・代謝内科"},{"name":"新橋汐留メディカルクリニック","province":"東京都","city":"港区","address":"東京都港区新橋二丁目18番3号","lat":35.666996,"lon":139.759118,"施設方書":"胡萩堂ビル5階","施設開設日":"2022/8/24","施設電話番号":"03-6264-5826","診療科目名称":"内科"},{"name":"渋谷美容外科クリニック 新橋院","province":"東京都","city":"港区","address":"東京都港区新橋二丁目18番9号","lat":35.666979,"lon":139.75873,"施設方書":"第三光和ビル4階","施設開設日":"2020/2/1","施設電話番号":"03-6636-9720","診療科目名称":"皮膚科、形成外科、美容外科、美容皮膚科"},{"name":"汐留みらいクリニック","province":"東京都","city":"港区","address":"東京都港区新橋二丁目19番2号","lat":35.666802,"lon":139.759508,"施設方書":"リプロ新橋ビル3階","施設開設日":"2002/2/20","施設電話番号":"03-3289-3381","診療科目名称":"内科、消化器科、外科、肛門科"},{"name":"医療法人社団淳康会ユナイテッドクリニック新橋院","province":"東京都","city":"港区","address":"東京都港区新橋二丁目19番2号","lat":35.666802,"lon":139.759508,"施設方書":"リプロ新橋4階北","施設開設日":"2019/2/8","施設電話番号":"03-6264-6480","診療科目名称":"男性内科"},{"name":"東京メンタルクリニック","province":"東京都","city":"港区","address":"東京都港区新橋二丁目19番2号","lat":35.666802,"lon":139.759508,"施設方書":"リプロ新橋5階","施設開設日":"2021/5/1","施設電話番号":"03-6263-8314","診療科目名称":"精神科、心療内科、内科"},{"name":"医療法人社団syusuikai銀座ベレアージュクリニック","province":"東京都","city":"港区","address":"東京都港区新橋二丁目19番4号","lat":35.66675,"lon":139.759757,"施設方書":"SNTビル1階・2階","施設開設日":"2020/8/6","施設電話番号":"03-6252-3615","診療科目名称":"内科、美容皮膚科"},{"name":"医療法人社団秀博会 BTRアーツ銀座クリニック","province":"東京都","city":"港区","address":"東京都港区新橋二丁目20番15号","lat":35.666214,"lon":139.759538,"施設方書":"新橋駅前ビル1号館2階201号室","施設開設日":"2016/6/1","施設電話番号":"03-6228-5025","診療科目名称":"内科、皮膚科、脳神経内科"},{"name":"新橋駅前眼科皮フ科","province":"東京都","city":"港区","address":"東京都港区新橋二丁目20番15号","lat":35.666214,"lon":139.759538,"施設方書":"新橋駅前ビル1号館2階206号室","施設開設日":"2022/7/1","施設電話番号":"03-6228-5245","診療科目名称":"眼科、皮膚科"},{"name":"医療法人社団石川記念会 新橋内科クリニック","province":"東京都","city":"港区","address":"東京都港区新橋二丁目21番1号","lat":35.665478,"lon":139.75903,"施設方書":"新橋駅前ビル2号館8階","施設開設日":"2005/8/1","施設電話番号":"03-6253-8701","診療科目名称":"内科"},{"name":"医療法人社団東雲会 新橋虎ノ門健康クリニック","province":"東京都","city":"港区","address":"東京都港区新橋三丁目1番9号","lat":35.666236,"lon":139.75413,"施設方書":"301SHIMBASHI BUILDING3階","施設開設日":"2023/9/1","施設電話番号":"03-6550-9318","診療科目名称":"内科、消化器内科(胃腸内科)、消化器外科(胃腸外科)"},{"name":"新橋14クリニック","province":"東京都","city":"港区","address":"東京都港区新橋三丁目2番2号","lat":35.666637,"lon":139.754764,"施設方書":"ラヴィーナ新橋4階","施設開設日":"2012/6/28","施設電話番号":"03-6206-1582","診療科目名称":"心療内科、精神科、内科、児童・思春期精神科、小児精神科、小児科"},{"name":"リゾナスフェイスクリニック東京","province":"東京都","city":"港区","address":"東京都港区新橋三丁目3番13号","lat":35.665861,"lon":139.753943,"施設方書":"Tsao Hibiya 4階・5階","施設開設日":"2024/3/1","施設電話番号":"03-6273-3252","診療科目名称":"形成外科、美容外科"},{"name":"医療法人社団京仁会 TOMクリニック美容外科新橋院","province":"東京都","city":"港区","address":"東京都港区新橋三丁目7番3号","lat":35.665751,"lon":139.755096,"施設方書":"新橋フォディアビル5階","施設開設日":"2019/1/5","施設電話番号":"03-5510-7600","診療科目名称":"美容外科"},{"name":"新橋スリープ・メンタルクリニック","province":"東京都","city":"港区","address":"東京都港区新橋三丁目7番4号","lat":35.665598,"lon":139.755006,"施設方書":"赤レンガ通りビル3階","施設開設日":"2010/5/21","施設電話番号":"03-6268-8178","診療科目名称":"精神科、心療内科"},{"name":"LonaLonaCLINIC","province":"東京都","city":"港区","address":"東京都港区新橋三丁目7番7号","lat":35.665354,"lon":139.754776,"施設方書":"Tビル2階・3階","施設開設日":"2023/1/5","施設電話番号":"03-3519-6767","診療科目名称":"美容皮膚科、美容内科"},{"name":"新橋トラストクリニック","province":"東京都","city":"港区","address":"東京都港区新橋三丁目11番1号","lat":35.666198,"lon":139.755964,"施設方書":"マルイト新橋ビル1、2、地下1階","施設開設日":"2005/9/2","施設電話番号":"03-5733-3581","診療科目名称":"内科、皮膚科、精神科、整形外科"},{"name":"医療法人社団PrimePartners 新橋ファーストクリニック","province":"東京都","city":"港区","address":"東京都港区新橋三丁目14番5号","lat":35.665448,"lon":139.756174,"施設方書":"S'TEC-3ビル3階","施設開設日":"2018/4/1","施設電話番号":"03-5777-5066","診療科目名称":"皮膚科、泌尿器科"},{"name":"医療法人社団新青会 新橋青木クリニック","province":"東京都","city":"港区","address":"東京都港区新橋三丁目23番4号","lat":35.664635,"lon":139.75795,"施設方書":"青木ビル","施設開設日":"2008/4/1","施設電話番号":"03-3432-0381","診療科目名称":"内科、皮膚科、泌尿器科、心療内科、精神科、腎臓内科、糖尿病内科"},{"name":"医療法人社団進興会 セラヴィ新橋クリニック","province":"東京都","city":"港区","address":"東京都港区新橋四丁目3番1号","lat":35.664931,"lon":139.754649,"施設方書":"新虎安田ビル3階・4階","施設開設日":"2024/3/18","施設電話番号":"03-5408-8690","診療科目名称":"内科"},{"name":"医療法人社団川村内科医院","province":"東京都","city":"港区","address":"東京都港区新橋五丁目10番6号","lat":35.663228,"lon":139.755445,"施設方書":"川村ビル1階","施設開設日":"2017/4/1","施設電話番号":"03-3431-3322","診療科目名称":"内科、消化器内科"},{"name":"医療法人社団悠翔会 悠翔会在宅クリニック新橋","province":"東京都","city":"港区","address":"東京都港区新橋五丁目14番10号","lat":35.661947,"lon":139.756144,"施設方書":"新橋スクエアビル7階","施設開設日":"2015/3/3","施設電話番号":"03-6432-0312","診療科目名称":"内科、緩和ケア内科、精神科、皮膚科"},{"name":"一般財団法人労働医学研究会 新橋クリニック","province":"東京都","city":"港区","address":"東京都港区新橋五丁目15番5号","lat":35.662101,"lon":139.75583,"施設方書":"交通ビル2階","施設開設日":"1997/4/1","施設電話番号":"03-3434-5151","診療科目名称":"内科"},{"name":"公益財団法人原子力安全研究協会放射線災害医療研究所 しおがま診療所","province":"東京都","city":"港区","address":"東京都港区新橋五丁目18番7号","lat":35.662858,"lon":139.755242,"施設方書":"1階","施設開設日":"2013/9/1","施設電話番号":"03-5470-1973","診療科目名称":"内科、放射線科"},{"name":"医療法人社団二藍会 スキンケアクリニック美のかほり","province":"東京都","city":"港区","address":"東京都港区新橋五丁目29番4号","lat":35.662435,"lon":139.755884,"施設方書":"吉岡ビル1階","施設開設日":"2018/10/1","施設電話番号":"03-5776-1112","診療科目名称":"皮膚科、美容皮膚科"},{"name":"いけのうち内科精神科クリニック","province":"東京都","city":"港区","address":"東京都港区新橋五丁目31番7号","lat":35.662376,"lon":139.754974,"施設方書":"フラットビル4階","施設開設日":"2019/1/1","施設電話番号":"03-3242-6139","診療科目名称":"内科、精神科"},{"name":"新橋さくらの園医務室","province":"東京都","city":"港区","address":"東京都港区新橋六丁目19番2号","lat":35.661359,"lon":139.75385,"施設方書":"福祉プラザさくら川6階","施設開設日":"2006/5/1","施設電話番号":"03-3433-0180","診療科目名称":"内科、精神科"},{"name":"医療法人財団南葛勤医協芝診療所","province":"東京都","city":"港区","address":"東京都港区新橋六丁目19番21号","lat":35.661053,"lon":139.753294,"施設方書":"","施設開設日":"2014/4/1","施設電話番号":"03-3432-8701","診療科目名称":"内科、呼吸器内科、乳腺内科、循環器内科、消化器内科"},