{"keyword":"認可","data":[{"name":"グローバルキッズ虎ノ門保育園","province":"東京都","city":"港区","address":"港区虎ノ門三丁目19番13号虎ノ門スピリットビル3階","lat":35.66276,"lon":139.74644},{"name":"にじいろ保育園新橋","province":"東京都","city":"港区","address":"港区新橋六丁目11番13号","lat":35.66134,"lon":139.7547},{"name":"こころ新橋保育園","province":"東京都","city":"港区","address":"港区新橋六丁目4番3号ル・グラシエルビル7号館2階","lat":35.66232,"lon":139.75378},{"name":"芝公園保育園","province":"東京都","city":"港区","address":"港区芝公園二丁目7番3号","lat":35.65449,"lon":139.75043},{"name":"汐留サーノ保育園","province":"東京都","city":"港区","address":"港区浜松町一丁目1番11号","lat":35.65999,"lon":139.75556},{"name":"小鳩ナーサリースクール浜離宮","province":"東京都","city":"港区","address":"港区浜松町一丁目3番1号","lat":35.65956,"lon":139.75742},{"name":"神明保育園","province":"東京都","city":"港区","address":"港区浜松町一丁目6番7号プラザ神明1~3階","lat":35.65886,"lon":139.75752},{"name":"アスク芝公園保育園","province":"東京都","city":"港区","address":"港区芝二丁目12番16号","lat":35.6515,"lon":139.75273},{"name":"ニチイキッズ芝公園保育園","province":"東京都","city":"港区","address":"港区芝二丁目1番27号穴水ビル2階","lat":35.65324,"lon":139.75104},{"name":"にじいろ保育園竹芝","province":"東京都","city":"港区","address":"港区海岸1-13-15","lat":35.65444,"lon":139.76181},{"name":"太陽の子シーバンス保育園","province":"東京都","city":"港区","address":"港区芝浦一丁目2番2号シーバンスアモール3階","lat":35.6498,"lon":139.75661},{"name":"アンジェリカ田町保育園","province":"東京都","city":"港区","address":"港区芝浦一丁目6番41号グローバルフロントタワー1階","lat":35.64734,"lon":139.75528},{"name":"太陽の子芝浦一丁目保育園","province":"東京都","city":"港区","address":"港区芝浦一丁目9番7号芝浦おもだかビル2階、3階","lat":35.64812,"lon":139.7532},{"name":"西麻布保育園","province":"東京都","city":"港区","address":"港区西麻布二丁目13番3号","lat":35.66091,"lon":139.72279},{"name":"コスモス西麻布保育園","province":"東京都","city":"港区","address":"港区西麻布二丁目2番2号NKホームズ1階B","lat":35.66389,"lon":139.72037},{"name":"ｓａｋｕｒａ保育園六本木","province":"東京都","city":"港区","address":"港区六本木4-5-11","lat":35.665,"lon":139.73247},{"name":"リトルパルズ保育園六本木","province":"東京都","city":"港区","address":"港区六本木6-5-27","lat":35.66133,"lon":139.73076},{"name":"まちの保育園六本木","province":"東京都","city":"港区","address":"港区六本木一丁目9番10号アークヒルズ仙石山森タワー","lat":35.66346,"lon":139.74117},{"name":"麻布保育園","province":"東京都","city":"港区","address":"港区六本木五丁目16番46号","lat":35.66081,"lon":139.73579},{"name":"飯倉保育園","province":"東京都","city":"港区","address":"港区東麻布一丁目21番2号","lat":35.65575,"lon":139.74361},{"name":"ふたばクラブ東麻布保育園","province":"東京都","city":"港区","address":"港区東麻布一丁目5番6号","lat":35.65813,"lon":139.74326},{"name":"東麻布保育園","province":"東京都","city":"港区","address":"港区東麻布二丁目1番1号","lat":35.65816,"lon":139.74277},{"name":"ＡＩＡＩ　ＮＵＲＳＥＲＹ麻布十番","province":"東京都","city":"港区","address":"港区東麻布二丁目32番7号ROJUHIGASHIAZABU2階","lat":35.6559,"lon":139.7402},{"name":"麻布十番ちとせ保育園","province":"東京都","city":"港区","address":"港区麻布十番一丁目3番2号","lat":35.65682,"lon":139.73582},{"name":"アイグラン保育園元麻布","province":"東京都","city":"港区","address":"港区元麻布三丁目2番19号MOMON六本木ビル1階","lat":35.65738,"lon":139.72783},{"name":"元麻布保育園","province":"東京都","city":"港区","address":"港区元麻布二丁目14番12号","lat":35.65291,"lon":139.73027},{"name":"まなびの森保育園麻布十番","province":"東京都","city":"港区","address":"港区南麻布一丁目14番1号","lat":35.65102,"lon":139.73424},{"name":"まなびの森保育園麻布","province":"東京都","city":"港区","address":"港区南麻布一丁目8番11号(東町小学校内)","lat":35.65051,"lon":139.73596},{"name":"太陽の子南麻布保育園","province":"東京都","city":"港区","address":"港区南麻布四丁目11番30号南麻布渋谷ビル2階","lat":35.6477,"lon":139.72691},{"name":"南麻布保育園","province":"東京都","city":"港区","address":"港区南麻布四丁目2番29号101","lat":35.64856,"lon":139.72354},{"name":"本村保育園","province":"東京都","city":"港区","address":"港区南麻布四丁目6番7号","lat":35.65039,"lon":139.72707},{"name":"アイグラン保育園南麻布","province":"東京都","city":"港区","address":"港区南麻布二丁目11番10号OJビル3階","lat":35.64766,"lon":139.73599},{"name":"赤坂保育園","province":"東京都","city":"港区","address":"港区赤坂五丁目5番26号101","lat":35.67065,"lon":139.73383},{"name":"赤坂山王保育園","province":"東京都","city":"港区","address":"港区赤坂四丁目1番26号","lat":35.67642,"lon":139.73473},{"name":"赤坂ちとせ保育園","province":"東京都","city":"港区","address":"港区赤坂四丁目7番15号陽栄光和ビル1階","lat":35.67539,"lon":139.73396},{"name":"赤坂クレア保育園","province":"東京都","city":"港区","address":"港区赤坂四丁目9番3号","lat":35.67519,"lon":139.73279},{"name":"太陽の子赤坂保育園","province":"東京都","city":"港区","address":"港区赤坂八丁目12番16号NOZYAKASAKA1階、2階、3階","lat":35.66945,"lon":139.7294},{"name":"青山保育園","province":"東京都","city":"港区","address":"港区北青山三丁目4番1号101","lat":35.66728,"lon":139.7123},{"name":"おはよう保育園　ののあおやま","province":"東京都","city":"港区","address":"港区北青山三丁目4番3号","lat":35.66728,"lon":139.7123},{"name":"南青山保育園","province":"東京都","city":"港区","address":"港区南青山一丁目3番15号","lat":35.67149,"lon":139.72536},{"name":"アイグラン保育園青山一丁目","province":"東京都","city":"港区","address":"港区南青山一丁目3番1号パークアクシス青山一丁目タワー2階","lat":35.67149,"lon":139.72536},{"name":"小学館アカデミー南青山保育園","province":"東京都","city":"港区","address":"港区南青山四丁目15番8号南青山246ビル","lat":35.66496,"lon":139.71846},{"name":"太陽の子南青山保育園","province":"東京都","city":"港区","address":"港区南青山四丁目1番6号セブン南青山ビル1階2階","lat":35.66716,"lon":139.71936},{"name":"芝保育園","province":"東京都","city":"港区","address":"港区芝五丁目18番1号","lat":35.64831,"lon":139.74518},{"name":"にじいろ保育園海岸三丁目","province":"東京都","city":"港区","address":"港区海岸三丁目16番6号","lat":35.64248,"lon":139.75586},{"name":"しばうら保育園","province":"東京都","city":"港区","address":"港区芝浦三丁目1番16号","lat":35.64499,"lon":139.74889},{"name":"太陽の子芝浦三丁目保育園","province":"東京都","city":"港区","address":"港区芝浦三丁目20番2号山楽ビル2階、3階","lat":35.64198,"lon":139.74719},{"name":"アスク芝浦４丁目保育園","province":"東京都","city":"港区","address":"港区芝浦四丁目12番28号","lat":35.64024,"lon":139.74895},{"name":"デイジー保育園芝浦","province":"東京都","city":"港区","address":"港区芝浦四丁目17番3号芝浦NAビル3階","lat":35.63691,"lon":139.74776},{"name":"芝浦アイランドこども園","province":"東京都","city":"港区","address":"港区芝浦四丁目20番1号","lat":35.6404344,"lon":139.7525104},{"name":"にじのいるか保育園芝浦","province":"東京都","city":"港区","address":"港区芝浦二丁目3番31号第二高取ビル2階","lat":35.64408,"lon":139.7545},{"name":"太陽の子芝浦二丁目保育園","province":"東京都","city":"港区","address":"港区芝浦二丁目9番1号ブランズタワー芝浦2階","lat":35.64342,"lon":139.75296},{"name":"アイグラン保育園白金台","province":"東京都","city":"港区","address":"港区白金台3-13-18","lat":35.63581,"lon":139.72485},{"name":"えほんのもり白金台保育園","province":"東京都","city":"港区","address":"港区白金台二丁目11番3号","lat":35.63264,"lon":139.73074},{"name":"ニチイキッズ白金台保育園","province":"東京都","city":"港区","address":"港区白金台二丁目26番10号グリーンオーク高輪台2階","lat":35.6319,"lon":139.72984},{"name":"ゆらりん白金保育園","province":"東京都","city":"港区","address":"港区白金一丁目26番10号白金K-FLAT1階、2階の一部","lat":35.64402,"lon":139.73335},{"name":"スターチャイルド白金高輪ナーサリー","province":"東京都","city":"港区","address":"港区白金一丁目2番1号スターチャイルド白金高輪ナーサリー","lat":35.64641,"lon":139.73457},{"name":"白金保育園","province":"東京都","city":"港区","address":"港区白金三丁目10番12号","lat":35.64518,"lon":139.73108},{"name":"ミアヘルサ保育園ひびき白金高輪","province":"東京都","city":"港区","address":"港区白金三丁目2番3号","lat":35.6465,"lon":139.73122},{"name":"みつばち保育園","province":"東京都","city":"港区","address":"港区白金四丁目7番2号","lat":35.64256,"lon":139.72835},{"name":"太陽の子三田保育園","province":"東京都","city":"港区","address":"港区三田一丁目2番18号TTDPLAZAビル2階","lat":35.65503,"lon":139.74052},{"name":"アイグラン保育園赤羽橋","province":"東京都","city":"港区","address":"港区三田一丁目3番31号Forecast三田2階","lat":35.6546,"lon":139.74344},{"name":"うれしい保育園白金高輪","province":"東京都","city":"港区","address":"港区三田五丁目17番2号","lat":35.6451,"lon":139.73694},{"name":"太陽の子三田五丁目保育園","province":"東京都","city":"港区","address":"港区三田五丁目4番3号三田プラザビル3階","lat":35.64762,"lon":139.73889},{"name":"伊皿子坂保育園","province":"東京都","city":"港区","address":"港区三田四丁目19番30号","lat":35.64084,"lon":139.73956},{"name":"高輪さつき保育園","province":"東京都","city":"港区","address":"港区高輪一丁目16番15号自動車部品会館2階","lat":35.64091,"lon":139.73421},{"name":"愛星保育園","province":"東京都","city":"港区","address":"港区高輪一丁目27番40号","lat":35.63655,"lon":139.73232},{"name":"ゆらりん高輪保育園","province":"東京都","city":"港区","address":"港区高輪一丁目5番38号HUG高輪1階、2階","lat":35.642,"lon":139.73677},{"name":"みなと保育園","province":"東京都","city":"港区","address":"港区高輪一丁目6番9号","lat":35.6423,"lon":139.73553},{"name":"高輪保育園","province":"東京都","city":"港区","address":"港区高輪三丁目18番15号","lat":35.63314,"lon":139.7354},{"name":"高輪夢保育園","province":"東京都","city":"港区","address":"港区高輪三丁目4番3号","lat":35.63111,"lon":139.73883},{"name":"ほっぺるランド高輪二丁目","province":"東京都","city":"港区","address":"港区高輪二丁目16番8号","lat":35.63874,"lon":139.73901},{"name":"さくらさくみらい高輪","province":"東京都","city":"港区","address":"港区高輪二丁目6番21号","lat":35.63588,"lon":139.7336},{"name":"ゆらりん港南保育園","province":"東京都","city":"港区","address":"港区港南一丁目6番27号芝浦クリスタル品川港南2階","lat":35.63041,"lon":139.74547},{"name":"ゆらりんはぁと保育園","province":"東京都","city":"港区","address":"港区港南一丁目8番23号ShinagawaHEART2階","lat":35.63012,"lon":139.74399},{"name":"グローバルキッズ港南保育園","province":"東京都","city":"港区","address":"港区港南四丁目1番8号リバージュ品川2階","lat":35.62985,"lon":139.74661},{"name":"こうなん保育園","province":"東京都","city":"港区","address":"港区港南四丁目2番3号101","lat":35.6291,"lon":139.74774},{"name":"たかはま保育園","province":"東京都","city":"港区","address":"港区港南四丁目3番7号","lat":35.62935,"lon":139.74971},{"name":"ベネッセ港南保育園","province":"東京都","city":"港区","address":"港区港南四丁目6番7号","lat":35.62699,"lon":139.75101},{"name":"ゆらりん港南緑水保育園","province":"東京都","city":"港区","address":"港区港南四丁目7番37号(港南緑水公園内)","lat":35.62992,"lon":139.75125},{"name":"ふたばクラブ港南保育園","province":"東京都","city":"港区","address":"港区港南二丁目16番6号CanonSタワー","lat":35.62649,"lon":139.74068},{"name":"台場保育園","province":"東京都","city":"港区","address":"港区台場一丁目3番6号お台場レインボー公園内仮設園舎","lat":35.63247,"lon":139.7782},{"name":"神応保育園","province":"東京都","city":"港区","address":"港区白金六丁目9番5号","lat":35.64348,"lon":139.72458},{"name":"芝保育園","province":"東京都","city":"港区","address":"港区芝五丁目18番1号101","lat":35.64806,"lon":139.74849},{"name":"汐留サーノ保育園","province":"東京都","city":"港区","address":"港区浜松町一丁目1番11号","lat":35.66024098,"lon":139.7553959},{"name":"AIAI NURSERY麻布十番","province":"東京都","city":"港区","address":"港区東麻布二丁目32番7号麻布アコービル2階","lat":35.6559,"lon":139.7402},{"name":"あい保育園元麻布","province":"東京都","city":"港区","address":"港区元麻布三丁目2番19号MOMON六本木ビル2階","lat":35.65738,"lon":139.72783},{"name":"あい保育園南麻布","province":"東京都","city":"港区","address":"港区南麻布二丁目11番10号OJビル3階","lat":35.64766,"lon":139.73599},{"name":"あい保育園青山一丁目","province":"東京都","city":"港区","address":"港区南青山一丁目3番1号パークアクシス青山一丁目タワー2階","lat":35.67149,"lon":139.72536},{"name":"あい保育園白金台","province":"東京都","city":"港区","address":"港区白金台3-13-18","lat":35.63581,"lon":139.72485},{"name":"あい保育園赤羽橋","province":"東京都","city":"港区","address":"港区三田一丁目3番31号Forecast三田2階","lat":35.6546,"lon":139.74344},{"name":"台場保育園","province":"東京都","city":"港区","address":"港区台場一丁目5番1号","lat":35.63018,"lon":139.77794},{"name":"小鳩ナーサリースクール浜離宮","province":"東京都","city":"港区","address":"港区浜松町1-3、4、5","lat":35.65979,"lon":139.75726},{"name":"あい・あい保育園麻布十番園","province":"東京都","city":"港区","address":"港区東麻布2-32-7","lat":35.6559,"lon":139.7402},{"name":"太陽の子芝浦二丁目保育園","province":"東京都","city":"港区","address":"港区芝浦2-17-9大友ビル1階","lat":35.64512,"lon":139.75261},{"name":"マリー保育園白金高輪","province":"東京都","city":"港区","address":"港区白金3-2-3","lat":35.6465,"lon":139.73122},{"name":"sakura保育園六本木","province":"東京都","city":"港区","address":"港区六本木4-5-11","lat":35.665,"lon":139.73247},{"name":"おはよう保育園　 ののあおやま","province":"東京都","city":"港区","address":"港区北青山3-4-3","lat":35.66728,"lon":139.7123},{"name":"グローバルキッズ虎ノ門保育園","province":"東京都","city":"港区","address":"港区虎ノ門3-19-13虎ノ門スピリットビル3階","lat":35.66276,"lon":139.74645},{"name":"小鳩ナーサリースクール浜離宮","province":"東京都","city":"港区","address":"港区浜松町1-3-1","lat":35.65957,"lon":139.75742},{"name":"sakura保育園六本木","province":"東京都","city":"港区","address":"港区六本木4-5-11","lat":35.66501,"lon":139.73247},{"name":"麻布十番ちとせ保育園","province":"東京都","city":"港区","address":"港区麻布十番1-3-2","lat":35.65682,"lon":139.73583},{"name":"にじのいるか保育園芝浦","province":"東京都","city":"港区","address":"港区芝浦2-3-31第二高取ビル2階","lat":35.64409,"lon":139.7545},{"name":"みなと保育園","province":"東京都","city":"港区","address":"港区高輪1-6-9","lat":35.6423,"lon":139.73554},{"name":"愛星保育園","province":"東京都","city":"港区","address":"港区高輪1-27-40","lat":35.63656,"lon":139.73232},{"name":"こうなん保育園","province":"東京都","city":"港区","address":"港区港南4-2-3-101","lat":35.62911,"lon":139.74774},{"name":"ゆらりんは?anitize]と保育園","province":"東京都","city":"港区","address":"港区港南1-8-23ShinagawaHEART2階","lat":35.63012,"lon":139.74399},{"name":"グローバルキッズ虎ノ門保育園","province":"東京都","city":"港区","address":"港区虎ノ門三丁目19番13号虎ノ門スピリットビル3階","lat":35.66431,"lon":139.74707},{"name":"太陽の子芝浦一丁目保育園","province":"東京都","city":"港区","address":"港区芝浦一丁目9番7号芝浦おもだかビル2階、3階","lat":35.64431,"lon":139.75383},{"name":"あい保育園青山一丁目","province":"東京都","city":"港区","address":"港区南青山一丁目3番1号パークアクシス青山一丁目タワー2階","lat":35.67211,"lon":139.72522},{"name":"ゆらりん白金保育園","province":"東京都","city":"港区","address":"港区白金一丁目26番10号白金K-FLAT1階、2階の一部","lat":35.64508,"lon":139.73341},{"name":"太陽の子三田五丁目保育園","province":"東京都","city":"港区","address":"港区三田五丁目4番3号三田プラザビル3階","lat":35.644,"lon":139.74289},{"name":"こころ新橋保育園","province":"東京都","city":"港区","address":"東京都港区新橋六丁目4番3号ル・グラシエルビル7号館2階","lat":35.663617,"lon":139.753196,"地区":"芝","種別":"私立","休園日":"日・祝・年末年始","延長保育":"20:15まで","施設種別":"認可保育園","電話番号":"03-6432-0941","入園可能月齢":"57日","延長保育対象月齢":"57日","標準時間終了時間":"18:15","標準時間開始時間":"7:15","保育園ホームページ":"<a href='https://www.taiyo.ed.jp/kokoro-shinbashi/' target='_blank'>https://www.taiyo.ed.jp/kokoro-shinbashi/</a>","短時間保育終了時間":"17:00","短時間保育開始時間":"9:00","保育年齢別定員　0歳":"5","保育年齢別定員　1歳":"5","保育年齢別定員　2歳":"5","保育年齢別定員　3歳":"11","保育年齢別定員　4歳":"11","保育年齢別定員　5歳":"11","保育年齢別定員　合計":"48","運営事業者(指定管理者)":"(学)太陽学院"},{"name":"小鳩ナーサリースクール浜離宮","province":"東京都","city":"港区","address":"東京都港区浜松町一丁目3番1号","lat":35.659878,"lon":139.756993,"地区":"芝","種別":"私立","休園日":"日・祝・年末年始","延長保育":"20:15まで","施設種別":"認可保育園","電話番号":"03-6432-0123","入園可能月齢":"3か月","延長保育対象月齢":"3か月","標準時間終了時間":"18:15","標準時間開始時間":"7:15","保育園ホームページ":"<a href='https://www.kobato.net/hamarikyu/' target='_blank'>https://www.kobato.net/hamarikyu/</a>","短時間保育終了時間":"17:00","短時間保育開始時間":"9:00","保育年齢別定員　0歳":"6","保育年齢別定員　1歳":"7","保育年齢別定員　2歳":"7","保育年齢別定員　3歳":"6","保育年齢別定員　4歳":"6","保育年齢別定員　5歳":"6","保育年齢別定員　合計":"38","運営事業者(指定管理者)":"(株)チャイルド・ピース"},{"name":"ニチイキッズ芝公園保育園","province":"東京都","city":"港区","address":"東京都港区芝二丁目1番27号穴水ビル2階","lat":35.653349,"lon":139.751196,"地区":"芝","種別":"私立","休園日":"日・祝・年末年始","延長保育":"20:15まで","施設種別":"認可保育園","電話番号":"03-5765-5075","入園可能月齢":"57日","延長保育対象月齢":"1歳の誕生日","標準時間終了時間":"18:15","標準時間開始時間":"7:15","保育園ホームページ":"<a href='https://www.nichiikids.net/nursery/other/shibakouen/index.html' target='_blank'>https://www.nichiikids.net/nursery/other/shibakouen/index.html</a>","短時間保育終了時間":"17:00","短時間保育開始時間":"9:00","保育年齢別定員　0歳":"6","保育年齢別定員　1歳":"7","保育年齢別定員　2歳":"8","保育年齢別定員　3歳":"8","保育年齢別定員　4歳":"8","保育年齢別定員　5歳":"8","保育年齢別定員　合計":"45","運営事業者(指定管理者)":"(株)ニチイ学館"},{"name":"にじいろ保育園竹芝","province":"東京都","city":"港区","address":"東京都港区海岸一丁目13番15号","lat":35.654298,"lon":139.761854,"地区":"芝","種別":"私立","休園日":"日・祝・年末年始","延長保育":"20:15まで","施設種別":"認可保育園","電話番号":"03-6381-5195","入園可能月齢":"57日","延長保育対象月齢":"57日","標準時間終了時間":"18:15","標準時間開始時間":"7:15","保育園ホームページ":"<a href='https://www.like-kd.co.jp/establishment/nijiiro/HPtakeshiba' target='_blank'>https://www.like-kd.co.jp/establishment/nijiiro/HPtakeshiba</a>","短時間保育終了時間":"17:00","短時間保育開始時間":"9:00","保育年齢別定員　0歳":"3","保育年齢別定員　1歳":"5","保育年齢別定員　2歳":"6","保育年齢別定員　3歳":"6","保育年齢別定員　4歳":"6","保育年齢別定員　5歳":"6","保育年齢別定員　合計":"32","運営事業者(指定管理者)":"ライクキッズ(株)"},{"name":"にじいろ保育園新橋","province":"東京都","city":"港区","address":"東京都港区新橋六丁目11番13号","lat":35.661615,"lon":139.754608,"地区":"芝","種別":"私立","休園日":"日・祝・年末年始","延長保育":"20:15まで","施設種別":"認可保育園","電話番号":"03-6432-0540","入園可能月齢":"57日","延長保育対象月齢":"57日","標準時間終了時間":"18:15","標準時間開始時間":"7:15","保育園ホームページ":"<a href='https://www.like-kd.co.jp/establishment/nijiiro/HPshinbashi' target='_blank'>https://www.like-kd.co.jp/establishment/nijiiro/HPshinbashi</a>","短時間保育終了時間":"17:00","短時間保育開始時間":"9:00","保育年齢別定員　0歳":"3","保育年齢別定員　1歳":"10","保育年齢別定員　2歳":"11","保育年齢別定員　3歳":"12","保育年齢別定員　4歳":"12","保育年齢別定員　5歳":"","保育年齢別定員　合計":"48","運営事業者(指定管理者)":"ライクキッズ(株)"},{"name":"汐留サーノ保育園","province":"東京都","city":"港区","address":"東京都港区浜松町一丁目1番11号","lat":35.659988,"lon":139.755407,"地区":"芝","種別":"私立","休園日":"日・祝・年末年始","延長保育":"20:15まで","施設種別":"認可保育園","電話番号":"03-6452-8944","入園可能月齢":"57日","延長保育対象月齢":"1歳の誕生日","標準時間終了時間":"18:15","標準時間開始時間":"7:15","保育園ホームページ":"<a href='https://shiodome-kids.com/' target='_blank'>https://shiodome-kids.com/</a>","短時間保育終了時間":"17:00","短時間保育開始時間":"9:00","保育年齢別定員　0歳":"6","保育年齢別定員　1歳":"14","保育年齢別定員　2歳":"15","保育年齢別定員　3歳":"15","保育年齢別定員　4歳":"15","保育年齢別定員　5歳":"15","保育年齢別定員　合計":"80","運営事業者(指定管理者)":"(福)寿広福祉会"},{"name":"麻布保育園","province":"東京都","city":"港区","address":"東京都港区六本木五丁目16番46号","lat":35.660657,"lon":139.735091,"地区":"麻布","種別":"区立","休園日":"日・祝・年末年始","延長保育":"20:15まで","施設種別":"認可保育園","電話番号":"03-5545-7135","入園可能月齢":"3か月","延長保育対象月齢":"1歳の誕生日","標準時間終了時間":"18:15","標準時間開始時間":"7:15","保育園ホームページ":"<a href='https://www.city.minato.tokyo.jp/kodomo/kodomo/kodomo/hoikuen/03/index.html' target='_blank'>https://www.city.minato.tokyo.jp/kodomo/kodomo/kodomo/hoikuen/03/index.html</a>","短時間保育終了時間":"17:00","短時間保育開始時間":"9:00","保育年齢別定員　0歳":"15","保育年齢別定員　1歳":"20","保育年齢別定員　2歳":"25","保育年齢別定員　3歳":"27","保育年齢別定員　4歳":"27","保育年齢別定員　5歳":"27","保育年齢別定員　合計":"141","運営事業者(指定管理者)":""},{"name":"東麻布保育園","province":"東京都","city":"港区","address":"東京都港区東麻布二丁目1番1号","lat":35.658212,"lon":139.74262,"地区":"麻布","種別":"区立","休園日":"年末年始","延長保育":"22:00まで","施設種別":"認可保育園","電話番号":"03-3584-3811","入園可能月齢":"3か月","延長保育対象月齢":"1歳の誕生日","標準時間終了時間":"18:15","標準時間開始時間":"7:15","保育園ホームページ":"<a href='https://www.city.minato.tokyo.jp/kodomo/kodomo/kodomo/hoikuen/25/index.html' target='_blank'>https://www.city.minato.tokyo.jp/kodomo/kodomo/kodomo/hoikuen/25/index.html</a>","短時間保育終了時間":"17:00","短時間保育開始時間":"9:00","保育年齢別定員　0歳":"17","保育年齢別定員　1歳":"25","保育年齢別定員　2歳":"28","保育年齢別定員　3歳":"30","保育年齢別定員　4歳":"30","保育年齢別定員　5歳":"30","保育年齢別定員　合計":"160","運営事業者(指定管理者)":"労働者協同組合 ワーカーズコープ・センター事業団"},{"name":"元麻布保育園","province":"東京都","city":"港区","address":"東京都港区元麻布二丁目14番12号","lat":35.653073,"lon":139.730217,"地区":"麻布","種別":"区立","休園日":"年末年始","延長保育":"22:00まで","施設種別":"認可保育園","電話番号":"03-5422-7338","入園可能月齢":"3か月","延長保育対象月齢":"1歳の誕生日","標準時間終了時間":"18:15","標準時間開始時間":"7:15","保育園ホームページ":"<a href='https://www.city.minato.tokyo.jp/kodomo/kodomo/kodomo/hoikuen/26/index.html' target='_blank'>https://www.city.minato.tokyo.jp/kodomo/kodomo/kodomo/hoikuen/26/index.html</a>","短時間保育終了時間":"17:00","短時間保育開始時間":"9:00","保育年齢別定員　0歳":"22","保育年齢別定員　1歳":"25","保育年齢別定員　2歳":"26","保育年齢別定員　3歳":"31","保育年齢別定員　4歳":"31","保育年齢別定員　5歳":"31","保育年齢別定員　合計":"166","運営事業者(指定管理者)":"(福)春和会"},{"name":"まちの保育園 六本木","province":"東京都","city":"港区","address":"東京都港区六本木一丁目9番10号アークヒルズ仙石山森タワー","lat":35.663588,"lon":139.741813,"地区":"麻布","種別":"私立","休園日":"日・祝・年末年始","延長保育":"20:30まで","施設種別":"認可保育園","電話番号":"03-6441-2478","入園可能月齢":"57日","延長保育対象月齢":"1歳の誕生日を過ぎた翌月1日","標準時間終了時間":"18:30","標準時間開始時間":"7:30","保育園ホームページ":"","短時間保育終了時間":"17:00","短時間保育開始時間":"9:00","保育年齢別定員　0歳":"11","保育年齢別定員　1歳":"13","保育年齢別定員　2歳":"14","保育年齢別定員　3歳":"","保育年齢別定員　4歳":"","保育年齢別定員　5歳":"","保育年齢別定員　合計":"38","運営事業者(指定管理者)":"ナチュラルスマイルジャパン(株)"},{"name":"まちの保育園 六本木分園","province":"東京都","city":"港区","address":"東京都港区虎ノ門五丁目5番1号アークヒルズ仙石山テラス103","lat":35.663636,"lon":139.74188,"地区":"麻布","種別":"私立","休園日":"日・祝・年末年始","延長保育":"20:30まで","施設種別":"認可保育園","電話番号":"03-6450-1726","入園可能月齢":"","延長保育対象月齢":"1歳の誕生日を過ぎた翌月1日","標準時間終了時間":"18:30","標準時間開始時間":"7:30","保育園ホームページ":"","短時間保育終了時間":"17:00","短時間保育開始時間":"9:00","保育年齢別定員　0歳":"","保育年齢別定員　1歳":"","保育年齢別定員　2歳":"","保育年齢別定員　3歳":"14","保育年齢別定員　4歳":"9","保育年齢別定員　5歳":"9","保育年齢別定員　合計":"32","運営事業者(指定管理者)":"ナチュラルスマイルジャパン(株)"},{"name":"AIAI NURSERY麻布十番","province":"東京都","city":"港区","address":"東京都港区東麻布二丁目32番7号ROJUHIGASHIAZABU2階","lat":35.656032,"lon":139.740453,"地区":"麻布","種別":"私立","休園日":"日・祝・年末年始","延長保育":"19:30まで","施設種別":"認可保育園","電話番号":"03-5545-5461","入園可能月齢":"57日","延長保育対象月齢":"1歳の誕生日を過ぎた翌月1日","標準時間終了時間":"18:30","標準時間開始時間":"7:30","保育園ホームページ":"<a href='https://nursery.aiai-cc.co.jp/facility/azabujyuban/' target='_blank'>https://nursery.aiai-cc.co.jp/facility/azabujyuban/</a>","短時間保育終了時間":"17:00","短時間保育開始時間":"9:00","保育年齢別定員　0歳":"6","保育年齢別定員　1歳":"8","保育年齢別定員　2歳":"9","保育年齢別定員　3歳":"9","保育年齢別定員　4歳":"9","保育年齢別定員　5歳":"9","保育年齢別定員　合計":"50","運営事業者(指定管理者)":"AIAI Child Care(株)"},{"name":"コスモス西麻布保育園","province":"東京都","city":"港区","address":"東京都港区西麻布二丁目2番2号NK青山ホームズ1階B","lat":35.661597,"lon":139.724999,"地区":"麻布","種別":"私立","休園日":"日・祝・年末年始","延長保育":"20:15まで","施設種別":"認可保育園","電話番号":"03-6427-3733","入園可能月齢":"57日","延長保育対象月齢":"1歳の誕生日を過ぎた翌月1日","標準時間終了時間":"18:15","標準時間開始時間":"7:15","保育園ホームページ":"<a href='https://www.senseikai.or.jp/publics/index/26/' target='_blank'>https://www.senseikai.or.jp/publics/index/26/</a>","短時間保育終了時間":"17:00","短時間保育開始時間":"9:00","保育年齢別定員　0歳":"3","保育年齢別定員　1歳":"8","保育年齢別定員　2歳":"9","保育年齢別定員　3歳":"10","保育年齢別定員　4歳":"10","保育年齢別定員　5歳":"10","保育年齢別定員　合計":"50","運営事業者(指定管理者)":"(福)千成会"},{"name":"ふたばクラブ東麻布保育園","province":"東京都","city":"港区","address":"東京都港区東麻布一丁目5番6号","lat":35.657895,"lon":139.743181,"地区":"麻布","種別":"私立","休園日":"日・祝・年末年始","延長保育":"19:30まで","施設種別":"認可保育園","電話番号":"03-5797-8728","入園可能月齢":"57日","延長保育対象月齢":"1歳の誕生日","標準時間終了時間":"18:30","標準時間開始時間":"7:30","保育園ホームページ":"<a href='https://futabaclub.jp/higashiazabu.html' target='_blank'>https://futabaclub.jp/higashiazabu.html</a>","短時間保育終了時間":"17:00","短時間保育開始時間":"9:00","保育年齢別定員　0歳":"9","保育年齢別定員　1歳":"10","保育年齢別定員　2歳":"10","保育年齢別定員　3歳":"10","保育年齢別定員　4歳":"10","保育年齢別定員　5歳":"10","保育年齢別定員　合計":"59","運営事業者(指定管理者)":"双葉教育(株)"},{"name":"まなびの森保育園麻布十番","province":"東京都","city":"港区","address":"東京都港区南麻布一丁目14番1号","lat":35.651137,"lon":139.734086,"地区":"麻布","種別":"私立","休園日":"日・祝・年末年始","延長保育":"20:15まで","施設種別":"認可保育園","電話番号":"03-6436-7887","入園可能月齢":"57日","延長保育対象月齢":"1歳の誕生日","標準時間終了時間":"18:15","標準時間開始時間":"7:15","保育園ホームページ":"<a href='http://kodomonomori.co.jp/jb/' target='_blank'>http://kodomonomori.co.jp/jb/</a>","短時間保育終了時間":"17:00","短時間保育開始時間":"9:00","保育年齢別定員　0歳":"6","保育年齢別定員　1歳":"11","保育年齢別定員　2歳":"11","保育年齢別定員　3歳":"11","保育年齢別定員　4歳":"11","保育年齢別定員　5歳":"11","保育年齢別定員　合計":"61","運営事業者(指定管理者)":"(株)こどもの森"},{"name":"麻布十番ちとせ保育園","province":"東京都","city":"港区","address":"東京都港区麻布十番一丁目3番2号","lat":35.656991,"lon":139.735836,"地区":"麻布","種別":"私立","休園日":"日・祝・年末年始","延長保育":"20:15まで","施設種別":"認可保育園","電話番号":"03-3586-1058","入園可能月齢":"57日","延長保育対象月齢":"1歳の誕生日","標準時間終了時間":"18:15","標準時間開始時間":"7:15","保育園ホームページ":"<a href='https://www.chitosek.or.jp/preschools/azabujuban' target='_blank'>https://www.chitosek.or.jp/preschools/azabujuban</a>","短時間保育終了時間":"17:00","短時間保育開始時間":"9:00","保育年齢別定員　0歳":"6","保育年齢別定員　1歳":"10","保育年齢別定員　2歳":"11","保育年齢別定員　3歳":"11","保育年齢別定員　4歳":"11","保育年齢別定員　5歳":"11","保育年齢別定員　合計":"60","運営事業者(指定管理者)":"(福)ちとせ交友会"},{"name":"sakura保育園六本木","province":"東京都","city":"港区","address":"東京都港区六本木四丁目5番11号","lat":35.664764,"lon":139.732417,"地区":"麻布","種別":"私立","休園日":"日・祝・年末年始","延長保育":"20:30まで","施設種別":"認可保育園","電話番号":"03-6434-5011","入園可能月齢":"57日","延長保育対象月齢":"1歳の誕生日を過ぎた翌月1日","標準時間終了時間":"18:30","標準時間開始時間":"7:30","保育園ホームページ":"<a href='https://sakurakids.net/' target='_blank'>https://sakurakids.net/</a>","短時間保育終了時間":"17:00","短時間保育開始時間":"9:00","保育年齢別定員　0歳":"6","保育年齢別定員　1歳":"10","保育年齢別定員　2歳":"12","保育年齢別定員　3歳":"12","保育年齢別定員　4歳":"12","保育年齢別定員　5歳":"12","保育年齢別定員　合計":"64","運営事業者(指定管理者)":"(株)マーシャルアーツドットコム"},{"name":"リトルパルズ保育園六本木","province":"東京都","city":"港区","address":"東京都港区六本木六丁目5番27号","lat":35.660996,"lon":139.731241,"地区":"麻布","種別":"私立","休園日":"日・祝・年末年始","延長保育":"19:30まで","施設種別":"認可保育園","電話番号":"050-1741-0790","入園可能月齢":"57日","延長保育対象月齢":"57日","標準時間終了時間":"18:30","標準時間開始時間":"7:30","保育園ホームページ":"<a href='https://wb-hoikuen.jp/tokyo/roppongi' target='_blank'>https://wb-hoikuen.jp/tokyo/roppongi</a>","短時間保育終了時間":"17:00","短時間保育開始時間":"9:00","保育年齢別定員　0歳":"9","保育年齢別定員　1歳":"12","保育年齢別定員　2歳":"12","保育年齢別定員　3歳":"12","保育年齢別定員　4歳":"8","保育年齢別定員　5歳":"7","保育年齢別定員　合計":"60","運営事業者(指定管理者)":"(株)アイ・エス・シー"},{"name":"青山保育園","province":"東京都","city":"港区","address":"東京都港区北青山三丁目4番1号101","lat":35.668127,"lon":139.71402,"地区":"赤坂","種別":"区立","休園日":"日・祝・年末年始","延長保育":"20:15まで","施設種別":"認可保育園","電話番号":"03-3401-1723","入園可能月齢":"57日","延長保育対象月齢":"1歳の誕生日","標準時間終了時間":"18:15","標準時間開始時間":"7:15","保育園ホームページ":"<a href='https://www.city.minato.tokyo.jp/kodomo/kodomo/kodomo/hoikuen/02/index.html' target='_blank'>https://www.city.minato.tokyo.jp/kodomo/kodomo/kodomo/hoikuen/02/index.html</a>","短時間保育終了時間":"17:00","短時間保育開始時間":"9:00","保育年齢別定員　0歳":"14","保育年齢別定員　1歳":"20","保育年齢別定員　2歳":"22","保育年齢別定員　3歳":"24","保育年齢別定員　4歳":"24","保育年齢別定員　5歳":"24","保育年齢別定員　合計":"128","運営事業者(指定管理者)":""},{"name":"赤坂山王保育園","province":"東京都","city":"港区","address":"東京都港区赤坂四丁目1番26号","lat":35.676397,"lon":139.734702,"地区":"赤坂","種別":"私立","休園日":"日・祝・年末年始","延長保育":"20:15まで","施設種別":"認可保育園","電話番号":"03-5114-5605","入園可能月齢":"57日","延長保育対象月齢":"1歳の誕生日","標準時間終了時間":"18:15","標準時間開始時間":"7:15","保育園ホームページ":"<a href='https://hoyukai.iuhw.ac.jp/akasakasanno-h/' target='_blank'>https://hoyukai.iuhw.ac.jp/akasakasanno-h/</a>","短時間保育終了時間":"17:00","短時間保育開始時間":"9:00","保育年齢別定員　0歳":"15","保育年齢別定員　1歳":"20","保育年齢別定員　2歳":"20","保育年齢別定員　3歳":"22","保育年齢別定員　4歳":"22","保育年齢別定員　5歳":"22","保育年齢別定員　合計":"121","運営事業者(指定管理者)":"(福)邦友会"},{"name":"赤坂クレア保育園","province":"東京都","city":"港区","address":"東京都港区赤坂四丁目9番3号","lat":35.675472,"lon":139.732987,"地区":"赤坂","種別":"私立","休園日":"日・祝・年末年始","延長保育":"20:15まで","施設種別":"認可保育園","電話番号":"03-6812-9268","入園可能月齢":"57日","延長保育対象月齢":"1歳の誕生日","標準時間終了時間":"18:15","標準時間開始時間":"7:15","保育園ホームページ":"<a href='http://akasaka-crea.com/' target='_blank'>http://akasaka-crea.com/</a>","短時間保育終了時間":"17:00","短時間保育開始時間":"9:00","保育年齢別定員　0歳":"6","保育年齢別定員　1歳":"6","保育年齢別定員　2歳":"8","保育年齢別定員　3歳":"10","保育年齢別定員　4歳":"8","保育年齢別定員　5歳":"2","保育年齢別定員　合計":"40","運営事業者(指定管理者)":"(福)慈光福祉会"},{"name":"おはよう保育園ののあおやま","province":"東京都","city":"港区","address":"東京都港区北青山三丁目4番3号","lat":35.666941,"lon":139.7127,"地区":"赤坂","種別":"私立","休園日":"日・祝・年末年始","延長保育":"19:30まで","施設種別":"認可保育園","電話番号":"03-6447-0195","入園可能月齢":"57日","延長保育対象月齢":"1歳の誕生日","標準時間終了時間":"18:30","標準時間開始時間":"7:30","保育園ホームページ":"<a href='https://www.ohayokids.co.jp/shisetsu_nonoaoyama.html' target='_blank'>https://www.ohayokids.co.jp/shisetsu_nonoaoyama.html</a>","短時間保育終了時間":"17:00","短時間保育開始時間":"9:00","保育年齢別定員　0歳":"3","保育年齢別定員　1歳":"4","保育年齢別定員　2歳":"4","保育年齢別定員　3歳":"4","保育年齢別定員　4歳":"3","保育年齢別定員　5歳":"2","保育年齢別定員　合計":"20","運営事業者(指定管理者)":"(株)おはようキッズ"},{"name":"神応保育園","province":"東京都","city":"港区","address":"東京都港区白金六丁目9番5号神応ほっとプラザ1・2階","lat":35.643631,"lon":139.724609,"地区":"高輪","種別":"区立","休園日":"年末年始","延長保育":"22:00まで","施設種別":"認可保育園","電話番号":"03-5422-6363","入園可能月齢":"3か月","延長保育対象月齢":"1歳の誕生日","標準時間終了時間":"18:15","標準時間開始時間":"7:15","保育園ホームページ":"<a href='https://www.city.minato.tokyo.jp/uneishien/hoikuen/shinnou.html' target='_blank'>https://www.city.minato.tokyo.jp/uneishien/hoikuen/shinnou.html</a>","短時間保育終了時間":"17:00","短時間保育開始時間":"9:00","保育年齢別定員　0歳":"9","保育年齢別定員　1歳":"15","保育年齢別定員　2歳":"18","保育年齢別定員　3歳":"24","保育年齢別定員　4歳":"24","保育年齢別定員　5歳":"24","保育年齢別定員　合計":"114","運営事業者(指定管理者)":"(株)アソシエ・インターナショナル"},{"name":"ミアヘルサ保育園ゆらりん高輪","province":"東京都","city":"港区","address":"東京都港区高輪一丁目5番38号HUG高輪1階、2階","lat":35.641758,"lon":139.736717,"地区":"高輪","種別":"私立","休園日":"日・祝・年末年始","延長保育":"20:15まで","施設種別":"認可保育園","電話番号":"03-5422-6170","入園可能月齢":"57日","延長保育対象月齢":"1歳の誕生日","標準時間終了時間":"18:15","標準時間開始時間":"7:15","保育園ホームページ":"<a href='https://hoiku.lifesupport.co.jp/yurarin-takanawa/' target='_blank'>https://hoiku.lifesupport.co.jp/yurarin-takanawa/</a>","短時間保育終了時間":"17:00","短時間保育開始時間":"9:00","保育年齢別定員　0歳":"9","保育年齢別定員　1歳":"15","保育年齢別定員　2歳":"18","保育年齢別定員　3歳":"19","保育年齢別定員　4歳":"20","保育年齢別定員　5歳":"20","保育年齢別定員　合計":"101","運営事業者(指定管理者)":"ミアヘルサ(株)"},{"name":"高輪夢保育園","province":"東京都","city":"港区","address":"東京都港区高輪三丁目4番3号","lat":35.634791,"lon":139.731703,"地区":"高輪","種別":"私立","休園日":"日・祝・年末年始","延長保育":"20:15まで","施設種別":"認可保育園","電話番号":"03-5791-9680","入園可能月齢":"57日","延長保育対象月齢":"満5か月","標準時間終了時間":"18:15","標準時間開始時間":"7:15","保育園ホームページ":"<a href='https://www.yumekoubou.or.jp/hoikuen/takanawayume/' target='_blank'>https://www.yumekoubou.or.jp/hoikuen/takanawayume/</a>","短時間保育終了時間":"17:15","短時間保育開始時間":"9:15","保育年齢別定員　0歳":"6","保育年齢別定員　1歳":"8","保育年齢別定員　2歳":"9","保育年齢別定員　3歳":"9","保育年齢別定員　4歳":"9","保育年齢別定員　5歳":"9","保育年齢別定員　合計":"50","運営事業者(指定管理者)":"(福) 夢工房"},{"name":"ミアヘルサ保育園ゆらりん白金","province":"東京都","city":"港区","address":"東京都港区白金一丁目26番10号白金K-FLAT1階、2階の一部","lat":35.643907,"lon":139.733517,"地区":"高輪","種別":"私立","休園日":"日・祝・年末年始","延長保育":"20:15まで","施設種別":"認可保育園","電話番号":"03-6409-6310","入園可能月齢":"57日","延長保育対象月齢":"1歳の誕生日","標準時間終了時間":"18:15","標準時間開始時間":"7:15","保育園ホームページ":"<a href='https://hoiku.lifesupport.co.jp/yurarin-shirokane/' target='_blank'>https://hoiku.lifesupport.co.jp/yurarin-shirokane/</a>","短時間保育終了時間":"17:00","短時間保育開始時間":"9:00","保育年齢別定員　0歳":"6","保育年齢別定員　1歳":"8","保育年齢別定員　2歳":"9","保育年齢別定員　3歳":"9","保育年齢別定員　4歳":"9","保育年齢別定員　5歳":"9","保育年齢別定員　合計":"50","運営事業者(指定管理者)":"ミアヘルサ(株)"},{"name":"高輪さつき保育園","province":"東京都","city":"港区","address":"東京都港区高輪一丁目16番15号自動車部品会館2階","lat":35.64095,"lon":139.733479,"地区":"高輪","種別":"私立","休園日":"日・祝・年末年始","延長保育":"20:15まで","施設種別":"認可保育園","電話番号":"03-3473-2320","入園可能月齢":"57日","延長保育対象月齢":"1歳の誕生日の翌日","標準時間終了時間":"18:15","標準時間開始時間":"7:15","保育園ホームページ":"<a href='https://www.satuki-tk.com/' target='_blank'>https://www.satuki-tk.com/</a>","短時間保育終了時間":"17:00","短時間保育開始時間":"9:00","保育年齢別定員　0歳":"6","保育年齢別定員　1歳":"10","保育年齢別定員　2歳":"11","保育年齢別定員　3歳":"11","保育年齢別定員　4歳":"11","保育年齢別定員　5歳":"11","保育年齢別定員　合計":"60","運営事業者(指定管理者)":"フミ・コーポレーション(株)"},{"name":"えほんのもり白金台保育園","province":"東京都","city":"港区","address":"東京都港区白金台二丁目11番3号","lat":35.633192,"lon":139.730735,"地区":"高輪","種別":"私立","休園日":"日・祝・年末年始","延長保育":"20:15まで","施設種別":"認可保育園","電話番号":"03-6450-3546","入園可能月齢":"3か月","延長保育対象月齢":"1歳の誕生日","標準時間終了時間":"18:15","標準時間開始時間":"7:15","保育園ホームページ":"<a href='http://ehonnomori-hoikuen.com/' target='_blank'>http://ehonnomori-hoikuen.com/</a>","短時間保育終了時間":"17:00","短時間保育開始時間":"9:00","保育年齢別定員　0歳":"3","保育年齢別定員　1歳":"5","保育年齢別定員　2歳":"6","保育年齢別定員　3歳":"7","保育年齢別定員　4歳":"7","保育年齢別定員　5歳":"7","保育年齢別定員　合計":"35","運営事業者(指定管理者)":"(株)萬松堂"},{"name":"さくらさくみらい高輪","province":"東京都","city":"港区","address":"東京都港区高輪二丁目6番21号","lat":35.636165,"lon":139.73334,"地区":"高輪","種別":"私立","休園日":"日・祝・年末年始","延長保育":"20:15まで","施設種別":"認可保育園","電話番号":"03-5860-2339","入園可能月齢":"57日","延長保育対象月齢":"1歳の誕生日を過ぎた翌月1日","標準時間終了時間":"18:15","標準時間開始時間":"7:15","保育園ホームページ":"<a href='https://www.sakura-39.jp/hoiku/takanawa/' target='_blank'>https://www.sakura-39.jp/hoiku/takanawa/</a>","短時間保育終了時間":"17:00","短時間保育開始時間":"9:00","保育年齢別定員　0歳":"6","保育年齢別定員　1歳":"12","保育年齢別定員　2歳":"12","保育年齢別定員　3歳":"14","保育年齢別定員　4歳":"10","保育年齢別定員　5歳":"6","保育年齢別定員　合計":"60","運営事業者(指定管理者)":"(株)さくらさくみらい"},{"name":"ミアヘルサ保育園ひびき白金高輪","province":"東京都","city":"港区","address":"東京都港区白金三丁目2番3号","lat":35.64656,"lon":139.731283,"地区":"高輪","種別":"私立","休園日":"日・祝・年末年始","延長保育":"20:30まで","施設種別":"認可保育園","電話番号":"03-5860-2251","入園可能月齢":"","延長保育対象月齢":"1歳","標準時間終了時間":"18:30","標準時間開始時間":"7:30","保育園ホームページ":"<a href='https://www.merhalsa.jp/hoikuen/nursery/shirogane_takanawa/' target='_blank'>https://www.merhalsa.jp/hoikuen/nursery/shirogane_takanawa/</a>","短時間保育終了時間":"17:00","短時間保育開始時間":"9:00","保育年齢別定員　0歳":"","保育年齢別定員　1歳":"5","保育年齢別定員　2歳":"5","保育年齢別定員　3歳":"8","保育年齢別定員　4歳":"5","保育年齢別定員　5歳":"8","保育年齢別定員　合計":"31","運営事業者(指定管理者)":"ミアヘルサ(株)"},{"name":"うれしい保育園白金高輪","province":"東京都","city":"港区","address":"東京都港区三田五丁目17番2号","lat":35.645161,"lon":139.736962,"地区":"高輪","種別":"私立","休園日":"日・祝・年末年始","延長保育":"19:15まで","施設種別":"認可保育園","電話番号":"03-5795-2310","入園可能月齢":"57日","延長保育対象月齢":"1歳の誕生日を過ぎた翌月1日","標準時間終了時間":"18:15","標準時間開始時間":"7:15","保育園ホームページ":"<a href='https://www.care21.co.jp/ureshii_hoiku/uh-shirokanetakanawa/' target='_blank'>https://www.care21.co.jp/ureshii_hoiku/uh-shirokanetakanawa/</a>","短時間保育終了時間":"17:00","短時間保育開始時間":"9:00","保育年齢別定員　0歳":"6","保育年齢別定員　1歳":"10","保育年齢別定員　2歳":"11","保育年齢別定員　3歳":"11","保育年齢別定員　4歳":"11","保育年齢別定員　5歳":"11","保育年齢別定員　合計":"60","運営事業者(指定管理者)":"(株)ケア21"},{"name":"ほっぺるランド高輪二丁目","province":"東京都","city":"港区","address":"東京都港区高輪二丁目16番8号","lat":35.638892,"lon":139.739177,"地区":"高輪","種別":"私立","休園日":"日・祝・年末年始","延長保育":"20:30まで","施設種別":"認可保育園","電話番号":"03-5422-9781","入園可能月齢":"57日","延長保育対象月齢":"1歳の誕生日","標準時間終了時間":"18:30","標準時間開始時間":"7:30","保育園ホームページ":"<a href='https://hoppel-land.com/introduces/7722-2/' target='_blank'>https://hoppel-land.com/introduces/7722-2/</a>","短時間保育終了時間":"17:00","短時間保育開始時間":"9:00","保育年齢別定員　0歳":"6","保育年齢別定員　1歳":"10","保育年齢別定員　2歳":"11","保育年齢別定員　3歳":"11","保育年齢別定員　4歳":"11","保育年齢別定員　5歳":"11","保育年齢別定員　合計":"60","運営事業者(指定管理者)":"(株)テノ.コーポレーション"},{"name":"アイグラン保育園白金台","province":"東京都","city":"港区","address":"東京都港区白金台三丁目13番18号","lat":35.635829,"lon":139.724707,"地区":"高輪","種別":"私立","休園日":"日・祝・年末年始","延長保育":"20:15まで","施設種別":"認可保育園","電話番号":"03-6277-4494","入園可能月齢":"57日","延長保育対象月齢":"57日","標準時間終了時間":"18:15","標準時間開始時間":"7:15","保育園ホームページ":"<a href='https://aigran.co.jp/nursery/ninka/nursery-3611/' target='_blank'>https://aigran.co.jp/nursery/ninka/nursery-3611/</a>","短時間保育終了時間":"17:00","短時間保育開始時間":"9:00","保育年齢別定員　0歳":"8","保育年齢別定員　1歳":"12","保育年齢別定員　2歳":"12","保育年齢別定員　3歳":"13","保育年齢別定員　4歳":"10","保育年齢別定員　5歳":"5","保育年齢別定員　合計":"60","運営事業者(指定管理者)":"(株)アイグラン"},{"name":"スターチャイルド白金高輪ナーサリー","province":"東京都","city":"港区","address":"東京都港区白金一丁目2番1号スターチャイルド白金高輪ナーサリー","lat":35.646147,"lon":139.735246,"地区":"高輪","種別":"私立","休園日":"日・祝・年末年始","延長保育":"20:15まで","施設種別":"認可保育園","電話番号":"03-5421-7061","入園可能月齢":"57日","延長保育対象月齢":"1歳の誕生日","標準時間終了時間":"18:15","標準時間開始時間":"7:15","保育園ホームページ":"<a href='https://www.starchild.jp/nursery/%e7%99%bd%e9%87%91%e9%ab%98%e8%bc%aa%e3%83%8a%e3%83%bc%e3%82%b5%e3%83%aa%e3%83%bc/' target='_blank'>https://www.starchild.jp/nursery/%e7%99%bd%e9%87%91%e9%ab%98%e8%bc%aa%e3%83%8a%e3%83%bc%e3%82%b5%e3%83%aa%e3%83%bc/</a>","短時間保育終了時間":"17:00","短時間保育開始時間":"9:00","保育年齢別定員　0歳":"6","保育年齢別定員　1歳":"8","保育年齢別定員　2歳":"9","保育年齢別定員　3歳":"9","保育年齢別定員　4歳":"","保育年齢別定員　5歳":"","保育年齢別定員　合計":"32","運営事業者(指定管理者)":"ヒューマンスターチャイルド(株)"},{"name":"しばうら保育園分園","province":"東京都","city":"港区","address":"東京都港区芝浦一丁目16番1号","lat":35.646636,"lon":139.751425,"地区":"芝浦港南","種別":"区立","休園日":"年末年始","延長保育":"22:00まで","施設種別":"認可保育園","電話番号":"03-6453-6346","入園可能月齢":"3か月","延長保育対象月齢":"1歳の誕生日","標準時間終了時間":"18:15","標準時間開始時間":"7:15","保育園ホームページ":"<a href='https://www.city.minato.tokyo.jp/kodomo/kodomo/kodomo/hoikuen/23/index.html' target='_blank'>https://www.city.minato.tokyo.jp/kodomo/kodomo/kodomo/hoikuen/23/index.html</a>","短時間保育終了時間":"17:00","短時間保育開始時間":"9:00","保育年齢別定員　0歳":"6","保育年齢別定員　1歳":"10","保育年齢別定員　2歳":"10","保育年齢別定員　3歳":"10","保育年齢別定員　4歳":"","保育年齢別定員　5歳":"","保育年齢別定員　合計":"36","運営事業者(指定管理者)":"小学館アカデミー・太平ビルサービス共同事業グループ"},{"name":"台場保育園","province":"東京都","city":"港区","address":"東京都港区台場一丁目5番1号","lat":35.630029,"lon":139.777149,"地区":"芝浦港南","種別":"区立","休園日":"日・祝・年末年始","延長保育":"20:15まで","施設種別":"認可保育園","電話番号":"03-5500-2360","入園可能月齢":"3か月","延長保育対象月齢":"1歳の誕生日","標準時間終了時間":"18:15","標準時間開始時間":"7:15","保育園ホームページ":"<a href='https://www.city.minato.tokyo.jp/kodomo/kodomo/kodomo/hoikuen/04/index.html' target='_blank'>https://www.city.minato.tokyo.jp/kodomo/kodomo/kodomo/hoikuen/04/index.html</a>","短時間保育終了時間":"17:00","短時間保育開始時間":"9:00","保育年齢別定員　0歳":"14","保育年齢別定員　1歳":"22","保育年齢別定員　2歳":"23","保育年齢別定員　3歳":"24","保育年齢別定員　4歳":"24","保育年齢別定員　5歳":"24","保育年齢別定員　合計":"131","運営事業者(指定管理者)":""},{"name":"ミアヘルサ保育園ゆらりん港南","province":"東京都","city":"港区","address":"東京都港区港南一丁目6番27号芝浦クリスタル品川港南2階","lat":35.62962,"lon":139.745437,"地区":"芝浦港南","種別":"私立","休園日":"日・祝・年末年始","延長保育":"20:15まで","施設種別":"認可保育園","電話番号":"03-6712-1188","入園可能月齢":"57日","延長保育対象月齢":"1歳の誕生日","標準時間終了時間":"18:15","標準時間開始時間":"7:15","保育園ホームページ":"<a href='https://hoiku.lifesupport.co.jp/yurarin-konan/' target='_blank'>https://hoiku.lifesupport.co.jp/yurarin-konan/</a>","短時間保育終了時間":"17:00","短時間保育開始時間":"9:00","保育年齢別定員　0歳":"9","保育年齢別定員　1歳":"12","保育年齢別定員　2歳":"12","保育年齢別定員　3歳":"12","保育年齢別定員　4歳":"15※4歳、5歳の合計","保育年齢別定員　5歳":"","保育年齢別定員　合計":"60","運営事業者(指定管理者)":"ミアヘルサ(株)"},{"name":"ふたばクラブ港南保育園","province":"東京都","city":"港区","address":"東京都港区港南二丁目16番6号CanonSタワー","lat":35.646636,"lon":139.751425,"地区":"芝浦港南","種別":"私立","休園日":"日・祝・年末年始","延長保育":"19:30まで","施設種別":"認可保育園","電話番号":"03-6712-9428","入園可能月齢":"57日","延長保育対象月齢":"1歳の誕生日","標準時間終了時間":"18:30","標準時間開始時間":"7:30","保育園ホームページ":"<a href='http://futabaclub.jp/kounann.html' target='_blank'>http://futabaclub.jp/kounann.html</a>","短時間保育終了時間":"17:00","短時間保育開始時間":"9:00","保育年齢別定員　0歳":"4","保育年齢別定員　1歳":"5","保育年齢別定員　2歳":"5","保育年齢別定員　3歳":"5","保育年齢別定員　4歳":"5","保育年齢別定員　5歳":"5","保育年齢別定員　合計":"29","運営事業者(指定管理者)":"双葉教育(株)"},{"name":"ミアヘルサ保育園ゆらりんはぁと","province":"東京都","city":"港区","address":"東京都港区港南一丁目8番23号ShinagawaHEART2階","lat":35.629704,"lon":139.744497,"地区":"芝浦港南","種別":"私立","休園日":"日・祝・年末年始","延長保育":"20:15まで","施設種別":"認可保育園","電話番号":"03-6260-0873","入園可能月齢":"57日","延長保育対象月齢":"1歳の誕生日","標準時間終了時間":"18:15","標準時間開始時間":"7:15","保育園ホームページ":"<a href='https://hoiku.lifesupport.co.jp/yurarin-heart/' target='_blank'>https://hoiku.lifesupport.co.jp/yurarin-heart/</a>","短時間保育終了時間":"17:00","短時間保育開始時間":"9:00","保育年齢別定員　0歳":"5","保育年齢別定員　1歳":"7","保育年齢別定員　2歳":"8","保育年齢別定員　3歳":"10","保育年齢別定員　4歳":"10","保育年齢別定員　5歳":"10","保育年齢別定員　合計":"50","運営事業者(指定管理者)":"ミアヘルサ(株)"},{"name":"ミアヘルサ保育園ゆらりん港南緑水","province":"東京都","city":"港区","address":"東京都港区港南四丁目7番37号(港南緑水公園内)","lat":35.629753,"lon":139.75167,"地区":"芝浦港南","種別":"私立","休園日":"日・祝・年末年始","延長保育":"20:15まで","施設種別":"認可保育園","電話番号":"03-5781-2781","入園可能月齢":"57日","延長保育対象月齢":"1歳の誕生日","標準時間終了時間":"18:15","標準時間開始時間":"7:15","保育園ホームページ":"<a href='https://hoiku.lifesupport.co.jp/yurarin-ryokusui/' target='_blank'>https://hoiku.lifesupport.co.jp/yurarin-ryokusui/</a>","短時間保育終了時間":"17:00","短時間保育開始時間":"9:00","保育年齢別定員　0歳":"9","保育年齢別定員　1歳":"15","保育年齢別定員　2歳":"18","保育年齢別定員　3歳":"19","保育年齢別定員　4歳":"20","保育年齢別定員　5歳":"20","保育年齢別定員　合計":"101","運営事業者(指定管理者)":"ミアヘルサ(株)"},{"name":"デイジー保育園芝浦","province":"東京都","city":"港区","address":"東京都港区芝浦四丁目17番3号芝浦NAビル3階","lat":35.637018,"lon":139.747121,"地区":"芝浦港南","種別":"私立","休園日":"日・祝・年末年始","延長保育":"20:15まで","施設種別":"認可保育園","電話番号":"03-6275-1903","入園可能月齢":"57日","延長保育対象月齢":"1歳の誕生日","標準時間終了時間":"18:15","標準時間開始時間":"7:15","保育園ホームページ":"<a href='https://threepeace.life/service/daisy-nursery/daisyshibaura/' target='_blank'>https://threepeace.life/service/daisy-nursery/daisyshibaura/</a>","短時間保育終了時間":"17:00","短時間保育開始時間":"9:00","保育年齢別定員　0歳":"6","保育年齢別定員　1歳":"9","保育年齢別定員　2歳":"9","保育年齢別定員　3歳":"10","保育年齢別定員　4歳":"10","保育年齢別定員　5歳":"10","保育年齢別定員　合計":"54","運営事業者(指定管理者)":"(株)スリーピース"},{"name":"にじいろ保育園海岸三丁目","province":"東京都","city":"港区","address":"東京都港区海岸三丁目16番6号","lat":35.642496,"lon":139.755864,"地区":"芝浦港南","種別":"私立","休園日":"日・祝・年末年始","延長保育":"20:15まで","施設種別":"認可保育園","電話番号":"03-6722-6865","入園可能月齢":"57日","延長保育対象月齢":"57日","標準時間終了時間":"18:15","標準時間開始時間":"7:15","保育園ホームページ":"<a href='https://www.like-kd.co.jp/establishment/nijiiro/HPkaigansanchome' target='_blank'>https://www.like-kd.co.jp/establishment/nijiiro/HPkaigansanchome</a>","短時間保育終了時間":"17:00","短時間保育開始時間":"9:00","保育年齢別定員　0歳":"9","保育年齢別定員　1歳":"20","保育年齢別定員　2歳":"24","保育年齢別定員　3歳":"24","保育年齢別定員　4歳":"24","保育年齢別定員　5歳":"24","保育年齢別定員　合計":"125","運営事業者(指定管理者)":"ライクキッズ(株)"},{"name":"太陽の子芝浦二丁目保育園","province":"東京都","city":"港区","address":"東京都港区芝浦二丁目9番1号ブランズタワー芝浦2階","lat":35.643537,"lon":139.75291,"地区":"芝浦港南","種別":"私立","休園日":"日・祝・年末年始","延長保育":"20:15まで","施設種別":"認可保育園","電話番号":"03-6435-4635","入園可能月齢":"57日","延長保育対象月齢":"57日","標準時間終了時間":"18:15","標準時間開始時間":"7:15","保育園ホームページ":"<a href='https://www.kidslife-nursery.com/facility/tokyo/minato/shibaura2/' target='_blank'>https://www.kidslife-nursery.com/facility/tokyo/minato/shibaura2/</a>","短時間保育終了時間":"17:00","短時間保育開始時間":"9:00","保育年齢別定員　0歳":"6","保育年齢別定員　1歳":"8","保育年齢別定員　2歳":"9","保育年齢別定員　3歳":"9","保育年齢別定員　4歳":"9","保育年齢別定員　5歳":"9","保育年齢別定員　合計":"50","運営事業者(指定管理者)":"HITOWAキッズライフ(株)"},{"name":"芝浦アイランドこども園","province":"東京都","city":"港区","address":"東京都港区芝浦四丁目20番1号","lat":35.640442,"lon":139.75256,"地区":"芝浦港南","種別":"区立","休園日":"年末年始","延長保育":"22:00まで","施設種別":"認定こども園","電話番号":"03-5443-7337","入園可能月齢":"57日","延長保育対象月齢":"1歳の誕生日","標準時間終了時間":"18:15","標準時間開始時間":"7:15","保育園ホームページ":"<a href='https://www.tokyoymca.org/childcare/shibaura-kodomo/' target='_blank'>https://www.tokyoymca.org/childcare/shibaura-kodomo/</a>","短時間保育終了時間":"17:00","短時間保育開始時間":"9:00","保育年齢別定員　0歳":"15","保育年齢別定員　1歳":"18","保育年齢別定員　2歳":"22","保育年齢別定員　3歳":"32","保育年齢別定員　4歳":"42","保育年齢別定員　5歳":"42","保育年齢別定員　合計":"171","運営事業者(指定管理者)":"(公財)東京YMCA"},{"name":"こころナーサリー新橋","province":"東京都","city":"港区","address":"東京都港区新橋五丁目35番10号新橋アネックス1階","lat":35.662979,"lon":139.753349,"地区":"芝","種別":"私立","休園日":"日・祝・年末年始","延長保育":"20:15まで","施設種別":"小規模保育事業","電話番号":"03-6435-8377","入園可能月齢":"57日","延長保育対象月齢":"57日","標準時間終了時間":"18:15","標準時間開始時間":"7:15","保育園ホームページ":"<a href='https://www.taiyo.ed.jp/nursery/shinbashi/' target='_blank'>https://www.taiyo.ed.jp/nursery/shinbashi/</a>","短時間保育終了時間":"17:00","短時間保育開始時間":"9:00","保育年齢別定員　0歳":"6","保育年齢別定員　1歳":"6","保育年齢別定員　2歳":"6","保育年齢別定員　3歳":"","保育年齢別定員　4歳":"","保育年齢別定員　5歳":"","保育年齢別定員　合計":"18","運営事業者(指定管理者)":"(学)太陽学院"},{"name":"ふらわぁきっず保育園新橋","province":"東京都","city":"港区","address":"東京都港区新橋三丁目3番13号TsaoHibiya1階","lat":35.666003,"lon":139.754138,"地区":"芝","種別":"私立","休園日":"日・祝・年末年始","延長保育":"20:15まで","施設種別":"小規模保育事業","電話番号":"03-6550-8800","入園可能月齢":"57日","延長保育対象月齢":"1歳の誕生日","標準時間終了時間":"18:15","標準時間開始時間":"7:15","保育園ホームページ":"<a href='http://flower-kids.com/' target='_blank'>http://flower-kids.com/</a>","短時間保育終了時間":"17:00","短時間保育開始時間":"9:00","保育年齢別定員　0歳":"3","保育年齢別定員　1歳":"4","保育年齢別定員　2歳":"5","保育年齢別定員　3歳":"","保育年齢別定員　4歳":"","保育年齢別定員　5歳":"","保育年齢別定員　合計":"12","運営事業者(指定管理者)":"(株)ダイセイコー"},{"name":"デイジー保育園麻布十番","province":"東京都","city":"港区","address":"東京都港区麻布十番三丁目10番12号シティ麻布2階","lat":35.652857,"lon":139.734557,"地区":"麻布","種別":"私立","休園日":"日・祝・年末年始","延長保育":"20:15まで","施設種別":"小規模保育事業","電話番号":"03-6809-6353","入園可能月齢":"57日","延長保育対象月齢":"1歳の誕生日","標準時間終了時間":"18:15","標準時間開始時間":"7:15","保育園ホームページ":"<a href='https://threepeace.life/service/daisy-nursery/daisyazabujuban/' target='_blank'>https://threepeace.life/service/daisy-nursery/daisyazabujuban/</a>","短時間保育終了時間":"17:00","短時間保育開始時間":"9:00","保育年齢別定員　0歳":"6","保育年齢別定員　1歳":"6","保育年齢別定員　2歳":"6","保育年齢別定員　3歳":"","保育年齢別定員　4歳":"","保育年齢別定員　5歳":"","保育年齢別定員　合計":"18","運営事業者(指定管理者)":"(株)スリーピース"},{"name":"デイジー保育園麻布十番フォレスト","province":"東京都","city":"港区","address":"東京都港区麻布十番三丁目10番12号シティ麻布3階","lat":35.652857,"lon":139.734557,"地区":"麻布","種別":"私立","休園日":"日・祝・年末年始","延長保育":"20:15まで","施設種別":"小規模保育事業","電話番号":"03-5439-9241","入園可能月齢":"57日","延長保育対象月齢":"1歳の誕生日","標準時間終了時間":"18:15","標準時間開始時間":"7:15","保育園ホームページ":"<a href='https://threepeace.life/service/daisy-nursery/daisyazabujubanforest/' target='_blank'>https://threepeace.life/service/daisy-nursery/daisyazabujubanforest/</a>","短時間保育終了時間":"17:00","短時間保育開始時間":"9:00","保育年齢別定員　0歳":"6","保育年齢別定員　1歳":"6","保育年齢別定員　2歳":"6","保育年齢別定員　3歳":"","保育年齢別定員　4歳":"","保育年齢別定員　5歳":"","保育年齢別定員　合計":"18","運営事業者(指定管理者)":"(株)スリーピース"},{"name":"ここいく保育園西麻布","province":"東京都","city":"港区","address":"東京都港区西麻布四丁目10番1号MFビル1階","lat":35.657981,"lon":139.722985,"地区":"麻布","種別":"私立","休園日":"日・祝・年末年始","延長保育":"20:15まで","施設種別":"小規模保育事業","電話番号":"03-6419-7333","入園可能月齢":"3か月","延長保育対象月齢":"1歳の誕生日","標準時間終了時間":"18:15","標準時間開始時間":"7:15","保育園ホームページ":"<a href='https://cocoiku-hoikuen.com/nishiazabu/' target='_blank'>https://cocoiku-hoikuen.com/nishiazabu/</a>","短時間保育終了時間":"17:00","短時間保育開始時間":"9:00","保育年齢別定員　0歳":"3","保育年齢別定員　1歳":"6","保育年齢別定員　2歳":"8","保育年齢別定員　3歳":"","保育年齢別定員　4歳":"","保育年齢別定員　5歳":"","保育年齢別定員　合計":"17","運営事業者(指定管理者)":"(株)One&Only"},{"name":"sakura保育園","province":"東京都","city":"港区","address":"東京都港区赤坂二丁目12番17号MartialArtsタワー1階","lat":35.671246,"lon":139.740235,"地区":"赤坂","種別":"私立","休園日":"日・祝・年末年始","延長保育":"19:30まで","施設種別":"小規模保育事業","電話番号":"03-6426-5097","入園可能月齢":"57日","延長保育対象月齢":"1歳の誕生日を過ぎた翌月1日","標準時間終了時間":"18:30","標準時間開始時間":"7:30","保育園ホームページ":"<a href='https://sakurakids.net/' target='_blank'>https://sakurakids.net/</a>","短時間保育終了時間":"17:00","短時間保育開始時間":"9:00","保育年齢別定員　0歳":"3","保育年齢別定員　1歳":"5","保育年齢別定員　2歳":"5","保育年齢別定員　3歳":"","保育年齢別定員　4歳":"","保育年齢別定員　5歳":"","保育年齢別定員　合計":"13","運営事業者(指定管理者)":"(株)マーシャルアーツドットコム"},{"name":"ふらわぁきっず保育園三田","province":"東京都","city":"港区","address":"東京都港区三田五丁目5番7号ミタ5ゲートタワー1階","lat":35.647066,"lon":139.740173,"地区":"高輪","種別":"私立","休園日":"日・祝・年末年始","延長保育":"20:15まで","施設種別":"小規模保育事業","電話番号":"03-6809-5303","入園可能月齢":"57日","延長保育対象月齢":"1歳の誕生日","標準時間終了時間":"18:15","標準時間開始時間":"7:15","保育園ホームページ":"<a href='http://flower-kids.com/' target='_blank'>http://flower-kids.com/</a>","短時間保育終了時間":"17:00","短時間保育開始時間":"9:00","保育年齢別定員　0歳":"3","保育年齢別定員　1歳":"4","保育年齢別定員　2歳":"5","保育年齢別定員　3歳":"","保育年齢別定員　4歳":"","保育年齢別定員　5歳":"","保育年齢別定員　合計":"12","運営事業者(指定管理者)":"(株)ダイセイコー"},{"name":"ちゃいるど・はっぴっぴ!!白金保育園","province":"東京都","city":"港区","address":"東京都港区白金三丁目2番9号1階","lat":35.646333,"lon":139.731321,"地区":"高輪","種別":"私立","休園日":"日・祝・年末年始","延長保育":"19:30まで","施設種別":"小規模保育事業","電話番号":"03-6629-5180","入園可能月齢":"57日","延長保育対象月齢":"1歳の誕生日を過ぎた翌月1日","標準時間終了時間":"18:30","標準時間開始時間":"7:30","保育園ホームページ":"<a href='https://happy-pi.com/hoikuen/shirokanehoikuen/' target='_blank'>https://happy-pi.com/hoikuen/shirokanehoikuen/</a>","短時間保育終了時間":"17:00","短時間保育開始時間":"9:00","保育年齢別定員　0歳":"2","保育年齢別定員　1歳":"4","保育年齢別定員　2歳":"4","保育年齢別定員　3歳":"","保育年齢別定員　4歳":"","保育年齢別定員　5歳":"","保育年齢別定員　合計":"10","運営事業者(指定管理者)":"(株)リンクス"},{"name":"港南あおぞら保育園","province":"東京都","city":"港区","address":"東京都港区港南三丁目8番1号住友不動産品川港南ビル","lat":35.6320239,"lon":139.7500836,"地区":"芝浦港南","種別":"私立","休園日":"日・祝・年末年始","延長保育":"19:15まで","施設種別":"小規模保育事業","電話番号":"03-6712-1988","入園可能月齢":"57日","延長保育対象月齢":"1歳の誕生日を過ぎた翌月1日","標準時間終了時間":"18:15","標準時間開始時間":"7:15","保育園ホームページ":"<a href='http://kounan-aozora.jp/' target='_blank'>http://kounan-aozora.jp/</a>","短時間保育終了時間":"17:00","短時間保育開始時間":"9:00","保育年齢別定員　0歳":"6","保育年齢別定員　1歳":"6","保育年齢別定員　2歳":"7","保育年齢別定員　3歳":"","保育年齢別定員　4歳":"","保育年齢別定員　5歳":"","保育年齢別定員　合計":"19","運営事業者(指定管理者)":"(株)T8"},{"name":"にじのそら保育園芝浦","province":"東京都","city":"港区","address":"東京都港区芝浦一丁目14番6号BSビル1階","lat":35.647081,"lon":139.75313,"地区":"芝浦港南","種別":"私立","休園日":"日・祝・年末年始","延長保育":"20:15まで","施設種別":"小規模保育事業","電話番号":"03-6722-0425","入園可能月齢":"57日","延長保育対象月齢":"1歳の誕生日を過ぎた翌月1日","標準時間終了時間":"18:15","標準時間開始時間":"7:15","保育園ホームページ":"<a href='https://hikari-kai.com/nijinosora/introduction/' target='_blank'>https://hikari-kai.com/nijinosora/introduction/</a>","短時間保育終了時間":"17:00","短時間保育開始時間":"9:00","保育年齢別定員　0歳":"3","保育年齢別定員　1歳":"8","保育年齢別定員　2歳":"8","保育年齢別定員　3歳":"","保育年齢別定員　4歳":"","保育年齢別定員　5歳":"","保育年齢別定員　合計":"19","運営事業者(指定管理者)":"(福)ひかり会"},{"name":"芝公園二丁目保育室","province":"東京都","city":"港区","address":"東京都港区芝公園二丁目12番10号","lat":35.653571,"lon":139.749925,"地区":"芝","種別":"委託","休園日":"日・祝・年末年始","延長保育":"20:15まで","施設種別":"港区保育室","電話番号":"03-3436-6611","入園可能月齢":"","延長保育対象月齢":"1歳","標準時間終了時間":"18:15","標準時間開始時間":"7:15","保育園ホームページ":"<a href='https://www.kidslife-nursery.com/facility/tokyo/minato/shibakouen2/' target='_blank'>https://www.kidslife-nursery.com/facility/tokyo/minato/shibakouen2/</a>","短時間保育終了時間":"17:00","短時間保育開始時間":"9:00","保育年齢別定員　0歳":"","保育年齢別定員　1歳":"10","保育年齢別定員　2歳":"12","保育年齢別定員　3歳":"10","保育年齢別定員　4歳":"15","保育年齢別定員　5歳":"10","保育年齢別定員　合計":"57","運営事業者(指定管理者)":"HITOWAキッズライフ(株)"},{"name":"白金三丁目保育室","province":"東京都","city":"港区","address":"東京都港区白金三丁目7番13号","lat":35.645956,"lon":139.729598,"地区":"高輪","種別":"委託","休園日":"日・祝・年末年始","延長保育":"20:15まで","施設種別":"港区保育室","電話番号":"03-6455-7171","入園可能月齢":"3か月","延長保育対象月齢":"1歳の誕生日","標準時間終了時間":"18:15","標準時間開始時間":"7:15","保育園ホームページ":"<a href='https://associe-international.co.jp/%e6%96%bd%e8%a8%ad%e7%b4%b9%e4%bb%8b/%e6%b8%af%e5%8c%ba%e7%99%bd%e9%87%91%e4%b8%89%e4%b8%81%e7%9b%ae%e4%bf%9d%e8%82%b2%e5%ae%a4/' target='_blank'>https://associe-international.co.jp/%e6%96%bd%e8%a8%ad%e7%b4%b9%e4%bb%8b/%e6%b8%af%e5%8c%ba%e7%99%bd%e9%87%91%e4%b8%89%e4%b8%81%e7%9b%ae%e4%bf%9d%e8%82%b2%e5%ae%a4/</a>","短時間保育終了時間":"17:00","短時間保育開始時間":"9:00","保育年齢別定員　0歳":"3","保育年齢別定員　1歳":"5","保育年齢別定員　2歳":"6","保育年齢別定員　3歳":"10","保育年齢別定員　4歳":"5","保育年齢別定員　5歳":"10","保育年齢別定員　合計":"39","運営事業者(指定管理者)":"(株)アソシエ・インターナショナル"},{"name":"五色橋保育室","province":"東京都","city":"港区","address":"東京都港区海岸三丁目5番13号","lat":35.63654,"lon":139.751594,"地区":"芝浦港南","種別":"委託","休園日":"日・祝・年末年始","延長保育":"20:15まで","施設種別":"港区保育室","電話番号":"03-6435-3201","入園可能月齢":"3か月","延長保育対象月齢":"1歳の誕生日","標準時間終了時間":"18:15","標準時間開始時間":"7:15","保育園ホームページ":"<a href='https://hoiku.lifesupport.co.jp/hoikushitsu-goshikibashi/' target='_blank'>https://hoiku.lifesupport.co.jp/hoikushitsu-goshikibashi/</a>","短時間保育終了時間":"17:00","短時間保育開始時間":"9:00","保育年齢別定員　0歳":"3","保育年齢別定員　1歳":"10","保育年齢別定員　2歳":"12","保育年齢別定員　3歳":"10","保育年齢別定員　4歳":"10","保育年齢別定員　5歳":"5","保育年齢別定員　合計":"50","運営事業者(指定管理者)":"ミアヘルサ(株)"}]}