{"keyword":"避難","data":[{"name":"御成門小学校","province":"東京都","city":"港区","address":"東京都港区芝公園三丁目2番4号","lat":35.660982,"lon":139.749524,"分類":"区民避難所(地域防災拠点)","地区":"芝地区","構造":"鉄骨鉄筋コンクリート造","ふりがな":"おなりもんしょうがっこう","英語名称":"Onarimon Elementary School","電話番号1":"03-3431-2766","電話番号2":"","自治体コード":"131032","一時受入人員可能数":"2104","長期受入人員可能数":"1271"},{"name":"芝小学校","province":"東京都","city":"港区","address":"東京都港区芝二丁目21番3号","lat":35.651298,"lon":139.750139,"分類":"区民避難所(地域防災拠点)","地区":"芝地区","構造":"鉄骨鉄筋コンクリート造","ふりがな":"しばしょうがっこう","英語名称":"Shiba Elementary School","電話番号1":"03-3456-3072","電話番号2":"","自治体コード":"131032","一時受入人員可能数":"855","長期受入人員可能数":"513"},{"name":"札の辻スクエア(産業振興センター)","province":"東京都","city":"港区","address":"東京都港区芝五丁目36番4号","lat":35.645114,"lon":139.744617,"分類":"区民避難所(地域防災拠点)","地区":"芝地区","構造":"鉄筋コンクリート造","ふりがな":"ふだのつじすくえあ(さんぎょうしんこうせんたー)","英語名称":"","電話番号1":"03-6435-3670","電話番号2":"","自治体コード":"131032","一時受入人員可能数":"672","長期受入人員可能数":"407"},{"name":"赤羽小学校","province":"東京都","city":"港区","address":"東京都港区三田一丁目4番52号","lat":35.653237,"lon":139.74248,"分類":"区民避難所(地域防災拠点)","地区":"芝地区","構造":"鉄筋コンクリート造","ふりがな":"あかばねしょうがっこう","英語名称":"Akabane Elementary School","電話番号1":"03-3451-1988","電話番号2":"","自治体コード":"131032","一時受入人員可能数":"1597","長期受入人員可能数":"964"},{"name":"御成門中学校","province":"東京都","city":"港区","address":"東京都港区西新橋三丁目25番30号","lat":35.66164,"lon":139.750329,"分類":"区民避難所(地域防災拠点)","地区":"芝地区","構造":"鉄骨鉄筋コンクリート造","ふりがな":"おなりもんちゅうがっこう","英語名称":"Onarimon Junior High School","電話番号1":"03-3436-3568","電話番号2":"","自治体コード":"131032","一時受入人員可能数":"2536","長期受入人員可能数":"1528"},{"name":"生涯学習センター","province":"東京都","city":"港区","address":"東京都港区西新橋三丁目16番3号","lat":35.665575,"lon":139.757085,"分類":"区民避難所(地域防災拠点)","地区":"芝地区","構造":"鉄骨造","ふりがな":"しょうがいがくしゅうせんたー","英語名称":"Lifelong Learning Center","電話番号1":"03-3431-1606","電話番号2":"","自治体コード":"131032","一時受入人員可能数":"838","長期受入人員可能数":"504"},{"name":"エコプラザ","province":"東京都","city":"港区","address":"東京都港区浜松町一丁目13番1号","lat":35.658866,"lon":139.756851,"分類":"区民避難所(地域防災拠点)","地区":"芝地区","構造":"鉄骨鉄筋コンクリート造","ふりがな":"えこぷらざ","英語名称":"Eco Plaza","電話番号1":"03-5404-7764","電話番号2":"","自治体コード":"131032","一時受入人員可能数":"556","長期受入人員可能数":"335"},{"name":"福祉プラザさくら川","province":"東京都","city":"港区","address":"東京都港区浜松町六丁目19番2号","lat":35.661172,"lon":139.753823,"分類":"区民避難所(地域防災拠点)","地区":"芝地区","構造":"鉄骨鉄筋コンクリート造","ふりがな":"ふくしぷらざさくらがわ","英語名称":"Welfare Plaza Sakuragawa","電話番号1":"03-3433-0180","電話番号2":"","自治体コード":"131032","一時受入人員可能数":"144","長期受入人員可能数":"86"},{"name":"神明子ども中高生プラザ・神明いきいきプラザ","province":"東京都","city":"港区","address":"東京都港区浜松町一丁目6番7号","lat":35.65877,"lon":139.757557,"分類":"区民避難所(地域防災拠点)","地区":"芝地区","構造":"鉄骨鉄筋コンクリート造","ふりがな":"しんめいこどもちゅうこうせいぷらざ・しんめいいきいきぷらざ","英語名称":"Shimmei Kids-to-Teens Hall/Shimmei Iki-iki Plaza","電話番号1":"03-5733-5199","電話番号2":"03-3436-2500","自治体コード":"131032","一時受入人員可能数":"852","長期受入人員可能数":"511"},{"name":"虎ノ門いきいきプラザ","province":"東京都","city":"港区","address":"東京都港区虎ノ門一丁目21番10号","lat":35.667859,"lon":139.748668,"分類":"区民避難所(地域防災拠点)","地区":"芝地区","構造":"鉄骨鉄筋コンクリート造","ふりがな":"とらのもんいきいきぷらざ","英語名称":"Toranomon Iki-iki Plaza","電話番号1":"03-3539-2941","電話番号2":"","自治体コード":"131032","一時受入人員可能数":"132","長期受入人員可能数":"79"},{"name":"三田いきいきプラザ","province":"東京都","city":"港区","address":"東京都港区芝四丁目1番17号","lat":35.648781,"lon":139.749768,"分類":"区民避難所(地域防災拠点)","地区":"高輪地区","構造":"鉄筋コンクリート造","ふりがな":"みたいきいきぷらざ","英語名称":"Mita Iki-iki Plaza","電話番号1":"03-3452-9421","電話番号2":"","自治体コード":"131032","一時受入人員可能数":"332","長期受入人員可能数":"199"},{"name":"麻布小学校","province":"東京都","city":"港区","address":"東京都港区麻布台一丁目5番15号","lat":35.661832,"lon":139.738648,"分類":"区民避難所(地域防災拠点)","地区":"麻布地区","構造":"鉄筋コンクリート造","ふりがな":"あざぶしょうがっこう","英語名称":"Azabu Elementary School","電話番号1":"03-3583-0014","電話番号2":"","自治体コード":"131032","一時受入人員可能数":"1435","長期受入人員可能数":"865"},{"name":"旧飯倉小学校","province":"東京都","city":"港区","address":"東京都港区東麻布二丁目1番1号","lat":35.658162,"lon":139.742551,"分類":"区民避難所(地域防災拠点)","地区":"麻布地区","構造":"鉄筋コンクリート造","ふりがな":"きゅういいくらしょうがっこう","英語名称":"Former Iigura Elementary School","電話番号1":"","電話番号2":"","自治体コード":"131032","一時受入人員可能数":"419","長期受入人員可能数":"208"},{"name":"本村小学校","province":"東京都","city":"港区","address":"東京都港区麻布三丁目9番33号","lat":35.649829,"lon":139.72991,"分類":"区民避難所(地域防災拠点)","地区":"麻布地区","構造":"鉄骨鉄筋コンクリート造","ふりがな":"ほんむらしょうがっこう","英語名称":"Hommura Elementary School","電話番号1":"03-3473-1462","電話番号2":"","自治体コード":"131032","一時受入人員可能数":"2017","長期受入人員可能数":"1217"},{"name":"東町小学校","province":"東京都","city":"港区","address":"東京都港区南麻布一丁目8番11号","lat":35.650901,"lon":139.73584,"分類":"区民避難所(地域防災拠点)","地区":"麻布地区","構造":"鉄筋コンクリート造","ふりがな":"ひがしまちしょうがっこう","英語名称":"Higashimachi Elementary School","電話番号1":"03-3451-7726","電話番号2":"","自治体コード":"131032","一時受入人員可能数":"1073","長期受入人員可能数":"647"},{"name":"笄小学校","province":"東京都","city":"港区","address":"東京都港区西麻布三丁目11番16号","lat":35.65648,"lon":139.724891,"分類":"区民避難所(地域防災拠点)","地区":"麻布地区","構造":"鉄筋コンクリート造","ふりがな":"こうがいしょうがっこう","英語名称":"Kogai Elementary School","電話番号1":"03-3404-1530","電話番号2":"","自治体コード":"131032","一時受入人員可能数":"1412","長期受入人員可能数":"853"},{"name":"六本木中学校","province":"東京都","city":"港区","address":"東京都港区六本木六丁目8番16号","lat":35.660826,"lon":139.732266,"分類":"区民避難所(地域防災拠点)","地区":"麻布地区","構造":"鉄筋コンクリート造","ふりがな":"ろっぽんぎちゅうがっこう","英語名称":"Roppongi Junior High School","電話番号1":"03-3404-8855","電話番号2":"","自治体コード":"131032","一時受入人員可能数":"1534","長期受入人員可能数":"926"},{"name":"高陵中学校","province":"東京都","city":"港区","address":"東京都港区西麻布4-14-8","lat":35.656991,"lon":139.720539,"分類":"区民避難所(地域防災拠点)","地区":"麻布地区","構造":"鉄骨鉄筋コンクリート造","ふりがな":"こうりょうちゅうがっこう","英語名称":"Koryo Junior High School","電話番号1":"03-3409-7687","電話番号2":"","自治体コード":"131032","一時受入人員可能数":"1130","長期受入人員可能数":"565"},{"name":"南山小学校","province":"東京都","city":"港区","address":"東京都港区元麻布三丁目8番15号","lat":35.657271,"lon":139.731056,"分類":"区民避難所(地域防災拠点)","地区":"麻布地区","構造":"鉄筋コンクリート造","ふりがな":"なんざんしょうがっこう","英語名称":"Nanzan Elementary School","電話番号1":"03-3403-5773","電話番号2":"","自治体コード":"131032","一時受入人員可能数":"1173","長期受入人員可能数":"702"},{"name":"麻布区民センター","province":"東京都","city":"港区","address":"東京都港区六本木五丁目16番45号","lat":35.66067,"lon":139.735011,"分類":"区民避難所(地域防災拠点)","地区":"麻布地区","構造":"鉄骨鉄筋コンクリート造","ふりがな":"あざぶくみんせんたー","英語名称":"Azabu Civic Center","電話番号1":"03-3583-5487","電話番号2":"","自治体コード":"131032","一時受入人員可能数":"326","長期受入人員可能数":"195"},{"name":"南麻布いきいきプラザ","province":"東京都","city":"港区","address":"東京都港区南麻布一丁目5番26号","lat":35.651414,"lon":139.73509,"分類":"区民避難所(地域防災拠点)","地区":"麻布地区","構造":"鉄筋コンクリート造","ふりがな":"みなみあざぶいきいきぷらざ","英語名称":"Minami-azabu Iki-iki Plaza","電話番号1":"03-5232-9671","電話番号2":"","自治体コード":"131032","一時受入人員可能数":"224","長期受入人員可能数":"135"},{"name":"麻布子ども中高生プラザ・ありすいきいきプラザ","province":"東京都","city":"港区","address":"東京都港区南麻布四丁目6番7号","lat":35.651082,"lon":139.727468,"分類":"区民避難所(地域防災拠点)","地区":"麻布地区","構造":"鉄筋コンクリート造","ふりがな":"あざぶこどもちゅうこうせいぷらざ・ありすいきいきぷらざ","英語名称":"Azabu Kids-to-Teens Hall Arisu Iki-iki Plaza","電話番号1":"03-5447-0611","電話番号2":"","自治体コード":"131032","一時受入人員可能数":"1027","長期受入人員可能数":"619"},{"name":"西麻布いきいきプラザ","province":"東京都","city":"港区","address":"東京都港区西麻布二丁目13番3号","lat":35.660801,"lon":139.722696,"分類":"区民避難所(地域防災拠点)","地区":"麻布地区","構造":"鉄骨鉄筋コンクリート造","ふりがな":"にしあざぶいきいきぷらざ","英語名称":"Nishi-azabu Iki-iki Plaza","電話番号1":"03-3486-9166","電話番号2":"","自治体コード":"131032","一時受入人員可能数":"297","長期受入人員可能数":"180"},{"name":"飯倉いきいきプラザ","province":"東京都","city":"港区","address":"東京都港区東麻布二丁目16番11号","lat":35.65693,"lon":139.740929,"分類":"区民避難所(地域防災拠点)","地区":"麻布地区","構造":"鉄骨造","ふりがな":"いいくらいきいきぷらざ","英語名称":"Iigura Iki-iki Plaza","電話番号1":"03-3583-6366","電話番号2":"","自治体コード":"131032","一時受入人員可能数":"157","長期受入人員可能数":"92"},{"name":"赤坂小学校","province":"東京都","city":"港区","address":"東京都港区赤坂八丁目13番29号","lat":35.669305,"lon":139.731065,"分類":"区民避難所(地域防災拠点)","地区":"赤坂地区","構造":"鉄筋コンクリート造","ふりがな":"あかさかしょうがっこう","英語名称":"Akasaka Elementary School","電話番号1":"03-3404-8602","電話番号2":"","自治体コード":"131032","一時受入人員可能数":"2001","長期受入人員可能数":"1208"},{"name":"青山小学校","province":"東京都","city":"港区","address":"東京都港区南青山二丁目21番2号","lat":35.669882,"lon":139.719084,"分類":"区民避難所(地域防災拠点)","地区":"赤坂地区","構造":"鉄筋コンクリート造","ふりがな":"あおやましょうがっこう","英語名称":"Aoyama Elementary School","電話番号1":"03-3403-5588","電話番号2":"","自治体コード":"131032","一時受入人員可能数":"1691","長期受入人員可能数":"1020"},{"name":"青南小学校","province":"東京都","city":"港区","address":"東京都港区南青山四丁目21番15号","lat":35.663506,"lon":139.716153,"分類":"区民避難所(地域防災拠点)","地区":"赤坂地区","構造":"鉄筋コンクリート造","ふりがな":"せいなんしょうがっこう","英語名称":"Seinan Elementary School","電話番号1":"03-3404-8608","電話番号2":"","自治体コード":"131032","一時受入人員可能数":"1723","長期受入人員可能数":"1039"},{"name":"赤坂中学校","province":"東京都","city":"港区","address":"東京都港区赤坂九丁目2番3号","lat":35.668183,"lon":139.731405,"分類":"区民避難所(地域防災拠点)","地区":"赤坂地区","構造":"鉄筋コンクリート造","ふりがな":"あかさかちゅうがっこう","英語名称":"Akasaka Junior High School","電話番号1":"03-3402-9306","電話番号2":"","自治体コード":"131032","一時受入人員可能数":"1114","長期受入人員可能数":"672"},{"name":"青山中学校","province":"東京都","city":"港区","address":"東京都港区北青山一丁目1番9号","lat":35.674188,"lon":139.72218,"分類":"区民避難所(地域防災拠点)","地区":"赤坂地区","構造":"鉄骨鉄筋コンクリート造","ふりがな":"あおやまちゅうがっこう","英語名称":"Aoyama Junior High Shool","電話番号1":"03-3404-7522","電話番号2":"","自治体コード":"131032","一時受入人員可能数":"2621","長期受入人員可能数":"1581"},{"name":"赤坂区民センター","province":"東京都","city":"港区","address":"東京都港区北青山一丁目1番9号","lat":35.674759,"lon":139.731598,"分類":"区民避難所(地域防災拠点)","地区":"赤坂地区","構造":"鉄骨鉄筋コンクリート造","ふりがな":"あかさかくみんせんたー","英語名称":"Akasaka Civic Center","電話番号1":"03-5413-2711","電話番号2":"","自治体コード":"131032","一時受入人員可能数":"475","長期受入人員可能数":"285"},{"name":"サン・サン赤坂(赤坂子ども中高生プラザ)","province":"東京都","city":"港区","address":"東京都港区赤坂六丁目6番14号","lat":35.669966,"lon":139.737659,"分類":"区民避難所(地域防災拠点)","地区":"赤坂地区","構造":"鉄筋コンクリート造","ふりがな":"さん・さんあかさか(あかさかこどもちゅうこうせいぷらざ)","英語名称":"Sun-Sun Akasaka(Akasaka Kids-to-Teens Hall)","電話番号1":"03-5561-7833","電話番号2":"","自治体コード":"131032","一時受入人員可能数":"888","長期受入人員可能数":"535"},{"name":"赤坂いきいきプラザ","province":"東京都","city":"港区","address":"東京都港区赤坂六丁目4番8号","lat":35.670334,"lon":139.734952,"分類":"区民避難所(地域防災拠点)","地区":"赤坂地区","構造":"鉄筋コンクリート造","ふりがな":"あかさかいきいきぷらざ","英語名称":"Akasaka Iki-iki Plaza","電話番号1":"03-3583-1207","電話番号2":"","自治体コード":"131032","一時受入人員可能数":"118","長期受入人員可能数":"70"},{"name":"青山いきいきプラザ","province":"東京都","city":"港区","address":"東京都港区南青山二丁目16番5号","lat":35.669189,"lon":139.721262,"分類":"区民避難所(地域防災拠点)","地区":"赤坂地区","構造":"鉄骨鉄筋コンクリート造","ふりがな":"あおやまいきいきぷらざ","英語名称":"Aoyama Iki-iki Plaza","電話番号1":"03-3403-2011","電話番号2":"","自治体コード":"131032","一時受入人員可能数":"585","長期受入人員可能数":"350"},{"name":"青南いきいきプラザ","province":"東京都","city":"港区","address":"東京都港区南青山四丁目10番1号","lat":35.666464,"lon":139.717321,"分類":"区民避難所(地域防災拠点)","地区":"赤坂地区","構造":"鉄筋コンクリート造","ふりがな":"せいなんいきいきぷらざ","英語名称":"Seinan Iki-iki Plaza","電話番号1":"03-3423-4920","電話番号2":"","自治体コード":"131032","一時受入人員可能数":"138","長期受入人員可能数":"80"},{"name":"御田小学校","province":"東京都","city":"港区","address":"東京都港区三田四丁目11番38号","lat":35.643181,"lon":139.738044,"分類":"区民避難所(地域防災拠点)","地区":"高輪地区","構造":"鉄筋コンクリート造","ふりがな":"みたしょうがっこう","英語名称":"Mita Elementary School","電話番号1":"03-3451-3997","電話番号2":"","自治体コード":"131032","一時受入人員可能数":"1213","長期受入人員可能数":"732"},{"name":"高輪区民センター","province":"東京都","city":"港区","address":"東京都港区高輪一丁目16番25号","lat":35.641984,"lon":139.733975,"分類":"区民避難所(地域防災拠点)","地区":"高輪地区","構造":"鉄骨鉄筋コンクリート造","ふりがな":"たかなわくみんせんたー","英語名称":"Takanawa Civic Center","電話番号1":"03-5421-7616","電話番号2":"","自治体コード":"131032","一時受入人員可能数":"393","長期受入人員可能数":"235"},{"name":"白金小学校","province":"東京都","city":"港区","address":"東京都港区白金台一丁目4番26号","lat":35.636807,"lon":139.728541,"分類":"区民避難所(地域防災拠点)","地区":"高輪地区","構造":"鉄筋コンクリート造","ふりがな":"しろかねしょうがっこう","英語名称":"Shirokane Elementary School","電話番号1":"03-3441-5407","電話番号2":"","自治体コード":"131032","一時受入人員可能数":"1805","長期受入人員可能数":"1090"},{"name":"旧三光小学校","province":"東京都","city":"港区","address":"東京都港区白白金三丁目18番2号","lat":35.644328,"lon":139.729204,"分類":"区民避難所(地域防災拠点)","地区":"高輪地区","構造":"鉄筋コンクリート造","ふりがな":"きゅうさんこうしょうがっこう","英語名称":"Former Sanko Elementary School","電話番号1":"03-3441-1001","電話番号2":"","自治体コード":"131032","一時受入人員可能数":"1717","長期受入人員可能数":"1037"},{"name":"白金の丘学園白金の丘小・中学校","province":"東京都","city":"港区","address":"東京都港区白金四丁目1番12号","lat":35.643658,"lon":139.726753,"分類":"区民避難所(地域防災拠点)","地区":"高輪地区","構造":"鉄筋コンクリート造","ふりがな":"しろかねのおかがくえんしろかねのおかしょう・ちゅうがっこう","英語名称":"Shirokane-no-oka Gakuen Shirokane-no-oka Elementaryand Junior High School","電話番号1":"03-3441-5363","電話番号2":"03-3441-5631","自治体コード":"131032","一時受入人員可能数":"4556","長期受入人員可能数":"2756"},{"name":"旧神応小学校","province":"東京都","city":"港区","address":"東京都港区白金六丁目9番5号","lat":35.643633,"lon":139.724277,"分類":"区民避難所(地域防災拠点)","地区":"高輪地区","構造":"鉄筋コンクリート造","ふりがな":"きゅうしんのうしょうがっこう","英語名称":"Former Shinno Elementary School","電話番号1":"03-3441-8391","電話番号2":"","自治体コード":"131032","一時受入人員可能数":"1104","長期受入人員可能数":"660"},{"name":"三田中学校","province":"東京都","city":"港区","address":"東京都港区三田四丁目13番13号","lat":35.645242,"lon":139.740818,"分類":"区民避難所(地域防災拠点)","地区":"高輪地区","構造":"鉄骨鉄筋コンクリート造","ふりがな":"みたちゅうがっこう","英語名称":"Mita Junior High School","電話番号1":"03-5441-7348","電話番号2":"","自治体コード":"131032","一時受入人員可能数":"1443","長期受入人員可能数":"721"},{"name":"高松中学校","province":"東京都","city":"港区","address":"東京都港区高輪一丁目16番25号","lat":35.640624,"lon":139.733937,"分類":"区民避難所(地域防災拠点)","地区":"高輪地区","構造":"鉄骨鉄筋コンクリート造","ふりがな":"たかまつちゅうがっこう","英語名称":"Takamatsu Junior High School","電話番号1":"03-3441-6239","電話番号2":"","自治体コード":"131032","一時受入人員可能数":"2306","長期受入人員可能数":"1394"},{"name":"高輪台小学校","province":"東京都","city":"港区","address":"東京都港区高輪二丁目8番24号","lat":35.636383,"lon":139.734193,"分類":"区民避難所(地域防災拠点)","地区":"高輪地区","構造":"鉄筋コンクリート造","ふりがな":"たかなわだいしょうがっこう","英語名称":"Takanawadai Elementary School","電話番号1":"03-5447-0616","電話番号2":"","自治体コード":"131032","一時受入人員可能数":"943","長期受入人員可能数":"568"},{"name":"高輪子ども中高生プラザ","province":"東京都","city":"港区","address":"東京都港区高輪一丁目4番35号","lat":35.642437,"lon":139.734846,"分類":"区民避難所(地域防災拠点)","地区":"高輪地区","構造":"鉄骨鉄筋コンクリート造","ふりがな":"たかなわこどもちゅうこうせいぷらざ","英語名称":"Takanawa Kids-to-Teens Plaza","電話番号1":"03-3443-1555","電話番号2":"","自治体コード":"131032","一時受入人員可能数":"1005","長期受入人員可能数":"670"},{"name":"豊岡いきいきプラザ","province":"東京都","city":"港区","address":"東京都港区三田五丁目7番7号","lat":35.646517,"lon":139.739624,"分類":"区民避難所(地域防災拠点)","地区":"高輪地区","構造":"鉄筋コンクリート造","ふりがな":"とよおかいきいきぷらざ","英語名称":"Toyooka Iki-iki Plaza","電話番号1":"03-3453-1591","電話番号2":"","自治体コード":"131032","一時受入人員可能数":"121","長期受入人員可能数":"72"},{"name":"高輪いきいきプラザ","province":"東京都","city":"港区","address":"東京都港区高輪三丁目18番15号","lat":35.63322,"lon":139.73571,"分類":"区民避難所(地域防災拠点)","地区":"高輪地区","構造":"鉄筋コンクリート造","ふりがな":"たかなわいきいきぷらざ","英語名称":"Takanawa Iki-iki Plaza","電話番号1":"03-3449-1643","電話番号2":"","自治体コード":"131032","一時受入人員可能数":"138","長期受入人員可能数":"81"},{"name":"白金いきいきプラザ","province":"東京都","city":"港区","address":"東京都港区白金三丁目10番12号","lat":35.644875,"lon":139.731098,"分類":"区民避難所(地域防災拠点)","地区":"高輪地区","構造":"鉄筋コンクリート造","ふりがな":"しろかねいきいきぷらざ","英語名称":"Shirokane Iki-iki Plaza","電話番号1":"03-3441-3680","電話番号2":"","自治体コード":"131032","一時受入人員可能数":"129","長期受入人員可能数":"76"},{"name":"白金台いきいきプラザ","province":"東京都","city":"港区","address":"東京都港区白金台四丁目8番5号","lat":35.637738,"lon":139.724908,"分類":"区民避難所(地域防災拠点)","地区":"高輪地区","構造":"鉄骨鉄筋コンクリート造","ふりがな":"しろかねだいいきいきぷらざ","英語名称":"Shirokanedai Iki-iki Plaza","電話番号1":"03-3440-4627","電話番号2":"","自治体コード":"131032","一時受入人員可能数":"424","長期受入人員可能数":"255"},{"name":"芝浦小学校","province":"東京都","city":"港区","address":"東京都港区芝浦四丁目8番18号","lat":35.638124,"lon":139.746205,"分類":"区民避難所(地域防災拠点)","地区":"芝浦港南地区","構造":"鉄骨鉄筋コンクリート造","ふりがな":"しばうらしょうがっこう","英語名称":"Shibaura Elementary School","電話番号1":"03-3451-4992","電話番号2":"","自治体コード":"131032","一時受入人員可能数":"1339","長期受入人員可能数":"803"},{"name":"港南小学校","province":"東京都","city":"港区","address":"東京都港区港南四丁目3番28号","lat":35.629227,"lon":139.749657,"分類":"区民避難所(地域防災拠点)","地区":"芝浦港南地区","構造":"鉄筋コンクリート造","ふりがな":"こうなんしょうがっこう","英語名称":"Konan Elementary School","電話番号1":"03-3474-1501","電話番号2":"","自治体コード":"131032","一時受入人員可能数":"2427","長期受入人員可能数":"1468"},{"name":"港南中学校","province":"東京都","city":"港区","address":"東京都港区港南四丁目3番3号","lat":35.631207,"lon":139.749078,"分類":"区民避難所(地域防災拠点)","地区":"芝浦港南地区","構造":"鉄筋コンクリート造","ふりがな":"こうなんちゅうがっこう","英語名称":"Konan Junior High School","電話番号1":"03-3471-0238","電話番号2":"","自治体コード":"131032","一時受入人員可能数":"2236","長期受入人員可能数":"1351"},{"name":"芝浦港南区民センター","province":"東京都","city":"港区","address":"東京都港区芝浦四丁目13番1号","lat":35.640555,"lon":139.748687,"分類":"区民避難所(地域防災拠点)","地区":"芝浦港南地区","構造":"鉄筋コンクリート造","ふりがな":"しばうらこうなんくみんセンター","英語名称":"Shibaura-konan Civic Center","電話番号1":"03-3769-8864","電話番号2":"","自治体コード":"131032","一時受入人員可能数":"433","長期受入人員可能数":"259"},{"name":"みなとパーク芝浦(港区スポーツセンター・男女平等参画センター)","province":"東京都","city":"港区","address":"東京都港区芝浦一丁目16番1号","lat":35.646717,"lon":139.751751,"分類":"区民避難所(地域防災拠点)","地区":"芝浦港南地区","構造":"鉄骨造","ふりがな":"みなとぱーくしばうら(みなとくすぽーつせんたー・だんじょびょうどうさんかくせんたー)","英語名称":"Minato Park Shibaura(Minato City Sports Center Gender Equality Center)","電話番号1":"03-6400-0036","電話番号2":"","自治体コード":"131032","一時受入人員可能数":"7442","長期受入人員可能数":"4502"},{"name":"港南子ども中高生プラザ(港区スポーツセンター・男女平等参画センター)","province":"東京都","city":"港区","address":"東京都港区港南四丁目3番7号","lat":35.631063,"lon":139.749897,"分類":"区民避難所(地域防災拠点)","地区":"芝浦港南地区","構造":"鉄骨鉄筋コンクリート造","ふりがな":"こうなんこどもちゅうこうせいぷらざ(みなとくすぽーつせんたー・だんじょびょうどうさんかくせんたー)","英語名称":"Konan Kids-to-Teens Plaza","電話番号1":"03-3450-9576","電話番号2":"","自治体コード":"131032","一時受入人員可能数":"1218","長期受入人員可能数":"730"},{"name":"港南いきいきプラザ","province":"東京都","city":"港区","address":"東京都港区港南四丁目2番1号","lat":35.629624,"lon":139.747098,"分類":"区民避難所(地域防災拠点)","地区":"芝浦港南地区","構造":"鉄筋コンクリート造","ふりがな":"こうなんいきいきぷらざ","英語名称":"Konan Iki-iki Plaza","電話番号1":"03-3450-9915","電話番号2":"","自治体コード":"131032","一時受入人員可能数":"191","長期受入人員可能数":"112"},{"name":"お台場学園港陽小・中学校","province":"東京都","city":"港区","address":"東京都港区台場一丁目1番5号","lat":35.633775,"lon":139.77704,"分類":"区民避難所(地域防災拠点)","地区":"芝浦港南地区","構造":"鉄筋コンクリート造","ふりがな":"おだいばがくえんこうようしょう・ちゅうがっこう","英語名称":"Odaiba Gakuen Koyo Elementary and Junior High School","電話番号1":"03-5500-2575","電話番号2":"","自治体コード":"131032","一時受入人員可能数":"3360","長期受入人員可能数":"2026"},{"name":"台場区民センター","province":"東京都","city":"港区","address":"東京都港区台場一丁目5番1号","lat":35.629987,"lon":139.776995,"分類":"区民避難所(地域防災拠点)","地区":"芝浦港南地区","構造":"鉄骨鉄筋コンクリート造","ふりがな":"だいばくみんせんたー","英語名称":"Daiba Civic Center","電話番号1":"03-5500-2355","電話番号2":"","自治体コード":"131032","一時受入人員可能数":"298","長期受入人員可能数":"179"},{"name":"芝浜小学校","province":"東京都","city":"港区","address":"東京都港区芝浦1丁目16番31号","lat":35.645975,"lon":139.751472,"分類":"区民避難所(地域防災拠点)","地区":"芝浦港南地区","構造":"PcaPc造","ふりがな":"しばはましょうがっこう","英語名称":"Shibahama Elementary School","電話番号1":"03-3769-3051","電話番号2":"","自治体コード":"131032","一時受入人員可能数":"932","長期受入人員可能数":"563"},{"name":"障害保健福祉センター","province":"東京都","city":"港区","address":"東京都港区芝一丁目8番23号","lat":35.651557,"lon":139.755573,"分類":"福祉避難所","地区":"芝地区","構造":"鉄骨鉄筋コンクリート造","ふりがな":"しょうがいほけんふくしせんたー","英語名称":"Health and Welfare Center for the Disabled","電話番号1":"03-5439-2511","電話番号2":"","自治体コード":"131032","一時受入人員可能数":"90","長期受入人員可能数":""},{"name":"新橋はつらつ太陽","province":"東京都","city":"港区","address":"東京都港区新橋六丁目19番2号","lat":35.661205,"lon":139.754003,"分類":"福祉避難所","地区":"芝地区","構造":"鉄骨鉄筋コンクリート造","ふりがな":"しんばしはつらつたいよう","英語名称":"Shimbashi Hatsuratsu Taiyo","電話番号1":"03-3433-0180","電話番号2":"","自治体コード":"131032","一時受入人員可能数":"60","長期受入人員可能数":""},{"name":"特別養護老人ホーム白金の森","province":"東京都","city":"港区","address":"東京都港区白金台五丁目20番5号","lat":35.63709,"lon":139.722072,"分類":"福祉避難所","地区":"高輪地区","構造":"鉄筋コンクリート造","ふりがな":"とくべつようごろうじんほーむしろかねのもり","英語名称":"Shirokane no Mori","電話番号1":"03-3449-9611","電話番号2":"","自治体コード":"131032","一時受入人員可能数":"49","長期受入人員可能数":""},{"name":"特別養護老人ホーム港南の郷","province":"東京都","city":"港区","address":"東京都港区港南三丁目3番23号","lat":35.633266,"lon":139.749263,"分類":"福祉避難所","地区":"芝浦港南地区","構造":"鉄骨鉄筋コンクリート造","ふりがな":"とくべつようごろうじんほーむこうなんのさと","英語名称":"Konan-no-Sato","電話番号1":"03-3450-5571","電話番号2":"","自治体コード":"131032","一時受入人員可能数":"50","長期受入人員可能数":""},{"name":"特別養護老人ホームサン・サン赤坂","province":"東京都","city":"港区","address":"東京都港区赤坂六丁目6番14号","lat":35.669761,"lon":139.737559,"分類":"福祉避難所","地区":"赤坂地区","構造":"鉄筋コンクリート造","ふりがな":"とくべつようごろうじんほーむさん・さんあかさか","英語名称":"Sun-Sun Akasaka","電話番号1":"03-5561-7833","電話番号2":"","自治体コード":"131032","一時受入人員可能数":"50","長期受入人員可能数":""},{"name":"特別養護老人ホーム麻布慶福苑","province":"東京都","city":"港区","address":"東京都港区南麻布五丁目1番20号","lat":35.653668,"lon":139.721819,"分類":"福祉避難所","地区":"麻布地区","構造":"鉄筋コンクリート造","ふりがな":"とくべつようごろうじんほーむあざぶけいふくえん","英語名称":"Azabu Keifukuen","電話番号1":"03-3446-5501","電話番号2":"","自治体コード":"131032","一時受入人員可能数":"52","長期受入人員可能数":""},{"name":"特別養護老人ホームベル","province":"東京都","city":"港区","address":"東京都港区西麻布四丁目7番2号","lat":35.656127,"lon":139.722306,"分類":"福祉避難所","地区":"麻布地区","構造":"鉄筋コンクリート造","ふりがな":"とくべつようごろうじんほーむべる","英語名称":"Bell","電話番号1":"03-3499-2823","電話番号2":"","自治体コード":"131032","一時受入人員可能数":"28","長期受入人員可能数":""},{"name":"特別養護老人ホーム新橋さくらの園","province":"東京都","city":"港区","address":"東京都港区新橋六丁目19番2号","lat":35.661201,"lon":139.753707,"分類":"福祉避難所","地区":"芝地区","構造":"鉄骨鉄筋コンクリート造","ふりがな":"とくべつようごろうじんほーむしんばしさくらのその","英語名称":"Shimbashi Sakura-no-Sono","電話番号1":"03-3433-0183","電話番号2":"","自治体コード":"131032","一時受入人員可能数":"120","長期受入人員可能数":""},{"name":"特別養護老人ホームありすの杜きのこ南麻布","province":"東京都","city":"港区","address":"東京都港区南麻布四丁目6番1号","lat":35.650765,"lon":139.72666,"分類":"福祉避難所","地区":"麻布地区","構造":"鉄筋コンクリート造","ふりがな":"とくべつようごろうじんほーむありすのもりきのこみなみあざぶ","英語名称":"Arisu-no-mori Kinoko Minami-azabu","電話番号1":"03-5739-0585","電話番号2":"","自治体コード":"131032","一時受入人員可能数":"110","長期受入人員可能数":""},{"name":"特別養護老人ホーム洛和ヴィラ南麻布","province":"東京都","city":"港区","address":"東京都港区南麻布四丁目6番1号","lat":35.650244,"lon":139.72673,"分類":"福祉避難所","地区":"麻布地区","構造":"鉄筋コンクリート造","ふりがな":"とくべつようごろうじんほーむらくわヴぃらみなみあざぶ","英語名称":"Rakuwa Villa Minami-azabu","電話番号1":"03-6408-8677","電話番号2":"","自治体コード":"131032","一時受入人員可能数":"110","長期受入人員可能数":""},{"name":"老人保健施設ルネサンス麻布","province":"東京都","city":"港区","address":"東京都港区南麻布二丁目10番21号","lat":35.647927,"lon":139.735179,"分類":"福祉避難所","地区":"麻布地区","構造":"鉄筋コンクリート造","ふりがな":"ろうじんほけんしせつるねさんすあざぶ","英語名称":"Renaissance Azabu","電話番号1":"03-3453-5015","電話番号2":"","自治体コード":"131032","一時受入人員可能数":"50","長期受入人員可能数":""},{"name":"老人保健施設新橋ばらの園","province":"東京都","city":"港区","address":"東京都港区新橋六丁目19番2号","lat":35.661181,"lon":139.753838,"分類":"福祉避難所","地区":"芝地区","構造":"鉄筋コンクリート造","ふりがな":"ろうじんほけんしせつしんばしばらのその","英語名称":"Shimbashi Bara-no-Sono","電話番号1":"03-3433-0182","電話番号2":"","自治体コード":"131032","一時受入人員可能数":"100","長期受入人員可能数":""},{"name":"老人保健施設洛和ヴィラサラサ","province":"東京都","city":"港区","address":"東京都港区南麻布四丁目6番1号","lat":35.650309,"lon":139.726778,"分類":"福祉避難所","地区":"芝地区","構造":"鉄筋コンクリート造","ふりがな":"ろうじんほけんしせつらくわヴぃらさらさ","英語名称":"Rakuwa Villa Sarasa","電話番号1":"03-6408-8676","電話番号2":"","自治体コード":"131032","一時受入人員可能数":"50","長期受入人員可能数":""},{"name":"高齢者在宅サービスセンター白金の森","province":"東京都","city":"港区","address":"東京都港区白金台五丁目20番5号","lat":35.637094,"lon":139.722065,"分類":"福祉避難所","地区":"高輪地区","構造":"鉄筋コンクリート造","ふりがな":"こうれいしゃざいたくさーびすせんたーしろかねのもり","英語名称":"Shirokane-no-Mori","電話番号1":"03-3449-9615","電話番号2":"","自治体コード":"131032","一時受入人員可能数":"60","長期受入人員可能数":""},{"name":"高齢者在宅サービスセンター港南の郷","province":"東京都","city":"港区","address":"東京都港区港南三丁目3番23号","lat":35.633218,"lon":139.749097,"分類":"福祉避難所","地区":"高輪地区","構造":"鉄骨鉄筋コンクリート造","ふりがな":"こうれいしゃざいたくさーびすせんたーこうなんのさと","英語名称":"Konan-no-Sato","電話番号1":"03-3450-5571","電話番号2":"","自治体コード":"131032","一時受入人員可能数":"153","長期受入人員可能数":""},{"name":"高齢者在宅サービスセンターサン・サン赤坂","province":"東京都","city":"港区","address":"東京都港区赤坂六丁目6番14号","lat":35.669778,"lon":139.737515,"分類":"福祉避難所","地区":"赤坂地区","構造":"鉄筋コンクリート造","ふりがな":"こうれいしゃざいたくさーびすせんたーさん・さんあかさか","英語名称":"Sun-Sun Akasaka","電話番号1":"03-5561-7831","電話番号2":"","自治体コード":"131032","一時受入人員可能数":"83","長期受入人員可能数":""},{"name":"南麻布高齢者在宅サービスセンター","province":"東京都","city":"港区","address":"東京都港区南麻布一丁目5番26号","lat":35.651364,"lon":139.735194,"分類":"福祉避難所","地区":"麻布地区","構造":"鉄筋コンクリート造","ふりがな":"みなみあざぶこうれいしゃざいたくさーびすせんたー","英語名称":"Minami-azabu","電話番号1":"03-5232-9672","電話番号2":"","自治体コード":"131032","一時受入人員可能数":"56","長期受入人員可能数":""},{"name":"台場高齢者在宅サービスセンター","province":"東京都","city":"港区","address":"東京都港区台場一丁目5番5号","lat":35.630595,"lon":139.778018,"分類":"福祉避難所","地区":"芝浦港南地区","構造":"鉄骨鉄筋コンクリート造","ふりがな":"だいばこうれいしゃざいたくさーびすせんたー","英語名称":"Daiba","電話番号1":"03-5531-0520","電話番号2":"","自治体コード":"131032","一時受入人員可能数":"59","長期受入人員可能数":""},{"name":"北青山高齢者在宅サービスセンター","province":"東京都","city":"港区","address":"東京都港区北青山一丁目6番1号","lat":35.673546,"lon":139.721794,"分類":"福祉避難所","地区":"芝浦港南地区","構造":"鉄筋コンクリート造","ふりがな":"きたあおやまこうれいしゃざいたくさーびすせんたー","英語名称":"Kita-aoyama","電話番号1":"03-5410-3410","電話番号2":"","自治体コード":"131032","一時受入人員可能数":"116","長期受入人員可能数":""},{"name":"芝高齢者在宅サービスセンター","province":"東京都","city":"港区","address":"東京都港区芝三丁目24番5号","lat":35.651384,"lon":139.748125,"分類":"福祉避難所","地区":"芝地区","構造":"鉄骨造","ふりがな":"しばこうれいしゃざいたくさーびすせんたー","英語名称":"Shiba","電話番号1":"03-5232-0848","電話番号2":"","自治体コード":"131032","一時受入人員可能数":"53","長期受入人員可能数":""},{"name":"虎ノ門高齢者在宅サービスセンター","province":"東京都","city":"港区","address":"東京都港区虎ノ門一丁目21番10号","lat":35.667853,"lon":139.748728,"分類":"福祉避難所","地区":"芝地区","構造":"鉄筋コンクリート造","ふりがな":"とらのもんこうれいしゃざいたくさーびすせんたー","英語名称":"Toranomon","電話番号1":"03-3539-3710","電話番号2":"","自治体コード":"131032","一時受入人員可能数":"45","長期受入人員可能数":""},{"name":"特別養護老人ホーム南麻布シニアガーデンアリス","province":"東京都","city":"港区","address":"東京都港区南麻布四丁目6番13号","lat":35.650591,"lon":139.727203,"分類":"福祉避難所","地区":"麻布地区","構造":"鉄筋コンクリート造","ふりがな":"とくべつようごろうじんほーむみなみあざぶしにあがーでんありす","英語名称":"Minamiazabushiniaga-denarisu","電話番号1":"03-3578-2421","電話番号2":"","自治体コード":"131032","一時受入人員可能数":"","長期受入人員可能数":""},{"name":"区立障害者支援施設 港区立障害者支援ホーム南麻布","province":"東京都","city":"港区","address":"東京都港区南麻布四丁目6番13号","lat":35.650591,"lon":139.727203,"分類":"福祉避難所","地区":"麻布地区","構造":"鉄筋コンクリート造","ふりがな":"みなとくりつしょうがいしゃしえんほーむみなみあざぶ","英語名称":"Minatokuritu syougaisyasienho-muminamiazabu","電話番号1":"03-3578-2387","電話番号2":"","自治体コード":"131032","一時受入人員可能数":"","長期受入人員可能数":""},{"name":"児童発達支援センター","province":"東京都","city":"港区","address":"東京都港区南麻布四丁目6番13号","lat":35.650591,"lon":139.727203,"分類":"福祉避難所","地区":"麻布地区","構造":"鉄筋コンクリート造","ふりがな":"じどうはったつしえんせんたー","英語名称":"","電話番号1":"03-6277-3106","電話番号2":"","自治体コード":"131032","一時受入人員可能数":"","長期受入人員可能数":""}]}