{"keyword":"開設","data":[{"name":"関東ITソフトウェア健康保険組合職域接種会場・山王","province":"東京都","city":"港区","address":"東京都港区赤坂二丁目5番6号","lat":35.672787,"lon":139.73973,"年月":"202110","施設方書":"","施設開設日":"2021/8/30","施設電話番号":"03-5925-5300","診療科目名称":"内科"},{"name":"インディバークリニック","province":"東京都","city":"港区","address":"東京都港区海岸三丁目26番1号","lat":35.645293,"lon":139.758639,"年月":"202110","施設方書":"バーク芝浦ビル5階","施設開設日":"2021/10/12","施設電話番号":"03-6436-7991","診療科目名称":"内科、歯科、神経内科"},{"name":"メンズプライドクリニックMITA","province":"東京都","city":"港区","address":"東京都港区芝五丁目32番3号","lat":35.647283,"lon":139.74757,"年月":"202110","施設方書":"林ビル7階","施設開設日":"2021/10/21","施設電話番号":"03-6381-7258","診療科目名称":"内科"},{"name":"東京エムケイ株式会社 診療所","province":"東京都","city":"港区","address":"東京都港区東新橋一丁目3番9号","lat":35.66419,"lon":139.758919,"年月":"202110","施設方書":"第4小田ビル3階","施設開設日":"2021/6/19","施設電話番号":"03-5547-5547","診療科目名称":""},{"name":"biotope clinic 白金","province":"東京都","city":"港区","address":"東京都港区白金台四丁目9番10号","lat":35.637364,"lon":139.724076,"年月":"202111","施設方書":"白金台グリーン・リーブス2階","施設開設日":"2021/11/18","施設電話番号":"03-5422-9901","診療科目名称":"形成外科、美容外科、皮膚科、美容皮膚科"},{"name":"AIM beauty medical clinic","province":"東京都","city":"港区","address":"東京都港区高輪二丁目19番20号","lat":35.640009,"lon":139.741113,"年月":"202202","施設方書":"財界二世学院ビル8階","施設開設日":"2022/2/1","施設電話番号":"03-6450-2458","診療科目名称":"美容皮膚科、皮膚科、婦人科"},{"name":"スピカクリニック","province":"東京都","city":"港区","address":"東京都港区西麻布一丁目11番6号","lat":35.660346,"lon":139.724609,"年月":"202111","施設方書":"ホテル&レジデンス六本木1008号室","施設開設日":"2021/11/24","施設電話番号":"03-6555-2814","診療科目名称":"美容皮膚科"},{"name":"あおきクリニック","province":"東京都","city":"港区","address":"東京都港区浜松町一丁目9番12号","lat":35.659436,"lon":139.755854,"年月":"202112","施設方書":"中野ビル5階","施設開設日":"2021/12/1","施設電話番号":"03-6432-4340","診療科目名称":"内科、精神科、救急科"},{"name":"ブレインクリニック浜松町","province":"東京都","city":"港区","address":"東京都港区浜松町二丁目7番17号","lat":35.654122,"lon":139.754567,"年月":"202112","施設方書":"イーグル浜松町5階","施設開設日":"2021/12/17","施設電話番号":"03-6721-5967","診療科目名称":"精神科、神経内科、内科"},{"name":"東京美容外科品川院","province":"東京都","city":"港区","address":"東京都港区港南二丁目2番16号","lat":35.6292224,"lon":139.7398423,"年月":"202201","施設方書":"谷田企画第一ビル6階","施設開設日":"2022/1/8","施設電話番号":"03-5479-5700","診療科目名称":"美容外科、形成外科、美容皮膚科"},{"name":"愛宕クリニック","province":"東京都","city":"港区","address":"東京都港区新橋二丁目16番1号","lat":35.666423,"lon":139.757358,"年月":"202201","施設方書":"ニュー新橋ビル302号","施設開設日":"2022/1/31","施設電話番号":"03-5319-8822","診療科目名称":"形成外科、性感染症内科"},{"name":"リーンクリニック","province":"東京都","city":"港区","address":"東京都港区西新橋二丁目9番7号","lat":35.666668,"lon":139.753159,"年月":"202201","施設方書":"クインズビル4D","施設開設日":"2022/1/17","施設電話番号":"050-3717-2818","診療科目名称":"美容内科"},{"name":"表参道ヘレネ内科クリニック","province":"東京都","city":"港区","address":"東京都港区南青山五丁目12番2号","lat":35.661699,"lon":139.713018,"年月":"202201","施設方書":"倉澤ビル8階","施設開設日":"2022/1/1","施設電話番号":"03-3400-2277","診療科目名称":"内科"},{"name":"品川プリンスホテル 医務室","province":"東京都","city":"港区","address":"東京都港区高輪四丁目10番30号","lat":35.627534,"lon":139.736622,"年月":"202202","施設方書":"メインタワー6階641","施設開設日":"2022/2/16","施設電話番号":"03-3440-1111","診療科目名称":"内科"},{"name":"美容皮膚科 さくらクリニック表参道院","province":"東京都","city":"港区","address":"東京都港区北青山三丁目13番12号","lat":35.663955,"lon":139.709301,"年月":"202203","施設方書":"オムニクォータービル2階","施設開設日":"2022/3/1","施設電話番号":"03-6803-8117","診療科目名称":"内科、皮膚科、美容皮膚科"},{"name":"新橋駅前眼科皮膚科","province":"東京都","city":"港区","address":"東京都港区新橋二丁目19番10号","lat":35.666847,"lon":139.759418,"年月":"202203","施設方書":"新橋マリンビル3階","施設開設日":"2022/3/3","施設電話番号":"03-6228-5245","診療科目名称":"眼科、皮膚科"},{"name":"IQVIAサービシーズジャパングループ職域接種会場","province":"東京都","city":"港区","address":"東京都港区高輪四丁目10番18号","lat":35.628707,"lon":139.736861,"年月":"202203","施設方書":"京急第1ビル8階","施設開設日":"2021/9/7","施設電話番号":"03-6859-9500","診療科目名称":""},{"name":"ALSOK職域接種診療所","province":"東京都","city":"港区","address":"東京都港区元赤坂一丁目6番6号","lat":35.678234,"lon":139.73335,"年月":"202203","施設方書":"安全ビル3階","施設開設日":"2022/3/3","施設電話番号":"03-3402-7487","診療科目名称":"内科"},{"name":"ママとキッズのデンタルクリニック青山","province":"東京都","city":"港区","address":"東京都港区北青山三丁目11番7号","lat":35.663812,"lon":139.710655,"年月":"202111","施設方書":"AOビル3階","施設開設日":"2021/11/1","施設電話番号":"03-6427-2102","診療科目名称":"歯科、小児歯科、歯科口腔外科、矯正歯科"},{"name":"東京ステラ矯正歯科 表参道","province":"東京都","city":"港区","address":"東京都港区南青山三丁目18番19号","lat":35.665213,"lon":139.712948,"年月":"202111","施設方書":"東亜バッヂビル5階","施設開設日":"2021/11/6","施設電話番号":"03-6549-2139","診療科目名称":"矯正歯科、歯科口腔外科、歯科"},{"name":"新赤坂歯科","province":"東京都","city":"港区","address":"東京都港区赤坂四丁目2番5号","lat":35.675695,"lon":139.735645,"年月":"202202","施設方書":"赤坂ヤブタビル4階","施設開設日":"2022/2/1","施設電話番号":"03-3583-0418","診療科目名称":"歯科、矯正歯科、歯科口腔外科"},{"name":"山内歯科医院","province":"東京都","city":"港区","address":"東京都港区白金台五丁目13番12号","lat":35.638073,"lon":139.722514,"年月":"202202","施設方書":"","施設開設日":"2022/2/14","施設電話番号":"03-3441-6377","診療科目名称":"歯科、矯正歯科、小児歯科"},{"name":"慶應義塾大学 三田健診診療所","province":"東京都","city":"港区","address":"東京都港区三田二丁目15番45号","lat":35.648366,"lon":139.743172,"年月":"202204","施設方書":"慶應義塾大学 三田キャンパス","施設開設日":"2022/4/26","施設電話番号":"","診療科目名称":"内科"},{"name":"南青山ひだまりクリニック","province":"東京都","city":"港区","address":"東京都港区南青山三丁目1番30号","lat":35.667696,"lon":139.715824,"年月":"202204","施設方書":"1階","施設開設日":"2022/4/1","施設電話番号":"03-6447-0518","診療科目名称":"内科、皮膚科"},{"name":"韓日文化交流センター職域接種診療所","province":"東京都","city":"港区","address":"東京都港区南麻布一丁目7番32号","lat":35.651541,"lon":139.736986,"年月":"202204","施設方書":"韓国中央会館8階 会議室","施設開設日":"2022/4/14","施設電話番号":"03-3454-4916","診療科目名称":""},{"name":"AIM Beauty Medical Clinic 泉岳寺院","province":"東京都","city":"港区","address":"東京都港区高輪二丁目19番20号","lat":35.640009,"lon":139.741113,"年月":"202205","施設方書":"財界二世学院ビル8階","施設開設日":"2022/4/27","施設電話番号":"03-6450-2458","診療科目名称":"美容皮膚科、皮膚科、婦人科"},{"name":"パナソニック虎ノ門健康管理室","province":"東京都","city":"港区","address":"東京都港区虎ノ門三丁目4番10号","lat":35.665742,"lon":139.746642,"年月":"202205","施設方書":"虎ノ門35森ビル2階","施設開設日":"2022/5/16","施設電話番号":"03-5404-5206","診療科目名称":"内科"},{"name":"神谷町内科・セカンドオピニオンクリニック","province":"東京都","city":"港区","address":"東京都港区虎ノ門五丁目6番7号","lat":35.662916,"lon":139.742619,"年月":"202205","施設方書":"1階","施設開設日":"2022/5/23","施設電話番号":"","診療科目名称":"循環器内科、糖尿病内科、老年内科"},{"name":"芝公園訪問クリニック","province":"東京都","city":"港区","address":"東京都港区芝三丁目13番12号","lat":35.652527,"lon":139.745583,"年月":"202206","施設方書":"301","施設開設日":"2022/6/6","施設電話番号":"050-3150-8580","診療科目名称":"内科"},{"name":"虎ノ門リウマチ膠原病内科","province":"東京都","city":"港区","address":"東京都港区虎ノ門一丁目1番18号","lat":35.670054,"lon":139.750888,"年月":"202206","施設方書":"ヒューリック虎ノ門ビル1階","施設開設日":"2022/6/1","施設電話番号":"03-6206-7388","診療科目名称":"内科、リウマチ科、アレルギー科"},{"name":"ラファエル","province":"東京都","city":"港区","address":"東京都港区海岸三丁目24番18号","lat":35.645356,"lon":139.756723,"年月":"202207","施設方書":"ラシクラスEX 東京ベイ901号","施設開設日":"2022/7/1","施設電話番号":"050-6877-5607","診療科目名称":"精神科、心療内科"},{"name":"CLINIC by E 2nd","province":"東京都","city":"港区","address":"東京都港区麻布十番一丁目7番11号","lat":35.656315,"lon":139.734587,"年月":"202208","施設方書":"麻布井上ビル2階","施設開設日":"2022/8/20","施設電話番号":"050-5530-0965","診療科目名称":"美容皮膚科、美容外科"},{"name":"HELPOクリニック","province":"東京都","city":"港区","address":"東京都港区芝公園二丁目10番4号","lat":35.654673,"lon":139.752565,"年月":"202208","施設方書":"浜松町ウエストビル5階","施設開設日":"2022/8/1","施設電話番号":"03-5422-1178","診療科目名称":"皮膚科、アレルギー科、内科"},{"name":"麻布もちもち訪問クリニック","province":"東京都","city":"港区","address":"東京都港区南麻布四丁目5番56号","lat":35.650121,"lon":139.724111,"年月":"202208","施設方書":"キャッスル佐藤102号","施設開設日":"2022/8/25","施設電話番号":"050-3184-1591","診療科目名称":"内科"},{"name":"表参道メディカルクリニック 六本木院","province":"東京都","city":"港区","address":"東京都港区六本木六丁目1番26号","lat":35.662959,"lon":139.732196,"年月":"202302","施設方書":"六本木天城ビル7階、8階","施設開設日":"2023/1/1","施設電話番号":"03-6625-5050","診療科目名称":"美容皮膚科"},{"name":"東桜クリニック 赤坂見附","province":"東京都","city":"港区","address":"東京都港区赤坂四丁目2番1号","lat":35.675182,"lon":139.735443,"年月":"202209","施設方書":"JFBビル2階","施設開設日":"2022/9/21","施設電話番号":"03-5570-8711","診療科目名称":"耳鼻咽喉科、アレルギー科"},{"name":"クリニカベラフォーマ","province":"東京都","city":"港区","address":"東京都港区赤坂二丁目3番5号","lat":35.671237,"lon":139.741652,"年月":"202210","施設方書":"赤坂スターゲートプラザ16階","施設開設日":"2022/10/17","施設電話番号":"03-5545-5514","診療科目名称":"形成外科、美容外科、皮膚科、美容皮膚科"},{"name":"SENSHIN CLINIC","province":"東京都","city":"港区","address":"東京都港区南青山三丁目1番30号","lat":35.667696,"lon":139.715824,"年月":"202210","施設方書":"PASONA SQUARE 3階","施設開設日":"2022/10/1","施設電話番号":"03-6384-5435","診療科目名称":"婦人科、乳腺外科、美容皮膚科"},{"name":"RENATA CLINIC 表参道院","province":"東京都","city":"港区","address":"東京都港区南青山五丁目11番2号","lat":35.669439,"lon":139.716711,"年月":"202210","施設方書":"SANWA南青山Bldg.8階","施設開設日":"2022/10/1","施設電話番号":"03-6433-5300","診療科目名称":"美容外科、美容皮膚科"},{"name":"医療法人社団ビーンズ美容皮膚科さくらクリニック表参道院","province":"東京都","city":"港区","address":"東京都港区北青山三丁目13番12号","lat":35.663955,"lon":139.709301,"年月":"202211","施設方書":"オムニクォータービル2階","施設開設日":"2022/11/1","施設電話番号":"03-6803-8117","診療科目名称":"内科、皮膚科、美容皮膚科"},{"name":"ReM CLINIC","province":"東京都","city":"港区","address":"東京都港区芝五丁目36番7号","lat":35.644815,"lon":139.744846,"年月":"202211","施設方書":"三田ベルジュビル地下1階","施設開設日":"2022/11/16","施設電話番号":"","診療科目名称":"内科、皮膚科、美容皮膚科、泌尿器科"},{"name":"虎ノ門中村クリニック","province":"東京都","city":"港区","address":"東京都港区虎ノ門三丁目10番4号","lat":35.664775,"lon":139.74772,"年月":"202211","施設方書":"虎ノ門ガーデン103","施設開設日":"2022/11/1","施設電話番号":"03-6823-1409","診療科目名称":"内科、消化器内科、皮膚科、耳鼻咽喉科、糖尿病・代謝内科、小児科、美容皮膚科"},{"name":"CLINIC by E","province":"東京都","city":"港区","address":"東京都港区元麻布一丁目2番13号","lat":35.655087,"lon":139.734028,"年月":"202301","施設方書":"元麻布ガーデン2階","施設開設日":"2023/1/15","施設電話番号":"03-6722-6222","診療科目名称":"美容皮膚科、美容外科"},{"name":"HADA LOUNGE クリニック 南青山院","province":"東京都","city":"港区","address":"東京都港区南青山三丁目2番7号","lat":35.667668,"lon":139.71778,"年月":"202302","施設方書":"ブラック青山4F号室","施設開設日":"2023/1/29","施設電話番号":"0120-939-546","診療科目名称":"美容皮膚科、精神科"},{"name":"DMC新六本木クリニック","province":"東京都","city":"港区","address":"東京都港区六本木七丁目15番17号","lat":35.662292,"lon":139.729638,"年月":"202302","施設方書":"ユニ六本木ビル6階D号室・E号室","施設開設日":"2023/2/27","施設電話番号":"03-6455-5176","診療科目名称":"内科"},{"name":"Clinic Neo Vista","province":"東京都","city":"港区","address":"東京都港区白金六丁目2番12号","lat":35.644059,"lon":139.722704,"年月":"202303","施設方書":"倉木アパート3号","施設開設日":"2023/3/27","施設電話番号":"","診療科目名称":"精神科、心療内科、内科、皮膚科、眼科、整形外科"},{"name":"Lino Dental Office","province":"東京都","city":"港区","address":"東京都港区南青山一丁目26番4号","lat":35.666789,"lon":139.727303,"年月":"202204","施設方書":"六本木ダイヤビル2階","施設開設日":"2022/4/1","施設電話番号":"03-5843-0113","診療科目名称":"歯科、小児歯科、歯科口腔外科"},{"name":"内山歯科クリニック","province":"東京都","city":"港区","address":"東京都港区南青山二丁目7番27号","lat":35.671015,"lon":139.722201,"年月":"202204","施設方書":"フォレストサイドI2階","施設開設日":"2022/4/1","施設電話番号":"03-6804-1180","診療科目名称":"歯科、歯科口腔外科、矯正歯科"},{"name":"サンライズ青山メディカルデンタルクリニック","province":"東京都","city":"港区","address":"東京都港区南青山二丁目14番21号","lat":35.670569,"lon":139.720835,"年月":"202208","施設方書":"平岡ビル1階","施設開設日":"2022/8/1","施設電話番号":"03-3403-1995","診療科目名称":"内科、歯科、矯正歯科、小児歯科"},{"name":"オーラルアートクリニック西麻布 歯科&矯正歯科","province":"東京都","city":"港区","address":"東京都港区西麻布一丁目11番6号","lat":35.660346,"lon":139.724609,"年月":"202209","施設方書":"ホテル&レジデンス六本木1401","施設開設日":"2022/9/1","施設電話番号":"03-6555-4135","診療科目名称":"歯科、矯正歯科、歯科口腔外科"},{"name":"東京stellaデンタルクリニック表参道院","province":"東京都","city":"港区","address":"東京都港区南青山三丁目18番19号","lat":35.665213,"lon":139.712948,"年月":"202209","施設方書":"東亜バッヂビル5階","施設開設日":"2022/9/21","施設電話番号":"03-6549-2139","診療科目名称":"矯正歯科、歯科口腔外科、歯科"},{"name":"新赤坂歯科医院","province":"東京都","city":"港区","address":"東京都港区赤坂四丁目2番5号","lat":35.675695,"lon":139.735645,"年月":"202210","施設方書":"赤坂ヤブタビル401","施設開設日":"2022/8/29","施設電話番号":"03-3583-0418","診療科目名称":"歯科、歯科口腔外科、矯正歯科、小児歯科"},{"name":"赤坂アート歯科","province":"東京都","city":"港区","address":"東京都港区赤坂五丁目1番35号","lat":35.673917,"lon":139.736047,"年月":"202210","施設方書":"1階","施設開設日":"2022/10/19","施設電話番号":"03-5545-5578","診療科目名称":"歯科、歯科口腔外科、矯正歯科"},{"name":"青山外苑矯正歯科","province":"東京都","city":"港区","address":"東京都港区北青山二丁目7番22号","lat":35.670843,"lon":139.717058,"年月":"202211","施設方書":"H・T神宮外苑ビル4階","施設開設日":"2022/11/24","施設電話番号":"03-3404-0418","診療科目名称":"矯正歯科、歯科"},{"name":"アルト新橋胃腸肛門クリニック","province":"東京都","city":"港区","address":"東京都港区新橋一丁目15番7号","lat":35.668089,"lon":139.757282,"年月":"202304","施設方書":"新橋NFビル4F","施設開設日":"2023/4/1","施設電話番号":"03-5157-5841","診療科目名称":"内視鏡内科、胃腸内科、消化器内科、肛門内科、内科"},{"name":"医療法人社団東雲会 新橋-虎ノ門内視鏡クリニック","province":"東京都","city":"港区","address":"東京都港区西新橋一丁目17番8号","lat":35.667238,"lon":139.753728,"年月":"202304","施設方書":"須田ビル1F","施設開設日":"2023/4/1","施設電話番号":"03-6205-4106","診療科目名称":"内科、消化器内科、消化器外科"},{"name":"Tケアクリニック 浜松町","province":"東京都","city":"港区","address":"東京都港区浜松町二丁目13番9号","lat":35.653219,"lon":139.755529,"年月":"202304","施設方書":"G1ビル2階","施設開設日":"2023/4/6","施設電話番号":"03-5422-1011","診療科目名称":"内科、美容皮膚科"},{"name":"一般社団法人Medivate ラボーテクリニック","province":"東京都","city":"港区","address":"東京都港区南青山二丁目2番15号","lat":35.671444,"lon":139.723779,"年月":"202304","施設方書":"ウィン青山332","施設開設日":"2023/4/27","施設電話番号":"","診療科目名称":"内科、皮膚科、泌尿器科、婦人科"},{"name":"センクサスクリニック","province":"東京都","city":"港区","address":"東京都港区赤坂一丁目12番32号","lat":35.667113,"lon":139.740135,"年月":"202306","施設方書":"アーク森ビル24階","施設開設日":"2023/6/1","施設電話番号":"","診療科目名称":"内科"},{"name":"広尾訪問クリニック","province":"東京都","city":"港区","address":"東京都港区南麻布四丁目5番56号","lat":35.650121,"lon":139.724111,"年月":"202306","施設方書":"キャッスル佐藤102号","施設開設日":"2023/6/27","施設電話番号":"","診療科目名称":"内科"},{"name":"Clinic Reva","province":"東京都","city":"港区","address":"東京都港区南麻布一丁目27番20号","lat":35.649803,"lon":139.734131,"年月":"202307","施設方書":"カーサ麻布ANNEX 402号","施設開設日":"2023/7/7","施設電話番号":"03-6824-4706","診療科目名称":"美容皮膚科"},{"name":"Y’s clinic内科・美容皮膚科 六本木院","province":"東京都","city":"港区","address":"東京都港区六本木五丁目16番4号","lat":35.662664,"lon":139.732639,"年月":"202307","施設方書":"ZONE麻布六本木ビル8階","施設開設日":"2023/7/21","施設電話番号":"070-8582-9560","診療科目名称":"内科、美容皮膚科、形成外科"},{"name":"M+美容医療クリニック by e.","province":"東京都","city":"港区","address":"東京都港区麻布十番一丁目6番7号","lat":35.65649,"lon":139.734145,"年月":"202310","施設方書":"F1プラザビル3階","施設開設日":"2023/10/25","施設電話番号":"0120-577-055","診療科目名称":"美容皮膚科"},{"name":"Butterfly Clinic","province":"東京都","city":"港区","address":"東京都港区六本木七丁目8番8号","lat":35.664847,"lon":139.730098,"年月":"202402","施設方書":"ミクニ六本木ビル4階","施設開設日":"2024/2/5","施設電話番号":"03-6434-0758","診療科目名称":"皮膚科、美容皮膚科"},{"name":"パルフェクリニック歯科医科","province":"東京都","city":"港区","address":"東京都港区北青山三丁目11番7号","lat":35.663812,"lon":139.710655,"年月":"202305","施設方書":"AOビル3階","施設開設日":"2023/5/31","施設電話番号":"03-6452-6035","診療科目名称":"歯科、小児歯科、歯科口腔外科、矯正歯科、内科"},{"name":"虎ノ門西新橋ナカモト歯科クリニック","province":"東京都","city":"港区","address":"東京都港区西新橋一丁目22番10号","lat":35.667929,"lon":139.751692,"年月":"202306","施設方書":"西新橋アネックスビル1階","施設開設日":"2023/6/1","施設電話番号":"03-3580-6070","診療科目名称":"歯科、矯正歯科"},{"name":"麻布セントラルクリニック","province":"東京都","city":"港区","address":"東京都港区麻布十番一丁目6番6号","lat":35.656415,"lon":139.734098,"年月":"202404","施設方書":"魚可津ビル3階6階","施設開設日":"2024/4/8","施設電話番号":"03-6447-0758","診療科目名称":"内科、美容皮膚科"},{"name":"表参道内科眼科","province":"東京都","city":"港区","address":"東京都港区北青山三丁目5番5号","lat":35.667381,"lon":139.714228,"年月":"202404","施設方書":"ティアラ北青山ビル7階","施設開設日":"2024/4/1","施設電話番号":"03-6804-3231","診療科目名称":"内科、眼科"},{"name":"医療法人社団健勝会港三田クリニック","province":"東京都","city":"港区","address":"東京都港区芝五丁目1番13号","lat":35.650026,"lon":139.745063,"年月":"202404","施設方書":"MAビル三田2 6階","施設開設日":"2024/4/1","施設電話番号":"03-3456-3391","診療科目名称":"内科、消化器内科、胃腸内科、循環器内科、呼吸器内科、小児科、婦人科"},{"name":"大口眼科","province":"東京都","city":"港区","address":"東京都港区芝浦三丁目6番3号","lat":35.643533,"lon":139.748877,"年月":"202404","施設方書":"協栄ビル4階","施設開設日":"2024/4/1","施設電話番号":"03-5730-1313","診療科目名称":"眼科"},{"name":"医療法人社団晴栄会白金ビューティフルエイジングクリニック","province":"東京都","city":"港区","address":"東京都港区白金六丁目6番1号","lat":35.644302,"lon":139.725567,"年月":"202404","施設方書":"マンション芝白金3階","施設開設日":"2024/4/1","施設電話番号":"03-5791-4800","診療科目名称":"美容外科、形成外科"},{"name":"医療法人社団桜柊会 白金台おがわクリニック","province":"東京都","city":"港区","address":"東京都港区白金台三丁目8番3号","lat":35.635117,"lon":139.728022,"年月":"202404","施設方書":"","施設開設日":"2024/4/1","施設電話番号":"03-6447-7081","診療科目名称":"内科、糖尿病内科、内分泌代謝内科、消化器内科、小児科"},{"name":"医療法人社団哲医会西麻布クリニック","province":"東京都","city":"港区","address":"東京都港区西麻布一丁目6番7号","lat":35.661247,"lon":139.725827,"年月":"202404","施設方書":"3階","施設開設日":"2024/4/1","施設電話番号":"03-3403-6696","診療科目名称":"内科、外科、胃腸内科、肛門外科"},{"name":"Tokyo Capital Clinic","province":"東京都","city":"港区","address":"東京都港区西麻布三丁目6番1号","lat":35.65629,"lon":139.726345,"年月":"202404","施設方書":"六本木センチュリオンタワー501","施設開設日":"2024/4/30","施設電話番号":"03-6271-5541","診療科目名称":"美容内科、泌尿器科"},{"name":"日比谷アイクリニック","province":"東京都","city":"港区","address":"東京都港区西新橋一丁目3番1号","lat":35.668933,"lon":139.754666,"年月":"202404","施設方書":"西新橋スクエア3階内幸町メディカルモール","施設開設日":"2024/4/1","施設電話番号":"03-5510-2222","診療科目名称":"眼科"},{"name":"ラベンダーメンタルクリニック 浜松町","province":"東京都","city":"港区","address":"東京都港区浜松町二丁目3番1号","lat":35.656067,"lon":139.755541,"年月":"202404","施設方書":"日本生命浜松町クレアタワー4F","施設開設日":"2024/4/1","施設電話番号":"03-5843-8972","診療科目名称":"精神科、心療内科"},{"name":"SAGARA女性クリニック","province":"東京都","city":"港区","address":"東京都港区南青山三丁目7番5号","lat":35.666758,"lon":139.716439,"年月":"202404","施設方書":"アルプスプラザ101","施設開設日":"2024/4/4","施設電話番号":"","診療科目名称":"婦人科"},{"name":"栄養クリニック 表参道院","province":"東京都","city":"港区","address":"東京都港区南青山三丁目16番14号","lat":35.664402,"lon":139.714659,"年月":"202404","施設方書":"プラサータ青山203","施設開設日":"2024/4/25","施設電話番号":"","診療科目名称":"内科、皮膚科、泌尿器科、小児科、婦人科、アレルギー科、耳鼻いんこう科、眼科、リウマチ科、心療内科、神経内科"},{"name":"六本木美容医療クリニック","province":"東京都","city":"港区","address":"東京都港区六本木三丁目10番9号","lat":35.66339,"lon":139.733109,"年月":"202404","施設方書":"枻川誠志堂ビル4F","施設開設日":"2024/4/15","施設電話番号":"03-6434-9506","診療科目名称":"美容内科、美容皮膚科"},{"name":"足と歩行のクリニックrege六本木院","province":"東京都","city":"港区","address":"東京都港区六本木七丁目15番17号","lat":35.662292,"lon":139.729638,"年月":"202404","施設方書":"ユニ六本木ビル3階","施設開設日":"2024/4/2","施設電話番号":"03-6812-9022","診療科目名称":"内科、形成外科、整形外科"},{"name":"LIF SKIN CLINIC","province":"東京都","city":"港区","address":"東京都港区麻布十番一丁目7番1号","lat":35.656628,"lon":139.734607,"年月":"202405","施設方書":"ヨーロッパハウス4階","施設開設日":"2024/5/15","施設電話番号":"03-6812-9333","診療科目名称":"美容皮膚科"},{"name":"BeB CLINIC","province":"東京都","city":"港区","address":"東京都港区麻布十番三丁目11番11号","lat":35.652722,"lon":139.735184,"年月":"202405","施設方書":"airビル5階","施設開設日":"2024/5/1","施設電話番号":"03-6809-4222","診療科目名称":"美容皮膚科"},{"name":"平和医院","province":"東京都","city":"港区","address":"東京都港区麻布台一丁目7番3号","lat":35.660991,"lon":139.743069,"年月":"202405","施設方書":"VORT神谷町2 2階","施設開設日":"2024/5/28","施設電話番号":"03-5797-8367","診療科目名称":"糖尿病内科、内科、形成外科、皮膚科"},{"name":"エピクリニック","province":"東京都","city":"港区","address":"東京都港区北青山三丁目13番12号","lat":35.663955,"lon":139.709301,"年月":"202405","施設方書":"オムニクォータービル2階","施設開設日":"2024/5/6","施設電話番号":"03-6803-8117","診療科目名称":"美容皮膚科"},{"name":"田町クリニック","province":"東京都","city":"港区","address":"東京都港区芝浦三丁目4番1号","lat":35.643577,"lon":139.745802,"年月":"202405","施設方書":"グランパークB1F","施設開設日":"2024/5/1","施設電話番号":"03-6453-9481","診療科目名称":"脳神経外科、内科"},{"name":"CLINIC UP 新橋駅前院","province":"東京都","city":"港区","address":"東京都港区新橋二丁目9番7号","lat":35.666872,"lon":139.756952,"年月":"202405","施設方書":"IKENO‐7、8階","施設開設日":"2024/5/1","施設電話番号":"03-6550-9177","診療科目名称":"内科"},{"name":"Ledian Clinic","province":"東京都","city":"港区","address":"東京都港区六本木五丁目2番2号","lat":35.662305,"lon":139.733649,"年月":"202405","施設方書":"トーマスビル1階","施設開設日":"2024/5/15","施設電話番号":"050-8889-3863","診療科目名称":"美容皮膚科、美容内科"},{"name":"QUIC BEAUTY CLINIC","province":"東京都","city":"港区","address":"東京都港区赤坂六丁目13番13号","lat":35.669837,"lon":139.733847,"年月":"202406","施設方書":"エストグランディールCARO303号室","施設開設日":"2024/5/31","施設電話番号":"03-6756-5181","診療科目名称":"美容皮膚科、内科"},{"name":"いびきのクリニック 品川院","province":"東京都","city":"港区","address":"東京都港区港南二丁目2番16号","lat":35.6292224,"lon":139.7398423,"年月":"202406","施設方書":"谷田企画第一ビル6階","施設開設日":"2024/6/2","施設電話番号":"050-5805-9291","診療科目名称":"耳鼻いんこう科、頭部皮膚科"},{"name":"田町・芝浦 胃と腸の内視鏡・内科クリニック 東京港区院","province":"東京都","city":"港区","address":"東京都港区芝浦三丁目13番12号","lat":35.642906,"lon":139.74832,"年月":"202406","施設方書":"PhilPark 田町 Shibaura 4階","施設開設日":"2024/6/1","施設電話番号":"03-5443-5550","診療科目名称":"内科、消化器内科"},{"name":"yobo clinic","province":"東京都","city":"港区","address":"東京都港区芝浦三丁目19番19号","lat":35.641489,"lon":139.748737,"年月":"202406","施設方書":"オーアイ芝浦ビル6F","施設開設日":"2024/6/6","施設電話番号":"03-5422-7957","診療科目名称":"内科、心療内科、婦人科、皮膚科、泌尿器科、アレルギー科、リウマチ科"},{"name":"3rd Clinic","province":"東京都","city":"港区","address":"東京都港区芝公園三丁目4番30号","lat":35.658906,"lon":139.746403,"年月":"202406","施設方書":"32芝公園ビル6階","施設開設日":"2024/6/20","施設電話番号":"03-6452-8109","診療科目名称":"整形外科"},{"name":"ISTこころみクリニック大門浜松町 心療内科・精神科","province":"東京都","city":"港区","address":"東京都港区芝大門二丁目1番13号","lat":35.655898,"lon":139.75298,"年月":"202406","施設方書":"芝大友ビル6階","施設開設日":"2024/6/1","施設電話番号":"03-5843-8312","診療科目名称":"心療内科、精神科"},{"name":"東京植毛クリニック","province":"東京都","city":"港区","address":"東京都港区芝大門二丁目10番4号","lat":35.654507,"lon":139.753189,"年月":"202406","施設方書":"SGビル4階","施設開設日":"2024/6/12","施設電話番号":"03-5046-4241","診療科目名称":"美容外科"},{"name":"ジェネラルクリニック","province":"東京都","city":"港区","address":"東京都港区六本木六丁目1番20号","lat":35.662411,"lon":139.731304,"年月":"202406","施設方書":"六本木電気ビルディング2階","施設開設日":"2024/6/1","施設電話番号":"03-3401-0333","診療科目名称":"婦人科、内科、美容皮膚科"},{"name":"ラカンクリニック東京 麻布台","province":"東京都","city":"港区","address":"東京都港区麻布台一丁目3番1号","lat":35.660882,"lon":139.740657,"年月":"202407","施設方書":"麻布台ヒルズ 森JPタワー4階","施設開設日":"2024/7/23","施設電話番号":"03-6277-6112","診療科目名称":"整形外科"},{"name":"Snow Medical Clinic","province":"東京都","city":"港区","address":"東京都港区芝五丁目25番9号","lat":35.647314,"lon":139.744746,"年月":"202407","施設方書":"三田スクエアビル5階","施設開設日":"2024/7/17","施設電話番号":"03-6722-0318","診療科目名称":"美容皮膚科"},{"name":"東京セントセルクリニック","province":"東京都","city":"港区","address":"東京都港区新橋二丁目16番1号","lat":35.666423,"lon":139.757358,"年月":"202407","施設方書":"ニュー新橋ビル302","施設開設日":"2024/7/3","施設電話番号":"03-6257-1905","診療科目名称":"内科、整形外科、女性内科、美容皮膚科"},{"name":"Lu Bijou Clinic","province":"東京都","city":"港区","address":"東京都港区浜松町一丁目27番13号","lat":35.65724,"lon":139.75501,"年月":"202407","施設方書":"クローバー浜松町3階","施設開設日":"2024/7/16","施設電話番号":"03-6432-4505","診療科目名称":"美容外科、美容皮膚科"},{"name":"皮膚科.形成外科青山","province":"東京都","city":"港区","address":"東京都港区南青山三丁目1番36号","lat":35.668681,"lon":139.715943,"年月":"202407","施設方書":"青山丸竹ビル2階、3階","施設開設日":"2024/7/22","施設電話番号":"03-6812-9864","診療科目名称":"皮膚科、形成外科、耳鼻いんこう科、内科"},{"name":"赤坂矯正歯科","province":"東京都","city":"港区","address":"東京都港区赤坂六丁目3番16号","lat":35.671055,"lon":139.735379,"年月":"202404","施設方書":"1階","施設開設日":"2024/4/6","施設電話番号":"03-6230-9959","診療科目名称":"矯正歯科"},{"name":"ひろこデンタルクリニック plus beauty","province":"東京都","city":"港区","address":"東京都港区芝浦三丁目13番12号","lat":35.642906,"lon":139.74832,"年月":"202404","施設方書":"PhilPark田町Shibaura6階","施設開設日":"2024/4/2","施設電話番号":"03-3453-9700","診療科目名称":"歯科、小児歯科、矯正歯科"},{"name":"ホワイトスマイルクリニック","province":"東京都","city":"港区","address":"東京都港区南青山一丁目17番14号","lat":35.668447,"lon":139.725627,"年月":"202404","施設方書":"1階","施設開設日":"2024/4/1","施設電話番号":"03-6803-8720","診療科目名称":"歯科"},{"name":"エバーデンタルオフィス","province":"東京都","city":"港区","address":"東京都港区赤坂四丁目2番5号","lat":35.675695,"lon":139.735677,"年月":"202405","施設方書":"赤坂ヤブタビル401","施設開設日":"2024/5/1","施設電話番号":"03-3583-0418","診療科目名称":"歯科、歯科口腔外科、矯正歯科、小児歯科"},{"name":"グラン麻布十番ホワイト歯科","province":"東京都","city":"港区","address":"東京都港区麻布十番三丁目1番5号","lat":35.653191,"lon":139.736434,"年月":"202405","施設方書":"ストーク麻布K&S 6階602号室","施設開設日":"2024/4/30","施設電話番号":"","診療科目名称":"歯科"},{"name":"医療法人社団麗櫻会 歯科矯正クイン","province":"東京都","city":"港区","address":"東京都港区南青山二丁目22番2号","lat":35.670576,"lon":139.7193,"年月":"202405","施設方書":"クインビル5階","施設開設日":"2024/5/1","施設電話番号":"03-3746-8666","診療科目名称":"矯正歯科"},{"name":"医療法人社団MORI DENTAL CLINIC Mori Dental Clinic","province":"東京都","city":"港区","address":"東京都港区南青山六丁目2番9号","lat":35.660861,"lon":139.715613,"年月":"202405","施設方書":"NYKビル2階","施設開設日":"2024/5/1","施設電話番号":"03-6805-1526","診療科目名称":"歯科、小児歯科、矯正歯科、歯科口腔外科"},{"name":"岡田歯科医院","province":"東京都","city":"港区","address":"東京都港区北青山二丁目12番11号","lat":35.670989,"lon":139.716595,"年月":"202406","施設方書":"第4イノセビル1階","施設開設日":"2024/6/1","施設電話番号":"03-3408-0108","診療科目名称":"歯科、矯正歯科、小児歯科、歯科口腔外科"},{"name":"麻布十番はな歯科","province":"東京都","city":"港区","address":"東京都港区麻布十番四丁目6番8号","lat":35.65307,"lon":139.736972,"年月":"202407","施設方書":"麻布十番アクティブビル3階","施設開設日":"2024/7/1","施設電話番号":"03-6453-6033","診療科目名称":"歯科、歯科口腔外科、矯正歯科、小児歯科"},{"name":"井本歯科医院","province":"東京都","city":"港区","address":"東京都港区南青山三丁目18番11号","lat":35.664675,"lon":139.713596,"年月":"202407","施設方書":"ヴァンセットビル402","施設開設日":"2024/7/1","施設電話番号":"03-6432-9787","診療科目名称":"歯科"}]}