{"keyword":"館","data":[{"name":"港区立麻布子ども中高生プラザ","province":"東京都","city":"港区","address":"港区南麻布4-6-7","lat":35.65039,"lon":139.72707},{"name":"赤坂子ども中高生プラザ","province":"東京都","city":"港区","address":"港区赤坂6-6-14","lat":35.66995,"lon":139.73732},{"name":"高輪子ども中高生プラザ","province":"東京都","city":"港区","address":"港区高輪1-4-35","lat":35.6266,"lon":139.7345},{"name":"＊?みなと図書館","province":"東京都","city":"港区","address":"港区芝公園3-2-25","lat":35.659904,"lon":139.750144},{"name":"＊?三田図書館","province":"東京都","city":"港区","address":"港区芝5-28-4","lat":35.647051,"lon":139.74522},{"name":"＊?麻布図書館","province":"東京都","city":"港区","address":"港区六本木5-12-24","lat":35.657555,"lon":139.735864},{"name":"＊?赤坂図書館","province":"東京都","city":"港区","address":"港区南青山1-3-3","lat":35.671642,"lon":139.725401},{"name":"＊?高輪図書館","province":"東京都","city":"港区","address":"港区高輪1-16-25","lat":35.642092,"lon":139.734268},{"name":"＊?港南図書館","province":"東京都","city":"港区","address":"港区港南3-3-17","lat":35.63298,"lon":139.749563},{"name":"＊?高輪図書館分室","province":"東京都","city":"港区","address":"港区高輪1-4-35","lat":35.642373,"lon":139.734814},{"name":"麻布図書サービスセンター（閉館）","province":"東京都","city":"港区","address":"港区三田1-10-4","lat":35.654939,"lon":139.73823}]}