{"keyword":"野市","data":[{"name":"中央公民館","province":"東京都","city":"あきる野市","address":"あきる野市二宮683","lat":35.730427,"lon":139.30275},{"name":"中央図書館","province":"東京都","city":"あきる野市","address":"あきる野市秋川1-16-2","lat":35.730949,"lon":139.288437},{"name":"五日市図書館","province":"東京都","city":"あきる野市","address":"あきる野市五日市368","lat":35.730179,"lon":139.222458},{"name":"中央図書館　増戸分室","province":"東京都","city":"あきる野市","address":"あきる野市伊奈1157-5","lat":35.727882,"lon":139.249039},{"name":"東部図書館エル","province":"東京都","city":"あきる野市","address":"あきる野市野辺39-27","lat":35.724766,"lon":139.316559},{"name":"五日市郷土館","province":"東京都","city":"あきる野市","address":"あきる野市五日市920-1","lat":35.728123,"lon":139.21701},{"name":"二宮考古館","province":"東京都","city":"あきる野市","address":"あきる野市二宮1151","lat":35.727386,"lon":139.313934},{"name":"あきる野ルピア","province":"東京都","city":"あきる野市","address":"あきる野市秋川1-8","lat":35.729977,"lon":139.287033},{"name":"玉見会館","province":"東京都","city":"あきる野市","address":"あきる野市小川東2-9-8","lat":35.719498,"lon":139.321091},{"name":"戸倉会館","province":"東京都","city":"あきる野市","address":"あきる野市戸倉133-4","lat":35.72607,"lon":139.205139},{"name":"御堂会館","province":"東京都","city":"あきる野市","address":"あきる野市草花3482-16","lat":35.738857,"lon":139.300446},{"name":"秋川キララホール","province":"東京都","city":"あきる野市","address":"あきる野市秋川1-16-1","lat":35.730949,"lon":139.288437},{"name":"小宮会館","province":"東京都","city":"あきる野市","address":"あきる野市乙津1997","lat":35.738934,"lon":139.179306},{"name":"千代里会館","province":"東京都","city":"あきる野市","address":"あきる野市上代継424","lat":35.721111,"lon":139.277588},{"name":"草花台会館","province":"東京都","city":"あきる野市","address":"あきる野市草花1327-1","lat":35.736217,"lon":139.31398},{"name":"増戸会館","province":"東京都","city":"あきる野市","address":"あきる野市伊奈1157-5","lat":35.727882,"lon":139.249039},{"name":"代継会館","province":"東京都","city":"あきる野市","address":"あきる野市上代継693-1","lat":35.719025,"lon":139.280029},{"name":"鳥居場会館","province":"東京都","city":"あきる野市","address":"あきる野市雨間999-2","lat":35.720196,"lon":139.295013},{"name":"二宮地区会館","province":"東京都","city":"あきる野市","address":"あきる野市二宮1151","lat":35.727386,"lon":139.313934},{"name":"楓ヶ原会館","province":"東京都","city":"あきる野市","address":"あきる野市引田512-2","lat":35.724087,"lon":139.268707},{"name":"北伊奈会館","province":"東京都","city":"あきる野市","address":"あきる野市伊奈412-11","lat":35.732922,"lon":139.25296},{"name":"野辺地区会館","province":"東京都","city":"あきる野市","address":"あきる野市野辺126-4","lat":35.723034,"lon":139.313797}]}