{"keyword":"置場","data":[{"name":"上野駅南自転車置場","province":"","city":"","address":"上野6丁目7番首都高出口下","lat":35.71025458,"lon":139.7765049},{"name":"上野駅地下鉄本社前自転車置場","province":"","city":"","address":"東上野3丁目19番地先","lat":35.71160448,"lon":139.7777047},{"name":"池之端自転車置場","province":"","city":"","address":"池之端1丁目1番上野区民館敷地内","lat":35.70942445,"lon":139.7691553},{"name":"厩橋自転車置場","province":"","city":"","address":"駒形2丁目1番春日通り歩道上","lat":35.70486545,"lon":139.7944242},{"name":"上野駅中央口前自転車置場","province":"","city":"","address":"上野7丁目1番地先","lat":35.71169445,"lon":139.7766848},{"name":"隅田公園自転車置場","province":"","city":"","address":"花川戸1丁目1番地先","lat":35.7108449,"lon":139.7985331},{"name":"日暮里駅西口南自転車置場","province":"","city":"","address":"谷中7丁目15番地先","lat":35.72718613,"lon":139.7709998},{"name":"三ノ輪自転車置場","province":"","city":"","address":"三ノ輪2丁目15番浄閑寺横区道","lat":35.73050295,"lon":139.7923926},{"name":"上野駅浅草口前自転車置場","province":"","city":"","address":"上野7丁目3番地先","lat":35.71226442,"lon":139.7777947},{"name":"上野駅東自転車置場","province":"","city":"","address":"東上野3丁目18番地先","lat":35.71106672,"lon":139.7770939},{"name":"上野駅西自転車置場","province":"","city":"","address":"上野6丁目16番地先","lat":35.71135937,"lon":139.7763413},{"name":"日暮里駅西口北自転車置場","province":"","city":"","address":"谷中7丁目15番地先","lat":35.72790118,"lon":139.7702255}]}