{"keyword":"収蔵","data":[{"name":"アルフレッサヘルスケア（株）ＭＫ吉川物流センター","province":"埼玉県","city":"吉川市","address":"埼玉県吉川市旭7-1A棟","lat":35.93241,"lon":139.8419},{"name":"（株）大木吉川ＦＤＣ","province":"埼玉県","city":"吉川市","address":"埼玉県吉川市南広島字下谷2155","lat":35.91399,"lon":139.8499},{"name":"アルフレッサヘルスケア（株）ＭＫ吉川物流センター","province":"埼玉県","city":"吉川市","address":"埼玉県吉川市旭7-1A棟","lat":35.93241,"lon":139.8419},{"name":"（株）大木吉川ＦＤＣ","province":"埼玉県","city":"吉川市","address":"埼玉県吉川市南広島字下谷2155","lat":35.91399,"lon":139.8499},{"name":"アルフレッサヘルスケア（株）ＭＫ吉川物流センター","province":"埼玉県","city":"吉川市","address":"埼玉県吉川市旭7-1A棟","lat":35.93241,"lon":139.8419},{"name":"（株）大木吉川ＦＤＣ","province":"埼玉県","city":"吉川市","address":"埼玉県吉川市南広島字下谷2155","lat":35.91399,"lon":139.8499},{"name":"アルフレッサヘルスケア（株）ＭＫ吉川物流センター","province":"埼玉県","city":"吉川市","address":"埼玉県吉川市旭7-1A棟","lat":35.93241,"lon":139.8419},{"name":"（株）大木吉川ＦＤＣ","province":"埼玉県","city":"吉川市","address":"埼玉県吉川市南広島字下谷2155","lat":35.91399,"lon":139.8499},{"name":"アルフレッサヘルスケア（株）ＭＫ吉川物流センター","province":"埼玉県","city":"吉川市","address":"埼玉県吉川市旭7-1A棟","lat":35.93241,"lon":139.8419},{"name":"（株）大木吉川ＦＤＣ","province":"埼玉県","city":"吉川市","address":"埼玉県吉川市南広島字下谷2155","lat":35.91399,"lon":139.8499},{"name":"アルフレッサヘルスケア（株）ＭＫ吉川物流センター","province":"埼玉県","city":"吉川市","address":"埼玉県吉川市旭7-1A棟","lat":35.93241,"lon":139.8419},{"name":"（株）大木吉川ＦＤＣ","province":"埼玉県","city":"吉川市","address":"埼玉県吉川市南広島字下谷2155","lat":35.91399,"lon":139.8499},{"name":"アルフレッサヘルスケア（株）ＭＫ吉川物流センター","province":"埼玉県","city":"吉川市","address":"埼玉県吉川市旭7-1A棟","lat":35.93241,"lon":139.8419},{"name":"（株）大木吉川ＦＤＣ","province":"埼玉県","city":"吉川市","address":"埼玉県吉川市南広島字下谷2155","lat":35.91399,"lon":139.8499},{"name":"アルフレッサヘルスケア（株）ＭＫ吉川物流センター","province":"埼玉県","city":"吉川市","address":"埼玉県吉川市旭7-1A棟","lat":35.93241,"lon":139.8419},{"name":"（株）大木吉川ＦＤＣ","province":"埼玉県","city":"吉川市","address":"埼玉県吉川市南広島字下谷2155","lat":35.91399,"lon":139.8499},{"name":"アルフレッサヘルスケア（株）ＭＫ吉川物流センター","province":"埼玉県","city":"吉川市","address":"埼玉県吉川市旭7-1A棟","lat":35.93241,"lon":139.8419},{"name":"（株）大木吉川ＦＤＣ","province":"埼玉県","city":"吉川市","address":"埼玉県吉川市南広島字下谷2155","lat":35.91399,"lon":139.8499},{"name":"アルフレッサヘルスケア（株）ＭＫ吉川物流センター","province":"埼玉県","city":"吉川市","address":"埼玉県吉川市旭7-1A棟","lat":35.93241,"lon":139.8419},{"name":"（株）大木吉川ＦＤＣ","province":"埼玉県","city":"吉川市","address":"埼玉県吉川市南広島字下谷2155","lat":35.91399,"lon":139.8499},{"name":"アルフレッサヘルスケア（株）ＭＫ吉川物流センター","province":"埼玉県","city":"吉川市","address":"埼玉県吉川市旭7-1A棟","lat":35.93241,"lon":139.8419},{"name":"（株）大木吉川ＦＤＣ","province":"埼玉県","city":"吉川市","address":"埼玉県吉川市南広島字下谷2155","lat":35.91399,"lon":139.8499},{"name":"アルフレッサヘルスケア（株）ＭＫ吉川物流センター","province":"埼玉県","city":"吉川市","address":"埼玉県吉川市旭7-1A棟","lat":35.93241,"lon":139.8419},{"name":"（株）大木吉川ＦＤＣ","province":"埼玉県","city":"吉川市","address":"埼玉県吉川市南広島字下谷2155","lat":35.91399,"lon":139.8499},{"name":"アルフレッサヘルスケア（株）ＭＫ吉川物流センター","province":"埼玉県","city":"吉川市","address":"埼玉県吉川市旭7-1A棟","lat":35.93241,"lon":139.8419},{"name":"（株）大木吉川ＦＤＣ","province":"埼玉県","city":"吉川市","address":"埼玉県吉川市南広島字下谷2155","lat":35.91399,"lon":139.8499},{"name":"アルフレッサヘルスケア（株）ＭＫ吉川物流センター","province":"埼玉県","city":"吉川市","address":"埼玉県吉川市旭7-1A棟","lat":35.93241,"lon":139.8419},{"name":"（株）大木吉川ＦＤＣ","province":"埼玉県","city":"吉川市","address":"埼玉県吉川市南広島字下谷2155","lat":35.91399,"lon":139.8499},{"name":"アルフレッサヘルスケア（株）ＭＫ吉川物流センター","province":"埼玉県","city":"吉川市","address":"埼玉県吉川市旭7-1A棟","lat":35.93241,"lon":139.8419},{"name":"（株）大木吉川ＦＤＣ","province":"埼玉県","city":"吉川市","address":"埼玉県吉川市南広島字下谷2155","lat":35.91399,"lon":139.8499},{"name":"アルフレッサヘルスケア（株）ＭＫ吉川物流センター","province":"埼玉県","city":"吉川市","address":"埼玉県吉川市旭7-1A棟","lat":35.93241,"lon":139.8419},{"name":"（株）大木吉川ＦＤＣ","province":"埼玉県","city":"吉川市","address":"埼玉県吉川市南広島字下谷2155","lat":35.91399,"lon":139.8499},{"name":"アルフレッサヘルスケア（株）ＭＫ吉川物流センター","province":"埼玉県","city":"吉川市","address":"埼玉県吉川市旭7-1A棟","lat":35.93241,"lon":139.8419},{"name":"（株）大木吉川ＦＤＣ","province":"埼玉県","city":"吉川市","address":"埼玉県吉川市南広島字下谷2155","lat":35.91399,"lon":139.8499},{"name":"アルフレッサヘルスケア（株）ＭＫ吉川物流センター","province":"埼玉県","city":"吉川市","address":"埼玉県吉川市旭7-1A棟","lat":35.93241,"lon":139.8419},{"name":"（株）大木吉川ＦＤＣ","province":"埼玉県","city":"吉川市","address":"埼玉県吉川市南広島字下谷2155","lat":35.91399,"lon":139.8499},{"name":"アルフレッサヘルスケア（株）ＭＫ吉川物流センター","province":"埼玉県","city":"吉川市","address":"埼玉県吉川市旭7-1A棟","lat":35.93241,"lon":139.8419},{"name":"（株）大木吉川ＦＤＣ","province":"埼玉県","city":"吉川市","address":"埼玉県吉川市南広島字下谷2155","lat":35.91399,"lon":139.8499},{"name":"アルフレッサヘルスケア（株）ＭＫ吉川物流センター","province":"埼玉県","city":"吉川市","address":"埼玉県吉川市旭7-1A棟","lat":35.93241,"lon":139.8419},{"name":"（株）大木吉川ＦＤＣ","province":"埼玉県","city":"吉川市","address":"埼玉県吉川市南広島字下谷2155","lat":35.91399,"lon":139.8499},{"name":"アルフレッサヘルスケア（株）ＭＫ吉川物流センター","province":"埼玉県","city":"吉川市","address":"埼玉県吉川市旭7-1A棟","lat":35.93241,"lon":139.8419},{"name":"（株）大木吉川ＦＤＣ","province":"埼玉県","city":"吉川市","address":"埼玉県吉川市南広島字下谷2155","lat":35.91399,"lon":139.8499},{"name":"アルフレッサヘルスケア（株）ＭＫ吉川物流センター","province":"埼玉県","city":"吉川市","address":"埼玉県吉川市旭7-1A棟","lat":35.93241,"lon":139.8419},{"name":"（株）大木吉川ＦＤＣ","province":"埼玉県","city":"吉川市","address":"埼玉県吉川市南広島字下谷2155","lat":35.91399,"lon":139.8499},{"name":"アルフレッサヘルスケア（株）ＭＫ吉川物流センター","province":"埼玉県","city":"吉川市","address":"埼玉県吉川市旭7-1A棟","lat":35.93241,"lon":139.8419},{"name":"（株）大木吉川ＦＤＣ","province":"埼玉県","city":"吉川市","address":"埼玉県吉川市南広島字下谷2155","lat":35.91399,"lon":139.8499},{"name":"アルフレッサヘルスケア（株）ＭＫ吉川物流センター","province":"埼玉県","city":"吉川市","address":"埼玉県吉川市旭7-1A棟","lat":35.93241,"lon":139.8419},{"name":"（株）大木吉川ＦＤＣ","province":"埼玉県","city":"吉川市","address":"埼玉県吉川市南広島字下谷2155","lat":35.91399,"lon":139.8499},{"name":"アルフレッサヘルスケア（株）ＭＫ吉川物流センター","province":"埼玉県","city":"吉川市","address":"埼玉県吉川市旭7-1A棟","lat":35.93241,"lon":139.8419},{"name":"（株）大木吉川ＦＤＣ","province":"埼玉県","city":"吉川市","address":"埼玉県吉川市南広島字下谷2155","lat":35.91399,"lon":139.8499},{"name":"アルフレッサヘルスケア（株）ＭＫ吉川物流センター","province":"埼玉県","city":"吉川市","address":"埼玉県吉川市旭7-1A棟","lat":35.93241,"lon":139.8419},{"name":"（株）大木吉川ＦＤＣ","province":"埼玉県","city":"吉川市","address":"埼玉県吉川市南広島字下谷2155","lat":35.91399,"lon":139.8499},{"name":"アルフレッサヘルスケア（株）ＭＫ吉川物流センター","province":"埼玉県","city":"吉川市","address":"埼玉県吉川市旭7-1A棟","lat":35.93241,"lon":139.8419},{"name":"（株）大木吉川ＦＤＣ","province":"埼玉県","city":"吉川市","address":"埼玉県吉川市南広島字下谷2155","lat":35.91399,"lon":139.8499},{"name":"アルフレッサヘルスケア（株）ＭＫ吉川物流センター","province":"埼玉県","city":"吉川市","address":"埼玉県吉川市旭7-1A棟","lat":35.93241,"lon":139.8419},{"name":"（株）大木吉川ＦＤＣ","province":"埼玉県","city":"吉川市","address":"埼玉県吉川市南広島字下谷2155","lat":35.91399,"lon":139.8499},{"name":"アルフレッサヘルスケア（株）ＭＫ吉川物流センター","province":"埼玉県","city":"吉川市","address":"埼玉県吉川市旭7-1A棟","lat":35.93241,"lon":139.8419},{"name":"（株）大木吉川ＦＤＣ","province":"埼玉県","city":"吉川市","address":"埼玉県吉川市南広島字下谷2155","lat":35.91399,"lon":139.8499},{"name":"アルフレッサヘルスケア（株）ＭＫ吉川物流センター","province":"埼玉県","city":"吉川市","address":"埼玉県吉川市旭7-1A棟","lat":35.93241,"lon":139.8419},{"name":"（株）大木吉川ＦＤＣ","province":"埼玉県","city":"吉川市","address":"埼玉県吉川市南広島字下谷2155","lat":35.91399,"lon":139.8499},{"name":"アルフレッサヘルスケア（株）ＭＫ吉川物流センター","province":"埼玉県","city":"吉川市","address":"埼玉県吉川市旭7-1A棟","lat":35.93241,"lon":139.8419},{"name":"（株）大木吉川ＦＤＣ","province":"埼玉県","city":"吉川市","address":"埼玉県吉川市南広島字下谷2155","lat":35.91399,"lon":139.8499},{"name":"アルフレッサヘルスケア（株）ＭＫ吉川物流センター","province":"埼玉県","city":"吉川市","address":"埼玉県吉川市旭7-1A棟","lat":35.93241,"lon":139.8419},{"name":"（株）大木吉川ＦＤＣ","province":"埼玉県","city":"吉川市","address":"埼玉県吉川市南広島字下谷2155","lat":35.91399,"lon":139.8499}]}