{"category":"wireless","data":[{"name":"東京都保健医療公社多摩北部医療センター","province":"東京都","city":"東村山市","address":"東京都東村山市青葉町1丁目7-1","lat":35.76043805,"lon":139.49094217},{"name":"八坂給水所","province":"東京都","city":"東村山市","address":"東京都東村山市富士見町5丁目4-46","lat":35.74735525,"lon":139.45848167},{"name":"東村山浄水場","province":"東京都","city":"東村山市","address":"東京都東村山市美住町2丁目20-236","lat":35.75327404,"lon":139.45878417},{"name":"美住給水所","province":"東京都","city":"東村山市","address":"東京都東村山市美住町2丁目13-4","lat":35.75552943,"lon":139.46155328},{"name":"市立東村山運動公園","province":"東京都","city":"東村山市","address":"東京都東村山市恩多町1丁目9-59","lat":35.75542745,"lon":139.48852866},{"name":"多摩北部医療センター","province":"東京都","city":"東村山市","address":"東京都東村山市青葉町1丁目7-1","lat":35.76043805,"lon":139.49094217},{"name":"美住給水所（注２）","province":"東京都","city":"東村山市","address":"東京都東村山市美住町2丁目13-4","lat":35.75552943,"lon":139.46155328},{"name":"東村山市保健福祉総合センター","province":"東京都","city":"東村山市","address":"東京都東村山市本町1丁目2-3","lat":35.75462421,"lon":139.46848323},{"name":"東村山ナーシングホーム","province":"東京都","city":"東村山市","address":"東京都東村山市青葉町1丁目7-1","lat":35.76043805,"lon":139.49094217},{"name":"東村山西高等学校","province":"東京都","city":"東村山市","address":"東京都東村山市富士見町5丁目4-41","lat":35.749666,"lon":139.45542351},{"name":"東村山高等学校","province":"東京都","city":"東村山市","address":"東京都東村山市恩多町4丁目26-1","lat":35.759885,"lon":139.47780442},{"name":"東村山市民スポーツセンター","province":"東京都","city":"東村山市","address":"東京都東村山市久米川町3丁目30-5","lat":35.76107658,"lon":139.47965976}]}