{"keyword":"スポーツ","data":[{"name":"東村山市民スポーツセンター","province":"東京都","city":"東村山市","address":"東京都東村山市久米川町3丁目30-5","lat":35.76107658,"lon":139.47965976},{"name":"東村山市運動公園野球場","province":"東京都","city":"東村山市","address":"東京都東村山市恩多町1丁目51-1","lat":35.75413874,"lon":139.48959805},{"name":"東村山市運動公園トラック競技場","province":"東京都","city":"東村山市","address":"東京都東村山市恩多町1丁目51-1","lat":35.75413874,"lon":139.48959805},{"name":"東村山市運動公園庭球場","province":"東京都","city":"東村山市","address":"東京都東村山市恩多町1丁目51-1","lat":35.75413874,"lon":139.48959805},{"name":"東村山市青葉ゲートボール場","province":"東京都","city":"東村山市","address":"東京都東村山市青葉町2丁目35-11","lat":35.76565405,"lon":139.48881998},{"name":"東村山市北川ゲートボール場","province":"東京都","city":"東村山市","address":"東京都東村山市諏訪町1丁目39-32","lat":35.77304443,"lon":139.47067131},{"name":"東村山市ゲートボール場公園","province":"東京都","city":"東村山市","address":"東京都東村山市廻田町1丁目26-15","lat":35.75654291,"lon":139.45233462},{"name":"化成小学校","province":"東京都","city":"東村山市","address":"東京都東村山市諏訪町1丁目4-1","lat":35.76565618,"lon":139.46465818},{"name":"回田小学校","province":"東京都","city":"東村山市","address":"東京都東村山市廻田町3丁目28-1","lat":35.75892299,"lon":139.44601009},{"name":"大岱小学校","province":"東京都","city":"東村山市","address":"東京都東村山市恩多町4丁目17-1","lat":35.75644372,"lon":139.47799065},{"name":"秋津小学校","province":"東京都","city":"東村山市","address":"東京都東村山市秋津町3丁目48-1","lat":35.7731058,"lon":139.48214261},{"name":"八坂小学校","province":"東京都","city":"東村山市","address":"東京都東村山市栄町3丁目34-1","lat":35.74900808,"lon":139.46569484},{"name":"萩山小学校","province":"東京都","city":"東村山市","address":"東京都東村山市萩山町4丁目16-1","lat":35.74389513,"lon":139.47786618},{"name":"南台小学校","province":"東京都","city":"東村山市","address":"東京都東村山市富士見町1丁目16-12","lat":35.74441936,"lon":139.45522931},{"name":"久米川小学校","province":"東京都","city":"東村山市","address":"東京都東村山市久米川町4丁目11-1","lat":35.76229847,"lon":139.47164654},{"name":"東萩山小学校","province":"東京都","city":"東村山市","address":"東京都東村山市萩山町5丁目7-1","lat":35.74632542,"lon":139.47779664},{"name":"青葉小学校","province":"東京都","city":"東村山市","address":"東京都東村山市青葉町2丁目33-1","lat":35.76465976,"lon":139.49004768},{"name":"北山小学校","province":"東京都","city":"東村山市","address":"東京都東村山市野口町3丁目45-1","lat":35.76611137,"lon":139.45558122},{"name":"秋津東小学校","province":"東京都","city":"東村山市","address":"東京都東村山市秋津町4丁目35-11","lat":35.77467798,"lon":139.48882816},{"name":"野火止小学校","province":"東京都","city":"東村山市","address":"東京都東村山市恩多町5丁目47-1","lat":35.75617451,"lon":139.48557888},{"name":"久米川東小学校","province":"東京都","city":"東村山市","address":"東京都東村山市久米川町2丁目40-10","lat":35.76565113,"lon":139.48262883},{"name":"富士見小学校","province":"東京都","city":"東村山市","address":"東京都東村山市富士見町5丁目4-57","lat":35.74679976,"lon":139.45842892},{"name":"第一中学校","province":"東京都","city":"東村山市","address":"東京都東村山市富士見町1丁目5-2","lat":35.74255587,"lon":139.46051224},{"name":"第二中学校","province":"東京都","city":"東村山市","address":"東京都東村山市久米川町2丁目4-1","lat":35.76994215,"lon":139.47457381},{"name":"第三中学校","province":"東京都","city":"東村山市","address":"東京都東村山市萩山町5丁目2-1","lat":35.7479752,"lon":139.47692998},{"name":"第四中学校","province":"東京都","city":"東村山市","address":"東京都東村山市野口町3丁目24-1","lat":35.76398099,"lon":139.45351202},{"name":"第五中学校","province":"東京都","city":"東村山市","address":"東京都東村山市恩多町4丁目38-1","lat":35.76064053,"lon":139.48069303},{"name":"第六中学校","province":"東京都","city":"東村山市","address":"東京都東村山市秋津町2丁目29-14","lat":35.76982304,"lon":139.48965316},{"name":"第七中学校","province":"東京都","city":"東村山市","address":"東京都東村山市美住町2丁目23-1","lat":35.75543493,"lon":139.45937292}]}