{"keyword":"一覧","data":[{"name":"秋津公民館","province":"東京都","city":"東村山市","address":"東京都東村山市秋津町2丁目17-10","lat":35.77112559,"lon":139.48661728},{"name":"秋津図書館","province":"東京都","city":"東村山市","address":"東京都東村山市秋津町2丁目17-10","lat":35.77112559,"lon":139.48661728},{"name":"秋津児童館","province":"東京都","city":"東村山市","address":"東京都東村山市秋津町3丁目51-25","lat":35.77335302,"lon":139.48347305},{"name":"栄町児童館","province":"東京都","city":"東村山市","address":"東京都東村山市栄町3丁目14-1","lat":35.74693898,"lon":139.46912795},{"name":"北山児童館","province":"東京都","city":"東村山市","address":"東京都東村山市野口町3丁目26-2","lat":35.76507807,"lon":139.45336478},{"name":"八国山たいけんの里","province":"東京都","city":"東村山市","address":"東京都東村山市野口町3丁目48-1","lat":35.76618631,"lon":139.45410912},{"name":"萩山公民館","province":"東京都","city":"東村山市","address":"東京都東村山市萩山町2丁目13-1","lat":35.74155931,"lon":139.478669},{"name":"富士見図書館","province":"東京都","city":"東村山市","address":"東京都東村山市富士見町1丁目7-35","lat":35.74400017,"lon":139.46128433},{"name":"富士見公民館","province":"東京都","city":"東村山市","address":"東京都東村山市富士見町5丁目4-51","lat":35.74666658,"lon":139.46283131},{"name":"中央図書館","province":"東京都","city":"東村山市","address":"東京都東村山市本町1丁目1-10","lat":35.75524913,"lon":139.46820547},{"name":"東村山市役所本庁舎","province":"東京都","city":"東村山市","address":"東京都東村山市本町1丁目2-3","lat":35.75462421,"lon":139.46848323},{"name":"中央公民館","province":"東京都","city":"東村山市","address":"東京都東村山市本町2丁目33-2","lat":35.75983747,"lon":139.46685541},{"name":"美住リサイクルショップ","province":"東京都","city":"東村山市","address":"東京都東村山市美住町2丁目11-32","lat":35.75701262,"lon":139.46183653},{"name":"廻田公民館","province":"東京都","city":"東村山市","address":"東京都東村山市廻田町4丁目19-1","lat":35.75953701,"lon":139.45215675}]}