{"keyword":"伐採","data":[{"name":"多摩北部医療センター","province":"東京都","city":"東村山市","address":"東京都東村山市青葉町1丁目7-1","lat":35.76043805,"lon":139.49094217},{"name":"東京都保健医療公社多摩北部医療センター","province":"東京都","city":"東村山市","address":"東京都東村山市青葉町1丁目7-1","lat":35.76043805,"lon":139.49094217},{"name":"多摩北部医療センター","province":"東京都","city":"東村山市","address":"東京都東村山市青葉町1丁目7-1","lat":35.76043805,"lon":139.49094217},{"name":"東村山市立東村山運動公園","province":"東京都","city":"東村山市","address":"東京都東村山市恩多町1丁目51-1","lat":35.75413874,"lon":139.48959805},{"name":"経済産業研究所グラウンド","province":"東京都","city":"東村山市","address":"東京都東村山市富士見町5丁目4-36","lat":35.74688305,"lon":139.45748178},{"name":"都立東村山中央公園","province":"東京都","city":"東村山市","address":"東京都東村山市富士見町5丁目","lat":35.74535555,"lon":139.46071488},{"name":"多摩北部医療センター","province":"東京都","city":"東村山市","address":"東京都東村山市青葉町1丁目7-1","lat":35.76043805,"lon":139.49094217},{"name":"東京都保健医療公社多摩北部医療センター","province":"東京都","city":"東村山市","address":"東京都東村山市青葉町1丁目7-1","lat":35.76043805,"lon":139.49094217},{"name":"多摩北部医療センター","province":"東京都","city":"東村山市","address":"東京都東村山市青葉町1丁目7-1","lat":35.76043805,"lon":139.49094217},{"name":"東村山市立東村山運動公園","province":"東京都","city":"東村山市","address":"東京都東村山市恩多町1丁目51-1","lat":35.75413874,"lon":139.48959805},{"name":"経済産業研究所グラウンド","province":"東京都","city":"東村山市","address":"東京都東村山市富士見町5丁目4-36","lat":35.74688305,"lon":139.45748178},{"name":"都立東村山中央公園","province":"東京都","city":"東村山市","address":"東京都東村山市富士見町5丁目","lat":35.74535555,"lon":139.46071488},{"name":"多摩北部医療センター","province":"東京都","city":"東村山市","address":"東京都東村山市青葉町1丁目7-1","lat":35.76043805,"lon":139.49094217},{"name":"東京都保健医療公社多摩北部医療センター","province":"東京都","city":"東村山市","address":"東京都東村山市青葉町1丁目7-1","lat":35.76043805,"lon":139.49094217},{"name":"多摩北部医療センター","province":"東京都","city":"東村山市","address":"東京都東村山市青葉町1丁目7-1","lat":35.76043805,"lon":139.49094217},{"name":"東村山市立東村山運動公園","province":"東京都","city":"東村山市","address":"東京都東村山市恩多町1丁目51-1","lat":35.75413874,"lon":139.48959805},{"name":"経済産業研究所グラウンド","province":"東京都","city":"東村山市","address":"東京都東村山市富士見町5丁目4-36","lat":35.74688305,"lon":139.45748178},{"name":"都立東村山中央公園","province":"東京都","city":"東村山市","address":"東京都東村山市富士見町5丁目","lat":35.74535555,"lon":139.46071488},{"name":"多摩北部医療センター","province":"東京都","city":"東村山市","address":"東京都東村山市青葉町1丁目7-1","lat":35.76043805,"lon":139.49094217},{"name":"東京都保健医療公社多摩北部医療センター","province":"東京都","city":"東村山市","address":"東京都東村山市青葉町1丁目7-1","lat":35.76043805,"lon":139.49094217},{"name":"多摩北部医療センター","province":"東京都","city":"東村山市","address":"東京都東村山市青葉町1丁目7-1","lat":35.76043805,"lon":139.49094217},{"name":"多摩北部医療センター","province":"東京都","city":"東村山市","address":"東京都東村山市青葉町1丁目7-1","lat":35.76043805,"lon":139.49094217},{"name":"東京都保健医療公社多摩北部医療センター","province":"東京都","city":"東村山市","address":"東京都東村山市青葉町1丁目7-1","lat":35.76043805,"lon":139.49094217},{"name":"多摩北部医療センター","province":"東京都","city":"東村山市","address":"東京都東村山市青葉町1丁目7-1","lat":35.76043805,"lon":139.49094217},{"name":"多摩北部医療センター","province":"東京都","city":"東村山市","address":"東京都東村山市青葉町1丁目7-1","lat":35.76043805,"lon":139.49094217},{"name":"東京都保健医療公社多摩北部医療センター","province":"東京都","city":"東村山市","address":"東京都東村山市青葉町1丁目7-1","lat":35.76043805,"lon":139.49094217},{"name":"多摩北部医療センター","province":"東京都","city":"東村山市","address":"東京都東村山市青葉町1丁目7-1","lat":35.76043805,"lon":139.49094217},{"name":"多摩北部医療センター","province":"東京都","city":"東村山市","address":"東京都東村山市青葉町1丁目7-1","lat":35.76043805,"lon":139.49094217},{"name":"東京都保健医療公社多摩北部医療センター","province":"東京都","city":"東村山市","address":"東京都東村山市青葉町1丁目7-1","lat":35.76043805,"lon":139.49094217},{"name":"多摩北部医療センター","province":"東京都","city":"東村山市","address":"東京都東村山市青葉町1丁目7-1","lat":35.76043805,"lon":139.49094217},{"name":"多摩北部医療センター","province":"東京都","city":"東村山市","address":"東京都東村山市青葉町1丁目7-1","lat":35.76043805,"lon":139.49094217},{"name":"東京都保健医療公社多摩北部医療センター","province":"東京都","city":"東村山市","address":"東京都東村山市青葉町1丁目7-1","lat":35.76043805,"lon":139.49094217},{"name":"多摩北部医療センター","province":"東京都","city":"東村山市","address":"東京都東村山市青葉町1丁目7-1","lat":35.76043805,"lon":139.49094217},{"name":"多摩北部医療センター","province":"東京都","city":"東村山市","address":"東京都東村山市青葉町1丁目7-1","lat":35.76043805,"lon":139.49094217},{"name":"東京都保健医療公社多摩北部医療センター","province":"東京都","city":"東村山市","address":"東京都東村山市青葉町1丁目7-1","lat":35.76043805,"lon":139.49094217},{"name":"多摩北部医療センター","province":"東京都","city":"東村山市","address":"東京都東村山市青葉町1丁目7-1","lat":35.76043805,"lon":139.49094217},{"name":"多摩北部医療センター","province":"東京都","city":"東村山市","address":"東京都東村山市青葉町1丁目7-1","lat":35.76043805,"lon":139.49094217},{"name":"東京都保健医療公社多摩北部医療センター","province":"東京都","city":"東村山市","address":"東京都東村山市青葉町1丁目7-1","lat":35.76043805,"lon":139.49094217},{"name":"多摩北部医療センター","province":"東京都","city":"東村山市","address":"東京都東村山市青葉町1丁目7-1","lat":35.76043805,"lon":139.49094217},{"name":"多摩北部医療センター","province":"東京都","city":"東村山市","address":"東京都東村山市青葉町1丁目7-1","lat":35.76043805,"lon":139.49094217},{"name":"東京都保健医療公社多摩北部医療センター","province":"東京都","city":"東村山市","address":"東京都東村山市青葉町1丁目7-1","lat":35.76043805,"lon":139.49094217},{"name":"多摩北部医療センター","province":"東京都","city":"東村山市","address":"東京都東村山市青葉町1丁目7-1","lat":35.76043805,"lon":139.49094217},{"name":"多摩北部医療センター","province":"東京都","city":"東村山市","address":"東京都東村山市青葉町1丁目7-1","lat":35.76043805,"lon":139.49094217},{"name":"東京都保健医療公社多摩北部医療センター","province":"東京都","city":"東村山市","address":"東京都東村山市青葉町1丁目7-1","lat":35.76043805,"lon":139.49094217},{"name":"多摩北部医療センター","province":"東京都","city":"東村山市","address":"東京都東村山市青葉町1丁目7-1","lat":35.76043805,"lon":139.49094217},{"name":"多摩北部医療センター","province":"東京都","city":"東村山市","address":"東京都東村山市青葉町1丁目7-1","lat":35.76043805,"lon":139.49094217},{"name":"東京都保健医療公社多摩北部医療センター","province":"東京都","city":"東村山市","address":"東京都東村山市青葉町1丁目7-1","lat":35.76043805,"lon":139.49094217},{"name":"多摩北部医療センター","province":"東京都","city":"東村山市","address":"東京都東村山市青葉町1丁目7-1","lat":35.76043805,"lon":139.49094217},{"name":"多摩北部医療センター","province":"東京都","city":"東村山市","address":"東京都東村山市青葉町1丁目7-1","lat":35.76043805,"lon":139.49094217},{"name":"東京都保健医療公社多摩北部医療センター","province":"東京都","city":"東村山市","address":"東京都東村山市青葉町1丁目7-1","lat":35.76043805,"lon":139.49094217},{"name":"多摩北部医療センター","province":"東京都","city":"東村山市","address":"東京都東村山市青葉町1丁目7-1","lat":35.76043805,"lon":139.49094217},{"name":"多摩北部医療センター","province":"東京都","city":"東村山市","address":"東京都東村山市青葉町1丁目7-1","lat":35.76043805,"lon":139.49094217},{"name":"東京都保健医療公社多摩北部医療センター","province":"東京都","city":"東村山市","address":"東京都東村山市青葉町1丁目7-1","lat":35.76043805,"lon":139.49094217},{"name":"多摩北部医療センター","province":"東京都","city":"東村山市","address":"東京都東村山市青葉町1丁目7-1","lat":35.76043805,"lon":139.49094217},{"name":"多摩北部医療センター","province":"東京都","city":"東村山市","address":"東京都東村山市青葉町1丁目7-1","lat":35.76043805,"lon":139.49094217},{"name":"東京都保健医療公社多摩北部医療センター","province":"東京都","city":"東村山市","address":"東京都東村山市青葉町1丁目7-1","lat":35.76043805,"lon":139.49094217},{"name":"多摩北部医療センター","province":"東京都","city":"東村山市","address":"東京都東村山市青葉町1丁目7-1","lat":35.76043805,"lon":139.49094217},{"name":"多摩北部医療センター","province":"東京都","city":"東村山市","address":"東京都東村山市青葉町1丁目7-1","lat":35.76043805,"lon":139.49094217},{"name":"東京都保健医療公社多摩北部医療センター","province":"東京都","city":"東村山市","address":"東京都東村山市青葉町1丁目7-1","lat":35.76043805,"lon":139.49094217},{"name":"多摩北部医療センター","province":"東京都","city":"東村山市","address":"東京都東村山市青葉町1丁目7-1","lat":35.76043805,"lon":139.49094217},{"name":"多摩北部医療センター","province":"東京都","city":"東村山市","address":"東京都東村山市青葉町1丁目7-1","lat":35.76043805,"lon":139.49094217},{"name":"東京都保健医療公社多摩北部医療センター","province":"東京都","city":"東村山市","address":"東京都東村山市青葉町1丁目7-1","lat":35.76043805,"lon":139.49094217},{"name":"多摩北部医療センター","province":"東京都","city":"東村山市","address":"東京都東村山市青葉町1丁目7-1","lat":35.76043805,"lon":139.49094217},{"name":"多摩北部医療センター","province":"東京都","city":"東村山市","address":"東京都東村山市青葉町1丁目7-1","lat":35.76043805,"lon":139.49094217},{"name":"東京都保健医療公社多摩北部医療センター","province":"東京都","city":"東村山市","address":"東京都東村山市青葉町1丁目7-1","lat":35.76043805,"lon":139.49094217},{"name":"多摩北部医療センター","province":"東京都","city":"東村山市","address":"東京都東村山市青葉町1丁目7-1","lat":35.76043805,"lon":139.49094217},{"name":"多摩北部医療センター","province":"東京都","city":"東村山市","address":"東京都東村山市青葉町1丁目7-1","lat":35.76043805,"lon":139.49094217},{"name":"東京都保健医療公社多摩北部医療センター","province":"東京都","city":"東村山市","address":"東京都東村山市青葉町1丁目7-1","lat":35.76043805,"lon":139.49094217},{"name":"多摩北部医療センター","province":"東京都","city":"東村山市","address":"東京都東村山市青葉町1丁目7-1","lat":35.76043805,"lon":139.49094217},{"name":"多摩北部医療センター","province":"東京都","city":"東村山市","address":"東京都東村山市青葉町1丁目7-1","lat":35.76043805,"lon":139.49094217},{"name":"東京都保健医療公社多摩北部医療センター","province":"東京都","city":"東村山市","address":"東京都東村山市青葉町1丁目7-1","lat":35.76043805,"lon":139.49094217},{"name":"多摩北部医療センター","province":"東京都","city":"東村山市","address":"東京都東村山市青葉町1丁目7-1","lat":35.76043805,"lon":139.49094217},{"name":"多摩北部医療センター","province":"東京都","city":"東村山市","address":"東京都東村山市青葉町1丁目7-1","lat":35.76043805,"lon":139.49094217},{"name":"東京都保健医療公社多摩北部医療センター","province":"東京都","city":"東村山市","address":"東京都東村山市青葉町1丁目7-1","lat":35.76043805,"lon":139.49094217},{"name":"多摩北部医療センター","province":"東京都","city":"東村山市","address":"東京都東村山市青葉町1丁目7-1","lat":35.76043805,"lon":139.49094217},{"name":"多摩北部医療センター","province":"東京都","city":"東村山市","address":"東京都東村山市青葉町1丁目7-1","lat":35.76043805,"lon":139.49094217},{"name":"東京都保健医療公社多摩北部医療センター","province":"東京都","city":"東村山市","address":"東京都東村山市青葉町1丁目7-1","lat":35.76043805,"lon":139.49094217},{"name":"多摩北部医療センター","province":"東京都","city":"東村山市","address":"東京都東村山市青葉町1丁目7-1","lat":35.76043805,"lon":139.49094217},{"name":"多摩北部医療センター","province":"東京都","city":"東村山市","address":"東京都東村山市青葉町1丁目7-1","lat":35.76043805,"lon":139.49094217},{"name":"東京都保健医療公社多摩北部医療センター","province":"東京都","city":"東村山市","address":"東京都東村山市青葉町1丁目7-1","lat":35.76043805,"lon":139.49094217},{"name":"多摩北部医療センター","province":"東京都","city":"東村山市","address":"東京都東村山市青葉町1丁目7-1","lat":35.76043805,"lon":139.49094217},{"name":"多摩北部医療センター","province":"東京都","city":"東村山市","address":"東京都東村山市青葉町1丁目7-1","lat":35.76043805,"lon":139.49094217},{"name":"東京都保健医療公社多摩北部医療センター","province":"東京都","city":"東村山市","address":"東京都東村山市青葉町1丁目7-1","lat":35.76043805,"lon":139.49094217},{"name":"多摩北部医療センター","province":"東京都","city":"東村山市","address":"東京都東村山市青葉町1丁目7-1","lat":35.76043805,"lon":139.49094217},{"name":"多摩北部医療センター","province":"東京都","city":"東村山市","address":"東京都東村山市青葉町1丁目7-1","lat":35.76043805,"lon":139.49094217},{"name":"東京都保健医療公社多摩北部医療センター","province":"東京都","city":"東村山市","address":"東京都東村山市青葉町1丁目7-1","lat":35.76043805,"lon":139.49094217},{"name":"多摩北部医療センター","province":"東京都","city":"東村山市","address":"東京都東村山市青葉町1丁目7-1","lat":35.76043805,"lon":139.49094217},{"name":"多摩北部医療センター","province":"東京都","city":"東村山市","address":"東京都東村山市青葉町1丁目7-1","lat":35.76043805,"lon":139.49094217},{"name":"東京都保健医療公社多摩北部医療センター","province":"東京都","city":"東村山市","address":"東京都東村山市青葉町1丁目7-1","lat":35.76043805,"lon":139.49094217},{"name":"多摩北部医療センター","province":"東京都","city":"東村山市","address":"東京都東村山市青葉町1丁目7-1","lat":35.76043805,"lon":139.49094217},{"name":"多摩北部医療センター","province":"東京都","city":"東村山市","address":"東京都東村山市青葉町1丁目7-1","lat":35.76043805,"lon":139.49094217},{"name":"東京都保健医療公社多摩北部医療センター","province":"東京都","city":"東村山市","address":"東京都東村山市青葉町1丁目7-1","lat":35.76043805,"lon":139.49094217},{"name":"多摩北部医療センター","province":"東京都","city":"東村山市","address":"東京都東村山市青葉町1丁目7-1","lat":35.76043805,"lon":139.49094217},{"name":"多摩北部医療センター","province":"東京都","city":"東村山市","address":"東京都東村山市青葉町1丁目7-1","lat":35.76043805,"lon":139.49094217},{"name":"東京都保健医療公社多摩北部医療センター","province":"東京都","city":"東村山市","address":"東京都東村山市青葉町1丁目7-1","lat":35.76043805,"lon":139.49094217},{"name":"多摩北部医療センター","province":"東京都","city":"東村山市","address":"東京都東村山市青葉町1丁目7-1","lat":35.76043805,"lon":139.49094217},{"name":"多摩北部医療センター","province":"東京都","city":"東村山市","address":"東京都東村山市青葉町1丁目7-1","lat":35.76043805,"lon":139.49094217},{"name":"東京都保健医療公社多摩北部医療センター","province":"東京都","city":"東村山市","address":"東京都東村山市青葉町1丁目7-1","lat":35.76043805,"lon":139.49094217},{"name":"多摩北部医療センター","province":"東京都","city":"東村山市","address":"東京都東村山市青葉町1丁目7-1","lat":35.76043805,"lon":139.49094217},{"name":"多摩北部医療センター","province":"東京都","city":"東村山市","address":"東京都東村山市青葉町1丁目7-1","lat":35.76043805,"lon":139.49094217},{"name":"東京都保健医療公社多摩北部医療センター","province":"東京都","city":"東村山市","address":"東京都東村山市青葉町1丁目7-1","lat":35.76043805,"lon":139.49094217},{"name":"多摩北部医療センター","province":"東京都","city":"東村山市","address":"東京都東村山市青葉町1丁目7-1","lat":35.76043805,"lon":139.49094217},{"name":"多摩北部医療センター","province":"東京都","city":"東村山市","address":"東京都東村山市青葉町1丁目7-1","lat":35.76043805,"lon":139.49094217},{"name":"東京都保健医療公社多摩北部医療センター","province":"東京都","city":"東村山市","address":"東京都東村山市青葉町1丁目7-1","lat":35.76043805,"lon":139.49094217},{"name":"多摩北部医療センター","province":"東京都","city":"東村山市","address":"東京都東村山市青葉町1丁目7-1","lat":35.76043805,"lon":139.49094217},{"name":"多摩北部医療センター","province":"東京都","city":"東村山市","address":"東京都東村山市青葉町1丁目7-1","lat":35.76043805,"lon":139.49094217},{"name":"東京都保健医療公社多摩北部医療センター","province":"東京都","city":"東村山市","address":"東京都東村山市青葉町1丁目7-1","lat":35.76043805,"lon":139.49094217},{"name":"多摩北部医療センター","province":"東京都","city":"東村山市","address":"東京都東村山市青葉町1丁目7-1","lat":35.76043805,"lon":139.49094217},{"name":"多摩北部医療センター","province":"東京都","city":"東村山市","address":"東京都東村山市青葉町1丁目7-1","lat":35.76043805,"lon":139.49094217},{"name":"東京都保健医療公社多摩北部医療センター","province":"東京都","city":"東村山市","address":"東京都東村山市青葉町1丁目7-1","lat":35.76043805,"lon":139.49094217},{"name":"多摩北部医療センター","province":"東京都","city":"東村山市","address":"東京都東村山市青葉町1丁目7-1","lat":35.76043805,"lon":139.49094217},{"name":"多摩北部医療センター","province":"東京都","city":"東村山市","address":"東京都東村山市青葉町1丁目7-1","lat":35.76043805,"lon":139.49094217},{"name":"東京都保健医療公社多摩北部医療センター","province":"東京都","city":"東村山市","address":"東京都東村山市青葉町1丁目7-1","lat":35.76043805,"lon":139.49094217},{"name":"多摩北部医療センター","province":"東京都","city":"東村山市","address":"東京都東村山市青葉町1丁目7-1","lat":35.76043805,"lon":139.49094217}]}