{"keyword":"保健","data":[{"name":"東村山市立第五保育園","province":"東京都","city":"東村山市","address":"東村山市秋津町4-25-15","lat":35.779283,"lon":139.48512},{"name":"青葉さくら保育園","province":"東京都","city":"東村山市","address":"東村山市青葉町1-7-68","lat":35.75773,"lon":139.491806},{"name":"花さき保育園","province":"東京都","city":"東村山市","address":"東村山市青葉町4-1-1","lat":35.764804,"lon":139.495472},{"name":"東村山市立第六保育園","province":"東京都","city":"東村山市","address":"東村山市久米川町4-4-10","lat":35.761185,"lon":139.472149},{"name":"わくわく保育園","province":"東京都","city":"東村山市","address":"東村山市久米川町1-38-4","lat":35.768112,"lon":139.48527},{"name":"あいあい保育園","province":"東京都","city":"東村山市","address":"東村山市久米川町2-44-2","lat":35.76644,"lon":139.481643},{"name":"りんごっこ保育園","province":"東京都","city":"東村山市","address":"東村山市恩多町1-55-7","lat":35.751795,"lon":139.48854},{"name":"東村山市立第二保育園","province":"東京都","city":"東村山市","address":"東村山市萩山町1-36-1","lat":35.737546,"lon":139.483433},{"name":"久米川保育園","province":"東京都","city":"東村山市","address":"東村山市萩山町5-6-1","lat":35.746978,"lon":139.479416},{"name":"東村山市立第七保育園","province":"東京都","city":"東村山市","address":"東村山市栄町1-36-51","lat":35.752597,"lon":139.477224},{"name":"いづみ愛児園","province":"東京都","city":"東村山市","address":"東村山市栄町1丁目37番地28","lat":35.751414,"lon":139.477866},{"name":"東村山市立第一保育園","province":"東京都","city":"東村山市","address":"東村山市本町4-15-16都営本町アパート6号棟1階","lat":35.753358,"lon":139.473269},{"name":"つばさ保育園","province":"東京都","city":"東村山市","address":"東村山市本町2-22-3","lat":35.759199,"lon":139.468989},{"name":"ほんちょう保育園","province":"東京都","city":"東村山市","address":"東村山市本町3-43-1","lat":35.75561,"lon":139.470444},{"name":"八国山保育園","province":"東京都","city":"東村山市","address":"東村山市野口町1-5-6","lat":35.764123,"lon":139.465778},{"name":"東村山市立第四保育園","province":"東京都","city":"東村山市","address":"東村山市美住町1-4-19","lat":35.749289,"lon":139.464839},{"name":"つぼみ保育園","province":"東京都","city":"東村山市","address":"東村山市富士見町2-2-2","lat":35.744922,"lon":139.451777},{"name":"ふじみ保育園","province":"東京都","city":"東村山市","address":"東村山市富士見町2-7-5","lat":35.740203,"lon":139.452535},{"name":"東村山むさしの第二認定こども園","province":"東京都","city":"東村山市","address":"東村山市廻田町2-14-1","lat":35.754132,"lon":139.448688},{"name":"東村山市立第三保育園","province":"東京都","city":"東村山市","address":"東村山市多摩湖町1-23-4","lat":35.763703,"lon":139.452159},{"name":"東たいてん保育園","province":"東京都","city":"東村山市","address":"東村山市多摩湖町1-14-2","lat":35.76202,"lon":139.448471},{"name":"さやま園","province":"東京都","city":"東村山市","address":"東村山市富士見町2-7-13","lat":35.740334,"lon":139.454216},{"name":"東村山市保健福祉総合センター「いきいきプラザ」","province":"東京都","city":"東村山市","address":"東村山市本町1-2-3","lat":35.754624,"lon":139.468483},{"name":"地方独立行政法人東京都立病院機構　東京都立多摩北部医療センター","province":"東京都","city":"東村山市","address":"東京都東村山市青葉町1丁目7-1","lat":35.760727,"lon":139.493144},{"name":"東村山中央公園","province":"東京都","city":"東村山市","address":"東京都東村山市富士見町5丁目4-67","lat":35.748306,"lon":139.456941},{"name":"東村山中央公園","province":"東京都","city":"東村山市","address":"東京都東村山市富士見町5丁目4","lat":35.748598,"lon":139.458285},{"name":"東村山中央公園","province":"東京都","city":"東村山市","address":"東京都東村山市富士見町5丁目4","lat":35.747949,"lon":139.459982},{"name":"東村山中央公園","province":"東京都","city":"東村山市","address":"東京都東村山市富士見町5丁目4","lat":35.746824,"lon":139.461727},{"name":"東村山中央公園","province":"東京都","city":"東村山市","address":"東京都東村山市富士見町5丁目4","lat":35.745393,"lon":139.462797},{"name":"東村山中央公園","province":"東京都","city":"東村山市","address":"東京都東村山市富士見町5丁目4","lat":35.746425,"lon":139.46041},{"name":"八国山緑地","province":"東京都","city":"東村山市","address":"東京都東村山市諏訪町3丁目19","lat":35.76661,"lon":139.453209},{"name":"小平霊園","province":"東京都","city":"東村山市","address":"東京都東村山市萩山町1丁目16","lat":35.739773,"lon":139.485298},{"name":"小平霊園","province":"東京都","city":"東村山市","address":"東京都東村山市萩山町5丁目10","lat":35.741954,"lon":139.482579},{"name":"小平霊園","province":"東京都","city":"東村山市","address":"東京都東村山市萩山町5丁目8","lat":35.745432,"lon":139.478914},{"name":"小平霊園","province":"東京都","city":"東村山市","address":"東京都東村山市萩山町5丁目9","lat":35.745348,"lon":139.483296},{"name":"東村山市役所本庁舎","province":"東京都","city":"東村山市","address":"東京都東村山市本町1丁目2-3","lat":35.754641,"lon":139.468509},{"name":"東村山市役所いきいきプラザ","province":"東京都","city":"東村山市","address":"東京都東村山市本町1丁目2-3","lat":35.754234,"lon":139.468058},{"name":"東村山市役所いきいきプラザ","province":"東京都","city":"東村山市","address":"東京都東村山市本町1丁目2-3","lat":35.754236,"lon":139.468282},{"name":"東村山市役所北庁舎","province":"東京都","city":"東村山市","address":"東京都東村山市本町1丁目1-1","lat":35.755322,"lon":139.467378},{"name":"東村山市役所市民センター","province":"東京都","city":"東村山市","address":"東京都東村山市本町1丁目1-1","lat":35.755274,"lon":139.467951},{"name":"東村山市立中央公民館","province":"東京都","city":"東村山市","address":"東京都東村山市本町2丁目33-2","lat":35.759886,"lon":139.46698},{"name":"東村山市立萩山公民館","province":"東京都","city":"東村山市","address":"東京都東村山市萩山町2丁目13-5","lat":35.742202,"lon":139.477704},{"name":"東村山市立廻田公民館","province":"東京都","city":"東村山市","address":"東京都東村山市廻田町4丁目19-1","lat":35.759742,"lon":139.452116},{"name":"東村山市立秋津公民館","province":"東京都","city":"東村山市","address":"東京都東村山市秋津町2丁目17-10","lat":35.770958,"lon":139.486358},{"name":"東村山市立富士見文化センター","province":"東京都","city":"東村山市","address":"東京都東村山市富士見町5丁目4-51","lat":35.746511,"lon":139.462819},{"name":"東村山市立富士見文化センター","province":"東京都","city":"東村山市","address":"東京都東村山市富士見町5丁目4","lat":35.746769,"lon":139.462968},{"name":"東村山市立富士見文化センター","province":"東京都","city":"東村山市","address":"東京都東村山市富士見町5丁目4-51","lat":35.746448,"lon":139.462999},{"name":"東村山市立社会福祉センター","province":"東京都","city":"東村山市","address":"東京都東村山市諏訪町1丁目3-10","lat":35.765483,"lon":139.466698},{"name":"廻田集会所","province":"東京都","city":"東村山市","address":"東京都東村山市廻田町3丁目12-6","lat":35.75761,"lon":139.447324},{"name":"富士見第二集会所","province":"東京都","city":"東村山市","address":"東京都東村山市富士見町1丁目7-35","lat":35.744036,"lon":139.461258},{"name":"青葉地域センター","province":"東京都","city":"東村山市","address":"東京都東村山市青葉町3丁目30-3","lat":35.769235,"lon":139.496207},{"name":"東村山市立中央図書館","province":"東京都","city":"東村山市","address":"東京都東村山市本町1丁目1-10","lat":35.755318,"lon":139.468322},{"name":"東村山市立富士見図書館","province":"東京都","city":"東村山市","address":"東京都東村山市富士見町1丁目7","lat":35.743933,"lon":139.461182},{"name":"東村山市立萩山図書館","province":"東京都","city":"東村山市","address":"東京都東村山市萩山町2丁目13-5","lat":35.742153,"lon":139.477817},{"name":"東村山市立秋津図書館","province":"東京都","city":"東村山市","address":"東京都東村山市秋津町2丁目17-10","lat":35.771146,"lon":139.486629},{"name":"平和塔公園","province":"東京都","city":"東村山市","address":"東京都東村山市本町1丁目13","lat":35.754609,"lon":139.466632},{"name":"南台公園","province":"東京都","city":"東村山市","address":"東京都東村山市富士見町1丁目2","lat":35.74153,"lon":139.458727},{"name":"萩山公園","province":"東京都","city":"東村山市","address":"東京都東村山市萩山町2丁目3","lat":35.742213,"lon":139.475725},{"name":"天王森公園","province":"東京都","city":"東村山市","address":"東京都東村山市本町3丁目45","lat":35.755203,"lon":139.469471},{"name":"北山公園","province":"東京都","city":"東村山市","address":"東京都東村山市野口町4丁目50","lat":35.766375,"lon":139.459497},{"name":"美住町1丁目第3仲よし広場","province":"東京都","city":"東村山市","address":"東京都東村山市美住町1丁目4","lat":35.750135,"lon":139.464142},{"name":"野火止広場","province":"東京都","city":"東村山市","address":"東京都東村山市栄町3丁目14","lat":35.746586,"lon":139.469062},{"name":"萩山四季の森公園","province":"東京都","city":"東村山市","address":"東京都東村山市萩山町3丁目28","lat":35.743209,"lon":139.474233},{"name":"萩山第一児童遊園","province":"東京都","city":"東村山市","address":"東京都東村山市萩山町4丁目16","lat":35.743136,"lon":139.479205},{"name":"秋水園リサイクルセンター管理棟","province":"東京都","city":"東村山市","address":"東京都東村山市秋津町4丁目17","lat":35.780057,"lon":139.48442},{"name":"秋水園ふれあいセンター","province":"東京都","city":"東村山市","address":"東京都東村山市秋津町4丁目24-12","lat":35.779303,"lon":139.486051},{"name":"多摩湖ふれあいセンター","province":"東京都","city":"東村山市","address":"東京都東村山市多摩湖町1丁目18","lat":35.764063,"lon":139.449186},{"name":"廻田憩いの家","province":"東京都","city":"東村山市","address":"東京都東村山市廻田町3丁目12-6","lat":35.75761,"lon":139.447324},{"name":"富士見憩いの家","province":"東京都","city":"東村山市","address":"東京都東村山市富士見町5丁目4-51","lat":35.746542,"lon":139.462703},{"name":"萩山憩いの家","province":"東京都","city":"東村山市","address":"東京都東村山市萩山町2丁目3-11","lat":35.742331,"lon":139.475646},{"name":"恩多ふれあいセンター","province":"東京都","city":"東村山市","address":"東京都東村山市恩多町5丁目40-1","lat":35.757544,"lon":139.490847},{"name":"栄町ふれあいセンター","province":"東京都","city":"東村山市","address":"東京都東村山市栄町2丁目25-5","lat":35.747743,"lon":139.472424},{"name":"久米川ふれあいセンター","province":"東京都","city":"東村山市","address":"東京都東村山市久米川町3丁目16-4","lat":35.7661,"lon":139.474202},{"name":"東村山市民ステーションサンパルネ","province":"東京都","city":"東村山市","address":"東京都東村山市野口町1丁目46","lat":35.760175,"lon":139.465352},{"name":"東村山市民ステーションサンパルネ","province":"東京都","city":"東村山市","address":"東京都東村山市野口町1丁目46","lat":35.760127,"lon":139.465374},{"name":"久米川古戦場","province":"東京都","city":"東村山市","address":"東京都東村山市諏訪町2丁目付近(西宿公園)","lat":35.768836,"lon":139.464478},{"name":"東村山市保健福祉総合センター「いきいきプラザ」","province":"東京都","city":"東村山市","address":"東京都東村山市本町1丁目2-3","lat":35.75462421,"lon":139.46848323},{"name":"東村山市立第五保育園","province":"東京都","city":"東村山市","address":"東村山市秋津町4-25-15","lat":35.77879,"lon":139.48503},{"name":"青葉さくら保育園","province":"東京都","city":"東村山市","address":"東村山市青葉町1-7-68","lat":35.76059,"lon":139.49135},{"name":"花さき保育園","province":"東京都","city":"東村山市","address":"東村山市青葉町4-1-1","lat":35.76569,"lon":139.4937},{"name":"わくわく保育園","province":"東京都","city":"東村山市","address":"東村山市久米川町1-38-4","lat":35.7677,"lon":139.48514},{"name":"あいあい保育園","province":"東京都","city":"東村山市","address":"東村山市久米川町2-44-2","lat":35.76662,"lon":139.48135},{"name":"天王森保育園","province":"東京都","city":"東村山市","address":"東村山市久米川町4-4-10","lat":35.76112,"lon":139.47256},{"name":"りんごっこ保育園","province":"東京都","city":"東村山市","address":"東村山市恩多町1-55-7","lat":35.75204,"lon":139.48888},{"name":"萩山まるやま保育園","province":"東京都","city":"東村山市","address":"東村山市萩山町3-29-37","lat":35.74187,"lon":139.47427},{"name":"久米川保育園","province":"東京都","city":"東村山市","address":"東村山市萩山町5-6-1","lat":35.7465,"lon":139.47881},{"name":"東村山市立第七保育園","province":"東京都","city":"東村山市","address":"東村山市栄町1-36-51","lat":35.75244,"lon":139.47775},{"name":"いづみ愛児園","province":"東京都","city":"東村山市","address":"東村山市栄町1丁目37番地28","lat":35.75159,"lon":139.47765},{"name":"つばさ保育園","province":"東京都","city":"東村山市","address":"東村山市本町2-22-3","lat":35.75913,"lon":139.46916},{"name":"ほんちょう保育園","province":"東京都","city":"東村山市","address":"東村山市本町3-43-1","lat":35.75557,"lon":139.47055},{"name":"東村山市立第一保育園","province":"東京都","city":"東村山市","address":"東村山市本町4-15-16都営本町アパート6号棟1階","lat":35.7528,"lon":139.47365},{"name":"八国山保育園","province":"東京都","city":"東村山市","address":"東村山市野口町1-5-6","lat":35.76415,"lon":139.46577},{"name":"ソラスト東村山保育園","province":"東京都","city":"東村山市","address":"東村山市野口町1-8-28","lat":35.76302,"lon":139.46465},{"name":"東村山市立第四保育園","province":"東京都","city":"東村山市","address":"東村山市美住町1-4-19","lat":35.75094,"lon":139.46135},{"name":"つぼみ保育園","province":"東京都","city":"東村山市","address":"東村山市富士見町2-2-2","lat":35.74449,"lon":139.45113},{"name":"ふじみ保育園","province":"東京都","city":"東村山市","address":"東村山市富士見町2-7-5","lat":35.74027,"lon":139.45242},{"name":"東村山むさしの第二認定こども園","province":"東京都","city":"東村山市","address":"東村山市廻田町2-14-1","lat":35.7542723,"lon":139.4487254},{"name":"東たいてん保育園","province":"東京都","city":"東村山市","address":"東村山市多摩湖町1-14-2","lat":35.76187,"lon":139.44817},{"name":"東村山市立第三保育園","province":"東京都","city":"東村山市","address":"東村山市多摩湖町1-23-4","lat":35.76363,"lon":139.45218},{"name":"東村山市保健福祉総合センター「いきいきプラザ」","province":"東京都","city":"東村山市","address":"東村山市本町1-2-3","lat":35.75449,"lon":139.46841},{"name":"さつき荘","province":"東京都","city":"東村山市","address":"東村山市富士見町2-8-2","lat":35.740609,"lon":139.453774},{"name":"村山荘","province":"東京都","city":"東村山市","address":"東村山市富士見町2-7-5","lat":35.740203,"lon":139.452535},{"name":"社会福祉法人東京コロニー コロニー東村山","province":"東京都","city":"東村山市","address":"東京都東村山市秋津町2丁目22-9","lat":35.76876478,"lon":139.48789499},{"name":"社会福祉法人東京コロニー トーコロ青葉ワークセンター","province":"東京都","city":"東村山市","address":"東京都東村山市青葉町2丁目39-10","lat":35.76531803,"lon":139.49069484},{"name":"社会福祉法人ネット十二月","province":"東京都","city":"東村山市","address":"東京都東村山市廻田町3丁目16-8","lat":35.76038678,"lon":139.44811263},{"name":"高齢者在宅サービスセンター白十字八国苑","province":"東京都","city":"東村山市","address":"東京都東村山市諏訪町2丁目26-1","lat":35.77189152,"lon":139.46365808},{"name":"社会福祉法人村山苑福祉事業センター","province":"東京都","city":"東村山市","address":"東京都東村山市富士見町2丁目7-5","lat":35.74020311,"lon":139.45253528},{"name":"社会福祉法人いずみライフサポートつばさ","province":"東京都","city":"東村山市","address":"東京都東村山市富士見町3丁目4-16","lat":35.74866053,"lon":139.45443753},{"name":"社会福祉法人小さい共同体就労継続支援Ｂ型飛翔クラブ","province":"東京都","city":"東村山市","address":"東京都東村山市栄町2丁目9-32","lat":35.74941934,"lon":139.47170261},{"name":"特定非営利活動法人けやきけやき第二作業所","province":"東京都","city":"東村山市","address":"東京都東村山市萩山町3丁目19-2","lat":35.74593911,"lon":139.46971405},{"name":"株式会社ウィズケアメディカル ウィズケアリハビリセンター","province":"東京都","city":"東村山市","address":"東京都東村山市久米川町3丁目1-1","lat":35.75976546,"lon":139.47353814},{"name":"社会福祉法人東京蒼生会寿デイ･サービスセンター","province":"東京都","city":"東村山市","address":"東京都東村山市富士見町2丁目1-2","lat":35.7445943,"lon":139.4540183},{"name":"特定非営利活動法人セサミ萩共同作業所セサミ萩","province":"東京都","city":"東村山市","address":"東京都東村山市萩山町2丁目2-15","lat":35.74047328,"lon":139.47715529},{"name":"かりん","province":"東京都","city":"東村山市","address":"東京都東村山市秋津町2丁目37-47","lat":35.77148394,"lon":139.48956425},{"name":"社会福祉法人ネット久米川共同作業所","province":"東京都","city":"東村山市","address":"東京都東村山市久米川町2丁目21-14","lat":35.76533442,"lon":139.47915135},{"name":"特定非営利活動法人ワーカーズコープ東村山楠の樹地域福祉事業所ふたば","province":"東京都","city":"東村山市","address":"東京都東村山市野口町1丁目15-5","lat":35.76157604,"lon":139.46296959},{"name":"天王森保育園","province":"東京都","city":"東村山市","address":"東村山市久米川町4-4-10","lat":35.76112,"lon":139.47257},{"name":"八国山保育園","province":"東京都","city":"東村山市","address":"東村山市野口町1-5-6","lat":35.76415,"lon":139.46578},{"name":"東村山市立第一保育園","province":"東京都","city":"東村山市","address":"東村山市本町4-15-16都営本町アパート6号棟1階","lat":35.75492,"lon":139.46719},{"name":"東京都保健医療公社多摩北部医療センター","province":"東京都","city":"東村山市","address":"東京都東村山市青葉町1丁目7-1","lat":35.76043805,"lon":139.49094217},{"name":"八坂給水所","province":"東京都","city":"東村山市","address":"東京都東村山市富士見町5丁目4-46","lat":35.74735525,"lon":139.45848167},{"name":"東村山浄水場","province":"東京都","city":"東村山市","address":"東京都東村山市美住町2丁目20-236","lat":35.75327404,"lon":139.45878417},{"name":"美住給水所","province":"東京都","city":"東村山市","address":"東京都東村山市美住町2丁目13-4","lat":35.75552943,"lon":139.46155328},{"name":"市立東村山運動公園","province":"東京都","city":"東村山市","address":"東京都東村山市恩多町1丁目9-59","lat":35.75542745,"lon":139.48852866},{"name":"美住給水所（注２）","province":"東京都","city":"東村山市","address":"東京都東村山市美住町2丁目13-4","lat":35.75552943,"lon":139.46155328},{"name":"東村山市立東村山運動公園","province":"東京都","city":"東村山市","address":"東京都東村山市恩多町1丁目51-1","lat":35.75413874,"lon":139.48959805},{"name":"経済産業研究所グラウンド","province":"東京都","city":"東村山市","address":"東京都東村山市富士見町5丁目4-36","lat":35.74688305,"lon":139.45748178},{"name":"都立東村山中央公園","province":"東京都","city":"東村山市","address":"東京都東村山市富士見町5丁目","lat":35.74535555,"lon":139.46071488},{"name":"東村山市選挙管理委員会","province":"東京都","city":"東村山市","address":"東村山市本町1-2-3","lat":35.754574,"lon":139.468413},{"name":"グリーン・ボイス","province":"東京都","city":"東村山市","address":"東村山市萩山町3-31-2","lat":35.743978,"lon":139.468161},{"name":"東京ばんなん白光園","province":"東京都","city":"東村山市","address":"東村山市諏訪町2-26-1","lat":35.771892,"lon":139.463658},{"name":"東村山市保健福祉総合センター","province":"東京都","city":"東村山市","address":"東京都東村山市本町1丁目2-3","lat":35.75462421,"lon":139.46848323},{"name":"東村山ナーシングホーム","province":"東京都","city":"東村山市","address":"東京都東村山市青葉町1丁目7-1","lat":35.76043805,"lon":139.49094217},{"name":"東村山西高等学校","province":"東京都","city":"東村山市","address":"東京都東村山市富士見町5丁目4-41","lat":35.749666,"lon":139.45542351},{"name":"東村山高等学校","province":"東京都","city":"東村山市","address":"東京都東村山市恩多町4丁目26-1","lat":35.759885,"lon":139.47780442},{"name":"東村山市民スポーツセンター","province":"東京都","city":"東村山市","address":"東京都東村山市久米川町3丁目30-5","lat":35.76107658,"lon":139.47965976},{"name":"東村山市本庁舎","province":"東京都","city":"東村山市","address":"東村山市本町1-2-3","lat":35.754624,"lon":139.468484},{"name":"※東村山市役所本庁舎","province":"東京都","city":"東村山市","address":"東京都東村山市本町1丁目2-3","lat":35.75462421,"lon":139.46848323},{"name":"東村山市立第五保育園","province":"東京都","city":"東村山市","address":"東村山市秋津町4-25-15","lat":35.779283,"lon":139.48512},{"name":"青葉さくら保育園","province":"東京都","city":"東村山市","address":"東村山市青葉町1-7-68","lat":35.75773,"lon":139.491806},{"name":"花さき保育園","province":"東京都","city":"東村山市","address":"東村山市青葉町4-1-1","lat":35.764804,"lon":139.495472},{"name":"東村山市立第六保育園","province":"東京都","city":"東村山市","address":"東村山市久米川町4-4-10","lat":35.761185,"lon":139.472149},{"name":"わくわく保育園","province":"東京都","city":"東村山市","address":"東村山市久米川町1-38-4","lat":35.768112,"lon":139.48527},{"name":"あいあい保育園","province":"東京都","city":"東村山市","address":"東村山市久米川町2-44-2","lat":35.76644,"lon":139.481643},{"name":"りんごっこ保育園","province":"東京都","city":"東村山市","address":"東村山市恩多町1-55-7","lat":35.751795,"lon":139.48854},{"name":"東村山市立第二保育園","province":"東京都","city":"東村山市","address":"東村山市萩山町1-36-1","lat":35.737546,"lon":139.483433},{"name":"久米川保育園","province":"東京都","city":"東村山市","address":"東村山市萩山町5-6-1","lat":35.746978,"lon":139.479416},{"name":"東村山市立第七保育園","province":"東京都","city":"東村山市","address":"東村山市栄町1-36-51","lat":35.752597,"lon":139.477224},{"name":"いづみ愛児園","province":"東京都","city":"東村山市","address":"東村山市栄町1丁目37番地28","lat":35.751414,"lon":139.477866},{"name":"東村山市立第一保育園","province":"東京都","city":"東村山市","address":"東村山市本町4-15-16都営本町アパート6号棟1階","lat":35.753358,"lon":139.473269},{"name":"つばさ保育園","province":"東京都","city":"東村山市","address":"東村山市本町2-22-3","lat":35.759199,"lon":139.468989},{"name":"ほんちょう保育園","province":"東京都","city":"東村山市","address":"東村山市本町3-43-1","lat":35.75561,"lon":139.470444},{"name":"八国山保育園","province":"東京都","city":"東村山市","address":"東村山市野口町1-5-6","lat":35.764123,"lon":139.465778},{"name":"東村山市立第四保育園","province":"東京都","city":"東村山市","address":"東村山市美住町1-4-19","lat":35.749289,"lon":139.464839},{"name":"つぼみ保育園","province":"東京都","city":"東村山市","address":"東村山市富士見町2-2-2","lat":35.744922,"lon":139.451777},{"name":"ふじみ保育園","province":"東京都","city":"東村山市","address":"東村山市富士見町2-7-5","lat":35.740203,"lon":139.452535},{"name":"東村山むさしの第二認定こども園","province":"東京都","city":"東村山市","address":"東村山市廻田町2-14-1","lat":35.754132,"lon":139.448688},{"name":"東村山市立第三保育園","province":"東京都","city":"東村山市","address":"東村山市多摩湖町1-23-4","lat":35.763703,"lon":139.452159},{"name":"東たいてん保育園","province":"東京都","city":"東村山市","address":"東村山市多摩湖町1-14-2","lat":35.76202,"lon":139.448471},{"name":"久米川古戦場","province":"東京都","city":"東村山市","address":"東京都東村山市諏訪町2丁目付近(西宿公園)","lat":35.768836,"lon":139.464478},{"name":"東村山市立第五保育園","province":"東京都","city":"東村山市","address":"東村山市秋津町4-25-15","lat":35.77879,"lon":139.48503},{"name":"青葉さくら保育園","province":"東京都","city":"東村山市","address":"東村山市青葉町1-7-68","lat":35.76059,"lon":139.49135},{"name":"花さき保育園","province":"東京都","city":"東村山市","address":"東村山市青葉町4-1-1","lat":35.76569,"lon":139.4937},{"name":"わくわく保育園","province":"東京都","city":"東村山市","address":"東村山市久米川町1-38-4","lat":35.7677,"lon":139.48514},{"name":"あいあい保育園","province":"東京都","city":"東村山市","address":"東村山市久米川町2-44-2","lat":35.76662,"lon":139.48135},{"name":"天王森保育園","province":"東京都","city":"東村山市","address":"東村山市久米川町4-4-10","lat":35.76112,"lon":139.47256},{"name":"りんごっこ保育園","province":"東京都","city":"東村山市","address":"東村山市恩多町1-55-7","lat":35.75204,"lon":139.48888},{"name":"萩山まるやま保育園","province":"東京都","city":"東村山市","address":"東村山市萩山町3-29-37","lat":35.74187,"lon":139.47427},{"name":"久米川保育園","province":"東京都","city":"東村山市","address":"東村山市萩山町5-6-1","lat":35.7465,"lon":139.47881},{"name":"東村山市立第七保育園","province":"東京都","city":"東村山市","address":"東村山市栄町1-36-51","lat":35.75244,"lon":139.47775},{"name":"いづみ愛児園","province":"東京都","city":"東村山市","address":"東村山市栄町1丁目37番地28","lat":35.75159,"lon":139.47765},{"name":"つばさ保育園","province":"東京都","city":"東村山市","address":"東村山市本町2-22-3","lat":35.75913,"lon":139.46916},{"name":"ほんちょう保育園","province":"東京都","city":"東村山市","address":"東村山市本町3-43-1","lat":35.75557,"lon":139.47055},{"name":"東村山市立第一保育園","province":"東京都","city":"東村山市","address":"東村山市本町4-15-16都営本町アパート6号棟1階","lat":35.7528,"lon":139.47365},{"name":"八国山保育園","province":"東京都","city":"東村山市","address":"東村山市野口町1-5-6","lat":35.76415,"lon":139.46577},{"name":"ソラスト東村山保育園","province":"東京都","city":"東村山市","address":"東村山市野口町1-8-28","lat":35.76302,"lon":139.46465},{"name":"東村山市立第四保育園","province":"東京都","city":"東村山市","address":"東村山市美住町1-4-19","lat":35.75094,"lon":139.46135},{"name":"つぼみ保育園","province":"東京都","city":"東村山市","address":"東村山市富士見町2-2-2","lat":35.74449,"lon":139.45113},{"name":"ふじみ保育園","province":"東京都","city":"東村山市","address":"東村山市富士見町2-7-5","lat":35.74027,"lon":139.45242},{"name":"東村山むさしの第二認定こども園","province":"東京都","city":"東村山市","address":"東村山市廻田町2-14-1","lat":35.7542723,"lon":139.4487254},{"name":"東たいてん保育園","province":"東京都","city":"東村山市","address":"東村山市多摩湖町1-14-2","lat":35.76187,"lon":139.44817},{"name":"東村山市立第三保育園","province":"東京都","city":"東村山市","address":"東村山市多摩湖町1-23-4","lat":35.76363,"lon":139.45218},{"name":"さつき荘","province":"東京都","city":"東村山市","address":"東村山市富士見町2-8-2","lat":35.740609,"lon":139.453774},{"name":"村山荘","province":"東京都","city":"東村山市","address":"東村山市富士見町2-7-5","lat":35.740203,"lon":139.452535},{"name":"社会福祉法人東京コロニー コロニー東村山","province":"東京都","city":"東村山市","address":"東京都東村山市秋津町2丁目22-9","lat":35.76876478,"lon":139.48789499},{"name":"社会福祉法人東京コロニー トーコロ青葉ワークセンター","province":"東京都","city":"東村山市","address":"東京都東村山市青葉町2丁目39-10","lat":35.76531803,"lon":139.49069484},{"name":"社会福祉法人ネット十二月","province":"東京都","city":"東村山市","address":"東京都東村山市廻田町3丁目16-8","lat":35.76038678,"lon":139.44811263},{"name":"高齢者在宅サービスセンター白十字八国苑","province":"東京都","city":"東村山市","address":"東京都東村山市諏訪町2丁目26-1","lat":35.77189152,"lon":139.46365808},{"name":"社会福祉法人村山苑福祉事業センター","province":"東京都","city":"東村山市","address":"東京都東村山市富士見町2丁目7-5","lat":35.74020311,"lon":139.45253528},{"name":"社会福祉法人いずみライフサポートつばさ","province":"東京都","city":"東村山市","address":"東京都東村山市富士見町3丁目4-16","lat":35.74866053,"lon":139.45443753},{"name":"社会福祉法人小さい共同体就労継続支援Ｂ型飛翔クラブ","province":"東京都","city":"東村山市","address":"東京都東村山市栄町2丁目9-32","lat":35.74941934,"lon":139.47170261},{"name":"特定非営利活動法人けやきけやき第二作業所","province":"東京都","city":"東村山市","address":"東京都東村山市萩山町3丁目19-2","lat":35.74593911,"lon":139.46971405},{"name":"株式会社ウィズケアメディカル ウィズケアリハビリセンター","province":"東京都","city":"東村山市","address":"東京都東村山市久米川町3丁目1-1","lat":35.75976546,"lon":139.47353814},{"name":"社会福祉法人東京蒼生会寿デイ･サービスセンター","province":"東京都","city":"東村山市","address":"東京都東村山市富士見町2丁目1-2","lat":35.7445943,"lon":139.4540183},{"name":"特定非営利活動法人セサミ萩共同作業所セサミ萩","province":"東京都","city":"東村山市","address":"東京都東村山市萩山町2丁目2-15","lat":35.74047328,"lon":139.47715529},{"name":"かりん","province":"東京都","city":"東村山市","address":"東京都東村山市秋津町2丁目37-47","lat":35.77148394,"lon":139.48956425},{"name":"社会福祉法人ネット久米川共同作業所","province":"東京都","city":"東村山市","address":"東京都東村山市久米川町2丁目21-14","lat":35.76533442,"lon":139.47915135},{"name":"特定非営利活動法人ワーカーズコープ東村山楠の樹地域福祉事業所ふたば","province":"東京都","city":"東村山市","address":"東京都東村山市野口町1丁目15-5","lat":35.76157604,"lon":139.46296959},{"name":"天王森保育園","province":"東京都","city":"東村山市","address":"東村山市久米川町4-4-10","lat":35.76112,"lon":139.47257},{"name":"八国山保育園","province":"東京都","city":"東村山市","address":"東村山市野口町1-5-6","lat":35.76415,"lon":139.46578},{"name":"東村山市立第一保育園","province":"東京都","city":"東村山市","address":"東村山市本町4-15-16都営本町アパート6号棟1階","lat":35.75492,"lon":139.46719},{"name":"八坂給水所","province":"東京都","city":"東村山市","address":"東京都東村山市富士見町5丁目4-46","lat":35.74735525,"lon":139.45848167},{"name":"東村山浄水場","province":"東京都","city":"東村山市","address":"東京都東村山市美住町2丁目20-236","lat":35.75327404,"lon":139.45878417},{"name":"美住給水所","province":"東京都","city":"東村山市","address":"東京都東村山市美住町2丁目13-4","lat":35.75552943,"lon":139.46155328},{"name":"市立東村山運動公園","province":"東京都","city":"東村山市","address":"東京都東村山市恩多町1丁目9-59","lat":35.75542745,"lon":139.48852866},{"name":"美住給水所（注２）","province":"東京都","city":"東村山市","address":"東京都東村山市美住町2丁目13-4","lat":35.75552943,"lon":139.46155328},{"name":"東村山市立東村山運動公園","province":"東京都","city":"東村山市","address":"東京都東村山市恩多町1丁目51-1","lat":35.75413874,"lon":139.48959805},{"name":"経済産業研究所グラウンド","province":"東京都","city":"東村山市","address":"東京都東村山市富士見町5丁目4-36","lat":35.74688305,"lon":139.45748178},{"name":"都立東村山中央公園","province":"東京都","city":"東村山市","address":"東京都東村山市富士見町5丁目","lat":35.74535555,"lon":139.46071488},{"name":"東村山市選挙管理委員会","province":"東京都","city":"東村山市","address":"東村山市本町1-2-3","lat":35.754574,"lon":139.468413},{"name":"東村山ナーシングホーム","province":"東京都","city":"東村山市","address":"東京都東村山市青葉町1丁目7-1","lat":35.76043805,"lon":139.49094217},{"name":"東村山西高等学校","province":"東京都","city":"東村山市","address":"東京都東村山市富士見町5丁目4-41","lat":35.749666,"lon":139.45542351},{"name":"東村山高等学校","province":"東京都","city":"東村山市","address":"東京都東村山市恩多町4丁目26-1","lat":35.759885,"lon":139.47780442},{"name":"東村山市民スポーツセンター","province":"東京都","city":"東村山市","address":"東京都東村山市久米川町3丁目30-5","lat":35.76107658,"lon":139.47965976},{"name":"東村山市本庁舎","province":"東京都","city":"東村山市","address":"東村山市本町1-2-3","lat":35.754624,"lon":139.468484},{"name":"※東村山市役所本庁舎","province":"東京都","city":"東村山市","address":"東京都東村山市本町1丁目2-3","lat":35.75462421,"lon":139.46848323},{"name":"東村山市立第五保育園","province":"東京都","city":"東村山市","address":"東村山市秋津町4-25-15","lat":35.779283,"lon":139.48512},{"name":"青葉さくら保育園","province":"東京都","city":"東村山市","address":"東村山市青葉町1-7-68","lat":35.75773,"lon":139.491806},{"name":"花さき保育園","province":"東京都","city":"東村山市","address":"東村山市青葉町4-1-1","lat":35.764804,"lon":139.495472},{"name":"東村山市立第六保育園","province":"東京都","city":"東村山市","address":"東村山市久米川町4-4-10","lat":35.761185,"lon":139.472149},{"name":"わくわく保育園","province":"東京都","city":"東村山市","address":"東村山市久米川町1-38-4","lat":35.768112,"lon":139.48527},{"name":"あいあい保育園","province":"東京都","city":"東村山市","address":"東村山市久米川町2-44-2","lat":35.76644,"lon":139.481643},{"name":"りんごっこ保育園","province":"東京都","city":"東村山市","address":"東村山市恩多町1-55-7","lat":35.751795,"lon":139.48854},{"name":"東村山市立第二保育園","province":"東京都","city":"東村山市","address":"東村山市萩山町1-36-1","lat":35.737546,"lon":139.483433},{"name":"久米川保育園","province":"東京都","city":"東村山市","address":"東村山市萩山町5-6-1","lat":35.746978,"lon":139.479416},{"name":"東村山市立第七保育園","province":"東京都","city":"東村山市","address":"東村山市栄町1-36-51","lat":35.752597,"lon":139.477224},{"name":"いづみ愛児園","province":"東京都","city":"東村山市","address":"東村山市栄町1丁目37番地28","lat":35.751414,"lon":139.477866},{"name":"東村山市立第一保育園","province":"東京都","city":"東村山市","address":"東村山市本町4-15-16都営本町アパート6号棟1階","lat":35.753358,"lon":139.473269},{"name":"つばさ保育園","province":"東京都","city":"東村山市","address":"東村山市本町2-22-3","lat":35.759199,"lon":139.468989},{"name":"ほんちょう保育園","province":"東京都","city":"東村山市","address":"東村山市本町3-43-1","lat":35.75561,"lon":139.470444},{"name":"八国山保育園","province":"東京都","city":"東村山市","address":"東村山市野口町1-5-6","lat":35.764123,"lon":139.465778},{"name":"東村山市立第四保育園","province":"東京都","city":"東村山市","address":"東村山市美住町1-4-19","lat":35.749289,"lon":139.464839},{"name":"つぼみ保育園","province":"東京都","city":"東村山市","address":"東村山市富士見町2-2-2","lat":35.744922,"lon":139.451777},{"name":"ふじみ保育園","province":"東京都","city":"東村山市","address":"東村山市富士見町2-7-5","lat":35.740203,"lon":139.452535},{"name":"東村山むさしの第二認定こども園","province":"東京都","city":"東村山市","address":"東村山市廻田町2-14-1","lat":35.754132,"lon":139.448688},{"name":"東村山市立第三保育園","province":"東京都","city":"東村山市","address":"東村山市多摩湖町1-23-4","lat":35.763703,"lon":139.452159},{"name":"東たいてん保育園","province":"東京都","city":"東村山市","address":"東村山市多摩湖町1-14-2","lat":35.76202,"lon":139.448471},{"name":"久米川古戦場","province":"東京都","city":"東村山市","address":"東京都東村山市諏訪町2丁目付近(西宿公園)","lat":35.768836,"lon":139.464478},{"name":"東村山市立第五保育園","province":"東京都","city":"東村山市","address":"東村山市秋津町4-25-15","lat":35.77879,"lon":139.48503},{"name":"青葉さくら保育園","province":"東京都","city":"東村山市","address":"東村山市青葉町1-7-68","lat":35.76059,"lon":139.49135},{"name":"花さき保育園","province":"東京都","city":"東村山市","address":"東村山市青葉町4-1-1","lat":35.76569,"lon":139.4937},{"name":"わくわく保育園","province":"東京都","city":"東村山市","address":"東村山市久米川町1-38-4","lat":35.7677,"lon":139.48514},{"name":"あいあい保育園","province":"東京都","city":"東村山市","address":"東村山市久米川町2-44-2","lat":35.76662,"lon":139.48135},{"name":"天王森保育園","province":"東京都","city":"東村山市","address":"東村山市久米川町4-4-10","lat":35.76112,"lon":139.47256},{"name":"りんごっこ保育園","province":"東京都","city":"東村山市","address":"東村山市恩多町1-55-7","lat":35.75204,"lon":139.48888},{"name":"萩山まるやま保育園","province":"東京都","city":"東村山市","address":"東村山市萩山町3-29-37","lat":35.74187,"lon":139.47427},{"name":"久米川保育園","province":"東京都","city":"東村山市","address":"東村山市萩山町5-6-1","lat":35.7465,"lon":139.47881},{"name":"東村山市立第七保育園","province":"東京都","city":"東村山市","address":"東村山市栄町1-36-51","lat":35.75244,"lon":139.47775},{"name":"いづみ愛児園","province":"東京都","city":"東村山市","address":"東村山市栄町1丁目37番地28","lat":35.75159,"lon":139.47765},{"name":"つばさ保育園","province":"東京都","city":"東村山市","address":"東村山市本町2-22-3","lat":35.75913,"lon":139.46916},{"name":"ほんちょう保育園","province":"東京都","city":"東村山市","address":"東村山市本町3-43-1","lat":35.75557,"lon":139.47055},{"name":"東村山市立第一保育園","province":"東京都","city":"東村山市","address":"東村山市本町4-15-16都営本町アパート6号棟1階","lat":35.7528,"lon":139.47365},{"name":"八国山保育園","province":"東京都","city":"東村山市","address":"東村山市野口町1-5-6","lat":35.76415,"lon":139.46577},{"name":"ソラスト東村山保育園","province":"東京都","city":"東村山市","address":"東村山市野口町1-8-28","lat":35.76302,"lon":139.46465},{"name":"東村山市立第四保育園","province":"東京都","city":"東村山市","address":"東村山市美住町1-4-19","lat":35.75094,"lon":139.46135},{"name":"つぼみ保育園","province":"東京都","city":"東村山市","address":"東村山市富士見町2-2-2","lat":35.74449,"lon":139.45113},{"name":"ふじみ保育園","province":"東京都","city":"東村山市","address":"東村山市富士見町2-7-5","lat":35.74027,"lon":139.45242},{"name":"東村山むさしの第二認定こども園","province":"東京都","city":"東村山市","address":"東村山市廻田町2-14-1","lat":35.7542723,"lon":139.4487254},{"name":"東たいてん保育園","province":"東京都","city":"東村山市","address":"東村山市多摩湖町1-14-2","lat":35.76187,"lon":139.44817},{"name":"東村山市立第三保育園","province":"東京都","city":"東村山市","address":"東村山市多摩湖町1-23-4","lat":35.76363,"lon":139.45218},{"name":"さつき荘","province":"東京都","city":"東村山市","address":"東村山市富士見町2-8-2","lat":35.740609,"lon":139.453774},{"name":"村山荘","province":"東京都","city":"東村山市","address":"東村山市富士見町2-7-5","lat":35.740203,"lon":139.452535},{"name":"社会福祉法人東京コロニー コロニー東村山","province":"東京都","city":"東村山市","address":"東京都東村山市秋津町2丁目22-9","lat":35.76876478,"lon":139.48789499},{"name":"社会福祉法人東京コロニー トーコロ青葉ワークセンター","province":"東京都","city":"東村山市","address":"東京都東村山市青葉町2丁目39-10","lat":35.76531803,"lon":139.49069484},{"name":"社会福祉法人ネット十二月","province":"東京都","city":"東村山市","address":"東京都東村山市廻田町3丁目16-8","lat":35.76038678,"lon":139.44811263},{"name":"高齢者在宅サービスセンター白十字八国苑","province":"東京都","city":"東村山市","address":"東京都東村山市諏訪町2丁目26-1","lat":35.77189152,"lon":139.46365808},{"name":"社会福祉法人村山苑福祉事業センター","province":"東京都","city":"東村山市","address":"東京都東村山市富士見町2丁目7-5","lat":35.74020311,"lon":139.45253528},{"name":"社会福祉法人いずみライフサポートつばさ","province":"東京都","city":"東村山市","address":"東京都東村山市富士見町3丁目4-16","lat":35.74866053,"lon":139.45443753},{"name":"社会福祉法人小さい共同体就労継続支援Ｂ型飛翔クラブ","province":"東京都","city":"東村山市","address":"東京都東村山市栄町2丁目9-32","lat":35.74941934,"lon":139.47170261},{"name":"特定非営利活動法人けやきけやき第二作業所","province":"東京都","city":"東村山市","address":"東京都東村山市萩山町3丁目19-2","lat":35.74593911,"lon":139.46971405},{"name":"株式会社ウィズケアメディカル ウィズケアリハビリセンター","province":"東京都","city":"東村山市","address":"東京都東村山市久米川町3丁目1-1","lat":35.75976546,"lon":139.47353814},{"name":"社会福祉法人東京蒼生会寿デイ･サービスセンター","province":"東京都","city":"東村山市","address":"東京都東村山市富士見町2丁目1-2","lat":35.7445943,"lon":139.4540183},{"name":"特定非営利活動法人セサミ萩共同作業所セサミ萩","province":"東京都","city":"東村山市","address":"東京都東村山市萩山町2丁目2-15","lat":35.74047328,"lon":139.47715529},{"name":"かりん","province":"東京都","city":"東村山市","address":"東京都東村山市秋津町2丁目37-47","lat":35.77148394,"lon":139.48956425},{"name":"社会福祉法人ネット久米川共同作業所","province":"東京都","city":"東村山市","address":"東京都東村山市久米川町2丁目21-14","lat":35.76533442,"lon":139.47915135},{"name":"特定非営利活動法人ワーカーズコープ東村山楠の樹地域福祉事業所ふたば","province":"東京都","city":"東村山市","address":"東京都東村山市野口町1丁目15-5","lat":35.76157604,"lon":139.46296959},{"name":"天王森保育園","province":"東京都","city":"東村山市","address":"東村山市久米川町4-4-10","lat":35.76112,"lon":139.47257},{"name":"八国山保育園","province":"東京都","city":"東村山市","address":"東村山市野口町1-5-6","lat":35.76415,"lon":139.46578},{"name":"東村山市立第一保育園","province":"東京都","city":"東村山市","address":"東村山市本町4-15-16都営本町アパート6号棟1階","lat":35.75492,"lon":139.46719},{"name":"東村山市民スポーツセンター","province":"東京都","city":"東村山市","address":"東京都東村山市久米川町3丁目30-5","lat":35.76107658,"lon":139.47965976},{"name":"東村山市本庁舎","province":"東京都","city":"東村山市","address":"東村山市本町1-2-3","lat":35.754624,"lon":139.468484},{"name":"※東村山市役所本庁舎","province":"東京都","city":"東村山市","address":"東京都東村山市本町1丁目2-3","lat":35.75462421,"lon":139.46848323},{"name":"東村山市立第五保育園","province":"東京都","city":"東村山市","address":"東村山市秋津町4-25-15","lat":35.779283,"lon":139.48512},{"name":"青葉さくら保育園","province":"東京都","city":"東村山市","address":"東村山市青葉町1-7-68","lat":35.75773,"lon":139.491806},{"name":"花さき保育園","province":"東京都","city":"東村山市","address":"東村山市青葉町4-1-1","lat":35.764804,"lon":139.495472},{"name":"東村山市立第六保育園","province":"東京都","city":"東村山市","address":"東村山市久米川町4-4-10","lat":35.761185,"lon":139.472149},{"name":"わくわく保育園","province":"東京都","city":"東村山市","address":"東村山市久米川町1-38-4","lat":35.768112,"lon":139.48527},{"name":"あいあい保育園","province":"東京都","city":"東村山市","address":"東村山市久米川町2-44-2","lat":35.76644,"lon":139.481643},{"name":"りんごっこ保育園","province":"東京都","city":"東村山市","address":"東村山市恩多町1-55-7","lat":35.751795,"lon":139.48854},{"name":"東村山市立第二保育園","province":"東京都","city":"東村山市","address":"東村山市萩山町1-36-1","lat":35.737546,"lon":139.483433},{"name":"久米川保育園","province":"東京都","city":"東村山市","address":"東村山市萩山町5-6-1","lat":35.746978,"lon":139.479416},{"name":"東村山市立第七保育園","province":"東京都","city":"東村山市","address":"東村山市栄町1-36-51","lat":35.752597,"lon":139.477224},{"name":"いづみ愛児園","province":"東京都","city":"東村山市","address":"東村山市栄町1丁目37番地28","lat":35.751414,"lon":139.477866},{"name":"東村山市立第一保育園","province":"東京都","city":"東村山市","address":"東村山市本町4-15-16都営本町アパート6号棟1階","lat":35.753358,"lon":139.473269},{"name":"つばさ保育園","province":"東京都","city":"東村山市","address":"東村山市本町2-22-3","lat":35.759199,"lon":139.468989},{"name":"ほんちょう保育園","province":"東京都","city":"東村山市","address":"東村山市本町3-43-1","lat":35.75561,"lon":139.470444},{"name":"八国山保育園","province":"東京都","city":"東村山市","address":"東村山市野口町1-5-6","lat":35.764123,"lon":139.465778},{"name":"東村山市立第四保育園","province":"東京都","city":"東村山市","address":"東村山市美住町1-4-19","lat":35.749289,"lon":139.464839},{"name":"つぼみ保育園","province":"東京都","city":"東村山市","address":"東村山市富士見町2-2-2","lat":35.744922,"lon":139.451777},{"name":"ふじみ保育園","province":"東京都","city":"東村山市","address":"東村山市富士見町2-7-5","lat":35.740203,"lon":139.452535},{"name":"東村山むさしの第二認定こども園","province":"東京都","city":"東村山市","address":"東村山市廻田町2-14-1","lat":35.754132,"lon":139.448688},{"name":"東村山市立第三保育園","province":"東京都","city":"東村山市","address":"東村山市多摩湖町1-23-4","lat":35.763703,"lon":139.452159},{"name":"東たいてん保育園","province":"東京都","city":"東村山市","address":"東村山市多摩湖町1-14-2","lat":35.76202,"lon":139.448471},{"name":"久米川古戦場","province":"東京都","city":"東村山市","address":"東京都東村山市諏訪町2丁目付近(西宿公園)","lat":35.768836,"lon":139.464478},{"name":"東村山市立第五保育園","province":"東京都","city":"東村山市","address":"東村山市秋津町4-25-15","lat":35.77879,"lon":139.48503},{"name":"青葉さくら保育園","province":"東京都","city":"東村山市","address":"東村山市青葉町1-7-68","lat":35.76059,"lon":139.49135},{"name":"花さき保育園","province":"東京都","city":"東村山市","address":"東村山市青葉町4-1-1","lat":35.76569,"lon":139.4937},{"name":"わくわく保育園","province":"東京都","city":"東村山市","address":"東村山市久米川町1-38-4","lat":35.7677,"lon":139.48514},{"name":"あいあい保育園","province":"東京都","city":"東村山市","address":"東村山市久米川町2-44-2","lat":35.76662,"lon":139.48135},{"name":"天王森保育園","province":"東京都","city":"東村山市","address":"東村山市久米川町4-4-10","lat":35.76112,"lon":139.47256},{"name":"りんごっこ保育園","province":"東京都","city":"東村山市","address":"東村山市恩多町1-55-7","lat":35.75204,"lon":139.48888},{"name":"萩山まるやま保育園","province":"東京都","city":"東村山市","address":"東村山市萩山町3-29-37","lat":35.74187,"lon":139.47427},{"name":"久米川保育園","province":"東京都","city":"東村山市","address":"東村山市萩山町5-6-1","lat":35.7465,"lon":139.47881},{"name":"東村山市立第七保育園","province":"東京都","city":"東村山市","address":"東村山市栄町1-36-51","lat":35.75244,"lon":139.47775},{"name":"いづみ愛児園","province":"東京都","city":"東村山市","address":"東村山市栄町1丁目37番地28","lat":35.75159,"lon":139.47765},{"name":"つばさ保育園","province":"東京都","city":"東村山市","address":"東村山市本町2-22-3","lat":35.75913,"lon":139.46916},{"name":"ほんちょう保育園","province":"東京都","city":"東村山市","address":"東村山市本町3-43-1","lat":35.75557,"lon":139.47055},{"name":"東村山市立第一保育園","province":"東京都","city":"東村山市","address":"東村山市本町4-15-16都営本町アパート6号棟1階","lat":35.7528,"lon":139.47365},{"name":"八国山保育園","province":"東京都","city":"東村山市","address":"東村山市野口町1-5-6","lat":35.76415,"lon":139.46577},{"name":"ソラスト東村山保育園","province":"東京都","city":"東村山市","address":"東村山市野口町1-8-28","lat":35.76302,"lon":139.46465},{"name":"東村山市立第四保育園","province":"東京都","city":"東村山市","address":"東村山市美住町1-4-19","lat":35.75094,"lon":139.46135},{"name":"つぼみ保育園","province":"東京都","city":"東村山市","address":"東村山市富士見町2-2-2","lat":35.74449,"lon":139.45113},{"name":"ふじみ保育園","province":"東京都","city":"東村山市","address":"東村山市富士見町2-7-5","lat":35.74027,"lon":139.45242},{"name":"東村山むさしの第二認定こども園","province":"東京都","city":"東村山市","address":"東村山市廻田町2-14-1","lat":35.7542723,"lon":139.4487254},{"name":"東たいてん保育園","province":"東京都","city":"東村山市","address":"東村山市多摩湖町1-14-2","lat":35.76187,"lon":139.44817},{"name":"東村山市立第三保育園","province":"東京都","city":"東村山市","address":"東村山市多摩湖町1-23-4","lat":35.76363,"lon":139.45218},{"name":"さつき荘","province":"東京都","city":"東村山市","address":"東村山市富士見町2-8-2","lat":35.740609,"lon":139.453774},{"name":"村山荘","province":"東京都","city":"東村山市","address":"東村山市富士見町2-7-5","lat":35.740203,"lon":139.452535},{"name":"社会福祉法人東京コロニー コロニー東村山","province":"東京都","city":"東村山市","address":"東京都東村山市秋津町2丁目22-9","lat":35.76876478,"lon":139.48789499},{"name":"社会福祉法人東京コロニー トーコロ青葉ワークセンター","province":"東京都","city":"東村山市","address":"東京都東村山市青葉町2丁目39-10","lat":35.76531803,"lon":139.49069484},{"name":"社会福祉法人ネット十二月","province":"東京都","city":"東村山市","address":"東京都東村山市廻田町3丁目16-8","lat":35.76038678,"lon":139.44811263},{"name":"高齢者在宅サービスセンター白十字八国苑","province":"東京都","city":"東村山市","address":"東京都東村山市諏訪町2丁目26-1","lat":35.77189152,"lon":139.46365808},{"name":"社会福祉法人村山苑福祉事業センター","province":"東京都","city":"東村山市","address":"東京都東村山市富士見町2丁目7-5","lat":35.74020311,"lon":139.45253528},{"name":"社会福祉法人いずみライフサポートつばさ","province":"東京都","city":"東村山市","address":"東京都東村山市富士見町3丁目4-16","lat":35.74866053,"lon":139.45443753},{"name":"社会福祉法人小さい共同体就労継続支援Ｂ型飛翔クラブ","province":"東京都","city":"東村山市","address":"東京都東村山市栄町2丁目9-32","lat":35.74941934,"lon":139.47170261},{"name":"特定非営利活動法人けやきけやき第二作業所","province":"東京都","city":"東村山市","address":"東京都東村山市萩山町3丁目19-2","lat":35.74593911,"lon":139.46971405},{"name":"株式会社ウィズケアメディカル ウィズケアリハビリセンター","province":"東京都","city":"東村山市","address":"東京都東村山市久米川町3丁目1-1","lat":35.75976546,"lon":139.47353814},{"name":"社会福祉法人東京蒼生会寿デイ･サービスセンター","province":"東京都","city":"東村山市","address":"東京都東村山市富士見町2丁目1-2","lat":35.7445943,"lon":139.4540183},{"name":"特定非営利活動法人セサミ萩共同作業所セサミ萩","province":"東京都","city":"東村山市","address":"東京都東村山市萩山町2丁目2-15","lat":35.74047328,"lon":139.47715529},{"name":"かりん","province":"東京都","city":"東村山市","address":"東京都東村山市秋津町2丁目37-47","lat":35.77148394,"lon":139.48956425},{"name":"社会福祉法人ネット久米川共同作業所","province":"東京都","city":"東村山市","address":"東京都東村山市久米川町2丁目21-14","lat":35.76533442,"lon":139.47915135},{"name":"特定非営利活動法人ワーカーズコープ東村山楠の樹地域福祉事業所ふたば","province":"東京都","city":"東村山市","address":"東京都東村山市野口町1丁目15-5","lat":35.76157604,"lon":139.46296959},{"name":"天王森保育園","province":"東京都","city":"東村山市","address":"東村山市久米川町4-4-10","lat":35.76112,"lon":139.47257},{"name":"八国山保育園","province":"東京都","city":"東村山市","address":"東村山市野口町1-5-6","lat":35.76415,"lon":139.46578},{"name":"東村山市立第一保育園","province":"東京都","city":"東村山市","address":"東村山市本町4-15-16都営本町アパート6号棟1階","lat":35.75492,"lon":139.46719},{"name":"東村山市民スポーツセンター","province":"東京都","city":"東村山市","address":"東京都東村山市久米川町3丁目30-5","lat":35.76107658,"lon":139.47965976},{"name":"※東村山市役所本庁舎","province":"東京都","city":"東村山市","address":"東京都東村山市本町1丁目2-3","lat":35.75462421,"lon":139.46848323},{"name":"東村山市立第五保育園","province":"東京都","city":"東村山市","address":"東村山市秋津町4-25-15","lat":35.779283,"lon":139.48512},{"name":"青葉さくら保育園","province":"東京都","city":"東村山市","address":"東村山市青葉町1-7-68","lat":35.75773,"lon":139.491806},{"name":"花さき保育園","province":"東京都","city":"東村山市","address":"東村山市青葉町4-1-1","lat":35.764804,"lon":139.495472},{"name":"東村山市立第六保育園","province":"東京都","city":"東村山市","address":"東村山市久米川町4-4-10","lat":35.761185,"lon":139.472149},{"name":"わくわく保育園","province":"東京都","city":"東村山市","address":"東村山市久米川町1-38-4","lat":35.768112,"lon":139.48527},{"name":"あいあい保育園","province":"東京都","city":"東村山市","address":"東村山市久米川町2-44-2","lat":35.76644,"lon":139.481643},{"name":"りんごっこ保育園","province":"東京都","city":"東村山市","address":"東村山市恩多町1-55-7","lat":35.751795,"lon":139.48854},{"name":"東村山市立第二保育園","province":"東京都","city":"東村山市","address":"東村山市萩山町1-36-1","lat":35.737546,"lon":139.483433},{"name":"久米川保育園","province":"東京都","city":"東村山市","address":"東村山市萩山町5-6-1","lat":35.746978,"lon":139.479416},{"name":"東村山市立第七保育園","province":"東京都","city":"東村山市","address":"東村山市栄町1-36-51","lat":35.752597,"lon":139.477224},{"name":"いづみ愛児園","province":"東京都","city":"東村山市","address":"東村山市栄町1丁目37番地28","lat":35.751414,"lon":139.477866},{"name":"東村山市立第一保育園","province":"東京都","city":"東村山市","address":"東村山市本町4-15-16都営本町アパート6号棟1階","lat":35.753358,"lon":139.473269},{"name":"つばさ保育園","province":"東京都","city":"東村山市","address":"東村山市本町2-22-3","lat":35.759199,"lon":139.468989},{"name":"ほんちょう保育園","province":"東京都","city":"東村山市","address":"東村山市本町3-43-1","lat":35.75561,"lon":139.470444},{"name":"八国山保育園","province":"東京都","city":"東村山市","address":"東村山市野口町1-5-6","lat":35.764123,"lon":139.465778},{"name":"東村山市立第四保育園","province":"東京都","city":"東村山市","address":"東村山市美住町1-4-19","lat":35.749289,"lon":139.464839},{"name":"つぼみ保育園","province":"東京都","city":"東村山市","address":"東村山市富士見町2-2-2","lat":35.744922,"lon":139.451777},{"name":"ふじみ保育園","province":"東京都","city":"東村山市","address":"東村山市富士見町2-7-5","lat":35.740203,"lon":139.452535},{"name":"東村山むさしの第二認定こども園","province":"東京都","city":"東村山市","address":"東村山市廻田町2-14-1","lat":35.754132,"lon":139.448688},{"name":"東村山市立第三保育園","province":"東京都","city":"東村山市","address":"東村山市多摩湖町1-23-4","lat":35.763703,"lon":139.452159},{"name":"東たいてん保育園","province":"東京都","city":"東村山市","address":"東村山市多摩湖町1-14-2","lat":35.76202,"lon":139.448471},{"name":"東村山市立第五保育園","province":"東京都","city":"東村山市","address":"東村山市秋津町4-25-15","lat":35.77879,"lon":139.48503},{"name":"青葉さくら保育園","province":"東京都","city":"東村山市","address":"東村山市青葉町1-7-68","lat":35.76059,"lon":139.49135},{"name":"花さき保育園","province":"東京都","city":"東村山市","address":"東村山市青葉町4-1-1","lat":35.76569,"lon":139.4937},{"name":"わくわく保育園","province":"東京都","city":"東村山市","address":"東村山市久米川町1-38-4","lat":35.7677,"lon":139.48514},{"name":"あいあい保育園","province":"東京都","city":"東村山市","address":"東村山市久米川町2-44-2","lat":35.76662,"lon":139.48135},{"name":"天王森保育園","province":"東京都","city":"東村山市","address":"東村山市久米川町4-4-10","lat":35.76112,"lon":139.47256},{"name":"りんごっこ保育園","province":"東京都","city":"東村山市","address":"東村山市恩多町1-55-7","lat":35.75204,"lon":139.48888},{"name":"萩山まるやま保育園","province":"東京都","city":"東村山市","address":"東村山市萩山町3-29-37","lat":35.74187,"lon":139.47427},{"name":"久米川保育園","province":"東京都","city":"東村山市","address":"東村山市萩山町5-6-1","lat":35.7465,"lon":139.47881},{"name":"東村山市立第七保育園","province":"東京都","city":"東村山市","address":"東村山市栄町1-36-51","lat":35.75244,"lon":139.47775},{"name":"いづみ愛児園","province":"東京都","city":"東村山市","address":"東村山市栄町1丁目37番地28","lat":35.75159,"lon":139.47765},{"name":"つばさ保育園","province":"東京都","city":"東村山市","address":"東村山市本町2-22-3","lat":35.75913,"lon":139.46916},{"name":"ほんちょう保育園","province":"東京都","city":"東村山市","address":"東村山市本町3-43-1","lat":35.75557,"lon":139.47055},{"name":"東村山市立第一保育園","province":"東京都","city":"東村山市","address":"東村山市本町4-15-16都営本町アパート6号棟1階","lat":35.7528,"lon":139.47365},{"name":"八国山保育園","province":"東京都","city":"東村山市","address":"東村山市野口町1-5-6","lat":35.76415,"lon":139.46577},{"name":"ソラスト東村山保育園","province":"東京都","city":"東村山市","address":"東村山市野口町1-8-28","lat":35.76302,"lon":139.46465},{"name":"東村山市立第四保育園","province":"東京都","city":"東村山市","address":"東村山市美住町1-4-19","lat":35.75094,"lon":139.46135},{"name":"つぼみ保育園","province":"東京都","city":"東村山市","address":"東村山市富士見町2-2-2","lat":35.74449,"lon":139.45113},{"name":"ふじみ保育園","province":"東京都","city":"東村山市","address":"東村山市富士見町2-7-5","lat":35.74027,"lon":139.45242},{"name":"東村山むさしの第二認定こども園","province":"東京都","city":"東村山市","address":"東村山市廻田町2-14-1","lat":35.7542723,"lon":139.4487254},{"name":"東たいてん保育園","province":"東京都","city":"東村山市","address":"東村山市多摩湖町1-14-2","lat":35.76187,"lon":139.44817},{"name":"東村山市立第三保育園","province":"東京都","city":"東村山市","address":"東村山市多摩湖町1-23-4","lat":35.76363,"lon":139.45218},{"name":"さつき荘","province":"東京都","city":"東村山市","address":"東村山市富士見町2-8-2","lat":35.740609,"lon":139.453774},{"name":"村山荘","province":"東京都","city":"東村山市","address":"東村山市富士見町2-7-5","lat":35.740203,"lon":139.452535},{"name":"社会福祉法人東京コロニー コロニー東村山","province":"東京都","city":"東村山市","address":"東京都東村山市秋津町2丁目22-9","lat":35.76876478,"lon":139.48789499},{"name":"社会福祉法人東京コロニー トーコロ青葉ワークセンター","province":"東京都","city":"東村山市","address":"東京都東村山市青葉町2丁目39-10","lat":35.76531803,"lon":139.49069484},{"name":"社会福祉法人ネット十二月","province":"東京都","city":"東村山市","address":"東京都東村山市廻田町3丁目16-8","lat":35.76038678,"lon":139.44811263},{"name":"高齢者在宅サービスセンター白十字八国苑","province":"東京都","city":"東村山市","address":"東京都東村山市諏訪町2丁目26-1","lat":35.77189152,"lon":139.46365808},{"name":"社会福祉法人村山苑福祉事業センター","province":"東京都","city":"東村山市","address":"東京都東村山市富士見町2丁目7-5","lat":35.74020311,"lon":139.45253528},{"name":"社会福祉法人いずみライフサポートつばさ","province":"東京都","city":"東村山市","address":"東京都東村山市富士見町3丁目4-16","lat":35.74866053,"lon":139.45443753},{"name":"社会福祉法人小さい共同体就労継続支援Ｂ型飛翔クラブ","province":"東京都","city":"東村山市","address":"東京都東村山市栄町2丁目9-32","lat":35.74941934,"lon":139.47170261},{"name":"特定非営利活動法人けやきけやき第二作業所","province":"東京都","city":"東村山市","address":"東京都東村山市萩山町3丁目19-2","lat":35.74593911,"lon":139.46971405},{"name":"株式会社ウィズケアメディカル ウィズケアリハビリセンター","province":"東京都","city":"東村山市","address":"東京都東村山市久米川町3丁目1-1","lat":35.75976546,"lon":139.47353814},{"name":"社会福祉法人東京蒼生会寿デイ･サービスセンター","province":"東京都","city":"東村山市","address":"東京都東村山市富士見町2丁目1-2","lat":35.7445943,"lon":139.4540183},{"name":"特定非営利活動法人セサミ萩共同作業所セサミ萩","province":"東京都","city":"東村山市","address":"東京都東村山市萩山町2丁目2-15","lat":35.74047328,"lon":139.47715529},{"name":"かりん","province":"東京都","city":"東村山市","address":"東京都東村山市秋津町2丁目37-47","lat":35.77148394,"lon":139.48956425},{"name":"社会福祉法人ネット久米川共同作業所","province":"東京都","city":"東村山市","address":"東京都東村山市久米川町2丁目21-14","lat":35.76533442,"lon":139.47915135},{"name":"特定非営利活動法人ワーカーズコープ東村山楠の樹地域福祉事業所ふたば","province":"東京都","city":"東村山市","address":"東京都東村山市野口町1丁目15-5","lat":35.76157604,"lon":139.46296959},{"name":"天王森保育園","province":"東京都","city":"東村山市","address":"東村山市久米川町4-4-10","lat":35.76112,"lon":139.47257},{"name":"八国山保育園","province":"東京都","city":"東村山市","address":"東村山市野口町1-5-6","lat":35.76415,"lon":139.46578},{"name":"東村山市立第一保育園","province":"東京都","city":"東村山市","address":"東村山市本町4-15-16都営本町アパート6号棟1階","lat":35.75492,"lon":139.46719},{"name":"東村山市民スポーツセンター","province":"東京都","city":"東村山市","address":"東京都東村山市久米川町3丁目30-5","lat":35.76107658,"lon":139.47965976},{"name":"東村山市立第五保育園","province":"東京都","city":"東村山市","address":"東村山市秋津町4-25-15","lat":35.779283,"lon":139.48512},{"name":"青葉さくら保育園","province":"東京都","city":"東村山市","address":"東村山市青葉町1-7-68","lat":35.75773,"lon":139.491806},{"name":"花さき保育園","province":"東京都","city":"東村山市","address":"東村山市青葉町4-1-1","lat":35.764804,"lon":139.495472},{"name":"東村山市立第六保育園","province":"東京都","city":"東村山市","address":"東村山市久米川町4-4-10","lat":35.761185,"lon":139.472149},{"name":"わくわく保育園","province":"東京都","city":"東村山市","address":"東村山市久米川町1-38-4","lat":35.768112,"lon":139.48527},{"name":"あいあい保育園","province":"東京都","city":"東村山市","address":"東村山市久米川町2-44-2","lat":35.76644,"lon":139.481643},{"name":"りんごっこ保育園","province":"東京都","city":"東村山市","address":"東村山市恩多町1-55-7","lat":35.751795,"lon":139.48854},{"name":"東村山市立第二保育園","province":"東京都","city":"東村山市","address":"東村山市萩山町1-36-1","lat":35.737546,"lon":139.483433},{"name":"久米川保育園","province":"東京都","city":"東村山市","address":"東村山市萩山町5-6-1","lat":35.746978,"lon":139.479416},{"name":"東村山市立第七保育園","province":"東京都","city":"東村山市","address":"東村山市栄町1-36-51","lat":35.752597,"lon":139.477224},{"name":"いづみ愛児園","province":"東京都","city":"東村山市","address":"東村山市栄町1丁目37番地28","lat":35.751414,"lon":139.477866},{"name":"東村山市立第一保育園","province":"東京都","city":"東村山市","address":"東村山市本町4-15-16都営本町アパート6号棟1階","lat":35.753358,"lon":139.473269},{"name":"つばさ保育園","province":"東京都","city":"東村山市","address":"東村山市本町2-22-3","lat":35.759199,"lon":139.468989},{"name":"ほんちょう保育園","province":"東京都","city":"東村山市","address":"東村山市本町3-43-1","lat":35.75561,"lon":139.470444},{"name":"八国山保育園","province":"東京都","city":"東村山市","address":"東村山市野口町1-5-6","lat":35.764123,"lon":139.465778},{"name":"東村山市立第四保育園","province":"東京都","city":"東村山市","address":"東村山市美住町1-4-19","lat":35.749289,"lon":139.464839},{"name":"つぼみ保育園","province":"東京都","city":"東村山市","address":"東村山市富士見町2-2-2","lat":35.744922,"lon":139.451777},{"name":"ふじみ保育園","province":"東京都","city":"東村山市","address":"東村山市富士見町2-7-5","lat":35.740203,"lon":139.452535},{"name":"東村山むさしの第二認定こども園","province":"東京都","city":"東村山市","address":"東村山市廻田町2-14-1","lat":35.754132,"lon":139.448688},{"name":"東村山市立第三保育園","province":"東京都","city":"東村山市","address":"東村山市多摩湖町1-23-4","lat":35.763703,"lon":139.452159},{"name":"東たいてん保育園","province":"東京都","city":"東村山市","address":"東村山市多摩湖町1-14-2","lat":35.76202,"lon":139.448471},{"name":"東村山市立第五保育園","province":"東京都","city":"東村山市","address":"東村山市秋津町4-25-15","lat":35.77879,"lon":139.48503},{"name":"青葉さくら保育園","province":"東京都","city":"東村山市","address":"東村山市青葉町1-7-68","lat":35.76059,"lon":139.49135},{"name":"花さき保育園","province":"東京都","city":"東村山市","address":"東村山市青葉町4-1-1","lat":35.76569,"lon":139.4937},{"name":"わくわく保育園","province":"東京都","city":"東村山市","address":"東村山市久米川町1-38-4","lat":35.7677,"lon":139.48514},{"name":"あいあい保育園","province":"東京都","city":"東村山市","address":"東村山市久米川町2-44-2","lat":35.76662,"lon":139.48135},{"name":"天王森保育園","province":"東京都","city":"東村山市","address":"東村山市久米川町4-4-10","lat":35.76112,"lon":139.47256},{"name":"りんごっこ保育園","province":"東京都","city":"東村山市","address":"東村山市恩多町1-55-7","lat":35.75204,"lon":139.48888},{"name":"萩山まるやま保育園","province":"東京都","city":"東村山市","address":"東村山市萩山町3-29-37","lat":35.74187,"lon":139.47427},{"name":"久米川保育園","province":"東京都","city":"東村山市","address":"東村山市萩山町5-6-1","lat":35.7465,"lon":139.47881},{"name":"東村山市立第七保育園","province":"東京都","city":"東村山市","address":"東村山市栄町1-36-51","lat":35.75244,"lon":139.47775},{"name":"いづみ愛児園","province":"東京都","city":"東村山市","address":"東村山市栄町1丁目37番地28","lat":35.75159,"lon":139.47765},{"name":"つばさ保育園","province":"東京都","city":"東村山市","address":"東村山市本町2-22-3","lat":35.75913,"lon":139.46916},{"name":"ほんちょう保育園","province":"東京都","city":"東村山市","address":"東村山市本町3-43-1","lat":35.75557,"lon":139.47055},{"name":"東村山市立第一保育園","province":"東京都","city":"東村山市","address":"東村山市本町4-15-16都営本町アパート6号棟1階","lat":35.7528,"lon":139.47365},{"name":"八国山保育園","province":"東京都","city":"東村山市","address":"東村山市野口町1-5-6","lat":35.76415,"lon":139.46577},{"name":"ソラスト東村山保育園","province":"東京都","city":"東村山市","address":"東村山市野口町1-8-28","lat":35.76302,"lon":139.46465},{"name":"東村山市立第四保育園","province":"東京都","city":"東村山市","address":"東村山市美住町1-4-19","lat":35.75094,"lon":139.46135},{"name":"つぼみ保育園","province":"東京都","city":"東村山市","address":"東村山市富士見町2-2-2","lat":35.74449,"lon":139.45113},{"name":"ふじみ保育園","province":"東京都","city":"東村山市","address":"東村山市富士見町2-7-5","lat":35.74027,"lon":139.45242},{"name":"東村山むさしの第二認定こども園","province":"東京都","city":"東村山市","address":"東村山市廻田町2-14-1","lat":35.7542723,"lon":139.4487254},{"name":"東たいてん保育園","province":"東京都","city":"東村山市","address":"東村山市多摩湖町1-14-2","lat":35.76187,"lon":139.44817},{"name":"東村山市立第三保育園","province":"東京都","city":"東村山市","address":"東村山市多摩湖町1-23-4","lat":35.76363,"lon":139.45218},{"name":"さつき荘","province":"東京都","city":"東村山市","address":"東村山市富士見町2-8-2","lat":35.740609,"lon":139.453774},{"name":"村山荘","province":"東京都","city":"東村山市","address":"東村山市富士見町2-7-5","lat":35.740203,"lon":139.452535},{"name":"社会福祉法人東京コロニー コロニー東村山","province":"東京都","city":"東村山市","address":"東京都東村山市秋津町2丁目22-9","lat":35.76876478,"lon":139.48789499},{"name":"社会福祉法人東京コロニー トーコロ青葉ワークセンター","province":"東京都","city":"東村山市","address":"東京都東村山市青葉町2丁目39-10","lat":35.76531803,"lon":139.49069484},{"name":"社会福祉法人ネット十二月","province":"東京都","city":"東村山市","address":"東京都東村山市廻田町3丁目16-8","lat":35.76038678,"lon":139.44811263},{"name":"高齢者在宅サービスセンター白十字八国苑","province":"東京都","city":"東村山市","address":"東京都東村山市諏訪町2丁目26-1","lat":35.77189152,"lon":139.46365808},{"name":"社会福祉法人村山苑福祉事業センター","province":"東京都","city":"東村山市","address":"東京都東村山市富士見町2丁目7-5","lat":35.74020311,"lon":139.45253528},{"name":"社会福祉法人いずみライフサポートつばさ","province":"東京都","city":"東村山市","address":"東京都東村山市富士見町3丁目4-16","lat":35.74866053,"lon":139.45443753},{"name":"社会福祉法人小さい共同体就労継続支援Ｂ型飛翔クラブ","province":"東京都","city":"東村山市","address":"東京都東村山市栄町2丁目9-32","lat":35.74941934,"lon":139.47170261},{"name":"特定非営利活動法人けやきけやき第二作業所","province":"東京都","city":"東村山市","address":"東京都東村山市萩山町3丁目19-2","lat":35.74593911,"lon":139.46971405},{"name":"株式会社ウィズケアメディカル ウィズケアリハビリセンター","province":"東京都","city":"東村山市","address":"東京都東村山市久米川町3丁目1-1","lat":35.75976546,"lon":139.47353814},{"name":"社会福祉法人東京蒼生会寿デイ･サービスセンター","province":"東京都","city":"東村山市","address":"東京都東村山市富士見町2丁目1-2","lat":35.7445943,"lon":139.4540183},{"name":"特定非営利活動法人セサミ萩共同作業所セサミ萩","province":"東京都","city":"東村山市","address":"東京都東村山市萩山町2丁目2-15","lat":35.74047328,"lon":139.47715529},{"name":"かりん","province":"東京都","city":"東村山市","address":"東京都東村山市秋津町2丁目37-47","lat":35.77148394,"lon":139.48956425},{"name":"社会福祉法人ネット久米川共同作業所","province":"東京都","city":"東村山市","address":"東京都東村山市久米川町2丁目21-14","lat":35.76533442,"lon":139.47915135},{"name":"特定非営利活動法人ワーカーズコープ東村山楠の樹地域福祉事業所ふたば","province":"東京都","city":"東村山市","address":"東京都東村山市野口町1丁目15-5","lat":35.76157604,"lon":139.46296959},{"name":"天王森保育園","province":"東京都","city":"東村山市","address":"東村山市久米川町4-4-10","lat":35.76112,"lon":139.47257},{"name":"八国山保育園","province":"東京都","city":"東村山市","address":"東村山市野口町1-5-6","lat":35.76415,"lon":139.46578},{"name":"東村山市立第一保育園","province":"東京都","city":"東村山市","address":"東村山市本町4-15-16都営本町アパート6号棟1階","lat":35.75492,"lon":139.46719},{"name":"東村山市立第五保育園","province":"東京都","city":"東村山市","address":"東村山市秋津町4-25-15","lat":35.779283,"lon":139.48512},{"name":"青葉さくら保育園","province":"東京都","city":"東村山市","address":"東村山市青葉町1-7-68","lat":35.75773,"lon":139.491806},{"name":"花さき保育園","province":"東京都","city":"東村山市","address":"東村山市青葉町4-1-1","lat":35.764804,"lon":139.495472},{"name":"東村山市立第六保育園","province":"東京都","city":"東村山市","address":"東村山市久米川町4-4-10","lat":35.761185,"lon":139.472149},{"name":"わくわく保育園","province":"東京都","city":"東村山市","address":"東村山市久米川町1-38-4","lat":35.768112,"lon":139.48527},{"name":"あいあい保育園","province":"東京都","city":"東村山市","address":"東村山市久米川町2-44-2","lat":35.76644,"lon":139.481643},{"name":"りんごっこ保育園","province":"東京都","city":"東村山市","address":"東村山市恩多町1-55-7","lat":35.751795,"lon":139.48854},{"name":"東村山市立第二保育園","province":"東京都","city":"東村山市","address":"東村山市萩山町1-36-1","lat":35.737546,"lon":139.483433},{"name":"久米川保育園","province":"東京都","city":"東村山市","address":"東村山市萩山町5-6-1","lat":35.746978,"lon":139.479416},{"name":"東村山市立第七保育園","province":"東京都","city":"東村山市","address":"東村山市栄町1-36-51","lat":35.752597,"lon":139.477224},{"name":"いづみ愛児園","province":"東京都","city":"東村山市","address":"東村山市栄町1丁目37番地28","lat":35.751414,"lon":139.477866},{"name":"東村山市立第一保育園","province":"東京都","city":"東村山市","address":"東村山市本町4-15-16都営本町アパート6号棟1階","lat":35.753358,"lon":139.473269},{"name":"つばさ保育園","province":"東京都","city":"東村山市","address":"東村山市本町2-22-3","lat":35.759199,"lon":139.468989},{"name":"ほんちょう保育園","province":"東京都","city":"東村山市","address":"東村山市本町3-43-1","lat":35.75561,"lon":139.470444},{"name":"八国山保育園","province":"東京都","city":"東村山市","address":"東村山市野口町1-5-6","lat":35.764123,"lon":139.465778},{"name":"東村山市立第四保育園","province":"東京都","city":"東村山市","address":"東村山市美住町1-4-19","lat":35.749289,"lon":139.464839},{"name":"つぼみ保育園","province":"東京都","city":"東村山市","address":"東村山市富士見町2-2-2","lat":35.744922,"lon":139.451777},{"name":"ふじみ保育園","province":"東京都","city":"東村山市","address":"東村山市富士見町2-7-5","lat":35.740203,"lon":139.452535},{"name":"東村山むさしの第二認定こども園","province":"東京都","city":"東村山市","address":"東村山市廻田町2-14-1","lat":35.754132,"lon":139.448688},{"name":"東村山市立第三保育園","province":"東京都","city":"東村山市","address":"東村山市多摩湖町1-23-4","lat":35.763703,"lon":139.452159},{"name":"東たいてん保育園","province":"東京都","city":"東村山市","address":"東村山市多摩湖町1-14-2","lat":35.76202,"lon":139.448471},{"name":"東村山市立第五保育園","province":"東京都","city":"東村山市","address":"東村山市秋津町4-25-15","lat":35.77879,"lon":139.48503},{"name":"青葉さくら保育園","province":"東京都","city":"東村山市","address":"東村山市青葉町1-7-68","lat":35.76059,"lon":139.49135},{"name":"花さき保育園","province":"東京都","city":"東村山市","address":"東村山市青葉町4-1-1","lat":35.76569,"lon":139.4937},{"name":"わくわく保育園","province":"東京都","city":"東村山市","address":"東村山市久米川町1-38-4","lat":35.7677,"lon":139.48514},{"name":"あいあい保育園","province":"東京都","city":"東村山市","address":"東村山市久米川町2-44-2","lat":35.76662,"lon":139.48135},{"name":"天王森保育園","province":"東京都","city":"東村山市","address":"東村山市久米川町4-4-10","lat":35.76112,"lon":139.47256},{"name":"りんごっこ保育園","province":"東京都","city":"東村山市","address":"東村山市恩多町1-55-7","lat":35.75204,"lon":139.48888},{"name":"萩山まるやま保育園","province":"東京都","city":"東村山市","address":"東村山市萩山町3-29-37","lat":35.74187,"lon":139.47427},{"name":"久米川保育園","province":"東京都","city":"東村山市","address":"東村山市萩山町5-6-1","lat":35.7465,"lon":139.47881},{"name":"東村山市立第七保育園","province":"東京都","city":"東村山市","address":"東村山市栄町1-36-51","lat":35.75244,"lon":139.47775},{"name":"いづみ愛児園","province":"東京都","city":"東村山市","address":"東村山市栄町1丁目37番地28","lat":35.75159,"lon":139.47765},{"name":"つばさ保育園","province":"東京都","city":"東村山市","address":"東村山市本町2-22-3","lat":35.75913,"lon":139.46916},{"name":"ほんちょう保育園","province":"東京都","city":"東村山市","address":"東村山市本町3-43-1","lat":35.75557,"lon":139.47055},{"name":"東村山市立第一保育園","province":"東京都","city":"東村山市","address":"東村山市本町4-15-16都営本町アパート6号棟1階","lat":35.7528,"lon":139.47365},{"name":"八国山保育園","province":"東京都","city":"東村山市","address":"東村山市野口町1-5-6","lat":35.76415,"lon":139.46577},{"name":"ソラスト東村山保育園","province":"東京都","city":"東村山市","address":"東村山市野口町1-8-28","lat":35.76302,"lon":139.46465},{"name":"東村山市立第四保育園","province":"東京都","city":"東村山市","address":"東村山市美住町1-4-19","lat":35.75094,"lon":139.46135},{"name":"つぼみ保育園","province":"東京都","city":"東村山市","address":"東村山市富士見町2-2-2","lat":35.74449,"lon":139.45113},{"name":"ふじみ保育園","province":"東京都","city":"東村山市","address":"東村山市富士見町2-7-5","lat":35.74027,"lon":139.45242},{"name":"東村山むさしの第二認定こども園","province":"東京都","city":"東村山市","address":"東村山市廻田町2-14-1","lat":35.7542723,"lon":139.4487254},{"name":"東たいてん保育園","province":"東京都","city":"東村山市","address":"東村山市多摩湖町1-14-2","lat":35.76187,"lon":139.44817},{"name":"東村山市立第三保育園","province":"東京都","city":"東村山市","address":"東村山市多摩湖町1-23-4","lat":35.76363,"lon":139.45218},{"name":"さつき荘","province":"東京都","city":"東村山市","address":"東村山市富士見町2-8-2","lat":35.740609,"lon":139.453774},{"name":"村山荘","province":"東京都","city":"東村山市","address":"東村山市富士見町2-7-5","lat":35.740203,"lon":139.452535},{"name":"社会福祉法人東京コロニー コロニー東村山","province":"東京都","city":"東村山市","address":"東京都東村山市秋津町2丁目22-9","lat":35.76876478,"lon":139.48789499},{"name":"社会福祉法人東京コロニー トーコロ青葉ワークセンター","province":"東京都","city":"東村山市","address":"東京都東村山市青葉町2丁目39-10","lat":35.76531803,"lon":139.49069484},{"name":"社会福祉法人ネット十二月","province":"東京都","city":"東村山市","address":"東京都東村山市廻田町3丁目16-8","lat":35.76038678,"lon":139.44811263},{"name":"高齢者在宅サービスセンター白十字八国苑","province":"東京都","city":"東村山市","address":"東京都東村山市諏訪町2丁目26-1","lat":35.77189152,"lon":139.46365808},{"name":"社会福祉法人村山苑福祉事業センター","province":"東京都","city":"東村山市","address":"東京都東村山市富士見町2丁目7-5","lat":35.74020311,"lon":139.45253528},{"name":"社会福祉法人いずみライフサポートつばさ","province":"東京都","city":"東村山市","address":"東京都東村山市富士見町3丁目4-16","lat":35.74866053,"lon":139.45443753},{"name":"社会福祉法人小さい共同体就労継続支援Ｂ型飛翔クラブ","province":"東京都","city":"東村山市","address":"東京都東村山市栄町2丁目9-32","lat":35.74941934,"lon":139.47170261},{"name":"特定非営利活動法人けやきけやき第二作業所","province":"東京都","city":"東村山市","address":"東京都東村山市萩山町3丁目19-2","lat":35.74593911,"lon":139.46971405},{"name":"株式会社ウィズケアメディカル ウィズケアリハビリセンター","province":"東京都","city":"東村山市","address":"東京都東村山市久米川町3丁目1-1","lat":35.75976546,"lon":139.47353814},{"name":"社会福祉法人東京蒼生会寿デイ･サービスセンター","province":"東京都","city":"東村山市","address":"東京都東村山市富士見町2丁目1-2","lat":35.7445943,"lon":139.4540183},{"name":"特定非営利活動法人セサミ萩共同作業所セサミ萩","province":"東京都","city":"東村山市","address":"東京都東村山市萩山町2丁目2-15","lat":35.74047328,"lon":139.47715529},{"name":"かりん","province":"東京都","city":"東村山市","address":"東京都東村山市秋津町2丁目37-47","lat":35.77148394,"lon":139.48956425},{"name":"社会福祉法人ネット久米川共同作業所","province":"東京都","city":"東村山市","address":"東京都東村山市久米川町2丁目21-14","lat":35.76533442,"lon":139.47915135},{"name":"特定非営利活動法人ワーカーズコープ東村山楠の樹地域福祉事業所ふたば","province":"東京都","city":"東村山市","address":"東京都東村山市野口町1丁目15-5","lat":35.76157604,"lon":139.46296959},{"name":"天王森保育園","province":"東京都","city":"東村山市","address":"東村山市久米川町4-4-10","lat":35.76112,"lon":139.47257},{"name":"八国山保育園","province":"東京都","city":"東村山市","address":"東村山市野口町1-5-6","lat":35.76415,"lon":139.46578},{"name":"東村山市立第一保育園","province":"東京都","city":"東村山市","address":"東村山市本町4-15-16都営本町アパート6号棟1階","lat":35.75492,"lon":139.46719},{"name":"東村山市立第五保育園","province":"東京都","city":"東村山市","address":"東村山市秋津町4-25-15","lat":35.779283,"lon":139.48512},{"name":"青葉さくら保育園","province":"東京都","city":"東村山市","address":"東村山市青葉町1-7-68","lat":35.75773,"lon":139.491806},{"name":"花さき保育園","province":"東京都","city":"東村山市","address":"東村山市青葉町4-1-1","lat":35.764804,"lon":139.495472},{"name":"東村山市立第六保育園","province":"東京都","city":"東村山市","address":"東村山市久米川町4-4-10","lat":35.761185,"lon":139.472149},{"name":"わくわく保育園","province":"東京都","city":"東村山市","address":"東村山市久米川町1-38-4","lat":35.768112,"lon":139.48527},{"name":"あいあい保育園","province":"東京都","city":"東村山市","address":"東村山市久米川町2-44-2","lat":35.76644,"lon":139.481643},{"name":"りんごっこ保育園","province":"東京都","city":"東村山市","address":"東村山市恩多町1-55-7","lat":35.751795,"lon":139.48854},{"name":"東村山市立第二保育園","province":"東京都","city":"東村山市","address":"東村山市萩山町1-36-1","lat":35.737546,"lon":139.483433},{"name":"久米川保育園","province":"東京都","city":"東村山市","address":"東村山市萩山町5-6-1","lat":35.746978,"lon":139.479416},{"name":"東村山市立第七保育園","province":"東京都","city":"東村山市","address":"東村山市栄町1-36-51","lat":35.752597,"lon":139.477224},{"name":"いづみ愛児園","province":"東京都","city":"東村山市","address":"東村山市栄町1丁目37番地28","lat":35.751414,"lon":139.477866},{"name":"東村山市立第一保育園","province":"東京都","city":"東村山市","address":"東村山市本町4-15-16都営本町アパート6号棟1階","lat":35.753358,"lon":139.473269},{"name":"つばさ保育園","province":"東京都","city":"東村山市","address":"東村山市本町2-22-3","lat":35.759199,"lon":139.468989},{"name":"ほんちょう保育園","province":"東京都","city":"東村山市","address":"東村山市本町3-43-1","lat":35.75561,"lon":139.470444},{"name":"八国山保育園","province":"東京都","city":"東村山市","address":"東村山市野口町1-5-6","lat":35.764123,"lon":139.465778},{"name":"東村山市立第四保育園","province":"東京都","city":"東村山市","address":"東村山市美住町1-4-19","lat":35.749289,"lon":139.464839},{"name":"つぼみ保育園","province":"東京都","city":"東村山市","address":"東村山市富士見町2-2-2","lat":35.744922,"lon":139.451777},{"name":"ふじみ保育園","province":"東京都","city":"東村山市","address":"東村山市富士見町2-7-5","lat":35.740203,"lon":139.452535},{"name":"東村山むさしの第二認定こども園","province":"東京都","city":"東村山市","address":"東村山市廻田町2-14-1","lat":35.754132,"lon":139.448688},{"name":"東村山市立第三保育園","province":"東京都","city":"東村山市","address":"東村山市多摩湖町1-23-4","lat":35.763703,"lon":139.452159},{"name":"東たいてん保育園","province":"東京都","city":"東村山市","address":"東村山市多摩湖町1-14-2","lat":35.76202,"lon":139.448471},{"name":"さつき荘","province":"東京都","city":"東村山市","address":"東村山市富士見町2-8-2","lat":35.740609,"lon":139.453774},{"name":"村山荘","province":"東京都","city":"東村山市","address":"東村山市富士見町2-7-5","lat":35.740203,"lon":139.452535},{"name":"社会福祉法人東京コロニー コロニー東村山","province":"東京都","city":"東村山市","address":"東京都東村山市秋津町2丁目22-9","lat":35.76876478,"lon":139.48789499},{"name":"社会福祉法人東京コロニー トーコロ青葉ワークセンター","province":"東京都","city":"東村山市","address":"東京都東村山市青葉町2丁目39-10","lat":35.76531803,"lon":139.49069484},{"name":"社会福祉法人ネット十二月","province":"東京都","city":"東村山市","address":"東京都東村山市廻田町3丁目16-8","lat":35.76038678,"lon":139.44811263},{"name":"高齢者在宅サービスセンター白十字八国苑","province":"東京都","city":"東村山市","address":"東京都東村山市諏訪町2丁目26-1","lat":35.77189152,"lon":139.46365808},{"name":"社会福祉法人村山苑福祉事業センター","province":"東京都","city":"東村山市","address":"東京都東村山市富士見町2丁目7-5","lat":35.74020311,"lon":139.45253528},{"name":"社会福祉法人いずみライフサポートつばさ","province":"東京都","city":"東村山市","address":"東京都東村山市富士見町3丁目4-16","lat":35.74866053,"lon":139.45443753},{"name":"社会福祉法人小さい共同体就労継続支援Ｂ型飛翔クラブ","province":"東京都","city":"東村山市","address":"東京都東村山市栄町2丁目9-32","lat":35.74941934,"lon":139.47170261},{"name":"特定非営利活動法人けやきけやき第二作業所","province":"東京都","city":"東村山市","address":"東京都東村山市萩山町3丁目19-2","lat":35.74593911,"lon":139.46971405},{"name":"株式会社ウィズケアメディカル ウィズケアリハビリセンター","province":"東京都","city":"東村山市","address":"東京都東村山市久米川町3丁目1-1","lat":35.75976546,"lon":139.47353814},{"name":"社会福祉法人東京蒼生会寿デイ･サービスセンター","province":"東京都","city":"東村山市","address":"東京都東村山市富士見町2丁目1-2","lat":35.7445943,"lon":139.4540183},{"name":"特定非営利活動法人セサミ萩共同作業所セサミ萩","province":"東京都","city":"東村山市","address":"東京都東村山市萩山町2丁目2-15","lat":35.74047328,"lon":139.47715529},{"name":"かりん","province":"東京都","city":"東村山市","address":"東京都東村山市秋津町2丁目37-47","lat":35.77148394,"lon":139.48956425},{"name":"社会福祉法人ネット久米川共同作業所","province":"東京都","city":"東村山市","address":"東京都東村山市久米川町2丁目21-14","lat":35.76533442,"lon":139.47915135},{"name":"特定非営利活動法人ワーカーズコープ東村山楠の樹地域福祉事業所ふたば","province":"東京都","city":"東村山市","address":"東京都東村山市野口町1丁目15-5","lat":35.76157604,"lon":139.46296959},{"name":"東村山市立第五保育園","province":"東京都","city":"東村山市","address":"東村山市秋津町4-25-15","lat":35.779283,"lon":139.48512},{"name":"青葉さくら保育園","province":"東京都","city":"東村山市","address":"東村山市青葉町1-7-68","lat":35.75773,"lon":139.491806},{"name":"花さき保育園","province":"東京都","city":"東村山市","address":"東村山市青葉町4-1-1","lat":35.764804,"lon":139.495472},{"name":"東村山市立第六保育園","province":"東京都","city":"東村山市","address":"東村山市久米川町4-4-10","lat":35.761185,"lon":139.472149},{"name":"わくわく保育園","province":"東京都","city":"東村山市","address":"東村山市久米川町1-38-4","lat":35.768112,"lon":139.48527},{"name":"あいあい保育園","province":"東京都","city":"東村山市","address":"東村山市久米川町2-44-2","lat":35.76644,"lon":139.481643},{"name":"りんごっこ保育園","province":"東京都","city":"東村山市","address":"東村山市恩多町1-55-7","lat":35.751795,"lon":139.48854},{"name":"東村山市立第二保育園","province":"東京都","city":"東村山市","address":"東村山市萩山町1-36-1","lat":35.737546,"lon":139.483433},{"name":"久米川保育園","province":"東京都","city":"東村山市","address":"東村山市萩山町5-6-1","lat":35.746978,"lon":139.479416},{"name":"東村山市立第七保育園","province":"東京都","city":"東村山市","address":"東村山市栄町1-36-51","lat":35.752597,"lon":139.477224},{"name":"いづみ愛児園","province":"東京都","city":"東村山市","address":"東村山市栄町1丁目37番地28","lat":35.751414,"lon":139.477866},{"name":"東村山市立第一保育園","province":"東京都","city":"東村山市","address":"東村山市本町4-15-16都営本町アパート6号棟1階","lat":35.753358,"lon":139.473269},{"name":"つばさ保育園","province":"東京都","city":"東村山市","address":"東村山市本町2-22-3","lat":35.759199,"lon":139.468989},{"name":"ほんちょう保育園","province":"東京都","city":"東村山市","address":"東村山市本町3-43-1","lat":35.75561,"lon":139.470444},{"name":"八国山保育園","province":"東京都","city":"東村山市","address":"東村山市野口町1-5-6","lat":35.764123,"lon":139.465778},{"name":"東村山市立第四保育園","province":"東京都","city":"東村山市","address":"東村山市美住町1-4-19","lat":35.749289,"lon":139.464839},{"name":"つぼみ保育園","province":"東京都","city":"東村山市","address":"東村山市富士見町2-2-2","lat":35.744922,"lon":139.451777},{"name":"ふじみ保育園","province":"東京都","city":"東村山市","address":"東村山市富士見町2-7-5","lat":35.740203,"lon":139.452535},{"name":"東村山むさしの第二認定こども園","province":"東京都","city":"東村山市","address":"東村山市廻田町2-14-1","lat":35.754132,"lon":139.448688},{"name":"東村山市立第三保育園","province":"東京都","city":"東村山市","address":"東村山市多摩湖町1-23-4","lat":35.763703,"lon":139.452159},{"name":"東たいてん保育園","province":"東京都","city":"東村山市","address":"東村山市多摩湖町1-14-2","lat":35.76202,"lon":139.448471},{"name":"東村山市立第五保育園","province":"東京都","city":"東村山市","address":"東村山市秋津町4-25-15","lat":35.779283,"lon":139.48512},{"name":"青葉さくら保育園","province":"東京都","city":"東村山市","address":"東村山市青葉町1-7-68","lat":35.75773,"lon":139.491806},{"name":"花さき保育園","province":"東京都","city":"東村山市","address":"東村山市青葉町4-1-1","lat":35.764804,"lon":139.495472},{"name":"東村山市立第六保育園","province":"東京都","city":"東村山市","address":"東村山市久米川町4-4-10","lat":35.761185,"lon":139.472149},{"name":"わくわく保育園","province":"東京都","city":"東村山市","address":"東村山市久米川町1-38-4","lat":35.768112,"lon":139.48527},{"name":"あいあい保育園","province":"東京都","city":"東村山市","address":"東村山市久米川町2-44-2","lat":35.76644,"lon":139.481643},{"name":"りんごっこ保育園","province":"東京都","city":"東村山市","address":"東村山市恩多町1-55-7","lat":35.751795,"lon":139.48854},{"name":"東村山市立第二保育園","province":"東京都","city":"東村山市","address":"東村山市萩山町1-36-1","lat":35.737546,"lon":139.483433},{"name":"久米川保育園","province":"東京都","city":"東村山市","address":"東村山市萩山町5-6-1","lat":35.746978,"lon":139.479416},{"name":"東村山市立第七保育園","province":"東京都","city":"東村山市","address":"東村山市栄町1-36-51","lat":35.752597,"lon":139.477224},{"name":"いづみ愛児園","province":"東京都","city":"東村山市","address":"東村山市栄町1丁目37番地28","lat":35.751414,"lon":139.477866},{"name":"東村山市立第一保育園","province":"東京都","city":"東村山市","address":"東村山市本町4-15-16都営本町アパート6号棟1階","lat":35.753358,"lon":139.473269},{"name":"つばさ保育園","province":"東京都","city":"東村山市","address":"東村山市本町2-22-3","lat":35.759199,"lon":139.468989},{"name":"ほんちょう保育園","province":"東京都","city":"東村山市","address":"東村山市本町3-43-1","lat":35.75561,"lon":139.470444},{"name":"八国山保育園","province":"東京都","city":"東村山市","address":"東村山市野口町1-5-6","lat":35.764123,"lon":139.465778},{"name":"東村山市立第四保育園","province":"東京都","city":"東村山市","address":"東村山市美住町1-4-19","lat":35.749289,"lon":139.464839},{"name":"つぼみ保育園","province":"東京都","city":"東村山市","address":"東村山市富士見町2-2-2","lat":35.744922,"lon":139.451777},{"name":"ふじみ保育園","province":"東京都","city":"東村山市","address":"東村山市富士見町2-7-5","lat":35.740203,"lon":139.452535},{"name":"東村山むさしの第二認定こども園","province":"東京都","city":"東村山市","address":"東村山市廻田町2-14-1","lat":35.754132,"lon":139.448688},{"name":"東村山市立第三保育園","province":"東京都","city":"東村山市","address":"東村山市多摩湖町1-23-4","lat":35.763703,"lon":139.452159},{"name":"東たいてん保育園","province":"東京都","city":"東村山市","address":"東村山市多摩湖町1-14-2","lat":35.76202,"lon":139.448471},{"name":"東村山市立第五保育園","province":"東京都","city":"東村山市","address":"東村山市秋津町4-25-15","lat":35.779283,"lon":139.48512},{"name":"青葉さくら保育園","province":"東京都","city":"東村山市","address":"東村山市青葉町1-7-68","lat":35.75773,"lon":139.491806},{"name":"花さき保育園","province":"東京都","city":"東村山市","address":"東村山市青葉町4-1-1","lat":35.764804,"lon":139.495472},{"name":"東村山市立第六保育園","province":"東京都","city":"東村山市","address":"東村山市久米川町4-4-10","lat":35.761185,"lon":139.472149},{"name":"わくわく保育園","province":"東京都","city":"東村山市","address":"東村山市久米川町1-38-4","lat":35.768112,"lon":139.48527},{"name":"あいあい保育園","province":"東京都","city":"東村山市","address":"東村山市久米川町2-44-2","lat":35.76644,"lon":139.481643},{"name":"りんごっこ保育園","province":"東京都","city":"東村山市","address":"東村山市恩多町1-55-7","lat":35.751795,"lon":139.48854},{"name":"東村山市立第二保育園","province":"東京都","city":"東村山市","address":"東村山市萩山町1-36-1","lat":35.737546,"lon":139.483433},{"name":"久米川保育園","province":"東京都","city":"東村山市","address":"東村山市萩山町5-6-1","lat":35.746978,"lon":139.479416},{"name":"東村山市立第七保育園","province":"東京都","city":"東村山市","address":"東村山市栄町1-36-51","lat":35.752597,"lon":139.477224},{"name":"いづみ愛児園","province":"東京都","city":"東村山市","address":"東村山市栄町1丁目37番地28","lat":35.751414,"lon":139.477866},{"name":"東村山市立第一保育園","province":"東京都","city":"東村山市","address":"東村山市本町4-15-16都営本町アパート6号棟1階","lat":35.753358,"lon":139.473269},{"name":"つばさ保育園","province":"東京都","city":"東村山市","address":"東村山市本町2-22-3","lat":35.759199,"lon":139.468989},{"name":"ほんちょう保育園","province":"東京都","city":"東村山市","address":"東村山市本町3-43-1","lat":35.75561,"lon":139.470444},{"name":"八国山保育園","province":"東京都","city":"東村山市","address":"東村山市野口町1-5-6","lat":35.764123,"lon":139.465778},{"name":"東村山市立第四保育園","province":"東京都","city":"東村山市","address":"東村山市美住町1-4-19","lat":35.749289,"lon":139.464839},{"name":"つぼみ保育園","province":"東京都","city":"東村山市","address":"東村山市富士見町2-2-2","lat":35.744922,"lon":139.451777},{"name":"ふじみ保育園","province":"東京都","city":"東村山市","address":"東村山市富士見町2-7-5","lat":35.740203,"lon":139.452535},{"name":"東村山むさしの第二認定こども園","province":"東京都","city":"東村山市","address":"東村山市廻田町2-14-1","lat":35.754132,"lon":139.448688},{"name":"東村山市立第三保育園","province":"東京都","city":"東村山市","address":"東村山市多摩湖町1-23-4","lat":35.763703,"lon":139.452159},{"name":"東たいてん保育園","province":"東京都","city":"東村山市","address":"東村山市多摩湖町1-14-2","lat":35.76202,"lon":139.448471},{"name":"東村山市立第五保育園","province":"東京都","city":"東村山市","address":"東村山市秋津町4-25-15","lat":35.779283,"lon":139.48512},{"name":"青葉さくら保育園","province":"東京都","city":"東村山市","address":"東村山市青葉町1-7-68","lat":35.75773,"lon":139.491806},{"name":"花さき保育園","province":"東京都","city":"東村山市","address":"東村山市青葉町4-1-1","lat":35.764804,"lon":139.495472},{"name":"東村山市立第六保育園","province":"東京都","city":"東村山市","address":"東村山市久米川町4-4-10","lat":35.761185,"lon":139.472149},{"name":"わくわく保育園","province":"東京都","city":"東村山市","address":"東村山市久米川町1-38-4","lat":35.768112,"lon":139.48527},{"name":"あいあい保育園","province":"東京都","city":"東村山市","address":"東村山市久米川町2-44-2","lat":35.76644,"lon":139.481643},{"name":"りんごっこ保育園","province":"東京都","city":"東村山市","address":"東村山市恩多町1-55-7","lat":35.751795,"lon":139.48854},{"name":"東村山市立第二保育園","province":"東京都","city":"東村山市","address":"東村山市萩山町1-36-1","lat":35.737546,"lon":139.483433},{"name":"久米川保育園","province":"東京都","city":"東村山市","address":"東村山市萩山町5-6-1","lat":35.746978,"lon":139.479416},{"name":"東村山市立第七保育園","province":"東京都","city":"東村山市","address":"東村山市栄町1-36-51","lat":35.752597,"lon":139.477224},{"name":"いづみ愛児園","province":"東京都","city":"東村山市","address":"東村山市栄町1丁目37番地28","lat":35.751414,"lon":139.477866},{"name":"東村山市立第一保育園","province":"東京都","city":"東村山市","address":"東村山市本町4-15-16都営本町アパート6号棟1階","lat":35.753358,"lon":139.473269},{"name":"つばさ保育園","province":"東京都","city":"東村山市","address":"東村山市本町2-22-3","lat":35.759199,"lon":139.468989},{"name":"ほんちょう保育園","province":"東京都","city":"東村山市","address":"東村山市本町3-43-1","lat":35.75561,"lon":139.470444},{"name":"八国山保育園","province":"東京都","city":"東村山市","address":"東村山市野口町1-5-6","lat":35.764123,"lon":139.465778},{"name":"東村山市立第四保育園","province":"東京都","city":"東村山市","address":"東村山市美住町1-4-19","lat":35.749289,"lon":139.464839},{"name":"つぼみ保育園","province":"東京都","city":"東村山市","address":"東村山市富士見町2-2-2","lat":35.744922,"lon":139.451777},{"name":"ふじみ保育園","province":"東京都","city":"東村山市","address":"東村山市富士見町2-7-5","lat":35.740203,"lon":139.452535},{"name":"東村山むさしの第二認定こども園","province":"東京都","city":"東村山市","address":"東村山市廻田町2-14-1","lat":35.754132,"lon":139.448688},{"name":"東村山市立第三保育園","province":"東京都","city":"東村山市","address":"東村山市多摩湖町1-23-4","lat":35.763703,"lon":139.452159},{"name":"東たいてん保育園","province":"東京都","city":"東村山市","address":"東村山市多摩湖町1-14-2","lat":35.76202,"lon":139.448471},{"name":"東村山市立第五保育園","province":"東京都","city":"東村山市","address":"東村山市秋津町4-25-15","lat":35.779283,"lon":139.48512},{"name":"青葉さくら保育園","province":"東京都","city":"東村山市","address":"東村山市青葉町1-7-68","lat":35.75773,"lon":139.491806},{"name":"花さき保育園","province":"東京都","city":"東村山市","address":"東村山市青葉町4-1-1","lat":35.764804,"lon":139.495472},{"name":"東村山市立第六保育園","province":"東京都","city":"東村山市","address":"東村山市久米川町4-4-10","lat":35.761185,"lon":139.472149},{"name":"わくわく保育園","province":"東京都","city":"東村山市","address":"東村山市久米川町1-38-4","lat":35.768112,"lon":139.48527},{"name":"あいあい保育園","province":"東京都","city":"東村山市","address":"東村山市久米川町2-44-2","lat":35.76644,"lon":139.481643},{"name":"りんごっこ保育園","province":"東京都","city":"東村山市","address":"東村山市恩多町1-55-7","lat":35.751795,"lon":139.48854},{"name":"東村山市立第二保育園","province":"東京都","city":"東村山市","address":"東村山市萩山町1-36-1","lat":35.737546,"lon":139.483433},{"name":"久米川保育園","province":"東京都","city":"東村山市","address":"東村山市萩山町5-6-1","lat":35.746978,"lon":139.479416},{"name":"東村山市立第七保育園","province":"東京都","city":"東村山市","address":"東村山市栄町1-36-51","lat":35.752597,"lon":139.477224},{"name":"いづみ愛児園","province":"東京都","city":"東村山市","address":"東村山市栄町1丁目37番地28","lat":35.751414,"lon":139.477866},{"name":"東村山市立第一保育園","province":"東京都","city":"東村山市","address":"東村山市本町4-15-16都営本町アパート6号棟1階","lat":35.753358,"lon":139.473269},{"name":"つばさ保育園","province":"東京都","city":"東村山市","address":"東村山市本町2-22-3","lat":35.759199,"lon":139.468989},{"name":"ほんちょう保育園","province":"東京都","city":"東村山市","address":"東村山市本町3-43-1","lat":35.75561,"lon":139.470444},{"name":"八国山保育園","province":"東京都","city":"東村山市","address":"東村山市野口町1-5-6","lat":35.764123,"lon":139.465778},{"name":"東村山市立第四保育園","province":"東京都","city":"東村山市","address":"東村山市美住町1-4-19","lat":35.749289,"lon":139.464839},{"name":"つぼみ保育園","province":"東京都","city":"東村山市","address":"東村山市富士見町2-2-2","lat":35.744922,"lon":139.451777},{"name":"ふじみ保育園","province":"東京都","city":"東村山市","address":"東村山市富士見町2-7-5","lat":35.740203,"lon":139.452535},{"name":"東村山むさしの第二認定こども園","province":"東京都","city":"東村山市","address":"東村山市廻田町2-14-1","lat":35.754132,"lon":139.448688},{"name":"東村山市立第三保育園","province":"東京都","city":"東村山市","address":"東村山市多摩湖町1-23-4","lat":35.763703,"lon":139.452159},{"name":"東たいてん保育園","province":"東京都","city":"東村山市","address":"東村山市多摩湖町1-14-2","lat":35.76202,"lon":139.448471},{"name":"東村山市立第五保育園","province":"東京都","city":"東村山市","address":"東村山市秋津町4-25-15","lat":35.779283,"lon":139.48512},{"name":"青葉さくら保育園","province":"東京都","city":"東村山市","address":"東村山市青葉町1-7-68","lat":35.75773,"lon":139.491806},{"name":"花さき保育園","province":"東京都","city":"東村山市","address":"東村山市青葉町4-1-1","lat":35.764804,"lon":139.495472},{"name":"東村山市立第六保育園","province":"東京都","city":"東村山市","address":"東村山市久米川町4-4-10","lat":35.761185,"lon":139.472149},{"name":"わくわく保育園","province":"東京都","city":"東村山市","address":"東村山市久米川町1-38-4","lat":35.768112,"lon":139.48527},{"name":"あいあい保育園","province":"東京都","city":"東村山市","address":"東村山市久米川町2-44-2","lat":35.76644,"lon":139.481643},{"name":"りんごっこ保育園","province":"東京都","city":"東村山市","address":"東村山市恩多町1-55-7","lat":35.751795,"lon":139.48854},{"name":"東村山市立第二保育園","province":"東京都","city":"東村山市","address":"東村山市萩山町1-36-1","lat":35.737546,"lon":139.483433},{"name":"久米川保育園","province":"東京都","city":"東村山市","address":"東村山市萩山町5-6-1","lat":35.746978,"lon":139.479416},{"name":"東村山市立第七保育園","province":"東京都","city":"東村山市","address":"東村山市栄町1-36-51","lat":35.752597,"lon":139.477224},{"name":"いづみ愛児園","province":"東京都","city":"東村山市","address":"東村山市栄町1丁目37番地28","lat":35.751414,"lon":139.477866},{"name":"東村山市立第一保育園","province":"東京都","city":"東村山市","address":"東村山市本町4-15-16都営本町アパート6号棟1階","lat":35.753358,"lon":139.473269},{"name":"つばさ保育園","province":"東京都","city":"東村山市","address":"東村山市本町2-22-3","lat":35.759199,"lon":139.468989},{"name":"ほんちょう保育園","province":"東京都","city":"東村山市","address":"東村山市本町3-43-1","lat":35.75561,"lon":139.470444},{"name":"八国山保育園","province":"東京都","city":"東村山市","address":"東村山市野口町1-5-6","lat":35.764123,"lon":139.465778},{"name":"東村山市立第四保育園","province":"東京都","city":"東村山市","address":"東村山市美住町1-4-19","lat":35.749289,"lon":139.464839},{"name":"つぼみ保育園","province":"東京都","city":"東村山市","address":"東村山市富士見町2-2-2","lat":35.744922,"lon":139.451777},{"name":"ふじみ保育園","province":"東京都","city":"東村山市","address":"東村山市富士見町2-7-5","lat":35.740203,"lon":139.452535},{"name":"東村山むさしの第二認定こども園","province":"東京都","city":"東村山市","address":"東村山市廻田町2-14-1","lat":35.754132,"lon":139.448688},{"name":"東村山市立第三保育園","province":"東京都","city":"東村山市","address":"東村山市多摩湖町1-23-4","lat":35.763703,"lon":139.452159},{"name":"東たいてん保育園","province":"東京都","city":"東村山市","address":"東村山市多摩湖町1-14-2","lat":35.76202,"lon":139.448471},{"name":"東村山市立第五保育園","province":"東京都","city":"東村山市","address":"東村山市秋津町4-25-15","lat":35.779283,"lon":139.48512},{"name":"青葉さくら保育園","province":"東京都","city":"東村山市","address":"東村山市青葉町1-7-68","lat":35.75773,"lon":139.491806},{"name":"花さき保育園","province":"東京都","city":"東村山市","address":"東村山市青葉町4-1-1","lat":35.764804,"lon":139.495472},{"name":"東村山市立第六保育園","province":"東京都","city":"東村山市","address":"東村山市久米川町4-4-10","lat":35.761185,"lon":139.472149},{"name":"わくわく保育園","province":"東京都","city":"東村山市","address":"東村山市久米川町1-38-4","lat":35.768112,"lon":139.48527},{"name":"あいあい保育園","province":"東京都","city":"東村山市","address":"東村山市久米川町2-44-2","lat":35.76644,"lon":139.481643},{"name":"りんごっこ保育園","province":"東京都","city":"東村山市","address":"東村山市恩多町1-55-7","lat":35.751795,"lon":139.48854},{"name":"東村山市立第二保育園","province":"東京都","city":"東村山市","address":"東村山市萩山町1-36-1","lat":35.737546,"lon":139.483433},{"name":"久米川保育園","province":"東京都","city":"東村山市","address":"東村山市萩山町5-6-1","lat":35.746978,"lon":139.479416},{"name":"東村山市立第七保育園","province":"東京都","city":"東村山市","address":"東村山市栄町1-36-51","lat":35.752597,"lon":139.477224},{"name":"いづみ愛児園","province":"東京都","city":"東村山市","address":"東村山市栄町1丁目37番地28","lat":35.751414,"lon":139.477866},{"name":"東村山市立第一保育園","province":"東京都","city":"東村山市","address":"東村山市本町4-15-16都営本町アパート6号棟1階","lat":35.753358,"lon":139.473269},{"name":"つばさ保育園","province":"東京都","city":"東村山市","address":"東村山市本町2-22-3","lat":35.759199,"lon":139.468989},{"name":"ほんちょう保育園","province":"東京都","city":"東村山市","address":"東村山市本町3-43-1","lat":35.75561,"lon":139.470444},{"name":"八国山保育園","province":"東京都","city":"東村山市","address":"東村山市野口町1-5-6","lat":35.764123,"lon":139.465778},{"name":"東村山市立第四保育園","province":"東京都","city":"東村山市","address":"東村山市美住町1-4-19","lat":35.749289,"lon":139.464839},{"name":"つぼみ保育園","province":"東京都","city":"東村山市","address":"東村山市富士見町2-2-2","lat":35.744922,"lon":139.451777},{"name":"ふじみ保育園","province":"東京都","city":"東村山市","address":"東村山市富士見町2-7-5","lat":35.740203,"lon":139.452535},{"name":"東村山むさしの第二認定こども園","province":"東京都","city":"東村山市","address":"東村山市廻田町2-14-1","lat":35.754132,"lon":139.448688},{"name":"東村山市立第三保育園","province":"東京都","city":"東村山市","address":"東村山市多摩湖町1-23-4","lat":35.763703,"lon":139.452159},{"name":"東たいてん保育園","province":"東京都","city":"東村山市","address":"東村山市多摩湖町1-14-2","lat":35.76202,"lon":139.448471},{"name":"東村山市立第五保育園","province":"東京都","city":"東村山市","address":"東村山市秋津町4-25-15","lat":35.779283,"lon":139.48512},{"name":"青葉さくら保育園","province":"東京都","city":"東村山市","address":"東村山市青葉町1-7-68","lat":35.75773,"lon":139.491806},{"name":"花さき保育園","province":"東京都","city":"東村山市","address":"東村山市青葉町4-1-1","lat":35.764804,"lon":139.495472},{"name":"東村山市立第六保育園","province":"東京都","city":"東村山市","address":"東村山市久米川町4-4-10","lat":35.761185,"lon":139.472149},{"name":"わくわく保育園","province":"東京都","city":"東村山市","address":"東村山市久米川町1-38-4","lat":35.768112,"lon":139.48527},{"name":"あいあい保育園","province":"東京都","city":"東村山市","address":"東村山市久米川町2-44-2","lat":35.76644,"lon":139.481643},{"name":"りんごっこ保育園","province":"東京都","city":"東村山市","address":"東村山市恩多町1-55-7","lat":35.751795,"lon":139.48854},{"name":"東村山市立第二保育園","province":"東京都","city":"東村山市","address":"東村山市萩山町1-36-1","lat":35.737546,"lon":139.483433},{"name":"久米川保育園","province":"東京都","city":"東村山市","address":"東村山市萩山町5-6-1","lat":35.746978,"lon":139.479416},{"name":"東村山市立第七保育園","province":"東京都","city":"東村山市","address":"東村山市栄町1-36-51","lat":35.752597,"lon":139.477224},{"name":"いづみ愛児園","province":"東京都","city":"東村山市","address":"東村山市栄町1丁目37番地28","lat":35.751414,"lon":139.477866},{"name":"東村山市立第一保育園","province":"東京都","city":"東村山市","address":"東村山市本町4-15-16都営本町アパート6号棟1階","lat":35.753358,"lon":139.473269},{"name":"つばさ保育園","province":"東京都","city":"東村山市","address":"東村山市本町2-22-3","lat":35.759199,"lon":139.468989},{"name":"ほんちょう保育園","province":"東京都","city":"東村山市","address":"東村山市本町3-43-1","lat":35.75561,"lon":139.470444},{"name":"八国山保育園","province":"東京都","city":"東村山市","address":"東村山市野口町1-5-6","lat":35.764123,"lon":139.465778},{"name":"東村山市立第四保育園","province":"東京都","city":"東村山市","address":"東村山市美住町1-4-19","lat":35.749289,"lon":139.464839},{"name":"つぼみ保育園","province":"東京都","city":"東村山市","address":"東村山市富士見町2-2-2","lat":35.744922,"lon":139.451777},{"name":"ふじみ保育園","province":"東京都","city":"東村山市","address":"東村山市富士見町2-7-5","lat":35.740203,"lon":139.452535},{"name":"東村山むさしの第二認定こども園","province":"東京都","city":"東村山市","address":"東村山市廻田町2-14-1","lat":35.754132,"lon":139.448688},{"name":"東村山市立第三保育園","province":"東京都","city":"東村山市","address":"東村山市多摩湖町1-23-4","lat":35.763703,"lon":139.452159},{"name":"東たいてん保育園","province":"東京都","city":"東村山市","address":"東村山市多摩湖町1-14-2","lat":35.76202,"lon":139.448471},{"name":"東村山市立第五保育園","province":"東京都","city":"東村山市","address":"東村山市秋津町4-25-15","lat":35.779283,"lon":139.48512},{"name":"青葉さくら保育園","province":"東京都","city":"東村山市","address":"東村山市青葉町1-7-68","lat":35.75773,"lon":139.491806},{"name":"花さき保育園","province":"東京都","city":"東村山市","address":"東村山市青葉町4-1-1","lat":35.764804,"lon":139.495472},{"name":"東村山市立第六保育園","province":"東京都","city":"東村山市","address":"東村山市久米川町4-4-10","lat":35.761185,"lon":139.472149},{"name":"わくわく保育園","province":"東京都","city":"東村山市","address":"東村山市久米川町1-38-4","lat":35.768112,"lon":139.48527},{"name":"あいあい保育園","province":"東京都","city":"東村山市","address":"東村山市久米川町2-44-2","lat":35.76644,"lon":139.481643},{"name":"りんごっこ保育園","province":"東京都","city":"東村山市","address":"東村山市恩多町1-55-7","lat":35.751795,"lon":139.48854},{"name":"東村山市立第二保育園","province":"東京都","city":"東村山市","address":"東村山市萩山町1-36-1","lat":35.737546,"lon":139.483433},{"name":"久米川保育園","province":"東京都","city":"東村山市","address":"東村山市萩山町5-6-1","lat":35.746978,"lon":139.479416},{"name":"東村山市立第七保育園","province":"東京都","city":"東村山市","address":"東村山市栄町1-36-51","lat":35.752597,"lon":139.477224},{"name":"いづみ愛児園","province":"東京都","city":"東村山市","address":"東村山市栄町1丁目37番地28","lat":35.751414,"lon":139.477866},{"name":"東村山市立第一保育園","province":"東京都","city":"東村山市","address":"東村山市本町4-15-16都営本町アパート6号棟1階","lat":35.753358,"lon":139.473269},{"name":"つばさ保育園","province":"東京都","city":"東村山市","address":"東村山市本町2-22-3","lat":35.759199,"lon":139.468989},{"name":"ほんちょう保育園","province":"東京都","city":"東村山市","address":"東村山市本町3-43-1","lat":35.75561,"lon":139.470444},{"name":"八国山保育園","province":"東京都","city":"東村山市","address":"東村山市野口町1-5-6","lat":35.764123,"lon":139.465778},{"name":"東村山市立第四保育園","province":"東京都","city":"東村山市","address":"東村山市美住町1-4-19","lat":35.749289,"lon":139.464839},{"name":"つぼみ保育園","province":"東京都","city":"東村山市","address":"東村山市富士見町2-2-2","lat":35.744922,"lon":139.451777},{"name":"ふじみ保育園","province":"東京都","city":"東村山市","address":"東村山市富士見町2-7-5","lat":35.740203,"lon":139.452535},{"name":"東村山むさしの第二認定こども園","province":"東京都","city":"東村山市","address":"東村山市廻田町2-14-1","lat":35.754132,"lon":139.448688},{"name":"東村山市立第三保育園","province":"東京都","city":"東村山市","address":"東村山市多摩湖町1-23-4","lat":35.763703,"lon":139.452159},{"name":"東たいてん保育園","province":"東京都","city":"東村山市","address":"東村山市多摩湖町1-14-2","lat":35.76202,"lon":139.448471},{"name":"東村山市立第五保育園","province":"東京都","city":"東村山市","address":"東村山市秋津町4-25-15","lat":35.779283,"lon":139.48512},{"name":"青葉さくら保育園","province":"東京都","city":"東村山市","address":"東村山市青葉町1-7-68","lat":35.75773,"lon":139.491806},{"name":"花さき保育園","province":"東京都","city":"東村山市","address":"東村山市青葉町4-1-1","lat":35.764804,"lon":139.495472},{"name":"東村山市立第六保育園","province":"東京都","city":"東村山市","address":"東村山市久米川町4-4-10","lat":35.761185,"lon":139.472149},{"name":"わくわく保育園","province":"東京都","city":"東村山市","address":"東村山市久米川町1-38-4","lat":35.768112,"lon":139.48527},{"name":"あいあい保育園","province":"東京都","city":"東村山市","address":"東村山市久米川町2-44-2","lat":35.76644,"lon":139.481643},{"name":"りんごっこ保育園","province":"東京都","city":"東村山市","address":"東村山市恩多町1-55-7","lat":35.751795,"lon":139.48854},{"name":"東村山市立第二保育園","province":"東京都","city":"東村山市","address":"東村山市萩山町1-36-1","lat":35.737546,"lon":139.483433},{"name":"久米川保育園","province":"東京都","city":"東村山市","address":"東村山市萩山町5-6-1","lat":35.746978,"lon":139.479416},{"name":"東村山市立第七保育園","province":"東京都","city":"東村山市","address":"東村山市栄町1-36-51","lat":35.752597,"lon":139.477224},{"name":"いづみ愛児園","province":"東京都","city":"東村山市","address":"東村山市栄町1丁目37番地28","lat":35.751414,"lon":139.477866},{"name":"東村山市立第一保育園","province":"東京都","city":"東村山市","address":"東村山市本町4-15-16都営本町アパート6号棟1階","lat":35.753358,"lon":139.473269},{"name":"つばさ保育園","province":"東京都","city":"東村山市","address":"東村山市本町2-22-3","lat":35.759199,"lon":139.468989},{"name":"ほんちょう保育園","province":"東京都","city":"東村山市","address":"東村山市本町3-43-1","lat":35.75561,"lon":139.470444},{"name":"八国山保育園","province":"東京都","city":"東村山市","address":"東村山市野口町1-5-6","lat":35.764123,"lon":139.465778},{"name":"東村山市立第四保育園","province":"東京都","city":"東村山市","address":"東村山市美住町1-4-19","lat":35.749289,"lon":139.464839},{"name":"つぼみ保育園","province":"東京都","city":"東村山市","address":"東村山市富士見町2-2-2","lat":35.744922,"lon":139.451777},{"name":"ふじみ保育園","province":"東京都","city":"東村山市","address":"東村山市富士見町2-7-5","lat":35.740203,"lon":139.452535},{"name":"東村山むさしの第二認定こども園","province":"東京都","city":"東村山市","address":"東村山市廻田町2-14-1","lat":35.754132,"lon":139.448688},{"name":"東村山市立第三保育園","province":"東京都","city":"東村山市","address":"東村山市多摩湖町1-23-4","lat":35.763703,"lon":139.452159},{"name":"東たいてん保育園","province":"東京都","city":"東村山市","address":"東村山市多摩湖町1-14-2","lat":35.76202,"lon":139.448471},{"name":"東村山市立第五保育園","province":"東京都","city":"東村山市","address":"東村山市秋津町4-25-15","lat":35.779283,"lon":139.48512},{"name":"青葉さくら保育園","province":"東京都","city":"東村山市","address":"東村山市青葉町1-7-68","lat":35.75773,"lon":139.491806},{"name":"花さき保育園","province":"東京都","city":"東村山市","address":"東村山市青葉町4-1-1","lat":35.764804,"lon":139.495472},{"name":"東村山市立第六保育園","province":"東京都","city":"東村山市","address":"東村山市久米川町4-4-10","lat":35.761185,"lon":139.472149},{"name":"わくわく保育園","province":"東京都","city":"東村山市","address":"東村山市久米川町1-38-4","lat":35.768112,"lon":139.48527},{"name":"あいあい保育園","province":"東京都","city":"東村山市","address":"東村山市久米川町2-44-2","lat":35.76644,"lon":139.481643},{"name":"りんごっこ保育園","province":"東京都","city":"東村山市","address":"東村山市恩多町1-55-7","lat":35.751795,"lon":139.48854},{"name":"東村山市立第二保育園","province":"東京都","city":"東村山市","address":"東村山市萩山町1-36-1","lat":35.737546,"lon":139.483433},{"name":"久米川保育園","province":"東京都","city":"東村山市","address":"東村山市萩山町5-6-1","lat":35.746978,"lon":139.479416},{"name":"東村山市立第七保育園","province":"東京都","city":"東村山市","address":"東村山市栄町1-36-51","lat":35.752597,"lon":139.477224},{"name":"いづみ愛児園","province":"東京都","city":"東村山市","address":"東村山市栄町1丁目37番地28","lat":35.751414,"lon":139.477866},{"name":"東村山市立第一保育園","province":"東京都","city":"東村山市","address":"東村山市本町4-15-16都営本町アパート6号棟1階","lat":35.753358,"lon":139.473269},{"name":"つばさ保育園","province":"東京都","city":"東村山市","address":"東村山市本町2-22-3","lat":35.759199,"lon":139.468989},{"name":"ほんちょう保育園","province":"東京都","city":"東村山市","address":"東村山市本町3-43-1","lat":35.75561,"lon":139.470444},{"name":"八国山保育園","province":"東京都","city":"東村山市","address":"東村山市野口町1-5-6","lat":35.764123,"lon":139.465778},{"name":"東村山市立第四保育園","province":"東京都","city":"東村山市","address":"東村山市美住町1-4-19","lat":35.749289,"lon":139.464839},{"name":"つぼみ保育園","province":"東京都","city":"東村山市","address":"東村山市富士見町2-2-2","lat":35.744922,"lon":139.451777},{"name":"ふじみ保育園","province":"東京都","city":"東村山市","address":"東村山市富士見町2-7-5","lat":35.740203,"lon":139.452535},{"name":"東村山むさしの第二認定こども園","province":"東京都","city":"東村山市","address":"東村山市廻田町2-14-1","lat":35.754132,"lon":139.448688},{"name":"東村山市立第三保育園","province":"東京都","city":"東村山市","address":"東村山市多摩湖町1-23-4","lat":35.763703,"lon":139.452159},{"name":"東たいてん保育園","province":"東京都","city":"東村山市","address":"東村山市多摩湖町1-14-2","lat":35.76202,"lon":139.448471},{"name":"東村山市立第五保育園","province":"東京都","city":"東村山市","address":"東村山市秋津町4-25-15","lat":35.779283,"lon":139.48512},{"name":"青葉さくら保育園","province":"東京都","city":"東村山市","address":"東村山市青葉町1-7-68","lat":35.75773,"lon":139.491806},{"name":"花さき保育園","province":"東京都","city":"東村山市","address":"東村山市青葉町4-1-1","lat":35.764804,"lon":139.495472},{"name":"東村山市立第六保育園","province":"東京都","city":"東村山市","address":"東村山市久米川町4-4-10","lat":35.761185,"lon":139.472149},{"name":"わくわく保育園","province":"東京都","city":"東村山市","address":"東村山市久米川町1-38-4","lat":35.768112,"lon":139.48527},{"name":"あいあい保育園","province":"東京都","city":"東村山市","address":"東村山市久米川町2-44-2","lat":35.76644,"lon":139.481643},{"name":"りんごっこ保育園","province":"東京都","city":"東村山市","address":"東村山市恩多町1-55-7","lat":35.751795,"lon":139.48854},{"name":"東村山市立第二保育園","province":"東京都","city":"東村山市","address":"東村山市萩山町1-36-1","lat":35.737546,"lon":139.483433},{"name":"久米川保育園","province":"東京都","city":"東村山市","address":"東村山市萩山町5-6-1","lat":35.746978,"lon":139.479416},{"name":"東村山市立第七保育園","province":"東京都","city":"東村山市","address":"東村山市栄町1-36-51","lat":35.752597,"lon":139.477224},{"name":"いづみ愛児園","province":"東京都","city":"東村山市","address":"東村山市栄町1丁目37番地28","lat":35.751414,"lon":139.477866},{"name":"東村山市立第一保育園","province":"東京都","city":"東村山市","address":"東村山市本町4-15-16都営本町アパート6号棟1階","lat":35.753358,"lon":139.473269},{"name":"つばさ保育園","province":"東京都","city":"東村山市","address":"東村山市本町2-22-3","lat":35.759199,"lon":139.468989},{"name":"ほんちょう保育園","province":"東京都","city":"東村山市","address":"東村山市本町3-43-1","lat":35.75561,"lon":139.470444},{"name":"八国山保育園","province":"東京都","city":"東村山市","address":"東村山市野口町1-5-6","lat":35.764123,"lon":139.465778},{"name":"東村山市立第四保育園","province":"東京都","city":"東村山市","address":"東村山市美住町1-4-19","lat":35.749289,"lon":139.464839},{"name":"つぼみ保育園","province":"東京都","city":"東村山市","address":"東村山市富士見町2-2-2","lat":35.744922,"lon":139.451777},{"name":"ふじみ保育園","province":"東京都","city":"東村山市","address":"東村山市富士見町2-7-5","lat":35.740203,"lon":139.452535},{"name":"東村山むさしの第二認定こども園","province":"東京都","city":"東村山市","address":"東村山市廻田町2-14-1","lat":35.754132,"lon":139.448688},{"name":"東村山市立第三保育園","province":"東京都","city":"東村山市","address":"東村山市多摩湖町1-23-4","lat":35.763703,"lon":139.452159},{"name":"東たいてん保育園","province":"東京都","city":"東村山市","address":"東村山市多摩湖町1-14-2","lat":35.76202,"lon":139.448471},{"name":"東村山市立第五保育園","province":"東京都","city":"東村山市","address":"東村山市秋津町4-25-15","lat":35.779283,"lon":139.48512},{"name":"青葉さくら保育園","province":"東京都","city":"東村山市","address":"東村山市青葉町1-7-68","lat":35.75773,"lon":139.491806},{"name":"花さき保育園","province":"東京都","city":"東村山市","address":"東村山市青葉町4-1-1","lat":35.764804,"lon":139.495472},{"name":"東村山市立第六保育園","province":"東京都","city":"東村山市","address":"東村山市久米川町4-4-10","lat":35.761185,"lon":139.472149},{"name":"わくわく保育園","province":"東京都","city":"東村山市","address":"東村山市久米川町1-38-4","lat":35.768112,"lon":139.48527},{"name":"あいあい保育園","province":"東京都","city":"東村山市","address":"東村山市久米川町2-44-2","lat":35.76644,"lon":139.481643},{"name":"りんごっこ保育園","province":"東京都","city":"東村山市","address":"東村山市恩多町1-55-7","lat":35.751795,"lon":139.48854},{"name":"東村山市立第二保育園","province":"東京都","city":"東村山市","address":"東村山市萩山町1-36-1","lat":35.737546,"lon":139.483433},{"name":"久米川保育園","province":"東京都","city":"東村山市","address":"東村山市萩山町5-6-1","lat":35.746978,"lon":139.479416},{"name":"東村山市立第七保育園","province":"東京都","city":"東村山市","address":"東村山市栄町1-36-51","lat":35.752597,"lon":139.477224},{"name":"いづみ愛児園","province":"東京都","city":"東村山市","address":"東村山市栄町1丁目37番地28","lat":35.751414,"lon":139.477866},{"name":"東村山市立第一保育園","province":"東京都","city":"東村山市","address":"東村山市本町4-15-16都営本町アパート6号棟1階","lat":35.753358,"lon":139.473269},{"name":"つばさ保育園","province":"東京都","city":"東村山市","address":"東村山市本町2-22-3","lat":35.759199,"lon":139.468989},{"name":"ほんちょう保育園","province":"東京都","city":"東村山市","address":"東村山市本町3-43-1","lat":35.75561,"lon":139.470444},{"name":"八国山保育園","province":"東京都","city":"東村山市","address":"東村山市野口町1-5-6","lat":35.764123,"lon":139.465778},{"name":"東村山市立第四保育園","province":"東京都","city":"東村山市","address":"東村山市美住町1-4-19","lat":35.749289,"lon":139.464839},{"name":"つぼみ保育園","province":"東京都","city":"東村山市","address":"東村山市富士見町2-2-2","lat":35.744922,"lon":139.451777},{"name":"ふじみ保育園","province":"東京都","city":"東村山市","address":"東村山市富士見町2-7-5","lat":35.740203,"lon":139.452535},{"name":"東村山むさしの第二認定こども園","province":"東京都","city":"東村山市","address":"東村山市廻田町2-14-1","lat":35.754132,"lon":139.448688},{"name":"東村山市立第三保育園","province":"東京都","city":"東村山市","address":"東村山市多摩湖町1-23-4","lat":35.763703,"lon":139.452159},{"name":"東たいてん保育園","province":"東京都","city":"東村山市","address":"東村山市多摩湖町1-14-2","lat":35.76202,"lon":139.448471},{"name":"東村山市立第五保育園","province":"東京都","city":"東村山市","address":"東村山市秋津町4-25-15","lat":35.779283,"lon":139.48512},{"name":"青葉さくら保育園","province":"東京都","city":"東村山市","address":"東村山市青葉町1-7-68","lat":35.75773,"lon":139.491806},{"name":"花さき保育園","province":"東京都","city":"東村山市","address":"東村山市青葉町4-1-1","lat":35.764804,"lon":139.495472},{"name":"東村山市立第六保育園","province":"東京都","city":"東村山市","address":"東村山市久米川町4-4-10","lat":35.761185,"lon":139.472149},{"name":"わくわく保育園","province":"東京都","city":"東村山市","address":"東村山市久米川町1-38-4","lat":35.768112,"lon":139.48527},{"name":"あいあい保育園","province":"東京都","city":"東村山市","address":"東村山市久米川町2-44-2","lat":35.76644,"lon":139.481643},{"name":"りんごっこ保育園","province":"東京都","city":"東村山市","address":"東村山市恩多町1-55-7","lat":35.751795,"lon":139.48854},{"name":"東村山市立第二保育園","province":"東京都","city":"東村山市","address":"東村山市萩山町1-36-1","lat":35.737546,"lon":139.483433},{"name":"久米川保育園","province":"東京都","city":"東村山市","address":"東村山市萩山町5-6-1","lat":35.746978,"lon":139.479416},{"name":"東村山市立第七保育園","province":"東京都","city":"東村山市","address":"東村山市栄町1-36-51","lat":35.752597,"lon":139.477224},{"name":"いづみ愛児園","province":"東京都","city":"東村山市","address":"東村山市栄町1丁目37番地28","lat":35.751414,"lon":139.477866},{"name":"東村山市立第一保育園","province":"東京都","city":"東村山市","address":"東村山市本町4-15-16都営本町アパート6号棟1階","lat":35.753358,"lon":139.473269},{"name":"つばさ保育園","province":"東京都","city":"東村山市","address":"東村山市本町2-22-3","lat":35.759199,"lon":139.468989},{"name":"ほんちょう保育園","province":"東京都","city":"東村山市","address":"東村山市本町3-43-1","lat":35.75561,"lon":139.470444},{"name":"八国山保育園","province":"東京都","city":"東村山市","address":"東村山市野口町1-5-6","lat":35.764123,"lon":139.465778},{"name":"東村山市立第四保育園","province":"東京都","city":"東村山市","address":"東村山市美住町1-4-19","lat":35.749289,"lon":139.464839},{"name":"つぼみ保育園","province":"東京都","city":"東村山市","address":"東村山市富士見町2-2-2","lat":35.744922,"lon":139.451777},{"name":"ふじみ保育園","province":"東京都","city":"東村山市","address":"東村山市富士見町2-7-5","lat":35.740203,"lon":139.452535},{"name":"東村山むさしの第二認定こども園","province":"東京都","city":"東村山市","address":"東村山市廻田町2-14-1","lat":35.754132,"lon":139.448688},{"name":"東村山市立第三保育園","province":"東京都","city":"東村山市","address":"東村山市多摩湖町1-23-4","lat":35.763703,"lon":139.452159},{"name":"東たいてん保育園","province":"東京都","city":"東村山市","address":"東村山市多摩湖町1-14-2","lat":35.76202,"lon":139.448471},{"name":"東村山市立第五保育園","province":"東京都","city":"東村山市","address":"東村山市秋津町4-25-15","lat":35.779283,"lon":139.48512},{"name":"青葉さくら保育園","province":"東京都","city":"東村山市","address":"東村山市青葉町1-7-68","lat":35.75773,"lon":139.491806},{"name":"花さき保育園","province":"東京都","city":"東村山市","address":"東村山市青葉町4-1-1","lat":35.764804,"lon":139.495472},{"name":"東村山市立第六保育園","province":"東京都","city":"東村山市","address":"東村山市久米川町4-4-10","lat":35.761185,"lon":139.472149},{"name":"わくわく保育園","province":"東京都","city":"東村山市","address":"東村山市久米川町1-38-4","lat":35.768112,"lon":139.48527},{"name":"あいあい保育園","province":"東京都","city":"東村山市","address":"東村山市久米川町2-44-2","lat":35.76644,"lon":139.481643},{"name":"りんごっこ保育園","province":"東京都","city":"東村山市","address":"東村山市恩多町1-55-7","lat":35.751795,"lon":139.48854},{"name":"東村山市立第二保育園","province":"東京都","city":"東村山市","address":"東村山市萩山町1-36-1","lat":35.737546,"lon":139.483433},{"name":"久米川保育園","province":"東京都","city":"東村山市","address":"東村山市萩山町5-6-1","lat":35.746978,"lon":139.479416},{"name":"東村山市立第七保育園","province":"東京都","city":"東村山市","address":"東村山市栄町1-36-51","lat":35.752597,"lon":139.477224},{"name":"いづみ愛児園","province":"東京都","city":"東村山市","address":"東村山市栄町1丁目37番地28","lat":35.751414,"lon":139.477866},{"name":"東村山市立第一保育園","province":"東京都","city":"東村山市","address":"東村山市本町4-15-16都営本町アパート6号棟1階","lat":35.753358,"lon":139.473269},{"name":"つばさ保育園","province":"東京都","city":"東村山市","address":"東村山市本町2-22-3","lat":35.759199,"lon":139.468989},{"name":"ほんちょう保育園","province":"東京都","city":"東村山市","address":"東村山市本町3-43-1","lat":35.75561,"lon":139.470444},{"name":"八国山保育園","province":"東京都","city":"東村山市","address":"東村山市野口町1-5-6","lat":35.764123,"lon":139.465778},{"name":"東村山市立第四保育園","province":"東京都","city":"東村山市","address":"東村山市美住町1-4-19","lat":35.749289,"lon":139.464839},{"name":"つぼみ保育園","province":"東京都","city":"東村山市","address":"東村山市富士見町2-2-2","lat":35.744922,"lon":139.451777},{"name":"ふじみ保育園","province":"東京都","city":"東村山市","address":"東村山市富士見町2-7-5","lat":35.740203,"lon":139.452535},{"name":"東村山むさしの第二認定こども園","province":"東京都","city":"東村山市","address":"東村山市廻田町2-14-1","lat":35.754132,"lon":139.448688},{"name":"東村山市立第三保育園","province":"東京都","city":"東村山市","address":"東村山市多摩湖町1-23-4","lat":35.763703,"lon":139.452159},{"name":"東たいてん保育園","province":"東京都","city":"東村山市","address":"東村山市多摩湖町1-14-2","lat":35.76202,"lon":139.448471},{"name":"東村山市立第五保育園","province":"東京都","city":"東村山市","address":"東村山市秋津町4-25-15","lat":35.779283,"lon":139.48512},{"name":"青葉さくら保育園","province":"東京都","city":"東村山市","address":"東村山市青葉町1-7-68","lat":35.75773,"lon":139.491806},{"name":"花さき保育園","province":"東京都","city":"東村山市","address":"東村山市青葉町4-1-1","lat":35.764804,"lon":139.495472},{"name":"東村山市立第六保育園","province":"東京都","city":"東村山市","address":"東村山市久米川町4-4-10","lat":35.761185,"lon":139.472149},{"name":"わくわく保育園","province":"東京都","city":"東村山市","address":"東村山市久米川町1-38-4","lat":35.768112,"lon":139.48527},{"name":"あいあい保育園","province":"東京都","city":"東村山市","address":"東村山市久米川町2-44-2","lat":35.76644,"lon":139.481643},{"name":"りんごっこ保育園","province":"東京都","city":"東村山市","address":"東村山市恩多町1-55-7","lat":35.751795,"lon":139.48854},{"name":"東村山市立第二保育園","province":"東京都","city":"東村山市","address":"東村山市萩山町1-36-1","lat":35.737546,"lon":139.483433},{"name":"久米川保育園","province":"東京都","city":"東村山市","address":"東村山市萩山町5-6-1","lat":35.746978,"lon":139.479416},{"name":"東村山市立第七保育園","province":"東京都","city":"東村山市","address":"東村山市栄町1-36-51","lat":35.752597,"lon":139.477224},{"name":"いづみ愛児園","province":"東京都","city":"東村山市","address":"東村山市栄町1丁目37番地28","lat":35.751414,"lon":139.477866},{"name":"東村山市立第一保育園","province":"東京都","city":"東村山市","address":"東村山市本町4-15-16都営本町アパート6号棟1階","lat":35.753358,"lon":139.473269},{"name":"つばさ保育園","province":"東京都","city":"東村山市","address":"東村山市本町2-22-3","lat":35.759199,"lon":139.468989},{"name":"ほんちょう保育園","province":"東京都","city":"東村山市","address":"東村山市本町3-43-1","lat":35.75561,"lon":139.470444},{"name":"八国山保育園","province":"東京都","city":"東村山市","address":"東村山市野口町1-5-6","lat":35.764123,"lon":139.465778},{"name":"東村山市立第四保育園","province":"東京都","city":"東村山市","address":"東村山市美住町1-4-19","lat":35.749289,"lon":139.464839},{"name":"つぼみ保育園","province":"東京都","city":"東村山市","address":"東村山市富士見町2-2-2","lat":35.744922,"lon":139.451777},{"name":"ふじみ保育園","province":"東京都","city":"東村山市","address":"東村山市富士見町2-7-5","lat":35.740203,"lon":139.452535},{"name":"東村山むさしの第二認定こども園","province":"東京都","city":"東村山市","address":"東村山市廻田町2-14-1","lat":35.754132,"lon":139.448688},{"name":"東村山市立第三保育園","province":"東京都","city":"東村山市","address":"東村山市多摩湖町1-23-4","lat":35.763703,"lon":139.452159},{"name":"東たいてん保育園","province":"東京都","city":"東村山市","address":"東村山市多摩湖町1-14-2","lat":35.76202,"lon":139.448471},{"name":"東村山市立第五保育園","province":"東京都","city":"東村山市","address":"東村山市秋津町4-25-15","lat":35.779283,"lon":139.48512},{"name":"青葉さくら保育園","province":"東京都","city":"東村山市","address":"東村山市青葉町1-7-68","lat":35.75773,"lon":139.491806},{"name":"花さき保育園","province":"東京都","city":"東村山市","address":"東村山市青葉町4-1-1","lat":35.764804,"lon":139.495472},{"name":"東村山市立第六保育園","province":"東京都","city":"東村山市","address":"東村山市久米川町4-4-10","lat":35.761185,"lon":139.472149},{"name":"わくわく保育園","province":"東京都","city":"東村山市","address":"東村山市久米川町1-38-4","lat":35.768112,"lon":139.48527},{"name":"あいあい保育園","province":"東京都","city":"東村山市","address":"東村山市久米川町2-44-2","lat":35.76644,"lon":139.481643},{"name":"りんごっこ保育園","province":"東京都","city":"東村山市","address":"東村山市恩多町1-55-7","lat":35.751795,"lon":139.48854},{"name":"東村山市立第二保育園","province":"東京都","city":"東村山市","address":"東村山市萩山町1-36-1","lat":35.737546,"lon":139.483433},{"name":"久米川保育園","province":"東京都","city":"東村山市","address":"東村山市萩山町5-6-1","lat":35.746978,"lon":139.479416},{"name":"東村山市立第七保育園","province":"東京都","city":"東村山市","address":"東村山市栄町1-36-51","lat":35.752597,"lon":139.477224},{"name":"いづみ愛児園","province":"東京都","city":"東村山市","address":"東村山市栄町1丁目37番地28","lat":35.751414,"lon":139.477866},{"name":"東村山市立第一保育園","province":"東京都","city":"東村山市","address":"東村山市本町4-15-16都営本町アパート6号棟1階","lat":35.753358,"lon":139.473269},{"name":"つばさ保育園","province":"東京都","city":"東村山市","address":"東村山市本町2-22-3","lat":35.759199,"lon":139.468989},{"name":"ほんちょう保育園","province":"東京都","city":"東村山市","address":"東村山市本町3-43-1","lat":35.75561,"lon":139.470444},{"name":"八国山保育園","province":"東京都","city":"東村山市","address":"東村山市野口町1-5-6","lat":35.764123,"lon":139.465778},{"name":"東村山市立第四保育園","province":"東京都","city":"東村山市","address":"東村山市美住町1-4-19","lat":35.749289,"lon":139.464839},{"name":"つぼみ保育園","province":"東京都","city":"東村山市","address":"東村山市富士見町2-2-2","lat":35.744922,"lon":139.451777},{"name":"ふじみ保育園","province":"東京都","city":"東村山市","address":"東村山市富士見町2-7-5","lat":35.740203,"lon":139.452535},{"name":"東村山むさしの第二認定こども園","province":"東京都","city":"東村山市","address":"東村山市廻田町2-14-1","lat":35.754132,"lon":139.448688},{"name":"東村山市立第三保育園","province":"東京都","city":"東村山市","address":"東村山市多摩湖町1-23-4","lat":35.763703,"lon":139.452159},{"name":"東たいてん保育園","province":"東京都","city":"東村山市","address":"東村山市多摩湖町1-14-2","lat":35.76202,"lon":139.448471},{"name":"東村山市立第五保育園","province":"東京都","city":"東村山市","address":"東村山市秋津町4-25-15","lat":35.779283,"lon":139.48512},{"name":"青葉さくら保育園","province":"東京都","city":"東村山市","address":"東村山市青葉町1-7-68","lat":35.75773,"lon":139.491806},{"name":"花さき保育園","province":"東京都","city":"東村山市","address":"東村山市青葉町4-1-1","lat":35.764804,"lon":139.495472},{"name":"東村山市立第六保育園","province":"東京都","city":"東村山市","address":"東村山市久米川町4-4-10","lat":35.761185,"lon":139.472149},{"name":"わくわく保育園","province":"東京都","city":"東村山市","address":"東村山市久米川町1-38-4","lat":35.768112,"lon":139.48527},{"name":"あいあい保育園","province":"東京都","city":"東村山市","address":"東村山市久米川町2-44-2","lat":35.76644,"lon":139.481643},{"name":"りんごっこ保育園","province":"東京都","city":"東村山市","address":"東村山市恩多町1-55-7","lat":35.751795,"lon":139.48854},{"name":"東村山市立第二保育園","province":"東京都","city":"東村山市","address":"東村山市萩山町1-36-1","lat":35.737546,"lon":139.483433},{"name":"久米川保育園","province":"東京都","city":"東村山市","address":"東村山市萩山町5-6-1","lat":35.746978,"lon":139.479416},{"name":"東村山市立第七保育園","province":"東京都","city":"東村山市","address":"東村山市栄町1-36-51","lat":35.752597,"lon":139.477224},{"name":"いづみ愛児園","province":"東京都","city":"東村山市","address":"東村山市栄町1丁目37番地28","lat":35.751414,"lon":139.477866},{"name":"東村山市立第一保育園","province":"東京都","city":"東村山市","address":"東村山市本町4-15-16都営本町アパート6号棟1階","lat":35.753358,"lon":139.473269},{"name":"つばさ保育園","province":"東京都","city":"東村山市","address":"東村山市本町2-22-3","lat":35.759199,"lon":139.468989},{"name":"ほんちょう保育園","province":"東京都","city":"東村山市","address":"東村山市本町3-43-1","lat":35.75561,"lon":139.470444},{"name":"八国山保育園","province":"東京都","city":"東村山市","address":"東村山市野口町1-5-6","lat":35.764123,"lon":139.465778},{"name":"東村山市立第四保育園","province":"東京都","city":"東村山市","address":"東村山市美住町1-4-19","lat":35.749289,"lon":139.464839},{"name":"つぼみ保育園","province":"東京都","city":"東村山市","address":"東村山市富士見町2-2-2","lat":35.744922,"lon":139.451777},{"name":"ふじみ保育園","province":"東京都","city":"東村山市","address":"東村山市富士見町2-7-5","lat":35.740203,"lon":139.452535},{"name":"東村山むさしの第二認定こども園","province":"東京都","city":"東村山市","address":"東村山市廻田町2-14-1","lat":35.754132,"lon":139.448688},{"name":"東村山市立第三保育園","province":"東京都","city":"東村山市","address":"東村山市多摩湖町1-23-4","lat":35.763703,"lon":139.452159},{"name":"東たいてん保育園","province":"東京都","city":"東村山市","address":"東村山市多摩湖町1-14-2","lat":35.76202,"lon":139.448471},{"name":"東村山市立第五保育園","province":"東京都","city":"東村山市","address":"東村山市秋津町4-25-15","lat":35.779283,"lon":139.48512},{"name":"青葉さくら保育園","province":"東京都","city":"東村山市","address":"東村山市青葉町1-7-68","lat":35.75773,"lon":139.491806},{"name":"花さき保育園","province":"東京都","city":"東村山市","address":"東村山市青葉町4-1-1","lat":35.764804,"lon":139.495472},{"name":"東村山市立第六保育園","province":"東京都","city":"東村山市","address":"東村山市久米川町4-4-10","lat":35.761185,"lon":139.472149},{"name":"わくわく保育園","province":"東京都","city":"東村山市","address":"東村山市久米川町1-38-4","lat":35.768112,"lon":139.48527},{"name":"あいあい保育園","province":"東京都","city":"東村山市","address":"東村山市久米川町2-44-2","lat":35.76644,"lon":139.481643},{"name":"りんごっこ保育園","province":"東京都","city":"東村山市","address":"東村山市恩多町1-55-7","lat":35.751795,"lon":139.48854},{"name":"東村山市立第二保育園","province":"東京都","city":"東村山市","address":"東村山市萩山町1-36-1","lat":35.737546,"lon":139.483433},{"name":"久米川保育園","province":"東京都","city":"東村山市","address":"東村山市萩山町5-6-1","lat":35.746978,"lon":139.479416},{"name":"東村山市立第七保育園","province":"東京都","city":"東村山市","address":"東村山市栄町1-36-51","lat":35.752597,"lon":139.477224},{"name":"いづみ愛児園","province":"東京都","city":"東村山市","address":"東村山市栄町1丁目37番地28","lat":35.751414,"lon":139.477866},{"name":"東村山市立第一保育園","province":"東京都","city":"東村山市","address":"東村山市本町4-15-16都営本町アパート6号棟1階","lat":35.753358,"lon":139.473269},{"name":"つばさ保育園","province":"東京都","city":"東村山市","address":"東村山市本町2-22-3","lat":35.759199,"lon":139.468989},{"name":"ほんちょう保育園","province":"東京都","city":"東村山市","address":"東村山市本町3-43-1","lat":35.75561,"lon":139.470444},{"name":"八国山保育園","province":"東京都","city":"東村山市","address":"東村山市野口町1-5-6","lat":35.764123,"lon":139.465778},{"name":"東村山市立第四保育園","province":"東京都","city":"東村山市","address":"東村山市美住町1-4-19","lat":35.749289,"lon":139.464839},{"name":"つぼみ保育園","province":"東京都","city":"東村山市","address":"東村山市富士見町2-2-2","lat":35.744922,"lon":139.451777},{"name":"ふじみ保育園","province":"東京都","city":"東村山市","address":"東村山市富士見町2-7-5","lat":35.740203,"lon":139.452535},{"name":"東村山むさしの第二認定こども園","province":"東京都","city":"東村山市","address":"東村山市廻田町2-14-1","lat":35.754132,"lon":139.448688},{"name":"東村山市立第三保育園","province":"東京都","city":"東村山市","address":"東村山市多摩湖町1-23-4","lat":35.763703,"lon":139.452159},{"name":"東たいてん保育園","province":"東京都","city":"東村山市","address":"東村山市多摩湖町1-14-2","lat":35.76202,"lon":139.448471},{"name":"東村山市立第五保育園","province":"東京都","city":"東村山市","address":"東村山市秋津町4-25-15","lat":35.779283,"lon":139.48512},{"name":"青葉さくら保育園","province":"東京都","city":"東村山市","address":"東村山市青葉町1-7-68","lat":35.75773,"lon":139.491806},{"name":"花さき保育園","province":"東京都","city":"東村山市","address":"東村山市青葉町4-1-1","lat":35.764804,"lon":139.495472},{"name":"東村山市立第六保育園","province":"東京都","city":"東村山市","address":"東村山市久米川町4-4-10","lat":35.761185,"lon":139.472149},{"name":"わくわく保育園","province":"東京都","city":"東村山市","address":"東村山市久米川町1-38-4","lat":35.768112,"lon":139.48527},{"name":"あいあい保育園","province":"東京都","city":"東村山市","address":"東村山市久米川町2-44-2","lat":35.76644,"lon":139.481643},{"name":"りんごっこ保育園","province":"東京都","city":"東村山市","address":"東村山市恩多町1-55-7","lat":35.751795,"lon":139.48854},{"name":"東村山市立第二保育園","province":"東京都","city":"東村山市","address":"東村山市萩山町1-36-1","lat":35.737546,"lon":139.483433},{"name":"久米川保育園","province":"東京都","city":"東村山市","address":"東村山市萩山町5-6-1","lat":35.746978,"lon":139.479416},{"name":"東村山市立第七保育園","province":"東京都","city":"東村山市","address":"東村山市栄町1-36-51","lat":35.752597,"lon":139.477224},{"name":"いづみ愛児園","province":"東京都","city":"東村山市","address":"東村山市栄町1丁目37番地28","lat":35.751414,"lon":139.477866},{"name":"東村山市立第一保育園","province":"東京都","city":"東村山市","address":"東村山市本町4-15-16都営本町アパート6号棟1階","lat":35.753358,"lon":139.473269},{"name":"つばさ保育園","province":"東京都","city":"東村山市","address":"東村山市本町2-22-3","lat":35.759199,"lon":139.468989},{"name":"ほんちょう保育園","province":"東京都","city":"東村山市","address":"東村山市本町3-43-1","lat":35.75561,"lon":139.470444},{"name":"八国山保育園","province":"東京都","city":"東村山市","address":"東村山市野口町1-5-6","lat":35.764123,"lon":139.465778},{"name":"東村山市立第四保育園","province":"東京都","city":"東村山市","address":"東村山市美住町1-4-19","lat":35.749289,"lon":139.464839},{"name":"つぼみ保育園","province":"東京都","city":"東村山市","address":"東村山市富士見町2-2-2","lat":35.744922,"lon":139.451777},{"name":"ふじみ保育園","province":"東京都","city":"東村山市","address":"東村山市富士見町2-7-5","lat":35.740203,"lon":139.452535},{"name":"東村山むさしの第二認定こども園","province":"東京都","city":"東村山市","address":"東村山市廻田町2-14-1","lat":35.754132,"lon":139.448688},{"name":"東村山市立第三保育園","province":"東京都","city":"東村山市","address":"東村山市多摩湖町1-23-4","lat":35.763703,"lon":139.452159},{"name":"東たいてん保育園","province":"東京都","city":"東村山市","address":"東村山市多摩湖町1-14-2","lat":35.76202,"lon":139.448471},{"name":"東村山市立第五保育園","province":"東京都","city":"東村山市","address":"東村山市秋津町4-25-15","lat":35.779283,"lon":139.48512},{"name":"青葉さくら保育園","province":"東京都","city":"東村山市","address":"東村山市青葉町1-7-68","lat":35.75773,"lon":139.491806},{"name":"花さき保育園","province":"東京都","city":"東村山市","address":"東村山市青葉町4-1-1","lat":35.764804,"lon":139.495472},{"name":"東村山市立第六保育園","province":"東京都","city":"東村山市","address":"東村山市久米川町4-4-10","lat":35.761185,"lon":139.472149},{"name":"わくわく保育園","province":"東京都","city":"東村山市","address":"東村山市久米川町1-38-4","lat":35.768112,"lon":139.48527},{"name":"あいあい保育園","province":"東京都","city":"東村山市","address":"東村山市久米川町2-44-2","lat":35.76644,"lon":139.481643},{"name":"りんごっこ保育園","province":"東京都","city":"東村山市","address":"東村山市恩多町1-55-7","lat":35.751795,"lon":139.48854},{"name":"東村山市立第二保育園","province":"東京都","city":"東村山市","address":"東村山市萩山町1-36-1","lat":35.737546,"lon":139.483433},{"name":"久米川保育園","province":"東京都","city":"東村山市","address":"東村山市萩山町5-6-1","lat":35.746978,"lon":139.479416},{"name":"東村山市立第七保育園","province":"東京都","city":"東村山市","address":"東村山市栄町1-36-51","lat":35.752597,"lon":139.477224},{"name":"いづみ愛児園","province":"東京都","city":"東村山市","address":"東村山市栄町1丁目37番地28","lat":35.751414,"lon":139.477866},{"name":"東村山市立第一保育園","province":"東京都","city":"東村山市","address":"東村山市本町4-15-16都営本町アパート6号棟1階","lat":35.753358,"lon":139.473269},{"name":"つばさ保育園","province":"東京都","city":"東村山市","address":"東村山市本町2-22-3","lat":35.759199,"lon":139.468989},{"name":"ほんちょう保育園","province":"東京都","city":"東村山市","address":"東村山市本町3-43-1","lat":35.75561,"lon":139.470444},{"name":"八国山保育園","province":"東京都","city":"東村山市","address":"東村山市野口町1-5-6","lat":35.764123,"lon":139.465778},{"name":"東村山市立第四保育園","province":"東京都","city":"東村山市","address":"東村山市美住町1-4-19","lat":35.749289,"lon":139.464839},{"name":"つぼみ保育園","province":"東京都","city":"東村山市","address":"東村山市富士見町2-2-2","lat":35.744922,"lon":139.451777},{"name":"ふじみ保育園","province":"東京都","city":"東村山市","address":"東村山市富士見町2-7-5","lat":35.740203,"lon":139.452535},{"name":"東村山むさしの第二認定こども園","province":"東京都","city":"東村山市","address":"東村山市廻田町2-14-1","lat":35.754132,"lon":139.448688},{"name":"東村山市立第三保育園","province":"東京都","city":"東村山市","address":"東村山市多摩湖町1-23-4","lat":35.763703,"lon":139.452159},{"name":"東たいてん保育園","province":"東京都","city":"東村山市","address":"東村山市多摩湖町1-14-2","lat":35.76202,"lon":139.448471},{"name":"東村山市立第五保育園","province":"東京都","city":"東村山市","address":"東村山市秋津町4-25-15","lat":35.779283,"lon":139.48512},{"name":"青葉さくら保育園","province":"東京都","city":"東村山市","address":"東村山市青葉町1-7-68","lat":35.75773,"lon":139.491806},{"name":"花さき保育園","province":"東京都","city":"東村山市","address":"東村山市青葉町4-1-1","lat":35.764804,"lon":139.495472},{"name":"東村山市立第六保育園","province":"東京都","city":"東村山市","address":"東村山市久米川町4-4-10","lat":35.761185,"lon":139.472149},{"name":"わくわく保育園","province":"東京都","city":"東村山市","address":"東村山市久米川町1-38-4","lat":35.768112,"lon":139.48527},{"name":"あいあい保育園","province":"東京都","city":"東村山市","address":"東村山市久米川町2-44-2","lat":35.76644,"lon":139.481643},{"name":"りんごっこ保育園","province":"東京都","city":"東村山市","address":"東村山市恩多町1-55-7","lat":35.751795,"lon":139.48854},{"name":"東村山市立第二保育園","province":"東京都","city":"東村山市","address":"東村山市萩山町1-36-1","lat":35.737546,"lon":139.483433},{"name":"久米川保育園","province":"東京都","city":"東村山市","address":"東村山市萩山町5-6-1","lat":35.746978,"lon":139.479416},{"name":"東村山市立第七保育園","province":"東京都","city":"東村山市","address":"東村山市栄町1-36-51","lat":35.752597,"lon":139.477224},{"name":"いづみ愛児園","province":"東京都","city":"東村山市","address":"東村山市栄町1丁目37番地28","lat":35.751414,"lon":139.477866},{"name":"東村山市立第一保育園","province":"東京都","city":"東村山市","address":"東村山市本町4-15-16都営本町アパート6号棟1階","lat":35.753358,"lon":139.473269},{"name":"つばさ保育園","province":"東京都","city":"東村山市","address":"東村山市本町2-22-3","lat":35.759199,"lon":139.468989},{"name":"ほんちょう保育園","province":"東京都","city":"東村山市","address":"東村山市本町3-43-1","lat":35.75561,"lon":139.470444},{"name":"八国山保育園","province":"東京都","city":"東村山市","address":"東村山市野口町1-5-6","lat":35.764123,"lon":139.465778},{"name":"東村山市立第四保育園","province":"東京都","city":"東村山市","address":"東村山市美住町1-4-19","lat":35.749289,"lon":139.464839},{"name":"つぼみ保育園","province":"東京都","city":"東村山市","address":"東村山市富士見町2-2-2","lat":35.744922,"lon":139.451777},{"name":"ふじみ保育園","province":"東京都","city":"東村山市","address":"東村山市富士見町2-7-5","lat":35.740203,"lon":139.452535},{"name":"東村山むさしの第二認定こども園","province":"東京都","city":"東村山市","address":"東村山市廻田町2-14-1","lat":35.754132,"lon":139.448688},{"name":"東村山市立第三保育園","province":"東京都","city":"東村山市","address":"東村山市多摩湖町1-23-4","lat":35.763703,"lon":139.452159},{"name":"東たいてん保育園","province":"東京都","city":"東村山市","address":"東村山市多摩湖町1-14-2","lat":35.76202,"lon":139.448471},{"name":"東村山市立第五保育園","province":"東京都","city":"東村山市","address":"東村山市秋津町4-25-15","lat":35.779283,"lon":139.48512},{"name":"青葉さくら保育園","province":"東京都","city":"東村山市","address":"東村山市青葉町1-7-68","lat":35.75773,"lon":139.491806},{"name":"花さき保育園","province":"東京都","city":"東村山市","address":"東村山市青葉町4-1-1","lat":35.764804,"lon":139.495472},{"name":"東村山市立第六保育園","province":"東京都","city":"東村山市","address":"東村山市久米川町4-4-10","lat":35.761185,"lon":139.472149},{"name":"わくわく保育園","province":"東京都","city":"東村山市","address":"東村山市久米川町1-38-4","lat":35.768112,"lon":139.48527},{"name":"あいあい保育園","province":"東京都","city":"東村山市","address":"東村山市久米川町2-44-2","lat":35.76644,"lon":139.481643},{"name":"りんごっこ保育園","province":"東京都","city":"東村山市","address":"東村山市恩多町1-55-7","lat":35.751795,"lon":139.48854},{"name":"東村山市立第二保育園","province":"東京都","city":"東村山市","address":"東村山市萩山町1-36-1","lat":35.737546,"lon":139.483433},{"name":"久米川保育園","province":"東京都","city":"東村山市","address":"東村山市萩山町5-6-1","lat":35.746978,"lon":139.479416},{"name":"東村山市立第七保育園","province":"東京都","city":"東村山市","address":"東村山市栄町1-36-51","lat":35.752597,"lon":139.477224},{"name":"いづみ愛児園","province":"東京都","city":"東村山市","address":"東村山市栄町1丁目37番地28","lat":35.751414,"lon":139.477866},{"name":"東村山市立第一保育園","province":"東京都","city":"東村山市","address":"東村山市本町4-15-16都営本町アパート6号棟1階","lat":35.753358,"lon":139.473269},{"name":"つばさ保育園","province":"東京都","city":"東村山市","address":"東村山市本町2-22-3","lat":35.759199,"lon":139.468989},{"name":"ほんちょう保育園","province":"東京都","city":"東村山市","address":"東村山市本町3-43-1","lat":35.75561,"lon":139.470444},{"name":"八国山保育園","province":"東京都","city":"東村山市","address":"東村山市野口町1-5-6","lat":35.764123,"lon":139.465778},{"name":"東村山市立第四保育園","province":"東京都","city":"東村山市","address":"東村山市美住町1-4-19","lat":35.749289,"lon":139.464839},{"name":"つぼみ保育園","province":"東京都","city":"東村山市","address":"東村山市富士見町2-2-2","lat":35.744922,"lon":139.451777},{"name":"ふじみ保育園","province":"東京都","city":"東村山市","address":"東村山市富士見町2-7-5","lat":35.740203,"lon":139.452535},{"name":"東村山むさしの第二認定こども園","province":"東京都","city":"東村山市","address":"東村山市廻田町2-14-1","lat":35.754132,"lon":139.448688},{"name":"東村山市立第三保育園","province":"東京都","city":"東村山市","address":"東村山市多摩湖町1-23-4","lat":35.763703,"lon":139.452159},{"name":"東たいてん保育園","province":"東京都","city":"東村山市","address":"東村山市多摩湖町1-14-2","lat":35.76202,"lon":139.448471},{"name":"東村山市立第五保育園","province":"東京都","city":"東村山市","address":"東村山市秋津町4-25-15","lat":35.779283,"lon":139.48512},{"name":"青葉さくら保育園","province":"東京都","city":"東村山市","address":"東村山市青葉町1-7-68","lat":35.75773,"lon":139.491806},{"name":"花さき保育園","province":"東京都","city":"東村山市","address":"東村山市青葉町4-1-1","lat":35.764804,"lon":139.495472},{"name":"東村山市立第六保育園","province":"東京都","city":"東村山市","address":"東村山市久米川町4-4-10","lat":35.761185,"lon":139.472149},{"name":"わくわく保育園","province":"東京都","city":"東村山市","address":"東村山市久米川町1-38-4","lat":35.768112,"lon":139.48527},{"name":"あいあい保育園","province":"東京都","city":"東村山市","address":"東村山市久米川町2-44-2","lat":35.76644,"lon":139.481643},{"name":"りんごっこ保育園","province":"東京都","city":"東村山市","address":"東村山市恩多町1-55-7","lat":35.751795,"lon":139.48854},{"name":"東村山市立第二保育園","province":"東京都","city":"東村山市","address":"東村山市萩山町1-36-1","lat":35.737546,"lon":139.483433},{"name":"久米川保育園","province":"東京都","city":"東村山市","address":"東村山市萩山町5-6-1","lat":35.746978,"lon":139.479416},{"name":"東村山市立第七保育園","province":"東京都","city":"東村山市","address":"東村山市栄町1-36-51","lat":35.752597,"lon":139.477224},{"name":"いづみ愛児園","province":"東京都","city":"東村山市","address":"東村山市栄町1丁目37番地28","lat":35.751414,"lon":139.477866},{"name":"東村山市立第一保育園","province":"東京都","city":"東村山市","address":"東村山市本町4-15-16都営本町アパート6号棟1階","lat":35.753358,"lon":139.473269},{"name":"つばさ保育園","province":"東京都","city":"東村山市","address":"東村山市本町2-22-3","lat":35.759199,"lon":139.468989},{"name":"ほんちょう保育園","province":"東京都","city":"東村山市","address":"東村山市本町3-43-1","lat":35.75561,"lon":139.470444},{"name":"八国山保育園","province":"東京都","city":"東村山市","address":"東村山市野口町1-5-6","lat":35.764123,"lon":139.465778},{"name":"東村山市立第四保育園","province":"東京都","city":"東村山市","address":"東村山市美住町1-4-19","lat":35.749289,"lon":139.464839},{"name":"つぼみ保育園","province":"東京都","city":"東村山市","address":"東村山市富士見町2-2-2","lat":35.744922,"lon":139.451777},{"name":"ふじみ保育園","province":"東京都","city":"東村山市","address":"東村山市富士見町2-7-5","lat":35.740203,"lon":139.452535},{"name":"東村山むさしの第二認定こども園","province":"東京都","city":"東村山市","address":"東村山市廻田町2-14-1","lat":35.754132,"lon":139.448688},{"name":"東村山市立第三保育園","province":"東京都","city":"東村山市","address":"東村山市多摩湖町1-23-4","lat":35.763703,"lon":139.452159},{"name":"東たいてん保育園","province":"東京都","city":"東村山市","address":"東村山市多摩湖町1-14-2","lat":35.76202,"lon":139.448471},{"name":"東村山市立第五保育園","province":"東京都","city":"東村山市","address":"東村山市秋津町4-25-15","lat":35.779283,"lon":139.48512},{"name":"青葉さくら保育園","province":"東京都","city":"東村山市","address":"東村山市青葉町1-7-68","lat":35.75773,"lon":139.491806},{"name":"花さき保育園","province":"東京都","city":"東村山市","address":"東村山市青葉町4-1-1","lat":35.764804,"lon":139.495472},{"name":"東村山市立第六保育園","province":"東京都","city":"東村山市","address":"東村山市久米川町4-4-10","lat":35.761185,"lon":139.472149},{"name":"わくわく保育園","province":"東京都","city":"東村山市","address":"東村山市久米川町1-38-4","lat":35.768112,"lon":139.48527},{"name":"あいあい保育園","province":"東京都","city":"東村山市","address":"東村山市久米川町2-44-2","lat":35.76644,"lon":139.481643},{"name":"りんごっこ保育園","province":"東京都","city":"東村山市","address":"東村山市恩多町1-55-7","lat":35.751795,"lon":139.48854},{"name":"東村山市立第二保育園","province":"東京都","city":"東村山市","address":"東村山市萩山町1-36-1","lat":35.737546,"lon":139.483433},{"name":"久米川保育園","province":"東京都","city":"東村山市","address":"東村山市萩山町5-6-1","lat":35.746978,"lon":139.479416},{"name":"東村山市立第七保育園","province":"東京都","city":"東村山市","address":"東村山市栄町1-36-51","lat":35.752597,"lon":139.477224},{"name":"いづみ愛児園","province":"東京都","city":"東村山市","address":"東村山市栄町1丁目37番地28","lat":35.751414,"lon":139.477866},{"name":"東村山市立第一保育園","province":"東京都","city":"東村山市","address":"東村山市本町4-15-16都営本町アパート6号棟1階","lat":35.753358,"lon":139.473269},{"name":"つばさ保育園","province":"東京都","city":"東村山市","address":"東村山市本町2-22-3","lat":35.759199,"lon":139.468989},{"name":"ほんちょう保育園","province":"東京都","city":"東村山市","address":"東村山市本町3-43-1","lat":35.75561,"lon":139.470444},{"name":"八国山保育園","province":"東京都","city":"東村山市","address":"東村山市野口町1-5-6","lat":35.764123,"lon":139.465778},{"name":"東村山市立第四保育園","province":"東京都","city":"東村山市","address":"東村山市美住町1-4-19","lat":35.749289,"lon":139.464839},{"name":"つぼみ保育園","province":"東京都","city":"東村山市","address":"東村山市富士見町2-2-2","lat":35.744922,"lon":139.451777},{"name":"ふじみ保育園","province":"東京都","city":"東村山市","address":"東村山市富士見町2-7-5","lat":35.740203,"lon":139.452535},{"name":"東村山むさしの第二認定こども園","province":"東京都","city":"東村山市","address":"東村山市廻田町2-14-1","lat":35.754132,"lon":139.448688},{"name":"東村山市立第三保育園","province":"東京都","city":"東村山市","address":"東村山市多摩湖町1-23-4","lat":35.763703,"lon":139.452159},{"name":"東たいてん保育園","province":"東京都","city":"東村山市","address":"東村山市多摩湖町1-14-2","lat":35.76202,"lon":139.448471},{"name":"東村山市立第五保育園","province":"東京都","city":"東村山市","address":"東村山市秋津町4-25-15","lat":35.779283,"lon":139.48512},{"name":"青葉さくら保育園","province":"東京都","city":"東村山市","address":"東村山市青葉町1-7-68","lat":35.75773,"lon":139.491806},{"name":"花さき保育園","province":"東京都","city":"東村山市","address":"東村山市青葉町4-1-1","lat":35.764804,"lon":139.495472},{"name":"東村山市立第六保育園","province":"東京都","city":"東村山市","address":"東村山市久米川町4-4-10","lat":35.761185,"lon":139.472149},{"name":"わくわく保育園","province":"東京都","city":"東村山市","address":"東村山市久米川町1-38-4","lat":35.768112,"lon":139.48527},{"name":"あいあい保育園","province":"東京都","city":"東村山市","address":"東村山市久米川町2-44-2","lat":35.76644,"lon":139.481643},{"name":"りんごっこ保育園","province":"東京都","city":"東村山市","address":"東村山市恩多町1-55-7","lat":35.751795,"lon":139.48854},{"name":"東村山市立第二保育園","province":"東京都","city":"東村山市","address":"東村山市萩山町1-36-1","lat":35.737546,"lon":139.483433},{"name":"久米川保育園","province":"東京都","city":"東村山市","address":"東村山市萩山町5-6-1","lat":35.746978,"lon":139.479416},{"name":"東村山市立第七保育園","province":"東京都","city":"東村山市","address":"東村山市栄町1-36-51","lat":35.752597,"lon":139.477224},{"name":"いづみ愛児園","province":"東京都","city":"東村山市","address":"東村山市栄町1丁目37番地28","lat":35.751414,"lon":139.477866},{"name":"東村山市立第一保育園","province":"東京都","city":"東村山市","address":"東村山市本町4-15-16都営本町アパート6号棟1階","lat":35.753358,"lon":139.473269},{"name":"つばさ保育園","province":"東京都","city":"東村山市","address":"東村山市本町2-22-3","lat":35.759199,"lon":139.468989},{"name":"ほんちょう保育園","province":"東京都","city":"東村山市","address":"東村山市本町3-43-1","lat":35.75561,"lon":139.470444},{"name":"八国山保育園","province":"東京都","city":"東村山市","address":"東村山市野口町1-5-6","lat":35.764123,"lon":139.465778},{"name":"東村山市立第四保育園","province":"東京都","city":"東村山市","address":"東村山市美住町1-4-19","lat":35.749289,"lon":139.464839},{"name":"つぼみ保育園","province":"東京都","city":"東村山市","address":"東村山市富士見町2-2-2","lat":35.744922,"lon":139.451777},{"name":"ふじみ保育園","province":"東京都","city":"東村山市","address":"東村山市富士見町2-7-5","lat":35.740203,"lon":139.452535},{"name":"東村山むさしの第二認定こども園","province":"東京都","city":"東村山市","address":"東村山市廻田町2-14-1","lat":35.754132,"lon":139.448688},{"name":"東村山市立第三保育園","province":"東京都","city":"東村山市","address":"東村山市多摩湖町1-23-4","lat":35.763703,"lon":139.452159},{"name":"東たいてん保育園","province":"東京都","city":"東村山市","address":"東村山市多摩湖町1-14-2","lat":35.76202,"lon":139.448471},{"name":"東村山市立第五保育園","province":"東京都","city":"東村山市","address":"東村山市秋津町4-25-15","lat":35.779283,"lon":139.48512},{"name":"青葉さくら保育園","province":"東京都","city":"東村山市","address":"東村山市青葉町1-7-68","lat":35.75773,"lon":139.491806},{"name":"花さき保育園","province":"東京都","city":"東村山市","address":"東村山市青葉町4-1-1","lat":35.764804,"lon":139.495472},{"name":"東村山市立第六保育園","province":"東京都","city":"東村山市","address":"東村山市久米川町4-4-10","lat":35.761185,"lon":139.472149},{"name":"わくわく保育園","province":"東京都","city":"東村山市","address":"東村山市久米川町1-38-4","lat":35.768112,"lon":139.48527},{"name":"あいあい保育園","province":"東京都","city":"東村山市","address":"東村山市久米川町2-44-2","lat":35.76644,"lon":139.481643},{"name":"りんごっこ保育園","province":"東京都","city":"東村山市","address":"東村山市恩多町1-55-7","lat":35.751795,"lon":139.48854},{"name":"東村山市立第二保育園","province":"東京都","city":"東村山市","address":"東村山市萩山町1-36-1","lat":35.737546,"lon":139.483433},{"name":"久米川保育園","province":"東京都","city":"東村山市","address":"東村山市萩山町5-6-1","lat":35.746978,"lon":139.479416},{"name":"東村山市立第七保育園","province":"東京都","city":"東村山市","address":"東村山市栄町1-36-51","lat":35.752597,"lon":139.477224},{"name":"いづみ愛児園","province":"東京都","city":"東村山市","address":"東村山市栄町1丁目37番地28","lat":35.751414,"lon":139.477866},{"name":"東村山市立第一保育園","province":"東京都","city":"東村山市","address":"東村山市本町4-15-16都営本町アパート6号棟1階","lat":35.753358,"lon":139.473269},{"name":"つばさ保育園","province":"東京都","city":"東村山市","address":"東村山市本町2-22-3","lat":35.759199,"lon":139.468989},{"name":"ほんちょう保育園","province":"東京都","city":"東村山市","address":"東村山市本町3-43-1","lat":35.75561,"lon":139.470444},{"name":"八国山保育園","province":"東京都","city":"東村山市","address":"東村山市野口町1-5-6","lat":35.764123,"lon":139.465778},{"name":"東村山市立第四保育園","province":"東京都","city":"東村山市","address":"東村山市美住町1-4-19","lat":35.749289,"lon":139.464839},{"name":"つぼみ保育園","province":"東京都","city":"東村山市","address":"東村山市富士見町2-2-2","lat":35.744922,"lon":139.451777},{"name":"ふじみ保育園","province":"東京都","city":"東村山市","address":"東村山市富士見町2-7-5","lat":35.740203,"lon":139.452535},{"name":"東村山むさしの第二認定こども園","province":"東京都","city":"東村山市","address":"東村山市廻田町2-14-1","lat":35.754132,"lon":139.448688},{"name":"東村山市立第三保育園","province":"東京都","city":"東村山市","address":"東村山市多摩湖町1-23-4","lat":35.763703,"lon":139.452159},{"name":"東たいてん保育園","province":"東京都","city":"東村山市","address":"東村山市多摩湖町1-14-2","lat":35.76202,"lon":139.448471},{"name":"東村山市立第五保育園","province":"東京都","city":"東村山市","address":"東村山市秋津町4-25-15","lat":35.779283,"lon":139.48512},{"name":"青葉さくら保育園","province":"東京都","city":"東村山市","address":"東村山市青葉町1-7-68","lat":35.75773,"lon":139.491806},{"name":"花さき保育園","province":"東京都","city":"東村山市","address":"東村山市青葉町4-1-1","lat":35.764804,"lon":139.495472},{"name":"東村山市立第六保育園","province":"東京都","city":"東村山市","address":"東村山市久米川町4-4-10","lat":35.761185,"lon":139.472149},{"name":"わくわく保育園","province":"東京都","city":"東村山市","address":"東村山市久米川町1-38-4","lat":35.768112,"lon":139.48527},{"name":"あいあい保育園","province":"東京都","city":"東村山市","address":"東村山市久米川町2-44-2","lat":35.76644,"lon":139.481643},{"name":"りんごっこ保育園","province":"東京都","city":"東村山市","address":"東村山市恩多町1-55-7","lat":35.751795,"lon":139.48854},{"name":"東村山市立第二保育園","province":"東京都","city":"東村山市","address":"東村山市萩山町1-36-1","lat":35.737546,"lon":139.483433},{"name":"久米川保育園","province":"東京都","city":"東村山市","address":"東村山市萩山町5-6-1","lat":35.746978,"lon":139.479416},{"name":"東村山市立第七保育園","province":"東京都","city":"東村山市","address":"東村山市栄町1-36-51","lat":35.752597,"lon":139.477224},{"name":"いづみ愛児園","province":"東京都","city":"東村山市","address":"東村山市栄町1丁目37番地28","lat":35.751414,"lon":139.477866},{"name":"東村山市立第一保育園","province":"東京都","city":"東村山市","address":"東村山市本町4-15-16都営本町アパート6号棟1階","lat":35.753358,"lon":139.473269},{"name":"つばさ保育園","province":"東京都","city":"東村山市","address":"東村山市本町2-22-3","lat":35.759199,"lon":139.468989},{"name":"ほんちょう保育園","province":"東京都","city":"東村山市","address":"東村山市本町3-43-1","lat":35.75561,"lon":139.470444},{"name":"八国山保育園","province":"東京都","city":"東村山市","address":"東村山市野口町1-5-6","lat":35.764123,"lon":139.465778},{"name":"東村山市立第四保育園","province":"東京都","city":"東村山市","address":"東村山市美住町1-4-19","lat":35.749289,"lon":139.464839},{"name":"つぼみ保育園","province":"東京都","city":"東村山市","address":"東村山市富士見町2-2-2","lat":35.744922,"lon":139.451777},{"name":"ふじみ保育園","province":"東京都","city":"東村山市","address":"東村山市富士見町2-7-5","lat":35.740203,"lon":139.452535},{"name":"東村山むさしの第二認定こども園","province":"東京都","city":"東村山市","address":"東村山市廻田町2-14-1","lat":35.754132,"lon":139.448688},{"name":"東村山市立第三保育園","province":"東京都","city":"東村山市","address":"東村山市多摩湖町1-23-4","lat":35.763703,"lon":139.452159},{"name":"東たいてん保育園","province":"東京都","city":"東村山市","address":"東村山市多摩湖町1-14-2","lat":35.76202,"lon":139.448471},{"name":"東村山市立第五保育園","province":"東京都","city":"東村山市","address":"東村山市秋津町4-25-15","lat":35.779283,"lon":139.48512},{"name":"青葉さくら保育園","province":"東京都","city":"東村山市","address":"東村山市青葉町1-7-68","lat":35.75773,"lon":139.491806},{"name":"花さき保育園","province":"東京都","city":"東村山市","address":"東村山市青葉町4-1-1","lat":35.764804,"lon":139.495472},{"name":"東村山市立第六保育園","province":"東京都","city":"東村山市","address":"東村山市久米川町4-4-10","lat":35.761185,"lon":139.472149},{"name":"わくわく保育園","province":"東京都","city":"東村山市","address":"東村山市久米川町1-38-4","lat":35.768112,"lon":139.48527},{"name":"あいあい保育園","province":"東京都","city":"東村山市","address":"東村山市久米川町2-44-2","lat":35.76644,"lon":139.481643},{"name":"りんごっこ保育園","province":"東京都","city":"東村山市","address":"東村山市恩多町1-55-7","lat":35.751795,"lon":139.48854},{"name":"東村山市立第二保育園","province":"東京都","city":"東村山市","address":"東村山市萩山町1-36-1","lat":35.737546,"lon":139.483433},{"name":"久米川保育園","province":"東京都","city":"東村山市","address":"東村山市萩山町5-6-1","lat":35.746978,"lon":139.479416},{"name":"東村山市立第七保育園","province":"東京都","city":"東村山市","address":"東村山市栄町1-36-51","lat":35.752597,"lon":139.477224},{"name":"いづみ愛児園","province":"東京都","city":"東村山市","address":"東村山市栄町1丁目37番地28","lat":35.751414,"lon":139.477866},{"name":"東村山市立第一保育園","province":"東京都","city":"東村山市","address":"東村山市本町4-15-16都営本町アパート6号棟1階","lat":35.753358,"lon":139.473269},{"name":"つばさ保育園","province":"東京都","city":"東村山市","address":"東村山市本町2-22-3","lat":35.759199,"lon":139.468989},{"name":"ほんちょう保育園","province":"東京都","city":"東村山市","address":"東村山市本町3-43-1","lat":35.75561,"lon":139.470444},{"name":"八国山保育園","province":"東京都","city":"東村山市","address":"東村山市野口町1-5-6","lat":35.764123,"lon":139.465778},{"name":"東村山市立第四保育園","province":"東京都","city":"東村山市","address":"東村山市美住町1-4-19","lat":35.749289,"lon":139.464839},{"name":"つぼみ保育園","province":"東京都","city":"東村山市","address":"東村山市富士見町2-2-2","lat":35.744922,"lon":139.451777},{"name":"ふじみ保育園","province":"東京都","city":"東村山市","address":"東村山市富士見町2-7-5","lat":35.740203,"lon":139.452535},{"name":"東村山むさしの第二認定こども園","province":"東京都","city":"東村山市","address":"東村山市廻田町2-14-1","lat":35.754132,"lon":139.448688},{"name":"東村山市立第三保育園","province":"東京都","city":"東村山市","address":"東村山市多摩湖町1-23-4","lat":35.763703,"lon":139.452159},{"name":"東たいてん保育園","province":"東京都","city":"東村山市","address":"東村山市多摩湖町1-14-2","lat":35.76202,"lon":139.448471},{"name":"東村山市立第五保育園","province":"東京都","city":"東村山市","address":"東村山市秋津町4-25-15","lat":35.779283,"lon":139.48512},{"name":"青葉さくら保育園","province":"東京都","city":"東村山市","address":"東村山市青葉町1-7-68","lat":35.75773,"lon":139.491806},{"name":"花さき保育園","province":"東京都","city":"東村山市","address":"東村山市青葉町4-1-1","lat":35.764804,"lon":139.495472},{"name":"東村山市立第六保育園","province":"東京都","city":"東村山市","address":"東村山市久米川町4-4-10","lat":35.761185,"lon":139.472149},{"name":"わくわく保育園","province":"東京都","city":"東村山市","address":"東村山市久米川町1-38-4","lat":35.768112,"lon":139.48527},{"name":"あいあい保育園","province":"東京都","city":"東村山市","address":"東村山市久米川町2-44-2","lat":35.76644,"lon":139.481643},{"name":"りんごっこ保育園","province":"東京都","city":"東村山市","address":"東村山市恩多町1-55-7","lat":35.751795,"lon":139.48854},{"name":"東村山市立第二保育園","province":"東京都","city":"東村山市","address":"東村山市萩山町1-36-1","lat":35.737546,"lon":139.483433},{"name":"久米川保育園","province":"東京都","city":"東村山市","address":"東村山市萩山町5-6-1","lat":35.746978,"lon":139.479416},{"name":"東村山市立第七保育園","province":"東京都","city":"東村山市","address":"東村山市栄町1-36-51","lat":35.752597,"lon":139.477224},{"name":"いづみ愛児園","province":"東京都","city":"東村山市","address":"東村山市栄町1丁目37番地28","lat":35.751414,"lon":139.477866},{"name":"東村山市立第一保育園","province":"東京都","city":"東村山市","address":"東村山市本町4-15-16都営本町アパート6号棟1階","lat":35.753358,"lon":139.473269},{"name":"つばさ保育園","province":"東京都","city":"東村山市","address":"東村山市本町2-22-3","lat":35.759199,"lon":139.468989},{"name":"ほんちょう保育園","province":"東京都","city":"東村山市","address":"東村山市本町3-43-1","lat":35.75561,"lon":139.470444},{"name":"八国山保育園","province":"東京都","city":"東村山市","address":"東村山市野口町1-5-6","lat":35.764123,"lon":139.465778},{"name":"東村山市立第四保育園","province":"東京都","city":"東村山市","address":"東村山市美住町1-4-19","lat":35.749289,"lon":139.464839},{"name":"つぼみ保育園","province":"東京都","city":"東村山市","address":"東村山市富士見町2-2-2","lat":35.744922,"lon":139.451777},{"name":"ふじみ保育園","province":"東京都","city":"東村山市","address":"東村山市富士見町2-7-5","lat":35.740203,"lon":139.452535},{"name":"東村山むさしの第二認定こども園","province":"東京都","city":"東村山市","address":"東村山市廻田町2-14-1","lat":35.754132,"lon":139.448688},{"name":"東村山市立第三保育園","province":"東京都","city":"東村山市","address":"東村山市多摩湖町1-23-4","lat":35.763703,"lon":139.452159},{"name":"東たいてん保育園","province":"東京都","city":"東村山市","address":"東村山市多摩湖町1-14-2","lat":35.76202,"lon":139.448471},{"name":"東村山市立第五保育園","province":"東京都","city":"東村山市","address":"東村山市秋津町4-25-15","lat":35.779283,"lon":139.48512},{"name":"青葉さくら保育園","province":"東京都","city":"東村山市","address":"東村山市青葉町1-7-68","lat":35.75773,"lon":139.491806},{"name":"花さき保育園","province":"東京都","city":"東村山市","address":"東村山市青葉町4-1-1","lat":35.764804,"lon":139.495472},{"name":"東村山市立第六保育園","province":"東京都","city":"東村山市","address":"東村山市久米川町4-4-10","lat":35.761185,"lon":139.472149},{"name":"わくわく保育園","province":"東京都","city":"東村山市","address":"東村山市久米川町1-38-4","lat":35.768112,"lon":139.48527},{"name":"あいあい保育園","province":"東京都","city":"東村山市","address":"東村山市久米川町2-44-2","lat":35.76644,"lon":139.481643},{"name":"りんごっこ保育園","province":"東京都","city":"東村山市","address":"東村山市恩多町1-55-7","lat":35.751795,"lon":139.48854},{"name":"東村山市立第二保育園","province":"東京都","city":"東村山市","address":"東村山市萩山町1-36-1","lat":35.737546,"lon":139.483433},{"name":"久米川保育園","province":"東京都","city":"東村山市","address":"東村山市萩山町5-6-1","lat":35.746978,"lon":139.479416},{"name":"東村山市立第七保育園","province":"東京都","city":"東村山市","address":"東村山市栄町1-36-51","lat":35.752597,"lon":139.477224},{"name":"いづみ愛児園","province":"東京都","city":"東村山市","address":"東村山市栄町1丁目37番地28","lat":35.751414,"lon":139.477866},{"name":"東村山市立第一保育園","province":"東京都","city":"東村山市","address":"東村山市本町4-15-16都営本町アパート6号棟1階","lat":35.753358,"lon":139.473269},{"name":"つばさ保育園","province":"東京都","city":"東村山市","address":"東村山市本町2-22-3","lat":35.759199,"lon":139.468989},{"name":"ほんちょう保育園","province":"東京都","city":"東村山市","address":"東村山市本町3-43-1","lat":35.75561,"lon":139.470444},{"name":"八国山保育園","province":"東京都","city":"東村山市","address":"東村山市野口町1-5-6","lat":35.764123,"lon":139.465778},{"name":"東村山市立第四保育園","province":"東京都","city":"東村山市","address":"東村山市美住町1-4-19","lat":35.749289,"lon":139.464839},{"name":"つぼみ保育園","province":"東京都","city":"東村山市","address":"東村山市富士見町2-2-2","lat":35.744922,"lon":139.451777},{"name":"ふじみ保育園","province":"東京都","city":"東村山市","address":"東村山市富士見町2-7-5","lat":35.740203,"lon":139.452535},{"name":"東村山むさしの第二認定こども園","province":"東京都","city":"東村山市","address":"東村山市廻田町2-14-1","lat":35.754132,"lon":139.448688},{"name":"東村山市立第三保育園","province":"東京都","city":"東村山市","address":"東村山市多摩湖町1-23-4","lat":35.763703,"lon":139.452159},{"name":"東たいてん保育園","province":"東京都","city":"東村山市","address":"東村山市多摩湖町1-14-2","lat":35.76202,"lon":139.448471},{"name":"東村山市立第五保育園","province":"東京都","city":"東村山市","address":"東村山市秋津町4-25-15","lat":35.779283,"lon":139.48512},{"name":"青葉さくら保育園","province":"東京都","city":"東村山市","address":"東村山市青葉町1-7-68","lat":35.75773,"lon":139.491806},{"name":"花さき保育園","province":"東京都","city":"東村山市","address":"東村山市青葉町4-1-1","lat":35.764804,"lon":139.495472},{"name":"東村山市立第六保育園","province":"東京都","city":"東村山市","address":"東村山市久米川町4-4-10","lat":35.761185,"lon":139.472149},{"name":"わくわく保育園","province":"東京都","city":"東村山市","address":"東村山市久米川町1-38-4","lat":35.768112,"lon":139.48527},{"name":"あいあい保育園","province":"東京都","city":"東村山市","address":"東村山市久米川町2-44-2","lat":35.76644,"lon":139.481643},{"name":"りんごっこ保育園","province":"東京都","city":"東村山市","address":"東村山市恩多町1-55-7","lat":35.751795,"lon":139.48854},{"name":"東村山市立第二保育園","province":"東京都","city":"東村山市","address":"東村山市萩山町1-36-1","lat":35.737546,"lon":139.483433},{"name":"久米川保育園","province":"東京都","city":"東村山市","address":"東村山市萩山町5-6-1","lat":35.746978,"lon":139.479416},{"name":"東村山市立第七保育園","province":"東京都","city":"東村山市","address":"東村山市栄町1-36-51","lat":35.752597,"lon":139.477224},{"name":"いづみ愛児園","province":"東京都","city":"東村山市","address":"東村山市栄町1丁目37番地28","lat":35.751414,"lon":139.477866},{"name":"東村山市立第一保育園","province":"東京都","city":"東村山市","address":"東村山市本町4-15-16都営本町アパート6号棟1階","lat":35.753358,"lon":139.473269},{"name":"つばさ保育園","province":"東京都","city":"東村山市","address":"東村山市本町2-22-3","lat":35.759199,"lon":139.468989},{"name":"ほんちょう保育園","province":"東京都","city":"東村山市","address":"東村山市本町3-43-1","lat":35.75561,"lon":139.470444},{"name":"八国山保育園","province":"東京都","city":"東村山市","address":"東村山市野口町1-5-6","lat":35.764123,"lon":139.465778},{"name":"東村山市立第四保育園","province":"東京都","city":"東村山市","address":"東村山市美住町1-4-19","lat":35.749289,"lon":139.464839},{"name":"つぼみ保育園","province":"東京都","city":"東村山市","address":"東村山市富士見町2-2-2","lat":35.744922,"lon":139.451777},{"name":"ふじみ保育園","province":"東京都","city":"東村山市","address":"東村山市富士見町2-7-5","lat":35.740203,"lon":139.452535},{"name":"東村山むさしの第二認定こども園","province":"東京都","city":"東村山市","address":"東村山市廻田町2-14-1","lat":35.754132,"lon":139.448688},{"name":"東村山市立第三保育園","province":"東京都","city":"東村山市","address":"東村山市多摩湖町1-23-4","lat":35.763703,"lon":139.452159},{"name":"東たいてん保育園","province":"東京都","city":"東村山市","address":"東村山市多摩湖町1-14-2","lat":35.76202,"lon":139.448471},{"name":"東村山市立第五保育園","province":"東京都","city":"東村山市","address":"東村山市秋津町4-25-15","lat":35.779283,"lon":139.48512},{"name":"青葉さくら保育園","province":"東京都","city":"東村山市","address":"東村山市青葉町1-7-68","lat":35.75773,"lon":139.491806},{"name":"花さき保育園","province":"東京都","city":"東村山市","address":"東村山市青葉町4-1-1","lat":35.764804,"lon":139.495472},{"name":"東村山市立第六保育園","province":"東京都","city":"東村山市","address":"東村山市久米川町4-4-10","lat":35.761185,"lon":139.472149},{"name":"わくわく保育園","province":"東京都","city":"東村山市","address":"東村山市久米川町1-38-4","lat":35.768112,"lon":139.48527},{"name":"あいあい保育園","province":"東京都","city":"東村山市","address":"東村山市久米川町2-44-2","lat":35.76644,"lon":139.481643},{"name":"りんごっこ保育園","province":"東京都","city":"東村山市","address":"東村山市恩多町1-55-7","lat":35.751795,"lon":139.48854},{"name":"東村山市立第二保育園","province":"東京都","city":"東村山市","address":"東村山市萩山町1-36-1","lat":35.737546,"lon":139.483433},{"name":"久米川保育園","province":"東京都","city":"東村山市","address":"東村山市萩山町5-6-1","lat":35.746978,"lon":139.479416},{"name":"東村山市立第七保育園","province":"東京都","city":"東村山市","address":"東村山市栄町1-36-51","lat":35.752597,"lon":139.477224},{"name":"いづみ愛児園","province":"東京都","city":"東村山市","address":"東村山市栄町1丁目37番地28","lat":35.751414,"lon":139.477866},{"name":"東村山市立第一保育園","province":"東京都","city":"東村山市","address":"東村山市本町4-15-16都営本町アパート6号棟1階","lat":35.753358,"lon":139.473269},{"name":"つばさ保育園","province":"東京都","city":"東村山市","address":"東村山市本町2-22-3","lat":35.759199,"lon":139.468989},{"name":"ほんちょう保育園","province":"東京都","city":"東村山市","address":"東村山市本町3-43-1","lat":35.75561,"lon":139.470444},{"name":"八国山保育園","province":"東京都","city":"東村山市","address":"東村山市野口町1-5-6","lat":35.764123,"lon":139.465778},{"name":"東村山市立第四保育園","province":"東京都","city":"東村山市","address":"東村山市美住町1-4-19","lat":35.749289,"lon":139.464839},{"name":"つぼみ保育園","province":"東京都","city":"東村山市","address":"東村山市富士見町2-2-2","lat":35.744922,"lon":139.451777},{"name":"ふじみ保育園","province":"東京都","city":"東村山市","address":"東村山市富士見町2-7-5","lat":35.740203,"lon":139.452535},{"name":"東村山むさしの第二認定こども園","province":"東京都","city":"東村山市","address":"東村山市廻田町2-14-1","lat":35.754132,"lon":139.448688},{"name":"東村山市立第三保育園","province":"東京都","city":"東村山市","address":"東村山市多摩湖町1-23-4","lat":35.763703,"lon":139.452159},{"name":"東たいてん保育園","province":"東京都","city":"東村山市","address":"東村山市多摩湖町1-14-2","lat":35.76202,"lon":139.448471},{"name":"東村山市立第五保育園","province":"東京都","city":"東村山市","address":"東村山市秋津町4-25-15","lat":35.779283,"lon":139.48512},{"name":"青葉さくら保育園","province":"東京都","city":"東村山市","address":"東村山市青葉町1-7-68","lat":35.75773,"lon":139.491806},{"name":"花さき保育園","province":"東京都","city":"東村山市","address":"東村山市青葉町4-1-1","lat":35.764804,"lon":139.495472},{"name":"東村山市立第六保育園","province":"東京都","city":"東村山市","address":"東村山市久米川町4-4-10","lat":35.761185,"lon":139.472149},{"name":"わくわく保育園","province":"東京都","city":"東村山市","address":"東村山市久米川町1-38-4","lat":35.768112,"lon":139.48527},{"name":"あいあい保育園","province":"東京都","city":"東村山市","address":"東村山市久米川町2-44-2","lat":35.76644,"lon":139.481643},{"name":"りんごっこ保育園","province":"東京都","city":"東村山市","address":"東村山市恩多町1-55-7","lat":35.751795,"lon":139.48854},{"name":"東村山市立第二保育園","province":"東京都","city":"東村山市","address":"東村山市萩山町1-36-1","lat":35.737546,"lon":139.483433},{"name":"久米川保育園","province":"東京都","city":"東村山市","address":"東村山市萩山町5-6-1","lat":35.746978,"lon":139.479416},{"name":"東村山市立第七保育園","province":"東京都","city":"東村山市","address":"東村山市栄町1-36-51","lat":35.752597,"lon":139.477224},{"name":"いづみ愛児園","province":"東京都","city":"東村山市","address":"東村山市栄町1丁目37番地28","lat":35.751414,"lon":139.477866},{"name":"東村山市立第一保育園","province":"東京都","city":"東村山市","address":"東村山市本町4-15-16都営本町アパート6号棟1階","lat":35.753358,"lon":139.473269},{"name":"つばさ保育園","province":"東京都","city":"東村山市","address":"東村山市本町2-22-3","lat":35.759199,"lon":139.468989},{"name":"ほんちょう保育園","province":"東京都","city":"東村山市","address":"東村山市本町3-43-1","lat":35.75561,"lon":139.470444},{"name":"八国山保育園","province":"東京都","city":"東村山市","address":"東村山市野口町1-5-6","lat":35.764123,"lon":139.465778},{"name":"東村山市立第四保育園","province":"東京都","city":"東村山市","address":"東村山市美住町1-4-19","lat":35.749289,"lon":139.464839},{"name":"つぼみ保育園","province":"東京都","city":"東村山市","address":"東村山市富士見町2-2-2","lat":35.744922,"lon":139.451777},{"name":"ふじみ保育園","province":"東京都","city":"東村山市","address":"東村山市富士見町2-7-5","lat":35.740203,"lon":139.452535},{"name":"東村山むさしの第二認定こども園","province":"東京都","city":"東村山市","address":"東村山市廻田町2-14-1","lat":35.754132,"lon":139.448688},{"name":"東村山市立第三保育園","province":"東京都","city":"東村山市","address":"東村山市多摩湖町1-23-4","lat":35.763703,"lon":139.452159},{"name":"東たいてん保育園","province":"東京都","city":"東村山市","address":"東村山市多摩湖町1-14-2","lat":35.76202,"lon":139.448471},{"name":"東村山市立第五保育園","province":"東京都","city":"東村山市","address":"東村山市秋津町4-25-15","lat":35.779283,"lon":139.48512},{"name":"青葉さくら保育園","province":"東京都","city":"東村山市","address":"東村山市青葉町1-7-68","lat":35.75773,"lon":139.491806},{"name":"花さき保育園","province":"東京都","city":"東村山市","address":"東村山市青葉町4-1-1","lat":35.764804,"lon":139.495472},{"name":"東村山市立第六保育園","province":"東京都","city":"東村山市","address":"東村山市久米川町4-4-10","lat":35.761185,"lon":139.472149},{"name":"わくわく保育園","province":"東京都","city":"東村山市","address":"東村山市久米川町1-38-4","lat":35.768112,"lon":139.48527},{"name":"あいあい保育園","province":"東京都","city":"東村山市","address":"東村山市久米川町2-44-2","lat":35.76644,"lon":139.481643},{"name":"りんごっこ保育園","province":"東京都","city":"東村山市","address":"東村山市恩多町1-55-7","lat":35.751795,"lon":139.48854},{"name":"東村山市立第二保育園","province":"東京都","city":"東村山市","address":"東村山市萩山町1-36-1","lat":35.737546,"lon":139.483433},{"name":"久米川保育園","province":"東京都","city":"東村山市","address":"東村山市萩山町5-6-1","lat":35.746978,"lon":139.479416},{"name":"東村山市立第七保育園","province":"東京都","city":"東村山市","address":"東村山市栄町1-36-51","lat":35.752597,"lon":139.477224},{"name":"いづみ愛児園","province":"東京都","city":"東村山市","address":"東村山市栄町1丁目37番地28","lat":35.751414,"lon":139.477866},{"name":"東村山市立第一保育園","province":"東京都","city":"東村山市","address":"東村山市本町4-15-16都営本町アパート6号棟1階","lat":35.753358,"lon":139.473269},{"name":"つばさ保育園","province":"東京都","city":"東村山市","address":"東村山市本町2-22-3","lat":35.759199,"lon":139.468989},{"name":"ほんちょう保育園","province":"東京都","city":"東村山市","address":"東村山市本町3-43-1","lat":35.75561,"lon":139.470444},{"name":"八国山保育園","province":"東京都","city":"東村山市","address":"東村山市野口町1-5-6","lat":35.764123,"lon":139.465778},{"name":"東村山市立第四保育園","province":"東京都","city":"東村山市","address":"東村山市美住町1-4-19","lat":35.749289,"lon":139.464839},{"name":"つぼみ保育園","province":"東京都","city":"東村山市","address":"東村山市富士見町2-2-2","lat":35.744922,"lon":139.451777},{"name":"ふじみ保育園","province":"東京都","city":"東村山市","address":"東村山市富士見町2-7-5","lat":35.740203,"lon":139.452535},{"name":"東村山むさしの第二認定こども園","province":"東京都","city":"東村山市","address":"東村山市廻田町2-14-1","lat":35.754132,"lon":139.448688},{"name":"東村山市立第三保育園","province":"東京都","city":"東村山市","address":"東村山市多摩湖町1-23-4","lat":35.763703,"lon":139.452159},{"name":"東たいてん保育園","province":"東京都","city":"東村山市","address":"東村山市多摩湖町1-14-2","lat":35.76202,"lon":139.448471},{"name":"東村山市立第五保育園","province":"東京都","city":"東村山市","address":"東村山市秋津町4-25-15","lat":35.779283,"lon":139.48512},{"name":"青葉さくら保育園","province":"東京都","city":"東村山市","address":"東村山市青葉町1-7-68","lat":35.75773,"lon":139.491806},{"name":"花さき保育園","province":"東京都","city":"東村山市","address":"東村山市青葉町4-1-1","lat":35.764804,"lon":139.495472},{"name":"東村山市立第六保育園","province":"東京都","city":"東村山市","address":"東村山市久米川町4-4-10","lat":35.761185,"lon":139.472149},{"name":"わくわく保育園","province":"東京都","city":"東村山市","address":"東村山市久米川町1-38-4","lat":35.768112,"lon":139.48527},{"name":"あいあい保育園","province":"東京都","city":"東村山市","address":"東村山市久米川町2-44-2","lat":35.76644,"lon":139.481643},{"name":"りんごっこ保育園","province":"東京都","city":"東村山市","address":"東村山市恩多町1-55-7","lat":35.751795,"lon":139.48854},{"name":"東村山市立第二保育園","province":"東京都","city":"東村山市","address":"東村山市萩山町1-36-1","lat":35.737546,"lon":139.483433},{"name":"久米川保育園","province":"東京都","city":"東村山市","address":"東村山市萩山町5-6-1","lat":35.746978,"lon":139.479416},{"name":"東村山市立第七保育園","province":"東京都","city":"東村山市","address":"東村山市栄町1-36-51","lat":35.752597,"lon":139.477224},{"name":"いづみ愛児園","province":"東京都","city":"東村山市","address":"東村山市栄町1丁目37番地28","lat":35.751414,"lon":139.477866},{"name":"東村山市立第一保育園","province":"東京都","city":"東村山市","address":"東村山市本町4-15-16都営本町アパート6号棟1階","lat":35.753358,"lon":139.473269},{"name":"つばさ保育園","province":"東京都","city":"東村山市","address":"東村山市本町2-22-3","lat":35.759199,"lon":139.468989},{"name":"ほんちょう保育園","province":"東京都","city":"東村山市","address":"東村山市本町3-43-1","lat":35.75561,"lon":139.470444},{"name":"八国山保育園","province":"東京都","city":"東村山市","address":"東村山市野口町1-5-6","lat":35.764123,"lon":139.465778},{"name":"東村山市立第四保育園","province":"東京都","city":"東村山市","address":"東村山市美住町1-4-19","lat":35.749289,"lon":139.464839},{"name":"つぼみ保育園","province":"東京都","city":"東村山市","address":"東村山市富士見町2-2-2","lat":35.744922,"lon":139.451777},{"name":"ふじみ保育園","province":"東京都","city":"東村山市","address":"東村山市富士見町2-7-5","lat":35.740203,"lon":139.452535},{"name":"東村山むさしの第二認定こども園","province":"東京都","city":"東村山市","address":"東村山市廻田町2-14-1","lat":35.754132,"lon":139.448688},{"name":"東村山市立第三保育園","province":"東京都","city":"東村山市","address":"東村山市多摩湖町1-23-4","lat":35.763703,"lon":139.452159},{"name":"東たいてん保育園","province":"東京都","city":"東村山市","address":"東村山市多摩湖町1-14-2","lat":35.76202,"lon":139.448471},{"name":"東村山市立第五保育園","province":"東京都","city":"東村山市","address":"東村山市秋津町4-25-15","lat":35.779283,"lon":139.48512},{"name":"青葉さくら保育園","province":"東京都","city":"東村山市","address":"東村山市青葉町1-7-68","lat":35.75773,"lon":139.491806},{"name":"花さき保育園","province":"東京都","city":"東村山市","address":"東村山市青葉町4-1-1","lat":35.764804,"lon":139.495472},{"name":"東村山市立第六保育園","province":"東京都","city":"東村山市","address":"東村山市久米川町4-4-10","lat":35.761185,"lon":139.472149},{"name":"わくわく保育園","province":"東京都","city":"東村山市","address":"東村山市久米川町1-38-4","lat":35.768112,"lon":139.48527},{"name":"あいあい保育園","province":"東京都","city":"東村山市","address":"東村山市久米川町2-44-2","lat":35.76644,"lon":139.481643},{"name":"りんごっこ保育園","province":"東京都","city":"東村山市","address":"東村山市恩多町1-55-7","lat":35.751795,"lon":139.48854},{"name":"東村山市立第二保育園","province":"東京都","city":"東村山市","address":"東村山市萩山町1-36-1","lat":35.737546,"lon":139.483433},{"name":"久米川保育園","province":"東京都","city":"東村山市","address":"東村山市萩山町5-6-1","lat":35.746978,"lon":139.479416},{"name":"東村山市立第七保育園","province":"東京都","city":"東村山市","address":"東村山市栄町1-36-51","lat":35.752597,"lon":139.477224},{"name":"いづみ愛児園","province":"東京都","city":"東村山市","address":"東村山市栄町1丁目37番地28","lat":35.751414,"lon":139.477866},{"name":"東村山市立第一保育園","province":"東京都","city":"東村山市","address":"東村山市本町4-15-16都営本町アパート6号棟1階","lat":35.753358,"lon":139.473269},{"name":"つばさ保育園","province":"東京都","city":"東村山市","address":"東村山市本町2-22-3","lat":35.759199,"lon":139.468989},{"name":"ほんちょう保育園","province":"東京都","city":"東村山市","address":"東村山市本町3-43-1","lat":35.75561,"lon":139.470444},{"name":"八国山保育園","province":"東京都","city":"東村山市","address":"東村山市野口町1-5-6","lat":35.764123,"lon":139.465778},{"name":"東村山市立第四保育園","province":"東京都","city":"東村山市","address":"東村山市美住町1-4-19","lat":35.749289,"lon":139.464839},{"name":"つぼみ保育園","province":"東京都","city":"東村山市","address":"東村山市富士見町2-2-2","lat":35.744922,"lon":139.451777},{"name":"ふじみ保育園","province":"東京都","city":"東村山市","address":"東村山市富士見町2-7-5","lat":35.740203,"lon":139.452535},{"name":"東村山むさしの第二認定こども園","province":"東京都","city":"東村山市","address":"東村山市廻田町2-14-1","lat":35.754132,"lon":139.448688},{"name":"東村山市立第三保育園","province":"東京都","city":"東村山市","address":"東村山市多摩湖町1-23-4","lat":35.763703,"lon":139.452159},{"name":"東たいてん保育園","province":"東京都","city":"東村山市","address":"東村山市多摩湖町1-14-2","lat":35.76202,"lon":139.448471},{"name":"東村山市立第五保育園","province":"東京都","city":"東村山市","address":"東村山市秋津町4-25-15","lat":35.779283,"lon":139.48512},{"name":"青葉さくら保育園","province":"東京都","city":"東村山市","address":"東村山市青葉町1-7-68","lat":35.75773,"lon":139.491806},{"name":"花さき保育園","province":"東京都","city":"東村山市","address":"東村山市青葉町4-1-1","lat":35.764804,"lon":139.495472},{"name":"東村山市立第六保育園","province":"東京都","city":"東村山市","address":"東村山市久米川町4-4-10","lat":35.761185,"lon":139.472149},{"name":"わくわく保育園","province":"東京都","city":"東村山市","address":"東村山市久米川町1-38-4","lat":35.768112,"lon":139.48527},{"name":"あいあい保育園","province":"東京都","city":"東村山市","address":"東村山市久米川町2-44-2","lat":35.76644,"lon":139.481643},{"name":"りんごっこ保育園","province":"東京都","city":"東村山市","address":"東村山市恩多町1-55-7","lat":35.751795,"lon":139.48854},{"name":"東村山市立第二保育園","province":"東京都","city":"東村山市","address":"東村山市萩山町1-36-1","lat":35.737546,"lon":139.483433},{"name":"久米川保育園","province":"東京都","city":"東村山市","address":"東村山市萩山町5-6-1","lat":35.746978,"lon":139.479416},{"name":"東村山市立第七保育園","province":"東京都","city":"東村山市","address":"東村山市栄町1-36-51","lat":35.752597,"lon":139.477224},{"name":"いづみ愛児園","province":"東京都","city":"東村山市","address":"東村山市栄町1丁目37番地28","lat":35.751414,"lon":139.477866},{"name":"東村山市立第一保育園","province":"東京都","city":"東村山市","address":"東村山市本町4-15-16都営本町アパート6号棟1階","lat":35.753358,"lon":139.473269},{"name":"つばさ保育園","province":"東京都","city":"東村山市","address":"東村山市本町2-22-3","lat":35.759199,"lon":139.468989},{"name":"ほんちょう保育園","province":"東京都","city":"東村山市","address":"東村山市本町3-43-1","lat":35.75561,"lon":139.470444},{"name":"八国山保育園","province":"東京都","city":"東村山市","address":"東村山市野口町1-5-6","lat":35.764123,"lon":139.465778},{"name":"東村山市立第四保育園","province":"東京都","city":"東村山市","address":"東村山市美住町1-4-19","lat":35.749289,"lon":139.464839},{"name":"つぼみ保育園","province":"東京都","city":"東村山市","address":"東村山市富士見町2-2-2","lat":35.744922,"lon":139.451777},{"name":"ふじみ保育園","province":"東京都","city":"東村山市","address":"東村山市富士見町2-7-5","lat":35.740203,"lon":139.452535},{"name":"東村山むさしの第二認定こども園","province":"東京都","city":"東村山市","address":"東村山市廻田町2-14-1","lat":35.754132,"lon":139.448688},{"name":"東村山市立第三保育園","province":"東京都","city":"東村山市","address":"東村山市多摩湖町1-23-4","lat":35.763703,"lon":139.452159},{"name":"東たいてん保育園","province":"東京都","city":"東村山市","address":"東村山市多摩湖町1-14-2","lat":35.76202,"lon":139.448471},{"name":"東村山市立第五保育園","province":"東京都","city":"東村山市","address":"東村山市秋津町4-25-15","lat":35.779283,"lon":139.48512},{"name":"青葉さくら保育園","province":"東京都","city":"東村山市","address":"東村山市青葉町1-7-68","lat":35.75773,"lon":139.491806},{"name":"花さき保育園","province":"東京都","city":"東村山市","address":"東村山市青葉町4-1-1","lat":35.764804,"lon":139.495472},{"name":"東村山市立第六保育園","province":"東京都","city":"東村山市","address":"東村山市久米川町4-4-10","lat":35.761185,"lon":139.472149},{"name":"わくわく保育園","province":"東京都","city":"東村山市","address":"東村山市久米川町1-38-4","lat":35.768112,"lon":139.48527},{"name":"あいあい保育園","province":"東京都","city":"東村山市","address":"東村山市久米川町2-44-2","lat":35.76644,"lon":139.481643},{"name":"りんごっこ保育園","province":"東京都","city":"東村山市","address":"東村山市恩多町1-55-7","lat":35.751795,"lon":139.48854},{"name":"東村山市立第二保育園","province":"東京都","city":"東村山市","address":"東村山市萩山町1-36-1","lat":35.737546,"lon":139.483433},{"name":"久米川保育園","province":"東京都","city":"東村山市","address":"東村山市萩山町5-6-1","lat":35.746978,"lon":139.479416},{"name":"東村山市立第七保育園","province":"東京都","city":"東村山市","address":"東村山市栄町1-36-51","lat":35.752597,"lon":139.477224},{"name":"いづみ愛児園","province":"東京都","city":"東村山市","address":"東村山市栄町1丁目37番地28","lat":35.751414,"lon":139.477866},{"name":"東村山市立第一保育園","province":"東京都","city":"東村山市","address":"東村山市本町4-15-16都営本町アパート6号棟1階","lat":35.753358,"lon":139.473269},{"name":"つばさ保育園","province":"東京都","city":"東村山市","address":"東村山市本町2-22-3","lat":35.759199,"lon":139.468989},{"name":"ほんちょう保育園","province":"東京都","city":"東村山市","address":"東村山市本町3-43-1","lat":35.75561,"lon":139.470444},{"name":"八国山保育園","province":"東京都","city":"東村山市","address":"東村山市野口町1-5-6","lat":35.764123,"lon":139.465778},{"name":"東村山市立第四保育園","province":"東京都","city":"東村山市","address":"東村山市美住町1-4-19","lat":35.749289,"lon":139.464839},{"name":"つぼみ保育園","province":"東京都","city":"東村山市","address":"東村山市富士見町2-2-2","lat":35.744922,"lon":139.451777},{"name":"ふじみ保育園","province":"東京都","city":"東村山市","address":"東村山市富士見町2-7-5","lat":35.740203,"lon":139.452535},{"name":"東村山むさしの第二認定こども園","province":"東京都","city":"東村山市","address":"東村山市廻田町2-14-1","lat":35.754132,"lon":139.448688},{"name":"東村山市立第三保育園","province":"東京都","city":"東村山市","address":"東村山市多摩湖町1-23-4","lat":35.763703,"lon":139.452159},{"name":"東たいてん保育園","province":"東京都","city":"東村山市","address":"東村山市多摩湖町1-14-2","lat":35.76202,"lon":139.448471},{"name":"東村山市立第五保育園","province":"東京都","city":"東村山市","address":"東村山市秋津町4-25-15","lat":35.779283,"lon":139.48512},{"name":"青葉さくら保育園","province":"東京都","city":"東村山市","address":"東村山市青葉町1-7-68","lat":35.75773,"lon":139.491806},{"name":"花さき保育園","province":"東京都","city":"東村山市","address":"東村山市青葉町4-1-1","lat":35.764804,"lon":139.495472},{"name":"東村山市立第六保育園","province":"東京都","city":"東村山市","address":"東村山市久米川町4-4-10","lat":35.761185,"lon":139.472149},{"name":"わくわく保育園","province":"東京都","city":"東村山市","address":"東村山市久米川町1-38-4","lat":35.768112,"lon":139.48527},{"name":"あいあい保育園","province":"東京都","city":"東村山市","address":"東村山市久米川町2-44-2","lat":35.76644,"lon":139.481643},{"name":"りんごっこ保育園","province":"東京都","city":"東村山市","address":"東村山市恩多町1-55-7","lat":35.751795,"lon":139.48854},{"name":"東村山市立第二保育園","province":"東京都","city":"東村山市","address":"東村山市萩山町1-36-1","lat":35.737546,"lon":139.483433},{"name":"久米川保育園","province":"東京都","city":"東村山市","address":"東村山市萩山町5-6-1","lat":35.746978,"lon":139.479416},{"name":"東村山市立第七保育園","province":"東京都","city":"東村山市","address":"東村山市栄町1-36-51","lat":35.752597,"lon":139.477224},{"name":"いづみ愛児園","province":"東京都","city":"東村山市","address":"東村山市栄町1丁目37番地28","lat":35.751414,"lon":139.477866},{"name":"東村山市立第一保育園","province":"東京都","city":"東村山市","address":"東村山市本町4-15-16都営本町アパート6号棟1階","lat":35.753358,"lon":139.473269},{"name":"つばさ保育園","province":"東京都","city":"東村山市","address":"東村山市本町2-22-3","lat":35.759199,"lon":139.468989},{"name":"ほんちょう保育園","province":"東京都","city":"東村山市","address":"東村山市本町3-43-1","lat":35.75561,"lon":139.470444},{"name":"八国山保育園","province":"東京都","city":"東村山市","address":"東村山市野口町1-5-6","lat":35.764123,"lon":139.465778},{"name":"東村山市立第四保育園","province":"東京都","city":"東村山市","address":"東村山市美住町1-4-19","lat":35.749289,"lon":139.464839},{"name":"つぼみ保育園","province":"東京都","city":"東村山市","address":"東村山市富士見町2-2-2","lat":35.744922,"lon":139.451777},{"name":"ふじみ保育園","province":"東京都","city":"東村山市","address":"東村山市富士見町2-7-5","lat":35.740203,"lon":139.452535},{"name":"東村山むさしの第二認定こども園","province":"東京都","city":"東村山市","address":"東村山市廻田町2-14-1","lat":35.754132,"lon":139.448688},{"name":"東村山市立第三保育園","province":"東京都","city":"東村山市","address":"東村山市多摩湖町1-23-4","lat":35.763703,"lon":139.452159},{"name":"東たいてん保育園","province":"東京都","city":"東村山市","address":"東村山市多摩湖町1-14-2","lat":35.76202,"lon":139.448471},{"name":"東村山市立第五保育園","province":"東京都","city":"東村山市","address":"東村山市秋津町4-25-15","lat":35.779283,"lon":139.48512},{"name":"青葉さくら保育園","province":"東京都","city":"東村山市","address":"東村山市青葉町1-7-68","lat":35.75773,"lon":139.491806},{"name":"花さき保育園","province":"東京都","city":"東村山市","address":"東村山市青葉町4-1-1","lat":35.764804,"lon":139.495472},{"name":"東村山市立第六保育園","province":"東京都","city":"東村山市","address":"東村山市久米川町4-4-10","lat":35.761185,"lon":139.472149},{"name":"わくわく保育園","province":"東京都","city":"東村山市","address":"東村山市久米川町1-38-4","lat":35.768112,"lon":139.48527},{"name":"あいあい保育園","province":"東京都","city":"東村山市","address":"東村山市久米川町2-44-2","lat":35.76644,"lon":139.481643},{"name":"りんごっこ保育園","province":"東京都","city":"東村山市","address":"東村山市恩多町1-55-7","lat":35.751795,"lon":139.48854},{"name":"東村山市立第二保育園","province":"東京都","city":"東村山市","address":"東村山市萩山町1-36-1","lat":35.737546,"lon":139.483433},{"name":"久米川保育園","province":"東京都","city":"東村山市","address":"東村山市萩山町5-6-1","lat":35.746978,"lon":139.479416},{"name":"東村山市立第七保育園","province":"東京都","city":"東村山市","address":"東村山市栄町1-36-51","lat":35.752597,"lon":139.477224},{"name":"いづみ愛児園","province":"東京都","city":"東村山市","address":"東村山市栄町1丁目37番地28","lat":35.751414,"lon":139.477866},{"name":"東村山市立第一保育園","province":"東京都","city":"東村山市","address":"東村山市本町4-15-16都営本町アパート6号棟1階","lat":35.753358,"lon":139.473269},{"name":"つばさ保育園","province":"東京都","city":"東村山市","address":"東村山市本町2-22-3","lat":35.759199,"lon":139.468989},{"name":"ほんちょう保育園","province":"東京都","city":"東村山市","address":"東村山市本町3-43-1","lat":35.75561,"lon":139.470444},{"name":"八国山保育園","province":"東京都","city":"東村山市","address":"東村山市野口町1-5-6","lat":35.764123,"lon":139.465778},{"name":"東村山市立第四保育園","province":"東京都","city":"東村山市","address":"東村山市美住町1-4-19","lat":35.749289,"lon":139.464839},{"name":"つぼみ保育園","province":"東京都","city":"東村山市","address":"東村山市富士見町2-2-2","lat":35.744922,"lon":139.451777},{"name":"ふじみ保育園","province":"東京都","city":"東村山市","address":"東村山市富士見町2-7-5","lat":35.740203,"lon":139.452535},{"name":"東村山むさしの第二認定こども園","province":"東京都","city":"東村山市","address":"東村山市廻田町2-14-1","lat":35.754132,"lon":139.448688},{"name":"東村山市立第三保育園","province":"東京都","city":"東村山市","address":"東村山市多摩湖町1-23-4","lat":35.763703,"lon":139.452159},{"name":"東たいてん保育園","province":"東京都","city":"東村山市","address":"東村山市多摩湖町1-14-2","lat":35.76202,"lon":139.448471},{"name":"東村山市立第五保育園","province":"東京都","city":"東村山市","address":"東村山市秋津町4-25-15","lat":35.779283,"lon":139.48512},{"name":"青葉さくら保育園","province":"東京都","city":"東村山市","address":"東村山市青葉町1-7-68","lat":35.75773,"lon":139.491806},{"name":"花さき保育園","province":"東京都","city":"東村山市","address":"東村山市青葉町4-1-1","lat":35.764804,"lon":139.495472},{"name":"東村山市立第六保育園","province":"東京都","city":"東村山市","address":"東村山市久米川町4-4-10","lat":35.761185,"lon":139.472149},{"name":"わくわく保育園","province":"東京都","city":"東村山市","address":"東村山市久米川町1-38-4","lat":35.768112,"lon":139.48527},{"name":"あいあい保育園","province":"東京都","city":"東村山市","address":"東村山市久米川町2-44-2","lat":35.76644,"lon":139.481643},{"name":"りんごっこ保育園","province":"東京都","city":"東村山市","address":"東村山市恩多町1-55-7","lat":35.751795,"lon":139.48854},{"name":"東村山市立第二保育園","province":"東京都","city":"東村山市","address":"東村山市萩山町1-36-1","lat":35.737546,"lon":139.483433},{"name":"久米川保育園","province":"東京都","city":"東村山市","address":"東村山市萩山町5-6-1","lat":35.746978,"lon":139.479416},{"name":"東村山市立第七保育園","province":"東京都","city":"東村山市","address":"東村山市栄町1-36-51","lat":35.752597,"lon":139.477224},{"name":"いづみ愛児園","province":"東京都","city":"東村山市","address":"東村山市栄町1丁目37番地28","lat":35.751414,"lon":139.477866},{"name":"東村山市立第一保育園","province":"東京都","city":"東村山市","address":"東村山市本町4-15-16都営本町アパート6号棟1階","lat":35.753358,"lon":139.473269},{"name":"つばさ保育園","province":"東京都","city":"東村山市","address":"東村山市本町2-22-3","lat":35.759199,"lon":139.468989},{"name":"ほんちょう保育園","province":"東京都","city":"東村山市","address":"東村山市本町3-43-1","lat":35.75561,"lon":139.470444},{"name":"八国山保育園","province":"東京都","city":"東村山市","address":"東村山市野口町1-5-6","lat":35.764123,"lon":139.465778},{"name":"東村山市立第四保育園","province":"東京都","city":"東村山市","address":"東村山市美住町1-4-19","lat":35.749289,"lon":139.464839},{"name":"つぼみ保育園","province":"東京都","city":"東村山市","address":"東村山市富士見町2-2-2","lat":35.744922,"lon":139.451777},{"name":"ふじみ保育園","province":"東京都","city":"東村山市","address":"東村山市富士見町2-7-5","lat":35.740203,"lon":139.452535},{"name":"東村山むさしの第二認定こども園","province":"東京都","city":"東村山市","address":"東村山市廻田町2-14-1","lat":35.754132,"lon":139.448688},{"name":"東村山市立第三保育園","province":"東京都","city":"東村山市","address":"東村山市多摩湖町1-23-4","lat":35.763703,"lon":139.452159},{"name":"東たいてん保育園","province":"東京都","city":"東村山市","address":"東村山市多摩湖町1-14-2","lat":35.76202,"lon":139.448471},{"name":"東村山市立第五保育園","province":"東京都","city":"東村山市","address":"東村山市秋津町4-25-15","lat":35.779283,"lon":139.48512},{"name":"青葉さくら保育園","province":"東京都","city":"東村山市","address":"東村山市青葉町1-7-68","lat":35.75773,"lon":139.491806},{"name":"花さき保育園","province":"東京都","city":"東村山市","address":"東村山市青葉町4-1-1","lat":35.764804,"lon":139.495472},{"name":"東村山市立第六保育園","province":"東京都","city":"東村山市","address":"東村山市久米川町4-4-10","lat":35.761185,"lon":139.472149},{"name":"わくわく保育園","province":"東京都","city":"東村山市","address":"東村山市久米川町1-38-4","lat":35.768112,"lon":139.48527},{"name":"あいあい保育園","province":"東京都","city":"東村山市","address":"東村山市久米川町2-44-2","lat":35.76644,"lon":139.481643},{"name":"りんごっこ保育園","province":"東京都","city":"東村山市","address":"東村山市恩多町1-55-7","lat":35.751795,"lon":139.48854},{"name":"東村山市立第二保育園","province":"東京都","city":"東村山市","address":"東村山市萩山町1-36-1","lat":35.737546,"lon":139.483433},{"name":"久米川保育園","province":"東京都","city":"東村山市","address":"東村山市萩山町5-6-1","lat":35.746978,"lon":139.479416},{"name":"東村山市立第七保育園","province":"東京都","city":"東村山市","address":"東村山市栄町1-36-51","lat":35.752597,"lon":139.477224},{"name":"いづみ愛児園","province":"東京都","city":"東村山市","address":"東村山市栄町1丁目37番地28","lat":35.751414,"lon":139.477866},{"name":"東村山市立第一保育園","province":"東京都","city":"東村山市","address":"東村山市本町4-15-16都営本町アパート6号棟1階","lat":35.753358,"lon":139.473269},{"name":"つばさ保育園","province":"東京都","city":"東村山市","address":"東村山市本町2-22-3","lat":35.759199,"lon":139.468989},{"name":"ほんちょう保育園","province":"東京都","city":"東村山市","address":"東村山市本町3-43-1","lat":35.75561,"lon":139.470444},{"name":"八国山保育園","province":"東京都","city":"東村山市","address":"東村山市野口町1-5-6","lat":35.764123,"lon":139.465778},{"name":"東村山市立第四保育園","province":"東京都","city":"東村山市","address":"東村山市美住町1-4-19","lat":35.749289,"lon":139.464839},{"name":"つぼみ保育園","province":"東京都","city":"東村山市","address":"東村山市富士見町2-2-2","lat":35.744922,"lon":139.451777},{"name":"ふじみ保育園","province":"東京都","city":"東村山市","address":"東村山市富士見町2-7-5","lat":35.740203,"lon":139.452535},{"name":"東村山むさしの第二認定こども園","province":"東京都","city":"東村山市","address":"東村山市廻田町2-14-1","lat":35.754132,"lon":139.448688},{"name":"東村山市立第三保育園","province":"東京都","city":"東村山市","address":"東村山市多摩湖町1-23-4","lat":35.763703,"lon":139.452159},{"name":"東たいてん保育園","province":"東京都","city":"東村山市","address":"東村山市多摩湖町1-14-2","lat":35.76202,"lon":139.448471},{"name":"東村山市立第五保育園","province":"東京都","city":"東村山市","address":"東村山市秋津町4-25-15","lat":35.779283,"lon":139.48512},{"name":"青葉さくら保育園","province":"東京都","city":"東村山市","address":"東村山市青葉町1-7-68","lat":35.75773,"lon":139.491806},{"name":"花さき保育園","province":"東京都","city":"東村山市","address":"東村山市青葉町4-1-1","lat":35.764804,"lon":139.495472},{"name":"東村山市立第六保育園","province":"東京都","city":"東村山市","address":"東村山市久米川町4-4-10","lat":35.761185,"lon":139.472149},{"name":"わくわく保育園","province":"東京都","city":"東村山市","address":"東村山市久米川町1-38-4","lat":35.768112,"lon":139.48527},{"name":"あいあい保育園","province":"東京都","city":"東村山市","address":"東村山市久米川町2-44-2","lat":35.76644,"lon":139.481643},{"name":"りんごっこ保育園","province":"東京都","city":"東村山市","address":"東村山市恩多町1-55-7","lat":35.751795,"lon":139.48854},{"name":"東村山市立第二保育園","province":"東京都","city":"東村山市","address":"東村山市萩山町1-36-1","lat":35.737546,"lon":139.483433},{"name":"久米川保育園","province":"東京都","city":"東村山市","address":"東村山市萩山町5-6-1","lat":35.746978,"lon":139.479416},{"name":"東村山市立第七保育園","province":"東京都","city":"東村山市","address":"東村山市栄町1-36-51","lat":35.752597,"lon":139.477224},{"name":"いづみ愛児園","province":"東京都","city":"東村山市","address":"東村山市栄町1丁目37番地28","lat":35.751414,"lon":139.477866},{"name":"東村山市立第一保育園","province":"東京都","city":"東村山市","address":"東村山市本町4-15-16都営本町アパート6号棟1階","lat":35.753358,"lon":139.473269},{"name":"つばさ保育園","province":"東京都","city":"東村山市","address":"東村山市本町2-22-3","lat":35.759199,"lon":139.468989},{"name":"ほんちょう保育園","province":"東京都","city":"東村山市","address":"東村山市本町3-43-1","lat":35.75561,"lon":139.470444},{"name":"八国山保育園","province":"東京都","city":"東村山市","address":"東村山市野口町1-5-6","lat":35.764123,"lon":139.465778},{"name":"東村山市立第四保育園","province":"東京都","city":"東村山市","address":"東村山市美住町1-4-19","lat":35.749289,"lon":139.464839},{"name":"つぼみ保育園","province":"東京都","city":"東村山市","address":"東村山市富士見町2-2-2","lat":35.744922,"lon":139.451777},{"name":"ふじみ保育園","province":"東京都","city":"東村山市","address":"東村山市富士見町2-7-5","lat":35.740203,"lon":139.452535},{"name":"東村山むさしの第二認定こども園","province":"東京都","city":"東村山市","address":"東村山市廻田町2-14-1","lat":35.754132,"lon":139.448688},{"name":"東村山市立第三保育園","province":"東京都","city":"東村山市","address":"東村山市多摩湖町1-23-4","lat":35.763703,"lon":139.452159},{"name":"東たいてん保育園","province":"東京都","city":"東村山市","address":"東村山市多摩湖町1-14-2","lat":35.76202,"lon":139.448471},{"name":"東村山市立第五保育園","province":"東京都","city":"東村山市","address":"東村山市秋津町4-25-15","lat":35.779283,"lon":139.48512},{"name":"青葉さくら保育園","province":"東京都","city":"東村山市","address":"東村山市青葉町1-7-68","lat":35.75773,"lon":139.491806},{"name":"花さき保育園","province":"東京都","city":"東村山市","address":"東村山市青葉町4-1-1","lat":35.764804,"lon":139.495472},{"name":"東村山市立第六保育園","province":"東京都","city":"東村山市","address":"東村山市久米川町4-4-10","lat":35.761185,"lon":139.472149},{"name":"わくわく保育園","province":"東京都","city":"東村山市","address":"東村山市久米川町1-38-4","lat":35.768112,"lon":139.48527},{"name":"あいあい保育園","province":"東京都","city":"東村山市","address":"東村山市久米川町2-44-2","lat":35.76644,"lon":139.481643},{"name":"りんごっこ保育園","province":"東京都","city":"東村山市","address":"東村山市恩多町1-55-7","lat":35.751795,"lon":139.48854},{"name":"東村山市立第二保育園","province":"東京都","city":"東村山市","address":"東村山市萩山町1-36-1","lat":35.737546,"lon":139.483433},{"name":"久米川保育園","province":"東京都","city":"東村山市","address":"東村山市萩山町5-6-1","lat":35.746978,"lon":139.479416},{"name":"東村山市立第七保育園","province":"東京都","city":"東村山市","address":"東村山市栄町1-36-51","lat":35.752597,"lon":139.477224},{"name":"いづみ愛児園","province":"東京都","city":"東村山市","address":"東村山市栄町1丁目37番地28","lat":35.751414,"lon":139.477866},{"name":"東村山市立第一保育園","province":"東京都","city":"東村山市","address":"東村山市本町4-15-16都営本町アパート6号棟1階","lat":35.753358,"lon":139.473269},{"name":"つばさ保育園","province":"東京都","city":"東村山市","address":"東村山市本町2-22-3","lat":35.759199,"lon":139.468989},{"name":"ほんちょう保育園","province":"東京都","city":"東村山市","address":"東村山市本町3-43-1","lat":35.75561,"lon":139.470444},{"name":"八国山保育園","province":"東京都","city":"東村山市","address":"東村山市野口町1-5-6","lat":35.764123,"lon":139.465778},{"name":"東村山市立第四保育園","province":"東京都","city":"東村山市","address":"東村山市美住町1-4-19","lat":35.749289,"lon":139.464839},{"name":"つぼみ保育園","province":"東京都","city":"東村山市","address":"東村山市富士見町2-2-2","lat":35.744922,"lon":139.451777},{"name":"ふじみ保育園","province":"東京都","city":"東村山市","address":"東村山市富士見町2-7-5","lat":35.740203,"lon":139.452535},{"name":"東村山むさしの第二認定こども園","province":"東京都","city":"東村山市","address":"東村山市廻田町2-14-1","lat":35.754132,"lon":139.448688},{"name":"東村山市立第三保育園","province":"東京都","city":"東村山市","address":"東村山市多摩湖町1-23-4","lat":35.763703,"lon":139.452159},{"name":"東たいてん保育園","province":"東京都","city":"東村山市","address":"東村山市多摩湖町1-14-2","lat":35.76202,"lon":139.448471},{"name":"東村山市立第五保育園","province":"東京都","city":"東村山市","address":"東村山市秋津町4-25-15","lat":35.779283,"lon":139.48512},{"name":"青葉さくら保育園","province":"東京都","city":"東村山市","address":"東村山市青葉町1-7-68","lat":35.75773,"lon":139.491806},{"name":"花さき保育園","province":"東京都","city":"東村山市","address":"東村山市青葉町4-1-1","lat":35.764804,"lon":139.495472},{"name":"東村山市立第六保育園","province":"東京都","city":"東村山市","address":"東村山市久米川町4-4-10","lat":35.761185,"lon":139.472149},{"name":"わくわく保育園","province":"東京都","city":"東村山市","address":"東村山市久米川町1-38-4","lat":35.768112,"lon":139.48527},{"name":"あいあい保育園","province":"東京都","city":"東村山市","address":"東村山市久米川町2-44-2","lat":35.76644,"lon":139.481643},{"name":"りんごっこ保育園","province":"東京都","city":"東村山市","address":"東村山市恩多町1-55-7","lat":35.751795,"lon":139.48854},{"name":"東村山市立第二保育園","province":"東京都","city":"東村山市","address":"東村山市萩山町1-36-1","lat":35.737546,"lon":139.483433},{"name":"久米川保育園","province":"東京都","city":"東村山市","address":"東村山市萩山町5-6-1","lat":35.746978,"lon":139.479416},{"name":"東村山市立第七保育園","province":"東京都","city":"東村山市","address":"東村山市栄町1-36-51","lat":35.752597,"lon":139.477224},{"name":"いづみ愛児園","province":"東京都","city":"東村山市","address":"東村山市栄町1丁目37番地28","lat":35.751414,"lon":139.477866},{"name":"東村山市立第一保育園","province":"東京都","city":"東村山市","address":"東村山市本町4-15-16都営本町アパート6号棟1階","lat":35.753358,"lon":139.473269},{"name":"つばさ保育園","province":"東京都","city":"東村山市","address":"東村山市本町2-22-3","lat":35.759199,"lon":139.468989},{"name":"ほんちょう保育園","province":"東京都","city":"東村山市","address":"東村山市本町3-43-1","lat":35.75561,"lon":139.470444},{"name":"八国山保育園","province":"東京都","city":"東村山市","address":"東村山市野口町1-5-6","lat":35.764123,"lon":139.465778},{"name":"東村山市立第四保育園","province":"東京都","city":"東村山市","address":"東村山市美住町1-4-19","lat":35.749289,"lon":139.464839},{"name":"つぼみ保育園","province":"東京都","city":"東村山市","address":"東村山市富士見町2-2-2","lat":35.744922,"lon":139.451777},{"name":"ふじみ保育園","province":"東京都","city":"東村山市","address":"東村山市富士見町2-7-5","lat":35.740203,"lon":139.452535},{"name":"東村山むさしの第二認定こども園","province":"東京都","city":"東村山市","address":"東村山市廻田町2-14-1","lat":35.754132,"lon":139.448688},{"name":"東村山市立第三保育園","province":"東京都","city":"東村山市","address":"東村山市多摩湖町1-23-4","lat":35.763703,"lon":139.452159},{"name":"東たいてん保育園","province":"東京都","city":"東村山市","address":"東村山市多摩湖町1-14-2","lat":35.76202,"lon":139.448471},{"name":"東村山市立第五保育園","province":"東京都","city":"東村山市","address":"東村山市秋津町4-25-15","lat":35.779283,"lon":139.48512},{"name":"青葉さくら保育園","province":"東京都","city":"東村山市","address":"東村山市青葉町1-7-68","lat":35.75773,"lon":139.491806},{"name":"花さき保育園","province":"東京都","city":"東村山市","address":"東村山市青葉町4-1-1","lat":35.764804,"lon":139.495472},{"name":"東村山市立第六保育園","province":"東京都","city":"東村山市","address":"東村山市久米川町4-4-10","lat":35.761185,"lon":139.472149},{"name":"わくわく保育園","province":"東京都","city":"東村山市","address":"東村山市久米川町1-38-4","lat":35.768112,"lon":139.48527},{"name":"あいあい保育園","province":"東京都","city":"東村山市","address":"東村山市久米川町2-44-2","lat":35.76644,"lon":139.481643},{"name":"りんごっこ保育園","province":"東京都","city":"東村山市","address":"東村山市恩多町1-55-7","lat":35.751795,"lon":139.48854},{"name":"東村山市立第二保育園","province":"東京都","city":"東村山市","address":"東村山市萩山町1-36-1","lat":35.737546,"lon":139.483433},{"name":"久米川保育園","province":"東京都","city":"東村山市","address":"東村山市萩山町5-6-1","lat":35.746978,"lon":139.479416},{"name":"東村山市立第七保育園","province":"東京都","city":"東村山市","address":"東村山市栄町1-36-51","lat":35.752597,"lon":139.477224},{"name":"いづみ愛児園","province":"東京都","city":"東村山市","address":"東村山市栄町1丁目37番地28","lat":35.751414,"lon":139.477866},{"name":"東村山市立第一保育園","province":"東京都","city":"東村山市","address":"東村山市本町4-15-16都営本町アパート6号棟1階","lat":35.753358,"lon":139.473269},{"name":"つばさ保育園","province":"東京都","city":"東村山市","address":"東村山市本町2-22-3","lat":35.759199,"lon":139.468989},{"name":"ほんちょう保育園","province":"東京都","city":"東村山市","address":"東村山市本町3-43-1","lat":35.75561,"lon":139.470444},{"name":"八国山保育園","province":"東京都","city":"東村山市","address":"東村山市野口町1-5-6","lat":35.764123,"lon":139.465778},{"name":"東村山市立第四保育園","province":"東京都","city":"東村山市","address":"東村山市美住町1-4-19","lat":35.749289,"lon":139.464839},{"name":"つぼみ保育園","province":"東京都","city":"東村山市","address":"東村山市富士見町2-2-2","lat":35.744922,"lon":139.451777},{"name":"ふじみ保育園","province":"東京都","city":"東村山市","address":"東村山市富士見町2-7-5","lat":35.740203,"lon":139.452535},{"name":"東村山むさしの第二認定こども園","province":"東京都","city":"東村山市","address":"東村山市廻田町2-14-1","lat":35.754132,"lon":139.448688},{"name":"東村山市立第三保育園","province":"東京都","city":"東村山市","address":"東村山市多摩湖町1-23-4","lat":35.763703,"lon":139.452159},{"name":"東たいてん保育園","province":"東京都","city":"東村山市","address":"東村山市多摩湖町1-14-2","lat":35.76202,"lon":139.448471},{"name":"東村山市立第五保育園","province":"東京都","city":"東村山市","address":"東村山市秋津町4-25-15","lat":35.779283,"lon":139.48512},{"name":"青葉さくら保育園","province":"東京都","city":"東村山市","address":"東村山市青葉町1-7-68","lat":35.75773,"lon":139.491806},{"name":"花さき保育園","province":"東京都","city":"東村山市","address":"東村山市青葉町4-1-1","lat":35.764804,"lon":139.495472},{"name":"東村山市立第六保育園","province":"東京都","city":"東村山市","address":"東村山市久米川町4-4-10","lat":35.761185,"lon":139.472149},{"name":"わくわく保育園","province":"東京都","city":"東村山市","address":"東村山市久米川町1-38-4","lat":35.768112,"lon":139.48527},{"name":"あいあい保育園","province":"東京都","city":"東村山市","address":"東村山市久米川町2-44-2","lat":35.76644,"lon":139.481643},{"name":"りんごっこ保育園","province":"東京都","city":"東村山市","address":"東村山市恩多町1-55-7","lat":35.751795,"lon":139.48854},{"name":"東村山市立第二保育園","province":"東京都","city":"東村山市","address":"東村山市萩山町1-36-1","lat":35.737546,"lon":139.483433},{"name":"久米川保育園","province":"東京都","city":"東村山市","address":"東村山市萩山町5-6-1","lat":35.746978,"lon":139.479416},{"name":"東村山市立第七保育園","province":"東京都","city":"東村山市","address":"東村山市栄町1-36-51","lat":35.752597,"lon":139.477224},{"name":"いづみ愛児園","province":"東京都","city":"東村山市","address":"東村山市栄町1丁目37番地28","lat":35.751414,"lon":139.477866},{"name":"東村山市立第一保育園","province":"東京都","city":"東村山市","address":"東村山市本町4-15-16都営本町アパート6号棟1階","lat":35.753358,"lon":139.473269},{"name":"つばさ保育園","province":"東京都","city":"東村山市","address":"東村山市本町2-22-3","lat":35.759199,"lon":139.468989},{"name":"ほんちょう保育園","province":"東京都","city":"東村山市","address":"東村山市本町3-43-1","lat":35.75561,"lon":139.470444},{"name":"八国山保育園","province":"東京都","city":"東村山市","address":"東村山市野口町1-5-6","lat":35.764123,"lon":139.465778},{"name":"東村山市立第四保育園","province":"東京都","city":"東村山市","address":"東村山市美住町1-4-19","lat":35.749289,"lon":139.464839},{"name":"つぼみ保育園","province":"東京都","city":"東村山市","address":"東村山市富士見町2-2-2","lat":35.744922,"lon":139.451777},{"name":"ふじみ保育園","province":"東京都","city":"東村山市","address":"東村山市富士見町2-7-5","lat":35.740203,"lon":139.452535},{"name":"東村山むさしの第二認定こども園","province":"東京都","city":"東村山市","address":"東村山市廻田町2-14-1","lat":35.754132,"lon":139.448688},{"name":"東村山市立第三保育園","province":"東京都","city":"東村山市","address":"東村山市多摩湖町1-23-4","lat":35.763703,"lon":139.452159},{"name":"東たいてん保育園","province":"東京都","city":"東村山市","address":"東村山市多摩湖町1-14-2","lat":35.76202,"lon":139.448471}]}