{"keyword":"保育","data":[{"name":"東村山市立第五保育園","province":"東京都","city":"東村山市","address":"東村山市秋津町4-25-15","lat":35.779283,"lon":139.48512},{"name":"青葉さくら保育園","province":"東京都","city":"東村山市","address":"東村山市青葉町1-7-68","lat":35.75773,"lon":139.491806},{"name":"花さき保育園","province":"東京都","city":"東村山市","address":"東村山市青葉町4-1-1","lat":35.764804,"lon":139.495472},{"name":"東村山市立第六保育園","province":"東京都","city":"東村山市","address":"東村山市久米川町4-4-10","lat":35.761185,"lon":139.472149},{"name":"わくわく保育園","province":"東京都","city":"東村山市","address":"東村山市久米川町1-38-4","lat":35.768112,"lon":139.48527},{"name":"あいあい保育園","province":"東京都","city":"東村山市","address":"東村山市久米川町2-44-2","lat":35.76644,"lon":139.481643},{"name":"りんごっこ保育園","province":"東京都","city":"東村山市","address":"東村山市恩多町1-55-7","lat":35.751795,"lon":139.48854},{"name":"東村山市立第二保育園","province":"東京都","city":"東村山市","address":"東村山市萩山町1-36-1","lat":35.737546,"lon":139.483433},{"name":"久米川保育園","province":"東京都","city":"東村山市","address":"東村山市萩山町5-6-1","lat":35.746978,"lon":139.479416},{"name":"東村山市立第七保育園","province":"東京都","city":"東村山市","address":"東村山市栄町1-36-51","lat":35.752597,"lon":139.477224},{"name":"いづみ愛児園","province":"東京都","city":"東村山市","address":"東村山市栄町1丁目37番地28","lat":35.751414,"lon":139.477866},{"name":"東村山市立第一保育園","province":"東京都","city":"東村山市","address":"東村山市本町4-15-16都営本町アパート6号棟1階","lat":35.753358,"lon":139.473269},{"name":"つばさ保育園","province":"東京都","city":"東村山市","address":"東村山市本町2-22-3","lat":35.759199,"lon":139.468989},{"name":"ほんちょう保育園","province":"東京都","city":"東村山市","address":"東村山市本町3-43-1","lat":35.75561,"lon":139.470444},{"name":"八国山保育園","province":"東京都","city":"東村山市","address":"東村山市野口町1-5-6","lat":35.764123,"lon":139.465778},{"name":"東村山市立第四保育園","province":"東京都","city":"東村山市","address":"東村山市美住町1-4-19","lat":35.749289,"lon":139.464839},{"name":"つぼみ保育園","province":"東京都","city":"東村山市","address":"東村山市富士見町2-2-2","lat":35.744922,"lon":139.451777},{"name":"ふじみ保育園","province":"東京都","city":"東村山市","address":"東村山市富士見町2-7-5","lat":35.740203,"lon":139.452535},{"name":"東村山むさしの第二認定こども園","province":"東京都","city":"東村山市","address":"東村山市廻田町2-14-1","lat":35.754132,"lon":139.448688},{"name":"東村山市立第三保育園","province":"東京都","city":"東村山市","address":"東村山市多摩湖町1-23-4","lat":35.763703,"lon":139.452159},{"name":"東たいてん保育園","province":"東京都","city":"東村山市","address":"東村山市多摩湖町1-14-2","lat":35.76202,"lon":139.448471}]}