{"keyword":"医薬","data":[{"name":"平成あおば上宮園","province":"東京都","city":"東村山市","address":"東京都東村山市青葉町1-7-75","lat":35.75954,"lon":139.49255},{"name":"市役所 本庁舎1階 総合受付横","province":"東京都","city":"東村山市","address":"東京都東村山市本町1丁目2-3","lat":35.75418,"lon":139.468301},{"name":"市役所 いきいきプラザ1階 総合窓口横","province":"東京都","city":"東村山市","address":"東京都東村山市本町1丁目2-3","lat":35.75418,"lon":139.468301},{"name":"市民センター1階 入口付近","province":"東京都","city":"東村山市","address":"東京都東村山市本町1丁目1-1","lat":35.755291,"lon":139.46753},{"name":"東村山駅西口サンパルネ3階 健康・交流フロア","province":"東京都","city":"東村山市","address":"東京都東村山市野口町1丁目46","lat":35.759997,"lon":139.465323},{"name":"秋水園ふれあいセンター","province":"東京都","city":"東村山市","address":"東京都東村山市秋津町4丁目24-12","lat":35.77929,"lon":139.485947},{"name":"多摩湖ふれあいセンター","province":"東京都","city":"東村山市","address":"東京都東村山市多摩湖町1丁目18-16","lat":35.764064,"lon":139.449143},{"name":"恩多ふれあいセンター","province":"東京都","city":"東村山市","address":"東京都東村山市恩多町5丁目40-1","lat":35.757291,"lon":139.490009},{"name":"栄町ふれあいセンター","province":"東京都","city":"東村山市","address":"東京都東村山市栄町2丁目25-5","lat":35.747752,"lon":139.47242},{"name":"久米川ふれあいセンター","province":"東京都","city":"東村山市","address":"東京都東村山市久米川町3丁目16-4","lat":35.766096,"lon":139.474206},{"name":"青葉地域センター","province":"東京都","city":"東村山市","address":"東京都東村山市青葉町3丁目30-3","lat":35.76921,"lon":139.496263},{"name":"秋水園","province":"東京都","city":"東村山市","address":"東京都東村山市秋津町4丁目17-1","lat":35.779668,"lon":139.485337},{"name":"秋水園プール （注記）プール開放期間のみ","province":"東京都","city":"東村山市","address":"東京都東村山市秋津町4丁目17-1","lat":35.779668,"lon":139.485337},{"name":"東村山駅西口地下駐輪場","province":"東京都","city":"東村山市","address":"東京都東村山市野口町1丁目41","lat":35.761558,"lon":139.464132},{"name":"久米川駅北口地下駐輪場","province":"東京都","city":"東村山市","address":"東京都東村山市栄町1丁目3-1","lat":35.750106,"lon":139.473008},{"name":"子育て総合支援センター（地域福祉センター）","province":"東京都","city":"東村山市","address":"東京都東村山市野口町1丁目25-15","lat":35.758257,"lon":139.464253},{"name":"社会福祉センター","province":"東京都","city":"東村山市","address":"東京都東村山市諏訪町1丁目3-10","lat":35.765483,"lon":139.466712},{"name":"萩山憩いの家","province":"東京都","city":"東村山市","address":"東京都東村山市萩山町2丁目3-11","lat":35.742364,"lon":139.475627},{"name":"久米川憩いの家","province":"東京都","city":"東村山市","address":"東京都東村山市久米川町5丁目16-1","lat":35.771689,"lon":139.471999},{"name":"廻田憩いの家（第一回田児童クラブ、廻田集会所）","province":"東京都","city":"東村山市","address":"東京都東村山市廻田町3丁目12-6","lat":35.757549,"lon":139.447586},{"name":"第一保育園","province":"東京都","city":"東村山市","address":"東京都東村山市本町4丁目15-16","lat":35.75338,"lon":139.473389},{"name":"第三保育園","province":"東京都","city":"東村山市","address":"東京都東村山市多摩湖町1丁目23-4","lat":35.763727,"lon":139.452163},{"name":"第四保育園","province":"東京都","city":"東村山市","address":"東京都東村山市美住町1丁目4","lat":35.75007,"lon":139.462908},{"name":"第五保育園","province":"東京都","city":"東村山市","address":"東京都東村山市秋津町4丁目25-15","lat":35.779294,"lon":139.485108},{"name":"第七保育園","province":"東京都","city":"東村山市","address":"東京都東村山市栄町1丁目36-51","lat":35.752516,"lon":139.477233},{"name":"本町児童館","province":"東京都","city":"東村山市","address":"東京都東村山市本町4丁目19-26","lat":35.753746,"lon":139.474797},{"name":"栄町児童館","province":"東京都","city":"東村山市","address":"東京都東村山市栄町3丁目14-1","lat":35.74663,"lon":139.469211},{"name":"北山児童館","province":"東京都","city":"東村山市","address":"東京都東村山市野口町3丁目26-2","lat":35.765104,"lon":139.453386},{"name":"秋津児童館","province":"東京都","city":"東村山市","address":"東京都東村山市秋津町3丁目51-25","lat":35.773334,"lon":139.483478},{"name":"第1久米川児童クラブ","province":"東京都","city":"東村山市","address":"東京都東村山市久米川町4丁目11-19","lat":35.761767,"lon":139.473034},{"name":"久米川東児童クラブ","province":"東京都","city":"東村山市","address":"東京都東村山市久米川町2丁目44-3","lat":35.766236,"lon":139.481497},{"name":"第1・第2秋津東児童クラブ","province":"東京都","city":"東村山市","address":"東京都東村山市秋津町4丁目35-68","lat":35.774677,"lon":139.489323},{"name":"第1・第2青葉児童クラブ","province":"東京都","city":"東村山市","address":"東京都東村山市青葉町2丁目35-11","lat":35.764264,"lon":139.488665},{"name":"第1野火止児童クラブ","province":"東京都","city":"東村山市","address":"東京都東村山市恩多町5丁目45-4","lat":35.756596,"lon":139.48673},{"name":"第1東萩山児童クラブ","province":"東京都","city":"東村山市","address":"東京都東村山市萩山町5丁目7-18","lat":35.746268,"lon":139.477317},{"name":"第1・第2萩山児童クラブ","province":"東京都","city":"東村山市","address":"東京都東村山市萩山町4丁目16-5","lat":35.743035,"lon":139.478656},{"name":"富士見児童クラブ","province":"東京都","city":"東村山市","address":"東京都東村山市富士見町5丁目4-56","lat":35.747287,"lon":139.457986},{"name":"南台児童クラブ","province":"東京都","city":"東村山市","address":"東京都東村山市富士見町1丁目16-1","lat":35.744493,"lon":139.456483},{"name":"第1化成児童クラブ","province":"東京都","city":"東村山市","address":"東京都東村山市諏訪町1丁目4-1","lat":35.764986,"lon":139.465841},{"name":"美住リサイクルショップ","province":"東京都","city":"東村山市","address":"東京都東村山市美住町2丁目11-32","lat":35.757021,"lon":139.461892},{"name":"中央公民館","province":"東京都","city":"東村山市","address":"東京都東村山市本町2丁目33-2","lat":35.759786,"lon":139.466863},{"name":"富士見公民館（富士見児童館、富士見憩いの家）","province":"東京都","city":"東村山市","address":"東京都東村山市富士見町5丁目4-51","lat":35.746615,"lon":139.462885},{"name":"萩山公民館（萩山図書館）","province":"東京都","city":"東村山市","address":"東京都東村山市萩山町2丁目13-1","lat":35.741586,"lon":139.478676},{"name":"秋津公民館（秋津図書館）","province":"東京都","city":"東村山市","address":"東京都東村山市秋津町2丁目17-10","lat":35.771015,"lon":139.486598},{"name":"廻田公民館（廻田図書館）","province":"東京都","city":"東村山市","address":"東京都東村山市廻田町4丁目19-1","lat":35.759623,"lon":139.452093},{"name":"中央図書館","province":"東京都","city":"東村山市","address":"東京都東村山市本町1丁目1-10","lat":35.755239,"lon":139.468209},{"name":"富士見図書館","province":"東京都","city":"東村山市","address":"東京都東村山市富士見町1丁目7-35","lat":35.744004,"lon":139.461263},{"name":"市民スポーツセンター","province":"東京都","city":"東村山市","address":"東京都東村山市久米川町3丁目30-5","lat":35.761085,"lon":139.479636},{"name":"運動公園管理事務所","province":"東京都","city":"東村山市","address":"東京都東村山市恩多町1丁目51-1","lat":35.754234,"lon":139.489705},{"name":"ふるさと歴史館","province":"東京都","city":"東村山市","address":"東京都東村山市諏訪町1丁目6-3","lat":35.766268,"lon":139.466058},{"name":"八国山たいけんの里","province":"東京都","city":"東村山市","address":"東京都東村山市野口町3丁目48-1","lat":35.766135,"lon":139.454245},{"name":"東村山市シルバー人材センター","province":"東京都","city":"東村山市","address":"東京都東村山市久米川町4丁目9-19","lat":35.761612,"lon":139.469155},{"name":"化成小学校","province":"東京都","city":"東村山市","address":"東京都東村山市諏訪町1-4-1","lat":35.764986,"lon":139.465841},{"name":"回田小学校","province":"東京都","city":"東村山市","address":"東京都東村山市廻田町3-28-1","lat":35.759008,"lon":139.446259},{"name":"大岱小学校","province":"東京都","city":"東村山市","address":"東京都東村山市恩多町4-17-1","lat":35.756545,"lon":139.478064},{"name":"秋津小学校","province":"東京都","city":"東村山市","address":"東京都東村山市秋津町3-48-1","lat":35.772788,"lon":139.481994},{"name":"八坂小学校","province":"東京都","city":"東村山市","address":"東京都東村山市栄町3-34-1","lat":35.749013,"lon":139.465727},{"name":"萩山小学校","province":"東京都","city":"東村山市","address":"東京都東村山市萩山町4-16-1","lat":35.743933,"lon":139.477817},{"name":"南台小学校","province":"東京都","city":"東村山市","address":"東京都東村山市富士見町1-16-12","lat":35.74438,"lon":139.455407},{"name":"久米川小学校","province":"東京都","city":"東村山市","address":"東京都東村山市久米川町4-11-1","lat":35.762047,"lon":139.471642},{"name":"東萩山小学校","province":"東京都","city":"東村山市","address":"東京都東村山市萩山町5-7-1","lat":35.745691,"lon":139.478585},{"name":"青葉小学校","province":"東京都","city":"東村山市","address":"東京都東村山市青葉町2-33-1","lat":35.76467,"lon":139.49011},{"name":"北山小学校","province":"東京都","city":"東村山市","address":"東京都東村山市野口町3-45-1","lat":35.766343,"lon":139.455667},{"name":"秋津東小学校","province":"東京都","city":"東村山市","address":"東京都東村山市秋津町4-35-11","lat":35.774834,"lon":139.488824},{"name":"野火止小学校","province":"東京都","city":"東村山市","address":"東京都東村山市恩多町5-47-1","lat":35.75631,"lon":139.485649},{"name":"久米川東小学校","province":"東京都","city":"東村山市","address":"東京都東村山市久米川町2-40-10","lat":35.765645,"lon":139.482639},{"name":"富士見小学校","province":"東京都","city":"東村山市","address":"東京都東村山市富士見町5-4-57","lat":35.74667,"lon":139.458438},{"name":"東村山第一中学校","province":"東京都","city":"東村山市","address":"東京都東村山市富士見町1-5-2","lat":35.742164,"lon":139.459624},{"name":"東村山第二中学校","province":"東京都","city":"東村山市","address":"東京都東村山市久米川町2-4-1","lat":35.770055,"lon":139.474812},{"name":"東村山第三中学校","province":"東京都","city":"東村山市","address":"東京都東村山市萩山町5-2-1","lat":35.747922,"lon":139.476758},{"name":"東村山第三中学校萩山分校","province":"東京都","city":"東村山市","address":"東京都東村山市萩山町1-37-1","lat":35.735563,"lon":139.479658},{"name":"東村山第四中学校","province":"東京都","city":"東村山市","address":"東京都東村山市野口町3-24-1","lat":35.763999,"lon":139.453465},{"name":"東村山第五中学校","province":"東京都","city":"東村山市","address":"東京都東村山市恩多町4-38-1","lat":35.760687,"lon":139.480776},{"name":"東村山第六中学校","province":"東京都","city":"東村山市","address":"東京都東村山市秋津町2-29-14","lat":35.769799,"lon":139.48991},{"name":"東村山第七中学校","province":"東京都","city":"東村山市","address":"東京都東村山市美住町2-23-1","lat":35.755463,"lon":139.459433},{"name":"北山公園","province":"東京都","city":"東村山市","address":"東京都東村山市野口町3丁目地内、4丁目地内","lat":35.761981,"lon":139.457978},{"name":"農とみどりの体験パーク","province":"東京都","city":"東村山市","address":"東京都東村山市秋津町1-9-2","lat":35.774162,"lon":139.492967},{"name":"東村山市","province":"東京都","city":"東村山市","address":"東村山市本町1-2-3","lat":35.7546244,"lon":139.4684836},{"name":"地方独立行政法人東京都立病院機構　東京都立多摩北部医療センター","province":"東京都","city":"東村山市","address":"東京都東村山市青葉町1丁目7-1","lat":35.760727,"lon":139.493144},{"name":"東村山中央公園","province":"東京都","city":"東村山市","address":"東京都東村山市富士見町5丁目4-67","lat":35.748306,"lon":139.456941},{"name":"東村山中央公園","province":"東京都","city":"東村山市","address":"東京都東村山市富士見町5丁目4","lat":35.748598,"lon":139.458285},{"name":"東村山中央公園","province":"東京都","city":"東村山市","address":"東京都東村山市富士見町5丁目4","lat":35.747949,"lon":139.459982},{"name":"東村山中央公園","province":"東京都","city":"東村山市","address":"東京都東村山市富士見町5丁目4","lat":35.746824,"lon":139.461727},{"name":"東村山中央公園","province":"東京都","city":"東村山市","address":"東京都東村山市富士見町5丁目4","lat":35.745393,"lon":139.462797},{"name":"東村山中央公園","province":"東京都","city":"東村山市","address":"東京都東村山市富士見町5丁目4","lat":35.746425,"lon":139.46041},{"name":"八国山緑地","province":"東京都","city":"東村山市","address":"東京都東村山市諏訪町3丁目19","lat":35.76661,"lon":139.453209},{"name":"小平霊園","province":"東京都","city":"東村山市","address":"東京都東村山市萩山町1丁目16","lat":35.739773,"lon":139.485298},{"name":"小平霊園","province":"東京都","city":"東村山市","address":"東京都東村山市萩山町5丁目10","lat":35.741954,"lon":139.482579},{"name":"小平霊園","province":"東京都","city":"東村山市","address":"東京都東村山市萩山町5丁目8","lat":35.745432,"lon":139.478914},{"name":"小平霊園","province":"東京都","city":"東村山市","address":"東京都東村山市萩山町5丁目9","lat":35.745348,"lon":139.483296},{"name":"東村山市役所本庁舎","province":"東京都","city":"東村山市","address":"東京都東村山市本町1丁目2-3","lat":35.754641,"lon":139.468509},{"name":"東村山市役所いきいきプラザ","province":"東京都","city":"東村山市","address":"東京都東村山市本町1丁目2-3","lat":35.754234,"lon":139.468058},{"name":"東村山市役所いきいきプラザ","province":"東京都","city":"東村山市","address":"東京都東村山市本町1丁目2-3","lat":35.754236,"lon":139.468282},{"name":"東村山市役所北庁舎","province":"東京都","city":"東村山市","address":"東京都東村山市本町1丁目1-1","lat":35.755322,"lon":139.467378},{"name":"東村山市役所市民センター","province":"東京都","city":"東村山市","address":"東京都東村山市本町1丁目1-1","lat":35.755274,"lon":139.467951},{"name":"東村山市立中央公民館","province":"東京都","city":"東村山市","address":"東京都東村山市本町2丁目33-2","lat":35.759886,"lon":139.46698},{"name":"東村山市立萩山公民館","province":"東京都","city":"東村山市","address":"東京都東村山市萩山町2丁目13-5","lat":35.742202,"lon":139.477704},{"name":"東村山市立廻田公民館","province":"東京都","city":"東村山市","address":"東京都東村山市廻田町4丁目19-1","lat":35.759742,"lon":139.452116},{"name":"東村山市立秋津公民館","province":"東京都","city":"東村山市","address":"東京都東村山市秋津町2丁目17-10","lat":35.770958,"lon":139.486358},{"name":"東村山市立富士見文化センター","province":"東京都","city":"東村山市","address":"東京都東村山市富士見町5丁目4-51","lat":35.746511,"lon":139.462819},{"name":"東村山市立富士見文化センター","province":"東京都","city":"東村山市","address":"東京都東村山市富士見町5丁目4","lat":35.746769,"lon":139.462968},{"name":"東村山市立富士見文化センター","province":"東京都","city":"東村山市","address":"東京都東村山市富士見町5丁目4-51","lat":35.746448,"lon":139.462999},{"name":"東村山市立社会福祉センター","province":"東京都","city":"東村山市","address":"東京都東村山市諏訪町1丁目3-10","lat":35.765483,"lon":139.466698},{"name":"廻田集会所","province":"東京都","city":"東村山市","address":"東京都東村山市廻田町3丁目12-6","lat":35.75761,"lon":139.447324},{"name":"富士見第二集会所","province":"東京都","city":"東村山市","address":"東京都東村山市富士見町1丁目7-35","lat":35.744036,"lon":139.461258},{"name":"青葉地域センター","province":"東京都","city":"東村山市","address":"東京都東村山市青葉町3丁目30-3","lat":35.769235,"lon":139.496207},{"name":"東村山市立中央図書館","province":"東京都","city":"東村山市","address":"東京都東村山市本町1丁目1-10","lat":35.755318,"lon":139.468322},{"name":"東村山市立富士見図書館","province":"東京都","city":"東村山市","address":"東京都東村山市富士見町1丁目7","lat":35.743933,"lon":139.461182},{"name":"東村山市立萩山図書館","province":"東京都","city":"東村山市","address":"東京都東村山市萩山町2丁目13-5","lat":35.742153,"lon":139.477817},{"name":"東村山市立秋津図書館","province":"東京都","city":"東村山市","address":"東京都東村山市秋津町2丁目17-10","lat":35.771146,"lon":139.486629},{"name":"平和塔公園","province":"東京都","city":"東村山市","address":"東京都東村山市本町1丁目13","lat":35.754609,"lon":139.466632},{"name":"南台公園","province":"東京都","city":"東村山市","address":"東京都東村山市富士見町1丁目2","lat":35.74153,"lon":139.458727},{"name":"萩山公園","province":"東京都","city":"東村山市","address":"東京都東村山市萩山町2丁目3","lat":35.742213,"lon":139.475725},{"name":"天王森公園","province":"東京都","city":"東村山市","address":"東京都東村山市本町3丁目45","lat":35.755203,"lon":139.469471},{"name":"北山公園","province":"東京都","city":"東村山市","address":"東京都東村山市野口町4丁目50","lat":35.766375,"lon":139.459497},{"name":"美住町1丁目第3仲よし広場","province":"東京都","city":"東村山市","address":"東京都東村山市美住町1丁目4","lat":35.750135,"lon":139.464142},{"name":"野火止広場","province":"東京都","city":"東村山市","address":"東京都東村山市栄町3丁目14","lat":35.746586,"lon":139.469062},{"name":"萩山四季の森公園","province":"東京都","city":"東村山市","address":"東京都東村山市萩山町3丁目28","lat":35.743209,"lon":139.474233},{"name":"萩山第一児童遊園","province":"東京都","city":"東村山市","address":"東京都東村山市萩山町4丁目16","lat":35.743136,"lon":139.479205},{"name":"秋水園リサイクルセンター管理棟","province":"東京都","city":"東村山市","address":"東京都東村山市秋津町4丁目17","lat":35.780057,"lon":139.48442},{"name":"秋水園ふれあいセンター","province":"東京都","city":"東村山市","address":"東京都東村山市秋津町4丁目24-12","lat":35.779303,"lon":139.486051},{"name":"多摩湖ふれあいセンター","province":"東京都","city":"東村山市","address":"東京都東村山市多摩湖町1丁目18","lat":35.764063,"lon":139.449186},{"name":"廻田憩いの家","province":"東京都","city":"東村山市","address":"東京都東村山市廻田町3丁目12-6","lat":35.75761,"lon":139.447324},{"name":"富士見憩いの家","province":"東京都","city":"東村山市","address":"東京都東村山市富士見町5丁目4-51","lat":35.746542,"lon":139.462703},{"name":"萩山憩いの家","province":"東京都","city":"東村山市","address":"東京都東村山市萩山町2丁目3-11","lat":35.742331,"lon":139.475646},{"name":"恩多ふれあいセンター","province":"東京都","city":"東村山市","address":"東京都東村山市恩多町5丁目40-1","lat":35.757544,"lon":139.490847},{"name":"栄町ふれあいセンター","province":"東京都","city":"東村山市","address":"東京都東村山市栄町2丁目25-5","lat":35.747743,"lon":139.472424},{"name":"久米川ふれあいセンター","province":"東京都","city":"東村山市","address":"東京都東村山市久米川町3丁目16-4","lat":35.7661,"lon":139.474202},{"name":"東村山市民ステーションサンパルネ","province":"東京都","city":"東村山市","address":"東京都東村山市野口町1丁目46","lat":35.760175,"lon":139.465352},{"name":"東村山市民ステーションサンパルネ","province":"東京都","city":"東村山市","address":"東京都東村山市野口町1丁目46","lat":35.760127,"lon":139.465374},{"name":"八坂給水所","province":"東京都","city":"東村山市","address":"東京都東村山市富士見町5-4-46","lat":35.747356,"lon":139.458482},{"name":"東村山浄水場","province":"東京都","city":"東村山市","address":"東京都東村山市美住町2-20-236","lat":35.7532331,"lon":139.458674},{"name":"美住給水所","province":"東京都","city":"東村山市","address":"東京都東村山市美住町2-13-4","lat":35.7555303,"lon":139.461554},{"name":"市立東村山運動公園","province":"東京都","city":"東村山市","address":"東京都東村山市恩多町1-9-5","lat":35.7556996,"lon":139.4901976},{"name":"市立秋津小学校","province":"東京都","city":"東村山市","address":"東京都東村山市秋津町3-48-1","lat":35.773108,"lon":139.482144},{"name":"久米川駅南口第２駐輪場","province":"東京都","city":"東村山市","address":"東京都東村山市栄町2丁目11-13","lat":35.75087469,"lon":139.47040544},{"name":"久米川駅北口地下駐輪場","province":"東京都","city":"東村山市","address":"東京都東村山市栄町1丁目3-1","lat":35.7501304,"lon":139.47295802},{"name":"東村山駅東口第１駐輪場","province":"東京都","city":"東村山市","address":"東京都東村山市本町2丁目16-13","lat":35.76119848,"lon":139.46845798},{"name":"東村山駅東口第２駐輪場","province":"東京都","city":"東村山市","address":"東京都東村山市本町2丁目15-28","lat":35.76168732,"lon":139.46838575},{"name":"東村山駅西口地下駐輪場","province":"東京都","city":"東村山市","address":"東京都東村山市野口町3丁目1-41","lat":35.76218969,"lon":139.45838386},{"name":"新秋津駅第２駐輪場","province":"東京都","city":"東村山市","address":"東京都東村山市秋津町5丁目24-19","lat":35.77819153,"lon":139.49255002},{"name":"三井のリパーク　久米川駅前駐輪場","province":"東京都","city":"東村山市","address":"東京都東村山市栄町2丁目10","lat":35.75036365,"lon":139.47062489},{"name":"サイクルタイムズ久米川","province":"東京都","city":"東村山市","address":"東京都東村山市栄町2丁目6","lat":35.74793344,"lon":139.47342196},{"name":"Ｂ－Ｐａｒｋ24　東村山駅東口","province":"東京都","city":"東村山市","address":"東京都東村山市久米川町4丁目8-12","lat":35.76129571,"lon":139.46889961},{"name":"サイクル・インＢ－Ｐａｒｋ　東村山駅東口駐輪場","province":"東京都","city":"東村山市","address":"東京都東村山市久米川町4丁目8-12","lat":35.76129571,"lon":139.46889961},{"name":"三井のリパーク　東村山駅前駐輪場","province":"東京都","city":"東村山市","address":"東京都東村山市野口町1丁目1-4","lat":35.76151223,"lon":139.46528326},{"name":"駐輪館","province":"東京都","city":"東村山市","address":"東京都東村山市野口町1丁目25-8","lat":35.75881804,"lon":139.46414459},{"name":"Ａ－Ｐarkサイクル新秋津駅前","province":"東京都","city":"東村山市","address":"東京都東村山市秋津町5丁目25","lat":35.77794157,"lon":139.49279444},{"name":"サイクルタイムズ秋津","province":"東京都","city":"東村山市","address":"東京都東村山市秋津町5丁目8","lat":35.77749448,"lon":139.49600253},{"name":"西武スマイルパーク　秋津駅南口駐輪場","province":"東京都","city":"東村山市","address":"東京都東村山市秋津町5丁目7-8","lat":35.7783055,"lon":139.49674412},{"name":"三井のリパーク　新秋津駅前駐輪場","province":"東京都","city":"東村山市","address":"東京都東村山市秋津町5丁目14-1","lat":35.77713335,"lon":139.49316665},{"name":"新秋津駅第5駐輪場","province":"東京都","city":"東村山市","address":"東京都東村山市秋津町5丁目17-17","lat":35.77485306,"lon":139.49300003},{"name":"八坂","province":"東京都","city":"東村山市","address":"東京都東村山市萩山町3丁目31-45","lat":35.74387259,"lon":139.46697271},{"name":"東村山郵便局前","province":"東京都","city":"東村山市","address":"東京都東村山市本町2丁目1-2","lat":35.75822931,"lon":139.46684991},{"name":"栄町一丁目","province":"東京都","city":"東村山市","address":"東京都東村山市栄町1丁目23-1","lat":35.75067204,"lon":139.47384403},{"name":"八坂駅北口","province":"東京都","city":"東村山市","address":"東京都東村山市栄町3丁目10-28","lat":35.7458668,"lon":139.46705596},{"name":"萩山町五丁目","province":"東京都","city":"東村山市","address":"東京都東村山市萩山町5丁目3","lat":35.74820856,"lon":139.47866037},{"name":"東村山駅東口","province":"東京都","city":"東村山市","address":"東京都東村山市本町2丁目17-7","lat":35.76104847,"lon":139.46749974},{"name":"南台小学校裏","province":"東京都","city":"東村山市","address":"東京都東村山市富士見町2丁目1","lat":35.74489978,"lon":139.45277395},{"name":"東村山駅西口","province":"東京都","city":"東村山市","address":"東京都東村山市野口町1丁目10-1","lat":35.76173995,"lon":139.46462498},{"name":"萩山駅南口","province":"東京都","city":"東村山市","address":"東京都東村山市萩山町2丁目2","lat":35.74081487,"lon":139.47583872},{"name":"東村山郵便局北","province":"東京都","city":"東村山市","address":"東京都東村山市本町2丁目2-9","lat":35.7595014,"lon":139.46689431},{"name":"多摩北部医療センター前","province":"東京都","city":"東村山市","address":"東京都東村山市青葉町2丁目27-1","lat":35.76242395,"lon":139.49172816},{"name":"秋津駅入口","province":"東京都","city":"東村山市","address":"東京都東村山市秋津町1丁目32-18","lat":35.77338112,"lon":139.49729414},{"name":"青葉駐在所前","province":"東京都","city":"東村山市","address":"東京都東村山市青葉町2丁目24-64","lat":35.76058521,"lon":139.48940895},{"name":"多摩北部医療センター西","province":"東京都","city":"東村山市","address":"東京都東村山市青葉町1丁目7","lat":35.75941877,"lon":139.4930448},{"name":"多摩北部医療センター南","province":"東京都","city":"東村山市","address":"東京都東村山市青葉町1丁目7","lat":35.75941877,"lon":139.4930448},{"name":"西武園駅東","province":"東京都","city":"東村山市","address":"東京都東村山市多摩湖町4丁目29","lat":35.76763595,"lon":139.44840958},{"name":"東京都保健医療公社多摩北部医療センター","province":"東京都","city":"東村山市","address":"東京都東村山市青葉町1丁目7-1","lat":35.76043805,"lon":139.49094217},{"name":"八坂給水所","province":"東京都","city":"東村山市","address":"東京都東村山市富士見町5丁目4-46","lat":35.74735525,"lon":139.45848167},{"name":"東村山浄水場","province":"東京都","city":"東村山市","address":"東京都東村山市美住町2丁目20-236","lat":35.75327404,"lon":139.45878417},{"name":"美住給水所","province":"東京都","city":"東村山市","address":"東京都東村山市美住町2丁目13-4","lat":35.75552943,"lon":139.46155328},{"name":"市立東村山運動公園","province":"東京都","city":"東村山市","address":"東京都東村山市恩多町1丁目9-59","lat":35.75542745,"lon":139.48852866},{"name":"多摩北部医療センター","province":"東京都","city":"東村山市","address":"東京都東村山市青葉町1丁目7-1","lat":35.76043805,"lon":139.49094217},{"name":"美住給水所（注２）","province":"東京都","city":"東村山市","address":"東京都東村山市美住町2丁目13-4","lat":35.75552943,"lon":139.46155328},{"name":"東村山市保健福祉総合センター","province":"東京都","city":"東村山市","address":"東京都東村山市本町1丁目2-3","lat":35.75462421,"lon":139.46848323},{"name":"東村山市民スポーツセンター","province":"東京都","city":"東村山市","address":"東京都東村山市久米川町3丁目30-5","lat":35.76107658,"lon":139.47965976},{"name":"東村山市本庁舎","province":"東京都","city":"東村山市","address":"東村山市本町1-2-3","lat":35.754624,"lon":139.468484},{"name":"東村山警察署","province":"東京都","city":"東村山市","address":"東村山市本町1-1-3","lat":35.75562,"lon":139.4675},{"name":"東村山消防署","province":"東京都","city":"東村山市","address":"東村山市美住町2-28-16","lat":35.75293,"lon":139.4506},{"name":"都立東村山中央公園（広場）","province":"東京都","city":"東村山市","address":"東村山市富士見町5丁目地内","lat":35.74522,"lon":139.4609},{"name":"東村山市立運動公園","province":"東京都","city":"東村山市","address":"東村山市恩多町1-51-1","lat":35.75429,"lon":139.4898},{"name":"※東村山市役所本庁舎","province":"東京都","city":"東村山市","address":"東京都東村山市本町1丁目2-3","lat":35.75462421,"lon":139.46848323},{"name":"平成あおば上宮園","province":"東京都","city":"東村山市","address":"東京都東村山市青葉町1-7-75","lat":35.75954,"lon":139.49255},{"name":"東村山市","province":"東京都","city":"東村山市","address":"東村山市本町1-2-3","lat":35.7546244,"lon":139.4684836},{"name":"地方独立行政法人東京都立病院機構　東京都立多摩北部医療センター","province":"東京都","city":"東村山市","address":"東京都東村山市青葉町1丁目7-1","lat":35.760727,"lon":139.493144},{"name":"東村山中央公園","province":"東京都","city":"東村山市","address":"東京都東村山市富士見町5丁目4-67","lat":35.748306,"lon":139.456941},{"name":"東村山中央公園","province":"東京都","city":"東村山市","address":"東京都東村山市富士見町5丁目4","lat":35.748598,"lon":139.458285},{"name":"東村山中央公園","province":"東京都","city":"東村山市","address":"東京都東村山市富士見町5丁目4","lat":35.747949,"lon":139.459982},{"name":"東村山中央公園","province":"東京都","city":"東村山市","address":"東京都東村山市富士見町5丁目4","lat":35.746824,"lon":139.461727},{"name":"東村山中央公園","province":"東京都","city":"東村山市","address":"東京都東村山市富士見町5丁目4","lat":35.745393,"lon":139.462797},{"name":"東村山中央公園","province":"東京都","city":"東村山市","address":"東京都東村山市富士見町5丁目4","lat":35.746425,"lon":139.46041},{"name":"八国山緑地","province":"東京都","city":"東村山市","address":"東京都東村山市諏訪町3丁目19","lat":35.76661,"lon":139.453209},{"name":"小平霊園","province":"東京都","city":"東村山市","address":"東京都東村山市萩山町1丁目16","lat":35.739773,"lon":139.485298},{"name":"小平霊園","province":"東京都","city":"東村山市","address":"東京都東村山市萩山町5丁目10","lat":35.741954,"lon":139.482579},{"name":"小平霊園","province":"東京都","city":"東村山市","address":"東京都東村山市萩山町5丁目8","lat":35.745432,"lon":139.478914},{"name":"小平霊園","province":"東京都","city":"東村山市","address":"東京都東村山市萩山町5丁目9","lat":35.745348,"lon":139.483296},{"name":"東村山市役所本庁舎","province":"東京都","city":"東村山市","address":"東京都東村山市本町1丁目2-3","lat":35.754641,"lon":139.468509},{"name":"東村山市役所いきいきプラザ","province":"東京都","city":"東村山市","address":"東京都東村山市本町1丁目2-3","lat":35.754234,"lon":139.468058},{"name":"東村山市役所いきいきプラザ","province":"東京都","city":"東村山市","address":"東京都東村山市本町1丁目2-3","lat":35.754236,"lon":139.468282},{"name":"東村山市役所北庁舎","province":"東京都","city":"東村山市","address":"東京都東村山市本町1丁目1-1","lat":35.755322,"lon":139.467378},{"name":"東村山市役所市民センター","province":"東京都","city":"東村山市","address":"東京都東村山市本町1丁目1-1","lat":35.755274,"lon":139.467951},{"name":"東村山市立中央公民館","province":"東京都","city":"東村山市","address":"東京都東村山市本町2丁目33-2","lat":35.759886,"lon":139.46698},{"name":"東村山市立萩山公民館","province":"東京都","city":"東村山市","address":"東京都東村山市萩山町2丁目13-5","lat":35.742202,"lon":139.477704},{"name":"東村山市立廻田公民館","province":"東京都","city":"東村山市","address":"東京都東村山市廻田町4丁目19-1","lat":35.759742,"lon":139.452116},{"name":"東村山市立秋津公民館","province":"東京都","city":"東村山市","address":"東京都東村山市秋津町2丁目17-10","lat":35.770958,"lon":139.486358},{"name":"東村山市立富士見文化センター","province":"東京都","city":"東村山市","address":"東京都東村山市富士見町5丁目4-51","lat":35.746511,"lon":139.462819},{"name":"東村山市立富士見文化センター","province":"東京都","city":"東村山市","address":"東京都東村山市富士見町5丁目4","lat":35.746769,"lon":139.462968},{"name":"東村山市立富士見文化センター","province":"東京都","city":"東村山市","address":"東京都東村山市富士見町5丁目4-51","lat":35.746448,"lon":139.462999},{"name":"東村山市立社会福祉センター","province":"東京都","city":"東村山市","address":"東京都東村山市諏訪町1丁目3-10","lat":35.765483,"lon":139.466698},{"name":"廻田集会所","province":"東京都","city":"東村山市","address":"東京都東村山市廻田町3丁目12-6","lat":35.75761,"lon":139.447324},{"name":"富士見第二集会所","province":"東京都","city":"東村山市","address":"東京都東村山市富士見町1丁目7-35","lat":35.744036,"lon":139.461258},{"name":"青葉地域センター","province":"東京都","city":"東村山市","address":"東京都東村山市青葉町3丁目30-3","lat":35.769235,"lon":139.496207},{"name":"東村山市立中央図書館","province":"東京都","city":"東村山市","address":"東京都東村山市本町1丁目1-10","lat":35.755318,"lon":139.468322},{"name":"東村山市立富士見図書館","province":"東京都","city":"東村山市","address":"東京都東村山市富士見町1丁目7","lat":35.743933,"lon":139.461182},{"name":"東村山市立萩山図書館","province":"東京都","city":"東村山市","address":"東京都東村山市萩山町2丁目13-5","lat":35.742153,"lon":139.477817},{"name":"東村山市立秋津図書館","province":"東京都","city":"東村山市","address":"東京都東村山市秋津町2丁目17-10","lat":35.771146,"lon":139.486629},{"name":"平和塔公園","province":"東京都","city":"東村山市","address":"東京都東村山市本町1丁目13","lat":35.754609,"lon":139.466632},{"name":"南台公園","province":"東京都","city":"東村山市","address":"東京都東村山市富士見町1丁目2","lat":35.74153,"lon":139.458727},{"name":"萩山公園","province":"東京都","city":"東村山市","address":"東京都東村山市萩山町2丁目3","lat":35.742213,"lon":139.475725},{"name":"天王森公園","province":"東京都","city":"東村山市","address":"東京都東村山市本町3丁目45","lat":35.755203,"lon":139.469471},{"name":"北山公園","province":"東京都","city":"東村山市","address":"東京都東村山市野口町4丁目50","lat":35.766375,"lon":139.459497},{"name":"美住町1丁目第3仲よし広場","province":"東京都","city":"東村山市","address":"東京都東村山市美住町1丁目4","lat":35.750135,"lon":139.464142},{"name":"野火止広場","province":"東京都","city":"東村山市","address":"東京都東村山市栄町3丁目14","lat":35.746586,"lon":139.469062},{"name":"萩山四季の森公園","province":"東京都","city":"東村山市","address":"東京都東村山市萩山町3丁目28","lat":35.743209,"lon":139.474233},{"name":"萩山第一児童遊園","province":"東京都","city":"東村山市","address":"東京都東村山市萩山町4丁目16","lat":35.743136,"lon":139.479205},{"name":"秋水園リサイクルセンター管理棟","province":"東京都","city":"東村山市","address":"東京都東村山市秋津町4丁目17","lat":35.780057,"lon":139.48442},{"name":"秋水園ふれあいセンター","province":"東京都","city":"東村山市","address":"東京都東村山市秋津町4丁目24-12","lat":35.779303,"lon":139.486051},{"name":"多摩湖ふれあいセンター","province":"東京都","city":"東村山市","address":"東京都東村山市多摩湖町1丁目18","lat":35.764063,"lon":139.449186},{"name":"廻田憩いの家","province":"東京都","city":"東村山市","address":"東京都東村山市廻田町3丁目12-6","lat":35.75761,"lon":139.447324},{"name":"富士見憩いの家","province":"東京都","city":"東村山市","address":"東京都東村山市富士見町5丁目4-51","lat":35.746542,"lon":139.462703},{"name":"萩山憩いの家","province":"東京都","city":"東村山市","address":"東京都東村山市萩山町2丁目3-11","lat":35.742331,"lon":139.475646},{"name":"恩多ふれあいセンター","province":"東京都","city":"東村山市","address":"東京都東村山市恩多町5丁目40-1","lat":35.757544,"lon":139.490847},{"name":"栄町ふれあいセンター","province":"東京都","city":"東村山市","address":"東京都東村山市栄町2丁目25-5","lat":35.747743,"lon":139.472424},{"name":"久米川ふれあいセンター","province":"東京都","city":"東村山市","address":"東京都東村山市久米川町3丁目16-4","lat":35.7661,"lon":139.474202},{"name":"東村山市民ステーションサンパルネ","province":"東京都","city":"東村山市","address":"東京都東村山市野口町1丁目46","lat":35.760175,"lon":139.465352},{"name":"東村山市民ステーションサンパルネ","province":"東京都","city":"東村山市","address":"東京都東村山市野口町1丁目46","lat":35.760127,"lon":139.465374},{"name":"八坂給水所","province":"東京都","city":"東村山市","address":"東京都東村山市富士見町5-4-46","lat":35.747356,"lon":139.458482},{"name":"東村山浄水場","province":"東京都","city":"東村山市","address":"東京都東村山市美住町2-20-236","lat":35.7532331,"lon":139.458674},{"name":"美住給水所","province":"東京都","city":"東村山市","address":"東京都東村山市美住町2-13-4","lat":35.7555303,"lon":139.461554},{"name":"市立東村山運動公園","province":"東京都","city":"東村山市","address":"東京都東村山市恩多町1-9-5","lat":35.7556996,"lon":139.4901976},{"name":"市立秋津小学校","province":"東京都","city":"東村山市","address":"東京都東村山市秋津町3-48-1","lat":35.773108,"lon":139.482144},{"name":"久米川駅南口第２駐輪場","province":"東京都","city":"東村山市","address":"東京都東村山市栄町2丁目11-13","lat":35.75087469,"lon":139.47040544},{"name":"久米川駅北口地下駐輪場","province":"東京都","city":"東村山市","address":"東京都東村山市栄町1丁目3-1","lat":35.7501304,"lon":139.47295802},{"name":"東村山駅東口第１駐輪場","province":"東京都","city":"東村山市","address":"東京都東村山市本町2丁目16-13","lat":35.76119848,"lon":139.46845798},{"name":"東村山駅東口第２駐輪場","province":"東京都","city":"東村山市","address":"東京都東村山市本町2丁目15-28","lat":35.76168732,"lon":139.46838575},{"name":"東村山駅西口地下駐輪場","province":"東京都","city":"東村山市","address":"東京都東村山市野口町3丁目1-41","lat":35.76218969,"lon":139.45838386},{"name":"新秋津駅第２駐輪場","province":"東京都","city":"東村山市","address":"東京都東村山市秋津町5丁目24-19","lat":35.77819153,"lon":139.49255002},{"name":"三井のリパーク　久米川駅前駐輪場","province":"東京都","city":"東村山市","address":"東京都東村山市栄町2丁目10","lat":35.75036365,"lon":139.47062489},{"name":"サイクルタイムズ久米川","province":"東京都","city":"東村山市","address":"東京都東村山市栄町2丁目6","lat":35.74793344,"lon":139.47342196},{"name":"Ｂ－Ｐａｒｋ24　東村山駅東口","province":"東京都","city":"東村山市","address":"東京都東村山市久米川町4丁目8-12","lat":35.76129571,"lon":139.46889961},{"name":"サイクル・インＢ－Ｐａｒｋ　東村山駅東口駐輪場","province":"東京都","city":"東村山市","address":"東京都東村山市久米川町4丁目8-12","lat":35.76129571,"lon":139.46889961},{"name":"三井のリパーク　東村山駅前駐輪場","province":"東京都","city":"東村山市","address":"東京都東村山市野口町1丁目1-4","lat":35.76151223,"lon":139.46528326},{"name":"駐輪館","province":"東京都","city":"東村山市","address":"東京都東村山市野口町1丁目25-8","lat":35.75881804,"lon":139.46414459},{"name":"Ａ－Ｐarkサイクル新秋津駅前","province":"東京都","city":"東村山市","address":"東京都東村山市秋津町5丁目25","lat":35.77794157,"lon":139.49279444},{"name":"サイクルタイムズ秋津","province":"東京都","city":"東村山市","address":"東京都東村山市秋津町5丁目8","lat":35.77749448,"lon":139.49600253},{"name":"西武スマイルパーク　秋津駅南口駐輪場","province":"東京都","city":"東村山市","address":"東京都東村山市秋津町5丁目7-8","lat":35.7783055,"lon":139.49674412},{"name":"三井のリパーク　新秋津駅前駐輪場","province":"東京都","city":"東村山市","address":"東京都東村山市秋津町5丁目14-1","lat":35.77713335,"lon":139.49316665},{"name":"新秋津駅第5駐輪場","province":"東京都","city":"東村山市","address":"東京都東村山市秋津町5丁目17-17","lat":35.77485306,"lon":139.49300003},{"name":"八坂","province":"東京都","city":"東村山市","address":"東京都東村山市萩山町3丁目31-45","lat":35.74387259,"lon":139.46697271},{"name":"東村山郵便局前","province":"東京都","city":"東村山市","address":"東京都東村山市本町2丁目1-2","lat":35.75822931,"lon":139.46684991},{"name":"栄町一丁目","province":"東京都","city":"東村山市","address":"東京都東村山市栄町1丁目23-1","lat":35.75067204,"lon":139.47384403},{"name":"八坂駅北口","province":"東京都","city":"東村山市","address":"東京都東村山市栄町3丁目10-28","lat":35.7458668,"lon":139.46705596},{"name":"萩山町五丁目","province":"東京都","city":"東村山市","address":"東京都東村山市萩山町5丁目3","lat":35.74820856,"lon":139.47866037},{"name":"東村山駅東口","province":"東京都","city":"東村山市","address":"東京都東村山市本町2丁目17-7","lat":35.76104847,"lon":139.46749974},{"name":"南台小学校裏","province":"東京都","city":"東村山市","address":"東京都東村山市富士見町2丁目1","lat":35.74489978,"lon":139.45277395},{"name":"東村山駅西口","province":"東京都","city":"東村山市","address":"東京都東村山市野口町1丁目10-1","lat":35.76173995,"lon":139.46462498},{"name":"萩山駅南口","province":"東京都","city":"東村山市","address":"東京都東村山市萩山町2丁目2","lat":35.74081487,"lon":139.47583872},{"name":"東村山郵便局北","province":"東京都","city":"東村山市","address":"東京都東村山市本町2丁目2-9","lat":35.7595014,"lon":139.46689431},{"name":"多摩北部医療センター前","province":"東京都","city":"東村山市","address":"東京都東村山市青葉町2丁目27-1","lat":35.76242395,"lon":139.49172816},{"name":"秋津駅入口","province":"東京都","city":"東村山市","address":"東京都東村山市秋津町1丁目32-18","lat":35.77338112,"lon":139.49729414},{"name":"青葉駐在所前","province":"東京都","city":"東村山市","address":"東京都東村山市青葉町2丁目24-64","lat":35.76058521,"lon":139.48940895},{"name":"多摩北部医療センター西","province":"東京都","city":"東村山市","address":"東京都東村山市青葉町1丁目7","lat":35.75941877,"lon":139.4930448},{"name":"多摩北部医療センター南","province":"東京都","city":"東村山市","address":"東京都東村山市青葉町1丁目7","lat":35.75941877,"lon":139.4930448},{"name":"西武園駅東","province":"東京都","city":"東村山市","address":"東京都東村山市多摩湖町4丁目29","lat":35.76763595,"lon":139.44840958},{"name":"東京都保健医療公社多摩北部医療センター","province":"東京都","city":"東村山市","address":"東京都東村山市青葉町1丁目7-1","lat":35.76043805,"lon":139.49094217},{"name":"多摩北部医療センター","province":"東京都","city":"東村山市","address":"東京都東村山市青葉町1丁目7-1","lat":35.76043805,"lon":139.49094217},{"name":"東村山市保健福祉総合センター","province":"東京都","city":"東村山市","address":"東京都東村山市本町1丁目2-3","lat":35.75462421,"lon":139.46848323},{"name":"東村山市民スポーツセンター","province":"東京都","city":"東村山市","address":"東京都東村山市久米川町3丁目30-5","lat":35.76107658,"lon":139.47965976},{"name":"東村山市本庁舎","province":"東京都","city":"東村山市","address":"東村山市本町1-2-3","lat":35.754624,"lon":139.468484},{"name":"東村山警察署","province":"東京都","city":"東村山市","address":"東村山市本町1-1-3","lat":35.75562,"lon":139.4675},{"name":"東村山消防署","province":"東京都","city":"東村山市","address":"東村山市美住町2-28-16","lat":35.75293,"lon":139.4506},{"name":"都立東村山中央公園（広場）","province":"東京都","city":"東村山市","address":"東村山市富士見町5丁目地内","lat":35.74522,"lon":139.4609},{"name":"東村山市立運動公園","province":"東京都","city":"東村山市","address":"東村山市恩多町1-51-1","lat":35.75429,"lon":139.4898},{"name":"※東村山市役所本庁舎","province":"東京都","city":"東村山市","address":"東京都東村山市本町1丁目2-3","lat":35.75462421,"lon":139.46848323},{"name":"平成あおば上宮園","province":"東京都","city":"東村山市","address":"東京都東村山市青葉町1-7-75","lat":35.75954,"lon":139.49255},{"name":"東村山市","province":"東京都","city":"東村山市","address":"東村山市本町1-2-3","lat":35.7546244,"lon":139.4684836},{"name":"地方独立行政法人東京都立病院機構　東京都立多摩北部医療センター","province":"東京都","city":"東村山市","address":"東京都東村山市青葉町1丁目7-1","lat":35.760727,"lon":139.493144},{"name":"東村山中央公園","province":"東京都","city":"東村山市","address":"東京都東村山市富士見町5丁目4-67","lat":35.748306,"lon":139.456941},{"name":"東村山中央公園","province":"東京都","city":"東村山市","address":"東京都東村山市富士見町5丁目4","lat":35.748598,"lon":139.458285},{"name":"東村山中央公園","province":"東京都","city":"東村山市","address":"東京都東村山市富士見町5丁目4","lat":35.747949,"lon":139.459982},{"name":"東村山中央公園","province":"東京都","city":"東村山市","address":"東京都東村山市富士見町5丁目4","lat":35.746824,"lon":139.461727},{"name":"東村山中央公園","province":"東京都","city":"東村山市","address":"東京都東村山市富士見町5丁目4","lat":35.745393,"lon":139.462797},{"name":"東村山中央公園","province":"東京都","city":"東村山市","address":"東京都東村山市富士見町5丁目4","lat":35.746425,"lon":139.46041},{"name":"八国山緑地","province":"東京都","city":"東村山市","address":"東京都東村山市諏訪町3丁目19","lat":35.76661,"lon":139.453209},{"name":"小平霊園","province":"東京都","city":"東村山市","address":"東京都東村山市萩山町1丁目16","lat":35.739773,"lon":139.485298},{"name":"小平霊園","province":"東京都","city":"東村山市","address":"東京都東村山市萩山町5丁目10","lat":35.741954,"lon":139.482579},{"name":"小平霊園","province":"東京都","city":"東村山市","address":"東京都東村山市萩山町5丁目8","lat":35.745432,"lon":139.478914},{"name":"小平霊園","province":"東京都","city":"東村山市","address":"東京都東村山市萩山町5丁目9","lat":35.745348,"lon":139.483296},{"name":"東村山市役所本庁舎","province":"東京都","city":"東村山市","address":"東京都東村山市本町1丁目2-3","lat":35.754641,"lon":139.468509},{"name":"東村山市役所いきいきプラザ","province":"東京都","city":"東村山市","address":"東京都東村山市本町1丁目2-3","lat":35.754234,"lon":139.468058},{"name":"東村山市役所いきいきプラザ","province":"東京都","city":"東村山市","address":"東京都東村山市本町1丁目2-3","lat":35.754236,"lon":139.468282},{"name":"東村山市役所北庁舎","province":"東京都","city":"東村山市","address":"東京都東村山市本町1丁目1-1","lat":35.755322,"lon":139.467378},{"name":"東村山市役所市民センター","province":"東京都","city":"東村山市","address":"東京都東村山市本町1丁目1-1","lat":35.755274,"lon":139.467951},{"name":"東村山市立中央公民館","province":"東京都","city":"東村山市","address":"東京都東村山市本町2丁目33-2","lat":35.759886,"lon":139.46698},{"name":"東村山市立萩山公民館","province":"東京都","city":"東村山市","address":"東京都東村山市萩山町2丁目13-5","lat":35.742202,"lon":139.477704},{"name":"東村山市立廻田公民館","province":"東京都","city":"東村山市","address":"東京都東村山市廻田町4丁目19-1","lat":35.759742,"lon":139.452116},{"name":"東村山市立秋津公民館","province":"東京都","city":"東村山市","address":"東京都東村山市秋津町2丁目17-10","lat":35.770958,"lon":139.486358},{"name":"東村山市立富士見文化センター","province":"東京都","city":"東村山市","address":"東京都東村山市富士見町5丁目4-51","lat":35.746511,"lon":139.462819},{"name":"東村山市立富士見文化センター","province":"東京都","city":"東村山市","address":"東京都東村山市富士見町5丁目4","lat":35.746769,"lon":139.462968},{"name":"東村山市立富士見文化センター","province":"東京都","city":"東村山市","address":"東京都東村山市富士見町5丁目4-51","lat":35.746448,"lon":139.462999},{"name":"東村山市立社会福祉センター","province":"東京都","city":"東村山市","address":"東京都東村山市諏訪町1丁目3-10","lat":35.765483,"lon":139.466698},{"name":"廻田集会所","province":"東京都","city":"東村山市","address":"東京都東村山市廻田町3丁目12-6","lat":35.75761,"lon":139.447324},{"name":"富士見第二集会所","province":"東京都","city":"東村山市","address":"東京都東村山市富士見町1丁目7-35","lat":35.744036,"lon":139.461258},{"name":"青葉地域センター","province":"東京都","city":"東村山市","address":"東京都東村山市青葉町3丁目30-3","lat":35.769235,"lon":139.496207},{"name":"東村山市立中央図書館","province":"東京都","city":"東村山市","address":"東京都東村山市本町1丁目1-10","lat":35.755318,"lon":139.468322},{"name":"東村山市立富士見図書館","province":"東京都","city":"東村山市","address":"東京都東村山市富士見町1丁目7","lat":35.743933,"lon":139.461182},{"name":"東村山市立萩山図書館","province":"東京都","city":"東村山市","address":"東京都東村山市萩山町2丁目13-5","lat":35.742153,"lon":139.477817},{"name":"東村山市立秋津図書館","province":"東京都","city":"東村山市","address":"東京都東村山市秋津町2丁目17-10","lat":35.771146,"lon":139.486629},{"name":"平和塔公園","province":"東京都","city":"東村山市","address":"東京都東村山市本町1丁目13","lat":35.754609,"lon":139.466632},{"name":"南台公園","province":"東京都","city":"東村山市","address":"東京都東村山市富士見町1丁目2","lat":35.74153,"lon":139.458727},{"name":"萩山公園","province":"東京都","city":"東村山市","address":"東京都東村山市萩山町2丁目3","lat":35.742213,"lon":139.475725},{"name":"天王森公園","province":"東京都","city":"東村山市","address":"東京都東村山市本町3丁目45","lat":35.755203,"lon":139.469471},{"name":"北山公園","province":"東京都","city":"東村山市","address":"東京都東村山市野口町4丁目50","lat":35.766375,"lon":139.459497},{"name":"美住町1丁目第3仲よし広場","province":"東京都","city":"東村山市","address":"東京都東村山市美住町1丁目4","lat":35.750135,"lon":139.464142},{"name":"野火止広場","province":"東京都","city":"東村山市","address":"東京都東村山市栄町3丁目14","lat":35.746586,"lon":139.469062},{"name":"萩山四季の森公園","province":"東京都","city":"東村山市","address":"東京都東村山市萩山町3丁目28","lat":35.743209,"lon":139.474233},{"name":"萩山第一児童遊園","province":"東京都","city":"東村山市","address":"東京都東村山市萩山町4丁目16","lat":35.743136,"lon":139.479205},{"name":"秋水園リサイクルセンター管理棟","province":"東京都","city":"東村山市","address":"東京都東村山市秋津町4丁目17","lat":35.780057,"lon":139.48442},{"name":"秋水園ふれあいセンター","province":"東京都","city":"東村山市","address":"東京都東村山市秋津町4丁目24-12","lat":35.779303,"lon":139.486051},{"name":"多摩湖ふれあいセンター","province":"東京都","city":"東村山市","address":"東京都東村山市多摩湖町1丁目18","lat":35.764063,"lon":139.449186},{"name":"廻田憩いの家","province":"東京都","city":"東村山市","address":"東京都東村山市廻田町3丁目12-6","lat":35.75761,"lon":139.447324},{"name":"富士見憩いの家","province":"東京都","city":"東村山市","address":"東京都東村山市富士見町5丁目4-51","lat":35.746542,"lon":139.462703},{"name":"萩山憩いの家","province":"東京都","city":"東村山市","address":"東京都東村山市萩山町2丁目3-11","lat":35.742331,"lon":139.475646},{"name":"恩多ふれあいセンター","province":"東京都","city":"東村山市","address":"東京都東村山市恩多町5丁目40-1","lat":35.757544,"lon":139.490847},{"name":"栄町ふれあいセンター","province":"東京都","city":"東村山市","address":"東京都東村山市栄町2丁目25-5","lat":35.747743,"lon":139.472424},{"name":"久米川ふれあいセンター","province":"東京都","city":"東村山市","address":"東京都東村山市久米川町3丁目16-4","lat":35.7661,"lon":139.474202},{"name":"東村山市民ステーションサンパルネ","province":"東京都","city":"東村山市","address":"東京都東村山市野口町1丁目46","lat":35.760175,"lon":139.465352},{"name":"東村山市民ステーションサンパルネ","province":"東京都","city":"東村山市","address":"東京都東村山市野口町1丁目46","lat":35.760127,"lon":139.465374},{"name":"久米川駅南口第２駐輪場","province":"東京都","city":"東村山市","address":"東京都東村山市栄町2丁目11-13","lat":35.75087469,"lon":139.47040544},{"name":"久米川駅北口地下駐輪場","province":"東京都","city":"東村山市","address":"東京都東村山市栄町1丁目3-1","lat":35.7501304,"lon":139.47295802},{"name":"東村山駅東口第１駐輪場","province":"東京都","city":"東村山市","address":"東京都東村山市本町2丁目16-13","lat":35.76119848,"lon":139.46845798},{"name":"東村山駅東口第２駐輪場","province":"東京都","city":"東村山市","address":"東京都東村山市本町2丁目15-28","lat":35.76168732,"lon":139.46838575},{"name":"東村山駅西口地下駐輪場","province":"東京都","city":"東村山市","address":"東京都東村山市野口町3丁目1-41","lat":35.76218969,"lon":139.45838386},{"name":"新秋津駅第２駐輪場","province":"東京都","city":"東村山市","address":"東京都東村山市秋津町5丁目24-19","lat":35.77819153,"lon":139.49255002},{"name":"三井のリパーク　久米川駅前駐輪場","province":"東京都","city":"東村山市","address":"東京都東村山市栄町2丁目10","lat":35.75036365,"lon":139.47062489},{"name":"サイクルタイムズ久米川","province":"東京都","city":"東村山市","address":"東京都東村山市栄町2丁目6","lat":35.74793344,"lon":139.47342196},{"name":"Ｂ－Ｐａｒｋ24　東村山駅東口","province":"東京都","city":"東村山市","address":"東京都東村山市久米川町4丁目8-12","lat":35.76129571,"lon":139.46889961},{"name":"サイクル・インＢ－Ｐａｒｋ　東村山駅東口駐輪場","province":"東京都","city":"東村山市","address":"東京都東村山市久米川町4丁目8-12","lat":35.76129571,"lon":139.46889961},{"name":"三井のリパーク　東村山駅前駐輪場","province":"東京都","city":"東村山市","address":"東京都東村山市野口町1丁目1-4","lat":35.76151223,"lon":139.46528326},{"name":"駐輪館","province":"東京都","city":"東村山市","address":"東京都東村山市野口町1丁目25-8","lat":35.75881804,"lon":139.46414459},{"name":"Ａ－Ｐarkサイクル新秋津駅前","province":"東京都","city":"東村山市","address":"東京都東村山市秋津町5丁目25","lat":35.77794157,"lon":139.49279444},{"name":"サイクルタイムズ秋津","province":"東京都","city":"東村山市","address":"東京都東村山市秋津町5丁目8","lat":35.77749448,"lon":139.49600253},{"name":"西武スマイルパーク　秋津駅南口駐輪場","province":"東京都","city":"東村山市","address":"東京都東村山市秋津町5丁目7-8","lat":35.7783055,"lon":139.49674412},{"name":"三井のリパーク　新秋津駅前駐輪場","province":"東京都","city":"東村山市","address":"東京都東村山市秋津町5丁目14-1","lat":35.77713335,"lon":139.49316665},{"name":"新秋津駅第5駐輪場","province":"東京都","city":"東村山市","address":"東京都東村山市秋津町5丁目17-17","lat":35.77485306,"lon":139.49300003},{"name":"八坂","province":"東京都","city":"東村山市","address":"東京都東村山市萩山町3丁目31-45","lat":35.74387259,"lon":139.46697271},{"name":"東村山郵便局前","province":"東京都","city":"東村山市","address":"東京都東村山市本町2丁目1-2","lat":35.75822931,"lon":139.46684991},{"name":"栄町一丁目","province":"東京都","city":"東村山市","address":"東京都東村山市栄町1丁目23-1","lat":35.75067204,"lon":139.47384403},{"name":"八坂駅北口","province":"東京都","city":"東村山市","address":"東京都東村山市栄町3丁目10-28","lat":35.7458668,"lon":139.46705596},{"name":"萩山町五丁目","province":"東京都","city":"東村山市","address":"東京都東村山市萩山町5丁目3","lat":35.74820856,"lon":139.47866037},{"name":"東村山駅東口","province":"東京都","city":"東村山市","address":"東京都東村山市本町2丁目17-7","lat":35.76104847,"lon":139.46749974},{"name":"南台小学校裏","province":"東京都","city":"東村山市","address":"東京都東村山市富士見町2丁目1","lat":35.74489978,"lon":139.45277395},{"name":"東村山駅西口","province":"東京都","city":"東村山市","address":"東京都東村山市野口町1丁目10-1","lat":35.76173995,"lon":139.46462498},{"name":"萩山駅南口","province":"東京都","city":"東村山市","address":"東京都東村山市萩山町2丁目2","lat":35.74081487,"lon":139.47583872},{"name":"東村山郵便局北","province":"東京都","city":"東村山市","address":"東京都東村山市本町2丁目2-9","lat":35.7595014,"lon":139.46689431},{"name":"多摩北部医療センター前","province":"東京都","city":"東村山市","address":"東京都東村山市青葉町2丁目27-1","lat":35.76242395,"lon":139.49172816},{"name":"秋津駅入口","province":"東京都","city":"東村山市","address":"東京都東村山市秋津町1丁目32-18","lat":35.77338112,"lon":139.49729414},{"name":"青葉駐在所前","province":"東京都","city":"東村山市","address":"東京都東村山市青葉町2丁目24-64","lat":35.76058521,"lon":139.48940895},{"name":"多摩北部医療センター西","province":"東京都","city":"東村山市","address":"東京都東村山市青葉町1丁目7","lat":35.75941877,"lon":139.4930448},{"name":"多摩北部医療センター南","province":"東京都","city":"東村山市","address":"東京都東村山市青葉町1丁目7","lat":35.75941877,"lon":139.4930448},{"name":"西武園駅東","province":"東京都","city":"東村山市","address":"東京都東村山市多摩湖町4丁目29","lat":35.76763595,"lon":139.44840958},{"name":"東村山市保健福祉総合センター","province":"東京都","city":"東村山市","address":"東京都東村山市本町1丁目2-3","lat":35.75462421,"lon":139.46848323},{"name":"東村山市民スポーツセンター","province":"東京都","city":"東村山市","address":"東京都東村山市久米川町3丁目30-5","lat":35.76107658,"lon":139.47965976},{"name":"東村山市本庁舎","province":"東京都","city":"東村山市","address":"東村山市本町1-2-3","lat":35.754624,"lon":139.468484},{"name":"東村山警察署","province":"東京都","city":"東村山市","address":"東村山市本町1-1-3","lat":35.75562,"lon":139.4675},{"name":"東村山消防署","province":"東京都","city":"東村山市","address":"東村山市美住町2-28-16","lat":35.75293,"lon":139.4506},{"name":"都立東村山中央公園（広場）","province":"東京都","city":"東村山市","address":"東村山市富士見町5丁目地内","lat":35.74522,"lon":139.4609},{"name":"東村山市立運動公園","province":"東京都","city":"東村山市","address":"東村山市恩多町1-51-1","lat":35.75429,"lon":139.4898},{"name":"※東村山市役所本庁舎","province":"東京都","city":"東村山市","address":"東京都東村山市本町1丁目2-3","lat":35.75462421,"lon":139.46848323},{"name":"平成あおば上宮園","province":"東京都","city":"東村山市","address":"東京都東村山市青葉町1-7-75","lat":35.75954,"lon":139.49255},{"name":"東村山市","province":"東京都","city":"東村山市","address":"東村山市本町1-2-3","lat":35.7546244,"lon":139.4684836},{"name":"地方独立行政法人東京都立病院機構　東京都立多摩北部医療センター","province":"東京都","city":"東村山市","address":"東京都東村山市青葉町1丁目7-1","lat":35.760727,"lon":139.493144},{"name":"東村山中央公園","province":"東京都","city":"東村山市","address":"東京都東村山市富士見町5丁目4-67","lat":35.748306,"lon":139.456941},{"name":"東村山中央公園","province":"東京都","city":"東村山市","address":"東京都東村山市富士見町5丁目4","lat":35.748598,"lon":139.458285},{"name":"東村山中央公園","province":"東京都","city":"東村山市","address":"東京都東村山市富士見町5丁目4","lat":35.747949,"lon":139.459982},{"name":"東村山中央公園","province":"東京都","city":"東村山市","address":"東京都東村山市富士見町5丁目4","lat":35.746824,"lon":139.461727},{"name":"東村山中央公園","province":"東京都","city":"東村山市","address":"東京都東村山市富士見町5丁目4","lat":35.745393,"lon":139.462797},{"name":"東村山中央公園","province":"東京都","city":"東村山市","address":"東京都東村山市富士見町5丁目4","lat":35.746425,"lon":139.46041},{"name":"八国山緑地","province":"東京都","city":"東村山市","address":"東京都東村山市諏訪町3丁目19","lat":35.76661,"lon":139.453209},{"name":"小平霊園","province":"東京都","city":"東村山市","address":"東京都東村山市萩山町1丁目16","lat":35.739773,"lon":139.485298},{"name":"小平霊園","province":"東京都","city":"東村山市","address":"東京都東村山市萩山町5丁目10","lat":35.741954,"lon":139.482579},{"name":"小平霊園","province":"東京都","city":"東村山市","address":"東京都東村山市萩山町5丁目8","lat":35.745432,"lon":139.478914},{"name":"小平霊園","province":"東京都","city":"東村山市","address":"東京都東村山市萩山町5丁目9","lat":35.745348,"lon":139.483296},{"name":"東村山市役所本庁舎","province":"東京都","city":"東村山市","address":"東京都東村山市本町1丁目2-3","lat":35.754641,"lon":139.468509},{"name":"東村山市役所いきいきプラザ","province":"東京都","city":"東村山市","address":"東京都東村山市本町1丁目2-3","lat":35.754234,"lon":139.468058},{"name":"東村山市役所いきいきプラザ","province":"東京都","city":"東村山市","address":"東京都東村山市本町1丁目2-3","lat":35.754236,"lon":139.468282},{"name":"東村山市役所北庁舎","province":"東京都","city":"東村山市","address":"東京都東村山市本町1丁目1-1","lat":35.755322,"lon":139.467378},{"name":"東村山市役所市民センター","province":"東京都","city":"東村山市","address":"東京都東村山市本町1丁目1-1","lat":35.755274,"lon":139.467951},{"name":"東村山市立中央公民館","province":"東京都","city":"東村山市","address":"東京都東村山市本町2丁目33-2","lat":35.759886,"lon":139.46698},{"name":"東村山市立萩山公民館","province":"東京都","city":"東村山市","address":"東京都東村山市萩山町2丁目13-5","lat":35.742202,"lon":139.477704},{"name":"東村山市立廻田公民館","province":"東京都","city":"東村山市","address":"東京都東村山市廻田町4丁目19-1","lat":35.759742,"lon":139.452116},{"name":"東村山市立秋津公民館","province":"東京都","city":"東村山市","address":"東京都東村山市秋津町2丁目17-10","lat":35.770958,"lon":139.486358},{"name":"東村山市立富士見文化センター","province":"東京都","city":"東村山市","address":"東京都東村山市富士見町5丁目4-51","lat":35.746511,"lon":139.462819},{"name":"東村山市立富士見文化センター","province":"東京都","city":"東村山市","address":"東京都東村山市富士見町5丁目4","lat":35.746769,"lon":139.462968},{"name":"東村山市立富士見文化センター","province":"東京都","city":"東村山市","address":"東京都東村山市富士見町5丁目4-51","lat":35.746448,"lon":139.462999},{"name":"東村山市立社会福祉センター","province":"東京都","city":"東村山市","address":"東京都東村山市諏訪町1丁目3-10","lat":35.765483,"lon":139.466698},{"name":"廻田集会所","province":"東京都","city":"東村山市","address":"東京都東村山市廻田町3丁目12-6","lat":35.75761,"lon":139.447324},{"name":"富士見第二集会所","province":"東京都","city":"東村山市","address":"東京都東村山市富士見町1丁目7-35","lat":35.744036,"lon":139.461258},{"name":"青葉地域センター","province":"東京都","city":"東村山市","address":"東京都東村山市青葉町3丁目30-3","lat":35.769235,"lon":139.496207},{"name":"東村山市立中央図書館","province":"東京都","city":"東村山市","address":"東京都東村山市本町1丁目1-10","lat":35.755318,"lon":139.468322},{"name":"東村山市立富士見図書館","province":"東京都","city":"東村山市","address":"東京都東村山市富士見町1丁目7","lat":35.743933,"lon":139.461182},{"name":"東村山市立萩山図書館","province":"東京都","city":"東村山市","address":"東京都東村山市萩山町2丁目13-5","lat":35.742153,"lon":139.477817},{"name":"東村山市立秋津図書館","province":"東京都","city":"東村山市","address":"東京都東村山市秋津町2丁目17-10","lat":35.771146,"lon":139.486629},{"name":"平和塔公園","province":"東京都","city":"東村山市","address":"東京都東村山市本町1丁目13","lat":35.754609,"lon":139.466632},{"name":"南台公園","province":"東京都","city":"東村山市","address":"東京都東村山市富士見町1丁目2","lat":35.74153,"lon":139.458727},{"name":"萩山公園","province":"東京都","city":"東村山市","address":"東京都東村山市萩山町2丁目3","lat":35.742213,"lon":139.475725},{"name":"天王森公園","province":"東京都","city":"東村山市","address":"東京都東村山市本町3丁目45","lat":35.755203,"lon":139.469471},{"name":"北山公園","province":"東京都","city":"東村山市","address":"東京都東村山市野口町4丁目50","lat":35.766375,"lon":139.459497},{"name":"美住町1丁目第3仲よし広場","province":"東京都","city":"東村山市","address":"東京都東村山市美住町1丁目4","lat":35.750135,"lon":139.464142},{"name":"野火止広場","province":"東京都","city":"東村山市","address":"東京都東村山市栄町3丁目14","lat":35.746586,"lon":139.469062},{"name":"萩山四季の森公園","province":"東京都","city":"東村山市","address":"東京都東村山市萩山町3丁目28","lat":35.743209,"lon":139.474233},{"name":"萩山第一児童遊園","province":"東京都","city":"東村山市","address":"東京都東村山市萩山町4丁目16","lat":35.743136,"lon":139.479205},{"name":"秋水園リサイクルセンター管理棟","province":"東京都","city":"東村山市","address":"東京都東村山市秋津町4丁目17","lat":35.780057,"lon":139.48442},{"name":"秋水園ふれあいセンター","province":"東京都","city":"東村山市","address":"東京都東村山市秋津町4丁目24-12","lat":35.779303,"lon":139.486051},{"name":"多摩湖ふれあいセンター","province":"東京都","city":"東村山市","address":"東京都東村山市多摩湖町1丁目18","lat":35.764063,"lon":139.449186},{"name":"廻田憩いの家","province":"東京都","city":"東村山市","address":"東京都東村山市廻田町3丁目12-6","lat":35.75761,"lon":139.447324},{"name":"富士見憩いの家","province":"東京都","city":"東村山市","address":"東京都東村山市富士見町5丁目4-51","lat":35.746542,"lon":139.462703},{"name":"萩山憩いの家","province":"東京都","city":"東村山市","address":"東京都東村山市萩山町2丁目3-11","lat":35.742331,"lon":139.475646},{"name":"恩多ふれあいセンター","province":"東京都","city":"東村山市","address":"東京都東村山市恩多町5丁目40-1","lat":35.757544,"lon":139.490847},{"name":"栄町ふれあいセンター","province":"東京都","city":"東村山市","address":"東京都東村山市栄町2丁目25-5","lat":35.747743,"lon":139.472424},{"name":"久米川ふれあいセンター","province":"東京都","city":"東村山市","address":"東京都東村山市久米川町3丁目16-4","lat":35.7661,"lon":139.474202},{"name":"東村山市民ステーションサンパルネ","province":"東京都","city":"東村山市","address":"東京都東村山市野口町1丁目46","lat":35.760175,"lon":139.465352},{"name":"東村山市民ステーションサンパルネ","province":"東京都","city":"東村山市","address":"東京都東村山市野口町1丁目46","lat":35.760127,"lon":139.465374},{"name":"久米川駅南口第２駐輪場","province":"東京都","city":"東村山市","address":"東京都東村山市栄町2丁目11-13","lat":35.75087469,"lon":139.47040544},{"name":"久米川駅北口地下駐輪場","province":"東京都","city":"東村山市","address":"東京都東村山市栄町1丁目3-1","lat":35.7501304,"lon":139.47295802},{"name":"東村山駅東口第１駐輪場","province":"東京都","city":"東村山市","address":"東京都東村山市本町2丁目16-13","lat":35.76119848,"lon":139.46845798},{"name":"東村山駅東口第２駐輪場","province":"東京都","city":"東村山市","address":"東京都東村山市本町2丁目15-28","lat":35.76168732,"lon":139.46838575},{"name":"東村山駅西口地下駐輪場","province":"東京都","city":"東村山市","address":"東京都東村山市野口町3丁目1-41","lat":35.76218969,"lon":139.45838386},{"name":"新秋津駅第２駐輪場","province":"東京都","city":"東村山市","address":"東京都東村山市秋津町5丁目24-19","lat":35.77819153,"lon":139.49255002},{"name":"三井のリパーク　久米川駅前駐輪場","province":"東京都","city":"東村山市","address":"東京都東村山市栄町2丁目10","lat":35.75036365,"lon":139.47062489},{"name":"サイクルタイムズ久米川","province":"東京都","city":"東村山市","address":"東京都東村山市栄町2丁目6","lat":35.74793344,"lon":139.47342196},{"name":"Ｂ－Ｐａｒｋ24　東村山駅東口","province":"東京都","city":"東村山市","address":"東京都東村山市久米川町4丁目8-12","lat":35.76129571,"lon":139.46889961},{"name":"サイクル・インＢ－Ｐａｒｋ　東村山駅東口駐輪場","province":"東京都","city":"東村山市","address":"東京都東村山市久米川町4丁目8-12","lat":35.76129571,"lon":139.46889961},{"name":"三井のリパーク　東村山駅前駐輪場","province":"東京都","city":"東村山市","address":"東京都東村山市野口町1丁目1-4","lat":35.76151223,"lon":139.46528326},{"name":"駐輪館","province":"東京都","city":"東村山市","address":"東京都東村山市野口町1丁目25-8","lat":35.75881804,"lon":139.46414459},{"name":"Ａ－Ｐarkサイクル新秋津駅前","province":"東京都","city":"東村山市","address":"東京都東村山市秋津町5丁目25","lat":35.77794157,"lon":139.49279444},{"name":"サイクルタイムズ秋津","province":"東京都","city":"東村山市","address":"東京都東村山市秋津町5丁目8","lat":35.77749448,"lon":139.49600253},{"name":"西武スマイルパーク　秋津駅南口駐輪場","province":"東京都","city":"東村山市","address":"東京都東村山市秋津町5丁目7-8","lat":35.7783055,"lon":139.49674412},{"name":"三井のリパーク　新秋津駅前駐輪場","province":"東京都","city":"東村山市","address":"東京都東村山市秋津町5丁目14-1","lat":35.77713335,"lon":139.49316665},{"name":"新秋津駅第5駐輪場","province":"東京都","city":"東村山市","address":"東京都東村山市秋津町5丁目17-17","lat":35.77485306,"lon":139.49300003},{"name":"八坂","province":"東京都","city":"東村山市","address":"東京都東村山市萩山町3丁目31-45","lat":35.74387259,"lon":139.46697271},{"name":"東村山郵便局前","province":"東京都","city":"東村山市","address":"東京都東村山市本町2丁目1-2","lat":35.75822931,"lon":139.46684991},{"name":"栄町一丁目","province":"東京都","city":"東村山市","address":"東京都東村山市栄町1丁目23-1","lat":35.75067204,"lon":139.47384403},{"name":"八坂駅北口","province":"東京都","city":"東村山市","address":"東京都東村山市栄町3丁目10-28","lat":35.7458668,"lon":139.46705596},{"name":"萩山町五丁目","province":"東京都","city":"東村山市","address":"東京都東村山市萩山町5丁目3","lat":35.74820856,"lon":139.47866037},{"name":"東村山駅東口","province":"東京都","city":"東村山市","address":"東京都東村山市本町2丁目17-7","lat":35.76104847,"lon":139.46749974},{"name":"南台小学校裏","province":"東京都","city":"東村山市","address":"東京都東村山市富士見町2丁目1","lat":35.74489978,"lon":139.45277395},{"name":"東村山駅西口","province":"東京都","city":"東村山市","address":"東京都東村山市野口町1丁目10-1","lat":35.76173995,"lon":139.46462498},{"name":"萩山駅南口","province":"東京都","city":"東村山市","address":"東京都東村山市萩山町2丁目2","lat":35.74081487,"lon":139.47583872},{"name":"東村山郵便局北","province":"東京都","city":"東村山市","address":"東京都東村山市本町2丁目2-9","lat":35.7595014,"lon":139.46689431},{"name":"多摩北部医療センター前","province":"東京都","city":"東村山市","address":"東京都東村山市青葉町2丁目27-1","lat":35.76242395,"lon":139.49172816},{"name":"秋津駅入口","province":"東京都","city":"東村山市","address":"東京都東村山市秋津町1丁目32-18","lat":35.77338112,"lon":139.49729414},{"name":"青葉駐在所前","province":"東京都","city":"東村山市","address":"東京都東村山市青葉町2丁目24-64","lat":35.76058521,"lon":139.48940895},{"name":"多摩北部医療センター西","province":"東京都","city":"東村山市","address":"東京都東村山市青葉町1丁目7","lat":35.75941877,"lon":139.4930448},{"name":"多摩北部医療センター南","province":"東京都","city":"東村山市","address":"東京都東村山市青葉町1丁目7","lat":35.75941877,"lon":139.4930448},{"name":"西武園駅東","province":"東京都","city":"東村山市","address":"東京都東村山市多摩湖町4丁目29","lat":35.76763595,"lon":139.44840958},{"name":"東村山市保健福祉総合センター","province":"東京都","city":"東村山市","address":"東京都東村山市本町1丁目2-3","lat":35.75462421,"lon":139.46848323},{"name":"東村山市民スポーツセンター","province":"東京都","city":"東村山市","address":"東京都東村山市久米川町3丁目30-5","lat":35.76107658,"lon":139.47965976},{"name":"東村山警察署","province":"東京都","city":"東村山市","address":"東村山市本町1-1-3","lat":35.75562,"lon":139.4675},{"name":"東村山消防署","province":"東京都","city":"東村山市","address":"東村山市美住町2-28-16","lat":35.75293,"lon":139.4506},{"name":"都立東村山中央公園（広場）","province":"東京都","city":"東村山市","address":"東村山市富士見町5丁目地内","lat":35.74522,"lon":139.4609},{"name":"東村山市立運動公園","province":"東京都","city":"東村山市","address":"東村山市恩多町1-51-1","lat":35.75429,"lon":139.4898},{"name":"※東村山市役所本庁舎","province":"東京都","city":"東村山市","address":"東京都東村山市本町1丁目2-3","lat":35.75462421,"lon":139.46848323},{"name":"平成あおば上宮園","province":"東京都","city":"東村山市","address":"東京都東村山市青葉町1-7-75","lat":35.75954,"lon":139.49255},{"name":"東村山市","province":"東京都","city":"東村山市","address":"東村山市本町1-2-3","lat":35.7546244,"lon":139.4684836},{"name":"久米川駅南口第２駐輪場","province":"東京都","city":"東村山市","address":"東京都東村山市栄町2丁目11-13","lat":35.75087469,"lon":139.47040544},{"name":"久米川駅北口地下駐輪場","province":"東京都","city":"東村山市","address":"東京都東村山市栄町1丁目3-1","lat":35.7501304,"lon":139.47295802},{"name":"東村山駅東口第１駐輪場","province":"東京都","city":"東村山市","address":"東京都東村山市本町2丁目16-13","lat":35.76119848,"lon":139.46845798},{"name":"東村山駅東口第２駐輪場","province":"東京都","city":"東村山市","address":"東京都東村山市本町2丁目15-28","lat":35.76168732,"lon":139.46838575},{"name":"東村山駅西口地下駐輪場","province":"東京都","city":"東村山市","address":"東京都東村山市野口町3丁目1-41","lat":35.76218969,"lon":139.45838386},{"name":"新秋津駅第２駐輪場","province":"東京都","city":"東村山市","address":"東京都東村山市秋津町5丁目24-19","lat":35.77819153,"lon":139.49255002},{"name":"三井のリパーク　久米川駅前駐輪場","province":"東京都","city":"東村山市","address":"東京都東村山市栄町2丁目10","lat":35.75036365,"lon":139.47062489},{"name":"サイクルタイムズ久米川","province":"東京都","city":"東村山市","address":"東京都東村山市栄町2丁目6","lat":35.74793344,"lon":139.47342196},{"name":"Ｂ－Ｐａｒｋ24　東村山駅東口","province":"東京都","city":"東村山市","address":"東京都東村山市久米川町4丁目8-12","lat":35.76129571,"lon":139.46889961},{"name":"サイクル・インＢ－Ｐａｒｋ　東村山駅東口駐輪場","province":"東京都","city":"東村山市","address":"東京都東村山市久米川町4丁目8-12","lat":35.76129571,"lon":139.46889961},{"name":"三井のリパーク　東村山駅前駐輪場","province":"東京都","city":"東村山市","address":"東京都東村山市野口町1丁目1-4","lat":35.76151223,"lon":139.46528326},{"name":"駐輪館","province":"東京都","city":"東村山市","address":"東京都東村山市野口町1丁目25-8","lat":35.75881804,"lon":139.46414459},{"name":"Ａ－Ｐarkサイクル新秋津駅前","province":"東京都","city":"東村山市","address":"東京都東村山市秋津町5丁目25","lat":35.77794157,"lon":139.49279444},{"name":"サイクルタイムズ秋津","province":"東京都","city":"東村山市","address":"東京都東村山市秋津町5丁目8","lat":35.77749448,"lon":139.49600253},{"name":"西武スマイルパーク　秋津駅南口駐輪場","province":"東京都","city":"東村山市","address":"東京都東村山市秋津町5丁目7-8","lat":35.7783055,"lon":139.49674412},{"name":"三井のリパーク　新秋津駅前駐輪場","province":"東京都","city":"東村山市","address":"東京都東村山市秋津町5丁目14-1","lat":35.77713335,"lon":139.49316665},{"name":"新秋津駅第5駐輪場","province":"東京都","city":"東村山市","address":"東京都東村山市秋津町5丁目17-17","lat":35.77485306,"lon":139.49300003},{"name":"八坂","province":"東京都","city":"東村山市","address":"東京都東村山市萩山町3丁目31-45","lat":35.74387259,"lon":139.46697271},{"name":"東村山郵便局前","province":"東京都","city":"東村山市","address":"東京都東村山市本町2丁目1-2","lat":35.75822931,"lon":139.46684991},{"name":"栄町一丁目","province":"東京都","city":"東村山市","address":"東京都東村山市栄町1丁目23-1","lat":35.75067204,"lon":139.47384403},{"name":"八坂駅北口","province":"東京都","city":"東村山市","address":"東京都東村山市栄町3丁目10-28","lat":35.7458668,"lon":139.46705596},{"name":"萩山町五丁目","province":"東京都","city":"東村山市","address":"東京都東村山市萩山町5丁目3","lat":35.74820856,"lon":139.47866037},{"name":"東村山駅東口","province":"東京都","city":"東村山市","address":"東京都東村山市本町2丁目17-7","lat":35.76104847,"lon":139.46749974},{"name":"南台小学校裏","province":"東京都","city":"東村山市","address":"東京都東村山市富士見町2丁目1","lat":35.74489978,"lon":139.45277395},{"name":"東村山駅西口","province":"東京都","city":"東村山市","address":"東京都東村山市野口町1丁目10-1","lat":35.76173995,"lon":139.46462498},{"name":"萩山駅南口","province":"東京都","city":"東村山市","address":"東京都東村山市萩山町2丁目2","lat":35.74081487,"lon":139.47583872},{"name":"東村山郵便局北","province":"東京都","city":"東村山市","address":"東京都東村山市本町2丁目2-9","lat":35.7595014,"lon":139.46689431},{"name":"多摩北部医療センター前","province":"東京都","city":"東村山市","address":"東京都東村山市青葉町2丁目27-1","lat":35.76242395,"lon":139.49172816},{"name":"秋津駅入口","province":"東京都","city":"東村山市","address":"東京都東村山市秋津町1丁目32-18","lat":35.77338112,"lon":139.49729414},{"name":"青葉駐在所前","province":"東京都","city":"東村山市","address":"東京都東村山市青葉町2丁目24-64","lat":35.76058521,"lon":139.48940895},{"name":"多摩北部医療センター西","province":"東京都","city":"東村山市","address":"東京都東村山市青葉町1丁目7","lat":35.75941877,"lon":139.4930448},{"name":"多摩北部医療センター南","province":"東京都","city":"東村山市","address":"東京都東村山市青葉町1丁目7","lat":35.75941877,"lon":139.4930448},{"name":"西武園駅東","province":"東京都","city":"東村山市","address":"東京都東村山市多摩湖町4丁目29","lat":35.76763595,"lon":139.44840958},{"name":"東村山市保健福祉総合センター","province":"東京都","city":"東村山市","address":"東京都東村山市本町1丁目2-3","lat":35.75462421,"lon":139.46848323},{"name":"東村山市民スポーツセンター","province":"東京都","city":"東村山市","address":"東京都東村山市久米川町3丁目30-5","lat":35.76107658,"lon":139.47965976},{"name":"東村山警察署","province":"東京都","city":"東村山市","address":"東村山市本町1-1-3","lat":35.75562,"lon":139.4675},{"name":"東村山消防署","province":"東京都","city":"東村山市","address":"東村山市美住町2-28-16","lat":35.75293,"lon":139.4506},{"name":"都立東村山中央公園（広場）","province":"東京都","city":"東村山市","address":"東村山市富士見町5丁目地内","lat":35.74522,"lon":139.4609},{"name":"東村山市立運動公園","province":"東京都","city":"東村山市","address":"東村山市恩多町1-51-1","lat":35.75429,"lon":139.4898},{"name":"※東村山市役所本庁舎","province":"東京都","city":"東村山市","address":"東京都東村山市本町1丁目2-3","lat":35.75462421,"lon":139.46848323},{"name":"平成あおば上宮園","province":"東京都","city":"東村山市","address":"東京都東村山市青葉町1-7-75","lat":35.75954,"lon":139.49255},{"name":"東村山市","province":"東京都","city":"東村山市","address":"東村山市本町1-2-3","lat":35.7546244,"lon":139.4684836},{"name":"久米川駅南口第２駐輪場","province":"東京都","city":"東村山市","address":"東京都東村山市栄町2丁目11-13","lat":35.75087469,"lon":139.47040544},{"name":"久米川駅北口地下駐輪場","province":"東京都","city":"東村山市","address":"東京都東村山市栄町1丁目3-1","lat":35.7501304,"lon":139.47295802},{"name":"東村山駅東口第１駐輪場","province":"東京都","city":"東村山市","address":"東京都東村山市本町2丁目16-13","lat":35.76119848,"lon":139.46845798},{"name":"東村山駅東口第２駐輪場","province":"東京都","city":"東村山市","address":"東京都東村山市本町2丁目15-28","lat":35.76168732,"lon":139.46838575},{"name":"東村山駅西口地下駐輪場","province":"東京都","city":"東村山市","address":"東京都東村山市野口町3丁目1-41","lat":35.76218969,"lon":139.45838386},{"name":"新秋津駅第２駐輪場","province":"東京都","city":"東村山市","address":"東京都東村山市秋津町5丁目24-19","lat":35.77819153,"lon":139.49255002},{"name":"三井のリパーク　久米川駅前駐輪場","province":"東京都","city":"東村山市","address":"東京都東村山市栄町2丁目10","lat":35.75036365,"lon":139.47062489},{"name":"サイクルタイムズ久米川","province":"東京都","city":"東村山市","address":"東京都東村山市栄町2丁目6","lat":35.74793344,"lon":139.47342196},{"name":"Ｂ－Ｐａｒｋ24　東村山駅東口","province":"東京都","city":"東村山市","address":"東京都東村山市久米川町4丁目8-12","lat":35.76129571,"lon":139.46889961},{"name":"サイクル・インＢ－Ｐａｒｋ　東村山駅東口駐輪場","province":"東京都","city":"東村山市","address":"東京都東村山市久米川町4丁目8-12","lat":35.76129571,"lon":139.46889961},{"name":"三井のリパーク　東村山駅前駐輪場","province":"東京都","city":"東村山市","address":"東京都東村山市野口町1丁目1-4","lat":35.76151223,"lon":139.46528326},{"name":"駐輪館","province":"東京都","city":"東村山市","address":"東京都東村山市野口町1丁目25-8","lat":35.75881804,"lon":139.46414459},{"name":"Ａ－Ｐarkサイクル新秋津駅前","province":"東京都","city":"東村山市","address":"東京都東村山市秋津町5丁目25","lat":35.77794157,"lon":139.49279444},{"name":"サイクルタイムズ秋津","province":"東京都","city":"東村山市","address":"東京都東村山市秋津町5丁目8","lat":35.77749448,"lon":139.49600253},{"name":"西武スマイルパーク　秋津駅南口駐輪場","province":"東京都","city":"東村山市","address":"東京都東村山市秋津町5丁目7-8","lat":35.7783055,"lon":139.49674412},{"name":"三井のリパーク　新秋津駅前駐輪場","province":"東京都","city":"東村山市","address":"東京都東村山市秋津町5丁目14-1","lat":35.77713335,"lon":139.49316665},{"name":"新秋津駅第5駐輪場","province":"東京都","city":"東村山市","address":"東京都東村山市秋津町5丁目17-17","lat":35.77485306,"lon":139.49300003},{"name":"東村山市保健福祉総合センター","province":"東京都","city":"東村山市","address":"東京都東村山市本町1丁目2-3","lat":35.75462421,"lon":139.46848323},{"name":"東村山市民スポーツセンター","province":"東京都","city":"東村山市","address":"東京都東村山市久米川町3丁目30-5","lat":35.76107658,"lon":139.47965976},{"name":"東村山警察署","province":"東京都","city":"東村山市","address":"東村山市本町1-1-3","lat":35.75562,"lon":139.4675},{"name":"東村山消防署","province":"東京都","city":"東村山市","address":"東村山市美住町2-28-16","lat":35.75293,"lon":139.4506},{"name":"都立東村山中央公園（広場）","province":"東京都","city":"東村山市","address":"東村山市富士見町5丁目地内","lat":35.74522,"lon":139.4609},{"name":"東村山市立運動公園","province":"東京都","city":"東村山市","address":"東村山市恩多町1-51-1","lat":35.75429,"lon":139.4898},{"name":"※東村山市役所本庁舎","province":"東京都","city":"東村山市","address":"東京都東村山市本町1丁目2-3","lat":35.75462421,"lon":139.46848323},{"name":"平成あおば上宮園","province":"東京都","city":"東村山市","address":"東京都東村山市青葉町1-7-75","lat":35.75954,"lon":139.49255},{"name":"久米川駅南口第２駐輪場","province":"東京都","city":"東村山市","address":"東京都東村山市栄町2丁目11-13","lat":35.75087469,"lon":139.47040544},{"name":"久米川駅北口地下駐輪場","province":"東京都","city":"東村山市","address":"東京都東村山市栄町1丁目3-1","lat":35.7501304,"lon":139.47295802},{"name":"東村山駅東口第１駐輪場","province":"東京都","city":"東村山市","address":"東京都東村山市本町2丁目16-13","lat":35.76119848,"lon":139.46845798},{"name":"東村山駅東口第２駐輪場","province":"東京都","city":"東村山市","address":"東京都東村山市本町2丁目15-28","lat":35.76168732,"lon":139.46838575},{"name":"東村山駅西口地下駐輪場","province":"東京都","city":"東村山市","address":"東京都東村山市野口町3丁目1-41","lat":35.76218969,"lon":139.45838386},{"name":"新秋津駅第２駐輪場","province":"東京都","city":"東村山市","address":"東京都東村山市秋津町5丁目24-19","lat":35.77819153,"lon":139.49255002},{"name":"三井のリパーク　久米川駅前駐輪場","province":"東京都","city":"東村山市","address":"東京都東村山市栄町2丁目10","lat":35.75036365,"lon":139.47062489},{"name":"サイクルタイムズ久米川","province":"東京都","city":"東村山市","address":"東京都東村山市栄町2丁目6","lat":35.74793344,"lon":139.47342196},{"name":"Ｂ－Ｐａｒｋ24　東村山駅東口","province":"東京都","city":"東村山市","address":"東京都東村山市久米川町4丁目8-12","lat":35.76129571,"lon":139.46889961},{"name":"サイクル・インＢ－Ｐａｒｋ　東村山駅東口駐輪場","province":"東京都","city":"東村山市","address":"東京都東村山市久米川町4丁目8-12","lat":35.76129571,"lon":139.46889961},{"name":"三井のリパーク　東村山駅前駐輪場","province":"東京都","city":"東村山市","address":"東京都東村山市野口町1丁目1-4","lat":35.76151223,"lon":139.46528326},{"name":"駐輪館","province":"東京都","city":"東村山市","address":"東京都東村山市野口町1丁目25-8","lat":35.75881804,"lon":139.46414459},{"name":"Ａ－Ｐarkサイクル新秋津駅前","province":"東京都","city":"東村山市","address":"東京都東村山市秋津町5丁目25","lat":35.77794157,"lon":139.49279444},{"name":"サイクルタイムズ秋津","province":"東京都","city":"東村山市","address":"東京都東村山市秋津町5丁目8","lat":35.77749448,"lon":139.49600253},{"name":"西武スマイルパーク　秋津駅南口駐輪場","province":"東京都","city":"東村山市","address":"東京都東村山市秋津町5丁目7-8","lat":35.7783055,"lon":139.49674412},{"name":"三井のリパーク　新秋津駅前駐輪場","province":"東京都","city":"東村山市","address":"東京都東村山市秋津町5丁目14-1","lat":35.77713335,"lon":139.49316665},{"name":"新秋津駅第5駐輪場","province":"東京都","city":"東村山市","address":"東京都東村山市秋津町5丁目17-17","lat":35.77485306,"lon":139.49300003},{"name":"東村山市保健福祉総合センター","province":"東京都","city":"東村山市","address":"東京都東村山市本町1丁目2-3","lat":35.75462421,"lon":139.46848323},{"name":"東村山市民スポーツセンター","province":"東京都","city":"東村山市","address":"東京都東村山市久米川町3丁目30-5","lat":35.76107658,"lon":139.47965976},{"name":"東村山警察署","province":"東京都","city":"東村山市","address":"東村山市本町1-1-3","lat":35.75562,"lon":139.4675},{"name":"東村山消防署","province":"東京都","city":"東村山市","address":"東村山市美住町2-28-16","lat":35.75293,"lon":139.4506},{"name":"都立東村山中央公園（広場）","province":"東京都","city":"東村山市","address":"東村山市富士見町5丁目地内","lat":35.74522,"lon":139.4609},{"name":"東村山市立運動公園","province":"東京都","city":"東村山市","address":"東村山市恩多町1-51-1","lat":35.75429,"lon":139.4898},{"name":"※東村山市役所本庁舎","province":"東京都","city":"東村山市","address":"東京都東村山市本町1丁目2-3","lat":35.75462421,"lon":139.46848323},{"name":"平成あおば上宮園","province":"東京都","city":"東村山市","address":"東京都東村山市青葉町1-7-75","lat":35.75954,"lon":139.49255},{"name":"久米川駅南口第２駐輪場","province":"東京都","city":"東村山市","address":"東京都東村山市栄町2丁目11-13","lat":35.75087469,"lon":139.47040544},{"name":"久米川駅北口地下駐輪場","province":"東京都","city":"東村山市","address":"東京都東村山市栄町1丁目3-1","lat":35.7501304,"lon":139.47295802},{"name":"東村山駅東口第１駐輪場","province":"東京都","city":"東村山市","address":"東京都東村山市本町2丁目16-13","lat":35.76119848,"lon":139.46845798},{"name":"東村山駅東口第２駐輪場","province":"東京都","city":"東村山市","address":"東京都東村山市本町2丁目15-28","lat":35.76168732,"lon":139.46838575},{"name":"東村山駅西口地下駐輪場","province":"東京都","city":"東村山市","address":"東京都東村山市野口町3丁目1-41","lat":35.76218969,"lon":139.45838386},{"name":"新秋津駅第２駐輪場","province":"東京都","city":"東村山市","address":"東京都東村山市秋津町5丁目24-19","lat":35.77819153,"lon":139.49255002},{"name":"三井のリパーク　久米川駅前駐輪場","province":"東京都","city":"東村山市","address":"東京都東村山市栄町2丁目10","lat":35.75036365,"lon":139.47062489},{"name":"サイクルタイムズ久米川","province":"東京都","city":"東村山市","address":"東京都東村山市栄町2丁目6","lat":35.74793344,"lon":139.47342196},{"name":"Ｂ－Ｐａｒｋ24　東村山駅東口","province":"東京都","city":"東村山市","address":"東京都東村山市久米川町4丁目8-12","lat":35.76129571,"lon":139.46889961},{"name":"サイクル・インＢ－Ｐａｒｋ　東村山駅東口駐輪場","province":"東京都","city":"東村山市","address":"東京都東村山市久米川町4丁目8-12","lat":35.76129571,"lon":139.46889961},{"name":"三井のリパーク　東村山駅前駐輪場","province":"東京都","city":"東村山市","address":"東京都東村山市野口町1丁目1-4","lat":35.76151223,"lon":139.46528326},{"name":"駐輪館","province":"東京都","city":"東村山市","address":"東京都東村山市野口町1丁目25-8","lat":35.75881804,"lon":139.46414459},{"name":"Ａ－Ｐarkサイクル新秋津駅前","province":"東京都","city":"東村山市","address":"東京都東村山市秋津町5丁目25","lat":35.77794157,"lon":139.49279444},{"name":"サイクルタイムズ秋津","province":"東京都","city":"東村山市","address":"東京都東村山市秋津町5丁目8","lat":35.77749448,"lon":139.49600253},{"name":"西武スマイルパーク　秋津駅南口駐輪場","province":"東京都","city":"東村山市","address":"東京都東村山市秋津町5丁目7-8","lat":35.7783055,"lon":139.49674412},{"name":"三井のリパーク　新秋津駅前駐輪場","province":"東京都","city":"東村山市","address":"東京都東村山市秋津町5丁目14-1","lat":35.77713335,"lon":139.49316665},{"name":"新秋津駅第5駐輪場","province":"東京都","city":"東村山市","address":"東京都東村山市秋津町5丁目17-17","lat":35.77485306,"lon":139.49300003},{"name":"東村山市保健福祉総合センター","province":"東京都","city":"東村山市","address":"東京都東村山市本町1丁目2-3","lat":35.75462421,"lon":139.46848323},{"name":"東村山市民スポーツセンター","province":"東京都","city":"東村山市","address":"東京都東村山市久米川町3丁目30-5","lat":35.76107658,"lon":139.47965976},{"name":"東村山警察署","province":"東京都","city":"東村山市","address":"東村山市本町1-1-3","lat":35.75562,"lon":139.4675},{"name":"東村山消防署","province":"東京都","city":"東村山市","address":"東村山市美住町2-28-16","lat":35.75293,"lon":139.4506},{"name":"都立東村山中央公園（広場）","province":"東京都","city":"東村山市","address":"東村山市富士見町5丁目地内","lat":35.74522,"lon":139.4609},{"name":"東村山市立運動公園","province":"東京都","city":"東村山市","address":"東村山市恩多町1-51-1","lat":35.75429,"lon":139.4898},{"name":"※東村山市役所本庁舎","province":"東京都","city":"東村山市","address":"東京都東村山市本町1丁目2-3","lat":35.75462421,"lon":139.46848323},{"name":"平成あおば上宮園","province":"東京都","city":"東村山市","address":"東京都東村山市青葉町1-7-75","lat":35.75954,"lon":139.49255},{"name":"久米川駅南口第２駐輪場","province":"東京都","city":"東村山市","address":"東京都東村山市栄町2丁目11-13","lat":35.75087469,"lon":139.47040544},{"name":"久米川駅北口地下駐輪場","province":"東京都","city":"東村山市","address":"東京都東村山市栄町1丁目3-1","lat":35.7501304,"lon":139.47295802},{"name":"東村山駅東口第１駐輪場","province":"東京都","city":"東村山市","address":"東京都東村山市本町2丁目16-13","lat":35.76119848,"lon":139.46845798},{"name":"東村山駅東口第２駐輪場","province":"東京都","city":"東村山市","address":"東京都東村山市本町2丁目15-28","lat":35.76168732,"lon":139.46838575},{"name":"東村山駅西口地下駐輪場","province":"東京都","city":"東村山市","address":"東京都東村山市野口町3丁目1-41","lat":35.76218969,"lon":139.45838386},{"name":"新秋津駅第２駐輪場","province":"東京都","city":"東村山市","address":"東京都東村山市秋津町5丁目24-19","lat":35.77819153,"lon":139.49255002},{"name":"三井のリパーク　久米川駅前駐輪場","province":"東京都","city":"東村山市","address":"東京都東村山市栄町2丁目10","lat":35.75036365,"lon":139.47062489},{"name":"サイクルタイムズ久米川","province":"東京都","city":"東村山市","address":"東京都東村山市栄町2丁目6","lat":35.74793344,"lon":139.47342196},{"name":"Ｂ－Ｐａｒｋ24　東村山駅東口","province":"東京都","city":"東村山市","address":"東京都東村山市久米川町4丁目8-12","lat":35.76129571,"lon":139.46889961},{"name":"サイクル・インＢ－Ｐａｒｋ　東村山駅東口駐輪場","province":"東京都","city":"東村山市","address":"東京都東村山市久米川町4丁目8-12","lat":35.76129571,"lon":139.46889961},{"name":"三井のリパーク　東村山駅前駐輪場","province":"東京都","city":"東村山市","address":"東京都東村山市野口町1丁目1-4","lat":35.76151223,"lon":139.46528326},{"name":"駐輪館","province":"東京都","city":"東村山市","address":"東京都東村山市野口町1丁目25-8","lat":35.75881804,"lon":139.46414459},{"name":"Ａ－Ｐarkサイクル新秋津駅前","province":"東京都","city":"東村山市","address":"東京都東村山市秋津町5丁目25","lat":35.77794157,"lon":139.49279444},{"name":"サイクルタイムズ秋津","province":"東京都","city":"東村山市","address":"東京都東村山市秋津町5丁目8","lat":35.77749448,"lon":139.49600253},{"name":"西武スマイルパーク　秋津駅南口駐輪場","province":"東京都","city":"東村山市","address":"東京都東村山市秋津町5丁目7-8","lat":35.7783055,"lon":139.49674412},{"name":"三井のリパーク　新秋津駅前駐輪場","province":"東京都","city":"東村山市","address":"東京都東村山市秋津町5丁目14-1","lat":35.77713335,"lon":139.49316665},{"name":"新秋津駅第5駐輪場","province":"東京都","city":"東村山市","address":"東京都東村山市秋津町5丁目17-17","lat":35.77485306,"lon":139.49300003},{"name":"東村山市保健福祉総合センター","province":"東京都","city":"東村山市","address":"東京都東村山市本町1丁目2-3","lat":35.75462421,"lon":139.46848323},{"name":"東村山市民スポーツセンター","province":"東京都","city":"東村山市","address":"東京都東村山市久米川町3丁目30-5","lat":35.76107658,"lon":139.47965976},{"name":"東村山警察署","province":"東京都","city":"東村山市","address":"東村山市本町1-1-3","lat":35.75562,"lon":139.4675},{"name":"東村山消防署","province":"東京都","city":"東村山市","address":"東村山市美住町2-28-16","lat":35.75293,"lon":139.4506},{"name":"都立東村山中央公園（広場）","province":"東京都","city":"東村山市","address":"東村山市富士見町5丁目地内","lat":35.74522,"lon":139.4609},{"name":"東村山市立運動公園","province":"東京都","city":"東村山市","address":"東村山市恩多町1-51-1","lat":35.75429,"lon":139.4898},{"name":"※東村山市役所本庁舎","province":"東京都","city":"東村山市","address":"東京都東村山市本町1丁目2-3","lat":35.75462421,"lon":139.46848323},{"name":"平成あおば上宮園","province":"東京都","city":"東村山市","address":"東京都東村山市青葉町1-7-75","lat":35.75954,"lon":139.49255},{"name":"久米川駅南口第２駐輪場","province":"東京都","city":"東村山市","address":"東京都東村山市栄町2丁目11-13","lat":35.75087469,"lon":139.47040544},{"name":"久米川駅北口地下駐輪場","province":"東京都","city":"東村山市","address":"東京都東村山市栄町1丁目3-1","lat":35.7501304,"lon":139.47295802},{"name":"東村山駅東口第１駐輪場","province":"東京都","city":"東村山市","address":"東京都東村山市本町2丁目16-13","lat":35.76119848,"lon":139.46845798},{"name":"東村山駅東口第２駐輪場","province":"東京都","city":"東村山市","address":"東京都東村山市本町2丁目15-28","lat":35.76168732,"lon":139.46838575},{"name":"東村山駅西口地下駐輪場","province":"東京都","city":"東村山市","address":"東京都東村山市野口町3丁目1-41","lat":35.76218969,"lon":139.45838386},{"name":"新秋津駅第２駐輪場","province":"東京都","city":"東村山市","address":"東京都東村山市秋津町5丁目24-19","lat":35.77819153,"lon":139.49255002},{"name":"三井のリパーク　久米川駅前駐輪場","province":"東京都","city":"東村山市","address":"東京都東村山市栄町2丁目10","lat":35.75036365,"lon":139.47062489},{"name":"サイクルタイムズ久米川","province":"東京都","city":"東村山市","address":"東京都東村山市栄町2丁目6","lat":35.74793344,"lon":139.47342196},{"name":"Ｂ－Ｐａｒｋ24　東村山駅東口","province":"東京都","city":"東村山市","address":"東京都東村山市久米川町4丁目8-12","lat":35.76129571,"lon":139.46889961},{"name":"サイクル・インＢ－Ｐａｒｋ　東村山駅東口駐輪場","province":"東京都","city":"東村山市","address":"東京都東村山市久米川町4丁目8-12","lat":35.76129571,"lon":139.46889961},{"name":"三井のリパーク　東村山駅前駐輪場","province":"東京都","city":"東村山市","address":"東京都東村山市野口町1丁目1-4","lat":35.76151223,"lon":139.46528326},{"name":"駐輪館","province":"東京都","city":"東村山市","address":"東京都東村山市野口町1丁目25-8","lat":35.75881804,"lon":139.46414459},{"name":"Ａ－Ｐarkサイクル新秋津駅前","province":"東京都","city":"東村山市","address":"東京都東村山市秋津町5丁目25","lat":35.77794157,"lon":139.49279444},{"name":"サイクルタイムズ秋津","province":"東京都","city":"東村山市","address":"東京都東村山市秋津町5丁目8","lat":35.77749448,"lon":139.49600253},{"name":"西武スマイルパーク　秋津駅南口駐輪場","province":"東京都","city":"東村山市","address":"東京都東村山市秋津町5丁目7-8","lat":35.7783055,"lon":139.49674412},{"name":"三井のリパーク　新秋津駅前駐輪場","province":"東京都","city":"東村山市","address":"東京都東村山市秋津町5丁目14-1","lat":35.77713335,"lon":139.49316665},{"name":"新秋津駅第5駐輪場","province":"東京都","city":"東村山市","address":"東京都東村山市秋津町5丁目17-17","lat":35.77485306,"lon":139.49300003},{"name":"東村山市保健福祉総合センター","province":"東京都","city":"東村山市","address":"東京都東村山市本町1丁目2-3","lat":35.75462421,"lon":139.46848323},{"name":"東村山市民スポーツセンター","province":"東京都","city":"東村山市","address":"東京都東村山市久米川町3丁目30-5","lat":35.76107658,"lon":139.47965976},{"name":"東村山警察署","province":"東京都","city":"東村山市","address":"東村山市本町1-1-3","lat":35.75562,"lon":139.4675},{"name":"東村山消防署","province":"東京都","city":"東村山市","address":"東村山市美住町2-28-16","lat":35.75293,"lon":139.4506},{"name":"都立東村山中央公園（広場）","province":"東京都","city":"東村山市","address":"東村山市富士見町5丁目地内","lat":35.74522,"lon":139.4609},{"name":"東村山市立運動公園","province":"東京都","city":"東村山市","address":"東村山市恩多町1-51-1","lat":35.75429,"lon":139.4898},{"name":"※東村山市役所本庁舎","province":"東京都","city":"東村山市","address":"東京都東村山市本町1丁目2-3","lat":35.75462421,"lon":139.46848323},{"name":"平成あおば上宮園","province":"東京都","city":"東村山市","address":"東京都東村山市青葉町1-7-75","lat":35.75954,"lon":139.49255},{"name":"久米川駅南口第２駐輪場","province":"東京都","city":"東村山市","address":"東京都東村山市栄町2丁目11-13","lat":35.75087469,"lon":139.47040544},{"name":"久米川駅北口地下駐輪場","province":"東京都","city":"東村山市","address":"東京都東村山市栄町1丁目3-1","lat":35.7501304,"lon":139.47295802},{"name":"東村山駅東口第１駐輪場","province":"東京都","city":"東村山市","address":"東京都東村山市本町2丁目16-13","lat":35.76119848,"lon":139.46845798},{"name":"東村山駅東口第２駐輪場","province":"東京都","city":"東村山市","address":"東京都東村山市本町2丁目15-28","lat":35.76168732,"lon":139.46838575},{"name":"東村山駅西口地下駐輪場","province":"東京都","city":"東村山市","address":"東京都東村山市野口町3丁目1-41","lat":35.76218969,"lon":139.45838386},{"name":"新秋津駅第２駐輪場","province":"東京都","city":"東村山市","address":"東京都東村山市秋津町5丁目24-19","lat":35.77819153,"lon":139.49255002},{"name":"三井のリパーク　久米川駅前駐輪場","province":"東京都","city":"東村山市","address":"東京都東村山市栄町2丁目10","lat":35.75036365,"lon":139.47062489},{"name":"サイクルタイムズ久米川","province":"東京都","city":"東村山市","address":"東京都東村山市栄町2丁目6","lat":35.74793344,"lon":139.47342196},{"name":"Ｂ－Ｐａｒｋ24　東村山駅東口","province":"東京都","city":"東村山市","address":"東京都東村山市久米川町4丁目8-12","lat":35.76129571,"lon":139.46889961},{"name":"サイクル・インＢ－Ｐａｒｋ　東村山駅東口駐輪場","province":"東京都","city":"東村山市","address":"東京都東村山市久米川町4丁目8-12","lat":35.76129571,"lon":139.46889961},{"name":"三井のリパーク　東村山駅前駐輪場","province":"東京都","city":"東村山市","address":"東京都東村山市野口町1丁目1-4","lat":35.76151223,"lon":139.46528326},{"name":"駐輪館","province":"東京都","city":"東村山市","address":"東京都東村山市野口町1丁目25-8","lat":35.75881804,"lon":139.46414459},{"name":"Ａ－Ｐarkサイクル新秋津駅前","province":"東京都","city":"東村山市","address":"東京都東村山市秋津町5丁目25","lat":35.77794157,"lon":139.49279444},{"name":"サイクルタイムズ秋津","province":"東京都","city":"東村山市","address":"東京都東村山市秋津町5丁目8","lat":35.77749448,"lon":139.49600253},{"name":"西武スマイルパーク　秋津駅南口駐輪場","province":"東京都","city":"東村山市","address":"東京都東村山市秋津町5丁目7-8","lat":35.7783055,"lon":139.49674412},{"name":"三井のリパーク　新秋津駅前駐輪場","province":"東京都","city":"東村山市","address":"東京都東村山市秋津町5丁目14-1","lat":35.77713335,"lon":139.49316665},{"name":"新秋津駅第5駐輪場","province":"東京都","city":"東村山市","address":"東京都東村山市秋津町5丁目17-17","lat":35.77485306,"lon":139.49300003},{"name":"東村山市保健福祉総合センター","province":"東京都","city":"東村山市","address":"東京都東村山市本町1丁目2-3","lat":35.75462421,"lon":139.46848323},{"name":"東村山市民スポーツセンター","province":"東京都","city":"東村山市","address":"東京都東村山市久米川町3丁目30-5","lat":35.76107658,"lon":139.47965976},{"name":"東村山警察署","province":"東京都","city":"東村山市","address":"東村山市本町1-1-3","lat":35.75562,"lon":139.4675},{"name":"東村山消防署","province":"東京都","city":"東村山市","address":"東村山市美住町2-28-16","lat":35.75293,"lon":139.4506},{"name":"都立東村山中央公園（広場）","province":"東京都","city":"東村山市","address":"東村山市富士見町5丁目地内","lat":35.74522,"lon":139.4609},{"name":"東村山市立運動公園","province":"東京都","city":"東村山市","address":"東村山市恩多町1-51-1","lat":35.75429,"lon":139.4898},{"name":"※東村山市役所本庁舎","province":"東京都","city":"東村山市","address":"東京都東村山市本町1丁目2-3","lat":35.75462421,"lon":139.46848323},{"name":"平成あおば上宮園","province":"東京都","city":"東村山市","address":"東京都東村山市青葉町1-7-75","lat":35.75954,"lon":139.49255},{"name":"久米川駅南口第２駐輪場","province":"東京都","city":"東村山市","address":"東京都東村山市栄町2丁目11-13","lat":35.75087469,"lon":139.47040544},{"name":"久米川駅北口地下駐輪場","province":"東京都","city":"東村山市","address":"東京都東村山市栄町1丁目3-1","lat":35.7501304,"lon":139.47295802},{"name":"東村山駅東口第１駐輪場","province":"東京都","city":"東村山市","address":"東京都東村山市本町2丁目16-13","lat":35.76119848,"lon":139.46845798},{"name":"東村山駅東口第２駐輪場","province":"東京都","city":"東村山市","address":"東京都東村山市本町2丁目15-28","lat":35.76168732,"lon":139.46838575},{"name":"東村山駅西口地下駐輪場","province":"東京都","city":"東村山市","address":"東京都東村山市野口町3丁目1-41","lat":35.76218969,"lon":139.45838386},{"name":"新秋津駅第２駐輪場","province":"東京都","city":"東村山市","address":"東京都東村山市秋津町5丁目24-19","lat":35.77819153,"lon":139.49255002},{"name":"三井のリパーク　久米川駅前駐輪場","province":"東京都","city":"東村山市","address":"東京都東村山市栄町2丁目10","lat":35.75036365,"lon":139.47062489},{"name":"サイクルタイムズ久米川","province":"東京都","city":"東村山市","address":"東京都東村山市栄町2丁目6","lat":35.74793344,"lon":139.47342196},{"name":"Ｂ－Ｐａｒｋ24　東村山駅東口","province":"東京都","city":"東村山市","address":"東京都東村山市久米川町4丁目8-12","lat":35.76129571,"lon":139.46889961},{"name":"サイクル・インＢ－Ｐａｒｋ　東村山駅東口駐輪場","province":"東京都","city":"東村山市","address":"東京都東村山市久米川町4丁目8-12","lat":35.76129571,"lon":139.46889961},{"name":"三井のリパーク　東村山駅前駐輪場","province":"東京都","city":"東村山市","address":"東京都東村山市野口町1丁目1-4","lat":35.76151223,"lon":139.46528326},{"name":"駐輪館","province":"東京都","city":"東村山市","address":"東京都東村山市野口町1丁目25-8","lat":35.75881804,"lon":139.46414459},{"name":"Ａ－Ｐarkサイクル新秋津駅前","province":"東京都","city":"東村山市","address":"東京都東村山市秋津町5丁目25","lat":35.77794157,"lon":139.49279444},{"name":"サイクルタイムズ秋津","province":"東京都","city":"東村山市","address":"東京都東村山市秋津町5丁目8","lat":35.77749448,"lon":139.49600253},{"name":"西武スマイルパーク　秋津駅南口駐輪場","province":"東京都","city":"東村山市","address":"東京都東村山市秋津町5丁目7-8","lat":35.7783055,"lon":139.49674412},{"name":"三井のリパーク　新秋津駅前駐輪場","province":"東京都","city":"東村山市","address":"東京都東村山市秋津町5丁目14-1","lat":35.77713335,"lon":139.49316665},{"name":"新秋津駅第5駐輪場","province":"東京都","city":"東村山市","address":"東京都東村山市秋津町5丁目17-17","lat":35.77485306,"lon":139.49300003},{"name":"東村山市保健福祉総合センター","province":"東京都","city":"東村山市","address":"東京都東村山市本町1丁目2-3","lat":35.75462421,"lon":139.46848323},{"name":"東村山市民スポーツセンター","province":"東京都","city":"東村山市","address":"東京都東村山市久米川町3丁目30-5","lat":35.76107658,"lon":139.47965976},{"name":"東村山警察署","province":"東京都","city":"東村山市","address":"東村山市本町1-1-3","lat":35.75562,"lon":139.4675},{"name":"東村山消防署","province":"東京都","city":"東村山市","address":"東村山市美住町2-28-16","lat":35.75293,"lon":139.4506},{"name":"都立東村山中央公園（広場）","province":"東京都","city":"東村山市","address":"東村山市富士見町5丁目地内","lat":35.74522,"lon":139.4609},{"name":"東村山市立運動公園","province":"東京都","city":"東村山市","address":"東村山市恩多町1-51-1","lat":35.75429,"lon":139.4898},{"name":"※東村山市役所本庁舎","province":"東京都","city":"東村山市","address":"東京都東村山市本町1丁目2-3","lat":35.75462421,"lon":139.46848323},{"name":"平成あおば上宮園","province":"東京都","city":"東村山市","address":"東京都東村山市青葉町1-7-75","lat":35.75954,"lon":139.49255},{"name":"久米川駅南口第２駐輪場","province":"東京都","city":"東村山市","address":"東京都東村山市栄町2丁目11-13","lat":35.75087469,"lon":139.47040544},{"name":"久米川駅北口地下駐輪場","province":"東京都","city":"東村山市","address":"東京都東村山市栄町1丁目3-1","lat":35.7501304,"lon":139.47295802},{"name":"東村山駅東口第１駐輪場","province":"東京都","city":"東村山市","address":"東京都東村山市本町2丁目16-13","lat":35.76119848,"lon":139.46845798},{"name":"東村山駅東口第２駐輪場","province":"東京都","city":"東村山市","address":"東京都東村山市本町2丁目15-28","lat":35.76168732,"lon":139.46838575},{"name":"東村山駅西口地下駐輪場","province":"東京都","city":"東村山市","address":"東京都東村山市野口町3丁目1-41","lat":35.76218969,"lon":139.45838386},{"name":"新秋津駅第２駐輪場","province":"東京都","city":"東村山市","address":"東京都東村山市秋津町5丁目24-19","lat":35.77819153,"lon":139.49255002},{"name":"三井のリパーク　久米川駅前駐輪場","province":"東京都","city":"東村山市","address":"東京都東村山市栄町2丁目10","lat":35.75036365,"lon":139.47062489},{"name":"サイクルタイムズ久米川","province":"東京都","city":"東村山市","address":"東京都東村山市栄町2丁目6","lat":35.74793344,"lon":139.47342196},{"name":"Ｂ－Ｐａｒｋ24　東村山駅東口","province":"東京都","city":"東村山市","address":"東京都東村山市久米川町4丁目8-12","lat":35.76129571,"lon":139.46889961},{"name":"サイクル・インＢ－Ｐａｒｋ　東村山駅東口駐輪場","province":"東京都","city":"東村山市","address":"東京都東村山市久米川町4丁目8-12","lat":35.76129571,"lon":139.46889961},{"name":"三井のリパーク　東村山駅前駐輪場","province":"東京都","city":"東村山市","address":"東京都東村山市野口町1丁目1-4","lat":35.76151223,"lon":139.46528326},{"name":"駐輪館","province":"東京都","city":"東村山市","address":"東京都東村山市野口町1丁目25-8","lat":35.75881804,"lon":139.46414459},{"name":"Ａ－Ｐarkサイクル新秋津駅前","province":"東京都","city":"東村山市","address":"東京都東村山市秋津町5丁目25","lat":35.77794157,"lon":139.49279444},{"name":"サイクルタイムズ秋津","province":"東京都","city":"東村山市","address":"東京都東村山市秋津町5丁目8","lat":35.77749448,"lon":139.49600253},{"name":"西武スマイルパーク　秋津駅南口駐輪場","province":"東京都","city":"東村山市","address":"東京都東村山市秋津町5丁目7-8","lat":35.7783055,"lon":139.49674412},{"name":"三井のリパーク　新秋津駅前駐輪場","province":"東京都","city":"東村山市","address":"東京都東村山市秋津町5丁目14-1","lat":35.77713335,"lon":139.49316665},{"name":"新秋津駅第5駐輪場","province":"東京都","city":"東村山市","address":"東京都東村山市秋津町5丁目17-17","lat":35.77485306,"lon":139.49300003},{"name":"東村山市保健福祉総合センター","province":"東京都","city":"東村山市","address":"東京都東村山市本町1丁目2-3","lat":35.75462421,"lon":139.46848323},{"name":"東村山市民スポーツセンター","province":"東京都","city":"東村山市","address":"東京都東村山市久米川町3丁目30-5","lat":35.76107658,"lon":139.47965976},{"name":"東村山警察署","province":"東京都","city":"東村山市","address":"東村山市本町1-1-3","lat":35.75562,"lon":139.4675},{"name":"東村山消防署","province":"東京都","city":"東村山市","address":"東村山市美住町2-28-16","lat":35.75293,"lon":139.4506},{"name":"都立東村山中央公園（広場）","province":"東京都","city":"東村山市","address":"東村山市富士見町5丁目地内","lat":35.74522,"lon":139.4609},{"name":"東村山市立運動公園","province":"東京都","city":"東村山市","address":"東村山市恩多町1-51-1","lat":35.75429,"lon":139.4898},{"name":"※東村山市役所本庁舎","province":"東京都","city":"東村山市","address":"東京都東村山市本町1丁目2-3","lat":35.75462421,"lon":139.46848323},{"name":"平成あおば上宮園","province":"東京都","city":"東村山市","address":"東京都東村山市青葉町1-7-75","lat":35.75954,"lon":139.49255},{"name":"久米川駅南口第２駐輪場","province":"東京都","city":"東村山市","address":"東京都東村山市栄町2丁目11-13","lat":35.75087469,"lon":139.47040544},{"name":"久米川駅北口地下駐輪場","province":"東京都","city":"東村山市","address":"東京都東村山市栄町1丁目3-1","lat":35.7501304,"lon":139.47295802},{"name":"東村山駅東口第１駐輪場","province":"東京都","city":"東村山市","address":"東京都東村山市本町2丁目16-13","lat":35.76119848,"lon":139.46845798},{"name":"東村山駅東口第２駐輪場","province":"東京都","city":"東村山市","address":"東京都東村山市本町2丁目15-28","lat":35.76168732,"lon":139.46838575},{"name":"東村山駅西口地下駐輪場","province":"東京都","city":"東村山市","address":"東京都東村山市野口町3丁目1-41","lat":35.76218969,"lon":139.45838386},{"name":"新秋津駅第２駐輪場","province":"東京都","city":"東村山市","address":"東京都東村山市秋津町5丁目24-19","lat":35.77819153,"lon":139.49255002},{"name":"三井のリパーク　久米川駅前駐輪場","province":"東京都","city":"東村山市","address":"東京都東村山市栄町2丁目10","lat":35.75036365,"lon":139.47062489},{"name":"サイクルタイムズ久米川","province":"東京都","city":"東村山市","address":"東京都東村山市栄町2丁目6","lat":35.74793344,"lon":139.47342196},{"name":"Ｂ－Ｐａｒｋ24　東村山駅東口","province":"東京都","city":"東村山市","address":"東京都東村山市久米川町4丁目8-12","lat":35.76129571,"lon":139.46889961},{"name":"サイクル・インＢ－Ｐａｒｋ　東村山駅東口駐輪場","province":"東京都","city":"東村山市","address":"東京都東村山市久米川町4丁目8-12","lat":35.76129571,"lon":139.46889961},{"name":"三井のリパーク　東村山駅前駐輪場","province":"東京都","city":"東村山市","address":"東京都東村山市野口町1丁目1-4","lat":35.76151223,"lon":139.46528326},{"name":"駐輪館","province":"東京都","city":"東村山市","address":"東京都東村山市野口町1丁目25-8","lat":35.75881804,"lon":139.46414459},{"name":"Ａ－Ｐarkサイクル新秋津駅前","province":"東京都","city":"東村山市","address":"東京都東村山市秋津町5丁目25","lat":35.77794157,"lon":139.49279444},{"name":"サイクルタイムズ秋津","province":"東京都","city":"東村山市","address":"東京都東村山市秋津町5丁目8","lat":35.77749448,"lon":139.49600253},{"name":"西武スマイルパーク　秋津駅南口駐輪場","province":"東京都","city":"東村山市","address":"東京都東村山市秋津町5丁目7-8","lat":35.7783055,"lon":139.49674412},{"name":"三井のリパーク　新秋津駅前駐輪場","province":"東京都","city":"東村山市","address":"東京都東村山市秋津町5丁目14-1","lat":35.77713335,"lon":139.49316665},{"name":"新秋津駅第5駐輪場","province":"東京都","city":"東村山市","address":"東京都東村山市秋津町5丁目17-17","lat":35.77485306,"lon":139.49300003},{"name":"東村山市保健福祉総合センター","province":"東京都","city":"東村山市","address":"東京都東村山市本町1丁目2-3","lat":35.75462421,"lon":139.46848323},{"name":"東村山市民スポーツセンター","province":"東京都","city":"東村山市","address":"東京都東村山市久米川町3丁目30-5","lat":35.76107658,"lon":139.47965976},{"name":"東村山警察署","province":"東京都","city":"東村山市","address":"東村山市本町1-1-3","lat":35.75562,"lon":139.4675},{"name":"東村山消防署","province":"東京都","city":"東村山市","address":"東村山市美住町2-28-16","lat":35.75293,"lon":139.4506},{"name":"都立東村山中央公園（広場）","province":"東京都","city":"東村山市","address":"東村山市富士見町5丁目地内","lat":35.74522,"lon":139.4609},{"name":"東村山市立運動公園","province":"東京都","city":"東村山市","address":"東村山市恩多町1-51-1","lat":35.75429,"lon":139.4898},{"name":"※東村山市役所本庁舎","province":"東京都","city":"東村山市","address":"東京都東村山市本町1丁目2-3","lat":35.75462421,"lon":139.46848323},{"name":"平成あおば上宮園","province":"東京都","city":"東村山市","address":"東京都東村山市青葉町1-7-75","lat":35.75954,"lon":139.49255},{"name":"久米川駅南口第２駐輪場","province":"東京都","city":"東村山市","address":"東京都東村山市栄町2丁目11-13","lat":35.75087469,"lon":139.47040544},{"name":"久米川駅北口地下駐輪場","province":"東京都","city":"東村山市","address":"東京都東村山市栄町1丁目3-1","lat":35.7501304,"lon":139.47295802},{"name":"東村山駅東口第１駐輪場","province":"東京都","city":"東村山市","address":"東京都東村山市本町2丁目16-13","lat":35.76119848,"lon":139.46845798},{"name":"東村山駅東口第２駐輪場","province":"東京都","city":"東村山市","address":"東京都東村山市本町2丁目15-28","lat":35.76168732,"lon":139.46838575},{"name":"東村山駅西口地下駐輪場","province":"東京都","city":"東村山市","address":"東京都東村山市野口町3丁目1-41","lat":35.76218969,"lon":139.45838386},{"name":"新秋津駅第２駐輪場","province":"東京都","city":"東村山市","address":"東京都東村山市秋津町5丁目24-19","lat":35.77819153,"lon":139.49255002},{"name":"三井のリパーク　久米川駅前駐輪場","province":"東京都","city":"東村山市","address":"東京都東村山市栄町2丁目10","lat":35.75036365,"lon":139.47062489},{"name":"サイクルタイムズ久米川","province":"東京都","city":"東村山市","address":"東京都東村山市栄町2丁目6","lat":35.74793344,"lon":139.47342196},{"name":"Ｂ－Ｐａｒｋ24　東村山駅東口","province":"東京都","city":"東村山市","address":"東京都東村山市久米川町4丁目8-12","lat":35.76129571,"lon":139.46889961},{"name":"サイクル・インＢ－Ｐａｒｋ　東村山駅東口駐輪場","province":"東京都","city":"東村山市","address":"東京都東村山市久米川町4丁目8-12","lat":35.76129571,"lon":139.46889961},{"name":"三井のリパーク　東村山駅前駐輪場","province":"東京都","city":"東村山市","address":"東京都東村山市野口町1丁目1-4","lat":35.76151223,"lon":139.46528326},{"name":"駐輪館","province":"東京都","city":"東村山市","address":"東京都東村山市野口町1丁目25-8","lat":35.75881804,"lon":139.46414459},{"name":"Ａ－Ｐarkサイクル新秋津駅前","province":"東京都","city":"東村山市","address":"東京都東村山市秋津町5丁目25","lat":35.77794157,"lon":139.49279444},{"name":"サイクルタイムズ秋津","province":"東京都","city":"東村山市","address":"東京都東村山市秋津町5丁目8","lat":35.77749448,"lon":139.49600253},{"name":"西武スマイルパーク　秋津駅南口駐輪場","province":"東京都","city":"東村山市","address":"東京都東村山市秋津町5丁目7-8","lat":35.7783055,"lon":139.49674412},{"name":"三井のリパーク　新秋津駅前駐輪場","province":"東京都","city":"東村山市","address":"東京都東村山市秋津町5丁目14-1","lat":35.77713335,"lon":139.49316665},{"name":"新秋津駅第5駐輪場","province":"東京都","city":"東村山市","address":"東京都東村山市秋津町5丁目17-17","lat":35.77485306,"lon":139.49300003},{"name":"東村山市保健福祉総合センター","province":"東京都","city":"東村山市","address":"東京都東村山市本町1丁目2-3","lat":35.75462421,"lon":139.46848323},{"name":"東村山市民スポーツセンター","province":"東京都","city":"東村山市","address":"東京都東村山市久米川町3丁目30-5","lat":35.76107658,"lon":139.47965976},{"name":"東村山警察署","province":"東京都","city":"東村山市","address":"東村山市本町1-1-3","lat":35.75562,"lon":139.4675},{"name":"東村山消防署","province":"東京都","city":"東村山市","address":"東村山市美住町2-28-16","lat":35.75293,"lon":139.4506},{"name":"都立東村山中央公園（広場）","province":"東京都","city":"東村山市","address":"東村山市富士見町5丁目地内","lat":35.74522,"lon":139.4609},{"name":"東村山市立運動公園","province":"東京都","city":"東村山市","address":"東村山市恩多町1-51-1","lat":35.75429,"lon":139.4898},{"name":"※東村山市役所本庁舎","province":"東京都","city":"東村山市","address":"東京都東村山市本町1丁目2-3","lat":35.75462421,"lon":139.46848323},{"name":"平成あおば上宮園","province":"東京都","city":"東村山市","address":"東京都東村山市青葉町1-7-75","lat":35.75954,"lon":139.49255},{"name":"久米川駅南口第２駐輪場","province":"東京都","city":"東村山市","address":"東京都東村山市栄町2丁目11-13","lat":35.75087469,"lon":139.47040544},{"name":"久米川駅北口地下駐輪場","province":"東京都","city":"東村山市","address":"東京都東村山市栄町1丁目3-1","lat":35.7501304,"lon":139.47295802},{"name":"東村山駅東口第１駐輪場","province":"東京都","city":"東村山市","address":"東京都東村山市本町2丁目16-13","lat":35.76119848,"lon":139.46845798},{"name":"東村山駅東口第２駐輪場","province":"東京都","city":"東村山市","address":"東京都東村山市本町2丁目15-28","lat":35.76168732,"lon":139.46838575},{"name":"東村山駅西口地下駐輪場","province":"東京都","city":"東村山市","address":"東京都東村山市野口町3丁目1-41","lat":35.76218969,"lon":139.45838386},{"name":"新秋津駅第２駐輪場","province":"東京都","city":"東村山市","address":"東京都東村山市秋津町5丁目24-19","lat":35.77819153,"lon":139.49255002},{"name":"三井のリパーク　久米川駅前駐輪場","province":"東京都","city":"東村山市","address":"東京都東村山市栄町2丁目10","lat":35.75036365,"lon":139.47062489},{"name":"サイクルタイムズ久米川","province":"東京都","city":"東村山市","address":"東京都東村山市栄町2丁目6","lat":35.74793344,"lon":139.47342196},{"name":"Ｂ－Ｐａｒｋ24　東村山駅東口","province":"東京都","city":"東村山市","address":"東京都東村山市久米川町4丁目8-12","lat":35.76129571,"lon":139.46889961},{"name":"サイクル・インＢ－Ｐａｒｋ　東村山駅東口駐輪場","province":"東京都","city":"東村山市","address":"東京都東村山市久米川町4丁目8-12","lat":35.76129571,"lon":139.46889961},{"name":"三井のリパーク　東村山駅前駐輪場","province":"東京都","city":"東村山市","address":"東京都東村山市野口町1丁目1-4","lat":35.76151223,"lon":139.46528326},{"name":"駐輪館","province":"東京都","city":"東村山市","address":"東京都東村山市野口町1丁目25-8","lat":35.75881804,"lon":139.46414459},{"name":"Ａ－Ｐarkサイクル新秋津駅前","province":"東京都","city":"東村山市","address":"東京都東村山市秋津町5丁目25","lat":35.77794157,"lon":139.49279444},{"name":"サイクルタイムズ秋津","province":"東京都","city":"東村山市","address":"東京都東村山市秋津町5丁目8","lat":35.77749448,"lon":139.49600253},{"name":"西武スマイルパーク　秋津駅南口駐輪場","province":"東京都","city":"東村山市","address":"東京都東村山市秋津町5丁目7-8","lat":35.7783055,"lon":139.49674412},{"name":"三井のリパーク　新秋津駅前駐輪場","province":"東京都","city":"東村山市","address":"東京都東村山市秋津町5丁目14-1","lat":35.77713335,"lon":139.49316665},{"name":"新秋津駅第5駐輪場","province":"東京都","city":"東村山市","address":"東京都東村山市秋津町5丁目17-17","lat":35.77485306,"lon":139.49300003},{"name":"東村山市保健福祉総合センター","province":"東京都","city":"東村山市","address":"東京都東村山市本町1丁目2-3","lat":35.75462421,"lon":139.46848323},{"name":"東村山市民スポーツセンター","province":"東京都","city":"東村山市","address":"東京都東村山市久米川町3丁目30-5","lat":35.76107658,"lon":139.47965976},{"name":"東村山警察署","province":"東京都","city":"東村山市","address":"東村山市本町1-1-3","lat":35.75562,"lon":139.4675},{"name":"東村山消防署","province":"東京都","city":"東村山市","address":"東村山市美住町2-28-16","lat":35.75293,"lon":139.4506},{"name":"都立東村山中央公園（広場）","province":"東京都","city":"東村山市","address":"東村山市富士見町5丁目地内","lat":35.74522,"lon":139.4609},{"name":"東村山市立運動公園","province":"東京都","city":"東村山市","address":"東村山市恩多町1-51-1","lat":35.75429,"lon":139.4898},{"name":"※東村山市役所本庁舎","province":"東京都","city":"東村山市","address":"東京都東村山市本町1丁目2-3","lat":35.75462421,"lon":139.46848323},{"name":"平成あおば上宮園","province":"東京都","city":"東村山市","address":"東京都東村山市青葉町1-7-75","lat":35.75954,"lon":139.49255},{"name":"久米川駅南口第２駐輪場","province":"東京都","city":"東村山市","address":"東京都東村山市栄町2丁目11-13","lat":35.75087469,"lon":139.47040544},{"name":"久米川駅北口地下駐輪場","province":"東京都","city":"東村山市","address":"東京都東村山市栄町1丁目3-1","lat":35.7501304,"lon":139.47295802},{"name":"東村山駅東口第１駐輪場","province":"東京都","city":"東村山市","address":"東京都東村山市本町2丁目16-13","lat":35.76119848,"lon":139.46845798},{"name":"東村山駅東口第２駐輪場","province":"東京都","city":"東村山市","address":"東京都東村山市本町2丁目15-28","lat":35.76168732,"lon":139.46838575},{"name":"東村山駅西口地下駐輪場","province":"東京都","city":"東村山市","address":"東京都東村山市野口町3丁目1-41","lat":35.76218969,"lon":139.45838386},{"name":"新秋津駅第２駐輪場","province":"東京都","city":"東村山市","address":"東京都東村山市秋津町5丁目24-19","lat":35.77819153,"lon":139.49255002},{"name":"三井のリパーク　久米川駅前駐輪場","province":"東京都","city":"東村山市","address":"東京都東村山市栄町2丁目10","lat":35.75036365,"lon":139.47062489},{"name":"サイクルタイムズ久米川","province":"東京都","city":"東村山市","address":"東京都東村山市栄町2丁目6","lat":35.74793344,"lon":139.47342196},{"name":"Ｂ－Ｐａｒｋ24　東村山駅東口","province":"東京都","city":"東村山市","address":"東京都東村山市久米川町4丁目8-12","lat":35.76129571,"lon":139.46889961},{"name":"サイクル・インＢ－Ｐａｒｋ　東村山駅東口駐輪場","province":"東京都","city":"東村山市","address":"東京都東村山市久米川町4丁目8-12","lat":35.76129571,"lon":139.46889961},{"name":"三井のリパーク　東村山駅前駐輪場","province":"東京都","city":"東村山市","address":"東京都東村山市野口町1丁目1-4","lat":35.76151223,"lon":139.46528326},{"name":"駐輪館","province":"東京都","city":"東村山市","address":"東京都東村山市野口町1丁目25-8","lat":35.75881804,"lon":139.46414459},{"name":"Ａ－Ｐarkサイクル新秋津駅前","province":"東京都","city":"東村山市","address":"東京都東村山市秋津町5丁目25","lat":35.77794157,"lon":139.49279444},{"name":"サイクルタイムズ秋津","province":"東京都","city":"東村山市","address":"東京都東村山市秋津町5丁目8","lat":35.77749448,"lon":139.49600253},{"name":"西武スマイルパーク　秋津駅南口駐輪場","province":"東京都","city":"東村山市","address":"東京都東村山市秋津町5丁目7-8","lat":35.7783055,"lon":139.49674412},{"name":"三井のリパーク　新秋津駅前駐輪場","province":"東京都","city":"東村山市","address":"東京都東村山市秋津町5丁目14-1","lat":35.77713335,"lon":139.49316665},{"name":"新秋津駅第5駐輪場","province":"東京都","city":"東村山市","address":"東京都東村山市秋津町5丁目17-17","lat":35.77485306,"lon":139.49300003},{"name":"東村山市保健福祉総合センター","province":"東京都","city":"東村山市","address":"東京都東村山市本町1丁目2-3","lat":35.75462421,"lon":139.46848323},{"name":"東村山市民スポーツセンター","province":"東京都","city":"東村山市","address":"東京都東村山市久米川町3丁目30-5","lat":35.76107658,"lon":139.47965976},{"name":"東村山警察署","province":"東京都","city":"東村山市","address":"東村山市本町1-1-3","lat":35.75562,"lon":139.4675},{"name":"東村山消防署","province":"東京都","city":"東村山市","address":"東村山市美住町2-28-16","lat":35.75293,"lon":139.4506},{"name":"都立東村山中央公園（広場）","province":"東京都","city":"東村山市","address":"東村山市富士見町5丁目地内","lat":35.74522,"lon":139.4609},{"name":"東村山市立運動公園","province":"東京都","city":"東村山市","address":"東村山市恩多町1-51-1","lat":35.75429,"lon":139.4898},{"name":"※東村山市役所本庁舎","province":"東京都","city":"東村山市","address":"東京都東村山市本町1丁目2-3","lat":35.75462421,"lon":139.46848323},{"name":"平成あおば上宮園","province":"東京都","city":"東村山市","address":"東京都東村山市青葉町1-7-75","lat":35.75954,"lon":139.49255},{"name":"久米川駅南口第２駐輪場","province":"東京都","city":"東村山市","address":"東京都東村山市栄町2丁目11-13","lat":35.75087469,"lon":139.47040544},{"name":"久米川駅北口地下駐輪場","province":"東京都","city":"東村山市","address":"東京都東村山市栄町1丁目3-1","lat":35.7501304,"lon":139.47295802},{"name":"東村山駅東口第１駐輪場","province":"東京都","city":"東村山市","address":"東京都東村山市本町2丁目16-13","lat":35.76119848,"lon":139.46845798},{"name":"東村山駅東口第２駐輪場","province":"東京都","city":"東村山市","address":"東京都東村山市本町2丁目15-28","lat":35.76168732,"lon":139.46838575},{"name":"東村山駅西口地下駐輪場","province":"東京都","city":"東村山市","address":"東京都東村山市野口町3丁目1-41","lat":35.76218969,"lon":139.45838386},{"name":"新秋津駅第２駐輪場","province":"東京都","city":"東村山市","address":"東京都東村山市秋津町5丁目24-19","lat":35.77819153,"lon":139.49255002},{"name":"三井のリパーク　久米川駅前駐輪場","province":"東京都","city":"東村山市","address":"東京都東村山市栄町2丁目10","lat":35.75036365,"lon":139.47062489},{"name":"サイクルタイムズ久米川","province":"東京都","city":"東村山市","address":"東京都東村山市栄町2丁目6","lat":35.74793344,"lon":139.47342196},{"name":"Ｂ－Ｐａｒｋ24　東村山駅東口","province":"東京都","city":"東村山市","address":"東京都東村山市久米川町4丁目8-12","lat":35.76129571,"lon":139.46889961},{"name":"サイクル・インＢ－Ｐａｒｋ　東村山駅東口駐輪場","province":"東京都","city":"東村山市","address":"東京都東村山市久米川町4丁目8-12","lat":35.76129571,"lon":139.46889961},{"name":"三井のリパーク　東村山駅前駐輪場","province":"東京都","city":"東村山市","address":"東京都東村山市野口町1丁目1-4","lat":35.76151223,"lon":139.46528326},{"name":"駐輪館","province":"東京都","city":"東村山市","address":"東京都東村山市野口町1丁目25-8","lat":35.75881804,"lon":139.46414459},{"name":"Ａ－Ｐarkサイクル新秋津駅前","province":"東京都","city":"東村山市","address":"東京都東村山市秋津町5丁目25","lat":35.77794157,"lon":139.49279444},{"name":"サイクルタイムズ秋津","province":"東京都","city":"東村山市","address":"東京都東村山市秋津町5丁目8","lat":35.77749448,"lon":139.49600253},{"name":"西武スマイルパーク　秋津駅南口駐輪場","province":"東京都","city":"東村山市","address":"東京都東村山市秋津町5丁目7-8","lat":35.7783055,"lon":139.49674412},{"name":"三井のリパーク　新秋津駅前駐輪場","province":"東京都","city":"東村山市","address":"東京都東村山市秋津町5丁目14-1","lat":35.77713335,"lon":139.49316665},{"name":"新秋津駅第5駐輪場","province":"東京都","city":"東村山市","address":"東京都東村山市秋津町5丁目17-17","lat":35.77485306,"lon":139.49300003},{"name":"東村山市保健福祉総合センター","province":"東京都","city":"東村山市","address":"東京都東村山市本町1丁目2-3","lat":35.75462421,"lon":139.46848323},{"name":"東村山市民スポーツセンター","province":"東京都","city":"東村山市","address":"東京都東村山市久米川町3丁目30-5","lat":35.76107658,"lon":139.47965976},{"name":"東村山警察署","province":"東京都","city":"東村山市","address":"東村山市本町1-1-3","lat":35.75562,"lon":139.4675},{"name":"東村山消防署","province":"東京都","city":"東村山市","address":"東村山市美住町2-28-16","lat":35.75293,"lon":139.4506},{"name":"都立東村山中央公園（広場）","province":"東京都","city":"東村山市","address":"東村山市富士見町5丁目地内","lat":35.74522,"lon":139.4609},{"name":"東村山市立運動公園","province":"東京都","city":"東村山市","address":"東村山市恩多町1-51-1","lat":35.75429,"lon":139.4898},{"name":"※東村山市役所本庁舎","province":"東京都","city":"東村山市","address":"東京都東村山市本町1丁目2-3","lat":35.75462421,"lon":139.46848323},{"name":"平成あおば上宮園","province":"東京都","city":"東村山市","address":"東京都東村山市青葉町1-7-75","lat":35.75954,"lon":139.49255},{"name":"久米川駅南口第２駐輪場","province":"東京都","city":"東村山市","address":"東京都東村山市栄町2丁目11-13","lat":35.75087469,"lon":139.47040544},{"name":"久米川駅北口地下駐輪場","province":"東京都","city":"東村山市","address":"東京都東村山市栄町1丁目3-1","lat":35.7501304,"lon":139.47295802},{"name":"東村山駅東口第１駐輪場","province":"東京都","city":"東村山市","address":"東京都東村山市本町2丁目16-13","lat":35.76119848,"lon":139.46845798},{"name":"東村山駅東口第２駐輪場","province":"東京都","city":"東村山市","address":"東京都東村山市本町2丁目15-28","lat":35.76168732,"lon":139.46838575},{"name":"東村山駅西口地下駐輪場","province":"東京都","city":"東村山市","address":"東京都東村山市野口町3丁目1-41","lat":35.76218969,"lon":139.45838386},{"name":"新秋津駅第２駐輪場","province":"東京都","city":"東村山市","address":"東京都東村山市秋津町5丁目24-19","lat":35.77819153,"lon":139.49255002},{"name":"三井のリパーク　久米川駅前駐輪場","province":"東京都","city":"東村山市","address":"東京都東村山市栄町2丁目10","lat":35.75036365,"lon":139.47062489},{"name":"サイクルタイムズ久米川","province":"東京都","city":"東村山市","address":"東京都東村山市栄町2丁目6","lat":35.74793344,"lon":139.47342196},{"name":"Ｂ－Ｐａｒｋ24　東村山駅東口","province":"東京都","city":"東村山市","address":"東京都東村山市久米川町4丁目8-12","lat":35.76129571,"lon":139.46889961},{"name":"サイクル・インＢ－Ｐａｒｋ　東村山駅東口駐輪場","province":"東京都","city":"東村山市","address":"東京都東村山市久米川町4丁目8-12","lat":35.76129571,"lon":139.46889961},{"name":"三井のリパーク　東村山駅前駐輪場","province":"東京都","city":"東村山市","address":"東京都東村山市野口町1丁目1-4","lat":35.76151223,"lon":139.46528326},{"name":"駐輪館","province":"東京都","city":"東村山市","address":"東京都東村山市野口町1丁目25-8","lat":35.75881804,"lon":139.46414459},{"name":"Ａ－Ｐarkサイクル新秋津駅前","province":"東京都","city":"東村山市","address":"東京都東村山市秋津町5丁目25","lat":35.77794157,"lon":139.49279444},{"name":"サイクルタイムズ秋津","province":"東京都","city":"東村山市","address":"東京都東村山市秋津町5丁目8","lat":35.77749448,"lon":139.49600253},{"name":"西武スマイルパーク　秋津駅南口駐輪場","province":"東京都","city":"東村山市","address":"東京都東村山市秋津町5丁目7-8","lat":35.7783055,"lon":139.49674412},{"name":"三井のリパーク　新秋津駅前駐輪場","province":"東京都","city":"東村山市","address":"東京都東村山市秋津町5丁目14-1","lat":35.77713335,"lon":139.49316665},{"name":"新秋津駅第5駐輪場","province":"東京都","city":"東村山市","address":"東京都東村山市秋津町5丁目17-17","lat":35.77485306,"lon":139.49300003},{"name":"東村山市保健福祉総合センター","province":"東京都","city":"東村山市","address":"東京都東村山市本町1丁目2-3","lat":35.75462421,"lon":139.46848323},{"name":"東村山市民スポーツセンター","province":"東京都","city":"東村山市","address":"東京都東村山市久米川町3丁目30-5","lat":35.76107658,"lon":139.47965976},{"name":"東村山警察署","province":"東京都","city":"東村山市","address":"東村山市本町1-1-3","lat":35.75562,"lon":139.4675},{"name":"東村山消防署","province":"東京都","city":"東村山市","address":"東村山市美住町2-28-16","lat":35.75293,"lon":139.4506},{"name":"都立東村山中央公園（広場）","province":"東京都","city":"東村山市","address":"東村山市富士見町5丁目地内","lat":35.74522,"lon":139.4609},{"name":"東村山市立運動公園","province":"東京都","city":"東村山市","address":"東村山市恩多町1-51-1","lat":35.75429,"lon":139.4898},{"name":"※東村山市役所本庁舎","province":"東京都","city":"東村山市","address":"東京都東村山市本町1丁目2-3","lat":35.75462421,"lon":139.46848323},{"name":"平成あおば上宮園","province":"東京都","city":"東村山市","address":"東京都東村山市青葉町1-7-75","lat":35.75954,"lon":139.49255},{"name":"久米川駅南口第２駐輪場","province":"東京都","city":"東村山市","address":"東京都東村山市栄町2丁目11-13","lat":35.75087469,"lon":139.47040544},{"name":"久米川駅北口地下駐輪場","province":"東京都","city":"東村山市","address":"東京都東村山市栄町1丁目3-1","lat":35.7501304,"lon":139.47295802},{"name":"東村山駅東口第１駐輪場","province":"東京都","city":"東村山市","address":"東京都東村山市本町2丁目16-13","lat":35.76119848,"lon":139.46845798},{"name":"東村山駅東口第２駐輪場","province":"東京都","city":"東村山市","address":"東京都東村山市本町2丁目15-28","lat":35.76168732,"lon":139.46838575},{"name":"東村山駅西口地下駐輪場","province":"東京都","city":"東村山市","address":"東京都東村山市野口町3丁目1-41","lat":35.76218969,"lon":139.45838386},{"name":"新秋津駅第２駐輪場","province":"東京都","city":"東村山市","address":"東京都東村山市秋津町5丁目24-19","lat":35.77819153,"lon":139.49255002},{"name":"三井のリパーク　久米川駅前駐輪場","province":"東京都","city":"東村山市","address":"東京都東村山市栄町2丁目10","lat":35.75036365,"lon":139.47062489},{"name":"サイクルタイムズ久米川","province":"東京都","city":"東村山市","address":"東京都東村山市栄町2丁目6","lat":35.74793344,"lon":139.47342196},{"name":"Ｂ－Ｐａｒｋ24　東村山駅東口","province":"東京都","city":"東村山市","address":"東京都東村山市久米川町4丁目8-12","lat":35.76129571,"lon":139.46889961},{"name":"サイクル・インＢ－Ｐａｒｋ　東村山駅東口駐輪場","province":"東京都","city":"東村山市","address":"東京都東村山市久米川町4丁目8-12","lat":35.76129571,"lon":139.46889961},{"name":"三井のリパーク　東村山駅前駐輪場","province":"東京都","city":"東村山市","address":"東京都東村山市野口町1丁目1-4","lat":35.76151223,"lon":139.46528326},{"name":"駐輪館","province":"東京都","city":"東村山市","address":"東京都東村山市野口町1丁目25-8","lat":35.75881804,"lon":139.46414459},{"name":"Ａ－Ｐarkサイクル新秋津駅前","province":"東京都","city":"東村山市","address":"東京都東村山市秋津町5丁目25","lat":35.77794157,"lon":139.49279444},{"name":"サイクルタイムズ秋津","province":"東京都","city":"東村山市","address":"東京都東村山市秋津町5丁目8","lat":35.77749448,"lon":139.49600253},{"name":"西武スマイルパーク　秋津駅南口駐輪場","province":"東京都","city":"東村山市","address":"東京都東村山市秋津町5丁目7-8","lat":35.7783055,"lon":139.49674412},{"name":"三井のリパーク　新秋津駅前駐輪場","province":"東京都","city":"東村山市","address":"東京都東村山市秋津町5丁目14-1","lat":35.77713335,"lon":139.49316665},{"name":"新秋津駅第5駐輪場","province":"東京都","city":"東村山市","address":"東京都東村山市秋津町5丁目17-17","lat":35.77485306,"lon":139.49300003},{"name":"東村山市保健福祉総合センター","province":"東京都","city":"東村山市","address":"東京都東村山市本町1丁目2-3","lat":35.75462421,"lon":139.46848323},{"name":"東村山市民スポーツセンター","province":"東京都","city":"東村山市","address":"東京都東村山市久米川町3丁目30-5","lat":35.76107658,"lon":139.47965976},{"name":"東村山警察署","province":"東京都","city":"東村山市","address":"東村山市本町1-1-3","lat":35.75562,"lon":139.4675},{"name":"東村山消防署","province":"東京都","city":"東村山市","address":"東村山市美住町2-28-16","lat":35.75293,"lon":139.4506},{"name":"都立東村山中央公園（広場）","province":"東京都","city":"東村山市","address":"東村山市富士見町5丁目地内","lat":35.74522,"lon":139.4609},{"name":"東村山市立運動公園","province":"東京都","city":"東村山市","address":"東村山市恩多町1-51-1","lat":35.75429,"lon":139.4898},{"name":"※東村山市役所本庁舎","province":"東京都","city":"東村山市","address":"東京都東村山市本町1丁目2-3","lat":35.75462421,"lon":139.46848323},{"name":"平成あおば上宮園","province":"東京都","city":"東村山市","address":"東京都東村山市青葉町1-7-75","lat":35.75954,"lon":139.49255},{"name":"久米川駅南口第２駐輪場","province":"東京都","city":"東村山市","address":"東京都東村山市栄町2丁目11-13","lat":35.75087469,"lon":139.47040544},{"name":"久米川駅北口地下駐輪場","province":"東京都","city":"東村山市","address":"東京都東村山市栄町1丁目3-1","lat":35.7501304,"lon":139.47295802},{"name":"東村山駅東口第１駐輪場","province":"東京都","city":"東村山市","address":"東京都東村山市本町2丁目16-13","lat":35.76119848,"lon":139.46845798},{"name":"東村山駅東口第２駐輪場","province":"東京都","city":"東村山市","address":"東京都東村山市本町2丁目15-28","lat":35.76168732,"lon":139.46838575},{"name":"東村山駅西口地下駐輪場","province":"東京都","city":"東村山市","address":"東京都東村山市野口町3丁目1-41","lat":35.76218969,"lon":139.45838386},{"name":"新秋津駅第２駐輪場","province":"東京都","city":"東村山市","address":"東京都東村山市秋津町5丁目24-19","lat":35.77819153,"lon":139.49255002},{"name":"三井のリパーク　久米川駅前駐輪場","province":"東京都","city":"東村山市","address":"東京都東村山市栄町2丁目10","lat":35.75036365,"lon":139.47062489},{"name":"サイクルタイムズ久米川","province":"東京都","city":"東村山市","address":"東京都東村山市栄町2丁目6","lat":35.74793344,"lon":139.47342196},{"name":"Ｂ－Ｐａｒｋ24　東村山駅東口","province":"東京都","city":"東村山市","address":"東京都東村山市久米川町4丁目8-12","lat":35.76129571,"lon":139.46889961},{"name":"サイクル・インＢ－Ｐａｒｋ　東村山駅東口駐輪場","province":"東京都","city":"東村山市","address":"東京都東村山市久米川町4丁目8-12","lat":35.76129571,"lon":139.46889961},{"name":"三井のリパーク　東村山駅前駐輪場","province":"東京都","city":"東村山市","address":"東京都東村山市野口町1丁目1-4","lat":35.76151223,"lon":139.46528326},{"name":"駐輪館","province":"東京都","city":"東村山市","address":"東京都東村山市野口町1丁目25-8","lat":35.75881804,"lon":139.46414459},{"name":"Ａ－Ｐarkサイクル新秋津駅前","province":"東京都","city":"東村山市","address":"東京都東村山市秋津町5丁目25","lat":35.77794157,"lon":139.49279444},{"name":"サイクルタイムズ秋津","province":"東京都","city":"東村山市","address":"東京都東村山市秋津町5丁目8","lat":35.77749448,"lon":139.49600253},{"name":"西武スマイルパーク　秋津駅南口駐輪場","province":"東京都","city":"東村山市","address":"東京都東村山市秋津町5丁目7-8","lat":35.7783055,"lon":139.49674412},{"name":"三井のリパーク　新秋津駅前駐輪場","province":"東京都","city":"東村山市","address":"東京都東村山市秋津町5丁目14-1","lat":35.77713335,"lon":139.49316665},{"name":"新秋津駅第5駐輪場","province":"東京都","city":"東村山市","address":"東京都東村山市秋津町5丁目17-17","lat":35.77485306,"lon":139.49300003},{"name":"東村山市保健福祉総合センター","province":"東京都","city":"東村山市","address":"東京都東村山市本町1丁目2-3","lat":35.75462421,"lon":139.46848323},{"name":"東村山市民スポーツセンター","province":"東京都","city":"東村山市","address":"東京都東村山市久米川町3丁目30-5","lat":35.76107658,"lon":139.47965976},{"name":"東村山警察署","province":"東京都","city":"東村山市","address":"東村山市本町1-1-3","lat":35.75562,"lon":139.4675},{"name":"東村山消防署","province":"東京都","city":"東村山市","address":"東村山市美住町2-28-16","lat":35.75293,"lon":139.4506},{"name":"都立東村山中央公園（広場）","province":"東京都","city":"東村山市","address":"東村山市富士見町5丁目地内","lat":35.74522,"lon":139.4609},{"name":"東村山市立運動公園","province":"東京都","city":"東村山市","address":"東村山市恩多町1-51-1","lat":35.75429,"lon":139.4898},{"name":"※東村山市役所本庁舎","province":"東京都","city":"東村山市","address":"東京都東村山市本町1丁目2-3","lat":35.75462421,"lon":139.46848323},{"name":"平成あおば上宮園","province":"東京都","city":"東村山市","address":"東京都東村山市青葉町1-7-75","lat":35.75954,"lon":139.49255},{"name":"久米川駅南口第２駐輪場","province":"東京都","city":"東村山市","address":"東京都東村山市栄町2丁目11-13","lat":35.75087469,"lon":139.47040544},{"name":"久米川駅北口地下駐輪場","province":"東京都","city":"東村山市","address":"東京都東村山市栄町1丁目3-1","lat":35.7501304,"lon":139.47295802},{"name":"東村山駅東口第１駐輪場","province":"東京都","city":"東村山市","address":"東京都東村山市本町2丁目16-13","lat":35.76119848,"lon":139.46845798},{"name":"東村山駅東口第２駐輪場","province":"東京都","city":"東村山市","address":"東京都東村山市本町2丁目15-28","lat":35.76168732,"lon":139.46838575},{"name":"東村山駅西口地下駐輪場","province":"東京都","city":"東村山市","address":"東京都東村山市野口町3丁目1-41","lat":35.76218969,"lon":139.45838386},{"name":"新秋津駅第２駐輪場","province":"東京都","city":"東村山市","address":"東京都東村山市秋津町5丁目24-19","lat":35.77819153,"lon":139.49255002},{"name":"三井のリパーク　久米川駅前駐輪場","province":"東京都","city":"東村山市","address":"東京都東村山市栄町2丁目10","lat":35.75036365,"lon":139.47062489},{"name":"サイクルタイムズ久米川","province":"東京都","city":"東村山市","address":"東京都東村山市栄町2丁目6","lat":35.74793344,"lon":139.47342196},{"name":"Ｂ－Ｐａｒｋ24　東村山駅東口","province":"東京都","city":"東村山市","address":"東京都東村山市久米川町4丁目8-12","lat":35.76129571,"lon":139.46889961},{"name":"サイクル・インＢ－Ｐａｒｋ　東村山駅東口駐輪場","province":"東京都","city":"東村山市","address":"東京都東村山市久米川町4丁目8-12","lat":35.76129571,"lon":139.46889961},{"name":"三井のリパーク　東村山駅前駐輪場","province":"東京都","city":"東村山市","address":"東京都東村山市野口町1丁目1-4","lat":35.76151223,"lon":139.46528326},{"name":"駐輪館","province":"東京都","city":"東村山市","address":"東京都東村山市野口町1丁目25-8","lat":35.75881804,"lon":139.46414459},{"name":"Ａ－Ｐarkサイクル新秋津駅前","province":"東京都","city":"東村山市","address":"東京都東村山市秋津町5丁目25","lat":35.77794157,"lon":139.49279444},{"name":"サイクルタイムズ秋津","province":"東京都","city":"東村山市","address":"東京都東村山市秋津町5丁目8","lat":35.77749448,"lon":139.49600253},{"name":"西武スマイルパーク　秋津駅南口駐輪場","province":"東京都","city":"東村山市","address":"東京都東村山市秋津町5丁目7-8","lat":35.7783055,"lon":139.49674412},{"name":"三井のリパーク　新秋津駅前駐輪場","province":"東京都","city":"東村山市","address":"東京都東村山市秋津町5丁目14-1","lat":35.77713335,"lon":139.49316665},{"name":"新秋津駅第5駐輪場","province":"東京都","city":"東村山市","address":"東京都東村山市秋津町5丁目17-17","lat":35.77485306,"lon":139.49300003},{"name":"東村山市保健福祉総合センター","province":"東京都","city":"東村山市","address":"東京都東村山市本町1丁目2-3","lat":35.75462421,"lon":139.46848323},{"name":"東村山市民スポーツセンター","province":"東京都","city":"東村山市","address":"東京都東村山市久米川町3丁目30-5","lat":35.76107658,"lon":139.47965976},{"name":"東村山警察署","province":"東京都","city":"東村山市","address":"東村山市本町1-1-3","lat":35.75562,"lon":139.4675},{"name":"東村山消防署","province":"東京都","city":"東村山市","address":"東村山市美住町2-28-16","lat":35.75293,"lon":139.4506},{"name":"都立東村山中央公園（広場）","province":"東京都","city":"東村山市","address":"東村山市富士見町5丁目地内","lat":35.74522,"lon":139.4609},{"name":"東村山市立運動公園","province":"東京都","city":"東村山市","address":"東村山市恩多町1-51-1","lat":35.75429,"lon":139.4898},{"name":"※東村山市役所本庁舎","province":"東京都","city":"東村山市","address":"東京都東村山市本町1丁目2-3","lat":35.75462421,"lon":139.46848323},{"name":"平成あおば上宮園","province":"東京都","city":"東村山市","address":"東京都東村山市青葉町1-7-75","lat":35.75954,"lon":139.49255},{"name":"久米川駅南口第２駐輪場","province":"東京都","city":"東村山市","address":"東京都東村山市栄町2丁目11-13","lat":35.75087469,"lon":139.47040544},{"name":"久米川駅北口地下駐輪場","province":"東京都","city":"東村山市","address":"東京都東村山市栄町1丁目3-1","lat":35.7501304,"lon":139.47295802},{"name":"東村山駅東口第１駐輪場","province":"東京都","city":"東村山市","address":"東京都東村山市本町2丁目16-13","lat":35.76119848,"lon":139.46845798},{"name":"東村山駅東口第２駐輪場","province":"東京都","city":"東村山市","address":"東京都東村山市本町2丁目15-28","lat":35.76168732,"lon":139.46838575},{"name":"東村山駅西口地下駐輪場","province":"東京都","city":"東村山市","address":"東京都東村山市野口町3丁目1-41","lat":35.76218969,"lon":139.45838386},{"name":"新秋津駅第２駐輪場","province":"東京都","city":"東村山市","address":"東京都東村山市秋津町5丁目24-19","lat":35.77819153,"lon":139.49255002},{"name":"三井のリパーク　久米川駅前駐輪場","province":"東京都","city":"東村山市","address":"東京都東村山市栄町2丁目10","lat":35.75036365,"lon":139.47062489},{"name":"サイクルタイムズ久米川","province":"東京都","city":"東村山市","address":"東京都東村山市栄町2丁目6","lat":35.74793344,"lon":139.47342196},{"name":"Ｂ－Ｐａｒｋ24　東村山駅東口","province":"東京都","city":"東村山市","address":"東京都東村山市久米川町4丁目8-12","lat":35.76129571,"lon":139.46889961},{"name":"サイクル・インＢ－Ｐａｒｋ　東村山駅東口駐輪場","province":"東京都","city":"東村山市","address":"東京都東村山市久米川町4丁目8-12","lat":35.76129571,"lon":139.46889961},{"name":"三井のリパーク　東村山駅前駐輪場","province":"東京都","city":"東村山市","address":"東京都東村山市野口町1丁目1-4","lat":35.76151223,"lon":139.46528326},{"name":"駐輪館","province":"東京都","city":"東村山市","address":"東京都東村山市野口町1丁目25-8","lat":35.75881804,"lon":139.46414459},{"name":"Ａ－Ｐarkサイクル新秋津駅前","province":"東京都","city":"東村山市","address":"東京都東村山市秋津町5丁目25","lat":35.77794157,"lon":139.49279444},{"name":"サイクルタイムズ秋津","province":"東京都","city":"東村山市","address":"東京都東村山市秋津町5丁目8","lat":35.77749448,"lon":139.49600253},{"name":"西武スマイルパーク　秋津駅南口駐輪場","province":"東京都","city":"東村山市","address":"東京都東村山市秋津町5丁目7-8","lat":35.7783055,"lon":139.49674412},{"name":"三井のリパーク　新秋津駅前駐輪場","province":"東京都","city":"東村山市","address":"東京都東村山市秋津町5丁目14-1","lat":35.77713335,"lon":139.49316665},{"name":"新秋津駅第5駐輪場","province":"東京都","city":"東村山市","address":"東京都東村山市秋津町5丁目17-17","lat":35.77485306,"lon":139.49300003},{"name":"東村山市保健福祉総合センター","province":"東京都","city":"東村山市","address":"東京都東村山市本町1丁目2-3","lat":35.75462421,"lon":139.46848323},{"name":"東村山市民スポーツセンター","province":"東京都","city":"東村山市","address":"東京都東村山市久米川町3丁目30-5","lat":35.76107658,"lon":139.47965976},{"name":"東村山警察署","province":"東京都","city":"東村山市","address":"東村山市本町1-1-3","lat":35.75562,"lon":139.4675},{"name":"東村山消防署","province":"東京都","city":"東村山市","address":"東村山市美住町2-28-16","lat":35.75293,"lon":139.4506},{"name":"都立東村山中央公園（広場）","province":"東京都","city":"東村山市","address":"東村山市富士見町5丁目地内","lat":35.74522,"lon":139.4609},{"name":"東村山市立運動公園","province":"東京都","city":"東村山市","address":"東村山市恩多町1-51-1","lat":35.75429,"lon":139.4898},{"name":"※東村山市役所本庁舎","province":"東京都","city":"東村山市","address":"東京都東村山市本町1丁目2-3","lat":35.75462421,"lon":139.46848323},{"name":"平成あおば上宮園","province":"東京都","city":"東村山市","address":"東京都東村山市青葉町1-7-75","lat":35.75954,"lon":139.49255},{"name":"久米川駅南口第２駐輪場","province":"東京都","city":"東村山市","address":"東京都東村山市栄町2丁目11-13","lat":35.75087469,"lon":139.47040544},{"name":"久米川駅北口地下駐輪場","province":"東京都","city":"東村山市","address":"東京都東村山市栄町1丁目3-1","lat":35.7501304,"lon":139.47295802},{"name":"東村山駅東口第１駐輪場","province":"東京都","city":"東村山市","address":"東京都東村山市本町2丁目16-13","lat":35.76119848,"lon":139.46845798},{"name":"東村山駅東口第２駐輪場","province":"東京都","city":"東村山市","address":"東京都東村山市本町2丁目15-28","lat":35.76168732,"lon":139.46838575},{"name":"東村山駅西口地下駐輪場","province":"東京都","city":"東村山市","address":"東京都東村山市野口町3丁目1-41","lat":35.76218969,"lon":139.45838386},{"name":"新秋津駅第２駐輪場","province":"東京都","city":"東村山市","address":"東京都東村山市秋津町5丁目24-19","lat":35.77819153,"lon":139.49255002},{"name":"三井のリパーク　久米川駅前駐輪場","province":"東京都","city":"東村山市","address":"東京都東村山市栄町2丁目10","lat":35.75036365,"lon":139.47062489},{"name":"サイクルタイムズ久米川","province":"東京都","city":"東村山市","address":"東京都東村山市栄町2丁目6","lat":35.74793344,"lon":139.47342196},{"name":"Ｂ－Ｐａｒｋ24　東村山駅東口","province":"東京都","city":"東村山市","address":"東京都東村山市久米川町4丁目8-12","lat":35.76129571,"lon":139.46889961},{"name":"サイクル・インＢ－Ｐａｒｋ　東村山駅東口駐輪場","province":"東京都","city":"東村山市","address":"東京都東村山市久米川町4丁目8-12","lat":35.76129571,"lon":139.46889961},{"name":"三井のリパーク　東村山駅前駐輪場","province":"東京都","city":"東村山市","address":"東京都東村山市野口町1丁目1-4","lat":35.76151223,"lon":139.46528326},{"name":"駐輪館","province":"東京都","city":"東村山市","address":"東京都東村山市野口町1丁目25-8","lat":35.75881804,"lon":139.46414459},{"name":"Ａ－Ｐarkサイクル新秋津駅前","province":"東京都","city":"東村山市","address":"東京都東村山市秋津町5丁目25","lat":35.77794157,"lon":139.49279444},{"name":"サイクルタイムズ秋津","province":"東京都","city":"東村山市","address":"東京都東村山市秋津町5丁目8","lat":35.77749448,"lon":139.49600253},{"name":"西武スマイルパーク　秋津駅南口駐輪場","province":"東京都","city":"東村山市","address":"東京都東村山市秋津町5丁目7-8","lat":35.7783055,"lon":139.49674412},{"name":"三井のリパーク　新秋津駅前駐輪場","province":"東京都","city":"東村山市","address":"東京都東村山市秋津町5丁目14-1","lat":35.77713335,"lon":139.49316665},{"name":"新秋津駅第5駐輪場","province":"東京都","city":"東村山市","address":"東京都東村山市秋津町5丁目17-17","lat":35.77485306,"lon":139.49300003},{"name":"東村山市保健福祉総合センター","province":"東京都","city":"東村山市","address":"東京都東村山市本町1丁目2-3","lat":35.75462421,"lon":139.46848323},{"name":"東村山市民スポーツセンター","province":"東京都","city":"東村山市","address":"東京都東村山市久米川町3丁目30-5","lat":35.76107658,"lon":139.47965976},{"name":"東村山警察署","province":"東京都","city":"東村山市","address":"東村山市本町1-1-3","lat":35.75562,"lon":139.4675},{"name":"東村山消防署","province":"東京都","city":"東村山市","address":"東村山市美住町2-28-16","lat":35.75293,"lon":139.4506},{"name":"都立東村山中央公園（広場）","province":"東京都","city":"東村山市","address":"東村山市富士見町5丁目地内","lat":35.74522,"lon":139.4609},{"name":"東村山市立運動公園","province":"東京都","city":"東村山市","address":"東村山市恩多町1-51-1","lat":35.75429,"lon":139.4898},{"name":"※東村山市役所本庁舎","province":"東京都","city":"東村山市","address":"東京都東村山市本町1丁目2-3","lat":35.75462421,"lon":139.46848323},{"name":"平成あおば上宮園","province":"東京都","city":"東村山市","address":"東京都東村山市青葉町1-7-75","lat":35.75954,"lon":139.49255},{"name":"久米川駅南口第２駐輪場","province":"東京都","city":"東村山市","address":"東京都東村山市栄町2丁目11-13","lat":35.75087469,"lon":139.47040544},{"name":"久米川駅北口地下駐輪場","province":"東京都","city":"東村山市","address":"東京都東村山市栄町1丁目3-1","lat":35.7501304,"lon":139.47295802},{"name":"東村山駅東口第１駐輪場","province":"東京都","city":"東村山市","address":"東京都東村山市本町2丁目16-13","lat":35.76119848,"lon":139.46845798},{"name":"東村山駅東口第２駐輪場","province":"東京都","city":"東村山市","address":"東京都東村山市本町2丁目15-28","lat":35.76168732,"lon":139.46838575},{"name":"東村山駅西口地下駐輪場","province":"東京都","city":"東村山市","address":"東京都東村山市野口町3丁目1-41","lat":35.76218969,"lon":139.45838386},{"name":"新秋津駅第２駐輪場","province":"東京都","city":"東村山市","address":"東京都東村山市秋津町5丁目24-19","lat":35.77819153,"lon":139.49255002},{"name":"三井のリパーク　久米川駅前駐輪場","province":"東京都","city":"東村山市","address":"東京都東村山市栄町2丁目10","lat":35.75036365,"lon":139.47062489},{"name":"サイクルタイムズ久米川","province":"東京都","city":"東村山市","address":"東京都東村山市栄町2丁目6","lat":35.74793344,"lon":139.47342196},{"name":"Ｂ－Ｐａｒｋ24　東村山駅東口","province":"東京都","city":"東村山市","address":"東京都東村山市久米川町4丁目8-12","lat":35.76129571,"lon":139.46889961},{"name":"サイクル・インＢ－Ｐａｒｋ　東村山駅東口駐輪場","province":"東京都","city":"東村山市","address":"東京都東村山市久米川町4丁目8-12","lat":35.76129571,"lon":139.46889961},{"name":"三井のリパーク　東村山駅前駐輪場","province":"東京都","city":"東村山市","address":"東京都東村山市野口町1丁目1-4","lat":35.76151223,"lon":139.46528326},{"name":"駐輪館","province":"東京都","city":"東村山市","address":"東京都東村山市野口町1丁目25-8","lat":35.75881804,"lon":139.46414459},{"name":"Ａ－Ｐarkサイクル新秋津駅前","province":"東京都","city":"東村山市","address":"東京都東村山市秋津町5丁目25","lat":35.77794157,"lon":139.49279444},{"name":"サイクルタイムズ秋津","province":"東京都","city":"東村山市","address":"東京都東村山市秋津町5丁目8","lat":35.77749448,"lon":139.49600253},{"name":"西武スマイルパーク　秋津駅南口駐輪場","province":"東京都","city":"東村山市","address":"東京都東村山市秋津町5丁目7-8","lat":35.7783055,"lon":139.49674412},{"name":"三井のリパーク　新秋津駅前駐輪場","province":"東京都","city":"東村山市","address":"東京都東村山市秋津町5丁目14-1","lat":35.77713335,"lon":139.49316665},{"name":"新秋津駅第5駐輪場","province":"東京都","city":"東村山市","address":"東京都東村山市秋津町5丁目17-17","lat":35.77485306,"lon":139.49300003},{"name":"東村山市保健福祉総合センター","province":"東京都","city":"東村山市","address":"東京都東村山市本町1丁目2-3","lat":35.75462421,"lon":139.46848323},{"name":"東村山市民スポーツセンター","province":"東京都","city":"東村山市","address":"東京都東村山市久米川町3丁目30-5","lat":35.76107658,"lon":139.47965976},{"name":"東村山警察署","province":"東京都","city":"東村山市","address":"東村山市本町1-1-3","lat":35.75562,"lon":139.4675},{"name":"東村山消防署","province":"東京都","city":"東村山市","address":"東村山市美住町2-28-16","lat":35.75293,"lon":139.4506},{"name":"都立東村山中央公園（広場）","province":"東京都","city":"東村山市","address":"東村山市富士見町5丁目地内","lat":35.74522,"lon":139.4609},{"name":"東村山市立運動公園","province":"東京都","city":"東村山市","address":"東村山市恩多町1-51-1","lat":35.75429,"lon":139.4898},{"name":"※東村山市役所本庁舎","province":"東京都","city":"東村山市","address":"東京都東村山市本町1丁目2-3","lat":35.75462421,"lon":139.46848323},{"name":"平成あおば上宮園","province":"東京都","city":"東村山市","address":"東京都東村山市青葉町1-7-75","lat":35.75954,"lon":139.49255},{"name":"久米川駅南口第２駐輪場","province":"東京都","city":"東村山市","address":"東京都東村山市栄町2丁目11-13","lat":35.75087469,"lon":139.47040544},{"name":"久米川駅北口地下駐輪場","province":"東京都","city":"東村山市","address":"東京都東村山市栄町1丁目3-1","lat":35.7501304,"lon":139.47295802},{"name":"東村山駅東口第１駐輪場","province":"東京都","city":"東村山市","address":"東京都東村山市本町2丁目16-13","lat":35.76119848,"lon":139.46845798},{"name":"東村山駅東口第２駐輪場","province":"東京都","city":"東村山市","address":"東京都東村山市本町2丁目15-28","lat":35.76168732,"lon":139.46838575},{"name":"東村山駅西口地下駐輪場","province":"東京都","city":"東村山市","address":"東京都東村山市野口町3丁目1-41","lat":35.76218969,"lon":139.45838386},{"name":"新秋津駅第２駐輪場","province":"東京都","city":"東村山市","address":"東京都東村山市秋津町5丁目24-19","lat":35.77819153,"lon":139.49255002},{"name":"三井のリパーク　久米川駅前駐輪場","province":"東京都","city":"東村山市","address":"東京都東村山市栄町2丁目10","lat":35.75036365,"lon":139.47062489},{"name":"サイクルタイムズ久米川","province":"東京都","city":"東村山市","address":"東京都東村山市栄町2丁目6","lat":35.74793344,"lon":139.47342196},{"name":"Ｂ－Ｐａｒｋ24　東村山駅東口","province":"東京都","city":"東村山市","address":"東京都東村山市久米川町4丁目8-12","lat":35.76129571,"lon":139.46889961},{"name":"サイクル・インＢ－Ｐａｒｋ　東村山駅東口駐輪場","province":"東京都","city":"東村山市","address":"東京都東村山市久米川町4丁目8-12","lat":35.76129571,"lon":139.46889961},{"name":"三井のリパーク　東村山駅前駐輪場","province":"東京都","city":"東村山市","address":"東京都東村山市野口町1丁目1-4","lat":35.76151223,"lon":139.46528326},{"name":"駐輪館","province":"東京都","city":"東村山市","address":"東京都東村山市野口町1丁目25-8","lat":35.75881804,"lon":139.46414459},{"name":"Ａ－Ｐarkサイクル新秋津駅前","province":"東京都","city":"東村山市","address":"東京都東村山市秋津町5丁目25","lat":35.77794157,"lon":139.49279444},{"name":"サイクルタイムズ秋津","province":"東京都","city":"東村山市","address":"東京都東村山市秋津町5丁目8","lat":35.77749448,"lon":139.49600253},{"name":"西武スマイルパーク　秋津駅南口駐輪場","province":"東京都","city":"東村山市","address":"東京都東村山市秋津町5丁目7-8","lat":35.7783055,"lon":139.49674412},{"name":"三井のリパーク　新秋津駅前駐輪場","province":"東京都","city":"東村山市","address":"東京都東村山市秋津町5丁目14-1","lat":35.77713335,"lon":139.49316665},{"name":"新秋津駅第5駐輪場","province":"東京都","city":"東村山市","address":"東京都東村山市秋津町5丁目17-17","lat":35.77485306,"lon":139.49300003},{"name":"東村山市保健福祉総合センター","province":"東京都","city":"東村山市","address":"東京都東村山市本町1丁目2-3","lat":35.75462421,"lon":139.46848323},{"name":"東村山市民スポーツセンター","province":"東京都","city":"東村山市","address":"東京都東村山市久米川町3丁目30-5","lat":35.76107658,"lon":139.47965976},{"name":"東村山警察署","province":"東京都","city":"東村山市","address":"東村山市本町1-1-3","lat":35.75562,"lon":139.4675},{"name":"東村山消防署","province":"東京都","city":"東村山市","address":"東村山市美住町2-28-16","lat":35.75293,"lon":139.4506},{"name":"都立東村山中央公園（広場）","province":"東京都","city":"東村山市","address":"東村山市富士見町5丁目地内","lat":35.74522,"lon":139.4609},{"name":"東村山市立運動公園","province":"東京都","city":"東村山市","address":"東村山市恩多町1-51-1","lat":35.75429,"lon":139.4898},{"name":"※東村山市役所本庁舎","province":"東京都","city":"東村山市","address":"東京都東村山市本町1丁目2-3","lat":35.75462421,"lon":139.46848323},{"name":"平成あおば上宮園","province":"東京都","city":"東村山市","address":"東京都東村山市青葉町1-7-75","lat":35.75954,"lon":139.49255},{"name":"久米川駅南口第２駐輪場","province":"東京都","city":"東村山市","address":"東京都東村山市栄町2丁目11-13","lat":35.75087469,"lon":139.47040544},{"name":"久米川駅北口地下駐輪場","province":"東京都","city":"東村山市","address":"東京都東村山市栄町1丁目3-1","lat":35.7501304,"lon":139.47295802},{"name":"東村山駅東口第１駐輪場","province":"東京都","city":"東村山市","address":"東京都東村山市本町2丁目16-13","lat":35.76119848,"lon":139.46845798},{"name":"東村山駅東口第２駐輪場","province":"東京都","city":"東村山市","address":"東京都東村山市本町2丁目15-28","lat":35.76168732,"lon":139.46838575},{"name":"東村山駅西口地下駐輪場","province":"東京都","city":"東村山市","address":"東京都東村山市野口町3丁目1-41","lat":35.76218969,"lon":139.45838386},{"name":"新秋津駅第２駐輪場","province":"東京都","city":"東村山市","address":"東京都東村山市秋津町5丁目24-19","lat":35.77819153,"lon":139.49255002},{"name":"三井のリパーク　久米川駅前駐輪場","province":"東京都","city":"東村山市","address":"東京都東村山市栄町2丁目10","lat":35.75036365,"lon":139.47062489},{"name":"サイクルタイムズ久米川","province":"東京都","city":"東村山市","address":"東京都東村山市栄町2丁目6","lat":35.74793344,"lon":139.47342196},{"name":"Ｂ－Ｐａｒｋ24　東村山駅東口","province":"東京都","city":"東村山市","address":"東京都東村山市久米川町4丁目8-12","lat":35.76129571,"lon":139.46889961},{"name":"サイクル・インＢ－Ｐａｒｋ　東村山駅東口駐輪場","province":"東京都","city":"東村山市","address":"東京都東村山市久米川町4丁目8-12","lat":35.76129571,"lon":139.46889961},{"name":"三井のリパーク　東村山駅前駐輪場","province":"東京都","city":"東村山市","address":"東京都東村山市野口町1丁目1-4","lat":35.76151223,"lon":139.46528326},{"name":"駐輪館","province":"東京都","city":"東村山市","address":"東京都東村山市野口町1丁目25-8","lat":35.75881804,"lon":139.46414459},{"name":"Ａ－Ｐarkサイクル新秋津駅前","province":"東京都","city":"東村山市","address":"東京都東村山市秋津町5丁目25","lat":35.77794157,"lon":139.49279444},{"name":"サイクルタイムズ秋津","province":"東京都","city":"東村山市","address":"東京都東村山市秋津町5丁目8","lat":35.77749448,"lon":139.49600253},{"name":"西武スマイルパーク　秋津駅南口駐輪場","province":"東京都","city":"東村山市","address":"東京都東村山市秋津町5丁目7-8","lat":35.7783055,"lon":139.49674412},{"name":"三井のリパーク　新秋津駅前駐輪場","province":"東京都","city":"東村山市","address":"東京都東村山市秋津町5丁目14-1","lat":35.77713335,"lon":139.49316665},{"name":"新秋津駅第5駐輪場","province":"東京都","city":"東村山市","address":"東京都東村山市秋津町5丁目17-17","lat":35.77485306,"lon":139.49300003},{"name":"東村山市保健福祉総合センター","province":"東京都","city":"東村山市","address":"東京都東村山市本町1丁目2-3","lat":35.75462421,"lon":139.46848323},{"name":"東村山市民スポーツセンター","province":"東京都","city":"東村山市","address":"東京都東村山市久米川町3丁目30-5","lat":35.76107658,"lon":139.47965976},{"name":"東村山警察署","province":"東京都","city":"東村山市","address":"東村山市本町1-1-3","lat":35.75562,"lon":139.4675},{"name":"東村山消防署","province":"東京都","city":"東村山市","address":"東村山市美住町2-28-16","lat":35.75293,"lon":139.4506},{"name":"都立東村山中央公園（広場）","province":"東京都","city":"東村山市","address":"東村山市富士見町5丁目地内","lat":35.74522,"lon":139.4609},{"name":"東村山市立運動公園","province":"東京都","city":"東村山市","address":"東村山市恩多町1-51-1","lat":35.75429,"lon":139.4898},{"name":"※東村山市役所本庁舎","province":"東京都","city":"東村山市","address":"東京都東村山市本町1丁目2-3","lat":35.75462421,"lon":139.46848323},{"name":"平成あおば上宮園","province":"東京都","city":"東村山市","address":"東京都東村山市青葉町1-7-75","lat":35.75954,"lon":139.49255},{"name":"久米川駅南口第２駐輪場","province":"東京都","city":"東村山市","address":"東京都東村山市栄町2丁目11-13","lat":35.75087469,"lon":139.47040544},{"name":"久米川駅北口地下駐輪場","province":"東京都","city":"東村山市","address":"東京都東村山市栄町1丁目3-1","lat":35.7501304,"lon":139.47295802},{"name":"東村山駅東口第１駐輪場","province":"東京都","city":"東村山市","address":"東京都東村山市本町2丁目16-13","lat":35.76119848,"lon":139.46845798},{"name":"東村山駅東口第２駐輪場","province":"東京都","city":"東村山市","address":"東京都東村山市本町2丁目15-28","lat":35.76168732,"lon":139.46838575},{"name":"東村山駅西口地下駐輪場","province":"東京都","city":"東村山市","address":"東京都東村山市野口町3丁目1-41","lat":35.76218969,"lon":139.45838386},{"name":"新秋津駅第２駐輪場","province":"東京都","city":"東村山市","address":"東京都東村山市秋津町5丁目24-19","lat":35.77819153,"lon":139.49255002},{"name":"三井のリパーク　久米川駅前駐輪場","province":"東京都","city":"東村山市","address":"東京都東村山市栄町2丁目10","lat":35.75036365,"lon":139.47062489},{"name":"サイクルタイムズ久米川","province":"東京都","city":"東村山市","address":"東京都東村山市栄町2丁目6","lat":35.74793344,"lon":139.47342196},{"name":"Ｂ－Ｐａｒｋ24　東村山駅東口","province":"東京都","city":"東村山市","address":"東京都東村山市久米川町4丁目8-12","lat":35.76129571,"lon":139.46889961},{"name":"サイクル・インＢ－Ｐａｒｋ　東村山駅東口駐輪場","province":"東京都","city":"東村山市","address":"東京都東村山市久米川町4丁目8-12","lat":35.76129571,"lon":139.46889961},{"name":"三井のリパーク　東村山駅前駐輪場","province":"東京都","city":"東村山市","address":"東京都東村山市野口町1丁目1-4","lat":35.76151223,"lon":139.46528326},{"name":"駐輪館","province":"東京都","city":"東村山市","address":"東京都東村山市野口町1丁目25-8","lat":35.75881804,"lon":139.46414459},{"name":"Ａ－Ｐarkサイクル新秋津駅前","province":"東京都","city":"東村山市","address":"東京都東村山市秋津町5丁目25","lat":35.77794157,"lon":139.49279444},{"name":"サイクルタイムズ秋津","province":"東京都","city":"東村山市","address":"東京都東村山市秋津町5丁目8","lat":35.77749448,"lon":139.49600253},{"name":"西武スマイルパーク　秋津駅南口駐輪場","province":"東京都","city":"東村山市","address":"東京都東村山市秋津町5丁目7-8","lat":35.7783055,"lon":139.49674412},{"name":"三井のリパーク　新秋津駅前駐輪場","province":"東京都","city":"東村山市","address":"東京都東村山市秋津町5丁目14-1","lat":35.77713335,"lon":139.49316665},{"name":"新秋津駅第5駐輪場","province":"東京都","city":"東村山市","address":"東京都東村山市秋津町5丁目17-17","lat":35.77485306,"lon":139.49300003},{"name":"東村山市保健福祉総合センター","province":"東京都","city":"東村山市","address":"東京都東村山市本町1丁目2-3","lat":35.75462421,"lon":139.46848323},{"name":"東村山市民スポーツセンター","province":"東京都","city":"東村山市","address":"東京都東村山市久米川町3丁目30-5","lat":35.76107658,"lon":139.47965976},{"name":"東村山警察署","province":"東京都","city":"東村山市","address":"東村山市本町1-1-3","lat":35.75562,"lon":139.4675},{"name":"東村山消防署","province":"東京都","city":"東村山市","address":"東村山市美住町2-28-16","lat":35.75293,"lon":139.4506},{"name":"都立東村山中央公園（広場）","province":"東京都","city":"東村山市","address":"東村山市富士見町5丁目地内","lat":35.74522,"lon":139.4609},{"name":"東村山市立運動公園","province":"東京都","city":"東村山市","address":"東村山市恩多町1-51-1","lat":35.75429,"lon":139.4898},{"name":"※東村山市役所本庁舎","province":"東京都","city":"東村山市","address":"東京都東村山市本町1丁目2-3","lat":35.75462421,"lon":139.46848323},{"name":"平成あおば上宮園","province":"東京都","city":"東村山市","address":"東京都東村山市青葉町1-7-75","lat":35.75954,"lon":139.49255},{"name":"久米川駅南口第２駐輪場","province":"東京都","city":"東村山市","address":"東京都東村山市栄町2丁目11-13","lat":35.75087469,"lon":139.47040544},{"name":"久米川駅北口地下駐輪場","province":"東京都","city":"東村山市","address":"東京都東村山市栄町1丁目3-1","lat":35.7501304,"lon":139.47295802},{"name":"東村山駅東口第１駐輪場","province":"東京都","city":"東村山市","address":"東京都東村山市本町2丁目16-13","lat":35.76119848,"lon":139.46845798},{"name":"東村山駅東口第２駐輪場","province":"東京都","city":"東村山市","address":"東京都東村山市本町2丁目15-28","lat":35.76168732,"lon":139.46838575},{"name":"東村山駅西口地下駐輪場","province":"東京都","city":"東村山市","address":"東京都東村山市野口町3丁目1-41","lat":35.76218969,"lon":139.45838386},{"name":"新秋津駅第２駐輪場","province":"東京都","city":"東村山市","address":"東京都東村山市秋津町5丁目24-19","lat":35.77819153,"lon":139.49255002},{"name":"三井のリパーク　久米川駅前駐輪場","province":"東京都","city":"東村山市","address":"東京都東村山市栄町2丁目10","lat":35.75036365,"lon":139.47062489},{"name":"サイクルタイムズ久米川","province":"東京都","city":"東村山市","address":"東京都東村山市栄町2丁目6","lat":35.74793344,"lon":139.47342196},{"name":"Ｂ－Ｐａｒｋ24　東村山駅東口","province":"東京都","city":"東村山市","address":"東京都東村山市久米川町4丁目8-12","lat":35.76129571,"lon":139.46889961},{"name":"サイクル・インＢ－Ｐａｒｋ　東村山駅東口駐輪場","province":"東京都","city":"東村山市","address":"東京都東村山市久米川町4丁目8-12","lat":35.76129571,"lon":139.46889961},{"name":"三井のリパーク　東村山駅前駐輪場","province":"東京都","city":"東村山市","address":"東京都東村山市野口町1丁目1-4","lat":35.76151223,"lon":139.46528326},{"name":"駐輪館","province":"東京都","city":"東村山市","address":"東京都東村山市野口町1丁目25-8","lat":35.75881804,"lon":139.46414459},{"name":"Ａ－Ｐarkサイクル新秋津駅前","province":"東京都","city":"東村山市","address":"東京都東村山市秋津町5丁目25","lat":35.77794157,"lon":139.49279444},{"name":"サイクルタイムズ秋津","province":"東京都","city":"東村山市","address":"東京都東村山市秋津町5丁目8","lat":35.77749448,"lon":139.49600253},{"name":"西武スマイルパーク　秋津駅南口駐輪場","province":"東京都","city":"東村山市","address":"東京都東村山市秋津町5丁目7-8","lat":35.7783055,"lon":139.49674412},{"name":"三井のリパーク　新秋津駅前駐輪場","province":"東京都","city":"東村山市","address":"東京都東村山市秋津町5丁目14-1","lat":35.77713335,"lon":139.49316665},{"name":"新秋津駅第5駐輪場","province":"東京都","city":"東村山市","address":"東京都東村山市秋津町5丁目17-17","lat":35.77485306,"lon":139.49300003},{"name":"東村山市保健福祉総合センター","province":"東京都","city":"東村山市","address":"東京都東村山市本町1丁目2-3","lat":35.75462421,"lon":139.46848323},{"name":"東村山市民スポーツセンター","province":"東京都","city":"東村山市","address":"東京都東村山市久米川町3丁目30-5","lat":35.76107658,"lon":139.47965976},{"name":"東村山警察署","province":"東京都","city":"東村山市","address":"東村山市本町1-1-3","lat":35.75562,"lon":139.4675},{"name":"東村山消防署","province":"東京都","city":"東村山市","address":"東村山市美住町2-28-16","lat":35.75293,"lon":139.4506},{"name":"都立東村山中央公園（広場）","province":"東京都","city":"東村山市","address":"東村山市富士見町5丁目地内","lat":35.74522,"lon":139.4609},{"name":"東村山市立運動公園","province":"東京都","city":"東村山市","address":"東村山市恩多町1-51-1","lat":35.75429,"lon":139.4898},{"name":"※東村山市役所本庁舎","province":"東京都","city":"東村山市","address":"東京都東村山市本町1丁目2-3","lat":35.75462421,"lon":139.46848323},{"name":"平成あおば上宮園","province":"東京都","city":"東村山市","address":"東京都東村山市青葉町1-7-75","lat":35.75954,"lon":139.49255},{"name":"久米川駅南口第２駐輪場","province":"東京都","city":"東村山市","address":"東京都東村山市栄町2丁目11-13","lat":35.75087469,"lon":139.47040544},{"name":"久米川駅北口地下駐輪場","province":"東京都","city":"東村山市","address":"東京都東村山市栄町1丁目3-1","lat":35.7501304,"lon":139.47295802},{"name":"東村山駅東口第１駐輪場","province":"東京都","city":"東村山市","address":"東京都東村山市本町2丁目16-13","lat":35.76119848,"lon":139.46845798},{"name":"東村山駅東口第２駐輪場","province":"東京都","city":"東村山市","address":"東京都東村山市本町2丁目15-28","lat":35.76168732,"lon":139.46838575},{"name":"東村山駅西口地下駐輪場","province":"東京都","city":"東村山市","address":"東京都東村山市野口町3丁目1-41","lat":35.76218969,"lon":139.45838386},{"name":"新秋津駅第２駐輪場","province":"東京都","city":"東村山市","address":"東京都東村山市秋津町5丁目24-19","lat":35.77819153,"lon":139.49255002},{"name":"三井のリパーク　久米川駅前駐輪場","province":"東京都","city":"東村山市","address":"東京都東村山市栄町2丁目10","lat":35.75036365,"lon":139.47062489},{"name":"サイクルタイムズ久米川","province":"東京都","city":"東村山市","address":"東京都東村山市栄町2丁目6","lat":35.74793344,"lon":139.47342196},{"name":"Ｂ－Ｐａｒｋ24　東村山駅東口","province":"東京都","city":"東村山市","address":"東京都東村山市久米川町4丁目8-12","lat":35.76129571,"lon":139.46889961},{"name":"サイクル・インＢ－Ｐａｒｋ　東村山駅東口駐輪場","province":"東京都","city":"東村山市","address":"東京都東村山市久米川町4丁目8-12","lat":35.76129571,"lon":139.46889961},{"name":"三井のリパーク　東村山駅前駐輪場","province":"東京都","city":"東村山市","address":"東京都東村山市野口町1丁目1-4","lat":35.76151223,"lon":139.46528326},{"name":"駐輪館","province":"東京都","city":"東村山市","address":"東京都東村山市野口町1丁目25-8","lat":35.75881804,"lon":139.46414459},{"name":"Ａ－Ｐarkサイクル新秋津駅前","province":"東京都","city":"東村山市","address":"東京都東村山市秋津町5丁目25","lat":35.77794157,"lon":139.49279444},{"name":"サイクルタイムズ秋津","province":"東京都","city":"東村山市","address":"東京都東村山市秋津町5丁目8","lat":35.77749448,"lon":139.49600253},{"name":"西武スマイルパーク　秋津駅南口駐輪場","province":"東京都","city":"東村山市","address":"東京都東村山市秋津町5丁目7-8","lat":35.7783055,"lon":139.49674412},{"name":"三井のリパーク　新秋津駅前駐輪場","province":"東京都","city":"東村山市","address":"東京都東村山市秋津町5丁目14-1","lat":35.77713335,"lon":139.49316665},{"name":"新秋津駅第5駐輪場","province":"東京都","city":"東村山市","address":"東京都東村山市秋津町5丁目17-17","lat":35.77485306,"lon":139.49300003},{"name":"東村山市保健福祉総合センター","province":"東京都","city":"東村山市","address":"東京都東村山市本町1丁目2-3","lat":35.75462421,"lon":139.46848323},{"name":"東村山市民スポーツセンター","province":"東京都","city":"東村山市","address":"東京都東村山市久米川町3丁目30-5","lat":35.76107658,"lon":139.47965976},{"name":"東村山警察署","province":"東京都","city":"東村山市","address":"東村山市本町1-1-3","lat":35.75562,"lon":139.4675},{"name":"東村山消防署","province":"東京都","city":"東村山市","address":"東村山市美住町2-28-16","lat":35.75293,"lon":139.4506},{"name":"都立東村山中央公園（広場）","province":"東京都","city":"東村山市","address":"東村山市富士見町5丁目地内","lat":35.74522,"lon":139.4609},{"name":"東村山市立運動公園","province":"東京都","city":"東村山市","address":"東村山市恩多町1-51-1","lat":35.75429,"lon":139.4898},{"name":"※東村山市役所本庁舎","province":"東京都","city":"東村山市","address":"東京都東村山市本町1丁目2-3","lat":35.75462421,"lon":139.46848323},{"name":"平成あおば上宮園","province":"東京都","city":"東村山市","address":"東京都東村山市青葉町1-7-75","lat":35.75954,"lon":139.49255},{"name":"久米川駅南口第２駐輪場","province":"東京都","city":"東村山市","address":"東京都東村山市栄町2丁目11-13","lat":35.75087469,"lon":139.47040544},{"name":"久米川駅北口地下駐輪場","province":"東京都","city":"東村山市","address":"東京都東村山市栄町1丁目3-1","lat":35.7501304,"lon":139.47295802},{"name":"東村山駅東口第１駐輪場","province":"東京都","city":"東村山市","address":"東京都東村山市本町2丁目16-13","lat":35.76119848,"lon":139.46845798},{"name":"東村山駅東口第２駐輪場","province":"東京都","city":"東村山市","address":"東京都東村山市本町2丁目15-28","lat":35.76168732,"lon":139.46838575},{"name":"東村山駅西口地下駐輪場","province":"東京都","city":"東村山市","address":"東京都東村山市野口町3丁目1-41","lat":35.76218969,"lon":139.45838386},{"name":"新秋津駅第２駐輪場","province":"東京都","city":"東村山市","address":"東京都東村山市秋津町5丁目24-19","lat":35.77819153,"lon":139.49255002},{"name":"三井のリパーク　久米川駅前駐輪場","province":"東京都","city":"東村山市","address":"東京都東村山市栄町2丁目10","lat":35.75036365,"lon":139.47062489},{"name":"サイクルタイムズ久米川","province":"東京都","city":"東村山市","address":"東京都東村山市栄町2丁目6","lat":35.74793344,"lon":139.47342196},{"name":"Ｂ－Ｐａｒｋ24　東村山駅東口","province":"東京都","city":"東村山市","address":"東京都東村山市久米川町4丁目8-12","lat":35.76129571,"lon":139.46889961},{"name":"サイクル・インＢ－Ｐａｒｋ　東村山駅東口駐輪場","province":"東京都","city":"東村山市","address":"東京都東村山市久米川町4丁目8-12","lat":35.76129571,"lon":139.46889961},{"name":"三井のリパーク　東村山駅前駐輪場","province":"東京都","city":"東村山市","address":"東京都東村山市野口町1丁目1-4","lat":35.76151223,"lon":139.46528326},{"name":"駐輪館","province":"東京都","city":"東村山市","address":"東京都東村山市野口町1丁目25-8","lat":35.75881804,"lon":139.46414459},{"name":"Ａ－Ｐarkサイクル新秋津駅前","province":"東京都","city":"東村山市","address":"東京都東村山市秋津町5丁目25","lat":35.77794157,"lon":139.49279444},{"name":"サイクルタイムズ秋津","province":"東京都","city":"東村山市","address":"東京都東村山市秋津町5丁目8","lat":35.77749448,"lon":139.49600253},{"name":"西武スマイルパーク　秋津駅南口駐輪場","province":"東京都","city":"東村山市","address":"東京都東村山市秋津町5丁目7-8","lat":35.7783055,"lon":139.49674412},{"name":"三井のリパーク　新秋津駅前駐輪場","province":"東京都","city":"東村山市","address":"東京都東村山市秋津町5丁目14-1","lat":35.77713335,"lon":139.49316665},{"name":"新秋津駅第5駐輪場","province":"東京都","city":"東村山市","address":"東京都東村山市秋津町5丁目17-17","lat":35.77485306,"lon":139.49300003},{"name":"東村山市保健福祉総合センター","province":"東京都","city":"東村山市","address":"東京都東村山市本町1丁目2-3","lat":35.75462421,"lon":139.46848323},{"name":"東村山市民スポーツセンター","province":"東京都","city":"東村山市","address":"東京都東村山市久米川町3丁目30-5","lat":35.76107658,"lon":139.47965976},{"name":"東村山警察署","province":"東京都","city":"東村山市","address":"東村山市本町1-1-3","lat":35.75562,"lon":139.4675},{"name":"東村山消防署","province":"東京都","city":"東村山市","address":"東村山市美住町2-28-16","lat":35.75293,"lon":139.4506},{"name":"都立東村山中央公園（広場）","province":"東京都","city":"東村山市","address":"東村山市富士見町5丁目地内","lat":35.74522,"lon":139.4609},{"name":"東村山市立運動公園","province":"東京都","city":"東村山市","address":"東村山市恩多町1-51-1","lat":35.75429,"lon":139.4898},{"name":"※東村山市役所本庁舎","province":"東京都","city":"東村山市","address":"東京都東村山市本町1丁目2-3","lat":35.75462421,"lon":139.46848323},{"name":"平成あおば上宮園","province":"東京都","city":"東村山市","address":"東京都東村山市青葉町1-7-75","lat":35.75954,"lon":139.49255},{"name":"久米川駅南口第２駐輪場","province":"東京都","city":"東村山市","address":"東京都東村山市栄町2丁目11-13","lat":35.75087469,"lon":139.47040544},{"name":"久米川駅北口地下駐輪場","province":"東京都","city":"東村山市","address":"東京都東村山市栄町1丁目3-1","lat":35.7501304,"lon":139.47295802},{"name":"東村山駅東口第１駐輪場","province":"東京都","city":"東村山市","address":"東京都東村山市本町2丁目16-13","lat":35.76119848,"lon":139.46845798},{"name":"東村山駅東口第２駐輪場","province":"東京都","city":"東村山市","address":"東京都東村山市本町2丁目15-28","lat":35.76168732,"lon":139.46838575},{"name":"東村山駅西口地下駐輪場","province":"東京都","city":"東村山市","address":"東京都東村山市野口町3丁目1-41","lat":35.76218969,"lon":139.45838386},{"name":"新秋津駅第２駐輪場","province":"東京都","city":"東村山市","address":"東京都東村山市秋津町5丁目24-19","lat":35.77819153,"lon":139.49255002},{"name":"三井のリパーク　久米川駅前駐輪場","province":"東京都","city":"東村山市","address":"東京都東村山市栄町2丁目10","lat":35.75036365,"lon":139.47062489},{"name":"サイクルタイムズ久米川","province":"東京都","city":"東村山市","address":"東京都東村山市栄町2丁目6","lat":35.74793344,"lon":139.47342196},{"name":"Ｂ－Ｐａｒｋ24　東村山駅東口","province":"東京都","city":"東村山市","address":"東京都東村山市久米川町4丁目8-12","lat":35.76129571,"lon":139.46889961},{"name":"サイクル・インＢ－Ｐａｒｋ　東村山駅東口駐輪場","province":"東京都","city":"東村山市","address":"東京都東村山市久米川町4丁目8-12","lat":35.76129571,"lon":139.46889961},{"name":"三井のリパーク　東村山駅前駐輪場","province":"東京都","city":"東村山市","address":"東京都東村山市野口町1丁目1-4","lat":35.76151223,"lon":139.46528326},{"name":"駐輪館","province":"東京都","city":"東村山市","address":"東京都東村山市野口町1丁目25-8","lat":35.75881804,"lon":139.46414459},{"name":"Ａ－Ｐarkサイクル新秋津駅前","province":"東京都","city":"東村山市","address":"東京都東村山市秋津町5丁目25","lat":35.77794157,"lon":139.49279444},{"name":"サイクルタイムズ秋津","province":"東京都","city":"東村山市","address":"東京都東村山市秋津町5丁目8","lat":35.77749448,"lon":139.49600253},{"name":"西武スマイルパーク　秋津駅南口駐輪場","province":"東京都","city":"東村山市","address":"東京都東村山市秋津町5丁目7-8","lat":35.7783055,"lon":139.49674412},{"name":"三井のリパーク　新秋津駅前駐輪場","province":"東京都","city":"東村山市","address":"東京都東村山市秋津町5丁目14-1","lat":35.77713335,"lon":139.49316665},{"name":"新秋津駅第5駐輪場","province":"東京都","city":"東村山市","address":"東京都東村山市秋津町5丁目17-17","lat":35.77485306,"lon":139.49300003},{"name":"東村山市保健福祉総合センター","province":"東京都","city":"東村山市","address":"東京都東村山市本町1丁目2-3","lat":35.75462421,"lon":139.46848323},{"name":"東村山市民スポーツセンター","province":"東京都","city":"東村山市","address":"東京都東村山市久米川町3丁目30-5","lat":35.76107658,"lon":139.47965976},{"name":"東村山警察署","province":"東京都","city":"東村山市","address":"東村山市本町1-1-3","lat":35.75562,"lon":139.4675},{"name":"東村山消防署","province":"東京都","city":"東村山市","address":"東村山市美住町2-28-16","lat":35.75293,"lon":139.4506},{"name":"都立東村山中央公園（広場）","province":"東京都","city":"東村山市","address":"東村山市富士見町5丁目地内","lat":35.74522,"lon":139.4609},{"name":"東村山市立運動公園","province":"東京都","city":"東村山市","address":"東村山市恩多町1-51-1","lat":35.75429,"lon":139.4898},{"name":"※東村山市役所本庁舎","province":"東京都","city":"東村山市","address":"東京都東村山市本町1丁目2-3","lat":35.75462421,"lon":139.46848323},{"name":"平成あおば上宮園","province":"東京都","city":"東村山市","address":"東京都東村山市青葉町1-7-75","lat":35.75954,"lon":139.49255},{"name":"久米川駅南口第２駐輪場","province":"東京都","city":"東村山市","address":"東京都東村山市栄町2丁目11-13","lat":35.75087469,"lon":139.47040544},{"name":"久米川駅北口地下駐輪場","province":"東京都","city":"東村山市","address":"東京都東村山市栄町1丁目3-1","lat":35.7501304,"lon":139.47295802},{"name":"東村山駅東口第１駐輪場","province":"東京都","city":"東村山市","address":"東京都東村山市本町2丁目16-13","lat":35.76119848,"lon":139.46845798},{"name":"東村山駅東口第２駐輪場","province":"東京都","city":"東村山市","address":"東京都東村山市本町2丁目15-28","lat":35.76168732,"lon":139.46838575},{"name":"東村山駅西口地下駐輪場","province":"東京都","city":"東村山市","address":"東京都東村山市野口町3丁目1-41","lat":35.76218969,"lon":139.45838386},{"name":"新秋津駅第２駐輪場","province":"東京都","city":"東村山市","address":"東京都東村山市秋津町5丁目24-19","lat":35.77819153,"lon":139.49255002},{"name":"三井のリパーク　久米川駅前駐輪場","province":"東京都","city":"東村山市","address":"東京都東村山市栄町2丁目10","lat":35.75036365,"lon":139.47062489},{"name":"サイクルタイムズ久米川","province":"東京都","city":"東村山市","address":"東京都東村山市栄町2丁目6","lat":35.74793344,"lon":139.47342196},{"name":"Ｂ－Ｐａｒｋ24　東村山駅東口","province":"東京都","city":"東村山市","address":"東京都東村山市久米川町4丁目8-12","lat":35.76129571,"lon":139.46889961},{"name":"サイクル・インＢ－Ｐａｒｋ　東村山駅東口駐輪場","province":"東京都","city":"東村山市","address":"東京都東村山市久米川町4丁目8-12","lat":35.76129571,"lon":139.46889961},{"name":"三井のリパーク　東村山駅前駐輪場","province":"東京都","city":"東村山市","address":"東京都東村山市野口町1丁目1-4","lat":35.76151223,"lon":139.46528326},{"name":"駐輪館","province":"東京都","city":"東村山市","address":"東京都東村山市野口町1丁目25-8","lat":35.75881804,"lon":139.46414459},{"name":"Ａ－Ｐarkサイクル新秋津駅前","province":"東京都","city":"東村山市","address":"東京都東村山市秋津町5丁目25","lat":35.77794157,"lon":139.49279444},{"name":"サイクルタイムズ秋津","province":"東京都","city":"東村山市","address":"東京都東村山市秋津町5丁目8","lat":35.77749448,"lon":139.49600253},{"name":"西武スマイルパーク　秋津駅南口駐輪場","province":"東京都","city":"東村山市","address":"東京都東村山市秋津町5丁目7-8","lat":35.7783055,"lon":139.49674412},{"name":"三井のリパーク　新秋津駅前駐輪場","province":"東京都","city":"東村山市","address":"東京都東村山市秋津町5丁目14-1","lat":35.77713335,"lon":139.49316665},{"name":"新秋津駅第5駐輪場","province":"東京都","city":"東村山市","address":"東京都東村山市秋津町5丁目17-17","lat":35.77485306,"lon":139.49300003},{"name":"東村山市保健福祉総合センター","province":"東京都","city":"東村山市","address":"東京都東村山市本町1丁目2-3","lat":35.75462421,"lon":139.46848323},{"name":"東村山市民スポーツセンター","province":"東京都","city":"東村山市","address":"東京都東村山市久米川町3丁目30-5","lat":35.76107658,"lon":139.47965976},{"name":"東村山警察署","province":"東京都","city":"東村山市","address":"東村山市本町1-1-3","lat":35.75562,"lon":139.4675},{"name":"東村山消防署","province":"東京都","city":"東村山市","address":"東村山市美住町2-28-16","lat":35.75293,"lon":139.4506},{"name":"都立東村山中央公園（広場）","province":"東京都","city":"東村山市","address":"東村山市富士見町5丁目地内","lat":35.74522,"lon":139.4609},{"name":"東村山市立運動公園","province":"東京都","city":"東村山市","address":"東村山市恩多町1-51-1","lat":35.75429,"lon":139.4898},{"name":"※東村山市役所本庁舎","province":"東京都","city":"東村山市","address":"東京都東村山市本町1丁目2-3","lat":35.75462421,"lon":139.46848323},{"name":"平成あおば上宮園","province":"東京都","city":"東村山市","address":"東京都東村山市青葉町1-7-75","lat":35.75954,"lon":139.49255},{"name":"久米川駅南口第２駐輪場","province":"東京都","city":"東村山市","address":"東京都東村山市栄町2丁目11-13","lat":35.75087469,"lon":139.47040544},{"name":"久米川駅北口地下駐輪場","province":"東京都","city":"東村山市","address":"東京都東村山市栄町1丁目3-1","lat":35.7501304,"lon":139.47295802},{"name":"東村山駅東口第１駐輪場","province":"東京都","city":"東村山市","address":"東京都東村山市本町2丁目16-13","lat":35.76119848,"lon":139.46845798},{"name":"東村山駅東口第２駐輪場","province":"東京都","city":"東村山市","address":"東京都東村山市本町2丁目15-28","lat":35.76168732,"lon":139.46838575},{"name":"東村山駅西口地下駐輪場","province":"東京都","city":"東村山市","address":"東京都東村山市野口町3丁目1-41","lat":35.76218969,"lon":139.45838386},{"name":"新秋津駅第２駐輪場","province":"東京都","city":"東村山市","address":"東京都東村山市秋津町5丁目24-19","lat":35.77819153,"lon":139.49255002},{"name":"三井のリパーク　久米川駅前駐輪場","province":"東京都","city":"東村山市","address":"東京都東村山市栄町2丁目10","lat":35.75036365,"lon":139.47062489},{"name":"サイクルタイムズ久米川","province":"東京都","city":"東村山市","address":"東京都東村山市栄町2丁目6","lat":35.74793344,"lon":139.47342196},{"name":"Ｂ－Ｐａｒｋ24　東村山駅東口","province":"東京都","city":"東村山市","address":"東京都東村山市久米川町4丁目8-12","lat":35.76129571,"lon":139.46889961},{"name":"サイクル・インＢ－Ｐａｒｋ　東村山駅東口駐輪場","province":"東京都","city":"東村山市","address":"東京都東村山市久米川町4丁目8-12","lat":35.76129571,"lon":139.46889961},{"name":"三井のリパーク　東村山駅前駐輪場","province":"東京都","city":"東村山市","address":"東京都東村山市野口町1丁目1-4","lat":35.76151223,"lon":139.46528326},{"name":"駐輪館","province":"東京都","city":"東村山市","address":"東京都東村山市野口町1丁目25-8","lat":35.75881804,"lon":139.46414459},{"name":"Ａ－Ｐarkサイクル新秋津駅前","province":"東京都","city":"東村山市","address":"東京都東村山市秋津町5丁目25","lat":35.77794157,"lon":139.49279444},{"name":"サイクルタイムズ秋津","province":"東京都","city":"東村山市","address":"東京都東村山市秋津町5丁目8","lat":35.77749448,"lon":139.49600253},{"name":"西武スマイルパーク　秋津駅南口駐輪場","province":"東京都","city":"東村山市","address":"東京都東村山市秋津町5丁目7-8","lat":35.7783055,"lon":139.49674412},{"name":"三井のリパーク　新秋津駅前駐輪場","province":"東京都","city":"東村山市","address":"東京都東村山市秋津町5丁目14-1","lat":35.77713335,"lon":139.49316665},{"name":"新秋津駅第5駐輪場","province":"東京都","city":"東村山市","address":"東京都東村山市秋津町5丁目17-17","lat":35.77485306,"lon":139.49300003},{"name":"東村山市保健福祉総合センター","province":"東京都","city":"東村山市","address":"東京都東村山市本町1丁目2-3","lat":35.75462421,"lon":139.46848323},{"name":"東村山市民スポーツセンター","province":"東京都","city":"東村山市","address":"東京都東村山市久米川町3丁目30-5","lat":35.76107658,"lon":139.47965976},{"name":"東村山警察署","province":"東京都","city":"東村山市","address":"東村山市本町1-1-3","lat":35.75562,"lon":139.4675},{"name":"東村山消防署","province":"東京都","city":"東村山市","address":"東村山市美住町2-28-16","lat":35.75293,"lon":139.4506},{"name":"都立東村山中央公園（広場）","province":"東京都","city":"東村山市","address":"東村山市富士見町5丁目地内","lat":35.74522,"lon":139.4609},{"name":"東村山市立運動公園","province":"東京都","city":"東村山市","address":"東村山市恩多町1-51-1","lat":35.75429,"lon":139.4898},{"name":"※東村山市役所本庁舎","province":"東京都","city":"東村山市","address":"東京都東村山市本町1丁目2-3","lat":35.75462421,"lon":139.46848323},{"name":"平成あおば上宮園","province":"東京都","city":"東村山市","address":"東京都東村山市青葉町1-7-75","lat":35.75954,"lon":139.49255},{"name":"久米川駅南口第２駐輪場","province":"東京都","city":"東村山市","address":"東京都東村山市栄町2丁目11-13","lat":35.75087469,"lon":139.47040544},{"name":"久米川駅北口地下駐輪場","province":"東京都","city":"東村山市","address":"東京都東村山市栄町1丁目3-1","lat":35.7501304,"lon":139.47295802},{"name":"東村山駅東口第１駐輪場","province":"東京都","city":"東村山市","address":"東京都東村山市本町2丁目16-13","lat":35.76119848,"lon":139.46845798},{"name":"東村山駅東口第２駐輪場","province":"東京都","city":"東村山市","address":"東京都東村山市本町2丁目15-28","lat":35.76168732,"lon":139.46838575},{"name":"東村山駅西口地下駐輪場","province":"東京都","city":"東村山市","address":"東京都東村山市野口町3丁目1-41","lat":35.76218969,"lon":139.45838386},{"name":"新秋津駅第２駐輪場","province":"東京都","city":"東村山市","address":"東京都東村山市秋津町5丁目24-19","lat":35.77819153,"lon":139.49255002},{"name":"三井のリパーク　久米川駅前駐輪場","province":"東京都","city":"東村山市","address":"東京都東村山市栄町2丁目10","lat":35.75036365,"lon":139.47062489},{"name":"サイクルタイムズ久米川","province":"東京都","city":"東村山市","address":"東京都東村山市栄町2丁目6","lat":35.74793344,"lon":139.47342196},{"name":"Ｂ－Ｐａｒｋ24　東村山駅東口","province":"東京都","city":"東村山市","address":"東京都東村山市久米川町4丁目8-12","lat":35.76129571,"lon":139.46889961},{"name":"サイクル・インＢ－Ｐａｒｋ　東村山駅東口駐輪場","province":"東京都","city":"東村山市","address":"東京都東村山市久米川町4丁目8-12","lat":35.76129571,"lon":139.46889961},{"name":"三井のリパーク　東村山駅前駐輪場","province":"東京都","city":"東村山市","address":"東京都東村山市野口町1丁目1-4","lat":35.76151223,"lon":139.46528326},{"name":"駐輪館","province":"東京都","city":"東村山市","address":"東京都東村山市野口町1丁目25-8","lat":35.75881804,"lon":139.46414459},{"name":"Ａ－Ｐarkサイクル新秋津駅前","province":"東京都","city":"東村山市","address":"東京都東村山市秋津町5丁目25","lat":35.77794157,"lon":139.49279444},{"name":"サイクルタイムズ秋津","province":"東京都","city":"東村山市","address":"東京都東村山市秋津町5丁目8","lat":35.77749448,"lon":139.49600253},{"name":"西武スマイルパーク　秋津駅南口駐輪場","province":"東京都","city":"東村山市","address":"東京都東村山市秋津町5丁目7-8","lat":35.7783055,"lon":139.49674412},{"name":"三井のリパーク　新秋津駅前駐輪場","province":"東京都","city":"東村山市","address":"東京都東村山市秋津町5丁目14-1","lat":35.77713335,"lon":139.49316665},{"name":"新秋津駅第5駐輪場","province":"東京都","city":"東村山市","address":"東京都東村山市秋津町5丁目17-17","lat":35.77485306,"lon":139.49300003},{"name":"東村山市民スポーツセンター","province":"東京都","city":"東村山市","address":"東京都東村山市久米川町3丁目30-5","lat":35.76107658,"lon":139.47965976},{"name":"※東村山市役所本庁舎","province":"東京都","city":"東村山市","address":"東京都東村山市本町1丁目2-3","lat":35.75462421,"lon":139.46848323},{"name":"平成あおば上宮園","province":"東京都","city":"東村山市","address":"東京都東村山市青葉町1-7-75","lat":35.75954,"lon":139.49255},{"name":"久米川駅南口第２駐輪場","province":"東京都","city":"東村山市","address":"東京都東村山市栄町2丁目11-13","lat":35.75087469,"lon":139.47040544},{"name":"久米川駅北口地下駐輪場","province":"東京都","city":"東村山市","address":"東京都東村山市栄町1丁目3-1","lat":35.7501304,"lon":139.47295802},{"name":"東村山駅東口第１駐輪場","province":"東京都","city":"東村山市","address":"東京都東村山市本町2丁目16-13","lat":35.76119848,"lon":139.46845798},{"name":"東村山駅東口第２駐輪場","province":"東京都","city":"東村山市","address":"東京都東村山市本町2丁目15-28","lat":35.76168732,"lon":139.46838575},{"name":"東村山駅西口地下駐輪場","province":"東京都","city":"東村山市","address":"東京都東村山市野口町3丁目1-41","lat":35.76218969,"lon":139.45838386},{"name":"新秋津駅第２駐輪場","province":"東京都","city":"東村山市","address":"東京都東村山市秋津町5丁目24-19","lat":35.77819153,"lon":139.49255002},{"name":"三井のリパーク　久米川駅前駐輪場","province":"東京都","city":"東村山市","address":"東京都東村山市栄町2丁目10","lat":35.75036365,"lon":139.47062489},{"name":"サイクルタイムズ久米川","province":"東京都","city":"東村山市","address":"東京都東村山市栄町2丁目6","lat":35.74793344,"lon":139.47342196},{"name":"Ｂ－Ｐａｒｋ24　東村山駅東口","province":"東京都","city":"東村山市","address":"東京都東村山市久米川町4丁目8-12","lat":35.76129571,"lon":139.46889961},{"name":"サイクル・インＢ－Ｐａｒｋ　東村山駅東口駐輪場","province":"東京都","city":"東村山市","address":"東京都東村山市久米川町4丁目8-12","lat":35.76129571,"lon":139.46889961},{"name":"三井のリパーク　東村山駅前駐輪場","province":"東京都","city":"東村山市","address":"東京都東村山市野口町1丁目1-4","lat":35.76151223,"lon":139.46528326},{"name":"駐輪館","province":"東京都","city":"東村山市","address":"東京都東村山市野口町1丁目25-8","lat":35.75881804,"lon":139.46414459},{"name":"Ａ－Ｐarkサイクル新秋津駅前","province":"東京都","city":"東村山市","address":"東京都東村山市秋津町5丁目25","lat":35.77794157,"lon":139.49279444},{"name":"サイクルタイムズ秋津","province":"東京都","city":"東村山市","address":"東京都東村山市秋津町5丁目8","lat":35.77749448,"lon":139.49600253},{"name":"西武スマイルパーク　秋津駅南口駐輪場","province":"東京都","city":"東村山市","address":"東京都東村山市秋津町5丁目7-8","lat":35.7783055,"lon":139.49674412},{"name":"三井のリパーク　新秋津駅前駐輪場","province":"東京都","city":"東村山市","address":"東京都東村山市秋津町5丁目14-1","lat":35.77713335,"lon":139.49316665},{"name":"新秋津駅第5駐輪場","province":"東京都","city":"東村山市","address":"東京都東村山市秋津町5丁目17-17","lat":35.77485306,"lon":139.49300003},{"name":"東村山市民スポーツセンター","province":"東京都","city":"東村山市","address":"東京都東村山市久米川町3丁目30-5","lat":35.76107658,"lon":139.47965976},{"name":"※東村山市役所本庁舎","province":"東京都","city":"東村山市","address":"東京都東村山市本町1丁目2-3","lat":35.75462421,"lon":139.46848323},{"name":"平成あおば上宮園","province":"東京都","city":"東村山市","address":"東京都東村山市青葉町1-7-75","lat":35.75954,"lon":139.49255},{"name":"久米川駅南口第２駐輪場","province":"東京都","city":"東村山市","address":"東京都東村山市栄町2丁目11-13","lat":35.75087469,"lon":139.47040544},{"name":"久米川駅北口地下駐輪場","province":"東京都","city":"東村山市","address":"東京都東村山市栄町1丁目3-1","lat":35.7501304,"lon":139.47295802},{"name":"東村山駅東口第１駐輪場","province":"東京都","city":"東村山市","address":"東京都東村山市本町2丁目16-13","lat":35.76119848,"lon":139.46845798},{"name":"東村山駅東口第２駐輪場","province":"東京都","city":"東村山市","address":"東京都東村山市本町2丁目15-28","lat":35.76168732,"lon":139.46838575},{"name":"東村山駅西口地下駐輪場","province":"東京都","city":"東村山市","address":"東京都東村山市野口町3丁目1-41","lat":35.76218969,"lon":139.45838386},{"name":"新秋津駅第２駐輪場","province":"東京都","city":"東村山市","address":"東京都東村山市秋津町5丁目24-19","lat":35.77819153,"lon":139.49255002},{"name":"三井のリパーク　久米川駅前駐輪場","province":"東京都","city":"東村山市","address":"東京都東村山市栄町2丁目10","lat":35.75036365,"lon":139.47062489},{"name":"サイクルタイムズ久米川","province":"東京都","city":"東村山市","address":"東京都東村山市栄町2丁目6","lat":35.74793344,"lon":139.47342196},{"name":"Ｂ－Ｐａｒｋ24　東村山駅東口","province":"東京都","city":"東村山市","address":"東京都東村山市久米川町4丁目8-12","lat":35.76129571,"lon":139.46889961},{"name":"サイクル・インＢ－Ｐａｒｋ　東村山駅東口駐輪場","province":"東京都","city":"東村山市","address":"東京都東村山市久米川町4丁目8-12","lat":35.76129571,"lon":139.46889961},{"name":"三井のリパーク　東村山駅前駐輪場","province":"東京都","city":"東村山市","address":"東京都東村山市野口町1丁目1-4","lat":35.76151223,"lon":139.46528326},{"name":"駐輪館","province":"東京都","city":"東村山市","address":"東京都東村山市野口町1丁目25-8","lat":35.75881804,"lon":139.46414459},{"name":"Ａ－Ｐarkサイクル新秋津駅前","province":"東京都","city":"東村山市","address":"東京都東村山市秋津町5丁目25","lat":35.77794157,"lon":139.49279444},{"name":"サイクルタイムズ秋津","province":"東京都","city":"東村山市","address":"東京都東村山市秋津町5丁目8","lat":35.77749448,"lon":139.49600253},{"name":"西武スマイルパーク　秋津駅南口駐輪場","province":"東京都","city":"東村山市","address":"東京都東村山市秋津町5丁目7-8","lat":35.7783055,"lon":139.49674412},{"name":"三井のリパーク　新秋津駅前駐輪場","province":"東京都","city":"東村山市","address":"東京都東村山市秋津町5丁目14-1","lat":35.77713335,"lon":139.49316665},{"name":"新秋津駅第5駐輪場","province":"東京都","city":"東村山市","address":"東京都東村山市秋津町5丁目17-17","lat":35.77485306,"lon":139.49300003},{"name":"東村山市民スポーツセンター","province":"東京都","city":"東村山市","address":"東京都東村山市久米川町3丁目30-5","lat":35.76107658,"lon":139.47965976},{"name":"※東村山市役所本庁舎","province":"東京都","city":"東村山市","address":"東京都東村山市本町1丁目2-3","lat":35.75462421,"lon":139.46848323},{"name":"平成あおば上宮園","province":"東京都","city":"東村山市","address":"東京都東村山市青葉町1-7-75","lat":35.75954,"lon":139.49255},{"name":"久米川駅南口第２駐輪場","province":"東京都","city":"東村山市","address":"東京都東村山市栄町2丁目11-13","lat":35.75087469,"lon":139.47040544},{"name":"久米川駅北口地下駐輪場","province":"東京都","city":"東村山市","address":"東京都東村山市栄町1丁目3-1","lat":35.7501304,"lon":139.47295802},{"name":"東村山駅東口第１駐輪場","province":"東京都","city":"東村山市","address":"東京都東村山市本町2丁目16-13","lat":35.76119848,"lon":139.46845798},{"name":"東村山駅東口第２駐輪場","province":"東京都","city":"東村山市","address":"東京都東村山市本町2丁目15-28","lat":35.76168732,"lon":139.46838575},{"name":"東村山駅西口地下駐輪場","province":"東京都","city":"東村山市","address":"東京都東村山市野口町3丁目1-41","lat":35.76218969,"lon":139.45838386},{"name":"新秋津駅第２駐輪場","province":"東京都","city":"東村山市","address":"東京都東村山市秋津町5丁目24-19","lat":35.77819153,"lon":139.49255002},{"name":"三井のリパーク　久米川駅前駐輪場","province":"東京都","city":"東村山市","address":"東京都東村山市栄町2丁目10","lat":35.75036365,"lon":139.47062489},{"name":"サイクルタイムズ久米川","province":"東京都","city":"東村山市","address":"東京都東村山市栄町2丁目6","lat":35.74793344,"lon":139.47342196},{"name":"Ｂ－Ｐａｒｋ24　東村山駅東口","province":"東京都","city":"東村山市","address":"東京都東村山市久米川町4丁目8-12","lat":35.76129571,"lon":139.46889961},{"name":"サイクル・インＢ－Ｐａｒｋ　東村山駅東口駐輪場","province":"東京都","city":"東村山市","address":"東京都東村山市久米川町4丁目8-12","lat":35.76129571,"lon":139.46889961},{"name":"三井のリパーク　東村山駅前駐輪場","province":"東京都","city":"東村山市","address":"東京都東村山市野口町1丁目1-4","lat":35.76151223,"lon":139.46528326},{"name":"駐輪館","province":"東京都","city":"東村山市","address":"東京都東村山市野口町1丁目25-8","lat":35.75881804,"lon":139.46414459},{"name":"Ａ－Ｐarkサイクル新秋津駅前","province":"東京都","city":"東村山市","address":"東京都東村山市秋津町5丁目25","lat":35.77794157,"lon":139.49279444},{"name":"サイクルタイムズ秋津","province":"東京都","city":"東村山市","address":"東京都東村山市秋津町5丁目8","lat":35.77749448,"lon":139.49600253},{"name":"西武スマイルパーク　秋津駅南口駐輪場","province":"東京都","city":"東村山市","address":"東京都東村山市秋津町5丁目7-8","lat":35.7783055,"lon":139.49674412},{"name":"三井のリパーク　新秋津駅前駐輪場","province":"東京都","city":"東村山市","address":"東京都東村山市秋津町5丁目14-1","lat":35.77713335,"lon":139.49316665},{"name":"新秋津駅第5駐輪場","province":"東京都","city":"東村山市","address":"東京都東村山市秋津町5丁目17-17","lat":35.77485306,"lon":139.49300003},{"name":"東村山市民スポーツセンター","province":"東京都","city":"東村山市","address":"東京都東村山市久米川町3丁目30-5","lat":35.76107658,"lon":139.47965976},{"name":"※東村山市役所本庁舎","province":"東京都","city":"東村山市","address":"東京都東村山市本町1丁目2-3","lat":35.75462421,"lon":139.46848323},{"name":"平成あおば上宮園","province":"東京都","city":"東村山市","address":"東京都東村山市青葉町1-7-75","lat":35.75954,"lon":139.49255},{"name":"久米川駅南口第２駐輪場","province":"東京都","city":"東村山市","address":"東京都東村山市栄町2丁目11-13","lat":35.75087469,"lon":139.47040544},{"name":"久米川駅北口地下駐輪場","province":"東京都","city":"東村山市","address":"東京都東村山市栄町1丁目3-1","lat":35.7501304,"lon":139.47295802},{"name":"東村山駅東口第１駐輪場","province":"東京都","city":"東村山市","address":"東京都東村山市本町2丁目16-13","lat":35.76119848,"lon":139.46845798},{"name":"東村山駅東口第２駐輪場","province":"東京都","city":"東村山市","address":"東京都東村山市本町2丁目15-28","lat":35.76168732,"lon":139.46838575},{"name":"東村山駅西口地下駐輪場","province":"東京都","city":"東村山市","address":"東京都東村山市野口町3丁目1-41","lat":35.76218969,"lon":139.45838386},{"name":"新秋津駅第２駐輪場","province":"東京都","city":"東村山市","address":"東京都東村山市秋津町5丁目24-19","lat":35.77819153,"lon":139.49255002},{"name":"三井のリパーク　久米川駅前駐輪場","province":"東京都","city":"東村山市","address":"東京都東村山市栄町2丁目10","lat":35.75036365,"lon":139.47062489},{"name":"サイクルタイムズ久米川","province":"東京都","city":"東村山市","address":"東京都東村山市栄町2丁目6","lat":35.74793344,"lon":139.47342196},{"name":"Ｂ－Ｐａｒｋ24　東村山駅東口","province":"東京都","city":"東村山市","address":"東京都東村山市久米川町4丁目8-12","lat":35.76129571,"lon":139.46889961},{"name":"サイクル・インＢ－Ｐａｒｋ　東村山駅東口駐輪場","province":"東京都","city":"東村山市","address":"東京都東村山市久米川町4丁目8-12","lat":35.76129571,"lon":139.46889961},{"name":"三井のリパーク　東村山駅前駐輪場","province":"東京都","city":"東村山市","address":"東京都東村山市野口町1丁目1-4","lat":35.76151223,"lon":139.46528326},{"name":"駐輪館","province":"東京都","city":"東村山市","address":"東京都東村山市野口町1丁目25-8","lat":35.75881804,"lon":139.46414459},{"name":"Ａ－Ｐarkサイクル新秋津駅前","province":"東京都","city":"東村山市","address":"東京都東村山市秋津町5丁目25","lat":35.77794157,"lon":139.49279444},{"name":"サイクルタイムズ秋津","province":"東京都","city":"東村山市","address":"東京都東村山市秋津町5丁目8","lat":35.77749448,"lon":139.49600253},{"name":"西武スマイルパーク　秋津駅南口駐輪場","province":"東京都","city":"東村山市","address":"東京都東村山市秋津町5丁目7-8","lat":35.7783055,"lon":139.49674412},{"name":"三井のリパーク　新秋津駅前駐輪場","province":"東京都","city":"東村山市","address":"東京都東村山市秋津町5丁目14-1","lat":35.77713335,"lon":139.49316665},{"name":"新秋津駅第5駐輪場","province":"東京都","city":"東村山市","address":"東京都東村山市秋津町5丁目17-17","lat":35.77485306,"lon":139.49300003},{"name":"東村山市民スポーツセンター","province":"東京都","city":"東村山市","address":"東京都東村山市久米川町3丁目30-5","lat":35.76107658,"lon":139.47965976},{"name":"※東村山市役所本庁舎","province":"東京都","city":"東村山市","address":"東京都東村山市本町1丁目2-3","lat":35.75462421,"lon":139.46848323},{"name":"平成あおば上宮園","province":"東京都","city":"東村山市","address":"東京都東村山市青葉町1-7-75","lat":35.75954,"lon":139.49255},{"name":"久米川駅南口第２駐輪場","province":"東京都","city":"東村山市","address":"東京都東村山市栄町2丁目11-13","lat":35.75087469,"lon":139.47040544},{"name":"久米川駅北口地下駐輪場","province":"東京都","city":"東村山市","address":"東京都東村山市栄町1丁目3-1","lat":35.7501304,"lon":139.47295802},{"name":"東村山駅東口第１駐輪場","province":"東京都","city":"東村山市","address":"東京都東村山市本町2丁目16-13","lat":35.76119848,"lon":139.46845798},{"name":"東村山駅東口第２駐輪場","province":"東京都","city":"東村山市","address":"東京都東村山市本町2丁目15-28","lat":35.76168732,"lon":139.46838575},{"name":"東村山駅西口地下駐輪場","province":"東京都","city":"東村山市","address":"東京都東村山市野口町3丁目1-41","lat":35.76218969,"lon":139.45838386},{"name":"新秋津駅第２駐輪場","province":"東京都","city":"東村山市","address":"東京都東村山市秋津町5丁目24-19","lat":35.77819153,"lon":139.49255002},{"name":"三井のリパーク　久米川駅前駐輪場","province":"東京都","city":"東村山市","address":"東京都東村山市栄町2丁目10","lat":35.75036365,"lon":139.47062489},{"name":"サイクルタイムズ久米川","province":"東京都","city":"東村山市","address":"東京都東村山市栄町2丁目6","lat":35.74793344,"lon":139.47342196},{"name":"Ｂ－Ｐａｒｋ24　東村山駅東口","province":"東京都","city":"東村山市","address":"東京都東村山市久米川町4丁目8-12","lat":35.76129571,"lon":139.46889961},{"name":"サイクル・インＢ－Ｐａｒｋ　東村山駅東口駐輪場","province":"東京都","city":"東村山市","address":"東京都東村山市久米川町4丁目8-12","lat":35.76129571,"lon":139.46889961},{"name":"三井のリパーク　東村山駅前駐輪場","province":"東京都","city":"東村山市","address":"東京都東村山市野口町1丁目1-4","lat":35.76151223,"lon":139.46528326},{"name":"駐輪館","province":"東京都","city":"東村山市","address":"東京都東村山市野口町1丁目25-8","lat":35.75881804,"lon":139.46414459},{"name":"Ａ－Ｐarkサイクル新秋津駅前","province":"東京都","city":"東村山市","address":"東京都東村山市秋津町5丁目25","lat":35.77794157,"lon":139.49279444},{"name":"サイクルタイムズ秋津","province":"東京都","city":"東村山市","address":"東京都東村山市秋津町5丁目8","lat":35.77749448,"lon":139.49600253},{"name":"西武スマイルパーク　秋津駅南口駐輪場","province":"東京都","city":"東村山市","address":"東京都東村山市秋津町5丁目7-8","lat":35.7783055,"lon":139.49674412},{"name":"三井のリパーク　新秋津駅前駐輪場","province":"東京都","city":"東村山市","address":"東京都東村山市秋津町5丁目14-1","lat":35.77713335,"lon":139.49316665},{"name":"新秋津駅第5駐輪場","province":"東京都","city":"東村山市","address":"東京都東村山市秋津町5丁目17-17","lat":35.77485306,"lon":139.49300003},{"name":"東村山市民スポーツセンター","province":"東京都","city":"東村山市","address":"東京都東村山市久米川町3丁目30-5","lat":35.76107658,"lon":139.47965976},{"name":"※東村山市役所本庁舎","province":"東京都","city":"東村山市","address":"東京都東村山市本町1丁目2-3","lat":35.75462421,"lon":139.46848323},{"name":"平成あおば上宮園","province":"東京都","city":"東村山市","address":"東京都東村山市青葉町1-7-75","lat":35.75954,"lon":139.49255},{"name":"久米川駅南口第２駐輪場","province":"東京都","city":"東村山市","address":"東京都東村山市栄町2丁目11-13","lat":35.75087469,"lon":139.47040544},{"name":"久米川駅北口地下駐輪場","province":"東京都","city":"東村山市","address":"東京都東村山市栄町1丁目3-1","lat":35.7501304,"lon":139.47295802},{"name":"東村山駅東口第１駐輪場","province":"東京都","city":"東村山市","address":"東京都東村山市本町2丁目16-13","lat":35.76119848,"lon":139.46845798},{"name":"東村山駅東口第２駐輪場","province":"東京都","city":"東村山市","address":"東京都東村山市本町2丁目15-28","lat":35.76168732,"lon":139.46838575},{"name":"東村山駅西口地下駐輪場","province":"東京都","city":"東村山市","address":"東京都東村山市野口町3丁目1-41","lat":35.76218969,"lon":139.45838386},{"name":"新秋津駅第２駐輪場","province":"東京都","city":"東村山市","address":"東京都東村山市秋津町5丁目24-19","lat":35.77819153,"lon":139.49255002},{"name":"三井のリパーク　久米川駅前駐輪場","province":"東京都","city":"東村山市","address":"東京都東村山市栄町2丁目10","lat":35.75036365,"lon":139.47062489},{"name":"サイクルタイムズ久米川","province":"東京都","city":"東村山市","address":"東京都東村山市栄町2丁目6","lat":35.74793344,"lon":139.47342196},{"name":"Ｂ－Ｐａｒｋ24　東村山駅東口","province":"東京都","city":"東村山市","address":"東京都東村山市久米川町4丁目8-12","lat":35.76129571,"lon":139.46889961},{"name":"サイクル・インＢ－Ｐａｒｋ　東村山駅東口駐輪場","province":"東京都","city":"東村山市","address":"東京都東村山市久米川町4丁目8-12","lat":35.76129571,"lon":139.46889961},{"name":"三井のリパーク　東村山駅前駐輪場","province":"東京都","city":"東村山市","address":"東京都東村山市野口町1丁目1-4","lat":35.76151223,"lon":139.46528326},{"name":"駐輪館","province":"東京都","city":"東村山市","address":"東京都東村山市野口町1丁目25-8","lat":35.75881804,"lon":139.46414459},{"name":"Ａ－Ｐarkサイクル新秋津駅前","province":"東京都","city":"東村山市","address":"東京都東村山市秋津町5丁目25","lat":35.77794157,"lon":139.49279444},{"name":"サイクルタイムズ秋津","province":"東京都","city":"東村山市","address":"東京都東村山市秋津町5丁目8","lat":35.77749448,"lon":139.49600253},{"name":"西武スマイルパーク　秋津駅南口駐輪場","province":"東京都","city":"東村山市","address":"東京都東村山市秋津町5丁目7-8","lat":35.7783055,"lon":139.49674412},{"name":"三井のリパーク　新秋津駅前駐輪場","province":"東京都","city":"東村山市","address":"東京都東村山市秋津町5丁目14-1","lat":35.77713335,"lon":139.49316665},{"name":"新秋津駅第5駐輪場","province":"東京都","city":"東村山市","address":"東京都東村山市秋津町5丁目17-17","lat":35.77485306,"lon":139.49300003},{"name":"東村山市民スポーツセンター","province":"東京都","city":"東村山市","address":"東京都東村山市久米川町3丁目30-5","lat":35.76107658,"lon":139.47965976},{"name":"※東村山市役所本庁舎","province":"東京都","city":"東村山市","address":"東京都東村山市本町1丁目2-3","lat":35.75462421,"lon":139.46848323},{"name":"平成あおば上宮園","province":"東京都","city":"東村山市","address":"東京都東村山市青葉町1-7-75","lat":35.75954,"lon":139.49255},{"name":"久米川駅南口第２駐輪場","province":"東京都","city":"東村山市","address":"東京都東村山市栄町2丁目11-13","lat":35.75087469,"lon":139.47040544},{"name":"久米川駅北口地下駐輪場","province":"東京都","city":"東村山市","address":"東京都東村山市栄町1丁目3-1","lat":35.7501304,"lon":139.47295802},{"name":"東村山駅東口第１駐輪場","province":"東京都","city":"東村山市","address":"東京都東村山市本町2丁目16-13","lat":35.76119848,"lon":139.46845798},{"name":"東村山駅東口第２駐輪場","province":"東京都","city":"東村山市","address":"東京都東村山市本町2丁目15-28","lat":35.76168732,"lon":139.46838575},{"name":"東村山駅西口地下駐輪場","province":"東京都","city":"東村山市","address":"東京都東村山市野口町3丁目1-41","lat":35.76218969,"lon":139.45838386},{"name":"新秋津駅第２駐輪場","province":"東京都","city":"東村山市","address":"東京都東村山市秋津町5丁目24-19","lat":35.77819153,"lon":139.49255002},{"name":"三井のリパーク　久米川駅前駐輪場","province":"東京都","city":"東村山市","address":"東京都東村山市栄町2丁目10","lat":35.75036365,"lon":139.47062489},{"name":"サイクルタイムズ久米川","province":"東京都","city":"東村山市","address":"東京都東村山市栄町2丁目6","lat":35.74793344,"lon":139.47342196},{"name":"Ｂ－Ｐａｒｋ24　東村山駅東口","province":"東京都","city":"東村山市","address":"東京都東村山市久米川町4丁目8-12","lat":35.76129571,"lon":139.46889961},{"name":"サイクル・インＢ－Ｐａｒｋ　東村山駅東口駐輪場","province":"東京都","city":"東村山市","address":"東京都東村山市久米川町4丁目8-12","lat":35.76129571,"lon":139.46889961},{"name":"三井のリパーク　東村山駅前駐輪場","province":"東京都","city":"東村山市","address":"東京都東村山市野口町1丁目1-4","lat":35.76151223,"lon":139.46528326},{"name":"駐輪館","province":"東京都","city":"東村山市","address":"東京都東村山市野口町1丁目25-8","lat":35.75881804,"lon":139.46414459},{"name":"Ａ－Ｐarkサイクル新秋津駅前","province":"東京都","city":"東村山市","address":"東京都東村山市秋津町5丁目25","lat":35.77794157,"lon":139.49279444},{"name":"サイクルタイムズ秋津","province":"東京都","city":"東村山市","address":"東京都東村山市秋津町5丁目8","lat":35.77749448,"lon":139.49600253},{"name":"西武スマイルパーク　秋津駅南口駐輪場","province":"東京都","city":"東村山市","address":"東京都東村山市秋津町5丁目7-8","lat":35.7783055,"lon":139.49674412},{"name":"三井のリパーク　新秋津駅前駐輪場","province":"東京都","city":"東村山市","address":"東京都東村山市秋津町5丁目14-1","lat":35.77713335,"lon":139.49316665},{"name":"新秋津駅第5駐輪場","province":"東京都","city":"東村山市","address":"東京都東村山市秋津町5丁目17-17","lat":35.77485306,"lon":139.49300003},{"name":"東村山市民スポーツセンター","province":"東京都","city":"東村山市","address":"東京都東村山市久米川町3丁目30-5","lat":35.76107658,"lon":139.47965976},{"name":"※東村山市役所本庁舎","province":"東京都","city":"東村山市","address":"東京都東村山市本町1丁目2-3","lat":35.75462421,"lon":139.46848323},{"name":"平成あおば上宮園","province":"東京都","city":"東村山市","address":"東京都東村山市青葉町1-7-75","lat":35.75954,"lon":139.49255},{"name":"久米川駅南口第２駐輪場","province":"東京都","city":"東村山市","address":"東京都東村山市栄町2丁目11-13","lat":35.75087469,"lon":139.47040544},{"name":"久米川駅北口地下駐輪場","province":"東京都","city":"東村山市","address":"東京都東村山市栄町1丁目3-1","lat":35.7501304,"lon":139.47295802},{"name":"東村山駅東口第１駐輪場","province":"東京都","city":"東村山市","address":"東京都東村山市本町2丁目16-13","lat":35.76119848,"lon":139.46845798},{"name":"東村山駅東口第２駐輪場","province":"東京都","city":"東村山市","address":"東京都東村山市本町2丁目15-28","lat":35.76168732,"lon":139.46838575},{"name":"東村山駅西口地下駐輪場","province":"東京都","city":"東村山市","address":"東京都東村山市野口町3丁目1-41","lat":35.76218969,"lon":139.45838386},{"name":"新秋津駅第２駐輪場","province":"東京都","city":"東村山市","address":"東京都東村山市秋津町5丁目24-19","lat":35.77819153,"lon":139.49255002},{"name":"三井のリパーク　久米川駅前駐輪場","province":"東京都","city":"東村山市","address":"東京都東村山市栄町2丁目10","lat":35.75036365,"lon":139.47062489},{"name":"サイクルタイムズ久米川","province":"東京都","city":"東村山市","address":"東京都東村山市栄町2丁目6","lat":35.74793344,"lon":139.47342196},{"name":"Ｂ－Ｐａｒｋ24　東村山駅東口","province":"東京都","city":"東村山市","address":"東京都東村山市久米川町4丁目8-12","lat":35.76129571,"lon":139.46889961},{"name":"サイクル・インＢ－Ｐａｒｋ　東村山駅東口駐輪場","province":"東京都","city":"東村山市","address":"東京都東村山市久米川町4丁目8-12","lat":35.76129571,"lon":139.46889961},{"name":"三井のリパーク　東村山駅前駐輪場","province":"東京都","city":"東村山市","address":"東京都東村山市野口町1丁目1-4","lat":35.76151223,"lon":139.46528326},{"name":"駐輪館","province":"東京都","city":"東村山市","address":"東京都東村山市野口町1丁目25-8","lat":35.75881804,"lon":139.46414459},{"name":"Ａ－Ｐarkサイクル新秋津駅前","province":"東京都","city":"東村山市","address":"東京都東村山市秋津町5丁目25","lat":35.77794157,"lon":139.49279444},{"name":"サイクルタイムズ秋津","province":"東京都","city":"東村山市","address":"東京都東村山市秋津町5丁目8","lat":35.77749448,"lon":139.49600253},{"name":"西武スマイルパーク　秋津駅南口駐輪場","province":"東京都","city":"東村山市","address":"東京都東村山市秋津町5丁目7-8","lat":35.7783055,"lon":139.49674412},{"name":"三井のリパーク　新秋津駅前駐輪場","province":"東京都","city":"東村山市","address":"東京都東村山市秋津町5丁目14-1","lat":35.77713335,"lon":139.49316665},{"name":"新秋津駅第5駐輪場","province":"東京都","city":"東村山市","address":"東京都東村山市秋津町5丁目17-17","lat":35.77485306,"lon":139.49300003},{"name":"東村山市民スポーツセンター","province":"東京都","city":"東村山市","address":"東京都東村山市久米川町3丁目30-5","lat":35.76107658,"lon":139.47965976},{"name":"※東村山市役所本庁舎","province":"東京都","city":"東村山市","address":"東京都東村山市本町1丁目2-3","lat":35.75462421,"lon":139.46848323},{"name":"平成あおば上宮園","province":"東京都","city":"東村山市","address":"東京都東村山市青葉町1-7-75","lat":35.75954,"lon":139.49255},{"name":"久米川駅南口第２駐輪場","province":"東京都","city":"東村山市","address":"東京都東村山市栄町2丁目11-13","lat":35.75087469,"lon":139.47040544},{"name":"久米川駅北口地下駐輪場","province":"東京都","city":"東村山市","address":"東京都東村山市栄町1丁目3-1","lat":35.7501304,"lon":139.47295802},{"name":"東村山駅東口第１駐輪場","province":"東京都","city":"東村山市","address":"東京都東村山市本町2丁目16-13","lat":35.76119848,"lon":139.46845798},{"name":"東村山駅東口第２駐輪場","province":"東京都","city":"東村山市","address":"東京都東村山市本町2丁目15-28","lat":35.76168732,"lon":139.46838575},{"name":"東村山駅西口地下駐輪場","province":"東京都","city":"東村山市","address":"東京都東村山市野口町3丁目1-41","lat":35.76218969,"lon":139.45838386},{"name":"新秋津駅第２駐輪場","province":"東京都","city":"東村山市","address":"東京都東村山市秋津町5丁目24-19","lat":35.77819153,"lon":139.49255002},{"name":"三井のリパーク　久米川駅前駐輪場","province":"東京都","city":"東村山市","address":"東京都東村山市栄町2丁目10","lat":35.75036365,"lon":139.47062489},{"name":"サイクルタイムズ久米川","province":"東京都","city":"東村山市","address":"東京都東村山市栄町2丁目6","lat":35.74793344,"lon":139.47342196},{"name":"Ｂ－Ｐａｒｋ24　東村山駅東口","province":"東京都","city":"東村山市","address":"東京都東村山市久米川町4丁目8-12","lat":35.76129571,"lon":139.46889961},{"name":"サイクル・インＢ－Ｐａｒｋ　東村山駅東口駐輪場","province":"東京都","city":"東村山市","address":"東京都東村山市久米川町4丁目8-12","lat":35.76129571,"lon":139.46889961},{"name":"三井のリパーク　東村山駅前駐輪場","province":"東京都","city":"東村山市","address":"東京都東村山市野口町1丁目1-4","lat":35.76151223,"lon":139.46528326},{"name":"駐輪館","province":"東京都","city":"東村山市","address":"東京都東村山市野口町1丁目25-8","lat":35.75881804,"lon":139.46414459},{"name":"Ａ－Ｐarkサイクル新秋津駅前","province":"東京都","city":"東村山市","address":"東京都東村山市秋津町5丁目25","lat":35.77794157,"lon":139.49279444},{"name":"サイクルタイムズ秋津","province":"東京都","city":"東村山市","address":"東京都東村山市秋津町5丁目8","lat":35.77749448,"lon":139.49600253},{"name":"西武スマイルパーク　秋津駅南口駐輪場","province":"東京都","city":"東村山市","address":"東京都東村山市秋津町5丁目7-8","lat":35.7783055,"lon":139.49674412},{"name":"三井のリパーク　新秋津駅前駐輪場","province":"東京都","city":"東村山市","address":"東京都東村山市秋津町5丁目14-1","lat":35.77713335,"lon":139.49316665},{"name":"新秋津駅第5駐輪場","province":"東京都","city":"東村山市","address":"東京都東村山市秋津町5丁目17-17","lat":35.77485306,"lon":139.49300003},{"name":"東村山市民スポーツセンター","province":"東京都","city":"東村山市","address":"東京都東村山市久米川町3丁目30-5","lat":35.76107658,"lon":139.47965976},{"name":"※東村山市役所本庁舎","province":"東京都","city":"東村山市","address":"東京都東村山市本町1丁目2-3","lat":35.75462421,"lon":139.46848323},{"name":"平成あおば上宮園","province":"東京都","city":"東村山市","address":"東京都東村山市青葉町1-7-75","lat":35.75954,"lon":139.49255},{"name":"久米川駅南口第２駐輪場","province":"東京都","city":"東村山市","address":"東京都東村山市栄町2丁目11-13","lat":35.75087469,"lon":139.47040544},{"name":"久米川駅北口地下駐輪場","province":"東京都","city":"東村山市","address":"東京都東村山市栄町1丁目3-1","lat":35.7501304,"lon":139.47295802},{"name":"東村山駅東口第１駐輪場","province":"東京都","city":"東村山市","address":"東京都東村山市本町2丁目16-13","lat":35.76119848,"lon":139.46845798},{"name":"東村山駅東口第２駐輪場","province":"東京都","city":"東村山市","address":"東京都東村山市本町2丁目15-28","lat":35.76168732,"lon":139.46838575},{"name":"東村山駅西口地下駐輪場","province":"東京都","city":"東村山市","address":"東京都東村山市野口町3丁目1-41","lat":35.76218969,"lon":139.45838386},{"name":"新秋津駅第２駐輪場","province":"東京都","city":"東村山市","address":"東京都東村山市秋津町5丁目24-19","lat":35.77819153,"lon":139.49255002},{"name":"三井のリパーク　久米川駅前駐輪場","province":"東京都","city":"東村山市","address":"東京都東村山市栄町2丁目10","lat":35.75036365,"lon":139.47062489},{"name":"サイクルタイムズ久米川","province":"東京都","city":"東村山市","address":"東京都東村山市栄町2丁目6","lat":35.74793344,"lon":139.47342196},{"name":"Ｂ－Ｐａｒｋ24　東村山駅東口","province":"東京都","city":"東村山市","address":"東京都東村山市久米川町4丁目8-12","lat":35.76129571,"lon":139.46889961},{"name":"サイクル・インＢ－Ｐａｒｋ　東村山駅東口駐輪場","province":"東京都","city":"東村山市","address":"東京都東村山市久米川町4丁目8-12","lat":35.76129571,"lon":139.46889961},{"name":"三井のリパーク　東村山駅前駐輪場","province":"東京都","city":"東村山市","address":"東京都東村山市野口町1丁目1-4","lat":35.76151223,"lon":139.46528326},{"name":"駐輪館","province":"東京都","city":"東村山市","address":"東京都東村山市野口町1丁目25-8","lat":35.75881804,"lon":139.46414459},{"name":"Ａ－Ｐarkサイクル新秋津駅前","province":"東京都","city":"東村山市","address":"東京都東村山市秋津町5丁目25","lat":35.77794157,"lon":139.49279444},{"name":"サイクルタイムズ秋津","province":"東京都","city":"東村山市","address":"東京都東村山市秋津町5丁目8","lat":35.77749448,"lon":139.49600253},{"name":"西武スマイルパーク　秋津駅南口駐輪場","province":"東京都","city":"東村山市","address":"東京都東村山市秋津町5丁目7-8","lat":35.7783055,"lon":139.49674412},{"name":"三井のリパーク　新秋津駅前駐輪場","province":"東京都","city":"東村山市","address":"東京都東村山市秋津町5丁目14-1","lat":35.77713335,"lon":139.49316665},{"name":"新秋津駅第5駐輪場","province":"東京都","city":"東村山市","address":"東京都東村山市秋津町5丁目17-17","lat":35.77485306,"lon":139.49300003},{"name":"東村山市民スポーツセンター","province":"東京都","city":"東村山市","address":"東京都東村山市久米川町3丁目30-5","lat":35.76107658,"lon":139.47965976},{"name":"※東村山市役所本庁舎","province":"東京都","city":"東村山市","address":"東京都東村山市本町1丁目2-3","lat":35.75462421,"lon":139.46848323},{"name":"平成あおば上宮園","province":"東京都","city":"東村山市","address":"東京都東村山市青葉町1-7-75","lat":35.75954,"lon":139.49255},{"name":"久米川駅南口第２駐輪場","province":"東京都","city":"東村山市","address":"東京都東村山市栄町2丁目11-13","lat":35.75087469,"lon":139.47040544},{"name":"久米川駅北口地下駐輪場","province":"東京都","city":"東村山市","address":"東京都東村山市栄町1丁目3-1","lat":35.7501304,"lon":139.47295802},{"name":"東村山駅東口第１駐輪場","province":"東京都","city":"東村山市","address":"東京都東村山市本町2丁目16-13","lat":35.76119848,"lon":139.46845798},{"name":"東村山駅東口第２駐輪場","province":"東京都","city":"東村山市","address":"東京都東村山市本町2丁目15-28","lat":35.76168732,"lon":139.46838575},{"name":"東村山駅西口地下駐輪場","province":"東京都","city":"東村山市","address":"東京都東村山市野口町3丁目1-41","lat":35.76218969,"lon":139.45838386},{"name":"新秋津駅第２駐輪場","province":"東京都","city":"東村山市","address":"東京都東村山市秋津町5丁目24-19","lat":35.77819153,"lon":139.49255002},{"name":"三井のリパーク　久米川駅前駐輪場","province":"東京都","city":"東村山市","address":"東京都東村山市栄町2丁目10","lat":35.75036365,"lon":139.47062489},{"name":"サイクルタイムズ久米川","province":"東京都","city":"東村山市","address":"東京都東村山市栄町2丁目6","lat":35.74793344,"lon":139.47342196},{"name":"Ｂ－Ｐａｒｋ24　東村山駅東口","province":"東京都","city":"東村山市","address":"東京都東村山市久米川町4丁目8-12","lat":35.76129571,"lon":139.46889961},{"name":"サイクル・インＢ－Ｐａｒｋ　東村山駅東口駐輪場","province":"東京都","city":"東村山市","address":"東京都東村山市久米川町4丁目8-12","lat":35.76129571,"lon":139.46889961},{"name":"三井のリパーク　東村山駅前駐輪場","province":"東京都","city":"東村山市","address":"東京都東村山市野口町1丁目1-4","lat":35.76151223,"lon":139.46528326},{"name":"駐輪館","province":"東京都","city":"東村山市","address":"東京都東村山市野口町1丁目25-8","lat":35.75881804,"lon":139.46414459},{"name":"Ａ－Ｐarkサイクル新秋津駅前","province":"東京都","city":"東村山市","address":"東京都東村山市秋津町5丁目25","lat":35.77794157,"lon":139.49279444},{"name":"サイクルタイムズ秋津","province":"東京都","city":"東村山市","address":"東京都東村山市秋津町5丁目8","lat":35.77749448,"lon":139.49600253},{"name":"西武スマイルパーク　秋津駅南口駐輪場","province":"東京都","city":"東村山市","address":"東京都東村山市秋津町5丁目7-8","lat":35.7783055,"lon":139.49674412},{"name":"三井のリパーク　新秋津駅前駐輪場","province":"東京都","city":"東村山市","address":"東京都東村山市秋津町5丁目14-1","lat":35.77713335,"lon":139.49316665},{"name":"新秋津駅第5駐輪場","province":"東京都","city":"東村山市","address":"東京都東村山市秋津町5丁目17-17","lat":35.77485306,"lon":139.49300003},{"name":"東村山市民スポーツセンター","province":"東京都","city":"東村山市","address":"東京都東村山市久米川町3丁目30-5","lat":35.76107658,"lon":139.47965976},{"name":"※東村山市役所本庁舎","province":"東京都","city":"東村山市","address":"東京都東村山市本町1丁目2-3","lat":35.75462421,"lon":139.46848323},{"name":"平成あおば上宮園","province":"東京都","city":"東村山市","address":"東京都東村山市青葉町1-7-75","lat":35.75954,"lon":139.49255},{"name":"久米川駅南口第２駐輪場","province":"東京都","city":"東村山市","address":"東京都東村山市栄町2丁目11-13","lat":35.75087469,"lon":139.47040544},{"name":"久米川駅北口地下駐輪場","province":"東京都","city":"東村山市","address":"東京都東村山市栄町1丁目3-1","lat":35.7501304,"lon":139.47295802},{"name":"東村山駅東口第１駐輪場","province":"東京都","city":"東村山市","address":"東京都東村山市本町2丁目16-13","lat":35.76119848,"lon":139.46845798},{"name":"東村山駅東口第２駐輪場","province":"東京都","city":"東村山市","address":"東京都東村山市本町2丁目15-28","lat":35.76168732,"lon":139.46838575},{"name":"東村山駅西口地下駐輪場","province":"東京都","city":"東村山市","address":"東京都東村山市野口町3丁目1-41","lat":35.76218969,"lon":139.45838386},{"name":"新秋津駅第２駐輪場","province":"東京都","city":"東村山市","address":"東京都東村山市秋津町5丁目24-19","lat":35.77819153,"lon":139.49255002},{"name":"三井のリパーク　久米川駅前駐輪場","province":"東京都","city":"東村山市","address":"東京都東村山市栄町2丁目10","lat":35.75036365,"lon":139.47062489},{"name":"サイクルタイムズ久米川","province":"東京都","city":"東村山市","address":"東京都東村山市栄町2丁目6","lat":35.74793344,"lon":139.47342196},{"name":"Ｂ－Ｐａｒｋ24　東村山駅東口","province":"東京都","city":"東村山市","address":"東京都東村山市久米川町4丁目8-12","lat":35.76129571,"lon":139.46889961},{"name":"サイクル・インＢ－Ｐａｒｋ　東村山駅東口駐輪場","province":"東京都","city":"東村山市","address":"東京都東村山市久米川町4丁目8-12","lat":35.76129571,"lon":139.46889961},{"name":"三井のリパーク　東村山駅前駐輪場","province":"東京都","city":"東村山市","address":"東京都東村山市野口町1丁目1-4","lat":35.76151223,"lon":139.46528326},{"name":"駐輪館","province":"東京都","city":"東村山市","address":"東京都東村山市野口町1丁目25-8","lat":35.75881804,"lon":139.46414459},{"name":"Ａ－Ｐarkサイクル新秋津駅前","province":"東京都","city":"東村山市","address":"東京都東村山市秋津町5丁目25","lat":35.77794157,"lon":139.49279444},{"name":"サイクルタイムズ秋津","province":"東京都","city":"東村山市","address":"東京都東村山市秋津町5丁目8","lat":35.77749448,"lon":139.49600253},{"name":"西武スマイルパーク　秋津駅南口駐輪場","province":"東京都","city":"東村山市","address":"東京都東村山市秋津町5丁目7-8","lat":35.7783055,"lon":139.49674412},{"name":"三井のリパーク　新秋津駅前駐輪場","province":"東京都","city":"東村山市","address":"東京都東村山市秋津町5丁目14-1","lat":35.77713335,"lon":139.49316665},{"name":"新秋津駅第5駐輪場","province":"東京都","city":"東村山市","address":"東京都東村山市秋津町5丁目17-17","lat":35.77485306,"lon":139.49300003},{"name":"東村山市民スポーツセンター","province":"東京都","city":"東村山市","address":"東京都東村山市久米川町3丁目30-5","lat":35.76107658,"lon":139.47965976},{"name":"※東村山市役所本庁舎","province":"東京都","city":"東村山市","address":"東京都東村山市本町1丁目2-3","lat":35.75462421,"lon":139.46848323}]}