{"keyword":"収蔵","data":[{"name":"八坂給水所","province":"東京都","city":"東村山市","address":"東京都東村山市富士見町5-4-46","lat":35.747356,"lon":139.458482},{"name":"東村山浄水場","province":"東京都","city":"東村山市","address":"東京都東村山市美住町2-20-236","lat":35.7532331,"lon":139.458674},{"name":"美住給水所","province":"東京都","city":"東村山市","address":"東京都東村山市美住町2-13-4","lat":35.7555303,"lon":139.461554},{"name":"市立東村山運動公園","province":"東京都","city":"東村山市","address":"東京都東村山市恩多町1-9-5","lat":35.7556996,"lon":139.4901976},{"name":"市立秋津小学校","province":"東京都","city":"東村山市","address":"東京都東村山市秋津町3-48-1","lat":35.773108,"lon":139.482144},{"name":"東京都保健医療公社多摩北部医療センター","province":"東京都","city":"東村山市","address":"東京都東村山市青葉町1丁目7-1","lat":35.76043805,"lon":139.49094217},{"name":"八坂給水所","province":"東京都","city":"東村山市","address":"東京都東村山市富士見町5丁目4-46","lat":35.74735525,"lon":139.45848167},{"name":"東村山浄水場","province":"東京都","city":"東村山市","address":"東京都東村山市美住町2丁目20-236","lat":35.75327404,"lon":139.45878417},{"name":"美住給水所","province":"東京都","city":"東村山市","address":"東京都東村山市美住町2丁目13-4","lat":35.75552943,"lon":139.46155328},{"name":"市立東村山運動公園","province":"東京都","city":"東村山市","address":"東京都東村山市恩多町1丁目9-59","lat":35.75542745,"lon":139.48852866},{"name":"多摩北部医療センター","province":"東京都","city":"東村山市","address":"東京都東村山市青葉町1丁目7-1","lat":35.76043805,"lon":139.49094217},{"name":"美住給水所（注２）","province":"東京都","city":"東村山市","address":"東京都東村山市美住町2丁目13-4","lat":35.75552943,"lon":139.46155328},{"name":"東村山市立東村山運動公園","province":"東京都","city":"東村山市","address":"東京都東村山市恩多町1丁目51-1","lat":35.75413874,"lon":139.48959805},{"name":"経済産業研究所グラウンド","province":"東京都","city":"東村山市","address":"東京都東村山市富士見町5丁目4-36","lat":35.74688305,"lon":139.45748178},{"name":"都立東村山中央公園","province":"東京都","city":"東村山市","address":"東京都東村山市富士見町5丁目","lat":35.74535555,"lon":139.46071488},{"name":"＊?東村山市立秋津公民館","province":"東京都","city":"東村山市","address":"東村山市秋津町2-17-10","lat":35.771075,"lon":139.486541},{"name":"＊?東村山市立廻田公民館","province":"東京都","city":"東村山市","address":"東村山市廻田町4-19-1","lat":35.759625,"lon":139.452116},{"name":"＊?東村山市立萩山公民館","province":"東京都","city":"東村山市","address":"東村山市萩山町2-13-1","lat":35.742249,"lon":139.477739},{"name":"＊?東村山市立中央公民館","province":"東京都","city":"東村山市","address":"東村山市本町2-33-2","lat":35.759786,"lon":139.466884},{"name":"＊?東村山市立富士見公民館","province":"東京都","city":"東村山市","address":"東村山市富士見町5-4-51","lat":35.746635,"lon":139.462877},{"name":"八坂給水所","province":"東京都","city":"東村山市","address":"東京都東村山市富士見町5-4-46","lat":35.747356,"lon":139.458482},{"name":"東村山浄水場","province":"東京都","city":"東村山市","address":"東京都東村山市美住町2-20-236","lat":35.7532331,"lon":139.458674},{"name":"美住給水所","province":"東京都","city":"東村山市","address":"東京都東村山市美住町2-13-4","lat":35.7555303,"lon":139.461554},{"name":"市立東村山運動公園","province":"東京都","city":"東村山市","address":"東京都東村山市恩多町1-9-5","lat":35.7556996,"lon":139.4901976},{"name":"市立秋津小学校","province":"東京都","city":"東村山市","address":"東京都東村山市秋津町3-48-1","lat":35.773108,"lon":139.482144},{"name":"東京都保健医療公社多摩北部医療センター","province":"東京都","city":"東村山市","address":"東京都東村山市青葉町1丁目7-1","lat":35.76043805,"lon":139.49094217},{"name":"八坂給水所","province":"東京都","city":"東村山市","address":"東京都東村山市富士見町5丁目4-46","lat":35.74735525,"lon":139.45848167},{"name":"東村山浄水場","province":"東京都","city":"東村山市","address":"東京都東村山市美住町2丁目20-236","lat":35.75327404,"lon":139.45878417},{"name":"美住給水所","province":"東京都","city":"東村山市","address":"東京都東村山市美住町2丁目13-4","lat":35.75552943,"lon":139.46155328},{"name":"市立東村山運動公園","province":"東京都","city":"東村山市","address":"東京都東村山市恩多町1丁目9-59","lat":35.75542745,"lon":139.48852866},{"name":"多摩北部医療センター","province":"東京都","city":"東村山市","address":"東京都東村山市青葉町1丁目7-1","lat":35.76043805,"lon":139.49094217},{"name":"美住給水所（注２）","province":"東京都","city":"東村山市","address":"東京都東村山市美住町2丁目13-4","lat":35.75552943,"lon":139.46155328},{"name":"東村山市立東村山運動公園","province":"東京都","city":"東村山市","address":"東京都東村山市恩多町1丁目51-1","lat":35.75413874,"lon":139.48959805},{"name":"経済産業研究所グラウンド","province":"東京都","city":"東村山市","address":"東京都東村山市富士見町5丁目4-36","lat":35.74688305,"lon":139.45748178},{"name":"都立東村山中央公園","province":"東京都","city":"東村山市","address":"東京都東村山市富士見町5丁目","lat":35.74535555,"lon":139.46071488},{"name":"＊?東村山市立秋津公民館","province":"東京都","city":"東村山市","address":"東村山市秋津町2-17-10","lat":35.771075,"lon":139.486541},{"name":"＊?東村山市立廻田公民館","province":"東京都","city":"東村山市","address":"東村山市廻田町4-19-1","lat":35.759625,"lon":139.452116},{"name":"＊?東村山市立萩山公民館","province":"東京都","city":"東村山市","address":"東村山市萩山町2-13-1","lat":35.742249,"lon":139.477739},{"name":"＊?東村山市立中央公民館","province":"東京都","city":"東村山市","address":"東村山市本町2-33-2","lat":35.759786,"lon":139.466884},{"name":"＊?東村山市立富士見公民館","province":"東京都","city":"東村山市","address":"東村山市富士見町5-4-51","lat":35.746635,"lon":139.462877},{"name":"八坂給水所","province":"東京都","city":"東村山市","address":"東京都東村山市富士見町5-4-46","lat":35.747356,"lon":139.458482},{"name":"東村山浄水場","province":"東京都","city":"東村山市","address":"東京都東村山市美住町2-20-236","lat":35.7532331,"lon":139.458674},{"name":"美住給水所","province":"東京都","city":"東村山市","address":"東京都東村山市美住町2-13-4","lat":35.7555303,"lon":139.461554},{"name":"市立東村山運動公園","province":"東京都","city":"東村山市","address":"東京都東村山市恩多町1-9-5","lat":35.7556996,"lon":139.4901976},{"name":"市立秋津小学校","province":"東京都","city":"東村山市","address":"東京都東村山市秋津町3-48-1","lat":35.773108,"lon":139.482144},{"name":"東京都保健医療公社多摩北部医療センター","province":"東京都","city":"東村山市","address":"東京都東村山市青葉町1丁目7-1","lat":35.76043805,"lon":139.49094217},{"name":"八坂給水所","province":"東京都","city":"東村山市","address":"東京都東村山市富士見町5丁目4-46","lat":35.74735525,"lon":139.45848167},{"name":"東村山浄水場","province":"東京都","city":"東村山市","address":"東京都東村山市美住町2丁目20-236","lat":35.75327404,"lon":139.45878417},{"name":"美住給水所","province":"東京都","city":"東村山市","address":"東京都東村山市美住町2丁目13-4","lat":35.75552943,"lon":139.46155328},{"name":"市立東村山運動公園","province":"東京都","city":"東村山市","address":"東京都東村山市恩多町1丁目9-59","lat":35.75542745,"lon":139.48852866},{"name":"多摩北部医療センター","province":"東京都","city":"東村山市","address":"東京都東村山市青葉町1丁目7-1","lat":35.76043805,"lon":139.49094217},{"name":"美住給水所（注２）","province":"東京都","city":"東村山市","address":"東京都東村山市美住町2丁目13-4","lat":35.75552943,"lon":139.46155328},{"name":"東村山市立東村山運動公園","province":"東京都","city":"東村山市","address":"東京都東村山市恩多町1丁目51-1","lat":35.75413874,"lon":139.48959805},{"name":"経済産業研究所グラウンド","province":"東京都","city":"東村山市","address":"東京都東村山市富士見町5丁目4-36","lat":35.74688305,"lon":139.45748178},{"name":"都立東村山中央公園","province":"東京都","city":"東村山市","address":"東京都東村山市富士見町5丁目","lat":35.74535555,"lon":139.46071488},{"name":"＊?東村山市立秋津公民館","province":"東京都","city":"東村山市","address":"東村山市秋津町2-17-10","lat":35.771075,"lon":139.486541},{"name":"＊?東村山市立廻田公民館","province":"東京都","city":"東村山市","address":"東村山市廻田町4-19-1","lat":35.759625,"lon":139.452116},{"name":"＊?東村山市立萩山公民館","province":"東京都","city":"東村山市","address":"東村山市萩山町2-13-1","lat":35.742249,"lon":139.477739},{"name":"＊?東村山市立中央公民館","province":"東京都","city":"東村山市","address":"東村山市本町2-33-2","lat":35.759786,"lon":139.466884},{"name":"＊?東村山市立富士見公民館","province":"東京都","city":"東村山市","address":"東村山市富士見町5-4-51","lat":35.746635,"lon":139.462877},{"name":"八坂給水所","province":"東京都","city":"東村山市","address":"東京都東村山市富士見町5-4-46","lat":35.747356,"lon":139.458482},{"name":"東村山浄水場","province":"東京都","city":"東村山市","address":"東京都東村山市美住町2-20-236","lat":35.7532331,"lon":139.458674},{"name":"美住給水所","province":"東京都","city":"東村山市","address":"東京都東村山市美住町2-13-4","lat":35.7555303,"lon":139.461554},{"name":"市立東村山運動公園","province":"東京都","city":"東村山市","address":"東京都東村山市恩多町1-9-5","lat":35.7556996,"lon":139.4901976},{"name":"市立秋津小学校","province":"東京都","city":"東村山市","address":"東京都東村山市秋津町3-48-1","lat":35.773108,"lon":139.482144},{"name":"東京都保健医療公社多摩北部医療センター","province":"東京都","city":"東村山市","address":"東京都東村山市青葉町1丁目7-1","lat":35.76043805,"lon":139.49094217},{"name":"多摩北部医療センター","province":"東京都","city":"東村山市","address":"東京都東村山市青葉町1丁目7-1","lat":35.76043805,"lon":139.49094217},{"name":"東村山市立東村山運動公園","province":"東京都","city":"東村山市","address":"東京都東村山市恩多町1丁目51-1","lat":35.75413874,"lon":139.48959805},{"name":"経済産業研究所グラウンド","province":"東京都","city":"東村山市","address":"東京都東村山市富士見町5丁目4-36","lat":35.74688305,"lon":139.45748178},{"name":"都立東村山中央公園","province":"東京都","city":"東村山市","address":"東京都東村山市富士見町5丁目","lat":35.74535555,"lon":139.46071488},{"name":"＊?東村山市立秋津公民館","province":"東京都","city":"東村山市","address":"東村山市秋津町2-17-10","lat":35.771075,"lon":139.486541},{"name":"＊?東村山市立廻田公民館","province":"東京都","city":"東村山市","address":"東村山市廻田町4-19-1","lat":35.759625,"lon":139.452116},{"name":"＊?東村山市立萩山公民館","province":"東京都","city":"東村山市","address":"東村山市萩山町2-13-1","lat":35.742249,"lon":139.477739},{"name":"＊?東村山市立中央公民館","province":"東京都","city":"東村山市","address":"東村山市本町2-33-2","lat":35.759786,"lon":139.466884},{"name":"＊?東村山市立富士見公民館","province":"東京都","city":"東村山市","address":"東村山市富士見町5-4-51","lat":35.746635,"lon":139.462877},{"name":"八坂給水所","province":"東京都","city":"東村山市","address":"東京都東村山市富士見町5-4-46","lat":35.747356,"lon":139.458482},{"name":"東村山浄水場","province":"東京都","city":"東村山市","address":"東京都東村山市美住町2-20-236","lat":35.7532331,"lon":139.458674},{"name":"美住給水所","province":"東京都","city":"東村山市","address":"東京都東村山市美住町2-13-4","lat":35.7555303,"lon":139.461554},{"name":"市立東村山運動公園","province":"東京都","city":"東村山市","address":"東京都東村山市恩多町1-9-5","lat":35.7556996,"lon":139.4901976},{"name":"市立秋津小学校","province":"東京都","city":"東村山市","address":"東京都東村山市秋津町3-48-1","lat":35.773108,"lon":139.482144},{"name":"東京都保健医療公社多摩北部医療センター","province":"東京都","city":"東村山市","address":"東京都東村山市青葉町1丁目7-1","lat":35.76043805,"lon":139.49094217},{"name":"多摩北部医療センター","province":"東京都","city":"東村山市","address":"東京都東村山市青葉町1丁目7-1","lat":35.76043805,"lon":139.49094217},{"name":"＊?東村山市立秋津公民館","province":"東京都","city":"東村山市","address":"東村山市秋津町2-17-10","lat":35.771075,"lon":139.486541},{"name":"＊?東村山市立廻田公民館","province":"東京都","city":"東村山市","address":"東村山市廻田町4-19-1","lat":35.759625,"lon":139.452116},{"name":"＊?東村山市立萩山公民館","province":"東京都","city":"東村山市","address":"東村山市萩山町2-13-1","lat":35.742249,"lon":139.477739},{"name":"＊?東村山市立中央公民館","province":"東京都","city":"東村山市","address":"東村山市本町2-33-2","lat":35.759786,"lon":139.466884},{"name":"＊?東村山市立富士見公民館","province":"東京都","city":"東村山市","address":"東村山市富士見町5-4-51","lat":35.746635,"lon":139.462877},{"name":"八坂給水所","province":"東京都","city":"東村山市","address":"東京都東村山市富士見町5-4-46","lat":35.747356,"lon":139.458482},{"name":"東村山浄水場","province":"東京都","city":"東村山市","address":"東京都東村山市美住町2-20-236","lat":35.7532331,"lon":139.458674},{"name":"美住給水所","province":"東京都","city":"東村山市","address":"東京都東村山市美住町2-13-4","lat":35.7555303,"lon":139.461554},{"name":"市立東村山運動公園","province":"東京都","city":"東村山市","address":"東京都東村山市恩多町1-9-5","lat":35.7556996,"lon":139.4901976},{"name":"市立秋津小学校","province":"東京都","city":"東村山市","address":"東京都東村山市秋津町3-48-1","lat":35.773108,"lon":139.482144},{"name":"東京都保健医療公社多摩北部医療センター","province":"東京都","city":"東村山市","address":"東京都東村山市青葉町1丁目7-1","lat":35.76043805,"lon":139.49094217},{"name":"多摩北部医療センター","province":"東京都","city":"東村山市","address":"東京都東村山市青葉町1丁目7-1","lat":35.76043805,"lon":139.49094217},{"name":"＊?東村山市立秋津公民館","province":"東京都","city":"東村山市","address":"東村山市秋津町2-17-10","lat":35.771075,"lon":139.486541},{"name":"＊?東村山市立廻田公民館","province":"東京都","city":"東村山市","address":"東村山市廻田町4-19-1","lat":35.759625,"lon":139.452116},{"name":"＊?東村山市立萩山公民館","province":"東京都","city":"東村山市","address":"東村山市萩山町2-13-1","lat":35.742249,"lon":139.477739},{"name":"＊?東村山市立中央公民館","province":"東京都","city":"東村山市","address":"東村山市本町2-33-2","lat":35.759786,"lon":139.466884},{"name":"＊?東村山市立富士見公民館","province":"東京都","city":"東村山市","address":"東村山市富士見町5-4-51","lat":35.746635,"lon":139.462877},{"name":"八坂給水所","province":"東京都","city":"東村山市","address":"東京都東村山市富士見町5-4-46","lat":35.747356,"lon":139.458482},{"name":"東村山浄水場","province":"東京都","city":"東村山市","address":"東京都東村山市美住町2-20-236","lat":35.7532331,"lon":139.458674},{"name":"美住給水所","province":"東京都","city":"東村山市","address":"東京都東村山市美住町2-13-4","lat":35.7555303,"lon":139.461554},{"name":"市立東村山運動公園","province":"東京都","city":"東村山市","address":"東京都東村山市恩多町1-9-5","lat":35.7556996,"lon":139.4901976},{"name":"市立秋津小学校","province":"東京都","city":"東村山市","address":"東京都東村山市秋津町3-48-1","lat":35.773108,"lon":139.482144},{"name":"東京都保健医療公社多摩北部医療センター","province":"東京都","city":"東村山市","address":"東京都東村山市青葉町1丁目7-1","lat":35.76043805,"lon":139.49094217},{"name":"多摩北部医療センター","province":"東京都","city":"東村山市","address":"東京都東村山市青葉町1丁目7-1","lat":35.76043805,"lon":139.49094217},{"name":"＊?東村山市立秋津公民館","province":"東京都","city":"東村山市","address":"東村山市秋津町2-17-10","lat":35.771075,"lon":139.486541},{"name":"＊?東村山市立廻田公民館","province":"東京都","city":"東村山市","address":"東村山市廻田町4-19-1","lat":35.759625,"lon":139.452116},{"name":"＊?東村山市立萩山公民館","province":"東京都","city":"東村山市","address":"東村山市萩山町2-13-1","lat":35.742249,"lon":139.477739},{"name":"＊?東村山市立中央公民館","province":"東京都","city":"東村山市","address":"東村山市本町2-33-2","lat":35.759786,"lon":139.466884},{"name":"＊?東村山市立富士見公民館","province":"東京都","city":"東村山市","address":"東村山市富士見町5-4-51","lat":35.746635,"lon":139.462877},{"name":"八坂給水所","province":"東京都","city":"東村山市","address":"東京都東村山市富士見町5-4-46","lat":35.747356,"lon":139.458482},{"name":"東村山浄水場","province":"東京都","city":"東村山市","address":"東京都東村山市美住町2-20-236","lat":35.7532331,"lon":139.458674},{"name":"美住給水所","province":"東京都","city":"東村山市","address":"東京都東村山市美住町2-13-4","lat":35.7555303,"lon":139.461554},{"name":"市立東村山運動公園","province":"東京都","city":"東村山市","address":"東京都東村山市恩多町1-9-5","lat":35.7556996,"lon":139.4901976},{"name":"市立秋津小学校","province":"東京都","city":"東村山市","address":"東京都東村山市秋津町3-48-1","lat":35.773108,"lon":139.482144},{"name":"東京都保健医療公社多摩北部医療センター","province":"東京都","city":"東村山市","address":"東京都東村山市青葉町1丁目7-1","lat":35.76043805,"lon":139.49094217},{"name":"多摩北部医療センター","province":"東京都","city":"東村山市","address":"東京都東村山市青葉町1丁目7-1","lat":35.76043805,"lon":139.49094217},{"name":"＊?東村山市立秋津公民館","province":"東京都","city":"東村山市","address":"東村山市秋津町2-17-10","lat":35.771075,"lon":139.486541},{"name":"＊?東村山市立廻田公民館","province":"東京都","city":"東村山市","address":"東村山市廻田町4-19-1","lat":35.759625,"lon":139.452116},{"name":"＊?東村山市立萩山公民館","province":"東京都","city":"東村山市","address":"東村山市萩山町2-13-1","lat":35.742249,"lon":139.477739},{"name":"＊?東村山市立中央公民館","province":"東京都","city":"東村山市","address":"東村山市本町2-33-2","lat":35.759786,"lon":139.466884},{"name":"＊?東村山市立富士見公民館","province":"東京都","city":"東村山市","address":"東村山市富士見町5-4-51","lat":35.746635,"lon":139.462877},{"name":"八坂給水所","province":"東京都","city":"東村山市","address":"東京都東村山市富士見町5-4-46","lat":35.747356,"lon":139.458482},{"name":"東村山浄水場","province":"東京都","city":"東村山市","address":"東京都東村山市美住町2-20-236","lat":35.7532331,"lon":139.458674},{"name":"美住給水所","province":"東京都","city":"東村山市","address":"東京都東村山市美住町2-13-4","lat":35.7555303,"lon":139.461554},{"name":"市立東村山運動公園","province":"東京都","city":"東村山市","address":"東京都東村山市恩多町1-9-5","lat":35.7556996,"lon":139.4901976},{"name":"市立秋津小学校","province":"東京都","city":"東村山市","address":"東京都東村山市秋津町3-48-1","lat":35.773108,"lon":139.482144},{"name":"東京都保健医療公社多摩北部医療センター","province":"東京都","city":"東村山市","address":"東京都東村山市青葉町1丁目7-1","lat":35.76043805,"lon":139.49094217},{"name":"多摩北部医療センター","province":"東京都","city":"東村山市","address":"東京都東村山市青葉町1丁目7-1","lat":35.76043805,"lon":139.49094217},{"name":"＊?東村山市立秋津公民館","province":"東京都","city":"東村山市","address":"東村山市秋津町2-17-10","lat":35.771075,"lon":139.486541},{"name":"＊?東村山市立廻田公民館","province":"東京都","city":"東村山市","address":"東村山市廻田町4-19-1","lat":35.759625,"lon":139.452116},{"name":"＊?東村山市立萩山公民館","province":"東京都","city":"東村山市","address":"東村山市萩山町2-13-1","lat":35.742249,"lon":139.477739},{"name":"＊?東村山市立中央公民館","province":"東京都","city":"東村山市","address":"東村山市本町2-33-2","lat":35.759786,"lon":139.466884},{"name":"＊?東村山市立富士見公民館","province":"東京都","city":"東村山市","address":"東村山市富士見町5-4-51","lat":35.746635,"lon":139.462877},{"name":"八坂給水所","province":"東京都","city":"東村山市","address":"東京都東村山市富士見町5-4-46","lat":35.747356,"lon":139.458482},{"name":"東村山浄水場","province":"東京都","city":"東村山市","address":"東京都東村山市美住町2-20-236","lat":35.7532331,"lon":139.458674},{"name":"美住給水所","province":"東京都","city":"東村山市","address":"東京都東村山市美住町2-13-4","lat":35.7555303,"lon":139.461554},{"name":"市立東村山運動公園","province":"東京都","city":"東村山市","address":"東京都東村山市恩多町1-9-5","lat":35.7556996,"lon":139.4901976},{"name":"市立秋津小学校","province":"東京都","city":"東村山市","address":"東京都東村山市秋津町3-48-1","lat":35.773108,"lon":139.482144},{"name":"東京都保健医療公社多摩北部医療センター","province":"東京都","city":"東村山市","address":"東京都東村山市青葉町1丁目7-1","lat":35.76043805,"lon":139.49094217},{"name":"多摩北部医療センター","province":"東京都","city":"東村山市","address":"東京都東村山市青葉町1丁目7-1","lat":35.76043805,"lon":139.49094217},{"name":"＊?東村山市立秋津公民館","province":"東京都","city":"東村山市","address":"東村山市秋津町2-17-10","lat":35.771075,"lon":139.486541},{"name":"＊?東村山市立廻田公民館","province":"東京都","city":"東村山市","address":"東村山市廻田町4-19-1","lat":35.759625,"lon":139.452116},{"name":"＊?東村山市立萩山公民館","province":"東京都","city":"東村山市","address":"東村山市萩山町2-13-1","lat":35.742249,"lon":139.477739},{"name":"＊?東村山市立中央公民館","province":"東京都","city":"東村山市","address":"東村山市本町2-33-2","lat":35.759786,"lon":139.466884},{"name":"＊?東村山市立富士見公民館","province":"東京都","city":"東村山市","address":"東村山市富士見町5-4-51","lat":35.746635,"lon":139.462877},{"name":"八坂給水所","province":"東京都","city":"東村山市","address":"東京都東村山市富士見町5-4-46","lat":35.747356,"lon":139.458482},{"name":"東村山浄水場","province":"東京都","city":"東村山市","address":"東京都東村山市美住町2-20-236","lat":35.7532331,"lon":139.458674},{"name":"美住給水所","province":"東京都","city":"東村山市","address":"東京都東村山市美住町2-13-4","lat":35.7555303,"lon":139.461554},{"name":"市立東村山運動公園","province":"東京都","city":"東村山市","address":"東京都東村山市恩多町1-9-5","lat":35.7556996,"lon":139.4901976},{"name":"市立秋津小学校","province":"東京都","city":"東村山市","address":"東京都東村山市秋津町3-48-1","lat":35.773108,"lon":139.482144},{"name":"＊?東村山市立秋津公民館","province":"東京都","city":"東村山市","address":"東村山市秋津町2-17-10","lat":35.771075,"lon":139.486541},{"name":"＊?東村山市立廻田公民館","province":"東京都","city":"東村山市","address":"東村山市廻田町4-19-1","lat":35.759625,"lon":139.452116},{"name":"＊?東村山市立萩山公民館","province":"東京都","city":"東村山市","address":"東村山市萩山町2-13-1","lat":35.742249,"lon":139.477739},{"name":"＊?東村山市立中央公民館","province":"東京都","city":"東村山市","address":"東村山市本町2-33-2","lat":35.759786,"lon":139.466884},{"name":"＊?東村山市立富士見公民館","province":"東京都","city":"東村山市","address":"東村山市富士見町5-4-51","lat":35.746635,"lon":139.462877},{"name":"八坂給水所","province":"東京都","city":"東村山市","address":"東京都東村山市富士見町5-4-46","lat":35.747356,"lon":139.458482},{"name":"東村山浄水場","province":"東京都","city":"東村山市","address":"東京都東村山市美住町2-20-236","lat":35.7532331,"lon":139.458674},{"name":"美住給水所","province":"東京都","city":"東村山市","address":"東京都東村山市美住町2-13-4","lat":35.7555303,"lon":139.461554},{"name":"市立東村山運動公園","province":"東京都","city":"東村山市","address":"東京都東村山市恩多町1-9-5","lat":35.7556996,"lon":139.4901976},{"name":"市立秋津小学校","province":"東京都","city":"東村山市","address":"東京都東村山市秋津町3-48-1","lat":35.773108,"lon":139.482144},{"name":"＊?東村山市立秋津公民館","province":"東京都","city":"東村山市","address":"東村山市秋津町2-17-10","lat":35.771075,"lon":139.486541},{"name":"＊?東村山市立廻田公民館","province":"東京都","city":"東村山市","address":"東村山市廻田町4-19-1","lat":35.759625,"lon":139.452116},{"name":"＊?東村山市立萩山公民館","province":"東京都","city":"東村山市","address":"東村山市萩山町2-13-1","lat":35.742249,"lon":139.477739},{"name":"＊?東村山市立中央公民館","province":"東京都","city":"東村山市","address":"東村山市本町2-33-2","lat":35.759786,"lon":139.466884},{"name":"＊?東村山市立富士見公民館","province":"東京都","city":"東村山市","address":"東村山市富士見町5-4-51","lat":35.746635,"lon":139.462877},{"name":"八坂給水所","province":"東京都","city":"東村山市","address":"東京都東村山市富士見町5-4-46","lat":35.747356,"lon":139.458482},{"name":"東村山浄水場","province":"東京都","city":"東村山市","address":"東京都東村山市美住町2-20-236","lat":35.7532331,"lon":139.458674},{"name":"美住給水所","province":"東京都","city":"東村山市","address":"東京都東村山市美住町2-13-4","lat":35.7555303,"lon":139.461554},{"name":"市立東村山運動公園","province":"東京都","city":"東村山市","address":"東京都東村山市恩多町1-9-5","lat":35.7556996,"lon":139.4901976},{"name":"市立秋津小学校","province":"東京都","city":"東村山市","address":"東京都東村山市秋津町3-48-1","lat":35.773108,"lon":139.482144},{"name":"＊?東村山市立秋津公民館","province":"東京都","city":"東村山市","address":"東村山市秋津町2-17-10","lat":35.771075,"lon":139.486541},{"name":"＊?東村山市立廻田公民館","province":"東京都","city":"東村山市","address":"東村山市廻田町4-19-1","lat":35.759625,"lon":139.452116},{"name":"＊?東村山市立萩山公民館","province":"東京都","city":"東村山市","address":"東村山市萩山町2-13-1","lat":35.742249,"lon":139.477739},{"name":"＊?東村山市立中央公民館","province":"東京都","city":"東村山市","address":"東村山市本町2-33-2","lat":35.759786,"lon":139.466884},{"name":"＊?東村山市立富士見公民館","province":"東京都","city":"東村山市","address":"東村山市富士見町5-4-51","lat":35.746635,"lon":139.462877},{"name":"八坂給水所","province":"東京都","city":"東村山市","address":"東京都東村山市富士見町5-4-46","lat":35.747356,"lon":139.458482},{"name":"東村山浄水場","province":"東京都","city":"東村山市","address":"東京都東村山市美住町2-20-236","lat":35.7532331,"lon":139.458674},{"name":"美住給水所","province":"東京都","city":"東村山市","address":"東京都東村山市美住町2-13-4","lat":35.7555303,"lon":139.461554},{"name":"市立東村山運動公園","province":"東京都","city":"東村山市","address":"東京都東村山市恩多町1-9-5","lat":35.7556996,"lon":139.4901976},{"name":"市立秋津小学校","province":"東京都","city":"東村山市","address":"東京都東村山市秋津町3-48-1","lat":35.773108,"lon":139.482144},{"name":"＊?東村山市立秋津公民館","province":"東京都","city":"東村山市","address":"東村山市秋津町2-17-10","lat":35.771075,"lon":139.486541},{"name":"＊?東村山市立廻田公民館","province":"東京都","city":"東村山市","address":"東村山市廻田町4-19-1","lat":35.759625,"lon":139.452116},{"name":"＊?東村山市立萩山公民館","province":"東京都","city":"東村山市","address":"東村山市萩山町2-13-1","lat":35.742249,"lon":139.477739},{"name":"＊?東村山市立中央公民館","province":"東京都","city":"東村山市","address":"東村山市本町2-33-2","lat":35.759786,"lon":139.466884},{"name":"＊?東村山市立富士見公民館","province":"東京都","city":"東村山市","address":"東村山市富士見町5-4-51","lat":35.746635,"lon":139.462877},{"name":"八坂給水所","province":"東京都","city":"東村山市","address":"東京都東村山市富士見町5-4-46","lat":35.747356,"lon":139.458482},{"name":"東村山浄水場","province":"東京都","city":"東村山市","address":"東京都東村山市美住町2-20-236","lat":35.7532331,"lon":139.458674},{"name":"美住給水所","province":"東京都","city":"東村山市","address":"東京都東村山市美住町2-13-4","lat":35.7555303,"lon":139.461554},{"name":"市立東村山運動公園","province":"東京都","city":"東村山市","address":"東京都東村山市恩多町1-9-5","lat":35.7556996,"lon":139.4901976},{"name":"市立秋津小学校","province":"東京都","city":"東村山市","address":"東京都東村山市秋津町3-48-1","lat":35.773108,"lon":139.482144},{"name":"＊?東村山市立秋津公民館","province":"東京都","city":"東村山市","address":"東村山市秋津町2-17-10","lat":35.771075,"lon":139.486541},{"name":"＊?東村山市立廻田公民館","province":"東京都","city":"東村山市","address":"東村山市廻田町4-19-1","lat":35.759625,"lon":139.452116},{"name":"＊?東村山市立萩山公民館","province":"東京都","city":"東村山市","address":"東村山市萩山町2-13-1","lat":35.742249,"lon":139.477739},{"name":"＊?東村山市立中央公民館","province":"東京都","city":"東村山市","address":"東村山市本町2-33-2","lat":35.759786,"lon":139.466884},{"name":"＊?東村山市立富士見公民館","province":"東京都","city":"東村山市","address":"東村山市富士見町5-4-51","lat":35.746635,"lon":139.462877},{"name":"八坂給水所","province":"東京都","city":"東村山市","address":"東京都東村山市富士見町5-4-46","lat":35.747356,"lon":139.458482},{"name":"東村山浄水場","province":"東京都","city":"東村山市","address":"東京都東村山市美住町2-20-236","lat":35.7532331,"lon":139.458674},{"name":"美住給水所","province":"東京都","city":"東村山市","address":"東京都東村山市美住町2-13-4","lat":35.7555303,"lon":139.461554},{"name":"市立東村山運動公園","province":"東京都","city":"東村山市","address":"東京都東村山市恩多町1-9-5","lat":35.7556996,"lon":139.4901976},{"name":"市立秋津小学校","province":"東京都","city":"東村山市","address":"東京都東村山市秋津町3-48-1","lat":35.773108,"lon":139.482144},{"name":"＊?東村山市立秋津公民館","province":"東京都","city":"東村山市","address":"東村山市秋津町2-17-10","lat":35.771075,"lon":139.486541},{"name":"＊?東村山市立廻田公民館","province":"東京都","city":"東村山市","address":"東村山市廻田町4-19-1","lat":35.759625,"lon":139.452116},{"name":"＊?東村山市立萩山公民館","province":"東京都","city":"東村山市","address":"東村山市萩山町2-13-1","lat":35.742249,"lon":139.477739},{"name":"＊?東村山市立中央公民館","province":"東京都","city":"東村山市","address":"東村山市本町2-33-2","lat":35.759786,"lon":139.466884},{"name":"＊?東村山市立富士見公民館","province":"東京都","city":"東村山市","address":"東村山市富士見町5-4-51","lat":35.746635,"lon":139.462877},{"name":"八坂給水所","province":"東京都","city":"東村山市","address":"東京都東村山市富士見町5-4-46","lat":35.747356,"lon":139.458482},{"name":"東村山浄水場","province":"東京都","city":"東村山市","address":"東京都東村山市美住町2-20-236","lat":35.7532331,"lon":139.458674},{"name":"美住給水所","province":"東京都","city":"東村山市","address":"東京都東村山市美住町2-13-4","lat":35.7555303,"lon":139.461554},{"name":"市立東村山運動公園","province":"東京都","city":"東村山市","address":"東京都東村山市恩多町1-9-5","lat":35.7556996,"lon":139.4901976},{"name":"市立秋津小学校","province":"東京都","city":"東村山市","address":"東京都東村山市秋津町3-48-1","lat":35.773108,"lon":139.482144},{"name":"＊?東村山市立秋津公民館","province":"東京都","city":"東村山市","address":"東村山市秋津町2-17-10","lat":35.771075,"lon":139.486541},{"name":"＊?東村山市立廻田公民館","province":"東京都","city":"東村山市","address":"東村山市廻田町4-19-1","lat":35.759625,"lon":139.452116},{"name":"＊?東村山市立萩山公民館","province":"東京都","city":"東村山市","address":"東村山市萩山町2-13-1","lat":35.742249,"lon":139.477739},{"name":"＊?東村山市立中央公民館","province":"東京都","city":"東村山市","address":"東村山市本町2-33-2","lat":35.759786,"lon":139.466884},{"name":"＊?東村山市立富士見公民館","province":"東京都","city":"東村山市","address":"東村山市富士見町5-4-51","lat":35.746635,"lon":139.462877},{"name":"八坂給水所","province":"東京都","city":"東村山市","address":"東京都東村山市富士見町5-4-46","lat":35.747356,"lon":139.458482},{"name":"東村山浄水場","province":"東京都","city":"東村山市","address":"東京都東村山市美住町2-20-236","lat":35.7532331,"lon":139.458674},{"name":"美住給水所","province":"東京都","city":"東村山市","address":"東京都東村山市美住町2-13-4","lat":35.7555303,"lon":139.461554},{"name":"市立東村山運動公園","province":"東京都","city":"東村山市","address":"東京都東村山市恩多町1-9-5","lat":35.7556996,"lon":139.4901976},{"name":"市立秋津小学校","province":"東京都","city":"東村山市","address":"東京都東村山市秋津町3-48-1","lat":35.773108,"lon":139.482144},{"name":"＊?東村山市立秋津公民館","province":"東京都","city":"東村山市","address":"東村山市秋津町2-17-10","lat":35.771075,"lon":139.486541},{"name":"＊?東村山市立廻田公民館","province":"東京都","city":"東村山市","address":"東村山市廻田町4-19-1","lat":35.759625,"lon":139.452116},{"name":"＊?東村山市立萩山公民館","province":"東京都","city":"東村山市","address":"東村山市萩山町2-13-1","lat":35.742249,"lon":139.477739},{"name":"＊?東村山市立中央公民館","province":"東京都","city":"東村山市","address":"東村山市本町2-33-2","lat":35.759786,"lon":139.466884},{"name":"＊?東村山市立富士見公民館","province":"東京都","city":"東村山市","address":"東村山市富士見町5-4-51","lat":35.746635,"lon":139.462877},{"name":"八坂給水所","province":"東京都","city":"東村山市","address":"東京都東村山市富士見町5-4-46","lat":35.747356,"lon":139.458482},{"name":"東村山浄水場","province":"東京都","city":"東村山市","address":"東京都東村山市美住町2-20-236","lat":35.7532331,"lon":139.458674},{"name":"美住給水所","province":"東京都","city":"東村山市","address":"東京都東村山市美住町2-13-4","lat":35.7555303,"lon":139.461554},{"name":"市立東村山運動公園","province":"東京都","city":"東村山市","address":"東京都東村山市恩多町1-9-5","lat":35.7556996,"lon":139.4901976},{"name":"市立秋津小学校","province":"東京都","city":"東村山市","address":"東京都東村山市秋津町3-48-1","lat":35.773108,"lon":139.482144},{"name":"＊?東村山市立秋津公民館","province":"東京都","city":"東村山市","address":"東村山市秋津町2-17-10","lat":35.771075,"lon":139.486541},{"name":"＊?東村山市立廻田公民館","province":"東京都","city":"東村山市","address":"東村山市廻田町4-19-1","lat":35.759625,"lon":139.452116},{"name":"＊?東村山市立萩山公民館","province":"東京都","city":"東村山市","address":"東村山市萩山町2-13-1","lat":35.742249,"lon":139.477739},{"name":"＊?東村山市立中央公民館","province":"東京都","city":"東村山市","address":"東村山市本町2-33-2","lat":35.759786,"lon":139.466884},{"name":"＊?東村山市立富士見公民館","province":"東京都","city":"東村山市","address":"東村山市富士見町5-4-51","lat":35.746635,"lon":139.462877},{"name":"八坂給水所","province":"東京都","city":"東村山市","address":"東京都東村山市富士見町5-4-46","lat":35.747356,"lon":139.458482},{"name":"東村山浄水場","province":"東京都","city":"東村山市","address":"東京都東村山市美住町2-20-236","lat":35.7532331,"lon":139.458674},{"name":"美住給水所","province":"東京都","city":"東村山市","address":"東京都東村山市美住町2-13-4","lat":35.7555303,"lon":139.461554},{"name":"市立東村山運動公園","province":"東京都","city":"東村山市","address":"東京都東村山市恩多町1-9-5","lat":35.7556996,"lon":139.4901976},{"name":"市立秋津小学校","province":"東京都","city":"東村山市","address":"東京都東村山市秋津町3-48-1","lat":35.773108,"lon":139.482144},{"name":"＊?東村山市立秋津公民館","province":"東京都","city":"東村山市","address":"東村山市秋津町2-17-10","lat":35.771075,"lon":139.486541},{"name":"＊?東村山市立廻田公民館","province":"東京都","city":"東村山市","address":"東村山市廻田町4-19-1","lat":35.759625,"lon":139.452116},{"name":"＊?東村山市立萩山公民館","province":"東京都","city":"東村山市","address":"東村山市萩山町2-13-1","lat":35.742249,"lon":139.477739},{"name":"＊?東村山市立中央公民館","province":"東京都","city":"東村山市","address":"東村山市本町2-33-2","lat":35.759786,"lon":139.466884},{"name":"＊?東村山市立富士見公民館","province":"東京都","city":"東村山市","address":"東村山市富士見町5-4-51","lat":35.746635,"lon":139.462877},{"name":"八坂給水所","province":"東京都","city":"東村山市","address":"東京都東村山市富士見町5-4-46","lat":35.747356,"lon":139.458482},{"name":"東村山浄水場","province":"東京都","city":"東村山市","address":"東京都東村山市美住町2-20-236","lat":35.7532331,"lon":139.458674},{"name":"美住給水所","province":"東京都","city":"東村山市","address":"東京都東村山市美住町2-13-4","lat":35.7555303,"lon":139.461554},{"name":"市立東村山運動公園","province":"東京都","city":"東村山市","address":"東京都東村山市恩多町1-9-5","lat":35.7556996,"lon":139.4901976},{"name":"市立秋津小学校","province":"東京都","city":"東村山市","address":"東京都東村山市秋津町3-48-1","lat":35.773108,"lon":139.482144},{"name":"＊?東村山市立秋津公民館","province":"東京都","city":"東村山市","address":"東村山市秋津町2-17-10","lat":35.771075,"lon":139.486541},{"name":"＊?東村山市立廻田公民館","province":"東京都","city":"東村山市","address":"東村山市廻田町4-19-1","lat":35.759625,"lon":139.452116},{"name":"＊?東村山市立萩山公民館","province":"東京都","city":"東村山市","address":"東村山市萩山町2-13-1","lat":35.742249,"lon":139.477739},{"name":"＊?東村山市立中央公民館","province":"東京都","city":"東村山市","address":"東村山市本町2-33-2","lat":35.759786,"lon":139.466884},{"name":"＊?東村山市立富士見公民館","province":"東京都","city":"東村山市","address":"東村山市富士見町5-4-51","lat":35.746635,"lon":139.462877},{"name":"八坂給水所","province":"東京都","city":"東村山市","address":"東京都東村山市富士見町5-4-46","lat":35.747356,"lon":139.458482},{"name":"東村山浄水場","province":"東京都","city":"東村山市","address":"東京都東村山市美住町2-20-236","lat":35.7532331,"lon":139.458674},{"name":"美住給水所","province":"東京都","city":"東村山市","address":"東京都東村山市美住町2-13-4","lat":35.7555303,"lon":139.461554},{"name":"市立東村山運動公園","province":"東京都","city":"東村山市","address":"東京都東村山市恩多町1-9-5","lat":35.7556996,"lon":139.4901976},{"name":"市立秋津小学校","province":"東京都","city":"東村山市","address":"東京都東村山市秋津町3-48-1","lat":35.773108,"lon":139.482144},{"name":"＊?東村山市立秋津公民館","province":"東京都","city":"東村山市","address":"東村山市秋津町2-17-10","lat":35.771075,"lon":139.486541},{"name":"＊?東村山市立廻田公民館","province":"東京都","city":"東村山市","address":"東村山市廻田町4-19-1","lat":35.759625,"lon":139.452116},{"name":"＊?東村山市立萩山公民館","province":"東京都","city":"東村山市","address":"東村山市萩山町2-13-1","lat":35.742249,"lon":139.477739},{"name":"＊?東村山市立中央公民館","province":"東京都","city":"東村山市","address":"東村山市本町2-33-2","lat":35.759786,"lon":139.466884},{"name":"＊?東村山市立富士見公民館","province":"東京都","city":"東村山市","address":"東村山市富士見町5-4-51","lat":35.746635,"lon":139.462877},{"name":"八坂給水所","province":"東京都","city":"東村山市","address":"東京都東村山市富士見町5-4-46","lat":35.747356,"lon":139.458482},{"name":"東村山浄水場","province":"東京都","city":"東村山市","address":"東京都東村山市美住町2-20-236","lat":35.7532331,"lon":139.458674},{"name":"美住給水所","province":"東京都","city":"東村山市","address":"東京都東村山市美住町2-13-4","lat":35.7555303,"lon":139.461554},{"name":"市立東村山運動公園","province":"東京都","city":"東村山市","address":"東京都東村山市恩多町1-9-5","lat":35.7556996,"lon":139.4901976},{"name":"市立秋津小学校","province":"東京都","city":"東村山市","address":"東京都東村山市秋津町3-48-1","lat":35.773108,"lon":139.482144},{"name":"＊?東村山市立秋津公民館","province":"東京都","city":"東村山市","address":"東村山市秋津町2-17-10","lat":35.771075,"lon":139.486541},{"name":"＊?東村山市立廻田公民館","province":"東京都","city":"東村山市","address":"東村山市廻田町4-19-1","lat":35.759625,"lon":139.452116},{"name":"＊?東村山市立萩山公民館","province":"東京都","city":"東村山市","address":"東村山市萩山町2-13-1","lat":35.742249,"lon":139.477739},{"name":"＊?東村山市立中央公民館","province":"東京都","city":"東村山市","address":"東村山市本町2-33-2","lat":35.759786,"lon":139.466884},{"name":"＊?東村山市立富士見公民館","province":"東京都","city":"東村山市","address":"東村山市富士見町5-4-51","lat":35.746635,"lon":139.462877},{"name":"八坂給水所","province":"東京都","city":"東村山市","address":"東京都東村山市富士見町5-4-46","lat":35.747356,"lon":139.458482},{"name":"東村山浄水場","province":"東京都","city":"東村山市","address":"東京都東村山市美住町2-20-236","lat":35.7532331,"lon":139.458674},{"name":"美住給水所","province":"東京都","city":"東村山市","address":"東京都東村山市美住町2-13-4","lat":35.7555303,"lon":139.461554},{"name":"市立東村山運動公園","province":"東京都","city":"東村山市","address":"東京都東村山市恩多町1-9-5","lat":35.7556996,"lon":139.4901976},{"name":"市立秋津小学校","province":"東京都","city":"東村山市","address":"東京都東村山市秋津町3-48-1","lat":35.773108,"lon":139.482144},{"name":"＊?東村山市立秋津公民館","province":"東京都","city":"東村山市","address":"東村山市秋津町2-17-10","lat":35.771075,"lon":139.486541},{"name":"＊?東村山市立廻田公民館","province":"東京都","city":"東村山市","address":"東村山市廻田町4-19-1","lat":35.759625,"lon":139.452116},{"name":"＊?東村山市立萩山公民館","province":"東京都","city":"東村山市","address":"東村山市萩山町2-13-1","lat":35.742249,"lon":139.477739},{"name":"＊?東村山市立中央公民館","province":"東京都","city":"東村山市","address":"東村山市本町2-33-2","lat":35.759786,"lon":139.466884},{"name":"＊?東村山市立富士見公民館","province":"東京都","city":"東村山市","address":"東村山市富士見町5-4-51","lat":35.746635,"lon":139.462877},{"name":"八坂給水所","province":"東京都","city":"東村山市","address":"東京都東村山市富士見町5-4-46","lat":35.747356,"lon":139.458482},{"name":"東村山浄水場","province":"東京都","city":"東村山市","address":"東京都東村山市美住町2-20-236","lat":35.7532331,"lon":139.458674},{"name":"美住給水所","province":"東京都","city":"東村山市","address":"東京都東村山市美住町2-13-4","lat":35.7555303,"lon":139.461554},{"name":"市立東村山運動公園","province":"東京都","city":"東村山市","address":"東京都東村山市恩多町1-9-5","lat":35.7556996,"lon":139.4901976},{"name":"市立秋津小学校","province":"東京都","city":"東村山市","address":"東京都東村山市秋津町3-48-1","lat":35.773108,"lon":139.482144},{"name":"＊?東村山市立秋津公民館","province":"東京都","city":"東村山市","address":"東村山市秋津町2-17-10","lat":35.771075,"lon":139.486541},{"name":"＊?東村山市立廻田公民館","province":"東京都","city":"東村山市","address":"東村山市廻田町4-19-1","lat":35.759625,"lon":139.452116},{"name":"＊?東村山市立萩山公民館","province":"東京都","city":"東村山市","address":"東村山市萩山町2-13-1","lat":35.742249,"lon":139.477739},{"name":"＊?東村山市立中央公民館","province":"東京都","city":"東村山市","address":"東村山市本町2-33-2","lat":35.759786,"lon":139.466884},{"name":"＊?東村山市立富士見公民館","province":"東京都","city":"東村山市","address":"東村山市富士見町5-4-51","lat":35.746635,"lon":139.462877},{"name":"八坂給水所","province":"東京都","city":"東村山市","address":"東京都東村山市富士見町5-4-46","lat":35.747356,"lon":139.458482},{"name":"東村山浄水場","province":"東京都","city":"東村山市","address":"東京都東村山市美住町2-20-236","lat":35.7532331,"lon":139.458674},{"name":"美住給水所","province":"東京都","city":"東村山市","address":"東京都東村山市美住町2-13-4","lat":35.7555303,"lon":139.461554},{"name":"市立東村山運動公園","province":"東京都","city":"東村山市","address":"東京都東村山市恩多町1-9-5","lat":35.7556996,"lon":139.4901976},{"name":"市立秋津小学校","province":"東京都","city":"東村山市","address":"東京都東村山市秋津町3-48-1","lat":35.773108,"lon":139.482144},{"name":"＊?東村山市立秋津公民館","province":"東京都","city":"東村山市","address":"東村山市秋津町2-17-10","lat":35.771075,"lon":139.486541},{"name":"＊?東村山市立廻田公民館","province":"東京都","city":"東村山市","address":"東村山市廻田町4-19-1","lat":35.759625,"lon":139.452116},{"name":"＊?東村山市立萩山公民館","province":"東京都","city":"東村山市","address":"東村山市萩山町2-13-1","lat":35.742249,"lon":139.477739},{"name":"＊?東村山市立中央公民館","province":"東京都","city":"東村山市","address":"東村山市本町2-33-2","lat":35.759786,"lon":139.466884},{"name":"＊?東村山市立富士見公民館","province":"東京都","city":"東村山市","address":"東村山市富士見町5-4-51","lat":35.746635,"lon":139.462877},{"name":"八坂給水所","province":"東京都","city":"東村山市","address":"東京都東村山市富士見町5-4-46","lat":35.747356,"lon":139.458482},{"name":"東村山浄水場","province":"東京都","city":"東村山市","address":"東京都東村山市美住町2-20-236","lat":35.7532331,"lon":139.458674},{"name":"美住給水所","province":"東京都","city":"東村山市","address":"東京都東村山市美住町2-13-4","lat":35.7555303,"lon":139.461554},{"name":"市立東村山運動公園","province":"東京都","city":"東村山市","address":"東京都東村山市恩多町1-9-5","lat":35.7556996,"lon":139.4901976},{"name":"市立秋津小学校","province":"東京都","city":"東村山市","address":"東京都東村山市秋津町3-48-1","lat":35.773108,"lon":139.482144},{"name":"＊?東村山市立秋津公民館","province":"東京都","city":"東村山市","address":"東村山市秋津町2-17-10","lat":35.771075,"lon":139.486541},{"name":"＊?東村山市立廻田公民館","province":"東京都","city":"東村山市","address":"東村山市廻田町4-19-1","lat":35.759625,"lon":139.452116},{"name":"＊?東村山市立萩山公民館","province":"東京都","city":"東村山市","address":"東村山市萩山町2-13-1","lat":35.742249,"lon":139.477739},{"name":"＊?東村山市立中央公民館","province":"東京都","city":"東村山市","address":"東村山市本町2-33-2","lat":35.759786,"lon":139.466884},{"name":"＊?東村山市立富士見公民館","province":"東京都","city":"東村山市","address":"東村山市富士見町5-4-51","lat":35.746635,"lon":139.462877},{"name":"八坂給水所","province":"東京都","city":"東村山市","address":"東京都東村山市富士見町5-4-46","lat":35.747356,"lon":139.458482},{"name":"東村山浄水場","province":"東京都","city":"東村山市","address":"東京都東村山市美住町2-20-236","lat":35.7532331,"lon":139.458674},{"name":"美住給水所","province":"東京都","city":"東村山市","address":"東京都東村山市美住町2-13-4","lat":35.7555303,"lon":139.461554},{"name":"市立東村山運動公園","province":"東京都","city":"東村山市","address":"東京都東村山市恩多町1-9-5","lat":35.7556996,"lon":139.4901976},{"name":"市立秋津小学校","province":"東京都","city":"東村山市","address":"東京都東村山市秋津町3-48-1","lat":35.773108,"lon":139.482144},{"name":"＊?東村山市立秋津公民館","province":"東京都","city":"東村山市","address":"東村山市秋津町2-17-10","lat":35.771075,"lon":139.486541},{"name":"＊?東村山市立廻田公民館","province":"東京都","city":"東村山市","address":"東村山市廻田町4-19-1","lat":35.759625,"lon":139.452116},{"name":"＊?東村山市立萩山公民館","province":"東京都","city":"東村山市","address":"東村山市萩山町2-13-1","lat":35.742249,"lon":139.477739},{"name":"＊?東村山市立中央公民館","province":"東京都","city":"東村山市","address":"東村山市本町2-33-2","lat":35.759786,"lon":139.466884},{"name":"＊?東村山市立富士見公民館","province":"東京都","city":"東村山市","address":"東村山市富士見町5-4-51","lat":35.746635,"lon":139.462877},{"name":"八坂給水所","province":"東京都","city":"東村山市","address":"東京都東村山市富士見町5-4-46","lat":35.747356,"lon":139.458482},{"name":"東村山浄水場","province":"東京都","city":"東村山市","address":"東京都東村山市美住町2-20-236","lat":35.7532331,"lon":139.458674},{"name":"美住給水所","province":"東京都","city":"東村山市","address":"東京都東村山市美住町2-13-4","lat":35.7555303,"lon":139.461554},{"name":"市立東村山運動公園","province":"東京都","city":"東村山市","address":"東京都東村山市恩多町1-9-5","lat":35.7556996,"lon":139.4901976},{"name":"市立秋津小学校","province":"東京都","city":"東村山市","address":"東京都東村山市秋津町3-48-1","lat":35.773108,"lon":139.482144},{"name":"＊?東村山市立秋津公民館","province":"東京都","city":"東村山市","address":"東村山市秋津町2-17-10","lat":35.771075,"lon":139.486541},{"name":"＊?東村山市立廻田公民館","province":"東京都","city":"東村山市","address":"東村山市廻田町4-19-1","lat":35.759625,"lon":139.452116},{"name":"＊?東村山市立萩山公民館","province":"東京都","city":"東村山市","address":"東村山市萩山町2-13-1","lat":35.742249,"lon":139.477739},{"name":"＊?東村山市立中央公民館","province":"東京都","city":"東村山市","address":"東村山市本町2-33-2","lat":35.759786,"lon":139.466884},{"name":"＊?東村山市立富士見公民館","province":"東京都","city":"東村山市","address":"東村山市富士見町5-4-51","lat":35.746635,"lon":139.462877},{"name":"八坂給水所","province":"東京都","city":"東村山市","address":"東京都東村山市富士見町5-4-46","lat":35.747356,"lon":139.458482},{"name":"東村山浄水場","province":"東京都","city":"東村山市","address":"東京都東村山市美住町2-20-236","lat":35.7532331,"lon":139.458674},{"name":"美住給水所","province":"東京都","city":"東村山市","address":"東京都東村山市美住町2-13-4","lat":35.7555303,"lon":139.461554},{"name":"市立東村山運動公園","province":"東京都","city":"東村山市","address":"東京都東村山市恩多町1-9-5","lat":35.7556996,"lon":139.4901976},{"name":"市立秋津小学校","province":"東京都","city":"東村山市","address":"東京都東村山市秋津町3-48-1","lat":35.773108,"lon":139.482144},{"name":"＊?東村山市立秋津公民館","province":"東京都","city":"東村山市","address":"東村山市秋津町2-17-10","lat":35.771075,"lon":139.486541},{"name":"＊?東村山市立廻田公民館","province":"東京都","city":"東村山市","address":"東村山市廻田町4-19-1","lat":35.759625,"lon":139.452116},{"name":"＊?東村山市立萩山公民館","province":"東京都","city":"東村山市","address":"東村山市萩山町2-13-1","lat":35.742249,"lon":139.477739},{"name":"＊?東村山市立中央公民館","province":"東京都","city":"東村山市","address":"東村山市本町2-33-2","lat":35.759786,"lon":139.466884},{"name":"＊?東村山市立富士見公民館","province":"東京都","city":"東村山市","address":"東村山市富士見町5-4-51","lat":35.746635,"lon":139.462877},{"name":"八坂給水所","province":"東京都","city":"東村山市","address":"東京都東村山市富士見町5-4-46","lat":35.747356,"lon":139.458482},{"name":"東村山浄水場","province":"東京都","city":"東村山市","address":"東京都東村山市美住町2-20-236","lat":35.7532331,"lon":139.458674},{"name":"美住給水所","province":"東京都","city":"東村山市","address":"東京都東村山市美住町2-13-4","lat":35.7555303,"lon":139.461554},{"name":"市立東村山運動公園","province":"東京都","city":"東村山市","address":"東京都東村山市恩多町1-9-5","lat":35.7556996,"lon":139.4901976},{"name":"市立秋津小学校","province":"東京都","city":"東村山市","address":"東京都東村山市秋津町3-48-1","lat":35.773108,"lon":139.482144},{"name":"＊?東村山市立秋津公民館","province":"東京都","city":"東村山市","address":"東村山市秋津町2-17-10","lat":35.771075,"lon":139.486541},{"name":"＊?東村山市立廻田公民館","province":"東京都","city":"東村山市","address":"東村山市廻田町4-19-1","lat":35.759625,"lon":139.452116},{"name":"＊?東村山市立萩山公民館","province":"東京都","city":"東村山市","address":"東村山市萩山町2-13-1","lat":35.742249,"lon":139.477739},{"name":"＊?東村山市立中央公民館","province":"東京都","city":"東村山市","address":"東村山市本町2-33-2","lat":35.759786,"lon":139.466884},{"name":"＊?東村山市立富士見公民館","province":"東京都","city":"東村山市","address":"東村山市富士見町5-4-51","lat":35.746635,"lon":139.462877},{"name":"八坂給水所","province":"東京都","city":"東村山市","address":"東京都東村山市富士見町5-4-46","lat":35.747356,"lon":139.458482},{"name":"東村山浄水場","province":"東京都","city":"東村山市","address":"東京都東村山市美住町2-20-236","lat":35.7532331,"lon":139.458674},{"name":"美住給水所","province":"東京都","city":"東村山市","address":"東京都東村山市美住町2-13-4","lat":35.7555303,"lon":139.461554},{"name":"市立東村山運動公園","province":"東京都","city":"東村山市","address":"東京都東村山市恩多町1-9-5","lat":35.7556996,"lon":139.4901976},{"name":"市立秋津小学校","province":"東京都","city":"東村山市","address":"東京都東村山市秋津町3-48-1","lat":35.773108,"lon":139.482144},{"name":"＊?東村山市立秋津公民館","province":"東京都","city":"東村山市","address":"東村山市秋津町2-17-10","lat":35.771075,"lon":139.486541},{"name":"＊?東村山市立廻田公民館","province":"東京都","city":"東村山市","address":"東村山市廻田町4-19-1","lat":35.759625,"lon":139.452116},{"name":"＊?東村山市立萩山公民館","province":"東京都","city":"東村山市","address":"東村山市萩山町2-13-1","lat":35.742249,"lon":139.477739},{"name":"＊?東村山市立中央公民館","province":"東京都","city":"東村山市","address":"東村山市本町2-33-2","lat":35.759786,"lon":139.466884},{"name":"＊?東村山市立富士見公民館","province":"東京都","city":"東村山市","address":"東村山市富士見町5-4-51","lat":35.746635,"lon":139.462877},{"name":"八坂給水所","province":"東京都","city":"東村山市","address":"東京都東村山市富士見町5-4-46","lat":35.747356,"lon":139.458482},{"name":"東村山浄水場","province":"東京都","city":"東村山市","address":"東京都東村山市美住町2-20-236","lat":35.7532331,"lon":139.458674},{"name":"美住給水所","province":"東京都","city":"東村山市","address":"東京都東村山市美住町2-13-4","lat":35.7555303,"lon":139.461554},{"name":"市立東村山運動公園","province":"東京都","city":"東村山市","address":"東京都東村山市恩多町1-9-5","lat":35.7556996,"lon":139.4901976},{"name":"市立秋津小学校","province":"東京都","city":"東村山市","address":"東京都東村山市秋津町3-48-1","lat":35.773108,"lon":139.482144},{"name":"＊?東村山市立秋津公民館","province":"東京都","city":"東村山市","address":"東村山市秋津町2-17-10","lat":35.771075,"lon":139.486541},{"name":"＊?東村山市立廻田公民館","province":"東京都","city":"東村山市","address":"東村山市廻田町4-19-1","lat":35.759625,"lon":139.452116},{"name":"＊?東村山市立萩山公民館","province":"東京都","city":"東村山市","address":"東村山市萩山町2-13-1","lat":35.742249,"lon":139.477739},{"name":"＊?東村山市立中央公民館","province":"東京都","city":"東村山市","address":"東村山市本町2-33-2","lat":35.759786,"lon":139.466884},{"name":"＊?東村山市立富士見公民館","province":"東京都","city":"東村山市","address":"東村山市富士見町5-4-51","lat":35.746635,"lon":139.462877},{"name":"八坂給水所","province":"東京都","city":"東村山市","address":"東京都東村山市富士見町5-4-46","lat":35.747356,"lon":139.458482},{"name":"東村山浄水場","province":"東京都","city":"東村山市","address":"東京都東村山市美住町2-20-236","lat":35.7532331,"lon":139.458674},{"name":"美住給水所","province":"東京都","city":"東村山市","address":"東京都東村山市美住町2-13-4","lat":35.7555303,"lon":139.461554},{"name":"市立東村山運動公園","province":"東京都","city":"東村山市","address":"東京都東村山市恩多町1-9-5","lat":35.7556996,"lon":139.4901976},{"name":"市立秋津小学校","province":"東京都","city":"東村山市","address":"東京都東村山市秋津町3-48-1","lat":35.773108,"lon":139.482144},{"name":"＊?東村山市立秋津公民館","province":"東京都","city":"東村山市","address":"東村山市秋津町2-17-10","lat":35.771075,"lon":139.486541},{"name":"＊?東村山市立廻田公民館","province":"東京都","city":"東村山市","address":"東村山市廻田町4-19-1","lat":35.759625,"lon":139.452116},{"name":"＊?東村山市立萩山公民館","province":"東京都","city":"東村山市","address":"東村山市萩山町2-13-1","lat":35.742249,"lon":139.477739},{"name":"＊?東村山市立中央公民館","province":"東京都","city":"東村山市","address":"東村山市本町2-33-2","lat":35.759786,"lon":139.466884},{"name":"＊?東村山市立富士見公民館","province":"東京都","city":"東村山市","address":"東村山市富士見町5-4-51","lat":35.746635,"lon":139.462877},{"name":"八坂給水所","province":"東京都","city":"東村山市","address":"東京都東村山市富士見町5-4-46","lat":35.747356,"lon":139.458482},{"name":"東村山浄水場","province":"東京都","city":"東村山市","address":"東京都東村山市美住町2-20-236","lat":35.7532331,"lon":139.458674},{"name":"美住給水所","province":"東京都","city":"東村山市","address":"東京都東村山市美住町2-13-4","lat":35.7555303,"lon":139.461554},{"name":"市立東村山運動公園","province":"東京都","city":"東村山市","address":"東京都東村山市恩多町1-9-5","lat":35.7556996,"lon":139.4901976},{"name":"市立秋津小学校","province":"東京都","city":"東村山市","address":"東京都東村山市秋津町3-48-1","lat":35.773108,"lon":139.482144},{"name":"＊?東村山市立秋津公民館","province":"東京都","city":"東村山市","address":"東村山市秋津町2-17-10","lat":35.771075,"lon":139.486541},{"name":"＊?東村山市立廻田公民館","province":"東京都","city":"東村山市","address":"東村山市廻田町4-19-1","lat":35.759625,"lon":139.452116},{"name":"＊?東村山市立萩山公民館","province":"東京都","city":"東村山市","address":"東村山市萩山町2-13-1","lat":35.742249,"lon":139.477739},{"name":"＊?東村山市立中央公民館","province":"東京都","city":"東村山市","address":"東村山市本町2-33-2","lat":35.759786,"lon":139.466884},{"name":"＊?東村山市立富士見公民館","province":"東京都","city":"東村山市","address":"東村山市富士見町5-4-51","lat":35.746635,"lon":139.462877},{"name":"八坂給水所","province":"東京都","city":"東村山市","address":"東京都東村山市富士見町5-4-46","lat":35.747356,"lon":139.458482},{"name":"東村山浄水場","province":"東京都","city":"東村山市","address":"東京都東村山市美住町2-20-236","lat":35.7532331,"lon":139.458674},{"name":"美住給水所","province":"東京都","city":"東村山市","address":"東京都東村山市美住町2-13-4","lat":35.7555303,"lon":139.461554},{"name":"市立東村山運動公園","province":"東京都","city":"東村山市","address":"東京都東村山市恩多町1-9-5","lat":35.7556996,"lon":139.4901976},{"name":"市立秋津小学校","province":"東京都","city":"東村山市","address":"東京都東村山市秋津町3-48-1","lat":35.773108,"lon":139.482144},{"name":"＊?東村山市立秋津公民館","province":"東京都","city":"東村山市","address":"東村山市秋津町2-17-10","lat":35.771075,"lon":139.486541},{"name":"＊?東村山市立廻田公民館","province":"東京都","city":"東村山市","address":"東村山市廻田町4-19-1","lat":35.759625,"lon":139.452116},{"name":"＊?東村山市立萩山公民館","province":"東京都","city":"東村山市","address":"東村山市萩山町2-13-1","lat":35.742249,"lon":139.477739},{"name":"＊?東村山市立中央公民館","province":"東京都","city":"東村山市","address":"東村山市本町2-33-2","lat":35.759786,"lon":139.466884},{"name":"＊?東村山市立富士見公民館","province":"東京都","city":"東村山市","address":"東村山市富士見町5-4-51","lat":35.746635,"lon":139.462877},{"name":"八坂給水所","province":"東京都","city":"東村山市","address":"東京都東村山市富士見町5-4-46","lat":35.747356,"lon":139.458482},{"name":"東村山浄水場","province":"東京都","city":"東村山市","address":"東京都東村山市美住町2-20-236","lat":35.7532331,"lon":139.458674},{"name":"美住給水所","province":"東京都","city":"東村山市","address":"東京都東村山市美住町2-13-4","lat":35.7555303,"lon":139.461554},{"name":"市立東村山運動公園","province":"東京都","city":"東村山市","address":"東京都東村山市恩多町1-9-5","lat":35.7556996,"lon":139.4901976},{"name":"市立秋津小学校","province":"東京都","city":"東村山市","address":"東京都東村山市秋津町3-48-1","lat":35.773108,"lon":139.482144},{"name":"＊?東村山市立秋津公民館","province":"東京都","city":"東村山市","address":"東村山市秋津町2-17-10","lat":35.771075,"lon":139.486541},{"name":"＊?東村山市立廻田公民館","province":"東京都","city":"東村山市","address":"東村山市廻田町4-19-1","lat":35.759625,"lon":139.452116},{"name":"＊?東村山市立萩山公民館","province":"東京都","city":"東村山市","address":"東村山市萩山町2-13-1","lat":35.742249,"lon":139.477739},{"name":"＊?東村山市立中央公民館","province":"東京都","city":"東村山市","address":"東村山市本町2-33-2","lat":35.759786,"lon":139.466884},{"name":"＊?東村山市立富士見公民館","province":"東京都","city":"東村山市","address":"東村山市富士見町5-4-51","lat":35.746635,"lon":139.462877},{"name":"八坂給水所","province":"東京都","city":"東村山市","address":"東京都東村山市富士見町5-4-46","lat":35.747356,"lon":139.458482},{"name":"東村山浄水場","province":"東京都","city":"東村山市","address":"東京都東村山市美住町2-20-236","lat":35.7532331,"lon":139.458674},{"name":"美住給水所","province":"東京都","city":"東村山市","address":"東京都東村山市美住町2-13-4","lat":35.7555303,"lon":139.461554},{"name":"市立東村山運動公園","province":"東京都","city":"東村山市","address":"東京都東村山市恩多町1-9-5","lat":35.7556996,"lon":139.4901976},{"name":"市立秋津小学校","province":"東京都","city":"東村山市","address":"東京都東村山市秋津町3-48-1","lat":35.773108,"lon":139.482144},{"name":"＊?東村山市立秋津公民館","province":"東京都","city":"東村山市","address":"東村山市秋津町2-17-10","lat":35.771075,"lon":139.486541},{"name":"＊?東村山市立廻田公民館","province":"東京都","city":"東村山市","address":"東村山市廻田町4-19-1","lat":35.759625,"lon":139.452116},{"name":"＊?東村山市立萩山公民館","province":"東京都","city":"東村山市","address":"東村山市萩山町2-13-1","lat":35.742249,"lon":139.477739},{"name":"＊?東村山市立中央公民館","province":"東京都","city":"東村山市","address":"東村山市本町2-33-2","lat":35.759786,"lon":139.466884},{"name":"＊?東村山市立富士見公民館","province":"東京都","city":"東村山市","address":"東村山市富士見町5-4-51","lat":35.746635,"lon":139.462877},{"name":"八坂給水所","province":"東京都","city":"東村山市","address":"東京都東村山市富士見町5-4-46","lat":35.747356,"lon":139.458482},{"name":"東村山浄水場","province":"東京都","city":"東村山市","address":"東京都東村山市美住町2-20-236","lat":35.7532331,"lon":139.458674},{"name":"美住給水所","province":"東京都","city":"東村山市","address":"東京都東村山市美住町2-13-4","lat":35.7555303,"lon":139.461554},{"name":"市立東村山運動公園","province":"東京都","city":"東村山市","address":"東京都東村山市恩多町1-9-5","lat":35.7556996,"lon":139.4901976},{"name":"市立秋津小学校","province":"東京都","city":"東村山市","address":"東京都東村山市秋津町3-48-1","lat":35.773108,"lon":139.482144},{"name":"＊?東村山市立秋津公民館","province":"東京都","city":"東村山市","address":"東村山市秋津町2-17-10","lat":35.771075,"lon":139.486541},{"name":"＊?東村山市立廻田公民館","province":"東京都","city":"東村山市","address":"東村山市廻田町4-19-1","lat":35.759625,"lon":139.452116},{"name":"＊?東村山市立萩山公民館","province":"東京都","city":"東村山市","address":"東村山市萩山町2-13-1","lat":35.742249,"lon":139.477739},{"name":"＊?東村山市立中央公民館","province":"東京都","city":"東村山市","address":"東村山市本町2-33-2","lat":35.759786,"lon":139.466884},{"name":"＊?東村山市立富士見公民館","province":"東京都","city":"東村山市","address":"東村山市富士見町5-4-51","lat":35.746635,"lon":139.462877},{"name":"八坂給水所","province":"東京都","city":"東村山市","address":"東京都東村山市富士見町5-4-46","lat":35.747356,"lon":139.458482},{"name":"東村山浄水場","province":"東京都","city":"東村山市","address":"東京都東村山市美住町2-20-236","lat":35.7532331,"lon":139.458674},{"name":"美住給水所","province":"東京都","city":"東村山市","address":"東京都東村山市美住町2-13-4","lat":35.7555303,"lon":139.461554},{"name":"市立東村山運動公園","province":"東京都","city":"東村山市","address":"東京都東村山市恩多町1-9-5","lat":35.7556996,"lon":139.4901976},{"name":"市立秋津小学校","province":"東京都","city":"東村山市","address":"東京都東村山市秋津町3-48-1","lat":35.773108,"lon":139.482144},{"name":"＊?東村山市立秋津公民館","province":"東京都","city":"東村山市","address":"東村山市秋津町2-17-10","lat":35.771075,"lon":139.486541},{"name":"＊?東村山市立廻田公民館","province":"東京都","city":"東村山市","address":"東村山市廻田町4-19-1","lat":35.759625,"lon":139.452116},{"name":"＊?東村山市立萩山公民館","province":"東京都","city":"東村山市","address":"東村山市萩山町2-13-1","lat":35.742249,"lon":139.477739},{"name":"＊?東村山市立中央公民館","province":"東京都","city":"東村山市","address":"東村山市本町2-33-2","lat":35.759786,"lon":139.466884},{"name":"＊?東村山市立富士見公民館","province":"東京都","city":"東村山市","address":"東村山市富士見町5-4-51","lat":35.746635,"lon":139.462877},{"name":"八坂給水所","province":"東京都","city":"東村山市","address":"東京都東村山市富士見町5-4-46","lat":35.747356,"lon":139.458482},{"name":"東村山浄水場","province":"東京都","city":"東村山市","address":"東京都東村山市美住町2-20-236","lat":35.7532331,"lon":139.458674},{"name":"美住給水所","province":"東京都","city":"東村山市","address":"東京都東村山市美住町2-13-4","lat":35.7555303,"lon":139.461554},{"name":"市立東村山運動公園","province":"東京都","city":"東村山市","address":"東京都東村山市恩多町1-9-5","lat":35.7556996,"lon":139.4901976},{"name":"市立秋津小学校","province":"東京都","city":"東村山市","address":"東京都東村山市秋津町3-48-1","lat":35.773108,"lon":139.482144},{"name":"＊?東村山市立秋津公民館","province":"東京都","city":"東村山市","address":"東村山市秋津町2-17-10","lat":35.771075,"lon":139.486541},{"name":"＊?東村山市立廻田公民館","province":"東京都","city":"東村山市","address":"東村山市廻田町4-19-1","lat":35.759625,"lon":139.452116},{"name":"＊?東村山市立萩山公民館","province":"東京都","city":"東村山市","address":"東村山市萩山町2-13-1","lat":35.742249,"lon":139.477739},{"name":"＊?東村山市立中央公民館","province":"東京都","city":"東村山市","address":"東村山市本町2-33-2","lat":35.759786,"lon":139.466884},{"name":"＊?東村山市立富士見公民館","province":"東京都","city":"東村山市","address":"東村山市富士見町5-4-51","lat":35.746635,"lon":139.462877},{"name":"八坂給水所","province":"東京都","city":"東村山市","address":"東京都東村山市富士見町5-4-46","lat":35.747356,"lon":139.458482},{"name":"東村山浄水場","province":"東京都","city":"東村山市","address":"東京都東村山市美住町2-20-236","lat":35.7532331,"lon":139.458674},{"name":"美住給水所","province":"東京都","city":"東村山市","address":"東京都東村山市美住町2-13-4","lat":35.7555303,"lon":139.461554},{"name":"市立東村山運動公園","province":"東京都","city":"東村山市","address":"東京都東村山市恩多町1-9-5","lat":35.7556996,"lon":139.4901976},{"name":"市立秋津小学校","province":"東京都","city":"東村山市","address":"東京都東村山市秋津町3-48-1","lat":35.773108,"lon":139.482144},{"name":"＊?東村山市立秋津公民館","province":"東京都","city":"東村山市","address":"東村山市秋津町2-17-10","lat":35.771075,"lon":139.486541},{"name":"＊?東村山市立廻田公民館","province":"東京都","city":"東村山市","address":"東村山市廻田町4-19-1","lat":35.759625,"lon":139.452116},{"name":"＊?東村山市立萩山公民館","province":"東京都","city":"東村山市","address":"東村山市萩山町2-13-1","lat":35.742249,"lon":139.477739},{"name":"＊?東村山市立中央公民館","province":"東京都","city":"東村山市","address":"東村山市本町2-33-2","lat":35.759786,"lon":139.466884},{"name":"＊?東村山市立富士見公民館","province":"東京都","city":"東村山市","address":"東村山市富士見町5-4-51","lat":35.746635,"lon":139.462877},{"name":"八坂給水所","province":"東京都","city":"東村山市","address":"東京都東村山市富士見町5-4-46","lat":35.747356,"lon":139.458482},{"name":"東村山浄水場","province":"東京都","city":"東村山市","address":"東京都東村山市美住町2-20-236","lat":35.7532331,"lon":139.458674},{"name":"美住給水所","province":"東京都","city":"東村山市","address":"東京都東村山市美住町2-13-4","lat":35.7555303,"lon":139.461554},{"name":"市立東村山運動公園","province":"東京都","city":"東村山市","address":"東京都東村山市恩多町1-9-5","lat":35.7556996,"lon":139.4901976},{"name":"市立秋津小学校","province":"東京都","city":"東村山市","address":"東京都東村山市秋津町3-48-1","lat":35.773108,"lon":139.482144},{"name":"＊?東村山市立秋津公民館","province":"東京都","city":"東村山市","address":"東村山市秋津町2-17-10","lat":35.771075,"lon":139.486541},{"name":"＊?東村山市立廻田公民館","province":"東京都","city":"東村山市","address":"東村山市廻田町4-19-1","lat":35.759625,"lon":139.452116},{"name":"＊?東村山市立萩山公民館","province":"東京都","city":"東村山市","address":"東村山市萩山町2-13-1","lat":35.742249,"lon":139.477739},{"name":"＊?東村山市立中央公民館","province":"東京都","city":"東村山市","address":"東村山市本町2-33-2","lat":35.759786,"lon":139.466884},{"name":"＊?東村山市立富士見公民館","province":"東京都","city":"東村山市","address":"東村山市富士見町5-4-51","lat":35.746635,"lon":139.462877},{"name":"八坂給水所","province":"東京都","city":"東村山市","address":"東京都東村山市富士見町5-4-46","lat":35.747356,"lon":139.458482},{"name":"東村山浄水場","province":"東京都","city":"東村山市","address":"東京都東村山市美住町2-20-236","lat":35.7532331,"lon":139.458674},{"name":"美住給水所","province":"東京都","city":"東村山市","address":"東京都東村山市美住町2-13-4","lat":35.7555303,"lon":139.461554},{"name":"市立東村山運動公園","province":"東京都","city":"東村山市","address":"東京都東村山市恩多町1-9-5","lat":35.7556996,"lon":139.4901976},{"name":"市立秋津小学校","province":"東京都","city":"東村山市","address":"東京都東村山市秋津町3-48-1","lat":35.773108,"lon":139.482144},{"name":"＊?東村山市立秋津公民館","province":"東京都","city":"東村山市","address":"東村山市秋津町2-17-10","lat":35.771075,"lon":139.486541},{"name":"＊?東村山市立廻田公民館","province":"東京都","city":"東村山市","address":"東村山市廻田町4-19-1","lat":35.759625,"lon":139.452116},{"name":"＊?東村山市立萩山公民館","province":"東京都","city":"東村山市","address":"東村山市萩山町2-13-1","lat":35.742249,"lon":139.477739},{"name":"＊?東村山市立中央公民館","province":"東京都","city":"東村山市","address":"東村山市本町2-33-2","lat":35.759786,"lon":139.466884},{"name":"＊?東村山市立富士見公民館","province":"東京都","city":"東村山市","address":"東村山市富士見町5-4-51","lat":35.746635,"lon":139.462877},{"name":"八坂給水所","province":"東京都","city":"東村山市","address":"東京都東村山市富士見町5-4-46","lat":35.747356,"lon":139.458482},{"name":"東村山浄水場","province":"東京都","city":"東村山市","address":"東京都東村山市美住町2-20-236","lat":35.7532331,"lon":139.458674},{"name":"美住給水所","province":"東京都","city":"東村山市","address":"東京都東村山市美住町2-13-4","lat":35.7555303,"lon":139.461554},{"name":"市立東村山運動公園","province":"東京都","city":"東村山市","address":"東京都東村山市恩多町1-9-5","lat":35.7556996,"lon":139.4901976},{"name":"市立秋津小学校","province":"東京都","city":"東村山市","address":"東京都東村山市秋津町3-48-1","lat":35.773108,"lon":139.482144},{"name":"＊?東村山市立秋津公民館","province":"東京都","city":"東村山市","address":"東村山市秋津町2-17-10","lat":35.771075,"lon":139.486541},{"name":"＊?東村山市立廻田公民館","province":"東京都","city":"東村山市","address":"東村山市廻田町4-19-1","lat":35.759625,"lon":139.452116},{"name":"＊?東村山市立萩山公民館","province":"東京都","city":"東村山市","address":"東村山市萩山町2-13-1","lat":35.742249,"lon":139.477739},{"name":"＊?東村山市立中央公民館","province":"東京都","city":"東村山市","address":"東村山市本町2-33-2","lat":35.759786,"lon":139.466884},{"name":"＊?東村山市立富士見公民館","province":"東京都","city":"東村山市","address":"東村山市富士見町5-4-51","lat":35.746635,"lon":139.462877}]}