{"keyword":"店","data":[{"name":"多摩北部医療センター","province":"東京都","city":"東村山市","address":"東京都東村山市青葉町1丁目7-1","lat":35.76043805,"lon":139.49094217},{"name":"東村山市福祉作業所","province":"東京都","city":"東村山市","address":"東村山市諏訪町1-3-10","lat":35.76549,"lon":139.466672},{"name":"東村山ソーシャルホーム","province":"東京都","city":"東村山市","address":"東村山市本町1-13-51大塚ビル104","lat":35.75433,"lon":139.466156},{"name":"緑風荘病院","province":"東京都","city":"東村山市","address":"東村山市萩山町3-31-1","lat":35.74455,"lon":139.468078},{"name":"東京白十字病院","province":"東京都","city":"東村山市","address":"東村山市諏訪町2-26-1","lat":35.771892,"lon":139.463658},{"name":"東村山市社会福祉協議会","province":"東京都","city":"東村山市","address":"東村山市野口町1-25-15東村山市地域福祉センター","lat":35.758293,"lon":139.464261},{"name":"ドーミー久米川","province":"東京都","city":"東村山市","address":"東村山市本町1-9-11","lat":35.75204,"lon":139.46751},{"name":"東村山ソーシャルホーム","province":"東京都","city":"東村山市","address":"東村山市本町1-13-51大塚ビル104","lat":35.75448,"lon":139.46622},{"name":"長坂式典センター","province":"東京都","city":"東村山市","address":"東京都東村山市本町2丁目19-36","lat":35.75973473,"lon":139.46753035},{"name":"ベルホール三光商会","province":"東京都","city":"東村山市","address":"東京都東村山市恩多町2丁目41-3","lat":35.74664228,"lon":139.48623476},{"name":"メモリアルアートの大野屋","province":"東京都","city":"東村山市","address":"東京都東村山市萩山町1丁目19-2","lat":35.73911534,"lon":139.48567125},{"name":"愛和葬祭","province":"東京都","city":"東村山市","address":"東京都東村山市秋津町3丁目5-8","lat":35.77351681,"lon":139.47999277},{"name":"しんせいどう","province":"東京都","city":"東村山市","address":"東京都東村山市青葉町2丁目1-63","lat":35.76059629,"lon":139.48833404},{"name":"彩花","province":"東京都","city":"東村山市","address":"東京都東村山市青葉町2丁目28-5","lat":35.7628517,"lon":139.49251419},{"name":"村山荘","province":"東京都","city":"東村山市","address":"東村山市富士見町2-7-5","lat":35.74027,"lon":139.45242},{"name":"さつき荘","province":"東京都","city":"東村山市","address":"東村山市富士見町2-8-2","lat":35.7401,"lon":139.45364},{"name":"東村山市福祉作業所","province":"東京都","city":"東村山市","address":"東村山市諏訪町1-3-10","lat":35.76547,"lon":139.46674},{"name":"ドーミー久米川２","province":"東京都","city":"東村山市","address":"東村山市本町1-9-11","lat":35.75204,"lon":139.46751},{"name":"東村山市社会福祉協議会","province":"東京都","city":"東村山市","address":"東村山市野口町1-25-15東村山市地域福祉センター","lat":35.75862,"lon":139.464},{"name":"さつき荘","province":"東京都","city":"東村山市","address":"東村山市富士見町2-8-2","lat":35.740609,"lon":139.453774},{"name":"村山荘","province":"東京都","city":"東村山市","address":"東村山市富士見町2-7-5","lat":35.740203,"lon":139.452535},{"name":"社会福祉法人東京コロニー コロニー東村山","province":"東京都","city":"東村山市","address":"東京都東村山市秋津町2丁目22-9","lat":35.76876478,"lon":139.48789499},{"name":"社会福祉法人東京コロニー トーコロ青葉ワークセンター","province":"東京都","city":"東村山市","address":"東京都東村山市青葉町2丁目39-10","lat":35.76531803,"lon":139.49069484},{"name":"社会福祉法人ネット十二月","province":"東京都","city":"東村山市","address":"東京都東村山市廻田町3丁目16-8","lat":35.76038678,"lon":139.44811263},{"name":"高齢者在宅サービスセンター白十字八国苑","province":"東京都","city":"東村山市","address":"東京都東村山市諏訪町2丁目26-1","lat":35.77189152,"lon":139.46365808},{"name":"社会福祉法人村山苑福祉事業センター","province":"東京都","city":"東村山市","address":"東京都東村山市富士見町2丁目7-5","lat":35.74020311,"lon":139.45253528},{"name":"社会福祉法人いずみライフサポートつばさ","province":"東京都","city":"東村山市","address":"東京都東村山市富士見町3丁目4-16","lat":35.74866053,"lon":139.45443753},{"name":"社会福祉法人小さい共同体就労継続支援Ｂ型飛翔クラブ","province":"東京都","city":"東村山市","address":"東京都東村山市栄町2丁目9-32","lat":35.74941934,"lon":139.47170261},{"name":"特定非営利活動法人けやきけやき第二作業所","province":"東京都","city":"東村山市","address":"東京都東村山市萩山町3丁目19-2","lat":35.74593911,"lon":139.46971405},{"name":"株式会社ウィズケアメディカル ウィズケアリハビリセンター","province":"東京都","city":"東村山市","address":"東京都東村山市久米川町3丁目1-1","lat":35.75976546,"lon":139.47353814},{"name":"社会福祉法人東京蒼生会寿デイ･サービスセンター","province":"東京都","city":"東村山市","address":"東京都東村山市富士見町2丁目1-2","lat":35.7445943,"lon":139.4540183},{"name":"特定非営利活動法人セサミ萩共同作業所セサミ萩","province":"東京都","city":"東村山市","address":"東京都東村山市萩山町2丁目2-15","lat":35.74047328,"lon":139.47715529},{"name":"かりん","province":"東京都","city":"東村山市","address":"東京都東村山市秋津町2丁目37-47","lat":35.77148394,"lon":139.48956425},{"name":"社会福祉法人ネット久米川共同作業所","province":"東京都","city":"東村山市","address":"東京都東村山市久米川町2丁目21-14","lat":35.76533442,"lon":139.47915135},{"name":"特定非営利活動法人ワーカーズコープ東村山楠の樹地域福祉事業所ふたば","province":"東京都","city":"東村山市","address":"東京都東村山市野口町1丁目15-5","lat":35.76157604,"lon":139.46296959},{"name":"さつき荘","province":"東京都","city":"東村山市","address":"東村山市富士見町2-8-2","lat":35.74011,"lon":139.45364},{"name":"東村山市社会福祉協議会","province":"東京都","city":"東村山市","address":"東村山市野口町1-25-15東村山市地域福祉センター","lat":35.75862,"lon":139.46401},{"name":"ドーミー久米川","province":"東京都","city":"東村山市","address":"東村山市本町1-9-11","lat":35.75205,"lon":139.46751},{"name":"ドーミー久米川２","province":"東京都","city":"東村山市","address":"東村山市本町1-9-11","lat":35.75205,"lon":139.46751},{"name":"ドーミー久米川","province":"東京都","city":"東村山市","address":"東村山市本町1-9-11","lat":35.751721,"lon":139.467964},{"name":"東村山市福祉作業所（平成31年４月１日より休止中）","province":"東京都","city":"東村山市","address":"東村山市諏訪町1-3-10","lat":35.76549,"lon":139.466672},{"name":"グリーン・ボイス","province":"東京都","city":"東村山市","address":"東村山市萩山町3-31-2","lat":35.743978,"lon":139.468161},{"name":"東京ばんなん白光園","province":"東京都","city":"東村山市","address":"東村山市諏訪町2-26-1","lat":35.771892,"lon":139.463658},{"name":"多摩北部医療センター","province":"東京都","city":"東村山市","address":"東京都東村山市青葉町1丁目7-1","lat":35.76043805,"lon":139.49094217},{"name":"東村山市福祉作業所","province":"東京都","city":"東村山市","address":"東村山市諏訪町1-3-10","lat":35.76549,"lon":139.466672},{"name":"東村山ソーシャルホーム","province":"東京都","city":"東村山市","address":"東村山市本町1-13-51大塚ビル104","lat":35.75433,"lon":139.466156},{"name":"緑風荘病院","province":"東京都","city":"東村山市","address":"東村山市萩山町3-31-1","lat":35.74455,"lon":139.468078},{"name":"東京白十字病院","province":"東京都","city":"東村山市","address":"東村山市諏訪町2-26-1","lat":35.771892,"lon":139.463658},{"name":"東村山市社会福祉協議会","province":"東京都","city":"東村山市","address":"東村山市野口町1-25-15東村山市地域福祉センター","lat":35.758293,"lon":139.464261},{"name":"ドーミー久米川","province":"東京都","city":"東村山市","address":"東村山市本町1-9-11","lat":35.75204,"lon":139.46751},{"name":"東村山ソーシャルホーム","province":"東京都","city":"東村山市","address":"東村山市本町1-13-51大塚ビル104","lat":35.75448,"lon":139.46622},{"name":"長坂式典センター","province":"東京都","city":"東村山市","address":"東京都東村山市本町2丁目19-36","lat":35.75973473,"lon":139.46753035},{"name":"ベルホール三光商会","province":"東京都","city":"東村山市","address":"東京都東村山市恩多町2丁目41-3","lat":35.74664228,"lon":139.48623476},{"name":"メモリアルアートの大野屋","province":"東京都","city":"東村山市","address":"東京都東村山市萩山町1丁目19-2","lat":35.73911534,"lon":139.48567125},{"name":"愛和葬祭","province":"東京都","city":"東村山市","address":"東京都東村山市秋津町3丁目5-8","lat":35.77351681,"lon":139.47999277},{"name":"しんせいどう","province":"東京都","city":"東村山市","address":"東京都東村山市青葉町2丁目1-63","lat":35.76059629,"lon":139.48833404},{"name":"彩花","province":"東京都","city":"東村山市","address":"東京都東村山市青葉町2丁目28-5","lat":35.7628517,"lon":139.49251419},{"name":"村山荘","province":"東京都","city":"東村山市","address":"東村山市富士見町2-7-5","lat":35.74027,"lon":139.45242},{"name":"さつき荘","province":"東京都","city":"東村山市","address":"東村山市富士見町2-8-2","lat":35.7401,"lon":139.45364},{"name":"東村山市福祉作業所","province":"東京都","city":"東村山市","address":"東村山市諏訪町1-3-10","lat":35.76547,"lon":139.46674},{"name":"ドーミー久米川２","province":"東京都","city":"東村山市","address":"東村山市本町1-9-11","lat":35.75204,"lon":139.46751},{"name":"東村山市社会福祉協議会","province":"東京都","city":"東村山市","address":"東村山市野口町1-25-15東村山市地域福祉センター","lat":35.75862,"lon":139.464},{"name":"さつき荘","province":"東京都","city":"東村山市","address":"東村山市富士見町2-8-2","lat":35.740609,"lon":139.453774},{"name":"村山荘","province":"東京都","city":"東村山市","address":"東村山市富士見町2-7-5","lat":35.740203,"lon":139.452535},{"name":"社会福祉法人東京コロニー コロニー東村山","province":"東京都","city":"東村山市","address":"東京都東村山市秋津町2丁目22-9","lat":35.76876478,"lon":139.48789499},{"name":"社会福祉法人東京コロニー トーコロ青葉ワークセンター","province":"東京都","city":"東村山市","address":"東京都東村山市青葉町2丁目39-10","lat":35.76531803,"lon":139.49069484},{"name":"社会福祉法人ネット十二月","province":"東京都","city":"東村山市","address":"東京都東村山市廻田町3丁目16-8","lat":35.76038678,"lon":139.44811263},{"name":"高齢者在宅サービスセンター白十字八国苑","province":"東京都","city":"東村山市","address":"東京都東村山市諏訪町2丁目26-1","lat":35.77189152,"lon":139.46365808},{"name":"社会福祉法人村山苑福祉事業センター","province":"東京都","city":"東村山市","address":"東京都東村山市富士見町2丁目7-5","lat":35.74020311,"lon":139.45253528},{"name":"社会福祉法人いずみライフサポートつばさ","province":"東京都","city":"東村山市","address":"東京都東村山市富士見町3丁目4-16","lat":35.74866053,"lon":139.45443753},{"name":"社会福祉法人小さい共同体就労継続支援Ｂ型飛翔クラブ","province":"東京都","city":"東村山市","address":"東京都東村山市栄町2丁目9-32","lat":35.74941934,"lon":139.47170261},{"name":"特定非営利活動法人けやきけやき第二作業所","province":"東京都","city":"東村山市","address":"東京都東村山市萩山町3丁目19-2","lat":35.74593911,"lon":139.46971405},{"name":"株式会社ウィズケアメディカル ウィズケアリハビリセンター","province":"東京都","city":"東村山市","address":"東京都東村山市久米川町3丁目1-1","lat":35.75976546,"lon":139.47353814},{"name":"社会福祉法人東京蒼生会寿デイ･サービスセンター","province":"東京都","city":"東村山市","address":"東京都東村山市富士見町2丁目1-2","lat":35.7445943,"lon":139.4540183},{"name":"特定非営利活動法人セサミ萩共同作業所セサミ萩","province":"東京都","city":"東村山市","address":"東京都東村山市萩山町2丁目2-15","lat":35.74047328,"lon":139.47715529},{"name":"かりん","province":"東京都","city":"東村山市","address":"東京都東村山市秋津町2丁目37-47","lat":35.77148394,"lon":139.48956425},{"name":"社会福祉法人ネット久米川共同作業所","province":"東京都","city":"東村山市","address":"東京都東村山市久米川町2丁目21-14","lat":35.76533442,"lon":139.47915135},{"name":"特定非営利活動法人ワーカーズコープ東村山楠の樹地域福祉事業所ふたば","province":"東京都","city":"東村山市","address":"東京都東村山市野口町1丁目15-5","lat":35.76157604,"lon":139.46296959},{"name":"さつき荘","province":"東京都","city":"東村山市","address":"東村山市富士見町2-8-2","lat":35.74011,"lon":139.45364},{"name":"東村山市社会福祉協議会","province":"東京都","city":"東村山市","address":"東村山市野口町1-25-15東村山市地域福祉センター","lat":35.75862,"lon":139.46401},{"name":"ドーミー久米川","province":"東京都","city":"東村山市","address":"東村山市本町1-9-11","lat":35.75205,"lon":139.46751},{"name":"ドーミー久米川２","province":"東京都","city":"東村山市","address":"東村山市本町1-9-11","lat":35.75205,"lon":139.46751},{"name":"ドーミー久米川","province":"東京都","city":"東村山市","address":"東村山市本町1-9-11","lat":35.751721,"lon":139.467964},{"name":"東村山市福祉作業所（平成31年４月１日より休止中）","province":"東京都","city":"東村山市","address":"東村山市諏訪町1-3-10","lat":35.76549,"lon":139.466672},{"name":"グリーン・ボイス","province":"東京都","city":"東村山市","address":"東村山市萩山町3-31-2","lat":35.743978,"lon":139.468161},{"name":"東京ばんなん白光園","province":"東京都","city":"東村山市","address":"東村山市諏訪町2-26-1","lat":35.771892,"lon":139.463658},{"name":"多摩北部医療センター","province":"東京都","city":"東村山市","address":"東京都東村山市青葉町1丁目7-1","lat":35.76043805,"lon":139.49094217},{"name":"東村山市福祉作業所","province":"東京都","city":"東村山市","address":"東村山市諏訪町1-3-10","lat":35.76549,"lon":139.466672},{"name":"東村山ソーシャルホーム","province":"東京都","city":"東村山市","address":"東村山市本町1-13-51大塚ビル104","lat":35.75433,"lon":139.466156},{"name":"緑風荘病院","province":"東京都","city":"東村山市","address":"東村山市萩山町3-31-1","lat":35.74455,"lon":139.468078},{"name":"東京白十字病院","province":"東京都","city":"東村山市","address":"東村山市諏訪町2-26-1","lat":35.771892,"lon":139.463658},{"name":"東村山市社会福祉協議会","province":"東京都","city":"東村山市","address":"東村山市野口町1-25-15東村山市地域福祉センター","lat":35.758293,"lon":139.464261},{"name":"ドーミー久米川","province":"東京都","city":"東村山市","address":"東村山市本町1-9-11","lat":35.75204,"lon":139.46751},{"name":"東村山ソーシャルホーム","province":"東京都","city":"東村山市","address":"東村山市本町1-13-51大塚ビル104","lat":35.75448,"lon":139.46622},{"name":"長坂式典センター","province":"東京都","city":"東村山市","address":"東京都東村山市本町2丁目19-36","lat":35.75973473,"lon":139.46753035},{"name":"ベルホール三光商会","province":"東京都","city":"東村山市","address":"東京都東村山市恩多町2丁目41-3","lat":35.74664228,"lon":139.48623476},{"name":"メモリアルアートの大野屋","province":"東京都","city":"東村山市","address":"東京都東村山市萩山町1丁目19-2","lat":35.73911534,"lon":139.48567125},{"name":"愛和葬祭","province":"東京都","city":"東村山市","address":"東京都東村山市秋津町3丁目5-8","lat":35.77351681,"lon":139.47999277},{"name":"しんせいどう","province":"東京都","city":"東村山市","address":"東京都東村山市青葉町2丁目1-63","lat":35.76059629,"lon":139.48833404},{"name":"彩花","province":"東京都","city":"東村山市","address":"東京都東村山市青葉町2丁目28-5","lat":35.7628517,"lon":139.49251419},{"name":"村山荘","province":"東京都","city":"東村山市","address":"東村山市富士見町2-7-5","lat":35.74027,"lon":139.45242},{"name":"さつき荘","province":"東京都","city":"東村山市","address":"東村山市富士見町2-8-2","lat":35.7401,"lon":139.45364},{"name":"東村山市福祉作業所","province":"東京都","city":"東村山市","address":"東村山市諏訪町1-3-10","lat":35.76547,"lon":139.46674},{"name":"ドーミー久米川２","province":"東京都","city":"東村山市","address":"東村山市本町1-9-11","lat":35.75204,"lon":139.46751},{"name":"東村山市社会福祉協議会","province":"東京都","city":"東村山市","address":"東村山市野口町1-25-15東村山市地域福祉センター","lat":35.75862,"lon":139.464},{"name":"さつき荘","province":"東京都","city":"東村山市","address":"東村山市富士見町2-8-2","lat":35.740609,"lon":139.453774},{"name":"村山荘","province":"東京都","city":"東村山市","address":"東村山市富士見町2-7-5","lat":35.740203,"lon":139.452535},{"name":"社会福祉法人東京コロニー コロニー東村山","province":"東京都","city":"東村山市","address":"東京都東村山市秋津町2丁目22-9","lat":35.76876478,"lon":139.48789499},{"name":"社会福祉法人東京コロニー トーコロ青葉ワークセンター","province":"東京都","city":"東村山市","address":"東京都東村山市青葉町2丁目39-10","lat":35.76531803,"lon":139.49069484},{"name":"社会福祉法人ネット十二月","province":"東京都","city":"東村山市","address":"東京都東村山市廻田町3丁目16-8","lat":35.76038678,"lon":139.44811263},{"name":"高齢者在宅サービスセンター白十字八国苑","province":"東京都","city":"東村山市","address":"東京都東村山市諏訪町2丁目26-1","lat":35.77189152,"lon":139.46365808},{"name":"社会福祉法人村山苑福祉事業センター","province":"東京都","city":"東村山市","address":"東京都東村山市富士見町2丁目7-5","lat":35.74020311,"lon":139.45253528},{"name":"社会福祉法人いずみライフサポートつばさ","province":"東京都","city":"東村山市","address":"東京都東村山市富士見町3丁目4-16","lat":35.74866053,"lon":139.45443753},{"name":"社会福祉法人小さい共同体就労継続支援Ｂ型飛翔クラブ","province":"東京都","city":"東村山市","address":"東京都東村山市栄町2丁目9-32","lat":35.74941934,"lon":139.47170261},{"name":"特定非営利活動法人けやきけやき第二作業所","province":"東京都","city":"東村山市","address":"東京都東村山市萩山町3丁目19-2","lat":35.74593911,"lon":139.46971405},{"name":"株式会社ウィズケアメディカル ウィズケアリハビリセンター","province":"東京都","city":"東村山市","address":"東京都東村山市久米川町3丁目1-1","lat":35.75976546,"lon":139.47353814},{"name":"社会福祉法人東京蒼生会寿デイ･サービスセンター","province":"東京都","city":"東村山市","address":"東京都東村山市富士見町2丁目1-2","lat":35.7445943,"lon":139.4540183},{"name":"特定非営利活動法人セサミ萩共同作業所セサミ萩","province":"東京都","city":"東村山市","address":"東京都東村山市萩山町2丁目2-15","lat":35.74047328,"lon":139.47715529},{"name":"かりん","province":"東京都","city":"東村山市","address":"東京都東村山市秋津町2丁目37-47","lat":35.77148394,"lon":139.48956425},{"name":"社会福祉法人ネット久米川共同作業所","province":"東京都","city":"東村山市","address":"東京都東村山市久米川町2丁目21-14","lat":35.76533442,"lon":139.47915135},{"name":"特定非営利活動法人ワーカーズコープ東村山楠の樹地域福祉事業所ふたば","province":"東京都","city":"東村山市","address":"東京都東村山市野口町1丁目15-5","lat":35.76157604,"lon":139.46296959},{"name":"さつき荘","province":"東京都","city":"東村山市","address":"東村山市富士見町2-8-2","lat":35.74011,"lon":139.45364},{"name":"東村山市社会福祉協議会","province":"東京都","city":"東村山市","address":"東村山市野口町1-25-15東村山市地域福祉センター","lat":35.75862,"lon":139.46401},{"name":"ドーミー久米川","province":"東京都","city":"東村山市","address":"東村山市本町1-9-11","lat":35.75205,"lon":139.46751},{"name":"ドーミー久米川２","province":"東京都","city":"東村山市","address":"東村山市本町1-9-11","lat":35.75205,"lon":139.46751},{"name":"ドーミー久米川","province":"東京都","city":"東村山市","address":"東村山市本町1-9-11","lat":35.751721,"lon":139.467964},{"name":"東村山市福祉作業所（平成31年４月１日より休止中）","province":"東京都","city":"東村山市","address":"東村山市諏訪町1-3-10","lat":35.76549,"lon":139.466672},{"name":"グリーン・ボイス","province":"東京都","city":"東村山市","address":"東村山市萩山町3-31-2","lat":35.743978,"lon":139.468161},{"name":"東京ばんなん白光園","province":"東京都","city":"東村山市","address":"東村山市諏訪町2-26-1","lat":35.771892,"lon":139.463658},{"name":"多摩北部医療センター","province":"東京都","city":"東村山市","address":"東京都東村山市青葉町1丁目7-1","lat":35.76043805,"lon":139.49094217},{"name":"東村山市福祉作業所","province":"東京都","city":"東村山市","address":"東村山市諏訪町1-3-10","lat":35.76549,"lon":139.466672},{"name":"東村山ソーシャルホーム","province":"東京都","city":"東村山市","address":"東村山市本町1-13-51大塚ビル104","lat":35.75433,"lon":139.466156},{"name":"緑風荘病院","province":"東京都","city":"東村山市","address":"東村山市萩山町3-31-1","lat":35.74455,"lon":139.468078},{"name":"東京白十字病院","province":"東京都","city":"東村山市","address":"東村山市諏訪町2-26-1","lat":35.771892,"lon":139.463658},{"name":"東村山市社会福祉協議会","province":"東京都","city":"東村山市","address":"東村山市野口町1-25-15東村山市地域福祉センター","lat":35.758293,"lon":139.464261},{"name":"ドーミー久米川","province":"東京都","city":"東村山市","address":"東村山市本町1-9-11","lat":35.75204,"lon":139.46751},{"name":"東村山ソーシャルホーム","province":"東京都","city":"東村山市","address":"東村山市本町1-13-51大塚ビル104","lat":35.75448,"lon":139.46622},{"name":"長坂式典センター","province":"東京都","city":"東村山市","address":"東京都東村山市本町2丁目19-36","lat":35.75973473,"lon":139.46753035},{"name":"ベルホール三光商会","province":"東京都","city":"東村山市","address":"東京都東村山市恩多町2丁目41-3","lat":35.74664228,"lon":139.48623476},{"name":"メモリアルアートの大野屋","province":"東京都","city":"東村山市","address":"東京都東村山市萩山町1丁目19-2","lat":35.73911534,"lon":139.48567125},{"name":"愛和葬祭","province":"東京都","city":"東村山市","address":"東京都東村山市秋津町3丁目5-8","lat":35.77351681,"lon":139.47999277},{"name":"しんせいどう","province":"東京都","city":"東村山市","address":"東京都東村山市青葉町2丁目1-63","lat":35.76059629,"lon":139.48833404},{"name":"彩花","province":"東京都","city":"東村山市","address":"東京都東村山市青葉町2丁目28-5","lat":35.7628517,"lon":139.49251419},{"name":"村山荘","province":"東京都","city":"東村山市","address":"東村山市富士見町2-7-5","lat":35.74027,"lon":139.45242},{"name":"さつき荘","province":"東京都","city":"東村山市","address":"東村山市富士見町2-8-2","lat":35.7401,"lon":139.45364},{"name":"東村山市福祉作業所","province":"東京都","city":"東村山市","address":"東村山市諏訪町1-3-10","lat":35.76547,"lon":139.46674},{"name":"ドーミー久米川２","province":"東京都","city":"東村山市","address":"東村山市本町1-9-11","lat":35.75204,"lon":139.46751},{"name":"東村山市社会福祉協議会","province":"東京都","city":"東村山市","address":"東村山市野口町1-25-15東村山市地域福祉センター","lat":35.75862,"lon":139.464},{"name":"さつき荘","province":"東京都","city":"東村山市","address":"東村山市富士見町2-8-2","lat":35.740609,"lon":139.453774},{"name":"村山荘","province":"東京都","city":"東村山市","address":"東村山市富士見町2-7-5","lat":35.740203,"lon":139.452535},{"name":"社会福祉法人東京コロニー コロニー東村山","province":"東京都","city":"東村山市","address":"東京都東村山市秋津町2丁目22-9","lat":35.76876478,"lon":139.48789499},{"name":"社会福祉法人東京コロニー トーコロ青葉ワークセンター","province":"東京都","city":"東村山市","address":"東京都東村山市青葉町2丁目39-10","lat":35.76531803,"lon":139.49069484},{"name":"社会福祉法人ネット十二月","province":"東京都","city":"東村山市","address":"東京都東村山市廻田町3丁目16-8","lat":35.76038678,"lon":139.44811263},{"name":"高齢者在宅サービスセンター白十字八国苑","province":"東京都","city":"東村山市","address":"東京都東村山市諏訪町2丁目26-1","lat":35.77189152,"lon":139.46365808},{"name":"社会福祉法人村山苑福祉事業センター","province":"東京都","city":"東村山市","address":"東京都東村山市富士見町2丁目7-5","lat":35.74020311,"lon":139.45253528},{"name":"社会福祉法人いずみライフサポートつばさ","province":"東京都","city":"東村山市","address":"東京都東村山市富士見町3丁目4-16","lat":35.74866053,"lon":139.45443753},{"name":"社会福祉法人小さい共同体就労継続支援Ｂ型飛翔クラブ","province":"東京都","city":"東村山市","address":"東京都東村山市栄町2丁目9-32","lat":35.74941934,"lon":139.47170261},{"name":"特定非営利活動法人けやきけやき第二作業所","province":"東京都","city":"東村山市","address":"東京都東村山市萩山町3丁目19-2","lat":35.74593911,"lon":139.46971405},{"name":"株式会社ウィズケアメディカル ウィズケアリハビリセンター","province":"東京都","city":"東村山市","address":"東京都東村山市久米川町3丁目1-1","lat":35.75976546,"lon":139.47353814},{"name":"社会福祉法人東京蒼生会寿デイ･サービスセンター","province":"東京都","city":"東村山市","address":"東京都東村山市富士見町2丁目1-2","lat":35.7445943,"lon":139.4540183},{"name":"特定非営利活動法人セサミ萩共同作業所セサミ萩","province":"東京都","city":"東村山市","address":"東京都東村山市萩山町2丁目2-15","lat":35.74047328,"lon":139.47715529},{"name":"かりん","province":"東京都","city":"東村山市","address":"東京都東村山市秋津町2丁目37-47","lat":35.77148394,"lon":139.48956425},{"name":"社会福祉法人ネット久米川共同作業所","province":"東京都","city":"東村山市","address":"東京都東村山市久米川町2丁目21-14","lat":35.76533442,"lon":139.47915135},{"name":"特定非営利活動法人ワーカーズコープ東村山楠の樹地域福祉事業所ふたば","province":"東京都","city":"東村山市","address":"東京都東村山市野口町1丁目15-5","lat":35.76157604,"lon":139.46296959},{"name":"さつき荘","province":"東京都","city":"東村山市","address":"東村山市富士見町2-8-2","lat":35.74011,"lon":139.45364},{"name":"東村山市社会福祉協議会","province":"東京都","city":"東村山市","address":"東村山市野口町1-25-15東村山市地域福祉センター","lat":35.75862,"lon":139.46401},{"name":"ドーミー久米川","province":"東京都","city":"東村山市","address":"東村山市本町1-9-11","lat":35.75205,"lon":139.46751},{"name":"ドーミー久米川２","province":"東京都","city":"東村山市","address":"東村山市本町1-9-11","lat":35.75205,"lon":139.46751},{"name":"ドーミー久米川","province":"東京都","city":"東村山市","address":"東村山市本町1-9-11","lat":35.751721,"lon":139.467964},{"name":"東村山市福祉作業所（平成31年４月１日より休止中）","province":"東京都","city":"東村山市","address":"東村山市諏訪町1-3-10","lat":35.76549,"lon":139.466672},{"name":"グリーン・ボイス","province":"東京都","city":"東村山市","address":"東村山市萩山町3-31-2","lat":35.743978,"lon":139.468161},{"name":"東京ばんなん白光園","province":"東京都","city":"東村山市","address":"東村山市諏訪町2-26-1","lat":35.771892,"lon":139.463658},{"name":"多摩北部医療センター","province":"東京都","city":"東村山市","address":"東京都東村山市青葉町1丁目7-1","lat":35.76043805,"lon":139.49094217},{"name":"東村山市福祉作業所","province":"東京都","city":"東村山市","address":"東村山市諏訪町1-3-10","lat":35.76549,"lon":139.466672},{"name":"東村山ソーシャルホーム","province":"東京都","city":"東村山市","address":"東村山市本町1-13-51大塚ビル104","lat":35.75433,"lon":139.466156},{"name":"緑風荘病院","province":"東京都","city":"東村山市","address":"東村山市萩山町3-31-1","lat":35.74455,"lon":139.468078},{"name":"東京白十字病院","province":"東京都","city":"東村山市","address":"東村山市諏訪町2-26-1","lat":35.771892,"lon":139.463658},{"name":"東村山市社会福祉協議会","province":"東京都","city":"東村山市","address":"東村山市野口町1-25-15東村山市地域福祉センター","lat":35.758293,"lon":139.464261},{"name":"ドーミー久米川","province":"東京都","city":"東村山市","address":"東村山市本町1-9-11","lat":35.75204,"lon":139.46751},{"name":"東村山ソーシャルホーム","province":"東京都","city":"東村山市","address":"東村山市本町1-13-51大塚ビル104","lat":35.75448,"lon":139.46622},{"name":"長坂式典センター","province":"東京都","city":"東村山市","address":"東京都東村山市本町2丁目19-36","lat":35.75973473,"lon":139.46753035},{"name":"ベルホール三光商会","province":"東京都","city":"東村山市","address":"東京都東村山市恩多町2丁目41-3","lat":35.74664228,"lon":139.48623476},{"name":"メモリアルアートの大野屋","province":"東京都","city":"東村山市","address":"東京都東村山市萩山町1丁目19-2","lat":35.73911534,"lon":139.48567125},{"name":"愛和葬祭","province":"東京都","city":"東村山市","address":"東京都東村山市秋津町3丁目5-8","lat":35.77351681,"lon":139.47999277},{"name":"しんせいどう","province":"東京都","city":"東村山市","address":"東京都東村山市青葉町2丁目1-63","lat":35.76059629,"lon":139.48833404},{"name":"彩花","province":"東京都","city":"東村山市","address":"東京都東村山市青葉町2丁目28-5","lat":35.7628517,"lon":139.49251419},{"name":"村山荘","province":"東京都","city":"東村山市","address":"東村山市富士見町2-7-5","lat":35.74027,"lon":139.45242},{"name":"さつき荘","province":"東京都","city":"東村山市","address":"東村山市富士見町2-8-2","lat":35.7401,"lon":139.45364},{"name":"東村山市福祉作業所","province":"東京都","city":"東村山市","address":"東村山市諏訪町1-3-10","lat":35.76547,"lon":139.46674},{"name":"ドーミー久米川２","province":"東京都","city":"東村山市","address":"東村山市本町1-9-11","lat":35.75204,"lon":139.46751},{"name":"東村山市社会福祉協議会","province":"東京都","city":"東村山市","address":"東村山市野口町1-25-15東村山市地域福祉センター","lat":35.75862,"lon":139.464},{"name":"さつき荘","province":"東京都","city":"東村山市","address":"東村山市富士見町2-8-2","lat":35.740609,"lon":139.453774},{"name":"村山荘","province":"東京都","city":"東村山市","address":"東村山市富士見町2-7-5","lat":35.740203,"lon":139.452535},{"name":"社会福祉法人東京コロニー コロニー東村山","province":"東京都","city":"東村山市","address":"東京都東村山市秋津町2丁目22-9","lat":35.76876478,"lon":139.48789499},{"name":"社会福祉法人東京コロニー トーコロ青葉ワークセンター","province":"東京都","city":"東村山市","address":"東京都東村山市青葉町2丁目39-10","lat":35.76531803,"lon":139.49069484},{"name":"社会福祉法人ネット十二月","province":"東京都","city":"東村山市","address":"東京都東村山市廻田町3丁目16-8","lat":35.76038678,"lon":139.44811263},{"name":"高齢者在宅サービスセンター白十字八国苑","province":"東京都","city":"東村山市","address":"東京都東村山市諏訪町2丁目26-1","lat":35.77189152,"lon":139.46365808},{"name":"社会福祉法人村山苑福祉事業センター","province":"東京都","city":"東村山市","address":"東京都東村山市富士見町2丁目7-5","lat":35.74020311,"lon":139.45253528},{"name":"社会福祉法人いずみライフサポートつばさ","province":"東京都","city":"東村山市","address":"東京都東村山市富士見町3丁目4-16","lat":35.74866053,"lon":139.45443753},{"name":"社会福祉法人小さい共同体就労継続支援Ｂ型飛翔クラブ","province":"東京都","city":"東村山市","address":"東京都東村山市栄町2丁目9-32","lat":35.74941934,"lon":139.47170261},{"name":"特定非営利活動法人けやきけやき第二作業所","province":"東京都","city":"東村山市","address":"東京都東村山市萩山町3丁目19-2","lat":35.74593911,"lon":139.46971405},{"name":"株式会社ウィズケアメディカル ウィズケアリハビリセンター","province":"東京都","city":"東村山市","address":"東京都東村山市久米川町3丁目1-1","lat":35.75976546,"lon":139.47353814},{"name":"社会福祉法人東京蒼生会寿デイ･サービスセンター","province":"東京都","city":"東村山市","address":"東京都東村山市富士見町2丁目1-2","lat":35.7445943,"lon":139.4540183},{"name":"特定非営利活動法人セサミ萩共同作業所セサミ萩","province":"東京都","city":"東村山市","address":"東京都東村山市萩山町2丁目2-15","lat":35.74047328,"lon":139.47715529},{"name":"かりん","province":"東京都","city":"東村山市","address":"東京都東村山市秋津町2丁目37-47","lat":35.77148394,"lon":139.48956425},{"name":"社会福祉法人ネット久米川共同作業所","province":"東京都","city":"東村山市","address":"東京都東村山市久米川町2丁目21-14","lat":35.76533442,"lon":139.47915135},{"name":"特定非営利活動法人ワーカーズコープ東村山楠の樹地域福祉事業所ふたば","province":"東京都","city":"東村山市","address":"東京都東村山市野口町1丁目15-5","lat":35.76157604,"lon":139.46296959},{"name":"さつき荘","province":"東京都","city":"東村山市","address":"東村山市富士見町2-8-2","lat":35.74011,"lon":139.45364},{"name":"東村山市社会福祉協議会","province":"東京都","city":"東村山市","address":"東村山市野口町1-25-15東村山市地域福祉センター","lat":35.75862,"lon":139.46401},{"name":"ドーミー久米川","province":"東京都","city":"東村山市","address":"東村山市本町1-9-11","lat":35.75205,"lon":139.46751},{"name":"ドーミー久米川２","province":"東京都","city":"東村山市","address":"東村山市本町1-9-11","lat":35.75205,"lon":139.46751},{"name":"ドーミー久米川","province":"東京都","city":"東村山市","address":"東村山市本町1-9-11","lat":35.751721,"lon":139.467964},{"name":"東村山市福祉作業所（平成31年４月１日より休止中）","province":"東京都","city":"東村山市","address":"東村山市諏訪町1-3-10","lat":35.76549,"lon":139.466672},{"name":"グリーン・ボイス","province":"東京都","city":"東村山市","address":"東村山市萩山町3-31-2","lat":35.743978,"lon":139.468161},{"name":"東京ばんなん白光園","province":"東京都","city":"東村山市","address":"東村山市諏訪町2-26-1","lat":35.771892,"lon":139.463658},{"name":"東村山市福祉作業所","province":"東京都","city":"東村山市","address":"東村山市諏訪町1-3-10","lat":35.76549,"lon":139.466672},{"name":"東村山ソーシャルホーム","province":"東京都","city":"東村山市","address":"東村山市本町1-13-51大塚ビル104","lat":35.75433,"lon":139.466156},{"name":"緑風荘病院","province":"東京都","city":"東村山市","address":"東村山市萩山町3-31-1","lat":35.74455,"lon":139.468078},{"name":"東京白十字病院","province":"東京都","city":"東村山市","address":"東村山市諏訪町2-26-1","lat":35.771892,"lon":139.463658},{"name":"東村山市社会福祉協議会","province":"東京都","city":"東村山市","address":"東村山市野口町1-25-15東村山市地域福祉センター","lat":35.758293,"lon":139.464261},{"name":"ドーミー久米川","province":"東京都","city":"東村山市","address":"東村山市本町1-9-11","lat":35.75204,"lon":139.46751},{"name":"東村山ソーシャルホーム","province":"東京都","city":"東村山市","address":"東村山市本町1-13-51大塚ビル104","lat":35.75448,"lon":139.46622},{"name":"村山荘","province":"東京都","city":"東村山市","address":"東村山市富士見町2-7-5","lat":35.74027,"lon":139.45242},{"name":"さつき荘","province":"東京都","city":"東村山市","address":"東村山市富士見町2-8-2","lat":35.7401,"lon":139.45364},{"name":"東村山市福祉作業所","province":"東京都","city":"東村山市","address":"東村山市諏訪町1-3-10","lat":35.76547,"lon":139.46674},{"name":"ドーミー久米川２","province":"東京都","city":"東村山市","address":"東村山市本町1-9-11","lat":35.75204,"lon":139.46751},{"name":"東村山市社会福祉協議会","province":"東京都","city":"東村山市","address":"東村山市野口町1-25-15東村山市地域福祉センター","lat":35.75862,"lon":139.464},{"name":"さつき荘","province":"東京都","city":"東村山市","address":"東村山市富士見町2-8-2","lat":35.740609,"lon":139.453774},{"name":"村山荘","province":"東京都","city":"東村山市","address":"東村山市富士見町2-7-5","lat":35.740203,"lon":139.452535},{"name":"社会福祉法人東京コロニー コロニー東村山","province":"東京都","city":"東村山市","address":"東京都東村山市秋津町2丁目22-9","lat":35.76876478,"lon":139.48789499},{"name":"社会福祉法人東京コロニー トーコロ青葉ワークセンター","province":"東京都","city":"東村山市","address":"東京都東村山市青葉町2丁目39-10","lat":35.76531803,"lon":139.49069484},{"name":"社会福祉法人ネット十二月","province":"東京都","city":"東村山市","address":"東京都東村山市廻田町3丁目16-8","lat":35.76038678,"lon":139.44811263},{"name":"高齢者在宅サービスセンター白十字八国苑","province":"東京都","city":"東村山市","address":"東京都東村山市諏訪町2丁目26-1","lat":35.77189152,"lon":139.46365808},{"name":"社会福祉法人村山苑福祉事業センター","province":"東京都","city":"東村山市","address":"東京都東村山市富士見町2丁目7-5","lat":35.74020311,"lon":139.45253528},{"name":"社会福祉法人いずみライフサポートつばさ","province":"東京都","city":"東村山市","address":"東京都東村山市富士見町3丁目4-16","lat":35.74866053,"lon":139.45443753},{"name":"社会福祉法人小さい共同体就労継続支援Ｂ型飛翔クラブ","province":"東京都","city":"東村山市","address":"東京都東村山市栄町2丁目9-32","lat":35.74941934,"lon":139.47170261},{"name":"特定非営利活動法人けやきけやき第二作業所","province":"東京都","city":"東村山市","address":"東京都東村山市萩山町3丁目19-2","lat":35.74593911,"lon":139.46971405},{"name":"株式会社ウィズケアメディカル ウィズケアリハビリセンター","province":"東京都","city":"東村山市","address":"東京都東村山市久米川町3丁目1-1","lat":35.75976546,"lon":139.47353814},{"name":"社会福祉法人東京蒼生会寿デイ･サービスセンター","province":"東京都","city":"東村山市","address":"東京都東村山市富士見町2丁目1-2","lat":35.7445943,"lon":139.4540183},{"name":"特定非営利活動法人セサミ萩共同作業所セサミ萩","province":"東京都","city":"東村山市","address":"東京都東村山市萩山町2丁目2-15","lat":35.74047328,"lon":139.47715529},{"name":"かりん","province":"東京都","city":"東村山市","address":"東京都東村山市秋津町2丁目37-47","lat":35.77148394,"lon":139.48956425},{"name":"社会福祉法人ネット久米川共同作業所","province":"東京都","city":"東村山市","address":"東京都東村山市久米川町2丁目21-14","lat":35.76533442,"lon":139.47915135},{"name":"特定非営利活動法人ワーカーズコープ東村山楠の樹地域福祉事業所ふたば","province":"東京都","city":"東村山市","address":"東京都東村山市野口町1丁目15-5","lat":35.76157604,"lon":139.46296959},{"name":"さつき荘","province":"東京都","city":"東村山市","address":"東村山市富士見町2-8-2","lat":35.74011,"lon":139.45364},{"name":"東村山市社会福祉協議会","province":"東京都","city":"東村山市","address":"東村山市野口町1-25-15東村山市地域福祉センター","lat":35.75862,"lon":139.46401},{"name":"ドーミー久米川","province":"東京都","city":"東村山市","address":"東村山市本町1-9-11","lat":35.75205,"lon":139.46751},{"name":"ドーミー久米川２","province":"東京都","city":"東村山市","address":"東村山市本町1-9-11","lat":35.75205,"lon":139.46751},{"name":"ドーミー久米川","province":"東京都","city":"東村山市","address":"東村山市本町1-9-11","lat":35.751721,"lon":139.467964},{"name":"東村山市福祉作業所（平成31年４月１日より休止中）","province":"東京都","city":"東村山市","address":"東村山市諏訪町1-3-10","lat":35.76549,"lon":139.466672},{"name":"グリーン・ボイス","province":"東京都","city":"東村山市","address":"東村山市萩山町3-31-2","lat":35.743978,"lon":139.468161},{"name":"東京ばんなん白光園","province":"東京都","city":"東村山市","address":"東村山市諏訪町2-26-1","lat":35.771892,"lon":139.463658},{"name":"東村山市福祉作業所","province":"東京都","city":"東村山市","address":"東村山市諏訪町1-3-10","lat":35.76549,"lon":139.466672},{"name":"東村山ソーシャルホーム","province":"東京都","city":"東村山市","address":"東村山市本町1-13-51大塚ビル104","lat":35.75433,"lon":139.466156},{"name":"緑風荘病院","province":"東京都","city":"東村山市","address":"東村山市萩山町3-31-1","lat":35.74455,"lon":139.468078},{"name":"東京白十字病院","province":"東京都","city":"東村山市","address":"東村山市諏訪町2-26-1","lat":35.771892,"lon":139.463658},{"name":"東村山市社会福祉協議会","province":"東京都","city":"東村山市","address":"東村山市野口町1-25-15東村山市地域福祉センター","lat":35.758293,"lon":139.464261},{"name":"ドーミー久米川","province":"東京都","city":"東村山市","address":"東村山市本町1-9-11","lat":35.75204,"lon":139.46751},{"name":"東村山ソーシャルホーム","province":"東京都","city":"東村山市","address":"東村山市本町1-13-51大塚ビル104","lat":35.75448,"lon":139.46622},{"name":"村山荘","province":"東京都","city":"東村山市","address":"東村山市富士見町2-7-5","lat":35.74027,"lon":139.45242},{"name":"さつき荘","province":"東京都","city":"東村山市","address":"東村山市富士見町2-8-2","lat":35.7401,"lon":139.45364},{"name":"東村山市福祉作業所","province":"東京都","city":"東村山市","address":"東村山市諏訪町1-3-10","lat":35.76547,"lon":139.46674},{"name":"ドーミー久米川２","province":"東京都","city":"東村山市","address":"東村山市本町1-9-11","lat":35.75204,"lon":139.46751},{"name":"東村山市社会福祉協議会","province":"東京都","city":"東村山市","address":"東村山市野口町1-25-15東村山市地域福祉センター","lat":35.75862,"lon":139.464},{"name":"さつき荘","province":"東京都","city":"東村山市","address":"東村山市富士見町2-8-2","lat":35.740609,"lon":139.453774},{"name":"村山荘","province":"東京都","city":"東村山市","address":"東村山市富士見町2-7-5","lat":35.740203,"lon":139.452535},{"name":"社会福祉法人東京コロニー コロニー東村山","province":"東京都","city":"東村山市","address":"東京都東村山市秋津町2丁目22-9","lat":35.76876478,"lon":139.48789499},{"name":"社会福祉法人東京コロニー トーコロ青葉ワークセンター","province":"東京都","city":"東村山市","address":"東京都東村山市青葉町2丁目39-10","lat":35.76531803,"lon":139.49069484},{"name":"社会福祉法人ネット十二月","province":"東京都","city":"東村山市","address":"東京都東村山市廻田町3丁目16-8","lat":35.76038678,"lon":139.44811263},{"name":"高齢者在宅サービスセンター白十字八国苑","province":"東京都","city":"東村山市","address":"東京都東村山市諏訪町2丁目26-1","lat":35.77189152,"lon":139.46365808},{"name":"社会福祉法人村山苑福祉事業センター","province":"東京都","city":"東村山市","address":"東京都東村山市富士見町2丁目7-5","lat":35.74020311,"lon":139.45253528},{"name":"社会福祉法人いずみライフサポートつばさ","province":"東京都","city":"東村山市","address":"東京都東村山市富士見町3丁目4-16","lat":35.74866053,"lon":139.45443753},{"name":"社会福祉法人小さい共同体就労継続支援Ｂ型飛翔クラブ","province":"東京都","city":"東村山市","address":"東京都東村山市栄町2丁目9-32","lat":35.74941934,"lon":139.47170261},{"name":"特定非営利活動法人けやきけやき第二作業所","province":"東京都","city":"東村山市","address":"東京都東村山市萩山町3丁目19-2","lat":35.74593911,"lon":139.46971405},{"name":"株式会社ウィズケアメディカル ウィズケアリハビリセンター","province":"東京都","city":"東村山市","address":"東京都東村山市久米川町3丁目1-1","lat":35.75976546,"lon":139.47353814},{"name":"社会福祉法人東京蒼生会寿デイ･サービスセンター","province":"東京都","city":"東村山市","address":"東京都東村山市富士見町2丁目1-2","lat":35.7445943,"lon":139.4540183},{"name":"特定非営利活動法人セサミ萩共同作業所セサミ萩","province":"東京都","city":"東村山市","address":"東京都東村山市萩山町2丁目2-15","lat":35.74047328,"lon":139.47715529},{"name":"かりん","province":"東京都","city":"東村山市","address":"東京都東村山市秋津町2丁目37-47","lat":35.77148394,"lon":139.48956425},{"name":"社会福祉法人ネット久米川共同作業所","province":"東京都","city":"東村山市","address":"東京都東村山市久米川町2丁目21-14","lat":35.76533442,"lon":139.47915135},{"name":"特定非営利活動法人ワーカーズコープ東村山楠の樹地域福祉事業所ふたば","province":"東京都","city":"東村山市","address":"東京都東村山市野口町1丁目15-5","lat":35.76157604,"lon":139.46296959},{"name":"さつき荘","province":"東京都","city":"東村山市","address":"東村山市富士見町2-8-2","lat":35.74011,"lon":139.45364},{"name":"東村山市社会福祉協議会","province":"東京都","city":"東村山市","address":"東村山市野口町1-25-15東村山市地域福祉センター","lat":35.75862,"lon":139.46401},{"name":"ドーミー久米川","province":"東京都","city":"東村山市","address":"東村山市本町1-9-11","lat":35.75205,"lon":139.46751},{"name":"ドーミー久米川２","province":"東京都","city":"東村山市","address":"東村山市本町1-9-11","lat":35.75205,"lon":139.46751},{"name":"ドーミー久米川","province":"東京都","city":"東村山市","address":"東村山市本町1-9-11","lat":35.751721,"lon":139.467964},{"name":"東村山市福祉作業所（平成31年４月１日より休止中）","province":"東京都","city":"東村山市","address":"東村山市諏訪町1-3-10","lat":35.76549,"lon":139.466672},{"name":"グリーン・ボイス","province":"東京都","city":"東村山市","address":"東村山市萩山町3-31-2","lat":35.743978,"lon":139.468161},{"name":"東京ばんなん白光園","province":"東京都","city":"東村山市","address":"東村山市諏訪町2-26-1","lat":35.771892,"lon":139.463658},{"name":"東村山市福祉作業所","province":"東京都","city":"東村山市","address":"東村山市諏訪町1-3-10","lat":35.76549,"lon":139.466672},{"name":"東村山ソーシャルホーム","province":"東京都","city":"東村山市","address":"東村山市本町1-13-51大塚ビル104","lat":35.75433,"lon":139.466156},{"name":"緑風荘病院","province":"東京都","city":"東村山市","address":"東村山市萩山町3-31-1","lat":35.74455,"lon":139.468078},{"name":"東京白十字病院","province":"東京都","city":"東村山市","address":"東村山市諏訪町2-26-1","lat":35.771892,"lon":139.463658},{"name":"東村山市社会福祉協議会","province":"東京都","city":"東村山市","address":"東村山市野口町1-25-15東村山市地域福祉センター","lat":35.758293,"lon":139.464261},{"name":"ドーミー久米川","province":"東京都","city":"東村山市","address":"東村山市本町1-9-11","lat":35.75204,"lon":139.46751},{"name":"東村山ソーシャルホーム","province":"東京都","city":"東村山市","address":"東村山市本町1-13-51大塚ビル104","lat":35.75448,"lon":139.46622},{"name":"村山荘","province":"東京都","city":"東村山市","address":"東村山市富士見町2-7-5","lat":35.74027,"lon":139.45242},{"name":"さつき荘","province":"東京都","city":"東村山市","address":"東村山市富士見町2-8-2","lat":35.7401,"lon":139.45364},{"name":"東村山市福祉作業所","province":"東京都","city":"東村山市","address":"東村山市諏訪町1-3-10","lat":35.76547,"lon":139.46674},{"name":"ドーミー久米川２","province":"東京都","city":"東村山市","address":"東村山市本町1-9-11","lat":35.75204,"lon":139.46751},{"name":"東村山市社会福祉協議会","province":"東京都","city":"東村山市","address":"東村山市野口町1-25-15東村山市地域福祉センター","lat":35.75862,"lon":139.464},{"name":"さつき荘","province":"東京都","city":"東村山市","address":"東村山市富士見町2-8-2","lat":35.740609,"lon":139.453774},{"name":"村山荘","province":"東京都","city":"東村山市","address":"東村山市富士見町2-7-5","lat":35.740203,"lon":139.452535},{"name":"社会福祉法人東京コロニー コロニー東村山","province":"東京都","city":"東村山市","address":"東京都東村山市秋津町2丁目22-9","lat":35.76876478,"lon":139.48789499},{"name":"社会福祉法人東京コロニー トーコロ青葉ワークセンター","province":"東京都","city":"東村山市","address":"東京都東村山市青葉町2丁目39-10","lat":35.76531803,"lon":139.49069484},{"name":"社会福祉法人ネット十二月","province":"東京都","city":"東村山市","address":"東京都東村山市廻田町3丁目16-8","lat":35.76038678,"lon":139.44811263},{"name":"高齢者在宅サービスセンター白十字八国苑","province":"東京都","city":"東村山市","address":"東京都東村山市諏訪町2丁目26-1","lat":35.77189152,"lon":139.46365808},{"name":"社会福祉法人村山苑福祉事業センター","province":"東京都","city":"東村山市","address":"東京都東村山市富士見町2丁目7-5","lat":35.74020311,"lon":139.45253528},{"name":"社会福祉法人いずみライフサポートつばさ","province":"東京都","city":"東村山市","address":"東京都東村山市富士見町3丁目4-16","lat":35.74866053,"lon":139.45443753},{"name":"社会福祉法人小さい共同体就労継続支援Ｂ型飛翔クラブ","province":"東京都","city":"東村山市","address":"東京都東村山市栄町2丁目9-32","lat":35.74941934,"lon":139.47170261},{"name":"特定非営利活動法人けやきけやき第二作業所","province":"東京都","city":"東村山市","address":"東京都東村山市萩山町3丁目19-2","lat":35.74593911,"lon":139.46971405},{"name":"株式会社ウィズケアメディカル ウィズケアリハビリセンター","province":"東京都","city":"東村山市","address":"東京都東村山市久米川町3丁目1-1","lat":35.75976546,"lon":139.47353814},{"name":"社会福祉法人東京蒼生会寿デイ･サービスセンター","province":"東京都","city":"東村山市","address":"東京都東村山市富士見町2丁目1-2","lat":35.7445943,"lon":139.4540183},{"name":"特定非営利活動法人セサミ萩共同作業所セサミ萩","province":"東京都","city":"東村山市","address":"東京都東村山市萩山町2丁目2-15","lat":35.74047328,"lon":139.47715529},{"name":"かりん","province":"東京都","city":"東村山市","address":"東京都東村山市秋津町2丁目37-47","lat":35.77148394,"lon":139.48956425},{"name":"社会福祉法人ネット久米川共同作業所","province":"東京都","city":"東村山市","address":"東京都東村山市久米川町2丁目21-14","lat":35.76533442,"lon":139.47915135},{"name":"特定非営利活動法人ワーカーズコープ東村山楠の樹地域福祉事業所ふたば","province":"東京都","city":"東村山市","address":"東京都東村山市野口町1丁目15-5","lat":35.76157604,"lon":139.46296959},{"name":"さつき荘","province":"東京都","city":"東村山市","address":"東村山市富士見町2-8-2","lat":35.74011,"lon":139.45364},{"name":"東村山市社会福祉協議会","province":"東京都","city":"東村山市","address":"東村山市野口町1-25-15東村山市地域福祉センター","lat":35.75862,"lon":139.46401},{"name":"ドーミー久米川","province":"東京都","city":"東村山市","address":"東村山市本町1-9-11","lat":35.75205,"lon":139.46751},{"name":"ドーミー久米川２","province":"東京都","city":"東村山市","address":"東村山市本町1-9-11","lat":35.75205,"lon":139.46751},{"name":"ドーミー久米川","province":"東京都","city":"東村山市","address":"東村山市本町1-9-11","lat":35.751721,"lon":139.467964},{"name":"東村山市福祉作業所（平成31年４月１日より休止中）","province":"東京都","city":"東村山市","address":"東村山市諏訪町1-3-10","lat":35.76549,"lon":139.466672},{"name":"グリーン・ボイス","province":"東京都","city":"東村山市","address":"東村山市萩山町3-31-2","lat":35.743978,"lon":139.468161},{"name":"東京ばんなん白光園","province":"東京都","city":"東村山市","address":"東村山市諏訪町2-26-1","lat":35.771892,"lon":139.463658},{"name":"東村山市福祉作業所","province":"東京都","city":"東村山市","address":"東村山市諏訪町1-3-10","lat":35.76549,"lon":139.466672},{"name":"東村山ソーシャルホーム","province":"東京都","city":"東村山市","address":"東村山市本町1-13-51大塚ビル104","lat":35.75433,"lon":139.466156},{"name":"緑風荘病院","province":"東京都","city":"東村山市","address":"東村山市萩山町3-31-1","lat":35.74455,"lon":139.468078},{"name":"東京白十字病院","province":"東京都","city":"東村山市","address":"東村山市諏訪町2-26-1","lat":35.771892,"lon":139.463658},{"name":"東村山市社会福祉協議会","province":"東京都","city":"東村山市","address":"東村山市野口町1-25-15東村山市地域福祉センター","lat":35.758293,"lon":139.464261},{"name":"ドーミー久米川","province":"東京都","city":"東村山市","address":"東村山市本町1-9-11","lat":35.75204,"lon":139.46751},{"name":"東村山ソーシャルホーム","province":"東京都","city":"東村山市","address":"東村山市本町1-13-51大塚ビル104","lat":35.75448,"lon":139.46622},{"name":"村山荘","province":"東京都","city":"東村山市","address":"東村山市富士見町2-7-5","lat":35.74027,"lon":139.45242},{"name":"さつき荘","province":"東京都","city":"東村山市","address":"東村山市富士見町2-8-2","lat":35.7401,"lon":139.45364},{"name":"東村山市福祉作業所","province":"東京都","city":"東村山市","address":"東村山市諏訪町1-3-10","lat":35.76547,"lon":139.46674},{"name":"ドーミー久米川２","province":"東京都","city":"東村山市","address":"東村山市本町1-9-11","lat":35.75204,"lon":139.46751},{"name":"東村山市社会福祉協議会","province":"東京都","city":"東村山市","address":"東村山市野口町1-25-15東村山市地域福祉センター","lat":35.75862,"lon":139.464},{"name":"さつき荘","province":"東京都","city":"東村山市","address":"東村山市富士見町2-8-2","lat":35.740609,"lon":139.453774},{"name":"村山荘","province":"東京都","city":"東村山市","address":"東村山市富士見町2-7-5","lat":35.740203,"lon":139.452535},{"name":"社会福祉法人東京コロニー コロニー東村山","province":"東京都","city":"東村山市","address":"東京都東村山市秋津町2丁目22-9","lat":35.76876478,"lon":139.48789499},{"name":"社会福祉法人東京コロニー トーコロ青葉ワークセンター","province":"東京都","city":"東村山市","address":"東京都東村山市青葉町2丁目39-10","lat":35.76531803,"lon":139.49069484},{"name":"社会福祉法人ネット十二月","province":"東京都","city":"東村山市","address":"東京都東村山市廻田町3丁目16-8","lat":35.76038678,"lon":139.44811263},{"name":"高齢者在宅サービスセンター白十字八国苑","province":"東京都","city":"東村山市","address":"東京都東村山市諏訪町2丁目26-1","lat":35.77189152,"lon":139.46365808},{"name":"社会福祉法人村山苑福祉事業センター","province":"東京都","city":"東村山市","address":"東京都東村山市富士見町2丁目7-5","lat":35.74020311,"lon":139.45253528},{"name":"社会福祉法人いずみライフサポートつばさ","province":"東京都","city":"東村山市","address":"東京都東村山市富士見町3丁目4-16","lat":35.74866053,"lon":139.45443753},{"name":"社会福祉法人小さい共同体就労継続支援Ｂ型飛翔クラブ","province":"東京都","city":"東村山市","address":"東京都東村山市栄町2丁目9-32","lat":35.74941934,"lon":139.47170261},{"name":"特定非営利活動法人けやきけやき第二作業所","province":"東京都","city":"東村山市","address":"東京都東村山市萩山町3丁目19-2","lat":35.74593911,"lon":139.46971405},{"name":"株式会社ウィズケアメディカル ウィズケアリハビリセンター","province":"東京都","city":"東村山市","address":"東京都東村山市久米川町3丁目1-1","lat":35.75976546,"lon":139.47353814},{"name":"社会福祉法人東京蒼生会寿デイ･サービスセンター","province":"東京都","city":"東村山市","address":"東京都東村山市富士見町2丁目1-2","lat":35.7445943,"lon":139.4540183},{"name":"特定非営利活動法人セサミ萩共同作業所セサミ萩","province":"東京都","city":"東村山市","address":"東京都東村山市萩山町2丁目2-15","lat":35.74047328,"lon":139.47715529},{"name":"かりん","province":"東京都","city":"東村山市","address":"東京都東村山市秋津町2丁目37-47","lat":35.77148394,"lon":139.48956425},{"name":"社会福祉法人ネット久米川共同作業所","province":"東京都","city":"東村山市","address":"東京都東村山市久米川町2丁目21-14","lat":35.76533442,"lon":139.47915135},{"name":"特定非営利活動法人ワーカーズコープ東村山楠の樹地域福祉事業所ふたば","province":"東京都","city":"東村山市","address":"東京都東村山市野口町1丁目15-5","lat":35.76157604,"lon":139.46296959},{"name":"さつき荘","province":"東京都","city":"東村山市","address":"東村山市富士見町2-8-2","lat":35.74011,"lon":139.45364},{"name":"東村山市社会福祉協議会","province":"東京都","city":"東村山市","address":"東村山市野口町1-25-15東村山市地域福祉センター","lat":35.75862,"lon":139.46401},{"name":"ドーミー久米川","province":"東京都","city":"東村山市","address":"東村山市本町1-9-11","lat":35.75205,"lon":139.46751},{"name":"ドーミー久米川２","province":"東京都","city":"東村山市","address":"東村山市本町1-9-11","lat":35.75205,"lon":139.46751},{"name":"ドーミー久米川","province":"東京都","city":"東村山市","address":"東村山市本町1-9-11","lat":35.751721,"lon":139.467964},{"name":"東村山市福祉作業所（平成31年４月１日より休止中）","province":"東京都","city":"東村山市","address":"東村山市諏訪町1-3-10","lat":35.76549,"lon":139.466672},{"name":"グリーン・ボイス","province":"東京都","city":"東村山市","address":"東村山市萩山町3-31-2","lat":35.743978,"lon":139.468161},{"name":"東京ばんなん白光園","province":"東京都","city":"東村山市","address":"東村山市諏訪町2-26-1","lat":35.771892,"lon":139.463658},{"name":"東村山市福祉作業所","province":"東京都","city":"東村山市","address":"東村山市諏訪町1-3-10","lat":35.76549,"lon":139.466672},{"name":"東村山ソーシャルホーム","province":"東京都","city":"東村山市","address":"東村山市本町1-13-51大塚ビル104","lat":35.75433,"lon":139.466156},{"name":"緑風荘病院","province":"東京都","city":"東村山市","address":"東村山市萩山町3-31-1","lat":35.74455,"lon":139.468078},{"name":"東京白十字病院","province":"東京都","city":"東村山市","address":"東村山市諏訪町2-26-1","lat":35.771892,"lon":139.463658},{"name":"東村山市社会福祉協議会","province":"東京都","city":"東村山市","address":"東村山市野口町1-25-15東村山市地域福祉センター","lat":35.758293,"lon":139.464261},{"name":"ドーミー久米川","province":"東京都","city":"東村山市","address":"東村山市本町1-9-11","lat":35.75204,"lon":139.46751},{"name":"東村山ソーシャルホーム","province":"東京都","city":"東村山市","address":"東村山市本町1-13-51大塚ビル104","lat":35.75448,"lon":139.46622},{"name":"村山荘","province":"東京都","city":"東村山市","address":"東村山市富士見町2-7-5","lat":35.74027,"lon":139.45242},{"name":"さつき荘","province":"東京都","city":"東村山市","address":"東村山市富士見町2-8-2","lat":35.7401,"lon":139.45364},{"name":"東村山市福祉作業所","province":"東京都","city":"東村山市","address":"東村山市諏訪町1-3-10","lat":35.76547,"lon":139.46674},{"name":"ドーミー久米川２","province":"東京都","city":"東村山市","address":"東村山市本町1-9-11","lat":35.75204,"lon":139.46751},{"name":"東村山市社会福祉協議会","province":"東京都","city":"東村山市","address":"東村山市野口町1-25-15東村山市地域福祉センター","lat":35.75862,"lon":139.464},{"name":"さつき荘","province":"東京都","city":"東村山市","address":"東村山市富士見町2-8-2","lat":35.740609,"lon":139.453774},{"name":"村山荘","province":"東京都","city":"東村山市","address":"東村山市富士見町2-7-5","lat":35.740203,"lon":139.452535},{"name":"社会福祉法人東京コロニー コロニー東村山","province":"東京都","city":"東村山市","address":"東京都東村山市秋津町2丁目22-9","lat":35.76876478,"lon":139.48789499},{"name":"社会福祉法人東京コロニー トーコロ青葉ワークセンター","province":"東京都","city":"東村山市","address":"東京都東村山市青葉町2丁目39-10","lat":35.76531803,"lon":139.49069484},{"name":"社会福祉法人ネット十二月","province":"東京都","city":"東村山市","address":"東京都東村山市廻田町3丁目16-8","lat":35.76038678,"lon":139.44811263},{"name":"高齢者在宅サービスセンター白十字八国苑","province":"東京都","city":"東村山市","address":"東京都東村山市諏訪町2丁目26-1","lat":35.77189152,"lon":139.46365808},{"name":"社会福祉法人村山苑福祉事業センター","province":"東京都","city":"東村山市","address":"東京都東村山市富士見町2丁目7-5","lat":35.74020311,"lon":139.45253528},{"name":"社会福祉法人いずみライフサポートつばさ","province":"東京都","city":"東村山市","address":"東京都東村山市富士見町3丁目4-16","lat":35.74866053,"lon":139.45443753},{"name":"社会福祉法人小さい共同体就労継続支援Ｂ型飛翔クラブ","province":"東京都","city":"東村山市","address":"東京都東村山市栄町2丁目9-32","lat":35.74941934,"lon":139.47170261},{"name":"特定非営利活動法人けやきけやき第二作業所","province":"東京都","city":"東村山市","address":"東京都東村山市萩山町3丁目19-2","lat":35.74593911,"lon":139.46971405},{"name":"株式会社ウィズケアメディカル ウィズケアリハビリセンター","province":"東京都","city":"東村山市","address":"東京都東村山市久米川町3丁目1-1","lat":35.75976546,"lon":139.47353814},{"name":"社会福祉法人東京蒼生会寿デイ･サービスセンター","province":"東京都","city":"東村山市","address":"東京都東村山市富士見町2丁目1-2","lat":35.7445943,"lon":139.4540183},{"name":"特定非営利活動法人セサミ萩共同作業所セサミ萩","province":"東京都","city":"東村山市","address":"東京都東村山市萩山町2丁目2-15","lat":35.74047328,"lon":139.47715529},{"name":"かりん","province":"東京都","city":"東村山市","address":"東京都東村山市秋津町2丁目37-47","lat":35.77148394,"lon":139.48956425},{"name":"社会福祉法人ネット久米川共同作業所","province":"東京都","city":"東村山市","address":"東京都東村山市久米川町2丁目21-14","lat":35.76533442,"lon":139.47915135},{"name":"特定非営利活動法人ワーカーズコープ東村山楠の樹地域福祉事業所ふたば","province":"東京都","city":"東村山市","address":"東京都東村山市野口町1丁目15-5","lat":35.76157604,"lon":139.46296959},{"name":"さつき荘","province":"東京都","city":"東村山市","address":"東村山市富士見町2-8-2","lat":35.74011,"lon":139.45364},{"name":"東村山市社会福祉協議会","province":"東京都","city":"東村山市","address":"東村山市野口町1-25-15東村山市地域福祉センター","lat":35.75862,"lon":139.46401},{"name":"ドーミー久米川","province":"東京都","city":"東村山市","address":"東村山市本町1-9-11","lat":35.75205,"lon":139.46751},{"name":"ドーミー久米川２","province":"東京都","city":"東村山市","address":"東村山市本町1-9-11","lat":35.75205,"lon":139.46751},{"name":"ドーミー久米川","province":"東京都","city":"東村山市","address":"東村山市本町1-9-11","lat":35.751721,"lon":139.467964},{"name":"東村山市福祉作業所（平成31年４月１日より休止中）","province":"東京都","city":"東村山市","address":"東村山市諏訪町1-3-10","lat":35.76549,"lon":139.466672},{"name":"グリーン・ボイス","province":"東京都","city":"東村山市","address":"東村山市萩山町3-31-2","lat":35.743978,"lon":139.468161},{"name":"東京ばんなん白光園","province":"東京都","city":"東村山市","address":"東村山市諏訪町2-26-1","lat":35.771892,"lon":139.463658},{"name":"東村山市福祉作業所","province":"東京都","city":"東村山市","address":"東村山市諏訪町1-3-10","lat":35.76549,"lon":139.466672},{"name":"東村山ソーシャルホーム","province":"東京都","city":"東村山市","address":"東村山市本町1-13-51大塚ビル104","lat":35.75433,"lon":139.466156},{"name":"緑風荘病院","province":"東京都","city":"東村山市","address":"東村山市萩山町3-31-1","lat":35.74455,"lon":139.468078},{"name":"東京白十字病院","province":"東京都","city":"東村山市","address":"東村山市諏訪町2-26-1","lat":35.771892,"lon":139.463658},{"name":"東村山市社会福祉協議会","province":"東京都","city":"東村山市","address":"東村山市野口町1-25-15東村山市地域福祉センター","lat":35.758293,"lon":139.464261},{"name":"ドーミー久米川","province":"東京都","city":"東村山市","address":"東村山市本町1-9-11","lat":35.75204,"lon":139.46751},{"name":"東村山ソーシャルホーム","province":"東京都","city":"東村山市","address":"東村山市本町1-13-51大塚ビル104","lat":35.75448,"lon":139.46622},{"name":"村山荘","province":"東京都","city":"東村山市","address":"東村山市富士見町2-7-5","lat":35.74027,"lon":139.45242},{"name":"さつき荘","province":"東京都","city":"東村山市","address":"東村山市富士見町2-8-2","lat":35.7401,"lon":139.45364},{"name":"東村山市福祉作業所","province":"東京都","city":"東村山市","address":"東村山市諏訪町1-3-10","lat":35.76547,"lon":139.46674},{"name":"ドーミー久米川２","province":"東京都","city":"東村山市","address":"東村山市本町1-9-11","lat":35.75204,"lon":139.46751},{"name":"東村山市社会福祉協議会","province":"東京都","city":"東村山市","address":"東村山市野口町1-25-15東村山市地域福祉センター","lat":35.75862,"lon":139.464},{"name":"さつき荘","province":"東京都","city":"東村山市","address":"東村山市富士見町2-8-2","lat":35.740609,"lon":139.453774},{"name":"村山荘","province":"東京都","city":"東村山市","address":"東村山市富士見町2-7-5","lat":35.740203,"lon":139.452535},{"name":"社会福祉法人東京コロニー コロニー東村山","province":"東京都","city":"東村山市","address":"東京都東村山市秋津町2丁目22-9","lat":35.76876478,"lon":139.48789499},{"name":"社会福祉法人東京コロニー トーコロ青葉ワークセンター","province":"東京都","city":"東村山市","address":"東京都東村山市青葉町2丁目39-10","lat":35.76531803,"lon":139.49069484},{"name":"社会福祉法人ネット十二月","province":"東京都","city":"東村山市","address":"東京都東村山市廻田町3丁目16-8","lat":35.76038678,"lon":139.44811263},{"name":"高齢者在宅サービスセンター白十字八国苑","province":"東京都","city":"東村山市","address":"東京都東村山市諏訪町2丁目26-1","lat":35.77189152,"lon":139.46365808},{"name":"社会福祉法人村山苑福祉事業センター","province":"東京都","city":"東村山市","address":"東京都東村山市富士見町2丁目7-5","lat":35.74020311,"lon":139.45253528},{"name":"社会福祉法人いずみライフサポートつばさ","province":"東京都","city":"東村山市","address":"東京都東村山市富士見町3丁目4-16","lat":35.74866053,"lon":139.45443753},{"name":"社会福祉法人小さい共同体就労継続支援Ｂ型飛翔クラブ","province":"東京都","city":"東村山市","address":"東京都東村山市栄町2丁目9-32","lat":35.74941934,"lon":139.47170261},{"name":"特定非営利活動法人けやきけやき第二作業所","province":"東京都","city":"東村山市","address":"東京都東村山市萩山町3丁目19-2","lat":35.74593911,"lon":139.46971405},{"name":"株式会社ウィズケアメディカル ウィズケアリハビリセンター","province":"東京都","city":"東村山市","address":"東京都東村山市久米川町3丁目1-1","lat":35.75976546,"lon":139.47353814},{"name":"社会福祉法人東京蒼生会寿デイ･サービスセンター","province":"東京都","city":"東村山市","address":"東京都東村山市富士見町2丁目1-2","lat":35.7445943,"lon":139.4540183},{"name":"特定非営利活動法人セサミ萩共同作業所セサミ萩","province":"東京都","city":"東村山市","address":"東京都東村山市萩山町2丁目2-15","lat":35.74047328,"lon":139.47715529},{"name":"かりん","province":"東京都","city":"東村山市","address":"東京都東村山市秋津町2丁目37-47","lat":35.77148394,"lon":139.48956425},{"name":"社会福祉法人ネット久米川共同作業所","province":"東京都","city":"東村山市","address":"東京都東村山市久米川町2丁目21-14","lat":35.76533442,"lon":139.47915135},{"name":"特定非営利活動法人ワーカーズコープ東村山楠の樹地域福祉事業所ふたば","province":"東京都","city":"東村山市","address":"東京都東村山市野口町1丁目15-5","lat":35.76157604,"lon":139.46296959},{"name":"さつき荘","province":"東京都","city":"東村山市","address":"東村山市富士見町2-8-2","lat":35.74011,"lon":139.45364},{"name":"東村山市社会福祉協議会","province":"東京都","city":"東村山市","address":"東村山市野口町1-25-15東村山市地域福祉センター","lat":35.75862,"lon":139.46401},{"name":"ドーミー久米川","province":"東京都","city":"東村山市","address":"東村山市本町1-9-11","lat":35.75205,"lon":139.46751},{"name":"ドーミー久米川２","province":"東京都","city":"東村山市","address":"東村山市本町1-9-11","lat":35.75205,"lon":139.46751},{"name":"ドーミー久米川","province":"東京都","city":"東村山市","address":"東村山市本町1-9-11","lat":35.751721,"lon":139.467964},{"name":"東村山市福祉作業所（平成31年４月１日より休止中）","province":"東京都","city":"東村山市","address":"東村山市諏訪町1-3-10","lat":35.76549,"lon":139.466672},{"name":"グリーン・ボイス","province":"東京都","city":"東村山市","address":"東村山市萩山町3-31-2","lat":35.743978,"lon":139.468161},{"name":"東京ばんなん白光園","province":"東京都","city":"東村山市","address":"東村山市諏訪町2-26-1","lat":35.771892,"lon":139.463658},{"name":"東村山市福祉作業所","province":"東京都","city":"東村山市","address":"東村山市諏訪町1-3-10","lat":35.76549,"lon":139.466672},{"name":"東村山ソーシャルホーム","province":"東京都","city":"東村山市","address":"東村山市本町1-13-51大塚ビル104","lat":35.75433,"lon":139.466156},{"name":"緑風荘病院","province":"東京都","city":"東村山市","address":"東村山市萩山町3-31-1","lat":35.74455,"lon":139.468078},{"name":"東京白十字病院","province":"東京都","city":"東村山市","address":"東村山市諏訪町2-26-1","lat":35.771892,"lon":139.463658},{"name":"東村山市社会福祉協議会","province":"東京都","city":"東村山市","address":"東村山市野口町1-25-15東村山市地域福祉センター","lat":35.758293,"lon":139.464261},{"name":"ドーミー久米川","province":"東京都","city":"東村山市","address":"東村山市本町1-9-11","lat":35.75204,"lon":139.46751},{"name":"東村山ソーシャルホーム","province":"東京都","city":"東村山市","address":"東村山市本町1-13-51大塚ビル104","lat":35.75448,"lon":139.46622},{"name":"村山荘","province":"東京都","city":"東村山市","address":"東村山市富士見町2-7-5","lat":35.74027,"lon":139.45242},{"name":"さつき荘","province":"東京都","city":"東村山市","address":"東村山市富士見町2-8-2","lat":35.7401,"lon":139.45364},{"name":"東村山市福祉作業所","province":"東京都","city":"東村山市","address":"東村山市諏訪町1-3-10","lat":35.76547,"lon":139.46674},{"name":"ドーミー久米川２","province":"東京都","city":"東村山市","address":"東村山市本町1-9-11","lat":35.75204,"lon":139.46751},{"name":"東村山市社会福祉協議会","province":"東京都","city":"東村山市","address":"東村山市野口町1-25-15東村山市地域福祉センター","lat":35.75862,"lon":139.464},{"name":"さつき荘","province":"東京都","city":"東村山市","address":"東村山市富士見町2-8-2","lat":35.740609,"lon":139.453774},{"name":"村山荘","province":"東京都","city":"東村山市","address":"東村山市富士見町2-7-5","lat":35.740203,"lon":139.452535},{"name":"社会福祉法人東京コロニー コロニー東村山","province":"東京都","city":"東村山市","address":"東京都東村山市秋津町2丁目22-9","lat":35.76876478,"lon":139.48789499},{"name":"社会福祉法人東京コロニー トーコロ青葉ワークセンター","province":"東京都","city":"東村山市","address":"東京都東村山市青葉町2丁目39-10","lat":35.76531803,"lon":139.49069484},{"name":"社会福祉法人ネット十二月","province":"東京都","city":"東村山市","address":"東京都東村山市廻田町3丁目16-8","lat":35.76038678,"lon":139.44811263},{"name":"高齢者在宅サービスセンター白十字八国苑","province":"東京都","city":"東村山市","address":"東京都東村山市諏訪町2丁目26-1","lat":35.77189152,"lon":139.46365808},{"name":"社会福祉法人村山苑福祉事業センター","province":"東京都","city":"東村山市","address":"東京都東村山市富士見町2丁目7-5","lat":35.74020311,"lon":139.45253528},{"name":"社会福祉法人いずみライフサポートつばさ","province":"東京都","city":"東村山市","address":"東京都東村山市富士見町3丁目4-16","lat":35.74866053,"lon":139.45443753},{"name":"社会福祉法人小さい共同体就労継続支援Ｂ型飛翔クラブ","province":"東京都","city":"東村山市","address":"東京都東村山市栄町2丁目9-32","lat":35.74941934,"lon":139.47170261},{"name":"特定非営利活動法人けやきけやき第二作業所","province":"東京都","city":"東村山市","address":"東京都東村山市萩山町3丁目19-2","lat":35.74593911,"lon":139.46971405},{"name":"株式会社ウィズケアメディカル ウィズケアリハビリセンター","province":"東京都","city":"東村山市","address":"東京都東村山市久米川町3丁目1-1","lat":35.75976546,"lon":139.47353814},{"name":"社会福祉法人東京蒼生会寿デイ･サービスセンター","province":"東京都","city":"東村山市","address":"東京都東村山市富士見町2丁目1-2","lat":35.7445943,"lon":139.4540183},{"name":"特定非営利活動法人セサミ萩共同作業所セサミ萩","province":"東京都","city":"東村山市","address":"東京都東村山市萩山町2丁目2-15","lat":35.74047328,"lon":139.47715529},{"name":"かりん","province":"東京都","city":"東村山市","address":"東京都東村山市秋津町2丁目37-47","lat":35.77148394,"lon":139.48956425},{"name":"社会福祉法人ネット久米川共同作業所","province":"東京都","city":"東村山市","address":"東京都東村山市久米川町2丁目21-14","lat":35.76533442,"lon":139.47915135},{"name":"特定非営利活動法人ワーカーズコープ東村山楠の樹地域福祉事業所ふたば","province":"東京都","city":"東村山市","address":"東京都東村山市野口町1丁目15-5","lat":35.76157604,"lon":139.46296959},{"name":"さつき荘","province":"東京都","city":"東村山市","address":"東村山市富士見町2-8-2","lat":35.74011,"lon":139.45364},{"name":"東村山市社会福祉協議会","province":"東京都","city":"東村山市","address":"東村山市野口町1-25-15東村山市地域福祉センター","lat":35.75862,"lon":139.46401},{"name":"ドーミー久米川","province":"東京都","city":"東村山市","address":"東村山市本町1-9-11","lat":35.75205,"lon":139.46751},{"name":"ドーミー久米川２","province":"東京都","city":"東村山市","address":"東村山市本町1-9-11","lat":35.75205,"lon":139.46751},{"name":"ドーミー久米川","province":"東京都","city":"東村山市","address":"東村山市本町1-9-11","lat":35.751721,"lon":139.467964},{"name":"東村山市福祉作業所（平成31年４月１日より休止中）","province":"東京都","city":"東村山市","address":"東村山市諏訪町1-3-10","lat":35.76549,"lon":139.466672},{"name":"グリーン・ボイス","province":"東京都","city":"東村山市","address":"東村山市萩山町3-31-2","lat":35.743978,"lon":139.468161},{"name":"東京ばんなん白光園","province":"東京都","city":"東村山市","address":"東村山市諏訪町2-26-1","lat":35.771892,"lon":139.463658},{"name":"東村山市福祉作業所","province":"東京都","city":"東村山市","address":"東村山市諏訪町1-3-10","lat":35.76549,"lon":139.466672},{"name":"東村山ソーシャルホーム","province":"東京都","city":"東村山市","address":"東村山市本町1-13-51大塚ビル104","lat":35.75433,"lon":139.466156},{"name":"緑風荘病院","province":"東京都","city":"東村山市","address":"東村山市萩山町3-31-1","lat":35.74455,"lon":139.468078},{"name":"東京白十字病院","province":"東京都","city":"東村山市","address":"東村山市諏訪町2-26-1","lat":35.771892,"lon":139.463658},{"name":"東村山市社会福祉協議会","province":"東京都","city":"東村山市","address":"東村山市野口町1-25-15東村山市地域福祉センター","lat":35.758293,"lon":139.464261},{"name":"ドーミー久米川","province":"東京都","city":"東村山市","address":"東村山市本町1-9-11","lat":35.75204,"lon":139.46751},{"name":"東村山ソーシャルホーム","province":"東京都","city":"東村山市","address":"東村山市本町1-13-51大塚ビル104","lat":35.75448,"lon":139.46622},{"name":"村山荘","province":"東京都","city":"東村山市","address":"東村山市富士見町2-7-5","lat":35.74027,"lon":139.45242},{"name":"さつき荘","province":"東京都","city":"東村山市","address":"東村山市富士見町2-8-2","lat":35.7401,"lon":139.45364},{"name":"東村山市福祉作業所","province":"東京都","city":"東村山市","address":"東村山市諏訪町1-3-10","lat":35.76547,"lon":139.46674},{"name":"ドーミー久米川２","province":"東京都","city":"東村山市","address":"東村山市本町1-9-11","lat":35.75204,"lon":139.46751},{"name":"東村山市社会福祉協議会","province":"東京都","city":"東村山市","address":"東村山市野口町1-25-15東村山市地域福祉センター","lat":35.75862,"lon":139.464},{"name":"さつき荘","province":"東京都","city":"東村山市","address":"東村山市富士見町2-8-2","lat":35.740609,"lon":139.453774},{"name":"村山荘","province":"東京都","city":"東村山市","address":"東村山市富士見町2-7-5","lat":35.740203,"lon":139.452535},{"name":"社会福祉法人東京コロニー コロニー東村山","province":"東京都","city":"東村山市","address":"東京都東村山市秋津町2丁目22-9","lat":35.76876478,"lon":139.48789499},{"name":"社会福祉法人東京コロニー トーコロ青葉ワークセンター","province":"東京都","city":"東村山市","address":"東京都東村山市青葉町2丁目39-10","lat":35.76531803,"lon":139.49069484},{"name":"社会福祉法人ネット十二月","province":"東京都","city":"東村山市","address":"東京都東村山市廻田町3丁目16-8","lat":35.76038678,"lon":139.44811263},{"name":"高齢者在宅サービスセンター白十字八国苑","province":"東京都","city":"東村山市","address":"東京都東村山市諏訪町2丁目26-1","lat":35.77189152,"lon":139.46365808},{"name":"社会福祉法人村山苑福祉事業センター","province":"東京都","city":"東村山市","address":"東京都東村山市富士見町2丁目7-5","lat":35.74020311,"lon":139.45253528},{"name":"社会福祉法人いずみライフサポートつばさ","province":"東京都","city":"東村山市","address":"東京都東村山市富士見町3丁目4-16","lat":35.74866053,"lon":139.45443753},{"name":"社会福祉法人小さい共同体就労継続支援Ｂ型飛翔クラブ","province":"東京都","city":"東村山市","address":"東京都東村山市栄町2丁目9-32","lat":35.74941934,"lon":139.47170261},{"name":"特定非営利活動法人けやきけやき第二作業所","province":"東京都","city":"東村山市","address":"東京都東村山市萩山町3丁目19-2","lat":35.74593911,"lon":139.46971405},{"name":"株式会社ウィズケアメディカル ウィズケアリハビリセンター","province":"東京都","city":"東村山市","address":"東京都東村山市久米川町3丁目1-1","lat":35.75976546,"lon":139.47353814},{"name":"社会福祉法人東京蒼生会寿デイ･サービスセンター","province":"東京都","city":"東村山市","address":"東京都東村山市富士見町2丁目1-2","lat":35.7445943,"lon":139.4540183},{"name":"特定非営利活動法人セサミ萩共同作業所セサミ萩","province":"東京都","city":"東村山市","address":"東京都東村山市萩山町2丁目2-15","lat":35.74047328,"lon":139.47715529},{"name":"かりん","province":"東京都","city":"東村山市","address":"東京都東村山市秋津町2丁目37-47","lat":35.77148394,"lon":139.48956425},{"name":"社会福祉法人ネット久米川共同作業所","province":"東京都","city":"東村山市","address":"東京都東村山市久米川町2丁目21-14","lat":35.76533442,"lon":139.47915135},{"name":"特定非営利活動法人ワーカーズコープ東村山楠の樹地域福祉事業所ふたば","province":"東京都","city":"東村山市","address":"東京都東村山市野口町1丁目15-5","lat":35.76157604,"lon":139.46296959},{"name":"さつき荘","province":"東京都","city":"東村山市","address":"東村山市富士見町2-8-2","lat":35.74011,"lon":139.45364},{"name":"東村山市社会福祉協議会","province":"東京都","city":"東村山市","address":"東村山市野口町1-25-15東村山市地域福祉センター","lat":35.75862,"lon":139.46401},{"name":"ドーミー久米川","province":"東京都","city":"東村山市","address":"東村山市本町1-9-11","lat":35.75205,"lon":139.46751},{"name":"ドーミー久米川２","province":"東京都","city":"東村山市","address":"東村山市本町1-9-11","lat":35.75205,"lon":139.46751},{"name":"ドーミー久米川","province":"東京都","city":"東村山市","address":"東村山市本町1-9-11","lat":35.751721,"lon":139.467964},{"name":"東村山市福祉作業所（平成31年４月１日より休止中）","province":"東京都","city":"東村山市","address":"東村山市諏訪町1-3-10","lat":35.76549,"lon":139.466672},{"name":"グリーン・ボイス","province":"東京都","city":"東村山市","address":"東村山市萩山町3-31-2","lat":35.743978,"lon":139.468161},{"name":"東京ばんなん白光園","province":"東京都","city":"東村山市","address":"東村山市諏訪町2-26-1","lat":35.771892,"lon":139.463658},{"name":"東村山市福祉作業所","province":"東京都","city":"東村山市","address":"東村山市諏訪町1-3-10","lat":35.76549,"lon":139.466672},{"name":"東村山ソーシャルホーム","province":"東京都","city":"東村山市","address":"東村山市本町1-13-51大塚ビル104","lat":35.75433,"lon":139.466156},{"name":"緑風荘病院","province":"東京都","city":"東村山市","address":"東村山市萩山町3-31-1","lat":35.74455,"lon":139.468078},{"name":"東京白十字病院","province":"東京都","city":"東村山市","address":"東村山市諏訪町2-26-1","lat":35.771892,"lon":139.463658},{"name":"東村山市社会福祉協議会","province":"東京都","city":"東村山市","address":"東村山市野口町1-25-15東村山市地域福祉センター","lat":35.758293,"lon":139.464261},{"name":"ドーミー久米川","province":"東京都","city":"東村山市","address":"東村山市本町1-9-11","lat":35.75204,"lon":139.46751},{"name":"東村山ソーシャルホーム","province":"東京都","city":"東村山市","address":"東村山市本町1-13-51大塚ビル104","lat":35.75448,"lon":139.46622},{"name":"村山荘","province":"東京都","city":"東村山市","address":"東村山市富士見町2-7-5","lat":35.74027,"lon":139.45242},{"name":"さつき荘","province":"東京都","city":"東村山市","address":"東村山市富士見町2-8-2","lat":35.7401,"lon":139.45364},{"name":"東村山市福祉作業所","province":"東京都","city":"東村山市","address":"東村山市諏訪町1-3-10","lat":35.76547,"lon":139.46674},{"name":"ドーミー久米川２","province":"東京都","city":"東村山市","address":"東村山市本町1-9-11","lat":35.75204,"lon":139.46751},{"name":"東村山市社会福祉協議会","province":"東京都","city":"東村山市","address":"東村山市野口町1-25-15東村山市地域福祉センター","lat":35.75862,"lon":139.464},{"name":"さつき荘","province":"東京都","city":"東村山市","address":"東村山市富士見町2-8-2","lat":35.740609,"lon":139.453774},{"name":"村山荘","province":"東京都","city":"東村山市","address":"東村山市富士見町2-7-5","lat":35.740203,"lon":139.452535},{"name":"社会福祉法人東京コロニー コロニー東村山","province":"東京都","city":"東村山市","address":"東京都東村山市秋津町2丁目22-9","lat":35.76876478,"lon":139.48789499},{"name":"社会福祉法人東京コロニー トーコロ青葉ワークセンター","province":"東京都","city":"東村山市","address":"東京都東村山市青葉町2丁目39-10","lat":35.76531803,"lon":139.49069484},{"name":"社会福祉法人ネット十二月","province":"東京都","city":"東村山市","address":"東京都東村山市廻田町3丁目16-8","lat":35.76038678,"lon":139.44811263},{"name":"高齢者在宅サービスセンター白十字八国苑","province":"東京都","city":"東村山市","address":"東京都東村山市諏訪町2丁目26-1","lat":35.77189152,"lon":139.46365808},{"name":"社会福祉法人村山苑福祉事業センター","province":"東京都","city":"東村山市","address":"東京都東村山市富士見町2丁目7-5","lat":35.74020311,"lon":139.45253528},{"name":"社会福祉法人いずみライフサポートつばさ","province":"東京都","city":"東村山市","address":"東京都東村山市富士見町3丁目4-16","lat":35.74866053,"lon":139.45443753},{"name":"社会福祉法人小さい共同体就労継続支援Ｂ型飛翔クラブ","province":"東京都","city":"東村山市","address":"東京都東村山市栄町2丁目9-32","lat":35.74941934,"lon":139.47170261},{"name":"特定非営利活動法人けやきけやき第二作業所","province":"東京都","city":"東村山市","address":"東京都東村山市萩山町3丁目19-2","lat":35.74593911,"lon":139.46971405},{"name":"株式会社ウィズケアメディカル ウィズケアリハビリセンター","province":"東京都","city":"東村山市","address":"東京都東村山市久米川町3丁目1-1","lat":35.75976546,"lon":139.47353814},{"name":"社会福祉法人東京蒼生会寿デイ･サービスセンター","province":"東京都","city":"東村山市","address":"東京都東村山市富士見町2丁目1-2","lat":35.7445943,"lon":139.4540183},{"name":"特定非営利活動法人セサミ萩共同作業所セサミ萩","province":"東京都","city":"東村山市","address":"東京都東村山市萩山町2丁目2-15","lat":35.74047328,"lon":139.47715529},{"name":"かりん","province":"東京都","city":"東村山市","address":"東京都東村山市秋津町2丁目37-47","lat":35.77148394,"lon":139.48956425},{"name":"社会福祉法人ネット久米川共同作業所","province":"東京都","city":"東村山市","address":"東京都東村山市久米川町2丁目21-14","lat":35.76533442,"lon":139.47915135},{"name":"特定非営利活動法人ワーカーズコープ東村山楠の樹地域福祉事業所ふたば","province":"東京都","city":"東村山市","address":"東京都東村山市野口町1丁目15-5","lat":35.76157604,"lon":139.46296959},{"name":"さつき荘","province":"東京都","city":"東村山市","address":"東村山市富士見町2-8-2","lat":35.74011,"lon":139.45364},{"name":"東村山市社会福祉協議会","province":"東京都","city":"東村山市","address":"東村山市野口町1-25-15東村山市地域福祉センター","lat":35.75862,"lon":139.46401},{"name":"ドーミー久米川","province":"東京都","city":"東村山市","address":"東村山市本町1-9-11","lat":35.75205,"lon":139.46751},{"name":"ドーミー久米川２","province":"東京都","city":"東村山市","address":"東村山市本町1-9-11","lat":35.75205,"lon":139.46751},{"name":"ドーミー久米川","province":"東京都","city":"東村山市","address":"東村山市本町1-9-11","lat":35.751721,"lon":139.467964},{"name":"東村山市福祉作業所（平成31年４月１日より休止中）","province":"東京都","city":"東村山市","address":"東村山市諏訪町1-3-10","lat":35.76549,"lon":139.466672},{"name":"グリーン・ボイス","province":"東京都","city":"東村山市","address":"東村山市萩山町3-31-2","lat":35.743978,"lon":139.468161},{"name":"東京ばんなん白光園","province":"東京都","city":"東村山市","address":"東村山市諏訪町2-26-1","lat":35.771892,"lon":139.463658},{"name":"東村山市福祉作業所","province":"東京都","city":"東村山市","address":"東村山市諏訪町1-3-10","lat":35.76549,"lon":139.466672},{"name":"東村山ソーシャルホーム","province":"東京都","city":"東村山市","address":"東村山市本町1-13-51大塚ビル104","lat":35.75433,"lon":139.466156},{"name":"緑風荘病院","province":"東京都","city":"東村山市","address":"東村山市萩山町3-31-1","lat":35.74455,"lon":139.468078},{"name":"東京白十字病院","province":"東京都","city":"東村山市","address":"東村山市諏訪町2-26-1","lat":35.771892,"lon":139.463658},{"name":"東村山市社会福祉協議会","province":"東京都","city":"東村山市","address":"東村山市野口町1-25-15東村山市地域福祉センター","lat":35.758293,"lon":139.464261},{"name":"ドーミー久米川","province":"東京都","city":"東村山市","address":"東村山市本町1-9-11","lat":35.75204,"lon":139.46751},{"name":"東村山ソーシャルホーム","province":"東京都","city":"東村山市","address":"東村山市本町1-13-51大塚ビル104","lat":35.75448,"lon":139.46622},{"name":"村山荘","province":"東京都","city":"東村山市","address":"東村山市富士見町2-7-5","lat":35.74027,"lon":139.45242},{"name":"さつき荘","province":"東京都","city":"東村山市","address":"東村山市富士見町2-8-2","lat":35.7401,"lon":139.45364},{"name":"東村山市福祉作業所","province":"東京都","city":"東村山市","address":"東村山市諏訪町1-3-10","lat":35.76547,"lon":139.46674},{"name":"ドーミー久米川２","province":"東京都","city":"東村山市","address":"東村山市本町1-9-11","lat":35.75204,"lon":139.46751},{"name":"東村山市社会福祉協議会","province":"東京都","city":"東村山市","address":"東村山市野口町1-25-15東村山市地域福祉センター","lat":35.75862,"lon":139.464},{"name":"さつき荘","province":"東京都","city":"東村山市","address":"東村山市富士見町2-8-2","lat":35.740609,"lon":139.453774},{"name":"村山荘","province":"東京都","city":"東村山市","address":"東村山市富士見町2-7-5","lat":35.740203,"lon":139.452535},{"name":"社会福祉法人東京コロニー コロニー東村山","province":"東京都","city":"東村山市","address":"東京都東村山市秋津町2丁目22-9","lat":35.76876478,"lon":139.48789499},{"name":"社会福祉法人東京コロニー トーコロ青葉ワークセンター","province":"東京都","city":"東村山市","address":"東京都東村山市青葉町2丁目39-10","lat":35.76531803,"lon":139.49069484},{"name":"社会福祉法人ネット十二月","province":"東京都","city":"東村山市","address":"東京都東村山市廻田町3丁目16-8","lat":35.76038678,"lon":139.44811263},{"name":"高齢者在宅サービスセンター白十字八国苑","province":"東京都","city":"東村山市","address":"東京都東村山市諏訪町2丁目26-1","lat":35.77189152,"lon":139.46365808},{"name":"社会福祉法人村山苑福祉事業センター","province":"東京都","city":"東村山市","address":"東京都東村山市富士見町2丁目7-5","lat":35.74020311,"lon":139.45253528},{"name":"社会福祉法人いずみライフサポートつばさ","province":"東京都","city":"東村山市","address":"東京都東村山市富士見町3丁目4-16","lat":35.74866053,"lon":139.45443753},{"name":"社会福祉法人小さい共同体就労継続支援Ｂ型飛翔クラブ","province":"東京都","city":"東村山市","address":"東京都東村山市栄町2丁目9-32","lat":35.74941934,"lon":139.47170261},{"name":"特定非営利活動法人けやきけやき第二作業所","province":"東京都","city":"東村山市","address":"東京都東村山市萩山町3丁目19-2","lat":35.74593911,"lon":139.46971405},{"name":"株式会社ウィズケアメディカル ウィズケアリハビリセンター","province":"東京都","city":"東村山市","address":"東京都東村山市久米川町3丁目1-1","lat":35.75976546,"lon":139.47353814},{"name":"社会福祉法人東京蒼生会寿デイ･サービスセンター","province":"東京都","city":"東村山市","address":"東京都東村山市富士見町2丁目1-2","lat":35.7445943,"lon":139.4540183},{"name":"特定非営利活動法人セサミ萩共同作業所セサミ萩","province":"東京都","city":"東村山市","address":"東京都東村山市萩山町2丁目2-15","lat":35.74047328,"lon":139.47715529},{"name":"かりん","province":"東京都","city":"東村山市","address":"東京都東村山市秋津町2丁目37-47","lat":35.77148394,"lon":139.48956425},{"name":"社会福祉法人ネット久米川共同作業所","province":"東京都","city":"東村山市","address":"東京都東村山市久米川町2丁目21-14","lat":35.76533442,"lon":139.47915135},{"name":"特定非営利活動法人ワーカーズコープ東村山楠の樹地域福祉事業所ふたば","province":"東京都","city":"東村山市","address":"東京都東村山市野口町1丁目15-5","lat":35.76157604,"lon":139.46296959},{"name":"さつき荘","province":"東京都","city":"東村山市","address":"東村山市富士見町2-8-2","lat":35.74011,"lon":139.45364},{"name":"東村山市社会福祉協議会","province":"東京都","city":"東村山市","address":"東村山市野口町1-25-15東村山市地域福祉センター","lat":35.75862,"lon":139.46401},{"name":"ドーミー久米川","province":"東京都","city":"東村山市","address":"東村山市本町1-9-11","lat":35.75205,"lon":139.46751},{"name":"ドーミー久米川２","province":"東京都","city":"東村山市","address":"東村山市本町1-9-11","lat":35.75205,"lon":139.46751},{"name":"ドーミー久米川","province":"東京都","city":"東村山市","address":"東村山市本町1-9-11","lat":35.751721,"lon":139.467964},{"name":"東村山市福祉作業所（平成31年４月１日より休止中）","province":"東京都","city":"東村山市","address":"東村山市諏訪町1-3-10","lat":35.76549,"lon":139.466672},{"name":"グリーン・ボイス","province":"東京都","city":"東村山市","address":"東村山市萩山町3-31-2","lat":35.743978,"lon":139.468161},{"name":"東京ばんなん白光園","province":"東京都","city":"東村山市","address":"東村山市諏訪町2-26-1","lat":35.771892,"lon":139.463658},{"name":"東村山市福祉作業所","province":"東京都","city":"東村山市","address":"東村山市諏訪町1-3-10","lat":35.76549,"lon":139.466672},{"name":"東村山ソーシャルホーム","province":"東京都","city":"東村山市","address":"東村山市本町1-13-51大塚ビル104","lat":35.75433,"lon":139.466156},{"name":"緑風荘病院","province":"東京都","city":"東村山市","address":"東村山市萩山町3-31-1","lat":35.74455,"lon":139.468078},{"name":"東京白十字病院","province":"東京都","city":"東村山市","address":"東村山市諏訪町2-26-1","lat":35.771892,"lon":139.463658},{"name":"東村山市社会福祉協議会","province":"東京都","city":"東村山市","address":"東村山市野口町1-25-15東村山市地域福祉センター","lat":35.758293,"lon":139.464261},{"name":"ドーミー久米川","province":"東京都","city":"東村山市","address":"東村山市本町1-9-11","lat":35.75204,"lon":139.46751},{"name":"東村山ソーシャルホーム","province":"東京都","city":"東村山市","address":"東村山市本町1-13-51大塚ビル104","lat":35.75448,"lon":139.46622},{"name":"村山荘","province":"東京都","city":"東村山市","address":"東村山市富士見町2-7-5","lat":35.74027,"lon":139.45242},{"name":"さつき荘","province":"東京都","city":"東村山市","address":"東村山市富士見町2-8-2","lat":35.7401,"lon":139.45364},{"name":"東村山市福祉作業所","province":"東京都","city":"東村山市","address":"東村山市諏訪町1-3-10","lat":35.76547,"lon":139.46674},{"name":"ドーミー久米川２","province":"東京都","city":"東村山市","address":"東村山市本町1-9-11","lat":35.75204,"lon":139.46751},{"name":"東村山市社会福祉協議会","province":"東京都","city":"東村山市","address":"東村山市野口町1-25-15東村山市地域福祉センター","lat":35.75862,"lon":139.464},{"name":"さつき荘","province":"東京都","city":"東村山市","address":"東村山市富士見町2-8-2","lat":35.740609,"lon":139.453774},{"name":"村山荘","province":"東京都","city":"東村山市","address":"東村山市富士見町2-7-5","lat":35.740203,"lon":139.452535},{"name":"社会福祉法人東京コロニー コロニー東村山","province":"東京都","city":"東村山市","address":"東京都東村山市秋津町2丁目22-9","lat":35.76876478,"lon":139.48789499},{"name":"社会福祉法人東京コロニー トーコロ青葉ワークセンター","province":"東京都","city":"東村山市","address":"東京都東村山市青葉町2丁目39-10","lat":35.76531803,"lon":139.49069484},{"name":"社会福祉法人ネット十二月","province":"東京都","city":"東村山市","address":"東京都東村山市廻田町3丁目16-8","lat":35.76038678,"lon":139.44811263},{"name":"高齢者在宅サービスセンター白十字八国苑","province":"東京都","city":"東村山市","address":"東京都東村山市諏訪町2丁目26-1","lat":35.77189152,"lon":139.46365808},{"name":"社会福祉法人村山苑福祉事業センター","province":"東京都","city":"東村山市","address":"東京都東村山市富士見町2丁目7-5","lat":35.74020311,"lon":139.45253528},{"name":"社会福祉法人いずみライフサポートつばさ","province":"東京都","city":"東村山市","address":"東京都東村山市富士見町3丁目4-16","lat":35.74866053,"lon":139.45443753},{"name":"社会福祉法人小さい共同体就労継続支援Ｂ型飛翔クラブ","province":"東京都","city":"東村山市","address":"東京都東村山市栄町2丁目9-32","lat":35.74941934,"lon":139.47170261},{"name":"特定非営利活動法人けやきけやき第二作業所","province":"東京都","city":"東村山市","address":"東京都東村山市萩山町3丁目19-2","lat":35.74593911,"lon":139.46971405},{"name":"株式会社ウィズケアメディカル ウィズケアリハビリセンター","province":"東京都","city":"東村山市","address":"東京都東村山市久米川町3丁目1-1","lat":35.75976546,"lon":139.47353814},{"name":"社会福祉法人東京蒼生会寿デイ･サービスセンター","province":"東京都","city":"東村山市","address":"東京都東村山市富士見町2丁目1-2","lat":35.7445943,"lon":139.4540183},{"name":"特定非営利活動法人セサミ萩共同作業所セサミ萩","province":"東京都","city":"東村山市","address":"東京都東村山市萩山町2丁目2-15","lat":35.74047328,"lon":139.47715529},{"name":"かりん","province":"東京都","city":"東村山市","address":"東京都東村山市秋津町2丁目37-47","lat":35.77148394,"lon":139.48956425},{"name":"社会福祉法人ネット久米川共同作業所","province":"東京都","city":"東村山市","address":"東京都東村山市久米川町2丁目21-14","lat":35.76533442,"lon":139.47915135},{"name":"特定非営利活動法人ワーカーズコープ東村山楠の樹地域福祉事業所ふたば","province":"東京都","city":"東村山市","address":"東京都東村山市野口町1丁目15-5","lat":35.76157604,"lon":139.46296959},{"name":"さつき荘","province":"東京都","city":"東村山市","address":"東村山市富士見町2-8-2","lat":35.74011,"lon":139.45364},{"name":"東村山市社会福祉協議会","province":"東京都","city":"東村山市","address":"東村山市野口町1-25-15東村山市地域福祉センター","lat":35.75862,"lon":139.46401},{"name":"ドーミー久米川","province":"東京都","city":"東村山市","address":"東村山市本町1-9-11","lat":35.75205,"lon":139.46751},{"name":"ドーミー久米川２","province":"東京都","city":"東村山市","address":"東村山市本町1-9-11","lat":35.75205,"lon":139.46751},{"name":"ドーミー久米川","province":"東京都","city":"東村山市","address":"東村山市本町1-9-11","lat":35.751721,"lon":139.467964},{"name":"東村山市福祉作業所（平成31年４月１日より休止中）","province":"東京都","city":"東村山市","address":"東村山市諏訪町1-3-10","lat":35.76549,"lon":139.466672},{"name":"グリーン・ボイス","province":"東京都","city":"東村山市","address":"東村山市萩山町3-31-2","lat":35.743978,"lon":139.468161},{"name":"東京ばんなん白光園","province":"東京都","city":"東村山市","address":"東村山市諏訪町2-26-1","lat":35.771892,"lon":139.463658},{"name":"東村山市福祉作業所","province":"東京都","city":"東村山市","address":"東村山市諏訪町1-3-10","lat":35.76549,"lon":139.466672},{"name":"東村山ソーシャルホーム","province":"東京都","city":"東村山市","address":"東村山市本町1-13-51大塚ビル104","lat":35.75433,"lon":139.466156},{"name":"緑風荘病院","province":"東京都","city":"東村山市","address":"東村山市萩山町3-31-1","lat":35.74455,"lon":139.468078},{"name":"東京白十字病院","province":"東京都","city":"東村山市","address":"東村山市諏訪町2-26-1","lat":35.771892,"lon":139.463658},{"name":"東村山市社会福祉協議会","province":"東京都","city":"東村山市","address":"東村山市野口町1-25-15東村山市地域福祉センター","lat":35.758293,"lon":139.464261},{"name":"ドーミー久米川","province":"東京都","city":"東村山市","address":"東村山市本町1-9-11","lat":35.75204,"lon":139.46751},{"name":"東村山ソーシャルホーム","province":"東京都","city":"東村山市","address":"東村山市本町1-13-51大塚ビル104","lat":35.75448,"lon":139.46622},{"name":"村山荘","province":"東京都","city":"東村山市","address":"東村山市富士見町2-7-5","lat":35.74027,"lon":139.45242},{"name":"さつき荘","province":"東京都","city":"東村山市","address":"東村山市富士見町2-8-2","lat":35.7401,"lon":139.45364},{"name":"東村山市福祉作業所","province":"東京都","city":"東村山市","address":"東村山市諏訪町1-3-10","lat":35.76547,"lon":139.46674},{"name":"ドーミー久米川２","province":"東京都","city":"東村山市","address":"東村山市本町1-9-11","lat":35.75204,"lon":139.46751},{"name":"東村山市社会福祉協議会","province":"東京都","city":"東村山市","address":"東村山市野口町1-25-15東村山市地域福祉センター","lat":35.75862,"lon":139.464},{"name":"さつき荘","province":"東京都","city":"東村山市","address":"東村山市富士見町2-8-2","lat":35.740609,"lon":139.453774},{"name":"村山荘","province":"東京都","city":"東村山市","address":"東村山市富士見町2-7-5","lat":35.740203,"lon":139.452535},{"name":"社会福祉法人東京コロニー コロニー東村山","province":"東京都","city":"東村山市","address":"東京都東村山市秋津町2丁目22-9","lat":35.76876478,"lon":139.48789499},{"name":"社会福祉法人東京コロニー トーコロ青葉ワークセンター","province":"東京都","city":"東村山市","address":"東京都東村山市青葉町2丁目39-10","lat":35.76531803,"lon":139.49069484},{"name":"社会福祉法人ネット十二月","province":"東京都","city":"東村山市","address":"東京都東村山市廻田町3丁目16-8","lat":35.76038678,"lon":139.44811263},{"name":"高齢者在宅サービスセンター白十字八国苑","province":"東京都","city":"東村山市","address":"東京都東村山市諏訪町2丁目26-1","lat":35.77189152,"lon":139.46365808},{"name":"社会福祉法人村山苑福祉事業センター","province":"東京都","city":"東村山市","address":"東京都東村山市富士見町2丁目7-5","lat":35.74020311,"lon":139.45253528},{"name":"社会福祉法人いずみライフサポートつばさ","province":"東京都","city":"東村山市","address":"東京都東村山市富士見町3丁目4-16","lat":35.74866053,"lon":139.45443753},{"name":"社会福祉法人小さい共同体就労継続支援Ｂ型飛翔クラブ","province":"東京都","city":"東村山市","address":"東京都東村山市栄町2丁目9-32","lat":35.74941934,"lon":139.47170261},{"name":"特定非営利活動法人けやきけやき第二作業所","province":"東京都","city":"東村山市","address":"東京都東村山市萩山町3丁目19-2","lat":35.74593911,"lon":139.46971405},{"name":"株式会社ウィズケアメディカル ウィズケアリハビリセンター","province":"東京都","city":"東村山市","address":"東京都東村山市久米川町3丁目1-1","lat":35.75976546,"lon":139.47353814},{"name":"社会福祉法人東京蒼生会寿デイ･サービスセンター","province":"東京都","city":"東村山市","address":"東京都東村山市富士見町2丁目1-2","lat":35.7445943,"lon":139.4540183},{"name":"特定非営利活動法人セサミ萩共同作業所セサミ萩","province":"東京都","city":"東村山市","address":"東京都東村山市萩山町2丁目2-15","lat":35.74047328,"lon":139.47715529},{"name":"かりん","province":"東京都","city":"東村山市","address":"東京都東村山市秋津町2丁目37-47","lat":35.77148394,"lon":139.48956425},{"name":"社会福祉法人ネット久米川共同作業所","province":"東京都","city":"東村山市","address":"東京都東村山市久米川町2丁目21-14","lat":35.76533442,"lon":139.47915135},{"name":"特定非営利活動法人ワーカーズコープ東村山楠の樹地域福祉事業所ふたば","province":"東京都","city":"東村山市","address":"東京都東村山市野口町1丁目15-5","lat":35.76157604,"lon":139.46296959},{"name":"さつき荘","province":"東京都","city":"東村山市","address":"東村山市富士見町2-8-2","lat":35.74011,"lon":139.45364},{"name":"東村山市社会福祉協議会","province":"東京都","city":"東村山市","address":"東村山市野口町1-25-15東村山市地域福祉センター","lat":35.75862,"lon":139.46401},{"name":"ドーミー久米川","province":"東京都","city":"東村山市","address":"東村山市本町1-9-11","lat":35.75205,"lon":139.46751},{"name":"ドーミー久米川２","province":"東京都","city":"東村山市","address":"東村山市本町1-9-11","lat":35.75205,"lon":139.46751},{"name":"ドーミー久米川","province":"東京都","city":"東村山市","address":"東村山市本町1-9-11","lat":35.751721,"lon":139.467964},{"name":"東村山市福祉作業所（平成31年４月１日より休止中）","province":"東京都","city":"東村山市","address":"東村山市諏訪町1-3-10","lat":35.76549,"lon":139.466672},{"name":"グリーン・ボイス","province":"東京都","city":"東村山市","address":"東村山市萩山町3-31-2","lat":35.743978,"lon":139.468161},{"name":"東京ばんなん白光園","province":"東京都","city":"東村山市","address":"東村山市諏訪町2-26-1","lat":35.771892,"lon":139.463658},{"name":"東村山市福祉作業所","province":"東京都","city":"東村山市","address":"東村山市諏訪町1-3-10","lat":35.76549,"lon":139.466672},{"name":"東村山ソーシャルホーム","province":"東京都","city":"東村山市","address":"東村山市本町1-13-51大塚ビル104","lat":35.75433,"lon":139.466156},{"name":"緑風荘病院","province":"東京都","city":"東村山市","address":"東村山市萩山町3-31-1","lat":35.74455,"lon":139.468078},{"name":"東京白十字病院","province":"東京都","city":"東村山市","address":"東村山市諏訪町2-26-1","lat":35.771892,"lon":139.463658},{"name":"東村山市社会福祉協議会","province":"東京都","city":"東村山市","address":"東村山市野口町1-25-15東村山市地域福祉センター","lat":35.758293,"lon":139.464261},{"name":"ドーミー久米川","province":"東京都","city":"東村山市","address":"東村山市本町1-9-11","lat":35.75204,"lon":139.46751},{"name":"東村山ソーシャルホーム","province":"東京都","city":"東村山市","address":"東村山市本町1-13-51大塚ビル104","lat":35.75448,"lon":139.46622},{"name":"村山荘","province":"東京都","city":"東村山市","address":"東村山市富士見町2-7-5","lat":35.74027,"lon":139.45242},{"name":"さつき荘","province":"東京都","city":"東村山市","address":"東村山市富士見町2-8-2","lat":35.7401,"lon":139.45364},{"name":"東村山市福祉作業所","province":"東京都","city":"東村山市","address":"東村山市諏訪町1-3-10","lat":35.76547,"lon":139.46674},{"name":"ドーミー久米川２","province":"東京都","city":"東村山市","address":"東村山市本町1-9-11","lat":35.75204,"lon":139.46751},{"name":"東村山市社会福祉協議会","province":"東京都","city":"東村山市","address":"東村山市野口町1-25-15東村山市地域福祉センター","lat":35.75862,"lon":139.464},{"name":"さつき荘","province":"東京都","city":"東村山市","address":"東村山市富士見町2-8-2","lat":35.740609,"lon":139.453774},{"name":"村山荘","province":"東京都","city":"東村山市","address":"東村山市富士見町2-7-5","lat":35.740203,"lon":139.452535},{"name":"社会福祉法人東京コロニー コロニー東村山","province":"東京都","city":"東村山市","address":"東京都東村山市秋津町2丁目22-9","lat":35.76876478,"lon":139.48789499},{"name":"社会福祉法人東京コロニー トーコロ青葉ワークセンター","province":"東京都","city":"東村山市","address":"東京都東村山市青葉町2丁目39-10","lat":35.76531803,"lon":139.49069484},{"name":"社会福祉法人ネット十二月","province":"東京都","city":"東村山市","address":"東京都東村山市廻田町3丁目16-8","lat":35.76038678,"lon":139.44811263},{"name":"高齢者在宅サービスセンター白十字八国苑","province":"東京都","city":"東村山市","address":"東京都東村山市諏訪町2丁目26-1","lat":35.77189152,"lon":139.46365808},{"name":"社会福祉法人村山苑福祉事業センター","province":"東京都","city":"東村山市","address":"東京都東村山市富士見町2丁目7-5","lat":35.74020311,"lon":139.45253528},{"name":"社会福祉法人いずみライフサポートつばさ","province":"東京都","city":"東村山市","address":"東京都東村山市富士見町3丁目4-16","lat":35.74866053,"lon":139.45443753},{"name":"社会福祉法人小さい共同体就労継続支援Ｂ型飛翔クラブ","province":"東京都","city":"東村山市","address":"東京都東村山市栄町2丁目9-32","lat":35.74941934,"lon":139.47170261},{"name":"特定非営利活動法人けやきけやき第二作業所","province":"東京都","city":"東村山市","address":"東京都東村山市萩山町3丁目19-2","lat":35.74593911,"lon":139.46971405},{"name":"株式会社ウィズケアメディカル ウィズケアリハビリセンター","province":"東京都","city":"東村山市","address":"東京都東村山市久米川町3丁目1-1","lat":35.75976546,"lon":139.47353814},{"name":"社会福祉法人東京蒼生会寿デイ･サービスセンター","province":"東京都","city":"東村山市","address":"東京都東村山市富士見町2丁目1-2","lat":35.7445943,"lon":139.4540183},{"name":"特定非営利活動法人セサミ萩共同作業所セサミ萩","province":"東京都","city":"東村山市","address":"東京都東村山市萩山町2丁目2-15","lat":35.74047328,"lon":139.47715529},{"name":"かりん","province":"東京都","city":"東村山市","address":"東京都東村山市秋津町2丁目37-47","lat":35.77148394,"lon":139.48956425},{"name":"社会福祉法人ネット久米川共同作業所","province":"東京都","city":"東村山市","address":"東京都東村山市久米川町2丁目21-14","lat":35.76533442,"lon":139.47915135},{"name":"特定非営利活動法人ワーカーズコープ東村山楠の樹地域福祉事業所ふたば","province":"東京都","city":"東村山市","address":"東京都東村山市野口町1丁目15-5","lat":35.76157604,"lon":139.46296959},{"name":"さつき荘","province":"東京都","city":"東村山市","address":"東村山市富士見町2-8-2","lat":35.74011,"lon":139.45364},{"name":"東村山市社会福祉協議会","province":"東京都","city":"東村山市","address":"東村山市野口町1-25-15東村山市地域福祉センター","lat":35.75862,"lon":139.46401},{"name":"ドーミー久米川","province":"東京都","city":"東村山市","address":"東村山市本町1-9-11","lat":35.75205,"lon":139.46751},{"name":"ドーミー久米川２","province":"東京都","city":"東村山市","address":"東村山市本町1-9-11","lat":35.75205,"lon":139.46751},{"name":"ドーミー久米川","province":"東京都","city":"東村山市","address":"東村山市本町1-9-11","lat":35.751721,"lon":139.467964},{"name":"東村山市福祉作業所（平成31年４月１日より休止中）","province":"東京都","city":"東村山市","address":"東村山市諏訪町1-3-10","lat":35.76549,"lon":139.466672},{"name":"グリーン・ボイス","province":"東京都","city":"東村山市","address":"東村山市萩山町3-31-2","lat":35.743978,"lon":139.468161},{"name":"東京ばんなん白光園","province":"東京都","city":"東村山市","address":"東村山市諏訪町2-26-1","lat":35.771892,"lon":139.463658},{"name":"東村山市福祉作業所","province":"東京都","city":"東村山市","address":"東村山市諏訪町1-3-10","lat":35.76549,"lon":139.466672},{"name":"東村山ソーシャルホーム","province":"東京都","city":"東村山市","address":"東村山市本町1-13-51大塚ビル104","lat":35.75433,"lon":139.466156},{"name":"緑風荘病院","province":"東京都","city":"東村山市","address":"東村山市萩山町3-31-1","lat":35.74455,"lon":139.468078},{"name":"東京白十字病院","province":"東京都","city":"東村山市","address":"東村山市諏訪町2-26-1","lat":35.771892,"lon":139.463658},{"name":"東村山市社会福祉協議会","province":"東京都","city":"東村山市","address":"東村山市野口町1-25-15東村山市地域福祉センター","lat":35.758293,"lon":139.464261},{"name":"ドーミー久米川","province":"東京都","city":"東村山市","address":"東村山市本町1-9-11","lat":35.75204,"lon":139.46751},{"name":"東村山ソーシャルホーム","province":"東京都","city":"東村山市","address":"東村山市本町1-13-51大塚ビル104","lat":35.75448,"lon":139.46622},{"name":"村山荘","province":"東京都","city":"東村山市","address":"東村山市富士見町2-7-5","lat":35.74027,"lon":139.45242},{"name":"さつき荘","province":"東京都","city":"東村山市","address":"東村山市富士見町2-8-2","lat":35.7401,"lon":139.45364},{"name":"東村山市福祉作業所","province":"東京都","city":"東村山市","address":"東村山市諏訪町1-3-10","lat":35.76547,"lon":139.46674},{"name":"ドーミー久米川２","province":"東京都","city":"東村山市","address":"東村山市本町1-9-11","lat":35.75204,"lon":139.46751},{"name":"東村山市社会福祉協議会","province":"東京都","city":"東村山市","address":"東村山市野口町1-25-15東村山市地域福祉センター","lat":35.75862,"lon":139.464},{"name":"さつき荘","province":"東京都","city":"東村山市","address":"東村山市富士見町2-8-2","lat":35.740609,"lon":139.453774},{"name":"村山荘","province":"東京都","city":"東村山市","address":"東村山市富士見町2-7-5","lat":35.740203,"lon":139.452535},{"name":"社会福祉法人東京コロニー コロニー東村山","province":"東京都","city":"東村山市","address":"東京都東村山市秋津町2丁目22-9","lat":35.76876478,"lon":139.48789499},{"name":"社会福祉法人東京コロニー トーコロ青葉ワークセンター","province":"東京都","city":"東村山市","address":"東京都東村山市青葉町2丁目39-10","lat":35.76531803,"lon":139.49069484},{"name":"社会福祉法人ネット十二月","province":"東京都","city":"東村山市","address":"東京都東村山市廻田町3丁目16-8","lat":35.76038678,"lon":139.44811263},{"name":"高齢者在宅サービスセンター白十字八国苑","province":"東京都","city":"東村山市","address":"東京都東村山市諏訪町2丁目26-1","lat":35.77189152,"lon":139.46365808},{"name":"社会福祉法人村山苑福祉事業センター","province":"東京都","city":"東村山市","address":"東京都東村山市富士見町2丁目7-5","lat":35.74020311,"lon":139.45253528},{"name":"社会福祉法人いずみライフサポートつばさ","province":"東京都","city":"東村山市","address":"東京都東村山市富士見町3丁目4-16","lat":35.74866053,"lon":139.45443753},{"name":"社会福祉法人小さい共同体就労継続支援Ｂ型飛翔クラブ","province":"東京都","city":"東村山市","address":"東京都東村山市栄町2丁目9-32","lat":35.74941934,"lon":139.47170261},{"name":"特定非営利活動法人けやきけやき第二作業所","province":"東京都","city":"東村山市","address":"東京都東村山市萩山町3丁目19-2","lat":35.74593911,"lon":139.46971405},{"name":"株式会社ウィズケアメディカル ウィズケアリハビリセンター","province":"東京都","city":"東村山市","address":"東京都東村山市久米川町3丁目1-1","lat":35.75976546,"lon":139.47353814},{"name":"社会福祉法人東京蒼生会寿デイ･サービスセンター","province":"東京都","city":"東村山市","address":"東京都東村山市富士見町2丁目1-2","lat":35.7445943,"lon":139.4540183},{"name":"特定非営利活動法人セサミ萩共同作業所セサミ萩","province":"東京都","city":"東村山市","address":"東京都東村山市萩山町2丁目2-15","lat":35.74047328,"lon":139.47715529},{"name":"かりん","province":"東京都","city":"東村山市","address":"東京都東村山市秋津町2丁目37-47","lat":35.77148394,"lon":139.48956425},{"name":"社会福祉法人ネット久米川共同作業所","province":"東京都","city":"東村山市","address":"東京都東村山市久米川町2丁目21-14","lat":35.76533442,"lon":139.47915135},{"name":"特定非営利活動法人ワーカーズコープ東村山楠の樹地域福祉事業所ふたば","province":"東京都","city":"東村山市","address":"東京都東村山市野口町1丁目15-5","lat":35.76157604,"lon":139.46296959},{"name":"さつき荘","province":"東京都","city":"東村山市","address":"東村山市富士見町2-8-2","lat":35.74011,"lon":139.45364},{"name":"東村山市社会福祉協議会","province":"東京都","city":"東村山市","address":"東村山市野口町1-25-15東村山市地域福祉センター","lat":35.75862,"lon":139.46401},{"name":"ドーミー久米川","province":"東京都","city":"東村山市","address":"東村山市本町1-9-11","lat":35.75205,"lon":139.46751},{"name":"ドーミー久米川２","province":"東京都","city":"東村山市","address":"東村山市本町1-9-11","lat":35.75205,"lon":139.46751},{"name":"ドーミー久米川","province":"東京都","city":"東村山市","address":"東村山市本町1-9-11","lat":35.751721,"lon":139.467964},{"name":"東村山市福祉作業所（平成31年４月１日より休止中）","province":"東京都","city":"東村山市","address":"東村山市諏訪町1-3-10","lat":35.76549,"lon":139.466672},{"name":"グリーン・ボイス","province":"東京都","city":"東村山市","address":"東村山市萩山町3-31-2","lat":35.743978,"lon":139.468161},{"name":"東京ばんなん白光園","province":"東京都","city":"東村山市","address":"東村山市諏訪町2-26-1","lat":35.771892,"lon":139.463658},{"name":"東村山市福祉作業所","province":"東京都","city":"東村山市","address":"東村山市諏訪町1-3-10","lat":35.76549,"lon":139.466672},{"name":"東村山ソーシャルホーム","province":"東京都","city":"東村山市","address":"東村山市本町1-13-51大塚ビル104","lat":35.75433,"lon":139.466156},{"name":"緑風荘病院","province":"東京都","city":"東村山市","address":"東村山市萩山町3-31-1","lat":35.74455,"lon":139.468078},{"name":"東京白十字病院","province":"東京都","city":"東村山市","address":"東村山市諏訪町2-26-1","lat":35.771892,"lon":139.463658},{"name":"東村山市社会福祉協議会","province":"東京都","city":"東村山市","address":"東村山市野口町1-25-15東村山市地域福祉センター","lat":35.758293,"lon":139.464261},{"name":"ドーミー久米川","province":"東京都","city":"東村山市","address":"東村山市本町1-9-11","lat":35.75204,"lon":139.46751},{"name":"東村山ソーシャルホーム","province":"東京都","city":"東村山市","address":"東村山市本町1-13-51大塚ビル104","lat":35.75448,"lon":139.46622},{"name":"村山荘","province":"東京都","city":"東村山市","address":"東村山市富士見町2-7-5","lat":35.74027,"lon":139.45242},{"name":"さつき荘","province":"東京都","city":"東村山市","address":"東村山市富士見町2-8-2","lat":35.7401,"lon":139.45364},{"name":"東村山市福祉作業所","province":"東京都","city":"東村山市","address":"東村山市諏訪町1-3-10","lat":35.76547,"lon":139.46674},{"name":"ドーミー久米川２","province":"東京都","city":"東村山市","address":"東村山市本町1-9-11","lat":35.75204,"lon":139.46751},{"name":"東村山市社会福祉協議会","province":"東京都","city":"東村山市","address":"東村山市野口町1-25-15東村山市地域福祉センター","lat":35.75862,"lon":139.464},{"name":"さつき荘","province":"東京都","city":"東村山市","address":"東村山市富士見町2-8-2","lat":35.740609,"lon":139.453774},{"name":"村山荘","province":"東京都","city":"東村山市","address":"東村山市富士見町2-7-5","lat":35.740203,"lon":139.452535},{"name":"社会福祉法人東京コロニー コロニー東村山","province":"東京都","city":"東村山市","address":"東京都東村山市秋津町2丁目22-9","lat":35.76876478,"lon":139.48789499},{"name":"社会福祉法人東京コロニー トーコロ青葉ワークセンター","province":"東京都","city":"東村山市","address":"東京都東村山市青葉町2丁目39-10","lat":35.76531803,"lon":139.49069484},{"name":"社会福祉法人ネット十二月","province":"東京都","city":"東村山市","address":"東京都東村山市廻田町3丁目16-8","lat":35.76038678,"lon":139.44811263},{"name":"高齢者在宅サービスセンター白十字八国苑","province":"東京都","city":"東村山市","address":"東京都東村山市諏訪町2丁目26-1","lat":35.77189152,"lon":139.46365808},{"name":"社会福祉法人村山苑福祉事業センター","province":"東京都","city":"東村山市","address":"東京都東村山市富士見町2丁目7-5","lat":35.74020311,"lon":139.45253528},{"name":"社会福祉法人いずみライフサポートつばさ","province":"東京都","city":"東村山市","address":"東京都東村山市富士見町3丁目4-16","lat":35.74866053,"lon":139.45443753},{"name":"社会福祉法人小さい共同体就労継続支援Ｂ型飛翔クラブ","province":"東京都","city":"東村山市","address":"東京都東村山市栄町2丁目9-32","lat":35.74941934,"lon":139.47170261},{"name":"特定非営利活動法人けやきけやき第二作業所","province":"東京都","city":"東村山市","address":"東京都東村山市萩山町3丁目19-2","lat":35.74593911,"lon":139.46971405},{"name":"株式会社ウィズケアメディカル ウィズケアリハビリセンター","province":"東京都","city":"東村山市","address":"東京都東村山市久米川町3丁目1-1","lat":35.75976546,"lon":139.47353814},{"name":"社会福祉法人東京蒼生会寿デイ･サービスセンター","province":"東京都","city":"東村山市","address":"東京都東村山市富士見町2丁目1-2","lat":35.7445943,"lon":139.4540183},{"name":"特定非営利活動法人セサミ萩共同作業所セサミ萩","province":"東京都","city":"東村山市","address":"東京都東村山市萩山町2丁目2-15","lat":35.74047328,"lon":139.47715529},{"name":"かりん","province":"東京都","city":"東村山市","address":"東京都東村山市秋津町2丁目37-47","lat":35.77148394,"lon":139.48956425},{"name":"社会福祉法人ネット久米川共同作業所","province":"東京都","city":"東村山市","address":"東京都東村山市久米川町2丁目21-14","lat":35.76533442,"lon":139.47915135},{"name":"特定非営利活動法人ワーカーズコープ東村山楠の樹地域福祉事業所ふたば","province":"東京都","city":"東村山市","address":"東京都東村山市野口町1丁目15-5","lat":35.76157604,"lon":139.46296959},{"name":"さつき荘","province":"東京都","city":"東村山市","address":"東村山市富士見町2-8-2","lat":35.74011,"lon":139.45364},{"name":"東村山市社会福祉協議会","province":"東京都","city":"東村山市","address":"東村山市野口町1-25-15東村山市地域福祉センター","lat":35.75862,"lon":139.46401},{"name":"ドーミー久米川","province":"東京都","city":"東村山市","address":"東村山市本町1-9-11","lat":35.75205,"lon":139.46751},{"name":"ドーミー久米川２","province":"東京都","city":"東村山市","address":"東村山市本町1-9-11","lat":35.75205,"lon":139.46751},{"name":"ドーミー久米川","province":"東京都","city":"東村山市","address":"東村山市本町1-9-11","lat":35.751721,"lon":139.467964},{"name":"東村山市福祉作業所（平成31年４月１日より休止中）","province":"東京都","city":"東村山市","address":"東村山市諏訪町1-3-10","lat":35.76549,"lon":139.466672},{"name":"グリーン・ボイス","province":"東京都","city":"東村山市","address":"東村山市萩山町3-31-2","lat":35.743978,"lon":139.468161},{"name":"東京ばんなん白光園","province":"東京都","city":"東村山市","address":"東村山市諏訪町2-26-1","lat":35.771892,"lon":139.463658},{"name":"東村山市福祉作業所","province":"東京都","city":"東村山市","address":"東村山市諏訪町1-3-10","lat":35.76549,"lon":139.466672},{"name":"東村山ソーシャルホーム","province":"東京都","city":"東村山市","address":"東村山市本町1-13-51大塚ビル104","lat":35.75433,"lon":139.466156},{"name":"緑風荘病院","province":"東京都","city":"東村山市","address":"東村山市萩山町3-31-1","lat":35.74455,"lon":139.468078},{"name":"東京白十字病院","province":"東京都","city":"東村山市","address":"東村山市諏訪町2-26-1","lat":35.771892,"lon":139.463658},{"name":"東村山市社会福祉協議会","province":"東京都","city":"東村山市","address":"東村山市野口町1-25-15東村山市地域福祉センター","lat":35.758293,"lon":139.464261},{"name":"ドーミー久米川","province":"東京都","city":"東村山市","address":"東村山市本町1-9-11","lat":35.75204,"lon":139.46751},{"name":"東村山ソーシャルホーム","province":"東京都","city":"東村山市","address":"東村山市本町1-13-51大塚ビル104","lat":35.75448,"lon":139.46622},{"name":"村山荘","province":"東京都","city":"東村山市","address":"東村山市富士見町2-7-5","lat":35.74027,"lon":139.45242},{"name":"さつき荘","province":"東京都","city":"東村山市","address":"東村山市富士見町2-8-2","lat":35.7401,"lon":139.45364},{"name":"東村山市福祉作業所","province":"東京都","city":"東村山市","address":"東村山市諏訪町1-3-10","lat":35.76547,"lon":139.46674},{"name":"ドーミー久米川２","province":"東京都","city":"東村山市","address":"東村山市本町1-9-11","lat":35.75204,"lon":139.46751},{"name":"東村山市社会福祉協議会","province":"東京都","city":"東村山市","address":"東村山市野口町1-25-15東村山市地域福祉センター","lat":35.75862,"lon":139.464},{"name":"さつき荘","province":"東京都","city":"東村山市","address":"東村山市富士見町2-8-2","lat":35.740609,"lon":139.453774},{"name":"村山荘","province":"東京都","city":"東村山市","address":"東村山市富士見町2-7-5","lat":35.740203,"lon":139.452535},{"name":"社会福祉法人東京コロニー コロニー東村山","province":"東京都","city":"東村山市","address":"東京都東村山市秋津町2丁目22-9","lat":35.76876478,"lon":139.48789499},{"name":"社会福祉法人東京コロニー トーコロ青葉ワークセンター","province":"東京都","city":"東村山市","address":"東京都東村山市青葉町2丁目39-10","lat":35.76531803,"lon":139.49069484},{"name":"社会福祉法人ネット十二月","province":"東京都","city":"東村山市","address":"東京都東村山市廻田町3丁目16-8","lat":35.76038678,"lon":139.44811263},{"name":"高齢者在宅サービスセンター白十字八国苑","province":"東京都","city":"東村山市","address":"東京都東村山市諏訪町2丁目26-1","lat":35.77189152,"lon":139.46365808},{"name":"社会福祉法人村山苑福祉事業センター","province":"東京都","city":"東村山市","address":"東京都東村山市富士見町2丁目7-5","lat":35.74020311,"lon":139.45253528},{"name":"社会福祉法人いずみライフサポートつばさ","province":"東京都","city":"東村山市","address":"東京都東村山市富士見町3丁目4-16","lat":35.74866053,"lon":139.45443753},{"name":"社会福祉法人小さい共同体就労継続支援Ｂ型飛翔クラブ","province":"東京都","city":"東村山市","address":"東京都東村山市栄町2丁目9-32","lat":35.74941934,"lon":139.47170261},{"name":"特定非営利活動法人けやきけやき第二作業所","province":"東京都","city":"東村山市","address":"東京都東村山市萩山町3丁目19-2","lat":35.74593911,"lon":139.46971405},{"name":"株式会社ウィズケアメディカル ウィズケアリハビリセンター","province":"東京都","city":"東村山市","address":"東京都東村山市久米川町3丁目1-1","lat":35.75976546,"lon":139.47353814},{"name":"社会福祉法人東京蒼生会寿デイ･サービスセンター","province":"東京都","city":"東村山市","address":"東京都東村山市富士見町2丁目1-2","lat":35.7445943,"lon":139.4540183},{"name":"特定非営利活動法人セサミ萩共同作業所セサミ萩","province":"東京都","city":"東村山市","address":"東京都東村山市萩山町2丁目2-15","lat":35.74047328,"lon":139.47715529},{"name":"かりん","province":"東京都","city":"東村山市","address":"東京都東村山市秋津町2丁目37-47","lat":35.77148394,"lon":139.48956425},{"name":"社会福祉法人ネット久米川共同作業所","province":"東京都","city":"東村山市","address":"東京都東村山市久米川町2丁目21-14","lat":35.76533442,"lon":139.47915135},{"name":"特定非営利活動法人ワーカーズコープ東村山楠の樹地域福祉事業所ふたば","province":"東京都","city":"東村山市","address":"東京都東村山市野口町1丁目15-5","lat":35.76157604,"lon":139.46296959},{"name":"さつき荘","province":"東京都","city":"東村山市","address":"東村山市富士見町2-8-2","lat":35.74011,"lon":139.45364},{"name":"東村山市社会福祉協議会","province":"東京都","city":"東村山市","address":"東村山市野口町1-25-15東村山市地域福祉センター","lat":35.75862,"lon":139.46401},{"name":"ドーミー久米川","province":"東京都","city":"東村山市","address":"東村山市本町1-9-11","lat":35.75205,"lon":139.46751},{"name":"ドーミー久米川２","province":"東京都","city":"東村山市","address":"東村山市本町1-9-11","lat":35.75205,"lon":139.46751},{"name":"ドーミー久米川","province":"東京都","city":"東村山市","address":"東村山市本町1-9-11","lat":35.751721,"lon":139.467964},{"name":"東村山市福祉作業所（平成31年４月１日より休止中）","province":"東京都","city":"東村山市","address":"東村山市諏訪町1-3-10","lat":35.76549,"lon":139.466672},{"name":"グリーン・ボイス","province":"東京都","city":"東村山市","address":"東村山市萩山町3-31-2","lat":35.743978,"lon":139.468161},{"name":"東京ばんなん白光園","province":"東京都","city":"東村山市","address":"東村山市諏訪町2-26-1","lat":35.771892,"lon":139.463658},{"name":"東村山市福祉作業所","province":"東京都","city":"東村山市","address":"東村山市諏訪町1-3-10","lat":35.76549,"lon":139.466672},{"name":"東村山ソーシャルホーム","province":"東京都","city":"東村山市","address":"東村山市本町1-13-51大塚ビル104","lat":35.75433,"lon":139.466156},{"name":"緑風荘病院","province":"東京都","city":"東村山市","address":"東村山市萩山町3-31-1","lat":35.74455,"lon":139.468078},{"name":"東京白十字病院","province":"東京都","city":"東村山市","address":"東村山市諏訪町2-26-1","lat":35.771892,"lon":139.463658},{"name":"東村山市社会福祉協議会","province":"東京都","city":"東村山市","address":"東村山市野口町1-25-15東村山市地域福祉センター","lat":35.758293,"lon":139.464261},{"name":"ドーミー久米川","province":"東京都","city":"東村山市","address":"東村山市本町1-9-11","lat":35.75204,"lon":139.46751},{"name":"東村山ソーシャルホーム","province":"東京都","city":"東村山市","address":"東村山市本町1-13-51大塚ビル104","lat":35.75448,"lon":139.46622},{"name":"村山荘","province":"東京都","city":"東村山市","address":"東村山市富士見町2-7-5","lat":35.74027,"lon":139.45242},{"name":"さつき荘","province":"東京都","city":"東村山市","address":"東村山市富士見町2-8-2","lat":35.7401,"lon":139.45364},{"name":"東村山市福祉作業所","province":"東京都","city":"東村山市","address":"東村山市諏訪町1-3-10","lat":35.76547,"lon":139.46674},{"name":"ドーミー久米川２","province":"東京都","city":"東村山市","address":"東村山市本町1-9-11","lat":35.75204,"lon":139.46751},{"name":"東村山市社会福祉協議会","province":"東京都","city":"東村山市","address":"東村山市野口町1-25-15東村山市地域福祉センター","lat":35.75862,"lon":139.464},{"name":"さつき荘","province":"東京都","city":"東村山市","address":"東村山市富士見町2-8-2","lat":35.740609,"lon":139.453774},{"name":"村山荘","province":"東京都","city":"東村山市","address":"東村山市富士見町2-7-5","lat":35.740203,"lon":139.452535},{"name":"社会福祉法人東京コロニー コロニー東村山","province":"東京都","city":"東村山市","address":"東京都東村山市秋津町2丁目22-9","lat":35.76876478,"lon":139.48789499},{"name":"社会福祉法人東京コロニー トーコロ青葉ワークセンター","province":"東京都","city":"東村山市","address":"東京都東村山市青葉町2丁目39-10","lat":35.76531803,"lon":139.49069484},{"name":"社会福祉法人ネット十二月","province":"東京都","city":"東村山市","address":"東京都東村山市廻田町3丁目16-8","lat":35.76038678,"lon":139.44811263},{"name":"高齢者在宅サービスセンター白十字八国苑","province":"東京都","city":"東村山市","address":"東京都東村山市諏訪町2丁目26-1","lat":35.77189152,"lon":139.46365808},{"name":"社会福祉法人村山苑福祉事業センター","province":"東京都","city":"東村山市","address":"東京都東村山市富士見町2丁目7-5","lat":35.74020311,"lon":139.45253528},{"name":"社会福祉法人いずみライフサポートつばさ","province":"東京都","city":"東村山市","address":"東京都東村山市富士見町3丁目4-16","lat":35.74866053,"lon":139.45443753},{"name":"社会福祉法人小さい共同体就労継続支援Ｂ型飛翔クラブ","province":"東京都","city":"東村山市","address":"東京都東村山市栄町2丁目9-32","lat":35.74941934,"lon":139.47170261},{"name":"特定非営利活動法人けやきけやき第二作業所","province":"東京都","city":"東村山市","address":"東京都東村山市萩山町3丁目19-2","lat":35.74593911,"lon":139.46971405},{"name":"株式会社ウィズケアメディカル ウィズケアリハビリセンター","province":"東京都","city":"東村山市","address":"東京都東村山市久米川町3丁目1-1","lat":35.75976546,"lon":139.47353814},{"name":"社会福祉法人東京蒼生会寿デイ･サービスセンター","province":"東京都","city":"東村山市","address":"東京都東村山市富士見町2丁目1-2","lat":35.7445943,"lon":139.4540183},{"name":"特定非営利活動法人セサミ萩共同作業所セサミ萩","province":"東京都","city":"東村山市","address":"東京都東村山市萩山町2丁目2-15","lat":35.74047328,"lon":139.47715529},{"name":"かりん","province":"東京都","city":"東村山市","address":"東京都東村山市秋津町2丁目37-47","lat":35.77148394,"lon":139.48956425},{"name":"社会福祉法人ネット久米川共同作業所","province":"東京都","city":"東村山市","address":"東京都東村山市久米川町2丁目21-14","lat":35.76533442,"lon":139.47915135},{"name":"特定非営利活動法人ワーカーズコープ東村山楠の樹地域福祉事業所ふたば","province":"東京都","city":"東村山市","address":"東京都東村山市野口町1丁目15-5","lat":35.76157604,"lon":139.46296959},{"name":"さつき荘","province":"東京都","city":"東村山市","address":"東村山市富士見町2-8-2","lat":35.74011,"lon":139.45364},{"name":"東村山市社会福祉協議会","province":"東京都","city":"東村山市","address":"東村山市野口町1-25-15東村山市地域福祉センター","lat":35.75862,"lon":139.46401},{"name":"ドーミー久米川","province":"東京都","city":"東村山市","address":"東村山市本町1-9-11","lat":35.75205,"lon":139.46751},{"name":"ドーミー久米川２","province":"東京都","city":"東村山市","address":"東村山市本町1-9-11","lat":35.75205,"lon":139.46751},{"name":"ドーミー久米川","province":"東京都","city":"東村山市","address":"東村山市本町1-9-11","lat":35.751721,"lon":139.467964},{"name":"東村山市福祉作業所（平成31年４月１日より休止中）","province":"東京都","city":"東村山市","address":"東村山市諏訪町1-3-10","lat":35.76549,"lon":139.466672},{"name":"グリーン・ボイス","province":"東京都","city":"東村山市","address":"東村山市萩山町3-31-2","lat":35.743978,"lon":139.468161},{"name":"東京ばんなん白光園","province":"東京都","city":"東村山市","address":"東村山市諏訪町2-26-1","lat":35.771892,"lon":139.463658},{"name":"東村山市福祉作業所","province":"東京都","city":"東村山市","address":"東村山市諏訪町1-3-10","lat":35.76549,"lon":139.466672},{"name":"東村山ソーシャルホーム","province":"東京都","city":"東村山市","address":"東村山市本町1-13-51大塚ビル104","lat":35.75433,"lon":139.466156},{"name":"緑風荘病院","province":"東京都","city":"東村山市","address":"東村山市萩山町3-31-1","lat":35.74455,"lon":139.468078},{"name":"東京白十字病院","province":"東京都","city":"東村山市","address":"東村山市諏訪町2-26-1","lat":35.771892,"lon":139.463658},{"name":"東村山市社会福祉協議会","province":"東京都","city":"東村山市","address":"東村山市野口町1-25-15東村山市地域福祉センター","lat":35.758293,"lon":139.464261},{"name":"ドーミー久米川","province":"東京都","city":"東村山市","address":"東村山市本町1-9-11","lat":35.75204,"lon":139.46751},{"name":"東村山ソーシャルホーム","province":"東京都","city":"東村山市","address":"東村山市本町1-13-51大塚ビル104","lat":35.75448,"lon":139.46622},{"name":"村山荘","province":"東京都","city":"東村山市","address":"東村山市富士見町2-7-5","lat":35.74027,"lon":139.45242},{"name":"さつき荘","province":"東京都","city":"東村山市","address":"東村山市富士見町2-8-2","lat":35.7401,"lon":139.45364},{"name":"東村山市福祉作業所","province":"東京都","city":"東村山市","address":"東村山市諏訪町1-3-10","lat":35.76547,"lon":139.46674},{"name":"ドーミー久米川２","province":"東京都","city":"東村山市","address":"東村山市本町1-9-11","lat":35.75204,"lon":139.46751},{"name":"東村山市社会福祉協議会","province":"東京都","city":"東村山市","address":"東村山市野口町1-25-15東村山市地域福祉センター","lat":35.75862,"lon":139.464},{"name":"さつき荘","province":"東京都","city":"東村山市","address":"東村山市富士見町2-8-2","lat":35.740609,"lon":139.453774},{"name":"村山荘","province":"東京都","city":"東村山市","address":"東村山市富士見町2-7-5","lat":35.740203,"lon":139.452535},{"name":"社会福祉法人東京コロニー コロニー東村山","province":"東京都","city":"東村山市","address":"東京都東村山市秋津町2丁目22-9","lat":35.76876478,"lon":139.48789499},{"name":"社会福祉法人東京コロニー トーコロ青葉ワークセンター","province":"東京都","city":"東村山市","address":"東京都東村山市青葉町2丁目39-10","lat":35.76531803,"lon":139.49069484},{"name":"社会福祉法人ネット十二月","province":"東京都","city":"東村山市","address":"東京都東村山市廻田町3丁目16-8","lat":35.76038678,"lon":139.44811263},{"name":"高齢者在宅サービスセンター白十字八国苑","province":"東京都","city":"東村山市","address":"東京都東村山市諏訪町2丁目26-1","lat":35.77189152,"lon":139.46365808},{"name":"社会福祉法人村山苑福祉事業センター","province":"東京都","city":"東村山市","address":"東京都東村山市富士見町2丁目7-5","lat":35.74020311,"lon":139.45253528},{"name":"社会福祉法人いずみライフサポートつばさ","province":"東京都","city":"東村山市","address":"東京都東村山市富士見町3丁目4-16","lat":35.74866053,"lon":139.45443753},{"name":"社会福祉法人小さい共同体就労継続支援Ｂ型飛翔クラブ","province":"東京都","city":"東村山市","address":"東京都東村山市栄町2丁目9-32","lat":35.74941934,"lon":139.47170261},{"name":"特定非営利活動法人けやきけやき第二作業所","province":"東京都","city":"東村山市","address":"東京都東村山市萩山町3丁目19-2","lat":35.74593911,"lon":139.46971405},{"name":"株式会社ウィズケアメディカル ウィズケアリハビリセンター","province":"東京都","city":"東村山市","address":"東京都東村山市久米川町3丁目1-1","lat":35.75976546,"lon":139.47353814},{"name":"社会福祉法人東京蒼生会寿デイ･サービスセンター","province":"東京都","city":"東村山市","address":"東京都東村山市富士見町2丁目1-2","lat":35.7445943,"lon":139.4540183},{"name":"特定非営利活動法人セサミ萩共同作業所セサミ萩","province":"東京都","city":"東村山市","address":"東京都東村山市萩山町2丁目2-15","lat":35.74047328,"lon":139.47715529},{"name":"かりん","province":"東京都","city":"東村山市","address":"東京都東村山市秋津町2丁目37-47","lat":35.77148394,"lon":139.48956425},{"name":"社会福祉法人ネット久米川共同作業所","province":"東京都","city":"東村山市","address":"東京都東村山市久米川町2丁目21-14","lat":35.76533442,"lon":139.47915135},{"name":"特定非営利活動法人ワーカーズコープ東村山楠の樹地域福祉事業所ふたば","province":"東京都","city":"東村山市","address":"東京都東村山市野口町1丁目15-5","lat":35.76157604,"lon":139.46296959},{"name":"さつき荘","province":"東京都","city":"東村山市","address":"東村山市富士見町2-8-2","lat":35.74011,"lon":139.45364},{"name":"東村山市社会福祉協議会","province":"東京都","city":"東村山市","address":"東村山市野口町1-25-15東村山市地域福祉センター","lat":35.75862,"lon":139.46401},{"name":"ドーミー久米川","province":"東京都","city":"東村山市","address":"東村山市本町1-9-11","lat":35.75205,"lon":139.46751},{"name":"ドーミー久米川２","province":"東京都","city":"東村山市","address":"東村山市本町1-9-11","lat":35.75205,"lon":139.46751},{"name":"ドーミー久米川","province":"東京都","city":"東村山市","address":"東村山市本町1-9-11","lat":35.751721,"lon":139.467964},{"name":"東村山市福祉作業所（平成31年４月１日より休止中）","province":"東京都","city":"東村山市","address":"東村山市諏訪町1-3-10","lat":35.76549,"lon":139.466672},{"name":"グリーン・ボイス","province":"東京都","city":"東村山市","address":"東村山市萩山町3-31-2","lat":35.743978,"lon":139.468161},{"name":"東京ばんなん白光園","province":"東京都","city":"東村山市","address":"東村山市諏訪町2-26-1","lat":35.771892,"lon":139.463658},{"name":"東村山市福祉作業所","province":"東京都","city":"東村山市","address":"東村山市諏訪町1-3-10","lat":35.76549,"lon":139.466672},{"name":"東村山ソーシャルホーム","province":"東京都","city":"東村山市","address":"東村山市本町1-13-51大塚ビル104","lat":35.75433,"lon":139.466156},{"name":"緑風荘病院","province":"東京都","city":"東村山市","address":"東村山市萩山町3-31-1","lat":35.74455,"lon":139.468078},{"name":"東京白十字病院","province":"東京都","city":"東村山市","address":"東村山市諏訪町2-26-1","lat":35.771892,"lon":139.463658},{"name":"東村山市社会福祉協議会","province":"東京都","city":"東村山市","address":"東村山市野口町1-25-15東村山市地域福祉センター","lat":35.758293,"lon":139.464261},{"name":"ドーミー久米川","province":"東京都","city":"東村山市","address":"東村山市本町1-9-11","lat":35.75204,"lon":139.46751},{"name":"東村山ソーシャルホーム","province":"東京都","city":"東村山市","address":"東村山市本町1-13-51大塚ビル104","lat":35.75448,"lon":139.46622},{"name":"村山荘","province":"東京都","city":"東村山市","address":"東村山市富士見町2-7-5","lat":35.74027,"lon":139.45242},{"name":"さつき荘","province":"東京都","city":"東村山市","address":"東村山市富士見町2-8-2","lat":35.7401,"lon":139.45364},{"name":"東村山市福祉作業所","province":"東京都","city":"東村山市","address":"東村山市諏訪町1-3-10","lat":35.76547,"lon":139.46674},{"name":"ドーミー久米川２","province":"東京都","city":"東村山市","address":"東村山市本町1-9-11","lat":35.75204,"lon":139.46751},{"name":"東村山市社会福祉協議会","province":"東京都","city":"東村山市","address":"東村山市野口町1-25-15東村山市地域福祉センター","lat":35.75862,"lon":139.464},{"name":"さつき荘","province":"東京都","city":"東村山市","address":"東村山市富士見町2-8-2","lat":35.740609,"lon":139.453774},{"name":"村山荘","province":"東京都","city":"東村山市","address":"東村山市富士見町2-7-5","lat":35.740203,"lon":139.452535},{"name":"社会福祉法人東京コロニー コロニー東村山","province":"東京都","city":"東村山市","address":"東京都東村山市秋津町2丁目22-9","lat":35.76876478,"lon":139.48789499},{"name":"社会福祉法人東京コロニー トーコロ青葉ワークセンター","province":"東京都","city":"東村山市","address":"東京都東村山市青葉町2丁目39-10","lat":35.76531803,"lon":139.49069484},{"name":"社会福祉法人ネット十二月","province":"東京都","city":"東村山市","address":"東京都東村山市廻田町3丁目16-8","lat":35.76038678,"lon":139.44811263},{"name":"高齢者在宅サービスセンター白十字八国苑","province":"東京都","city":"東村山市","address":"東京都東村山市諏訪町2丁目26-1","lat":35.77189152,"lon":139.46365808},{"name":"社会福祉法人村山苑福祉事業センター","province":"東京都","city":"東村山市","address":"東京都東村山市富士見町2丁目7-5","lat":35.74020311,"lon":139.45253528},{"name":"社会福祉法人いずみライフサポートつばさ","province":"東京都","city":"東村山市","address":"東京都東村山市富士見町3丁目4-16","lat":35.74866053,"lon":139.45443753},{"name":"社会福祉法人小さい共同体就労継続支援Ｂ型飛翔クラブ","province":"東京都","city":"東村山市","address":"東京都東村山市栄町2丁目9-32","lat":35.74941934,"lon":139.47170261},{"name":"特定非営利活動法人けやきけやき第二作業所","province":"東京都","city":"東村山市","address":"東京都東村山市萩山町3丁目19-2","lat":35.74593911,"lon":139.46971405},{"name":"株式会社ウィズケアメディカル ウィズケアリハビリセンター","province":"東京都","city":"東村山市","address":"東京都東村山市久米川町3丁目1-1","lat":35.75976546,"lon":139.47353814},{"name":"社会福祉法人東京蒼生会寿デイ･サービスセンター","province":"東京都","city":"東村山市","address":"東京都東村山市富士見町2丁目1-2","lat":35.7445943,"lon":139.4540183},{"name":"特定非営利活動法人セサミ萩共同作業所セサミ萩","province":"東京都","city":"東村山市","address":"東京都東村山市萩山町2丁目2-15","lat":35.74047328,"lon":139.47715529},{"name":"かりん","province":"東京都","city":"東村山市","address":"東京都東村山市秋津町2丁目37-47","lat":35.77148394,"lon":139.48956425},{"name":"社会福祉法人ネット久米川共同作業所","province":"東京都","city":"東村山市","address":"東京都東村山市久米川町2丁目21-14","lat":35.76533442,"lon":139.47915135},{"name":"特定非営利活動法人ワーカーズコープ東村山楠の樹地域福祉事業所ふたば","province":"東京都","city":"東村山市","address":"東京都東村山市野口町1丁目15-5","lat":35.76157604,"lon":139.46296959},{"name":"さつき荘","province":"東京都","city":"東村山市","address":"東村山市富士見町2-8-2","lat":35.74011,"lon":139.45364},{"name":"東村山市社会福祉協議会","province":"東京都","city":"東村山市","address":"東村山市野口町1-25-15東村山市地域福祉センター","lat":35.75862,"lon":139.46401},{"name":"ドーミー久米川","province":"東京都","city":"東村山市","address":"東村山市本町1-9-11","lat":35.75205,"lon":139.46751},{"name":"ドーミー久米川２","province":"東京都","city":"東村山市","address":"東村山市本町1-9-11","lat":35.75205,"lon":139.46751},{"name":"ドーミー久米川","province":"東京都","city":"東村山市","address":"東村山市本町1-9-11","lat":35.751721,"lon":139.467964},{"name":"東村山市福祉作業所（平成31年４月１日より休止中）","province":"東京都","city":"東村山市","address":"東村山市諏訪町1-3-10","lat":35.76549,"lon":139.466672},{"name":"グリーン・ボイス","province":"東京都","city":"東村山市","address":"東村山市萩山町3-31-2","lat":35.743978,"lon":139.468161},{"name":"東京ばんなん白光園","province":"東京都","city":"東村山市","address":"東村山市諏訪町2-26-1","lat":35.771892,"lon":139.463658},{"name":"東村山市福祉作業所","province":"東京都","city":"東村山市","address":"東村山市諏訪町1-3-10","lat":35.76549,"lon":139.466672},{"name":"東村山ソーシャルホーム","province":"東京都","city":"東村山市","address":"東村山市本町1-13-51大塚ビル104","lat":35.75433,"lon":139.466156},{"name":"緑風荘病院","province":"東京都","city":"東村山市","address":"東村山市萩山町3-31-1","lat":35.74455,"lon":139.468078},{"name":"東京白十字病院","province":"東京都","city":"東村山市","address":"東村山市諏訪町2-26-1","lat":35.771892,"lon":139.463658},{"name":"東村山市社会福祉協議会","province":"東京都","city":"東村山市","address":"東村山市野口町1-25-15東村山市地域福祉センター","lat":35.758293,"lon":139.464261},{"name":"ドーミー久米川","province":"東京都","city":"東村山市","address":"東村山市本町1-9-11","lat":35.75204,"lon":139.46751},{"name":"東村山ソーシャルホーム","province":"東京都","city":"東村山市","address":"東村山市本町1-13-51大塚ビル104","lat":35.75448,"lon":139.46622},{"name":"村山荘","province":"東京都","city":"東村山市","address":"東村山市富士見町2-7-5","lat":35.74027,"lon":139.45242},{"name":"さつき荘","province":"東京都","city":"東村山市","address":"東村山市富士見町2-8-2","lat":35.7401,"lon":139.45364},{"name":"東村山市福祉作業所","province":"東京都","city":"東村山市","address":"東村山市諏訪町1-3-10","lat":35.76547,"lon":139.46674},{"name":"ドーミー久米川２","province":"東京都","city":"東村山市","address":"東村山市本町1-9-11","lat":35.75204,"lon":139.46751},{"name":"東村山市社会福祉協議会","province":"東京都","city":"東村山市","address":"東村山市野口町1-25-15東村山市地域福祉センター","lat":35.75862,"lon":139.464},{"name":"さつき荘","province":"東京都","city":"東村山市","address":"東村山市富士見町2-8-2","lat":35.740609,"lon":139.453774},{"name":"村山荘","province":"東京都","city":"東村山市","address":"東村山市富士見町2-7-5","lat":35.740203,"lon":139.452535},{"name":"社会福祉法人東京コロニー コロニー東村山","province":"東京都","city":"東村山市","address":"東京都東村山市秋津町2丁目22-9","lat":35.76876478,"lon":139.48789499},{"name":"社会福祉法人東京コロニー トーコロ青葉ワークセンター","province":"東京都","city":"東村山市","address":"東京都東村山市青葉町2丁目39-10","lat":35.76531803,"lon":139.49069484},{"name":"社会福祉法人ネット十二月","province":"東京都","city":"東村山市","address":"東京都東村山市廻田町3丁目16-8","lat":35.76038678,"lon":139.44811263},{"name":"高齢者在宅サービスセンター白十字八国苑","province":"東京都","city":"東村山市","address":"東京都東村山市諏訪町2丁目26-1","lat":35.77189152,"lon":139.46365808},{"name":"社会福祉法人村山苑福祉事業センター","province":"東京都","city":"東村山市","address":"東京都東村山市富士見町2丁目7-5","lat":35.74020311,"lon":139.45253528},{"name":"社会福祉法人いずみライフサポートつばさ","province":"東京都","city":"東村山市","address":"東京都東村山市富士見町3丁目4-16","lat":35.74866053,"lon":139.45443753},{"name":"社会福祉法人小さい共同体就労継続支援Ｂ型飛翔クラブ","province":"東京都","city":"東村山市","address":"東京都東村山市栄町2丁目9-32","lat":35.74941934,"lon":139.47170261},{"name":"特定非営利活動法人けやきけやき第二作業所","province":"東京都","city":"東村山市","address":"東京都東村山市萩山町3丁目19-2","lat":35.74593911,"lon":139.46971405},{"name":"株式会社ウィズケアメディカル ウィズケアリハビリセンター","province":"東京都","city":"東村山市","address":"東京都東村山市久米川町3丁目1-1","lat":35.75976546,"lon":139.47353814},{"name":"社会福祉法人東京蒼生会寿デイ･サービスセンター","province":"東京都","city":"東村山市","address":"東京都東村山市富士見町2丁目1-2","lat":35.7445943,"lon":139.4540183},{"name":"特定非営利活動法人セサミ萩共同作業所セサミ萩","province":"東京都","city":"東村山市","address":"東京都東村山市萩山町2丁目2-15","lat":35.74047328,"lon":139.47715529},{"name":"かりん","province":"東京都","city":"東村山市","address":"東京都東村山市秋津町2丁目37-47","lat":35.77148394,"lon":139.48956425},{"name":"社会福祉法人ネット久米川共同作業所","province":"東京都","city":"東村山市","address":"東京都東村山市久米川町2丁目21-14","lat":35.76533442,"lon":139.47915135},{"name":"特定非営利活動法人ワーカーズコープ東村山楠の樹地域福祉事業所ふたば","province":"東京都","city":"東村山市","address":"東京都東村山市野口町1丁目15-5","lat":35.76157604,"lon":139.46296959},{"name":"さつき荘","province":"東京都","city":"東村山市","address":"東村山市富士見町2-8-2","lat":35.74011,"lon":139.45364},{"name":"東村山市社会福祉協議会","province":"東京都","city":"東村山市","address":"東村山市野口町1-25-15東村山市地域福祉センター","lat":35.75862,"lon":139.46401},{"name":"ドーミー久米川","province":"東京都","city":"東村山市","address":"東村山市本町1-9-11","lat":35.75205,"lon":139.46751},{"name":"ドーミー久米川２","province":"東京都","city":"東村山市","address":"東村山市本町1-9-11","lat":35.75205,"lon":139.46751},{"name":"ドーミー久米川","province":"東京都","city":"東村山市","address":"東村山市本町1-9-11","lat":35.751721,"lon":139.467964},{"name":"東村山市福祉作業所（平成31年４月１日より休止中）","province":"東京都","city":"東村山市","address":"東村山市諏訪町1-3-10","lat":35.76549,"lon":139.466672},{"name":"グリーン・ボイス","province":"東京都","city":"東村山市","address":"東村山市萩山町3-31-2","lat":35.743978,"lon":139.468161},{"name":"東京ばんなん白光園","province":"東京都","city":"東村山市","address":"東村山市諏訪町2-26-1","lat":35.771892,"lon":139.463658},{"name":"東村山市福祉作業所","province":"東京都","city":"東村山市","address":"東村山市諏訪町1-3-10","lat":35.76549,"lon":139.466672},{"name":"東村山ソーシャルホーム","province":"東京都","city":"東村山市","address":"東村山市本町1-13-51大塚ビル104","lat":35.75433,"lon":139.466156},{"name":"緑風荘病院","province":"東京都","city":"東村山市","address":"東村山市萩山町3-31-1","lat":35.74455,"lon":139.468078},{"name":"東京白十字病院","province":"東京都","city":"東村山市","address":"東村山市諏訪町2-26-1","lat":35.771892,"lon":139.463658},{"name":"東村山市社会福祉協議会","province":"東京都","city":"東村山市","address":"東村山市野口町1-25-15東村山市地域福祉センター","lat":35.758293,"lon":139.464261},{"name":"ドーミー久米川","province":"東京都","city":"東村山市","address":"東村山市本町1-9-11","lat":35.75204,"lon":139.46751},{"name":"東村山ソーシャルホーム","province":"東京都","city":"東村山市","address":"東村山市本町1-13-51大塚ビル104","lat":35.75448,"lon":139.46622},{"name":"村山荘","province":"東京都","city":"東村山市","address":"東村山市富士見町2-7-5","lat":35.74027,"lon":139.45242},{"name":"さつき荘","province":"東京都","city":"東村山市","address":"東村山市富士見町2-8-2","lat":35.7401,"lon":139.45364},{"name":"東村山市福祉作業所","province":"東京都","city":"東村山市","address":"東村山市諏訪町1-3-10","lat":35.76547,"lon":139.46674},{"name":"ドーミー久米川２","province":"東京都","city":"東村山市","address":"東村山市本町1-9-11","lat":35.75204,"lon":139.46751},{"name":"東村山市社会福祉協議会","province":"東京都","city":"東村山市","address":"東村山市野口町1-25-15東村山市地域福祉センター","lat":35.75862,"lon":139.464},{"name":"さつき荘","province":"東京都","city":"東村山市","address":"東村山市富士見町2-8-2","lat":35.740609,"lon":139.453774},{"name":"村山荘","province":"東京都","city":"東村山市","address":"東村山市富士見町2-7-5","lat":35.740203,"lon":139.452535},{"name":"社会福祉法人東京コロニー コロニー東村山","province":"東京都","city":"東村山市","address":"東京都東村山市秋津町2丁目22-9","lat":35.76876478,"lon":139.48789499},{"name":"社会福祉法人東京コロニー トーコロ青葉ワークセンター","province":"東京都","city":"東村山市","address":"東京都東村山市青葉町2丁目39-10","lat":35.76531803,"lon":139.49069484},{"name":"社会福祉法人ネット十二月","province":"東京都","city":"東村山市","address":"東京都東村山市廻田町3丁目16-8","lat":35.76038678,"lon":139.44811263},{"name":"高齢者在宅サービスセンター白十字八国苑","province":"東京都","city":"東村山市","address":"東京都東村山市諏訪町2丁目26-1","lat":35.77189152,"lon":139.46365808},{"name":"社会福祉法人村山苑福祉事業センター","province":"東京都","city":"東村山市","address":"東京都東村山市富士見町2丁目7-5","lat":35.74020311,"lon":139.45253528},{"name":"社会福祉法人いずみライフサポートつばさ","province":"東京都","city":"東村山市","address":"東京都東村山市富士見町3丁目4-16","lat":35.74866053,"lon":139.45443753},{"name":"社会福祉法人小さい共同体就労継続支援Ｂ型飛翔クラブ","province":"東京都","city":"東村山市","address":"東京都東村山市栄町2丁目9-32","lat":35.74941934,"lon":139.47170261},{"name":"特定非営利活動法人けやきけやき第二作業所","province":"東京都","city":"東村山市","address":"東京都東村山市萩山町3丁目19-2","lat":35.74593911,"lon":139.46971405},{"name":"株式会社ウィズケアメディカル ウィズケアリハビリセンター","province":"東京都","city":"東村山市","address":"東京都東村山市久米川町3丁目1-1","lat":35.75976546,"lon":139.47353814},{"name":"社会福祉法人東京蒼生会寿デイ･サービスセンター","province":"東京都","city":"東村山市","address":"東京都東村山市富士見町2丁目1-2","lat":35.7445943,"lon":139.4540183},{"name":"特定非営利活動法人セサミ萩共同作業所セサミ萩","province":"東京都","city":"東村山市","address":"東京都東村山市萩山町2丁目2-15","lat":35.74047328,"lon":139.47715529},{"name":"かりん","province":"東京都","city":"東村山市","address":"東京都東村山市秋津町2丁目37-47","lat":35.77148394,"lon":139.48956425},{"name":"社会福祉法人ネット久米川共同作業所","province":"東京都","city":"東村山市","address":"東京都東村山市久米川町2丁目21-14","lat":35.76533442,"lon":139.47915135},{"name":"特定非営利活動法人ワーカーズコープ東村山楠の樹地域福祉事業所ふたば","province":"東京都","city":"東村山市","address":"東京都東村山市野口町1丁目15-5","lat":35.76157604,"lon":139.46296959},{"name":"さつき荘","province":"東京都","city":"東村山市","address":"東村山市富士見町2-8-2","lat":35.74011,"lon":139.45364},{"name":"東村山市社会福祉協議会","province":"東京都","city":"東村山市","address":"東村山市野口町1-25-15東村山市地域福祉センター","lat":35.75862,"lon":139.46401},{"name":"ドーミー久米川","province":"東京都","city":"東村山市","address":"東村山市本町1-9-11","lat":35.75205,"lon":139.46751},{"name":"ドーミー久米川２","province":"東京都","city":"東村山市","address":"東村山市本町1-9-11","lat":35.75205,"lon":139.46751},{"name":"ドーミー久米川","province":"東京都","city":"東村山市","address":"東村山市本町1-9-11","lat":35.751721,"lon":139.467964},{"name":"東村山市福祉作業所（平成31年４月１日より休止中）","province":"東京都","city":"東村山市","address":"東村山市諏訪町1-3-10","lat":35.76549,"lon":139.466672},{"name":"グリーン・ボイス","province":"東京都","city":"東村山市","address":"東村山市萩山町3-31-2","lat":35.743978,"lon":139.468161},{"name":"東京ばんなん白光園","province":"東京都","city":"東村山市","address":"東村山市諏訪町2-26-1","lat":35.771892,"lon":139.463658},{"name":"東村山市福祉作業所","province":"東京都","city":"東村山市","address":"東村山市諏訪町1-3-10","lat":35.76549,"lon":139.466672},{"name":"東村山ソーシャルホーム","province":"東京都","city":"東村山市","address":"東村山市本町1-13-51大塚ビル104","lat":35.75433,"lon":139.466156},{"name":"緑風荘病院","province":"東京都","city":"東村山市","address":"東村山市萩山町3-31-1","lat":35.74455,"lon":139.468078},{"name":"東京白十字病院","province":"東京都","city":"東村山市","address":"東村山市諏訪町2-26-1","lat":35.771892,"lon":139.463658},{"name":"東村山市社会福祉協議会","province":"東京都","city":"東村山市","address":"東村山市野口町1-25-15東村山市地域福祉センター","lat":35.758293,"lon":139.464261},{"name":"ドーミー久米川","province":"東京都","city":"東村山市","address":"東村山市本町1-9-11","lat":35.75204,"lon":139.46751},{"name":"東村山ソーシャルホーム","province":"東京都","city":"東村山市","address":"東村山市本町1-13-51大塚ビル104","lat":35.75448,"lon":139.46622},{"name":"村山荘","province":"東京都","city":"東村山市","address":"東村山市富士見町2-7-5","lat":35.74027,"lon":139.45242},{"name":"さつき荘","province":"東京都","city":"東村山市","address":"東村山市富士見町2-8-2","lat":35.7401,"lon":139.45364},{"name":"東村山市福祉作業所","province":"東京都","city":"東村山市","address":"東村山市諏訪町1-3-10","lat":35.76547,"lon":139.46674},{"name":"ドーミー久米川２","province":"東京都","city":"東村山市","address":"東村山市本町1-9-11","lat":35.75204,"lon":139.46751},{"name":"東村山市社会福祉協議会","province":"東京都","city":"東村山市","address":"東村山市野口町1-25-15東村山市地域福祉センター","lat":35.75862,"lon":139.464},{"name":"さつき荘","province":"東京都","city":"東村山市","address":"東村山市富士見町2-8-2","lat":35.740609,"lon":139.453774},{"name":"村山荘","province":"東京都","city":"東村山市","address":"東村山市富士見町2-7-5","lat":35.740203,"lon":139.452535},{"name":"社会福祉法人東京コロニー コロニー東村山","province":"東京都","city":"東村山市","address":"東京都東村山市秋津町2丁目22-9","lat":35.76876478,"lon":139.48789499},{"name":"社会福祉法人東京コロニー トーコロ青葉ワークセンター","province":"東京都","city":"東村山市","address":"東京都東村山市青葉町2丁目39-10","lat":35.76531803,"lon":139.49069484},{"name":"社会福祉法人ネット十二月","province":"東京都","city":"東村山市","address":"東京都東村山市廻田町3丁目16-8","lat":35.76038678,"lon":139.44811263},{"name":"高齢者在宅サービスセンター白十字八国苑","province":"東京都","city":"東村山市","address":"東京都東村山市諏訪町2丁目26-1","lat":35.77189152,"lon":139.46365808},{"name":"社会福祉法人村山苑福祉事業センター","province":"東京都","city":"東村山市","address":"東京都東村山市富士見町2丁目7-5","lat":35.74020311,"lon":139.45253528},{"name":"社会福祉法人いずみライフサポートつばさ","province":"東京都","city":"東村山市","address":"東京都東村山市富士見町3丁目4-16","lat":35.74866053,"lon":139.45443753},{"name":"社会福祉法人小さい共同体就労継続支援Ｂ型飛翔クラブ","province":"東京都","city":"東村山市","address":"東京都東村山市栄町2丁目9-32","lat":35.74941934,"lon":139.47170261},{"name":"特定非営利活動法人けやきけやき第二作業所","province":"東京都","city":"東村山市","address":"東京都東村山市萩山町3丁目19-2","lat":35.74593911,"lon":139.46971405},{"name":"株式会社ウィズケアメディカル ウィズケアリハビリセンター","province":"東京都","city":"東村山市","address":"東京都東村山市久米川町3丁目1-1","lat":35.75976546,"lon":139.47353814},{"name":"社会福祉法人東京蒼生会寿デイ･サービスセンター","province":"東京都","city":"東村山市","address":"東京都東村山市富士見町2丁目1-2","lat":35.7445943,"lon":139.4540183},{"name":"特定非営利活動法人セサミ萩共同作業所セサミ萩","province":"東京都","city":"東村山市","address":"東京都東村山市萩山町2丁目2-15","lat":35.74047328,"lon":139.47715529},{"name":"かりん","province":"東京都","city":"東村山市","address":"東京都東村山市秋津町2丁目37-47","lat":35.77148394,"lon":139.48956425},{"name":"社会福祉法人ネット久米川共同作業所","province":"東京都","city":"東村山市","address":"東京都東村山市久米川町2丁目21-14","lat":35.76533442,"lon":139.47915135},{"name":"特定非営利活動法人ワーカーズコープ東村山楠の樹地域福祉事業所ふたば","province":"東京都","city":"東村山市","address":"東京都東村山市野口町1丁目15-5","lat":35.76157604,"lon":139.46296959},{"name":"さつき荘","province":"東京都","city":"東村山市","address":"東村山市富士見町2-8-2","lat":35.74011,"lon":139.45364},{"name":"東村山市社会福祉協議会","province":"東京都","city":"東村山市","address":"東村山市野口町1-25-15東村山市地域福祉センター","lat":35.75862,"lon":139.46401},{"name":"ドーミー久米川","province":"東京都","city":"東村山市","address":"東村山市本町1-9-11","lat":35.75205,"lon":139.46751},{"name":"ドーミー久米川２","province":"東京都","city":"東村山市","address":"東村山市本町1-9-11","lat":35.75205,"lon":139.46751},{"name":"ドーミー久米川","province":"東京都","city":"東村山市","address":"東村山市本町1-9-11","lat":35.751721,"lon":139.467964},{"name":"東村山市福祉作業所（平成31年４月１日より休止中）","province":"東京都","city":"東村山市","address":"東村山市諏訪町1-3-10","lat":35.76549,"lon":139.466672},{"name":"グリーン・ボイス","province":"東京都","city":"東村山市","address":"東村山市萩山町3-31-2","lat":35.743978,"lon":139.468161},{"name":"東京ばんなん白光園","province":"東京都","city":"東村山市","address":"東村山市諏訪町2-26-1","lat":35.771892,"lon":139.463658},{"name":"東村山市福祉作業所","province":"東京都","city":"東村山市","address":"東村山市諏訪町1-3-10","lat":35.76549,"lon":139.466672},{"name":"東村山ソーシャルホーム","province":"東京都","city":"東村山市","address":"東村山市本町1-13-51大塚ビル104","lat":35.75433,"lon":139.466156},{"name":"緑風荘病院","province":"東京都","city":"東村山市","address":"東村山市萩山町3-31-1","lat":35.74455,"lon":139.468078},{"name":"東京白十字病院","province":"東京都","city":"東村山市","address":"東村山市諏訪町2-26-1","lat":35.771892,"lon":139.463658},{"name":"東村山市社会福祉協議会","province":"東京都","city":"東村山市","address":"東村山市野口町1-25-15東村山市地域福祉センター","lat":35.758293,"lon":139.464261},{"name":"ドーミー久米川","province":"東京都","city":"東村山市","address":"東村山市本町1-9-11","lat":35.75204,"lon":139.46751},{"name":"東村山ソーシャルホーム","province":"東京都","city":"東村山市","address":"東村山市本町1-13-51大塚ビル104","lat":35.75448,"lon":139.46622},{"name":"村山荘","province":"東京都","city":"東村山市","address":"東村山市富士見町2-7-5","lat":35.74027,"lon":139.45242},{"name":"さつき荘","province":"東京都","city":"東村山市","address":"東村山市富士見町2-8-2","lat":35.7401,"lon":139.45364},{"name":"東村山市福祉作業所","province":"東京都","city":"東村山市","address":"東村山市諏訪町1-3-10","lat":35.76547,"lon":139.46674},{"name":"ドーミー久米川２","province":"東京都","city":"東村山市","address":"東村山市本町1-9-11","lat":35.75204,"lon":139.46751},{"name":"東村山市社会福祉協議会","province":"東京都","city":"東村山市","address":"東村山市野口町1-25-15東村山市地域福祉センター","lat":35.75862,"lon":139.464},{"name":"さつき荘","province":"東京都","city":"東村山市","address":"東村山市富士見町2-8-2","lat":35.740609,"lon":139.453774},{"name":"村山荘","province":"東京都","city":"東村山市","address":"東村山市富士見町2-7-5","lat":35.740203,"lon":139.452535},{"name":"社会福祉法人東京コロニー コロニー東村山","province":"東京都","city":"東村山市","address":"東京都東村山市秋津町2丁目22-9","lat":35.76876478,"lon":139.48789499},{"name":"社会福祉法人東京コロニー トーコロ青葉ワークセンター","province":"東京都","city":"東村山市","address":"東京都東村山市青葉町2丁目39-10","lat":35.76531803,"lon":139.49069484},{"name":"社会福祉法人ネット十二月","province":"東京都","city":"東村山市","address":"東京都東村山市廻田町3丁目16-8","lat":35.76038678,"lon":139.44811263},{"name":"高齢者在宅サービスセンター白十字八国苑","province":"東京都","city":"東村山市","address":"東京都東村山市諏訪町2丁目26-1","lat":35.77189152,"lon":139.46365808},{"name":"社会福祉法人村山苑福祉事業センター","province":"東京都","city":"東村山市","address":"東京都東村山市富士見町2丁目7-5","lat":35.74020311,"lon":139.45253528},{"name":"社会福祉法人いずみライフサポートつばさ","province":"東京都","city":"東村山市","address":"東京都東村山市富士見町3丁目4-16","lat":35.74866053,"lon":139.45443753},{"name":"社会福祉法人小さい共同体就労継続支援Ｂ型飛翔クラブ","province":"東京都","city":"東村山市","address":"東京都東村山市栄町2丁目9-32","lat":35.74941934,"lon":139.47170261},{"name":"特定非営利活動法人けやきけやき第二作業所","province":"東京都","city":"東村山市","address":"東京都東村山市萩山町3丁目19-2","lat":35.74593911,"lon":139.46971405},{"name":"株式会社ウィズケアメディカル ウィズケアリハビリセンター","province":"東京都","city":"東村山市","address":"東京都東村山市久米川町3丁目1-1","lat":35.75976546,"lon":139.47353814},{"name":"社会福祉法人東京蒼生会寿デイ･サービスセンター","province":"東京都","city":"東村山市","address":"東京都東村山市富士見町2丁目1-2","lat":35.7445943,"lon":139.4540183},{"name":"特定非営利活動法人セサミ萩共同作業所セサミ萩","province":"東京都","city":"東村山市","address":"東京都東村山市萩山町2丁目2-15","lat":35.74047328,"lon":139.47715529},{"name":"かりん","province":"東京都","city":"東村山市","address":"東京都東村山市秋津町2丁目37-47","lat":35.77148394,"lon":139.48956425},{"name":"社会福祉法人ネット久米川共同作業所","province":"東京都","city":"東村山市","address":"東京都東村山市久米川町2丁目21-14","lat":35.76533442,"lon":139.47915135},{"name":"特定非営利活動法人ワーカーズコープ東村山楠の樹地域福祉事業所ふたば","province":"東京都","city":"東村山市","address":"東京都東村山市野口町1丁目15-5","lat":35.76157604,"lon":139.46296959},{"name":"さつき荘","province":"東京都","city":"東村山市","address":"東村山市富士見町2-8-2","lat":35.74011,"lon":139.45364},{"name":"東村山市社会福祉協議会","province":"東京都","city":"東村山市","address":"東村山市野口町1-25-15東村山市地域福祉センター","lat":35.75862,"lon":139.46401},{"name":"ドーミー久米川","province":"東京都","city":"東村山市","address":"東村山市本町1-9-11","lat":35.75205,"lon":139.46751},{"name":"ドーミー久米川２","province":"東京都","city":"東村山市","address":"東村山市本町1-9-11","lat":35.75205,"lon":139.46751},{"name":"ドーミー久米川","province":"東京都","city":"東村山市","address":"東村山市本町1-9-11","lat":35.751721,"lon":139.467964},{"name":"東村山市福祉作業所（平成31年４月１日より休止中）","province":"東京都","city":"東村山市","address":"東村山市諏訪町1-3-10","lat":35.76549,"lon":139.466672},{"name":"グリーン・ボイス","province":"東京都","city":"東村山市","address":"東村山市萩山町3-31-2","lat":35.743978,"lon":139.468161},{"name":"東京ばんなん白光園","province":"東京都","city":"東村山市","address":"東村山市諏訪町2-26-1","lat":35.771892,"lon":139.463658},{"name":"東村山市福祉作業所","province":"東京都","city":"東村山市","address":"東村山市諏訪町1-3-10","lat":35.76549,"lon":139.466672},{"name":"東村山ソーシャルホーム","province":"東京都","city":"東村山市","address":"東村山市本町1-13-51大塚ビル104","lat":35.75433,"lon":139.466156},{"name":"緑風荘病院","province":"東京都","city":"東村山市","address":"東村山市萩山町3-31-1","lat":35.74455,"lon":139.468078},{"name":"東京白十字病院","province":"東京都","city":"東村山市","address":"東村山市諏訪町2-26-1","lat":35.771892,"lon":139.463658},{"name":"東村山市社会福祉協議会","province":"東京都","city":"東村山市","address":"東村山市野口町1-25-15東村山市地域福祉センター","lat":35.758293,"lon":139.464261},{"name":"ドーミー久米川","province":"東京都","city":"東村山市","address":"東村山市本町1-9-11","lat":35.75204,"lon":139.46751},{"name":"東村山ソーシャルホーム","province":"東京都","city":"東村山市","address":"東村山市本町1-13-51大塚ビル104","lat":35.75448,"lon":139.46622},{"name":"村山荘","province":"東京都","city":"東村山市","address":"東村山市富士見町2-7-5","lat":35.74027,"lon":139.45242},{"name":"さつき荘","province":"東京都","city":"東村山市","address":"東村山市富士見町2-8-2","lat":35.7401,"lon":139.45364},{"name":"東村山市福祉作業所","province":"東京都","city":"東村山市","address":"東村山市諏訪町1-3-10","lat":35.76547,"lon":139.46674},{"name":"ドーミー久米川２","province":"東京都","city":"東村山市","address":"東村山市本町1-9-11","lat":35.75204,"lon":139.46751},{"name":"東村山市社会福祉協議会","province":"東京都","city":"東村山市","address":"東村山市野口町1-25-15東村山市地域福祉センター","lat":35.75862,"lon":139.464},{"name":"さつき荘","province":"東京都","city":"東村山市","address":"東村山市富士見町2-8-2","lat":35.740609,"lon":139.453774},{"name":"村山荘","province":"東京都","city":"東村山市","address":"東村山市富士見町2-7-5","lat":35.740203,"lon":139.452535},{"name":"さつき荘","province":"東京都","city":"東村山市","address":"東村山市富士見町2-8-2","lat":35.74011,"lon":139.45364},{"name":"東村山市社会福祉協議会","province":"東京都","city":"東村山市","address":"東村山市野口町1-25-15東村山市地域福祉センター","lat":35.75862,"lon":139.46401},{"name":"ドーミー久米川","province":"東京都","city":"東村山市","address":"東村山市本町1-9-11","lat":35.75205,"lon":139.46751},{"name":"ドーミー久米川２","province":"東京都","city":"東村山市","address":"東村山市本町1-9-11","lat":35.75205,"lon":139.46751},{"name":"ドーミー久米川","province":"東京都","city":"東村山市","address":"東村山市本町1-9-11","lat":35.751721,"lon":139.467964},{"name":"東村山市福祉作業所（平成31年４月１日より休止中）","province":"東京都","city":"東村山市","address":"東村山市諏訪町1-3-10","lat":35.76549,"lon":139.466672},{"name":"グリーン・ボイス","province":"東京都","city":"東村山市","address":"東村山市萩山町3-31-2","lat":35.743978,"lon":139.468161},{"name":"東京ばんなん白光園","province":"東京都","city":"東村山市","address":"東村山市諏訪町2-26-1","lat":35.771892,"lon":139.463658},{"name":"東村山市福祉作業所","province":"東京都","city":"東村山市","address":"東村山市諏訪町1-3-10","lat":35.76549,"lon":139.466672},{"name":"東村山ソーシャルホーム","province":"東京都","city":"東村山市","address":"東村山市本町1-13-51大塚ビル104","lat":35.75433,"lon":139.466156},{"name":"緑風荘病院","province":"東京都","city":"東村山市","address":"東村山市萩山町3-31-1","lat":35.74455,"lon":139.468078},{"name":"東京白十字病院","province":"東京都","city":"東村山市","address":"東村山市諏訪町2-26-1","lat":35.771892,"lon":139.463658},{"name":"東村山市社会福祉協議会","province":"東京都","city":"東村山市","address":"東村山市野口町1-25-15東村山市地域福祉センター","lat":35.758293,"lon":139.464261},{"name":"ドーミー久米川","province":"東京都","city":"東村山市","address":"東村山市本町1-9-11","lat":35.75204,"lon":139.46751},{"name":"東村山ソーシャルホーム","province":"東京都","city":"東村山市","address":"東村山市本町1-13-51大塚ビル104","lat":35.75448,"lon":139.46622},{"name":"村山荘","province":"東京都","city":"東村山市","address":"東村山市富士見町2-7-5","lat":35.74027,"lon":139.45242},{"name":"さつき荘","province":"東京都","city":"東村山市","address":"東村山市富士見町2-8-2","lat":35.7401,"lon":139.45364},{"name":"東村山市福祉作業所","province":"東京都","city":"東村山市","address":"東村山市諏訪町1-3-10","lat":35.76547,"lon":139.46674},{"name":"ドーミー久米川２","province":"東京都","city":"東村山市","address":"東村山市本町1-9-11","lat":35.75204,"lon":139.46751},{"name":"東村山市社会福祉協議会","province":"東京都","city":"東村山市","address":"東村山市野口町1-25-15東村山市地域福祉センター","lat":35.75862,"lon":139.464},{"name":"さつき荘","province":"東京都","city":"東村山市","address":"東村山市富士見町2-8-2","lat":35.740609,"lon":139.453774},{"name":"村山荘","province":"東京都","city":"東村山市","address":"東村山市富士見町2-7-5","lat":35.740203,"lon":139.452535},{"name":"さつき荘","province":"東京都","city":"東村山市","address":"東村山市富士見町2-8-2","lat":35.74011,"lon":139.45364},{"name":"東村山市社会福祉協議会","province":"東京都","city":"東村山市","address":"東村山市野口町1-25-15東村山市地域福祉センター","lat":35.75862,"lon":139.46401},{"name":"ドーミー久米川","province":"東京都","city":"東村山市","address":"東村山市本町1-9-11","lat":35.75205,"lon":139.46751},{"name":"ドーミー久米川２","province":"東京都","city":"東村山市","address":"東村山市本町1-9-11","lat":35.75205,"lon":139.46751},{"name":"ドーミー久米川","province":"東京都","city":"東村山市","address":"東村山市本町1-9-11","lat":35.751721,"lon":139.467964},{"name":"東村山市福祉作業所（平成31年４月１日より休止中）","province":"東京都","city":"東村山市","address":"東村山市諏訪町1-3-10","lat":35.76549,"lon":139.466672},{"name":"グリーン・ボイス","province":"東京都","city":"東村山市","address":"東村山市萩山町3-31-2","lat":35.743978,"lon":139.468161},{"name":"東京ばんなん白光園","province":"東京都","city":"東村山市","address":"東村山市諏訪町2-26-1","lat":35.771892,"lon":139.463658},{"name":"東村山市福祉作業所","province":"東京都","city":"東村山市","address":"東村山市諏訪町1-3-10","lat":35.76549,"lon":139.466672},{"name":"東村山ソーシャルホーム","province":"東京都","city":"東村山市","address":"東村山市本町1-13-51大塚ビル104","lat":35.75433,"lon":139.466156},{"name":"緑風荘病院","province":"東京都","city":"東村山市","address":"東村山市萩山町3-31-1","lat":35.74455,"lon":139.468078},{"name":"東京白十字病院","province":"東京都","city":"東村山市","address":"東村山市諏訪町2-26-1","lat":35.771892,"lon":139.463658},{"name":"東村山市社会福祉協議会","province":"東京都","city":"東村山市","address":"東村山市野口町1-25-15東村山市地域福祉センター","lat":35.758293,"lon":139.464261},{"name":"ドーミー久米川","province":"東京都","city":"東村山市","address":"東村山市本町1-9-11","lat":35.75204,"lon":139.46751},{"name":"東村山ソーシャルホーム","province":"東京都","city":"東村山市","address":"東村山市本町1-13-51大塚ビル104","lat":35.75448,"lon":139.46622},{"name":"村山荘","province":"東京都","city":"東村山市","address":"東村山市富士見町2-7-5","lat":35.74027,"lon":139.45242},{"name":"さつき荘","province":"東京都","city":"東村山市","address":"東村山市富士見町2-8-2","lat":35.7401,"lon":139.45364},{"name":"東村山市福祉作業所","province":"東京都","city":"東村山市","address":"東村山市諏訪町1-3-10","lat":35.76547,"lon":139.46674},{"name":"ドーミー久米川２","province":"東京都","city":"東村山市","address":"東村山市本町1-9-11","lat":35.75204,"lon":139.46751},{"name":"東村山市社会福祉協議会","province":"東京都","city":"東村山市","address":"東村山市野口町1-25-15東村山市地域福祉センター","lat":35.75862,"lon":139.464},{"name":"さつき荘","province":"東京都","city":"東村山市","address":"東村山市富士見町2-8-2","lat":35.740609,"lon":139.453774},{"name":"村山荘","province":"東京都","city":"東村山市","address":"東村山市富士見町2-7-5","lat":35.740203,"lon":139.452535},{"name":"さつき荘","province":"東京都","city":"東村山市","address":"東村山市富士見町2-8-2","lat":35.74011,"lon":139.45364},{"name":"東村山市社会福祉協議会","province":"東京都","city":"東村山市","address":"東村山市野口町1-25-15東村山市地域福祉センター","lat":35.75862,"lon":139.46401},{"name":"ドーミー久米川","province":"東京都","city":"東村山市","address":"東村山市本町1-9-11","lat":35.75205,"lon":139.46751},{"name":"ドーミー久米川２","province":"東京都","city":"東村山市","address":"東村山市本町1-9-11","lat":35.75205,"lon":139.46751},{"name":"ドーミー久米川","province":"東京都","city":"東村山市","address":"東村山市本町1-9-11","lat":35.751721,"lon":139.467964},{"name":"東村山市福祉作業所（平成31年４月１日より休止中）","province":"東京都","city":"東村山市","address":"東村山市諏訪町1-3-10","lat":35.76549,"lon":139.466672},{"name":"グリーン・ボイス","province":"東京都","city":"東村山市","address":"東村山市萩山町3-31-2","lat":35.743978,"lon":139.468161},{"name":"東京ばんなん白光園","province":"東京都","city":"東村山市","address":"東村山市諏訪町2-26-1","lat":35.771892,"lon":139.463658},{"name":"東村山市福祉作業所","province":"東京都","city":"東村山市","address":"東村山市諏訪町1-3-10","lat":35.76549,"lon":139.466672},{"name":"東村山ソーシャルホーム","province":"東京都","city":"東村山市","address":"東村山市本町1-13-51大塚ビル104","lat":35.75433,"lon":139.466156},{"name":"緑風荘病院","province":"東京都","city":"東村山市","address":"東村山市萩山町3-31-1","lat":35.74455,"lon":139.468078},{"name":"東京白十字病院","province":"東京都","city":"東村山市","address":"東村山市諏訪町2-26-1","lat":35.771892,"lon":139.463658},{"name":"東村山市社会福祉協議会","province":"東京都","city":"東村山市","address":"東村山市野口町1-25-15東村山市地域福祉センター","lat":35.758293,"lon":139.464261},{"name":"ドーミー久米川","province":"東京都","city":"東村山市","address":"東村山市本町1-9-11","lat":35.75204,"lon":139.46751},{"name":"東村山ソーシャルホーム","province":"東京都","city":"東村山市","address":"東村山市本町1-13-51大塚ビル104","lat":35.75448,"lon":139.46622},{"name":"村山荘","province":"東京都","city":"東村山市","address":"東村山市富士見町2-7-5","lat":35.74027,"lon":139.45242},{"name":"さつき荘","province":"東京都","city":"東村山市","address":"東村山市富士見町2-8-2","lat":35.7401,"lon":139.45364},{"name":"東村山市福祉作業所","province":"東京都","city":"東村山市","address":"東村山市諏訪町1-3-10","lat":35.76547,"lon":139.46674},{"name":"ドーミー久米川２","province":"東京都","city":"東村山市","address":"東村山市本町1-9-11","lat":35.75204,"lon":139.46751},{"name":"東村山市社会福祉協議会","province":"東京都","city":"東村山市","address":"東村山市野口町1-25-15東村山市地域福祉センター","lat":35.75862,"lon":139.464},{"name":"さつき荘","province":"東京都","city":"東村山市","address":"東村山市富士見町2-8-2","lat":35.740609,"lon":139.453774},{"name":"村山荘","province":"東京都","city":"東村山市","address":"東村山市富士見町2-7-5","lat":35.740203,"lon":139.452535},{"name":"さつき荘","province":"東京都","city":"東村山市","address":"東村山市富士見町2-8-2","lat":35.74011,"lon":139.45364},{"name":"東村山市社会福祉協議会","province":"東京都","city":"東村山市","address":"東村山市野口町1-25-15東村山市地域福祉センター","lat":35.75862,"lon":139.46401},{"name":"ドーミー久米川","province":"東京都","city":"東村山市","address":"東村山市本町1-9-11","lat":35.75205,"lon":139.46751},{"name":"ドーミー久米川２","province":"東京都","city":"東村山市","address":"東村山市本町1-9-11","lat":35.75205,"lon":139.46751},{"name":"ドーミー久米川","province":"東京都","city":"東村山市","address":"東村山市本町1-9-11","lat":35.751721,"lon":139.467964},{"name":"東村山市福祉作業所（平成31年４月１日より休止中）","province":"東京都","city":"東村山市","address":"東村山市諏訪町1-3-10","lat":35.76549,"lon":139.466672},{"name":"グリーン・ボイス","province":"東京都","city":"東村山市","address":"東村山市萩山町3-31-2","lat":35.743978,"lon":139.468161},{"name":"東京ばんなん白光園","province":"東京都","city":"東村山市","address":"東村山市諏訪町2-26-1","lat":35.771892,"lon":139.463658},{"name":"東村山市福祉作業所","province":"東京都","city":"東村山市","address":"東村山市諏訪町1-3-10","lat":35.76549,"lon":139.466672},{"name":"東村山ソーシャルホーム","province":"東京都","city":"東村山市","address":"東村山市本町1-13-51大塚ビル104","lat":35.75433,"lon":139.466156},{"name":"緑風荘病院","province":"東京都","city":"東村山市","address":"東村山市萩山町3-31-1","lat":35.74455,"lon":139.468078},{"name":"東京白十字病院","province":"東京都","city":"東村山市","address":"東村山市諏訪町2-26-1","lat":35.771892,"lon":139.463658},{"name":"東村山市社会福祉協議会","province":"東京都","city":"東村山市","address":"東村山市野口町1-25-15東村山市地域福祉センター","lat":35.758293,"lon":139.464261},{"name":"ドーミー久米川","province":"東京都","city":"東村山市","address":"東村山市本町1-9-11","lat":35.75204,"lon":139.46751},{"name":"東村山ソーシャルホーム","province":"東京都","city":"東村山市","address":"東村山市本町1-13-51大塚ビル104","lat":35.75448,"lon":139.46622},{"name":"村山荘","province":"東京都","city":"東村山市","address":"東村山市富士見町2-7-5","lat":35.74027,"lon":139.45242},{"name":"さつき荘","province":"東京都","city":"東村山市","address":"東村山市富士見町2-8-2","lat":35.7401,"lon":139.45364},{"name":"東村山市福祉作業所","province":"東京都","city":"東村山市","address":"東村山市諏訪町1-3-10","lat":35.76547,"lon":139.46674},{"name":"ドーミー久米川２","province":"東京都","city":"東村山市","address":"東村山市本町1-9-11","lat":35.75204,"lon":139.46751},{"name":"東村山市社会福祉協議会","province":"東京都","city":"東村山市","address":"東村山市野口町1-25-15東村山市地域福祉センター","lat":35.75862,"lon":139.464},{"name":"さつき荘","province":"東京都","city":"東村山市","address":"東村山市富士見町2-8-2","lat":35.740609,"lon":139.453774},{"name":"村山荘","province":"東京都","city":"東村山市","address":"東村山市富士見町2-7-5","lat":35.740203,"lon":139.452535},{"name":"さつき荘","province":"東京都","city":"東村山市","address":"東村山市富士見町2-8-2","lat":35.74011,"lon":139.45364},{"name":"東村山市社会福祉協議会","province":"東京都","city":"東村山市","address":"東村山市野口町1-25-15東村山市地域福祉センター","lat":35.75862,"lon":139.46401},{"name":"ドーミー久米川","province":"東京都","city":"東村山市","address":"東村山市本町1-9-11","lat":35.75205,"lon":139.46751},{"name":"ドーミー久米川２","province":"東京都","city":"東村山市","address":"東村山市本町1-9-11","lat":35.75205,"lon":139.46751},{"name":"ドーミー久米川","province":"東京都","city":"東村山市","address":"東村山市本町1-9-11","lat":35.751721,"lon":139.467964},{"name":"東村山市福祉作業所（平成31年４月１日より休止中）","province":"東京都","city":"東村山市","address":"東村山市諏訪町1-3-10","lat":35.76549,"lon":139.466672},{"name":"グリーン・ボイス","province":"東京都","city":"東村山市","address":"東村山市萩山町3-31-2","lat":35.743978,"lon":139.468161},{"name":"東京ばんなん白光園","province":"東京都","city":"東村山市","address":"東村山市諏訪町2-26-1","lat":35.771892,"lon":139.463658},{"name":"東村山市福祉作業所","province":"東京都","city":"東村山市","address":"東村山市諏訪町1-3-10","lat":35.76549,"lon":139.466672},{"name":"東村山ソーシャルホーム","province":"東京都","city":"東村山市","address":"東村山市本町1-13-51大塚ビル104","lat":35.75433,"lon":139.466156},{"name":"緑風荘病院","province":"東京都","city":"東村山市","address":"東村山市萩山町3-31-1","lat":35.74455,"lon":139.468078},{"name":"東京白十字病院","province":"東京都","city":"東村山市","address":"東村山市諏訪町2-26-1","lat":35.771892,"lon":139.463658},{"name":"東村山市社会福祉協議会","province":"東京都","city":"東村山市","address":"東村山市野口町1-25-15東村山市地域福祉センター","lat":35.758293,"lon":139.464261},{"name":"ドーミー久米川","province":"東京都","city":"東村山市","address":"東村山市本町1-9-11","lat":35.75204,"lon":139.46751},{"name":"東村山ソーシャルホーム","province":"東京都","city":"東村山市","address":"東村山市本町1-13-51大塚ビル104","lat":35.75448,"lon":139.46622},{"name":"村山荘","province":"東京都","city":"東村山市","address":"東村山市富士見町2-7-5","lat":35.74027,"lon":139.45242},{"name":"さつき荘","province":"東京都","city":"東村山市","address":"東村山市富士見町2-8-2","lat":35.7401,"lon":139.45364},{"name":"東村山市福祉作業所","province":"東京都","city":"東村山市","address":"東村山市諏訪町1-3-10","lat":35.76547,"lon":139.46674},{"name":"ドーミー久米川２","province":"東京都","city":"東村山市","address":"東村山市本町1-9-11","lat":35.75204,"lon":139.46751},{"name":"東村山市社会福祉協議会","province":"東京都","city":"東村山市","address":"東村山市野口町1-25-15東村山市地域福祉センター","lat":35.75862,"lon":139.464},{"name":"さつき荘","province":"東京都","city":"東村山市","address":"東村山市富士見町2-8-2","lat":35.740609,"lon":139.453774},{"name":"村山荘","province":"東京都","city":"東村山市","address":"東村山市富士見町2-7-5","lat":35.740203,"lon":139.452535},{"name":"さつき荘","province":"東京都","city":"東村山市","address":"東村山市富士見町2-8-2","lat":35.74011,"lon":139.45364},{"name":"東村山市社会福祉協議会","province":"東京都","city":"東村山市","address":"東村山市野口町1-25-15東村山市地域福祉センター","lat":35.75862,"lon":139.46401},{"name":"ドーミー久米川","province":"東京都","city":"東村山市","address":"東村山市本町1-9-11","lat":35.75205,"lon":139.46751},{"name":"ドーミー久米川２","province":"東京都","city":"東村山市","address":"東村山市本町1-9-11","lat":35.75205,"lon":139.46751},{"name":"ドーミー久米川","province":"東京都","city":"東村山市","address":"東村山市本町1-9-11","lat":35.751721,"lon":139.467964},{"name":"東村山市福祉作業所（平成31年４月１日より休止中）","province":"東京都","city":"東村山市","address":"東村山市諏訪町1-3-10","lat":35.76549,"lon":139.466672},{"name":"グリーン・ボイス","province":"東京都","city":"東村山市","address":"東村山市萩山町3-31-2","lat":35.743978,"lon":139.468161},{"name":"東京ばんなん白光園","province":"東京都","city":"東村山市","address":"東村山市諏訪町2-26-1","lat":35.771892,"lon":139.463658},{"name":"東村山市福祉作業所","province":"東京都","city":"東村山市","address":"東村山市諏訪町1-3-10","lat":35.76549,"lon":139.466672},{"name":"東村山ソーシャルホーム","province":"東京都","city":"東村山市","address":"東村山市本町1-13-51大塚ビル104","lat":35.75433,"lon":139.466156},{"name":"緑風荘病院","province":"東京都","city":"東村山市","address":"東村山市萩山町3-31-1","lat":35.74455,"lon":139.468078},{"name":"東京白十字病院","province":"東京都","city":"東村山市","address":"東村山市諏訪町2-26-1","lat":35.771892,"lon":139.463658},{"name":"東村山市社会福祉協議会","province":"東京都","city":"東村山市","address":"東村山市野口町1-25-15東村山市地域福祉センター","lat":35.758293,"lon":139.464261},{"name":"ドーミー久米川","province":"東京都","city":"東村山市","address":"東村山市本町1-9-11","lat":35.75204,"lon":139.46751},{"name":"東村山ソーシャルホーム","province":"東京都","city":"東村山市","address":"東村山市本町1-13-51大塚ビル104","lat":35.75448,"lon":139.46622},{"name":"村山荘","province":"東京都","city":"東村山市","address":"東村山市富士見町2-7-5","lat":35.74027,"lon":139.45242},{"name":"さつき荘","province":"東京都","city":"東村山市","address":"東村山市富士見町2-8-2","lat":35.7401,"lon":139.45364},{"name":"東村山市福祉作業所","province":"東京都","city":"東村山市","address":"東村山市諏訪町1-3-10","lat":35.76547,"lon":139.46674},{"name":"ドーミー久米川２","province":"東京都","city":"東村山市","address":"東村山市本町1-9-11","lat":35.75204,"lon":139.46751},{"name":"東村山市社会福祉協議会","province":"東京都","city":"東村山市","address":"東村山市野口町1-25-15東村山市地域福祉センター","lat":35.75862,"lon":139.464},{"name":"さつき荘","province":"東京都","city":"東村山市","address":"東村山市富士見町2-8-2","lat":35.740609,"lon":139.453774},{"name":"村山荘","province":"東京都","city":"東村山市","address":"東村山市富士見町2-7-5","lat":35.740203,"lon":139.452535},{"name":"さつき荘","province":"東京都","city":"東村山市","address":"東村山市富士見町2-8-2","lat":35.74011,"lon":139.45364},{"name":"東村山市社会福祉協議会","province":"東京都","city":"東村山市","address":"東村山市野口町1-25-15東村山市地域福祉センター","lat":35.75862,"lon":139.46401},{"name":"ドーミー久米川","province":"東京都","city":"東村山市","address":"東村山市本町1-9-11","lat":35.75205,"lon":139.46751},{"name":"ドーミー久米川２","province":"東京都","city":"東村山市","address":"東村山市本町1-9-11","lat":35.75205,"lon":139.46751},{"name":"ドーミー久米川","province":"東京都","city":"東村山市","address":"東村山市本町1-9-11","lat":35.751721,"lon":139.467964},{"name":"東村山市福祉作業所（平成31年４月１日より休止中）","province":"東京都","city":"東村山市","address":"東村山市諏訪町1-3-10","lat":35.76549,"lon":139.466672},{"name":"グリーン・ボイス","province":"東京都","city":"東村山市","address":"東村山市萩山町3-31-2","lat":35.743978,"lon":139.468161},{"name":"東京ばんなん白光園","province":"東京都","city":"東村山市","address":"東村山市諏訪町2-26-1","lat":35.771892,"lon":139.463658},{"name":"東村山市福祉作業所","province":"東京都","city":"東村山市","address":"東村山市諏訪町1-3-10","lat":35.76549,"lon":139.466672},{"name":"東村山ソーシャルホーム","province":"東京都","city":"東村山市","address":"東村山市本町1-13-51大塚ビル104","lat":35.75433,"lon":139.466156},{"name":"緑風荘病院","province":"東京都","city":"東村山市","address":"東村山市萩山町3-31-1","lat":35.74455,"lon":139.468078},{"name":"東京白十字病院","province":"東京都","city":"東村山市","address":"東村山市諏訪町2-26-1","lat":35.771892,"lon":139.463658},{"name":"東村山市社会福祉協議会","province":"東京都","city":"東村山市","address":"東村山市野口町1-25-15東村山市地域福祉センター","lat":35.758293,"lon":139.464261},{"name":"ドーミー久米川","province":"東京都","city":"東村山市","address":"東村山市本町1-9-11","lat":35.75204,"lon":139.46751},{"name":"東村山ソーシャルホーム","province":"東京都","city":"東村山市","address":"東村山市本町1-13-51大塚ビル104","lat":35.75448,"lon":139.46622},{"name":"村山荘","province":"東京都","city":"東村山市","address":"東村山市富士見町2-7-5","lat":35.74027,"lon":139.45242},{"name":"さつき荘","province":"東京都","city":"東村山市","address":"東村山市富士見町2-8-2","lat":35.7401,"lon":139.45364},{"name":"東村山市福祉作業所","province":"東京都","city":"東村山市","address":"東村山市諏訪町1-3-10","lat":35.76547,"lon":139.46674},{"name":"ドーミー久米川２","province":"東京都","city":"東村山市","address":"東村山市本町1-9-11","lat":35.75204,"lon":139.46751},{"name":"東村山市社会福祉協議会","province":"東京都","city":"東村山市","address":"東村山市野口町1-25-15東村山市地域福祉センター","lat":35.75862,"lon":139.464},{"name":"さつき荘","province":"東京都","city":"東村山市","address":"東村山市富士見町2-8-2","lat":35.740609,"lon":139.453774},{"name":"村山荘","province":"東京都","city":"東村山市","address":"東村山市富士見町2-7-5","lat":35.740203,"lon":139.452535},{"name":"さつき荘","province":"東京都","city":"東村山市","address":"東村山市富士見町2-8-2","lat":35.74011,"lon":139.45364},{"name":"東村山市社会福祉協議会","province":"東京都","city":"東村山市","address":"東村山市野口町1-25-15東村山市地域福祉センター","lat":35.75862,"lon":139.46401},{"name":"ドーミー久米川","province":"東京都","city":"東村山市","address":"東村山市本町1-9-11","lat":35.75205,"lon":139.46751},{"name":"ドーミー久米川２","province":"東京都","city":"東村山市","address":"東村山市本町1-9-11","lat":35.75205,"lon":139.46751},{"name":"ドーミー久米川","province":"東京都","city":"東村山市","address":"東村山市本町1-9-11","lat":35.751721,"lon":139.467964},{"name":"東村山市福祉作業所（平成31年４月１日より休止中）","province":"東京都","city":"東村山市","address":"東村山市諏訪町1-3-10","lat":35.76549,"lon":139.466672},{"name":"グリーン・ボイス","province":"東京都","city":"東村山市","address":"東村山市萩山町3-31-2","lat":35.743978,"lon":139.468161},{"name":"東京ばんなん白光園","province":"東京都","city":"東村山市","address":"東村山市諏訪町2-26-1","lat":35.771892,"lon":139.463658},{"name":"東村山市福祉作業所","province":"東京都","city":"東村山市","address":"東村山市諏訪町1-3-10","lat":35.76549,"lon":139.466672},{"name":"東村山ソーシャルホーム","province":"東京都","city":"東村山市","address":"東村山市本町1-13-51大塚ビル104","lat":35.75433,"lon":139.466156},{"name":"緑風荘病院","province":"東京都","city":"東村山市","address":"東村山市萩山町3-31-1","lat":35.74455,"lon":139.468078},{"name":"東京白十字病院","province":"東京都","city":"東村山市","address":"東村山市諏訪町2-26-1","lat":35.771892,"lon":139.463658},{"name":"東村山市社会福祉協議会","province":"東京都","city":"東村山市","address":"東村山市野口町1-25-15東村山市地域福祉センター","lat":35.758293,"lon":139.464261},{"name":"ドーミー久米川","province":"東京都","city":"東村山市","address":"東村山市本町1-9-11","lat":35.75204,"lon":139.46751},{"name":"東村山ソーシャルホーム","province":"東京都","city":"東村山市","address":"東村山市本町1-13-51大塚ビル104","lat":35.75448,"lon":139.46622},{"name":"村山荘","province":"東京都","city":"東村山市","address":"東村山市富士見町2-7-5","lat":35.74027,"lon":139.45242},{"name":"さつき荘","province":"東京都","city":"東村山市","address":"東村山市富士見町2-8-2","lat":35.7401,"lon":139.45364},{"name":"東村山市福祉作業所","province":"東京都","city":"東村山市","address":"東村山市諏訪町1-3-10","lat":35.76547,"lon":139.46674},{"name":"ドーミー久米川２","province":"東京都","city":"東村山市","address":"東村山市本町1-9-11","lat":35.75204,"lon":139.46751},{"name":"東村山市社会福祉協議会","province":"東京都","city":"東村山市","address":"東村山市野口町1-25-15東村山市地域福祉センター","lat":35.75862,"lon":139.464},{"name":"さつき荘","province":"東京都","city":"東村山市","address":"東村山市富士見町2-8-2","lat":35.740609,"lon":139.453774},{"name":"村山荘","province":"東京都","city":"東村山市","address":"東村山市富士見町2-7-5","lat":35.740203,"lon":139.452535},{"name":"さつき荘","province":"東京都","city":"東村山市","address":"東村山市富士見町2-8-2","lat":35.74011,"lon":139.45364},{"name":"東村山市社会福祉協議会","province":"東京都","city":"東村山市","address":"東村山市野口町1-25-15東村山市地域福祉センター","lat":35.75862,"lon":139.46401},{"name":"ドーミー久米川","province":"東京都","city":"東村山市","address":"東村山市本町1-9-11","lat":35.75205,"lon":139.46751},{"name":"ドーミー久米川２","province":"東京都","city":"東村山市","address":"東村山市本町1-9-11","lat":35.75205,"lon":139.46751},{"name":"ドーミー久米川","province":"東京都","city":"東村山市","address":"東村山市本町1-9-11","lat":35.751721,"lon":139.467964},{"name":"東村山市福祉作業所（平成31年４月１日より休止中）","province":"東京都","city":"東村山市","address":"東村山市諏訪町1-3-10","lat":35.76549,"lon":139.466672},{"name":"グリーン・ボイス","province":"東京都","city":"東村山市","address":"東村山市萩山町3-31-2","lat":35.743978,"lon":139.468161},{"name":"東京ばんなん白光園","province":"東京都","city":"東村山市","address":"東村山市諏訪町2-26-1","lat":35.771892,"lon":139.463658},{"name":"東村山市福祉作業所","province":"東京都","city":"東村山市","address":"東村山市諏訪町1-3-10","lat":35.76549,"lon":139.466672},{"name":"東村山ソーシャルホーム","province":"東京都","city":"東村山市","address":"東村山市本町1-13-51大塚ビル104","lat":35.75433,"lon":139.466156},{"name":"緑風荘病院","province":"東京都","city":"東村山市","address":"東村山市萩山町3-31-1","lat":35.74455,"lon":139.468078},{"name":"東京白十字病院","province":"東京都","city":"東村山市","address":"東村山市諏訪町2-26-1","lat":35.771892,"lon":139.463658},{"name":"東村山市社会福祉協議会","province":"東京都","city":"東村山市","address":"東村山市野口町1-25-15東村山市地域福祉センター","lat":35.758293,"lon":139.464261},{"name":"ドーミー久米川","province":"東京都","city":"東村山市","address":"東村山市本町1-9-11","lat":35.75204,"lon":139.46751},{"name":"東村山ソーシャルホーム","province":"東京都","city":"東村山市","address":"東村山市本町1-13-51大塚ビル104","lat":35.75448,"lon":139.46622},{"name":"村山荘","province":"東京都","city":"東村山市","address":"東村山市富士見町2-7-5","lat":35.74027,"lon":139.45242},{"name":"さつき荘","province":"東京都","city":"東村山市","address":"東村山市富士見町2-8-2","lat":35.7401,"lon":139.45364},{"name":"東村山市福祉作業所","province":"東京都","city":"東村山市","address":"東村山市諏訪町1-3-10","lat":35.76547,"lon":139.46674},{"name":"ドーミー久米川２","province":"東京都","city":"東村山市","address":"東村山市本町1-9-11","lat":35.75204,"lon":139.46751},{"name":"東村山市社会福祉協議会","province":"東京都","city":"東村山市","address":"東村山市野口町1-25-15東村山市地域福祉センター","lat":35.75862,"lon":139.464},{"name":"さつき荘","province":"東京都","city":"東村山市","address":"東村山市富士見町2-8-2","lat":35.740609,"lon":139.453774},{"name":"村山荘","province":"東京都","city":"東村山市","address":"東村山市富士見町2-7-5","lat":35.740203,"lon":139.452535},{"name":"さつき荘","province":"東京都","city":"東村山市","address":"東村山市富士見町2-8-2","lat":35.74011,"lon":139.45364},{"name":"東村山市社会福祉協議会","province":"東京都","city":"東村山市","address":"東村山市野口町1-25-15東村山市地域福祉センター","lat":35.75862,"lon":139.46401},{"name":"ドーミー久米川","province":"東京都","city":"東村山市","address":"東村山市本町1-9-11","lat":35.75205,"lon":139.46751},{"name":"ドーミー久米川２","province":"東京都","city":"東村山市","address":"東村山市本町1-9-11","lat":35.75205,"lon":139.46751},{"name":"ドーミー久米川","province":"東京都","city":"東村山市","address":"東村山市本町1-9-11","lat":35.751721,"lon":139.467964},{"name":"東村山市福祉作業所（平成31年４月１日より休止中）","province":"東京都","city":"東村山市","address":"東村山市諏訪町1-3-10","lat":35.76549,"lon":139.466672},{"name":"グリーン・ボイス","province":"東京都","city":"東村山市","address":"東村山市萩山町3-31-2","lat":35.743978,"lon":139.468161},{"name":"東京ばんなん白光園","province":"東京都","city":"東村山市","address":"東村山市諏訪町2-26-1","lat":35.771892,"lon":139.463658},{"name":"東村山市福祉作業所","province":"東京都","city":"東村山市","address":"東村山市諏訪町1-3-10","lat":35.76549,"lon":139.466672},{"name":"東村山ソーシャルホーム","province":"東京都","city":"東村山市","address":"東村山市本町1-13-51大塚ビル104","lat":35.75433,"lon":139.466156},{"name":"緑風荘病院","province":"東京都","city":"東村山市","address":"東村山市萩山町3-31-1","lat":35.74455,"lon":139.468078},{"name":"東京白十字病院","province":"東京都","city":"東村山市","address":"東村山市諏訪町2-26-1","lat":35.771892,"lon":139.463658},{"name":"東村山市社会福祉協議会","province":"東京都","city":"東村山市","address":"東村山市野口町1-25-15東村山市地域福祉センター","lat":35.758293,"lon":139.464261},{"name":"ドーミー久米川","province":"東京都","city":"東村山市","address":"東村山市本町1-9-11","lat":35.75204,"lon":139.46751},{"name":"東村山ソーシャルホーム","province":"東京都","city":"東村山市","address":"東村山市本町1-13-51大塚ビル104","lat":35.75448,"lon":139.46622},{"name":"村山荘","province":"東京都","city":"東村山市","address":"東村山市富士見町2-7-5","lat":35.74027,"lon":139.45242},{"name":"さつき荘","province":"東京都","city":"東村山市","address":"東村山市富士見町2-8-2","lat":35.7401,"lon":139.45364},{"name":"東村山市福祉作業所","province":"東京都","city":"東村山市","address":"東村山市諏訪町1-3-10","lat":35.76547,"lon":139.46674},{"name":"ドーミー久米川２","province":"東京都","city":"東村山市","address":"東村山市本町1-9-11","lat":35.75204,"lon":139.46751},{"name":"東村山市社会福祉協議会","province":"東京都","city":"東村山市","address":"東村山市野口町1-25-15東村山市地域福祉センター","lat":35.75862,"lon":139.464},{"name":"さつき荘","province":"東京都","city":"東村山市","address":"東村山市富士見町2-8-2","lat":35.740609,"lon":139.453774},{"name":"村山荘","province":"東京都","city":"東村山市","address":"東村山市富士見町2-7-5","lat":35.740203,"lon":139.452535},{"name":"さつき荘","province":"東京都","city":"東村山市","address":"東村山市富士見町2-8-2","lat":35.74011,"lon":139.45364},{"name":"東村山市社会福祉協議会","province":"東京都","city":"東村山市","address":"東村山市野口町1-25-15東村山市地域福祉センター","lat":35.75862,"lon":139.46401},{"name":"ドーミー久米川","province":"東京都","city":"東村山市","address":"東村山市本町1-9-11","lat":35.75205,"lon":139.46751},{"name":"ドーミー久米川２","province":"東京都","city":"東村山市","address":"東村山市本町1-9-11","lat":35.75205,"lon":139.46751},{"name":"ドーミー久米川","province":"東京都","city":"東村山市","address":"東村山市本町1-9-11","lat":35.751721,"lon":139.467964},{"name":"東村山市福祉作業所（平成31年４月１日より休止中）","province":"東京都","city":"東村山市","address":"東村山市諏訪町1-3-10","lat":35.76549,"lon":139.466672},{"name":"グリーン・ボイス","province":"東京都","city":"東村山市","address":"東村山市萩山町3-31-2","lat":35.743978,"lon":139.468161},{"name":"東京ばんなん白光園","province":"東京都","city":"東村山市","address":"東村山市諏訪町2-26-1","lat":35.771892,"lon":139.463658},{"name":"東村山市福祉作業所","province":"東京都","city":"東村山市","address":"東村山市諏訪町1-3-10","lat":35.76549,"lon":139.466672},{"name":"東村山ソーシャルホーム","province":"東京都","city":"東村山市","address":"東村山市本町1-13-51大塚ビル104","lat":35.75433,"lon":139.466156},{"name":"緑風荘病院","province":"東京都","city":"東村山市","address":"東村山市萩山町3-31-1","lat":35.74455,"lon":139.468078},{"name":"東京白十字病院","province":"東京都","city":"東村山市","address":"東村山市諏訪町2-26-1","lat":35.771892,"lon":139.463658},{"name":"東村山市社会福祉協議会","province":"東京都","city":"東村山市","address":"東村山市野口町1-25-15東村山市地域福祉センター","lat":35.758293,"lon":139.464261},{"name":"ドーミー久米川","province":"東京都","city":"東村山市","address":"東村山市本町1-9-11","lat":35.75204,"lon":139.46751},{"name":"東村山ソーシャルホーム","province":"東京都","city":"東村山市","address":"東村山市本町1-13-51大塚ビル104","lat":35.75448,"lon":139.46622},{"name":"村山荘","province":"東京都","city":"東村山市","address":"東村山市富士見町2-7-5","lat":35.74027,"lon":139.45242},{"name":"さつき荘","province":"東京都","city":"東村山市","address":"東村山市富士見町2-8-2","lat":35.7401,"lon":139.45364},{"name":"東村山市福祉作業所","province":"東京都","city":"東村山市","address":"東村山市諏訪町1-3-10","lat":35.76547,"lon":139.46674},{"name":"ドーミー久米川２","province":"東京都","city":"東村山市","address":"東村山市本町1-9-11","lat":35.75204,"lon":139.46751},{"name":"東村山市社会福祉協議会","province":"東京都","city":"東村山市","address":"東村山市野口町1-25-15東村山市地域福祉センター","lat":35.75862,"lon":139.464},{"name":"さつき荘","province":"東京都","city":"東村山市","address":"東村山市富士見町2-8-2","lat":35.740609,"lon":139.453774},{"name":"村山荘","province":"東京都","city":"東村山市","address":"東村山市富士見町2-7-5","lat":35.740203,"lon":139.452535},{"name":"さつき荘","province":"東京都","city":"東村山市","address":"東村山市富士見町2-8-2","lat":35.74011,"lon":139.45364},{"name":"東村山市社会福祉協議会","province":"東京都","city":"東村山市","address":"東村山市野口町1-25-15東村山市地域福祉センター","lat":35.75862,"lon":139.46401},{"name":"ドーミー久米川","province":"東京都","city":"東村山市","address":"東村山市本町1-9-11","lat":35.75205,"lon":139.46751},{"name":"ドーミー久米川２","province":"東京都","city":"東村山市","address":"東村山市本町1-9-11","lat":35.75205,"lon":139.46751},{"name":"ドーミー久米川","province":"東京都","city":"東村山市","address":"東村山市本町1-9-11","lat":35.751721,"lon":139.467964},{"name":"東村山市福祉作業所（平成31年４月１日より休止中）","province":"東京都","city":"東村山市","address":"東村山市諏訪町1-3-10","lat":35.76549,"lon":139.466672},{"name":"グリーン・ボイス","province":"東京都","city":"東村山市","address":"東村山市萩山町3-31-2","lat":35.743978,"lon":139.468161},{"name":"東京ばんなん白光園","province":"東京都","city":"東村山市","address":"東村山市諏訪町2-26-1","lat":35.771892,"lon":139.463658},{"name":"東村山市福祉作業所","province":"東京都","city":"東村山市","address":"東村山市諏訪町1-3-10","lat":35.76549,"lon":139.466672},{"name":"東村山ソーシャルホーム","province":"東京都","city":"東村山市","address":"東村山市本町1-13-51大塚ビル104","lat":35.75433,"lon":139.466156},{"name":"緑風荘病院","province":"東京都","city":"東村山市","address":"東村山市萩山町3-31-1","lat":35.74455,"lon":139.468078},{"name":"東京白十字病院","province":"東京都","city":"東村山市","address":"東村山市諏訪町2-26-1","lat":35.771892,"lon":139.463658},{"name":"東村山市社会福祉協議会","province":"東京都","city":"東村山市","address":"東村山市野口町1-25-15東村山市地域福祉センター","lat":35.758293,"lon":139.464261},{"name":"ドーミー久米川","province":"東京都","city":"東村山市","address":"東村山市本町1-9-11","lat":35.75204,"lon":139.46751},{"name":"東村山ソーシャルホーム","province":"東京都","city":"東村山市","address":"東村山市本町1-13-51大塚ビル104","lat":35.75448,"lon":139.46622},{"name":"村山荘","province":"東京都","city":"東村山市","address":"東村山市富士見町2-7-5","lat":35.74027,"lon":139.45242},{"name":"さつき荘","province":"東京都","city":"東村山市","address":"東村山市富士見町2-8-2","lat":35.7401,"lon":139.45364},{"name":"東村山市福祉作業所","province":"東京都","city":"東村山市","address":"東村山市諏訪町1-3-10","lat":35.76547,"lon":139.46674},{"name":"ドーミー久米川２","province":"東京都","city":"東村山市","address":"東村山市本町1-9-11","lat":35.75204,"lon":139.46751},{"name":"東村山市社会福祉協議会","province":"東京都","city":"東村山市","address":"東村山市野口町1-25-15東村山市地域福祉センター","lat":35.75862,"lon":139.464},{"name":"さつき荘","province":"東京都","city":"東村山市","address":"東村山市富士見町2-8-2","lat":35.740609,"lon":139.453774},{"name":"村山荘","province":"東京都","city":"東村山市","address":"東村山市富士見町2-7-5","lat":35.740203,"lon":139.452535},{"name":"さつき荘","province":"東京都","city":"東村山市","address":"東村山市富士見町2-8-2","lat":35.74011,"lon":139.45364},{"name":"東村山市社会福祉協議会","province":"東京都","city":"東村山市","address":"東村山市野口町1-25-15東村山市地域福祉センター","lat":35.75862,"lon":139.46401},{"name":"ドーミー久米川","province":"東京都","city":"東村山市","address":"東村山市本町1-9-11","lat":35.75205,"lon":139.46751},{"name":"ドーミー久米川２","province":"東京都","city":"東村山市","address":"東村山市本町1-9-11","lat":35.75205,"lon":139.46751},{"name":"ドーミー久米川","province":"東京都","city":"東村山市","address":"東村山市本町1-9-11","lat":35.751721,"lon":139.467964},{"name":"東村山市福祉作業所（平成31年４月１日より休止中）","province":"東京都","city":"東村山市","address":"東村山市諏訪町1-3-10","lat":35.76549,"lon":139.466672},{"name":"グリーン・ボイス","province":"東京都","city":"東村山市","address":"東村山市萩山町3-31-2","lat":35.743978,"lon":139.468161},{"name":"東京ばんなん白光園","province":"東京都","city":"東村山市","address":"東村山市諏訪町2-26-1","lat":35.771892,"lon":139.463658},{"name":"東村山市福祉作業所","province":"東京都","city":"東村山市","address":"東村山市諏訪町1-3-10","lat":35.76549,"lon":139.466672},{"name":"東村山ソーシャルホーム","province":"東京都","city":"東村山市","address":"東村山市本町1-13-51大塚ビル104","lat":35.75433,"lon":139.466156},{"name":"緑風荘病院","province":"東京都","city":"東村山市","address":"東村山市萩山町3-31-1","lat":35.74455,"lon":139.468078},{"name":"東京白十字病院","province":"東京都","city":"東村山市","address":"東村山市諏訪町2-26-1","lat":35.771892,"lon":139.463658},{"name":"東村山市社会福祉協議会","province":"東京都","city":"東村山市","address":"東村山市野口町1-25-15東村山市地域福祉センター","lat":35.758293,"lon":139.464261},{"name":"ドーミー久米川","province":"東京都","city":"東村山市","address":"東村山市本町1-9-11","lat":35.75204,"lon":139.46751},{"name":"東村山ソーシャルホーム","province":"東京都","city":"東村山市","address":"東村山市本町1-13-51大塚ビル104","lat":35.75448,"lon":139.46622},{"name":"村山荘","province":"東京都","city":"東村山市","address":"東村山市富士見町2-7-5","lat":35.74027,"lon":139.45242},{"name":"さつき荘","province":"東京都","city":"東村山市","address":"東村山市富士見町2-8-2","lat":35.7401,"lon":139.45364},{"name":"東村山市福祉作業所","province":"東京都","city":"東村山市","address":"東村山市諏訪町1-3-10","lat":35.76547,"lon":139.46674},{"name":"ドーミー久米川２","province":"東京都","city":"東村山市","address":"東村山市本町1-9-11","lat":35.75204,"lon":139.46751},{"name":"東村山市社会福祉協議会","province":"東京都","city":"東村山市","address":"東村山市野口町1-25-15東村山市地域福祉センター","lat":35.75862,"lon":139.464},{"name":"さつき荘","province":"東京都","city":"東村山市","address":"東村山市富士見町2-8-2","lat":35.740609,"lon":139.453774},{"name":"村山荘","province":"東京都","city":"東村山市","address":"東村山市富士見町2-7-5","lat":35.740203,"lon":139.452535},{"name":"さつき荘","province":"東京都","city":"東村山市","address":"東村山市富士見町2-8-2","lat":35.74011,"lon":139.45364},{"name":"東村山市社会福祉協議会","province":"東京都","city":"東村山市","address":"東村山市野口町1-25-15東村山市地域福祉センター","lat":35.75862,"lon":139.46401},{"name":"ドーミー久米川","province":"東京都","city":"東村山市","address":"東村山市本町1-9-11","lat":35.75205,"lon":139.46751},{"name":"ドーミー久米川２","province":"東京都","city":"東村山市","address":"東村山市本町1-9-11","lat":35.75205,"lon":139.46751},{"name":"ドーミー久米川","province":"東京都","city":"東村山市","address":"東村山市本町1-9-11","lat":35.751721,"lon":139.467964},{"name":"東村山市福祉作業所（平成31年４月１日より休止中）","province":"東京都","city":"東村山市","address":"東村山市諏訪町1-3-10","lat":35.76549,"lon":139.466672},{"name":"グリーン・ボイス","province":"東京都","city":"東村山市","address":"東村山市萩山町3-31-2","lat":35.743978,"lon":139.468161},{"name":"東京ばんなん白光園","province":"東京都","city":"東村山市","address":"東村山市諏訪町2-26-1","lat":35.771892,"lon":139.463658},{"name":"東村山市福祉作業所","province":"東京都","city":"東村山市","address":"東村山市諏訪町1-3-10","lat":35.76549,"lon":139.466672},{"name":"東村山ソーシャルホーム","province":"東京都","city":"東村山市","address":"東村山市本町1-13-51大塚ビル104","lat":35.75433,"lon":139.466156},{"name":"緑風荘病院","province":"東京都","city":"東村山市","address":"東村山市萩山町3-31-1","lat":35.74455,"lon":139.468078},{"name":"東京白十字病院","province":"東京都","city":"東村山市","address":"東村山市諏訪町2-26-1","lat":35.771892,"lon":139.463658},{"name":"東村山市社会福祉協議会","province":"東京都","city":"東村山市","address":"東村山市野口町1-25-15東村山市地域福祉センター","lat":35.758293,"lon":139.464261},{"name":"ドーミー久米川","province":"東京都","city":"東村山市","address":"東村山市本町1-9-11","lat":35.75204,"lon":139.46751},{"name":"東村山ソーシャルホーム","province":"東京都","city":"東村山市","address":"東村山市本町1-13-51大塚ビル104","lat":35.75448,"lon":139.46622},{"name":"村山荘","province":"東京都","city":"東村山市","address":"東村山市富士見町2-7-5","lat":35.74027,"lon":139.45242},{"name":"さつき荘","province":"東京都","city":"東村山市","address":"東村山市富士見町2-8-2","lat":35.7401,"lon":139.45364},{"name":"東村山市福祉作業所","province":"東京都","city":"東村山市","address":"東村山市諏訪町1-3-10","lat":35.76547,"lon":139.46674},{"name":"ドーミー久米川２","province":"東京都","city":"東村山市","address":"東村山市本町1-9-11","lat":35.75204,"lon":139.46751},{"name":"東村山市社会福祉協議会","province":"東京都","city":"東村山市","address":"東村山市野口町1-25-15東村山市地域福祉センター","lat":35.75862,"lon":139.464},{"name":"さつき荘","province":"東京都","city":"東村山市","address":"東村山市富士見町2-8-2","lat":35.740609,"lon":139.453774},{"name":"村山荘","province":"東京都","city":"東村山市","address":"東村山市富士見町2-7-5","lat":35.740203,"lon":139.452535},{"name":"さつき荘","province":"東京都","city":"東村山市","address":"東村山市富士見町2-8-2","lat":35.74011,"lon":139.45364},{"name":"東村山市社会福祉協議会","province":"東京都","city":"東村山市","address":"東村山市野口町1-25-15東村山市地域福祉センター","lat":35.75862,"lon":139.46401},{"name":"ドーミー久米川","province":"東京都","city":"東村山市","address":"東村山市本町1-9-11","lat":35.75205,"lon":139.46751},{"name":"ドーミー久米川２","province":"東京都","city":"東村山市","address":"東村山市本町1-9-11","lat":35.75205,"lon":139.46751},{"name":"ドーミー久米川","province":"東京都","city":"東村山市","address":"東村山市本町1-9-11","lat":35.751721,"lon":139.467964},{"name":"東村山市福祉作業所（平成31年４月１日より休止中）","province":"東京都","city":"東村山市","address":"東村山市諏訪町1-3-10","lat":35.76549,"lon":139.466672},{"name":"グリーン・ボイス","province":"東京都","city":"東村山市","address":"東村山市萩山町3-31-2","lat":35.743978,"lon":139.468161},{"name":"東京ばんなん白光園","province":"東京都","city":"東村山市","address":"東村山市諏訪町2-26-1","lat":35.771892,"lon":139.463658},{"name":"東村山市福祉作業所","province":"東京都","city":"東村山市","address":"東村山市諏訪町1-3-10","lat":35.76549,"lon":139.466672},{"name":"東村山ソーシャルホーム","province":"東京都","city":"東村山市","address":"東村山市本町1-13-51大塚ビル104","lat":35.75433,"lon":139.466156},{"name":"緑風荘病院","province":"東京都","city":"東村山市","address":"東村山市萩山町3-31-1","lat":35.74455,"lon":139.468078},{"name":"東京白十字病院","province":"東京都","city":"東村山市","address":"東村山市諏訪町2-26-1","lat":35.771892,"lon":139.463658},{"name":"東村山市社会福祉協議会","province":"東京都","city":"東村山市","address":"東村山市野口町1-25-15東村山市地域福祉センター","lat":35.758293,"lon":139.464261},{"name":"ドーミー久米川","province":"東京都","city":"東村山市","address":"東村山市本町1-9-11","lat":35.75204,"lon":139.46751},{"name":"東村山ソーシャルホーム","province":"東京都","city":"東村山市","address":"東村山市本町1-13-51大塚ビル104","lat":35.75448,"lon":139.46622},{"name":"村山荘","province":"東京都","city":"東村山市","address":"東村山市富士見町2-7-5","lat":35.74027,"lon":139.45242},{"name":"さつき荘","province":"東京都","city":"東村山市","address":"東村山市富士見町2-8-2","lat":35.7401,"lon":139.45364},{"name":"東村山市福祉作業所","province":"東京都","city":"東村山市","address":"東村山市諏訪町1-3-10","lat":35.76547,"lon":139.46674},{"name":"ドーミー久米川２","province":"東京都","city":"東村山市","address":"東村山市本町1-9-11","lat":35.75204,"lon":139.46751},{"name":"東村山市社会福祉協議会","province":"東京都","city":"東村山市","address":"東村山市野口町1-25-15東村山市地域福祉センター","lat":35.75862,"lon":139.464},{"name":"さつき荘","province":"東京都","city":"東村山市","address":"東村山市富士見町2-8-2","lat":35.740609,"lon":139.453774},{"name":"村山荘","province":"東京都","city":"東村山市","address":"東村山市富士見町2-7-5","lat":35.740203,"lon":139.452535},{"name":"さつき荘","province":"東京都","city":"東村山市","address":"東村山市富士見町2-8-2","lat":35.74011,"lon":139.45364},{"name":"東村山市社会福祉協議会","province":"東京都","city":"東村山市","address":"東村山市野口町1-25-15東村山市地域福祉センター","lat":35.75862,"lon":139.46401},{"name":"ドーミー久米川","province":"東京都","city":"東村山市","address":"東村山市本町1-9-11","lat":35.75205,"lon":139.46751},{"name":"ドーミー久米川２","province":"東京都","city":"東村山市","address":"東村山市本町1-9-11","lat":35.75205,"lon":139.46751},{"name":"ドーミー久米川","province":"東京都","city":"東村山市","address":"東村山市本町1-9-11","lat":35.751721,"lon":139.467964},{"name":"東村山市福祉作業所（平成31年４月１日より休止中）","province":"東京都","city":"東村山市","address":"東村山市諏訪町1-3-10","lat":35.76549,"lon":139.466672},{"name":"グリーン・ボイス","province":"東京都","city":"東村山市","address":"東村山市萩山町3-31-2","lat":35.743978,"lon":139.468161},{"name":"東京ばんなん白光園","province":"東京都","city":"東村山市","address":"東村山市諏訪町2-26-1","lat":35.771892,"lon":139.463658},{"name":"東村山市福祉作業所","province":"東京都","city":"東村山市","address":"東村山市諏訪町1-3-10","lat":35.76549,"lon":139.466672},{"name":"東村山ソーシャルホーム","province":"東京都","city":"東村山市","address":"東村山市本町1-13-51大塚ビル104","lat":35.75433,"lon":139.466156},{"name":"緑風荘病院","province":"東京都","city":"東村山市","address":"東村山市萩山町3-31-1","lat":35.74455,"lon":139.468078},{"name":"東京白十字病院","province":"東京都","city":"東村山市","address":"東村山市諏訪町2-26-1","lat":35.771892,"lon":139.463658},{"name":"東村山市社会福祉協議会","province":"東京都","city":"東村山市","address":"東村山市野口町1-25-15東村山市地域福祉センター","lat":35.758293,"lon":139.464261},{"name":"ドーミー久米川","province":"東京都","city":"東村山市","address":"東村山市本町1-9-11","lat":35.75204,"lon":139.46751},{"name":"東村山ソーシャルホーム","province":"東京都","city":"東村山市","address":"東村山市本町1-13-51大塚ビル104","lat":35.75448,"lon":139.46622},{"name":"村山荘","province":"東京都","city":"東村山市","address":"東村山市富士見町2-7-5","lat":35.74027,"lon":139.45242},{"name":"さつき荘","province":"東京都","city":"東村山市","address":"東村山市富士見町2-8-2","lat":35.7401,"lon":139.45364},{"name":"東村山市福祉作業所","province":"東京都","city":"東村山市","address":"東村山市諏訪町1-3-10","lat":35.76547,"lon":139.46674},{"name":"ドーミー久米川２","province":"東京都","city":"東村山市","address":"東村山市本町1-9-11","lat":35.75204,"lon":139.46751},{"name":"東村山市社会福祉協議会","province":"東京都","city":"東村山市","address":"東村山市野口町1-25-15東村山市地域福祉センター","lat":35.75862,"lon":139.464},{"name":"さつき荘","province":"東京都","city":"東村山市","address":"東村山市富士見町2-8-2","lat":35.740609,"lon":139.453774},{"name":"村山荘","province":"東京都","city":"東村山市","address":"東村山市富士見町2-7-5","lat":35.740203,"lon":139.452535},{"name":"さつき荘","province":"東京都","city":"東村山市","address":"東村山市富士見町2-8-2","lat":35.74011,"lon":139.45364},{"name":"東村山市社会福祉協議会","province":"東京都","city":"東村山市","address":"東村山市野口町1-25-15東村山市地域福祉センター","lat":35.75862,"lon":139.46401},{"name":"ドーミー久米川","province":"東京都","city":"東村山市","address":"東村山市本町1-9-11","lat":35.75205,"lon":139.46751},{"name":"ドーミー久米川２","province":"東京都","city":"東村山市","address":"東村山市本町1-9-11","lat":35.75205,"lon":139.46751},{"name":"ドーミー久米川","province":"東京都","city":"東村山市","address":"東村山市本町1-9-11","lat":35.751721,"lon":139.467964},{"name":"東村山市福祉作業所（平成31年４月１日より休止中）","province":"東京都","city":"東村山市","address":"東村山市諏訪町1-3-10","lat":35.76549,"lon":139.466672},{"name":"グリーン・ボイス","province":"東京都","city":"東村山市","address":"東村山市萩山町3-31-2","lat":35.743978,"lon":139.468161},{"name":"東京ばんなん白光園","province":"東京都","city":"東村山市","address":"東村山市諏訪町2-26-1","lat":35.771892,"lon":139.463658},{"name":"東村山市福祉作業所","province":"東京都","city":"東村山市","address":"東村山市諏訪町1-3-10","lat":35.76549,"lon":139.466672},{"name":"東村山ソーシャルホーム","province":"東京都","city":"東村山市","address":"東村山市本町1-13-51大塚ビル104","lat":35.75433,"lon":139.466156},{"name":"緑風荘病院","province":"東京都","city":"東村山市","address":"東村山市萩山町3-31-1","lat":35.74455,"lon":139.468078},{"name":"東京白十字病院","province":"東京都","city":"東村山市","address":"東村山市諏訪町2-26-1","lat":35.771892,"lon":139.463658},{"name":"東村山市社会福祉協議会","province":"東京都","city":"東村山市","address":"東村山市野口町1-25-15東村山市地域福祉センター","lat":35.758293,"lon":139.464261},{"name":"ドーミー久米川","province":"東京都","city":"東村山市","address":"東村山市本町1-9-11","lat":35.75204,"lon":139.46751},{"name":"東村山ソーシャルホーム","province":"東京都","city":"東村山市","address":"東村山市本町1-13-51大塚ビル104","lat":35.75448,"lon":139.46622},{"name":"村山荘","province":"東京都","city":"東村山市","address":"東村山市富士見町2-7-5","lat":35.74027,"lon":139.45242},{"name":"さつき荘","province":"東京都","city":"東村山市","address":"東村山市富士見町2-8-2","lat":35.7401,"lon":139.45364},{"name":"東村山市福祉作業所","province":"東京都","city":"東村山市","address":"東村山市諏訪町1-3-10","lat":35.76547,"lon":139.46674},{"name":"ドーミー久米川２","province":"東京都","city":"東村山市","address":"東村山市本町1-9-11","lat":35.75204,"lon":139.46751},{"name":"東村山市社会福祉協議会","province":"東京都","city":"東村山市","address":"東村山市野口町1-25-15東村山市地域福祉センター","lat":35.75862,"lon":139.464},{"name":"さつき荘","province":"東京都","city":"東村山市","address":"東村山市富士見町2-8-2","lat":35.740609,"lon":139.453774},{"name":"村山荘","province":"東京都","city":"東村山市","address":"東村山市富士見町2-7-5","lat":35.740203,"lon":139.452535},{"name":"さつき荘","province":"東京都","city":"東村山市","address":"東村山市富士見町2-8-2","lat":35.74011,"lon":139.45364},{"name":"東村山市社会福祉協議会","province":"東京都","city":"東村山市","address":"東村山市野口町1-25-15東村山市地域福祉センター","lat":35.75862,"lon":139.46401},{"name":"ドーミー久米川","province":"東京都","city":"東村山市","address":"東村山市本町1-9-11","lat":35.75205,"lon":139.46751},{"name":"ドーミー久米川２","province":"東京都","city":"東村山市","address":"東村山市本町1-9-11","lat":35.75205,"lon":139.46751},{"name":"ドーミー久米川","province":"東京都","city":"東村山市","address":"東村山市本町1-9-11","lat":35.751721,"lon":139.467964},{"name":"東村山市福祉作業所（平成31年４月１日より休止中）","province":"東京都","city":"東村山市","address":"東村山市諏訪町1-3-10","lat":35.76549,"lon":139.466672},{"name":"グリーン・ボイス","province":"東京都","city":"東村山市","address":"東村山市萩山町3-31-2","lat":35.743978,"lon":139.468161},{"name":"東京ばんなん白光園","province":"東京都","city":"東村山市","address":"東村山市諏訪町2-26-1","lat":35.771892,"lon":139.463658},{"name":"東村山市福祉作業所","province":"東京都","city":"東村山市","address":"東村山市諏訪町1-3-10","lat":35.76549,"lon":139.466672},{"name":"東村山ソーシャルホーム","province":"東京都","city":"東村山市","address":"東村山市本町1-13-51大塚ビル104","lat":35.75433,"lon":139.466156},{"name":"緑風荘病院","province":"東京都","city":"東村山市","address":"東村山市萩山町3-31-1","lat":35.74455,"lon":139.468078},{"name":"東京白十字病院","province":"東京都","city":"東村山市","address":"東村山市諏訪町2-26-1","lat":35.771892,"lon":139.463658},{"name":"東村山市社会福祉協議会","province":"東京都","city":"東村山市","address":"東村山市野口町1-25-15東村山市地域福祉センター","lat":35.758293,"lon":139.464261},{"name":"ドーミー久米川","province":"東京都","city":"東村山市","address":"東村山市本町1-9-11","lat":35.75204,"lon":139.46751},{"name":"東村山ソーシャルホーム","province":"東京都","city":"東村山市","address":"東村山市本町1-13-51大塚ビル104","lat":35.75448,"lon":139.46622},{"name":"村山荘","province":"東京都","city":"東村山市","address":"東村山市富士見町2-7-5","lat":35.74027,"lon":139.45242},{"name":"さつき荘","province":"東京都","city":"東村山市","address":"東村山市富士見町2-8-2","lat":35.7401,"lon":139.45364},{"name":"東村山市福祉作業所","province":"東京都","city":"東村山市","address":"東村山市諏訪町1-3-10","lat":35.76547,"lon":139.46674},{"name":"ドーミー久米川２","province":"東京都","city":"東村山市","address":"東村山市本町1-9-11","lat":35.75204,"lon":139.46751},{"name":"東村山市社会福祉協議会","province":"東京都","city":"東村山市","address":"東村山市野口町1-25-15東村山市地域福祉センター","lat":35.75862,"lon":139.464},{"name":"さつき荘","province":"東京都","city":"東村山市","address":"東村山市富士見町2-8-2","lat":35.740609,"lon":139.453774},{"name":"村山荘","province":"東京都","city":"東村山市","address":"東村山市富士見町2-7-5","lat":35.740203,"lon":139.452535},{"name":"さつき荘","province":"東京都","city":"東村山市","address":"東村山市富士見町2-8-2","lat":35.74011,"lon":139.45364},{"name":"東村山市社会福祉協議会","province":"東京都","city":"東村山市","address":"東村山市野口町1-25-15東村山市地域福祉センター","lat":35.75862,"lon":139.46401},{"name":"ドーミー久米川","province":"東京都","city":"東村山市","address":"東村山市本町1-9-11","lat":35.75205,"lon":139.46751},{"name":"ドーミー久米川２","province":"東京都","city":"東村山市","address":"東村山市本町1-9-11","lat":35.75205,"lon":139.46751},{"name":"ドーミー久米川","province":"東京都","city":"東村山市","address":"東村山市本町1-9-11","lat":35.751721,"lon":139.467964},{"name":"東村山市福祉作業所（平成31年４月１日より休止中）","province":"東京都","city":"東村山市","address":"東村山市諏訪町1-3-10","lat":35.76549,"lon":139.466672},{"name":"グリーン・ボイス","province":"東京都","city":"東村山市","address":"東村山市萩山町3-31-2","lat":35.743978,"lon":139.468161},{"name":"東京ばんなん白光園","province":"東京都","city":"東村山市","address":"東村山市諏訪町2-26-1","lat":35.771892,"lon":139.463658},{"name":"東村山市福祉作業所","province":"東京都","city":"東村山市","address":"東村山市諏訪町1-3-10","lat":35.76549,"lon":139.466672},{"name":"東村山ソーシャルホーム","province":"東京都","city":"東村山市","address":"東村山市本町1-13-51大塚ビル104","lat":35.75433,"lon":139.466156},{"name":"緑風荘病院","province":"東京都","city":"東村山市","address":"東村山市萩山町3-31-1","lat":35.74455,"lon":139.468078},{"name":"東京白十字病院","province":"東京都","city":"東村山市","address":"東村山市諏訪町2-26-1","lat":35.771892,"lon":139.463658},{"name":"東村山市社会福祉協議会","province":"東京都","city":"東村山市","address":"東村山市野口町1-25-15東村山市地域福祉センター","lat":35.758293,"lon":139.464261},{"name":"ドーミー久米川","province":"東京都","city":"東村山市","address":"東村山市本町1-9-11","lat":35.75204,"lon":139.46751},{"name":"東村山ソーシャルホーム","province":"東京都","city":"東村山市","address":"東村山市本町1-13-51大塚ビル104","lat":35.75448,"lon":139.46622},{"name":"村山荘","province":"東京都","city":"東村山市","address":"東村山市富士見町2-7-5","lat":35.74027,"lon":139.45242},{"name":"さつき荘","province":"東京都","city":"東村山市","address":"東村山市富士見町2-8-2","lat":35.7401,"lon":139.45364},{"name":"東村山市福祉作業所","province":"東京都","city":"東村山市","address":"東村山市諏訪町1-3-10","lat":35.76547,"lon":139.46674},{"name":"ドーミー久米川２","province":"東京都","city":"東村山市","address":"東村山市本町1-9-11","lat":35.75204,"lon":139.46751},{"name":"東村山市社会福祉協議会","province":"東京都","city":"東村山市","address":"東村山市野口町1-25-15東村山市地域福祉センター","lat":35.75862,"lon":139.464},{"name":"さつき荘","province":"東京都","city":"東村山市","address":"東村山市富士見町2-8-2","lat":35.740609,"lon":139.453774},{"name":"村山荘","province":"東京都","city":"東村山市","address":"東村山市富士見町2-7-5","lat":35.740203,"lon":139.452535},{"name":"さつき荘","province":"東京都","city":"東村山市","address":"東村山市富士見町2-8-2","lat":35.74011,"lon":139.45364},{"name":"東村山市社会福祉協議会","province":"東京都","city":"東村山市","address":"東村山市野口町1-25-15東村山市地域福祉センター","lat":35.75862,"lon":139.46401},{"name":"ドーミー久米川","province":"東京都","city":"東村山市","address":"東村山市本町1-9-11","lat":35.75205,"lon":139.46751},{"name":"ドーミー久米川２","province":"東京都","city":"東村山市","address":"東村山市本町1-9-11","lat":35.75205,"lon":139.46751},{"name":"ドーミー久米川","province":"東京都","city":"東村山市","address":"東村山市本町1-9-11","lat":35.751721,"lon":139.467964},{"name":"東村山市福祉作業所（平成31年４月１日より休止中）","province":"東京都","city":"東村山市","address":"東村山市諏訪町1-3-10","lat":35.76549,"lon":139.466672},{"name":"グリーン・ボイス","province":"東京都","city":"東村山市","address":"東村山市萩山町3-31-2","lat":35.743978,"lon":139.468161},{"name":"東京ばんなん白光園","province":"東京都","city":"東村山市","address":"東村山市諏訪町2-26-1","lat":35.771892,"lon":139.463658}]}