{"keyword":"戸数","data":[{"name":"多摩北部医療センター","province":"東京都","city":"東村山市","address":"東京都東村山市青葉町1丁目7-1","lat":35.76043805,"lon":139.49094217},{"name":"東村山市社会福祉協議会","province":"東京都","city":"東村山市","address":"東村山市野口町1-25-15東村山市地域福祉センター","lat":35.758293,"lon":139.464261},{"name":"東村山市","province":"東京都","city":"東村山市","address":"東村山市本町1-2-3","lat":35.7546244,"lon":139.4684836},{"name":"長坂式典センター","province":"東京都","city":"東村山市","address":"東京都東村山市本町2丁目19-36","lat":35.75973473,"lon":139.46753035},{"name":"ベルホール三光商会","province":"東京都","city":"東村山市","address":"東京都東村山市恩多町2丁目41-3","lat":35.74664228,"lon":139.48623476},{"name":"メモリアルアートの大野屋","province":"東京都","city":"東村山市","address":"東京都東村山市萩山町1丁目19-2","lat":35.73911534,"lon":139.48567125},{"name":"愛和葬祭","province":"東京都","city":"東村山市","address":"東京都東村山市秋津町3丁目5-8","lat":35.77351681,"lon":139.47999277},{"name":"しんせいどう","province":"東京都","city":"東村山市","address":"東京都東村山市青葉町2丁目1-63","lat":35.76059629,"lon":139.48833404},{"name":"彩花","province":"東京都","city":"東村山市","address":"東京都東村山市青葉町2丁目28-5","lat":35.7628517,"lon":139.49251419},{"name":"東村山市社会福祉協議会","province":"東京都","city":"東村山市","address":"東村山市野口町1-25-15東村山市地域福祉センター","lat":35.75862,"lon":139.464},{"name":"中部地域包括支援センター","province":"東京都","city":"東村山市","address":"東村山市野口町1-25-15東村山市社会福祉協議会内","lat":35.758617,"lon":139.464005},{"name":"北部地域包括支援センター","province":"東京都","city":"東村山市","address":"東村山市諏訪町2-26-1東京ばんなん白光園","lat":35.771687,"lon":139.463852},{"name":"東部地域包括支援センター","province":"東京都","city":"東村山市","address":"東村山市秋津町1-32-18はるびの郷内","lat":35.773125,"lon":139.497025},{"name":"西部地域包括支援センター","province":"東京都","city":"東村山市","address":"東村山市富士見町2-1-2万寿園内","lat":35.744675,"lon":139.453461},{"name":"南部地域包括支援センター","province":"東京都","city":"東村山市","address":"東村山市萩山町3-31-2グリーン・ボイス内","lat":35.743809,"lon":139.46904},{"name":"東村山市消費生活センター","province":"東京都","city":"東村山市","address":"東村山市本町1-2-3東村山市役所市民部市民相談・交流課内","lat":35.75449,"lon":139.468414},{"name":"東村山市社会福祉協議会","province":"東京都","city":"東村山市","address":"東村山市野口町1-25-15東村山市地域福祉センター","lat":35.75862,"lon":139.46401},{"name":"東京都保健医療公社多摩北部医療センター","province":"東京都","city":"東村山市","address":"東京都東村山市青葉町1丁目7-1","lat":35.76043805,"lon":139.49094217},{"name":"八坂給水所","province":"東京都","city":"東村山市","address":"東京都東村山市富士見町5丁目4-46","lat":35.74735525,"lon":139.45848167},{"name":"東村山浄水場","province":"東京都","city":"東村山市","address":"東京都東村山市美住町2丁目20-236","lat":35.75327404,"lon":139.45878417},{"name":"美住給水所","province":"東京都","city":"東村山市","address":"東京都東村山市美住町2丁目13-4","lat":35.75552943,"lon":139.46155328},{"name":"市立東村山運動公園","province":"東京都","city":"東村山市","address":"東京都東村山市恩多町1丁目9-59","lat":35.75542745,"lon":139.48852866},{"name":"美住給水所（注２）","province":"東京都","city":"東村山市","address":"東京都東村山市美住町2丁目13-4","lat":35.75552943,"lon":139.46155328},{"name":"東村山市立東村山運動公園","province":"東京都","city":"東村山市","address":"東京都東村山市恩多町1丁目51-1","lat":35.75413874,"lon":139.48959805},{"name":"経済産業研究所グラウンド","province":"東京都","city":"東村山市","address":"東京都東村山市富士見町5丁目4-36","lat":35.74688305,"lon":139.45748178},{"name":"都立東村山中央公園","province":"東京都","city":"東村山市","address":"東京都東村山市富士見町5丁目","lat":35.74535555,"lon":139.46071488},{"name":"東村山市選挙管理委員会","province":"東京都","city":"東村山市","address":"東村山市本町1-2-3","lat":35.754574,"lon":139.468413},{"name":"東村山ナーシングホーム","province":"東京都","city":"東村山市","address":"東京都東村山市青葉町1丁目7-1","lat":35.76043805,"lon":139.49094217},{"name":"東村山西高等学校","province":"東京都","city":"東村山市","address":"東京都東村山市富士見町5丁目4-41","lat":35.749666,"lon":139.45542351},{"name":"東村山高等学校","province":"東京都","city":"東村山市","address":"東京都東村山市恩多町4丁目26-1","lat":35.759885,"lon":139.47780442},{"name":"多摩北部医療センター","province":"東京都","city":"東村山市","address":"東京都東村山市青葉町1丁目7-1","lat":35.76043805,"lon":139.49094217},{"name":"東村山市社会福祉協議会","province":"東京都","city":"東村山市","address":"東村山市野口町1-25-15東村山市地域福祉センター","lat":35.758293,"lon":139.464261},{"name":"東村山市社会福祉協議会","province":"東京都","city":"東村山市","address":"東村山市野口町1-25-15東村山市地域福祉センター","lat":35.75862,"lon":139.464},{"name":"中部地域包括支援センター","province":"東京都","city":"東村山市","address":"東村山市野口町1-25-15東村山市社会福祉協議会内","lat":35.758617,"lon":139.464005},{"name":"北部地域包括支援センター","province":"東京都","city":"東村山市","address":"東村山市諏訪町2-26-1東京ばんなん白光園","lat":35.771687,"lon":139.463852},{"name":"東部地域包括支援センター","province":"東京都","city":"東村山市","address":"東村山市秋津町1-32-18はるびの郷内","lat":35.773125,"lon":139.497025},{"name":"西部地域包括支援センター","province":"東京都","city":"東村山市","address":"東村山市富士見町2-1-2万寿園内","lat":35.744675,"lon":139.453461},{"name":"南部地域包括支援センター","province":"東京都","city":"東村山市","address":"東村山市萩山町3-31-2グリーン・ボイス内","lat":35.743809,"lon":139.46904},{"name":"東村山市消費生活センター","province":"東京都","city":"東村山市","address":"東村山市本町1-2-3東村山市役所市民部市民相談・交流課内","lat":35.75449,"lon":139.468414},{"name":"東村山市社会福祉協議会","province":"東京都","city":"東村山市","address":"東村山市野口町1-25-15東村山市地域福祉センター","lat":35.75862,"lon":139.46401},{"name":"東京都保健医療公社多摩北部医療センター","province":"東京都","city":"東村山市","address":"東京都東村山市青葉町1丁目7-1","lat":35.76043805,"lon":139.49094217},{"name":"八坂給水所","province":"東京都","city":"東村山市","address":"東京都東村山市富士見町5丁目4-46","lat":35.74735525,"lon":139.45848167},{"name":"東村山浄水場","province":"東京都","city":"東村山市","address":"東京都東村山市美住町2丁目20-236","lat":35.75327404,"lon":139.45878417},{"name":"美住給水所","province":"東京都","city":"東村山市","address":"東京都東村山市美住町2丁目13-4","lat":35.75552943,"lon":139.46155328},{"name":"市立東村山運動公園","province":"東京都","city":"東村山市","address":"東京都東村山市恩多町1丁目9-59","lat":35.75542745,"lon":139.48852866},{"name":"美住給水所（注２）","province":"東京都","city":"東村山市","address":"東京都東村山市美住町2丁目13-4","lat":35.75552943,"lon":139.46155328},{"name":"東村山市立東村山運動公園","province":"東京都","city":"東村山市","address":"東京都東村山市恩多町1丁目51-1","lat":35.75413874,"lon":139.48959805},{"name":"経済産業研究所グラウンド","province":"東京都","city":"東村山市","address":"東京都東村山市富士見町5丁目4-36","lat":35.74688305,"lon":139.45748178},{"name":"都立東村山中央公園","province":"東京都","city":"東村山市","address":"東京都東村山市富士見町5丁目","lat":35.74535555,"lon":139.46071488},{"name":"東村山ナーシングホーム","province":"東京都","city":"東村山市","address":"東京都東村山市青葉町1丁目7-1","lat":35.76043805,"lon":139.49094217},{"name":"東村山西高等学校","province":"東京都","city":"東村山市","address":"東京都東村山市富士見町5丁目4-41","lat":35.749666,"lon":139.45542351},{"name":"東村山高等学校","province":"東京都","city":"東村山市","address":"東京都東村山市恩多町4丁目26-1","lat":35.759885,"lon":139.47780442},{"name":"多摩北部医療センター","province":"東京都","city":"東村山市","address":"東京都東村山市青葉町1丁目7-1","lat":35.76043805,"lon":139.49094217},{"name":"中部地域包括支援センター","province":"東京都","city":"東村山市","address":"東村山市野口町1-25-15東村山市社会福祉協議会内","lat":35.758617,"lon":139.464005},{"name":"北部地域包括支援センター","province":"東京都","city":"東村山市","address":"東村山市諏訪町2-26-1東京ばんなん白光園","lat":35.771687,"lon":139.463852},{"name":"東部地域包括支援センター","province":"東京都","city":"東村山市","address":"東村山市秋津町1-32-18はるびの郷内","lat":35.773125,"lon":139.497025},{"name":"西部地域包括支援センター","province":"東京都","city":"東村山市","address":"東村山市富士見町2-1-2万寿園内","lat":35.744675,"lon":139.453461},{"name":"南部地域包括支援センター","province":"東京都","city":"東村山市","address":"東村山市萩山町3-31-2グリーン・ボイス内","lat":35.743809,"lon":139.46904},{"name":"東村山市消費生活センター","province":"東京都","city":"東村山市","address":"東村山市本町1-2-3東村山市役所市民部市民相談・交流課内","lat":35.75449,"lon":139.468414},{"name":"東京都保健医療公社多摩北部医療センター","province":"東京都","city":"東村山市","address":"東京都東村山市青葉町1丁目7-1","lat":35.76043805,"lon":139.49094217},{"name":"東村山ナーシングホーム","province":"東京都","city":"東村山市","address":"東京都東村山市青葉町1丁目7-1","lat":35.76043805,"lon":139.49094217},{"name":"東村山西高等学校","province":"東京都","city":"東村山市","address":"東京都東村山市富士見町5丁目4-41","lat":35.749666,"lon":139.45542351},{"name":"東村山高等学校","province":"東京都","city":"東村山市","address":"東京都東村山市恩多町4丁目26-1","lat":35.759885,"lon":139.47780442},{"name":"多摩北部医療センター","province":"東京都","city":"東村山市","address":"東京都東村山市青葉町1丁目7-1","lat":35.76043805,"lon":139.49094217},{"name":"中部地域包括支援センター","province":"東京都","city":"東村山市","address":"東村山市野口町1-25-15東村山市社会福祉協議会内","lat":35.758617,"lon":139.464005},{"name":"北部地域包括支援センター","province":"東京都","city":"東村山市","address":"東村山市諏訪町2-26-1東京ばんなん白光園","lat":35.771687,"lon":139.463852},{"name":"東部地域包括支援センター","province":"東京都","city":"東村山市","address":"東村山市秋津町1-32-18はるびの郷内","lat":35.773125,"lon":139.497025},{"name":"西部地域包括支援センター","province":"東京都","city":"東村山市","address":"東村山市富士見町2-1-2万寿園内","lat":35.744675,"lon":139.453461},{"name":"南部地域包括支援センター","province":"東京都","city":"東村山市","address":"東村山市萩山町3-31-2グリーン・ボイス内","lat":35.743809,"lon":139.46904},{"name":"東村山市消費生活センター","province":"東京都","city":"東村山市","address":"東村山市本町1-2-3東村山市役所市民部市民相談・交流課内","lat":35.75449,"lon":139.468414},{"name":"東京都保健医療公社多摩北部医療センター","province":"東京都","city":"東村山市","address":"東京都東村山市青葉町1丁目7-1","lat":35.76043805,"lon":139.49094217},{"name":"東村山ナーシングホーム","province":"東京都","city":"東村山市","address":"東京都東村山市青葉町1丁目7-1","lat":35.76043805,"lon":139.49094217},{"name":"東村山西高等学校","province":"東京都","city":"東村山市","address":"東京都東村山市富士見町5丁目4-41","lat":35.749666,"lon":139.45542351},{"name":"東村山高等学校","province":"東京都","city":"東村山市","address":"東京都東村山市恩多町4丁目26-1","lat":35.759885,"lon":139.47780442},{"name":"多摩北部医療センター","province":"東京都","city":"東村山市","address":"東京都東村山市青葉町1丁目7-1","lat":35.76043805,"lon":139.49094217},{"name":"中部地域包括支援センター","province":"東京都","city":"東村山市","address":"東村山市野口町1-25-15東村山市社会福祉協議会内","lat":35.758617,"lon":139.464005},{"name":"北部地域包括支援センター","province":"東京都","city":"東村山市","address":"東村山市諏訪町2-26-1東京ばんなん白光園","lat":35.771687,"lon":139.463852},{"name":"東部地域包括支援センター","province":"東京都","city":"東村山市","address":"東村山市秋津町1-32-18はるびの郷内","lat":35.773125,"lon":139.497025},{"name":"西部地域包括支援センター","province":"東京都","city":"東村山市","address":"東村山市富士見町2-1-2万寿園内","lat":35.744675,"lon":139.453461},{"name":"南部地域包括支援センター","province":"東京都","city":"東村山市","address":"東村山市萩山町3-31-2グリーン・ボイス内","lat":35.743809,"lon":139.46904},{"name":"東村山市消費生活センター","province":"東京都","city":"東村山市","address":"東村山市本町1-2-3東村山市役所市民部市民相談・交流課内","lat":35.75449,"lon":139.468414},{"name":"多摩北部医療センター","province":"東京都","city":"東村山市","address":"東京都東村山市青葉町1丁目7-1","lat":35.76043805,"lon":139.49094217},{"name":"中部地域包括支援センター","province":"東京都","city":"東村山市","address":"東村山市野口町1-25-15東村山市社会福祉協議会内","lat":35.758617,"lon":139.464005},{"name":"北部地域包括支援センター","province":"東京都","city":"東村山市","address":"東村山市諏訪町2-26-1東京ばんなん白光園","lat":35.771687,"lon":139.463852},{"name":"東部地域包括支援センター","province":"東京都","city":"東村山市","address":"東村山市秋津町1-32-18はるびの郷内","lat":35.773125,"lon":139.497025},{"name":"西部地域包括支援センター","province":"東京都","city":"東村山市","address":"東村山市富士見町2-1-2万寿園内","lat":35.744675,"lon":139.453461},{"name":"南部地域包括支援センター","province":"東京都","city":"東村山市","address":"東村山市萩山町3-31-2グリーン・ボイス内","lat":35.743809,"lon":139.46904},{"name":"東村山市消費生活センター","province":"東京都","city":"東村山市","address":"東村山市本町1-2-3東村山市役所市民部市民相談・交流課内","lat":35.75449,"lon":139.468414},{"name":"中部地域包括支援センター","province":"東京都","city":"東村山市","address":"東村山市野口町1-25-15東村山市社会福祉協議会内","lat":35.758617,"lon":139.464005},{"name":"北部地域包括支援センター","province":"東京都","city":"東村山市","address":"東村山市諏訪町2-26-1東京ばんなん白光園","lat":35.771687,"lon":139.463852},{"name":"東部地域包括支援センター","province":"東京都","city":"東村山市","address":"東村山市秋津町1-32-18はるびの郷内","lat":35.773125,"lon":139.497025},{"name":"西部地域包括支援センター","province":"東京都","city":"東村山市","address":"東村山市富士見町2-1-2万寿園内","lat":35.744675,"lon":139.453461},{"name":"南部地域包括支援センター","province":"東京都","city":"東村山市","address":"東村山市萩山町3-31-2グリーン・ボイス内","lat":35.743809,"lon":139.46904},{"name":"東村山市消費生活センター","province":"東京都","city":"東村山市","address":"東村山市本町1-2-3東村山市役所市民部市民相談・交流課内","lat":35.75449,"lon":139.468414},{"name":"中部地域包括支援センター","province":"東京都","city":"東村山市","address":"東村山市野口町1-25-15東村山市社会福祉協議会内","lat":35.758617,"lon":139.464005},{"name":"北部地域包括支援センター","province":"東京都","city":"東村山市","address":"東村山市諏訪町2-26-1東京ばんなん白光園","lat":35.771687,"lon":139.463852},{"name":"東部地域包括支援センター","province":"東京都","city":"東村山市","address":"東村山市秋津町1-32-18はるびの郷内","lat":35.773125,"lon":139.497025},{"name":"西部地域包括支援センター","province":"東京都","city":"東村山市","address":"東村山市富士見町2-1-2万寿園内","lat":35.744675,"lon":139.453461},{"name":"南部地域包括支援センター","province":"東京都","city":"東村山市","address":"東村山市萩山町3-31-2グリーン・ボイス内","lat":35.743809,"lon":139.46904},{"name":"東村山市消費生活センター","province":"東京都","city":"東村山市","address":"東村山市本町1-2-3東村山市役所市民部市民相談・交流課内","lat":35.75449,"lon":139.468414},{"name":"中部地域包括支援センター","province":"東京都","city":"東村山市","address":"東村山市野口町1-25-15東村山市社会福祉協議会内","lat":35.758617,"lon":139.464005},{"name":"北部地域包括支援センター","province":"東京都","city":"東村山市","address":"東村山市諏訪町2-26-1東京ばんなん白光園","lat":35.771687,"lon":139.463852},{"name":"東部地域包括支援センター","province":"東京都","city":"東村山市","address":"東村山市秋津町1-32-18はるびの郷内","lat":35.773125,"lon":139.497025},{"name":"西部地域包括支援センター","province":"東京都","city":"東村山市","address":"東村山市富士見町2-1-2万寿園内","lat":35.744675,"lon":139.453461},{"name":"南部地域包括支援センター","province":"東京都","city":"東村山市","address":"東村山市萩山町3-31-2グリーン・ボイス内","lat":35.743809,"lon":139.46904},{"name":"東村山市消費生活センター","province":"東京都","city":"東村山市","address":"東村山市本町1-2-3東村山市役所市民部市民相談・交流課内","lat":35.75449,"lon":139.468414},{"name":"中部地域包括支援センター","province":"東京都","city":"東村山市","address":"東村山市野口町1-25-15東村山市社会福祉協議会内","lat":35.758617,"lon":139.464005},{"name":"北部地域包括支援センター","province":"東京都","city":"東村山市","address":"東村山市諏訪町2-26-1東京ばんなん白光園","lat":35.771687,"lon":139.463852},{"name":"東部地域包括支援センター","province":"東京都","city":"東村山市","address":"東村山市秋津町1-32-18はるびの郷内","lat":35.773125,"lon":139.497025},{"name":"西部地域包括支援センター","province":"東京都","city":"東村山市","address":"東村山市富士見町2-1-2万寿園内","lat":35.744675,"lon":139.453461},{"name":"南部地域包括支援センター","province":"東京都","city":"東村山市","address":"東村山市萩山町3-31-2グリーン・ボイス内","lat":35.743809,"lon":139.46904},{"name":"東村山市消費生活センター","province":"東京都","city":"東村山市","address":"東村山市本町1-2-3東村山市役所市民部市民相談・交流課内","lat":35.75449,"lon":139.468414},{"name":"中部地域包括支援センター","province":"東京都","city":"東村山市","address":"東村山市野口町1-25-15東村山市社会福祉協議会内","lat":35.758617,"lon":139.464005},{"name":"北部地域包括支援センター","province":"東京都","city":"東村山市","address":"東村山市諏訪町2-26-1東京ばんなん白光園","lat":35.771687,"lon":139.463852},{"name":"東部地域包括支援センター","province":"東京都","city":"東村山市","address":"東村山市秋津町1-32-18はるびの郷内","lat":35.773125,"lon":139.497025},{"name":"西部地域包括支援センター","province":"東京都","city":"東村山市","address":"東村山市富士見町2-1-2万寿園内","lat":35.744675,"lon":139.453461},{"name":"南部地域包括支援センター","province":"東京都","city":"東村山市","address":"東村山市萩山町3-31-2グリーン・ボイス内","lat":35.743809,"lon":139.46904},{"name":"東村山市消費生活センター","province":"東京都","city":"東村山市","address":"東村山市本町1-2-3東村山市役所市民部市民相談・交流課内","lat":35.75449,"lon":139.468414},{"name":"中部地域包括支援センター","province":"東京都","city":"東村山市","address":"東村山市野口町1-25-15東村山市社会福祉協議会内","lat":35.758617,"lon":139.464005},{"name":"北部地域包括支援センター","province":"東京都","city":"東村山市","address":"東村山市諏訪町2-26-1東京ばんなん白光園","lat":35.771687,"lon":139.463852},{"name":"東部地域包括支援センター","province":"東京都","city":"東村山市","address":"東村山市秋津町1-32-18はるびの郷内","lat":35.773125,"lon":139.497025},{"name":"西部地域包括支援センター","province":"東京都","city":"東村山市","address":"東村山市富士見町2-1-2万寿園内","lat":35.744675,"lon":139.453461},{"name":"南部地域包括支援センター","province":"東京都","city":"東村山市","address":"東村山市萩山町3-31-2グリーン・ボイス内","lat":35.743809,"lon":139.46904},{"name":"東村山市消費生活センター","province":"東京都","city":"東村山市","address":"東村山市本町1-2-3東村山市役所市民部市民相談・交流課内","lat":35.75449,"lon":139.468414},{"name":"中部地域包括支援センター","province":"東京都","city":"東村山市","address":"東村山市野口町1-25-15東村山市社会福祉協議会内","lat":35.758617,"lon":139.464005},{"name":"北部地域包括支援センター","province":"東京都","city":"東村山市","address":"東村山市諏訪町2-26-1東京ばんなん白光園","lat":35.771687,"lon":139.463852},{"name":"東部地域包括支援センター","province":"東京都","city":"東村山市","address":"東村山市秋津町1-32-18はるびの郷内","lat":35.773125,"lon":139.497025},{"name":"西部地域包括支援センター","province":"東京都","city":"東村山市","address":"東村山市富士見町2-1-2万寿園内","lat":35.744675,"lon":139.453461},{"name":"南部地域包括支援センター","province":"東京都","city":"東村山市","address":"東村山市萩山町3-31-2グリーン・ボイス内","lat":35.743809,"lon":139.46904},{"name":"東村山市消費生活センター","province":"東京都","city":"東村山市","address":"東村山市本町1-2-3東村山市役所市民部市民相談・交流課内","lat":35.75449,"lon":139.468414},{"name":"中部地域包括支援センター","province":"東京都","city":"東村山市","address":"東村山市野口町1-25-15東村山市社会福祉協議会内","lat":35.758617,"lon":139.464005},{"name":"北部地域包括支援センター","province":"東京都","city":"東村山市","address":"東村山市諏訪町2-26-1東京ばんなん白光園","lat":35.771687,"lon":139.463852},{"name":"東部地域包括支援センター","province":"東京都","city":"東村山市","address":"東村山市秋津町1-32-18はるびの郷内","lat":35.773125,"lon":139.497025},{"name":"西部地域包括支援センター","province":"東京都","city":"東村山市","address":"東村山市富士見町2-1-2万寿園内","lat":35.744675,"lon":139.453461},{"name":"南部地域包括支援センター","province":"東京都","city":"東村山市","address":"東村山市萩山町3-31-2グリーン・ボイス内","lat":35.743809,"lon":139.46904},{"name":"東村山市消費生活センター","province":"東京都","city":"東村山市","address":"東村山市本町1-2-3東村山市役所市民部市民相談・交流課内","lat":35.75449,"lon":139.468414},{"name":"中部地域包括支援センター","province":"東京都","city":"東村山市","address":"東村山市野口町1-25-15東村山市社会福祉協議会内","lat":35.758617,"lon":139.464005},{"name":"北部地域包括支援センター","province":"東京都","city":"東村山市","address":"東村山市諏訪町2-26-1東京ばんなん白光園","lat":35.771687,"lon":139.463852},{"name":"東部地域包括支援センター","province":"東京都","city":"東村山市","address":"東村山市秋津町1-32-18はるびの郷内","lat":35.773125,"lon":139.497025},{"name":"西部地域包括支援センター","province":"東京都","city":"東村山市","address":"東村山市富士見町2-1-2万寿園内","lat":35.744675,"lon":139.453461},{"name":"南部地域包括支援センター","province":"東京都","city":"東村山市","address":"東村山市萩山町3-31-2グリーン・ボイス内","lat":35.743809,"lon":139.46904},{"name":"東村山市消費生活センター","province":"東京都","city":"東村山市","address":"東村山市本町1-2-3東村山市役所市民部市民相談・交流課内","lat":35.75449,"lon":139.468414},{"name":"中部地域包括支援センター","province":"東京都","city":"東村山市","address":"東村山市野口町1-25-15東村山市社会福祉協議会内","lat":35.758617,"lon":139.464005},{"name":"北部地域包括支援センター","province":"東京都","city":"東村山市","address":"東村山市諏訪町2-26-1東京ばんなん白光園","lat":35.771687,"lon":139.463852},{"name":"東部地域包括支援センター","province":"東京都","city":"東村山市","address":"東村山市秋津町1-32-18はるびの郷内","lat":35.773125,"lon":139.497025},{"name":"西部地域包括支援センター","province":"東京都","city":"東村山市","address":"東村山市富士見町2-1-2万寿園内","lat":35.744675,"lon":139.453461},{"name":"南部地域包括支援センター","province":"東京都","city":"東村山市","address":"東村山市萩山町3-31-2グリーン・ボイス内","lat":35.743809,"lon":139.46904},{"name":"東村山市消費生活センター","province":"東京都","city":"東村山市","address":"東村山市本町1-2-3東村山市役所市民部市民相談・交流課内","lat":35.75449,"lon":139.468414},{"name":"中部地域包括支援センター","province":"東京都","city":"東村山市","address":"東村山市野口町1-25-15東村山市社会福祉協議会内","lat":35.758617,"lon":139.464005},{"name":"北部地域包括支援センター","province":"東京都","city":"東村山市","address":"東村山市諏訪町2-26-1東京ばんなん白光園","lat":35.771687,"lon":139.463852},{"name":"東部地域包括支援センター","province":"東京都","city":"東村山市","address":"東村山市秋津町1-32-18はるびの郷内","lat":35.773125,"lon":139.497025},{"name":"西部地域包括支援センター","province":"東京都","city":"東村山市","address":"東村山市富士見町2-1-2万寿園内","lat":35.744675,"lon":139.453461},{"name":"南部地域包括支援センター","province":"東京都","city":"東村山市","address":"東村山市萩山町3-31-2グリーン・ボイス内","lat":35.743809,"lon":139.46904},{"name":"東村山市消費生活センター","province":"東京都","city":"東村山市","address":"東村山市本町1-2-3東村山市役所市民部市民相談・交流課内","lat":35.75449,"lon":139.468414},{"name":"中部地域包括支援センター","province":"東京都","city":"東村山市","address":"東村山市野口町1-25-15東村山市社会福祉協議会内","lat":35.758617,"lon":139.464005},{"name":"北部地域包括支援センター","province":"東京都","city":"東村山市","address":"東村山市諏訪町2-26-1東京ばんなん白光園","lat":35.771687,"lon":139.463852},{"name":"東部地域包括支援センター","province":"東京都","city":"東村山市","address":"東村山市秋津町1-32-18はるびの郷内","lat":35.773125,"lon":139.497025},{"name":"西部地域包括支援センター","province":"東京都","city":"東村山市","address":"東村山市富士見町2-1-2万寿園内","lat":35.744675,"lon":139.453461},{"name":"南部地域包括支援センター","province":"東京都","city":"東村山市","address":"東村山市萩山町3-31-2グリーン・ボイス内","lat":35.743809,"lon":139.46904},{"name":"東村山市消費生活センター","province":"東京都","city":"東村山市","address":"東村山市本町1-2-3東村山市役所市民部市民相談・交流課内","lat":35.75449,"lon":139.468414},{"name":"中部地域包括支援センター","province":"東京都","city":"東村山市","address":"東村山市野口町1-25-15東村山市社会福祉協議会内","lat":35.758617,"lon":139.464005},{"name":"北部地域包括支援センター","province":"東京都","city":"東村山市","address":"東村山市諏訪町2-26-1東京ばんなん白光園","lat":35.771687,"lon":139.463852},{"name":"東部地域包括支援センター","province":"東京都","city":"東村山市","address":"東村山市秋津町1-32-18はるびの郷内","lat":35.773125,"lon":139.497025},{"name":"西部地域包括支援センター","province":"東京都","city":"東村山市","address":"東村山市富士見町2-1-2万寿園内","lat":35.744675,"lon":139.453461},{"name":"南部地域包括支援センター","province":"東京都","city":"東村山市","address":"東村山市萩山町3-31-2グリーン・ボイス内","lat":35.743809,"lon":139.46904},{"name":"東村山市消費生活センター","province":"東京都","city":"東村山市","address":"東村山市本町1-2-3東村山市役所市民部市民相談・交流課内","lat":35.75449,"lon":139.468414},{"name":"中部地域包括支援センター","province":"東京都","city":"東村山市","address":"東村山市野口町1-25-15東村山市社会福祉協議会内","lat":35.758617,"lon":139.464005},{"name":"北部地域包括支援センター","province":"東京都","city":"東村山市","address":"東村山市諏訪町2-26-1東京ばんなん白光園","lat":35.771687,"lon":139.463852},{"name":"東部地域包括支援センター","province":"東京都","city":"東村山市","address":"東村山市秋津町1-32-18はるびの郷内","lat":35.773125,"lon":139.497025},{"name":"西部地域包括支援センター","province":"東京都","city":"東村山市","address":"東村山市富士見町2-1-2万寿園内","lat":35.744675,"lon":139.453461},{"name":"南部地域包括支援センター","province":"東京都","city":"東村山市","address":"東村山市萩山町3-31-2グリーン・ボイス内","lat":35.743809,"lon":139.46904},{"name":"東村山市消費生活センター","province":"東京都","city":"東村山市","address":"東村山市本町1-2-3東村山市役所市民部市民相談・交流課内","lat":35.75449,"lon":139.468414},{"name":"中部地域包括支援センター","province":"東京都","city":"東村山市","address":"東村山市野口町1-25-15東村山市社会福祉協議会内","lat":35.758617,"lon":139.464005},{"name":"北部地域包括支援センター","province":"東京都","city":"東村山市","address":"東村山市諏訪町2-26-1東京ばんなん白光園","lat":35.771687,"lon":139.463852},{"name":"東部地域包括支援センター","province":"東京都","city":"東村山市","address":"東村山市秋津町1-32-18はるびの郷内","lat":35.773125,"lon":139.497025},{"name":"西部地域包括支援センター","province":"東京都","city":"東村山市","address":"東村山市富士見町2-1-2万寿園内","lat":35.744675,"lon":139.453461},{"name":"南部地域包括支援センター","province":"東京都","city":"東村山市","address":"東村山市萩山町3-31-2グリーン・ボイス内","lat":35.743809,"lon":139.46904},{"name":"東村山市消費生活センター","province":"東京都","city":"東村山市","address":"東村山市本町1-2-3東村山市役所市民部市民相談・交流課内","lat":35.75449,"lon":139.468414}]}