{"keyword":"月間","data":[{"name":"やまだこども教室","province":"東京都","city":"東村山市","address":"東村山市秋津町5-13-3セゾン新秋津2階","lat":35.778311,"lon":139.494094},{"name":"トーコロあおば就労サポートセンター","province":"東京都","city":"東村山市","address":"東村山市青葉町2-39-10","lat":35.765318,"lon":139.490695},{"name":"山鳩訓練室","province":"東京都","city":"東村山市","address":"東村山市久米川町3-12-31","lat":35.765895,"lon":139.473002},{"name":"楽しい放課後みんな","province":"東京都","city":"東村山市","address":"東村山市久米川町2-31-6-102","lat":35.761424,"lon":139.482748},{"name":"ひまわり","province":"東京都","city":"東村山市","address":"東村山市富士見町1-5-13","lat":35.741734,"lon":139.459646},{"name":"東村山市子ども家庭支援センター","province":"東京都","city":"東村山市","address":"東村山市本町1-2-3いきいきプラザ3階","lat":35.754624,"lon":139.468483},{"name":"東村山市子ども家庭支援センター","province":"東京都","city":"東村山市","address":"東村山市本町1-2-3いきいきプラザ3階","lat":35.75449,"lon":139.46841},{"name":"八坂","province":"東京都","city":"東村山市","address":"東京都東村山市萩山町3丁目31-45","lat":35.74387259,"lon":139.46697271},{"name":"東村山郵便局前","province":"東京都","city":"東村山市","address":"東京都東村山市本町2丁目1-2","lat":35.75822931,"lon":139.46684991},{"name":"栄町一丁目","province":"東京都","city":"東村山市","address":"東京都東村山市栄町1丁目23-1","lat":35.75067204,"lon":139.47384403},{"name":"八坂駅北口","province":"東京都","city":"東村山市","address":"東京都東村山市栄町3丁目10-28","lat":35.7458668,"lon":139.46705596},{"name":"萩山町五丁目","province":"東京都","city":"東村山市","address":"東京都東村山市萩山町5丁目3","lat":35.74820856,"lon":139.47866037},{"name":"東村山駅東口","province":"東京都","city":"東村山市","address":"東京都東村山市本町2丁目17-7","lat":35.76104847,"lon":139.46749974},{"name":"南台小学校裏","province":"東京都","city":"東村山市","address":"東京都東村山市富士見町2丁目1","lat":35.74489978,"lon":139.45277395},{"name":"東村山駅西口","province":"東京都","city":"東村山市","address":"東京都東村山市野口町1丁目10-1","lat":35.76173995,"lon":139.46462498},{"name":"萩山駅南口","province":"東京都","city":"東村山市","address":"東京都東村山市萩山町2丁目2","lat":35.74081487,"lon":139.47583872},{"name":"東村山郵便局北","province":"東京都","city":"東村山市","address":"東京都東村山市本町2丁目2-9","lat":35.7595014,"lon":139.46689431},{"name":"多摩北部医療センター前","province":"東京都","city":"東村山市","address":"東京都東村山市青葉町2丁目27-1","lat":35.76242395,"lon":139.49172816},{"name":"秋津駅入口","province":"東京都","city":"東村山市","address":"東京都東村山市秋津町1丁目32-18","lat":35.77338112,"lon":139.49729414},{"name":"青葉駐在所前","province":"東京都","city":"東村山市","address":"東京都東村山市青葉町2丁目24-64","lat":35.76058521,"lon":139.48940895},{"name":"多摩北部医療センター西","province":"東京都","city":"東村山市","address":"東京都東村山市青葉町1丁目7","lat":35.75941877,"lon":139.4930448},{"name":"多摩北部医療センター南","province":"東京都","city":"東村山市","address":"東京都東村山市青葉町1丁目7","lat":35.75941877,"lon":139.4930448},{"name":"西武園駅東","province":"東京都","city":"東村山市","address":"東京都東村山市多摩湖町4丁目29","lat":35.76763595,"lon":139.44840958},{"name":"東京都保健医療公社多摩北部医療センター","province":"東京都","city":"東村山市","address":"東京都東村山市青葉町1丁目7-1","lat":35.76043805,"lon":139.49094217},{"name":"八坂給水所","province":"東京都","city":"東村山市","address":"東京都東村山市富士見町5丁目4-46","lat":35.74735525,"lon":139.45848167},{"name":"東村山浄水場","province":"東京都","city":"東村山市","address":"東京都東村山市美住町2丁目20-236","lat":35.75327404,"lon":139.45878417},{"name":"美住給水所","province":"東京都","city":"東村山市","address":"東京都東村山市美住町2丁目13-4","lat":35.75552943,"lon":139.46155328},{"name":"市立東村山運動公園","province":"東京都","city":"東村山市","address":"東京都東村山市恩多町1丁目9-59","lat":35.75542745,"lon":139.48852866},{"name":"多摩北部医療センター","province":"東京都","city":"東村山市","address":"東京都東村山市青葉町1丁目7-1","lat":35.76043805,"lon":139.49094217},{"name":"美住給水所（注２）","province":"東京都","city":"東村山市","address":"東京都東村山市美住町2丁目13-4","lat":35.75552943,"lon":139.46155328},{"name":"東村山市立東村山運動公園","province":"東京都","city":"東村山市","address":"東京都東村山市恩多町1丁目51-1","lat":35.75413874,"lon":139.48959805},{"name":"経済産業研究所グラウンド","province":"東京都","city":"東村山市","address":"東京都東村山市富士見町5丁目4-36","lat":35.74688305,"lon":139.45748178},{"name":"都立東村山中央公園","province":"東京都","city":"東村山市","address":"東京都東村山市富士見町5丁目","lat":35.74535555,"lon":139.46071488},{"name":"東村山市保健福祉総合センター","province":"東京都","city":"東村山市","address":"東京都東村山市本町1丁目2-3","lat":35.75462421,"lon":139.46848323},{"name":"東村山ナーシングホーム","province":"東京都","city":"東村山市","address":"東京都東村山市青葉町1丁目7-1","lat":35.76043805,"lon":139.49094217},{"name":"東村山西高等学校","province":"東京都","city":"東村山市","address":"東京都東村山市富士見町5丁目4-41","lat":35.749666,"lon":139.45542351},{"name":"東村山高等学校","province":"東京都","city":"東村山市","address":"東京都東村山市恩多町4丁目26-1","lat":35.759885,"lon":139.47780442},{"name":"東村山市民スポーツセンター","province":"東京都","city":"東村山市","address":"東京都東村山市久米川町3丁目30-5","lat":35.76107658,"lon":139.47965976},{"name":"東村山市本庁舎","province":"東京都","city":"東村山市","address":"東村山市本町1-2-3","lat":35.754624,"lon":139.468484},{"name":"東村山警察署","province":"東京都","city":"東村山市","address":"東村山市本町1-1-3","lat":35.75562,"lon":139.4675},{"name":"東村山消防署","province":"東京都","city":"東村山市","address":"東村山市美住町2-28-16","lat":35.75293,"lon":139.4506},{"name":"都立東村山中央公園（広場）","province":"東京都","city":"東村山市","address":"東村山市富士見町5丁目地内","lat":35.74522,"lon":139.4609},{"name":"東村山市立運動公園","province":"東京都","city":"東村山市","address":"東村山市恩多町1-51-1","lat":35.75429,"lon":139.4898},{"name":"※東村山市役所本庁舎","province":"東京都","city":"東村山市","address":"東京都東村山市本町1丁目2-3","lat":35.75462421,"lon":139.46848323},{"name":"やまだこども教室","province":"東京都","city":"東村山市","address":"東村山市秋津町5-13-3セゾン新秋津2階","lat":35.778311,"lon":139.494094},{"name":"トーコロあおば就労サポートセンター","province":"東京都","city":"東村山市","address":"東村山市青葉町2-39-10","lat":35.765318,"lon":139.490695},{"name":"山鳩訓練室","province":"東京都","city":"東村山市","address":"東村山市久米川町3-12-31","lat":35.765895,"lon":139.473002},{"name":"楽しい放課後みんな","province":"東京都","city":"東村山市","address":"東村山市久米川町2-31-6-102","lat":35.761424,"lon":139.482748},{"name":"ひまわり","province":"東京都","city":"東村山市","address":"東村山市富士見町1-5-13","lat":35.741734,"lon":139.459646},{"name":"東村山市子ども家庭支援センター","province":"東京都","city":"東村山市","address":"東村山市本町1-2-3いきいきプラザ3階","lat":35.754624,"lon":139.468483},{"name":"東村山市子ども家庭支援センター","province":"東京都","city":"東村山市","address":"東村山市本町1-2-3いきいきプラザ3階","lat":35.75449,"lon":139.46841},{"name":"八坂","province":"東京都","city":"東村山市","address":"東京都東村山市萩山町3丁目31-45","lat":35.74387259,"lon":139.46697271},{"name":"東村山郵便局前","province":"東京都","city":"東村山市","address":"東京都東村山市本町2丁目1-2","lat":35.75822931,"lon":139.46684991},{"name":"栄町一丁目","province":"東京都","city":"東村山市","address":"東京都東村山市栄町1丁目23-1","lat":35.75067204,"lon":139.47384403},{"name":"八坂駅北口","province":"東京都","city":"東村山市","address":"東京都東村山市栄町3丁目10-28","lat":35.7458668,"lon":139.46705596},{"name":"萩山町五丁目","province":"東京都","city":"東村山市","address":"東京都東村山市萩山町5丁目3","lat":35.74820856,"lon":139.47866037},{"name":"東村山駅東口","province":"東京都","city":"東村山市","address":"東京都東村山市本町2丁目17-7","lat":35.76104847,"lon":139.46749974},{"name":"南台小学校裏","province":"東京都","city":"東村山市","address":"東京都東村山市富士見町2丁目1","lat":35.74489978,"lon":139.45277395},{"name":"東村山駅西口","province":"東京都","city":"東村山市","address":"東京都東村山市野口町1丁目10-1","lat":35.76173995,"lon":139.46462498},{"name":"萩山駅南口","province":"東京都","city":"東村山市","address":"東京都東村山市萩山町2丁目2","lat":35.74081487,"lon":139.47583872},{"name":"東村山郵便局北","province":"東京都","city":"東村山市","address":"東京都東村山市本町2丁目2-9","lat":35.7595014,"lon":139.46689431},{"name":"多摩北部医療センター前","province":"東京都","city":"東村山市","address":"東京都東村山市青葉町2丁目27-1","lat":35.76242395,"lon":139.49172816},{"name":"秋津駅入口","province":"東京都","city":"東村山市","address":"東京都東村山市秋津町1丁目32-18","lat":35.77338112,"lon":139.49729414},{"name":"青葉駐在所前","province":"東京都","city":"東村山市","address":"東京都東村山市青葉町2丁目24-64","lat":35.76058521,"lon":139.48940895},{"name":"多摩北部医療センター西","province":"東京都","city":"東村山市","address":"東京都東村山市青葉町1丁目7","lat":35.75941877,"lon":139.4930448},{"name":"多摩北部医療センター南","province":"東京都","city":"東村山市","address":"東京都東村山市青葉町1丁目7","lat":35.75941877,"lon":139.4930448},{"name":"西武園駅東","province":"東京都","city":"東村山市","address":"東京都東村山市多摩湖町4丁目29","lat":35.76763595,"lon":139.44840958},{"name":"東京都保健医療公社多摩北部医療センター","province":"東京都","city":"東村山市","address":"東京都東村山市青葉町1丁目7-1","lat":35.76043805,"lon":139.49094217},{"name":"八坂給水所","province":"東京都","city":"東村山市","address":"東京都東村山市富士見町5丁目4-46","lat":35.74735525,"lon":139.45848167},{"name":"東村山浄水場","province":"東京都","city":"東村山市","address":"東京都東村山市美住町2丁目20-236","lat":35.75327404,"lon":139.45878417},{"name":"美住給水所","province":"東京都","city":"東村山市","address":"東京都東村山市美住町2丁目13-4","lat":35.75552943,"lon":139.46155328},{"name":"市立東村山運動公園","province":"東京都","city":"東村山市","address":"東京都東村山市恩多町1丁目9-59","lat":35.75542745,"lon":139.48852866},{"name":"多摩北部医療センター","province":"東京都","city":"東村山市","address":"東京都東村山市青葉町1丁目7-1","lat":35.76043805,"lon":139.49094217},{"name":"美住給水所（注２）","province":"東京都","city":"東村山市","address":"東京都東村山市美住町2丁目13-4","lat":35.75552943,"lon":139.46155328},{"name":"東村山市立東村山運動公園","province":"東京都","city":"東村山市","address":"東京都東村山市恩多町1丁目51-1","lat":35.75413874,"lon":139.48959805},{"name":"経済産業研究所グラウンド","province":"東京都","city":"東村山市","address":"東京都東村山市富士見町5丁目4-36","lat":35.74688305,"lon":139.45748178},{"name":"都立東村山中央公園","province":"東京都","city":"東村山市","address":"東京都東村山市富士見町5丁目","lat":35.74535555,"lon":139.46071488},{"name":"東村山ナーシングホーム","province":"東京都","city":"東村山市","address":"東京都東村山市青葉町1丁目7-1","lat":35.76043805,"lon":139.49094217},{"name":"東村山西高等学校","province":"東京都","city":"東村山市","address":"東京都東村山市富士見町5丁目4-41","lat":35.749666,"lon":139.45542351},{"name":"東村山高等学校","province":"東京都","city":"東村山市","address":"東京都東村山市恩多町4丁目26-1","lat":35.759885,"lon":139.47780442},{"name":"やまだこども教室","province":"東京都","city":"東村山市","address":"東村山市秋津町5-13-3セゾン新秋津2階","lat":35.778311,"lon":139.494094},{"name":"トーコロあおば就労サポートセンター","province":"東京都","city":"東村山市","address":"東村山市青葉町2-39-10","lat":35.765318,"lon":139.490695},{"name":"山鳩訓練室","province":"東京都","city":"東村山市","address":"東村山市久米川町3-12-31","lat":35.765895,"lon":139.473002},{"name":"楽しい放課後みんな","province":"東京都","city":"東村山市","address":"東村山市久米川町2-31-6-102","lat":35.761424,"lon":139.482748},{"name":"ひまわり","province":"東京都","city":"東村山市","address":"東村山市富士見町1-5-13","lat":35.741734,"lon":139.459646},{"name":"東村山市子ども家庭支援センター","province":"東京都","city":"東村山市","address":"東村山市本町1-2-3いきいきプラザ3階","lat":35.754624,"lon":139.468483},{"name":"東村山市子ども家庭支援センター","province":"東京都","city":"東村山市","address":"東村山市本町1-2-3いきいきプラザ3階","lat":35.75449,"lon":139.46841},{"name":"八坂","province":"東京都","city":"東村山市","address":"東京都東村山市萩山町3丁目31-45","lat":35.74387259,"lon":139.46697271},{"name":"東村山郵便局前","province":"東京都","city":"東村山市","address":"東京都東村山市本町2丁目1-2","lat":35.75822931,"lon":139.46684991},{"name":"栄町一丁目","province":"東京都","city":"東村山市","address":"東京都東村山市栄町1丁目23-1","lat":35.75067204,"lon":139.47384403},{"name":"八坂駅北口","province":"東京都","city":"東村山市","address":"東京都東村山市栄町3丁目10-28","lat":35.7458668,"lon":139.46705596},{"name":"萩山町五丁目","province":"東京都","city":"東村山市","address":"東京都東村山市萩山町5丁目3","lat":35.74820856,"lon":139.47866037},{"name":"東村山駅東口","province":"東京都","city":"東村山市","address":"東京都東村山市本町2丁目17-7","lat":35.76104847,"lon":139.46749974},{"name":"南台小学校裏","province":"東京都","city":"東村山市","address":"東京都東村山市富士見町2丁目1","lat":35.74489978,"lon":139.45277395},{"name":"東村山駅西口","province":"東京都","city":"東村山市","address":"東京都東村山市野口町1丁目10-1","lat":35.76173995,"lon":139.46462498},{"name":"萩山駅南口","province":"東京都","city":"東村山市","address":"東京都東村山市萩山町2丁目2","lat":35.74081487,"lon":139.47583872},{"name":"東村山郵便局北","province":"東京都","city":"東村山市","address":"東京都東村山市本町2丁目2-9","lat":35.7595014,"lon":139.46689431},{"name":"多摩北部医療センター前","province":"東京都","city":"東村山市","address":"東京都東村山市青葉町2丁目27-1","lat":35.76242395,"lon":139.49172816},{"name":"秋津駅入口","province":"東京都","city":"東村山市","address":"東京都東村山市秋津町1丁目32-18","lat":35.77338112,"lon":139.49729414},{"name":"青葉駐在所前","province":"東京都","city":"東村山市","address":"東京都東村山市青葉町2丁目24-64","lat":35.76058521,"lon":139.48940895},{"name":"多摩北部医療センター西","province":"東京都","city":"東村山市","address":"東京都東村山市青葉町1丁目7","lat":35.75941877,"lon":139.4930448},{"name":"多摩北部医療センター南","province":"東京都","city":"東村山市","address":"東京都東村山市青葉町1丁目7","lat":35.75941877,"lon":139.4930448},{"name":"西武園駅東","province":"東京都","city":"東村山市","address":"東京都東村山市多摩湖町4丁目29","lat":35.76763595,"lon":139.44840958},{"name":"東京都保健医療公社多摩北部医療センター","province":"東京都","city":"東村山市","address":"東京都東村山市青葉町1丁目7-1","lat":35.76043805,"lon":139.49094217},{"name":"八坂給水所","province":"東京都","city":"東村山市","address":"東京都東村山市富士見町5丁目4-46","lat":35.74735525,"lon":139.45848167},{"name":"東村山浄水場","province":"東京都","city":"東村山市","address":"東京都東村山市美住町2丁目20-236","lat":35.75327404,"lon":139.45878417},{"name":"美住給水所","province":"東京都","city":"東村山市","address":"東京都東村山市美住町2丁目13-4","lat":35.75552943,"lon":139.46155328},{"name":"市立東村山運動公園","province":"東京都","city":"東村山市","address":"東京都東村山市恩多町1丁目9-59","lat":35.75542745,"lon":139.48852866},{"name":"多摩北部医療センター","province":"東京都","city":"東村山市","address":"東京都東村山市青葉町1丁目7-1","lat":35.76043805,"lon":139.49094217},{"name":"美住給水所（注２）","province":"東京都","city":"東村山市","address":"東京都東村山市美住町2丁目13-4","lat":35.75552943,"lon":139.46155328},{"name":"東村山市立東村山運動公園","province":"東京都","city":"東村山市","address":"東京都東村山市恩多町1丁目51-1","lat":35.75413874,"lon":139.48959805},{"name":"経済産業研究所グラウンド","province":"東京都","city":"東村山市","address":"東京都東村山市富士見町5丁目4-36","lat":35.74688305,"lon":139.45748178},{"name":"都立東村山中央公園","province":"東京都","city":"東村山市","address":"東京都東村山市富士見町5丁目","lat":35.74535555,"lon":139.46071488},{"name":"東村山ナーシングホーム","province":"東京都","city":"東村山市","address":"東京都東村山市青葉町1丁目7-1","lat":35.76043805,"lon":139.49094217},{"name":"東村山西高等学校","province":"東京都","city":"東村山市","address":"東京都東村山市富士見町5丁目4-41","lat":35.749666,"lon":139.45542351},{"name":"東村山高等学校","province":"東京都","city":"東村山市","address":"東京都東村山市恩多町4丁目26-1","lat":35.759885,"lon":139.47780442},{"name":"やまだこども教室","province":"東京都","city":"東村山市","address":"東村山市秋津町5-13-3セゾン新秋津2階","lat":35.778311,"lon":139.494094},{"name":"トーコロあおば就労サポートセンター","province":"東京都","city":"東村山市","address":"東村山市青葉町2-39-10","lat":35.765318,"lon":139.490695},{"name":"山鳩訓練室","province":"東京都","city":"東村山市","address":"東村山市久米川町3-12-31","lat":35.765895,"lon":139.473002},{"name":"楽しい放課後みんな","province":"東京都","city":"東村山市","address":"東村山市久米川町2-31-6-102","lat":35.761424,"lon":139.482748},{"name":"ひまわり","province":"東京都","city":"東村山市","address":"東村山市富士見町1-5-13","lat":35.741734,"lon":139.459646},{"name":"東村山市子ども家庭支援センター","province":"東京都","city":"東村山市","address":"東村山市本町1-2-3いきいきプラザ3階","lat":35.754624,"lon":139.468483},{"name":"東村山市子ども家庭支援センター","province":"東京都","city":"東村山市","address":"東村山市本町1-2-3いきいきプラザ3階","lat":35.75449,"lon":139.46841},{"name":"東村山市立東村山運動公園","province":"東京都","city":"東村山市","address":"東京都東村山市恩多町1丁目51-1","lat":35.75413874,"lon":139.48959805},{"name":"経済産業研究所グラウンド","province":"東京都","city":"東村山市","address":"東京都東村山市富士見町5丁目4-36","lat":35.74688305,"lon":139.45748178},{"name":"都立東村山中央公園","province":"東京都","city":"東村山市","address":"東京都東村山市富士見町5丁目","lat":35.74535555,"lon":139.46071488},{"name":"東村山ナーシングホーム","province":"東京都","city":"東村山市","address":"東京都東村山市青葉町1丁目7-1","lat":35.76043805,"lon":139.49094217},{"name":"東村山西高等学校","province":"東京都","city":"東村山市","address":"東京都東村山市富士見町5丁目4-41","lat":35.749666,"lon":139.45542351},{"name":"東村山高等学校","province":"東京都","city":"東村山市","address":"東京都東村山市恩多町4丁目26-1","lat":35.759885,"lon":139.47780442},{"name":"やまだこども教室","province":"東京都","city":"東村山市","address":"東村山市秋津町5-13-3セゾン新秋津2階","lat":35.778311,"lon":139.494094},{"name":"トーコロあおば就労サポートセンター","province":"東京都","city":"東村山市","address":"東村山市青葉町2-39-10","lat":35.765318,"lon":139.490695},{"name":"山鳩訓練室","province":"東京都","city":"東村山市","address":"東村山市久米川町3-12-31","lat":35.765895,"lon":139.473002},{"name":"楽しい放課後みんな","province":"東京都","city":"東村山市","address":"東村山市久米川町2-31-6-102","lat":35.761424,"lon":139.482748},{"name":"ひまわり","province":"東京都","city":"東村山市","address":"東村山市富士見町1-5-13","lat":35.741734,"lon":139.459646},{"name":"東村山市子ども家庭支援センター","province":"東京都","city":"東村山市","address":"東村山市本町1-2-3いきいきプラザ3階","lat":35.754624,"lon":139.468483},{"name":"東村山市子ども家庭支援センター","province":"東京都","city":"東村山市","address":"東村山市本町1-2-3いきいきプラザ3階","lat":35.75449,"lon":139.46841},{"name":"東村山ナーシングホーム","province":"東京都","city":"東村山市","address":"東京都東村山市青葉町1丁目7-1","lat":35.76043805,"lon":139.49094217},{"name":"東村山西高等学校","province":"東京都","city":"東村山市","address":"東京都東村山市富士見町5丁目4-41","lat":35.749666,"lon":139.45542351},{"name":"東村山高等学校","province":"東京都","city":"東村山市","address":"東京都東村山市恩多町4丁目26-1","lat":35.759885,"lon":139.47780442},{"name":"やまだこども教室","province":"東京都","city":"東村山市","address":"東村山市秋津町5-13-3セゾン新秋津2階","lat":35.778311,"lon":139.494094},{"name":"トーコロあおば就労サポートセンター","province":"東京都","city":"東村山市","address":"東村山市青葉町2-39-10","lat":35.765318,"lon":139.490695},{"name":"山鳩訓練室","province":"東京都","city":"東村山市","address":"東村山市久米川町3-12-31","lat":35.765895,"lon":139.473002},{"name":"楽しい放課後みんな","province":"東京都","city":"東村山市","address":"東村山市久米川町2-31-6-102","lat":35.761424,"lon":139.482748},{"name":"ひまわり","province":"東京都","city":"東村山市","address":"東村山市富士見町1-5-13","lat":35.741734,"lon":139.459646},{"name":"東村山市子ども家庭支援センター","province":"東京都","city":"東村山市","address":"東村山市本町1-2-3いきいきプラザ3階","lat":35.754624,"lon":139.468483},{"name":"東村山市子ども家庭支援センター","province":"東京都","city":"東村山市","address":"東村山市本町1-2-3いきいきプラザ3階","lat":35.75449,"lon":139.46841},{"name":"東村山ナーシングホーム","province":"東京都","city":"東村山市","address":"東京都東村山市青葉町1丁目7-1","lat":35.76043805,"lon":139.49094217},{"name":"東村山西高等学校","province":"東京都","city":"東村山市","address":"東京都東村山市富士見町5丁目4-41","lat":35.749666,"lon":139.45542351},{"name":"東村山高等学校","province":"東京都","city":"東村山市","address":"東京都東村山市恩多町4丁目26-1","lat":35.759885,"lon":139.47780442},{"name":"やまだこども教室","province":"東京都","city":"東村山市","address":"東村山市秋津町5-13-3セゾン新秋津2階","lat":35.778311,"lon":139.494094},{"name":"トーコロあおば就労サポートセンター","province":"東京都","city":"東村山市","address":"東村山市青葉町2-39-10","lat":35.765318,"lon":139.490695},{"name":"山鳩訓練室","province":"東京都","city":"東村山市","address":"東村山市久米川町3-12-31","lat":35.765895,"lon":139.473002},{"name":"楽しい放課後みんな","province":"東京都","city":"東村山市","address":"東村山市久米川町2-31-6-102","lat":35.761424,"lon":139.482748},{"name":"ひまわり","province":"東京都","city":"東村山市","address":"東村山市富士見町1-5-13","lat":35.741734,"lon":139.459646},{"name":"東村山市子ども家庭支援センター","province":"東京都","city":"東村山市","address":"東村山市本町1-2-3いきいきプラザ3階","lat":35.754624,"lon":139.468483},{"name":"東村山市子ども家庭支援センター","province":"東京都","city":"東村山市","address":"東村山市本町1-2-3いきいきプラザ3階","lat":35.75449,"lon":139.46841},{"name":"東村山ナーシングホーム","province":"東京都","city":"東村山市","address":"東京都東村山市青葉町1丁目7-1","lat":35.76043805,"lon":139.49094217},{"name":"東村山西高等学校","province":"東京都","city":"東村山市","address":"東京都東村山市富士見町5丁目4-41","lat":35.749666,"lon":139.45542351},{"name":"東村山高等学校","province":"東京都","city":"東村山市","address":"東京都東村山市恩多町4丁目26-1","lat":35.759885,"lon":139.47780442},{"name":"やまだこども教室","province":"東京都","city":"東村山市","address":"東村山市秋津町5-13-3セゾン新秋津2階","lat":35.778311,"lon":139.494094},{"name":"トーコロあおば就労サポートセンター","province":"東京都","city":"東村山市","address":"東村山市青葉町2-39-10","lat":35.765318,"lon":139.490695},{"name":"山鳩訓練室","province":"東京都","city":"東村山市","address":"東村山市久米川町3-12-31","lat":35.765895,"lon":139.473002},{"name":"楽しい放課後みんな","province":"東京都","city":"東村山市","address":"東村山市久米川町2-31-6-102","lat":35.761424,"lon":139.482748},{"name":"ひまわり","province":"東京都","city":"東村山市","address":"東村山市富士見町1-5-13","lat":35.741734,"lon":139.459646},{"name":"東村山市子ども家庭支援センター","province":"東京都","city":"東村山市","address":"東村山市本町1-2-3いきいきプラザ3階","lat":35.754624,"lon":139.468483},{"name":"東村山市子ども家庭支援センター","province":"東京都","city":"東村山市","address":"東村山市本町1-2-3いきいきプラザ3階","lat":35.75449,"lon":139.46841},{"name":"東村山ナーシングホーム","province":"東京都","city":"東村山市","address":"東京都東村山市青葉町1丁目7-1","lat":35.76043805,"lon":139.49094217},{"name":"東村山西高等学校","province":"東京都","city":"東村山市","address":"東京都東村山市富士見町5丁目4-41","lat":35.749666,"lon":139.45542351},{"name":"東村山高等学校","province":"東京都","city":"東村山市","address":"東京都東村山市恩多町4丁目26-1","lat":35.759885,"lon":139.47780442},{"name":"やまだこども教室","province":"東京都","city":"東村山市","address":"東村山市秋津町5-13-3セゾン新秋津2階","lat":35.778311,"lon":139.494094},{"name":"トーコロあおば就労サポートセンター","province":"東京都","city":"東村山市","address":"東村山市青葉町2-39-10","lat":35.765318,"lon":139.490695},{"name":"山鳩訓練室","province":"東京都","city":"東村山市","address":"東村山市久米川町3-12-31","lat":35.765895,"lon":139.473002},{"name":"楽しい放課後みんな","province":"東京都","city":"東村山市","address":"東村山市久米川町2-31-6-102","lat":35.761424,"lon":139.482748},{"name":"ひまわり","province":"東京都","city":"東村山市","address":"東村山市富士見町1-5-13","lat":35.741734,"lon":139.459646},{"name":"東村山市子ども家庭支援センター","province":"東京都","city":"東村山市","address":"東村山市本町1-2-3いきいきプラザ3階","lat":35.754624,"lon":139.468483},{"name":"東村山市子ども家庭支援センター","province":"東京都","city":"東村山市","address":"東村山市本町1-2-3いきいきプラザ3階","lat":35.75449,"lon":139.46841},{"name":"東村山ナーシングホーム","province":"東京都","city":"東村山市","address":"東京都東村山市青葉町1丁目7-1","lat":35.76043805,"lon":139.49094217},{"name":"東村山西高等学校","province":"東京都","city":"東村山市","address":"東京都東村山市富士見町5丁目4-41","lat":35.749666,"lon":139.45542351},{"name":"東村山高等学校","province":"東京都","city":"東村山市","address":"東京都東村山市恩多町4丁目26-1","lat":35.759885,"lon":139.47780442},{"name":"やまだこども教室","province":"東京都","city":"東村山市","address":"東村山市秋津町5-13-3セゾン新秋津2階","lat":35.778311,"lon":139.494094},{"name":"トーコロあおば就労サポートセンター","province":"東京都","city":"東村山市","address":"東村山市青葉町2-39-10","lat":35.765318,"lon":139.490695},{"name":"山鳩訓練室","province":"東京都","city":"東村山市","address":"東村山市久米川町3-12-31","lat":35.765895,"lon":139.473002},{"name":"楽しい放課後みんな","province":"東京都","city":"東村山市","address":"東村山市久米川町2-31-6-102","lat":35.761424,"lon":139.482748},{"name":"ひまわり","province":"東京都","city":"東村山市","address":"東村山市富士見町1-5-13","lat":35.741734,"lon":139.459646},{"name":"東村山市子ども家庭支援センター","province":"東京都","city":"東村山市","address":"東村山市本町1-2-3いきいきプラザ3階","lat":35.754624,"lon":139.468483},{"name":"東村山市子ども家庭支援センター","province":"東京都","city":"東村山市","address":"東村山市本町1-2-3いきいきプラザ3階","lat":35.75449,"lon":139.46841},{"name":"東村山ナーシングホーム","province":"東京都","city":"東村山市","address":"東京都東村山市青葉町1丁目7-1","lat":35.76043805,"lon":139.49094217},{"name":"東村山西高等学校","province":"東京都","city":"東村山市","address":"東京都東村山市富士見町5丁目4-41","lat":35.749666,"lon":139.45542351},{"name":"東村山高等学校","province":"東京都","city":"東村山市","address":"東京都東村山市恩多町4丁目26-1","lat":35.759885,"lon":139.47780442},{"name":"やまだこども教室","province":"東京都","city":"東村山市","address":"東村山市秋津町5-13-3セゾン新秋津2階","lat":35.778311,"lon":139.494094},{"name":"トーコロあおば就労サポートセンター","province":"東京都","city":"東村山市","address":"東村山市青葉町2-39-10","lat":35.765318,"lon":139.490695},{"name":"山鳩訓練室","province":"東京都","city":"東村山市","address":"東村山市久米川町3-12-31","lat":35.765895,"lon":139.473002},{"name":"楽しい放課後みんな","province":"東京都","city":"東村山市","address":"東村山市久米川町2-31-6-102","lat":35.761424,"lon":139.482748},{"name":"ひまわり","province":"東京都","city":"東村山市","address":"東村山市富士見町1-5-13","lat":35.741734,"lon":139.459646},{"name":"東村山市子ども家庭支援センター","province":"東京都","city":"東村山市","address":"東村山市本町1-2-3いきいきプラザ3階","lat":35.754624,"lon":139.468483},{"name":"東村山市子ども家庭支援センター","province":"東京都","city":"東村山市","address":"東村山市本町1-2-3いきいきプラザ3階","lat":35.75449,"lon":139.46841},{"name":"東村山ナーシングホーム","province":"東京都","city":"東村山市","address":"東京都東村山市青葉町1丁目7-1","lat":35.76043805,"lon":139.49094217},{"name":"東村山西高等学校","province":"東京都","city":"東村山市","address":"東京都東村山市富士見町5丁目4-41","lat":35.749666,"lon":139.45542351},{"name":"東村山高等学校","province":"東京都","city":"東村山市","address":"東京都東村山市恩多町4丁目26-1","lat":35.759885,"lon":139.47780442},{"name":"やまだこども教室","province":"東京都","city":"東村山市","address":"東村山市秋津町5-13-3セゾン新秋津2階","lat":35.778311,"lon":139.494094},{"name":"トーコロあおば就労サポートセンター","province":"東京都","city":"東村山市","address":"東村山市青葉町2-39-10","lat":35.765318,"lon":139.490695},{"name":"山鳩訓練室","province":"東京都","city":"東村山市","address":"東村山市久米川町3-12-31","lat":35.765895,"lon":139.473002},{"name":"楽しい放課後みんな","province":"東京都","city":"東村山市","address":"東村山市久米川町2-31-6-102","lat":35.761424,"lon":139.482748},{"name":"ひまわり","province":"東京都","city":"東村山市","address":"東村山市富士見町1-5-13","lat":35.741734,"lon":139.459646},{"name":"東村山市子ども家庭支援センター","province":"東京都","city":"東村山市","address":"東村山市本町1-2-3いきいきプラザ3階","lat":35.754624,"lon":139.468483},{"name":"東村山市子ども家庭支援センター","province":"東京都","city":"東村山市","address":"東村山市本町1-2-3いきいきプラザ3階","lat":35.75449,"lon":139.46841},{"name":"東村山ナーシングホーム","province":"東京都","city":"東村山市","address":"東京都東村山市青葉町1丁目7-1","lat":35.76043805,"lon":139.49094217},{"name":"東村山西高等学校","province":"東京都","city":"東村山市","address":"東京都東村山市富士見町5丁目4-41","lat":35.749666,"lon":139.45542351},{"name":"東村山高等学校","province":"東京都","city":"東村山市","address":"東京都東村山市恩多町4丁目26-1","lat":35.759885,"lon":139.47780442},{"name":"やまだこども教室","province":"東京都","city":"東村山市","address":"東村山市秋津町5-13-3セゾン新秋津2階","lat":35.778311,"lon":139.494094},{"name":"トーコロあおば就労サポートセンター","province":"東京都","city":"東村山市","address":"東村山市青葉町2-39-10","lat":35.765318,"lon":139.490695},{"name":"山鳩訓練室","province":"東京都","city":"東村山市","address":"東村山市久米川町3-12-31","lat":35.765895,"lon":139.473002},{"name":"楽しい放課後みんな","province":"東京都","city":"東村山市","address":"東村山市久米川町2-31-6-102","lat":35.761424,"lon":139.482748},{"name":"ひまわり","province":"東京都","city":"東村山市","address":"東村山市富士見町1-5-13","lat":35.741734,"lon":139.459646},{"name":"東村山市子ども家庭支援センター","province":"東京都","city":"東村山市","address":"東村山市本町1-2-3いきいきプラザ3階","lat":35.754624,"lon":139.468483},{"name":"東村山市子ども家庭支援センター","province":"東京都","city":"東村山市","address":"東村山市本町1-2-3いきいきプラザ3階","lat":35.75449,"lon":139.46841},{"name":"東村山ナーシングホーム","province":"東京都","city":"東村山市","address":"東京都東村山市青葉町1丁目7-1","lat":35.76043805,"lon":139.49094217},{"name":"東村山西高等学校","province":"東京都","city":"東村山市","address":"東京都東村山市富士見町5丁目4-41","lat":35.749666,"lon":139.45542351},{"name":"東村山高等学校","province":"東京都","city":"東村山市","address":"東京都東村山市恩多町4丁目26-1","lat":35.759885,"lon":139.47780442},{"name":"やまだこども教室","province":"東京都","city":"東村山市","address":"東村山市秋津町5-13-3セゾン新秋津2階","lat":35.778311,"lon":139.494094},{"name":"トーコロあおば就労サポートセンター","province":"東京都","city":"東村山市","address":"東村山市青葉町2-39-10","lat":35.765318,"lon":139.490695},{"name":"山鳩訓練室","province":"東京都","city":"東村山市","address":"東村山市久米川町3-12-31","lat":35.765895,"lon":139.473002},{"name":"楽しい放課後みんな","province":"東京都","city":"東村山市","address":"東村山市久米川町2-31-6-102","lat":35.761424,"lon":139.482748},{"name":"ひまわり","province":"東京都","city":"東村山市","address":"東村山市富士見町1-5-13","lat":35.741734,"lon":139.459646},{"name":"東村山市子ども家庭支援センター","province":"東京都","city":"東村山市","address":"東村山市本町1-2-3いきいきプラザ3階","lat":35.754624,"lon":139.468483},{"name":"東村山市子ども家庭支援センター","province":"東京都","city":"東村山市","address":"東村山市本町1-2-3いきいきプラザ3階","lat":35.75449,"lon":139.46841},{"name":"東村山ナーシングホーム","province":"東京都","city":"東村山市","address":"東京都東村山市青葉町1丁目7-1","lat":35.76043805,"lon":139.49094217},{"name":"東村山西高等学校","province":"東京都","city":"東村山市","address":"東京都東村山市富士見町5丁目4-41","lat":35.749666,"lon":139.45542351},{"name":"東村山高等学校","province":"東京都","city":"東村山市","address":"東京都東村山市恩多町4丁目26-1","lat":35.759885,"lon":139.47780442},{"name":"やまだこども教室","province":"東京都","city":"東村山市","address":"東村山市秋津町5-13-3セゾン新秋津2階","lat":35.778311,"lon":139.494094},{"name":"トーコロあおば就労サポートセンター","province":"東京都","city":"東村山市","address":"東村山市青葉町2-39-10","lat":35.765318,"lon":139.490695},{"name":"山鳩訓練室","province":"東京都","city":"東村山市","address":"東村山市久米川町3-12-31","lat":35.765895,"lon":139.473002},{"name":"楽しい放課後みんな","province":"東京都","city":"東村山市","address":"東村山市久米川町2-31-6-102","lat":35.761424,"lon":139.482748},{"name":"ひまわり","province":"東京都","city":"東村山市","address":"東村山市富士見町1-5-13","lat":35.741734,"lon":139.459646},{"name":"東村山市子ども家庭支援センター","province":"東京都","city":"東村山市","address":"東村山市本町1-2-3いきいきプラザ3階","lat":35.754624,"lon":139.468483},{"name":"東村山市子ども家庭支援センター","province":"東京都","city":"東村山市","address":"東村山市本町1-2-3いきいきプラザ3階","lat":35.75449,"lon":139.46841},{"name":"東村山ナーシングホーム","province":"東京都","city":"東村山市","address":"東京都東村山市青葉町1丁目7-1","lat":35.76043805,"lon":139.49094217},{"name":"東村山西高等学校","province":"東京都","city":"東村山市","address":"東京都東村山市富士見町5丁目4-41","lat":35.749666,"lon":139.45542351},{"name":"東村山高等学校","province":"東京都","city":"東村山市","address":"東京都東村山市恩多町4丁目26-1","lat":35.759885,"lon":139.47780442},{"name":"やまだこども教室","province":"東京都","city":"東村山市","address":"東村山市秋津町5-13-3セゾン新秋津2階","lat":35.778311,"lon":139.494094},{"name":"トーコロあおば就労サポートセンター","province":"東京都","city":"東村山市","address":"東村山市青葉町2-39-10","lat":35.765318,"lon":139.490695},{"name":"山鳩訓練室","province":"東京都","city":"東村山市","address":"東村山市久米川町3-12-31","lat":35.765895,"lon":139.473002},{"name":"楽しい放課後みんな","province":"東京都","city":"東村山市","address":"東村山市久米川町2-31-6-102","lat":35.761424,"lon":139.482748},{"name":"ひまわり","province":"東京都","city":"東村山市","address":"東村山市富士見町1-5-13","lat":35.741734,"lon":139.459646},{"name":"東村山市子ども家庭支援センター","province":"東京都","city":"東村山市","address":"東村山市本町1-2-3いきいきプラザ3階","lat":35.754624,"lon":139.468483},{"name":"東村山市子ども家庭支援センター","province":"東京都","city":"東村山市","address":"東村山市本町1-2-3いきいきプラザ3階","lat":35.75449,"lon":139.46841},{"name":"東村山ナーシングホーム","province":"東京都","city":"東村山市","address":"東京都東村山市青葉町1丁目7-1","lat":35.76043805,"lon":139.49094217},{"name":"東村山西高等学校","province":"東京都","city":"東村山市","address":"東京都東村山市富士見町5丁目4-41","lat":35.749666,"lon":139.45542351},{"name":"東村山高等学校","province":"東京都","city":"東村山市","address":"東京都東村山市恩多町4丁目26-1","lat":35.759885,"lon":139.47780442},{"name":"やまだこども教室","province":"東京都","city":"東村山市","address":"東村山市秋津町5-13-3セゾン新秋津2階","lat":35.778311,"lon":139.494094},{"name":"トーコロあおば就労サポートセンター","province":"東京都","city":"東村山市","address":"東村山市青葉町2-39-10","lat":35.765318,"lon":139.490695},{"name":"山鳩訓練室","province":"東京都","city":"東村山市","address":"東村山市久米川町3-12-31","lat":35.765895,"lon":139.473002},{"name":"楽しい放課後みんな","province":"東京都","city":"東村山市","address":"東村山市久米川町2-31-6-102","lat":35.761424,"lon":139.482748},{"name":"ひまわり","province":"東京都","city":"東村山市","address":"東村山市富士見町1-5-13","lat":35.741734,"lon":139.459646},{"name":"東村山市子ども家庭支援センター","province":"東京都","city":"東村山市","address":"東村山市本町1-2-3いきいきプラザ3階","lat":35.754624,"lon":139.468483},{"name":"東村山市子ども家庭支援センター","province":"東京都","city":"東村山市","address":"東村山市本町1-2-3いきいきプラザ3階","lat":35.75449,"lon":139.46841},{"name":"東村山ナーシングホーム","province":"東京都","city":"東村山市","address":"東京都東村山市青葉町1丁目7-1","lat":35.76043805,"lon":139.49094217},{"name":"東村山西高等学校","province":"東京都","city":"東村山市","address":"東京都東村山市富士見町5丁目4-41","lat":35.749666,"lon":139.45542351},{"name":"東村山高等学校","province":"東京都","city":"東村山市","address":"東京都東村山市恩多町4丁目26-1","lat":35.759885,"lon":139.47780442},{"name":"やまだこども教室","province":"東京都","city":"東村山市","address":"東村山市秋津町5-13-3セゾン新秋津2階","lat":35.778311,"lon":139.494094},{"name":"トーコロあおば就労サポートセンター","province":"東京都","city":"東村山市","address":"東村山市青葉町2-39-10","lat":35.765318,"lon":139.490695},{"name":"山鳩訓練室","province":"東京都","city":"東村山市","address":"東村山市久米川町3-12-31","lat":35.765895,"lon":139.473002},{"name":"楽しい放課後みんな","province":"東京都","city":"東村山市","address":"東村山市久米川町2-31-6-102","lat":35.761424,"lon":139.482748},{"name":"ひまわり","province":"東京都","city":"東村山市","address":"東村山市富士見町1-5-13","lat":35.741734,"lon":139.459646},{"name":"東村山市子ども家庭支援センター","province":"東京都","city":"東村山市","address":"東村山市本町1-2-3いきいきプラザ3階","lat":35.754624,"lon":139.468483},{"name":"東村山市子ども家庭支援センター","province":"東京都","city":"東村山市","address":"東村山市本町1-2-3いきいきプラザ3階","lat":35.75449,"lon":139.46841},{"name":"東村山ナーシングホーム","province":"東京都","city":"東村山市","address":"東京都東村山市青葉町1丁目7-1","lat":35.76043805,"lon":139.49094217},{"name":"東村山西高等学校","province":"東京都","city":"東村山市","address":"東京都東村山市富士見町5丁目4-41","lat":35.749666,"lon":139.45542351},{"name":"東村山高等学校","province":"東京都","city":"東村山市","address":"東京都東村山市恩多町4丁目26-1","lat":35.759885,"lon":139.47780442},{"name":"やまだこども教室","province":"東京都","city":"東村山市","address":"東村山市秋津町5-13-3セゾン新秋津2階","lat":35.778311,"lon":139.494094},{"name":"トーコロあおば就労サポートセンター","province":"東京都","city":"東村山市","address":"東村山市青葉町2-39-10","lat":35.765318,"lon":139.490695},{"name":"山鳩訓練室","province":"東京都","city":"東村山市","address":"東村山市久米川町3-12-31","lat":35.765895,"lon":139.473002},{"name":"楽しい放課後みんな","province":"東京都","city":"東村山市","address":"東村山市久米川町2-31-6-102","lat":35.761424,"lon":139.482748},{"name":"ひまわり","province":"東京都","city":"東村山市","address":"東村山市富士見町1-5-13","lat":35.741734,"lon":139.459646},{"name":"東村山市子ども家庭支援センター","province":"東京都","city":"東村山市","address":"東村山市本町1-2-3いきいきプラザ3階","lat":35.754624,"lon":139.468483},{"name":"東村山市子ども家庭支援センター","province":"東京都","city":"東村山市","address":"東村山市本町1-2-3いきいきプラザ3階","lat":35.75449,"lon":139.46841},{"name":"やまだこども教室","province":"東京都","city":"東村山市","address":"東村山市秋津町5-13-3セゾン新秋津2階","lat":35.778311,"lon":139.494094},{"name":"トーコロあおば就労サポートセンター","province":"東京都","city":"東村山市","address":"東村山市青葉町2-39-10","lat":35.765318,"lon":139.490695},{"name":"山鳩訓練室","province":"東京都","city":"東村山市","address":"東村山市久米川町3-12-31","lat":35.765895,"lon":139.473002},{"name":"楽しい放課後みんな","province":"東京都","city":"東村山市","address":"東村山市久米川町2-31-6-102","lat":35.761424,"lon":139.482748},{"name":"ひまわり","province":"東京都","city":"東村山市","address":"東村山市富士見町1-5-13","lat":35.741734,"lon":139.459646},{"name":"東村山市子ども家庭支援センター","province":"東京都","city":"東村山市","address":"東村山市本町1-2-3いきいきプラザ3階","lat":35.754624,"lon":139.468483},{"name":"東村山市子ども家庭支援センター","province":"東京都","city":"東村山市","address":"東村山市本町1-2-3いきいきプラザ3階","lat":35.75449,"lon":139.46841},{"name":"やまだこども教室","province":"東京都","city":"東村山市","address":"東村山市秋津町5-13-3セゾン新秋津2階","lat":35.778311,"lon":139.494094},{"name":"トーコロあおば就労サポートセンター","province":"東京都","city":"東村山市","address":"東村山市青葉町2-39-10","lat":35.765318,"lon":139.490695},{"name":"山鳩訓練室","province":"東京都","city":"東村山市","address":"東村山市久米川町3-12-31","lat":35.765895,"lon":139.473002},{"name":"楽しい放課後みんな","province":"東京都","city":"東村山市","address":"東村山市久米川町2-31-6-102","lat":35.761424,"lon":139.482748},{"name":"ひまわり","province":"東京都","city":"東村山市","address":"東村山市富士見町1-5-13","lat":35.741734,"lon":139.459646},{"name":"東村山市子ども家庭支援センター","province":"東京都","city":"東村山市","address":"東村山市本町1-2-3いきいきプラザ3階","lat":35.754624,"lon":139.468483},{"name":"東村山市子ども家庭支援センター","province":"東京都","city":"東村山市","address":"東村山市本町1-2-3いきいきプラザ3階","lat":35.75449,"lon":139.46841},{"name":"やまだこども教室","province":"東京都","city":"東村山市","address":"東村山市秋津町5-13-3セゾン新秋津2階","lat":35.778311,"lon":139.494094},{"name":"トーコロあおば就労サポートセンター","province":"東京都","city":"東村山市","address":"東村山市青葉町2-39-10","lat":35.765318,"lon":139.490695},{"name":"山鳩訓練室","province":"東京都","city":"東村山市","address":"東村山市久米川町3-12-31","lat":35.765895,"lon":139.473002},{"name":"楽しい放課後みんな","province":"東京都","city":"東村山市","address":"東村山市久米川町2-31-6-102","lat":35.761424,"lon":139.482748},{"name":"ひまわり","province":"東京都","city":"東村山市","address":"東村山市富士見町1-5-13","lat":35.741734,"lon":139.459646},{"name":"東村山市子ども家庭支援センター","province":"東京都","city":"東村山市","address":"東村山市本町1-2-3いきいきプラザ3階","lat":35.754624,"lon":139.468483},{"name":"東村山市子ども家庭支援センター","province":"東京都","city":"東村山市","address":"東村山市本町1-2-3いきいきプラザ3階","lat":35.75449,"lon":139.46841},{"name":"やまだこども教室","province":"東京都","city":"東村山市","address":"東村山市秋津町5-13-3セゾン新秋津2階","lat":35.778311,"lon":139.494094},{"name":"トーコロあおば就労サポートセンター","province":"東京都","city":"東村山市","address":"東村山市青葉町2-39-10","lat":35.765318,"lon":139.490695},{"name":"山鳩訓練室","province":"東京都","city":"東村山市","address":"東村山市久米川町3-12-31","lat":35.765895,"lon":139.473002},{"name":"楽しい放課後みんな","province":"東京都","city":"東村山市","address":"東村山市久米川町2-31-6-102","lat":35.761424,"lon":139.482748},{"name":"ひまわり","province":"東京都","city":"東村山市","address":"東村山市富士見町1-5-13","lat":35.741734,"lon":139.459646},{"name":"東村山市子ども家庭支援センター","province":"東京都","city":"東村山市","address":"東村山市本町1-2-3いきいきプラザ3階","lat":35.754624,"lon":139.468483},{"name":"東村山市子ども家庭支援センター","province":"東京都","city":"東村山市","address":"東村山市本町1-2-3いきいきプラザ3階","lat":35.75449,"lon":139.46841},{"name":"やまだこども教室","province":"東京都","city":"東村山市","address":"東村山市秋津町5-13-3セゾン新秋津2階","lat":35.778311,"lon":139.494094},{"name":"トーコロあおば就労サポートセンター","province":"東京都","city":"東村山市","address":"東村山市青葉町2-39-10","lat":35.765318,"lon":139.490695},{"name":"山鳩訓練室","province":"東京都","city":"東村山市","address":"東村山市久米川町3-12-31","lat":35.765895,"lon":139.473002},{"name":"楽しい放課後みんな","province":"東京都","city":"東村山市","address":"東村山市久米川町2-31-6-102","lat":35.761424,"lon":139.482748},{"name":"ひまわり","province":"東京都","city":"東村山市","address":"東村山市富士見町1-5-13","lat":35.741734,"lon":139.459646},{"name":"東村山市子ども家庭支援センター","province":"東京都","city":"東村山市","address":"東村山市本町1-2-3いきいきプラザ3階","lat":35.754624,"lon":139.468483},{"name":"東村山市子ども家庭支援センター","province":"東京都","city":"東村山市","address":"東村山市本町1-2-3いきいきプラザ3階","lat":35.75449,"lon":139.46841},{"name":"やまだこども教室","province":"東京都","city":"東村山市","address":"東村山市秋津町5-13-3セゾン新秋津2階","lat":35.778311,"lon":139.494094},{"name":"トーコロあおば就労サポートセンター","province":"東京都","city":"東村山市","address":"東村山市青葉町2-39-10","lat":35.765318,"lon":139.490695},{"name":"山鳩訓練室","province":"東京都","city":"東村山市","address":"東村山市久米川町3-12-31","lat":35.765895,"lon":139.473002},{"name":"楽しい放課後みんな","province":"東京都","city":"東村山市","address":"東村山市久米川町2-31-6-102","lat":35.761424,"lon":139.482748},{"name":"ひまわり","province":"東京都","city":"東村山市","address":"東村山市富士見町1-5-13","lat":35.741734,"lon":139.459646},{"name":"東村山市子ども家庭支援センター","province":"東京都","city":"東村山市","address":"東村山市本町1-2-3いきいきプラザ3階","lat":35.754624,"lon":139.468483},{"name":"東村山市子ども家庭支援センター","province":"東京都","city":"東村山市","address":"東村山市本町1-2-3いきいきプラザ3階","lat":35.75449,"lon":139.46841},{"name":"やまだこども教室","province":"東京都","city":"東村山市","address":"東村山市秋津町5-13-3セゾン新秋津2階","lat":35.778311,"lon":139.494094},{"name":"トーコロあおば就労サポートセンター","province":"東京都","city":"東村山市","address":"東村山市青葉町2-39-10","lat":35.765318,"lon":139.490695},{"name":"山鳩訓練室","province":"東京都","city":"東村山市","address":"東村山市久米川町3-12-31","lat":35.765895,"lon":139.473002},{"name":"楽しい放課後みんな","province":"東京都","city":"東村山市","address":"東村山市久米川町2-31-6-102","lat":35.761424,"lon":139.482748},{"name":"ひまわり","province":"東京都","city":"東村山市","address":"東村山市富士見町1-5-13","lat":35.741734,"lon":139.459646},{"name":"東村山市子ども家庭支援センター","province":"東京都","city":"東村山市","address":"東村山市本町1-2-3いきいきプラザ3階","lat":35.754624,"lon":139.468483},{"name":"東村山市子ども家庭支援センター","province":"東京都","city":"東村山市","address":"東村山市本町1-2-3いきいきプラザ3階","lat":35.75449,"lon":139.46841},{"name":"やまだこども教室","province":"東京都","city":"東村山市","address":"東村山市秋津町5-13-3セゾン新秋津2階","lat":35.778311,"lon":139.494094},{"name":"トーコロあおば就労サポートセンター","province":"東京都","city":"東村山市","address":"東村山市青葉町2-39-10","lat":35.765318,"lon":139.490695},{"name":"山鳩訓練室","province":"東京都","city":"東村山市","address":"東村山市久米川町3-12-31","lat":35.765895,"lon":139.473002},{"name":"楽しい放課後みんな","province":"東京都","city":"東村山市","address":"東村山市久米川町2-31-6-102","lat":35.761424,"lon":139.482748},{"name":"ひまわり","province":"東京都","city":"東村山市","address":"東村山市富士見町1-5-13","lat":35.741734,"lon":139.459646},{"name":"東村山市子ども家庭支援センター","province":"東京都","city":"東村山市","address":"東村山市本町1-2-3いきいきプラザ3階","lat":35.754624,"lon":139.468483},{"name":"東村山市子ども家庭支援センター","province":"東京都","city":"東村山市","address":"東村山市本町1-2-3いきいきプラザ3階","lat":35.75449,"lon":139.46841},{"name":"やまだこども教室","province":"東京都","city":"東村山市","address":"東村山市秋津町5-13-3セゾン新秋津2階","lat":35.778311,"lon":139.494094},{"name":"トーコロあおば就労サポートセンター","province":"東京都","city":"東村山市","address":"東村山市青葉町2-39-10","lat":35.765318,"lon":139.490695},{"name":"山鳩訓練室","province":"東京都","city":"東村山市","address":"東村山市久米川町3-12-31","lat":35.765895,"lon":139.473002},{"name":"楽しい放課後みんな","province":"東京都","city":"東村山市","address":"東村山市久米川町2-31-6-102","lat":35.761424,"lon":139.482748},{"name":"ひまわり","province":"東京都","city":"東村山市","address":"東村山市富士見町1-5-13","lat":35.741734,"lon":139.459646},{"name":"東村山市子ども家庭支援センター","province":"東京都","city":"東村山市","address":"東村山市本町1-2-3いきいきプラザ3階","lat":35.754624,"lon":139.468483},{"name":"東村山市子ども家庭支援センター","province":"東京都","city":"東村山市","address":"東村山市本町1-2-3いきいきプラザ3階","lat":35.75449,"lon":139.46841},{"name":"やまだこども教室","province":"東京都","city":"東村山市","address":"東村山市秋津町5-13-3セゾン新秋津2階","lat":35.778311,"lon":139.494094},{"name":"トーコロあおば就労サポートセンター","province":"東京都","city":"東村山市","address":"東村山市青葉町2-39-10","lat":35.765318,"lon":139.490695},{"name":"山鳩訓練室","province":"東京都","city":"東村山市","address":"東村山市久米川町3-12-31","lat":35.765895,"lon":139.473002},{"name":"楽しい放課後みんな","province":"東京都","city":"東村山市","address":"東村山市久米川町2-31-6-102","lat":35.761424,"lon":139.482748},{"name":"ひまわり","province":"東京都","city":"東村山市","address":"東村山市富士見町1-5-13","lat":35.741734,"lon":139.459646},{"name":"東村山市子ども家庭支援センター","province":"東京都","city":"東村山市","address":"東村山市本町1-2-3いきいきプラザ3階","lat":35.754624,"lon":139.468483},{"name":"東村山市子ども家庭支援センター","province":"東京都","city":"東村山市","address":"東村山市本町1-2-3いきいきプラザ3階","lat":35.75449,"lon":139.46841},{"name":"やまだこども教室","province":"東京都","city":"東村山市","address":"東村山市秋津町5-13-3セゾン新秋津2階","lat":35.778311,"lon":139.494094},{"name":"トーコロあおば就労サポートセンター","province":"東京都","city":"東村山市","address":"東村山市青葉町2-39-10","lat":35.765318,"lon":139.490695},{"name":"山鳩訓練室","province":"東京都","city":"東村山市","address":"東村山市久米川町3-12-31","lat":35.765895,"lon":139.473002},{"name":"楽しい放課後みんな","province":"東京都","city":"東村山市","address":"東村山市久米川町2-31-6-102","lat":35.761424,"lon":139.482748},{"name":"ひまわり","province":"東京都","city":"東村山市","address":"東村山市富士見町1-5-13","lat":35.741734,"lon":139.459646},{"name":"東村山市子ども家庭支援センター","province":"東京都","city":"東村山市","address":"東村山市本町1-2-3いきいきプラザ3階","lat":35.754624,"lon":139.468483},{"name":"東村山市子ども家庭支援センター","province":"東京都","city":"東村山市","address":"東村山市本町1-2-3いきいきプラザ3階","lat":35.75449,"lon":139.46841},{"name":"やまだこども教室","province":"東京都","city":"東村山市","address":"東村山市秋津町5-13-3セゾン新秋津2階","lat":35.778311,"lon":139.494094},{"name":"トーコロあおば就労サポートセンター","province":"東京都","city":"東村山市","address":"東村山市青葉町2-39-10","lat":35.765318,"lon":139.490695},{"name":"山鳩訓練室","province":"東京都","city":"東村山市","address":"東村山市久米川町3-12-31","lat":35.765895,"lon":139.473002},{"name":"楽しい放課後みんな","province":"東京都","city":"東村山市","address":"東村山市久米川町2-31-6-102","lat":35.761424,"lon":139.482748},{"name":"ひまわり","province":"東京都","city":"東村山市","address":"東村山市富士見町1-5-13","lat":35.741734,"lon":139.459646},{"name":"東村山市子ども家庭支援センター","province":"東京都","city":"東村山市","address":"東村山市本町1-2-3いきいきプラザ3階","lat":35.754624,"lon":139.468483},{"name":"東村山市子ども家庭支援センター","province":"東京都","city":"東村山市","address":"東村山市本町1-2-3いきいきプラザ3階","lat":35.75449,"lon":139.46841},{"name":"やまだこども教室","province":"東京都","city":"東村山市","address":"東村山市秋津町5-13-3セゾン新秋津2階","lat":35.778311,"lon":139.494094},{"name":"トーコロあおば就労サポートセンター","province":"東京都","city":"東村山市","address":"東村山市青葉町2-39-10","lat":35.765318,"lon":139.490695},{"name":"山鳩訓練室","province":"東京都","city":"東村山市","address":"東村山市久米川町3-12-31","lat":35.765895,"lon":139.473002},{"name":"楽しい放課後みんな","province":"東京都","city":"東村山市","address":"東村山市久米川町2-31-6-102","lat":35.761424,"lon":139.482748},{"name":"ひまわり","province":"東京都","city":"東村山市","address":"東村山市富士見町1-5-13","lat":35.741734,"lon":139.459646},{"name":"東村山市子ども家庭支援センター","province":"東京都","city":"東村山市","address":"東村山市本町1-2-3いきいきプラザ3階","lat":35.754624,"lon":139.468483},{"name":"東村山市子ども家庭支援センター","province":"東京都","city":"東村山市","address":"東村山市本町1-2-3いきいきプラザ3階","lat":35.75449,"lon":139.46841},{"name":"やまだこども教室","province":"東京都","city":"東村山市","address":"東村山市秋津町5-13-3セゾン新秋津2階","lat":35.778311,"lon":139.494094},{"name":"トーコロあおば就労サポートセンター","province":"東京都","city":"東村山市","address":"東村山市青葉町2-39-10","lat":35.765318,"lon":139.490695},{"name":"山鳩訓練室","province":"東京都","city":"東村山市","address":"東村山市久米川町3-12-31","lat":35.765895,"lon":139.473002},{"name":"楽しい放課後みんな","province":"東京都","city":"東村山市","address":"東村山市久米川町2-31-6-102","lat":35.761424,"lon":139.482748},{"name":"ひまわり","province":"東京都","city":"東村山市","address":"東村山市富士見町1-5-13","lat":35.741734,"lon":139.459646},{"name":"東村山市子ども家庭支援センター","province":"東京都","city":"東村山市","address":"東村山市本町1-2-3いきいきプラザ3階","lat":35.754624,"lon":139.468483},{"name":"東村山市子ども家庭支援センター","province":"東京都","city":"東村山市","address":"東村山市本町1-2-3いきいきプラザ3階","lat":35.75449,"lon":139.46841},{"name":"やまだこども教室","province":"東京都","city":"東村山市","address":"東村山市秋津町5-13-3セゾン新秋津2階","lat":35.778311,"lon":139.494094},{"name":"トーコロあおば就労サポートセンター","province":"東京都","city":"東村山市","address":"東村山市青葉町2-39-10","lat":35.765318,"lon":139.490695},{"name":"山鳩訓練室","province":"東京都","city":"東村山市","address":"東村山市久米川町3-12-31","lat":35.765895,"lon":139.473002},{"name":"楽しい放課後みんな","province":"東京都","city":"東村山市","address":"東村山市久米川町2-31-6-102","lat":35.761424,"lon":139.482748},{"name":"ひまわり","province":"東京都","city":"東村山市","address":"東村山市富士見町1-5-13","lat":35.741734,"lon":139.459646},{"name":"東村山市子ども家庭支援センター","province":"東京都","city":"東村山市","address":"東村山市本町1-2-3いきいきプラザ3階","lat":35.754624,"lon":139.468483},{"name":"東村山市子ども家庭支援センター","province":"東京都","city":"東村山市","address":"東村山市本町1-2-3いきいきプラザ3階","lat":35.75449,"lon":139.46841},{"name":"やまだこども教室","province":"東京都","city":"東村山市","address":"東村山市秋津町5-13-3セゾン新秋津2階","lat":35.778311,"lon":139.494094},{"name":"トーコロあおば就労サポートセンター","province":"東京都","city":"東村山市","address":"東村山市青葉町2-39-10","lat":35.765318,"lon":139.490695},{"name":"山鳩訓練室","province":"東京都","city":"東村山市","address":"東村山市久米川町3-12-31","lat":35.765895,"lon":139.473002},{"name":"楽しい放課後みんな","province":"東京都","city":"東村山市","address":"東村山市久米川町2-31-6-102","lat":35.761424,"lon":139.482748},{"name":"ひまわり","province":"東京都","city":"東村山市","address":"東村山市富士見町1-5-13","lat":35.741734,"lon":139.459646},{"name":"東村山市子ども家庭支援センター","province":"東京都","city":"東村山市","address":"東村山市本町1-2-3いきいきプラザ3階","lat":35.754624,"lon":139.468483},{"name":"東村山市子ども家庭支援センター","province":"東京都","city":"東村山市","address":"東村山市本町1-2-3いきいきプラザ3階","lat":35.75449,"lon":139.46841},{"name":"やまだこども教室","province":"東京都","city":"東村山市","address":"東村山市秋津町5-13-3セゾン新秋津2階","lat":35.778311,"lon":139.494094},{"name":"トーコロあおば就労サポートセンター","province":"東京都","city":"東村山市","address":"東村山市青葉町2-39-10","lat":35.765318,"lon":139.490695},{"name":"山鳩訓練室","province":"東京都","city":"東村山市","address":"東村山市久米川町3-12-31","lat":35.765895,"lon":139.473002},{"name":"楽しい放課後みんな","province":"東京都","city":"東村山市","address":"東村山市久米川町2-31-6-102","lat":35.761424,"lon":139.482748},{"name":"ひまわり","province":"東京都","city":"東村山市","address":"東村山市富士見町1-5-13","lat":35.741734,"lon":139.459646},{"name":"東村山市子ども家庭支援センター","province":"東京都","city":"東村山市","address":"東村山市本町1-2-3いきいきプラザ3階","lat":35.754624,"lon":139.468483},{"name":"東村山市子ども家庭支援センター","province":"東京都","city":"東村山市","address":"東村山市本町1-2-3いきいきプラザ3階","lat":35.75449,"lon":139.46841},{"name":"やまだこども教室","province":"東京都","city":"東村山市","address":"東村山市秋津町5-13-3セゾン新秋津2階","lat":35.778311,"lon":139.494094},{"name":"トーコロあおば就労サポートセンター","province":"東京都","city":"東村山市","address":"東村山市青葉町2-39-10","lat":35.765318,"lon":139.490695},{"name":"山鳩訓練室","province":"東京都","city":"東村山市","address":"東村山市久米川町3-12-31","lat":35.765895,"lon":139.473002},{"name":"楽しい放課後みんな","province":"東京都","city":"東村山市","address":"東村山市久米川町2-31-6-102","lat":35.761424,"lon":139.482748},{"name":"ひまわり","province":"東京都","city":"東村山市","address":"東村山市富士見町1-5-13","lat":35.741734,"lon":139.459646},{"name":"東村山市子ども家庭支援センター","province":"東京都","city":"東村山市","address":"東村山市本町1-2-3いきいきプラザ3階","lat":35.754624,"lon":139.468483},{"name":"東村山市子ども家庭支援センター","province":"東京都","city":"東村山市","address":"東村山市本町1-2-3いきいきプラザ3階","lat":35.75449,"lon":139.46841},{"name":"やまだこども教室","province":"東京都","city":"東村山市","address":"東村山市秋津町5-13-3セゾン新秋津2階","lat":35.778311,"lon":139.494094},{"name":"トーコロあおば就労サポートセンター","province":"東京都","city":"東村山市","address":"東村山市青葉町2-39-10","lat":35.765318,"lon":139.490695},{"name":"山鳩訓練室","province":"東京都","city":"東村山市","address":"東村山市久米川町3-12-31","lat":35.765895,"lon":139.473002},{"name":"楽しい放課後みんな","province":"東京都","city":"東村山市","address":"東村山市久米川町2-31-6-102","lat":35.761424,"lon":139.482748},{"name":"ひまわり","province":"東京都","city":"東村山市","address":"東村山市富士見町1-5-13","lat":35.741734,"lon":139.459646},{"name":"東村山市子ども家庭支援センター","province":"東京都","city":"東村山市","address":"東村山市本町1-2-3いきいきプラザ3階","lat":35.754624,"lon":139.468483},{"name":"東村山市子ども家庭支援センター","province":"東京都","city":"東村山市","address":"東村山市本町1-2-3いきいきプラザ3階","lat":35.75449,"lon":139.46841},{"name":"やまだこども教室","province":"東京都","city":"東村山市","address":"東村山市秋津町5-13-3セゾン新秋津2階","lat":35.778311,"lon":139.494094},{"name":"トーコロあおば就労サポートセンター","province":"東京都","city":"東村山市","address":"東村山市青葉町2-39-10","lat":35.765318,"lon":139.490695},{"name":"山鳩訓練室","province":"東京都","city":"東村山市","address":"東村山市久米川町3-12-31","lat":35.765895,"lon":139.473002},{"name":"楽しい放課後みんな","province":"東京都","city":"東村山市","address":"東村山市久米川町2-31-6-102","lat":35.761424,"lon":139.482748},{"name":"ひまわり","province":"東京都","city":"東村山市","address":"東村山市富士見町1-5-13","lat":35.741734,"lon":139.459646},{"name":"東村山市子ども家庭支援センター","province":"東京都","city":"東村山市","address":"東村山市本町1-2-3いきいきプラザ3階","lat":35.754624,"lon":139.468483},{"name":"東村山市子ども家庭支援センター","province":"東京都","city":"東村山市","address":"東村山市本町1-2-3いきいきプラザ3階","lat":35.75449,"lon":139.46841},{"name":"やまだこども教室","province":"東京都","city":"東村山市","address":"東村山市秋津町5-13-3セゾン新秋津2階","lat":35.778311,"lon":139.494094},{"name":"トーコロあおば就労サポートセンター","province":"東京都","city":"東村山市","address":"東村山市青葉町2-39-10","lat":35.765318,"lon":139.490695},{"name":"山鳩訓練室","province":"東京都","city":"東村山市","address":"東村山市久米川町3-12-31","lat":35.765895,"lon":139.473002},{"name":"楽しい放課後みんな","province":"東京都","city":"東村山市","address":"東村山市久米川町2-31-6-102","lat":35.761424,"lon":139.482748},{"name":"ひまわり","province":"東京都","city":"東村山市","address":"東村山市富士見町1-5-13","lat":35.741734,"lon":139.459646},{"name":"東村山市子ども家庭支援センター","province":"東京都","city":"東村山市","address":"東村山市本町1-2-3いきいきプラザ3階","lat":35.754624,"lon":139.468483},{"name":"東村山市子ども家庭支援センター","province":"東京都","city":"東村山市","address":"東村山市本町1-2-3いきいきプラザ3階","lat":35.75449,"lon":139.46841},{"name":"やまだこども教室","province":"東京都","city":"東村山市","address":"東村山市秋津町5-13-3セゾン新秋津2階","lat":35.778311,"lon":139.494094},{"name":"トーコロあおば就労サポートセンター","province":"東京都","city":"東村山市","address":"東村山市青葉町2-39-10","lat":35.765318,"lon":139.490695},{"name":"山鳩訓練室","province":"東京都","city":"東村山市","address":"東村山市久米川町3-12-31","lat":35.765895,"lon":139.473002},{"name":"楽しい放課後みんな","province":"東京都","city":"東村山市","address":"東村山市久米川町2-31-6-102","lat":35.761424,"lon":139.482748},{"name":"ひまわり","province":"東京都","city":"東村山市","address":"東村山市富士見町1-5-13","lat":35.741734,"lon":139.459646},{"name":"東村山市子ども家庭支援センター","province":"東京都","city":"東村山市","address":"東村山市本町1-2-3いきいきプラザ3階","lat":35.754624,"lon":139.468483},{"name":"東村山市子ども家庭支援センター","province":"東京都","city":"東村山市","address":"東村山市本町1-2-3いきいきプラザ3階","lat":35.75449,"lon":139.46841},{"name":"やまだこども教室","province":"東京都","city":"東村山市","address":"東村山市秋津町5-13-3セゾン新秋津2階","lat":35.778311,"lon":139.494094},{"name":"トーコロあおば就労サポートセンター","province":"東京都","city":"東村山市","address":"東村山市青葉町2-39-10","lat":35.765318,"lon":139.490695},{"name":"山鳩訓練室","province":"東京都","city":"東村山市","address":"東村山市久米川町3-12-31","lat":35.765895,"lon":139.473002},{"name":"楽しい放課後みんな","province":"東京都","city":"東村山市","address":"東村山市久米川町2-31-6-102","lat":35.761424,"lon":139.482748},{"name":"ひまわり","province":"東京都","city":"東村山市","address":"東村山市富士見町1-5-13","lat":35.741734,"lon":139.459646},{"name":"東村山市子ども家庭支援センター","province":"東京都","city":"東村山市","address":"東村山市本町1-2-3いきいきプラザ3階","lat":35.754624,"lon":139.468483},{"name":"東村山市子ども家庭支援センター","province":"東京都","city":"東村山市","address":"東村山市本町1-2-3いきいきプラザ3階","lat":35.75449,"lon":139.46841},{"name":"やまだこども教室","province":"東京都","city":"東村山市","address":"東村山市秋津町5-13-3セゾン新秋津2階","lat":35.778311,"lon":139.494094},{"name":"トーコロあおば就労サポートセンター","province":"東京都","city":"東村山市","address":"東村山市青葉町2-39-10","lat":35.765318,"lon":139.490695},{"name":"山鳩訓練室","province":"東京都","city":"東村山市","address":"東村山市久米川町3-12-31","lat":35.765895,"lon":139.473002},{"name":"楽しい放課後みんな","province":"東京都","city":"東村山市","address":"東村山市久米川町2-31-6-102","lat":35.761424,"lon":139.482748},{"name":"ひまわり","province":"東京都","city":"東村山市","address":"東村山市富士見町1-5-13","lat":35.741734,"lon":139.459646},{"name":"東村山市子ども家庭支援センター","province":"東京都","city":"東村山市","address":"東村山市本町1-2-3いきいきプラザ3階","lat":35.754624,"lon":139.468483},{"name":"東村山市子ども家庭支援センター","province":"東京都","city":"東村山市","address":"東村山市本町1-2-3いきいきプラザ3階","lat":35.75449,"lon":139.46841},{"name":"やまだこども教室","province":"東京都","city":"東村山市","address":"東村山市秋津町5-13-3セゾン新秋津2階","lat":35.778311,"lon":139.494094},{"name":"トーコロあおば就労サポートセンター","province":"東京都","city":"東村山市","address":"東村山市青葉町2-39-10","lat":35.765318,"lon":139.490695},{"name":"山鳩訓練室","province":"東京都","city":"東村山市","address":"東村山市久米川町3-12-31","lat":35.765895,"lon":139.473002},{"name":"楽しい放課後みんな","province":"東京都","city":"東村山市","address":"東村山市久米川町2-31-6-102","lat":35.761424,"lon":139.482748},{"name":"ひまわり","province":"東京都","city":"東村山市","address":"東村山市富士見町1-5-13","lat":35.741734,"lon":139.459646},{"name":"東村山市子ども家庭支援センター","province":"東京都","city":"東村山市","address":"東村山市本町1-2-3いきいきプラザ3階","lat":35.754624,"lon":139.468483},{"name":"東村山市子ども家庭支援センター","province":"東京都","city":"東村山市","address":"東村山市本町1-2-3いきいきプラザ3階","lat":35.75449,"lon":139.46841},{"name":"やまだこども教室","province":"東京都","city":"東村山市","address":"東村山市秋津町5-13-3セゾン新秋津2階","lat":35.778311,"lon":139.494094},{"name":"トーコロあおば就労サポートセンター","province":"東京都","city":"東村山市","address":"東村山市青葉町2-39-10","lat":35.765318,"lon":139.490695},{"name":"山鳩訓練室","province":"東京都","city":"東村山市","address":"東村山市久米川町3-12-31","lat":35.765895,"lon":139.473002},{"name":"楽しい放課後みんな","province":"東京都","city":"東村山市","address":"東村山市久米川町2-31-6-102","lat":35.761424,"lon":139.482748},{"name":"ひまわり","province":"東京都","city":"東村山市","address":"東村山市富士見町1-5-13","lat":35.741734,"lon":139.459646},{"name":"東村山市子ども家庭支援センター","province":"東京都","city":"東村山市","address":"東村山市本町1-2-3いきいきプラザ3階","lat":35.754624,"lon":139.468483},{"name":"東村山市子ども家庭支援センター","province":"東京都","city":"東村山市","address":"東村山市本町1-2-3いきいきプラザ3階","lat":35.75449,"lon":139.46841},{"name":"やまだこども教室","province":"東京都","city":"東村山市","address":"東村山市秋津町5-13-3セゾン新秋津2階","lat":35.778311,"lon":139.494094},{"name":"トーコロあおば就労サポートセンター","province":"東京都","city":"東村山市","address":"東村山市青葉町2-39-10","lat":35.765318,"lon":139.490695},{"name":"山鳩訓練室","province":"東京都","city":"東村山市","address":"東村山市久米川町3-12-31","lat":35.765895,"lon":139.473002},{"name":"楽しい放課後みんな","province":"東京都","city":"東村山市","address":"東村山市久米川町2-31-6-102","lat":35.761424,"lon":139.482748},{"name":"ひまわり","province":"東京都","city":"東村山市","address":"東村山市富士見町1-5-13","lat":35.741734,"lon":139.459646},{"name":"東村山市子ども家庭支援センター","province":"東京都","city":"東村山市","address":"東村山市本町1-2-3いきいきプラザ3階","lat":35.754624,"lon":139.468483},{"name":"東村山市子ども家庭支援センター","province":"東京都","city":"東村山市","address":"東村山市本町1-2-3いきいきプラザ3階","lat":35.75449,"lon":139.46841},{"name":"やまだこども教室","province":"東京都","city":"東村山市","address":"東村山市秋津町5-13-3セゾン新秋津2階","lat":35.778311,"lon":139.494094},{"name":"トーコロあおば就労サポートセンター","province":"東京都","city":"東村山市","address":"東村山市青葉町2-39-10","lat":35.765318,"lon":139.490695},{"name":"山鳩訓練室","province":"東京都","city":"東村山市","address":"東村山市久米川町3-12-31","lat":35.765895,"lon":139.473002},{"name":"楽しい放課後みんな","province":"東京都","city":"東村山市","address":"東村山市久米川町2-31-6-102","lat":35.761424,"lon":139.482748},{"name":"ひまわり","province":"東京都","city":"東村山市","address":"東村山市富士見町1-5-13","lat":35.741734,"lon":139.459646},{"name":"東村山市子ども家庭支援センター","province":"東京都","city":"東村山市","address":"東村山市本町1-2-3いきいきプラザ3階","lat":35.754624,"lon":139.468483},{"name":"東村山市子ども家庭支援センター","province":"東京都","city":"東村山市","address":"東村山市本町1-2-3いきいきプラザ3階","lat":35.75449,"lon":139.46841},{"name":"やまだこども教室","province":"東京都","city":"東村山市","address":"東村山市秋津町5-13-3セゾン新秋津2階","lat":35.778311,"lon":139.494094},{"name":"トーコロあおば就労サポートセンター","province":"東京都","city":"東村山市","address":"東村山市青葉町2-39-10","lat":35.765318,"lon":139.490695},{"name":"山鳩訓練室","province":"東京都","city":"東村山市","address":"東村山市久米川町3-12-31","lat":35.765895,"lon":139.473002},{"name":"楽しい放課後みんな","province":"東京都","city":"東村山市","address":"東村山市久米川町2-31-6-102","lat":35.761424,"lon":139.482748},{"name":"ひまわり","province":"東京都","city":"東村山市","address":"東村山市富士見町1-5-13","lat":35.741734,"lon":139.459646},{"name":"東村山市子ども家庭支援センター","province":"東京都","city":"東村山市","address":"東村山市本町1-2-3いきいきプラザ3階","lat":35.754624,"lon":139.468483},{"name":"東村山市子ども家庭支援センター","province":"東京都","city":"東村山市","address":"東村山市本町1-2-3いきいきプラザ3階","lat":35.75449,"lon":139.46841},{"name":"やまだこども教室","province":"東京都","city":"東村山市","address":"東村山市秋津町5-13-3セゾン新秋津2階","lat":35.778311,"lon":139.494094},{"name":"トーコロあおば就労サポートセンター","province":"東京都","city":"東村山市","address":"東村山市青葉町2-39-10","lat":35.765318,"lon":139.490695},{"name":"山鳩訓練室","province":"東京都","city":"東村山市","address":"東村山市久米川町3-12-31","lat":35.765895,"lon":139.473002},{"name":"楽しい放課後みんな","province":"東京都","city":"東村山市","address":"東村山市久米川町2-31-6-102","lat":35.761424,"lon":139.482748},{"name":"ひまわり","province":"東京都","city":"東村山市","address":"東村山市富士見町1-5-13","lat":35.741734,"lon":139.459646},{"name":"東村山市子ども家庭支援センター","province":"東京都","city":"東村山市","address":"東村山市本町1-2-3いきいきプラザ3階","lat":35.754624,"lon":139.468483},{"name":"東村山市子ども家庭支援センター","province":"東京都","city":"東村山市","address":"東村山市本町1-2-3いきいきプラザ3階","lat":35.75449,"lon":139.46841},{"name":"やまだこども教室","province":"東京都","city":"東村山市","address":"東村山市秋津町5-13-3セゾン新秋津2階","lat":35.778311,"lon":139.494094},{"name":"トーコロあおば就労サポートセンター","province":"東京都","city":"東村山市","address":"東村山市青葉町2-39-10","lat":35.765318,"lon":139.490695},{"name":"山鳩訓練室","province":"東京都","city":"東村山市","address":"東村山市久米川町3-12-31","lat":35.765895,"lon":139.473002},{"name":"楽しい放課後みんな","province":"東京都","city":"東村山市","address":"東村山市久米川町2-31-6-102","lat":35.761424,"lon":139.482748},{"name":"ひまわり","province":"東京都","city":"東村山市","address":"東村山市富士見町1-5-13","lat":35.741734,"lon":139.459646},{"name":"東村山市子ども家庭支援センター","province":"東京都","city":"東村山市","address":"東村山市本町1-2-3いきいきプラザ3階","lat":35.754624,"lon":139.468483},{"name":"東村山市子ども家庭支援センター","province":"東京都","city":"東村山市","address":"東村山市本町1-2-3いきいきプラザ3階","lat":35.75449,"lon":139.46841}]}