{"keyword":"朝","data":[{"name":"長坂式典センター","province":"東京都","city":"東村山市","address":"東京都東村山市本町2丁目19-36","lat":35.75973473,"lon":139.46753035},{"name":"ベルホール三光商会","province":"東京都","city":"東村山市","address":"東京都東村山市恩多町2丁目41-3","lat":35.74664228,"lon":139.48623476},{"name":"メモリアルアートの大野屋","province":"東京都","city":"東村山市","address":"東京都東村山市萩山町1丁目19-2","lat":35.73911534,"lon":139.48567125},{"name":"愛和葬祭","province":"東京都","city":"東村山市","address":"東京都東村山市秋津町3丁目5-8","lat":35.77351681,"lon":139.47999277},{"name":"しんせいどう","province":"東京都","city":"東村山市","address":"東京都東村山市青葉町2丁目1-63","lat":35.76059629,"lon":139.48833404},{"name":"彩花","province":"東京都","city":"東村山市","address":"東京都東村山市青葉町2丁目28-5","lat":35.7628517,"lon":139.49251419},{"name":"まちの縁側本町　夕ぐれ食堂","province":"東京都","city":"東村山市","address":"東京都東村山市本町4丁目1-8","lat":35.75253003,"lon":139.46967488},{"name":"子ども食堂　リコード","province":"東京都","city":"東村山市","address":"東京都東村山市本町3丁目9-40","lat":35.75852665,"lon":139.47114118},{"name":"ふれあいこども食堂あおば","province":"東京都","city":"東村山市","address":"東京都東村山市青葉町2丁目25-66","lat":35.76190178,"lon":139.49118376},{"name":"ふれあいこども食堂","province":"東京都","city":"東村山市","address":"東京都東村山市栄町1丁目1-18","lat":35.75056089,"lon":139.47198587},{"name":"にちよう食堂","province":"東京都","city":"東村山市","address":"東京都東村山市栄町1丁目29-34","lat":35.75251075,"lon":139.47501885},{"name":"おひさま食堂","province":"東京都","city":"東村山市","address":"東京都東村山市富士見町5丁目1-93","lat":35.7450057,"lon":139.46432568},{"name":"万福食堂","province":"東京都","city":"東村山市","address":"東京都東村山市廻田町3丁目12-6","lat":35.75761762,"lon":139.44732947},{"name":"東村山地域食堂ふたば","province":"東京都","city":"東村山市","address":"東京都東村山市野口町1丁目15-5","lat":35.76157604,"lon":139.46296959},{"name":"SOMPO流　子ども食堂（八坂）","province":"東京都","city":"東村山市","address":"東京都東村山市栄町3丁目23-1","lat":35.74535292,"lon":139.46513116},{"name":"SOMPO流　子ども食堂（萩山）","province":"東京都","city":"東村山市","address":"東京都東村山市萩山町2丁目9-46","lat":35.7402039,"lon":139.47823297},{"name":"SOMPO流　子ども食堂（久米川）","province":"東京都","city":"東村山市","address":"東京都東村山市美住町1丁目19-10","lat":35.75042437,"lon":139.45880928},{"name":"子どもたちのお弁当屋さん","province":"東京都","city":"東村山市","address":"東京都東村山市富士見町2丁目19-23","lat":35.7372534,"lon":139.45070223},{"name":"恩多こども食堂","province":"東京都","city":"東村山市","address":"東京都東村山市恩多町3丁目3-22","lat":35.753233,"lon":139.47909623},{"name":"八坂","province":"東京都","city":"東村山市","address":"東京都東村山市萩山町3丁目31-45","lat":35.74387259,"lon":139.46697271},{"name":"東村山郵便局前","province":"東京都","city":"東村山市","address":"東京都東村山市本町2丁目1-2","lat":35.75822931,"lon":139.46684991},{"name":"栄町一丁目","province":"東京都","city":"東村山市","address":"東京都東村山市栄町1丁目23-1","lat":35.75067204,"lon":139.47384403},{"name":"八坂駅北口","province":"東京都","city":"東村山市","address":"東京都東村山市栄町3丁目10-28","lat":35.7458668,"lon":139.46705596},{"name":"萩山町五丁目","province":"東京都","city":"東村山市","address":"東京都東村山市萩山町5丁目3","lat":35.74820856,"lon":139.47866037},{"name":"東村山駅東口","province":"東京都","city":"東村山市","address":"東京都東村山市本町2丁目17-7","lat":35.76104847,"lon":139.46749974},{"name":"南台小学校裏","province":"東京都","city":"東村山市","address":"東京都東村山市富士見町2丁目1","lat":35.74489978,"lon":139.45277395},{"name":"東村山駅西口","province":"東京都","city":"東村山市","address":"東京都東村山市野口町1丁目10-1","lat":35.76173995,"lon":139.46462498},{"name":"萩山駅南口","province":"東京都","city":"東村山市","address":"東京都東村山市萩山町2丁目2","lat":35.74081487,"lon":139.47583872},{"name":"東村山郵便局北","province":"東京都","city":"東村山市","address":"東京都東村山市本町2丁目2-9","lat":35.7595014,"lon":139.46689431},{"name":"多摩北部医療センター前","province":"東京都","city":"東村山市","address":"東京都東村山市青葉町2丁目27-1","lat":35.76242395,"lon":139.49172816},{"name":"秋津駅入口","province":"東京都","city":"東村山市","address":"東京都東村山市秋津町1丁目32-18","lat":35.77338112,"lon":139.49729414},{"name":"青葉駐在所前","province":"東京都","city":"東村山市","address":"東京都東村山市青葉町2丁目24-64","lat":35.76058521,"lon":139.48940895},{"name":"多摩北部医療センター西","province":"東京都","city":"東村山市","address":"東京都東村山市青葉町1丁目7","lat":35.75941877,"lon":139.4930448},{"name":"多摩北部医療センター南","province":"東京都","city":"東村山市","address":"東京都東村山市青葉町1丁目7","lat":35.75941877,"lon":139.4930448},{"name":"西武園駅東","province":"東京都","city":"東村山市","address":"東京都東村山市多摩湖町4丁目29","lat":35.76763595,"lon":139.44840958},{"name":"八坂給水所","province":"東京都","city":"東村山市","address":"東京都東村山市富士見町5丁目4-46","lat":35.74735525,"lon":139.45848167},{"name":"東村山浄水場","province":"東京都","city":"東村山市","address":"東京都東村山市美住町2丁目20-236","lat":35.75327404,"lon":139.45878417},{"name":"美住給水所","province":"東京都","city":"東村山市","address":"東京都東村山市美住町2丁目13-4","lat":35.75552943,"lon":139.46155328},{"name":"市立東村山運動公園","province":"東京都","city":"東村山市","address":"東京都東村山市恩多町1丁目9-59","lat":35.75542745,"lon":139.48852866},{"name":"美住給水所（注２）","province":"東京都","city":"東村山市","address":"東京都東村山市美住町2丁目13-4","lat":35.75552943,"lon":139.46155328},{"name":"東村山市立廻田公民館","province":"東京都","city":"東村山市","address":"東村山市廻田町4-19-1","lat":35.759617,"lon":139.452087},{"name":"東村山市立秋津公民館","province":"東京都","city":"東村山市","address":"東村山市秋津町2-17-10","lat":35.770851,"lon":139.486847},{"name":"東村山市立中央公民館","province":"東京都","city":"東村山市","address":"東村山市本町2-33-2","lat":35.759972,"lon":139.466721},{"name":"東村山市立萩山公民館","province":"東京都","city":"東村山市","address":"東村山市萩山町2-13-1","lat":35.741993,"lon":139.478363},{"name":"東村山市立富士見公民館","province":"東京都","city":"東村山市","address":"東村山市富士見町5-4-51","lat":35.748219,"lon":139.456573},{"name":"東村山市立廻田図書館","province":"東京都","city":"東村山市","address":"東村山市廻田町4-19-1","lat":35.759617,"lon":139.452087},{"name":"東村山市立秋津図書館","province":"東京都","city":"東村山市","address":"東村山市秋津町2-17-10","lat":35.770851,"lon":139.486847},{"name":"東村山市立中央図書館","province":"東京都","city":"東村山市","address":"東村山市本町1-1-10","lat":35.755348,"lon":139.46788},{"name":"東村山市立萩山図書館","province":"東京都","city":"東村山市","address":"東村山市萩山町2-13-1","lat":35.741993,"lon":139.478363},{"name":"東村山市立富士見図書館","province":"東京都","city":"東村山市","address":"東村山市富士見町1-7-35","lat":35.743481,"lon":139.459763},{"name":"東村山ふるさと歴史館","province":"東京都","city":"東村山市","address":"東村山市諏訪町1-6-3","lat":35.766373,"lon":139.465363},{"name":"八国山たいけんの里","province":"東京都","city":"東村山市","address":"東村山市野口町3-48-1","lat":35.76627,"lon":139.454498},{"name":"長坂式典センター","province":"東京都","city":"東村山市","address":"東京都東村山市本町2丁目19-36","lat":35.75973473,"lon":139.46753035},{"name":"ベルホール三光商会","province":"東京都","city":"東村山市","address":"東京都東村山市恩多町2丁目41-3","lat":35.74664228,"lon":139.48623476},{"name":"メモリアルアートの大野屋","province":"東京都","city":"東村山市","address":"東京都東村山市萩山町1丁目19-2","lat":35.73911534,"lon":139.48567125},{"name":"愛和葬祭","province":"東京都","city":"東村山市","address":"東京都東村山市秋津町3丁目5-8","lat":35.77351681,"lon":139.47999277},{"name":"しんせいどう","province":"東京都","city":"東村山市","address":"東京都東村山市青葉町2丁目1-63","lat":35.76059629,"lon":139.48833404},{"name":"彩花","province":"東京都","city":"東村山市","address":"東京都東村山市青葉町2丁目28-5","lat":35.7628517,"lon":139.49251419},{"name":"まちの縁側本町　夕ぐれ食堂","province":"東京都","city":"東村山市","address":"東京都東村山市本町4丁目1-8","lat":35.75253003,"lon":139.46967488},{"name":"子ども食堂　リコード","province":"東京都","city":"東村山市","address":"東京都東村山市本町3丁目9-40","lat":35.75852665,"lon":139.47114118},{"name":"ふれあいこども食堂あおば","province":"東京都","city":"東村山市","address":"東京都東村山市青葉町2丁目25-66","lat":35.76190178,"lon":139.49118376},{"name":"ふれあいこども食堂","province":"東京都","city":"東村山市","address":"東京都東村山市栄町1丁目1-18","lat":35.75056089,"lon":139.47198587},{"name":"にちよう食堂","province":"東京都","city":"東村山市","address":"東京都東村山市栄町1丁目29-34","lat":35.75251075,"lon":139.47501885},{"name":"おひさま食堂","province":"東京都","city":"東村山市","address":"東京都東村山市富士見町5丁目1-93","lat":35.7450057,"lon":139.46432568},{"name":"万福食堂","province":"東京都","city":"東村山市","address":"東京都東村山市廻田町3丁目12-6","lat":35.75761762,"lon":139.44732947},{"name":"東村山地域食堂ふたば","province":"東京都","city":"東村山市","address":"東京都東村山市野口町1丁目15-5","lat":35.76157604,"lon":139.46296959},{"name":"SOMPO流　子ども食堂（八坂）","province":"東京都","city":"東村山市","address":"東京都東村山市栄町3丁目23-1","lat":35.74535292,"lon":139.46513116},{"name":"SOMPO流　子ども食堂（萩山）","province":"東京都","city":"東村山市","address":"東京都東村山市萩山町2丁目9-46","lat":35.7402039,"lon":139.47823297},{"name":"SOMPO流　子ども食堂（久米川）","province":"東京都","city":"東村山市","address":"東京都東村山市美住町1丁目19-10","lat":35.75042437,"lon":139.45880928},{"name":"子どもたちのお弁当屋さん","province":"東京都","city":"東村山市","address":"東京都東村山市富士見町2丁目19-23","lat":35.7372534,"lon":139.45070223},{"name":"恩多こども食堂","province":"東京都","city":"東村山市","address":"東京都東村山市恩多町3丁目3-22","lat":35.753233,"lon":139.47909623},{"name":"八坂","province":"東京都","city":"東村山市","address":"東京都東村山市萩山町3丁目31-45","lat":35.74387259,"lon":139.46697271},{"name":"東村山郵便局前","province":"東京都","city":"東村山市","address":"東京都東村山市本町2丁目1-2","lat":35.75822931,"lon":139.46684991},{"name":"栄町一丁目","province":"東京都","city":"東村山市","address":"東京都東村山市栄町1丁目23-1","lat":35.75067204,"lon":139.47384403},{"name":"八坂駅北口","province":"東京都","city":"東村山市","address":"東京都東村山市栄町3丁目10-28","lat":35.7458668,"lon":139.46705596},{"name":"萩山町五丁目","province":"東京都","city":"東村山市","address":"東京都東村山市萩山町5丁目3","lat":35.74820856,"lon":139.47866037},{"name":"東村山駅東口","province":"東京都","city":"東村山市","address":"東京都東村山市本町2丁目17-7","lat":35.76104847,"lon":139.46749974},{"name":"南台小学校裏","province":"東京都","city":"東村山市","address":"東京都東村山市富士見町2丁目1","lat":35.74489978,"lon":139.45277395},{"name":"東村山駅西口","province":"東京都","city":"東村山市","address":"東京都東村山市野口町1丁目10-1","lat":35.76173995,"lon":139.46462498},{"name":"萩山駅南口","province":"東京都","city":"東村山市","address":"東京都東村山市萩山町2丁目2","lat":35.74081487,"lon":139.47583872},{"name":"東村山郵便局北","province":"東京都","city":"東村山市","address":"東京都東村山市本町2丁目2-9","lat":35.7595014,"lon":139.46689431},{"name":"多摩北部医療センター前","province":"東京都","city":"東村山市","address":"東京都東村山市青葉町2丁目27-1","lat":35.76242395,"lon":139.49172816},{"name":"秋津駅入口","province":"東京都","city":"東村山市","address":"東京都東村山市秋津町1丁目32-18","lat":35.77338112,"lon":139.49729414},{"name":"青葉駐在所前","province":"東京都","city":"東村山市","address":"東京都東村山市青葉町2丁目24-64","lat":35.76058521,"lon":139.48940895},{"name":"多摩北部医療センター西","province":"東京都","city":"東村山市","address":"東京都東村山市青葉町1丁目7","lat":35.75941877,"lon":139.4930448},{"name":"多摩北部医療センター南","province":"東京都","city":"東村山市","address":"東京都東村山市青葉町1丁目7","lat":35.75941877,"lon":139.4930448},{"name":"西武園駅東","province":"東京都","city":"東村山市","address":"東京都東村山市多摩湖町4丁目29","lat":35.76763595,"lon":139.44840958},{"name":"八坂給水所","province":"東京都","city":"東村山市","address":"東京都東村山市富士見町5丁目4-46","lat":35.74735525,"lon":139.45848167},{"name":"東村山浄水場","province":"東京都","city":"東村山市","address":"東京都東村山市美住町2丁目20-236","lat":35.75327404,"lon":139.45878417},{"name":"美住給水所","province":"東京都","city":"東村山市","address":"東京都東村山市美住町2丁目13-4","lat":35.75552943,"lon":139.46155328},{"name":"市立東村山運動公園","province":"東京都","city":"東村山市","address":"東京都東村山市恩多町1丁目9-59","lat":35.75542745,"lon":139.48852866},{"name":"美住給水所（注２）","province":"東京都","city":"東村山市","address":"東京都東村山市美住町2丁目13-4","lat":35.75552943,"lon":139.46155328},{"name":"東村山市立廻田公民館","province":"東京都","city":"東村山市","address":"東村山市廻田町4-19-1","lat":35.759617,"lon":139.452087},{"name":"東村山市立秋津公民館","province":"東京都","city":"東村山市","address":"東村山市秋津町2-17-10","lat":35.770851,"lon":139.486847},{"name":"東村山市立中央公民館","province":"東京都","city":"東村山市","address":"東村山市本町2-33-2","lat":35.759972,"lon":139.466721},{"name":"東村山市立萩山公民館","province":"東京都","city":"東村山市","address":"東村山市萩山町2-13-1","lat":35.741993,"lon":139.478363},{"name":"東村山市立富士見公民館","province":"東京都","city":"東村山市","address":"東村山市富士見町5-4-51","lat":35.748219,"lon":139.456573},{"name":"東村山市立廻田図書館","province":"東京都","city":"東村山市","address":"東村山市廻田町4-19-1","lat":35.759617,"lon":139.452087},{"name":"東村山市立秋津図書館","province":"東京都","city":"東村山市","address":"東村山市秋津町2-17-10","lat":35.770851,"lon":139.486847},{"name":"東村山市立中央図書館","province":"東京都","city":"東村山市","address":"東村山市本町1-1-10","lat":35.755348,"lon":139.46788},{"name":"東村山市立萩山図書館","province":"東京都","city":"東村山市","address":"東村山市萩山町2-13-1","lat":35.741993,"lon":139.478363},{"name":"東村山市立富士見図書館","province":"東京都","city":"東村山市","address":"東村山市富士見町1-7-35","lat":35.743481,"lon":139.459763},{"name":"東村山ふるさと歴史館","province":"東京都","city":"東村山市","address":"東村山市諏訪町1-6-3","lat":35.766373,"lon":139.465363},{"name":"八国山たいけんの里","province":"東京都","city":"東村山市","address":"東村山市野口町3-48-1","lat":35.76627,"lon":139.454498},{"name":"長坂式典センター","province":"東京都","city":"東村山市","address":"東京都東村山市本町2丁目19-36","lat":35.75973473,"lon":139.46753035},{"name":"ベルホール三光商会","province":"東京都","city":"東村山市","address":"東京都東村山市恩多町2丁目41-3","lat":35.74664228,"lon":139.48623476},{"name":"メモリアルアートの大野屋","province":"東京都","city":"東村山市","address":"東京都東村山市萩山町1丁目19-2","lat":35.73911534,"lon":139.48567125},{"name":"愛和葬祭","province":"東京都","city":"東村山市","address":"東京都東村山市秋津町3丁目5-8","lat":35.77351681,"lon":139.47999277},{"name":"しんせいどう","province":"東京都","city":"東村山市","address":"東京都東村山市青葉町2丁目1-63","lat":35.76059629,"lon":139.48833404},{"name":"彩花","province":"東京都","city":"東村山市","address":"東京都東村山市青葉町2丁目28-5","lat":35.7628517,"lon":139.49251419},{"name":"まちの縁側本町　夕ぐれ食堂","province":"東京都","city":"東村山市","address":"東京都東村山市本町4丁目1-8","lat":35.75253003,"lon":139.46967488},{"name":"子ども食堂　リコード","province":"東京都","city":"東村山市","address":"東京都東村山市本町3丁目9-40","lat":35.75852665,"lon":139.47114118},{"name":"ふれあいこども食堂あおば","province":"東京都","city":"東村山市","address":"東京都東村山市青葉町2丁目25-66","lat":35.76190178,"lon":139.49118376},{"name":"ふれあいこども食堂","province":"東京都","city":"東村山市","address":"東京都東村山市栄町1丁目1-18","lat":35.75056089,"lon":139.47198587},{"name":"にちよう食堂","province":"東京都","city":"東村山市","address":"東京都東村山市栄町1丁目29-34","lat":35.75251075,"lon":139.47501885},{"name":"おひさま食堂","province":"東京都","city":"東村山市","address":"東京都東村山市富士見町5丁目1-93","lat":35.7450057,"lon":139.46432568},{"name":"万福食堂","province":"東京都","city":"東村山市","address":"東京都東村山市廻田町3丁目12-6","lat":35.75761762,"lon":139.44732947},{"name":"東村山地域食堂ふたば","province":"東京都","city":"東村山市","address":"東京都東村山市野口町1丁目15-5","lat":35.76157604,"lon":139.46296959},{"name":"SOMPO流　子ども食堂（八坂）","province":"東京都","city":"東村山市","address":"東京都東村山市栄町3丁目23-1","lat":35.74535292,"lon":139.46513116},{"name":"SOMPO流　子ども食堂（萩山）","province":"東京都","city":"東村山市","address":"東京都東村山市萩山町2丁目9-46","lat":35.7402039,"lon":139.47823297},{"name":"SOMPO流　子ども食堂（久米川）","province":"東京都","city":"東村山市","address":"東京都東村山市美住町1丁目19-10","lat":35.75042437,"lon":139.45880928},{"name":"子どもたちのお弁当屋さん","province":"東京都","city":"東村山市","address":"東京都東村山市富士見町2丁目19-23","lat":35.7372534,"lon":139.45070223},{"name":"恩多こども食堂","province":"東京都","city":"東村山市","address":"東京都東村山市恩多町3丁目3-22","lat":35.753233,"lon":139.47909623},{"name":"八坂","province":"東京都","city":"東村山市","address":"東京都東村山市萩山町3丁目31-45","lat":35.74387259,"lon":139.46697271},{"name":"東村山郵便局前","province":"東京都","city":"東村山市","address":"東京都東村山市本町2丁目1-2","lat":35.75822931,"lon":139.46684991},{"name":"栄町一丁目","province":"東京都","city":"東村山市","address":"東京都東村山市栄町1丁目23-1","lat":35.75067204,"lon":139.47384403},{"name":"八坂駅北口","province":"東京都","city":"東村山市","address":"東京都東村山市栄町3丁目10-28","lat":35.7458668,"lon":139.46705596},{"name":"萩山町五丁目","province":"東京都","city":"東村山市","address":"東京都東村山市萩山町5丁目3","lat":35.74820856,"lon":139.47866037},{"name":"東村山駅東口","province":"東京都","city":"東村山市","address":"東京都東村山市本町2丁目17-7","lat":35.76104847,"lon":139.46749974},{"name":"南台小学校裏","province":"東京都","city":"東村山市","address":"東京都東村山市富士見町2丁目1","lat":35.74489978,"lon":139.45277395},{"name":"東村山駅西口","province":"東京都","city":"東村山市","address":"東京都東村山市野口町1丁目10-1","lat":35.76173995,"lon":139.46462498},{"name":"萩山駅南口","province":"東京都","city":"東村山市","address":"東京都東村山市萩山町2丁目2","lat":35.74081487,"lon":139.47583872},{"name":"東村山郵便局北","province":"東京都","city":"東村山市","address":"東京都東村山市本町2丁目2-9","lat":35.7595014,"lon":139.46689431},{"name":"多摩北部医療センター前","province":"東京都","city":"東村山市","address":"東京都東村山市青葉町2丁目27-1","lat":35.76242395,"lon":139.49172816},{"name":"秋津駅入口","province":"東京都","city":"東村山市","address":"東京都東村山市秋津町1丁目32-18","lat":35.77338112,"lon":139.49729414},{"name":"青葉駐在所前","province":"東京都","city":"東村山市","address":"東京都東村山市青葉町2丁目24-64","lat":35.76058521,"lon":139.48940895},{"name":"多摩北部医療センター西","province":"東京都","city":"東村山市","address":"東京都東村山市青葉町1丁目7","lat":35.75941877,"lon":139.4930448},{"name":"多摩北部医療センター南","province":"東京都","city":"東村山市","address":"東京都東村山市青葉町1丁目7","lat":35.75941877,"lon":139.4930448},{"name":"西武園駅東","province":"東京都","city":"東村山市","address":"東京都東村山市多摩湖町4丁目29","lat":35.76763595,"lon":139.44840958},{"name":"八坂給水所","province":"東京都","city":"東村山市","address":"東京都東村山市富士見町5丁目4-46","lat":35.74735525,"lon":139.45848167},{"name":"東村山浄水場","province":"東京都","city":"東村山市","address":"東京都東村山市美住町2丁目20-236","lat":35.75327404,"lon":139.45878417},{"name":"美住給水所","province":"東京都","city":"東村山市","address":"東京都東村山市美住町2丁目13-4","lat":35.75552943,"lon":139.46155328},{"name":"市立東村山運動公園","province":"東京都","city":"東村山市","address":"東京都東村山市恩多町1丁目9-59","lat":35.75542745,"lon":139.48852866},{"name":"美住給水所（注２）","province":"東京都","city":"東村山市","address":"東京都東村山市美住町2丁目13-4","lat":35.75552943,"lon":139.46155328},{"name":"東村山市立廻田公民館","province":"東京都","city":"東村山市","address":"東村山市廻田町4-19-1","lat":35.759617,"lon":139.452087},{"name":"東村山市立秋津公民館","province":"東京都","city":"東村山市","address":"東村山市秋津町2-17-10","lat":35.770851,"lon":139.486847},{"name":"東村山市立中央公民館","province":"東京都","city":"東村山市","address":"東村山市本町2-33-2","lat":35.759972,"lon":139.466721},{"name":"東村山市立萩山公民館","province":"東京都","city":"東村山市","address":"東村山市萩山町2-13-1","lat":35.741993,"lon":139.478363},{"name":"東村山市立富士見公民館","province":"東京都","city":"東村山市","address":"東村山市富士見町5-4-51","lat":35.748219,"lon":139.456573},{"name":"東村山市立廻田図書館","province":"東京都","city":"東村山市","address":"東村山市廻田町4-19-1","lat":35.759617,"lon":139.452087},{"name":"東村山市立秋津図書館","province":"東京都","city":"東村山市","address":"東村山市秋津町2-17-10","lat":35.770851,"lon":139.486847},{"name":"東村山市立中央図書館","province":"東京都","city":"東村山市","address":"東村山市本町1-1-10","lat":35.755348,"lon":139.46788},{"name":"東村山市立萩山図書館","province":"東京都","city":"東村山市","address":"東村山市萩山町2-13-1","lat":35.741993,"lon":139.478363},{"name":"東村山市立富士見図書館","province":"東京都","city":"東村山市","address":"東村山市富士見町1-7-35","lat":35.743481,"lon":139.459763},{"name":"東村山ふるさと歴史館","province":"東京都","city":"東村山市","address":"東村山市諏訪町1-6-3","lat":35.766373,"lon":139.465363},{"name":"八国山たいけんの里","province":"東京都","city":"東村山市","address":"東村山市野口町3-48-1","lat":35.76627,"lon":139.454498},{"name":"長坂式典センター","province":"東京都","city":"東村山市","address":"東京都東村山市本町2丁目19-36","lat":35.75973473,"lon":139.46753035},{"name":"ベルホール三光商会","province":"東京都","city":"東村山市","address":"東京都東村山市恩多町2丁目41-3","lat":35.74664228,"lon":139.48623476},{"name":"メモリアルアートの大野屋","province":"東京都","city":"東村山市","address":"東京都東村山市萩山町1丁目19-2","lat":35.73911534,"lon":139.48567125},{"name":"愛和葬祭","province":"東京都","city":"東村山市","address":"東京都東村山市秋津町3丁目5-8","lat":35.77351681,"lon":139.47999277},{"name":"しんせいどう","province":"東京都","city":"東村山市","address":"東京都東村山市青葉町2丁目1-63","lat":35.76059629,"lon":139.48833404},{"name":"彩花","province":"東京都","city":"東村山市","address":"東京都東村山市青葉町2丁目28-5","lat":35.7628517,"lon":139.49251419},{"name":"まちの縁側本町　夕ぐれ食堂","province":"東京都","city":"東村山市","address":"東京都東村山市本町4丁目1-8","lat":35.75253003,"lon":139.46967488},{"name":"子ども食堂　リコード","province":"東京都","city":"東村山市","address":"東京都東村山市本町3丁目9-40","lat":35.75852665,"lon":139.47114118},{"name":"ふれあいこども食堂あおば","province":"東京都","city":"東村山市","address":"東京都東村山市青葉町2丁目25-66","lat":35.76190178,"lon":139.49118376},{"name":"ふれあいこども食堂","province":"東京都","city":"東村山市","address":"東京都東村山市栄町1丁目1-18","lat":35.75056089,"lon":139.47198587},{"name":"にちよう食堂","province":"東京都","city":"東村山市","address":"東京都東村山市栄町1丁目29-34","lat":35.75251075,"lon":139.47501885},{"name":"おひさま食堂","province":"東京都","city":"東村山市","address":"東京都東村山市富士見町5丁目1-93","lat":35.7450057,"lon":139.46432568},{"name":"万福食堂","province":"東京都","city":"東村山市","address":"東京都東村山市廻田町3丁目12-6","lat":35.75761762,"lon":139.44732947},{"name":"東村山地域食堂ふたば","province":"東京都","city":"東村山市","address":"東京都東村山市野口町1丁目15-5","lat":35.76157604,"lon":139.46296959},{"name":"SOMPO流　子ども食堂（八坂）","province":"東京都","city":"東村山市","address":"東京都東村山市栄町3丁目23-1","lat":35.74535292,"lon":139.46513116},{"name":"SOMPO流　子ども食堂（萩山）","province":"東京都","city":"東村山市","address":"東京都東村山市萩山町2丁目9-46","lat":35.7402039,"lon":139.47823297},{"name":"SOMPO流　子ども食堂（久米川）","province":"東京都","city":"東村山市","address":"東京都東村山市美住町1丁目19-10","lat":35.75042437,"lon":139.45880928},{"name":"子どもたちのお弁当屋さん","province":"東京都","city":"東村山市","address":"東京都東村山市富士見町2丁目19-23","lat":35.7372534,"lon":139.45070223},{"name":"恩多こども食堂","province":"東京都","city":"東村山市","address":"東京都東村山市恩多町3丁目3-22","lat":35.753233,"lon":139.47909623},{"name":"八坂","province":"東京都","city":"東村山市","address":"東京都東村山市萩山町3丁目31-45","lat":35.74387259,"lon":139.46697271},{"name":"東村山郵便局前","province":"東京都","city":"東村山市","address":"東京都東村山市本町2丁目1-2","lat":35.75822931,"lon":139.46684991},{"name":"栄町一丁目","province":"東京都","city":"東村山市","address":"東京都東村山市栄町1丁目23-1","lat":35.75067204,"lon":139.47384403},{"name":"八坂駅北口","province":"東京都","city":"東村山市","address":"東京都東村山市栄町3丁目10-28","lat":35.7458668,"lon":139.46705596},{"name":"萩山町五丁目","province":"東京都","city":"東村山市","address":"東京都東村山市萩山町5丁目3","lat":35.74820856,"lon":139.47866037},{"name":"東村山駅東口","province":"東京都","city":"東村山市","address":"東京都東村山市本町2丁目17-7","lat":35.76104847,"lon":139.46749974},{"name":"南台小学校裏","province":"東京都","city":"東村山市","address":"東京都東村山市富士見町2丁目1","lat":35.74489978,"lon":139.45277395},{"name":"東村山駅西口","province":"東京都","city":"東村山市","address":"東京都東村山市野口町1丁目10-1","lat":35.76173995,"lon":139.46462498},{"name":"萩山駅南口","province":"東京都","city":"東村山市","address":"東京都東村山市萩山町2丁目2","lat":35.74081487,"lon":139.47583872},{"name":"東村山郵便局北","province":"東京都","city":"東村山市","address":"東京都東村山市本町2丁目2-9","lat":35.7595014,"lon":139.46689431},{"name":"多摩北部医療センター前","province":"東京都","city":"東村山市","address":"東京都東村山市青葉町2丁目27-1","lat":35.76242395,"lon":139.49172816},{"name":"秋津駅入口","province":"東京都","city":"東村山市","address":"東京都東村山市秋津町1丁目32-18","lat":35.77338112,"lon":139.49729414},{"name":"青葉駐在所前","province":"東京都","city":"東村山市","address":"東京都東村山市青葉町2丁目24-64","lat":35.76058521,"lon":139.48940895},{"name":"多摩北部医療センター西","province":"東京都","city":"東村山市","address":"東京都東村山市青葉町1丁目7","lat":35.75941877,"lon":139.4930448},{"name":"多摩北部医療センター南","province":"東京都","city":"東村山市","address":"東京都東村山市青葉町1丁目7","lat":35.75941877,"lon":139.4930448},{"name":"西武園駅東","province":"東京都","city":"東村山市","address":"東京都東村山市多摩湖町4丁目29","lat":35.76763595,"lon":139.44840958},{"name":"八坂給水所","province":"東京都","city":"東村山市","address":"東京都東村山市富士見町5丁目4-46","lat":35.74735525,"lon":139.45848167},{"name":"東村山浄水場","province":"東京都","city":"東村山市","address":"東京都東村山市美住町2丁目20-236","lat":35.75327404,"lon":139.45878417},{"name":"美住給水所","province":"東京都","city":"東村山市","address":"東京都東村山市美住町2丁目13-4","lat":35.75552943,"lon":139.46155328},{"name":"市立東村山運動公園","province":"東京都","city":"東村山市","address":"東京都東村山市恩多町1丁目9-59","lat":35.75542745,"lon":139.48852866},{"name":"美住給水所（注２）","province":"東京都","city":"東村山市","address":"東京都東村山市美住町2丁目13-4","lat":35.75552943,"lon":139.46155328},{"name":"東村山市立廻田公民館","province":"東京都","city":"東村山市","address":"東村山市廻田町4-19-1","lat":35.759617,"lon":139.452087},{"name":"東村山市立秋津公民館","province":"東京都","city":"東村山市","address":"東村山市秋津町2-17-10","lat":35.770851,"lon":139.486847},{"name":"東村山市立中央公民館","province":"東京都","city":"東村山市","address":"東村山市本町2-33-2","lat":35.759972,"lon":139.466721},{"name":"東村山市立萩山公民館","province":"東京都","city":"東村山市","address":"東村山市萩山町2-13-1","lat":35.741993,"lon":139.478363},{"name":"東村山市立富士見公民館","province":"東京都","city":"東村山市","address":"東村山市富士見町5-4-51","lat":35.748219,"lon":139.456573},{"name":"東村山市立廻田図書館","province":"東京都","city":"東村山市","address":"東村山市廻田町4-19-1","lat":35.759617,"lon":139.452087},{"name":"東村山市立秋津図書館","province":"東京都","city":"東村山市","address":"東村山市秋津町2-17-10","lat":35.770851,"lon":139.486847},{"name":"東村山市立中央図書館","province":"東京都","city":"東村山市","address":"東村山市本町1-1-10","lat":35.755348,"lon":139.46788},{"name":"東村山市立萩山図書館","province":"東京都","city":"東村山市","address":"東村山市萩山町2-13-1","lat":35.741993,"lon":139.478363},{"name":"東村山市立富士見図書館","province":"東京都","city":"東村山市","address":"東村山市富士見町1-7-35","lat":35.743481,"lon":139.459763},{"name":"東村山ふるさと歴史館","province":"東京都","city":"東村山市","address":"東村山市諏訪町1-6-3","lat":35.766373,"lon":139.465363},{"name":"八国山たいけんの里","province":"東京都","city":"東村山市","address":"東村山市野口町3-48-1","lat":35.76627,"lon":139.454498},{"name":"長坂式典センター","province":"東京都","city":"東村山市","address":"東京都東村山市本町2丁目19-36","lat":35.75973473,"lon":139.46753035},{"name":"ベルホール三光商会","province":"東京都","city":"東村山市","address":"東京都東村山市恩多町2丁目41-3","lat":35.74664228,"lon":139.48623476},{"name":"メモリアルアートの大野屋","province":"東京都","city":"東村山市","address":"東京都東村山市萩山町1丁目19-2","lat":35.73911534,"lon":139.48567125},{"name":"愛和葬祭","province":"東京都","city":"東村山市","address":"東京都東村山市秋津町3丁目5-8","lat":35.77351681,"lon":139.47999277},{"name":"しんせいどう","province":"東京都","city":"東村山市","address":"東京都東村山市青葉町2丁目1-63","lat":35.76059629,"lon":139.48833404},{"name":"彩花","province":"東京都","city":"東村山市","address":"東京都東村山市青葉町2丁目28-5","lat":35.7628517,"lon":139.49251419},{"name":"まちの縁側本町　夕ぐれ食堂","province":"東京都","city":"東村山市","address":"東京都東村山市本町4丁目1-8","lat":35.75253003,"lon":139.46967488},{"name":"子ども食堂　リコード","province":"東京都","city":"東村山市","address":"東京都東村山市本町3丁目9-40","lat":35.75852665,"lon":139.47114118},{"name":"ふれあいこども食堂あおば","province":"東京都","city":"東村山市","address":"東京都東村山市青葉町2丁目25-66","lat":35.76190178,"lon":139.49118376},{"name":"ふれあいこども食堂","province":"東京都","city":"東村山市","address":"東京都東村山市栄町1丁目1-18","lat":35.75056089,"lon":139.47198587},{"name":"にちよう食堂","province":"東京都","city":"東村山市","address":"東京都東村山市栄町1丁目29-34","lat":35.75251075,"lon":139.47501885},{"name":"おひさま食堂","province":"東京都","city":"東村山市","address":"東京都東村山市富士見町5丁目1-93","lat":35.7450057,"lon":139.46432568},{"name":"万福食堂","province":"東京都","city":"東村山市","address":"東京都東村山市廻田町3丁目12-6","lat":35.75761762,"lon":139.44732947},{"name":"東村山地域食堂ふたば","province":"東京都","city":"東村山市","address":"東京都東村山市野口町1丁目15-5","lat":35.76157604,"lon":139.46296959},{"name":"SOMPO流　子ども食堂（八坂）","province":"東京都","city":"東村山市","address":"東京都東村山市栄町3丁目23-1","lat":35.74535292,"lon":139.46513116},{"name":"SOMPO流　子ども食堂（萩山）","province":"東京都","city":"東村山市","address":"東京都東村山市萩山町2丁目9-46","lat":35.7402039,"lon":139.47823297},{"name":"SOMPO流　子ども食堂（久米川）","province":"東京都","city":"東村山市","address":"東京都東村山市美住町1丁目19-10","lat":35.75042437,"lon":139.45880928},{"name":"子どもたちのお弁当屋さん","province":"東京都","city":"東村山市","address":"東京都東村山市富士見町2丁目19-23","lat":35.7372534,"lon":139.45070223},{"name":"恩多こども食堂","province":"東京都","city":"東村山市","address":"東京都東村山市恩多町3丁目3-22","lat":35.753233,"lon":139.47909623},{"name":"八坂","province":"東京都","city":"東村山市","address":"東京都東村山市萩山町3丁目31-45","lat":35.74387259,"lon":139.46697271},{"name":"東村山郵便局前","province":"東京都","city":"東村山市","address":"東京都東村山市本町2丁目1-2","lat":35.75822931,"lon":139.46684991},{"name":"栄町一丁目","province":"東京都","city":"東村山市","address":"東京都東村山市栄町1丁目23-1","lat":35.75067204,"lon":139.47384403},{"name":"八坂駅北口","province":"東京都","city":"東村山市","address":"東京都東村山市栄町3丁目10-28","lat":35.7458668,"lon":139.46705596},{"name":"萩山町五丁目","province":"東京都","city":"東村山市","address":"東京都東村山市萩山町5丁目3","lat":35.74820856,"lon":139.47866037},{"name":"東村山駅東口","province":"東京都","city":"東村山市","address":"東京都東村山市本町2丁目17-7","lat":35.76104847,"lon":139.46749974},{"name":"南台小学校裏","province":"東京都","city":"東村山市","address":"東京都東村山市富士見町2丁目1","lat":35.74489978,"lon":139.45277395},{"name":"東村山駅西口","province":"東京都","city":"東村山市","address":"東京都東村山市野口町1丁目10-1","lat":35.76173995,"lon":139.46462498},{"name":"萩山駅南口","province":"東京都","city":"東村山市","address":"東京都東村山市萩山町2丁目2","lat":35.74081487,"lon":139.47583872},{"name":"東村山郵便局北","province":"東京都","city":"東村山市","address":"東京都東村山市本町2丁目2-9","lat":35.7595014,"lon":139.46689431},{"name":"多摩北部医療センター前","province":"東京都","city":"東村山市","address":"東京都東村山市青葉町2丁目27-1","lat":35.76242395,"lon":139.49172816},{"name":"秋津駅入口","province":"東京都","city":"東村山市","address":"東京都東村山市秋津町1丁目32-18","lat":35.77338112,"lon":139.49729414},{"name":"青葉駐在所前","province":"東京都","city":"東村山市","address":"東京都東村山市青葉町2丁目24-64","lat":35.76058521,"lon":139.48940895},{"name":"多摩北部医療センター西","province":"東京都","city":"東村山市","address":"東京都東村山市青葉町1丁目7","lat":35.75941877,"lon":139.4930448},{"name":"多摩北部医療センター南","province":"東京都","city":"東村山市","address":"東京都東村山市青葉町1丁目7","lat":35.75941877,"lon":139.4930448},{"name":"西武園駅東","province":"東京都","city":"東村山市","address":"東京都東村山市多摩湖町4丁目29","lat":35.76763595,"lon":139.44840958},{"name":"八坂給水所","province":"東京都","city":"東村山市","address":"東京都東村山市富士見町5丁目4-46","lat":35.74735525,"lon":139.45848167},{"name":"東村山浄水場","province":"東京都","city":"東村山市","address":"東京都東村山市美住町2丁目20-236","lat":35.75327404,"lon":139.45878417},{"name":"美住給水所","province":"東京都","city":"東村山市","address":"東京都東村山市美住町2丁目13-4","lat":35.75552943,"lon":139.46155328},{"name":"市立東村山運動公園","province":"東京都","city":"東村山市","address":"東京都東村山市恩多町1丁目9-59","lat":35.75542745,"lon":139.48852866},{"name":"美住給水所（注２）","province":"東京都","city":"東村山市","address":"東京都東村山市美住町2丁目13-4","lat":35.75552943,"lon":139.46155328},{"name":"東村山市立廻田公民館","province":"東京都","city":"東村山市","address":"東村山市廻田町4-19-1","lat":35.759617,"lon":139.452087},{"name":"東村山市立秋津公民館","province":"東京都","city":"東村山市","address":"東村山市秋津町2-17-10","lat":35.770851,"lon":139.486847},{"name":"東村山市立中央公民館","province":"東京都","city":"東村山市","address":"東村山市本町2-33-2","lat":35.759972,"lon":139.466721},{"name":"東村山市立萩山公民館","province":"東京都","city":"東村山市","address":"東村山市萩山町2-13-1","lat":35.741993,"lon":139.478363},{"name":"東村山市立富士見公民館","province":"東京都","city":"東村山市","address":"東村山市富士見町5-4-51","lat":35.748219,"lon":139.456573},{"name":"東村山市立廻田図書館","province":"東京都","city":"東村山市","address":"東村山市廻田町4-19-1","lat":35.759617,"lon":139.452087},{"name":"東村山市立秋津図書館","province":"東京都","city":"東村山市","address":"東村山市秋津町2-17-10","lat":35.770851,"lon":139.486847},{"name":"東村山市立中央図書館","province":"東京都","city":"東村山市","address":"東村山市本町1-1-10","lat":35.755348,"lon":139.46788},{"name":"東村山市立萩山図書館","province":"東京都","city":"東村山市","address":"東村山市萩山町2-13-1","lat":35.741993,"lon":139.478363},{"name":"東村山市立富士見図書館","province":"東京都","city":"東村山市","address":"東村山市富士見町1-7-35","lat":35.743481,"lon":139.459763},{"name":"東村山ふるさと歴史館","province":"東京都","city":"東村山市","address":"東村山市諏訪町1-6-3","lat":35.766373,"lon":139.465363},{"name":"八国山たいけんの里","province":"東京都","city":"東村山市","address":"東村山市野口町3-48-1","lat":35.76627,"lon":139.454498},{"name":"長坂式典センター","province":"東京都","city":"東村山市","address":"東京都東村山市本町2丁目19-36","lat":35.75973473,"lon":139.46753035},{"name":"ベルホール三光商会","province":"東京都","city":"東村山市","address":"東京都東村山市恩多町2丁目41-3","lat":35.74664228,"lon":139.48623476},{"name":"メモリアルアートの大野屋","province":"東京都","city":"東村山市","address":"東京都東村山市萩山町1丁目19-2","lat":35.73911534,"lon":139.48567125},{"name":"愛和葬祭","province":"東京都","city":"東村山市","address":"東京都東村山市秋津町3丁目5-8","lat":35.77351681,"lon":139.47999277},{"name":"しんせいどう","province":"東京都","city":"東村山市","address":"東京都東村山市青葉町2丁目1-63","lat":35.76059629,"lon":139.48833404},{"name":"彩花","province":"東京都","city":"東村山市","address":"東京都東村山市青葉町2丁目28-5","lat":35.7628517,"lon":139.49251419},{"name":"まちの縁側本町　夕ぐれ食堂","province":"東京都","city":"東村山市","address":"東京都東村山市本町4丁目1-8","lat":35.75253003,"lon":139.46967488},{"name":"子ども食堂　リコード","province":"東京都","city":"東村山市","address":"東京都東村山市本町3丁目9-40","lat":35.75852665,"lon":139.47114118},{"name":"ふれあいこども食堂あおば","province":"東京都","city":"東村山市","address":"東京都東村山市青葉町2丁目25-66","lat":35.76190178,"lon":139.49118376},{"name":"ふれあいこども食堂","province":"東京都","city":"東村山市","address":"東京都東村山市栄町1丁目1-18","lat":35.75056089,"lon":139.47198587},{"name":"にちよう食堂","province":"東京都","city":"東村山市","address":"東京都東村山市栄町1丁目29-34","lat":35.75251075,"lon":139.47501885},{"name":"おひさま食堂","province":"東京都","city":"東村山市","address":"東京都東村山市富士見町5丁目1-93","lat":35.7450057,"lon":139.46432568},{"name":"万福食堂","province":"東京都","city":"東村山市","address":"東京都東村山市廻田町3丁目12-6","lat":35.75761762,"lon":139.44732947},{"name":"東村山地域食堂ふたば","province":"東京都","city":"東村山市","address":"東京都東村山市野口町1丁目15-5","lat":35.76157604,"lon":139.46296959},{"name":"SOMPO流　子ども食堂（八坂）","province":"東京都","city":"東村山市","address":"東京都東村山市栄町3丁目23-1","lat":35.74535292,"lon":139.46513116},{"name":"SOMPO流　子ども食堂（萩山）","province":"東京都","city":"東村山市","address":"東京都東村山市萩山町2丁目9-46","lat":35.7402039,"lon":139.47823297},{"name":"SOMPO流　子ども食堂（久米川）","province":"東京都","city":"東村山市","address":"東京都東村山市美住町1丁目19-10","lat":35.75042437,"lon":139.45880928},{"name":"子どもたちのお弁当屋さん","province":"東京都","city":"東村山市","address":"東京都東村山市富士見町2丁目19-23","lat":35.7372534,"lon":139.45070223},{"name":"恩多こども食堂","province":"東京都","city":"東村山市","address":"東京都東村山市恩多町3丁目3-22","lat":35.753233,"lon":139.47909623},{"name":"八坂","province":"東京都","city":"東村山市","address":"東京都東村山市萩山町3丁目31-45","lat":35.74387259,"lon":139.46697271},{"name":"東村山郵便局前","province":"東京都","city":"東村山市","address":"東京都東村山市本町2丁目1-2","lat":35.75822931,"lon":139.46684991},{"name":"栄町一丁目","province":"東京都","city":"東村山市","address":"東京都東村山市栄町1丁目23-1","lat":35.75067204,"lon":139.47384403},{"name":"八坂駅北口","province":"東京都","city":"東村山市","address":"東京都東村山市栄町3丁目10-28","lat":35.7458668,"lon":139.46705596},{"name":"萩山町五丁目","province":"東京都","city":"東村山市","address":"東京都東村山市萩山町5丁目3","lat":35.74820856,"lon":139.47866037},{"name":"東村山駅東口","province":"東京都","city":"東村山市","address":"東京都東村山市本町2丁目17-7","lat":35.76104847,"lon":139.46749974},{"name":"南台小学校裏","province":"東京都","city":"東村山市","address":"東京都東村山市富士見町2丁目1","lat":35.74489978,"lon":139.45277395},{"name":"東村山駅西口","province":"東京都","city":"東村山市","address":"東京都東村山市野口町1丁目10-1","lat":35.76173995,"lon":139.46462498},{"name":"萩山駅南口","province":"東京都","city":"東村山市","address":"東京都東村山市萩山町2丁目2","lat":35.74081487,"lon":139.47583872},{"name":"東村山郵便局北","province":"東京都","city":"東村山市","address":"東京都東村山市本町2丁目2-9","lat":35.7595014,"lon":139.46689431},{"name":"多摩北部医療センター前","province":"東京都","city":"東村山市","address":"東京都東村山市青葉町2丁目27-1","lat":35.76242395,"lon":139.49172816},{"name":"秋津駅入口","province":"東京都","city":"東村山市","address":"東京都東村山市秋津町1丁目32-18","lat":35.77338112,"lon":139.49729414},{"name":"青葉駐在所前","province":"東京都","city":"東村山市","address":"東京都東村山市青葉町2丁目24-64","lat":35.76058521,"lon":139.48940895},{"name":"多摩北部医療センター西","province":"東京都","city":"東村山市","address":"東京都東村山市青葉町1丁目7","lat":35.75941877,"lon":139.4930448},{"name":"多摩北部医療センター南","province":"東京都","city":"東村山市","address":"東京都東村山市青葉町1丁目7","lat":35.75941877,"lon":139.4930448},{"name":"西武園駅東","province":"東京都","city":"東村山市","address":"東京都東村山市多摩湖町4丁目29","lat":35.76763595,"lon":139.44840958},{"name":"八坂給水所","province":"東京都","city":"東村山市","address":"東京都東村山市富士見町5丁目4-46","lat":35.74735525,"lon":139.45848167},{"name":"東村山浄水場","province":"東京都","city":"東村山市","address":"東京都東村山市美住町2丁目20-236","lat":35.75327404,"lon":139.45878417},{"name":"美住給水所","province":"東京都","city":"東村山市","address":"東京都東村山市美住町2丁目13-4","lat":35.75552943,"lon":139.46155328},{"name":"市立東村山運動公園","province":"東京都","city":"東村山市","address":"東京都東村山市恩多町1丁目9-59","lat":35.75542745,"lon":139.48852866},{"name":"美住給水所（注２）","province":"東京都","city":"東村山市","address":"東京都東村山市美住町2丁目13-4","lat":35.75552943,"lon":139.46155328},{"name":"東村山市立廻田公民館","province":"東京都","city":"東村山市","address":"東村山市廻田町4-19-1","lat":35.759617,"lon":139.452087},{"name":"東村山市立秋津公民館","province":"東京都","city":"東村山市","address":"東村山市秋津町2-17-10","lat":35.770851,"lon":139.486847},{"name":"東村山市立中央公民館","province":"東京都","city":"東村山市","address":"東村山市本町2-33-2","lat":35.759972,"lon":139.466721},{"name":"東村山市立萩山公民館","province":"東京都","city":"東村山市","address":"東村山市萩山町2-13-1","lat":35.741993,"lon":139.478363},{"name":"東村山市立富士見公民館","province":"東京都","city":"東村山市","address":"東村山市富士見町5-4-51","lat":35.748219,"lon":139.456573},{"name":"東村山市立廻田図書館","province":"東京都","city":"東村山市","address":"東村山市廻田町4-19-1","lat":35.759617,"lon":139.452087},{"name":"東村山市立秋津図書館","province":"東京都","city":"東村山市","address":"東村山市秋津町2-17-10","lat":35.770851,"lon":139.486847},{"name":"東村山市立中央図書館","province":"東京都","city":"東村山市","address":"東村山市本町1-1-10","lat":35.755348,"lon":139.46788},{"name":"東村山市立萩山図書館","province":"東京都","city":"東村山市","address":"東村山市萩山町2-13-1","lat":35.741993,"lon":139.478363},{"name":"東村山市立富士見図書館","province":"東京都","city":"東村山市","address":"東村山市富士見町1-7-35","lat":35.743481,"lon":139.459763},{"name":"東村山ふるさと歴史館","province":"東京都","city":"東村山市","address":"東村山市諏訪町1-6-3","lat":35.766373,"lon":139.465363},{"name":"八国山たいけんの里","province":"東京都","city":"東村山市","address":"東村山市野口町3-48-1","lat":35.76627,"lon":139.454498},{"name":"長坂式典センター","province":"東京都","city":"東村山市","address":"東京都東村山市本町2丁目19-36","lat":35.75973473,"lon":139.46753035},{"name":"ベルホール三光商会","province":"東京都","city":"東村山市","address":"東京都東村山市恩多町2丁目41-3","lat":35.74664228,"lon":139.48623476},{"name":"メモリアルアートの大野屋","province":"東京都","city":"東村山市","address":"東京都東村山市萩山町1丁目19-2","lat":35.73911534,"lon":139.48567125},{"name":"愛和葬祭","province":"東京都","city":"東村山市","address":"東京都東村山市秋津町3丁目5-8","lat":35.77351681,"lon":139.47999277},{"name":"しんせいどう","province":"東京都","city":"東村山市","address":"東京都東村山市青葉町2丁目1-63","lat":35.76059629,"lon":139.48833404},{"name":"彩花","province":"東京都","city":"東村山市","address":"東京都東村山市青葉町2丁目28-5","lat":35.7628517,"lon":139.49251419},{"name":"まちの縁側本町　夕ぐれ食堂","province":"東京都","city":"東村山市","address":"東京都東村山市本町4丁目1-8","lat":35.75253003,"lon":139.46967488},{"name":"子ども食堂　リコード","province":"東京都","city":"東村山市","address":"東京都東村山市本町3丁目9-40","lat":35.75852665,"lon":139.47114118},{"name":"ふれあいこども食堂あおば","province":"東京都","city":"東村山市","address":"東京都東村山市青葉町2丁目25-66","lat":35.76190178,"lon":139.49118376},{"name":"ふれあいこども食堂","province":"東京都","city":"東村山市","address":"東京都東村山市栄町1丁目1-18","lat":35.75056089,"lon":139.47198587},{"name":"にちよう食堂","province":"東京都","city":"東村山市","address":"東京都東村山市栄町1丁目29-34","lat":35.75251075,"lon":139.47501885},{"name":"おひさま食堂","province":"東京都","city":"東村山市","address":"東京都東村山市富士見町5丁目1-93","lat":35.7450057,"lon":139.46432568},{"name":"万福食堂","province":"東京都","city":"東村山市","address":"東京都東村山市廻田町3丁目12-6","lat":35.75761762,"lon":139.44732947},{"name":"東村山地域食堂ふたば","province":"東京都","city":"東村山市","address":"東京都東村山市野口町1丁目15-5","lat":35.76157604,"lon":139.46296959},{"name":"SOMPO流　子ども食堂（八坂）","province":"東京都","city":"東村山市","address":"東京都東村山市栄町3丁目23-1","lat":35.74535292,"lon":139.46513116},{"name":"SOMPO流　子ども食堂（萩山）","province":"東京都","city":"東村山市","address":"東京都東村山市萩山町2丁目9-46","lat":35.7402039,"lon":139.47823297},{"name":"SOMPO流　子ども食堂（久米川）","province":"東京都","city":"東村山市","address":"東京都東村山市美住町1丁目19-10","lat":35.75042437,"lon":139.45880928},{"name":"子どもたちのお弁当屋さん","province":"東京都","city":"東村山市","address":"東京都東村山市富士見町2丁目19-23","lat":35.7372534,"lon":139.45070223},{"name":"恩多こども食堂","province":"東京都","city":"東村山市","address":"東京都東村山市恩多町3丁目3-22","lat":35.753233,"lon":139.47909623},{"name":"八坂","province":"東京都","city":"東村山市","address":"東京都東村山市萩山町3丁目31-45","lat":35.74387259,"lon":139.46697271},{"name":"東村山郵便局前","province":"東京都","city":"東村山市","address":"東京都東村山市本町2丁目1-2","lat":35.75822931,"lon":139.46684991},{"name":"栄町一丁目","province":"東京都","city":"東村山市","address":"東京都東村山市栄町1丁目23-1","lat":35.75067204,"lon":139.47384403},{"name":"八坂駅北口","province":"東京都","city":"東村山市","address":"東京都東村山市栄町3丁目10-28","lat":35.7458668,"lon":139.46705596},{"name":"萩山町五丁目","province":"東京都","city":"東村山市","address":"東京都東村山市萩山町5丁目3","lat":35.74820856,"lon":139.47866037},{"name":"東村山駅東口","province":"東京都","city":"東村山市","address":"東京都東村山市本町2丁目17-7","lat":35.76104847,"lon":139.46749974},{"name":"南台小学校裏","province":"東京都","city":"東村山市","address":"東京都東村山市富士見町2丁目1","lat":35.74489978,"lon":139.45277395},{"name":"東村山駅西口","province":"東京都","city":"東村山市","address":"東京都東村山市野口町1丁目10-1","lat":35.76173995,"lon":139.46462498},{"name":"萩山駅南口","province":"東京都","city":"東村山市","address":"東京都東村山市萩山町2丁目2","lat":35.74081487,"lon":139.47583872},{"name":"東村山郵便局北","province":"東京都","city":"東村山市","address":"東京都東村山市本町2丁目2-9","lat":35.7595014,"lon":139.46689431},{"name":"多摩北部医療センター前","province":"東京都","city":"東村山市","address":"東京都東村山市青葉町2丁目27-1","lat":35.76242395,"lon":139.49172816},{"name":"秋津駅入口","province":"東京都","city":"東村山市","address":"東京都東村山市秋津町1丁目32-18","lat":35.77338112,"lon":139.49729414},{"name":"青葉駐在所前","province":"東京都","city":"東村山市","address":"東京都東村山市青葉町2丁目24-64","lat":35.76058521,"lon":139.48940895},{"name":"多摩北部医療センター西","province":"東京都","city":"東村山市","address":"東京都東村山市青葉町1丁目7","lat":35.75941877,"lon":139.4930448},{"name":"多摩北部医療センター南","province":"東京都","city":"東村山市","address":"東京都東村山市青葉町1丁目7","lat":35.75941877,"lon":139.4930448},{"name":"西武園駅東","province":"東京都","city":"東村山市","address":"東京都東村山市多摩湖町4丁目29","lat":35.76763595,"lon":139.44840958},{"name":"八坂給水所","province":"東京都","city":"東村山市","address":"東京都東村山市富士見町5丁目4-46","lat":35.74735525,"lon":139.45848167},{"name":"東村山浄水場","province":"東京都","city":"東村山市","address":"東京都東村山市美住町2丁目20-236","lat":35.75327404,"lon":139.45878417},{"name":"美住給水所","province":"東京都","city":"東村山市","address":"東京都東村山市美住町2丁目13-4","lat":35.75552943,"lon":139.46155328},{"name":"市立東村山運動公園","province":"東京都","city":"東村山市","address":"東京都東村山市恩多町1丁目9-59","lat":35.75542745,"lon":139.48852866},{"name":"美住給水所（注２）","province":"東京都","city":"東村山市","address":"東京都東村山市美住町2丁目13-4","lat":35.75552943,"lon":139.46155328},{"name":"東村山市立廻田公民館","province":"東京都","city":"東村山市","address":"東村山市廻田町4-19-1","lat":35.759617,"lon":139.452087},{"name":"東村山市立秋津公民館","province":"東京都","city":"東村山市","address":"東村山市秋津町2-17-10","lat":35.770851,"lon":139.486847},{"name":"東村山市立中央公民館","province":"東京都","city":"東村山市","address":"東村山市本町2-33-2","lat":35.759972,"lon":139.466721},{"name":"東村山市立萩山公民館","province":"東京都","city":"東村山市","address":"東村山市萩山町2-13-1","lat":35.741993,"lon":139.478363},{"name":"東村山市立富士見公民館","province":"東京都","city":"東村山市","address":"東村山市富士見町5-4-51","lat":35.748219,"lon":139.456573},{"name":"東村山市立廻田図書館","province":"東京都","city":"東村山市","address":"東村山市廻田町4-19-1","lat":35.759617,"lon":139.452087},{"name":"東村山市立秋津図書館","province":"東京都","city":"東村山市","address":"東村山市秋津町2-17-10","lat":35.770851,"lon":139.486847},{"name":"東村山市立中央図書館","province":"東京都","city":"東村山市","address":"東村山市本町1-1-10","lat":35.755348,"lon":139.46788},{"name":"東村山市立萩山図書館","province":"東京都","city":"東村山市","address":"東村山市萩山町2-13-1","lat":35.741993,"lon":139.478363},{"name":"東村山市立富士見図書館","province":"東京都","city":"東村山市","address":"東村山市富士見町1-7-35","lat":35.743481,"lon":139.459763},{"name":"東村山ふるさと歴史館","province":"東京都","city":"東村山市","address":"東村山市諏訪町1-6-3","lat":35.766373,"lon":139.465363},{"name":"八国山たいけんの里","province":"東京都","city":"東村山市","address":"東村山市野口町3-48-1","lat":35.76627,"lon":139.454498},{"name":"長坂式典センター","province":"東京都","city":"東村山市","address":"東京都東村山市本町2丁目19-36","lat":35.75973473,"lon":139.46753035},{"name":"ベルホール三光商会","province":"東京都","city":"東村山市","address":"東京都東村山市恩多町2丁目41-3","lat":35.74664228,"lon":139.48623476},{"name":"メモリアルアートの大野屋","province":"東京都","city":"東村山市","address":"東京都東村山市萩山町1丁目19-2","lat":35.73911534,"lon":139.48567125},{"name":"愛和葬祭","province":"東京都","city":"東村山市","address":"東京都東村山市秋津町3丁目5-8","lat":35.77351681,"lon":139.47999277},{"name":"しんせいどう","province":"東京都","city":"東村山市","address":"東京都東村山市青葉町2丁目1-63","lat":35.76059629,"lon":139.48833404},{"name":"彩花","province":"東京都","city":"東村山市","address":"東京都東村山市青葉町2丁目28-5","lat":35.7628517,"lon":139.49251419},{"name":"まちの縁側本町　夕ぐれ食堂","province":"東京都","city":"東村山市","address":"東京都東村山市本町4丁目1-8","lat":35.75253003,"lon":139.46967488},{"name":"子ども食堂　リコード","province":"東京都","city":"東村山市","address":"東京都東村山市本町3丁目9-40","lat":35.75852665,"lon":139.47114118},{"name":"ふれあいこども食堂あおば","province":"東京都","city":"東村山市","address":"東京都東村山市青葉町2丁目25-66","lat":35.76190178,"lon":139.49118376},{"name":"ふれあいこども食堂","province":"東京都","city":"東村山市","address":"東京都東村山市栄町1丁目1-18","lat":35.75056089,"lon":139.47198587},{"name":"にちよう食堂","province":"東京都","city":"東村山市","address":"東京都東村山市栄町1丁目29-34","lat":35.75251075,"lon":139.47501885},{"name":"おひさま食堂","province":"東京都","city":"東村山市","address":"東京都東村山市富士見町5丁目1-93","lat":35.7450057,"lon":139.46432568},{"name":"万福食堂","province":"東京都","city":"東村山市","address":"東京都東村山市廻田町3丁目12-6","lat":35.75761762,"lon":139.44732947},{"name":"東村山地域食堂ふたば","province":"東京都","city":"東村山市","address":"東京都東村山市野口町1丁目15-5","lat":35.76157604,"lon":139.46296959},{"name":"SOMPO流　子ども食堂（八坂）","province":"東京都","city":"東村山市","address":"東京都東村山市栄町3丁目23-1","lat":35.74535292,"lon":139.46513116},{"name":"SOMPO流　子ども食堂（萩山）","province":"東京都","city":"東村山市","address":"東京都東村山市萩山町2丁目9-46","lat":35.7402039,"lon":139.47823297},{"name":"SOMPO流　子ども食堂（久米川）","province":"東京都","city":"東村山市","address":"東京都東村山市美住町1丁目19-10","lat":35.75042437,"lon":139.45880928},{"name":"子どもたちのお弁当屋さん","province":"東京都","city":"東村山市","address":"東京都東村山市富士見町2丁目19-23","lat":35.7372534,"lon":139.45070223},{"name":"恩多こども食堂","province":"東京都","city":"東村山市","address":"東京都東村山市恩多町3丁目3-22","lat":35.753233,"lon":139.47909623},{"name":"八坂","province":"東京都","city":"東村山市","address":"東京都東村山市萩山町3丁目31-45","lat":35.74387259,"lon":139.46697271},{"name":"東村山郵便局前","province":"東京都","city":"東村山市","address":"東京都東村山市本町2丁目1-2","lat":35.75822931,"lon":139.46684991},{"name":"栄町一丁目","province":"東京都","city":"東村山市","address":"東京都東村山市栄町1丁目23-1","lat":35.75067204,"lon":139.47384403},{"name":"八坂駅北口","province":"東京都","city":"東村山市","address":"東京都東村山市栄町3丁目10-28","lat":35.7458668,"lon":139.46705596},{"name":"萩山町五丁目","province":"東京都","city":"東村山市","address":"東京都東村山市萩山町5丁目3","lat":35.74820856,"lon":139.47866037},{"name":"東村山駅東口","province":"東京都","city":"東村山市","address":"東京都東村山市本町2丁目17-7","lat":35.76104847,"lon":139.46749974},{"name":"南台小学校裏","province":"東京都","city":"東村山市","address":"東京都東村山市富士見町2丁目1","lat":35.74489978,"lon":139.45277395},{"name":"東村山駅西口","province":"東京都","city":"東村山市","address":"東京都東村山市野口町1丁目10-1","lat":35.76173995,"lon":139.46462498},{"name":"萩山駅南口","province":"東京都","city":"東村山市","address":"東京都東村山市萩山町2丁目2","lat":35.74081487,"lon":139.47583872},{"name":"東村山郵便局北","province":"東京都","city":"東村山市","address":"東京都東村山市本町2丁目2-9","lat":35.7595014,"lon":139.46689431},{"name":"多摩北部医療センター前","province":"東京都","city":"東村山市","address":"東京都東村山市青葉町2丁目27-1","lat":35.76242395,"lon":139.49172816},{"name":"秋津駅入口","province":"東京都","city":"東村山市","address":"東京都東村山市秋津町1丁目32-18","lat":35.77338112,"lon":139.49729414},{"name":"青葉駐在所前","province":"東京都","city":"東村山市","address":"東京都東村山市青葉町2丁目24-64","lat":35.76058521,"lon":139.48940895},{"name":"多摩北部医療センター西","province":"東京都","city":"東村山市","address":"東京都東村山市青葉町1丁目7","lat":35.75941877,"lon":139.4930448},{"name":"多摩北部医療センター南","province":"東京都","city":"東村山市","address":"東京都東村山市青葉町1丁目7","lat":35.75941877,"lon":139.4930448},{"name":"西武園駅東","province":"東京都","city":"東村山市","address":"東京都東村山市多摩湖町4丁目29","lat":35.76763595,"lon":139.44840958},{"name":"八坂給水所","province":"東京都","city":"東村山市","address":"東京都東村山市富士見町5丁目4-46","lat":35.74735525,"lon":139.45848167},{"name":"東村山浄水場","province":"東京都","city":"東村山市","address":"東京都東村山市美住町2丁目20-236","lat":35.75327404,"lon":139.45878417},{"name":"美住給水所","province":"東京都","city":"東村山市","address":"東京都東村山市美住町2丁目13-4","lat":35.75552943,"lon":139.46155328},{"name":"市立東村山運動公園","province":"東京都","city":"東村山市","address":"東京都東村山市恩多町1丁目9-59","lat":35.75542745,"lon":139.48852866},{"name":"美住給水所（注２）","province":"東京都","city":"東村山市","address":"東京都東村山市美住町2丁目13-4","lat":35.75552943,"lon":139.46155328},{"name":"東村山市立廻田公民館","province":"東京都","city":"東村山市","address":"東村山市廻田町4-19-1","lat":35.759617,"lon":139.452087},{"name":"東村山市立秋津公民館","province":"東京都","city":"東村山市","address":"東村山市秋津町2-17-10","lat":35.770851,"lon":139.486847},{"name":"東村山市立中央公民館","province":"東京都","city":"東村山市","address":"東村山市本町2-33-2","lat":35.759972,"lon":139.466721},{"name":"東村山市立萩山公民館","province":"東京都","city":"東村山市","address":"東村山市萩山町2-13-1","lat":35.741993,"lon":139.478363},{"name":"東村山市立富士見公民館","province":"東京都","city":"東村山市","address":"東村山市富士見町5-4-51","lat":35.748219,"lon":139.456573},{"name":"東村山市立廻田図書館","province":"東京都","city":"東村山市","address":"東村山市廻田町4-19-1","lat":35.759617,"lon":139.452087},{"name":"東村山市立秋津図書館","province":"東京都","city":"東村山市","address":"東村山市秋津町2-17-10","lat":35.770851,"lon":139.486847},{"name":"東村山市立中央図書館","province":"東京都","city":"東村山市","address":"東村山市本町1-1-10","lat":35.755348,"lon":139.46788},{"name":"東村山市立萩山図書館","province":"東京都","city":"東村山市","address":"東村山市萩山町2-13-1","lat":35.741993,"lon":139.478363},{"name":"東村山市立富士見図書館","province":"東京都","city":"東村山市","address":"東村山市富士見町1-7-35","lat":35.743481,"lon":139.459763},{"name":"東村山ふるさと歴史館","province":"東京都","city":"東村山市","address":"東村山市諏訪町1-6-3","lat":35.766373,"lon":139.465363},{"name":"八国山たいけんの里","province":"東京都","city":"東村山市","address":"東村山市野口町3-48-1","lat":35.76627,"lon":139.454498},{"name":"長坂式典センター","province":"東京都","city":"東村山市","address":"東京都東村山市本町2丁目19-36","lat":35.75973473,"lon":139.46753035},{"name":"ベルホール三光商会","province":"東京都","city":"東村山市","address":"東京都東村山市恩多町2丁目41-3","lat":35.74664228,"lon":139.48623476},{"name":"メモリアルアートの大野屋","province":"東京都","city":"東村山市","address":"東京都東村山市萩山町1丁目19-2","lat":35.73911534,"lon":139.48567125},{"name":"愛和葬祭","province":"東京都","city":"東村山市","address":"東京都東村山市秋津町3丁目5-8","lat":35.77351681,"lon":139.47999277},{"name":"しんせいどう","province":"東京都","city":"東村山市","address":"東京都東村山市青葉町2丁目1-63","lat":35.76059629,"lon":139.48833404},{"name":"彩花","province":"東京都","city":"東村山市","address":"東京都東村山市青葉町2丁目28-5","lat":35.7628517,"lon":139.49251419},{"name":"まちの縁側本町　夕ぐれ食堂","province":"東京都","city":"東村山市","address":"東京都東村山市本町4丁目1-8","lat":35.75253003,"lon":139.46967488},{"name":"子ども食堂　リコード","province":"東京都","city":"東村山市","address":"東京都東村山市本町3丁目9-40","lat":35.75852665,"lon":139.47114118},{"name":"ふれあいこども食堂あおば","province":"東京都","city":"東村山市","address":"東京都東村山市青葉町2丁目25-66","lat":35.76190178,"lon":139.49118376},{"name":"ふれあいこども食堂","province":"東京都","city":"東村山市","address":"東京都東村山市栄町1丁目1-18","lat":35.75056089,"lon":139.47198587},{"name":"にちよう食堂","province":"東京都","city":"東村山市","address":"東京都東村山市栄町1丁目29-34","lat":35.75251075,"lon":139.47501885},{"name":"おひさま食堂","province":"東京都","city":"東村山市","address":"東京都東村山市富士見町5丁目1-93","lat":35.7450057,"lon":139.46432568},{"name":"万福食堂","province":"東京都","city":"東村山市","address":"東京都東村山市廻田町3丁目12-6","lat":35.75761762,"lon":139.44732947},{"name":"東村山地域食堂ふたば","province":"東京都","city":"東村山市","address":"東京都東村山市野口町1丁目15-5","lat":35.76157604,"lon":139.46296959},{"name":"SOMPO流　子ども食堂（八坂）","province":"東京都","city":"東村山市","address":"東京都東村山市栄町3丁目23-1","lat":35.74535292,"lon":139.46513116},{"name":"SOMPO流　子ども食堂（萩山）","province":"東京都","city":"東村山市","address":"東京都東村山市萩山町2丁目9-46","lat":35.7402039,"lon":139.47823297},{"name":"SOMPO流　子ども食堂（久米川）","province":"東京都","city":"東村山市","address":"東京都東村山市美住町1丁目19-10","lat":35.75042437,"lon":139.45880928},{"name":"子どもたちのお弁当屋さん","province":"東京都","city":"東村山市","address":"東京都東村山市富士見町2丁目19-23","lat":35.7372534,"lon":139.45070223},{"name":"恩多こども食堂","province":"東京都","city":"東村山市","address":"東京都東村山市恩多町3丁目3-22","lat":35.753233,"lon":139.47909623},{"name":"八坂","province":"東京都","city":"東村山市","address":"東京都東村山市萩山町3丁目31-45","lat":35.74387259,"lon":139.46697271},{"name":"東村山郵便局前","province":"東京都","city":"東村山市","address":"東京都東村山市本町2丁目1-2","lat":35.75822931,"lon":139.46684991},{"name":"栄町一丁目","province":"東京都","city":"東村山市","address":"東京都東村山市栄町1丁目23-1","lat":35.75067204,"lon":139.47384403},{"name":"八坂駅北口","province":"東京都","city":"東村山市","address":"東京都東村山市栄町3丁目10-28","lat":35.7458668,"lon":139.46705596},{"name":"萩山町五丁目","province":"東京都","city":"東村山市","address":"東京都東村山市萩山町5丁目3","lat":35.74820856,"lon":139.47866037},{"name":"東村山駅東口","province":"東京都","city":"東村山市","address":"東京都東村山市本町2丁目17-7","lat":35.76104847,"lon":139.46749974},{"name":"南台小学校裏","province":"東京都","city":"東村山市","address":"東京都東村山市富士見町2丁目1","lat":35.74489978,"lon":139.45277395},{"name":"東村山駅西口","province":"東京都","city":"東村山市","address":"東京都東村山市野口町1丁目10-1","lat":35.76173995,"lon":139.46462498},{"name":"萩山駅南口","province":"東京都","city":"東村山市","address":"東京都東村山市萩山町2丁目2","lat":35.74081487,"lon":139.47583872},{"name":"東村山郵便局北","province":"東京都","city":"東村山市","address":"東京都東村山市本町2丁目2-9","lat":35.7595014,"lon":139.46689431},{"name":"多摩北部医療センター前","province":"東京都","city":"東村山市","address":"東京都東村山市青葉町2丁目27-1","lat":35.76242395,"lon":139.49172816},{"name":"秋津駅入口","province":"東京都","city":"東村山市","address":"東京都東村山市秋津町1丁目32-18","lat":35.77338112,"lon":139.49729414},{"name":"青葉駐在所前","province":"東京都","city":"東村山市","address":"東京都東村山市青葉町2丁目24-64","lat":35.76058521,"lon":139.48940895},{"name":"多摩北部医療センター西","province":"東京都","city":"東村山市","address":"東京都東村山市青葉町1丁目7","lat":35.75941877,"lon":139.4930448},{"name":"多摩北部医療センター南","province":"東京都","city":"東村山市","address":"東京都東村山市青葉町1丁目7","lat":35.75941877,"lon":139.4930448},{"name":"西武園駅東","province":"東京都","city":"東村山市","address":"東京都東村山市多摩湖町4丁目29","lat":35.76763595,"lon":139.44840958},{"name":"八坂給水所","province":"東京都","city":"東村山市","address":"東京都東村山市富士見町5丁目4-46","lat":35.74735525,"lon":139.45848167},{"name":"東村山浄水場","province":"東京都","city":"東村山市","address":"東京都東村山市美住町2丁目20-236","lat":35.75327404,"lon":139.45878417},{"name":"美住給水所","province":"東京都","city":"東村山市","address":"東京都東村山市美住町2丁目13-4","lat":35.75552943,"lon":139.46155328},{"name":"市立東村山運動公園","province":"東京都","city":"東村山市","address":"東京都東村山市恩多町1丁目9-59","lat":35.75542745,"lon":139.48852866},{"name":"美住給水所（注２）","province":"東京都","city":"東村山市","address":"東京都東村山市美住町2丁目13-4","lat":35.75552943,"lon":139.46155328},{"name":"東村山市立廻田公民館","province":"東京都","city":"東村山市","address":"東村山市廻田町4-19-1","lat":35.759617,"lon":139.452087},{"name":"東村山市立秋津公民館","province":"東京都","city":"東村山市","address":"東村山市秋津町2-17-10","lat":35.770851,"lon":139.486847},{"name":"東村山市立中央公民館","province":"東京都","city":"東村山市","address":"東村山市本町2-33-2","lat":35.759972,"lon":139.466721},{"name":"東村山市立萩山公民館","province":"東京都","city":"東村山市","address":"東村山市萩山町2-13-1","lat":35.741993,"lon":139.478363},{"name":"東村山市立富士見公民館","province":"東京都","city":"東村山市","address":"東村山市富士見町5-4-51","lat":35.748219,"lon":139.456573},{"name":"東村山市立廻田図書館","province":"東京都","city":"東村山市","address":"東村山市廻田町4-19-1","lat":35.759617,"lon":139.452087},{"name":"東村山市立秋津図書館","province":"東京都","city":"東村山市","address":"東村山市秋津町2-17-10","lat":35.770851,"lon":139.486847},{"name":"東村山市立中央図書館","province":"東京都","city":"東村山市","address":"東村山市本町1-1-10","lat":35.755348,"lon":139.46788},{"name":"東村山市立萩山図書館","province":"東京都","city":"東村山市","address":"東村山市萩山町2-13-1","lat":35.741993,"lon":139.478363},{"name":"東村山市立富士見図書館","province":"東京都","city":"東村山市","address":"東村山市富士見町1-7-35","lat":35.743481,"lon":139.459763},{"name":"東村山ふるさと歴史館","province":"東京都","city":"東村山市","address":"東村山市諏訪町1-6-3","lat":35.766373,"lon":139.465363},{"name":"八国山たいけんの里","province":"東京都","city":"東村山市","address":"東村山市野口町3-48-1","lat":35.76627,"lon":139.454498},{"name":"長坂式典センター","province":"東京都","city":"東村山市","address":"東京都東村山市本町2丁目19-36","lat":35.75973473,"lon":139.46753035},{"name":"ベルホール三光商会","province":"東京都","city":"東村山市","address":"東京都東村山市恩多町2丁目41-3","lat":35.74664228,"lon":139.48623476},{"name":"メモリアルアートの大野屋","province":"東京都","city":"東村山市","address":"東京都東村山市萩山町1丁目19-2","lat":35.73911534,"lon":139.48567125},{"name":"愛和葬祭","province":"東京都","city":"東村山市","address":"東京都東村山市秋津町3丁目5-8","lat":35.77351681,"lon":139.47999277},{"name":"しんせいどう","province":"東京都","city":"東村山市","address":"東京都東村山市青葉町2丁目1-63","lat":35.76059629,"lon":139.48833404},{"name":"彩花","province":"東京都","city":"東村山市","address":"東京都東村山市青葉町2丁目28-5","lat":35.7628517,"lon":139.49251419},{"name":"まちの縁側本町　夕ぐれ食堂","province":"東京都","city":"東村山市","address":"東京都東村山市本町4丁目1-8","lat":35.75253003,"lon":139.46967488},{"name":"子ども食堂　リコード","province":"東京都","city":"東村山市","address":"東京都東村山市本町3丁目9-40","lat":35.75852665,"lon":139.47114118},{"name":"ふれあいこども食堂あおば","province":"東京都","city":"東村山市","address":"東京都東村山市青葉町2丁目25-66","lat":35.76190178,"lon":139.49118376},{"name":"ふれあいこども食堂","province":"東京都","city":"東村山市","address":"東京都東村山市栄町1丁目1-18","lat":35.75056089,"lon":139.47198587},{"name":"にちよう食堂","province":"東京都","city":"東村山市","address":"東京都東村山市栄町1丁目29-34","lat":35.75251075,"lon":139.47501885},{"name":"おひさま食堂","province":"東京都","city":"東村山市","address":"東京都東村山市富士見町5丁目1-93","lat":35.7450057,"lon":139.46432568},{"name":"万福食堂","province":"東京都","city":"東村山市","address":"東京都東村山市廻田町3丁目12-6","lat":35.75761762,"lon":139.44732947},{"name":"東村山地域食堂ふたば","province":"東京都","city":"東村山市","address":"東京都東村山市野口町1丁目15-5","lat":35.76157604,"lon":139.46296959},{"name":"SOMPO流　子ども食堂（八坂）","province":"東京都","city":"東村山市","address":"東京都東村山市栄町3丁目23-1","lat":35.74535292,"lon":139.46513116},{"name":"SOMPO流　子ども食堂（萩山）","province":"東京都","city":"東村山市","address":"東京都東村山市萩山町2丁目9-46","lat":35.7402039,"lon":139.47823297},{"name":"SOMPO流　子ども食堂（久米川）","province":"東京都","city":"東村山市","address":"東京都東村山市美住町1丁目19-10","lat":35.75042437,"lon":139.45880928},{"name":"子どもたちのお弁当屋さん","province":"東京都","city":"東村山市","address":"東京都東村山市富士見町2丁目19-23","lat":35.7372534,"lon":139.45070223},{"name":"恩多こども食堂","province":"東京都","city":"東村山市","address":"東京都東村山市恩多町3丁目3-22","lat":35.753233,"lon":139.47909623},{"name":"東村山市立廻田公民館","province":"東京都","city":"東村山市","address":"東村山市廻田町4-19-1","lat":35.759617,"lon":139.452087},{"name":"東村山市立秋津公民館","province":"東京都","city":"東村山市","address":"東村山市秋津町2-17-10","lat":35.770851,"lon":139.486847},{"name":"東村山市立中央公民館","province":"東京都","city":"東村山市","address":"東村山市本町2-33-2","lat":35.759972,"lon":139.466721},{"name":"東村山市立萩山公民館","province":"東京都","city":"東村山市","address":"東村山市萩山町2-13-1","lat":35.741993,"lon":139.478363},{"name":"東村山市立富士見公民館","province":"東京都","city":"東村山市","address":"東村山市富士見町5-4-51","lat":35.748219,"lon":139.456573},{"name":"東村山市立廻田図書館","province":"東京都","city":"東村山市","address":"東村山市廻田町4-19-1","lat":35.759617,"lon":139.452087},{"name":"東村山市立秋津図書館","province":"東京都","city":"東村山市","address":"東村山市秋津町2-17-10","lat":35.770851,"lon":139.486847},{"name":"東村山市立中央図書館","province":"東京都","city":"東村山市","address":"東村山市本町1-1-10","lat":35.755348,"lon":139.46788},{"name":"東村山市立萩山図書館","province":"東京都","city":"東村山市","address":"東村山市萩山町2-13-1","lat":35.741993,"lon":139.478363},{"name":"東村山市立富士見図書館","province":"東京都","city":"東村山市","address":"東村山市富士見町1-7-35","lat":35.743481,"lon":139.459763},{"name":"東村山ふるさと歴史館","province":"東京都","city":"東村山市","address":"東村山市諏訪町1-6-3","lat":35.766373,"lon":139.465363},{"name":"八国山たいけんの里","province":"東京都","city":"東村山市","address":"東村山市野口町3-48-1","lat":35.76627,"lon":139.454498},{"name":"長坂式典センター","province":"東京都","city":"東村山市","address":"東京都東村山市本町2丁目19-36","lat":35.75973473,"lon":139.46753035},{"name":"ベルホール三光商会","province":"東京都","city":"東村山市","address":"東京都東村山市恩多町2丁目41-3","lat":35.74664228,"lon":139.48623476},{"name":"メモリアルアートの大野屋","province":"東京都","city":"東村山市","address":"東京都東村山市萩山町1丁目19-2","lat":35.73911534,"lon":139.48567125},{"name":"愛和葬祭","province":"東京都","city":"東村山市","address":"東京都東村山市秋津町3丁目5-8","lat":35.77351681,"lon":139.47999277},{"name":"しんせいどう","province":"東京都","city":"東村山市","address":"東京都東村山市青葉町2丁目1-63","lat":35.76059629,"lon":139.48833404},{"name":"彩花","province":"東京都","city":"東村山市","address":"東京都東村山市青葉町2丁目28-5","lat":35.7628517,"lon":139.49251419},{"name":"まちの縁側本町　夕ぐれ食堂","province":"東京都","city":"東村山市","address":"東京都東村山市本町4丁目1-8","lat":35.75253003,"lon":139.46967488},{"name":"子ども食堂　リコード","province":"東京都","city":"東村山市","address":"東京都東村山市本町3丁目9-40","lat":35.75852665,"lon":139.47114118},{"name":"ふれあいこども食堂あおば","province":"東京都","city":"東村山市","address":"東京都東村山市青葉町2丁目25-66","lat":35.76190178,"lon":139.49118376},{"name":"ふれあいこども食堂","province":"東京都","city":"東村山市","address":"東京都東村山市栄町1丁目1-18","lat":35.75056089,"lon":139.47198587},{"name":"にちよう食堂","province":"東京都","city":"東村山市","address":"東京都東村山市栄町1丁目29-34","lat":35.75251075,"lon":139.47501885},{"name":"おひさま食堂","province":"東京都","city":"東村山市","address":"東京都東村山市富士見町5丁目1-93","lat":35.7450057,"lon":139.46432568},{"name":"万福食堂","province":"東京都","city":"東村山市","address":"東京都東村山市廻田町3丁目12-6","lat":35.75761762,"lon":139.44732947},{"name":"東村山地域食堂ふたば","province":"東京都","city":"東村山市","address":"東京都東村山市野口町1丁目15-5","lat":35.76157604,"lon":139.46296959},{"name":"SOMPO流　子ども食堂（八坂）","province":"東京都","city":"東村山市","address":"東京都東村山市栄町3丁目23-1","lat":35.74535292,"lon":139.46513116},{"name":"SOMPO流　子ども食堂（萩山）","province":"東京都","city":"東村山市","address":"東京都東村山市萩山町2丁目9-46","lat":35.7402039,"lon":139.47823297},{"name":"SOMPO流　子ども食堂（久米川）","province":"東京都","city":"東村山市","address":"東京都東村山市美住町1丁目19-10","lat":35.75042437,"lon":139.45880928},{"name":"子どもたちのお弁当屋さん","province":"東京都","city":"東村山市","address":"東京都東村山市富士見町2丁目19-23","lat":35.7372534,"lon":139.45070223},{"name":"恩多こども食堂","province":"東京都","city":"東村山市","address":"東京都東村山市恩多町3丁目3-22","lat":35.753233,"lon":139.47909623},{"name":"東村山市立廻田公民館","province":"東京都","city":"東村山市","address":"東村山市廻田町4-19-1","lat":35.759617,"lon":139.452087},{"name":"東村山市立秋津公民館","province":"東京都","city":"東村山市","address":"東村山市秋津町2-17-10","lat":35.770851,"lon":139.486847},{"name":"東村山市立中央公民館","province":"東京都","city":"東村山市","address":"東村山市本町2-33-2","lat":35.759972,"lon":139.466721},{"name":"東村山市立萩山公民館","province":"東京都","city":"東村山市","address":"東村山市萩山町2-13-1","lat":35.741993,"lon":139.478363},{"name":"東村山市立富士見公民館","province":"東京都","city":"東村山市","address":"東村山市富士見町5-4-51","lat":35.748219,"lon":139.456573},{"name":"東村山市立廻田図書館","province":"東京都","city":"東村山市","address":"東村山市廻田町4-19-1","lat":35.759617,"lon":139.452087},{"name":"東村山市立秋津図書館","province":"東京都","city":"東村山市","address":"東村山市秋津町2-17-10","lat":35.770851,"lon":139.486847},{"name":"東村山市立中央図書館","province":"東京都","city":"東村山市","address":"東村山市本町1-1-10","lat":35.755348,"lon":139.46788},{"name":"東村山市立萩山図書館","province":"東京都","city":"東村山市","address":"東村山市萩山町2-13-1","lat":35.741993,"lon":139.478363},{"name":"東村山市立富士見図書館","province":"東京都","city":"東村山市","address":"東村山市富士見町1-7-35","lat":35.743481,"lon":139.459763},{"name":"東村山ふるさと歴史館","province":"東京都","city":"東村山市","address":"東村山市諏訪町1-6-3","lat":35.766373,"lon":139.465363},{"name":"八国山たいけんの里","province":"東京都","city":"東村山市","address":"東村山市野口町3-48-1","lat":35.76627,"lon":139.454498},{"name":"長坂式典センター","province":"東京都","city":"東村山市","address":"東京都東村山市本町2丁目19-36","lat":35.75973473,"lon":139.46753035},{"name":"ベルホール三光商会","province":"東京都","city":"東村山市","address":"東京都東村山市恩多町2丁目41-3","lat":35.74664228,"lon":139.48623476},{"name":"メモリアルアートの大野屋","province":"東京都","city":"東村山市","address":"東京都東村山市萩山町1丁目19-2","lat":35.73911534,"lon":139.48567125},{"name":"愛和葬祭","province":"東京都","city":"東村山市","address":"東京都東村山市秋津町3丁目5-8","lat":35.77351681,"lon":139.47999277},{"name":"しんせいどう","province":"東京都","city":"東村山市","address":"東京都東村山市青葉町2丁目1-63","lat":35.76059629,"lon":139.48833404},{"name":"彩花","province":"東京都","city":"東村山市","address":"東京都東村山市青葉町2丁目28-5","lat":35.7628517,"lon":139.49251419},{"name":"まちの縁側本町　夕ぐれ食堂","province":"東京都","city":"東村山市","address":"東京都東村山市本町4丁目1-8","lat":35.75253003,"lon":139.46967488},{"name":"子ども食堂　リコード","province":"東京都","city":"東村山市","address":"東京都東村山市本町3丁目9-40","lat":35.75852665,"lon":139.47114118},{"name":"ふれあいこども食堂あおば","province":"東京都","city":"東村山市","address":"東京都東村山市青葉町2丁目25-66","lat":35.76190178,"lon":139.49118376},{"name":"ふれあいこども食堂","province":"東京都","city":"東村山市","address":"東京都東村山市栄町1丁目1-18","lat":35.75056089,"lon":139.47198587},{"name":"にちよう食堂","province":"東京都","city":"東村山市","address":"東京都東村山市栄町1丁目29-34","lat":35.75251075,"lon":139.47501885},{"name":"おひさま食堂","province":"東京都","city":"東村山市","address":"東京都東村山市富士見町5丁目1-93","lat":35.7450057,"lon":139.46432568},{"name":"万福食堂","province":"東京都","city":"東村山市","address":"東京都東村山市廻田町3丁目12-6","lat":35.75761762,"lon":139.44732947},{"name":"東村山地域食堂ふたば","province":"東京都","city":"東村山市","address":"東京都東村山市野口町1丁目15-5","lat":35.76157604,"lon":139.46296959},{"name":"SOMPO流　子ども食堂（八坂）","province":"東京都","city":"東村山市","address":"東京都東村山市栄町3丁目23-1","lat":35.74535292,"lon":139.46513116},{"name":"SOMPO流　子ども食堂（萩山）","province":"東京都","city":"東村山市","address":"東京都東村山市萩山町2丁目9-46","lat":35.7402039,"lon":139.47823297},{"name":"SOMPO流　子ども食堂（久米川）","province":"東京都","city":"東村山市","address":"東京都東村山市美住町1丁目19-10","lat":35.75042437,"lon":139.45880928},{"name":"子どもたちのお弁当屋さん","province":"東京都","city":"東村山市","address":"東京都東村山市富士見町2丁目19-23","lat":35.7372534,"lon":139.45070223},{"name":"恩多こども食堂","province":"東京都","city":"東村山市","address":"東京都東村山市恩多町3丁目3-22","lat":35.753233,"lon":139.47909623},{"name":"東村山市立廻田公民館","province":"東京都","city":"東村山市","address":"東村山市廻田町4-19-1","lat":35.759617,"lon":139.452087},{"name":"東村山市立秋津公民館","province":"東京都","city":"東村山市","address":"東村山市秋津町2-17-10","lat":35.770851,"lon":139.486847},{"name":"東村山市立中央公民館","province":"東京都","city":"東村山市","address":"東村山市本町2-33-2","lat":35.759972,"lon":139.466721},{"name":"東村山市立萩山公民館","province":"東京都","city":"東村山市","address":"東村山市萩山町2-13-1","lat":35.741993,"lon":139.478363},{"name":"東村山市立富士見公民館","province":"東京都","city":"東村山市","address":"東村山市富士見町5-4-51","lat":35.748219,"lon":139.456573},{"name":"東村山市立廻田図書館","province":"東京都","city":"東村山市","address":"東村山市廻田町4-19-1","lat":35.759617,"lon":139.452087},{"name":"東村山市立秋津図書館","province":"東京都","city":"東村山市","address":"東村山市秋津町2-17-10","lat":35.770851,"lon":139.486847},{"name":"東村山市立中央図書館","province":"東京都","city":"東村山市","address":"東村山市本町1-1-10","lat":35.755348,"lon":139.46788},{"name":"東村山市立萩山図書館","province":"東京都","city":"東村山市","address":"東村山市萩山町2-13-1","lat":35.741993,"lon":139.478363},{"name":"東村山市立富士見図書館","province":"東京都","city":"東村山市","address":"東村山市富士見町1-7-35","lat":35.743481,"lon":139.459763},{"name":"東村山ふるさと歴史館","province":"東京都","city":"東村山市","address":"東村山市諏訪町1-6-3","lat":35.766373,"lon":139.465363},{"name":"八国山たいけんの里","province":"東京都","city":"東村山市","address":"東村山市野口町3-48-1","lat":35.76627,"lon":139.454498},{"name":"長坂式典センター","province":"東京都","city":"東村山市","address":"東京都東村山市本町2丁目19-36","lat":35.75973473,"lon":139.46753035},{"name":"ベルホール三光商会","province":"東京都","city":"東村山市","address":"東京都東村山市恩多町2丁目41-3","lat":35.74664228,"lon":139.48623476},{"name":"メモリアルアートの大野屋","province":"東京都","city":"東村山市","address":"東京都東村山市萩山町1丁目19-2","lat":35.73911534,"lon":139.48567125},{"name":"愛和葬祭","province":"東京都","city":"東村山市","address":"東京都東村山市秋津町3丁目5-8","lat":35.77351681,"lon":139.47999277},{"name":"しんせいどう","province":"東京都","city":"東村山市","address":"東京都東村山市青葉町2丁目1-63","lat":35.76059629,"lon":139.48833404},{"name":"彩花","province":"東京都","city":"東村山市","address":"東京都東村山市青葉町2丁目28-5","lat":35.7628517,"lon":139.49251419},{"name":"まちの縁側本町　夕ぐれ食堂","province":"東京都","city":"東村山市","address":"東京都東村山市本町4丁目1-8","lat":35.75253003,"lon":139.46967488},{"name":"子ども食堂　リコード","province":"東京都","city":"東村山市","address":"東京都東村山市本町3丁目9-40","lat":35.75852665,"lon":139.47114118},{"name":"ふれあいこども食堂あおば","province":"東京都","city":"東村山市","address":"東京都東村山市青葉町2丁目25-66","lat":35.76190178,"lon":139.49118376},{"name":"ふれあいこども食堂","province":"東京都","city":"東村山市","address":"東京都東村山市栄町1丁目1-18","lat":35.75056089,"lon":139.47198587},{"name":"にちよう食堂","province":"東京都","city":"東村山市","address":"東京都東村山市栄町1丁目29-34","lat":35.75251075,"lon":139.47501885},{"name":"おひさま食堂","province":"東京都","city":"東村山市","address":"東京都東村山市富士見町5丁目1-93","lat":35.7450057,"lon":139.46432568},{"name":"万福食堂","province":"東京都","city":"東村山市","address":"東京都東村山市廻田町3丁目12-6","lat":35.75761762,"lon":139.44732947},{"name":"東村山地域食堂ふたば","province":"東京都","city":"東村山市","address":"東京都東村山市野口町1丁目15-5","lat":35.76157604,"lon":139.46296959},{"name":"SOMPO流　子ども食堂（八坂）","province":"東京都","city":"東村山市","address":"東京都東村山市栄町3丁目23-1","lat":35.74535292,"lon":139.46513116},{"name":"SOMPO流　子ども食堂（萩山）","province":"東京都","city":"東村山市","address":"東京都東村山市萩山町2丁目9-46","lat":35.7402039,"lon":139.47823297},{"name":"SOMPO流　子ども食堂（久米川）","province":"東京都","city":"東村山市","address":"東京都東村山市美住町1丁目19-10","lat":35.75042437,"lon":139.45880928},{"name":"子どもたちのお弁当屋さん","province":"東京都","city":"東村山市","address":"東京都東村山市富士見町2丁目19-23","lat":35.7372534,"lon":139.45070223},{"name":"恩多こども食堂","province":"東京都","city":"東村山市","address":"東京都東村山市恩多町3丁目3-22","lat":35.753233,"lon":139.47909623},{"name":"東村山市立廻田公民館","province":"東京都","city":"東村山市","address":"東村山市廻田町4-19-1","lat":35.759617,"lon":139.452087},{"name":"東村山市立秋津公民館","province":"東京都","city":"東村山市","address":"東村山市秋津町2-17-10","lat":35.770851,"lon":139.486847},{"name":"東村山市立中央公民館","province":"東京都","city":"東村山市","address":"東村山市本町2-33-2","lat":35.759972,"lon":139.466721},{"name":"東村山市立萩山公民館","province":"東京都","city":"東村山市","address":"東村山市萩山町2-13-1","lat":35.741993,"lon":139.478363},{"name":"東村山市立富士見公民館","province":"東京都","city":"東村山市","address":"東村山市富士見町5-4-51","lat":35.748219,"lon":139.456573},{"name":"東村山市立廻田図書館","province":"東京都","city":"東村山市","address":"東村山市廻田町4-19-1","lat":35.759617,"lon":139.452087},{"name":"東村山市立秋津図書館","province":"東京都","city":"東村山市","address":"東村山市秋津町2-17-10","lat":35.770851,"lon":139.486847},{"name":"東村山市立中央図書館","province":"東京都","city":"東村山市","address":"東村山市本町1-1-10","lat":35.755348,"lon":139.46788},{"name":"東村山市立萩山図書館","province":"東京都","city":"東村山市","address":"東村山市萩山町2-13-1","lat":35.741993,"lon":139.478363},{"name":"東村山市立富士見図書館","province":"東京都","city":"東村山市","address":"東村山市富士見町1-7-35","lat":35.743481,"lon":139.459763},{"name":"東村山ふるさと歴史館","province":"東京都","city":"東村山市","address":"東村山市諏訪町1-6-3","lat":35.766373,"lon":139.465363},{"name":"八国山たいけんの里","province":"東京都","city":"東村山市","address":"東村山市野口町3-48-1","lat":35.76627,"lon":139.454498},{"name":"長坂式典センター","province":"東京都","city":"東村山市","address":"東京都東村山市本町2丁目19-36","lat":35.75973473,"lon":139.46753035},{"name":"ベルホール三光商会","province":"東京都","city":"東村山市","address":"東京都東村山市恩多町2丁目41-3","lat":35.74664228,"lon":139.48623476},{"name":"メモリアルアートの大野屋","province":"東京都","city":"東村山市","address":"東京都東村山市萩山町1丁目19-2","lat":35.73911534,"lon":139.48567125},{"name":"愛和葬祭","province":"東京都","city":"東村山市","address":"東京都東村山市秋津町3丁目5-8","lat":35.77351681,"lon":139.47999277},{"name":"しんせいどう","province":"東京都","city":"東村山市","address":"東京都東村山市青葉町2丁目1-63","lat":35.76059629,"lon":139.48833404},{"name":"彩花","province":"東京都","city":"東村山市","address":"東京都東村山市青葉町2丁目28-5","lat":35.7628517,"lon":139.49251419},{"name":"まちの縁側本町　夕ぐれ食堂","province":"東京都","city":"東村山市","address":"東京都東村山市本町4丁目1-8","lat":35.75253003,"lon":139.46967488},{"name":"子ども食堂　リコード","province":"東京都","city":"東村山市","address":"東京都東村山市本町3丁目9-40","lat":35.75852665,"lon":139.47114118},{"name":"ふれあいこども食堂あおば","province":"東京都","city":"東村山市","address":"東京都東村山市青葉町2丁目25-66","lat":35.76190178,"lon":139.49118376},{"name":"ふれあいこども食堂","province":"東京都","city":"東村山市","address":"東京都東村山市栄町1丁目1-18","lat":35.75056089,"lon":139.47198587},{"name":"にちよう食堂","province":"東京都","city":"東村山市","address":"東京都東村山市栄町1丁目29-34","lat":35.75251075,"lon":139.47501885},{"name":"おひさま食堂","province":"東京都","city":"東村山市","address":"東京都東村山市富士見町5丁目1-93","lat":35.7450057,"lon":139.46432568},{"name":"万福食堂","province":"東京都","city":"東村山市","address":"東京都東村山市廻田町3丁目12-6","lat":35.75761762,"lon":139.44732947},{"name":"東村山地域食堂ふたば","province":"東京都","city":"東村山市","address":"東京都東村山市野口町1丁目15-5","lat":35.76157604,"lon":139.46296959},{"name":"SOMPO流　子ども食堂（八坂）","province":"東京都","city":"東村山市","address":"東京都東村山市栄町3丁目23-1","lat":35.74535292,"lon":139.46513116},{"name":"SOMPO流　子ども食堂（萩山）","province":"東京都","city":"東村山市","address":"東京都東村山市萩山町2丁目9-46","lat":35.7402039,"lon":139.47823297},{"name":"SOMPO流　子ども食堂（久米川）","province":"東京都","city":"東村山市","address":"東京都東村山市美住町1丁目19-10","lat":35.75042437,"lon":139.45880928},{"name":"子どもたちのお弁当屋さん","province":"東京都","city":"東村山市","address":"東京都東村山市富士見町2丁目19-23","lat":35.7372534,"lon":139.45070223},{"name":"恩多こども食堂","province":"東京都","city":"東村山市","address":"東京都東村山市恩多町3丁目3-22","lat":35.753233,"lon":139.47909623},{"name":"東村山市立廻田公民館","province":"東京都","city":"東村山市","address":"東村山市廻田町4-19-1","lat":35.759617,"lon":139.452087},{"name":"東村山市立秋津公民館","province":"東京都","city":"東村山市","address":"東村山市秋津町2-17-10","lat":35.770851,"lon":139.486847},{"name":"東村山市立中央公民館","province":"東京都","city":"東村山市","address":"東村山市本町2-33-2","lat":35.759972,"lon":139.466721},{"name":"東村山市立萩山公民館","province":"東京都","city":"東村山市","address":"東村山市萩山町2-13-1","lat":35.741993,"lon":139.478363},{"name":"東村山市立富士見公民館","province":"東京都","city":"東村山市","address":"東村山市富士見町5-4-51","lat":35.748219,"lon":139.456573},{"name":"東村山市立廻田図書館","province":"東京都","city":"東村山市","address":"東村山市廻田町4-19-1","lat":35.759617,"lon":139.452087},{"name":"東村山市立秋津図書館","province":"東京都","city":"東村山市","address":"東村山市秋津町2-17-10","lat":35.770851,"lon":139.486847},{"name":"東村山市立中央図書館","province":"東京都","city":"東村山市","address":"東村山市本町1-1-10","lat":35.755348,"lon":139.46788},{"name":"東村山市立萩山図書館","province":"東京都","city":"東村山市","address":"東村山市萩山町2-13-1","lat":35.741993,"lon":139.478363},{"name":"東村山市立富士見図書館","province":"東京都","city":"東村山市","address":"東村山市富士見町1-7-35","lat":35.743481,"lon":139.459763},{"name":"東村山ふるさと歴史館","province":"東京都","city":"東村山市","address":"東村山市諏訪町1-6-3","lat":35.766373,"lon":139.465363},{"name":"八国山たいけんの里","province":"東京都","city":"東村山市","address":"東村山市野口町3-48-1","lat":35.76627,"lon":139.454498},{"name":"長坂式典センター","province":"東京都","city":"東村山市","address":"東京都東村山市本町2丁目19-36","lat":35.75973473,"lon":139.46753035},{"name":"ベルホール三光商会","province":"東京都","city":"東村山市","address":"東京都東村山市恩多町2丁目41-3","lat":35.74664228,"lon":139.48623476},{"name":"メモリアルアートの大野屋","province":"東京都","city":"東村山市","address":"東京都東村山市萩山町1丁目19-2","lat":35.73911534,"lon":139.48567125},{"name":"愛和葬祭","province":"東京都","city":"東村山市","address":"東京都東村山市秋津町3丁目5-8","lat":35.77351681,"lon":139.47999277},{"name":"しんせいどう","province":"東京都","city":"東村山市","address":"東京都東村山市青葉町2丁目1-63","lat":35.76059629,"lon":139.48833404},{"name":"彩花","province":"東京都","city":"東村山市","address":"東京都東村山市青葉町2丁目28-5","lat":35.7628517,"lon":139.49251419},{"name":"まちの縁側本町　夕ぐれ食堂","province":"東京都","city":"東村山市","address":"東京都東村山市本町4丁目1-8","lat":35.75253003,"lon":139.46967488},{"name":"子ども食堂　リコード","province":"東京都","city":"東村山市","address":"東京都東村山市本町3丁目9-40","lat":35.75852665,"lon":139.47114118},{"name":"ふれあいこども食堂あおば","province":"東京都","city":"東村山市","address":"東京都東村山市青葉町2丁目25-66","lat":35.76190178,"lon":139.49118376},{"name":"ふれあいこども食堂","province":"東京都","city":"東村山市","address":"東京都東村山市栄町1丁目1-18","lat":35.75056089,"lon":139.47198587},{"name":"にちよう食堂","province":"東京都","city":"東村山市","address":"東京都東村山市栄町1丁目29-34","lat":35.75251075,"lon":139.47501885},{"name":"おひさま食堂","province":"東京都","city":"東村山市","address":"東京都東村山市富士見町5丁目1-93","lat":35.7450057,"lon":139.46432568},{"name":"万福食堂","province":"東京都","city":"東村山市","address":"東京都東村山市廻田町3丁目12-6","lat":35.75761762,"lon":139.44732947},{"name":"東村山地域食堂ふたば","province":"東京都","city":"東村山市","address":"東京都東村山市野口町1丁目15-5","lat":35.76157604,"lon":139.46296959},{"name":"SOMPO流　子ども食堂（八坂）","province":"東京都","city":"東村山市","address":"東京都東村山市栄町3丁目23-1","lat":35.74535292,"lon":139.46513116},{"name":"SOMPO流　子ども食堂（萩山）","province":"東京都","city":"東村山市","address":"東京都東村山市萩山町2丁目9-46","lat":35.7402039,"lon":139.47823297},{"name":"SOMPO流　子ども食堂（久米川）","province":"東京都","city":"東村山市","address":"東京都東村山市美住町1丁目19-10","lat":35.75042437,"lon":139.45880928},{"name":"子どもたちのお弁当屋さん","province":"東京都","city":"東村山市","address":"東京都東村山市富士見町2丁目19-23","lat":35.7372534,"lon":139.45070223},{"name":"恩多こども食堂","province":"東京都","city":"東村山市","address":"東京都東村山市恩多町3丁目3-22","lat":35.753233,"lon":139.47909623},{"name":"東村山市立廻田公民館","province":"東京都","city":"東村山市","address":"東村山市廻田町4-19-1","lat":35.759617,"lon":139.452087},{"name":"東村山市立秋津公民館","province":"東京都","city":"東村山市","address":"東村山市秋津町2-17-10","lat":35.770851,"lon":139.486847},{"name":"東村山市立中央公民館","province":"東京都","city":"東村山市","address":"東村山市本町2-33-2","lat":35.759972,"lon":139.466721},{"name":"東村山市立萩山公民館","province":"東京都","city":"東村山市","address":"東村山市萩山町2-13-1","lat":35.741993,"lon":139.478363},{"name":"東村山市立富士見公民館","province":"東京都","city":"東村山市","address":"東村山市富士見町5-4-51","lat":35.748219,"lon":139.456573},{"name":"東村山市立廻田図書館","province":"東京都","city":"東村山市","address":"東村山市廻田町4-19-1","lat":35.759617,"lon":139.452087},{"name":"東村山市立秋津図書館","province":"東京都","city":"東村山市","address":"東村山市秋津町2-17-10","lat":35.770851,"lon":139.486847},{"name":"東村山市立中央図書館","province":"東京都","city":"東村山市","address":"東村山市本町1-1-10","lat":35.755348,"lon":139.46788},{"name":"東村山市立萩山図書館","province":"東京都","city":"東村山市","address":"東村山市萩山町2-13-1","lat":35.741993,"lon":139.478363},{"name":"東村山市立富士見図書館","province":"東京都","city":"東村山市","address":"東村山市富士見町1-7-35","lat":35.743481,"lon":139.459763},{"name":"東村山ふるさと歴史館","province":"東京都","city":"東村山市","address":"東村山市諏訪町1-6-3","lat":35.766373,"lon":139.465363},{"name":"八国山たいけんの里","province":"東京都","city":"東村山市","address":"東村山市野口町3-48-1","lat":35.76627,"lon":139.454498},{"name":"長坂式典センター","province":"東京都","city":"東村山市","address":"東京都東村山市本町2丁目19-36","lat":35.75973473,"lon":139.46753035},{"name":"ベルホール三光商会","province":"東京都","city":"東村山市","address":"東京都東村山市恩多町2丁目41-3","lat":35.74664228,"lon":139.48623476},{"name":"メモリアルアートの大野屋","province":"東京都","city":"東村山市","address":"東京都東村山市萩山町1丁目19-2","lat":35.73911534,"lon":139.48567125},{"name":"愛和葬祭","province":"東京都","city":"東村山市","address":"東京都東村山市秋津町3丁目5-8","lat":35.77351681,"lon":139.47999277},{"name":"しんせいどう","province":"東京都","city":"東村山市","address":"東京都東村山市青葉町2丁目1-63","lat":35.76059629,"lon":139.48833404},{"name":"彩花","province":"東京都","city":"東村山市","address":"東京都東村山市青葉町2丁目28-5","lat":35.7628517,"lon":139.49251419},{"name":"まちの縁側本町　夕ぐれ食堂","province":"東京都","city":"東村山市","address":"東京都東村山市本町4丁目1-8","lat":35.75253003,"lon":139.46967488},{"name":"子ども食堂　リコード","province":"東京都","city":"東村山市","address":"東京都東村山市本町3丁目9-40","lat":35.75852665,"lon":139.47114118},{"name":"ふれあいこども食堂あおば","province":"東京都","city":"東村山市","address":"東京都東村山市青葉町2丁目25-66","lat":35.76190178,"lon":139.49118376},{"name":"ふれあいこども食堂","province":"東京都","city":"東村山市","address":"東京都東村山市栄町1丁目1-18","lat":35.75056089,"lon":139.47198587},{"name":"にちよう食堂","province":"東京都","city":"東村山市","address":"東京都東村山市栄町1丁目29-34","lat":35.75251075,"lon":139.47501885},{"name":"おひさま食堂","province":"東京都","city":"東村山市","address":"東京都東村山市富士見町5丁目1-93","lat":35.7450057,"lon":139.46432568},{"name":"万福食堂","province":"東京都","city":"東村山市","address":"東京都東村山市廻田町3丁目12-6","lat":35.75761762,"lon":139.44732947},{"name":"東村山地域食堂ふたば","province":"東京都","city":"東村山市","address":"東京都東村山市野口町1丁目15-5","lat":35.76157604,"lon":139.46296959},{"name":"SOMPO流　子ども食堂（八坂）","province":"東京都","city":"東村山市","address":"東京都東村山市栄町3丁目23-1","lat":35.74535292,"lon":139.46513116},{"name":"SOMPO流　子ども食堂（萩山）","province":"東京都","city":"東村山市","address":"東京都東村山市萩山町2丁目9-46","lat":35.7402039,"lon":139.47823297},{"name":"SOMPO流　子ども食堂（久米川）","province":"東京都","city":"東村山市","address":"東京都東村山市美住町1丁目19-10","lat":35.75042437,"lon":139.45880928},{"name":"子どもたちのお弁当屋さん","province":"東京都","city":"東村山市","address":"東京都東村山市富士見町2丁目19-23","lat":35.7372534,"lon":139.45070223},{"name":"恩多こども食堂","province":"東京都","city":"東村山市","address":"東京都東村山市恩多町3丁目3-22","lat":35.753233,"lon":139.47909623},{"name":"東村山市立廻田公民館","province":"東京都","city":"東村山市","address":"東村山市廻田町4-19-1","lat":35.759617,"lon":139.452087},{"name":"東村山市立秋津公民館","province":"東京都","city":"東村山市","address":"東村山市秋津町2-17-10","lat":35.770851,"lon":139.486847},{"name":"東村山市立中央公民館","province":"東京都","city":"東村山市","address":"東村山市本町2-33-2","lat":35.759972,"lon":139.466721},{"name":"東村山市立萩山公民館","province":"東京都","city":"東村山市","address":"東村山市萩山町2-13-1","lat":35.741993,"lon":139.478363},{"name":"東村山市立富士見公民館","province":"東京都","city":"東村山市","address":"東村山市富士見町5-4-51","lat":35.748219,"lon":139.456573},{"name":"東村山市立廻田図書館","province":"東京都","city":"東村山市","address":"東村山市廻田町4-19-1","lat":35.759617,"lon":139.452087},{"name":"東村山市立秋津図書館","province":"東京都","city":"東村山市","address":"東村山市秋津町2-17-10","lat":35.770851,"lon":139.486847},{"name":"東村山市立中央図書館","province":"東京都","city":"東村山市","address":"東村山市本町1-1-10","lat":35.755348,"lon":139.46788},{"name":"東村山市立萩山図書館","province":"東京都","city":"東村山市","address":"東村山市萩山町2-13-1","lat":35.741993,"lon":139.478363},{"name":"東村山市立富士見図書館","province":"東京都","city":"東村山市","address":"東村山市富士見町1-7-35","lat":35.743481,"lon":139.459763},{"name":"東村山ふるさと歴史館","province":"東京都","city":"東村山市","address":"東村山市諏訪町1-6-3","lat":35.766373,"lon":139.465363},{"name":"八国山たいけんの里","province":"東京都","city":"東村山市","address":"東村山市野口町3-48-1","lat":35.76627,"lon":139.454498},{"name":"長坂式典センター","province":"東京都","city":"東村山市","address":"東京都東村山市本町2丁目19-36","lat":35.75973473,"lon":139.46753035},{"name":"ベルホール三光商会","province":"東京都","city":"東村山市","address":"東京都東村山市恩多町2丁目41-3","lat":35.74664228,"lon":139.48623476},{"name":"メモリアルアートの大野屋","province":"東京都","city":"東村山市","address":"東京都東村山市萩山町1丁目19-2","lat":35.73911534,"lon":139.48567125},{"name":"愛和葬祭","province":"東京都","city":"東村山市","address":"東京都東村山市秋津町3丁目5-8","lat":35.77351681,"lon":139.47999277},{"name":"しんせいどう","province":"東京都","city":"東村山市","address":"東京都東村山市青葉町2丁目1-63","lat":35.76059629,"lon":139.48833404},{"name":"彩花","province":"東京都","city":"東村山市","address":"東京都東村山市青葉町2丁目28-5","lat":35.7628517,"lon":139.49251419},{"name":"まちの縁側本町　夕ぐれ食堂","province":"東京都","city":"東村山市","address":"東京都東村山市本町4丁目1-8","lat":35.75253003,"lon":139.46967488},{"name":"子ども食堂　リコード","province":"東京都","city":"東村山市","address":"東京都東村山市本町3丁目9-40","lat":35.75852665,"lon":139.47114118},{"name":"ふれあいこども食堂あおば","province":"東京都","city":"東村山市","address":"東京都東村山市青葉町2丁目25-66","lat":35.76190178,"lon":139.49118376},{"name":"ふれあいこども食堂","province":"東京都","city":"東村山市","address":"東京都東村山市栄町1丁目1-18","lat":35.75056089,"lon":139.47198587},{"name":"にちよう食堂","province":"東京都","city":"東村山市","address":"東京都東村山市栄町1丁目29-34","lat":35.75251075,"lon":139.47501885},{"name":"おひさま食堂","province":"東京都","city":"東村山市","address":"東京都東村山市富士見町5丁目1-93","lat":35.7450057,"lon":139.46432568},{"name":"万福食堂","province":"東京都","city":"東村山市","address":"東京都東村山市廻田町3丁目12-6","lat":35.75761762,"lon":139.44732947},{"name":"東村山地域食堂ふたば","province":"東京都","city":"東村山市","address":"東京都東村山市野口町1丁目15-5","lat":35.76157604,"lon":139.46296959},{"name":"SOMPO流　子ども食堂（八坂）","province":"東京都","city":"東村山市","address":"東京都東村山市栄町3丁目23-1","lat":35.74535292,"lon":139.46513116},{"name":"SOMPO流　子ども食堂（萩山）","province":"東京都","city":"東村山市","address":"東京都東村山市萩山町2丁目9-46","lat":35.7402039,"lon":139.47823297},{"name":"SOMPO流　子ども食堂（久米川）","province":"東京都","city":"東村山市","address":"東京都東村山市美住町1丁目19-10","lat":35.75042437,"lon":139.45880928},{"name":"子どもたちのお弁当屋さん","province":"東京都","city":"東村山市","address":"東京都東村山市富士見町2丁目19-23","lat":35.7372534,"lon":139.45070223},{"name":"恩多こども食堂","province":"東京都","city":"東村山市","address":"東京都東村山市恩多町3丁目3-22","lat":35.753233,"lon":139.47909623},{"name":"東村山市立廻田公民館","province":"東京都","city":"東村山市","address":"東村山市廻田町4-19-1","lat":35.759617,"lon":139.452087},{"name":"東村山市立秋津公民館","province":"東京都","city":"東村山市","address":"東村山市秋津町2-17-10","lat":35.770851,"lon":139.486847},{"name":"東村山市立中央公民館","province":"東京都","city":"東村山市","address":"東村山市本町2-33-2","lat":35.759972,"lon":139.466721},{"name":"東村山市立萩山公民館","province":"東京都","city":"東村山市","address":"東村山市萩山町2-13-1","lat":35.741993,"lon":139.478363},{"name":"東村山市立富士見公民館","province":"東京都","city":"東村山市","address":"東村山市富士見町5-4-51","lat":35.748219,"lon":139.456573},{"name":"東村山市立廻田図書館","province":"東京都","city":"東村山市","address":"東村山市廻田町4-19-1","lat":35.759617,"lon":139.452087},{"name":"東村山市立秋津図書館","province":"東京都","city":"東村山市","address":"東村山市秋津町2-17-10","lat":35.770851,"lon":139.486847},{"name":"東村山市立中央図書館","province":"東京都","city":"東村山市","address":"東村山市本町1-1-10","lat":35.755348,"lon":139.46788},{"name":"東村山市立萩山図書館","province":"東京都","city":"東村山市","address":"東村山市萩山町2-13-1","lat":35.741993,"lon":139.478363},{"name":"東村山市立富士見図書館","province":"東京都","city":"東村山市","address":"東村山市富士見町1-7-35","lat":35.743481,"lon":139.459763},{"name":"東村山ふるさと歴史館","province":"東京都","city":"東村山市","address":"東村山市諏訪町1-6-3","lat":35.766373,"lon":139.465363},{"name":"八国山たいけんの里","province":"東京都","city":"東村山市","address":"東村山市野口町3-48-1","lat":35.76627,"lon":139.454498},{"name":"長坂式典センター","province":"東京都","city":"東村山市","address":"東京都東村山市本町2丁目19-36","lat":35.75973473,"lon":139.46753035},{"name":"ベルホール三光商会","province":"東京都","city":"東村山市","address":"東京都東村山市恩多町2丁目41-3","lat":35.74664228,"lon":139.48623476},{"name":"メモリアルアートの大野屋","province":"東京都","city":"東村山市","address":"東京都東村山市萩山町1丁目19-2","lat":35.73911534,"lon":139.48567125},{"name":"愛和葬祭","province":"東京都","city":"東村山市","address":"東京都東村山市秋津町3丁目5-8","lat":35.77351681,"lon":139.47999277},{"name":"しんせいどう","province":"東京都","city":"東村山市","address":"東京都東村山市青葉町2丁目1-63","lat":35.76059629,"lon":139.48833404},{"name":"彩花","province":"東京都","city":"東村山市","address":"東京都東村山市青葉町2丁目28-5","lat":35.7628517,"lon":139.49251419},{"name":"まちの縁側本町　夕ぐれ食堂","province":"東京都","city":"東村山市","address":"東京都東村山市本町4丁目1-8","lat":35.75253003,"lon":139.46967488},{"name":"子ども食堂　リコード","province":"東京都","city":"東村山市","address":"東京都東村山市本町3丁目9-40","lat":35.75852665,"lon":139.47114118},{"name":"ふれあいこども食堂あおば","province":"東京都","city":"東村山市","address":"東京都東村山市青葉町2丁目25-66","lat":35.76190178,"lon":139.49118376},{"name":"ふれあいこども食堂","province":"東京都","city":"東村山市","address":"東京都東村山市栄町1丁目1-18","lat":35.75056089,"lon":139.47198587},{"name":"にちよう食堂","province":"東京都","city":"東村山市","address":"東京都東村山市栄町1丁目29-34","lat":35.75251075,"lon":139.47501885},{"name":"おひさま食堂","province":"東京都","city":"東村山市","address":"東京都東村山市富士見町5丁目1-93","lat":35.7450057,"lon":139.46432568},{"name":"万福食堂","province":"東京都","city":"東村山市","address":"東京都東村山市廻田町3丁目12-6","lat":35.75761762,"lon":139.44732947},{"name":"東村山地域食堂ふたば","province":"東京都","city":"東村山市","address":"東京都東村山市野口町1丁目15-5","lat":35.76157604,"lon":139.46296959},{"name":"SOMPO流　子ども食堂（八坂）","province":"東京都","city":"東村山市","address":"東京都東村山市栄町3丁目23-1","lat":35.74535292,"lon":139.46513116},{"name":"SOMPO流　子ども食堂（萩山）","province":"東京都","city":"東村山市","address":"東京都東村山市萩山町2丁目9-46","lat":35.7402039,"lon":139.47823297},{"name":"SOMPO流　子ども食堂（久米川）","province":"東京都","city":"東村山市","address":"東京都東村山市美住町1丁目19-10","lat":35.75042437,"lon":139.45880928},{"name":"子どもたちのお弁当屋さん","province":"東京都","city":"東村山市","address":"東京都東村山市富士見町2丁目19-23","lat":35.7372534,"lon":139.45070223},{"name":"恩多こども食堂","province":"東京都","city":"東村山市","address":"東京都東村山市恩多町3丁目3-22","lat":35.753233,"lon":139.47909623},{"name":"東村山市立廻田公民館","province":"東京都","city":"東村山市","address":"東村山市廻田町4-19-1","lat":35.759617,"lon":139.452087},{"name":"東村山市立秋津公民館","province":"東京都","city":"東村山市","address":"東村山市秋津町2-17-10","lat":35.770851,"lon":139.486847},{"name":"東村山市立中央公民館","province":"東京都","city":"東村山市","address":"東村山市本町2-33-2","lat":35.759972,"lon":139.466721},{"name":"東村山市立萩山公民館","province":"東京都","city":"東村山市","address":"東村山市萩山町2-13-1","lat":35.741993,"lon":139.478363},{"name":"東村山市立富士見公民館","province":"東京都","city":"東村山市","address":"東村山市富士見町5-4-51","lat":35.748219,"lon":139.456573},{"name":"東村山市立廻田図書館","province":"東京都","city":"東村山市","address":"東村山市廻田町4-19-1","lat":35.759617,"lon":139.452087},{"name":"東村山市立秋津図書館","province":"東京都","city":"東村山市","address":"東村山市秋津町2-17-10","lat":35.770851,"lon":139.486847},{"name":"東村山市立中央図書館","province":"東京都","city":"東村山市","address":"東村山市本町1-1-10","lat":35.755348,"lon":139.46788},{"name":"東村山市立萩山図書館","province":"東京都","city":"東村山市","address":"東村山市萩山町2-13-1","lat":35.741993,"lon":139.478363},{"name":"東村山市立富士見図書館","province":"東京都","city":"東村山市","address":"東村山市富士見町1-7-35","lat":35.743481,"lon":139.459763},{"name":"東村山ふるさと歴史館","province":"東京都","city":"東村山市","address":"東村山市諏訪町1-6-3","lat":35.766373,"lon":139.465363},{"name":"八国山たいけんの里","province":"東京都","city":"東村山市","address":"東村山市野口町3-48-1","lat":35.76627,"lon":139.454498},{"name":"長坂式典センター","province":"東京都","city":"東村山市","address":"東京都東村山市本町2丁目19-36","lat":35.75973473,"lon":139.46753035},{"name":"ベルホール三光商会","province":"東京都","city":"東村山市","address":"東京都東村山市恩多町2丁目41-3","lat":35.74664228,"lon":139.48623476},{"name":"メモリアルアートの大野屋","province":"東京都","city":"東村山市","address":"東京都東村山市萩山町1丁目19-2","lat":35.73911534,"lon":139.48567125},{"name":"愛和葬祭","province":"東京都","city":"東村山市","address":"東京都東村山市秋津町3丁目5-8","lat":35.77351681,"lon":139.47999277},{"name":"しんせいどう","province":"東京都","city":"東村山市","address":"東京都東村山市青葉町2丁目1-63","lat":35.76059629,"lon":139.48833404},{"name":"彩花","province":"東京都","city":"東村山市","address":"東京都東村山市青葉町2丁目28-5","lat":35.7628517,"lon":139.49251419},{"name":"まちの縁側本町　夕ぐれ食堂","province":"東京都","city":"東村山市","address":"東京都東村山市本町4丁目1-8","lat":35.75253003,"lon":139.46967488},{"name":"子ども食堂　リコード","province":"東京都","city":"東村山市","address":"東京都東村山市本町3丁目9-40","lat":35.75852665,"lon":139.47114118},{"name":"ふれあいこども食堂あおば","province":"東京都","city":"東村山市","address":"東京都東村山市青葉町2丁目25-66","lat":35.76190178,"lon":139.49118376},{"name":"ふれあいこども食堂","province":"東京都","city":"東村山市","address":"東京都東村山市栄町1丁目1-18","lat":35.75056089,"lon":139.47198587},{"name":"にちよう食堂","province":"東京都","city":"東村山市","address":"東京都東村山市栄町1丁目29-34","lat":35.75251075,"lon":139.47501885},{"name":"おひさま食堂","province":"東京都","city":"東村山市","address":"東京都東村山市富士見町5丁目1-93","lat":35.7450057,"lon":139.46432568},{"name":"万福食堂","province":"東京都","city":"東村山市","address":"東京都東村山市廻田町3丁目12-6","lat":35.75761762,"lon":139.44732947},{"name":"東村山地域食堂ふたば","province":"東京都","city":"東村山市","address":"東京都東村山市野口町1丁目15-5","lat":35.76157604,"lon":139.46296959},{"name":"SOMPO流　子ども食堂（八坂）","province":"東京都","city":"東村山市","address":"東京都東村山市栄町3丁目23-1","lat":35.74535292,"lon":139.46513116},{"name":"SOMPO流　子ども食堂（萩山）","province":"東京都","city":"東村山市","address":"東京都東村山市萩山町2丁目9-46","lat":35.7402039,"lon":139.47823297},{"name":"SOMPO流　子ども食堂（久米川）","province":"東京都","city":"東村山市","address":"東京都東村山市美住町1丁目19-10","lat":35.75042437,"lon":139.45880928},{"name":"子どもたちのお弁当屋さん","province":"東京都","city":"東村山市","address":"東京都東村山市富士見町2丁目19-23","lat":35.7372534,"lon":139.45070223},{"name":"恩多こども食堂","province":"東京都","city":"東村山市","address":"東京都東村山市恩多町3丁目3-22","lat":35.753233,"lon":139.47909623},{"name":"東村山市立廻田公民館","province":"東京都","city":"東村山市","address":"東村山市廻田町4-19-1","lat":35.759617,"lon":139.452087},{"name":"東村山市立秋津公民館","province":"東京都","city":"東村山市","address":"東村山市秋津町2-17-10","lat":35.770851,"lon":139.486847},{"name":"東村山市立中央公民館","province":"東京都","city":"東村山市","address":"東村山市本町2-33-2","lat":35.759972,"lon":139.466721},{"name":"東村山市立萩山公民館","province":"東京都","city":"東村山市","address":"東村山市萩山町2-13-1","lat":35.741993,"lon":139.478363},{"name":"東村山市立富士見公民館","province":"東京都","city":"東村山市","address":"東村山市富士見町5-4-51","lat":35.748219,"lon":139.456573},{"name":"東村山市立廻田図書館","province":"東京都","city":"東村山市","address":"東村山市廻田町4-19-1","lat":35.759617,"lon":139.452087},{"name":"東村山市立秋津図書館","province":"東京都","city":"東村山市","address":"東村山市秋津町2-17-10","lat":35.770851,"lon":139.486847},{"name":"東村山市立中央図書館","province":"東京都","city":"東村山市","address":"東村山市本町1-1-10","lat":35.755348,"lon":139.46788},{"name":"東村山市立萩山図書館","province":"東京都","city":"東村山市","address":"東村山市萩山町2-13-1","lat":35.741993,"lon":139.478363},{"name":"東村山市立富士見図書館","province":"東京都","city":"東村山市","address":"東村山市富士見町1-7-35","lat":35.743481,"lon":139.459763},{"name":"東村山ふるさと歴史館","province":"東京都","city":"東村山市","address":"東村山市諏訪町1-6-3","lat":35.766373,"lon":139.465363},{"name":"八国山たいけんの里","province":"東京都","city":"東村山市","address":"東村山市野口町3-48-1","lat":35.76627,"lon":139.454498},{"name":"長坂式典センター","province":"東京都","city":"東村山市","address":"東京都東村山市本町2丁目19-36","lat":35.75973473,"lon":139.46753035},{"name":"ベルホール三光商会","province":"東京都","city":"東村山市","address":"東京都東村山市恩多町2丁目41-3","lat":35.74664228,"lon":139.48623476},{"name":"メモリアルアートの大野屋","province":"東京都","city":"東村山市","address":"東京都東村山市萩山町1丁目19-2","lat":35.73911534,"lon":139.48567125},{"name":"愛和葬祭","province":"東京都","city":"東村山市","address":"東京都東村山市秋津町3丁目5-8","lat":35.77351681,"lon":139.47999277},{"name":"しんせいどう","province":"東京都","city":"東村山市","address":"東京都東村山市青葉町2丁目1-63","lat":35.76059629,"lon":139.48833404},{"name":"彩花","province":"東京都","city":"東村山市","address":"東京都東村山市青葉町2丁目28-5","lat":35.7628517,"lon":139.49251419},{"name":"まちの縁側本町　夕ぐれ食堂","province":"東京都","city":"東村山市","address":"東京都東村山市本町4丁目1-8","lat":35.75253003,"lon":139.46967488},{"name":"子ども食堂　リコード","province":"東京都","city":"東村山市","address":"東京都東村山市本町3丁目9-40","lat":35.75852665,"lon":139.47114118},{"name":"ふれあいこども食堂あおば","province":"東京都","city":"東村山市","address":"東京都東村山市青葉町2丁目25-66","lat":35.76190178,"lon":139.49118376},{"name":"ふれあいこども食堂","province":"東京都","city":"東村山市","address":"東京都東村山市栄町1丁目1-18","lat":35.75056089,"lon":139.47198587},{"name":"にちよう食堂","province":"東京都","city":"東村山市","address":"東京都東村山市栄町1丁目29-34","lat":35.75251075,"lon":139.47501885},{"name":"おひさま食堂","province":"東京都","city":"東村山市","address":"東京都東村山市富士見町5丁目1-93","lat":35.7450057,"lon":139.46432568},{"name":"万福食堂","province":"東京都","city":"東村山市","address":"東京都東村山市廻田町3丁目12-6","lat":35.75761762,"lon":139.44732947},{"name":"東村山地域食堂ふたば","province":"東京都","city":"東村山市","address":"東京都東村山市野口町1丁目15-5","lat":35.76157604,"lon":139.46296959},{"name":"SOMPO流　子ども食堂（八坂）","province":"東京都","city":"東村山市","address":"東京都東村山市栄町3丁目23-1","lat":35.74535292,"lon":139.46513116},{"name":"SOMPO流　子ども食堂（萩山）","province":"東京都","city":"東村山市","address":"東京都東村山市萩山町2丁目9-46","lat":35.7402039,"lon":139.47823297},{"name":"SOMPO流　子ども食堂（久米川）","province":"東京都","city":"東村山市","address":"東京都東村山市美住町1丁目19-10","lat":35.75042437,"lon":139.45880928},{"name":"子どもたちのお弁当屋さん","province":"東京都","city":"東村山市","address":"東京都東村山市富士見町2丁目19-23","lat":35.7372534,"lon":139.45070223},{"name":"恩多こども食堂","province":"東京都","city":"東村山市","address":"東京都東村山市恩多町3丁目3-22","lat":35.753233,"lon":139.47909623},{"name":"東村山市立廻田公民館","province":"東京都","city":"東村山市","address":"東村山市廻田町4-19-1","lat":35.759617,"lon":139.452087},{"name":"東村山市立秋津公民館","province":"東京都","city":"東村山市","address":"東村山市秋津町2-17-10","lat":35.770851,"lon":139.486847},{"name":"東村山市立中央公民館","province":"東京都","city":"東村山市","address":"東村山市本町2-33-2","lat":35.759972,"lon":139.466721},{"name":"東村山市立萩山公民館","province":"東京都","city":"東村山市","address":"東村山市萩山町2-13-1","lat":35.741993,"lon":139.478363},{"name":"東村山市立富士見公民館","province":"東京都","city":"東村山市","address":"東村山市富士見町5-4-51","lat":35.748219,"lon":139.456573},{"name":"東村山市立廻田図書館","province":"東京都","city":"東村山市","address":"東村山市廻田町4-19-1","lat":35.759617,"lon":139.452087},{"name":"東村山市立秋津図書館","province":"東京都","city":"東村山市","address":"東村山市秋津町2-17-10","lat":35.770851,"lon":139.486847},{"name":"東村山市立中央図書館","province":"東京都","city":"東村山市","address":"東村山市本町1-1-10","lat":35.755348,"lon":139.46788},{"name":"東村山市立萩山図書館","province":"東京都","city":"東村山市","address":"東村山市萩山町2-13-1","lat":35.741993,"lon":139.478363},{"name":"東村山市立富士見図書館","province":"東京都","city":"東村山市","address":"東村山市富士見町1-7-35","lat":35.743481,"lon":139.459763},{"name":"東村山ふるさと歴史館","province":"東京都","city":"東村山市","address":"東村山市諏訪町1-6-3","lat":35.766373,"lon":139.465363},{"name":"八国山たいけんの里","province":"東京都","city":"東村山市","address":"東村山市野口町3-48-1","lat":35.76627,"lon":139.454498},{"name":"長坂式典センター","province":"東京都","city":"東村山市","address":"東京都東村山市本町2丁目19-36","lat":35.75973473,"lon":139.46753035},{"name":"ベルホール三光商会","province":"東京都","city":"東村山市","address":"東京都東村山市恩多町2丁目41-3","lat":35.74664228,"lon":139.48623476},{"name":"メモリアルアートの大野屋","province":"東京都","city":"東村山市","address":"東京都東村山市萩山町1丁目19-2","lat":35.73911534,"lon":139.48567125},{"name":"愛和葬祭","province":"東京都","city":"東村山市","address":"東京都東村山市秋津町3丁目5-8","lat":35.77351681,"lon":139.47999277},{"name":"しんせいどう","province":"東京都","city":"東村山市","address":"東京都東村山市青葉町2丁目1-63","lat":35.76059629,"lon":139.48833404},{"name":"彩花","province":"東京都","city":"東村山市","address":"東京都東村山市青葉町2丁目28-5","lat":35.7628517,"lon":139.49251419},{"name":"まちの縁側本町　夕ぐれ食堂","province":"東京都","city":"東村山市","address":"東京都東村山市本町4丁目1-8","lat":35.75253003,"lon":139.46967488},{"name":"子ども食堂　リコード","province":"東京都","city":"東村山市","address":"東京都東村山市本町3丁目9-40","lat":35.75852665,"lon":139.47114118},{"name":"ふれあいこども食堂あおば","province":"東京都","city":"東村山市","address":"東京都東村山市青葉町2丁目25-66","lat":35.76190178,"lon":139.49118376},{"name":"ふれあいこども食堂","province":"東京都","city":"東村山市","address":"東京都東村山市栄町1丁目1-18","lat":35.75056089,"lon":139.47198587},{"name":"にちよう食堂","province":"東京都","city":"東村山市","address":"東京都東村山市栄町1丁目29-34","lat":35.75251075,"lon":139.47501885},{"name":"おひさま食堂","province":"東京都","city":"東村山市","address":"東京都東村山市富士見町5丁目1-93","lat":35.7450057,"lon":139.46432568},{"name":"万福食堂","province":"東京都","city":"東村山市","address":"東京都東村山市廻田町3丁目12-6","lat":35.75761762,"lon":139.44732947},{"name":"東村山地域食堂ふたば","province":"東京都","city":"東村山市","address":"東京都東村山市野口町1丁目15-5","lat":35.76157604,"lon":139.46296959},{"name":"SOMPO流　子ども食堂（八坂）","province":"東京都","city":"東村山市","address":"東京都東村山市栄町3丁目23-1","lat":35.74535292,"lon":139.46513116},{"name":"SOMPO流　子ども食堂（萩山）","province":"東京都","city":"東村山市","address":"東京都東村山市萩山町2丁目9-46","lat":35.7402039,"lon":139.47823297},{"name":"SOMPO流　子ども食堂（久米川）","province":"東京都","city":"東村山市","address":"東京都東村山市美住町1丁目19-10","lat":35.75042437,"lon":139.45880928},{"name":"子どもたちのお弁当屋さん","province":"東京都","city":"東村山市","address":"東京都東村山市富士見町2丁目19-23","lat":35.7372534,"lon":139.45070223},{"name":"恩多こども食堂","province":"東京都","city":"東村山市","address":"東京都東村山市恩多町3丁目3-22","lat":35.753233,"lon":139.47909623},{"name":"東村山市立廻田公民館","province":"東京都","city":"東村山市","address":"東村山市廻田町4-19-1","lat":35.759617,"lon":139.452087},{"name":"東村山市立秋津公民館","province":"東京都","city":"東村山市","address":"東村山市秋津町2-17-10","lat":35.770851,"lon":139.486847},{"name":"東村山市立中央公民館","province":"東京都","city":"東村山市","address":"東村山市本町2-33-2","lat":35.759972,"lon":139.466721},{"name":"東村山市立萩山公民館","province":"東京都","city":"東村山市","address":"東村山市萩山町2-13-1","lat":35.741993,"lon":139.478363},{"name":"東村山市立富士見公民館","province":"東京都","city":"東村山市","address":"東村山市富士見町5-4-51","lat":35.748219,"lon":139.456573},{"name":"東村山市立廻田図書館","province":"東京都","city":"東村山市","address":"東村山市廻田町4-19-1","lat":35.759617,"lon":139.452087},{"name":"東村山市立秋津図書館","province":"東京都","city":"東村山市","address":"東村山市秋津町2-17-10","lat":35.770851,"lon":139.486847},{"name":"東村山市立中央図書館","province":"東京都","city":"東村山市","address":"東村山市本町1-1-10","lat":35.755348,"lon":139.46788},{"name":"東村山市立萩山図書館","province":"東京都","city":"東村山市","address":"東村山市萩山町2-13-1","lat":35.741993,"lon":139.478363},{"name":"東村山市立富士見図書館","province":"東京都","city":"東村山市","address":"東村山市富士見町1-7-35","lat":35.743481,"lon":139.459763},{"name":"東村山ふるさと歴史館","province":"東京都","city":"東村山市","address":"東村山市諏訪町1-6-3","lat":35.766373,"lon":139.465363},{"name":"八国山たいけんの里","province":"東京都","city":"東村山市","address":"東村山市野口町3-48-1","lat":35.76627,"lon":139.454498},{"name":"長坂式典センター","province":"東京都","city":"東村山市","address":"東京都東村山市本町2丁目19-36","lat":35.75973473,"lon":139.46753035},{"name":"ベルホール三光商会","province":"東京都","city":"東村山市","address":"東京都東村山市恩多町2丁目41-3","lat":35.74664228,"lon":139.48623476},{"name":"メモリアルアートの大野屋","province":"東京都","city":"東村山市","address":"東京都東村山市萩山町1丁目19-2","lat":35.73911534,"lon":139.48567125},{"name":"愛和葬祭","province":"東京都","city":"東村山市","address":"東京都東村山市秋津町3丁目5-8","lat":35.77351681,"lon":139.47999277},{"name":"しんせいどう","province":"東京都","city":"東村山市","address":"東京都東村山市青葉町2丁目1-63","lat":35.76059629,"lon":139.48833404},{"name":"彩花","province":"東京都","city":"東村山市","address":"東京都東村山市青葉町2丁目28-5","lat":35.7628517,"lon":139.49251419},{"name":"まちの縁側本町　夕ぐれ食堂","province":"東京都","city":"東村山市","address":"東京都東村山市本町4丁目1-8","lat":35.75253003,"lon":139.46967488},{"name":"子ども食堂　リコード","province":"東京都","city":"東村山市","address":"東京都東村山市本町3丁目9-40","lat":35.75852665,"lon":139.47114118},{"name":"ふれあいこども食堂あおば","province":"東京都","city":"東村山市","address":"東京都東村山市青葉町2丁目25-66","lat":35.76190178,"lon":139.49118376},{"name":"ふれあいこども食堂","province":"東京都","city":"東村山市","address":"東京都東村山市栄町1丁目1-18","lat":35.75056089,"lon":139.47198587},{"name":"にちよう食堂","province":"東京都","city":"東村山市","address":"東京都東村山市栄町1丁目29-34","lat":35.75251075,"lon":139.47501885},{"name":"おひさま食堂","province":"東京都","city":"東村山市","address":"東京都東村山市富士見町5丁目1-93","lat":35.7450057,"lon":139.46432568},{"name":"万福食堂","province":"東京都","city":"東村山市","address":"東京都東村山市廻田町3丁目12-6","lat":35.75761762,"lon":139.44732947},{"name":"東村山地域食堂ふたば","province":"東京都","city":"東村山市","address":"東京都東村山市野口町1丁目15-5","lat":35.76157604,"lon":139.46296959},{"name":"SOMPO流　子ども食堂（八坂）","province":"東京都","city":"東村山市","address":"東京都東村山市栄町3丁目23-1","lat":35.74535292,"lon":139.46513116},{"name":"SOMPO流　子ども食堂（萩山）","province":"東京都","city":"東村山市","address":"東京都東村山市萩山町2丁目9-46","lat":35.7402039,"lon":139.47823297},{"name":"SOMPO流　子ども食堂（久米川）","province":"東京都","city":"東村山市","address":"東京都東村山市美住町1丁目19-10","lat":35.75042437,"lon":139.45880928},{"name":"子どもたちのお弁当屋さん","province":"東京都","city":"東村山市","address":"東京都東村山市富士見町2丁目19-23","lat":35.7372534,"lon":139.45070223},{"name":"恩多こども食堂","province":"東京都","city":"東村山市","address":"東京都東村山市恩多町3丁目3-22","lat":35.753233,"lon":139.47909623},{"name":"東村山市立廻田公民館","province":"東京都","city":"東村山市","address":"東村山市廻田町4-19-1","lat":35.759617,"lon":139.452087},{"name":"東村山市立秋津公民館","province":"東京都","city":"東村山市","address":"東村山市秋津町2-17-10","lat":35.770851,"lon":139.486847},{"name":"東村山市立中央公民館","province":"東京都","city":"東村山市","address":"東村山市本町2-33-2","lat":35.759972,"lon":139.466721},{"name":"東村山市立萩山公民館","province":"東京都","city":"東村山市","address":"東村山市萩山町2-13-1","lat":35.741993,"lon":139.478363},{"name":"東村山市立富士見公民館","province":"東京都","city":"東村山市","address":"東村山市富士見町5-4-51","lat":35.748219,"lon":139.456573},{"name":"東村山市立廻田図書館","province":"東京都","city":"東村山市","address":"東村山市廻田町4-19-1","lat":35.759617,"lon":139.452087},{"name":"東村山市立秋津図書館","province":"東京都","city":"東村山市","address":"東村山市秋津町2-17-10","lat":35.770851,"lon":139.486847},{"name":"東村山市立中央図書館","province":"東京都","city":"東村山市","address":"東村山市本町1-1-10","lat":35.755348,"lon":139.46788},{"name":"東村山市立萩山図書館","province":"東京都","city":"東村山市","address":"東村山市萩山町2-13-1","lat":35.741993,"lon":139.478363},{"name":"東村山市立富士見図書館","province":"東京都","city":"東村山市","address":"東村山市富士見町1-7-35","lat":35.743481,"lon":139.459763},{"name":"東村山ふるさと歴史館","province":"東京都","city":"東村山市","address":"東村山市諏訪町1-6-3","lat":35.766373,"lon":139.465363},{"name":"八国山たいけんの里","province":"東京都","city":"東村山市","address":"東村山市野口町3-48-1","lat":35.76627,"lon":139.454498},{"name":"長坂式典センター","province":"東京都","city":"東村山市","address":"東京都東村山市本町2丁目19-36","lat":35.75973473,"lon":139.46753035},{"name":"ベルホール三光商会","province":"東京都","city":"東村山市","address":"東京都東村山市恩多町2丁目41-3","lat":35.74664228,"lon":139.48623476},{"name":"メモリアルアートの大野屋","province":"東京都","city":"東村山市","address":"東京都東村山市萩山町1丁目19-2","lat":35.73911534,"lon":139.48567125},{"name":"愛和葬祭","province":"東京都","city":"東村山市","address":"東京都東村山市秋津町3丁目5-8","lat":35.77351681,"lon":139.47999277},{"name":"しんせいどう","province":"東京都","city":"東村山市","address":"東京都東村山市青葉町2丁目1-63","lat":35.76059629,"lon":139.48833404},{"name":"彩花","province":"東京都","city":"東村山市","address":"東京都東村山市青葉町2丁目28-5","lat":35.7628517,"lon":139.49251419},{"name":"まちの縁側本町　夕ぐれ食堂","province":"東京都","city":"東村山市","address":"東京都東村山市本町4丁目1-8","lat":35.75253003,"lon":139.46967488},{"name":"子ども食堂　リコード","province":"東京都","city":"東村山市","address":"東京都東村山市本町3丁目9-40","lat":35.75852665,"lon":139.47114118},{"name":"ふれあいこども食堂あおば","province":"東京都","city":"東村山市","address":"東京都東村山市青葉町2丁目25-66","lat":35.76190178,"lon":139.49118376},{"name":"ふれあいこども食堂","province":"東京都","city":"東村山市","address":"東京都東村山市栄町1丁目1-18","lat":35.75056089,"lon":139.47198587},{"name":"にちよう食堂","province":"東京都","city":"東村山市","address":"東京都東村山市栄町1丁目29-34","lat":35.75251075,"lon":139.47501885},{"name":"おひさま食堂","province":"東京都","city":"東村山市","address":"東京都東村山市富士見町5丁目1-93","lat":35.7450057,"lon":139.46432568},{"name":"万福食堂","province":"東京都","city":"東村山市","address":"東京都東村山市廻田町3丁目12-6","lat":35.75761762,"lon":139.44732947},{"name":"東村山地域食堂ふたば","province":"東京都","city":"東村山市","address":"東京都東村山市野口町1丁目15-5","lat":35.76157604,"lon":139.46296959},{"name":"SOMPO流　子ども食堂（八坂）","province":"東京都","city":"東村山市","address":"東京都東村山市栄町3丁目23-1","lat":35.74535292,"lon":139.46513116},{"name":"SOMPO流　子ども食堂（萩山）","province":"東京都","city":"東村山市","address":"東京都東村山市萩山町2丁目9-46","lat":35.7402039,"lon":139.47823297},{"name":"SOMPO流　子ども食堂（久米川）","province":"東京都","city":"東村山市","address":"東京都東村山市美住町1丁目19-10","lat":35.75042437,"lon":139.45880928},{"name":"子どもたちのお弁当屋さん","province":"東京都","city":"東村山市","address":"東京都東村山市富士見町2丁目19-23","lat":35.7372534,"lon":139.45070223},{"name":"恩多こども食堂","province":"東京都","city":"東村山市","address":"東京都東村山市恩多町3丁目3-22","lat":35.753233,"lon":139.47909623},{"name":"東村山市立廻田公民館","province":"東京都","city":"東村山市","address":"東村山市廻田町4-19-1","lat":35.759617,"lon":139.452087},{"name":"東村山市立秋津公民館","province":"東京都","city":"東村山市","address":"東村山市秋津町2-17-10","lat":35.770851,"lon":139.486847},{"name":"東村山市立中央公民館","province":"東京都","city":"東村山市","address":"東村山市本町2-33-2","lat":35.759972,"lon":139.466721},{"name":"東村山市立萩山公民館","province":"東京都","city":"東村山市","address":"東村山市萩山町2-13-1","lat":35.741993,"lon":139.478363},{"name":"東村山市立富士見公民館","province":"東京都","city":"東村山市","address":"東村山市富士見町5-4-51","lat":35.748219,"lon":139.456573},{"name":"東村山市立廻田図書館","province":"東京都","city":"東村山市","address":"東村山市廻田町4-19-1","lat":35.759617,"lon":139.452087},{"name":"東村山市立秋津図書館","province":"東京都","city":"東村山市","address":"東村山市秋津町2-17-10","lat":35.770851,"lon":139.486847},{"name":"東村山市立中央図書館","province":"東京都","city":"東村山市","address":"東村山市本町1-1-10","lat":35.755348,"lon":139.46788},{"name":"東村山市立萩山図書館","province":"東京都","city":"東村山市","address":"東村山市萩山町2-13-1","lat":35.741993,"lon":139.478363},{"name":"東村山市立富士見図書館","province":"東京都","city":"東村山市","address":"東村山市富士見町1-7-35","lat":35.743481,"lon":139.459763},{"name":"東村山ふるさと歴史館","province":"東京都","city":"東村山市","address":"東村山市諏訪町1-6-3","lat":35.766373,"lon":139.465363},{"name":"八国山たいけんの里","province":"東京都","city":"東村山市","address":"東村山市野口町3-48-1","lat":35.76627,"lon":139.454498},{"name":"長坂式典センター","province":"東京都","city":"東村山市","address":"東京都東村山市本町2丁目19-36","lat":35.75973473,"lon":139.46753035},{"name":"ベルホール三光商会","province":"東京都","city":"東村山市","address":"東京都東村山市恩多町2丁目41-3","lat":35.74664228,"lon":139.48623476},{"name":"メモリアルアートの大野屋","province":"東京都","city":"東村山市","address":"東京都東村山市萩山町1丁目19-2","lat":35.73911534,"lon":139.48567125},{"name":"愛和葬祭","province":"東京都","city":"東村山市","address":"東京都東村山市秋津町3丁目5-8","lat":35.77351681,"lon":139.47999277},{"name":"しんせいどう","province":"東京都","city":"東村山市","address":"東京都東村山市青葉町2丁目1-63","lat":35.76059629,"lon":139.48833404},{"name":"彩花","province":"東京都","city":"東村山市","address":"東京都東村山市青葉町2丁目28-5","lat":35.7628517,"lon":139.49251419},{"name":"まちの縁側本町　夕ぐれ食堂","province":"東京都","city":"東村山市","address":"東京都東村山市本町4丁目1-8","lat":35.75253003,"lon":139.46967488},{"name":"子ども食堂　リコード","province":"東京都","city":"東村山市","address":"東京都東村山市本町3丁目9-40","lat":35.75852665,"lon":139.47114118},{"name":"ふれあいこども食堂あおば","province":"東京都","city":"東村山市","address":"東京都東村山市青葉町2丁目25-66","lat":35.76190178,"lon":139.49118376},{"name":"ふれあいこども食堂","province":"東京都","city":"東村山市","address":"東京都東村山市栄町1丁目1-18","lat":35.75056089,"lon":139.47198587},{"name":"にちよう食堂","province":"東京都","city":"東村山市","address":"東京都東村山市栄町1丁目29-34","lat":35.75251075,"lon":139.47501885},{"name":"おひさま食堂","province":"東京都","city":"東村山市","address":"東京都東村山市富士見町5丁目1-93","lat":35.7450057,"lon":139.46432568},{"name":"万福食堂","province":"東京都","city":"東村山市","address":"東京都東村山市廻田町3丁目12-6","lat":35.75761762,"lon":139.44732947},{"name":"東村山地域食堂ふたば","province":"東京都","city":"東村山市","address":"東京都東村山市野口町1丁目15-5","lat":35.76157604,"lon":139.46296959},{"name":"SOMPO流　子ども食堂（八坂）","province":"東京都","city":"東村山市","address":"東京都東村山市栄町3丁目23-1","lat":35.74535292,"lon":139.46513116},{"name":"SOMPO流　子ども食堂（萩山）","province":"東京都","city":"東村山市","address":"東京都東村山市萩山町2丁目9-46","lat":35.7402039,"lon":139.47823297},{"name":"SOMPO流　子ども食堂（久米川）","province":"東京都","city":"東村山市","address":"東京都東村山市美住町1丁目19-10","lat":35.75042437,"lon":139.45880928},{"name":"子どもたちのお弁当屋さん","province":"東京都","city":"東村山市","address":"東京都東村山市富士見町2丁目19-23","lat":35.7372534,"lon":139.45070223},{"name":"恩多こども食堂","province":"東京都","city":"東村山市","address":"東京都東村山市恩多町3丁目3-22","lat":35.753233,"lon":139.47909623},{"name":"東村山市立廻田公民館","province":"東京都","city":"東村山市","address":"東村山市廻田町4-19-1","lat":35.759617,"lon":139.452087},{"name":"東村山市立秋津公民館","province":"東京都","city":"東村山市","address":"東村山市秋津町2-17-10","lat":35.770851,"lon":139.486847},{"name":"東村山市立中央公民館","province":"東京都","city":"東村山市","address":"東村山市本町2-33-2","lat":35.759972,"lon":139.466721},{"name":"東村山市立萩山公民館","province":"東京都","city":"東村山市","address":"東村山市萩山町2-13-1","lat":35.741993,"lon":139.478363},{"name":"東村山市立富士見公民館","province":"東京都","city":"東村山市","address":"東村山市富士見町5-4-51","lat":35.748219,"lon":139.456573},{"name":"東村山市立廻田図書館","province":"東京都","city":"東村山市","address":"東村山市廻田町4-19-1","lat":35.759617,"lon":139.452087},{"name":"東村山市立秋津図書館","province":"東京都","city":"東村山市","address":"東村山市秋津町2-17-10","lat":35.770851,"lon":139.486847},{"name":"東村山市立中央図書館","province":"東京都","city":"東村山市","address":"東村山市本町1-1-10","lat":35.755348,"lon":139.46788},{"name":"東村山市立萩山図書館","province":"東京都","city":"東村山市","address":"東村山市萩山町2-13-1","lat":35.741993,"lon":139.478363},{"name":"東村山市立富士見図書館","province":"東京都","city":"東村山市","address":"東村山市富士見町1-7-35","lat":35.743481,"lon":139.459763},{"name":"東村山ふるさと歴史館","province":"東京都","city":"東村山市","address":"東村山市諏訪町1-6-3","lat":35.766373,"lon":139.465363},{"name":"八国山たいけんの里","province":"東京都","city":"東村山市","address":"東村山市野口町3-48-1","lat":35.76627,"lon":139.454498},{"name":"長坂式典センター","province":"東京都","city":"東村山市","address":"東京都東村山市本町2丁目19-36","lat":35.75973473,"lon":139.46753035},{"name":"ベルホール三光商会","province":"東京都","city":"東村山市","address":"東京都東村山市恩多町2丁目41-3","lat":35.74664228,"lon":139.48623476},{"name":"メモリアルアートの大野屋","province":"東京都","city":"東村山市","address":"東京都東村山市萩山町1丁目19-2","lat":35.73911534,"lon":139.48567125},{"name":"愛和葬祭","province":"東京都","city":"東村山市","address":"東京都東村山市秋津町3丁目5-8","lat":35.77351681,"lon":139.47999277},{"name":"しんせいどう","province":"東京都","city":"東村山市","address":"東京都東村山市青葉町2丁目1-63","lat":35.76059629,"lon":139.48833404},{"name":"彩花","province":"東京都","city":"東村山市","address":"東京都東村山市青葉町2丁目28-5","lat":35.7628517,"lon":139.49251419},{"name":"まちの縁側本町　夕ぐれ食堂","province":"東京都","city":"東村山市","address":"東京都東村山市本町4丁目1-8","lat":35.75253003,"lon":139.46967488},{"name":"子ども食堂　リコード","province":"東京都","city":"東村山市","address":"東京都東村山市本町3丁目9-40","lat":35.75852665,"lon":139.47114118},{"name":"ふれあいこども食堂あおば","province":"東京都","city":"東村山市","address":"東京都東村山市青葉町2丁目25-66","lat":35.76190178,"lon":139.49118376},{"name":"ふれあいこども食堂","province":"東京都","city":"東村山市","address":"東京都東村山市栄町1丁目1-18","lat":35.75056089,"lon":139.47198587},{"name":"にちよう食堂","province":"東京都","city":"東村山市","address":"東京都東村山市栄町1丁目29-34","lat":35.75251075,"lon":139.47501885},{"name":"おひさま食堂","province":"東京都","city":"東村山市","address":"東京都東村山市富士見町5丁目1-93","lat":35.7450057,"lon":139.46432568},{"name":"万福食堂","province":"東京都","city":"東村山市","address":"東京都東村山市廻田町3丁目12-6","lat":35.75761762,"lon":139.44732947},{"name":"東村山地域食堂ふたば","province":"東京都","city":"東村山市","address":"東京都東村山市野口町1丁目15-5","lat":35.76157604,"lon":139.46296959},{"name":"SOMPO流　子ども食堂（八坂）","province":"東京都","city":"東村山市","address":"東京都東村山市栄町3丁目23-1","lat":35.74535292,"lon":139.46513116},{"name":"SOMPO流　子ども食堂（萩山）","province":"東京都","city":"東村山市","address":"東京都東村山市萩山町2丁目9-46","lat":35.7402039,"lon":139.47823297},{"name":"SOMPO流　子ども食堂（久米川）","province":"東京都","city":"東村山市","address":"東京都東村山市美住町1丁目19-10","lat":35.75042437,"lon":139.45880928},{"name":"子どもたちのお弁当屋さん","province":"東京都","city":"東村山市","address":"東京都東村山市富士見町2丁目19-23","lat":35.7372534,"lon":139.45070223},{"name":"恩多こども食堂","province":"東京都","city":"東村山市","address":"東京都東村山市恩多町3丁目3-22","lat":35.753233,"lon":139.47909623},{"name":"東村山市立廻田公民館","province":"東京都","city":"東村山市","address":"東村山市廻田町4-19-1","lat":35.759617,"lon":139.452087},{"name":"東村山市立秋津公民館","province":"東京都","city":"東村山市","address":"東村山市秋津町2-17-10","lat":35.770851,"lon":139.486847},{"name":"東村山市立中央公民館","province":"東京都","city":"東村山市","address":"東村山市本町2-33-2","lat":35.759972,"lon":139.466721},{"name":"東村山市立萩山公民館","province":"東京都","city":"東村山市","address":"東村山市萩山町2-13-1","lat":35.741993,"lon":139.478363},{"name":"東村山市立富士見公民館","province":"東京都","city":"東村山市","address":"東村山市富士見町5-4-51","lat":35.748219,"lon":139.456573},{"name":"東村山市立廻田図書館","province":"東京都","city":"東村山市","address":"東村山市廻田町4-19-1","lat":35.759617,"lon":139.452087},{"name":"東村山市立秋津図書館","province":"東京都","city":"東村山市","address":"東村山市秋津町2-17-10","lat":35.770851,"lon":139.486847},{"name":"東村山市立中央図書館","province":"東京都","city":"東村山市","address":"東村山市本町1-1-10","lat":35.755348,"lon":139.46788},{"name":"東村山市立萩山図書館","province":"東京都","city":"東村山市","address":"東村山市萩山町2-13-1","lat":35.741993,"lon":139.478363},{"name":"東村山市立富士見図書館","province":"東京都","city":"東村山市","address":"東村山市富士見町1-7-35","lat":35.743481,"lon":139.459763},{"name":"東村山ふるさと歴史館","province":"東京都","city":"東村山市","address":"東村山市諏訪町1-6-3","lat":35.766373,"lon":139.465363},{"name":"八国山たいけんの里","province":"東京都","city":"東村山市","address":"東村山市野口町3-48-1","lat":35.76627,"lon":139.454498},{"name":"長坂式典センター","province":"東京都","city":"東村山市","address":"東京都東村山市本町2丁目19-36","lat":35.75973473,"lon":139.46753035},{"name":"ベルホール三光商会","province":"東京都","city":"東村山市","address":"東京都東村山市恩多町2丁目41-3","lat":35.74664228,"lon":139.48623476},{"name":"メモリアルアートの大野屋","province":"東京都","city":"東村山市","address":"東京都東村山市萩山町1丁目19-2","lat":35.73911534,"lon":139.48567125},{"name":"愛和葬祭","province":"東京都","city":"東村山市","address":"東京都東村山市秋津町3丁目5-8","lat":35.77351681,"lon":139.47999277},{"name":"しんせいどう","province":"東京都","city":"東村山市","address":"東京都東村山市青葉町2丁目1-63","lat":35.76059629,"lon":139.48833404},{"name":"彩花","province":"東京都","city":"東村山市","address":"東京都東村山市青葉町2丁目28-5","lat":35.7628517,"lon":139.49251419},{"name":"まちの縁側本町　夕ぐれ食堂","province":"東京都","city":"東村山市","address":"東京都東村山市本町4丁目1-8","lat":35.75253003,"lon":139.46967488},{"name":"子ども食堂　リコード","province":"東京都","city":"東村山市","address":"東京都東村山市本町3丁目9-40","lat":35.75852665,"lon":139.47114118},{"name":"ふれあいこども食堂あおば","province":"東京都","city":"東村山市","address":"東京都東村山市青葉町2丁目25-66","lat":35.76190178,"lon":139.49118376},{"name":"ふれあいこども食堂","province":"東京都","city":"東村山市","address":"東京都東村山市栄町1丁目1-18","lat":35.75056089,"lon":139.47198587},{"name":"にちよう食堂","province":"東京都","city":"東村山市","address":"東京都東村山市栄町1丁目29-34","lat":35.75251075,"lon":139.47501885},{"name":"おひさま食堂","province":"東京都","city":"東村山市","address":"東京都東村山市富士見町5丁目1-93","lat":35.7450057,"lon":139.46432568},{"name":"万福食堂","province":"東京都","city":"東村山市","address":"東京都東村山市廻田町3丁目12-6","lat":35.75761762,"lon":139.44732947},{"name":"東村山地域食堂ふたば","province":"東京都","city":"東村山市","address":"東京都東村山市野口町1丁目15-5","lat":35.76157604,"lon":139.46296959},{"name":"SOMPO流　子ども食堂（八坂）","province":"東京都","city":"東村山市","address":"東京都東村山市栄町3丁目23-1","lat":35.74535292,"lon":139.46513116},{"name":"SOMPO流　子ども食堂（萩山）","province":"東京都","city":"東村山市","address":"東京都東村山市萩山町2丁目9-46","lat":35.7402039,"lon":139.47823297},{"name":"SOMPO流　子ども食堂（久米川）","province":"東京都","city":"東村山市","address":"東京都東村山市美住町1丁目19-10","lat":35.75042437,"lon":139.45880928},{"name":"子どもたちのお弁当屋さん","province":"東京都","city":"東村山市","address":"東京都東村山市富士見町2丁目19-23","lat":35.7372534,"lon":139.45070223},{"name":"恩多こども食堂","province":"東京都","city":"東村山市","address":"東京都東村山市恩多町3丁目3-22","lat":35.753233,"lon":139.47909623},{"name":"東村山市立廻田公民館","province":"東京都","city":"東村山市","address":"東村山市廻田町4-19-1","lat":35.759617,"lon":139.452087},{"name":"東村山市立秋津公民館","province":"東京都","city":"東村山市","address":"東村山市秋津町2-17-10","lat":35.770851,"lon":139.486847},{"name":"東村山市立中央公民館","province":"東京都","city":"東村山市","address":"東村山市本町2-33-2","lat":35.759972,"lon":139.466721},{"name":"東村山市立萩山公民館","province":"東京都","city":"東村山市","address":"東村山市萩山町2-13-1","lat":35.741993,"lon":139.478363},{"name":"東村山市立富士見公民館","province":"東京都","city":"東村山市","address":"東村山市富士見町5-4-51","lat":35.748219,"lon":139.456573},{"name":"東村山市立廻田図書館","province":"東京都","city":"東村山市","address":"東村山市廻田町4-19-1","lat":35.759617,"lon":139.452087},{"name":"東村山市立秋津図書館","province":"東京都","city":"東村山市","address":"東村山市秋津町2-17-10","lat":35.770851,"lon":139.486847},{"name":"東村山市立中央図書館","province":"東京都","city":"東村山市","address":"東村山市本町1-1-10","lat":35.755348,"lon":139.46788},{"name":"東村山市立萩山図書館","province":"東京都","city":"東村山市","address":"東村山市萩山町2-13-1","lat":35.741993,"lon":139.478363},{"name":"東村山市立富士見図書館","province":"東京都","city":"東村山市","address":"東村山市富士見町1-7-35","lat":35.743481,"lon":139.459763},{"name":"東村山ふるさと歴史館","province":"東京都","city":"東村山市","address":"東村山市諏訪町1-6-3","lat":35.766373,"lon":139.465363},{"name":"八国山たいけんの里","province":"東京都","city":"東村山市","address":"東村山市野口町3-48-1","lat":35.76627,"lon":139.454498},{"name":"長坂式典センター","province":"東京都","city":"東村山市","address":"東京都東村山市本町2丁目19-36","lat":35.75973473,"lon":139.46753035},{"name":"ベルホール三光商会","province":"東京都","city":"東村山市","address":"東京都東村山市恩多町2丁目41-3","lat":35.74664228,"lon":139.48623476},{"name":"メモリアルアートの大野屋","province":"東京都","city":"東村山市","address":"東京都東村山市萩山町1丁目19-2","lat":35.73911534,"lon":139.48567125},{"name":"愛和葬祭","province":"東京都","city":"東村山市","address":"東京都東村山市秋津町3丁目5-8","lat":35.77351681,"lon":139.47999277},{"name":"しんせいどう","province":"東京都","city":"東村山市","address":"東京都東村山市青葉町2丁目1-63","lat":35.76059629,"lon":139.48833404},{"name":"彩花","province":"東京都","city":"東村山市","address":"東京都東村山市青葉町2丁目28-5","lat":35.7628517,"lon":139.49251419},{"name":"まちの縁側本町　夕ぐれ食堂","province":"東京都","city":"東村山市","address":"東京都東村山市本町4丁目1-8","lat":35.75253003,"lon":139.46967488},{"name":"子ども食堂　リコード","province":"東京都","city":"東村山市","address":"東京都東村山市本町3丁目9-40","lat":35.75852665,"lon":139.47114118},{"name":"ふれあいこども食堂あおば","province":"東京都","city":"東村山市","address":"東京都東村山市青葉町2丁目25-66","lat":35.76190178,"lon":139.49118376},{"name":"ふれあいこども食堂","province":"東京都","city":"東村山市","address":"東京都東村山市栄町1丁目1-18","lat":35.75056089,"lon":139.47198587},{"name":"にちよう食堂","province":"東京都","city":"東村山市","address":"東京都東村山市栄町1丁目29-34","lat":35.75251075,"lon":139.47501885},{"name":"おひさま食堂","province":"東京都","city":"東村山市","address":"東京都東村山市富士見町5丁目1-93","lat":35.7450057,"lon":139.46432568},{"name":"万福食堂","province":"東京都","city":"東村山市","address":"東京都東村山市廻田町3丁目12-6","lat":35.75761762,"lon":139.44732947},{"name":"東村山地域食堂ふたば","province":"東京都","city":"東村山市","address":"東京都東村山市野口町1丁目15-5","lat":35.76157604,"lon":139.46296959},{"name":"SOMPO流　子ども食堂（八坂）","province":"東京都","city":"東村山市","address":"東京都東村山市栄町3丁目23-1","lat":35.74535292,"lon":139.46513116},{"name":"SOMPO流　子ども食堂（萩山）","province":"東京都","city":"東村山市","address":"東京都東村山市萩山町2丁目9-46","lat":35.7402039,"lon":139.47823297},{"name":"SOMPO流　子ども食堂（久米川）","province":"東京都","city":"東村山市","address":"東京都東村山市美住町1丁目19-10","lat":35.75042437,"lon":139.45880928},{"name":"子どもたちのお弁当屋さん","province":"東京都","city":"東村山市","address":"東京都東村山市富士見町2丁目19-23","lat":35.7372534,"lon":139.45070223},{"name":"恩多こども食堂","province":"東京都","city":"東村山市","address":"東京都東村山市恩多町3丁目3-22","lat":35.753233,"lon":139.47909623},{"name":"東村山市立廻田公民館","province":"東京都","city":"東村山市","address":"東村山市廻田町4-19-1","lat":35.759617,"lon":139.452087},{"name":"東村山市立秋津公民館","province":"東京都","city":"東村山市","address":"東村山市秋津町2-17-10","lat":35.770851,"lon":139.486847},{"name":"東村山市立中央公民館","province":"東京都","city":"東村山市","address":"東村山市本町2-33-2","lat":35.759972,"lon":139.466721},{"name":"東村山市立萩山公民館","province":"東京都","city":"東村山市","address":"東村山市萩山町2-13-1","lat":35.741993,"lon":139.478363},{"name":"東村山市立富士見公民館","province":"東京都","city":"東村山市","address":"東村山市富士見町5-4-51","lat":35.748219,"lon":139.456573},{"name":"東村山市立廻田図書館","province":"東京都","city":"東村山市","address":"東村山市廻田町4-19-1","lat":35.759617,"lon":139.452087},{"name":"東村山市立秋津図書館","province":"東京都","city":"東村山市","address":"東村山市秋津町2-17-10","lat":35.770851,"lon":139.486847},{"name":"東村山市立中央図書館","province":"東京都","city":"東村山市","address":"東村山市本町1-1-10","lat":35.755348,"lon":139.46788},{"name":"東村山市立萩山図書館","province":"東京都","city":"東村山市","address":"東村山市萩山町2-13-1","lat":35.741993,"lon":139.478363},{"name":"東村山市立富士見図書館","province":"東京都","city":"東村山市","address":"東村山市富士見町1-7-35","lat":35.743481,"lon":139.459763},{"name":"東村山ふるさと歴史館","province":"東京都","city":"東村山市","address":"東村山市諏訪町1-6-3","lat":35.766373,"lon":139.465363},{"name":"八国山たいけんの里","province":"東京都","city":"東村山市","address":"東村山市野口町3-48-1","lat":35.76627,"lon":139.454498},{"name":"長坂式典センター","province":"東京都","city":"東村山市","address":"東京都東村山市本町2丁目19-36","lat":35.75973473,"lon":139.46753035},{"name":"ベルホール三光商会","province":"東京都","city":"東村山市","address":"東京都東村山市恩多町2丁目41-3","lat":35.74664228,"lon":139.48623476},{"name":"メモリアルアートの大野屋","province":"東京都","city":"東村山市","address":"東京都東村山市萩山町1丁目19-2","lat":35.73911534,"lon":139.48567125},{"name":"愛和葬祭","province":"東京都","city":"東村山市","address":"東京都東村山市秋津町3丁目5-8","lat":35.77351681,"lon":139.47999277},{"name":"しんせいどう","province":"東京都","city":"東村山市","address":"東京都東村山市青葉町2丁目1-63","lat":35.76059629,"lon":139.48833404},{"name":"彩花","province":"東京都","city":"東村山市","address":"東京都東村山市青葉町2丁目28-5","lat":35.7628517,"lon":139.49251419},{"name":"まちの縁側本町　夕ぐれ食堂","province":"東京都","city":"東村山市","address":"東京都東村山市本町4丁目1-8","lat":35.75253003,"lon":139.46967488},{"name":"子ども食堂　リコード","province":"東京都","city":"東村山市","address":"東京都東村山市本町3丁目9-40","lat":35.75852665,"lon":139.47114118},{"name":"ふれあいこども食堂あおば","province":"東京都","city":"東村山市","address":"東京都東村山市青葉町2丁目25-66","lat":35.76190178,"lon":139.49118376},{"name":"ふれあいこども食堂","province":"東京都","city":"東村山市","address":"東京都東村山市栄町1丁目1-18","lat":35.75056089,"lon":139.47198587},{"name":"にちよう食堂","province":"東京都","city":"東村山市","address":"東京都東村山市栄町1丁目29-34","lat":35.75251075,"lon":139.47501885},{"name":"おひさま食堂","province":"東京都","city":"東村山市","address":"東京都東村山市富士見町5丁目1-93","lat":35.7450057,"lon":139.46432568},{"name":"万福食堂","province":"東京都","city":"東村山市","address":"東京都東村山市廻田町3丁目12-6","lat":35.75761762,"lon":139.44732947},{"name":"東村山地域食堂ふたば","province":"東京都","city":"東村山市","address":"東京都東村山市野口町1丁目15-5","lat":35.76157604,"lon":139.46296959},{"name":"SOMPO流　子ども食堂（八坂）","province":"東京都","city":"東村山市","address":"東京都東村山市栄町3丁目23-1","lat":35.74535292,"lon":139.46513116},{"name":"SOMPO流　子ども食堂（萩山）","province":"東京都","city":"東村山市","address":"東京都東村山市萩山町2丁目9-46","lat":35.7402039,"lon":139.47823297},{"name":"SOMPO流　子ども食堂（久米川）","province":"東京都","city":"東村山市","address":"東京都東村山市美住町1丁目19-10","lat":35.75042437,"lon":139.45880928},{"name":"子どもたちのお弁当屋さん","province":"東京都","city":"東村山市","address":"東京都東村山市富士見町2丁目19-23","lat":35.7372534,"lon":139.45070223},{"name":"恩多こども食堂","province":"東京都","city":"東村山市","address":"東京都東村山市恩多町3丁目3-22","lat":35.753233,"lon":139.47909623},{"name":"東村山市立廻田公民館","province":"東京都","city":"東村山市","address":"東村山市廻田町4-19-1","lat":35.759617,"lon":139.452087},{"name":"東村山市立秋津公民館","province":"東京都","city":"東村山市","address":"東村山市秋津町2-17-10","lat":35.770851,"lon":139.486847},{"name":"東村山市立中央公民館","province":"東京都","city":"東村山市","address":"東村山市本町2-33-2","lat":35.759972,"lon":139.466721},{"name":"東村山市立萩山公民館","province":"東京都","city":"東村山市","address":"東村山市萩山町2-13-1","lat":35.741993,"lon":139.478363},{"name":"東村山市立富士見公民館","province":"東京都","city":"東村山市","address":"東村山市富士見町5-4-51","lat":35.748219,"lon":139.456573},{"name":"東村山市立廻田図書館","province":"東京都","city":"東村山市","address":"東村山市廻田町4-19-1","lat":35.759617,"lon":139.452087},{"name":"東村山市立秋津図書館","province":"東京都","city":"東村山市","address":"東村山市秋津町2-17-10","lat":35.770851,"lon":139.486847},{"name":"東村山市立中央図書館","province":"東京都","city":"東村山市","address":"東村山市本町1-1-10","lat":35.755348,"lon":139.46788},{"name":"東村山市立萩山図書館","province":"東京都","city":"東村山市","address":"東村山市萩山町2-13-1","lat":35.741993,"lon":139.478363},{"name":"東村山市立富士見図書館","province":"東京都","city":"東村山市","address":"東村山市富士見町1-7-35","lat":35.743481,"lon":139.459763},{"name":"東村山ふるさと歴史館","province":"東京都","city":"東村山市","address":"東村山市諏訪町1-6-3","lat":35.766373,"lon":139.465363},{"name":"八国山たいけんの里","province":"東京都","city":"東村山市","address":"東村山市野口町3-48-1","lat":35.76627,"lon":139.454498},{"name":"長坂式典センター","province":"東京都","city":"東村山市","address":"東京都東村山市本町2丁目19-36","lat":35.75973473,"lon":139.46753035},{"name":"ベルホール三光商会","province":"東京都","city":"東村山市","address":"東京都東村山市恩多町2丁目41-3","lat":35.74664228,"lon":139.48623476},{"name":"メモリアルアートの大野屋","province":"東京都","city":"東村山市","address":"東京都東村山市萩山町1丁目19-2","lat":35.73911534,"lon":139.48567125},{"name":"愛和葬祭","province":"東京都","city":"東村山市","address":"東京都東村山市秋津町3丁目5-8","lat":35.77351681,"lon":139.47999277},{"name":"しんせいどう","province":"東京都","city":"東村山市","address":"東京都東村山市青葉町2丁目1-63","lat":35.76059629,"lon":139.48833404},{"name":"彩花","province":"東京都","city":"東村山市","address":"東京都東村山市青葉町2丁目28-5","lat":35.7628517,"lon":139.49251419},{"name":"まちの縁側本町　夕ぐれ食堂","province":"東京都","city":"東村山市","address":"東京都東村山市本町4丁目1-8","lat":35.75253003,"lon":139.46967488},{"name":"子ども食堂　リコード","province":"東京都","city":"東村山市","address":"東京都東村山市本町3丁目9-40","lat":35.75852665,"lon":139.47114118},{"name":"ふれあいこども食堂あおば","province":"東京都","city":"東村山市","address":"東京都東村山市青葉町2丁目25-66","lat":35.76190178,"lon":139.49118376},{"name":"ふれあいこども食堂","province":"東京都","city":"東村山市","address":"東京都東村山市栄町1丁目1-18","lat":35.75056089,"lon":139.47198587},{"name":"にちよう食堂","province":"東京都","city":"東村山市","address":"東京都東村山市栄町1丁目29-34","lat":35.75251075,"lon":139.47501885},{"name":"おひさま食堂","province":"東京都","city":"東村山市","address":"東京都東村山市富士見町5丁目1-93","lat":35.7450057,"lon":139.46432568},{"name":"万福食堂","province":"東京都","city":"東村山市","address":"東京都東村山市廻田町3丁目12-6","lat":35.75761762,"lon":139.44732947},{"name":"東村山地域食堂ふたば","province":"東京都","city":"東村山市","address":"東京都東村山市野口町1丁目15-5","lat":35.76157604,"lon":139.46296959},{"name":"SOMPO流　子ども食堂（八坂）","province":"東京都","city":"東村山市","address":"東京都東村山市栄町3丁目23-1","lat":35.74535292,"lon":139.46513116},{"name":"SOMPO流　子ども食堂（萩山）","province":"東京都","city":"東村山市","address":"東京都東村山市萩山町2丁目9-46","lat":35.7402039,"lon":139.47823297},{"name":"SOMPO流　子ども食堂（久米川）","province":"東京都","city":"東村山市","address":"東京都東村山市美住町1丁目19-10","lat":35.75042437,"lon":139.45880928},{"name":"子どもたちのお弁当屋さん","province":"東京都","city":"東村山市","address":"東京都東村山市富士見町2丁目19-23","lat":35.7372534,"lon":139.45070223},{"name":"恩多こども食堂","province":"東京都","city":"東村山市","address":"東京都東村山市恩多町3丁目3-22","lat":35.753233,"lon":139.47909623},{"name":"東村山市立廻田公民館","province":"東京都","city":"東村山市","address":"東村山市廻田町4-19-1","lat":35.759617,"lon":139.452087},{"name":"東村山市立秋津公民館","province":"東京都","city":"東村山市","address":"東村山市秋津町2-17-10","lat":35.770851,"lon":139.486847},{"name":"東村山市立中央公民館","province":"東京都","city":"東村山市","address":"東村山市本町2-33-2","lat":35.759972,"lon":139.466721},{"name":"東村山市立萩山公民館","province":"東京都","city":"東村山市","address":"東村山市萩山町2-13-1","lat":35.741993,"lon":139.478363},{"name":"東村山市立富士見公民館","province":"東京都","city":"東村山市","address":"東村山市富士見町5-4-51","lat":35.748219,"lon":139.456573},{"name":"東村山市立廻田図書館","province":"東京都","city":"東村山市","address":"東村山市廻田町4-19-1","lat":35.759617,"lon":139.452087},{"name":"東村山市立秋津図書館","province":"東京都","city":"東村山市","address":"東村山市秋津町2-17-10","lat":35.770851,"lon":139.486847},{"name":"東村山市立中央図書館","province":"東京都","city":"東村山市","address":"東村山市本町1-1-10","lat":35.755348,"lon":139.46788},{"name":"東村山市立萩山図書館","province":"東京都","city":"東村山市","address":"東村山市萩山町2-13-1","lat":35.741993,"lon":139.478363},{"name":"東村山市立富士見図書館","province":"東京都","city":"東村山市","address":"東村山市富士見町1-7-35","lat":35.743481,"lon":139.459763},{"name":"東村山ふるさと歴史館","province":"東京都","city":"東村山市","address":"東村山市諏訪町1-6-3","lat":35.766373,"lon":139.465363},{"name":"八国山たいけんの里","province":"東京都","city":"東村山市","address":"東村山市野口町3-48-1","lat":35.76627,"lon":139.454498},{"name":"長坂式典センター","province":"東京都","city":"東村山市","address":"東京都東村山市本町2丁目19-36","lat":35.75973473,"lon":139.46753035},{"name":"ベルホール三光商会","province":"東京都","city":"東村山市","address":"東京都東村山市恩多町2丁目41-3","lat":35.74664228,"lon":139.48623476},{"name":"メモリアルアートの大野屋","province":"東京都","city":"東村山市","address":"東京都東村山市萩山町1丁目19-2","lat":35.73911534,"lon":139.48567125},{"name":"愛和葬祭","province":"東京都","city":"東村山市","address":"東京都東村山市秋津町3丁目5-8","lat":35.77351681,"lon":139.47999277},{"name":"しんせいどう","province":"東京都","city":"東村山市","address":"東京都東村山市青葉町2丁目1-63","lat":35.76059629,"lon":139.48833404},{"name":"彩花","province":"東京都","city":"東村山市","address":"東京都東村山市青葉町2丁目28-5","lat":35.7628517,"lon":139.49251419},{"name":"まちの縁側本町　夕ぐれ食堂","province":"東京都","city":"東村山市","address":"東京都東村山市本町4丁目1-8","lat":35.75253003,"lon":139.46967488},{"name":"子ども食堂　リコード","province":"東京都","city":"東村山市","address":"東京都東村山市本町3丁目9-40","lat":35.75852665,"lon":139.47114118},{"name":"ふれあいこども食堂あおば","province":"東京都","city":"東村山市","address":"東京都東村山市青葉町2丁目25-66","lat":35.76190178,"lon":139.49118376},{"name":"ふれあいこども食堂","province":"東京都","city":"東村山市","address":"東京都東村山市栄町1丁目1-18","lat":35.75056089,"lon":139.47198587},{"name":"にちよう食堂","province":"東京都","city":"東村山市","address":"東京都東村山市栄町1丁目29-34","lat":35.75251075,"lon":139.47501885},{"name":"おひさま食堂","province":"東京都","city":"東村山市","address":"東京都東村山市富士見町5丁目1-93","lat":35.7450057,"lon":139.46432568},{"name":"万福食堂","province":"東京都","city":"東村山市","address":"東京都東村山市廻田町3丁目12-6","lat":35.75761762,"lon":139.44732947},{"name":"東村山地域食堂ふたば","province":"東京都","city":"東村山市","address":"東京都東村山市野口町1丁目15-5","lat":35.76157604,"lon":139.46296959},{"name":"SOMPO流　子ども食堂（八坂）","province":"東京都","city":"東村山市","address":"東京都東村山市栄町3丁目23-1","lat":35.74535292,"lon":139.46513116},{"name":"SOMPO流　子ども食堂（萩山）","province":"東京都","city":"東村山市","address":"東京都東村山市萩山町2丁目9-46","lat":35.7402039,"lon":139.47823297},{"name":"SOMPO流　子ども食堂（久米川）","province":"東京都","city":"東村山市","address":"東京都東村山市美住町1丁目19-10","lat":35.75042437,"lon":139.45880928},{"name":"子どもたちのお弁当屋さん","province":"東京都","city":"東村山市","address":"東京都東村山市富士見町2丁目19-23","lat":35.7372534,"lon":139.45070223},{"name":"恩多こども食堂","province":"東京都","city":"東村山市","address":"東京都東村山市恩多町3丁目3-22","lat":35.753233,"lon":139.47909623},{"name":"東村山市立廻田公民館","province":"東京都","city":"東村山市","address":"東村山市廻田町4-19-1","lat":35.759617,"lon":139.452087},{"name":"東村山市立秋津公民館","province":"東京都","city":"東村山市","address":"東村山市秋津町2-17-10","lat":35.770851,"lon":139.486847},{"name":"東村山市立中央公民館","province":"東京都","city":"東村山市","address":"東村山市本町2-33-2","lat":35.759972,"lon":139.466721},{"name":"東村山市立萩山公民館","province":"東京都","city":"東村山市","address":"東村山市萩山町2-13-1","lat":35.741993,"lon":139.478363},{"name":"東村山市立富士見公民館","province":"東京都","city":"東村山市","address":"東村山市富士見町5-4-51","lat":35.748219,"lon":139.456573},{"name":"東村山市立廻田図書館","province":"東京都","city":"東村山市","address":"東村山市廻田町4-19-1","lat":35.759617,"lon":139.452087},{"name":"東村山市立秋津図書館","province":"東京都","city":"東村山市","address":"東村山市秋津町2-17-10","lat":35.770851,"lon":139.486847},{"name":"東村山市立中央図書館","province":"東京都","city":"東村山市","address":"東村山市本町1-1-10","lat":35.755348,"lon":139.46788},{"name":"東村山市立萩山図書館","province":"東京都","city":"東村山市","address":"東村山市萩山町2-13-1","lat":35.741993,"lon":139.478363},{"name":"東村山市立富士見図書館","province":"東京都","city":"東村山市","address":"東村山市富士見町1-7-35","lat":35.743481,"lon":139.459763},{"name":"東村山ふるさと歴史館","province":"東京都","city":"東村山市","address":"東村山市諏訪町1-6-3","lat":35.766373,"lon":139.465363},{"name":"八国山たいけんの里","province":"東京都","city":"東村山市","address":"東村山市野口町3-48-1","lat":35.76627,"lon":139.454498},{"name":"長坂式典センター","province":"東京都","city":"東村山市","address":"東京都東村山市本町2丁目19-36","lat":35.75973473,"lon":139.46753035},{"name":"ベルホール三光商会","province":"東京都","city":"東村山市","address":"東京都東村山市恩多町2丁目41-3","lat":35.74664228,"lon":139.48623476},{"name":"メモリアルアートの大野屋","province":"東京都","city":"東村山市","address":"東京都東村山市萩山町1丁目19-2","lat":35.73911534,"lon":139.48567125},{"name":"愛和葬祭","province":"東京都","city":"東村山市","address":"東京都東村山市秋津町3丁目5-8","lat":35.77351681,"lon":139.47999277},{"name":"しんせいどう","province":"東京都","city":"東村山市","address":"東京都東村山市青葉町2丁目1-63","lat":35.76059629,"lon":139.48833404},{"name":"彩花","province":"東京都","city":"東村山市","address":"東京都東村山市青葉町2丁目28-5","lat":35.7628517,"lon":139.49251419},{"name":"まちの縁側本町　夕ぐれ食堂","province":"東京都","city":"東村山市","address":"東京都東村山市本町4丁目1-8","lat":35.75253003,"lon":139.46967488},{"name":"子ども食堂　リコード","province":"東京都","city":"東村山市","address":"東京都東村山市本町3丁目9-40","lat":35.75852665,"lon":139.47114118},{"name":"ふれあいこども食堂あおば","province":"東京都","city":"東村山市","address":"東京都東村山市青葉町2丁目25-66","lat":35.76190178,"lon":139.49118376},{"name":"ふれあいこども食堂","province":"東京都","city":"東村山市","address":"東京都東村山市栄町1丁目1-18","lat":35.75056089,"lon":139.47198587},{"name":"にちよう食堂","province":"東京都","city":"東村山市","address":"東京都東村山市栄町1丁目29-34","lat":35.75251075,"lon":139.47501885},{"name":"おひさま食堂","province":"東京都","city":"東村山市","address":"東京都東村山市富士見町5丁目1-93","lat":35.7450057,"lon":139.46432568},{"name":"万福食堂","province":"東京都","city":"東村山市","address":"東京都東村山市廻田町3丁目12-6","lat":35.75761762,"lon":139.44732947},{"name":"東村山地域食堂ふたば","province":"東京都","city":"東村山市","address":"東京都東村山市野口町1丁目15-5","lat":35.76157604,"lon":139.46296959},{"name":"SOMPO流　子ども食堂（八坂）","province":"東京都","city":"東村山市","address":"東京都東村山市栄町3丁目23-1","lat":35.74535292,"lon":139.46513116},{"name":"SOMPO流　子ども食堂（萩山）","province":"東京都","city":"東村山市","address":"東京都東村山市萩山町2丁目9-46","lat":35.7402039,"lon":139.47823297},{"name":"SOMPO流　子ども食堂（久米川）","province":"東京都","city":"東村山市","address":"東京都東村山市美住町1丁目19-10","lat":35.75042437,"lon":139.45880928},{"name":"子どもたちのお弁当屋さん","province":"東京都","city":"東村山市","address":"東京都東村山市富士見町2丁目19-23","lat":35.7372534,"lon":139.45070223},{"name":"恩多こども食堂","province":"東京都","city":"東村山市","address":"東京都東村山市恩多町3丁目3-22","lat":35.753233,"lon":139.47909623},{"name":"東村山市立廻田公民館","province":"東京都","city":"東村山市","address":"東村山市廻田町4-19-1","lat":35.759617,"lon":139.452087},{"name":"東村山市立秋津公民館","province":"東京都","city":"東村山市","address":"東村山市秋津町2-17-10","lat":35.770851,"lon":139.486847},{"name":"東村山市立中央公民館","province":"東京都","city":"東村山市","address":"東村山市本町2-33-2","lat":35.759972,"lon":139.466721},{"name":"東村山市立萩山公民館","province":"東京都","city":"東村山市","address":"東村山市萩山町2-13-1","lat":35.741993,"lon":139.478363},{"name":"東村山市立富士見公民館","province":"東京都","city":"東村山市","address":"東村山市富士見町5-4-51","lat":35.748219,"lon":139.456573},{"name":"東村山市立廻田図書館","province":"東京都","city":"東村山市","address":"東村山市廻田町4-19-1","lat":35.759617,"lon":139.452087},{"name":"東村山市立秋津図書館","province":"東京都","city":"東村山市","address":"東村山市秋津町2-17-10","lat":35.770851,"lon":139.486847},{"name":"東村山市立中央図書館","province":"東京都","city":"東村山市","address":"東村山市本町1-1-10","lat":35.755348,"lon":139.46788},{"name":"東村山市立萩山図書館","province":"東京都","city":"東村山市","address":"東村山市萩山町2-13-1","lat":35.741993,"lon":139.478363},{"name":"東村山市立富士見図書館","province":"東京都","city":"東村山市","address":"東村山市富士見町1-7-35","lat":35.743481,"lon":139.459763},{"name":"東村山ふるさと歴史館","province":"東京都","city":"東村山市","address":"東村山市諏訪町1-6-3","lat":35.766373,"lon":139.465363},{"name":"八国山たいけんの里","province":"東京都","city":"東村山市","address":"東村山市野口町3-48-1","lat":35.76627,"lon":139.454498},{"name":"長坂式典センター","province":"東京都","city":"東村山市","address":"東京都東村山市本町2丁目19-36","lat":35.75973473,"lon":139.46753035},{"name":"ベルホール三光商会","province":"東京都","city":"東村山市","address":"東京都東村山市恩多町2丁目41-3","lat":35.74664228,"lon":139.48623476},{"name":"メモリアルアートの大野屋","province":"東京都","city":"東村山市","address":"東京都東村山市萩山町1丁目19-2","lat":35.73911534,"lon":139.48567125},{"name":"愛和葬祭","province":"東京都","city":"東村山市","address":"東京都東村山市秋津町3丁目5-8","lat":35.77351681,"lon":139.47999277},{"name":"しんせいどう","province":"東京都","city":"東村山市","address":"東京都東村山市青葉町2丁目1-63","lat":35.76059629,"lon":139.48833404},{"name":"彩花","province":"東京都","city":"東村山市","address":"東京都東村山市青葉町2丁目28-5","lat":35.7628517,"lon":139.49251419},{"name":"まちの縁側本町　夕ぐれ食堂","province":"東京都","city":"東村山市","address":"東京都東村山市本町4丁目1-8","lat":35.75253003,"lon":139.46967488},{"name":"子ども食堂　リコード","province":"東京都","city":"東村山市","address":"東京都東村山市本町3丁目9-40","lat":35.75852665,"lon":139.47114118},{"name":"ふれあいこども食堂あおば","province":"東京都","city":"東村山市","address":"東京都東村山市青葉町2丁目25-66","lat":35.76190178,"lon":139.49118376},{"name":"ふれあいこども食堂","province":"東京都","city":"東村山市","address":"東京都東村山市栄町1丁目1-18","lat":35.75056089,"lon":139.47198587},{"name":"にちよう食堂","province":"東京都","city":"東村山市","address":"東京都東村山市栄町1丁目29-34","lat":35.75251075,"lon":139.47501885},{"name":"おひさま食堂","province":"東京都","city":"東村山市","address":"東京都東村山市富士見町5丁目1-93","lat":35.7450057,"lon":139.46432568},{"name":"万福食堂","province":"東京都","city":"東村山市","address":"東京都東村山市廻田町3丁目12-6","lat":35.75761762,"lon":139.44732947},{"name":"東村山地域食堂ふたば","province":"東京都","city":"東村山市","address":"東京都東村山市野口町1丁目15-5","lat":35.76157604,"lon":139.46296959},{"name":"SOMPO流　子ども食堂（八坂）","province":"東京都","city":"東村山市","address":"東京都東村山市栄町3丁目23-1","lat":35.74535292,"lon":139.46513116},{"name":"SOMPO流　子ども食堂（萩山）","province":"東京都","city":"東村山市","address":"東京都東村山市萩山町2丁目9-46","lat":35.7402039,"lon":139.47823297},{"name":"SOMPO流　子ども食堂（久米川）","province":"東京都","city":"東村山市","address":"東京都東村山市美住町1丁目19-10","lat":35.75042437,"lon":139.45880928},{"name":"子どもたちのお弁当屋さん","province":"東京都","city":"東村山市","address":"東京都東村山市富士見町2丁目19-23","lat":35.7372534,"lon":139.45070223},{"name":"恩多こども食堂","province":"東京都","city":"東村山市","address":"東京都東村山市恩多町3丁目3-22","lat":35.753233,"lon":139.47909623},{"name":"東村山市立廻田公民館","province":"東京都","city":"東村山市","address":"東村山市廻田町4-19-1","lat":35.759617,"lon":139.452087},{"name":"東村山市立秋津公民館","province":"東京都","city":"東村山市","address":"東村山市秋津町2-17-10","lat":35.770851,"lon":139.486847},{"name":"東村山市立中央公民館","province":"東京都","city":"東村山市","address":"東村山市本町2-33-2","lat":35.759972,"lon":139.466721},{"name":"東村山市立萩山公民館","province":"東京都","city":"東村山市","address":"東村山市萩山町2-13-1","lat":35.741993,"lon":139.478363},{"name":"東村山市立富士見公民館","province":"東京都","city":"東村山市","address":"東村山市富士見町5-4-51","lat":35.748219,"lon":139.456573},{"name":"東村山市立廻田図書館","province":"東京都","city":"東村山市","address":"東村山市廻田町4-19-1","lat":35.759617,"lon":139.452087},{"name":"東村山市立秋津図書館","province":"東京都","city":"東村山市","address":"東村山市秋津町2-17-10","lat":35.770851,"lon":139.486847},{"name":"東村山市立中央図書館","province":"東京都","city":"東村山市","address":"東村山市本町1-1-10","lat":35.755348,"lon":139.46788},{"name":"東村山市立萩山図書館","province":"東京都","city":"東村山市","address":"東村山市萩山町2-13-1","lat":35.741993,"lon":139.478363},{"name":"東村山市立富士見図書館","province":"東京都","city":"東村山市","address":"東村山市富士見町1-7-35","lat":35.743481,"lon":139.459763},{"name":"東村山ふるさと歴史館","province":"東京都","city":"東村山市","address":"東村山市諏訪町1-6-3","lat":35.766373,"lon":139.465363},{"name":"八国山たいけんの里","province":"東京都","city":"東村山市","address":"東村山市野口町3-48-1","lat":35.76627,"lon":139.454498},{"name":"長坂式典センター","province":"東京都","city":"東村山市","address":"東京都東村山市本町2丁目19-36","lat":35.75973473,"lon":139.46753035},{"name":"ベルホール三光商会","province":"東京都","city":"東村山市","address":"東京都東村山市恩多町2丁目41-3","lat":35.74664228,"lon":139.48623476},{"name":"メモリアルアートの大野屋","province":"東京都","city":"東村山市","address":"東京都東村山市萩山町1丁目19-2","lat":35.73911534,"lon":139.48567125},{"name":"愛和葬祭","province":"東京都","city":"東村山市","address":"東京都東村山市秋津町3丁目5-8","lat":35.77351681,"lon":139.47999277},{"name":"しんせいどう","province":"東京都","city":"東村山市","address":"東京都東村山市青葉町2丁目1-63","lat":35.76059629,"lon":139.48833404},{"name":"彩花","province":"東京都","city":"東村山市","address":"東京都東村山市青葉町2丁目28-5","lat":35.7628517,"lon":139.49251419},{"name":"まちの縁側本町　夕ぐれ食堂","province":"東京都","city":"東村山市","address":"東京都東村山市本町4丁目1-8","lat":35.75253003,"lon":139.46967488},{"name":"子ども食堂　リコード","province":"東京都","city":"東村山市","address":"東京都東村山市本町3丁目9-40","lat":35.75852665,"lon":139.47114118},{"name":"ふれあいこども食堂あおば","province":"東京都","city":"東村山市","address":"東京都東村山市青葉町2丁目25-66","lat":35.76190178,"lon":139.49118376},{"name":"ふれあいこども食堂","province":"東京都","city":"東村山市","address":"東京都東村山市栄町1丁目1-18","lat":35.75056089,"lon":139.47198587},{"name":"にちよう食堂","province":"東京都","city":"東村山市","address":"東京都東村山市栄町1丁目29-34","lat":35.75251075,"lon":139.47501885},{"name":"おひさま食堂","province":"東京都","city":"東村山市","address":"東京都東村山市富士見町5丁目1-93","lat":35.7450057,"lon":139.46432568},{"name":"万福食堂","province":"東京都","city":"東村山市","address":"東京都東村山市廻田町3丁目12-6","lat":35.75761762,"lon":139.44732947},{"name":"東村山地域食堂ふたば","province":"東京都","city":"東村山市","address":"東京都東村山市野口町1丁目15-5","lat":35.76157604,"lon":139.46296959},{"name":"SOMPO流　子ども食堂（八坂）","province":"東京都","city":"東村山市","address":"東京都東村山市栄町3丁目23-1","lat":35.74535292,"lon":139.46513116},{"name":"SOMPO流　子ども食堂（萩山）","province":"東京都","city":"東村山市","address":"東京都東村山市萩山町2丁目9-46","lat":35.7402039,"lon":139.47823297},{"name":"SOMPO流　子ども食堂（久米川）","province":"東京都","city":"東村山市","address":"東京都東村山市美住町1丁目19-10","lat":35.75042437,"lon":139.45880928},{"name":"子どもたちのお弁当屋さん","province":"東京都","city":"東村山市","address":"東京都東村山市富士見町2丁目19-23","lat":35.7372534,"lon":139.45070223},{"name":"恩多こども食堂","province":"東京都","city":"東村山市","address":"東京都東村山市恩多町3丁目3-22","lat":35.753233,"lon":139.47909623},{"name":"東村山市立廻田公民館","province":"東京都","city":"東村山市","address":"東村山市廻田町4-19-1","lat":35.759617,"lon":139.452087},{"name":"東村山市立秋津公民館","province":"東京都","city":"東村山市","address":"東村山市秋津町2-17-10","lat":35.770851,"lon":139.486847},{"name":"東村山市立中央公民館","province":"東京都","city":"東村山市","address":"東村山市本町2-33-2","lat":35.759972,"lon":139.466721},{"name":"東村山市立萩山公民館","province":"東京都","city":"東村山市","address":"東村山市萩山町2-13-1","lat":35.741993,"lon":139.478363},{"name":"東村山市立富士見公民館","province":"東京都","city":"東村山市","address":"東村山市富士見町5-4-51","lat":35.748219,"lon":139.456573},{"name":"東村山市立廻田図書館","province":"東京都","city":"東村山市","address":"東村山市廻田町4-19-1","lat":35.759617,"lon":139.452087},{"name":"東村山市立秋津図書館","province":"東京都","city":"東村山市","address":"東村山市秋津町2-17-10","lat":35.770851,"lon":139.486847},{"name":"東村山市立中央図書館","province":"東京都","city":"東村山市","address":"東村山市本町1-1-10","lat":35.755348,"lon":139.46788},{"name":"東村山市立萩山図書館","province":"東京都","city":"東村山市","address":"東村山市萩山町2-13-1","lat":35.741993,"lon":139.478363},{"name":"東村山市立富士見図書館","province":"東京都","city":"東村山市","address":"東村山市富士見町1-7-35","lat":35.743481,"lon":139.459763},{"name":"東村山ふるさと歴史館","province":"東京都","city":"東村山市","address":"東村山市諏訪町1-6-3","lat":35.766373,"lon":139.465363},{"name":"八国山たいけんの里","province":"東京都","city":"東村山市","address":"東村山市野口町3-48-1","lat":35.76627,"lon":139.454498},{"name":"長坂式典センター","province":"東京都","city":"東村山市","address":"東京都東村山市本町2丁目19-36","lat":35.75973473,"lon":139.46753035},{"name":"ベルホール三光商会","province":"東京都","city":"東村山市","address":"東京都東村山市恩多町2丁目41-3","lat":35.74664228,"lon":139.48623476},{"name":"メモリアルアートの大野屋","province":"東京都","city":"東村山市","address":"東京都東村山市萩山町1丁目19-2","lat":35.73911534,"lon":139.48567125},{"name":"愛和葬祭","province":"東京都","city":"東村山市","address":"東京都東村山市秋津町3丁目5-8","lat":35.77351681,"lon":139.47999277},{"name":"しんせいどう","province":"東京都","city":"東村山市","address":"東京都東村山市青葉町2丁目1-63","lat":35.76059629,"lon":139.48833404},{"name":"彩花","province":"東京都","city":"東村山市","address":"東京都東村山市青葉町2丁目28-5","lat":35.7628517,"lon":139.49251419},{"name":"まちの縁側本町　夕ぐれ食堂","province":"東京都","city":"東村山市","address":"東京都東村山市本町4丁目1-8","lat":35.75253003,"lon":139.46967488},{"name":"子ども食堂　リコード","province":"東京都","city":"東村山市","address":"東京都東村山市本町3丁目9-40","lat":35.75852665,"lon":139.47114118},{"name":"ふれあいこども食堂あおば","province":"東京都","city":"東村山市","address":"東京都東村山市青葉町2丁目25-66","lat":35.76190178,"lon":139.49118376},{"name":"ふれあいこども食堂","province":"東京都","city":"東村山市","address":"東京都東村山市栄町1丁目1-18","lat":35.75056089,"lon":139.47198587},{"name":"にちよう食堂","province":"東京都","city":"東村山市","address":"東京都東村山市栄町1丁目29-34","lat":35.75251075,"lon":139.47501885},{"name":"おひさま食堂","province":"東京都","city":"東村山市","address":"東京都東村山市富士見町5丁目1-93","lat":35.7450057,"lon":139.46432568},{"name":"万福食堂","province":"東京都","city":"東村山市","address":"東京都東村山市廻田町3丁目12-6","lat":35.75761762,"lon":139.44732947},{"name":"東村山地域食堂ふたば","province":"東京都","city":"東村山市","address":"東京都東村山市野口町1丁目15-5","lat":35.76157604,"lon":139.46296959},{"name":"SOMPO流　子ども食堂（八坂）","province":"東京都","city":"東村山市","address":"東京都東村山市栄町3丁目23-1","lat":35.74535292,"lon":139.46513116},{"name":"SOMPO流　子ども食堂（萩山）","province":"東京都","city":"東村山市","address":"東京都東村山市萩山町2丁目9-46","lat":35.7402039,"lon":139.47823297},{"name":"SOMPO流　子ども食堂（久米川）","province":"東京都","city":"東村山市","address":"東京都東村山市美住町1丁目19-10","lat":35.75042437,"lon":139.45880928},{"name":"子どもたちのお弁当屋さん","province":"東京都","city":"東村山市","address":"東京都東村山市富士見町2丁目19-23","lat":35.7372534,"lon":139.45070223},{"name":"恩多こども食堂","province":"東京都","city":"東村山市","address":"東京都東村山市恩多町3丁目3-22","lat":35.753233,"lon":139.47909623},{"name":"東村山市立廻田公民館","province":"東京都","city":"東村山市","address":"東村山市廻田町4-19-1","lat":35.759617,"lon":139.452087},{"name":"東村山市立秋津公民館","province":"東京都","city":"東村山市","address":"東村山市秋津町2-17-10","lat":35.770851,"lon":139.486847},{"name":"東村山市立中央公民館","province":"東京都","city":"東村山市","address":"東村山市本町2-33-2","lat":35.759972,"lon":139.466721},{"name":"東村山市立萩山公民館","province":"東京都","city":"東村山市","address":"東村山市萩山町2-13-1","lat":35.741993,"lon":139.478363},{"name":"東村山市立富士見公民館","province":"東京都","city":"東村山市","address":"東村山市富士見町5-4-51","lat":35.748219,"lon":139.456573},{"name":"東村山市立廻田図書館","province":"東京都","city":"東村山市","address":"東村山市廻田町4-19-1","lat":35.759617,"lon":139.452087},{"name":"東村山市立秋津図書館","province":"東京都","city":"東村山市","address":"東村山市秋津町2-17-10","lat":35.770851,"lon":139.486847},{"name":"東村山市立中央図書館","province":"東京都","city":"東村山市","address":"東村山市本町1-1-10","lat":35.755348,"lon":139.46788},{"name":"東村山市立萩山図書館","province":"東京都","city":"東村山市","address":"東村山市萩山町2-13-1","lat":35.741993,"lon":139.478363},{"name":"東村山市立富士見図書館","province":"東京都","city":"東村山市","address":"東村山市富士見町1-7-35","lat":35.743481,"lon":139.459763},{"name":"東村山ふるさと歴史館","province":"東京都","city":"東村山市","address":"東村山市諏訪町1-6-3","lat":35.766373,"lon":139.465363},{"name":"八国山たいけんの里","province":"東京都","city":"東村山市","address":"東村山市野口町3-48-1","lat":35.76627,"lon":139.454498},{"name":"長坂式典センター","province":"東京都","city":"東村山市","address":"東京都東村山市本町2丁目19-36","lat":35.75973473,"lon":139.46753035},{"name":"ベルホール三光商会","province":"東京都","city":"東村山市","address":"東京都東村山市恩多町2丁目41-3","lat":35.74664228,"lon":139.48623476},{"name":"メモリアルアートの大野屋","province":"東京都","city":"東村山市","address":"東京都東村山市萩山町1丁目19-2","lat":35.73911534,"lon":139.48567125},{"name":"愛和葬祭","province":"東京都","city":"東村山市","address":"東京都東村山市秋津町3丁目5-8","lat":35.77351681,"lon":139.47999277},{"name":"しんせいどう","province":"東京都","city":"東村山市","address":"東京都東村山市青葉町2丁目1-63","lat":35.76059629,"lon":139.48833404},{"name":"彩花","province":"東京都","city":"東村山市","address":"東京都東村山市青葉町2丁目28-5","lat":35.7628517,"lon":139.49251419},{"name":"まちの縁側本町　夕ぐれ食堂","province":"東京都","city":"東村山市","address":"東京都東村山市本町4丁目1-8","lat":35.75253003,"lon":139.46967488},{"name":"子ども食堂　リコード","province":"東京都","city":"東村山市","address":"東京都東村山市本町3丁目9-40","lat":35.75852665,"lon":139.47114118},{"name":"ふれあいこども食堂あおば","province":"東京都","city":"東村山市","address":"東京都東村山市青葉町2丁目25-66","lat":35.76190178,"lon":139.49118376},{"name":"ふれあいこども食堂","province":"東京都","city":"東村山市","address":"東京都東村山市栄町1丁目1-18","lat":35.75056089,"lon":139.47198587},{"name":"にちよう食堂","province":"東京都","city":"東村山市","address":"東京都東村山市栄町1丁目29-34","lat":35.75251075,"lon":139.47501885},{"name":"おひさま食堂","province":"東京都","city":"東村山市","address":"東京都東村山市富士見町5丁目1-93","lat":35.7450057,"lon":139.46432568},{"name":"万福食堂","province":"東京都","city":"東村山市","address":"東京都東村山市廻田町3丁目12-6","lat":35.75761762,"lon":139.44732947},{"name":"東村山地域食堂ふたば","province":"東京都","city":"東村山市","address":"東京都東村山市野口町1丁目15-5","lat":35.76157604,"lon":139.46296959},{"name":"SOMPO流　子ども食堂（八坂）","province":"東京都","city":"東村山市","address":"東京都東村山市栄町3丁目23-1","lat":35.74535292,"lon":139.46513116},{"name":"SOMPO流　子ども食堂（萩山）","province":"東京都","city":"東村山市","address":"東京都東村山市萩山町2丁目9-46","lat":35.7402039,"lon":139.47823297},{"name":"SOMPO流　子ども食堂（久米川）","province":"東京都","city":"東村山市","address":"東京都東村山市美住町1丁目19-10","lat":35.75042437,"lon":139.45880928},{"name":"子どもたちのお弁当屋さん","province":"東京都","city":"東村山市","address":"東京都東村山市富士見町2丁目19-23","lat":35.7372534,"lon":139.45070223},{"name":"恩多こども食堂","province":"東京都","city":"東村山市","address":"東京都東村山市恩多町3丁目3-22","lat":35.753233,"lon":139.47909623},{"name":"東村山市立廻田公民館","province":"東京都","city":"東村山市","address":"東村山市廻田町4-19-1","lat":35.759617,"lon":139.452087},{"name":"東村山市立秋津公民館","province":"東京都","city":"東村山市","address":"東村山市秋津町2-17-10","lat":35.770851,"lon":139.486847},{"name":"東村山市立中央公民館","province":"東京都","city":"東村山市","address":"東村山市本町2-33-2","lat":35.759972,"lon":139.466721},{"name":"東村山市立萩山公民館","province":"東京都","city":"東村山市","address":"東村山市萩山町2-13-1","lat":35.741993,"lon":139.478363},{"name":"東村山市立富士見公民館","province":"東京都","city":"東村山市","address":"東村山市富士見町5-4-51","lat":35.748219,"lon":139.456573},{"name":"東村山市立廻田図書館","province":"東京都","city":"東村山市","address":"東村山市廻田町4-19-1","lat":35.759617,"lon":139.452087},{"name":"東村山市立秋津図書館","province":"東京都","city":"東村山市","address":"東村山市秋津町2-17-10","lat":35.770851,"lon":139.486847},{"name":"東村山市立中央図書館","province":"東京都","city":"東村山市","address":"東村山市本町1-1-10","lat":35.755348,"lon":139.46788},{"name":"東村山市立萩山図書館","province":"東京都","city":"東村山市","address":"東村山市萩山町2-13-1","lat":35.741993,"lon":139.478363},{"name":"東村山市立富士見図書館","province":"東京都","city":"東村山市","address":"東村山市富士見町1-7-35","lat":35.743481,"lon":139.459763},{"name":"東村山ふるさと歴史館","province":"東京都","city":"東村山市","address":"東村山市諏訪町1-6-3","lat":35.766373,"lon":139.465363},{"name":"八国山たいけんの里","province":"東京都","city":"東村山市","address":"東村山市野口町3-48-1","lat":35.76627,"lon":139.454498},{"name":"長坂式典センター","province":"東京都","city":"東村山市","address":"東京都東村山市本町2丁目19-36","lat":35.75973473,"lon":139.46753035},{"name":"ベルホール三光商会","province":"東京都","city":"東村山市","address":"東京都東村山市恩多町2丁目41-3","lat":35.74664228,"lon":139.48623476},{"name":"メモリアルアートの大野屋","province":"東京都","city":"東村山市","address":"東京都東村山市萩山町1丁目19-2","lat":35.73911534,"lon":139.48567125},{"name":"愛和葬祭","province":"東京都","city":"東村山市","address":"東京都東村山市秋津町3丁目5-8","lat":35.77351681,"lon":139.47999277},{"name":"しんせいどう","province":"東京都","city":"東村山市","address":"東京都東村山市青葉町2丁目1-63","lat":35.76059629,"lon":139.48833404},{"name":"彩花","province":"東京都","city":"東村山市","address":"東京都東村山市青葉町2丁目28-5","lat":35.7628517,"lon":139.49251419},{"name":"まちの縁側本町　夕ぐれ食堂","province":"東京都","city":"東村山市","address":"東京都東村山市本町4丁目1-8","lat":35.75253003,"lon":139.46967488},{"name":"子ども食堂　リコード","province":"東京都","city":"東村山市","address":"東京都東村山市本町3丁目9-40","lat":35.75852665,"lon":139.47114118},{"name":"ふれあいこども食堂あおば","province":"東京都","city":"東村山市","address":"東京都東村山市青葉町2丁目25-66","lat":35.76190178,"lon":139.49118376},{"name":"ふれあいこども食堂","province":"東京都","city":"東村山市","address":"東京都東村山市栄町1丁目1-18","lat":35.75056089,"lon":139.47198587},{"name":"にちよう食堂","province":"東京都","city":"東村山市","address":"東京都東村山市栄町1丁目29-34","lat":35.75251075,"lon":139.47501885},{"name":"おひさま食堂","province":"東京都","city":"東村山市","address":"東京都東村山市富士見町5丁目1-93","lat":35.7450057,"lon":139.46432568},{"name":"万福食堂","province":"東京都","city":"東村山市","address":"東京都東村山市廻田町3丁目12-6","lat":35.75761762,"lon":139.44732947},{"name":"東村山地域食堂ふたば","province":"東京都","city":"東村山市","address":"東京都東村山市野口町1丁目15-5","lat":35.76157604,"lon":139.46296959},{"name":"SOMPO流　子ども食堂（八坂）","province":"東京都","city":"東村山市","address":"東京都東村山市栄町3丁目23-1","lat":35.74535292,"lon":139.46513116},{"name":"SOMPO流　子ども食堂（萩山）","province":"東京都","city":"東村山市","address":"東京都東村山市萩山町2丁目9-46","lat":35.7402039,"lon":139.47823297},{"name":"SOMPO流　子ども食堂（久米川）","province":"東京都","city":"東村山市","address":"東京都東村山市美住町1丁目19-10","lat":35.75042437,"lon":139.45880928},{"name":"子どもたちのお弁当屋さん","province":"東京都","city":"東村山市","address":"東京都東村山市富士見町2丁目19-23","lat":35.7372534,"lon":139.45070223},{"name":"恩多こども食堂","province":"東京都","city":"東村山市","address":"東京都東村山市恩多町3丁目3-22","lat":35.753233,"lon":139.47909623},{"name":"東村山市立廻田公民館","province":"東京都","city":"東村山市","address":"東村山市廻田町4-19-1","lat":35.759617,"lon":139.452087},{"name":"東村山市立秋津公民館","province":"東京都","city":"東村山市","address":"東村山市秋津町2-17-10","lat":35.770851,"lon":139.486847},{"name":"東村山市立中央公民館","province":"東京都","city":"東村山市","address":"東村山市本町2-33-2","lat":35.759972,"lon":139.466721},{"name":"東村山市立萩山公民館","province":"東京都","city":"東村山市","address":"東村山市萩山町2-13-1","lat":35.741993,"lon":139.478363},{"name":"東村山市立富士見公民館","province":"東京都","city":"東村山市","address":"東村山市富士見町5-4-51","lat":35.748219,"lon":139.456573},{"name":"東村山市立廻田図書館","province":"東京都","city":"東村山市","address":"東村山市廻田町4-19-1","lat":35.759617,"lon":139.452087},{"name":"東村山市立秋津図書館","province":"東京都","city":"東村山市","address":"東村山市秋津町2-17-10","lat":35.770851,"lon":139.486847},{"name":"東村山市立中央図書館","province":"東京都","city":"東村山市","address":"東村山市本町1-1-10","lat":35.755348,"lon":139.46788},{"name":"東村山市立萩山図書館","province":"東京都","city":"東村山市","address":"東村山市萩山町2-13-1","lat":35.741993,"lon":139.478363},{"name":"東村山市立富士見図書館","province":"東京都","city":"東村山市","address":"東村山市富士見町1-7-35","lat":35.743481,"lon":139.459763},{"name":"東村山ふるさと歴史館","province":"東京都","city":"東村山市","address":"東村山市諏訪町1-6-3","lat":35.766373,"lon":139.465363},{"name":"八国山たいけんの里","province":"東京都","city":"東村山市","address":"東村山市野口町3-48-1","lat":35.76627,"lon":139.454498},{"name":"長坂式典センター","province":"東京都","city":"東村山市","address":"東京都東村山市本町2丁目19-36","lat":35.75973473,"lon":139.46753035},{"name":"ベルホール三光商会","province":"東京都","city":"東村山市","address":"東京都東村山市恩多町2丁目41-3","lat":35.74664228,"lon":139.48623476},{"name":"メモリアルアートの大野屋","province":"東京都","city":"東村山市","address":"東京都東村山市萩山町1丁目19-2","lat":35.73911534,"lon":139.48567125},{"name":"愛和葬祭","province":"東京都","city":"東村山市","address":"東京都東村山市秋津町3丁目5-8","lat":35.77351681,"lon":139.47999277},{"name":"しんせいどう","province":"東京都","city":"東村山市","address":"東京都東村山市青葉町2丁目1-63","lat":35.76059629,"lon":139.48833404},{"name":"彩花","province":"東京都","city":"東村山市","address":"東京都東村山市青葉町2丁目28-5","lat":35.7628517,"lon":139.49251419},{"name":"まちの縁側本町　夕ぐれ食堂","province":"東京都","city":"東村山市","address":"東京都東村山市本町4丁目1-8","lat":35.75253003,"lon":139.46967488},{"name":"子ども食堂　リコード","province":"東京都","city":"東村山市","address":"東京都東村山市本町3丁目9-40","lat":35.75852665,"lon":139.47114118},{"name":"ふれあいこども食堂あおば","province":"東京都","city":"東村山市","address":"東京都東村山市青葉町2丁目25-66","lat":35.76190178,"lon":139.49118376},{"name":"ふれあいこども食堂","province":"東京都","city":"東村山市","address":"東京都東村山市栄町1丁目1-18","lat":35.75056089,"lon":139.47198587},{"name":"にちよう食堂","province":"東京都","city":"東村山市","address":"東京都東村山市栄町1丁目29-34","lat":35.75251075,"lon":139.47501885},{"name":"おひさま食堂","province":"東京都","city":"東村山市","address":"東京都東村山市富士見町5丁目1-93","lat":35.7450057,"lon":139.46432568},{"name":"万福食堂","province":"東京都","city":"東村山市","address":"東京都東村山市廻田町3丁目12-6","lat":35.75761762,"lon":139.44732947},{"name":"東村山地域食堂ふたば","province":"東京都","city":"東村山市","address":"東京都東村山市野口町1丁目15-5","lat":35.76157604,"lon":139.46296959},{"name":"SOMPO流　子ども食堂（八坂）","province":"東京都","city":"東村山市","address":"東京都東村山市栄町3丁目23-1","lat":35.74535292,"lon":139.46513116},{"name":"SOMPO流　子ども食堂（萩山）","province":"東京都","city":"東村山市","address":"東京都東村山市萩山町2丁目9-46","lat":35.7402039,"lon":139.47823297},{"name":"SOMPO流　子ども食堂（久米川）","province":"東京都","city":"東村山市","address":"東京都東村山市美住町1丁目19-10","lat":35.75042437,"lon":139.45880928},{"name":"子どもたちのお弁当屋さん","province":"東京都","city":"東村山市","address":"東京都東村山市富士見町2丁目19-23","lat":35.7372534,"lon":139.45070223},{"name":"恩多こども食堂","province":"東京都","city":"東村山市","address":"東京都東村山市恩多町3丁目3-22","lat":35.753233,"lon":139.47909623},{"name":"東村山市立廻田公民館","province":"東京都","city":"東村山市","address":"東村山市廻田町4-19-1","lat":35.759617,"lon":139.452087},{"name":"東村山市立秋津公民館","province":"東京都","city":"東村山市","address":"東村山市秋津町2-17-10","lat":35.770851,"lon":139.486847},{"name":"東村山市立中央公民館","province":"東京都","city":"東村山市","address":"東村山市本町2-33-2","lat":35.759972,"lon":139.466721},{"name":"東村山市立萩山公民館","province":"東京都","city":"東村山市","address":"東村山市萩山町2-13-1","lat":35.741993,"lon":139.478363},{"name":"東村山市立富士見公民館","province":"東京都","city":"東村山市","address":"東村山市富士見町5-4-51","lat":35.748219,"lon":139.456573},{"name":"東村山市立廻田図書館","province":"東京都","city":"東村山市","address":"東村山市廻田町4-19-1","lat":35.759617,"lon":139.452087},{"name":"東村山市立秋津図書館","province":"東京都","city":"東村山市","address":"東村山市秋津町2-17-10","lat":35.770851,"lon":139.486847},{"name":"東村山市立中央図書館","province":"東京都","city":"東村山市","address":"東村山市本町1-1-10","lat":35.755348,"lon":139.46788},{"name":"東村山市立萩山図書館","province":"東京都","city":"東村山市","address":"東村山市萩山町2-13-1","lat":35.741993,"lon":139.478363},{"name":"東村山市立富士見図書館","province":"東京都","city":"東村山市","address":"東村山市富士見町1-7-35","lat":35.743481,"lon":139.459763},{"name":"東村山ふるさと歴史館","province":"東京都","city":"東村山市","address":"東村山市諏訪町1-6-3","lat":35.766373,"lon":139.465363},{"name":"八国山たいけんの里","province":"東京都","city":"東村山市","address":"東村山市野口町3-48-1","lat":35.76627,"lon":139.454498},{"name":"長坂式典センター","province":"東京都","city":"東村山市","address":"東京都東村山市本町2丁目19-36","lat":35.75973473,"lon":139.46753035},{"name":"ベルホール三光商会","province":"東京都","city":"東村山市","address":"東京都東村山市恩多町2丁目41-3","lat":35.74664228,"lon":139.48623476},{"name":"メモリアルアートの大野屋","province":"東京都","city":"東村山市","address":"東京都東村山市萩山町1丁目19-2","lat":35.73911534,"lon":139.48567125},{"name":"愛和葬祭","province":"東京都","city":"東村山市","address":"東京都東村山市秋津町3丁目5-8","lat":35.77351681,"lon":139.47999277},{"name":"しんせいどう","province":"東京都","city":"東村山市","address":"東京都東村山市青葉町2丁目1-63","lat":35.76059629,"lon":139.48833404},{"name":"彩花","province":"東京都","city":"東村山市","address":"東京都東村山市青葉町2丁目28-5","lat":35.7628517,"lon":139.49251419},{"name":"まちの縁側本町　夕ぐれ食堂","province":"東京都","city":"東村山市","address":"東京都東村山市本町4丁目1-8","lat":35.75253003,"lon":139.46967488},{"name":"子ども食堂　リコード","province":"東京都","city":"東村山市","address":"東京都東村山市本町3丁目9-40","lat":35.75852665,"lon":139.47114118},{"name":"ふれあいこども食堂あおば","province":"東京都","city":"東村山市","address":"東京都東村山市青葉町2丁目25-66","lat":35.76190178,"lon":139.49118376},{"name":"ふれあいこども食堂","province":"東京都","city":"東村山市","address":"東京都東村山市栄町1丁目1-18","lat":35.75056089,"lon":139.47198587},{"name":"にちよう食堂","province":"東京都","city":"東村山市","address":"東京都東村山市栄町1丁目29-34","lat":35.75251075,"lon":139.47501885},{"name":"おひさま食堂","province":"東京都","city":"東村山市","address":"東京都東村山市富士見町5丁目1-93","lat":35.7450057,"lon":139.46432568},{"name":"万福食堂","province":"東京都","city":"東村山市","address":"東京都東村山市廻田町3丁目12-6","lat":35.75761762,"lon":139.44732947},{"name":"東村山地域食堂ふたば","province":"東京都","city":"東村山市","address":"東京都東村山市野口町1丁目15-5","lat":35.76157604,"lon":139.46296959},{"name":"SOMPO流　子ども食堂（八坂）","province":"東京都","city":"東村山市","address":"東京都東村山市栄町3丁目23-1","lat":35.74535292,"lon":139.46513116},{"name":"SOMPO流　子ども食堂（萩山）","province":"東京都","city":"東村山市","address":"東京都東村山市萩山町2丁目9-46","lat":35.7402039,"lon":139.47823297},{"name":"SOMPO流　子ども食堂（久米川）","province":"東京都","city":"東村山市","address":"東京都東村山市美住町1丁目19-10","lat":35.75042437,"lon":139.45880928},{"name":"子どもたちのお弁当屋さん","province":"東京都","city":"東村山市","address":"東京都東村山市富士見町2丁目19-23","lat":35.7372534,"lon":139.45070223},{"name":"恩多こども食堂","province":"東京都","city":"東村山市","address":"東京都東村山市恩多町3丁目3-22","lat":35.753233,"lon":139.47909623},{"name":"東村山市立廻田公民館","province":"東京都","city":"東村山市","address":"東村山市廻田町4-19-1","lat":35.759617,"lon":139.452087},{"name":"東村山市立秋津公民館","province":"東京都","city":"東村山市","address":"東村山市秋津町2-17-10","lat":35.770851,"lon":139.486847},{"name":"東村山市立中央公民館","province":"東京都","city":"東村山市","address":"東村山市本町2-33-2","lat":35.759972,"lon":139.466721},{"name":"東村山市立萩山公民館","province":"東京都","city":"東村山市","address":"東村山市萩山町2-13-1","lat":35.741993,"lon":139.478363},{"name":"東村山市立富士見公民館","province":"東京都","city":"東村山市","address":"東村山市富士見町5-4-51","lat":35.748219,"lon":139.456573},{"name":"東村山市立廻田図書館","province":"東京都","city":"東村山市","address":"東村山市廻田町4-19-1","lat":35.759617,"lon":139.452087},{"name":"東村山市立秋津図書館","province":"東京都","city":"東村山市","address":"東村山市秋津町2-17-10","lat":35.770851,"lon":139.486847},{"name":"東村山市立中央図書館","province":"東京都","city":"東村山市","address":"東村山市本町1-1-10","lat":35.755348,"lon":139.46788},{"name":"東村山市立萩山図書館","province":"東京都","city":"東村山市","address":"東村山市萩山町2-13-1","lat":35.741993,"lon":139.478363},{"name":"東村山市立富士見図書館","province":"東京都","city":"東村山市","address":"東村山市富士見町1-7-35","lat":35.743481,"lon":139.459763},{"name":"東村山ふるさと歴史館","province":"東京都","city":"東村山市","address":"東村山市諏訪町1-6-3","lat":35.766373,"lon":139.465363},{"name":"八国山たいけんの里","province":"東京都","city":"東村山市","address":"東村山市野口町3-48-1","lat":35.76627,"lon":139.454498},{"name":"長坂式典センター","province":"東京都","city":"東村山市","address":"東京都東村山市本町2丁目19-36","lat":35.75973473,"lon":139.46753035},{"name":"ベルホール三光商会","province":"東京都","city":"東村山市","address":"東京都東村山市恩多町2丁目41-3","lat":35.74664228,"lon":139.48623476},{"name":"メモリアルアートの大野屋","province":"東京都","city":"東村山市","address":"東京都東村山市萩山町1丁目19-2","lat":35.73911534,"lon":139.48567125},{"name":"愛和葬祭","province":"東京都","city":"東村山市","address":"東京都東村山市秋津町3丁目5-8","lat":35.77351681,"lon":139.47999277},{"name":"しんせいどう","province":"東京都","city":"東村山市","address":"東京都東村山市青葉町2丁目1-63","lat":35.76059629,"lon":139.48833404},{"name":"彩花","province":"東京都","city":"東村山市","address":"東京都東村山市青葉町2丁目28-5","lat":35.7628517,"lon":139.49251419},{"name":"まちの縁側本町　夕ぐれ食堂","province":"東京都","city":"東村山市","address":"東京都東村山市本町4丁目1-8","lat":35.75253003,"lon":139.46967488},{"name":"子ども食堂　リコード","province":"東京都","city":"東村山市","address":"東京都東村山市本町3丁目9-40","lat":35.75852665,"lon":139.47114118},{"name":"ふれあいこども食堂あおば","province":"東京都","city":"東村山市","address":"東京都東村山市青葉町2丁目25-66","lat":35.76190178,"lon":139.49118376},{"name":"ふれあいこども食堂","province":"東京都","city":"東村山市","address":"東京都東村山市栄町1丁目1-18","lat":35.75056089,"lon":139.47198587},{"name":"にちよう食堂","province":"東京都","city":"東村山市","address":"東京都東村山市栄町1丁目29-34","lat":35.75251075,"lon":139.47501885},{"name":"おひさま食堂","province":"東京都","city":"東村山市","address":"東京都東村山市富士見町5丁目1-93","lat":35.7450057,"lon":139.46432568},{"name":"万福食堂","province":"東京都","city":"東村山市","address":"東京都東村山市廻田町3丁目12-6","lat":35.75761762,"lon":139.44732947},{"name":"東村山地域食堂ふたば","province":"東京都","city":"東村山市","address":"東京都東村山市野口町1丁目15-5","lat":35.76157604,"lon":139.46296959},{"name":"SOMPO流　子ども食堂（八坂）","province":"東京都","city":"東村山市","address":"東京都東村山市栄町3丁目23-1","lat":35.74535292,"lon":139.46513116},{"name":"SOMPO流　子ども食堂（萩山）","province":"東京都","city":"東村山市","address":"東京都東村山市萩山町2丁目9-46","lat":35.7402039,"lon":139.47823297},{"name":"SOMPO流　子ども食堂（久米川）","province":"東京都","city":"東村山市","address":"東京都東村山市美住町1丁目19-10","lat":35.75042437,"lon":139.45880928},{"name":"子どもたちのお弁当屋さん","province":"東京都","city":"東村山市","address":"東京都東村山市富士見町2丁目19-23","lat":35.7372534,"lon":139.45070223},{"name":"恩多こども食堂","province":"東京都","city":"東村山市","address":"東京都東村山市恩多町3丁目3-22","lat":35.753233,"lon":139.47909623},{"name":"東村山市立廻田公民館","province":"東京都","city":"東村山市","address":"東村山市廻田町4-19-1","lat":35.759617,"lon":139.452087},{"name":"東村山市立秋津公民館","province":"東京都","city":"東村山市","address":"東村山市秋津町2-17-10","lat":35.770851,"lon":139.486847},{"name":"東村山市立中央公民館","province":"東京都","city":"東村山市","address":"東村山市本町2-33-2","lat":35.759972,"lon":139.466721},{"name":"東村山市立萩山公民館","province":"東京都","city":"東村山市","address":"東村山市萩山町2-13-1","lat":35.741993,"lon":139.478363},{"name":"東村山市立富士見公民館","province":"東京都","city":"東村山市","address":"東村山市富士見町5-4-51","lat":35.748219,"lon":139.456573},{"name":"東村山市立廻田図書館","province":"東京都","city":"東村山市","address":"東村山市廻田町4-19-1","lat":35.759617,"lon":139.452087},{"name":"東村山市立秋津図書館","province":"東京都","city":"東村山市","address":"東村山市秋津町2-17-10","lat":35.770851,"lon":139.486847},{"name":"東村山市立中央図書館","province":"東京都","city":"東村山市","address":"東村山市本町1-1-10","lat":35.755348,"lon":139.46788},{"name":"東村山市立萩山図書館","province":"東京都","city":"東村山市","address":"東村山市萩山町2-13-1","lat":35.741993,"lon":139.478363},{"name":"東村山市立富士見図書館","province":"東京都","city":"東村山市","address":"東村山市富士見町1-7-35","lat":35.743481,"lon":139.459763},{"name":"東村山ふるさと歴史館","province":"東京都","city":"東村山市","address":"東村山市諏訪町1-6-3","lat":35.766373,"lon":139.465363},{"name":"八国山たいけんの里","province":"東京都","city":"東村山市","address":"東村山市野口町3-48-1","lat":35.76627,"lon":139.454498},{"name":"長坂式典センター","province":"東京都","city":"東村山市","address":"東京都東村山市本町2丁目19-36","lat":35.75973473,"lon":139.46753035},{"name":"ベルホール三光商会","province":"東京都","city":"東村山市","address":"東京都東村山市恩多町2丁目41-3","lat":35.74664228,"lon":139.48623476},{"name":"メモリアルアートの大野屋","province":"東京都","city":"東村山市","address":"東京都東村山市萩山町1丁目19-2","lat":35.73911534,"lon":139.48567125},{"name":"愛和葬祭","province":"東京都","city":"東村山市","address":"東京都東村山市秋津町3丁目5-8","lat":35.77351681,"lon":139.47999277},{"name":"しんせいどう","province":"東京都","city":"東村山市","address":"東京都東村山市青葉町2丁目1-63","lat":35.76059629,"lon":139.48833404},{"name":"彩花","province":"東京都","city":"東村山市","address":"東京都東村山市青葉町2丁目28-5","lat":35.7628517,"lon":139.49251419},{"name":"まちの縁側本町　夕ぐれ食堂","province":"東京都","city":"東村山市","address":"東京都東村山市本町4丁目1-8","lat":35.75253003,"lon":139.46967488},{"name":"子ども食堂　リコード","province":"東京都","city":"東村山市","address":"東京都東村山市本町3丁目9-40","lat":35.75852665,"lon":139.47114118},{"name":"ふれあいこども食堂あおば","province":"東京都","city":"東村山市","address":"東京都東村山市青葉町2丁目25-66","lat":35.76190178,"lon":139.49118376},{"name":"ふれあいこども食堂","province":"東京都","city":"東村山市","address":"東京都東村山市栄町1丁目1-18","lat":35.75056089,"lon":139.47198587},{"name":"にちよう食堂","province":"東京都","city":"東村山市","address":"東京都東村山市栄町1丁目29-34","lat":35.75251075,"lon":139.47501885},{"name":"おひさま食堂","province":"東京都","city":"東村山市","address":"東京都東村山市富士見町5丁目1-93","lat":35.7450057,"lon":139.46432568},{"name":"万福食堂","province":"東京都","city":"東村山市","address":"東京都東村山市廻田町3丁目12-6","lat":35.75761762,"lon":139.44732947},{"name":"東村山地域食堂ふたば","province":"東京都","city":"東村山市","address":"東京都東村山市野口町1丁目15-5","lat":35.76157604,"lon":139.46296959},{"name":"SOMPO流　子ども食堂（八坂）","province":"東京都","city":"東村山市","address":"東京都東村山市栄町3丁目23-1","lat":35.74535292,"lon":139.46513116},{"name":"SOMPO流　子ども食堂（萩山）","province":"東京都","city":"東村山市","address":"東京都東村山市萩山町2丁目9-46","lat":35.7402039,"lon":139.47823297},{"name":"SOMPO流　子ども食堂（久米川）","province":"東京都","city":"東村山市","address":"東京都東村山市美住町1丁目19-10","lat":35.75042437,"lon":139.45880928},{"name":"子どもたちのお弁当屋さん","province":"東京都","city":"東村山市","address":"東京都東村山市富士見町2丁目19-23","lat":35.7372534,"lon":139.45070223},{"name":"恩多こども食堂","province":"東京都","city":"東村山市","address":"東京都東村山市恩多町3丁目3-22","lat":35.753233,"lon":139.47909623},{"name":"東村山市立廻田公民館","province":"東京都","city":"東村山市","address":"東村山市廻田町4-19-1","lat":35.759617,"lon":139.452087},{"name":"東村山市立秋津公民館","province":"東京都","city":"東村山市","address":"東村山市秋津町2-17-10","lat":35.770851,"lon":139.486847},{"name":"東村山市立中央公民館","province":"東京都","city":"東村山市","address":"東村山市本町2-33-2","lat":35.759972,"lon":139.466721},{"name":"東村山市立萩山公民館","province":"東京都","city":"東村山市","address":"東村山市萩山町2-13-1","lat":35.741993,"lon":139.478363},{"name":"東村山市立富士見公民館","province":"東京都","city":"東村山市","address":"東村山市富士見町5-4-51","lat":35.748219,"lon":139.456573},{"name":"東村山市立廻田図書館","province":"東京都","city":"東村山市","address":"東村山市廻田町4-19-1","lat":35.759617,"lon":139.452087},{"name":"東村山市立秋津図書館","province":"東京都","city":"東村山市","address":"東村山市秋津町2-17-10","lat":35.770851,"lon":139.486847},{"name":"東村山市立中央図書館","province":"東京都","city":"東村山市","address":"東村山市本町1-1-10","lat":35.755348,"lon":139.46788},{"name":"東村山市立萩山図書館","province":"東京都","city":"東村山市","address":"東村山市萩山町2-13-1","lat":35.741993,"lon":139.478363},{"name":"東村山市立富士見図書館","province":"東京都","city":"東村山市","address":"東村山市富士見町1-7-35","lat":35.743481,"lon":139.459763},{"name":"東村山ふるさと歴史館","province":"東京都","city":"東村山市","address":"東村山市諏訪町1-6-3","lat":35.766373,"lon":139.465363},{"name":"八国山たいけんの里","province":"東京都","city":"東村山市","address":"東村山市野口町3-48-1","lat":35.76627,"lon":139.454498},{"name":"長坂式典センター","province":"東京都","city":"東村山市","address":"東京都東村山市本町2丁目19-36","lat":35.75973473,"lon":139.46753035},{"name":"ベルホール三光商会","province":"東京都","city":"東村山市","address":"東京都東村山市恩多町2丁目41-3","lat":35.74664228,"lon":139.48623476},{"name":"メモリアルアートの大野屋","province":"東京都","city":"東村山市","address":"東京都東村山市萩山町1丁目19-2","lat":35.73911534,"lon":139.48567125},{"name":"愛和葬祭","province":"東京都","city":"東村山市","address":"東京都東村山市秋津町3丁目5-8","lat":35.77351681,"lon":139.47999277},{"name":"しんせいどう","province":"東京都","city":"東村山市","address":"東京都東村山市青葉町2丁目1-63","lat":35.76059629,"lon":139.48833404},{"name":"彩花","province":"東京都","city":"東村山市","address":"東京都東村山市青葉町2丁目28-5","lat":35.7628517,"lon":139.49251419},{"name":"まちの縁側本町　夕ぐれ食堂","province":"東京都","city":"東村山市","address":"東京都東村山市本町4丁目1-8","lat":35.75253003,"lon":139.46967488},{"name":"子ども食堂　リコード","province":"東京都","city":"東村山市","address":"東京都東村山市本町3丁目9-40","lat":35.75852665,"lon":139.47114118},{"name":"ふれあいこども食堂あおば","province":"東京都","city":"東村山市","address":"東京都東村山市青葉町2丁目25-66","lat":35.76190178,"lon":139.49118376},{"name":"ふれあいこども食堂","province":"東京都","city":"東村山市","address":"東京都東村山市栄町1丁目1-18","lat":35.75056089,"lon":139.47198587},{"name":"にちよう食堂","province":"東京都","city":"東村山市","address":"東京都東村山市栄町1丁目29-34","lat":35.75251075,"lon":139.47501885},{"name":"おひさま食堂","province":"東京都","city":"東村山市","address":"東京都東村山市富士見町5丁目1-93","lat":35.7450057,"lon":139.46432568},{"name":"万福食堂","province":"東京都","city":"東村山市","address":"東京都東村山市廻田町3丁目12-6","lat":35.75761762,"lon":139.44732947},{"name":"東村山地域食堂ふたば","province":"東京都","city":"東村山市","address":"東京都東村山市野口町1丁目15-5","lat":35.76157604,"lon":139.46296959},{"name":"SOMPO流　子ども食堂（八坂）","province":"東京都","city":"東村山市","address":"東京都東村山市栄町3丁目23-1","lat":35.74535292,"lon":139.46513116},{"name":"SOMPO流　子ども食堂（萩山）","province":"東京都","city":"東村山市","address":"東京都東村山市萩山町2丁目9-46","lat":35.7402039,"lon":139.47823297},{"name":"SOMPO流　子ども食堂（久米川）","province":"東京都","city":"東村山市","address":"東京都東村山市美住町1丁目19-10","lat":35.75042437,"lon":139.45880928},{"name":"子どもたちのお弁当屋さん","province":"東京都","city":"東村山市","address":"東京都東村山市富士見町2丁目19-23","lat":35.7372534,"lon":139.45070223},{"name":"恩多こども食堂","province":"東京都","city":"東村山市","address":"東京都東村山市恩多町3丁目3-22","lat":35.753233,"lon":139.47909623},{"name":"東村山市立廻田公民館","province":"東京都","city":"東村山市","address":"東村山市廻田町4-19-1","lat":35.759617,"lon":139.452087},{"name":"東村山市立秋津公民館","province":"東京都","city":"東村山市","address":"東村山市秋津町2-17-10","lat":35.770851,"lon":139.486847},{"name":"東村山市立中央公民館","province":"東京都","city":"東村山市","address":"東村山市本町2-33-2","lat":35.759972,"lon":139.466721},{"name":"東村山市立萩山公民館","province":"東京都","city":"東村山市","address":"東村山市萩山町2-13-1","lat":35.741993,"lon":139.478363},{"name":"東村山市立富士見公民館","province":"東京都","city":"東村山市","address":"東村山市富士見町5-4-51","lat":35.748219,"lon":139.456573},{"name":"東村山市立廻田図書館","province":"東京都","city":"東村山市","address":"東村山市廻田町4-19-1","lat":35.759617,"lon":139.452087},{"name":"東村山市立秋津図書館","province":"東京都","city":"東村山市","address":"東村山市秋津町2-17-10","lat":35.770851,"lon":139.486847},{"name":"東村山市立中央図書館","province":"東京都","city":"東村山市","address":"東村山市本町1-1-10","lat":35.755348,"lon":139.46788},{"name":"東村山市立萩山図書館","province":"東京都","city":"東村山市","address":"東村山市萩山町2-13-1","lat":35.741993,"lon":139.478363},{"name":"東村山市立富士見図書館","province":"東京都","city":"東村山市","address":"東村山市富士見町1-7-35","lat":35.743481,"lon":139.459763},{"name":"東村山ふるさと歴史館","province":"東京都","city":"東村山市","address":"東村山市諏訪町1-6-3","lat":35.766373,"lon":139.465363},{"name":"八国山たいけんの里","province":"東京都","city":"東村山市","address":"東村山市野口町3-48-1","lat":35.76627,"lon":139.454498},{"name":"長坂式典センター","province":"東京都","city":"東村山市","address":"東京都東村山市本町2丁目19-36","lat":35.75973473,"lon":139.46753035},{"name":"ベルホール三光商会","province":"東京都","city":"東村山市","address":"東京都東村山市恩多町2丁目41-3","lat":35.74664228,"lon":139.48623476},{"name":"メモリアルアートの大野屋","province":"東京都","city":"東村山市","address":"東京都東村山市萩山町1丁目19-2","lat":35.73911534,"lon":139.48567125},{"name":"愛和葬祭","province":"東京都","city":"東村山市","address":"東京都東村山市秋津町3丁目5-8","lat":35.77351681,"lon":139.47999277},{"name":"しんせいどう","province":"東京都","city":"東村山市","address":"東京都東村山市青葉町2丁目1-63","lat":35.76059629,"lon":139.48833404},{"name":"彩花","province":"東京都","city":"東村山市","address":"東京都東村山市青葉町2丁目28-5","lat":35.7628517,"lon":139.49251419},{"name":"まちの縁側本町　夕ぐれ食堂","province":"東京都","city":"東村山市","address":"東京都東村山市本町4丁目1-8","lat":35.75253003,"lon":139.46967488},{"name":"子ども食堂　リコード","province":"東京都","city":"東村山市","address":"東京都東村山市本町3丁目9-40","lat":35.75852665,"lon":139.47114118},{"name":"ふれあいこども食堂あおば","province":"東京都","city":"東村山市","address":"東京都東村山市青葉町2丁目25-66","lat":35.76190178,"lon":139.49118376},{"name":"ふれあいこども食堂","province":"東京都","city":"東村山市","address":"東京都東村山市栄町1丁目1-18","lat":35.75056089,"lon":139.47198587},{"name":"にちよう食堂","province":"東京都","city":"東村山市","address":"東京都東村山市栄町1丁目29-34","lat":35.75251075,"lon":139.47501885},{"name":"おひさま食堂","province":"東京都","city":"東村山市","address":"東京都東村山市富士見町5丁目1-93","lat":35.7450057,"lon":139.46432568},{"name":"万福食堂","province":"東京都","city":"東村山市","address":"東京都東村山市廻田町3丁目12-6","lat":35.75761762,"lon":139.44732947},{"name":"東村山地域食堂ふたば","province":"東京都","city":"東村山市","address":"東京都東村山市野口町1丁目15-5","lat":35.76157604,"lon":139.46296959},{"name":"SOMPO流　子ども食堂（八坂）","province":"東京都","city":"東村山市","address":"東京都東村山市栄町3丁目23-1","lat":35.74535292,"lon":139.46513116},{"name":"SOMPO流　子ども食堂（萩山）","province":"東京都","city":"東村山市","address":"東京都東村山市萩山町2丁目9-46","lat":35.7402039,"lon":139.47823297},{"name":"SOMPO流　子ども食堂（久米川）","province":"東京都","city":"東村山市","address":"東京都東村山市美住町1丁目19-10","lat":35.75042437,"lon":139.45880928},{"name":"子どもたちのお弁当屋さん","province":"東京都","city":"東村山市","address":"東京都東村山市富士見町2丁目19-23","lat":35.7372534,"lon":139.45070223},{"name":"恩多こども食堂","province":"東京都","city":"東村山市","address":"東京都東村山市恩多町3丁目3-22","lat":35.753233,"lon":139.47909623},{"name":"東村山市立廻田公民館","province":"東京都","city":"東村山市","address":"東村山市廻田町4-19-1","lat":35.759617,"lon":139.452087},{"name":"東村山市立秋津公民館","province":"東京都","city":"東村山市","address":"東村山市秋津町2-17-10","lat":35.770851,"lon":139.486847},{"name":"東村山市立中央公民館","province":"東京都","city":"東村山市","address":"東村山市本町2-33-2","lat":35.759972,"lon":139.466721},{"name":"東村山市立萩山公民館","province":"東京都","city":"東村山市","address":"東村山市萩山町2-13-1","lat":35.741993,"lon":139.478363},{"name":"東村山市立富士見公民館","province":"東京都","city":"東村山市","address":"東村山市富士見町5-4-51","lat":35.748219,"lon":139.456573},{"name":"東村山市立廻田図書館","province":"東京都","city":"東村山市","address":"東村山市廻田町4-19-1","lat":35.759617,"lon":139.452087},{"name":"東村山市立秋津図書館","province":"東京都","city":"東村山市","address":"東村山市秋津町2-17-10","lat":35.770851,"lon":139.486847},{"name":"東村山市立中央図書館","province":"東京都","city":"東村山市","address":"東村山市本町1-1-10","lat":35.755348,"lon":139.46788},{"name":"東村山市立萩山図書館","province":"東京都","city":"東村山市","address":"東村山市萩山町2-13-1","lat":35.741993,"lon":139.478363},{"name":"東村山市立富士見図書館","province":"東京都","city":"東村山市","address":"東村山市富士見町1-7-35","lat":35.743481,"lon":139.459763},{"name":"東村山ふるさと歴史館","province":"東京都","city":"東村山市","address":"東村山市諏訪町1-6-3","lat":35.766373,"lon":139.465363},{"name":"八国山たいけんの里","province":"東京都","city":"東村山市","address":"東村山市野口町3-48-1","lat":35.76627,"lon":139.454498}]}