{"keyword":"東村山","data":[{"name":"東村山市立廻田公民館","province":"東京都","city":"東村山市","address":"東村山市廻田町4-19-1","lat":35.759617,"lon":139.452087},{"name":"東村山市立秋津公民館","province":"東京都","city":"東村山市","address":"東村山市秋津町2-17-10","lat":35.770851,"lon":139.486847},{"name":"東村山市立中央公民館","province":"東京都","city":"東村山市","address":"東村山市本町2-33-2","lat":35.759972,"lon":139.466721},{"name":"東村山市立萩山公民館","province":"東京都","city":"東村山市","address":"東村山市萩山町2-13-1","lat":35.741993,"lon":139.478363},{"name":"東村山市立富士見公民館","province":"東京都","city":"東村山市","address":"東村山市富士見町5-4-51","lat":35.748219,"lon":139.456573},{"name":"東村山市立廻田図書館","province":"東京都","city":"東村山市","address":"東村山市廻田町4-19-1","lat":35.759617,"lon":139.452087},{"name":"東村山市立秋津図書館","province":"東京都","city":"東村山市","address":"東村山市秋津町2-17-10","lat":35.770851,"lon":139.486847},{"name":"東村山市立中央図書館","province":"東京都","city":"東村山市","address":"東村山市本町1-1-10","lat":35.755348,"lon":139.46788},{"name":"東村山市立萩山図書館","province":"東京都","city":"東村山市","address":"東村山市萩山町2-13-1","lat":35.741993,"lon":139.478363},{"name":"東村山市立富士見図書館","province":"東京都","city":"東村山市","address":"東村山市富士見町1-7-35","lat":35.743481,"lon":139.459763},{"name":"東村山ふるさと歴史館","province":"東京都","city":"東村山市","address":"東村山市諏訪町1-6-3","lat":35.766373,"lon":139.465363},{"name":"八国山たいけんの里","province":"東京都","city":"東村山市","address":"東村山市野口町3-48-1","lat":35.76627,"lon":139.454498}]}