{"keyword":"椅子","data":[{"name":"地方独立行政法人東京都立病院機構　東京都立多摩北部医療センター","province":"東京都","city":"東村山市","address":"東京都東村山市青葉町1丁目7-1","lat":35.760727,"lon":139.493144},{"name":"東村山中央公園","province":"東京都","city":"東村山市","address":"東京都東村山市富士見町5丁目4-67","lat":35.748306,"lon":139.456941},{"name":"東村山中央公園","province":"東京都","city":"東村山市","address":"東京都東村山市富士見町5丁目4","lat":35.748598,"lon":139.458285},{"name":"東村山中央公園","province":"東京都","city":"東村山市","address":"東京都東村山市富士見町5丁目4","lat":35.747949,"lon":139.459982},{"name":"東村山中央公園","province":"東京都","city":"東村山市","address":"東京都東村山市富士見町5丁目4","lat":35.746824,"lon":139.461727},{"name":"東村山中央公園","province":"東京都","city":"東村山市","address":"東京都東村山市富士見町5丁目4","lat":35.745393,"lon":139.462797},{"name":"東村山中央公園","province":"東京都","city":"東村山市","address":"東京都東村山市富士見町5丁目4","lat":35.746425,"lon":139.46041},{"name":"八国山緑地","province":"東京都","city":"東村山市","address":"東京都東村山市諏訪町3丁目19","lat":35.76661,"lon":139.453209},{"name":"小平霊園","province":"東京都","city":"東村山市","address":"東京都東村山市萩山町1丁目16","lat":35.739773,"lon":139.485298},{"name":"小平霊園","province":"東京都","city":"東村山市","address":"東京都東村山市萩山町5丁目10","lat":35.741954,"lon":139.482579},{"name":"小平霊園","province":"東京都","city":"東村山市","address":"東京都東村山市萩山町5丁目8","lat":35.745432,"lon":139.478914},{"name":"小平霊園","province":"東京都","city":"東村山市","address":"東京都東村山市萩山町5丁目9","lat":35.745348,"lon":139.483296},{"name":"東村山市役所本庁舎","province":"東京都","city":"東村山市","address":"東京都東村山市本町1丁目2-3","lat":35.754641,"lon":139.468509},{"name":"東村山市役所いきいきプラザ","province":"東京都","city":"東村山市","address":"東京都東村山市本町1丁目2-3","lat":35.754234,"lon":139.468058},{"name":"東村山市役所いきいきプラザ","province":"東京都","city":"東村山市","address":"東京都東村山市本町1丁目2-3","lat":35.754236,"lon":139.468282},{"name":"東村山市役所北庁舎","province":"東京都","city":"東村山市","address":"東京都東村山市本町1丁目1-1","lat":35.755322,"lon":139.467378},{"name":"東村山市役所市民センター","province":"東京都","city":"東村山市","address":"東京都東村山市本町1丁目1-1","lat":35.755274,"lon":139.467951},{"name":"東村山市立中央公民館","province":"東京都","city":"東村山市","address":"東京都東村山市本町2丁目33-2","lat":35.759886,"lon":139.46698},{"name":"東村山市立萩山公民館","province":"東京都","city":"東村山市","address":"東京都東村山市萩山町2丁目13-5","lat":35.742202,"lon":139.477704},{"name":"東村山市立廻田公民館","province":"東京都","city":"東村山市","address":"東京都東村山市廻田町4丁目19-1","lat":35.759742,"lon":139.452116},{"name":"東村山市立秋津公民館","province":"東京都","city":"東村山市","address":"東京都東村山市秋津町2丁目17-10","lat":35.770958,"lon":139.486358},{"name":"東村山市立富士見文化センター","province":"東京都","city":"東村山市","address":"東京都東村山市富士見町5丁目4-51","lat":35.746511,"lon":139.462819},{"name":"東村山市立富士見文化センター","province":"東京都","city":"東村山市","address":"東京都東村山市富士見町5丁目4","lat":35.746769,"lon":139.462968},{"name":"東村山市立富士見文化センター","province":"東京都","city":"東村山市","address":"東京都東村山市富士見町5丁目4-51","lat":35.746448,"lon":139.462999},{"name":"東村山市立社会福祉センター","province":"東京都","city":"東村山市","address":"東京都東村山市諏訪町1丁目3-10","lat":35.765483,"lon":139.466698},{"name":"廻田集会所","province":"東京都","city":"東村山市","address":"東京都東村山市廻田町3丁目12-6","lat":35.75761,"lon":139.447324},{"name":"富士見第二集会所","province":"東京都","city":"東村山市","address":"東京都東村山市富士見町1丁目7-35","lat":35.744036,"lon":139.461258},{"name":"青葉地域センター","province":"東京都","city":"東村山市","address":"東京都東村山市青葉町3丁目30-3","lat":35.769235,"lon":139.496207},{"name":"東村山市立中央図書館","province":"東京都","city":"東村山市","address":"東京都東村山市本町1丁目1-10","lat":35.755318,"lon":139.468322},{"name":"東村山市立富士見図書館","province":"東京都","city":"東村山市","address":"東京都東村山市富士見町1丁目7","lat":35.743933,"lon":139.461182},{"name":"東村山市立萩山図書館","province":"東京都","city":"東村山市","address":"東京都東村山市萩山町2丁目13-5","lat":35.742153,"lon":139.477817},{"name":"東村山市立秋津図書館","province":"東京都","city":"東村山市","address":"東京都東村山市秋津町2丁目17-10","lat":35.771146,"lon":139.486629},{"name":"平和塔公園","province":"東京都","city":"東村山市","address":"東京都東村山市本町1丁目13","lat":35.754609,"lon":139.466632},{"name":"南台公園","province":"東京都","city":"東村山市","address":"東京都東村山市富士見町1丁目2","lat":35.74153,"lon":139.458727},{"name":"萩山公園","province":"東京都","city":"東村山市","address":"東京都東村山市萩山町2丁目3","lat":35.742213,"lon":139.475725},{"name":"天王森公園","province":"東京都","city":"東村山市","address":"東京都東村山市本町3丁目45","lat":35.755203,"lon":139.469471},{"name":"北山公園","province":"東京都","city":"東村山市","address":"東京都東村山市野口町4丁目50","lat":35.766375,"lon":139.459497},{"name":"美住町1丁目第3仲よし広場","province":"東京都","city":"東村山市","address":"東京都東村山市美住町1丁目4","lat":35.750135,"lon":139.464142},{"name":"野火止広場","province":"東京都","city":"東村山市","address":"東京都東村山市栄町3丁目14","lat":35.746586,"lon":139.469062},{"name":"萩山四季の森公園","province":"東京都","city":"東村山市","address":"東京都東村山市萩山町3丁目28","lat":35.743209,"lon":139.474233},{"name":"萩山第一児童遊園","province":"東京都","city":"東村山市","address":"東京都東村山市萩山町4丁目16","lat":35.743136,"lon":139.479205},{"name":"秋水園リサイクルセンター管理棟","province":"東京都","city":"東村山市","address":"東京都東村山市秋津町4丁目17","lat":35.780057,"lon":139.48442},{"name":"秋水園ふれあいセンター","province":"東京都","city":"東村山市","address":"東京都東村山市秋津町4丁目24-12","lat":35.779303,"lon":139.486051},{"name":"多摩湖ふれあいセンター","province":"東京都","city":"東村山市","address":"東京都東村山市多摩湖町1丁目18","lat":35.764063,"lon":139.449186},{"name":"廻田憩いの家","province":"東京都","city":"東村山市","address":"東京都東村山市廻田町3丁目12-6","lat":35.75761,"lon":139.447324},{"name":"富士見憩いの家","province":"東京都","city":"東村山市","address":"東京都東村山市富士見町5丁目4-51","lat":35.746542,"lon":139.462703},{"name":"萩山憩いの家","province":"東京都","city":"東村山市","address":"東京都東村山市萩山町2丁目3-11","lat":35.742331,"lon":139.475646},{"name":"恩多ふれあいセンター","province":"東京都","city":"東村山市","address":"東京都東村山市恩多町5丁目40-1","lat":35.757544,"lon":139.490847},{"name":"栄町ふれあいセンター","province":"東京都","city":"東村山市","address":"東京都東村山市栄町2丁目25-5","lat":35.747743,"lon":139.472424},{"name":"久米川ふれあいセンター","province":"東京都","city":"東村山市","address":"東京都東村山市久米川町3丁目16-4","lat":35.7661,"lon":139.474202},{"name":"東村山市民ステーションサンパルネ","province":"東京都","city":"東村山市","address":"東京都東村山市野口町1丁目46","lat":35.760175,"lon":139.465352},{"name":"東村山市民ステーションサンパルネ","province":"東京都","city":"東村山市","address":"東京都東村山市野口町1丁目46","lat":35.760127,"lon":139.465374}]}