{"keyword":"構築","data":[{"name":"八坂","province":"東京都","city":"東村山市","address":"東京都東村山市萩山町3丁目31-45","lat":35.74387259,"lon":139.46697271},{"name":"東村山郵便局前","province":"東京都","city":"東村山市","address":"東京都東村山市本町2丁目1-2","lat":35.75822931,"lon":139.46684991},{"name":"栄町一丁目","province":"東京都","city":"東村山市","address":"東京都東村山市栄町1丁目23-1","lat":35.75067204,"lon":139.47384403},{"name":"八坂駅北口","province":"東京都","city":"東村山市","address":"東京都東村山市栄町3丁目10-28","lat":35.7458668,"lon":139.46705596},{"name":"萩山町五丁目","province":"東京都","city":"東村山市","address":"東京都東村山市萩山町5丁目3","lat":35.74820856,"lon":139.47866037},{"name":"東村山駅東口","province":"東京都","city":"東村山市","address":"東京都東村山市本町2丁目17-7","lat":35.76104847,"lon":139.46749974},{"name":"南台小学校裏","province":"東京都","city":"東村山市","address":"東京都東村山市富士見町2丁目1","lat":35.74489978,"lon":139.45277395},{"name":"東村山駅西口","province":"東京都","city":"東村山市","address":"東京都東村山市野口町1丁目10-1","lat":35.76173995,"lon":139.46462498},{"name":"萩山駅南口","province":"東京都","city":"東村山市","address":"東京都東村山市萩山町2丁目2","lat":35.74081487,"lon":139.47583872},{"name":"東村山郵便局北","province":"東京都","city":"東村山市","address":"東京都東村山市本町2丁目2-9","lat":35.7595014,"lon":139.46689431},{"name":"多摩北部医療センター前","province":"東京都","city":"東村山市","address":"東京都東村山市青葉町2丁目27-1","lat":35.76242395,"lon":139.49172816},{"name":"秋津駅入口","province":"東京都","city":"東村山市","address":"東京都東村山市秋津町1丁目32-18","lat":35.77338112,"lon":139.49729414},{"name":"青葉駐在所前","province":"東京都","city":"東村山市","address":"東京都東村山市青葉町2丁目24-64","lat":35.76058521,"lon":139.48940895},{"name":"多摩北部医療センター西","province":"東京都","city":"東村山市","address":"東京都東村山市青葉町1丁目7","lat":35.75941877,"lon":139.4930448},{"name":"多摩北部医療センター南","province":"東京都","city":"東村山市","address":"東京都東村山市青葉町1丁目7","lat":35.75941877,"lon":139.4930448},{"name":"西武園駅東","province":"東京都","city":"東村山市","address":"東京都東村山市多摩湖町4丁目29","lat":35.76763595,"lon":139.44840958},{"name":"八坂給水所","province":"東京都","city":"東村山市","address":"東京都東村山市富士見町5丁目4-46","lat":35.74735525,"lon":139.45848167},{"name":"東村山浄水場","province":"東京都","city":"東村山市","address":"東京都東村山市美住町2丁目20-236","lat":35.75327404,"lon":139.45878417},{"name":"美住給水所","province":"東京都","city":"東村山市","address":"東京都東村山市美住町2丁目13-4","lat":35.75552943,"lon":139.46155328},{"name":"市立東村山運動公園","province":"東京都","city":"東村山市","address":"東京都東村山市恩多町1丁目9-59","lat":35.75542745,"lon":139.48852866},{"name":"美住給水所（注２）","province":"東京都","city":"東村山市","address":"東京都東村山市美住町2丁目13-4","lat":35.75552943,"lon":139.46155328},{"name":"東村山市保健福祉総合センター","province":"東京都","city":"東村山市","address":"東京都東村山市本町1丁目2-3","lat":35.75462421,"lon":139.46848323},{"name":"東村山警察署","province":"東京都","city":"東村山市","address":"東村山市本町1-1-3","lat":35.75562,"lon":139.4675},{"name":"東村山消防署","province":"東京都","city":"東村山市","address":"東村山市美住町2-28-16","lat":35.75293,"lon":139.4506},{"name":"都立東村山中央公園（広場）","province":"東京都","city":"東村山市","address":"東村山市富士見町5丁目地内","lat":35.74522,"lon":139.4609},{"name":"東村山市立運動公園","province":"東京都","city":"東村山市","address":"東村山市恩多町1-51-1","lat":35.75429,"lon":139.4898},{"name":"八坂","province":"東京都","city":"東村山市","address":"東京都東村山市萩山町3丁目31-45","lat":35.74387259,"lon":139.46697271},{"name":"東村山郵便局前","province":"東京都","city":"東村山市","address":"東京都東村山市本町2丁目1-2","lat":35.75822931,"lon":139.46684991},{"name":"栄町一丁目","province":"東京都","city":"東村山市","address":"東京都東村山市栄町1丁目23-1","lat":35.75067204,"lon":139.47384403},{"name":"八坂駅北口","province":"東京都","city":"東村山市","address":"東京都東村山市栄町3丁目10-28","lat":35.7458668,"lon":139.46705596},{"name":"萩山町五丁目","province":"東京都","city":"東村山市","address":"東京都東村山市萩山町5丁目3","lat":35.74820856,"lon":139.47866037},{"name":"東村山駅東口","province":"東京都","city":"東村山市","address":"東京都東村山市本町2丁目17-7","lat":35.76104847,"lon":139.46749974},{"name":"南台小学校裏","province":"東京都","city":"東村山市","address":"東京都東村山市富士見町2丁目1","lat":35.74489978,"lon":139.45277395},{"name":"東村山駅西口","province":"東京都","city":"東村山市","address":"東京都東村山市野口町1丁目10-1","lat":35.76173995,"lon":139.46462498},{"name":"萩山駅南口","province":"東京都","city":"東村山市","address":"東京都東村山市萩山町2丁目2","lat":35.74081487,"lon":139.47583872},{"name":"東村山郵便局北","province":"東京都","city":"東村山市","address":"東京都東村山市本町2丁目2-9","lat":35.7595014,"lon":139.46689431},{"name":"多摩北部医療センター前","province":"東京都","city":"東村山市","address":"東京都東村山市青葉町2丁目27-1","lat":35.76242395,"lon":139.49172816},{"name":"秋津駅入口","province":"東京都","city":"東村山市","address":"東京都東村山市秋津町1丁目32-18","lat":35.77338112,"lon":139.49729414},{"name":"青葉駐在所前","province":"東京都","city":"東村山市","address":"東京都東村山市青葉町2丁目24-64","lat":35.76058521,"lon":139.48940895},{"name":"多摩北部医療センター西","province":"東京都","city":"東村山市","address":"東京都東村山市青葉町1丁目7","lat":35.75941877,"lon":139.4930448},{"name":"多摩北部医療センター南","province":"東京都","city":"東村山市","address":"東京都東村山市青葉町1丁目7","lat":35.75941877,"lon":139.4930448},{"name":"西武園駅東","province":"東京都","city":"東村山市","address":"東京都東村山市多摩湖町4丁目29","lat":35.76763595,"lon":139.44840958},{"name":"八坂給水所","province":"東京都","city":"東村山市","address":"東京都東村山市富士見町5丁目4-46","lat":35.74735525,"lon":139.45848167},{"name":"東村山浄水場","province":"東京都","city":"東村山市","address":"東京都東村山市美住町2丁目20-236","lat":35.75327404,"lon":139.45878417},{"name":"美住給水所","province":"東京都","city":"東村山市","address":"東京都東村山市美住町2丁目13-4","lat":35.75552943,"lon":139.46155328},{"name":"市立東村山運動公園","province":"東京都","city":"東村山市","address":"東京都東村山市恩多町1丁目9-59","lat":35.75542745,"lon":139.48852866},{"name":"美住給水所（注２）","province":"東京都","city":"東村山市","address":"東京都東村山市美住町2丁目13-4","lat":35.75552943,"lon":139.46155328},{"name":"東村山市保健福祉総合センター","province":"東京都","city":"東村山市","address":"東京都東村山市本町1丁目2-3","lat":35.75462421,"lon":139.46848323},{"name":"東村山警察署","province":"東京都","city":"東村山市","address":"東村山市本町1-1-3","lat":35.75562,"lon":139.4675},{"name":"東村山消防署","province":"東京都","city":"東村山市","address":"東村山市美住町2-28-16","lat":35.75293,"lon":139.4506},{"name":"八坂","province":"東京都","city":"東村山市","address":"東京都東村山市萩山町3丁目31-45","lat":35.74387259,"lon":139.46697271},{"name":"東村山郵便局前","province":"東京都","city":"東村山市","address":"東京都東村山市本町2丁目1-2","lat":35.75822931,"lon":139.46684991},{"name":"栄町一丁目","province":"東京都","city":"東村山市","address":"東京都東村山市栄町1丁目23-1","lat":35.75067204,"lon":139.47384403},{"name":"八坂駅北口","province":"東京都","city":"東村山市","address":"東京都東村山市栄町3丁目10-28","lat":35.7458668,"lon":139.46705596},{"name":"萩山町五丁目","province":"東京都","city":"東村山市","address":"東京都東村山市萩山町5丁目3","lat":35.74820856,"lon":139.47866037},{"name":"東村山駅東口","province":"東京都","city":"東村山市","address":"東京都東村山市本町2丁目17-7","lat":35.76104847,"lon":139.46749974},{"name":"南台小学校裏","province":"東京都","city":"東村山市","address":"東京都東村山市富士見町2丁目1","lat":35.74489978,"lon":139.45277395},{"name":"東村山駅西口","province":"東京都","city":"東村山市","address":"東京都東村山市野口町1丁目10-1","lat":35.76173995,"lon":139.46462498},{"name":"萩山駅南口","province":"東京都","city":"東村山市","address":"東京都東村山市萩山町2丁目2","lat":35.74081487,"lon":139.47583872},{"name":"東村山郵便局北","province":"東京都","city":"東村山市","address":"東京都東村山市本町2丁目2-9","lat":35.7595014,"lon":139.46689431},{"name":"多摩北部医療センター前","province":"東京都","city":"東村山市","address":"東京都東村山市青葉町2丁目27-1","lat":35.76242395,"lon":139.49172816},{"name":"秋津駅入口","province":"東京都","city":"東村山市","address":"東京都東村山市秋津町1丁目32-18","lat":35.77338112,"lon":139.49729414},{"name":"青葉駐在所前","province":"東京都","city":"東村山市","address":"東京都東村山市青葉町2丁目24-64","lat":35.76058521,"lon":139.48940895},{"name":"多摩北部医療センター西","province":"東京都","city":"東村山市","address":"東京都東村山市青葉町1丁目7","lat":35.75941877,"lon":139.4930448},{"name":"多摩北部医療センター南","province":"東京都","city":"東村山市","address":"東京都東村山市青葉町1丁目7","lat":35.75941877,"lon":139.4930448},{"name":"西武園駅東","province":"東京都","city":"東村山市","address":"東京都東村山市多摩湖町4丁目29","lat":35.76763595,"lon":139.44840958},{"name":"八坂給水所","province":"東京都","city":"東村山市","address":"東京都東村山市富士見町5丁目4-46","lat":35.74735525,"lon":139.45848167},{"name":"東村山浄水場","province":"東京都","city":"東村山市","address":"東京都東村山市美住町2丁目20-236","lat":35.75327404,"lon":139.45878417},{"name":"美住給水所","province":"東京都","city":"東村山市","address":"東京都東村山市美住町2丁目13-4","lat":35.75552943,"lon":139.46155328},{"name":"市立東村山運動公園","province":"東京都","city":"東村山市","address":"東京都東村山市恩多町1丁目9-59","lat":35.75542745,"lon":139.48852866},{"name":"美住給水所（注２）","province":"東京都","city":"東村山市","address":"東京都東村山市美住町2丁目13-4","lat":35.75552943,"lon":139.46155328},{"name":"東村山市保健福祉総合センター","province":"東京都","city":"東村山市","address":"東京都東村山市本町1丁目2-3","lat":35.75462421,"lon":139.46848323},{"name":"東村山警察署","province":"東京都","city":"東村山市","address":"東村山市本町1-1-3","lat":35.75562,"lon":139.4675},{"name":"東村山消防署","province":"東京都","city":"東村山市","address":"東村山市美住町2-28-16","lat":35.75293,"lon":139.4506},{"name":"八坂","province":"東京都","city":"東村山市","address":"東京都東村山市萩山町3丁目31-45","lat":35.74387259,"lon":139.46697271},{"name":"東村山郵便局前","province":"東京都","city":"東村山市","address":"東京都東村山市本町2丁目1-2","lat":35.75822931,"lon":139.46684991},{"name":"栄町一丁目","province":"東京都","city":"東村山市","address":"東京都東村山市栄町1丁目23-1","lat":35.75067204,"lon":139.47384403},{"name":"八坂駅北口","province":"東京都","city":"東村山市","address":"東京都東村山市栄町3丁目10-28","lat":35.7458668,"lon":139.46705596},{"name":"萩山町五丁目","province":"東京都","city":"東村山市","address":"東京都東村山市萩山町5丁目3","lat":35.74820856,"lon":139.47866037},{"name":"東村山駅東口","province":"東京都","city":"東村山市","address":"東京都東村山市本町2丁目17-7","lat":35.76104847,"lon":139.46749974},{"name":"南台小学校裏","province":"東京都","city":"東村山市","address":"東京都東村山市富士見町2丁目1","lat":35.74489978,"lon":139.45277395},{"name":"東村山駅西口","province":"東京都","city":"東村山市","address":"東京都東村山市野口町1丁目10-1","lat":35.76173995,"lon":139.46462498},{"name":"萩山駅南口","province":"東京都","city":"東村山市","address":"東京都東村山市萩山町2丁目2","lat":35.74081487,"lon":139.47583872},{"name":"東村山郵便局北","province":"東京都","city":"東村山市","address":"東京都東村山市本町2丁目2-9","lat":35.7595014,"lon":139.46689431},{"name":"多摩北部医療センター前","province":"東京都","city":"東村山市","address":"東京都東村山市青葉町2丁目27-1","lat":35.76242395,"lon":139.49172816},{"name":"秋津駅入口","province":"東京都","city":"東村山市","address":"東京都東村山市秋津町1丁目32-18","lat":35.77338112,"lon":139.49729414},{"name":"青葉駐在所前","province":"東京都","city":"東村山市","address":"東京都東村山市青葉町2丁目24-64","lat":35.76058521,"lon":139.48940895},{"name":"多摩北部医療センター西","province":"東京都","city":"東村山市","address":"東京都東村山市青葉町1丁目7","lat":35.75941877,"lon":139.4930448},{"name":"多摩北部医療センター南","province":"東京都","city":"東村山市","address":"東京都東村山市青葉町1丁目7","lat":35.75941877,"lon":139.4930448},{"name":"西武園駅東","province":"東京都","city":"東村山市","address":"東京都東村山市多摩湖町4丁目29","lat":35.76763595,"lon":139.44840958},{"name":"八坂給水所","province":"東京都","city":"東村山市","address":"東京都東村山市富士見町5丁目4-46","lat":35.74735525,"lon":139.45848167},{"name":"東村山浄水場","province":"東京都","city":"東村山市","address":"東京都東村山市美住町2丁目20-236","lat":35.75327404,"lon":139.45878417},{"name":"美住給水所","province":"東京都","city":"東村山市","address":"東京都東村山市美住町2丁目13-4","lat":35.75552943,"lon":139.46155328},{"name":"市立東村山運動公園","province":"東京都","city":"東村山市","address":"東京都東村山市恩多町1丁目9-59","lat":35.75542745,"lon":139.48852866},{"name":"美住給水所（注２）","province":"東京都","city":"東村山市","address":"東京都東村山市美住町2丁目13-4","lat":35.75552943,"lon":139.46155328},{"name":"東村山市保健福祉総合センター","province":"東京都","city":"東村山市","address":"東京都東村山市本町1丁目2-3","lat":35.75462421,"lon":139.46848323},{"name":"東村山警察署","province":"東京都","city":"東村山市","address":"東村山市本町1-1-3","lat":35.75562,"lon":139.4675},{"name":"東村山消防署","province":"東京都","city":"東村山市","address":"東村山市美住町2-28-16","lat":35.75293,"lon":139.4506},{"name":"八坂","province":"東京都","city":"東村山市","address":"東京都東村山市萩山町3丁目31-45","lat":35.74387259,"lon":139.46697271},{"name":"東村山郵便局前","province":"東京都","city":"東村山市","address":"東京都東村山市本町2丁目1-2","lat":35.75822931,"lon":139.46684991},{"name":"栄町一丁目","province":"東京都","city":"東村山市","address":"東京都東村山市栄町1丁目23-1","lat":35.75067204,"lon":139.47384403},{"name":"八坂駅北口","province":"東京都","city":"東村山市","address":"東京都東村山市栄町3丁目10-28","lat":35.7458668,"lon":139.46705596},{"name":"萩山町五丁目","province":"東京都","city":"東村山市","address":"東京都東村山市萩山町5丁目3","lat":35.74820856,"lon":139.47866037},{"name":"東村山駅東口","province":"東京都","city":"東村山市","address":"東京都東村山市本町2丁目17-7","lat":35.76104847,"lon":139.46749974},{"name":"南台小学校裏","province":"東京都","city":"東村山市","address":"東京都東村山市富士見町2丁目1","lat":35.74489978,"lon":139.45277395},{"name":"東村山駅西口","province":"東京都","city":"東村山市","address":"東京都東村山市野口町1丁目10-1","lat":35.76173995,"lon":139.46462498},{"name":"萩山駅南口","province":"東京都","city":"東村山市","address":"東京都東村山市萩山町2丁目2","lat":35.74081487,"lon":139.47583872},{"name":"東村山郵便局北","province":"東京都","city":"東村山市","address":"東京都東村山市本町2丁目2-9","lat":35.7595014,"lon":139.46689431},{"name":"多摩北部医療センター前","province":"東京都","city":"東村山市","address":"東京都東村山市青葉町2丁目27-1","lat":35.76242395,"lon":139.49172816},{"name":"秋津駅入口","province":"東京都","city":"東村山市","address":"東京都東村山市秋津町1丁目32-18","lat":35.77338112,"lon":139.49729414},{"name":"青葉駐在所前","province":"東京都","city":"東村山市","address":"東京都東村山市青葉町2丁目24-64","lat":35.76058521,"lon":139.48940895},{"name":"多摩北部医療センター西","province":"東京都","city":"東村山市","address":"東京都東村山市青葉町1丁目7","lat":35.75941877,"lon":139.4930448},{"name":"多摩北部医療センター南","province":"東京都","city":"東村山市","address":"東京都東村山市青葉町1丁目7","lat":35.75941877,"lon":139.4930448},{"name":"西武園駅東","province":"東京都","city":"東村山市","address":"東京都東村山市多摩湖町4丁目29","lat":35.76763595,"lon":139.44840958},{"name":"八坂給水所","province":"東京都","city":"東村山市","address":"東京都東村山市富士見町5丁目4-46","lat":35.74735525,"lon":139.45848167},{"name":"東村山浄水場","province":"東京都","city":"東村山市","address":"東京都東村山市美住町2丁目20-236","lat":35.75327404,"lon":139.45878417},{"name":"美住給水所","province":"東京都","city":"東村山市","address":"東京都東村山市美住町2丁目13-4","lat":35.75552943,"lon":139.46155328},{"name":"市立東村山運動公園","province":"東京都","city":"東村山市","address":"東京都東村山市恩多町1丁目9-59","lat":35.75542745,"lon":139.48852866},{"name":"美住給水所（注２）","province":"東京都","city":"東村山市","address":"東京都東村山市美住町2丁目13-4","lat":35.75552943,"lon":139.46155328},{"name":"東村山市保健福祉総合センター","province":"東京都","city":"東村山市","address":"東京都東村山市本町1丁目2-3","lat":35.75462421,"lon":139.46848323},{"name":"東村山警察署","province":"東京都","city":"東村山市","address":"東村山市本町1-1-3","lat":35.75562,"lon":139.4675},{"name":"東村山消防署","province":"東京都","city":"東村山市","address":"東村山市美住町2-28-16","lat":35.75293,"lon":139.4506},{"name":"八坂","province":"東京都","city":"東村山市","address":"東京都東村山市萩山町3丁目31-45","lat":35.74387259,"lon":139.46697271},{"name":"東村山郵便局前","province":"東京都","city":"東村山市","address":"東京都東村山市本町2丁目1-2","lat":35.75822931,"lon":139.46684991},{"name":"栄町一丁目","province":"東京都","city":"東村山市","address":"東京都東村山市栄町1丁目23-1","lat":35.75067204,"lon":139.47384403},{"name":"八坂駅北口","province":"東京都","city":"東村山市","address":"東京都東村山市栄町3丁目10-28","lat":35.7458668,"lon":139.46705596},{"name":"萩山町五丁目","province":"東京都","city":"東村山市","address":"東京都東村山市萩山町5丁目3","lat":35.74820856,"lon":139.47866037},{"name":"東村山駅東口","province":"東京都","city":"東村山市","address":"東京都東村山市本町2丁目17-7","lat":35.76104847,"lon":139.46749974},{"name":"南台小学校裏","province":"東京都","city":"東村山市","address":"東京都東村山市富士見町2丁目1","lat":35.74489978,"lon":139.45277395},{"name":"東村山駅西口","province":"東京都","city":"東村山市","address":"東京都東村山市野口町1丁目10-1","lat":35.76173995,"lon":139.46462498},{"name":"萩山駅南口","province":"東京都","city":"東村山市","address":"東京都東村山市萩山町2丁目2","lat":35.74081487,"lon":139.47583872},{"name":"東村山郵便局北","province":"東京都","city":"東村山市","address":"東京都東村山市本町2丁目2-9","lat":35.7595014,"lon":139.46689431},{"name":"多摩北部医療センター前","province":"東京都","city":"東村山市","address":"東京都東村山市青葉町2丁目27-1","lat":35.76242395,"lon":139.49172816},{"name":"秋津駅入口","province":"東京都","city":"東村山市","address":"東京都東村山市秋津町1丁目32-18","lat":35.77338112,"lon":139.49729414},{"name":"青葉駐在所前","province":"東京都","city":"東村山市","address":"東京都東村山市青葉町2丁目24-64","lat":35.76058521,"lon":139.48940895},{"name":"多摩北部医療センター西","province":"東京都","city":"東村山市","address":"東京都東村山市青葉町1丁目7","lat":35.75941877,"lon":139.4930448},{"name":"多摩北部医療センター南","province":"東京都","city":"東村山市","address":"東京都東村山市青葉町1丁目7","lat":35.75941877,"lon":139.4930448},{"name":"西武園駅東","province":"東京都","city":"東村山市","address":"東京都東村山市多摩湖町4丁目29","lat":35.76763595,"lon":139.44840958},{"name":"八坂給水所","province":"東京都","city":"東村山市","address":"東京都東村山市富士見町5丁目4-46","lat":35.74735525,"lon":139.45848167},{"name":"東村山浄水場","province":"東京都","city":"東村山市","address":"東京都東村山市美住町2丁目20-236","lat":35.75327404,"lon":139.45878417},{"name":"美住給水所","province":"東京都","city":"東村山市","address":"東京都東村山市美住町2丁目13-4","lat":35.75552943,"lon":139.46155328},{"name":"市立東村山運動公園","province":"東京都","city":"東村山市","address":"東京都東村山市恩多町1丁目9-59","lat":35.75542745,"lon":139.48852866},{"name":"美住給水所（注２）","province":"東京都","city":"東村山市","address":"東京都東村山市美住町2丁目13-4","lat":35.75552943,"lon":139.46155328},{"name":"東村山市保健福祉総合センター","province":"東京都","city":"東村山市","address":"東京都東村山市本町1丁目2-3","lat":35.75462421,"lon":139.46848323},{"name":"東村山警察署","province":"東京都","city":"東村山市","address":"東村山市本町1-1-3","lat":35.75562,"lon":139.4675},{"name":"東村山消防署","province":"東京都","city":"東村山市","address":"東村山市美住町2-28-16","lat":35.75293,"lon":139.4506},{"name":"八坂","province":"東京都","city":"東村山市","address":"東京都東村山市萩山町3丁目31-45","lat":35.74387259,"lon":139.46697271},{"name":"東村山郵便局前","province":"東京都","city":"東村山市","address":"東京都東村山市本町2丁目1-2","lat":35.75822931,"lon":139.46684991},{"name":"栄町一丁目","province":"東京都","city":"東村山市","address":"東京都東村山市栄町1丁目23-1","lat":35.75067204,"lon":139.47384403},{"name":"八坂駅北口","province":"東京都","city":"東村山市","address":"東京都東村山市栄町3丁目10-28","lat":35.7458668,"lon":139.46705596},{"name":"萩山町五丁目","province":"東京都","city":"東村山市","address":"東京都東村山市萩山町5丁目3","lat":35.74820856,"lon":139.47866037},{"name":"東村山駅東口","province":"東京都","city":"東村山市","address":"東京都東村山市本町2丁目17-7","lat":35.76104847,"lon":139.46749974},{"name":"南台小学校裏","province":"東京都","city":"東村山市","address":"東京都東村山市富士見町2丁目1","lat":35.74489978,"lon":139.45277395},{"name":"東村山駅西口","province":"東京都","city":"東村山市","address":"東京都東村山市野口町1丁目10-1","lat":35.76173995,"lon":139.46462498},{"name":"萩山駅南口","province":"東京都","city":"東村山市","address":"東京都東村山市萩山町2丁目2","lat":35.74081487,"lon":139.47583872},{"name":"東村山郵便局北","province":"東京都","city":"東村山市","address":"東京都東村山市本町2丁目2-9","lat":35.7595014,"lon":139.46689431},{"name":"多摩北部医療センター前","province":"東京都","city":"東村山市","address":"東京都東村山市青葉町2丁目27-1","lat":35.76242395,"lon":139.49172816},{"name":"秋津駅入口","province":"東京都","city":"東村山市","address":"東京都東村山市秋津町1丁目32-18","lat":35.77338112,"lon":139.49729414},{"name":"青葉駐在所前","province":"東京都","city":"東村山市","address":"東京都東村山市青葉町2丁目24-64","lat":35.76058521,"lon":139.48940895},{"name":"多摩北部医療センター西","province":"東京都","city":"東村山市","address":"東京都東村山市青葉町1丁目7","lat":35.75941877,"lon":139.4930448},{"name":"多摩北部医療センター南","province":"東京都","city":"東村山市","address":"東京都東村山市青葉町1丁目7","lat":35.75941877,"lon":139.4930448},{"name":"西武園駅東","province":"東京都","city":"東村山市","address":"東京都東村山市多摩湖町4丁目29","lat":35.76763595,"lon":139.44840958},{"name":"八坂給水所","province":"東京都","city":"東村山市","address":"東京都東村山市富士見町5丁目4-46","lat":35.74735525,"lon":139.45848167},{"name":"東村山浄水場","province":"東京都","city":"東村山市","address":"東京都東村山市美住町2丁目20-236","lat":35.75327404,"lon":139.45878417},{"name":"美住給水所","province":"東京都","city":"東村山市","address":"東京都東村山市美住町2丁目13-4","lat":35.75552943,"lon":139.46155328},{"name":"市立東村山運動公園","province":"東京都","city":"東村山市","address":"東京都東村山市恩多町1丁目9-59","lat":35.75542745,"lon":139.48852866},{"name":"美住給水所（注２）","province":"東京都","city":"東村山市","address":"東京都東村山市美住町2丁目13-4","lat":35.75552943,"lon":139.46155328},{"name":"東村山市保健福祉総合センター","province":"東京都","city":"東村山市","address":"東京都東村山市本町1丁目2-3","lat":35.75462421,"lon":139.46848323},{"name":"東村山警察署","province":"東京都","city":"東村山市","address":"東村山市本町1-1-3","lat":35.75562,"lon":139.4675},{"name":"東村山消防署","province":"東京都","city":"東村山市","address":"東村山市美住町2-28-16","lat":35.75293,"lon":139.4506},{"name":"八坂","province":"東京都","city":"東村山市","address":"東京都東村山市萩山町3丁目31-45","lat":35.74387259,"lon":139.46697271},{"name":"東村山郵便局前","province":"東京都","city":"東村山市","address":"東京都東村山市本町2丁目1-2","lat":35.75822931,"lon":139.46684991},{"name":"栄町一丁目","province":"東京都","city":"東村山市","address":"東京都東村山市栄町1丁目23-1","lat":35.75067204,"lon":139.47384403},{"name":"八坂駅北口","province":"東京都","city":"東村山市","address":"東京都東村山市栄町3丁目10-28","lat":35.7458668,"lon":139.46705596},{"name":"萩山町五丁目","province":"東京都","city":"東村山市","address":"東京都東村山市萩山町5丁目3","lat":35.74820856,"lon":139.47866037},{"name":"東村山駅東口","province":"東京都","city":"東村山市","address":"東京都東村山市本町2丁目17-7","lat":35.76104847,"lon":139.46749974},{"name":"南台小学校裏","province":"東京都","city":"東村山市","address":"東京都東村山市富士見町2丁目1","lat":35.74489978,"lon":139.45277395},{"name":"東村山駅西口","province":"東京都","city":"東村山市","address":"東京都東村山市野口町1丁目10-1","lat":35.76173995,"lon":139.46462498},{"name":"萩山駅南口","province":"東京都","city":"東村山市","address":"東京都東村山市萩山町2丁目2","lat":35.74081487,"lon":139.47583872},{"name":"東村山郵便局北","province":"東京都","city":"東村山市","address":"東京都東村山市本町2丁目2-9","lat":35.7595014,"lon":139.46689431},{"name":"多摩北部医療センター前","province":"東京都","city":"東村山市","address":"東京都東村山市青葉町2丁目27-1","lat":35.76242395,"lon":139.49172816},{"name":"秋津駅入口","province":"東京都","city":"東村山市","address":"東京都東村山市秋津町1丁目32-18","lat":35.77338112,"lon":139.49729414},{"name":"青葉駐在所前","province":"東京都","city":"東村山市","address":"東京都東村山市青葉町2丁目24-64","lat":35.76058521,"lon":139.48940895},{"name":"多摩北部医療センター西","province":"東京都","city":"東村山市","address":"東京都東村山市青葉町1丁目7","lat":35.75941877,"lon":139.4930448},{"name":"多摩北部医療センター南","province":"東京都","city":"東村山市","address":"東京都東村山市青葉町1丁目7","lat":35.75941877,"lon":139.4930448},{"name":"西武園駅東","province":"東京都","city":"東村山市","address":"東京都東村山市多摩湖町4丁目29","lat":35.76763595,"lon":139.44840958},{"name":"八坂給水所","province":"東京都","city":"東村山市","address":"東京都東村山市富士見町5丁目4-46","lat":35.74735525,"lon":139.45848167},{"name":"東村山浄水場","province":"東京都","city":"東村山市","address":"東京都東村山市美住町2丁目20-236","lat":35.75327404,"lon":139.45878417},{"name":"美住給水所","province":"東京都","city":"東村山市","address":"東京都東村山市美住町2丁目13-4","lat":35.75552943,"lon":139.46155328},{"name":"市立東村山運動公園","province":"東京都","city":"東村山市","address":"東京都東村山市恩多町1丁目9-59","lat":35.75542745,"lon":139.48852866},{"name":"美住給水所（注２）","province":"東京都","city":"東村山市","address":"東京都東村山市美住町2丁目13-4","lat":35.75552943,"lon":139.46155328},{"name":"東村山市保健福祉総合センター","province":"東京都","city":"東村山市","address":"東京都東村山市本町1丁目2-3","lat":35.75462421,"lon":139.46848323},{"name":"東村山警察署","province":"東京都","city":"東村山市","address":"東村山市本町1-1-3","lat":35.75562,"lon":139.4675},{"name":"東村山消防署","province":"東京都","city":"東村山市","address":"東村山市美住町2-28-16","lat":35.75293,"lon":139.4506},{"name":"八坂","province":"東京都","city":"東村山市","address":"東京都東村山市萩山町3丁目31-45","lat":35.74387259,"lon":139.46697271},{"name":"東村山郵便局前","province":"東京都","city":"東村山市","address":"東京都東村山市本町2丁目1-2","lat":35.75822931,"lon":139.46684991},{"name":"栄町一丁目","province":"東京都","city":"東村山市","address":"東京都東村山市栄町1丁目23-1","lat":35.75067204,"lon":139.47384403},{"name":"八坂駅北口","province":"東京都","city":"東村山市","address":"東京都東村山市栄町3丁目10-28","lat":35.7458668,"lon":139.46705596},{"name":"萩山町五丁目","province":"東京都","city":"東村山市","address":"東京都東村山市萩山町5丁目3","lat":35.74820856,"lon":139.47866037},{"name":"東村山駅東口","province":"東京都","city":"東村山市","address":"東京都東村山市本町2丁目17-7","lat":35.76104847,"lon":139.46749974},{"name":"南台小学校裏","province":"東京都","city":"東村山市","address":"東京都東村山市富士見町2丁目1","lat":35.74489978,"lon":139.45277395},{"name":"東村山駅西口","province":"東京都","city":"東村山市","address":"東京都東村山市野口町1丁目10-1","lat":35.76173995,"lon":139.46462498},{"name":"萩山駅南口","province":"東京都","city":"東村山市","address":"東京都東村山市萩山町2丁目2","lat":35.74081487,"lon":139.47583872},{"name":"東村山郵便局北","province":"東京都","city":"東村山市","address":"東京都東村山市本町2丁目2-9","lat":35.7595014,"lon":139.46689431},{"name":"多摩北部医療センター前","province":"東京都","city":"東村山市","address":"東京都東村山市青葉町2丁目27-1","lat":35.76242395,"lon":139.49172816},{"name":"秋津駅入口","province":"東京都","city":"東村山市","address":"東京都東村山市秋津町1丁目32-18","lat":35.77338112,"lon":139.49729414},{"name":"青葉駐在所前","province":"東京都","city":"東村山市","address":"東京都東村山市青葉町2丁目24-64","lat":35.76058521,"lon":139.48940895},{"name":"多摩北部医療センター西","province":"東京都","city":"東村山市","address":"東京都東村山市青葉町1丁目7","lat":35.75941877,"lon":139.4930448},{"name":"多摩北部医療センター南","province":"東京都","city":"東村山市","address":"東京都東村山市青葉町1丁目7","lat":35.75941877,"lon":139.4930448},{"name":"西武園駅東","province":"東京都","city":"東村山市","address":"東京都東村山市多摩湖町4丁目29","lat":35.76763595,"lon":139.44840958},{"name":"八坂給水所","province":"東京都","city":"東村山市","address":"東京都東村山市富士見町5丁目4-46","lat":35.74735525,"lon":139.45848167},{"name":"東村山浄水場","province":"東京都","city":"東村山市","address":"東京都東村山市美住町2丁目20-236","lat":35.75327404,"lon":139.45878417},{"name":"美住給水所","province":"東京都","city":"東村山市","address":"東京都東村山市美住町2丁目13-4","lat":35.75552943,"lon":139.46155328},{"name":"市立東村山運動公園","province":"東京都","city":"東村山市","address":"東京都東村山市恩多町1丁目9-59","lat":35.75542745,"lon":139.48852866},{"name":"美住給水所（注２）","province":"東京都","city":"東村山市","address":"東京都東村山市美住町2丁目13-4","lat":35.75552943,"lon":139.46155328},{"name":"東村山市保健福祉総合センター","province":"東京都","city":"東村山市","address":"東京都東村山市本町1丁目2-3","lat":35.75462421,"lon":139.46848323},{"name":"東村山警察署","province":"東京都","city":"東村山市","address":"東村山市本町1-1-3","lat":35.75562,"lon":139.4675},{"name":"東村山消防署","province":"東京都","city":"東村山市","address":"東村山市美住町2-28-16","lat":35.75293,"lon":139.4506},{"name":"八坂","province":"東京都","city":"東村山市","address":"東京都東村山市萩山町3丁目31-45","lat":35.74387259,"lon":139.46697271},{"name":"東村山郵便局前","province":"東京都","city":"東村山市","address":"東京都東村山市本町2丁目1-2","lat":35.75822931,"lon":139.46684991},{"name":"栄町一丁目","province":"東京都","city":"東村山市","address":"東京都東村山市栄町1丁目23-1","lat":35.75067204,"lon":139.47384403},{"name":"八坂駅北口","province":"東京都","city":"東村山市","address":"東京都東村山市栄町3丁目10-28","lat":35.7458668,"lon":139.46705596},{"name":"萩山町五丁目","province":"東京都","city":"東村山市","address":"東京都東村山市萩山町5丁目3","lat":35.74820856,"lon":139.47866037},{"name":"東村山駅東口","province":"東京都","city":"東村山市","address":"東京都東村山市本町2丁目17-7","lat":35.76104847,"lon":139.46749974},{"name":"南台小学校裏","province":"東京都","city":"東村山市","address":"東京都東村山市富士見町2丁目1","lat":35.74489978,"lon":139.45277395},{"name":"東村山駅西口","province":"東京都","city":"東村山市","address":"東京都東村山市野口町1丁目10-1","lat":35.76173995,"lon":139.46462498},{"name":"萩山駅南口","province":"東京都","city":"東村山市","address":"東京都東村山市萩山町2丁目2","lat":35.74081487,"lon":139.47583872},{"name":"東村山郵便局北","province":"東京都","city":"東村山市","address":"東京都東村山市本町2丁目2-9","lat":35.7595014,"lon":139.46689431},{"name":"多摩北部医療センター前","province":"東京都","city":"東村山市","address":"東京都東村山市青葉町2丁目27-1","lat":35.76242395,"lon":139.49172816},{"name":"秋津駅入口","province":"東京都","city":"東村山市","address":"東京都東村山市秋津町1丁目32-18","lat":35.77338112,"lon":139.49729414},{"name":"青葉駐在所前","province":"東京都","city":"東村山市","address":"東京都東村山市青葉町2丁目24-64","lat":35.76058521,"lon":139.48940895},{"name":"多摩北部医療センター西","province":"東京都","city":"東村山市","address":"東京都東村山市青葉町1丁目7","lat":35.75941877,"lon":139.4930448},{"name":"多摩北部医療センター南","province":"東京都","city":"東村山市","address":"東京都東村山市青葉町1丁目7","lat":35.75941877,"lon":139.4930448},{"name":"西武園駅東","province":"東京都","city":"東村山市","address":"東京都東村山市多摩湖町4丁目29","lat":35.76763595,"lon":139.44840958},{"name":"八坂給水所","province":"東京都","city":"東村山市","address":"東京都東村山市富士見町5丁目4-46","lat":35.74735525,"lon":139.45848167},{"name":"東村山浄水場","province":"東京都","city":"東村山市","address":"東京都東村山市美住町2丁目20-236","lat":35.75327404,"lon":139.45878417},{"name":"美住給水所","province":"東京都","city":"東村山市","address":"東京都東村山市美住町2丁目13-4","lat":35.75552943,"lon":139.46155328},{"name":"市立東村山運動公園","province":"東京都","city":"東村山市","address":"東京都東村山市恩多町1丁目9-59","lat":35.75542745,"lon":139.48852866},{"name":"美住給水所（注２）","province":"東京都","city":"東村山市","address":"東京都東村山市美住町2丁目13-4","lat":35.75552943,"lon":139.46155328},{"name":"東村山市保健福祉総合センター","province":"東京都","city":"東村山市","address":"東京都東村山市本町1丁目2-3","lat":35.75462421,"lon":139.46848323},{"name":"東村山警察署","province":"東京都","city":"東村山市","address":"東村山市本町1-1-3","lat":35.75562,"lon":139.4675},{"name":"東村山消防署","province":"東京都","city":"東村山市","address":"東村山市美住町2-28-16","lat":35.75293,"lon":139.4506},{"name":"八坂","province":"東京都","city":"東村山市","address":"東京都東村山市萩山町3丁目31-45","lat":35.74387259,"lon":139.46697271},{"name":"東村山郵便局前","province":"東京都","city":"東村山市","address":"東京都東村山市本町2丁目1-2","lat":35.75822931,"lon":139.46684991},{"name":"栄町一丁目","province":"東京都","city":"東村山市","address":"東京都東村山市栄町1丁目23-1","lat":35.75067204,"lon":139.47384403},{"name":"八坂駅北口","province":"東京都","city":"東村山市","address":"東京都東村山市栄町3丁目10-28","lat":35.7458668,"lon":139.46705596},{"name":"萩山町五丁目","province":"東京都","city":"東村山市","address":"東京都東村山市萩山町5丁目3","lat":35.74820856,"lon":139.47866037},{"name":"東村山駅東口","province":"東京都","city":"東村山市","address":"東京都東村山市本町2丁目17-7","lat":35.76104847,"lon":139.46749974},{"name":"南台小学校裏","province":"東京都","city":"東村山市","address":"東京都東村山市富士見町2丁目1","lat":35.74489978,"lon":139.45277395},{"name":"東村山駅西口","province":"東京都","city":"東村山市","address":"東京都東村山市野口町1丁目10-1","lat":35.76173995,"lon":139.46462498},{"name":"萩山駅南口","province":"東京都","city":"東村山市","address":"東京都東村山市萩山町2丁目2","lat":35.74081487,"lon":139.47583872},{"name":"東村山郵便局北","province":"東京都","city":"東村山市","address":"東京都東村山市本町2丁目2-9","lat":35.7595014,"lon":139.46689431},{"name":"多摩北部医療センター前","province":"東京都","city":"東村山市","address":"東京都東村山市青葉町2丁目27-1","lat":35.76242395,"lon":139.49172816},{"name":"秋津駅入口","province":"東京都","city":"東村山市","address":"東京都東村山市秋津町1丁目32-18","lat":35.77338112,"lon":139.49729414},{"name":"青葉駐在所前","province":"東京都","city":"東村山市","address":"東京都東村山市青葉町2丁目24-64","lat":35.76058521,"lon":139.48940895},{"name":"多摩北部医療センター西","province":"東京都","city":"東村山市","address":"東京都東村山市青葉町1丁目7","lat":35.75941877,"lon":139.4930448},{"name":"多摩北部医療センター南","province":"東京都","city":"東村山市","address":"東京都東村山市青葉町1丁目7","lat":35.75941877,"lon":139.4930448},{"name":"西武園駅東","province":"東京都","city":"東村山市","address":"東京都東村山市多摩湖町4丁目29","lat":35.76763595,"lon":139.44840958},{"name":"八坂給水所","province":"東京都","city":"東村山市","address":"東京都東村山市富士見町5丁目4-46","lat":35.74735525,"lon":139.45848167},{"name":"東村山浄水場","province":"東京都","city":"東村山市","address":"東京都東村山市美住町2丁目20-236","lat":35.75327404,"lon":139.45878417},{"name":"美住給水所","province":"東京都","city":"東村山市","address":"東京都東村山市美住町2丁目13-4","lat":35.75552943,"lon":139.46155328},{"name":"市立東村山運動公園","province":"東京都","city":"東村山市","address":"東京都東村山市恩多町1丁目9-59","lat":35.75542745,"lon":139.48852866},{"name":"美住給水所（注２）","province":"東京都","city":"東村山市","address":"東京都東村山市美住町2丁目13-4","lat":35.75552943,"lon":139.46155328},{"name":"東村山市保健福祉総合センター","province":"東京都","city":"東村山市","address":"東京都東村山市本町1丁目2-3","lat":35.75462421,"lon":139.46848323},{"name":"東村山警察署","province":"東京都","city":"東村山市","address":"東村山市本町1-1-3","lat":35.75562,"lon":139.4675},{"name":"東村山消防署","province":"東京都","city":"東村山市","address":"東村山市美住町2-28-16","lat":35.75293,"lon":139.4506},{"name":"八坂","province":"東京都","city":"東村山市","address":"東京都東村山市萩山町3丁目31-45","lat":35.74387259,"lon":139.46697271},{"name":"東村山郵便局前","province":"東京都","city":"東村山市","address":"東京都東村山市本町2丁目1-2","lat":35.75822931,"lon":139.46684991},{"name":"栄町一丁目","province":"東京都","city":"東村山市","address":"東京都東村山市栄町1丁目23-1","lat":35.75067204,"lon":139.47384403},{"name":"八坂駅北口","province":"東京都","city":"東村山市","address":"東京都東村山市栄町3丁目10-28","lat":35.7458668,"lon":139.46705596},{"name":"萩山町五丁目","province":"東京都","city":"東村山市","address":"東京都東村山市萩山町5丁目3","lat":35.74820856,"lon":139.47866037},{"name":"東村山駅東口","province":"東京都","city":"東村山市","address":"東京都東村山市本町2丁目17-7","lat":35.76104847,"lon":139.46749974},{"name":"南台小学校裏","province":"東京都","city":"東村山市","address":"東京都東村山市富士見町2丁目1","lat":35.74489978,"lon":139.45277395},{"name":"東村山駅西口","province":"東京都","city":"東村山市","address":"東京都東村山市野口町1丁目10-1","lat":35.76173995,"lon":139.46462498},{"name":"萩山駅南口","province":"東京都","city":"東村山市","address":"東京都東村山市萩山町2丁目2","lat":35.74081487,"lon":139.47583872},{"name":"東村山郵便局北","province":"東京都","city":"東村山市","address":"東京都東村山市本町2丁目2-9","lat":35.7595014,"lon":139.46689431},{"name":"多摩北部医療センター前","province":"東京都","city":"東村山市","address":"東京都東村山市青葉町2丁目27-1","lat":35.76242395,"lon":139.49172816},{"name":"秋津駅入口","province":"東京都","city":"東村山市","address":"東京都東村山市秋津町1丁目32-18","lat":35.77338112,"lon":139.49729414},{"name":"青葉駐在所前","province":"東京都","city":"東村山市","address":"東京都東村山市青葉町2丁目24-64","lat":35.76058521,"lon":139.48940895},{"name":"多摩北部医療センター西","province":"東京都","city":"東村山市","address":"東京都東村山市青葉町1丁目7","lat":35.75941877,"lon":139.4930448},{"name":"多摩北部医療センター南","province":"東京都","city":"東村山市","address":"東京都東村山市青葉町1丁目7","lat":35.75941877,"lon":139.4930448},{"name":"西武園駅東","province":"東京都","city":"東村山市","address":"東京都東村山市多摩湖町4丁目29","lat":35.76763595,"lon":139.44840958},{"name":"八坂給水所","province":"東京都","city":"東村山市","address":"東京都東村山市富士見町5丁目4-46","lat":35.74735525,"lon":139.45848167},{"name":"東村山浄水場","province":"東京都","city":"東村山市","address":"東京都東村山市美住町2丁目20-236","lat":35.75327404,"lon":139.45878417},{"name":"美住給水所","province":"東京都","city":"東村山市","address":"東京都東村山市美住町2丁目13-4","lat":35.75552943,"lon":139.46155328},{"name":"市立東村山運動公園","province":"東京都","city":"東村山市","address":"東京都東村山市恩多町1丁目9-59","lat":35.75542745,"lon":139.48852866},{"name":"美住給水所（注２）","province":"東京都","city":"東村山市","address":"東京都東村山市美住町2丁目13-4","lat":35.75552943,"lon":139.46155328},{"name":"東村山市保健福祉総合センター","province":"東京都","city":"東村山市","address":"東京都東村山市本町1丁目2-3","lat":35.75462421,"lon":139.46848323},{"name":"東村山警察署","province":"東京都","city":"東村山市","address":"東村山市本町1-1-3","lat":35.75562,"lon":139.4675},{"name":"東村山消防署","province":"東京都","city":"東村山市","address":"東村山市美住町2-28-16","lat":35.75293,"lon":139.4506},{"name":"八坂","province":"東京都","city":"東村山市","address":"東京都東村山市萩山町3丁目31-45","lat":35.74387259,"lon":139.46697271},{"name":"東村山郵便局前","province":"東京都","city":"東村山市","address":"東京都東村山市本町2丁目1-2","lat":35.75822931,"lon":139.46684991},{"name":"栄町一丁目","province":"東京都","city":"東村山市","address":"東京都東村山市栄町1丁目23-1","lat":35.75067204,"lon":139.47384403},{"name":"八坂駅北口","province":"東京都","city":"東村山市","address":"東京都東村山市栄町3丁目10-28","lat":35.7458668,"lon":139.46705596},{"name":"萩山町五丁目","province":"東京都","city":"東村山市","address":"東京都東村山市萩山町5丁目3","lat":35.74820856,"lon":139.47866037},{"name":"東村山駅東口","province":"東京都","city":"東村山市","address":"東京都東村山市本町2丁目17-7","lat":35.76104847,"lon":139.46749974},{"name":"南台小学校裏","province":"東京都","city":"東村山市","address":"東京都東村山市富士見町2丁目1","lat":35.74489978,"lon":139.45277395},{"name":"東村山駅西口","province":"東京都","city":"東村山市","address":"東京都東村山市野口町1丁目10-1","lat":35.76173995,"lon":139.46462498},{"name":"萩山駅南口","province":"東京都","city":"東村山市","address":"東京都東村山市萩山町2丁目2","lat":35.74081487,"lon":139.47583872},{"name":"東村山郵便局北","province":"東京都","city":"東村山市","address":"東京都東村山市本町2丁目2-9","lat":35.7595014,"lon":139.46689431},{"name":"多摩北部医療センター前","province":"東京都","city":"東村山市","address":"東京都東村山市青葉町2丁目27-1","lat":35.76242395,"lon":139.49172816},{"name":"秋津駅入口","province":"東京都","city":"東村山市","address":"東京都東村山市秋津町1丁目32-18","lat":35.77338112,"lon":139.49729414},{"name":"青葉駐在所前","province":"東京都","city":"東村山市","address":"東京都東村山市青葉町2丁目24-64","lat":35.76058521,"lon":139.48940895},{"name":"多摩北部医療センター西","province":"東京都","city":"東村山市","address":"東京都東村山市青葉町1丁目7","lat":35.75941877,"lon":139.4930448},{"name":"多摩北部医療センター南","province":"東京都","city":"東村山市","address":"東京都東村山市青葉町1丁目7","lat":35.75941877,"lon":139.4930448},{"name":"西武園駅東","province":"東京都","city":"東村山市","address":"東京都東村山市多摩湖町4丁目29","lat":35.76763595,"lon":139.44840958},{"name":"八坂給水所","province":"東京都","city":"東村山市","address":"東京都東村山市富士見町5丁目4-46","lat":35.74735525,"lon":139.45848167},{"name":"東村山浄水場","province":"東京都","city":"東村山市","address":"東京都東村山市美住町2丁目20-236","lat":35.75327404,"lon":139.45878417},{"name":"美住給水所","province":"東京都","city":"東村山市","address":"東京都東村山市美住町2丁目13-4","lat":35.75552943,"lon":139.46155328},{"name":"市立東村山運動公園","province":"東京都","city":"東村山市","address":"東京都東村山市恩多町1丁目9-59","lat":35.75542745,"lon":139.48852866},{"name":"美住給水所（注２）","province":"東京都","city":"東村山市","address":"東京都東村山市美住町2丁目13-4","lat":35.75552943,"lon":139.46155328},{"name":"東村山市保健福祉総合センター","province":"東京都","city":"東村山市","address":"東京都東村山市本町1丁目2-3","lat":35.75462421,"lon":139.46848323},{"name":"東村山警察署","province":"東京都","city":"東村山市","address":"東村山市本町1-1-3","lat":35.75562,"lon":139.4675},{"name":"東村山消防署","province":"東京都","city":"東村山市","address":"東村山市美住町2-28-16","lat":35.75293,"lon":139.4506}]}