{"keyword":"男女","data":[{"name":"多摩北部医療センター","province":"東京都","city":"東村山市","address":"東京都東村山市青葉町1丁目7-1","lat":35.76043805,"lon":139.49094217},{"name":"平成あおば上宮園","province":"東京都","city":"東村山市","address":"東京都東村山市青葉町1-7-75","lat":35.75954,"lon":139.49255},{"name":"東村山市立第五保育園","province":"東京都","city":"東村山市","address":"東村山市秋津町4-25-15","lat":35.779283,"lon":139.48512},{"name":"青葉さくら保育園","province":"東京都","city":"東村山市","address":"東村山市青葉町1-7-68","lat":35.75773,"lon":139.491806},{"name":"花さき保育園","province":"東京都","city":"東村山市","address":"東村山市青葉町4-1-1","lat":35.764804,"lon":139.495472},{"name":"東村山市立第六保育園","province":"東京都","city":"東村山市","address":"東村山市久米川町4-4-10","lat":35.761185,"lon":139.472149},{"name":"わくわく保育園","province":"東京都","city":"東村山市","address":"東村山市久米川町1-38-4","lat":35.768112,"lon":139.48527},{"name":"あいあい保育園","province":"東京都","city":"東村山市","address":"東村山市久米川町2-44-2","lat":35.76644,"lon":139.481643},{"name":"りんごっこ保育園","province":"東京都","city":"東村山市","address":"東村山市恩多町1-55-7","lat":35.751795,"lon":139.48854},{"name":"東村山市立第二保育園","province":"東京都","city":"東村山市","address":"東村山市萩山町1-36-1","lat":35.737546,"lon":139.483433},{"name":"久米川保育園","province":"東京都","city":"東村山市","address":"東村山市萩山町5-6-1","lat":35.746978,"lon":139.479416},{"name":"東村山市立第七保育園","province":"東京都","city":"東村山市","address":"東村山市栄町1-36-51","lat":35.752597,"lon":139.477224},{"name":"いづみ愛児園","province":"東京都","city":"東村山市","address":"東村山市栄町1丁目37番地28","lat":35.751414,"lon":139.477866},{"name":"東村山市立第一保育園","province":"東京都","city":"東村山市","address":"東村山市本町4-15-16都営本町アパート6号棟1階","lat":35.753358,"lon":139.473269},{"name":"つばさ保育園","province":"東京都","city":"東村山市","address":"東村山市本町2-22-3","lat":35.759199,"lon":139.468989},{"name":"ほんちょう保育園","province":"東京都","city":"東村山市","address":"東村山市本町3-43-1","lat":35.75561,"lon":139.470444},{"name":"八国山保育園","province":"東京都","city":"東村山市","address":"東村山市野口町1-5-6","lat":35.764123,"lon":139.465778},{"name":"東村山市立第四保育園","province":"東京都","city":"東村山市","address":"東村山市美住町1-4-19","lat":35.749289,"lon":139.464839},{"name":"つぼみ保育園","province":"東京都","city":"東村山市","address":"東村山市富士見町2-2-2","lat":35.744922,"lon":139.451777},{"name":"ふじみ保育園","province":"東京都","city":"東村山市","address":"東村山市富士見町2-7-5","lat":35.740203,"lon":139.452535},{"name":"東村山むさしの第二認定こども園","province":"東京都","city":"東村山市","address":"東村山市廻田町2-14-1","lat":35.754132,"lon":139.448688},{"name":"東村山市立第三保育園","province":"東京都","city":"東村山市","address":"東村山市多摩湖町1-23-4","lat":35.763703,"lon":139.452159},{"name":"東たいてん保育園","province":"東京都","city":"東村山市","address":"東村山市多摩湖町1-14-2","lat":35.76202,"lon":139.448471},{"name":"東京都立萩山実務学校","province":"東京都","city":"東村山市","address":"東村山市萩山町1-37-1","lat":35.73761,"lon":139.479936},{"name":"やまだこども教室","province":"東京都","city":"東村山市","address":"東村山市秋津町5-13-3セゾン新秋津2階","lat":35.778311,"lon":139.494094},{"name":"トーコロあおば就労サポートセンター","province":"東京都","city":"東村山市","address":"東村山市青葉町2-39-10","lat":35.765318,"lon":139.490695},{"name":"山鳩訓練室","province":"東京都","city":"東村山市","address":"東村山市久米川町3-12-31","lat":35.765895,"lon":139.473002},{"name":"楽しい放課後みんな","province":"東京都","city":"東村山市","address":"東村山市久米川町2-31-6-102","lat":35.761424,"lon":139.482748},{"name":"ひまわり","province":"東京都","city":"東村山市","address":"東村山市富士見町1-5-13","lat":35.741734,"lon":139.459646},{"name":"さやま園","province":"東京都","city":"東村山市","address":"東村山市富士見町2-7-13","lat":35.740334,"lon":139.454216},{"name":"東村山市福祉作業所","province":"東京都","city":"東村山市","address":"東村山市諏訪町1-3-10","lat":35.76549,"lon":139.466672},{"name":"東村山ソーシャルホーム","province":"東京都","city":"東村山市","address":"東村山市本町1-13-51大塚ビル104","lat":35.75433,"lon":139.466156},{"name":"緑風荘病院","province":"東京都","city":"東村山市","address":"東村山市萩山町3-31-1","lat":35.74455,"lon":139.468078},{"name":"東京白十字病院","province":"東京都","city":"東村山市","address":"東村山市諏訪町2-26-1","lat":35.771892,"lon":139.463658},{"name":"東村山市保健福祉総合センター「いきいきプラザ」","province":"東京都","city":"東村山市","address":"東村山市本町1-2-3","lat":35.754624,"lon":139.468483},{"name":"ドーミー久米川","province":"東京都","city":"東村山市","address":"東村山市本町1-9-11","lat":35.75204,"lon":139.46751},{"name":"東村山ソーシャルホーム","province":"東京都","city":"東村山市","address":"東村山市本町1-13-51大塚ビル104","lat":35.75448,"lon":139.46622},{"name":"市役所 本庁舎1階 総合受付横","province":"東京都","city":"東村山市","address":"東京都東村山市本町1丁目2-3","lat":35.75418,"lon":139.468301},{"name":"市役所 いきいきプラザ1階 総合窓口横","province":"東京都","city":"東村山市","address":"東京都東村山市本町1丁目2-3","lat":35.75418,"lon":139.468301},{"name":"市民センター1階 入口付近","province":"東京都","city":"東村山市","address":"東京都東村山市本町1丁目1-1","lat":35.755291,"lon":139.46753},{"name":"東村山駅西口サンパルネ3階 健康・交流フロア","province":"東京都","city":"東村山市","address":"東京都東村山市野口町1丁目46","lat":35.759997,"lon":139.465323},{"name":"秋水園ふれあいセンター","province":"東京都","city":"東村山市","address":"東京都東村山市秋津町4丁目24-12","lat":35.77929,"lon":139.485947},{"name":"多摩湖ふれあいセンター","province":"東京都","city":"東村山市","address":"東京都東村山市多摩湖町1丁目18-16","lat":35.764064,"lon":139.449143},{"name":"恩多ふれあいセンター","province":"東京都","city":"東村山市","address":"東京都東村山市恩多町5丁目40-1","lat":35.757291,"lon":139.490009},{"name":"栄町ふれあいセンター","province":"東京都","city":"東村山市","address":"東京都東村山市栄町2丁目25-5","lat":35.747752,"lon":139.47242},{"name":"久米川ふれあいセンター","province":"東京都","city":"東村山市","address":"東京都東村山市久米川町3丁目16-4","lat":35.766096,"lon":139.474206},{"name":"青葉地域センター","province":"東京都","city":"東村山市","address":"東京都東村山市青葉町3丁目30-3","lat":35.76921,"lon":139.496263},{"name":"秋水園","province":"東京都","city":"東村山市","address":"東京都東村山市秋津町4丁目17-1","lat":35.779668,"lon":139.485337},{"name":"秋水園プール （注記）プール開放期間のみ","province":"東京都","city":"東村山市","address":"東京都東村山市秋津町4丁目17-1","lat":35.779668,"lon":139.485337},{"name":"東村山駅西口地下駐輪場","province":"東京都","city":"東村山市","address":"東京都東村山市野口町1丁目41","lat":35.761558,"lon":139.464132},{"name":"久米川駅北口地下駐輪場","province":"東京都","city":"東村山市","address":"東京都東村山市栄町1丁目3-1","lat":35.750106,"lon":139.473008},{"name":"子育て総合支援センター（地域福祉センター）","province":"東京都","city":"東村山市","address":"東京都東村山市野口町1丁目25-15","lat":35.758257,"lon":139.464253},{"name":"社会福祉センター","province":"東京都","city":"東村山市","address":"東京都東村山市諏訪町1丁目3-10","lat":35.765483,"lon":139.466712},{"name":"萩山憩いの家","province":"東京都","city":"東村山市","address":"東京都東村山市萩山町2丁目3-11","lat":35.742364,"lon":139.475627},{"name":"久米川憩いの家","province":"東京都","city":"東村山市","address":"東京都東村山市久米川町5丁目16-1","lat":35.771689,"lon":139.471999},{"name":"廻田憩いの家（第一回田児童クラブ、廻田集会所）","province":"東京都","city":"東村山市","address":"東京都東村山市廻田町3丁目12-6","lat":35.757549,"lon":139.447586},{"name":"第一保育園","province":"東京都","city":"東村山市","address":"東京都東村山市本町4丁目15-16","lat":35.75338,"lon":139.473389},{"name":"第三保育園","province":"東京都","city":"東村山市","address":"東京都東村山市多摩湖町1丁目23-4","lat":35.763727,"lon":139.452163},{"name":"第四保育園","province":"東京都","city":"東村山市","address":"東京都東村山市美住町1丁目4","lat":35.75007,"lon":139.462908},{"name":"第五保育園","province":"東京都","city":"東村山市","address":"東京都東村山市秋津町4丁目25-15","lat":35.779294,"lon":139.485108},{"name":"第七保育園","province":"東京都","city":"東村山市","address":"東京都東村山市栄町1丁目36-51","lat":35.752516,"lon":139.477233},{"name":"本町児童館","province":"東京都","city":"東村山市","address":"東京都東村山市本町4丁目19-26","lat":35.753746,"lon":139.474797},{"name":"栄町児童館","province":"東京都","city":"東村山市","address":"東京都東村山市栄町3丁目14-1","lat":35.74663,"lon":139.469211},{"name":"北山児童館","province":"東京都","city":"東村山市","address":"東京都東村山市野口町3丁目26-2","lat":35.765104,"lon":139.453386},{"name":"秋津児童館","province":"東京都","city":"東村山市","address":"東京都東村山市秋津町3丁目51-25","lat":35.773334,"lon":139.483478},{"name":"第1久米川児童クラブ","province":"東京都","city":"東村山市","address":"東京都東村山市久米川町4丁目11-19","lat":35.761767,"lon":139.473034},{"name":"久米川東児童クラブ","province":"東京都","city":"東村山市","address":"東京都東村山市久米川町2丁目44-3","lat":35.766236,"lon":139.481497},{"name":"第1・第2秋津東児童クラブ","province":"東京都","city":"東村山市","address":"東京都東村山市秋津町4丁目35-68","lat":35.774677,"lon":139.489323},{"name":"第1・第2青葉児童クラブ","province":"東京都","city":"東村山市","address":"東京都東村山市青葉町2丁目35-11","lat":35.764264,"lon":139.488665},{"name":"第1野火止児童クラブ","province":"東京都","city":"東村山市","address":"東京都東村山市恩多町5丁目45-4","lat":35.756596,"lon":139.48673},{"name":"第1東萩山児童クラブ","province":"東京都","city":"東村山市","address":"東京都東村山市萩山町5丁目7-18","lat":35.746268,"lon":139.477317},{"name":"第1・第2萩山児童クラブ","province":"東京都","city":"東村山市","address":"東京都東村山市萩山町4丁目16-5","lat":35.743035,"lon":139.478656},{"name":"富士見児童クラブ","province":"東京都","city":"東村山市","address":"東京都東村山市富士見町5丁目4-56","lat":35.747287,"lon":139.457986},{"name":"南台児童クラブ","province":"東京都","city":"東村山市","address":"東京都東村山市富士見町1丁目16-1","lat":35.744493,"lon":139.456483},{"name":"第1化成児童クラブ","province":"東京都","city":"東村山市","address":"東京都東村山市諏訪町1丁目4-1","lat":35.764986,"lon":139.465841},{"name":"美住リサイクルショップ","province":"東京都","city":"東村山市","address":"東京都東村山市美住町2丁目11-32","lat":35.757021,"lon":139.461892},{"name":"中央公民館","province":"東京都","city":"東村山市","address":"東京都東村山市本町2丁目33-2","lat":35.759786,"lon":139.466863},{"name":"富士見公民館（富士見児童館、富士見憩いの家）","province":"東京都","city":"東村山市","address":"東京都東村山市富士見町5丁目4-51","lat":35.746615,"lon":139.462885},{"name":"萩山公民館（萩山図書館）","province":"東京都","city":"東村山市","address":"東京都東村山市萩山町2丁目13-1","lat":35.741586,"lon":139.478676},{"name":"秋津公民館（秋津図書館）","province":"東京都","city":"東村山市","address":"東京都東村山市秋津町2丁目17-10","lat":35.771015,"lon":139.486598},{"name":"廻田公民館（廻田図書館）","province":"東京都","city":"東村山市","address":"東京都東村山市廻田町4丁目19-1","lat":35.759623,"lon":139.452093},{"name":"中央図書館","province":"東京都","city":"東村山市","address":"東京都東村山市本町1丁目1-10","lat":35.755239,"lon":139.468209},{"name":"富士見図書館","province":"東京都","city":"東村山市","address":"東京都東村山市富士見町1丁目7-35","lat":35.744004,"lon":139.461263},{"name":"市民スポーツセンター","province":"東京都","city":"東村山市","address":"東京都東村山市久米川町3丁目30-5","lat":35.761085,"lon":139.479636},{"name":"運動公園管理事務所","province":"東京都","city":"東村山市","address":"東京都東村山市恩多町1丁目51-1","lat":35.754234,"lon":139.489705},{"name":"ふるさと歴史館","province":"東京都","city":"東村山市","address":"東京都東村山市諏訪町1丁目6-3","lat":35.766268,"lon":139.466058},{"name":"八国山たいけんの里","province":"東京都","city":"東村山市","address":"東京都東村山市野口町3丁目48-1","lat":35.766135,"lon":139.454245},{"name":"東村山市シルバー人材センター","province":"東京都","city":"東村山市","address":"東京都東村山市久米川町4丁目9-19","lat":35.761612,"lon":139.469155},{"name":"化成小学校","province":"東京都","city":"東村山市","address":"東京都東村山市諏訪町1-4-1","lat":35.764986,"lon":139.465841},{"name":"回田小学校","province":"東京都","city":"東村山市","address":"東京都東村山市廻田町3-28-1","lat":35.759008,"lon":139.446259},{"name":"大岱小学校","province":"東京都","city":"東村山市","address":"東京都東村山市恩多町4-17-1","lat":35.756545,"lon":139.478064},{"name":"秋津小学校","province":"東京都","city":"東村山市","address":"東京都東村山市秋津町3-48-1","lat":35.772788,"lon":139.481994},{"name":"八坂小学校","province":"東京都","city":"東村山市","address":"東京都東村山市栄町3-34-1","lat":35.749013,"lon":139.465727},{"name":"萩山小学校","province":"東京都","city":"東村山市","address":"東京都東村山市萩山町4-16-1","lat":35.743933,"lon":139.477817},{"name":"南台小学校","province":"東京都","city":"東村山市","address":"東京都東村山市富士見町1-16-12","lat":35.74438,"lon":139.455407},{"name":"久米川小学校","province":"東京都","city":"東村山市","address":"東京都東村山市久米川町4-11-1","lat":35.762047,"lon":139.471642},{"name":"東萩山小学校","province":"東京都","city":"東村山市","address":"東京都東村山市萩山町5-7-1","lat":35.745691,"lon":139.478585},{"name":"青葉小学校","province":"東京都","city":"東村山市","address":"東京都東村山市青葉町2-33-1","lat":35.76467,"lon":139.49011},{"name":"北山小学校","province":"東京都","city":"東村山市","address":"東京都東村山市野口町3-45-1","lat":35.766343,"lon":139.455667},{"name":"秋津東小学校","province":"東京都","city":"東村山市","address":"東京都東村山市秋津町4-35-11","lat":35.774834,"lon":139.488824},{"name":"野火止小学校","province":"東京都","city":"東村山市","address":"東京都東村山市恩多町5-47-1","lat":35.75631,"lon":139.485649},{"name":"久米川東小学校","province":"東京都","city":"東村山市","address":"東京都東村山市久米川町2-40-10","lat":35.765645,"lon":139.482639},{"name":"富士見小学校","province":"東京都","city":"東村山市","address":"東京都東村山市富士見町5-4-57","lat":35.74667,"lon":139.458438},{"name":"東村山第一中学校","province":"東京都","city":"東村山市","address":"東京都東村山市富士見町1-5-2","lat":35.742164,"lon":139.459624},{"name":"東村山第二中学校","province":"東京都","city":"東村山市","address":"東京都東村山市久米川町2-4-1","lat":35.770055,"lon":139.474812},{"name":"東村山第三中学校","province":"東京都","city":"東村山市","address":"東京都東村山市萩山町5-2-1","lat":35.747922,"lon":139.476758},{"name":"東村山第三中学校萩山分校","province":"東京都","city":"東村山市","address":"東京都東村山市萩山町1-37-1","lat":35.735563,"lon":139.479658},{"name":"東村山第四中学校","province":"東京都","city":"東村山市","address":"東京都東村山市野口町3-24-1","lat":35.763999,"lon":139.453465},{"name":"東村山第五中学校","province":"東京都","city":"東村山市","address":"東京都東村山市恩多町4-38-1","lat":35.760687,"lon":139.480776},{"name":"東村山第六中学校","province":"東京都","city":"東村山市","address":"東京都東村山市秋津町2-29-14","lat":35.769799,"lon":139.48991},{"name":"東村山第七中学校","province":"東京都","city":"東村山市","address":"東京都東村山市美住町2-23-1","lat":35.755463,"lon":139.459433},{"name":"北山公園","province":"東京都","city":"東村山市","address":"東京都東村山市野口町3丁目地内、4丁目地内","lat":35.761981,"lon":139.457978},{"name":"農とみどりの体験パーク","province":"東京都","city":"東村山市","address":"東京都東村山市秋津町1-9-2","lat":35.774162,"lon":139.492967},{"name":"地方独立行政法人東京都立病院機構　東京都立多摩北部医療センター","province":"東京都","city":"東村山市","address":"東京都東村山市青葉町1丁目7-1","lat":35.760727,"lon":139.493144},{"name":"東村山中央公園","province":"東京都","city":"東村山市","address":"東京都東村山市富士見町5丁目4-67","lat":35.748306,"lon":139.456941},{"name":"東村山中央公園","province":"東京都","city":"東村山市","address":"東京都東村山市富士見町5丁目4","lat":35.748598,"lon":139.458285},{"name":"東村山中央公園","province":"東京都","city":"東村山市","address":"東京都東村山市富士見町5丁目4","lat":35.747949,"lon":139.459982},{"name":"東村山中央公園","province":"東京都","city":"東村山市","address":"東京都東村山市富士見町5丁目4","lat":35.746824,"lon":139.461727},{"name":"東村山中央公園","province":"東京都","city":"東村山市","address":"東京都東村山市富士見町5丁目4","lat":35.745393,"lon":139.462797},{"name":"東村山中央公園","province":"東京都","city":"東村山市","address":"東京都東村山市富士見町5丁目4","lat":35.746425,"lon":139.46041},{"name":"八国山緑地","province":"東京都","city":"東村山市","address":"東京都東村山市諏訪町3丁目19","lat":35.76661,"lon":139.453209},{"name":"小平霊園","province":"東京都","city":"東村山市","address":"東京都東村山市萩山町1丁目16","lat":35.739773,"lon":139.485298},{"name":"小平霊園","province":"東京都","city":"東村山市","address":"東京都東村山市萩山町5丁目10","lat":35.741954,"lon":139.482579},{"name":"小平霊園","province":"東京都","city":"東村山市","address":"東京都東村山市萩山町5丁目8","lat":35.745432,"lon":139.478914},{"name":"小平霊園","province":"東京都","city":"東村山市","address":"東京都東村山市萩山町5丁目9","lat":35.745348,"lon":139.483296},{"name":"東村山市役所本庁舎","province":"東京都","city":"東村山市","address":"東京都東村山市本町1丁目2-3","lat":35.754641,"lon":139.468509},{"name":"東村山市役所いきいきプラザ","province":"東京都","city":"東村山市","address":"東京都東村山市本町1丁目2-3","lat":35.754234,"lon":139.468058},{"name":"東村山市役所いきいきプラザ","province":"東京都","city":"東村山市","address":"東京都東村山市本町1丁目2-3","lat":35.754236,"lon":139.468282},{"name":"東村山市役所北庁舎","province":"東京都","city":"東村山市","address":"東京都東村山市本町1丁目1-1","lat":35.755322,"lon":139.467378},{"name":"東村山市役所市民センター","province":"東京都","city":"東村山市","address":"東京都東村山市本町1丁目1-1","lat":35.755274,"lon":139.467951},{"name":"東村山市立中央公民館","province":"東京都","city":"東村山市","address":"東京都東村山市本町2丁目33-2","lat":35.759886,"lon":139.46698},{"name":"東村山市立萩山公民館","province":"東京都","city":"東村山市","address":"東京都東村山市萩山町2丁目13-5","lat":35.742202,"lon":139.477704},{"name":"東村山市立廻田公民館","province":"東京都","city":"東村山市","address":"東京都東村山市廻田町4丁目19-1","lat":35.759742,"lon":139.452116},{"name":"東村山市立秋津公民館","province":"東京都","city":"東村山市","address":"東京都東村山市秋津町2丁目17-10","lat":35.770958,"lon":139.486358},{"name":"東村山市立富士見文化センター","province":"東京都","city":"東村山市","address":"東京都東村山市富士見町5丁目4-51","lat":35.746511,"lon":139.462819},{"name":"東村山市立富士見文化センター","province":"東京都","city":"東村山市","address":"東京都東村山市富士見町5丁目4","lat":35.746769,"lon":139.462968},{"name":"東村山市立富士見文化センター","province":"東京都","city":"東村山市","address":"東京都東村山市富士見町5丁目4-51","lat":35.746448,"lon":139.462999},{"name":"東村山市立社会福祉センター","province":"東京都","city":"東村山市","address":"東京都東村山市諏訪町1丁目3-10","lat":35.765483,"lon":139.466698},{"name":"廻田集会所","province":"東京都","city":"東村山市","address":"東京都東村山市廻田町3丁目12-6","lat":35.75761,"lon":139.447324},{"name":"富士見第二集会所","province":"東京都","city":"東村山市","address":"東京都東村山市富士見町1丁目7-35","lat":35.744036,"lon":139.461258},{"name":"青葉地域センター","province":"東京都","city":"東村山市","address":"東京都東村山市青葉町3丁目30-3","lat":35.769235,"lon":139.496207},{"name":"東村山市立中央図書館","province":"東京都","city":"東村山市","address":"東京都東村山市本町1丁目1-10","lat":35.755318,"lon":139.468322},{"name":"東村山市立富士見図書館","province":"東京都","city":"東村山市","address":"東京都東村山市富士見町1丁目7","lat":35.743933,"lon":139.461182},{"name":"東村山市立萩山図書館","province":"東京都","city":"東村山市","address":"東京都東村山市萩山町2丁目13-5","lat":35.742153,"lon":139.477817},{"name":"東村山市立秋津図書館","province":"東京都","city":"東村山市","address":"東京都東村山市秋津町2丁目17-10","lat":35.771146,"lon":139.486629},{"name":"平和塔公園","province":"東京都","city":"東村山市","address":"東京都東村山市本町1丁目13","lat":35.754609,"lon":139.466632},{"name":"南台公園","province":"東京都","city":"東村山市","address":"東京都東村山市富士見町1丁目2","lat":35.74153,"lon":139.458727},{"name":"萩山公園","province":"東京都","city":"東村山市","address":"東京都東村山市萩山町2丁目3","lat":35.742213,"lon":139.475725},{"name":"天王森公園","province":"東京都","city":"東村山市","address":"東京都東村山市本町3丁目45","lat":35.755203,"lon":139.469471},{"name":"北山公園","province":"東京都","city":"東村山市","address":"東京都東村山市野口町4丁目50","lat":35.766375,"lon":139.459497},{"name":"美住町1丁目第3仲よし広場","province":"東京都","city":"東村山市","address":"東京都東村山市美住町1丁目4","lat":35.750135,"lon":139.464142},{"name":"野火止広場","province":"東京都","city":"東村山市","address":"東京都東村山市栄町3丁目14","lat":35.746586,"lon":139.469062},{"name":"萩山四季の森公園","province":"東京都","city":"東村山市","address":"東京都東村山市萩山町3丁目28","lat":35.743209,"lon":139.474233},{"name":"萩山第一児童遊園","province":"東京都","city":"東村山市","address":"東京都東村山市萩山町4丁目16","lat":35.743136,"lon":139.479205},{"name":"秋水園リサイクルセンター管理棟","province":"東京都","city":"東村山市","address":"東京都東村山市秋津町4丁目17","lat":35.780057,"lon":139.48442},{"name":"秋水園ふれあいセンター","province":"東京都","city":"東村山市","address":"東京都東村山市秋津町4丁目24-12","lat":35.779303,"lon":139.486051},{"name":"多摩湖ふれあいセンター","province":"東京都","city":"東村山市","address":"東京都東村山市多摩湖町1丁目18","lat":35.764063,"lon":139.449186},{"name":"廻田憩いの家","province":"東京都","city":"東村山市","address":"東京都東村山市廻田町3丁目12-6","lat":35.75761,"lon":139.447324},{"name":"富士見憩いの家","province":"東京都","city":"東村山市","address":"東京都東村山市富士見町5丁目4-51","lat":35.746542,"lon":139.462703},{"name":"萩山憩いの家","province":"東京都","city":"東村山市","address":"東京都東村山市萩山町2丁目3-11","lat":35.742331,"lon":139.475646},{"name":"恩多ふれあいセンター","province":"東京都","city":"東村山市","address":"東京都東村山市恩多町5丁目40-1","lat":35.757544,"lon":139.490847},{"name":"栄町ふれあいセンター","province":"東京都","city":"東村山市","address":"東京都東村山市栄町2丁目25-5","lat":35.747743,"lon":139.472424},{"name":"久米川ふれあいセンター","province":"東京都","city":"東村山市","address":"東京都東村山市久米川町3丁目16-4","lat":35.7661,"lon":139.474202},{"name":"東村山市民ステーションサンパルネ","province":"東京都","city":"東村山市","address":"東京都東村山市野口町1丁目46","lat":35.760175,"lon":139.465352},{"name":"東村山市民ステーションサンパルネ","province":"東京都","city":"東村山市","address":"東京都東村山市野口町1丁目46","lat":35.760127,"lon":139.465374},{"name":"久米川古戦場","province":"東京都","city":"東村山市","address":"東京都東村山市諏訪町2丁目付近(西宿公園)","lat":35.768836,"lon":139.464478},{"name":"東村山市立中央図書館","province":"東京都","city":"東村山市","address":"東京都東村山市本町1丁目1-10","lat":35.75524913,"lon":139.46820547},{"name":"東村山市立富士見図書館","province":"東京都","city":"東村山市","address":"東京都東村山市富士見町1丁目7-35","lat":35.74400017,"lon":139.46128433},{"name":"東村山市立萩山図書館","province":"東京都","city":"東村山市","address":"東京都東村山市萩山町2丁目13-1","lat":35.74155931,"lon":139.478669},{"name":"東村山市立秋津図書館","province":"東京都","city":"東村山市","address":"東京都東村山市秋津町2丁目17-10","lat":35.77112559,"lon":139.48661728},{"name":"東村山市立廻田図書館","province":"東京都","city":"東村山市","address":"東京都東村山市廻田町4丁目19-1","lat":35.75953701,"lon":139.45215675},{"name":"東村山市民スポーツセンター","province":"東京都","city":"東村山市","address":"東京都東村山市久米川町3丁目30-5","lat":35.76107658,"lon":139.47965976},{"name":"東村山市運動公園野球場","province":"東京都","city":"東村山市","address":"東京都東村山市恩多町1丁目51-1","lat":35.75413874,"lon":139.48959805},{"name":"東村山市運動公園トラック競技場","province":"東京都","city":"東村山市","address":"東京都東村山市恩多町1丁目51-1","lat":35.75413874,"lon":139.48959805},{"name":"東村山市運動公園庭球場","province":"東京都","city":"東村山市","address":"東京都東村山市恩多町1丁目51-1","lat":35.75413874,"lon":139.48959805},{"name":"東村山市青葉ゲートボール場","province":"東京都","city":"東村山市","address":"東京都東村山市青葉町2丁目35-11","lat":35.76565405,"lon":139.48881998},{"name":"東村山市北川ゲートボール場","province":"東京都","city":"東村山市","address":"東京都東村山市諏訪町1丁目39-32","lat":35.77304443,"lon":139.47067131},{"name":"東村山市ゲートボール場公園","province":"東京都","city":"東村山市","address":"東京都東村山市廻田町1丁目26-15","lat":35.75654291,"lon":139.45233462},{"name":"化成小学校","province":"東京都","city":"東村山市","address":"東京都東村山市諏訪町1丁目4-1","lat":35.76565618,"lon":139.46465818},{"name":"回田小学校","province":"東京都","city":"東村山市","address":"東京都東村山市廻田町3丁目28-1","lat":35.75892299,"lon":139.44601009},{"name":"大岱小学校","province":"東京都","city":"東村山市","address":"東京都東村山市恩多町4丁目17-1","lat":35.75644372,"lon":139.47799065},{"name":"秋津小学校","province":"東京都","city":"東村山市","address":"東京都東村山市秋津町3丁目48-1","lat":35.7731058,"lon":139.48214261},{"name":"八坂小学校","province":"東京都","city":"東村山市","address":"東京都東村山市栄町3丁目34-1","lat":35.74900808,"lon":139.46569484},{"name":"萩山小学校","province":"東京都","city":"東村山市","address":"東京都東村山市萩山町4丁目16-1","lat":35.74389513,"lon":139.47786618},{"name":"南台小学校","province":"東京都","city":"東村山市","address":"東京都東村山市富士見町1丁目16-12","lat":35.74441936,"lon":139.45522931},{"name":"久米川小学校","province":"東京都","city":"東村山市","address":"東京都東村山市久米川町4丁目11-1","lat":35.76229847,"lon":139.47164654},{"name":"東萩山小学校","province":"東京都","city":"東村山市","address":"東京都東村山市萩山町5丁目7-1","lat":35.74632542,"lon":139.47779664},{"name":"青葉小学校","province":"東京都","city":"東村山市","address":"東京都東村山市青葉町2丁目33-1","lat":35.76465976,"lon":139.49004768},{"name":"北山小学校","province":"東京都","city":"東村山市","address":"東京都東村山市野口町3丁目45-1","lat":35.76611137,"lon":139.45558122},{"name":"秋津東小学校","province":"東京都","city":"東村山市","address":"東京都東村山市秋津町4丁目35-11","lat":35.77467798,"lon":139.48882816},{"name":"野火止小学校","province":"東京都","city":"東村山市","address":"東京都東村山市恩多町5丁目47-1","lat":35.75617451,"lon":139.48557888},{"name":"久米川東小学校","province":"東京都","city":"東村山市","address":"東京都東村山市久米川町2丁目40-10","lat":35.76565113,"lon":139.48262883},{"name":"富士見小学校","province":"東京都","city":"東村山市","address":"東京都東村山市富士見町5丁目4-57","lat":35.74679976,"lon":139.45842892},{"name":"第一中学校","province":"東京都","city":"東村山市","address":"東京都東村山市富士見町1丁目5-2","lat":35.74255587,"lon":139.46051224},{"name":"第二中学校","province":"東京都","city":"東村山市","address":"東京都東村山市久米川町2丁目4-1","lat":35.76994215,"lon":139.47457381},{"name":"第三中学校","province":"東京都","city":"東村山市","address":"東京都東村山市萩山町5丁目2-1","lat":35.7479752,"lon":139.47692998},{"name":"第四中学校","province":"東京都","city":"東村山市","address":"東京都東村山市野口町3丁目24-1","lat":35.76398099,"lon":139.45351202},{"name":"第五中学校","province":"東京都","city":"東村山市","address":"東京都東村山市恩多町4丁目38-1","lat":35.76064053,"lon":139.48069303},{"name":"第六中学校","province":"東京都","city":"東村山市","address":"東京都東村山市秋津町2丁目29-14","lat":35.76982304,"lon":139.48965316},{"name":"第七中学校","province":"東京都","city":"東村山市","address":"東京都東村山市美住町2丁目23-1","lat":35.75543493,"lon":139.45937292},{"name":"まちの縁側本町　夕ぐれ食堂","province":"東京都","city":"東村山市","address":"東京都東村山市本町4丁目1-8","lat":35.75253003,"lon":139.46967488},{"name":"子ども食堂　リコード","province":"東京都","city":"東村山市","address":"東京都東村山市本町3丁目9-40","lat":35.75852665,"lon":139.47114118},{"name":"ふれあいこども食堂あおば","province":"東京都","city":"東村山市","address":"東京都東村山市青葉町2丁目25-66","lat":35.76190178,"lon":139.49118376},{"name":"ふれあいこども食堂","province":"東京都","city":"東村山市","address":"東京都東村山市栄町1丁目1-18","lat":35.75056089,"lon":139.47198587},{"name":"にちよう食堂","province":"東京都","city":"東村山市","address":"東京都東村山市栄町1丁目29-34","lat":35.75251075,"lon":139.47501885},{"name":"おひさま食堂","province":"東京都","city":"東村山市","address":"東京都東村山市富士見町5丁目1-93","lat":35.7450057,"lon":139.46432568},{"name":"万福食堂","province":"東京都","city":"東村山市","address":"東京都東村山市廻田町3丁目12-6","lat":35.75761762,"lon":139.44732947},{"name":"東村山地域食堂ふたば","province":"東京都","city":"東村山市","address":"東京都東村山市野口町1丁目15-5","lat":35.76157604,"lon":139.46296959},{"name":"SOMPO流　子ども食堂（八坂）","province":"東京都","city":"東村山市","address":"東京都東村山市栄町3丁目23-1","lat":35.74535292,"lon":139.46513116},{"name":"SOMPO流　子ども食堂（萩山）","province":"東京都","city":"東村山市","address":"東京都東村山市萩山町2丁目9-46","lat":35.7402039,"lon":139.47823297},{"name":"SOMPO流　子ども食堂（久米川）","province":"東京都","city":"東村山市","address":"東京都東村山市美住町1丁目19-10","lat":35.75042437,"lon":139.45880928},{"name":"子どもたちのお弁当屋さん","province":"東京都","city":"東村山市","address":"東京都東村山市富士見町2丁目19-23","lat":35.7372534,"lon":139.45070223},{"name":"恩多こども食堂","province":"東京都","city":"東村山市","address":"東京都東村山市恩多町3丁目3-22","lat":35.753233,"lon":139.47909623},{"name":"狭山公園","province":"東京都","city":"東村山市","address":"東京都東村山市多摩湖町3-17-19","lat":35.763187,"lon":139.44158},{"name":"八国山緑地","province":"東京都","city":"東村山市","address":"東京都東村山市諏訪町2・3丁目、多摩湖町4丁目","lat":35.766772,"lon":139.454934},{"name":"東村山中央公園","province":"東京都","city":"東村山市","address":"東京都東村山市富士見町五丁目・美住町一丁目","lat":35.747927,"lon":139.459004},{"name":"八坂給水所","province":"東京都","city":"東村山市","address":"東京都東村山市富士見町5-4-46","lat":35.747356,"lon":139.458482},{"name":"東村山浄水場","province":"東京都","city":"東村山市","address":"東京都東村山市美住町2-20-236","lat":35.7532331,"lon":139.458674},{"name":"美住給水所","province":"東京都","city":"東村山市","address":"東京都東村山市美住町2-13-4","lat":35.7555303,"lon":139.461554},{"name":"市立東村山運動公園","province":"東京都","city":"東村山市","address":"東京都東村山市恩多町1-9-5","lat":35.7556996,"lon":139.4901976},{"name":"市立秋津小学校","province":"東京都","city":"東村山市","address":"東京都東村山市秋津町3-48-1","lat":35.773108,"lon":139.482144},{"name":"東村山市立第五保育園","province":"東京都","city":"東村山市","address":"東村山市秋津町4-25-15","lat":35.77879,"lon":139.48503},{"name":"青葉さくら保育園","province":"東京都","city":"東村山市","address":"東村山市青葉町1-7-68","lat":35.76059,"lon":139.49135},{"name":"花さき保育園","province":"東京都","city":"東村山市","address":"東村山市青葉町4-1-1","lat":35.76569,"lon":139.4937},{"name":"わくわく保育園","province":"東京都","city":"東村山市","address":"東村山市久米川町1-38-4","lat":35.7677,"lon":139.48514},{"name":"あいあい保育園","province":"東京都","city":"東村山市","address":"東村山市久米川町2-44-2","lat":35.76662,"lon":139.48135},{"name":"天王森保育園","province":"東京都","city":"東村山市","address":"東村山市久米川町4-4-10","lat":35.76112,"lon":139.47256},{"name":"りんごっこ保育園","province":"東京都","city":"東村山市","address":"東村山市恩多町1-55-7","lat":35.75204,"lon":139.48888},{"name":"萩山まるやま保育園","province":"東京都","city":"東村山市","address":"東村山市萩山町3-29-37","lat":35.74187,"lon":139.47427},{"name":"久米川保育園","province":"東京都","city":"東村山市","address":"東村山市萩山町5-6-1","lat":35.7465,"lon":139.47881},{"name":"東村山市立第七保育園","province":"東京都","city":"東村山市","address":"東村山市栄町1-36-51","lat":35.75244,"lon":139.47775},{"name":"いづみ愛児園","province":"東京都","city":"東村山市","address":"東村山市栄町1丁目37番地28","lat":35.75159,"lon":139.47765},{"name":"つばさ保育園","province":"東京都","city":"東村山市","address":"東村山市本町2-22-3","lat":35.75913,"lon":139.46916},{"name":"ほんちょう保育園","province":"東京都","city":"東村山市","address":"東村山市本町3-43-1","lat":35.75557,"lon":139.47055},{"name":"東村山市立第一保育園","province":"東京都","city":"東村山市","address":"東村山市本町4-15-16都営本町アパート6号棟1階","lat":35.7528,"lon":139.47365},{"name":"八国山保育園","province":"東京都","city":"東村山市","address":"東村山市野口町1-5-6","lat":35.76415,"lon":139.46577},{"name":"ソラスト東村山保育園","province":"東京都","city":"東村山市","address":"東村山市野口町1-8-28","lat":35.76302,"lon":139.46465},{"name":"東村山市立第四保育園","province":"東京都","city":"東村山市","address":"東村山市美住町1-4-19","lat":35.75094,"lon":139.46135},{"name":"つぼみ保育園","province":"東京都","city":"東村山市","address":"東村山市富士見町2-2-2","lat":35.74449,"lon":139.45113},{"name":"ふじみ保育園","province":"東京都","city":"東村山市","address":"東村山市富士見町2-7-5","lat":35.74027,"lon":139.45242},{"name":"東村山むさしの第二認定こども園","province":"東京都","city":"東村山市","address":"東村山市廻田町2-14-1","lat":35.7542723,"lon":139.4487254},{"name":"東たいてん保育園","province":"東京都","city":"東村山市","address":"東村山市多摩湖町1-14-2","lat":35.76187,"lon":139.44817},{"name":"東村山市立第三保育園","province":"東京都","city":"東村山市","address":"東村山市多摩湖町1-23-4","lat":35.76363,"lon":139.45218},{"name":"東京都立萩山実務学校","province":"東京都","city":"東村山市","address":"東村山市萩山町1-37-1","lat":35.7379,"lon":139.48074},{"name":"村山荘","province":"東京都","city":"東村山市","address":"東村山市富士見町2-7-5","lat":35.74027,"lon":139.45242},{"name":"さつき荘","province":"東京都","city":"東村山市","address":"東村山市富士見町2-8-2","lat":35.7401,"lon":139.45364},{"name":"東村山市福祉作業所","province":"東京都","city":"東村山市","address":"東村山市諏訪町1-3-10","lat":35.76547,"lon":139.46674},{"name":"ドーミー久米川２","province":"東京都","city":"東村山市","address":"東村山市本町1-9-11","lat":35.75204,"lon":139.46751},{"name":"東村山市","province":"東京都","city":"東村山市","address":"東村山市本町1-2-3","lat":35.75449,"lon":139.46841},{"name":"久米川駅南口第２駐輪場","province":"東京都","city":"東村山市","address":"東京都東村山市栄町2丁目11-13","lat":35.75087469,"lon":139.47040544},{"name":"久米川駅北口地下駐輪場","province":"東京都","city":"東村山市","address":"東京都東村山市栄町1丁目3-1","lat":35.7501304,"lon":139.47295802},{"name":"東村山駅東口第１駐輪場","province":"東京都","city":"東村山市","address":"東京都東村山市本町2丁目16-13","lat":35.76119848,"lon":139.46845798},{"name":"東村山駅東口第２駐輪場","province":"東京都","city":"東村山市","address":"東京都東村山市本町2丁目15-28","lat":35.76168732,"lon":139.46838575},{"name":"東村山駅西口地下駐輪場","province":"東京都","city":"東村山市","address":"東京都東村山市野口町3丁目1-41","lat":35.76218969,"lon":139.45838386},{"name":"新秋津駅第２駐輪場","province":"東京都","city":"東村山市","address":"東京都東村山市秋津町5丁目24-19","lat":35.77819153,"lon":139.49255002},{"name":"三井のリパーク　久米川駅前駐輪場","province":"東京都","city":"東村山市","address":"東京都東村山市栄町2丁目10","lat":35.75036365,"lon":139.47062489},{"name":"サイクルタイムズ久米川","province":"東京都","city":"東村山市","address":"東京都東村山市栄町2丁目6","lat":35.74793344,"lon":139.47342196},{"name":"Ｂ－Ｐａｒｋ24　東村山駅東口","province":"東京都","city":"東村山市","address":"東京都東村山市久米川町4丁目8-12","lat":35.76129571,"lon":139.46889961},{"name":"サイクル・インＢ－Ｐａｒｋ　東村山駅東口駐輪場","province":"東京都","city":"東村山市","address":"東京都東村山市久米川町4丁目8-12","lat":35.76129571,"lon":139.46889961},{"name":"三井のリパーク　東村山駅前駐輪場","province":"東京都","city":"東村山市","address":"東京都東村山市野口町1丁目1-4","lat":35.76151223,"lon":139.46528326},{"name":"駐輪館","province":"東京都","city":"東村山市","address":"東京都東村山市野口町1丁目25-8","lat":35.75881804,"lon":139.46414459},{"name":"Ａ－Ｐarkサイクル新秋津駅前","province":"東京都","city":"東村山市","address":"東京都東村山市秋津町5丁目25","lat":35.77794157,"lon":139.49279444},{"name":"サイクルタイムズ秋津","province":"東京都","city":"東村山市","address":"東京都東村山市秋津町5丁目8","lat":35.77749448,"lon":139.49600253},{"name":"西武スマイルパーク　秋津駅南口駐輪場","province":"東京都","city":"東村山市","address":"東京都東村山市秋津町5丁目7-8","lat":35.7783055,"lon":139.49674412},{"name":"三井のリパーク　新秋津駅前駐輪場","province":"東京都","city":"東村山市","address":"東京都東村山市秋津町5丁目14-1","lat":35.77713335,"lon":139.49316665},{"name":"新秋津駅第5駐輪場","province":"東京都","city":"東村山市","address":"東京都東村山市秋津町5丁目17-17","lat":35.77485306,"lon":139.49300003},{"name":"中部地域包括支援センター","province":"東京都","city":"東村山市","address":"東村山市野口町1-25-15東村山市社会福祉協議会内","lat":35.758617,"lon":139.464005},{"name":"北部地域包括支援センター","province":"東京都","city":"東村山市","address":"東村山市諏訪町2-26-1東京ばんなん白光園","lat":35.771687,"lon":139.463852},{"name":"東部地域包括支援センター","province":"東京都","city":"東村山市","address":"東村山市秋津町1-32-18はるびの郷内","lat":35.773125,"lon":139.497025},{"name":"西部地域包括支援センター","province":"東京都","city":"東村山市","address":"東村山市富士見町2-1-2万寿園内","lat":35.744675,"lon":139.453461},{"name":"南部地域包括支援センター","province":"東京都","city":"東村山市","address":"東村山市萩山町3-31-2グリーン・ボイス内","lat":35.743809,"lon":139.46904},{"name":"東村山市消費生活センター","province":"東京都","city":"東村山市","address":"東村山市本町1-2-3東村山市役所市民部市民相談・交流課内","lat":35.75449,"lon":139.468414},{"name":"さつき荘","province":"東京都","city":"東村山市","address":"東村山市富士見町2-8-2","lat":35.740609,"lon":139.453774},{"name":"村山荘","province":"東京都","city":"東村山市","address":"東村山市富士見町2-7-5","lat":35.740203,"lon":139.452535},{"name":"社会福祉法人東京コロニー コロニー東村山","province":"東京都","city":"東村山市","address":"東京都東村山市秋津町2丁目22-9","lat":35.76876478,"lon":139.48789499},{"name":"社会福祉法人東京コロニー トーコロ青葉ワークセンター","province":"東京都","city":"東村山市","address":"東京都東村山市青葉町2丁目39-10","lat":35.76531803,"lon":139.49069484},{"name":"社会福祉法人ネット十二月","province":"東京都","city":"東村山市","address":"東京都東村山市廻田町3丁目16-8","lat":35.76038678,"lon":139.44811263},{"name":"高齢者在宅サービスセンター白十字八国苑","province":"東京都","city":"東村山市","address":"東京都東村山市諏訪町2丁目26-1","lat":35.77189152,"lon":139.46365808},{"name":"社会福祉法人村山苑福祉事業センター","province":"東京都","city":"東村山市","address":"東京都東村山市富士見町2丁目7-5","lat":35.74020311,"lon":139.45253528},{"name":"社会福祉法人いずみライフサポートつばさ","province":"東京都","city":"東村山市","address":"東京都東村山市富士見町3丁目4-16","lat":35.74866053,"lon":139.45443753},{"name":"社会福祉法人小さい共同体就労継続支援Ｂ型飛翔クラブ","province":"東京都","city":"東村山市","address":"東京都東村山市栄町2丁目9-32","lat":35.74941934,"lon":139.47170261},{"name":"特定非営利活動法人けやきけやき第二作業所","province":"東京都","city":"東村山市","address":"東京都東村山市萩山町3丁目19-2","lat":35.74593911,"lon":139.46971405},{"name":"株式会社ウィズケアメディカル ウィズケアリハビリセンター","province":"東京都","city":"東村山市","address":"東京都東村山市久米川町3丁目1-1","lat":35.75976546,"lon":139.47353814},{"name":"社会福祉法人東京蒼生会寿デイ･サービスセンター","province":"東京都","city":"東村山市","address":"東京都東村山市富士見町2丁目1-2","lat":35.7445943,"lon":139.4540183},{"name":"特定非営利活動法人セサミ萩共同作業所セサミ萩","province":"東京都","city":"東村山市","address":"東京都東村山市萩山町2丁目2-15","lat":35.74047328,"lon":139.47715529},{"name":"かりん","province":"東京都","city":"東村山市","address":"東京都東村山市秋津町2丁目37-47","lat":35.77148394,"lon":139.48956425},{"name":"社会福祉法人ネット久米川共同作業所","province":"東京都","city":"東村山市","address":"東京都東村山市久米川町2丁目21-14","lat":35.76533442,"lon":139.47915135},{"name":"特定非営利活動法人ワーカーズコープ東村山楠の樹地域福祉事業所ふたば","province":"東京都","city":"東村山市","address":"東京都東村山市野口町1丁目15-5","lat":35.76157604,"lon":139.46296959},{"name":"さつき荘","province":"東京都","city":"東村山市","address":"東村山市富士見町2-8-2","lat":35.74011,"lon":139.45364},{"name":"天王森保育園","province":"東京都","city":"東村山市","address":"東村山市久米川町4-4-10","lat":35.76112,"lon":139.47257},{"name":"八国山保育園","province":"東京都","city":"東村山市","address":"東村山市野口町1-5-6","lat":35.76415,"lon":139.46578},{"name":"ドーミー久米川","province":"東京都","city":"東村山市","address":"東村山市本町1-9-11","lat":35.75205,"lon":139.46751},{"name":"ドーミー久米川２","province":"東京都","city":"東村山市","address":"東村山市本町1-9-11","lat":35.75205,"lon":139.46751},{"name":"東村山市立第一保育園","province":"東京都","city":"東村山市","address":"東村山市本町4-15-16都営本町アパート6号棟1階","lat":35.75492,"lon":139.46719},{"name":"ドーミー久米川","province":"東京都","city":"東村山市","address":"東村山市本町1-9-11","lat":35.751721,"lon":139.467964},{"name":"東村山市福祉作業所（平成31年４月１日より休止中）","province":"東京都","city":"東村山市","address":"東村山市諏訪町1-3-10","lat":35.76549,"lon":139.466672},{"name":"八坂","province":"東京都","city":"東村山市","address":"東京都東村山市萩山町3丁目31-45","lat":35.74387259,"lon":139.46697271},{"name":"東村山郵便局前","province":"東京都","city":"東村山市","address":"東京都東村山市本町2丁目1-2","lat":35.75822931,"lon":139.46684991},{"name":"栄町一丁目","province":"東京都","city":"東村山市","address":"東京都東村山市栄町1丁目23-1","lat":35.75067204,"lon":139.47384403},{"name":"八坂駅北口","province":"東京都","city":"東村山市","address":"東京都東村山市栄町3丁目10-28","lat":35.7458668,"lon":139.46705596},{"name":"萩山町五丁目","province":"東京都","city":"東村山市","address":"東京都東村山市萩山町5丁目3","lat":35.74820856,"lon":139.47866037},{"name":"東村山駅東口","province":"東京都","city":"東村山市","address":"東京都東村山市本町2丁目17-7","lat":35.76104847,"lon":139.46749974},{"name":"南台小学校裏","province":"東京都","city":"東村山市","address":"東京都東村山市富士見町2丁目1","lat":35.74489978,"lon":139.45277395},{"name":"東村山駅西口","province":"東京都","city":"東村山市","address":"東京都東村山市野口町1丁目10-1","lat":35.76173995,"lon":139.46462498},{"name":"萩山駅南口","province":"東京都","city":"東村山市","address":"東京都東村山市萩山町2丁目2","lat":35.74081487,"lon":139.47583872},{"name":"東村山郵便局北","province":"東京都","city":"東村山市","address":"東京都東村山市本町2丁目2-9","lat":35.7595014,"lon":139.46689431},{"name":"多摩北部医療センター前","province":"東京都","city":"東村山市","address":"東京都東村山市青葉町2丁目27-1","lat":35.76242395,"lon":139.49172816},{"name":"秋津駅入口","province":"東京都","city":"東村山市","address":"東京都東村山市秋津町1丁目32-18","lat":35.77338112,"lon":139.49729414},{"name":"青葉駐在所前","province":"東京都","city":"東村山市","address":"東京都東村山市青葉町2丁目24-64","lat":35.76058521,"lon":139.48940895},{"name":"多摩北部医療センター西","province":"東京都","city":"東村山市","address":"東京都東村山市青葉町1丁目7","lat":35.75941877,"lon":139.4930448},{"name":"多摩北部医療センター南","province":"東京都","city":"東村山市","address":"東京都東村山市青葉町1丁目7","lat":35.75941877,"lon":139.4930448},{"name":"西武園駅東","province":"東京都","city":"東村山市","address":"東京都東村山市多摩湖町4丁目29","lat":35.76763595,"lon":139.44840958},{"name":"東京都保健医療公社多摩北部医療センター","province":"東京都","city":"東村山市","address":"東京都東村山市青葉町1丁目7-1","lat":35.76043805,"lon":139.49094217},{"name":"八坂給水所","province":"東京都","city":"東村山市","address":"東京都東村山市富士見町5丁目4-46","lat":35.74735525,"lon":139.45848167},{"name":"東村山浄水場","province":"東京都","city":"東村山市","address":"東京都東村山市美住町2丁目20-236","lat":35.75327404,"lon":139.45878417},{"name":"美住給水所","province":"東京都","city":"東村山市","address":"東京都東村山市美住町2丁目13-4","lat":35.75552943,"lon":139.46155328},{"name":"市立東村山運動公園","province":"東京都","city":"東村山市","address":"東京都東村山市恩多町1丁目9-59","lat":35.75542745,"lon":139.48852866},{"name":"多摩北部医療センター","province":"東京都","city":"東村山市","address":"東京都東村山市青葉町1丁目7-1","lat":35.76043805,"lon":139.49094217},{"name":"美住給水所（注２）","province":"東京都","city":"東村山市","address":"東京都東村山市美住町2丁目13-4","lat":35.75552943,"lon":139.46155328},{"name":"東村山市立東村山運動公園","province":"東京都","city":"東村山市","address":"東京都東村山市恩多町1丁目51-1","lat":35.75413874,"lon":139.48959805},{"name":"経済産業研究所グラウンド","province":"東京都","city":"東村山市","address":"東京都東村山市富士見町5丁目4-36","lat":35.74688305,"lon":139.45748178},{"name":"都立東村山中央公園","province":"東京都","city":"東村山市","address":"東京都東村山市富士見町5丁目","lat":35.74535555,"lon":139.46071488},{"name":"＊?八国山たいけんの里","province":"東京都","city":"東村山市","address":"東村山市野口町3-48-1","lat":35.766084,"lon":139.454207},{"name":"(株)三栄サービス","province":"東京都","city":"東村山市","address":"東村山市久米川町1-16-5","lat":35.769608,"lon":139.479767},{"name":"JP資源(株)","province":"東京都","city":"東村山市","address":"東村山市久米川町5-32-15","lat":35.774208,"lon":139.476151},{"name":"東村山市秋水園","province":"東京都","city":"東村山市","address":"東京都東村山市秋津町4丁目17","lat":35.780079,"lon":139.485489},{"name":"グリーン・ボイス","province":"東京都","city":"東村山市","address":"東村山市萩山町3-31-2","lat":35.743978,"lon":139.468161},{"name":"東京ばんなん白光園","province":"東京都","city":"東村山市","address":"東村山市諏訪町2-26-1","lat":35.771892,"lon":139.463658},{"name":"東村山市","province":"東京都","city":"東村山市","address":"東村山市本町1-2-3","lat":35.754624,"lon":139.468483},{"name":"秋津公民館","province":"東京都","city":"東村山市","address":"東京都東村山市秋津町2丁目17-10","lat":35.77112559,"lon":139.48661728},{"name":"秋津図書館","province":"東京都","city":"東村山市","address":"東京都東村山市秋津町2丁目17-10","lat":35.77112559,"lon":139.48661728},{"name":"秋津児童館","province":"東京都","city":"東村山市","address":"東京都東村山市秋津町3丁目51-25","lat":35.77335302,"lon":139.48347305},{"name":"栄町児童館","province":"東京都","city":"東村山市","address":"東京都東村山市栄町3丁目14-1","lat":35.74693898,"lon":139.46912795},{"name":"北山児童館","province":"東京都","city":"東村山市","address":"東京都東村山市野口町3丁目26-2","lat":35.76507807,"lon":139.45336478},{"name":"八国山たいけんの里","province":"東京都","city":"東村山市","address":"東京都東村山市野口町3丁目48-1","lat":35.76618631,"lon":139.45410912},{"name":"萩山公民館","province":"東京都","city":"東村山市","address":"東京都東村山市萩山町2丁目13-1","lat":35.74155931,"lon":139.478669},{"name":"富士見図書館","province":"東京都","city":"東村山市","address":"東京都東村山市富士見町1丁目7-35","lat":35.74400017,"lon":139.46128433},{"name":"富士見公民館","province":"東京都","city":"東村山市","address":"東京都東村山市富士見町5丁目4-51","lat":35.74666658,"lon":139.46283131},{"name":"中央図書館","province":"東京都","city":"東村山市","address":"東京都東村山市本町1丁目1-10","lat":35.75524913,"lon":139.46820547},{"name":"東村山市役所本庁舎","province":"東京都","city":"東村山市","address":"東京都東村山市本町1丁目2-3","lat":35.75462421,"lon":139.46848323},{"name":"中央公民館","province":"東京都","city":"東村山市","address":"東京都東村山市本町2丁目33-2","lat":35.75983747,"lon":139.46685541},{"name":"美住リサイクルショップ","province":"東京都","city":"東村山市","address":"東京都東村山市美住町2丁目11-32","lat":35.75701262,"lon":139.46183653},{"name":"廻田公民館","province":"東京都","city":"東村山市","address":"東京都東村山市廻田町4丁目19-1","lat":35.75953701,"lon":139.45215675},{"name":"東村山市保健福祉総合センター","province":"東京都","city":"東村山市","address":"東京都東村山市本町1丁目2-3","lat":35.75462421,"lon":139.46848323},{"name":"東村山ナーシングホーム","province":"東京都","city":"東村山市","address":"東京都東村山市青葉町1丁目7-1","lat":35.76043805,"lon":139.49094217},{"name":"東村山西高等学校","province":"東京都","city":"東村山市","address":"東京都東村山市富士見町5丁目4-41","lat":35.749666,"lon":139.45542351},{"name":"東村山高等学校","province":"東京都","city":"東村山市","address":"東京都東村山市恩多町4丁目26-1","lat":35.759885,"lon":139.47780442},{"name":"東村山市民スポーツセンター","province":"東京都","city":"東村山市","address":"東京都東村山市久米川町3丁目30-5","lat":35.76107658,"lon":139.47965976},{"name":"東村山市本庁舎","province":"東京都","city":"東村山市","address":"東村山市本町1-2-3","lat":35.754624,"lon":139.468484},{"name":"東村山警察署","province":"東京都","city":"東村山市","address":"東村山市本町1-1-3","lat":35.75562,"lon":139.4675},{"name":"東村山消防署","province":"東京都","city":"東村山市","address":"東村山市美住町2-28-16","lat":35.75293,"lon":139.4506},{"name":"都立東村山中央公園（広場）","province":"東京都","city":"東村山市","address":"東村山市富士見町5丁目地内","lat":35.74522,"lon":139.4609},{"name":"東村山市立運動公園","province":"東京都","city":"東村山市","address":"東村山市恩多町1-51-1","lat":35.75429,"lon":139.4898},{"name":"※東村山市役所本庁舎","province":"東京都","city":"東村山市","address":"東京都東村山市本町1丁目2-3","lat":35.75462421,"lon":139.46848323},{"name":"多摩北部医療センター","province":"東京都","city":"東村山市","address":"東京都東村山市青葉町1丁目7-1","lat":35.76043805,"lon":139.49094217},{"name":"平成あおば上宮園","province":"東京都","city":"東村山市","address":"東京都東村山市青葉町1-7-75","lat":35.75954,"lon":139.49255},{"name":"東京都立萩山実務学校","province":"東京都","city":"東村山市","address":"東村山市萩山町1-37-1","lat":35.73761,"lon":139.479936},{"name":"やまだこども教室","province":"東京都","city":"東村山市","address":"東村山市秋津町5-13-3セゾン新秋津2階","lat":35.778311,"lon":139.494094},{"name":"トーコロあおば就労サポートセンター","province":"東京都","city":"東村山市","address":"東村山市青葉町2-39-10","lat":35.765318,"lon":139.490695},{"name":"山鳩訓練室","province":"東京都","city":"東村山市","address":"東村山市久米川町3-12-31","lat":35.765895,"lon":139.473002},{"name":"楽しい放課後みんな","province":"東京都","city":"東村山市","address":"東村山市久米川町2-31-6-102","lat":35.761424,"lon":139.482748},{"name":"ひまわり","province":"東京都","city":"東村山市","address":"東村山市富士見町1-5-13","lat":35.741734,"lon":139.459646},{"name":"東村山市福祉作業所","province":"東京都","city":"東村山市","address":"東村山市諏訪町1-3-10","lat":35.76549,"lon":139.466672},{"name":"東村山ソーシャルホーム","province":"東京都","city":"東村山市","address":"東村山市本町1-13-51大塚ビル104","lat":35.75433,"lon":139.466156},{"name":"緑風荘病院","province":"東京都","city":"東村山市","address":"東村山市萩山町3-31-1","lat":35.74455,"lon":139.468078},{"name":"東京白十字病院","province":"東京都","city":"東村山市","address":"東村山市諏訪町2-26-1","lat":35.771892,"lon":139.463658},{"name":"ドーミー久米川","province":"東京都","city":"東村山市","address":"東村山市本町1-9-11","lat":35.75204,"lon":139.46751},{"name":"東村山ソーシャルホーム","province":"東京都","city":"東村山市","address":"東村山市本町1-13-51大塚ビル104","lat":35.75448,"lon":139.46622},{"name":"市役所 本庁舎1階 総合受付横","province":"東京都","city":"東村山市","address":"東京都東村山市本町1丁目2-3","lat":35.75418,"lon":139.468301},{"name":"市役所 いきいきプラザ1階 総合窓口横","province":"東京都","city":"東村山市","address":"東京都東村山市本町1丁目2-3","lat":35.75418,"lon":139.468301},{"name":"市民センター1階 入口付近","province":"東京都","city":"東村山市","address":"東京都東村山市本町1丁目1-1","lat":35.755291,"lon":139.46753},{"name":"東村山駅西口サンパルネ3階 健康・交流フロア","province":"東京都","city":"東村山市","address":"東京都東村山市野口町1丁目46","lat":35.759997,"lon":139.465323},{"name":"秋水園ふれあいセンター","province":"東京都","city":"東村山市","address":"東京都東村山市秋津町4丁目24-12","lat":35.77929,"lon":139.485947},{"name":"多摩湖ふれあいセンター","province":"東京都","city":"東村山市","address":"東京都東村山市多摩湖町1丁目18-16","lat":35.764064,"lon":139.449143},{"name":"恩多ふれあいセンター","province":"東京都","city":"東村山市","address":"東京都東村山市恩多町5丁目40-1","lat":35.757291,"lon":139.490009},{"name":"栄町ふれあいセンター","province":"東京都","city":"東村山市","address":"東京都東村山市栄町2丁目25-5","lat":35.747752,"lon":139.47242},{"name":"久米川ふれあいセンター","province":"東京都","city":"東村山市","address":"東京都東村山市久米川町3丁目16-4","lat":35.766096,"lon":139.474206},{"name":"青葉地域センター","province":"東京都","city":"東村山市","address":"東京都東村山市青葉町3丁目30-3","lat":35.76921,"lon":139.496263},{"name":"秋水園","province":"東京都","city":"東村山市","address":"東京都東村山市秋津町4丁目17-1","lat":35.779668,"lon":139.485337},{"name":"秋水園プール （注記）プール開放期間のみ","province":"東京都","city":"東村山市","address":"東京都東村山市秋津町4丁目17-1","lat":35.779668,"lon":139.485337},{"name":"東村山駅西口地下駐輪場","province":"東京都","city":"東村山市","address":"東京都東村山市野口町1丁目41","lat":35.761558,"lon":139.464132},{"name":"久米川駅北口地下駐輪場","province":"東京都","city":"東村山市","address":"東京都東村山市栄町1丁目3-1","lat":35.750106,"lon":139.473008},{"name":"子育て総合支援センター（地域福祉センター）","province":"東京都","city":"東村山市","address":"東京都東村山市野口町1丁目25-15","lat":35.758257,"lon":139.464253},{"name":"社会福祉センター","province":"東京都","city":"東村山市","address":"東京都東村山市諏訪町1丁目3-10","lat":35.765483,"lon":139.466712},{"name":"萩山憩いの家","province":"東京都","city":"東村山市","address":"東京都東村山市萩山町2丁目3-11","lat":35.742364,"lon":139.475627},{"name":"久米川憩いの家","province":"東京都","city":"東村山市","address":"東京都東村山市久米川町5丁目16-1","lat":35.771689,"lon":139.471999},{"name":"廻田憩いの家（第一回田児童クラブ、廻田集会所）","province":"東京都","city":"東村山市","address":"東京都東村山市廻田町3丁目12-6","lat":35.757549,"lon":139.447586},{"name":"第一保育園","province":"東京都","city":"東村山市","address":"東京都東村山市本町4丁目15-16","lat":35.75338,"lon":139.473389},{"name":"第三保育園","province":"東京都","city":"東村山市","address":"東京都東村山市多摩湖町1丁目23-4","lat":35.763727,"lon":139.452163},{"name":"第四保育園","province":"東京都","city":"東村山市","address":"東京都東村山市美住町1丁目4","lat":35.75007,"lon":139.462908},{"name":"第五保育園","province":"東京都","city":"東村山市","address":"東京都東村山市秋津町4丁目25-15","lat":35.779294,"lon":139.485108},{"name":"第七保育園","province":"東京都","city":"東村山市","address":"東京都東村山市栄町1丁目36-51","lat":35.752516,"lon":139.477233},{"name":"本町児童館","province":"東京都","city":"東村山市","address":"東京都東村山市本町4丁目19-26","lat":35.753746,"lon":139.474797},{"name":"栄町児童館","province":"東京都","city":"東村山市","address":"東京都東村山市栄町3丁目14-1","lat":35.74663,"lon":139.469211},{"name":"北山児童館","province":"東京都","city":"東村山市","address":"東京都東村山市野口町3丁目26-2","lat":35.765104,"lon":139.453386},{"name":"秋津児童館","province":"東京都","city":"東村山市","address":"東京都東村山市秋津町3丁目51-25","lat":35.773334,"lon":139.483478},{"name":"第1久米川児童クラブ","province":"東京都","city":"東村山市","address":"東京都東村山市久米川町4丁目11-19","lat":35.761767,"lon":139.473034},{"name":"久米川東児童クラブ","province":"東京都","city":"東村山市","address":"東京都東村山市久米川町2丁目44-3","lat":35.766236,"lon":139.481497},{"name":"第1・第2秋津東児童クラブ","province":"東京都","city":"東村山市","address":"東京都東村山市秋津町4丁目35-68","lat":35.774677,"lon":139.489323},{"name":"第1・第2青葉児童クラブ","province":"東京都","city":"東村山市","address":"東京都東村山市青葉町2丁目35-11","lat":35.764264,"lon":139.488665},{"name":"第1野火止児童クラブ","province":"東京都","city":"東村山市","address":"東京都東村山市恩多町5丁目45-4","lat":35.756596,"lon":139.48673},{"name":"第1東萩山児童クラブ","province":"東京都","city":"東村山市","address":"東京都東村山市萩山町5丁目7-18","lat":35.746268,"lon":139.477317},{"name":"第1・第2萩山児童クラブ","province":"東京都","city":"東村山市","address":"東京都東村山市萩山町4丁目16-5","lat":35.743035,"lon":139.478656},{"name":"富士見児童クラブ","province":"東京都","city":"東村山市","address":"東京都東村山市富士見町5丁目4-56","lat":35.747287,"lon":139.457986},{"name":"南台児童クラブ","province":"東京都","city":"東村山市","address":"東京都東村山市富士見町1丁目16-1","lat":35.744493,"lon":139.456483},{"name":"第1化成児童クラブ","province":"東京都","city":"東村山市","address":"東京都東村山市諏訪町1丁目4-1","lat":35.764986,"lon":139.465841},{"name":"美住リサイクルショップ","province":"東京都","city":"東村山市","address":"東京都東村山市美住町2丁目11-32","lat":35.757021,"lon":139.461892},{"name":"中央公民館","province":"東京都","city":"東村山市","address":"東京都東村山市本町2丁目33-2","lat":35.759786,"lon":139.466863},{"name":"富士見公民館（富士見児童館、富士見憩いの家）","province":"東京都","city":"東村山市","address":"東京都東村山市富士見町5丁目4-51","lat":35.746615,"lon":139.462885},{"name":"萩山公民館（萩山図書館）","province":"東京都","city":"東村山市","address":"東京都東村山市萩山町2丁目13-1","lat":35.741586,"lon":139.478676},{"name":"秋津公民館（秋津図書館）","province":"東京都","city":"東村山市","address":"東京都東村山市秋津町2丁目17-10","lat":35.771015,"lon":139.486598},{"name":"廻田公民館（廻田図書館）","province":"東京都","city":"東村山市","address":"東京都東村山市廻田町4丁目19-1","lat":35.759623,"lon":139.452093},{"name":"中央図書館","province":"東京都","city":"東村山市","address":"東京都東村山市本町1丁目1-10","lat":35.755239,"lon":139.468209},{"name":"富士見図書館","province":"東京都","city":"東村山市","address":"東京都東村山市富士見町1丁目7-35","lat":35.744004,"lon":139.461263},{"name":"市民スポーツセンター","province":"東京都","city":"東村山市","address":"東京都東村山市久米川町3丁目30-5","lat":35.761085,"lon":139.479636},{"name":"運動公園管理事務所","province":"東京都","city":"東村山市","address":"東京都東村山市恩多町1丁目51-1","lat":35.754234,"lon":139.489705},{"name":"ふるさと歴史館","province":"東京都","city":"東村山市","address":"東京都東村山市諏訪町1丁目6-3","lat":35.766268,"lon":139.466058},{"name":"八国山たいけんの里","province":"東京都","city":"東村山市","address":"東京都東村山市野口町3丁目48-1","lat":35.766135,"lon":139.454245},{"name":"東村山市シルバー人材センター","province":"東京都","city":"東村山市","address":"東京都東村山市久米川町4丁目9-19","lat":35.761612,"lon":139.469155},{"name":"化成小学校","province":"東京都","city":"東村山市","address":"東京都東村山市諏訪町1-4-1","lat":35.764986,"lon":139.465841},{"name":"回田小学校","province":"東京都","city":"東村山市","address":"東京都東村山市廻田町3-28-1","lat":35.759008,"lon":139.446259},{"name":"大岱小学校","province":"東京都","city":"東村山市","address":"東京都東村山市恩多町4-17-1","lat":35.756545,"lon":139.478064},{"name":"秋津小学校","province":"東京都","city":"東村山市","address":"東京都東村山市秋津町3-48-1","lat":35.772788,"lon":139.481994},{"name":"八坂小学校","province":"東京都","city":"東村山市","address":"東京都東村山市栄町3-34-1","lat":35.749013,"lon":139.465727},{"name":"萩山小学校","province":"東京都","city":"東村山市","address":"東京都東村山市萩山町4-16-1","lat":35.743933,"lon":139.477817},{"name":"南台小学校","province":"東京都","city":"東村山市","address":"東京都東村山市富士見町1-16-12","lat":35.74438,"lon":139.455407},{"name":"久米川小学校","province":"東京都","city":"東村山市","address":"東京都東村山市久米川町4-11-1","lat":35.762047,"lon":139.471642},{"name":"東萩山小学校","province":"東京都","city":"東村山市","address":"東京都東村山市萩山町5-7-1","lat":35.745691,"lon":139.478585},{"name":"青葉小学校","province":"東京都","city":"東村山市","address":"東京都東村山市青葉町2-33-1","lat":35.76467,"lon":139.49011},{"name":"北山小学校","province":"東京都","city":"東村山市","address":"東京都東村山市野口町3-45-1","lat":35.766343,"lon":139.455667},{"name":"秋津東小学校","province":"東京都","city":"東村山市","address":"東京都東村山市秋津町4-35-11","lat":35.774834,"lon":139.488824},{"name":"野火止小学校","province":"東京都","city":"東村山市","address":"東京都東村山市恩多町5-47-1","lat":35.75631,"lon":139.485649},{"name":"久米川東小学校","province":"東京都","city":"東村山市","address":"東京都東村山市久米川町2-40-10","lat":35.765645,"lon":139.482639},{"name":"富士見小学校","province":"東京都","city":"東村山市","address":"東京都東村山市富士見町5-4-57","lat":35.74667,"lon":139.458438},{"name":"東村山第一中学校","province":"東京都","city":"東村山市","address":"東京都東村山市富士見町1-5-2","lat":35.742164,"lon":139.459624},{"name":"東村山第二中学校","province":"東京都","city":"東村山市","address":"東京都東村山市久米川町2-4-1","lat":35.770055,"lon":139.474812},{"name":"東村山第三中学校","province":"東京都","city":"東村山市","address":"東京都東村山市萩山町5-2-1","lat":35.747922,"lon":139.476758},{"name":"東村山第三中学校萩山分校","province":"東京都","city":"東村山市","address":"東京都東村山市萩山町1-37-1","lat":35.735563,"lon":139.479658},{"name":"東村山第四中学校","province":"東京都","city":"東村山市","address":"東京都東村山市野口町3-24-1","lat":35.763999,"lon":139.453465},{"name":"東村山第五中学校","province":"東京都","city":"東村山市","address":"東京都東村山市恩多町4-38-1","lat":35.760687,"lon":139.480776},{"name":"東村山第六中学校","province":"東京都","city":"東村山市","address":"東京都東村山市秋津町2-29-14","lat":35.769799,"lon":139.48991},{"name":"東村山第七中学校","province":"東京都","city":"東村山市","address":"東京都東村山市美住町2-23-1","lat":35.755463,"lon":139.459433},{"name":"北山公園","province":"東京都","city":"東村山市","address":"東京都東村山市野口町3丁目地内、4丁目地内","lat":35.761981,"lon":139.457978},{"name":"農とみどりの体験パーク","province":"東京都","city":"東村山市","address":"東京都東村山市秋津町1-9-2","lat":35.774162,"lon":139.492967},{"name":"東村山市立中央図書館","province":"東京都","city":"東村山市","address":"東京都東村山市本町1丁目1-10","lat":35.75524913,"lon":139.46820547},{"name":"東村山市立富士見図書館","province":"東京都","city":"東村山市","address":"東京都東村山市富士見町1丁目7-35","lat":35.74400017,"lon":139.46128433},{"name":"東村山市立萩山図書館","province":"東京都","city":"東村山市","address":"東京都東村山市萩山町2丁目13-1","lat":35.74155931,"lon":139.478669},{"name":"東村山市立秋津図書館","province":"東京都","city":"東村山市","address":"東京都東村山市秋津町2丁目17-10","lat":35.77112559,"lon":139.48661728},{"name":"東村山市立廻田図書館","province":"東京都","city":"東村山市","address":"東京都東村山市廻田町4丁目19-1","lat":35.75953701,"lon":139.45215675},{"name":"東村山市民スポーツセンター","province":"東京都","city":"東村山市","address":"東京都東村山市久米川町3丁目30-5","lat":35.76107658,"lon":139.47965976},{"name":"東村山市運動公園野球場","province":"東京都","city":"東村山市","address":"東京都東村山市恩多町1丁目51-1","lat":35.75413874,"lon":139.48959805},{"name":"東村山市運動公園トラック競技場","province":"東京都","city":"東村山市","address":"東京都東村山市恩多町1丁目51-1","lat":35.75413874,"lon":139.48959805},{"name":"東村山市運動公園庭球場","province":"東京都","city":"東村山市","address":"東京都東村山市恩多町1丁目51-1","lat":35.75413874,"lon":139.48959805},{"name":"東村山市青葉ゲートボール場","province":"東京都","city":"東村山市","address":"東京都東村山市青葉町2丁目35-11","lat":35.76565405,"lon":139.48881998},{"name":"東村山市北川ゲートボール場","province":"東京都","city":"東村山市","address":"東京都東村山市諏訪町1丁目39-32","lat":35.77304443,"lon":139.47067131},{"name":"東村山市ゲートボール場公園","province":"東京都","city":"東村山市","address":"東京都東村山市廻田町1丁目26-15","lat":35.75654291,"lon":139.45233462},{"name":"化成小学校","province":"東京都","city":"東村山市","address":"東京都東村山市諏訪町1丁目4-1","lat":35.76565618,"lon":139.46465818},{"name":"回田小学校","province":"東京都","city":"東村山市","address":"東京都東村山市廻田町3丁目28-1","lat":35.75892299,"lon":139.44601009},{"name":"大岱小学校","province":"東京都","city":"東村山市","address":"東京都東村山市恩多町4丁目17-1","lat":35.75644372,"lon":139.47799065},{"name":"秋津小学校","province":"東京都","city":"東村山市","address":"東京都東村山市秋津町3丁目48-1","lat":35.7731058,"lon":139.48214261},{"name":"八坂小学校","province":"東京都","city":"東村山市","address":"東京都東村山市栄町3丁目34-1","lat":35.74900808,"lon":139.46569484},{"name":"萩山小学校","province":"東京都","city":"東村山市","address":"東京都東村山市萩山町4丁目16-1","lat":35.74389513,"lon":139.47786618},{"name":"南台小学校","province":"東京都","city":"東村山市","address":"東京都東村山市富士見町1丁目16-12","lat":35.74441936,"lon":139.45522931},{"name":"久米川小学校","province":"東京都","city":"東村山市","address":"東京都東村山市久米川町4丁目11-1","lat":35.76229847,"lon":139.47164654},{"name":"東萩山小学校","province":"東京都","city":"東村山市","address":"東京都東村山市萩山町5丁目7-1","lat":35.74632542,"lon":139.47779664},{"name":"青葉小学校","province":"東京都","city":"東村山市","address":"東京都東村山市青葉町2丁目33-1","lat":35.76465976,"lon":139.49004768},{"name":"北山小学校","province":"東京都","city":"東村山市","address":"東京都東村山市野口町3丁目45-1","lat":35.76611137,"lon":139.45558122},{"name":"秋津東小学校","province":"東京都","city":"東村山市","address":"東京都東村山市秋津町4丁目35-11","lat":35.77467798,"lon":139.48882816},{"name":"野火止小学校","province":"東京都","city":"東村山市","address":"東京都東村山市恩多町5丁目47-1","lat":35.75617451,"lon":139.48557888},{"name":"久米川東小学校","province":"東京都","city":"東村山市","address":"東京都東村山市久米川町2丁目40-10","lat":35.76565113,"lon":139.48262883},{"name":"富士見小学校","province":"東京都","city":"東村山市","address":"東京都東村山市富士見町5丁目4-57","lat":35.74679976,"lon":139.45842892},{"name":"第一中学校","province":"東京都","city":"東村山市","address":"東京都東村山市富士見町1丁目5-2","lat":35.74255587,"lon":139.46051224},{"name":"第二中学校","province":"東京都","city":"東村山市","address":"東京都東村山市久米川町2丁目4-1","lat":35.76994215,"lon":139.47457381},{"name":"第三中学校","province":"東京都","city":"東村山市","address":"東京都東村山市萩山町5丁目2-1","lat":35.7479752,"lon":139.47692998},{"name":"第四中学校","province":"東京都","city":"東村山市","address":"東京都東村山市野口町3丁目24-1","lat":35.76398099,"lon":139.45351202},{"name":"第五中学校","province":"東京都","city":"東村山市","address":"東京都東村山市恩多町4丁目38-1","lat":35.76064053,"lon":139.48069303},{"name":"第六中学校","province":"東京都","city":"東村山市","address":"東京都東村山市秋津町2丁目29-14","lat":35.76982304,"lon":139.48965316},{"name":"第七中学校","province":"東京都","city":"東村山市","address":"東京都東村山市美住町2丁目23-1","lat":35.75543493,"lon":139.45937292},{"name":"まちの縁側本町　夕ぐれ食堂","province":"東京都","city":"東村山市","address":"東京都東村山市本町4丁目1-8","lat":35.75253003,"lon":139.46967488},{"name":"子ども食堂　リコード","province":"東京都","city":"東村山市","address":"東京都東村山市本町3丁目9-40","lat":35.75852665,"lon":139.47114118},{"name":"ふれあいこども食堂あおば","province":"東京都","city":"東村山市","address":"東京都東村山市青葉町2丁目25-66","lat":35.76190178,"lon":139.49118376},{"name":"ふれあいこども食堂","province":"東京都","city":"東村山市","address":"東京都東村山市栄町1丁目1-18","lat":35.75056089,"lon":139.47198587},{"name":"にちよう食堂","province":"東京都","city":"東村山市","address":"東京都東村山市栄町1丁目29-34","lat":35.75251075,"lon":139.47501885},{"name":"おひさま食堂","province":"東京都","city":"東村山市","address":"東京都東村山市富士見町5丁目1-93","lat":35.7450057,"lon":139.46432568},{"name":"万福食堂","province":"東京都","city":"東村山市","address":"東京都東村山市廻田町3丁目12-6","lat":35.75761762,"lon":139.44732947},{"name":"東村山地域食堂ふたば","province":"東京都","city":"東村山市","address":"東京都東村山市野口町1丁目15-5","lat":35.76157604,"lon":139.46296959},{"name":"SOMPO流　子ども食堂（八坂）","province":"東京都","city":"東村山市","address":"東京都東村山市栄町3丁目23-1","lat":35.74535292,"lon":139.46513116},{"name":"SOMPO流　子ども食堂（萩山）","province":"東京都","city":"東村山市","address":"東京都東村山市萩山町2丁目9-46","lat":35.7402039,"lon":139.47823297},{"name":"SOMPO流　子ども食堂（久米川）","province":"東京都","city":"東村山市","address":"東京都東村山市美住町1丁目19-10","lat":35.75042437,"lon":139.45880928},{"name":"子どもたちのお弁当屋さん","province":"東京都","city":"東村山市","address":"東京都東村山市富士見町2丁目19-23","lat":35.7372534,"lon":139.45070223},{"name":"恩多こども食堂","province":"東京都","city":"東村山市","address":"東京都東村山市恩多町3丁目3-22","lat":35.753233,"lon":139.47909623},{"name":"狭山公園","province":"東京都","city":"東村山市","address":"東京都東村山市多摩湖町3-17-19","lat":35.763187,"lon":139.44158},{"name":"八国山緑地","province":"東京都","city":"東村山市","address":"東京都東村山市諏訪町2・3丁目、多摩湖町4丁目","lat":35.766772,"lon":139.454934},{"name":"東村山中央公園","province":"東京都","city":"東村山市","address":"東京都東村山市富士見町五丁目・美住町一丁目","lat":35.747927,"lon":139.459004},{"name":"八坂給水所","province":"東京都","city":"東村山市","address":"東京都東村山市富士見町5-4-46","lat":35.747356,"lon":139.458482},{"name":"東村山浄水場","province":"東京都","city":"東村山市","address":"東京都東村山市美住町2-20-236","lat":35.7532331,"lon":139.458674},{"name":"美住給水所","province":"東京都","city":"東村山市","address":"東京都東村山市美住町2-13-4","lat":35.7555303,"lon":139.461554},{"name":"市立東村山運動公園","province":"東京都","city":"東村山市","address":"東京都東村山市恩多町1-9-5","lat":35.7556996,"lon":139.4901976},{"name":"市立秋津小学校","province":"東京都","city":"東村山市","address":"東京都東村山市秋津町3-48-1","lat":35.773108,"lon":139.482144},{"name":"東京都立萩山実務学校","province":"東京都","city":"東村山市","address":"東村山市萩山町1-37-1","lat":35.7379,"lon":139.48074},{"name":"村山荘","province":"東京都","city":"東村山市","address":"東村山市富士見町2-7-5","lat":35.74027,"lon":139.45242},{"name":"さつき荘","province":"東京都","city":"東村山市","address":"東村山市富士見町2-8-2","lat":35.7401,"lon":139.45364},{"name":"東村山市福祉作業所","province":"東京都","city":"東村山市","address":"東村山市諏訪町1-3-10","lat":35.76547,"lon":139.46674},{"name":"ドーミー久米川２","province":"東京都","city":"東村山市","address":"東村山市本町1-9-11","lat":35.75204,"lon":139.46751},{"name":"東村山市","province":"東京都","city":"東村山市","address":"東村山市本町1-2-3","lat":35.75449,"lon":139.46841},{"name":"久米川駅南口第２駐輪場","province":"東京都","city":"東村山市","address":"東京都東村山市栄町2丁目11-13","lat":35.75087469,"lon":139.47040544},{"name":"久米川駅北口地下駐輪場","province":"東京都","city":"東村山市","address":"東京都東村山市栄町1丁目3-1","lat":35.7501304,"lon":139.47295802},{"name":"東村山駅東口第１駐輪場","province":"東京都","city":"東村山市","address":"東京都東村山市本町2丁目16-13","lat":35.76119848,"lon":139.46845798},{"name":"東村山駅東口第２駐輪場","province":"東京都","city":"東村山市","address":"東京都東村山市本町2丁目15-28","lat":35.76168732,"lon":139.46838575},{"name":"東村山駅西口地下駐輪場","province":"東京都","city":"東村山市","address":"東京都東村山市野口町3丁目1-41","lat":35.76218969,"lon":139.45838386},{"name":"新秋津駅第２駐輪場","province":"東京都","city":"東村山市","address":"東京都東村山市秋津町5丁目24-19","lat":35.77819153,"lon":139.49255002},{"name":"三井のリパーク　久米川駅前駐輪場","province":"東京都","city":"東村山市","address":"東京都東村山市栄町2丁目10","lat":35.75036365,"lon":139.47062489},{"name":"サイクルタイムズ久米川","province":"東京都","city":"東村山市","address":"東京都東村山市栄町2丁目6","lat":35.74793344,"lon":139.47342196},{"name":"Ｂ－Ｐａｒｋ24　東村山駅東口","province":"東京都","city":"東村山市","address":"東京都東村山市久米川町4丁目8-12","lat":35.76129571,"lon":139.46889961},{"name":"サイクル・インＢ－Ｐａｒｋ　東村山駅東口駐輪場","province":"東京都","city":"東村山市","address":"東京都東村山市久米川町4丁目8-12","lat":35.76129571,"lon":139.46889961},{"name":"三井のリパーク　東村山駅前駐輪場","province":"東京都","city":"東村山市","address":"東京都東村山市野口町1丁目1-4","lat":35.76151223,"lon":139.46528326},{"name":"駐輪館","province":"東京都","city":"東村山市","address":"東京都東村山市野口町1丁目25-8","lat":35.75881804,"lon":139.46414459},{"name":"Ａ－Ｐarkサイクル新秋津駅前","province":"東京都","city":"東村山市","address":"東京都東村山市秋津町5丁目25","lat":35.77794157,"lon":139.49279444},{"name":"サイクルタイムズ秋津","province":"東京都","city":"東村山市","address":"東京都東村山市秋津町5丁目8","lat":35.77749448,"lon":139.49600253},{"name":"西武スマイルパーク　秋津駅南口駐輪場","province":"東京都","city":"東村山市","address":"東京都東村山市秋津町5丁目7-8","lat":35.7783055,"lon":139.49674412},{"name":"三井のリパーク　新秋津駅前駐輪場","province":"東京都","city":"東村山市","address":"東京都東村山市秋津町5丁目14-1","lat":35.77713335,"lon":139.49316665},{"name":"新秋津駅第5駐輪場","province":"東京都","city":"東村山市","address":"東京都東村山市秋津町5丁目17-17","lat":35.77485306,"lon":139.49300003},{"name":"中部地域包括支援センター","province":"東京都","city":"東村山市","address":"東村山市野口町1-25-15東村山市社会福祉協議会内","lat":35.758617,"lon":139.464005},{"name":"北部地域包括支援センター","province":"東京都","city":"東村山市","address":"東村山市諏訪町2-26-1東京ばんなん白光園","lat":35.771687,"lon":139.463852},{"name":"東部地域包括支援センター","province":"東京都","city":"東村山市","address":"東村山市秋津町1-32-18はるびの郷内","lat":35.773125,"lon":139.497025},{"name":"西部地域包括支援センター","province":"東京都","city":"東村山市","address":"東村山市富士見町2-1-2万寿園内","lat":35.744675,"lon":139.453461},{"name":"南部地域包括支援センター","province":"東京都","city":"東村山市","address":"東村山市萩山町3-31-2グリーン・ボイス内","lat":35.743809,"lon":139.46904},{"name":"東村山市消費生活センター","province":"東京都","city":"東村山市","address":"東村山市本町1-2-3東村山市役所市民部市民相談・交流課内","lat":35.75449,"lon":139.468414},{"name":"さつき荘","province":"東京都","city":"東村山市","address":"東村山市富士見町2-8-2","lat":35.74011,"lon":139.45364},{"name":"ドーミー久米川","province":"東京都","city":"東村山市","address":"東村山市本町1-9-11","lat":35.75205,"lon":139.46751},{"name":"ドーミー久米川２","province":"東京都","city":"東村山市","address":"東村山市本町1-9-11","lat":35.75205,"lon":139.46751},{"name":"ドーミー久米川","province":"東京都","city":"東村山市","address":"東村山市本町1-9-11","lat":35.751721,"lon":139.467964},{"name":"東村山市福祉作業所（平成31年４月１日より休止中）","province":"東京都","city":"東村山市","address":"東村山市諏訪町1-3-10","lat":35.76549,"lon":139.466672},{"name":"八坂","province":"東京都","city":"東村山市","address":"東京都東村山市萩山町3丁目31-45","lat":35.74387259,"lon":139.46697271},{"name":"東村山郵便局前","province":"東京都","city":"東村山市","address":"東京都東村山市本町2丁目1-2","lat":35.75822931,"lon":139.46684991},{"name":"栄町一丁目","province":"東京都","city":"東村山市","address":"東京都東村山市栄町1丁目23-1","lat":35.75067204,"lon":139.47384403},{"name":"八坂駅北口","province":"東京都","city":"東村山市","address":"東京都東村山市栄町3丁目10-28","lat":35.7458668,"lon":139.46705596},{"name":"萩山町五丁目","province":"東京都","city":"東村山市","address":"東京都東村山市萩山町5丁目3","lat":35.74820856,"lon":139.47866037},{"name":"東村山駅東口","province":"東京都","city":"東村山市","address":"東京都東村山市本町2丁目17-7","lat":35.76104847,"lon":139.46749974},{"name":"南台小学校裏","province":"東京都","city":"東村山市","address":"東京都東村山市富士見町2丁目1","lat":35.74489978,"lon":139.45277395},{"name":"東村山駅西口","province":"東京都","city":"東村山市","address":"東京都東村山市野口町1丁目10-1","lat":35.76173995,"lon":139.46462498},{"name":"萩山駅南口","province":"東京都","city":"東村山市","address":"東京都東村山市萩山町2丁目2","lat":35.74081487,"lon":139.47583872},{"name":"東村山郵便局北","province":"東京都","city":"東村山市","address":"東京都東村山市本町2丁目2-9","lat":35.7595014,"lon":139.46689431},{"name":"多摩北部医療センター前","province":"東京都","city":"東村山市","address":"東京都東村山市青葉町2丁目27-1","lat":35.76242395,"lon":139.49172816},{"name":"秋津駅入口","province":"東京都","city":"東村山市","address":"東京都東村山市秋津町1丁目32-18","lat":35.77338112,"lon":139.49729414},{"name":"青葉駐在所前","province":"東京都","city":"東村山市","address":"東京都東村山市青葉町2丁目24-64","lat":35.76058521,"lon":139.48940895},{"name":"多摩北部医療センター西","province":"東京都","city":"東村山市","address":"東京都東村山市青葉町1丁目7","lat":35.75941877,"lon":139.4930448},{"name":"多摩北部医療センター南","province":"東京都","city":"東村山市","address":"東京都東村山市青葉町1丁目7","lat":35.75941877,"lon":139.4930448},{"name":"西武園駅東","province":"東京都","city":"東村山市","address":"東京都東村山市多摩湖町4丁目29","lat":35.76763595,"lon":139.44840958},{"name":"多摩北部医療センター","province":"東京都","city":"東村山市","address":"東京都東村山市青葉町1丁目7-1","lat":35.76043805,"lon":139.49094217},{"name":"＊?八国山たいけんの里","province":"東京都","city":"東村山市","address":"東村山市野口町3-48-1","lat":35.766084,"lon":139.454207},{"name":"(株)三栄サービス","province":"東京都","city":"東村山市","address":"東村山市久米川町1-16-5","lat":35.769608,"lon":139.479767},{"name":"JP資源(株)","province":"東京都","city":"東村山市","address":"東村山市久米川町5-32-15","lat":35.774208,"lon":139.476151},{"name":"東村山市秋水園","province":"東京都","city":"東村山市","address":"東京都東村山市秋津町4丁目17","lat":35.780079,"lon":139.485489},{"name":"東村山市","province":"東京都","city":"東村山市","address":"東村山市本町1-2-3","lat":35.754624,"lon":139.468483},{"name":"秋津公民館","province":"東京都","city":"東村山市","address":"東京都東村山市秋津町2丁目17-10","lat":35.77112559,"lon":139.48661728},{"name":"秋津図書館","province":"東京都","city":"東村山市","address":"東京都東村山市秋津町2丁目17-10","lat":35.77112559,"lon":139.48661728},{"name":"秋津児童館","province":"東京都","city":"東村山市","address":"東京都東村山市秋津町3丁目51-25","lat":35.77335302,"lon":139.48347305},{"name":"栄町児童館","province":"東京都","city":"東村山市","address":"東京都東村山市栄町3丁目14-1","lat":35.74693898,"lon":139.46912795},{"name":"北山児童館","province":"東京都","city":"東村山市","address":"東京都東村山市野口町3丁目26-2","lat":35.76507807,"lon":139.45336478},{"name":"八国山たいけんの里","province":"東京都","city":"東村山市","address":"東京都東村山市野口町3丁目48-1","lat":35.76618631,"lon":139.45410912},{"name":"萩山公民館","province":"東京都","city":"東村山市","address":"東京都東村山市萩山町2丁目13-1","lat":35.74155931,"lon":139.478669},{"name":"富士見図書館","province":"東京都","city":"東村山市","address":"東京都東村山市富士見町1丁目7-35","lat":35.74400017,"lon":139.46128433},{"name":"富士見公民館","province":"東京都","city":"東村山市","address":"東京都東村山市富士見町5丁目4-51","lat":35.74666658,"lon":139.46283131},{"name":"中央図書館","province":"東京都","city":"東村山市","address":"東京都東村山市本町1丁目1-10","lat":35.75524913,"lon":139.46820547},{"name":"東村山市役所本庁舎","province":"東京都","city":"東村山市","address":"東京都東村山市本町1丁目2-3","lat":35.75462421,"lon":139.46848323},{"name":"中央公民館","province":"東京都","city":"東村山市","address":"東京都東村山市本町2丁目33-2","lat":35.75983747,"lon":139.46685541},{"name":"美住リサイクルショップ","province":"東京都","city":"東村山市","address":"東京都東村山市美住町2丁目11-32","lat":35.75701262,"lon":139.46183653},{"name":"廻田公民館","province":"東京都","city":"東村山市","address":"東京都東村山市廻田町4丁目19-1","lat":35.75953701,"lon":139.45215675},{"name":"東村山警察署","province":"東京都","city":"東村山市","address":"東村山市本町1-1-3","lat":35.75562,"lon":139.4675},{"name":"東村山消防署","province":"東京都","city":"東村山市","address":"東村山市美住町2-28-16","lat":35.75293,"lon":139.4506},{"name":"都立東村山中央公園（広場）","province":"東京都","city":"東村山市","address":"東村山市富士見町5丁目地内","lat":35.74522,"lon":139.4609},{"name":"東村山市立運動公園","province":"東京都","city":"東村山市","address":"東村山市恩多町1-51-1","lat":35.75429,"lon":139.4898},{"name":"やまだこども教室","province":"東京都","city":"東村山市","address":"東村山市秋津町5-13-3セゾン新秋津2階","lat":35.778311,"lon":139.494094},{"name":"トーコロあおば就労サポートセンター","province":"東京都","city":"東村山市","address":"東村山市青葉町2-39-10","lat":35.765318,"lon":139.490695},{"name":"山鳩訓練室","province":"東京都","city":"東村山市","address":"東村山市久米川町3-12-31","lat":35.765895,"lon":139.473002},{"name":"楽しい放課後みんな","province":"東京都","city":"東村山市","address":"東村山市久米川町2-31-6-102","lat":35.761424,"lon":139.482748},{"name":"ひまわり","province":"東京都","city":"東村山市","address":"東村山市富士見町1-5-13","lat":35.741734,"lon":139.459646},{"name":"東村山市福祉作業所","province":"東京都","city":"東村山市","address":"東村山市諏訪町1-3-10","lat":35.76549,"lon":139.466672},{"name":"東村山ソーシャルホーム","province":"東京都","city":"東村山市","address":"東村山市本町1-13-51大塚ビル104","lat":35.75433,"lon":139.466156},{"name":"緑風荘病院","province":"東京都","city":"東村山市","address":"東村山市萩山町3-31-1","lat":35.74455,"lon":139.468078},{"name":"東京白十字病院","province":"東京都","city":"東村山市","address":"東村山市諏訪町2-26-1","lat":35.771892,"lon":139.463658},{"name":"ドーミー久米川","province":"東京都","city":"東村山市","address":"東村山市本町1-9-11","lat":35.75204,"lon":139.46751},{"name":"東村山ソーシャルホーム","province":"東京都","city":"東村山市","address":"東村山市本町1-13-51大塚ビル104","lat":35.75448,"lon":139.46622},{"name":"市役所 本庁舎1階 総合受付横","province":"東京都","city":"東村山市","address":"東京都東村山市本町1丁目2-3","lat":35.75418,"lon":139.468301},{"name":"市役所 いきいきプラザ1階 総合窓口横","province":"東京都","city":"東村山市","address":"東京都東村山市本町1丁目2-3","lat":35.75418,"lon":139.468301},{"name":"市民センター1階 入口付近","province":"東京都","city":"東村山市","address":"東京都東村山市本町1丁目1-1","lat":35.755291,"lon":139.46753},{"name":"東村山駅西口サンパルネ3階 健康・交流フロア","province":"東京都","city":"東村山市","address":"東京都東村山市野口町1丁目46","lat":35.759997,"lon":139.465323},{"name":"秋水園ふれあいセンター","province":"東京都","city":"東村山市","address":"東京都東村山市秋津町4丁目24-12","lat":35.77929,"lon":139.485947},{"name":"多摩湖ふれあいセンター","province":"東京都","city":"東村山市","address":"東京都東村山市多摩湖町1丁目18-16","lat":35.764064,"lon":139.449143},{"name":"恩多ふれあいセンター","province":"東京都","city":"東村山市","address":"東京都東村山市恩多町5丁目40-1","lat":35.757291,"lon":139.490009},{"name":"栄町ふれあいセンター","province":"東京都","city":"東村山市","address":"東京都東村山市栄町2丁目25-5","lat":35.747752,"lon":139.47242},{"name":"久米川ふれあいセンター","province":"東京都","city":"東村山市","address":"東京都東村山市久米川町3丁目16-4","lat":35.766096,"lon":139.474206},{"name":"青葉地域センター","province":"東京都","city":"東村山市","address":"東京都東村山市青葉町3丁目30-3","lat":35.76921,"lon":139.496263},{"name":"秋水園","province":"東京都","city":"東村山市","address":"東京都東村山市秋津町4丁目17-1","lat":35.779668,"lon":139.485337},{"name":"秋水園プール （注記）プール開放期間のみ","province":"東京都","city":"東村山市","address":"東京都東村山市秋津町4丁目17-1","lat":35.779668,"lon":139.485337},{"name":"東村山駅西口地下駐輪場","province":"東京都","city":"東村山市","address":"東京都東村山市野口町1丁目41","lat":35.761558,"lon":139.464132},{"name":"久米川駅北口地下駐輪場","province":"東京都","city":"東村山市","address":"東京都東村山市栄町1丁目3-1","lat":35.750106,"lon":139.473008},{"name":"子育て総合支援センター（地域福祉センター）","province":"東京都","city":"東村山市","address":"東京都東村山市野口町1丁目25-15","lat":35.758257,"lon":139.464253},{"name":"社会福祉センター","province":"東京都","city":"東村山市","address":"東京都東村山市諏訪町1丁目3-10","lat":35.765483,"lon":139.466712},{"name":"萩山憩いの家","province":"東京都","city":"東村山市","address":"東京都東村山市萩山町2丁目3-11","lat":35.742364,"lon":139.475627},{"name":"久米川憩いの家","province":"東京都","city":"東村山市","address":"東京都東村山市久米川町5丁目16-1","lat":35.771689,"lon":139.471999},{"name":"廻田憩いの家（第一回田児童クラブ、廻田集会所）","province":"東京都","city":"東村山市","address":"東京都東村山市廻田町3丁目12-6","lat":35.757549,"lon":139.447586},{"name":"第一保育園","province":"東京都","city":"東村山市","address":"東京都東村山市本町4丁目15-16","lat":35.75338,"lon":139.473389},{"name":"第三保育園","province":"東京都","city":"東村山市","address":"東京都東村山市多摩湖町1丁目23-4","lat":35.763727,"lon":139.452163},{"name":"第四保育園","province":"東京都","city":"東村山市","address":"東京都東村山市美住町1丁目4","lat":35.75007,"lon":139.462908},{"name":"第五保育園","province":"東京都","city":"東村山市","address":"東京都東村山市秋津町4丁目25-15","lat":35.779294,"lon":139.485108},{"name":"第七保育園","province":"東京都","city":"東村山市","address":"東京都東村山市栄町1丁目36-51","lat":35.752516,"lon":139.477233},{"name":"本町児童館","province":"東京都","city":"東村山市","address":"東京都東村山市本町4丁目19-26","lat":35.753746,"lon":139.474797},{"name":"栄町児童館","province":"東京都","city":"東村山市","address":"東京都東村山市栄町3丁目14-1","lat":35.74663,"lon":139.469211},{"name":"北山児童館","province":"東京都","city":"東村山市","address":"東京都東村山市野口町3丁目26-2","lat":35.765104,"lon":139.453386},{"name":"秋津児童館","province":"東京都","city":"東村山市","address":"東京都東村山市秋津町3丁目51-25","lat":35.773334,"lon":139.483478},{"name":"第1久米川児童クラブ","province":"東京都","city":"東村山市","address":"東京都東村山市久米川町4丁目11-19","lat":35.761767,"lon":139.473034},{"name":"久米川東児童クラブ","province":"東京都","city":"東村山市","address":"東京都東村山市久米川町2丁目44-3","lat":35.766236,"lon":139.481497},{"name":"第1・第2秋津東児童クラブ","province":"東京都","city":"東村山市","address":"東京都東村山市秋津町4丁目35-68","lat":35.774677,"lon":139.489323},{"name":"第1・第2青葉児童クラブ","province":"東京都","city":"東村山市","address":"東京都東村山市青葉町2丁目35-11","lat":35.764264,"lon":139.488665},{"name":"第1野火止児童クラブ","province":"東京都","city":"東村山市","address":"東京都東村山市恩多町5丁目45-4","lat":35.756596,"lon":139.48673},{"name":"第1東萩山児童クラブ","province":"東京都","city":"東村山市","address":"東京都東村山市萩山町5丁目7-18","lat":35.746268,"lon":139.477317},{"name":"第1・第2萩山児童クラブ","province":"東京都","city":"東村山市","address":"東京都東村山市萩山町4丁目16-5","lat":35.743035,"lon":139.478656},{"name":"富士見児童クラブ","province":"東京都","city":"東村山市","address":"東京都東村山市富士見町5丁目4-56","lat":35.747287,"lon":139.457986},{"name":"南台児童クラブ","province":"東京都","city":"東村山市","address":"東京都東村山市富士見町1丁目16-1","lat":35.744493,"lon":139.456483},{"name":"第1化成児童クラブ","province":"東京都","city":"東村山市","address":"東京都東村山市諏訪町1丁目4-1","lat":35.764986,"lon":139.465841},{"name":"美住リサイクルショップ","province":"東京都","city":"東村山市","address":"東京都東村山市美住町2丁目11-32","lat":35.757021,"lon":139.461892},{"name":"中央公民館","province":"東京都","city":"東村山市","address":"東京都東村山市本町2丁目33-2","lat":35.759786,"lon":139.466863},{"name":"富士見公民館（富士見児童館、富士見憩いの家）","province":"東京都","city":"東村山市","address":"東京都東村山市富士見町5丁目4-51","lat":35.746615,"lon":139.462885},{"name":"萩山公民館（萩山図書館）","province":"東京都","city":"東村山市","address":"東京都東村山市萩山町2丁目13-1","lat":35.741586,"lon":139.478676},{"name":"秋津公民館（秋津図書館）","province":"東京都","city":"東村山市","address":"東京都東村山市秋津町2丁目17-10","lat":35.771015,"lon":139.486598},{"name":"廻田公民館（廻田図書館）","province":"東京都","city":"東村山市","address":"東京都東村山市廻田町4丁目19-1","lat":35.759623,"lon":139.452093},{"name":"中央図書館","province":"東京都","city":"東村山市","address":"東京都東村山市本町1丁目1-10","lat":35.755239,"lon":139.468209},{"name":"富士見図書館","province":"東京都","city":"東村山市","address":"東京都東村山市富士見町1丁目7-35","lat":35.744004,"lon":139.461263},{"name":"市民スポーツセンター","province":"東京都","city":"東村山市","address":"東京都東村山市久米川町3丁目30-5","lat":35.761085,"lon":139.479636},{"name":"運動公園管理事務所","province":"東京都","city":"東村山市","address":"東京都東村山市恩多町1丁目51-1","lat":35.754234,"lon":139.489705},{"name":"ふるさと歴史館","province":"東京都","city":"東村山市","address":"東京都東村山市諏訪町1丁目6-3","lat":35.766268,"lon":139.466058},{"name":"八国山たいけんの里","province":"東京都","city":"東村山市","address":"東京都東村山市野口町3丁目48-1","lat":35.766135,"lon":139.454245},{"name":"東村山市シルバー人材センター","province":"東京都","city":"東村山市","address":"東京都東村山市久米川町4丁目9-19","lat":35.761612,"lon":139.469155},{"name":"化成小学校","province":"東京都","city":"東村山市","address":"東京都東村山市諏訪町1-4-1","lat":35.764986,"lon":139.465841},{"name":"回田小学校","province":"東京都","city":"東村山市","address":"東京都東村山市廻田町3-28-1","lat":35.759008,"lon":139.446259},{"name":"大岱小学校","province":"東京都","city":"東村山市","address":"東京都東村山市恩多町4-17-1","lat":35.756545,"lon":139.478064},{"name":"秋津小学校","province":"東京都","city":"東村山市","address":"東京都東村山市秋津町3-48-1","lat":35.772788,"lon":139.481994},{"name":"八坂小学校","province":"東京都","city":"東村山市","address":"東京都東村山市栄町3-34-1","lat":35.749013,"lon":139.465727},{"name":"萩山小学校","province":"東京都","city":"東村山市","address":"東京都東村山市萩山町4-16-1","lat":35.743933,"lon":139.477817},{"name":"南台小学校","province":"東京都","city":"東村山市","address":"東京都東村山市富士見町1-16-12","lat":35.74438,"lon":139.455407},{"name":"久米川小学校","province":"東京都","city":"東村山市","address":"東京都東村山市久米川町4-11-1","lat":35.762047,"lon":139.471642},{"name":"東萩山小学校","province":"東京都","city":"東村山市","address":"東京都東村山市萩山町5-7-1","lat":35.745691,"lon":139.478585},{"name":"青葉小学校","province":"東京都","city":"東村山市","address":"東京都東村山市青葉町2-33-1","lat":35.76467,"lon":139.49011},{"name":"北山小学校","province":"東京都","city":"東村山市","address":"東京都東村山市野口町3-45-1","lat":35.766343,"lon":139.455667},{"name":"秋津東小学校","province":"東京都","city":"東村山市","address":"東京都東村山市秋津町4-35-11","lat":35.774834,"lon":139.488824},{"name":"野火止小学校","province":"東京都","city":"東村山市","address":"東京都東村山市恩多町5-47-1","lat":35.75631,"lon":139.485649},{"name":"久米川東小学校","province":"東京都","city":"東村山市","address":"東京都東村山市久米川町2-40-10","lat":35.765645,"lon":139.482639},{"name":"富士見小学校","province":"東京都","city":"東村山市","address":"東京都東村山市富士見町5-4-57","lat":35.74667,"lon":139.458438},{"name":"東村山第一中学校","province":"東京都","city":"東村山市","address":"東京都東村山市富士見町1-5-2","lat":35.742164,"lon":139.459624},{"name":"東村山第二中学校","province":"東京都","city":"東村山市","address":"東京都東村山市久米川町2-4-1","lat":35.770055,"lon":139.474812},{"name":"東村山第三中学校","province":"東京都","city":"東村山市","address":"東京都東村山市萩山町5-2-1","lat":35.747922,"lon":139.476758},{"name":"東村山第三中学校萩山分校","province":"東京都","city":"東村山市","address":"東京都東村山市萩山町1-37-1","lat":35.735563,"lon":139.479658},{"name":"東村山第四中学校","province":"東京都","city":"東村山市","address":"東京都東村山市野口町3-24-1","lat":35.763999,"lon":139.453465},{"name":"東村山第五中学校","province":"東京都","city":"東村山市","address":"東京都東村山市恩多町4-38-1","lat":35.760687,"lon":139.480776},{"name":"東村山第六中学校","province":"東京都","city":"東村山市","address":"東京都東村山市秋津町2-29-14","lat":35.769799,"lon":139.48991},{"name":"東村山第七中学校","province":"東京都","city":"東村山市","address":"東京都東村山市美住町2-23-1","lat":35.755463,"lon":139.459433},{"name":"北山公園","province":"東京都","city":"東村山市","address":"東京都東村山市野口町3丁目地内、4丁目地内","lat":35.761981,"lon":139.457978},{"name":"農とみどりの体験パーク","province":"東京都","city":"東村山市","address":"東京都東村山市秋津町1-9-2","lat":35.774162,"lon":139.492967},{"name":"東村山市立中央図書館","province":"東京都","city":"東村山市","address":"東京都東村山市本町1丁目1-10","lat":35.75524913,"lon":139.46820547},{"name":"東村山市立富士見図書館","province":"東京都","city":"東村山市","address":"東京都東村山市富士見町1丁目7-35","lat":35.74400017,"lon":139.46128433},{"name":"東村山市立萩山図書館","province":"東京都","city":"東村山市","address":"東京都東村山市萩山町2丁目13-1","lat":35.74155931,"lon":139.478669},{"name":"東村山市立秋津図書館","province":"東京都","city":"東村山市","address":"東京都東村山市秋津町2丁目17-10","lat":35.77112559,"lon":139.48661728},{"name":"東村山市立廻田図書館","province":"東京都","city":"東村山市","address":"東京都東村山市廻田町4丁目19-1","lat":35.75953701,"lon":139.45215675},{"name":"東村山市民スポーツセンター","province":"東京都","city":"東村山市","address":"東京都東村山市久米川町3丁目30-5","lat":35.76107658,"lon":139.47965976},{"name":"東村山市運動公園野球場","province":"東京都","city":"東村山市","address":"東京都東村山市恩多町1丁目51-1","lat":35.75413874,"lon":139.48959805},{"name":"東村山市運動公園トラック競技場","province":"東京都","city":"東村山市","address":"東京都東村山市恩多町1丁目51-1","lat":35.75413874,"lon":139.48959805},{"name":"東村山市運動公園庭球場","province":"東京都","city":"東村山市","address":"東京都東村山市恩多町1丁目51-1","lat":35.75413874,"lon":139.48959805},{"name":"東村山市青葉ゲートボール場","province":"東京都","city":"東村山市","address":"東京都東村山市青葉町2丁目35-11","lat":35.76565405,"lon":139.48881998},{"name":"東村山市北川ゲートボール場","province":"東京都","city":"東村山市","address":"東京都東村山市諏訪町1丁目39-32","lat":35.77304443,"lon":139.47067131},{"name":"東村山市ゲートボール場公園","province":"東京都","city":"東村山市","address":"東京都東村山市廻田町1丁目26-15","lat":35.75654291,"lon":139.45233462},{"name":"化成小学校","province":"東京都","city":"東村山市","address":"東京都東村山市諏訪町1丁目4-1","lat":35.76565618,"lon":139.46465818},{"name":"回田小学校","province":"東京都","city":"東村山市","address":"東京都東村山市廻田町3丁目28-1","lat":35.75892299,"lon":139.44601009},{"name":"大岱小学校","province":"東京都","city":"東村山市","address":"東京都東村山市恩多町4丁目17-1","lat":35.75644372,"lon":139.47799065},{"name":"秋津小学校","province":"東京都","city":"東村山市","address":"東京都東村山市秋津町3丁目48-1","lat":35.7731058,"lon":139.48214261},{"name":"八坂小学校","province":"東京都","city":"東村山市","address":"東京都東村山市栄町3丁目34-1","lat":35.74900808,"lon":139.46569484},{"name":"萩山小学校","province":"東京都","city":"東村山市","address":"東京都東村山市萩山町4丁目16-1","lat":35.74389513,"lon":139.47786618},{"name":"南台小学校","province":"東京都","city":"東村山市","address":"東京都東村山市富士見町1丁目16-12","lat":35.74441936,"lon":139.45522931},{"name":"久米川小学校","province":"東京都","city":"東村山市","address":"東京都東村山市久米川町4丁目11-1","lat":35.76229847,"lon":139.47164654},{"name":"東萩山小学校","province":"東京都","city":"東村山市","address":"東京都東村山市萩山町5丁目7-1","lat":35.74632542,"lon":139.47779664},{"name":"青葉小学校","province":"東京都","city":"東村山市","address":"東京都東村山市青葉町2丁目33-1","lat":35.76465976,"lon":139.49004768},{"name":"北山小学校","province":"東京都","city":"東村山市","address":"東京都東村山市野口町3丁目45-1","lat":35.76611137,"lon":139.45558122},{"name":"秋津東小学校","province":"東京都","city":"東村山市","address":"東京都東村山市秋津町4丁目35-11","lat":35.77467798,"lon":139.48882816},{"name":"野火止小学校","province":"東京都","city":"東村山市","address":"東京都東村山市恩多町5丁目47-1","lat":35.75617451,"lon":139.48557888},{"name":"久米川東小学校","province":"東京都","city":"東村山市","address":"東京都東村山市久米川町2丁目40-10","lat":35.76565113,"lon":139.48262883},{"name":"富士見小学校","province":"東京都","city":"東村山市","address":"東京都東村山市富士見町5丁目4-57","lat":35.74679976,"lon":139.45842892},{"name":"第一中学校","province":"東京都","city":"東村山市","address":"東京都東村山市富士見町1丁目5-2","lat":35.74255587,"lon":139.46051224},{"name":"第二中学校","province":"東京都","city":"東村山市","address":"東京都東村山市久米川町2丁目4-1","lat":35.76994215,"lon":139.47457381},{"name":"第三中学校","province":"東京都","city":"東村山市","address":"東京都東村山市萩山町5丁目2-1","lat":35.7479752,"lon":139.47692998},{"name":"第四中学校","province":"東京都","city":"東村山市","address":"東京都東村山市野口町3丁目24-1","lat":35.76398099,"lon":139.45351202},{"name":"第五中学校","province":"東京都","city":"東村山市","address":"東京都東村山市恩多町4丁目38-1","lat":35.76064053,"lon":139.48069303},{"name":"第六中学校","province":"東京都","city":"東村山市","address":"東京都東村山市秋津町2丁目29-14","lat":35.76982304,"lon":139.48965316},{"name":"第七中学校","province":"東京都","city":"東村山市","address":"東京都東村山市美住町2丁目23-1","lat":35.75543493,"lon":139.45937292},{"name":"まちの縁側本町　夕ぐれ食堂","province":"東京都","city":"東村山市","address":"東京都東村山市本町4丁目1-8","lat":35.75253003,"lon":139.46967488},{"name":"子ども食堂　リコード","province":"東京都","city":"東村山市","address":"東京都東村山市本町3丁目9-40","lat":35.75852665,"lon":139.47114118},{"name":"ふれあいこども食堂あおば","province":"東京都","city":"東村山市","address":"東京都東村山市青葉町2丁目25-66","lat":35.76190178,"lon":139.49118376},{"name":"ふれあいこども食堂","province":"東京都","city":"東村山市","address":"東京都東村山市栄町1丁目1-18","lat":35.75056089,"lon":139.47198587},{"name":"にちよう食堂","province":"東京都","city":"東村山市","address":"東京都東村山市栄町1丁目29-34","lat":35.75251075,"lon":139.47501885},{"name":"おひさま食堂","province":"東京都","city":"東村山市","address":"東京都東村山市富士見町5丁目1-93","lat":35.7450057,"lon":139.46432568},{"name":"万福食堂","province":"東京都","city":"東村山市","address":"東京都東村山市廻田町3丁目12-6","lat":35.75761762,"lon":139.44732947},{"name":"東村山地域食堂ふたば","province":"東京都","city":"東村山市","address":"東京都東村山市野口町1丁目15-5","lat":35.76157604,"lon":139.46296959},{"name":"SOMPO流　子ども食堂（八坂）","province":"東京都","city":"東村山市","address":"東京都東村山市栄町3丁目23-1","lat":35.74535292,"lon":139.46513116},{"name":"SOMPO流　子ども食堂（萩山）","province":"東京都","city":"東村山市","address":"東京都東村山市萩山町2丁目9-46","lat":35.7402039,"lon":139.47823297},{"name":"SOMPO流　子ども食堂（久米川）","province":"東京都","city":"東村山市","address":"東京都東村山市美住町1丁目19-10","lat":35.75042437,"lon":139.45880928},{"name":"子どもたちのお弁当屋さん","province":"東京都","city":"東村山市","address":"東京都東村山市富士見町2丁目19-23","lat":35.7372534,"lon":139.45070223},{"name":"恩多こども食堂","province":"東京都","city":"東村山市","address":"東京都東村山市恩多町3丁目3-22","lat":35.753233,"lon":139.47909623},{"name":"狭山公園","province":"東京都","city":"東村山市","address":"東京都東村山市多摩湖町3-17-19","lat":35.763187,"lon":139.44158},{"name":"八国山緑地","province":"東京都","city":"東村山市","address":"東京都東村山市諏訪町2・3丁目、多摩湖町4丁目","lat":35.766772,"lon":139.454934},{"name":"東村山中央公園","province":"東京都","city":"東村山市","address":"東京都東村山市富士見町五丁目・美住町一丁目","lat":35.747927,"lon":139.459004},{"name":"八坂給水所","province":"東京都","city":"東村山市","address":"東京都東村山市富士見町5-4-46","lat":35.747356,"lon":139.458482},{"name":"東村山浄水場","province":"東京都","city":"東村山市","address":"東京都東村山市美住町2-20-236","lat":35.7532331,"lon":139.458674},{"name":"美住給水所","province":"東京都","city":"東村山市","address":"東京都東村山市美住町2-13-4","lat":35.7555303,"lon":139.461554},{"name":"市立東村山運動公園","province":"東京都","city":"東村山市","address":"東京都東村山市恩多町1-9-5","lat":35.7556996,"lon":139.4901976},{"name":"市立秋津小学校","province":"東京都","city":"東村山市","address":"東京都東村山市秋津町3-48-1","lat":35.773108,"lon":139.482144},{"name":"村山荘","province":"東京都","city":"東村山市","address":"東村山市富士見町2-7-5","lat":35.74027,"lon":139.45242},{"name":"さつき荘","province":"東京都","city":"東村山市","address":"東村山市富士見町2-8-2","lat":35.7401,"lon":139.45364},{"name":"東村山市福祉作業所","province":"東京都","city":"東村山市","address":"東村山市諏訪町1-3-10","lat":35.76547,"lon":139.46674},{"name":"ドーミー久米川２","province":"東京都","city":"東村山市","address":"東村山市本町1-9-11","lat":35.75204,"lon":139.46751},{"name":"久米川駅南口第２駐輪場","province":"東京都","city":"東村山市","address":"東京都東村山市栄町2丁目11-13","lat":35.75087469,"lon":139.47040544},{"name":"久米川駅北口地下駐輪場","province":"東京都","city":"東村山市","address":"東京都東村山市栄町1丁目3-1","lat":35.7501304,"lon":139.47295802},{"name":"東村山駅東口第１駐輪場","province":"東京都","city":"東村山市","address":"東京都東村山市本町2丁目16-13","lat":35.76119848,"lon":139.46845798},{"name":"東村山駅東口第２駐輪場","province":"東京都","city":"東村山市","address":"東京都東村山市本町2丁目15-28","lat":35.76168732,"lon":139.46838575},{"name":"東村山駅西口地下駐輪場","province":"東京都","city":"東村山市","address":"東京都東村山市野口町3丁目1-41","lat":35.76218969,"lon":139.45838386},{"name":"新秋津駅第２駐輪場","province":"東京都","city":"東村山市","address":"東京都東村山市秋津町5丁目24-19","lat":35.77819153,"lon":139.49255002},{"name":"三井のリパーク　久米川駅前駐輪場","province":"東京都","city":"東村山市","address":"東京都東村山市栄町2丁目10","lat":35.75036365,"lon":139.47062489},{"name":"サイクルタイムズ久米川","province":"東京都","city":"東村山市","address":"東京都東村山市栄町2丁目6","lat":35.74793344,"lon":139.47342196},{"name":"Ｂ－Ｐａｒｋ24　東村山駅東口","province":"東京都","city":"東村山市","address":"東京都東村山市久米川町4丁目8-12","lat":35.76129571,"lon":139.46889961},{"name":"サイクル・インＢ－Ｐａｒｋ　東村山駅東口駐輪場","province":"東京都","city":"東村山市","address":"東京都東村山市久米川町4丁目8-12","lat":35.76129571,"lon":139.46889961},{"name":"三井のリパーク　東村山駅前駐輪場","province":"東京都","city":"東村山市","address":"東京都東村山市野口町1丁目1-4","lat":35.76151223,"lon":139.46528326},{"name":"駐輪館","province":"東京都","city":"東村山市","address":"東京都東村山市野口町1丁目25-8","lat":35.75881804,"lon":139.46414459},{"name":"Ａ－Ｐarkサイクル新秋津駅前","province":"東京都","city":"東村山市","address":"東京都東村山市秋津町5丁目25","lat":35.77794157,"lon":139.49279444},{"name":"サイクルタイムズ秋津","province":"東京都","city":"東村山市","address":"東京都東村山市秋津町5丁目8","lat":35.77749448,"lon":139.49600253},{"name":"西武スマイルパーク　秋津駅南口駐輪場","province":"東京都","city":"東村山市","address":"東京都東村山市秋津町5丁目7-8","lat":35.7783055,"lon":139.49674412},{"name":"三井のリパーク　新秋津駅前駐輪場","province":"東京都","city":"東村山市","address":"東京都東村山市秋津町5丁目14-1","lat":35.77713335,"lon":139.49316665},{"name":"新秋津駅第5駐輪場","province":"東京都","city":"東村山市","address":"東京都東村山市秋津町5丁目17-17","lat":35.77485306,"lon":139.49300003},{"name":"中部地域包括支援センター","province":"東京都","city":"東村山市","address":"東村山市野口町1-25-15東村山市社会福祉協議会内","lat":35.758617,"lon":139.464005},{"name":"北部地域包括支援センター","province":"東京都","city":"東村山市","address":"東村山市諏訪町2-26-1東京ばんなん白光園","lat":35.771687,"lon":139.463852},{"name":"東部地域包括支援センター","province":"東京都","city":"東村山市","address":"東村山市秋津町1-32-18はるびの郷内","lat":35.773125,"lon":139.497025},{"name":"西部地域包括支援センター","province":"東京都","city":"東村山市","address":"東村山市富士見町2-1-2万寿園内","lat":35.744675,"lon":139.453461},{"name":"南部地域包括支援センター","province":"東京都","city":"東村山市","address":"東村山市萩山町3-31-2グリーン・ボイス内","lat":35.743809,"lon":139.46904},{"name":"東村山市消費生活センター","province":"東京都","city":"東村山市","address":"東村山市本町1-2-3東村山市役所市民部市民相談・交流課内","lat":35.75449,"lon":139.468414},{"name":"さつき荘","province":"東京都","city":"東村山市","address":"東村山市富士見町2-8-2","lat":35.74011,"lon":139.45364},{"name":"ドーミー久米川","province":"東京都","city":"東村山市","address":"東村山市本町1-9-11","lat":35.75205,"lon":139.46751},{"name":"ドーミー久米川２","province":"東京都","city":"東村山市","address":"東村山市本町1-9-11","lat":35.75205,"lon":139.46751},{"name":"ドーミー久米川","province":"東京都","city":"東村山市","address":"東村山市本町1-9-11","lat":35.751721,"lon":139.467964},{"name":"東村山市福祉作業所（平成31年４月１日より休止中）","province":"東京都","city":"東村山市","address":"東村山市諏訪町1-3-10","lat":35.76549,"lon":139.466672},{"name":"八坂","province":"東京都","city":"東村山市","address":"東京都東村山市萩山町3丁目31-45","lat":35.74387259,"lon":139.46697271},{"name":"東村山郵便局前","province":"東京都","city":"東村山市","address":"東京都東村山市本町2丁目1-2","lat":35.75822931,"lon":139.46684991},{"name":"栄町一丁目","province":"東京都","city":"東村山市","address":"東京都東村山市栄町1丁目23-1","lat":35.75067204,"lon":139.47384403},{"name":"八坂駅北口","province":"東京都","city":"東村山市","address":"東京都東村山市栄町3丁目10-28","lat":35.7458668,"lon":139.46705596},{"name":"萩山町五丁目","province":"東京都","city":"東村山市","address":"東京都東村山市萩山町5丁目3","lat":35.74820856,"lon":139.47866037},{"name":"東村山駅東口","province":"東京都","city":"東村山市","address":"東京都東村山市本町2丁目17-7","lat":35.76104847,"lon":139.46749974},{"name":"南台小学校裏","province":"東京都","city":"東村山市","address":"東京都東村山市富士見町2丁目1","lat":35.74489978,"lon":139.45277395},{"name":"東村山駅西口","province":"東京都","city":"東村山市","address":"東京都東村山市野口町1丁目10-1","lat":35.76173995,"lon":139.46462498},{"name":"萩山駅南口","province":"東京都","city":"東村山市","address":"東京都東村山市萩山町2丁目2","lat":35.74081487,"lon":139.47583872},{"name":"東村山郵便局北","province":"東京都","city":"東村山市","address":"東京都東村山市本町2丁目2-9","lat":35.7595014,"lon":139.46689431},{"name":"多摩北部医療センター前","province":"東京都","city":"東村山市","address":"東京都東村山市青葉町2丁目27-1","lat":35.76242395,"lon":139.49172816},{"name":"秋津駅入口","province":"東京都","city":"東村山市","address":"東京都東村山市秋津町1丁目32-18","lat":35.77338112,"lon":139.49729414},{"name":"青葉駐在所前","province":"東京都","city":"東村山市","address":"東京都東村山市青葉町2丁目24-64","lat":35.76058521,"lon":139.48940895},{"name":"多摩北部医療センター西","province":"東京都","city":"東村山市","address":"東京都東村山市青葉町1丁目7","lat":35.75941877,"lon":139.4930448},{"name":"多摩北部医療センター南","province":"東京都","city":"東村山市","address":"東京都東村山市青葉町1丁目7","lat":35.75941877,"lon":139.4930448},{"name":"西武園駅東","province":"東京都","city":"東村山市","address":"東京都東村山市多摩湖町4丁目29","lat":35.76763595,"lon":139.44840958},{"name":"多摩北部医療センター","province":"東京都","city":"東村山市","address":"東京都東村山市青葉町1丁目7-1","lat":35.76043805,"lon":139.49094217},{"name":"＊?八国山たいけんの里","province":"東京都","city":"東村山市","address":"東村山市野口町3-48-1","lat":35.766084,"lon":139.454207},{"name":"(株)三栄サービス","province":"東京都","city":"東村山市","address":"東村山市久米川町1-16-5","lat":35.769608,"lon":139.479767},{"name":"JP資源(株)","province":"東京都","city":"東村山市","address":"東村山市久米川町5-32-15","lat":35.774208,"lon":139.476151},{"name":"東村山市秋水園","province":"東京都","city":"東村山市","address":"東京都東村山市秋津町4丁目17","lat":35.780079,"lon":139.485489},{"name":"秋津公民館","province":"東京都","city":"東村山市","address":"東京都東村山市秋津町2丁目17-10","lat":35.77112559,"lon":139.48661728},{"name":"秋津図書館","province":"東京都","city":"東村山市","address":"東京都東村山市秋津町2丁目17-10","lat":35.77112559,"lon":139.48661728},{"name":"秋津児童館","province":"東京都","city":"東村山市","address":"東京都東村山市秋津町3丁目51-25","lat":35.77335302,"lon":139.48347305},{"name":"栄町児童館","province":"東京都","city":"東村山市","address":"東京都東村山市栄町3丁目14-1","lat":35.74693898,"lon":139.46912795},{"name":"北山児童館","province":"東京都","city":"東村山市","address":"東京都東村山市野口町3丁目26-2","lat":35.76507807,"lon":139.45336478},{"name":"八国山たいけんの里","province":"東京都","city":"東村山市","address":"東京都東村山市野口町3丁目48-1","lat":35.76618631,"lon":139.45410912},{"name":"萩山公民館","province":"東京都","city":"東村山市","address":"東京都東村山市萩山町2丁目13-1","lat":35.74155931,"lon":139.478669},{"name":"富士見図書館","province":"東京都","city":"東村山市","address":"東京都東村山市富士見町1丁目7-35","lat":35.74400017,"lon":139.46128433},{"name":"富士見公民館","province":"東京都","city":"東村山市","address":"東京都東村山市富士見町5丁目4-51","lat":35.74666658,"lon":139.46283131},{"name":"中央図書館","province":"東京都","city":"東村山市","address":"東京都東村山市本町1丁目1-10","lat":35.75524913,"lon":139.46820547},{"name":"東村山市役所本庁舎","province":"東京都","city":"東村山市","address":"東京都東村山市本町1丁目2-3","lat":35.75462421,"lon":139.46848323},{"name":"中央公民館","province":"東京都","city":"東村山市","address":"東京都東村山市本町2丁目33-2","lat":35.75983747,"lon":139.46685541},{"name":"美住リサイクルショップ","province":"東京都","city":"東村山市","address":"東京都東村山市美住町2丁目11-32","lat":35.75701262,"lon":139.46183653},{"name":"廻田公民館","province":"東京都","city":"東村山市","address":"東京都東村山市廻田町4丁目19-1","lat":35.75953701,"lon":139.45215675},{"name":"やまだこども教室","province":"東京都","city":"東村山市","address":"東村山市秋津町5-13-3セゾン新秋津2階","lat":35.778311,"lon":139.494094},{"name":"トーコロあおば就労サポートセンター","province":"東京都","city":"東村山市","address":"東村山市青葉町2-39-10","lat":35.765318,"lon":139.490695},{"name":"山鳩訓練室","province":"東京都","city":"東村山市","address":"東村山市久米川町3-12-31","lat":35.765895,"lon":139.473002},{"name":"楽しい放課後みんな","province":"東京都","city":"東村山市","address":"東村山市久米川町2-31-6-102","lat":35.761424,"lon":139.482748},{"name":"ひまわり","province":"東京都","city":"東村山市","address":"東村山市富士見町1-5-13","lat":35.741734,"lon":139.459646},{"name":"東村山市福祉作業所","province":"東京都","city":"東村山市","address":"東村山市諏訪町1-3-10","lat":35.76549,"lon":139.466672},{"name":"東村山ソーシャルホーム","province":"東京都","city":"東村山市","address":"東村山市本町1-13-51大塚ビル104","lat":35.75433,"lon":139.466156},{"name":"緑風荘病院","province":"東京都","city":"東村山市","address":"東村山市萩山町3-31-1","lat":35.74455,"lon":139.468078},{"name":"東京白十字病院","province":"東京都","city":"東村山市","address":"東村山市諏訪町2-26-1","lat":35.771892,"lon":139.463658},{"name":"ドーミー久米川","province":"東京都","city":"東村山市","address":"東村山市本町1-9-11","lat":35.75204,"lon":139.46751},{"name":"東村山ソーシャルホーム","province":"東京都","city":"東村山市","address":"東村山市本町1-13-51大塚ビル104","lat":35.75448,"lon":139.46622},{"name":"市役所 本庁舎1階 総合受付横","province":"東京都","city":"東村山市","address":"東京都東村山市本町1丁目2-3","lat":35.75418,"lon":139.468301},{"name":"市役所 いきいきプラザ1階 総合窓口横","province":"東京都","city":"東村山市","address":"東京都東村山市本町1丁目2-3","lat":35.75418,"lon":139.468301},{"name":"市民センター1階 入口付近","province":"東京都","city":"東村山市","address":"東京都東村山市本町1丁目1-1","lat":35.755291,"lon":139.46753},{"name":"東村山駅西口サンパルネ3階 健康・交流フロア","province":"東京都","city":"東村山市","address":"東京都東村山市野口町1丁目46","lat":35.759997,"lon":139.465323},{"name":"秋水園ふれあいセンター","province":"東京都","city":"東村山市","address":"東京都東村山市秋津町4丁目24-12","lat":35.77929,"lon":139.485947},{"name":"多摩湖ふれあいセンター","province":"東京都","city":"東村山市","address":"東京都東村山市多摩湖町1丁目18-16","lat":35.764064,"lon":139.449143},{"name":"恩多ふれあいセンター","province":"東京都","city":"東村山市","address":"東京都東村山市恩多町5丁目40-1","lat":35.757291,"lon":139.490009},{"name":"栄町ふれあいセンター","province":"東京都","city":"東村山市","address":"東京都東村山市栄町2丁目25-5","lat":35.747752,"lon":139.47242},{"name":"久米川ふれあいセンター","province":"東京都","city":"東村山市","address":"東京都東村山市久米川町3丁目16-4","lat":35.766096,"lon":139.474206},{"name":"青葉地域センター","province":"東京都","city":"東村山市","address":"東京都東村山市青葉町3丁目30-3","lat":35.76921,"lon":139.496263},{"name":"秋水園","province":"東京都","city":"東村山市","address":"東京都東村山市秋津町4丁目17-1","lat":35.779668,"lon":139.485337},{"name":"秋水園プール （注記）プール開放期間のみ","province":"東京都","city":"東村山市","address":"東京都東村山市秋津町4丁目17-1","lat":35.779668,"lon":139.485337},{"name":"東村山駅西口地下駐輪場","province":"東京都","city":"東村山市","address":"東京都東村山市野口町1丁目41","lat":35.761558,"lon":139.464132},{"name":"久米川駅北口地下駐輪場","province":"東京都","city":"東村山市","address":"東京都東村山市栄町1丁目3-1","lat":35.750106,"lon":139.473008},{"name":"子育て総合支援センター（地域福祉センター）","province":"東京都","city":"東村山市","address":"東京都東村山市野口町1丁目25-15","lat":35.758257,"lon":139.464253},{"name":"社会福祉センター","province":"東京都","city":"東村山市","address":"東京都東村山市諏訪町1丁目3-10","lat":35.765483,"lon":139.466712},{"name":"萩山憩いの家","province":"東京都","city":"東村山市","address":"東京都東村山市萩山町2丁目3-11","lat":35.742364,"lon":139.475627},{"name":"久米川憩いの家","province":"東京都","city":"東村山市","address":"東京都東村山市久米川町5丁目16-1","lat":35.771689,"lon":139.471999},{"name":"廻田憩いの家（第一回田児童クラブ、廻田集会所）","province":"東京都","city":"東村山市","address":"東京都東村山市廻田町3丁目12-6","lat":35.757549,"lon":139.447586},{"name":"第一保育園","province":"東京都","city":"東村山市","address":"東京都東村山市本町4丁目15-16","lat":35.75338,"lon":139.473389},{"name":"第三保育園","province":"東京都","city":"東村山市","address":"東京都東村山市多摩湖町1丁目23-4","lat":35.763727,"lon":139.452163},{"name":"第四保育園","province":"東京都","city":"東村山市","address":"東京都東村山市美住町1丁目4","lat":35.75007,"lon":139.462908},{"name":"第五保育園","province":"東京都","city":"東村山市","address":"東京都東村山市秋津町4丁目25-15","lat":35.779294,"lon":139.485108},{"name":"第七保育園","province":"東京都","city":"東村山市","address":"東京都東村山市栄町1丁目36-51","lat":35.752516,"lon":139.477233},{"name":"本町児童館","province":"東京都","city":"東村山市","address":"東京都東村山市本町4丁目19-26","lat":35.753746,"lon":139.474797},{"name":"栄町児童館","province":"東京都","city":"東村山市","address":"東京都東村山市栄町3丁目14-1","lat":35.74663,"lon":139.469211},{"name":"北山児童館","province":"東京都","city":"東村山市","address":"東京都東村山市野口町3丁目26-2","lat":35.765104,"lon":139.453386},{"name":"秋津児童館","province":"東京都","city":"東村山市","address":"東京都東村山市秋津町3丁目51-25","lat":35.773334,"lon":139.483478},{"name":"第1久米川児童クラブ","province":"東京都","city":"東村山市","address":"東京都東村山市久米川町4丁目11-19","lat":35.761767,"lon":139.473034},{"name":"久米川東児童クラブ","province":"東京都","city":"東村山市","address":"東京都東村山市久米川町2丁目44-3","lat":35.766236,"lon":139.481497},{"name":"第1・第2秋津東児童クラブ","province":"東京都","city":"東村山市","address":"東京都東村山市秋津町4丁目35-68","lat":35.774677,"lon":139.489323},{"name":"第1・第2青葉児童クラブ","province":"東京都","city":"東村山市","address":"東京都東村山市青葉町2丁目35-11","lat":35.764264,"lon":139.488665},{"name":"第1野火止児童クラブ","province":"東京都","city":"東村山市","address":"東京都東村山市恩多町5丁目45-4","lat":35.756596,"lon":139.48673},{"name":"第1東萩山児童クラブ","province":"東京都","city":"東村山市","address":"東京都東村山市萩山町5丁目7-18","lat":35.746268,"lon":139.477317},{"name":"第1・第2萩山児童クラブ","province":"東京都","city":"東村山市","address":"東京都東村山市萩山町4丁目16-5","lat":35.743035,"lon":139.478656},{"name":"富士見児童クラブ","province":"東京都","city":"東村山市","address":"東京都東村山市富士見町5丁目4-56","lat":35.747287,"lon":139.457986},{"name":"南台児童クラブ","province":"東京都","city":"東村山市","address":"東京都東村山市富士見町1丁目16-1","lat":35.744493,"lon":139.456483},{"name":"第1化成児童クラブ","province":"東京都","city":"東村山市","address":"東京都東村山市諏訪町1丁目4-1","lat":35.764986,"lon":139.465841},{"name":"美住リサイクルショップ","province":"東京都","city":"東村山市","address":"東京都東村山市美住町2丁目11-32","lat":35.757021,"lon":139.461892},{"name":"中央公民館","province":"東京都","city":"東村山市","address":"東京都東村山市本町2丁目33-2","lat":35.759786,"lon":139.466863},{"name":"富士見公民館（富士見児童館、富士見憩いの家）","province":"東京都","city":"東村山市","address":"東京都東村山市富士見町5丁目4-51","lat":35.746615,"lon":139.462885},{"name":"萩山公民館（萩山図書館）","province":"東京都","city":"東村山市","address":"東京都東村山市萩山町2丁目13-1","lat":35.741586,"lon":139.478676},{"name":"秋津公民館（秋津図書館）","province":"東京都","city":"東村山市","address":"東京都東村山市秋津町2丁目17-10","lat":35.771015,"lon":139.486598},{"name":"廻田公民館（廻田図書館）","province":"東京都","city":"東村山市","address":"東京都東村山市廻田町4丁目19-1","lat":35.759623,"lon":139.452093},{"name":"中央図書館","province":"東京都","city":"東村山市","address":"東京都東村山市本町1丁目1-10","lat":35.755239,"lon":139.468209},{"name":"富士見図書館","province":"東京都","city":"東村山市","address":"東京都東村山市富士見町1丁目7-35","lat":35.744004,"lon":139.461263},{"name":"市民スポーツセンター","province":"東京都","city":"東村山市","address":"東京都東村山市久米川町3丁目30-5","lat":35.761085,"lon":139.479636},{"name":"運動公園管理事務所","province":"東京都","city":"東村山市","address":"東京都東村山市恩多町1丁目51-1","lat":35.754234,"lon":139.489705},{"name":"ふるさと歴史館","province":"東京都","city":"東村山市","address":"東京都東村山市諏訪町1丁目6-3","lat":35.766268,"lon":139.466058},{"name":"八国山たいけんの里","province":"東京都","city":"東村山市","address":"東京都東村山市野口町3丁目48-1","lat":35.766135,"lon":139.454245},{"name":"東村山市シルバー人材センター","province":"東京都","city":"東村山市","address":"東京都東村山市久米川町4丁目9-19","lat":35.761612,"lon":139.469155},{"name":"化成小学校","province":"東京都","city":"東村山市","address":"東京都東村山市諏訪町1-4-1","lat":35.764986,"lon":139.465841},{"name":"回田小学校","province":"東京都","city":"東村山市","address":"東京都東村山市廻田町3-28-1","lat":35.759008,"lon":139.446259},{"name":"大岱小学校","province":"東京都","city":"東村山市","address":"東京都東村山市恩多町4-17-1","lat":35.756545,"lon":139.478064},{"name":"秋津小学校","province":"東京都","city":"東村山市","address":"東京都東村山市秋津町3-48-1","lat":35.772788,"lon":139.481994},{"name":"八坂小学校","province":"東京都","city":"東村山市","address":"東京都東村山市栄町3-34-1","lat":35.749013,"lon":139.465727},{"name":"萩山小学校","province":"東京都","city":"東村山市","address":"東京都東村山市萩山町4-16-1","lat":35.743933,"lon":139.477817},{"name":"南台小学校","province":"東京都","city":"東村山市","address":"東京都東村山市富士見町1-16-12","lat":35.74438,"lon":139.455407},{"name":"久米川小学校","province":"東京都","city":"東村山市","address":"東京都東村山市久米川町4-11-1","lat":35.762047,"lon":139.471642},{"name":"東萩山小学校","province":"東京都","city":"東村山市","address":"東京都東村山市萩山町5-7-1","lat":35.745691,"lon":139.478585},{"name":"青葉小学校","province":"東京都","city":"東村山市","address":"東京都東村山市青葉町2-33-1","lat":35.76467,"lon":139.49011},{"name":"北山小学校","province":"東京都","city":"東村山市","address":"東京都東村山市野口町3-45-1","lat":35.766343,"lon":139.455667},{"name":"秋津東小学校","province":"東京都","city":"東村山市","address":"東京都東村山市秋津町4-35-11","lat":35.774834,"lon":139.488824},{"name":"野火止小学校","province":"東京都","city":"東村山市","address":"東京都東村山市恩多町5-47-1","lat":35.75631,"lon":139.485649},{"name":"久米川東小学校","province":"東京都","city":"東村山市","address":"東京都東村山市久米川町2-40-10","lat":35.765645,"lon":139.482639},{"name":"富士見小学校","province":"東京都","city":"東村山市","address":"東京都東村山市富士見町5-4-57","lat":35.74667,"lon":139.458438},{"name":"東村山第一中学校","province":"東京都","city":"東村山市","address":"東京都東村山市富士見町1-5-2","lat":35.742164,"lon":139.459624},{"name":"東村山第二中学校","province":"東京都","city":"東村山市","address":"東京都東村山市久米川町2-4-1","lat":35.770055,"lon":139.474812},{"name":"東村山第三中学校","province":"東京都","city":"東村山市","address":"東京都東村山市萩山町5-2-1","lat":35.747922,"lon":139.476758},{"name":"東村山第三中学校萩山分校","province":"東京都","city":"東村山市","address":"東京都東村山市萩山町1-37-1","lat":35.735563,"lon":139.479658},{"name":"東村山第四中学校","province":"東京都","city":"東村山市","address":"東京都東村山市野口町3-24-1","lat":35.763999,"lon":139.453465},{"name":"東村山第五中学校","province":"東京都","city":"東村山市","address":"東京都東村山市恩多町4-38-1","lat":35.760687,"lon":139.480776},{"name":"東村山第六中学校","province":"東京都","city":"東村山市","address":"東京都東村山市秋津町2-29-14","lat":35.769799,"lon":139.48991},