{"keyword":"脳","data":[{"name":"社会福祉法人東京コロニー コロニー東村山","province":"東京都","city":"東村山市","address":"東京都東村山市秋津町2丁目22-9","lat":35.76876478,"lon":139.48789499},{"name":"社会福祉法人東京コロニー トーコロ青葉ワークセンター","province":"東京都","city":"東村山市","address":"東京都東村山市青葉町2丁目39-10","lat":35.76531803,"lon":139.49069484},{"name":"社会福祉法人ネット十二月","province":"東京都","city":"東村山市","address":"東京都東村山市廻田町3丁目16-8","lat":35.76038678,"lon":139.44811263},{"name":"高齢者在宅サービスセンター白十字八国苑","province":"東京都","city":"東村山市","address":"東京都東村山市諏訪町2丁目26-1","lat":35.77189152,"lon":139.46365808},{"name":"社会福祉法人村山苑福祉事業センター","province":"東京都","city":"東村山市","address":"東京都東村山市富士見町2丁目7-5","lat":35.74020311,"lon":139.45253528},{"name":"社会福祉法人いずみライフサポートつばさ","province":"東京都","city":"東村山市","address":"東京都東村山市富士見町3丁目4-16","lat":35.74866053,"lon":139.45443753},{"name":"社会福祉法人小さい共同体就労継続支援Ｂ型飛翔クラブ","province":"東京都","city":"東村山市","address":"東京都東村山市栄町2丁目9-32","lat":35.74941934,"lon":139.47170261},{"name":"特定非営利活動法人けやきけやき第二作業所","province":"東京都","city":"東村山市","address":"東京都東村山市萩山町3丁目19-2","lat":35.74593911,"lon":139.46971405},{"name":"株式会社ウィズケアメディカル ウィズケアリハビリセンター","province":"東京都","city":"東村山市","address":"東京都東村山市久米川町3丁目1-1","lat":35.75976546,"lon":139.47353814},{"name":"社会福祉法人東京蒼生会寿デイ･サービスセンター","province":"東京都","city":"東村山市","address":"東京都東村山市富士見町2丁目1-2","lat":35.7445943,"lon":139.4540183},{"name":"特定非営利活動法人セサミ萩共同作業所セサミ萩","province":"東京都","city":"東村山市","address":"東京都東村山市萩山町2丁目2-15","lat":35.74047328,"lon":139.47715529},{"name":"かりん","province":"東京都","city":"東村山市","address":"東京都東村山市秋津町2丁目37-47","lat":35.77148394,"lon":139.48956425},{"name":"社会福祉法人ネット久米川共同作業所","province":"東京都","city":"東村山市","address":"東京都東村山市久米川町2丁目21-14","lat":35.76533442,"lon":139.47915135},{"name":"特定非営利活動法人ワーカーズコープ東村山楠の樹地域福祉事業所ふたば","province":"東京都","city":"東村山市","address":"東京都東村山市野口町1丁目15-5","lat":35.76157604,"lon":139.46296959}]}