{"keyword":"自転車","data":[{"name":"久米川駅南口第２駐輪場","province":"東京都","city":"東村山市","address":"東京都東村山市栄町2丁目11-13","lat":35.75087469,"lon":139.47040544},{"name":"久米川駅北口地下駐輪場","province":"東京都","city":"東村山市","address":"東京都東村山市栄町1丁目3-1","lat":35.7501304,"lon":139.47295802},{"name":"東村山駅東口第１駐輪場","province":"東京都","city":"東村山市","address":"東京都東村山市本町2丁目16-13","lat":35.76119848,"lon":139.46845798},{"name":"東村山駅東口第２駐輪場","province":"東京都","city":"東村山市","address":"東京都東村山市本町2丁目15-28","lat":35.76168732,"lon":139.46838575},{"name":"東村山駅西口地下駐輪場","province":"東京都","city":"東村山市","address":"東京都東村山市野口町3丁目1-41","lat":35.76218969,"lon":139.45838386},{"name":"新秋津駅第２駐輪場","province":"東京都","city":"東村山市","address":"東京都東村山市秋津町5丁目24-19","lat":35.77819153,"lon":139.49255002},{"name":"三井のリパーク　久米川駅前駐輪場","province":"東京都","city":"東村山市","address":"東京都東村山市栄町2丁目10","lat":35.75036365,"lon":139.47062489},{"name":"サイクルタイムズ久米川","province":"東京都","city":"東村山市","address":"東京都東村山市栄町2丁目6","lat":35.74793344,"lon":139.47342196},{"name":"Ｂ－Ｐａｒｋ24　東村山駅東口","province":"東京都","city":"東村山市","address":"東京都東村山市久米川町4丁目8-12","lat":35.76129571,"lon":139.46889961},{"name":"サイクル・インＢ－Ｐａｒｋ　東村山駅東口駐輪場","province":"東京都","city":"東村山市","address":"東京都東村山市久米川町4丁目8-12","lat":35.76129571,"lon":139.46889961},{"name":"三井のリパーク　東村山駅前駐輪場","province":"東京都","city":"東村山市","address":"東京都東村山市野口町1丁目1-4","lat":35.76151223,"lon":139.46528326},{"name":"駐輪館","province":"東京都","city":"東村山市","address":"東京都東村山市野口町1丁目25-8","lat":35.75881804,"lon":139.46414459},{"name":"Ａ－Ｐarkサイクル新秋津駅前","province":"東京都","city":"東村山市","address":"東京都東村山市秋津町5丁目25","lat":35.77794157,"lon":139.49279444},{"name":"サイクルタイムズ秋津","province":"東京都","city":"東村山市","address":"東京都東村山市秋津町5丁目8","lat":35.77749448,"lon":139.49600253},{"name":"西武スマイルパーク　秋津駅南口駐輪場","province":"東京都","city":"東村山市","address":"東京都東村山市秋津町5丁目7-8","lat":35.7783055,"lon":139.49674412},{"name":"三井のリパーク　新秋津駅前駐輪場","province":"東京都","city":"東村山市","address":"東京都東村山市秋津町5丁目14-1","lat":35.77713335,"lon":139.49316665},{"name":"新秋津駅第5駐輪場","province":"東京都","city":"東村山市","address":"東京都東村山市秋津町5丁目17-17","lat":35.77485306,"lon":139.49300003}]}