{"keyword":"食堂","data":[{"name":"まちの縁側本町　夕ぐれ食堂","province":"東京都","city":"東村山市","address":"東京都東村山市本町4丁目1-8","lat":35.75253003,"lon":139.46967488},{"name":"子ども食堂　リコード","province":"東京都","city":"東村山市","address":"東京都東村山市本町3丁目9-40","lat":35.75852665,"lon":139.47114118},{"name":"ふれあいこども食堂あおば","province":"東京都","city":"東村山市","address":"東京都東村山市青葉町2丁目25-66","lat":35.76190178,"lon":139.49118376},{"name":"ふれあいこども食堂","province":"東京都","city":"東村山市","address":"東京都東村山市栄町1丁目1-18","lat":35.75056089,"lon":139.47198587},{"name":"にちよう食堂","province":"東京都","city":"東村山市","address":"東京都東村山市栄町1丁目29-34","lat":35.75251075,"lon":139.47501885},{"name":"おひさま食堂","province":"東京都","city":"東村山市","address":"東京都東村山市富士見町5丁目1-93","lat":35.7450057,"lon":139.46432568},{"name":"万福食堂","province":"東京都","city":"東村山市","address":"東京都東村山市廻田町3丁目12-6","lat":35.75761762,"lon":139.44732947},{"name":"東村山地域食堂ふたば","province":"東京都","city":"東村山市","address":"東京都東村山市野口町1丁目15-5","lat":35.76157604,"lon":139.46296959},{"name":"SOMPO流　子ども食堂（八坂）","province":"東京都","city":"東村山市","address":"東京都東村山市栄町3丁目23-1","lat":35.74535292,"lon":139.46513116},{"name":"SOMPO流　子ども食堂（萩山）","province":"東京都","city":"東村山市","address":"東京都東村山市萩山町2丁目9-46","lat":35.7402039,"lon":139.47823297},{"name":"SOMPO流　子ども食堂（久米川）","province":"東京都","city":"東村山市","address":"東京都東村山市美住町1丁目19-10","lat":35.75042437,"lon":139.45880928},{"name":"子どもたちのお弁当屋さん","province":"東京都","city":"東村山市","address":"東京都東村山市富士見町2丁目19-23","lat":35.7372534,"lon":139.45070223},{"name":"恩多こども食堂","province":"東京都","city":"東村山市","address":"東京都東村山市恩多町3丁目3-22","lat":35.753233,"lon":139.47909623}]}