{"keyword":"館","data":[{"name":"秋津児童館","province":"東京都","city":"東村山市","address":"東村山市秋津町3-51-25","lat":35.773353,"lon":139.483473},{"name":"栄町児童館","province":"東京都","city":"東村山市","address":"東村山市栄町3-14-1","lat":35.746939,"lon":139.469128},{"name":"本町児童館","province":"東京都","city":"東村山市","address":"東村山市本町4-19-26","lat":35.753702,"lon":139.474661},{"name":"北山児童館","province":"東京都","city":"東村山市","address":"東村山市野口町3-26-2","lat":35.765078,"lon":139.453365},{"name":"富士見児童館","province":"東京都","city":"東村山市","address":"東村山市富士見町5-4-51","lat":35.746658,"lon":139.46284},{"name":"東村山市立中央図書館","province":"東京都","city":"東村山市","address":"東京都東村山市本町1丁目1-10","lat":35.75524913,"lon":139.46820547},{"name":"東村山市立富士見図書館","province":"東京都","city":"東村山市","address":"東京都東村山市富士見町1丁目7-35","lat":35.74400017,"lon":139.46128433},{"name":"東村山市立萩山図書館","province":"東京都","city":"東村山市","address":"東京都東村山市萩山町2丁目13-1","lat":35.74155931,"lon":139.478669},{"name":"東村山市立秋津図書館","province":"東京都","city":"東村山市","address":"東京都東村山市秋津町2丁目17-10","lat":35.77112559,"lon":139.48661728},{"name":"東村山市立廻田図書館","province":"東京都","city":"東村山市","address":"東京都東村山市廻田町4丁目19-1","lat":35.75953701,"lon":139.45215675},{"name":"秋津児童館","province":"東京都","city":"東村山市","address":"東村山市秋津町3-51-25","lat":35.77348,"lon":139.48338},{"name":"栄町児童館","province":"東京都","city":"東村山市","address":"東村山市栄町3-14-1","lat":35.74664,"lon":139.46909},{"name":"本町児童館","province":"東京都","city":"東村山市","address":"東村山市本町4-19-26","lat":35.75421,"lon":139.47473},{"name":"北山児童館","province":"東京都","city":"東村山市","address":"東村山市野口町3-26-2","lat":35.76512,"lon":139.45349},{"name":"富士見児童館","province":"東京都","city":"東村山市","address":"東村山市富士見町5-4-51","lat":35.74822,"lon":139.45657},{"name":"＊?東村山市立秋津図書館","province":"東京都","city":"東村山市","address":"東村山市秋津町2-17-10","lat":35.771077,"lon":139.486551},{"name":"＊?東村山市立廻田図書館","province":"東京都","city":"東村山市","address":"東村山市廻田町4-19-1","lat":35.759625,"lon":139.452116},{"name":"＊?東村山市立萩山図書館","province":"東京都","city":"東村山市","address":"東村山市萩山町2-13-1","lat":35.742237,"lon":139.477747},{"name":"＊?東村山市立中央図書館","province":"東京都","city":"東村山市","address":"東村山市本町1-1-10","lat":35.75527,"lon":139.468207},{"name":"＊?東村山市立富士見図書館","province":"東京都","city":"東村山市","address":"東村山市富士見町1-7-35","lat":35.743996,"lon":139.461275}]}