{"keyword":"調達","data":[{"name":"東京都漬物事業協同組合","province":"東京都","city":"千代田区","address":"東京都千代田区外神田2丁目2-17","lat":35.69964098,"lon":139.76772134},{"name":"全国調理食品工業協同組合","province":"東京都","city":"台東区","address":"東京都台東区東上野3丁目1-10","lat":35.71013474,"lon":139.78245069},{"name":"東京都味噌工業協同組合","province":"東京都","city":"中央区","address":"東京都中央区日本橋浜町2丁目16-5","lat":35.68747342,"lon":139.78640757},{"name":"全国味噌工業協同組合連合会","province":"東京都","city":"中央区","address":"東京都中央区新川1丁目26-19","lat":35.67648277,"lon":139.78356776},{"name":"日本醤油協会","province":"東京都","city":"中央区","address":"東京都中央区日本橋小網町3-11","lat":35.68117393,"lon":139.7826819},{"name":"（公財）塩事業センター","province":"東京都","city":"品川区","address":"東京都品川区大井1丁目47-1","lat":35.605259,"lon":139.73249415},{"name":"東京都漬物事業協同組合","province":"東京都","city":"千代田区","address":"東京都千代田区外神田2丁目2-17","lat":35.69964098,"lon":139.76772134},{"name":"全国調理食品工業協同組合","province":"東京都","city":"台東区","address":"東京都台東区東上野3丁目1-10","lat":35.71013474,"lon":139.78245069},{"name":"東京都味噌工業協同組合","province":"東京都","city":"中央区","address":"東京都中央区日本橋浜町2丁目16-5","lat":35.68747342,"lon":139.78640757},{"name":"全国味噌工業協同組合連合会","province":"東京都","city":"中央区","address":"東京都中央区新川1丁目26-19","lat":35.67648277,"lon":139.78356776}]}