{"keyword":"命令","data":[{"name":"大久野保育園","province":"東京都","city":"西多摩郡日の出町","address":"西多摩郡日の出町大久野1660-1","lat":35.76409,"lon":139.21674},{"name":"大正保育園","province":"東京都","city":"西多摩郡日の出町","address":"西多摩郡日の出町大久野711-1","lat":35.74944,"lon":139.24133},{"name":"宝光保育園","province":"東京都","city":"西多摩郡日の出町","address":"西多摩郡日の出町平井3389-1","lat":35.74556,"lon":139.26164},{"name":"さくらぎ保育園","province":"東京都","city":"西多摩郡日の出町","address":"西多摩郡日の出町平井661","lat":35.73905,"lon":139.27295},{"name":"さくらぎこぱん","province":"東京都","city":"西多摩郡日の出町","address":"西多摩郡日の出町平井673-1","lat":35.74571,"lon":139.26711},{"name":"さくらぎこぱん","province":"東京都","city":"西多摩郡日の出町","address":"西多摩郡日の出町平井673-1","lat":35.74148,"lon":139.27971},{"name":"日の出町保健センター","province":"東京都","city":"西多摩郡日の出町","address":"東京都西多摩郡日の出町平井（大字）2780","lat":35.74211436,"lon":139.25740482},{"name":"日の出町本庁舎","province":"東京都","city":"西多摩郡日の出町","address":"東京都西多摩郡日の出町平井（大字）2780","lat":35.74211436,"lon":139.25740482},{"name":"日の出町本庁舎","province":"東京都","city":"西多摩郡日の出町","address":"西多摩郡日の出町大字平井2780","lat":35.742115,"lon":139.257405},{"name":"亜細亜大学日の出グランド","province":"東京都","city":"西多摩郡日の出町","address":"日の出町平井1466","lat":35.73674,"lon":139.2695},{"name":"※日の出町本庁舎","province":"東京都","city":"西多摩郡日の出町","address":"東京都西多摩郡日の出町平井（大字）2780","lat":35.74211436,"lon":139.25740482},{"name":"思い出を語るロマン社ひので斎場","province":"東京都","city":"西多摩郡日の出町","address":"東京都西多摩郡日の出町平井（大字）3092","lat":35.75204107,"lon":139.25521292},{"name":"大久野保育園","province":"東京都","city":"西多摩郡日の出町","address":"西多摩郡日の出町大久野1660-1","lat":35.76409,"lon":139.21674},{"name":"大正保育園","province":"東京都","city":"西多摩郡日の出町","address":"西多摩郡日の出町大久野711-1","lat":35.74944,"lon":139.24133},{"name":"宝光保育園","province":"東京都","city":"西多摩郡日の出町","address":"西多摩郡日の出町平井3389-1","lat":35.74556,"lon":139.26164},{"name":"さくらぎ保育園","province":"東京都","city":"西多摩郡日の出町","address":"西多摩郡日の出町平井661","lat":35.73905,"lon":139.27295},{"name":"さくらぎこぱん","province":"東京都","city":"西多摩郡日の出町","address":"西多摩郡日の出町平井673-1","lat":35.74571,"lon":139.26711},{"name":"さくらぎこぱん","province":"東京都","city":"西多摩郡日の出町","address":"西多摩郡日の出町平井673-1","lat":35.74148,"lon":139.27971},{"name":"日の出町保健センター","province":"東京都","city":"西多摩郡日の出町","address":"東京都西多摩郡日の出町平井（大字）2780","lat":35.74211436,"lon":139.25740482},{"name":"日の出町本庁舎","province":"東京都","city":"西多摩郡日の出町","address":"東京都西多摩郡日の出町平井（大字）2780","lat":35.74211436,"lon":139.25740482},{"name":"日の出町本庁舎","province":"東京都","city":"西多摩郡日の出町","address":"西多摩郡日の出町大字平井2780","lat":35.742115,"lon":139.257405},{"name":"亜細亜大学日の出グランド","province":"東京都","city":"西多摩郡日の出町","address":"日の出町平井1466","lat":35.73674,"lon":139.2695},{"name":"※日の出町本庁舎","province":"東京都","city":"西多摩郡日の出町","address":"東京都西多摩郡日の出町平井（大字）2780","lat":35.74211436,"lon":139.25740482},{"name":"思い出を語るロマン社ひので斎場","province":"東京都","city":"西多摩郡日の出町","address":"東京都西多摩郡日の出町平井（大字）3092","lat":35.75204107,"lon":139.25521292},{"name":"大久野保育園","province":"東京都","city":"西多摩郡日の出町","address":"西多摩郡日の出町大久野1660-1","lat":35.76409,"lon":139.21674},{"name":"大正保育園","province":"東京都","city":"西多摩郡日の出町","address":"西多摩郡日の出町大久野711-1","lat":35.74944,"lon":139.24133},{"name":"宝光保育園","province":"東京都","city":"西多摩郡日の出町","address":"西多摩郡日の出町平井3389-1","lat":35.74556,"lon":139.26164},{"name":"さくらぎ保育園","province":"東京都","city":"西多摩郡日の出町","address":"西多摩郡日の出町平井661","lat":35.73905,"lon":139.27295},{"name":"さくらぎこぱん","province":"東京都","city":"西多摩郡日の出町","address":"西多摩郡日の出町平井673-1","lat":35.74571,"lon":139.26711},{"name":"さくらぎこぱん","province":"東京都","city":"西多摩郡日の出町","address":"西多摩郡日の出町平井673-1","lat":35.74148,"lon":139.27971},{"name":"大久野保育園","province":"東京都","city":"西多摩郡日の出町","address":"西多摩郡日の出町大久野1660-1","lat":35.76409,"lon":139.21674},{"name":"大正保育園","province":"東京都","city":"西多摩郡日の出町","address":"西多摩郡日の出町大久野711-1","lat":35.74944,"lon":139.24133},{"name":"宝光保育園","province":"東京都","city":"西多摩郡日の出町","address":"西多摩郡日の出町平井3389-1","lat":35.74556,"lon":139.26164},{"name":"さくらぎ保育園","province":"東京都","city":"西多摩郡日の出町","address":"西多摩郡日の出町平井661","lat":35.73905,"lon":139.27295},{"name":"さくらぎこぱん","province":"東京都","city":"西多摩郡日の出町","address":"西多摩郡日の出町平井673-1","lat":35.74571,"lon":139.26711},{"name":"さくらぎこぱん","province":"東京都","city":"西多摩郡日の出町","address":"西多摩郡日の出町平井673-1","lat":35.74148,"lon":139.27971},{"name":"大久野保育園","province":"東京都","city":"西多摩郡日の出町","address":"西多摩郡日の出町大久野1660-1","lat":35.76409,"lon":139.21674},{"name":"大正保育園","province":"東京都","city":"西多摩郡日の出町","address":"西多摩郡日の出町大久野711-1","lat":35.74944,"lon":139.24133},{"name":"宝光保育園","province":"東京都","city":"西多摩郡日の出町","address":"西多摩郡日の出町平井3389-1","lat":35.74556,"lon":139.26164},{"name":"さくらぎ保育園","province":"東京都","city":"西多摩郡日の出町","address":"西多摩郡日の出町平井661","lat":35.73905,"lon":139.27295},{"name":"さくらぎこぱん","province":"東京都","city":"西多摩郡日の出町","address":"西多摩郡日の出町平井673-1","lat":35.74571,"lon":139.26711},{"name":"さくらぎこぱん","province":"東京都","city":"西多摩郡日の出町","address":"西多摩郡日の出町平井673-1","lat":35.74148,"lon":139.27971},{"name":"大久野保育園","province":"東京都","city":"西多摩郡日の出町","address":"西多摩郡日の出町大久野1660-1","lat":35.76409,"lon":139.21674},{"name":"大正保育園","province":"東京都","city":"西多摩郡日の出町","address":"西多摩郡日の出町大久野711-1","lat":35.74944,"lon":139.24133},{"name":"宝光保育園","province":"東京都","city":"西多摩郡日の出町","address":"西多摩郡日の出町平井3389-1","lat":35.74556,"lon":139.26164},{"name":"さくらぎ保育園","province":"東京都","city":"西多摩郡日の出町","address":"西多摩郡日の出町平井661","lat":35.73905,"lon":139.27295},{"name":"さくらぎこぱん","province":"東京都","city":"西多摩郡日の出町","address":"西多摩郡日の出町平井673-1","lat":35.74571,"lon":139.26711},{"name":"さくらぎこぱん","province":"東京都","city":"西多摩郡日の出町","address":"西多摩郡日の出町平井673-1","lat":35.74148,"lon":139.27971},{"name":"大久野保育園","province":"東京都","city":"西多摩郡日の出町","address":"西多摩郡日の出町大久野1660-1","lat":35.76409,"lon":139.21674},{"name":"大正保育園","province":"東京都","city":"西多摩郡日の出町","address":"西多摩郡日の出町大久野711-1","lat":35.74944,"lon":139.24133},{"name":"宝光保育園","province":"東京都","city":"西多摩郡日の出町","address":"西多摩郡日の出町平井3389-1","lat":35.74556,"lon":139.26164},{"name":"さくらぎ保育園","province":"東京都","city":"西多摩郡日の出町","address":"西多摩郡日の出町平井661","lat":35.73905,"lon":139.27295},{"name":"さくらぎこぱん","province":"東京都","city":"西多摩郡日の出町","address":"西多摩郡日の出町平井673-1","lat":35.74571,"lon":139.26711},{"name":"さくらぎこぱん","province":"東京都","city":"西多摩郡日の出町","address":"西多摩郡日の出町平井673-1","lat":35.74148,"lon":139.27971},{"name":"大久野保育園","province":"東京都","city":"西多摩郡日の出町","address":"西多摩郡日の出町大久野1660-1","lat":35.76409,"lon":139.21674},{"name":"大正保育園","province":"東京都","city":"西多摩郡日の出町","address":"西多摩郡日の出町大久野711-1","lat":35.74944,"lon":139.24133},{"name":"宝光保育園","province":"東京都","city":"西多摩郡日の出町","address":"西多摩郡日の出町平井3389-1","lat":35.74556,"lon":139.26164},{"name":"さくらぎ保育園","province":"東京都","city":"西多摩郡日の出町","address":"西多摩郡日の出町平井661","lat":35.73905,"lon":139.27295},{"name":"さくらぎこぱん","province":"東京都","city":"西多摩郡日の出町","address":"西多摩郡日の出町平井673-1","lat":35.74571,"lon":139.26711},{"name":"さくらぎこぱん","province":"東京都","city":"西多摩郡日の出町","address":"西多摩郡日の出町平井673-1","lat":35.74148,"lon":139.27971},{"name":"大久野保育園","province":"東京都","city":"西多摩郡日の出町","address":"西多摩郡日の出町大久野1660-1","lat":35.76409,"lon":139.21674},{"name":"大正保育園","province":"東京都","city":"西多摩郡日の出町","address":"西多摩郡日の出町大久野711-1","lat":35.74944,"lon":139.24133},{"name":"宝光保育園","province":"東京都","city":"西多摩郡日の出町","address":"西多摩郡日の出町平井3389-1","lat":35.74556,"lon":139.26164},{"name":"さくらぎ保育園","province":"東京都","city":"西多摩郡日の出町","address":"西多摩郡日の出町平井661","lat":35.73905,"lon":139.27295},{"name":"さくらぎこぱん","province":"東京都","city":"西多摩郡日の出町","address":"西多摩郡日の出町平井673-1","lat":35.74571,"lon":139.26711},{"name":"さくらぎこぱん","province":"東京都","city":"西多摩郡日の出町","address":"西多摩郡日の出町平井673-1","lat":35.74148,"lon":139.27971},{"name":"大久野保育園","province":"東京都","city":"西多摩郡日の出町","address":"西多摩郡日の出町大久野1660-1","lat":35.76409,"lon":139.21674},{"name":"大正保育園","province":"東京都","city":"西多摩郡日の出町","address":"西多摩郡日の出町大久野711-1","lat":35.74944,"lon":139.24133},{"name":"宝光保育園","province":"東京都","city":"西多摩郡日の出町","address":"西多摩郡日の出町平井3389-1","lat":35.74556,"lon":139.26164},{"name":"さくらぎ保育園","province":"東京都","city":"西多摩郡日の出町","address":"西多摩郡日の出町平井661","lat":35.73905,"lon":139.27295},{"name":"さくらぎこぱん","province":"東京都","city":"西多摩郡日の出町","address":"西多摩郡日の出町平井673-1","lat":35.74571,"lon":139.26711},{"name":"さくらぎこぱん","province":"東京都","city":"西多摩郡日の出町","address":"西多摩郡日の出町平井673-1","lat":35.74148,"lon":139.27971},{"name":"大久野保育園","province":"東京都","city":"西多摩郡日の出町","address":"西多摩郡日の出町大久野1660-1","lat":35.76409,"lon":139.21674},{"name":"大正保育園","province":"東京都","city":"西多摩郡日の出町","address":"西多摩郡日の出町大久野711-1","lat":35.74944,"lon":139.24133},{"name":"宝光保育園","province":"東京都","city":"西多摩郡日の出町","address":"西多摩郡日の出町平井3389-1","lat":35.74556,"lon":139.26164},{"name":"さくらぎ保育園","province":"東京都","city":"西多摩郡日の出町","address":"西多摩郡日の出町平井661","lat":35.73905,"lon":139.27295},{"name":"さくらぎこぱん","province":"東京都","city":"西多摩郡日の出町","address":"西多摩郡日の出町平井673-1","lat":35.74571,"lon":139.26711},{"name":"さくらぎこぱん","province":"東京都","city":"西多摩郡日の出町","address":"西多摩郡日の出町平井673-1","lat":35.74148,"lon":139.27971},{"name":"大久野保育園","province":"東京都","city":"西多摩郡日の出町","address":"西多摩郡日の出町大久野1660-1","lat":35.76409,"lon":139.21674},{"name":"大正保育園","province":"東京都","city":"西多摩郡日の出町","address":"西多摩郡日の出町大久野711-1","lat":35.74944,"lon":139.24133},{"name":"宝光保育園","province":"東京都","city":"西多摩郡日の出町","address":"西多摩郡日の出町平井3389-1","lat":35.74556,"lon":139.26164},{"name":"さくらぎ保育園","province":"東京都","city":"西多摩郡日の出町","address":"西多摩郡日の出町平井661","lat":35.73905,"lon":139.27295},{"name":"さくらぎこぱん","province":"東京都","city":"西多摩郡日の出町","address":"西多摩郡日の出町平井673-1","lat":35.74571,"lon":139.26711},{"name":"さくらぎこぱん","province":"東京都","city":"西多摩郡日の出町","address":"西多摩郡日の出町平井673-1","lat":35.74148,"lon":139.27971},{"name":"大久野保育園","province":"東京都","city":"西多摩郡日の出町","address":"西多摩郡日の出町大久野1660-1","lat":35.76409,"lon":139.21674},{"name":"大正保育園","province":"東京都","city":"西多摩郡日の出町","address":"西多摩郡日の出町大久野711-1","lat":35.74944,"lon":139.24133},{"name":"宝光保育園","province":"東京都","city":"西多摩郡日の出町","address":"西多摩郡日の出町平井3389-1","lat":35.74556,"lon":139.26164},{"name":"さくらぎ保育園","province":"東京都","city":"西多摩郡日の出町","address":"西多摩郡日の出町平井661","lat":35.73905,"lon":139.27295},{"name":"さくらぎこぱん","province":"東京都","city":"西多摩郡日の出町","address":"西多摩郡日の出町平井673-1","lat":35.74571,"lon":139.26711},{"name":"さくらぎこぱん","province":"東京都","city":"西多摩郡日の出町","address":"西多摩郡日の出町平井673-1","lat":35.74148,"lon":139.27971},{"name":"大久野保育園","province":"東京都","city":"西多摩郡日の出町","address":"西多摩郡日の出町大久野1660-1","lat":35.76409,"lon":139.21674},{"name":"大正保育園","province":"東京都","city":"西多摩郡日の出町","address":"西多摩郡日の出町大久野711-1","lat":35.74944,"lon":139.24133},{"name":"宝光保育園","province":"東京都","city":"西多摩郡日の出町","address":"西多摩郡日の出町平井3389-1","lat":35.74556,"lon":139.26164},{"name":"さくらぎ保育園","province":"東京都","city":"西多摩郡日の出町","address":"西多摩郡日の出町平井661","lat":35.73905,"lon":139.27295},{"name":"さくらぎこぱん","province":"東京都","city":"西多摩郡日の出町","address":"西多摩郡日の出町平井673-1","lat":35.74571,"lon":139.26711},{"name":"さくらぎこぱん","province":"東京都","city":"西多摩郡日の出町","address":"西多摩郡日の出町平井673-1","lat":35.74148,"lon":139.27971},{"name":"大久野保育園","province":"東京都","city":"西多摩郡日の出町","address":"西多摩郡日の出町大久野1660-1","lat":35.76409,"lon":139.21674},{"name":"大正保育園","province":"東京都","city":"西多摩郡日の出町","address":"西多摩郡日の出町大久野711-1","lat":35.74944,"lon":139.24133},{"name":"宝光保育園","province":"東京都","city":"西多摩郡日の出町","address":"西多摩郡日の出町平井3389-1","lat":35.74556,"lon":139.26164},{"name":"さくらぎ保育園","province":"東京都","city":"西多摩郡日の出町","address":"西多摩郡日の出町平井661","lat":35.73905,"lon":139.27295},{"name":"さくらぎこぱん","province":"東京都","city":"西多摩郡日の出町","address":"西多摩郡日の出町平井673-1","lat":35.74571,"lon":139.26711},{"name":"さくらぎこぱん","province":"東京都","city":"西多摩郡日の出町","address":"西多摩郡日の出町平井673-1","lat":35.74148,"lon":139.27971},{"name":"大久野保育園","province":"東京都","city":"西多摩郡日の出町","address":"西多摩郡日の出町大久野1660-1","lat":35.76409,"lon":139.21674},{"name":"大正保育園","province":"東京都","city":"西多摩郡日の出町","address":"西多摩郡日の出町大久野711-1","lat":35.74944,"lon":139.24133},{"name":"宝光保育園","province":"東京都","city":"西多摩郡日の出町","address":"西多摩郡日の出町平井3389-1","lat":35.74556,"lon":139.26164},{"name":"さくらぎ保育園","province":"東京都","city":"西多摩郡日の出町","address":"西多摩郡日の出町平井661","lat":35.73905,"lon":139.27295},{"name":"さくらぎこぱん","province":"東京都","city":"西多摩郡日の出町","address":"西多摩郡日の出町平井673-1","lat":35.74571,"lon":139.26711},{"name":"さくらぎこぱん","province":"東京都","city":"西多摩郡日の出町","address":"西多摩郡日の出町平井673-1","lat":35.74148,"lon":139.27971},{"name":"大久野保育園","province":"東京都","city":"西多摩郡日の出町","address":"西多摩郡日の出町大久野1660-1","lat":35.76409,"lon":139.21674},{"name":"大正保育園","province":"東京都","city":"西多摩郡日の出町","address":"西多摩郡日の出町大久野711-1","lat":35.74944,"lon":139.24133},{"name":"宝光保育園","province":"東京都","city":"西多摩郡日の出町","address":"西多摩郡日の出町平井3389-1","lat":35.74556,"lon":139.26164},{"name":"さくらぎ保育園","province":"東京都","city":"西多摩郡日の出町","address":"西多摩郡日の出町平井661","lat":35.73905,"lon":139.27295},{"name":"さくらぎこぱん","province":"東京都","city":"西多摩郡日の出町","address":"西多摩郡日の出町平井673-1","lat":35.74571,"lon":139.26711},{"name":"さくらぎこぱん","province":"東京都","city":"西多摩郡日の出町","address":"西多摩郡日の出町平井673-1","lat":35.74148,"lon":139.27971},{"name":"大久野保育園","province":"東京都","city":"西多摩郡日の出町","address":"西多摩郡日の出町大久野1660-1","lat":35.76409,"lon":139.21674},{"name":"大正保育園","province":"東京都","city":"西多摩郡日の出町","address":"西多摩郡日の出町大久野711-1","lat":35.74944,"lon":139.24133},{"name":"宝光保育園","province":"東京都","city":"西多摩郡日の出町","address":"西多摩郡日の出町平井3389-1","lat":35.74556,"lon":139.26164},{"name":"さくらぎ保育園","province":"東京都","city":"西多摩郡日の出町","address":"西多摩郡日の出町平井661","lat":35.73905,"lon":139.27295},{"name":"さくらぎこぱん","province":"東京都","city":"西多摩郡日の出町","address":"西多摩郡日の出町平井673-1","lat":35.74571,"lon":139.26711},{"name":"さくらぎこぱん","province":"東京都","city":"西多摩郡日の出町","address":"西多摩郡日の出町平井673-1","lat":35.74148,"lon":139.27971},{"name":"大久野保育園","province":"東京都","city":"西多摩郡日の出町","address":"西多摩郡日の出町大久野1660-1","lat":35.76409,"lon":139.21674},{"name":"大正保育園","province":"東京都","city":"西多摩郡日の出町","address":"西多摩郡日の出町大久野711-1","lat":35.74944,"lon":139.24133},{"name":"宝光保育園","province":"東京都","city":"西多摩郡日の出町","address":"西多摩郡日の出町平井3389-1","lat":35.74556,"lon":139.26164},{"name":"さくらぎ保育園","province":"東京都","city":"西多摩郡日の出町","address":"西多摩郡日の出町平井661","lat":35.73905,"lon":139.27295},{"name":"さくらぎこぱん","province":"東京都","city":"西多摩郡日の出町","address":"西多摩郡日の出町平井673-1","lat":35.74571,"lon":139.26711},{"name":"さくらぎこぱん","province":"東京都","city":"西多摩郡日の出町","address":"西多摩郡日の出町平井673-1","lat":35.74148,"lon":139.27971},{"name":"大久野保育園","province":"東京都","city":"西多摩郡日の出町","address":"西多摩郡日の出町大久野1660-1","lat":35.76409,"lon":139.21674},{"name":"大正保育園","province":"東京都","city":"西多摩郡日の出町","address":"西多摩郡日の出町大久野711-1","lat":35.74944,"lon":139.24133},{"name":"宝光保育園","province":"東京都","city":"西多摩郡日の出町","address":"西多摩郡日の出町平井3389-1","lat":35.74556,"lon":139.26164},{"name":"さくらぎ保育園","province":"東京都","city":"西多摩郡日の出町","address":"西多摩郡日の出町平井661","lat":35.73905,"lon":139.27295},{"name":"さくらぎこぱん","province":"東京都","city":"西多摩郡日の出町","address":"西多摩郡日の出町平井673-1","lat":35.74571,"lon":139.26711},{"name":"さくらぎこぱん","province":"東京都","city":"西多摩郡日の出町","address":"西多摩郡日の出町平井673-1","lat":35.74148,"lon":139.27971},{"name":"大久野保育園","province":"東京都","city":"西多摩郡日の出町","address":"西多摩郡日の出町大久野1660-1","lat":35.76409,"lon":139.21674},{"name":"大正保育園","province":"東京都","city":"西多摩郡日の出町","address":"西多摩郡日の出町大久野711-1","lat":35.74944,"lon":139.24133},{"name":"宝光保育園","province":"東京都","city":"西多摩郡日の出町","address":"西多摩郡日の出町平井3389-1","lat":35.74556,"lon":139.26164},{"name":"さくらぎ保育園","province":"東京都","city":"西多摩郡日の出町","address":"西多摩郡日の出町平井661","lat":35.73905,"lon":139.27295},{"name":"さくらぎこぱん","province":"東京都","city":"西多摩郡日の出町","address":"西多摩郡日の出町平井673-1","lat":35.74571,"lon":139.26711},{"name":"さくらぎこぱん","province":"東京都","city":"西多摩郡日の出町","address":"西多摩郡日の出町平井673-1","lat":35.74148,"lon":139.27971},{"name":"大久野保育園","province":"東京都","city":"西多摩郡日の出町","address":"西多摩郡日の出町大久野1660-1","lat":35.76409,"lon":139.21674},{"name":"大正保育園","province":"東京都","city":"西多摩郡日の出町","address":"西多摩郡日の出町大久野711-1","lat":35.74944,"lon":139.24133},{"name":"宝光保育園","province":"東京都","city":"西多摩郡日の出町","address":"西多摩郡日の出町平井3389-1","lat":35.74556,"lon":139.26164},{"name":"さくらぎ保育園","province":"東京都","city":"西多摩郡日の出町","address":"西多摩郡日の出町平井661","lat":35.73905,"lon":139.27295},{"name":"さくらぎこぱん","province":"東京都","city":"西多摩郡日の出町","address":"西多摩郡日の出町平井673-1","lat":35.74571,"lon":139.26711},{"name":"さくらぎこぱん","province":"東京都","city":"西多摩郡日の出町","address":"西多摩郡日の出町平井673-1","lat":35.74148,"lon":139.27971},{"name":"大久野保育園","province":"東京都","city":"西多摩郡日の出町","address":"西多摩郡日の出町大久野1660-1","lat":35.76409,"lon":139.21674},{"name":"大正保育園","province":"東京都","city":"西多摩郡日の出町","address":"西多摩郡日の出町大久野711-1","lat":35.74944,"lon":139.24133},{"name":"宝光保育園","province":"東京都","city":"西多摩郡日の出町","address":"西多摩郡日の出町平井3389-1","lat":35.74556,"lon":139.26164},{"name":"さくらぎ保育園","province":"東京都","city":"西多摩郡日の出町","address":"西多摩郡日の出町平井661","lat":35.73905,"lon":139.27295},{"name":"さくらぎこぱん","province":"東京都","city":"西多摩郡日の出町","address":"西多摩郡日の出町平井673-1","lat":35.74571,"lon":139.26711},{"name":"さくらぎこぱん","province":"東京都","city":"西多摩郡日の出町","address":"西多摩郡日の出町平井673-1","lat":35.74148,"lon":139.27971},{"name":"大久野保育園","province":"東京都","city":"西多摩郡日の出町","address":"西多摩郡日の出町大久野1660-1","lat":35.76409,"lon":139.21674},{"name":"大正保育園","province":"東京都","city":"西多摩郡日の出町","address":"西多摩郡日の出町大久野711-1","lat":35.74944,"lon":139.24133},{"name":"宝光保育園","province":"東京都","city":"西多摩郡日の出町","address":"西多摩郡日の出町平井3389-1","lat":35.74556,"lon":139.26164},{"name":"さくらぎ保育園","province":"東京都","city":"西多摩郡日の出町","address":"西多摩郡日の出町平井661","lat":35.73905,"lon":139.27295},{"name":"さくらぎこぱん","province":"東京都","city":"西多摩郡日の出町","address":"西多摩郡日の出町平井673-1","lat":35.74571,"lon":139.26711},{"name":"さくらぎこぱん","province":"東京都","city":"西多摩郡日の出町","address":"西多摩郡日の出町平井673-1","lat":35.74148,"lon":139.27971},{"name":"大久野保育園","province":"東京都","city":"西多摩郡日の出町","address":"西多摩郡日の出町大久野1660-1","lat":35.76409,"lon":139.21674},{"name":"大正保育園","province":"東京都","city":"西多摩郡日の出町","address":"西多摩郡日の出町大久野711-1","lat":35.74944,"lon":139.24133},{"name":"宝光保育園","province":"東京都","city":"西多摩郡日の出町","address":"西多摩郡日の出町平井3389-1","lat":35.74556,"lon":139.26164},{"name":"さくらぎ保育園","province":"東京都","city":"西多摩郡日の出町","address":"西多摩郡日の出町平井661","lat":35.73905,"lon":139.27295},{"name":"さくらぎこぱん","province":"東京都","city":"西多摩郡日の出町","address":"西多摩郡日の出町平井673-1","lat":35.74571,"lon":139.26711},{"name":"さくらぎこぱん","province":"東京都","city":"西多摩郡日の出町","address":"西多摩郡日の出町平井673-1","lat":35.74148,"lon":139.27971},{"name":"大久野保育園","province":"東京都","city":"西多摩郡日の出町","address":"西多摩郡日の出町大久野1660-1","lat":35.76409,"lon":139.21674},{"name":"大正保育園","province":"東京都","city":"西多摩郡日の出町","address":"西多摩郡日の出町大久野711-1","lat":35.74944,"lon":139.24133},{"name":"宝光保育園","province":"東京都","city":"西多摩郡日の出町","address":"西多摩郡日の出町平井3389-1","lat":35.74556,"lon":139.26164},{"name":"さくらぎ保育園","province":"東京都","city":"西多摩郡日の出町","address":"西多摩郡日の出町平井661","lat":35.73905,"lon":139.27295},{"name":"さくらぎこぱん","province":"東京都","city":"西多摩郡日の出町","address":"西多摩郡日の出町平井673-1","lat":35.74571,"lon":139.26711},{"name":"さくらぎこぱん","province":"東京都","city":"西多摩郡日の出町","address":"西多摩郡日の出町平井673-1","lat":35.74148,"lon":139.27971},{"name":"大久野保育園","province":"東京都","city":"西多摩郡日の出町","address":"西多摩郡日の出町大久野1660-1","lat":35.76409,"lon":139.21674},{"name":"大正保育園","province":"東京都","city":"西多摩郡日の出町","address":"西多摩郡日の出町大久野711-1","lat":35.74944,"lon":139.24133},{"name":"宝光保育園","province":"東京都","city":"西多摩郡日の出町","address":"西多摩郡日の出町平井3389-1","lat":35.74556,"lon":139.26164},{"name":"さくらぎ保育園","province":"東京都","city":"西多摩郡日の出町","address":"西多摩郡日の出町平井661","lat":35.73905,"lon":139.27295},{"name":"さくらぎこぱん","province":"東京都","city":"西多摩郡日の出町","address":"西多摩郡日の出町平井673-1","lat":35.74571,"lon":139.26711},{"name":"さくらぎこぱん","province":"東京都","city":"西多摩郡日の出町","address":"西多摩郡日の出町平井673-1","lat":35.74148,"lon":139.27971},{"name":"大久野保育園","province":"東京都","city":"西多摩郡日の出町","address":"西多摩郡日の出町大久野1660-1","lat":35.76409,"lon":139.21674},{"name":"大正保育園","province":"東京都","city":"西多摩郡日の出町","address":"西多摩郡日の出町大久野711-1","lat":35.74944,"lon":139.24133},{"name":"宝光保育園","province":"東京都","city":"西多摩郡日の出町","address":"西多摩郡日の出町平井3389-1","lat":35.74556,"lon":139.26164},{"name":"さくらぎ保育園","province":"東京都","city":"西多摩郡日の出町","address":"西多摩郡日の出町平井661","lat":35.73905,"lon":139.27295},{"name":"さくらぎこぱん","province":"東京都","city":"西多摩郡日の出町","address":"西多摩郡日の出町平井673-1","lat":35.74571,"lon":139.26711},{"name":"さくらぎこぱん","province":"東京都","city":"西多摩郡日の出町","address":"西多摩郡日の出町平井673-1","lat":35.74148,"lon":139.27971},{"name":"大久野保育園","province":"東京都","city":"西多摩郡日の出町","address":"西多摩郡日の出町大久野1660-1","lat":35.76409,"lon":139.21674},{"name":"大正保育園","province":"東京都","city":"西多摩郡日の出町","address":"西多摩郡日の出町大久野711-1","lat":35.74944,"lon":139.24133},{"name":"宝光保育園","province":"東京都","city":"西多摩郡日の出町","address":"西多摩郡日の出町平井3389-1","lat":35.74556,"lon":139.26164},{"name":"さくらぎ保育園","province":"東京都","city":"西多摩郡日の出町","address":"西多摩郡日の出町平井661","lat":35.73905,"lon":139.27295},{"name":"さくらぎこぱん","province":"東京都","city":"西多摩郡日の出町","address":"西多摩郡日の出町平井673-1","lat":35.74571,"lon":139.26711},{"name":"さくらぎこぱん","province":"東京都","city":"西多摩郡日の出町","address":"西多摩郡日の出町平井673-1","lat":35.74148,"lon":139.27971},{"name":"大久野保育園","province":"東京都","city":"西多摩郡日の出町","address":"西多摩郡日の出町大久野1660-1","lat":35.76409,"lon":139.21674},{"name":"大正保育園","province":"東京都","city":"西多摩郡日の出町","address":"西多摩郡日の出町大久野711-1","lat":35.74944,"lon":139.24133},{"name":"宝光保育園","province":"東京都","city":"西多摩郡日の出町","address":"西多摩郡日の出町平井3389-1","lat":35.74556,"lon":139.26164},{"name":"さくらぎ保育園","province":"東京都","city":"西多摩郡日の出町","address":"西多摩郡日の出町平井661","lat":35.73905,"lon":139.27295},{"name":"さくらぎこぱん","province":"東京都","city":"西多摩郡日の出町","address":"西多摩郡日の出町平井673-1","lat":35.74571,"lon":139.26711},{"name":"さくらぎこぱん","province":"東京都","city":"西多摩郡日の出町","address":"西多摩郡日の出町平井673-1","lat":35.74148,"lon":139.27971},{"name":"大久野保育園","province":"東京都","city":"西多摩郡日の出町","address":"西多摩郡日の出町大久野1660-1","lat":35.76409,"lon":139.21674},{"name":"大正保育園","province":"東京都","city":"西多摩郡日の出町","address":"西多摩郡日の出町大久野711-1","lat":35.74944,"lon":139.24133},{"name":"宝光保育園","province":"東京都","city":"西多摩郡日の出町","address":"西多摩郡日の出町平井3389-1","lat":35.74556,"lon":139.26164},{"name":"さくらぎ保育園","province":"東京都","city":"西多摩郡日の出町","address":"西多摩郡日の出町平井661","lat":35.73905,"lon":139.27295},{"name":"さくらぎこぱん","province":"東京都","city":"西多摩郡日の出町","address":"西多摩郡日の出町平井673-1","lat":35.74571,"lon":139.26711},{"name":"さくらぎこぱん","province":"東京都","city":"西多摩郡日の出町","address":"西多摩郡日の出町平井673-1","lat":35.74148,"lon":139.27971},{"name":"大久野保育園","province":"東京都","city":"西多摩郡日の出町","address":"西多摩郡日の出町大久野1660-1","lat":35.76409,"lon":139.21674},{"name":"大正保育園","province":"東京都","city":"西多摩郡日の出町","address":"西多摩郡日の出町大久野711-1","lat":35.74944,"lon":139.24133},{"name":"宝光保育園","province":"東京都","city":"西多摩郡日の出町","address":"西多摩郡日の出町平井3389-1","lat":35.74556,"lon":139.26164},{"name":"さくらぎ保育園","province":"東京都","city":"西多摩郡日の出町","address":"西多摩郡日の出町平井661","lat":35.73905,"lon":139.27295},{"name":"さくらぎこぱん","province":"東京都","city":"西多摩郡日の出町","address":"西多摩郡日の出町平井673-1","lat":35.74571,"lon":139.26711},{"name":"さくらぎこぱん","province":"東京都","city":"西多摩郡日の出町","address":"西多摩郡日の出町平井673-1","lat":35.74148,"lon":139.27971},{"name":"大久野保育園","province":"東京都","city":"西多摩郡日の出町","address":"西多摩郡日の出町大久野1660-1","lat":35.76409,"lon":139.21674},{"name":"大正保育園","province":"東京都","city":"西多摩郡日の出町","address":"西多摩郡日の出町大久野711-1","lat":35.74944,"lon":139.24133},{"name":"宝光保育園","province":"東京都","city":"西多摩郡日の出町","address":"西多摩郡日の出町平井3389-1","lat":35.74556,"lon":139.26164},{"name":"さくらぎ保育園","province":"東京都","city":"西多摩郡日の出町","address":"西多摩郡日の出町平井661","lat":35.73905,"lon":139.27295},{"name":"さくらぎこぱん","province":"東京都","city":"西多摩郡日の出町","address":"西多摩郡日の出町平井673-1","lat":35.74571,"lon":139.26711},{"name":"さくらぎこぱん","province":"東京都","city":"西多摩郡日の出町","address":"西多摩郡日の出町平井673-1","lat":35.74148,"lon":139.27971},{"name":"大久野保育園","province":"東京都","city":"西多摩郡日の出町","address":"西多摩郡日の出町大久野1660-1","lat":35.76409,"lon":139.21674},{"name":"大正保育園","province":"東京都","city":"西多摩郡日の出町","address":"西多摩郡日の出町大久野711-1","lat":35.74944,"lon":139.24133},{"name":"宝光保育園","province":"東京都","city":"西多摩郡日の出町","address":"西多摩郡日の出町平井3389-1","lat":35.74556,"lon":139.26164},{"name":"さくらぎ保育園","province":"東京都","city":"西多摩郡日の出町","address":"西多摩郡日の出町平井661","lat":35.73905,"lon":139.27295},{"name":"さくらぎこぱん","province":"東京都","city":"西多摩郡日の出町","address":"西多摩郡日の出町平井673-1","lat":35.74571,"lon":139.26711},{"name":"さくらぎこぱん","province":"東京都","city":"西多摩郡日の出町","address":"西多摩郡日の出町平井673-1","lat":35.74148,"lon":139.27971},{"name":"大久野保育園","province":"東京都","city":"西多摩郡日の出町","address":"西多摩郡日の出町大久野1660-1","lat":35.76409,"lon":139.21674},{"name":"大正保育園","province":"東京都","city":"西多摩郡日の出町","address":"西多摩郡日の出町大久野711-1","lat":35.74944,"lon":139.24133},{"name":"宝光保育園","province":"東京都","city":"西多摩郡日の出町","address":"西多摩郡日の出町平井3389-1","lat":35.74556,"lon":139.26164},{"name":"さくらぎ保育園","province":"東京都","city":"西多摩郡日の出町","address":"西多摩郡日の出町平井661","lat":35.73905,"lon":139.27295},{"name":"さくらぎこぱん","province":"東京都","city":"西多摩郡日の出町","address":"西多摩郡日の出町平井673-1","lat":35.74571,"lon":139.26711},{"name":"さくらぎこぱん","province":"東京都","city":"西多摩郡日の出町","address":"西多摩郡日の出町平井673-1","lat":35.74148,"lon":139.27971},{"name":"大久野保育園","province":"東京都","city":"西多摩郡日の出町","address":"西多摩郡日の出町大久野1660-1","lat":35.76409,"lon":139.21674},{"name":"大正保育園","province":"東京都","city":"西多摩郡日の出町","address":"西多摩郡日の出町大久野711-1","lat":35.74944,"lon":139.24133},{"name":"宝光保育園","province":"東京都","city":"西多摩郡日の出町","address":"西多摩郡日の出町平井3389-1","lat":35.74556,"lon":139.26164},{"name":"さくらぎ保育園","province":"東京都","city":"西多摩郡日の出町","address":"西多摩郡日の出町平井661","lat":35.73905,"lon":139.27295},{"name":"さくらぎこぱん","province":"東京都","city":"西多摩郡日の出町","address":"西多摩郡日の出町平井673-1","lat":35.74571,"lon":139.26711},{"name":"さくらぎこぱん","province":"東京都","city":"西多摩郡日の出町","address":"西多摩郡日の出町平井673-1","lat":35.74148,"lon":139.27971},{"name":"大久野保育園","province":"東京都","city":"西多摩郡日の出町","address":"西多摩郡日の出町大久野1660-1","lat":35.76409,"lon":139.21674},{"name":"大正保育園","province":"東京都","city":"西多摩郡日の出町","address":"西多摩郡日の出町大久野711-1","lat":35.74944,"lon":139.24133},{"name":"宝光保育園","province":"東京都","city":"西多摩郡日の出町","address":"西多摩郡日の出町平井3389-1","lat":35.74556,"lon":139.26164},{"name":"さくらぎ保育園","province":"東京都","city":"西多摩郡日の出町","address":"西多摩郡日の出町平井661","lat":35.73905,"lon":139.27295},{"name":"さくらぎこぱん","province":"東京都","city":"西多摩郡日の出町","address":"西多摩郡日の出町平井673-1","lat":35.74571,"lon":139.26711},{"name":"さくらぎこぱん","province":"東京都","city":"西多摩郡日の出町","address":"西多摩郡日の出町平井673-1","lat":35.74148,"lon":139.27971},{"name":"大久野保育園","province":"東京都","city":"西多摩郡日の出町","address":"西多摩郡日の出町大久野1660-1","lat":35.76409,"lon":139.21674},{"name":"大正保育園","province":"東京都","city":"西多摩郡日の出町","address":"西多摩郡日の出町大久野711-1","lat":35.74944,"lon":139.24133},{"name":"宝光保育園","province":"東京都","city":"西多摩郡日の出町","address":"西多摩郡日の出町平井3389-1","lat":35.74556,"lon":139.26164},{"name":"さくらぎ保育園","province":"東京都","city":"西多摩郡日の出町","address":"西多摩郡日の出町平井661","lat":35.73905,"lon":139.27295},{"name":"さくらぎこぱん","province":"東京都","city":"西多摩郡日の出町","address":"西多摩郡日の出町平井673-1","lat":35.74571,"lon":139.26711},{"name":"さくらぎこぱん","province":"東京都","city":"西多摩郡日の出町","address":"西多摩郡日の出町平井673-1","lat":35.74148,"lon":139.27971},{"name":"大久野保育園","province":"東京都","city":"西多摩郡日の出町","address":"西多摩郡日の出町大久野1660-1","lat":35.76409,"lon":139.21674},{"name":"大正保育園","province":"東京都","city":"西多摩郡日の出町","address":"西多摩郡日の出町大久野711-1","lat":35.74944,"lon":139.24133},{"name":"宝光保育園","province":"東京都","city":"西多摩郡日の出町","address":"西多摩郡日の出町平井3389-1","lat":35.74556,"lon":139.26164},{"name":"さくらぎ保育園","province":"東京都","city":"西多摩郡日の出町","address":"西多摩郡日の出町平井661","lat":35.73905,"lon":139.27295},{"name":"さくらぎこぱん","province":"東京都","city":"西多摩郡日の出町","address":"西多摩郡日の出町平井673-1","lat":35.74571,"lon":139.26711},{"name":"さくらぎこぱん","province":"東京都","city":"西多摩郡日の出町","address":"西多摩郡日の出町平井673-1","lat":35.74148,"lon":139.27971},{"name":"大久野保育園","province":"東京都","city":"西多摩郡日の出町","address":"西多摩郡日の出町大久野1660-1","lat":35.76409,"lon":139.21674},{"name":"大正保育園","province":"東京都","city":"西多摩郡日の出町","address":"西多摩郡日の出町大久野711-1","lat":35.74944,"lon":139.24133},{"name":"宝光保育園","province":"東京都","city":"西多摩郡日の出町","address":"西多摩郡日の出町平井3389-1","lat":35.74556,"lon":139.26164},{"name":"さくらぎ保育園","province":"東京都","city":"西多摩郡日の出町","address":"西多摩郡日の出町平井661","lat":35.73905,"lon":139.27295},{"name":"さくらぎこぱん","province":"東京都","city":"西多摩郡日の出町","address":"西多摩郡日の出町平井673-1","lat":35.74571,"lon":139.26711},{"name":"さくらぎこぱん","province":"東京都","city":"西多摩郡日の出町","address":"西多摩郡日の出町平井673-1","lat":35.74148,"lon":139.27971},{"name":"大久野保育園","province":"東京都","city":"西多摩郡日の出町","address":"西多摩郡日の出町大久野1660-1","lat":35.76409,"lon":139.21674},{"name":"大正保育園","province":"東京都","city":"西多摩郡日の出町","address":"西多摩郡日の出町大久野711-1","lat":35.74944,"lon":139.24133},{"name":"宝光保育園","province":"東京都","city":"西多摩郡日の出町","address":"西多摩郡日の出町平井3389-1","lat":35.74556,"lon":139.26164},{"name":"さくらぎ保育園","province":"東京都","city":"西多摩郡日の出町","address":"西多摩郡日の出町平井661","lat":35.73905,"lon":139.27295},{"name":"さくらぎこぱん","province":"東京都","city":"西多摩郡日の出町","address":"西多摩郡日の出町平井673-1","lat":35.74571,"lon":139.26711},{"name":"さくらぎこぱん","province":"東京都","city":"西多摩郡日の出町","address":"西多摩郡日の出町平井673-1","lat":35.74148,"lon":139.27971},{"name":"大久野保育園","province":"東京都","city":"西多摩郡日の出町","address":"西多摩郡日の出町大久野1660-1","lat":35.76409,"lon":139.21674},{"name":"大正保育園","province":"東京都","city":"西多摩郡日の出町","address":"西多摩郡日の出町大久野711-1","lat":35.74944,"lon":139.24133},{"name":"宝光保育園","province":"東京都","city":"西多摩郡日の出町","address":"西多摩郡日の出町平井3389-1","lat":35.74556,"lon":139.26164},{"name":"さくらぎ保育園","province":"東京都","city":"西多摩郡日の出町","address":"西多摩郡日の出町平井661","lat":35.73905,"lon":139.27295},{"name":"さくらぎこぱん","province":"東京都","city":"西多摩郡日の出町","address":"西多摩郡日の出町平井673-1","lat":35.74571,"lon":139.26711},{"name":"さくらぎこぱん","province":"東京都","city":"西多摩郡日の出町","address":"西多摩郡日の出町平井673-1","lat":35.74148,"lon":139.27971},{"name":"大久野保育園","province":"東京都","city":"西多摩郡日の出町","address":"西多摩郡日の出町大久野1660-1","lat":35.76409,"lon":139.21674},{"name":"大正保育園","province":"東京都","city":"西多摩郡日の出町","address":"西多摩郡日の出町大久野711-1","lat":35.74944,"lon":139.24133},{"name":"宝光保育園","province":"東京都","city":"西多摩郡日の出町","address":"西多摩郡日の出町平井3389-1","lat":35.74556,"lon":139.26164},{"name":"さくらぎ保育園","province":"東京都","city":"西多摩郡日の出町","address":"西多摩郡日の出町平井661","lat":35.73905,"lon":139.27295},{"name":"さくらぎこぱん","province":"東京都","city":"西多摩郡日の出町","address":"西多摩郡日の出町平井673-1","lat":35.74571,"lon":139.26711},{"name":"さくらぎこぱん","province":"東京都","city":"西多摩郡日の出町","address":"西多摩郡日の出町平井673-1","lat":35.74148,"lon":139.27971},{"name":"大久野保育園","province":"東京都","city":"西多摩郡日の出町","address":"西多摩郡日の出町大久野1660-1","lat":35.76409,"lon":139.21674},{"name":"大正保育園","province":"東京都","city":"西多摩郡日の出町","address":"西多摩郡日の出町大久野711-1","lat":35.74944,"lon":139.24133},{"name":"宝光保育園","province":"東京都","city":"西多摩郡日の出町","address":"西多摩郡日の出町平井3389-1","lat":35.74556,"lon":139.26164},{"name":"さくらぎ保育園","province":"東京都","city":"西多摩郡日の出町","address":"西多摩郡日の出町平井661","lat":35.73905,"lon":139.27295},{"name":"さくらぎこぱん","province":"東京都","city":"西多摩郡日の出町","address":"西多摩郡日の出町平井673-1","lat":35.74571,"lon":139.26711},{"name":"さくらぎこぱん","province":"東京都","city":"西多摩郡日の出町","address":"西多摩郡日の出町平井673-1","lat":35.74148,"lon":139.27971},{"name":"大久野保育園","province":"東京都","city":"西多摩郡日の出町","address":"西多摩郡日の出町大久野1660-1","lat":35.76409,"lon":139.21674},{"name":"大正保育園","province":"東京都","city":"西多摩郡日の出町","address":"西多摩郡日の出町大久野711-1","lat":35.74944,"lon":139.24133},{"name":"宝光保育園","province":"東京都","city":"西多摩郡日の出町","address":"西多摩郡日の出町平井3389-1","lat":35.74556,"lon":139.26164},{"name":"さくらぎ保育園","province":"東京都","city":"西多摩郡日の出町","address":"西多摩郡日の出町平井661","lat":35.73905,"lon":139.27295},{"name":"さくらぎこぱん","province":"東京都","city":"西多摩郡日の出町","address":"西多摩郡日の出町平井673-1","lat":35.74571,"lon":139.26711},{"name":"さくらぎこぱん","province":"東京都","city":"西多摩郡日の出町","address":"西多摩郡日の出町平井673-1","lat":35.74148,"lon":139.27971},{"name":"大久野保育園","province":"東京都","city":"西多摩郡日の出町","address":"西多摩郡日の出町大久野1660-1","lat":35.76409,"lon":139.21674},{"name":"大正保育園","province":"東京都","city":"西多摩郡日の出町","address":"西多摩郡日の出町大久野711-1","lat":35.74944,"lon":139.24133},{"name":"宝光保育園","province":"東京都","city":"西多摩郡日の出町","address":"西多摩郡日の出町平井3389-1","lat":35.74556,"lon":139.26164},{"name":"さくらぎ保育園","province":"東京都","city":"西多摩郡日の出町","address":"西多摩郡日の出町平井661","lat":35.73905,"lon":139.27295},{"name":"さくらぎこぱん","province":"東京都","city":"西多摩郡日の出町","address":"西多摩郡日の出町平井673-1","lat":35.74571,"lon":139.26711},{"name":"さくらぎこぱん","province":"東京都","city":"西多摩郡日の出町","address":"西多摩郡日の出町平井673-1","lat":35.74148,"lon":139.27971},{"name":"大久野保育園","province":"東京都","city":"西多摩郡日の出町","address":"西多摩郡日の出町大久野1660-1","lat":35.76409,"lon":139.21674},{"name":"大正保育園","province":"東京都","city":"西多摩郡日の出町","address":"西多摩郡日の出町大久野711-1","lat":35.74944,"lon":139.24133},{"name":"宝光保育園","province":"東京都","city":"西多摩郡日の出町","address":"西多摩郡日の出町平井3389-1","lat":35.74556,"lon":139.26164},{"name":"さくらぎ保育園","province":"東京都","city":"西多摩郡日の出町","address":"西多摩郡日の出町平井661","lat":35.73905,"lon":139.27295},{"name":"さくらぎこぱん","province":"東京都","city":"西多摩郡日の出町","address":"西多摩郡日の出町平井673-1","lat":35.74571,"lon":139.26711},{"name":"さくらぎこぱん","province":"東京都","city":"西多摩郡日の出町","address":"西多摩郡日の出町平井673-1","lat":35.74148,"lon":139.27971},{"name":"大久野保育園","province":"東京都","city":"西多摩郡日の出町","address":"西多摩郡日の出町大久野1660-1","lat":35.76409,"lon":139.21674},{"name":"大正保育園","province":"東京都","city":"西多摩郡日の出町","address":"西多摩郡日の出町大久野711-1","lat":35.74944,"lon":139.24133},{"name":"宝光保育園","province":"東京都","city":"西多摩郡日の出町","address":"西多摩郡日の出町平井3389-1","lat":35.74556,"lon":139.26164},{"name":"さくらぎ保育園","province":"東京都","city":"西多摩郡日の出町","address":"西多摩郡日の出町平井661","lat":35.73905,"lon":139.27295},{"name":"さくらぎこぱん","province":"東京都","city":"西多摩郡日の出町","address":"西多摩郡日の出町平井673-1","lat":35.74571,"lon":139.26711},{"name":"さくらぎこぱん","province":"東京都","city":"西多摩郡日の出町","address":"西多摩郡日の出町平井673-1","lat":35.74148,"lon":139.27971},{"name":"大久野保育園","province":"東京都","city":"西多摩郡日の出町","address":"西多摩郡日の出町大久野1660-1","lat":35.76409,"lon":139.21674},{"name":"大正保育園","province":"東京都","city":"西多摩郡日の出町","address":"西多摩郡日の出町大久野711-1","lat":35.74944,"lon":139.24133},{"name":"宝光保育園","province":"東京都","city":"西多摩郡日の出町","address":"西多摩郡日の出町平井3389-1","lat":35.74556,"lon":139.26164},{"name":"さくらぎ保育園","province":"東京都","city":"西多摩郡日の出町","address":"西多摩郡日の出町平井661","lat":35.73905,"lon":139.27295},{"name":"さくらぎこぱん","province":"東京都","city":"西多摩郡日の出町","address":"西多摩郡日の出町平井673-1","lat":35.74571,"lon":139.26711},{"name":"さくらぎこぱん","province":"東京都","city":"西多摩郡日の出町","address":"西多摩郡日の出町平井673-1","lat":35.74148,"lon":139.27971}]}