{"keyword":"戸数","data":[{"name":"日の出町社会福祉協議会","province":"東京都","city":"西多摩郡日の出町","address":"西多摩郡日の出町大字平井2780","lat":35.742114,"lon":139.257405},{"name":"日の出町社会福祉協議会","province":"東京都","city":"西多摩郡日の出町","address":"西多摩郡日の出町大字平井2780","lat":35.74244,"lon":139.25661},{"name":"日の出町在宅支援センター(日の出町包括支援センター)","province":"東京都","city":"西多摩郡日の出町","address":"西多摩郡日の出町大字大久野88-1","lat":35.742645,"lon":139.251236},{"name":"いきいき健康課高齢支援係","province":"東京都","city":"西多摩郡日の出町","address":"西多摩郡日の出町大字平井2780番地","lat":35.742443,"lon":139.256607},{"name":"想い出を語るロマンの杜ひので斎場","province":"東京都","city":"西多摩郡日の出町","address":"東京都西多摩郡日の出町平井（大字）3092","lat":35.75204107,"lon":139.25521292},{"name":"文化の森給水所","province":"東京都","city":"西多摩郡日の出町","address":"東京都西多摩郡日の出町平井（大字）3075","lat":35.74757768,"lon":139.2552131},{"name":"亜細亜大学日の出グラウンド","province":"東京都","city":"西多摩郡日の出町","address":"東京都西多摩郡日の出町平井（大字）1466","lat":35.73682361,"lon":139.26896791},{"name":"谷戸沢グラウンド","province":"東京都","city":"西多摩郡日の出町","address":"東京都西多摩郡日の出町平井（大字）3141","lat":35.75159946,"lon":139.25658506},{"name":"日の出町選挙管理委員会","province":"東京都","city":"西多摩郡日の出町","address":"西多摩郡日の出町平井2780","lat":35.742095,"lon":139.257423},{"name":"東京たまエコセメント化施設","province":"東京都","city":"西多摩郡日の出町","address":"日の出町大字大久野7642","lat":35.763477,"lon":139.249741},{"name":"日の出町社会福祉協議会","province":"東京都","city":"西多摩郡日の出町","address":"西多摩郡日の出町大字平井2780","lat":35.742114,"lon":139.257405},{"name":"日の出町社会福祉協議会","province":"東京都","city":"西多摩郡日の出町","address":"西多摩郡日の出町大字平井2780","lat":35.74244,"lon":139.25661},{"name":"日の出町在宅支援センター(日の出町包括支援センター)","province":"東京都","city":"西多摩郡日の出町","address":"西多摩郡日の出町大字大久野88-1","lat":35.742645,"lon":139.251236},{"name":"いきいき健康課高齢支援係","province":"東京都","city":"西多摩郡日の出町","address":"西多摩郡日の出町大字平井2780番地","lat":35.742443,"lon":139.256607},{"name":"想い出を語るロマンの杜ひので斎場","province":"東京都","city":"西多摩郡日の出町","address":"東京都西多摩郡日の出町平井（大字）3092","lat":35.75204107,"lon":139.25521292},{"name":"文化の森給水所","province":"東京都","city":"西多摩郡日の出町","address":"東京都西多摩郡日の出町平井（大字）3075","lat":35.74757768,"lon":139.2552131},{"name":"亜細亜大学日の出グラウンド","province":"東京都","city":"西多摩郡日の出町","address":"東京都西多摩郡日の出町平井（大字）1466","lat":35.73682361,"lon":139.26896791},{"name":"谷戸沢グラウンド","province":"東京都","city":"西多摩郡日の出町","address":"東京都西多摩郡日の出町平井（大字）3141","lat":35.75159946,"lon":139.25658506},{"name":"東京たまエコセメント化施設","province":"東京都","city":"西多摩郡日の出町","address":"日の出町大字大久野7642","lat":35.763477,"lon":139.249741},{"name":"日の出町在宅支援センター(日の出町包括支援センター)","province":"東京都","city":"西多摩郡日の出町","address":"西多摩郡日の出町大字大久野88-1","lat":35.742645,"lon":139.251236},{"name":"いきいき健康課高齢支援係","province":"東京都","city":"西多摩郡日の出町","address":"西多摩郡日の出町大字平井2780番地","lat":35.742443,"lon":139.256607},{"name":"日の出町在宅支援センター(日の出町包括支援センター)","province":"東京都","city":"西多摩郡日の出町","address":"西多摩郡日の出町大字大久野88-1","lat":35.742645,"lon":139.251236},{"name":"いきいき健康課高齢支援係","province":"東京都","city":"西多摩郡日の出町","address":"西多摩郡日の出町大字平井2780番地","lat":35.742443,"lon":139.256607},{"name":"日の出町在宅支援センター(日の出町包括支援センター)","province":"東京都","city":"西多摩郡日の出町","address":"西多摩郡日の出町大字大久野88-1","lat":35.742645,"lon":139.251236},{"name":"いきいき健康課高齢支援係","province":"東京都","city":"西多摩郡日の出町","address":"西多摩郡日の出町大字平井2780番地","lat":35.742443,"lon":139.256607},{"name":"日の出町在宅支援センター(日の出町包括支援センター)","province":"東京都","city":"西多摩郡日の出町","address":"西多摩郡日の出町大字大久野88-1","lat":35.742645,"lon":139.251236},{"name":"いきいき健康課高齢支援係","province":"東京都","city":"西多摩郡日の出町","address":"西多摩郡日の出町大字平井2780番地","lat":35.742443,"lon":139.256607},{"name":"日の出町在宅支援センター(日の出町包括支援センター)","province":"東京都","city":"西多摩郡日の出町","address":"西多摩郡日の出町大字大久野88-1","lat":35.742645,"lon":139.251236},{"name":"いきいき健康課高齢支援係","province":"東京都","city":"西多摩郡日の出町","address":"西多摩郡日の出町大字平井2780番地","lat":35.742443,"lon":139.256607},{"name":"日の出町在宅支援センター(日の出町包括支援センター)","province":"東京都","city":"西多摩郡日の出町","address":"西多摩郡日の出町大字大久野88-1","lat":35.742645,"lon":139.251236},{"name":"いきいき健康課高齢支援係","province":"東京都","city":"西多摩郡日の出町","address":"西多摩郡日の出町大字平井2780番地","lat":35.742443,"lon":139.256607},{"name":"日の出町在宅支援センター(日の出町包括支援センター)","province":"東京都","city":"西多摩郡日の出町","address":"西多摩郡日の出町大字大久野88-1","lat":35.742645,"lon":139.251236},{"name":"いきいき健康課高齢支援係","province":"東京都","city":"西多摩郡日の出町","address":"西多摩郡日の出町大字平井2780番地","lat":35.742443,"lon":139.256607},{"name":"日の出町在宅支援センター(日の出町包括支援センター)","province":"東京都","city":"西多摩郡日の出町","address":"西多摩郡日の出町大字大久野88-1","lat":35.742645,"lon":139.251236},{"name":"いきいき健康課高齢支援係","province":"東京都","city":"西多摩郡日の出町","address":"西多摩郡日の出町大字平井2780番地","lat":35.742443,"lon":139.256607},{"name":"日の出町在宅支援センター(日の出町包括支援センター)","province":"東京都","city":"西多摩郡日の出町","address":"西多摩郡日の出町大字大久野88-1","lat":35.742645,"lon":139.251236},{"name":"いきいき健康課高齢支援係","province":"東京都","city":"西多摩郡日の出町","address":"西多摩郡日の出町大字平井2780番地","lat":35.742443,"lon":139.256607},{"name":"日の出町在宅支援センター(日の出町包括支援センター)","province":"東京都","city":"西多摩郡日の出町","address":"西多摩郡日の出町大字大久野88-1","lat":35.742645,"lon":139.251236},{"name":"いきいき健康課高齢支援係","province":"東京都","city":"西多摩郡日の出町","address":"西多摩郡日の出町大字平井2780番地","lat":35.742443,"lon":139.256607},{"name":"日の出町在宅支援センター(日の出町包括支援センター)","province":"東京都","city":"西多摩郡日の出町","address":"西多摩郡日の出町大字大久野88-1","lat":35.742645,"lon":139.251236},{"name":"いきいき健康課高齢支援係","province":"東京都","city":"西多摩郡日の出町","address":"西多摩郡日の出町大字平井2780番地","lat":35.742443,"lon":139.256607},{"name":"日の出町在宅支援センター(日の出町包括支援センター)","province":"東京都","city":"西多摩郡日の出町","address":"西多摩郡日の出町大字大久野88-1","lat":35.742645,"lon":139.251236},{"name":"いきいき健康課高齢支援係","province":"東京都","city":"西多摩郡日の出町","address":"西多摩郡日の出町大字平井2780番地","lat":35.742443,"lon":139.256607},{"name":"日の出町在宅支援センター(日の出町包括支援センター)","province":"東京都","city":"西多摩郡日の出町","address":"西多摩郡日の出町大字大久野88-1","lat":35.742645,"lon":139.251236},{"name":"いきいき健康課高齢支援係","province":"東京都","city":"西多摩郡日の出町","address":"西多摩郡日の出町大字平井2780番地","lat":35.742443,"lon":139.256607},{"name":"日の出町在宅支援センター(日の出町包括支援センター)","province":"東京都","city":"西多摩郡日の出町","address":"西多摩郡日の出町大字大久野88-1","lat":35.742645,"lon":139.251236},{"name":"いきいき健康課高齢支援係","province":"東京都","city":"西多摩郡日の出町","address":"西多摩郡日の出町大字平井2780番地","lat":35.742443,"lon":139.256607},{"name":"日の出町在宅支援センター(日の出町包括支援センター)","province":"東京都","city":"西多摩郡日の出町","address":"西多摩郡日の出町大字大久野88-1","lat":35.742645,"lon":139.251236},{"name":"いきいき健康課高齢支援係","province":"東京都","city":"西多摩郡日の出町","address":"西多摩郡日の出町大字平井2780番地","lat":35.742443,"lon":139.256607},{"name":"日の出町在宅支援センター(日の出町包括支援センター)","province":"東京都","city":"西多摩郡日の出町","address":"西多摩郡日の出町大字大久野88-1","lat":35.742645,"lon":139.251236},{"name":"いきいき健康課高齢支援係","province":"東京都","city":"西多摩郡日の出町","address":"西多摩郡日の出町大字平井2780番地","lat":35.742443,"lon":139.256607},{"name":"日の出町在宅支援センター(日の出町包括支援センター)","province":"東京都","city":"西多摩郡日の出町","address":"西多摩郡日の出町大字大久野88-1","lat":35.742645,"lon":139.251236},{"name":"いきいき健康課高齢支援係","province":"東京都","city":"西多摩郡日の出町","address":"西多摩郡日の出町大字平井2780番地","lat":35.742443,"lon":139.256607},{"name":"日の出町在宅支援センター(日の出町包括支援センター)","province":"東京都","city":"西多摩郡日の出町","address":"西多摩郡日の出町大字大久野88-1","lat":35.742645,"lon":139.251236},{"name":"いきいき健康課高齢支援係","province":"東京都","city":"西多摩郡日の出町","address":"西多摩郡日の出町大字平井2780番地","lat":35.742443,"lon":139.256607},{"name":"日の出町在宅支援センター(日の出町包括支援センター)","province":"東京都","city":"西多摩郡日の出町","address":"西多摩郡日の出町大字大久野88-1","lat":35.742645,"lon":139.251236},{"name":"いきいき健康課高齢支援係","province":"東京都","city":"西多摩郡日の出町","address":"西多摩郡日の出町大字平井2780番地","lat":35.742443,"lon":139.256607}]}