{"keyword":"月間","data":[{"name":"こどもデイサービス　Poco　a　Poco","province":"東京都","city":"西多摩郡日の出町","address":"西多摩郡日の出町大久野1628-7","lat":35.744387,"lon":139.233581},{"name":"こどもデイサービス　Poco　a　Poco　第２","province":"東京都","city":"西多摩郡日の出町","address":"西多摩郡日の出町大字平井字三吉野欠上15-15","lat":35.738615,"lon":139.283147},{"name":"日の出町子ども家庭支援センター","province":"東京都","city":"西多摩郡日の出町","address":"日の出町大字平井2780日の出町役場1階子育て支援福祉課内","lat":35.742114,"lon":139.257405},{"name":"日の出町子ども家庭支援センター","province":"東京都","city":"西多摩郡日の出町","address":"日の出町大字平井2780日の出町役場1階子育て支援福祉課内","lat":35.74244,"lon":139.25661},{"name":"文化の森入口","province":"東京都","city":"西多摩郡日の出町","address":"東京都西多摩郡日の出町平井（大字）2714","lat":35.74252266,"lon":139.25657154},{"name":"阿伎留医療センター西","province":"東京都","city":"西多摩郡日の出町","address":"東京都西多摩郡日の出町平井（大字）1454-3","lat":35.73329631,"lon":139.27082622},{"name":"想い出を語るロマンの杜ひので斎場","province":"東京都","city":"西多摩郡日の出町","address":"東京都西多摩郡日の出町平井（大字）3092","lat":35.75204107,"lon":139.25521292},{"name":"文化の森給水所","province":"東京都","city":"西多摩郡日の出町","address":"東京都西多摩郡日の出町平井（大字）3075","lat":35.74757768,"lon":139.2552131},{"name":"亜細亜大学日の出グラウンド","province":"東京都","city":"西多摩郡日の出町","address":"東京都西多摩郡日の出町平井（大字）1466","lat":35.73682361,"lon":139.26896791},{"name":"谷戸沢グラウンド","province":"東京都","city":"西多摩郡日の出町","address":"東京都西多摩郡日の出町平井（大字）3141","lat":35.75159946,"lon":139.25658506},{"name":"日の出町保健センター","province":"東京都","city":"西多摩郡日の出町","address":"東京都西多摩郡日の出町平井（大字）2780","lat":35.74211436,"lon":139.25740482},{"name":"日の出町本庁舎","province":"東京都","city":"西多摩郡日の出町","address":"東京都西多摩郡日の出町平井（大字）2780","lat":35.74211436,"lon":139.25740482},{"name":"日の出町本庁舎","province":"東京都","city":"西多摩郡日の出町","address":"西多摩郡日の出町大字平井2780","lat":35.742115,"lon":139.257405},{"name":"亜細亜大学日の出グランド","province":"東京都","city":"西多摩郡日の出町","address":"日の出町平井1466","lat":35.73674,"lon":139.2695},{"name":"※日の出町本庁舎","province":"東京都","city":"西多摩郡日の出町","address":"東京都西多摩郡日の出町平井（大字）2780","lat":35.74211436,"lon":139.25740482},{"name":"思い出を語るロマン社ひので斎場","province":"東京都","city":"西多摩郡日の出町","address":"東京都西多摩郡日の出町平井（大字）3092","lat":35.75204107,"lon":139.25521292},{"name":"こどもデイサービス　Poco　a　Poco","province":"東京都","city":"西多摩郡日の出町","address":"西多摩郡日の出町大久野1628-7","lat":35.744387,"lon":139.233581},{"name":"こどもデイサービス　Poco　a　Poco　第２","province":"東京都","city":"西多摩郡日の出町","address":"西多摩郡日の出町大字平井字三吉野欠上15-15","lat":35.738615,"lon":139.283147},{"name":"日の出町子ども家庭支援センター","province":"東京都","city":"西多摩郡日の出町","address":"日の出町大字平井2780日の出町役場1階子育て支援福祉課内","lat":35.742114,"lon":139.257405},{"name":"日の出町子ども家庭支援センター","province":"東京都","city":"西多摩郡日の出町","address":"日の出町大字平井2780日の出町役場1階子育て支援福祉課内","lat":35.74244,"lon":139.25661},{"name":"文化の森入口","province":"東京都","city":"西多摩郡日の出町","address":"東京都西多摩郡日の出町平井（大字）2714","lat":35.74252266,"lon":139.25657154},{"name":"阿伎留医療センター西","province":"東京都","city":"西多摩郡日の出町","address":"東京都西多摩郡日の出町平井（大字）1454-3","lat":35.73329631,"lon":139.27082622},{"name":"想い出を語るロマンの杜ひので斎場","province":"東京都","city":"西多摩郡日の出町","address":"東京都西多摩郡日の出町平井（大字）3092","lat":35.75204107,"lon":139.25521292},{"name":"文化の森給水所","province":"東京都","city":"西多摩郡日の出町","address":"東京都西多摩郡日の出町平井（大字）3075","lat":35.74757768,"lon":139.2552131},{"name":"亜細亜大学日の出グラウンド","province":"東京都","city":"西多摩郡日の出町","address":"東京都西多摩郡日の出町平井（大字）1466","lat":35.73682361,"lon":139.26896791},{"name":"谷戸沢グラウンド","province":"東京都","city":"西多摩郡日の出町","address":"東京都西多摩郡日の出町平井（大字）3141","lat":35.75159946,"lon":139.25658506},{"name":"こどもデイサービス　Poco　a　Poco","province":"東京都","city":"西多摩郡日の出町","address":"西多摩郡日の出町大久野1628-7","lat":35.744387,"lon":139.233581},{"name":"こどもデイサービス　Poco　a　Poco　第２","province":"東京都","city":"西多摩郡日の出町","address":"西多摩郡日の出町大字平井字三吉野欠上15-15","lat":35.738615,"lon":139.283147},{"name":"日の出町子ども家庭支援センター","province":"東京都","city":"西多摩郡日の出町","address":"日の出町大字平井2780日の出町役場1階子育て支援福祉課内","lat":35.742114,"lon":139.257405},{"name":"日の出町子ども家庭支援センター","province":"東京都","city":"西多摩郡日の出町","address":"日の出町大字平井2780日の出町役場1階子育て支援福祉課内","lat":35.74244,"lon":139.25661},{"name":"文化の森入口","province":"東京都","city":"西多摩郡日の出町","address":"東京都西多摩郡日の出町平井（大字）2714","lat":35.74252266,"lon":139.25657154},{"name":"阿伎留医療センター西","province":"東京都","city":"西多摩郡日の出町","address":"東京都西多摩郡日の出町平井（大字）1454-3","lat":35.73329631,"lon":139.27082622},{"name":"想い出を語るロマンの杜ひので斎場","province":"東京都","city":"西多摩郡日の出町","address":"東京都西多摩郡日の出町平井（大字）3092","lat":35.75204107,"lon":139.25521292},{"name":"文化の森給水所","province":"東京都","city":"西多摩郡日の出町","address":"東京都西多摩郡日の出町平井（大字）3075","lat":35.74757768,"lon":139.2552131},{"name":"亜細亜大学日の出グラウンド","province":"東京都","city":"西多摩郡日の出町","address":"東京都西多摩郡日の出町平井（大字）1466","lat":35.73682361,"lon":139.26896791},{"name":"谷戸沢グラウンド","province":"東京都","city":"西多摩郡日の出町","address":"東京都西多摩郡日の出町平井（大字）3141","lat":35.75159946,"lon":139.25658506},{"name":"こどもデイサービス　Poco　a　Poco","province":"東京都","city":"西多摩郡日の出町","address":"西多摩郡日の出町大久野1628-7","lat":35.744387,"lon":139.233581},{"name":"こどもデイサービス　Poco　a　Poco　第２","province":"東京都","city":"西多摩郡日の出町","address":"西多摩郡日の出町大字平井字三吉野欠上15-15","lat":35.738615,"lon":139.283147},{"name":"日の出町子ども家庭支援センター","province":"東京都","city":"西多摩郡日の出町","address":"日の出町大字平井2780日の出町役場1階子育て支援福祉課内","lat":35.742114,"lon":139.257405},{"name":"日の出町子ども家庭支援センター","province":"東京都","city":"西多摩郡日の出町","address":"日の出町大字平井2780日の出町役場1階子育て支援福祉課内","lat":35.74244,"lon":139.25661},{"name":"想い出を語るロマンの杜ひので斎場","province":"東京都","city":"西多摩郡日の出町","address":"東京都西多摩郡日の出町平井（大字）3092","lat":35.75204107,"lon":139.25521292},{"name":"亜細亜大学日の出グラウンド","province":"東京都","city":"西多摩郡日の出町","address":"東京都西多摩郡日の出町平井（大字）1466","lat":35.73682361,"lon":139.26896791},{"name":"谷戸沢グラウンド","province":"東京都","city":"西多摩郡日の出町","address":"東京都西多摩郡日の出町平井（大字）3141","lat":35.75159946,"lon":139.25658506},{"name":"こどもデイサービス　Poco　a　Poco","province":"東京都","city":"西多摩郡日の出町","address":"西多摩郡日の出町大久野1628-7","lat":35.744387,"lon":139.233581},{"name":"こどもデイサービス　Poco　a　Poco　第２","province":"東京都","city":"西多摩郡日の出町","address":"西多摩郡日の出町大字平井字三吉野欠上15-15","lat":35.738615,"lon":139.283147},{"name":"日の出町子ども家庭支援センター","province":"東京都","city":"西多摩郡日の出町","address":"日の出町大字平井2780日の出町役場1階子育て支援福祉課内","lat":35.742114,"lon":139.257405},{"name":"日の出町子ども家庭支援センター","province":"東京都","city":"西多摩郡日の出町","address":"日の出町大字平井2780日の出町役場1階子育て支援福祉課内","lat":35.74244,"lon":139.25661},{"name":"想い出を語るロマンの杜ひので斎場","province":"東京都","city":"西多摩郡日の出町","address":"東京都西多摩郡日の出町平井（大字）3092","lat":35.75204107,"lon":139.25521292},{"name":"こどもデイサービス　Poco　a　Poco","province":"東京都","city":"西多摩郡日の出町","address":"西多摩郡日の出町大久野1628-7","lat":35.744387,"lon":139.233581},{"name":"こどもデイサービス　Poco　a　Poco　第２","province":"東京都","city":"西多摩郡日の出町","address":"西多摩郡日の出町大字平井字三吉野欠上15-15","lat":35.738615,"lon":139.283147},{"name":"日の出町子ども家庭支援センター","province":"東京都","city":"西多摩郡日の出町","address":"日の出町大字平井2780日の出町役場1階子育て支援福祉課内","lat":35.742114,"lon":139.257405},{"name":"日の出町子ども家庭支援センター","province":"東京都","city":"西多摩郡日の出町","address":"日の出町大字平井2780日の出町役場1階子育て支援福祉課内","lat":35.74244,"lon":139.25661},{"name":"想い出を語るロマンの杜ひので斎場","province":"東京都","city":"西多摩郡日の出町","address":"東京都西多摩郡日の出町平井（大字）3092","lat":35.75204107,"lon":139.25521292},{"name":"こどもデイサービス　Poco　a　Poco","province":"東京都","city":"西多摩郡日の出町","address":"西多摩郡日の出町大久野1628-7","lat":35.744387,"lon":139.233581},{"name":"こどもデイサービス　Poco　a　Poco　第２","province":"東京都","city":"西多摩郡日の出町","address":"西多摩郡日の出町大字平井字三吉野欠上15-15","lat":35.738615,"lon":139.283147},{"name":"日の出町子ども家庭支援センター","province":"東京都","city":"西多摩郡日の出町","address":"日の出町大字平井2780日の出町役場1階子育て支援福祉課内","lat":35.742114,"lon":139.257405},{"name":"日の出町子ども家庭支援センター","province":"東京都","city":"西多摩郡日の出町","address":"日の出町大字平井2780日の出町役場1階子育て支援福祉課内","lat":35.74244,"lon":139.25661},{"name":"想い出を語るロマンの杜ひので斎場","province":"東京都","city":"西多摩郡日の出町","address":"東京都西多摩郡日の出町平井（大字）3092","lat":35.75204107,"lon":139.25521292},{"name":"こどもデイサービス　Poco　a　Poco","province":"東京都","city":"西多摩郡日の出町","address":"西多摩郡日の出町大久野1628-7","lat":35.744387,"lon":139.233581},{"name":"こどもデイサービス　Poco　a　Poco　第２","province":"東京都","city":"西多摩郡日の出町","address":"西多摩郡日の出町大字平井字三吉野欠上15-15","lat":35.738615,"lon":139.283147},{"name":"日の出町子ども家庭支援センター","province":"東京都","city":"西多摩郡日の出町","address":"日の出町大字平井2780日の出町役場1階子育て支援福祉課内","lat":35.742114,"lon":139.257405},{"name":"日の出町子ども家庭支援センター","province":"東京都","city":"西多摩郡日の出町","address":"日の出町大字平井2780日の出町役場1階子育て支援福祉課内","lat":35.74244,"lon":139.25661},{"name":"想い出を語るロマンの杜ひので斎場","province":"東京都","city":"西多摩郡日の出町","address":"東京都西多摩郡日の出町平井（大字）3092","lat":35.75204107,"lon":139.25521292},{"name":"こどもデイサービス　Poco　a　Poco","province":"東京都","city":"西多摩郡日の出町","address":"西多摩郡日の出町大久野1628-7","lat":35.744387,"lon":139.233581},{"name":"こどもデイサービス　Poco　a　Poco　第２","province":"東京都","city":"西多摩郡日の出町","address":"西多摩郡日の出町大字平井字三吉野欠上15-15","lat":35.738615,"lon":139.283147},{"name":"日の出町子ども家庭支援センター","province":"東京都","city":"西多摩郡日の出町","address":"日の出町大字平井2780日の出町役場1階子育て支援福祉課内","lat":35.742114,"lon":139.257405},{"name":"日の出町子ども家庭支援センター","province":"東京都","city":"西多摩郡日の出町","address":"日の出町大字平井2780日の出町役場1階子育て支援福祉課内","lat":35.74244,"lon":139.25661},{"name":"想い出を語るロマンの杜ひので斎場","province":"東京都","city":"西多摩郡日の出町","address":"東京都西多摩郡日の出町平井（大字）3092","lat":35.75204107,"lon":139.25521292},{"name":"こどもデイサービス　Poco　a　Poco","province":"東京都","city":"西多摩郡日の出町","address":"西多摩郡日の出町大久野1628-7","lat":35.744387,"lon":139.233581},{"name":"こどもデイサービス　Poco　a　Poco　第２","province":"東京都","city":"西多摩郡日の出町","address":"西多摩郡日の出町大字平井字三吉野欠上15-15","lat":35.738615,"lon":139.283147},{"name":"日の出町子ども家庭支援センター","province":"東京都","city":"西多摩郡日の出町","address":"日の出町大字平井2780日の出町役場1階子育て支援福祉課内","lat":35.742114,"lon":139.257405},{"name":"日の出町子ども家庭支援センター","province":"東京都","city":"西多摩郡日の出町","address":"日の出町大字平井2780日の出町役場1階子育て支援福祉課内","lat":35.74244,"lon":139.25661},{"name":"想い出を語るロマンの杜ひので斎場","province":"東京都","city":"西多摩郡日の出町","address":"東京都西多摩郡日の出町平井（大字）3092","lat":35.75204107,"lon":139.25521292},{"name":"こどもデイサービス　Poco　a　Poco","province":"東京都","city":"西多摩郡日の出町","address":"西多摩郡日の出町大久野1628-7","lat":35.744387,"lon":139.233581},{"name":"こどもデイサービス　Poco　a　Poco　第２","province":"東京都","city":"西多摩郡日の出町","address":"西多摩郡日の出町大字平井字三吉野欠上15-15","lat":35.738615,"lon":139.283147},{"name":"日の出町子ども家庭支援センター","province":"東京都","city":"西多摩郡日の出町","address":"日の出町大字平井2780日の出町役場1階子育て支援福祉課内","lat":35.742114,"lon":139.257405},{"name":"日の出町子ども家庭支援センター","province":"東京都","city":"西多摩郡日の出町","address":"日の出町大字平井2780日の出町役場1階子育て支援福祉課内","lat":35.74244,"lon":139.25661},{"name":"想い出を語るロマンの杜ひので斎場","province":"東京都","city":"西多摩郡日の出町","address":"東京都西多摩郡日の出町平井（大字）3092","lat":35.75204107,"lon":139.25521292},{"name":"こどもデイサービス　Poco　a　Poco","province":"東京都","city":"西多摩郡日の出町","address":"西多摩郡日の出町大久野1628-7","lat":35.744387,"lon":139.233581},{"name":"こどもデイサービス　Poco　a　Poco　第２","province":"東京都","city":"西多摩郡日の出町","address":"西多摩郡日の出町大字平井字三吉野欠上15-15","lat":35.738615,"lon":139.283147},{"name":"日の出町子ども家庭支援センター","province":"東京都","city":"西多摩郡日の出町","address":"日の出町大字平井2780日の出町役場1階子育て支援福祉課内","lat":35.742114,"lon":139.257405},{"name":"日の出町子ども家庭支援センター","province":"東京都","city":"西多摩郡日の出町","address":"日の出町大字平井2780日の出町役場1階子育て支援福祉課内","lat":35.74244,"lon":139.25661},{"name":"想い出を語るロマンの杜ひので斎場","province":"東京都","city":"西多摩郡日の出町","address":"東京都西多摩郡日の出町平井（大字）3092","lat":35.75204107,"lon":139.25521292},{"name":"こどもデイサービス　Poco　a　Poco","province":"東京都","city":"西多摩郡日の出町","address":"西多摩郡日の出町大久野1628-7","lat":35.744387,"lon":139.233581},{"name":"こどもデイサービス　Poco　a　Poco　第２","province":"東京都","city":"西多摩郡日の出町","address":"西多摩郡日の出町大字平井字三吉野欠上15-15","lat":35.738615,"lon":139.283147},{"name":"日の出町子ども家庭支援センター","province":"東京都","city":"西多摩郡日の出町","address":"日の出町大字平井2780日の出町役場1階子育て支援福祉課内","lat":35.742114,"lon":139.257405},{"name":"日の出町子ども家庭支援センター","province":"東京都","city":"西多摩郡日の出町","address":"日の出町大字平井2780日の出町役場1階子育て支援福祉課内","lat":35.74244,"lon":139.25661},{"name":"想い出を語るロマンの杜ひので斎場","province":"東京都","city":"西多摩郡日の出町","address":"東京都西多摩郡日の出町平井（大字）3092","lat":35.75204107,"lon":139.25521292},{"name":"こどもデイサービス　Poco　a　Poco","province":"東京都","city":"西多摩郡日の出町","address":"西多摩郡日の出町大久野1628-7","lat":35.744387,"lon":139.233581},{"name":"こどもデイサービス　Poco　a　Poco　第２","province":"東京都","city":"西多摩郡日の出町","address":"西多摩郡日の出町大字平井字三吉野欠上15-15","lat":35.738615,"lon":139.283147},{"name":"日の出町子ども家庭支援センター","province":"東京都","city":"西多摩郡日の出町","address":"日の出町大字平井2780日の出町役場1階子育て支援福祉課内","lat":35.742114,"lon":139.257405},{"name":"日の出町子ども家庭支援センター","province":"東京都","city":"西多摩郡日の出町","address":"日の出町大字平井2780日の出町役場1階子育て支援福祉課内","lat":35.74244,"lon":139.25661},{"name":"想い出を語るロマンの杜ひので斎場","province":"東京都","city":"西多摩郡日の出町","address":"東京都西多摩郡日の出町平井（大字）3092","lat":35.75204107,"lon":139.25521292},{"name":"こどもデイサービス　Poco　a　Poco","province":"東京都","city":"西多摩郡日の出町","address":"西多摩郡日の出町大久野1628-7","lat":35.744387,"lon":139.233581},{"name":"こどもデイサービス　Poco　a　Poco　第２","province":"東京都","city":"西多摩郡日の出町","address":"西多摩郡日の出町大字平井字三吉野欠上15-15","lat":35.738615,"lon":139.283147},{"name":"日の出町子ども家庭支援センター","province":"東京都","city":"西多摩郡日の出町","address":"日の出町大字平井2780日の出町役場1階子育て支援福祉課内","lat":35.742114,"lon":139.257405},{"name":"日の出町子ども家庭支援センター","province":"東京都","city":"西多摩郡日の出町","address":"日の出町大字平井2780日の出町役場1階子育て支援福祉課内","lat":35.74244,"lon":139.25661},{"name":"想い出を語るロマンの杜ひので斎場","province":"東京都","city":"西多摩郡日の出町","address":"東京都西多摩郡日の出町平井（大字）3092","lat":35.75204107,"lon":139.25521292},{"name":"こどもデイサービス　Poco　a　Poco","province":"東京都","city":"西多摩郡日の出町","address":"西多摩郡日の出町大久野1628-7","lat":35.744387,"lon":139.233581},{"name":"こどもデイサービス　Poco　a　Poco　第２","province":"東京都","city":"西多摩郡日の出町","address":"西多摩郡日の出町大字平井字三吉野欠上15-15","lat":35.738615,"lon":139.283147},{"name":"日の出町子ども家庭支援センター","province":"東京都","city":"西多摩郡日の出町","address":"日の出町大字平井2780日の出町役場1階子育て支援福祉課内","lat":35.742114,"lon":139.257405},{"name":"日の出町子ども家庭支援センター","province":"東京都","city":"西多摩郡日の出町","address":"日の出町大字平井2780日の出町役場1階子育て支援福祉課内","lat":35.74244,"lon":139.25661},{"name":"想い出を語るロマンの杜ひので斎場","province":"東京都","city":"西多摩郡日の出町","address":"東京都西多摩郡日の出町平井（大字）3092","lat":35.75204107,"lon":139.25521292},{"name":"こどもデイサービス　Poco　a　Poco","province":"東京都","city":"西多摩郡日の出町","address":"西多摩郡日の出町大久野1628-7","lat":35.744387,"lon":139.233581},{"name":"こどもデイサービス　Poco　a　Poco　第２","province":"東京都","city":"西多摩郡日の出町","address":"西多摩郡日の出町大字平井字三吉野欠上15-15","lat":35.738615,"lon":139.283147},{"name":"日の出町子ども家庭支援センター","province":"東京都","city":"西多摩郡日の出町","address":"日の出町大字平井2780日の出町役場1階子育て支援福祉課内","lat":35.742114,"lon":139.257405},{"name":"日の出町子ども家庭支援センター","province":"東京都","city":"西多摩郡日の出町","address":"日の出町大字平井2780日の出町役場1階子育て支援福祉課内","lat":35.74244,"lon":139.25661},{"name":"想い出を語るロマンの杜ひので斎場","province":"東京都","city":"西多摩郡日の出町","address":"東京都西多摩郡日の出町平井（大字）3092","lat":35.75204107,"lon":139.25521292},{"name":"こどもデイサービス　Poco　a　Poco","province":"東京都","city":"西多摩郡日の出町","address":"西多摩郡日の出町大久野1628-7","lat":35.744387,"lon":139.233581},{"name":"こどもデイサービス　Poco　a　Poco　第２","province":"東京都","city":"西多摩郡日の出町","address":"西多摩郡日の出町大字平井字三吉野欠上15-15","lat":35.738615,"lon":139.283147},{"name":"日の出町子ども家庭支援センター","province":"東京都","city":"西多摩郡日の出町","address":"日の出町大字平井2780日の出町役場1階子育て支援福祉課内","lat":35.742114,"lon":139.257405},{"name":"日の出町子ども家庭支援センター","province":"東京都","city":"西多摩郡日の出町","address":"日の出町大字平井2780日の出町役場1階子育て支援福祉課内","lat":35.74244,"lon":139.25661},{"name":"想い出を語るロマンの杜ひので斎場","province":"東京都","city":"西多摩郡日の出町","address":"東京都西多摩郡日の出町平井（大字）3092","lat":35.75204107,"lon":139.25521292},{"name":"こどもデイサービス　Poco　a　Poco","province":"東京都","city":"西多摩郡日の出町","address":"西多摩郡日の出町大久野1628-7","lat":35.744387,"lon":139.233581},{"name":"こどもデイサービス　Poco　a　Poco　第２","province":"東京都","city":"西多摩郡日の出町","address":"西多摩郡日の出町大字平井字三吉野欠上15-15","lat":35.738615,"lon":139.283147},{"name":"日の出町子ども家庭支援センター","province":"東京都","city":"西多摩郡日の出町","address":"日の出町大字平井2780日の出町役場1階子育て支援福祉課内","lat":35.742114,"lon":139.257405},{"name":"日の出町子ども家庭支援センター","province":"東京都","city":"西多摩郡日の出町","address":"日の出町大字平井2780日の出町役場1階子育て支援福祉課内","lat":35.74244,"lon":139.25661},{"name":"想い出を語るロマンの杜ひので斎場","province":"東京都","city":"西多摩郡日の出町","address":"東京都西多摩郡日の出町平井（大字）3092","lat":35.75204107,"lon":139.25521292},{"name":"こどもデイサービス　Poco　a　Poco","province":"東京都","city":"西多摩郡日の出町","address":"西多摩郡日の出町大久野1628-7","lat":35.744387,"lon":139.233581},{"name":"こどもデイサービス　Poco　a　Poco　第２","province":"東京都","city":"西多摩郡日の出町","address":"西多摩郡日の出町大字平井字三吉野欠上15-15","lat":35.738615,"lon":139.283147},{"name":"日の出町子ども家庭支援センター","province":"東京都","city":"西多摩郡日の出町","address":"日の出町大字平井2780日の出町役場1階子育て支援福祉課内","lat":35.742114,"lon":139.257405},{"name":"日の出町子ども家庭支援センター","province":"東京都","city":"西多摩郡日の出町","address":"日の出町大字平井2780日の出町役場1階子育て支援福祉課内","lat":35.74244,"lon":139.25661},{"name":"想い出を語るロマンの杜ひので斎場","province":"東京都","city":"西多摩郡日の出町","address":"東京都西多摩郡日の出町平井（大字）3092","lat":35.75204107,"lon":139.25521292},{"name":"こどもデイサービス　Poco　a　Poco","province":"東京都","city":"西多摩郡日の出町","address":"西多摩郡日の出町大久野1628-7","lat":35.744387,"lon":139.233581},{"name":"こどもデイサービス　Poco　a　Poco　第２","province":"東京都","city":"西多摩郡日の出町","address":"西多摩郡日の出町大字平井字三吉野欠上15-15","lat":35.738615,"lon":139.283147},{"name":"日の出町子ども家庭支援センター","province":"東京都","city":"西多摩郡日の出町","address":"日の出町大字平井2780日の出町役場1階子育て支援福祉課内","lat":35.742114,"lon":139.257405},{"name":"日の出町子ども家庭支援センター","province":"東京都","city":"西多摩郡日の出町","address":"日の出町大字平井2780日の出町役場1階子育て支援福祉課内","lat":35.74244,"lon":139.25661},{"name":"想い出を語るロマンの杜ひので斎場","province":"東京都","city":"西多摩郡日の出町","address":"東京都西多摩郡日の出町平井（大字）3092","lat":35.75204107,"lon":139.25521292},{"name":"こどもデイサービス　Poco　a　Poco","province":"東京都","city":"西多摩郡日の出町","address":"西多摩郡日の出町大久野1628-7","lat":35.744387,"lon":139.233581},{"name":"こどもデイサービス　Poco　a　Poco　第２","province":"東京都","city":"西多摩郡日の出町","address":"西多摩郡日の出町大字平井字三吉野欠上15-15","lat":35.738615,"lon":139.283147},{"name":"日の出町子ども家庭支援センター","province":"東京都","city":"西多摩郡日の出町","address":"日の出町大字平井2780日の出町役場1階子育て支援福祉課内","lat":35.742114,"lon":139.257405},{"name":"日の出町子ども家庭支援センター","province":"東京都","city":"西多摩郡日の出町","address":"日の出町大字平井2780日の出町役場1階子育て支援福祉課内","lat":35.74244,"lon":139.25661},{"name":"想い出を語るロマンの杜ひので斎場","province":"東京都","city":"西多摩郡日の出町","address":"東京都西多摩郡日の出町平井（大字）3092","lat":35.75204107,"lon":139.25521292},{"name":"こどもデイサービス　Poco　a　Poco","province":"東京都","city":"西多摩郡日の出町","address":"西多摩郡日の出町大久野1628-7","lat":35.744387,"lon":139.233581},{"name":"こどもデイサービス　Poco　a　Poco　第２","province":"東京都","city":"西多摩郡日の出町","address":"西多摩郡日の出町大字平井字三吉野欠上15-15","lat":35.738615,"lon":139.283147},{"name":"日の出町子ども家庭支援センター","province":"東京都","city":"西多摩郡日の出町","address":"日の出町大字平井2780日の出町役場1階子育て支援福祉課内","lat":35.742114,"lon":139.257405},{"name":"日の出町子ども家庭支援センター","province":"東京都","city":"西多摩郡日の出町","address":"日の出町大字平井2780日の出町役場1階子育て支援福祉課内","lat":35.74244,"lon":139.25661},{"name":"想い出を語るロマンの杜ひので斎場","province":"東京都","city":"西多摩郡日の出町","address":"東京都西多摩郡日の出町平井（大字）3092","lat":35.75204107,"lon":139.25521292},{"name":"こどもデイサービス　Poco　a　Poco","province":"東京都","city":"西多摩郡日の出町","address":"西多摩郡日の出町大久野1628-7","lat":35.744387,"lon":139.233581},{"name":"こどもデイサービス　Poco　a　Poco　第２","province":"東京都","city":"西多摩郡日の出町","address":"西多摩郡日の出町大字平井字三吉野欠上15-15","lat":35.738615,"lon":139.283147},{"name":"日の出町子ども家庭支援センター","province":"東京都","city":"西多摩郡日の出町","address":"日の出町大字平井2780日の出町役場1階子育て支援福祉課内","lat":35.742114,"lon":139.257405},{"name":"日の出町子ども家庭支援センター","province":"東京都","city":"西多摩郡日の出町","address":"日の出町大字平井2780日の出町役場1階子育て支援福祉課内","lat":35.74244,"lon":139.25661},{"name":"想い出を語るロマンの杜ひので斎場","province":"東京都","city":"西多摩郡日の出町","address":"東京都西多摩郡日の出町平井（大字）3092","lat":35.75204107,"lon":139.25521292},{"name":"こどもデイサービス　Poco　a　Poco","province":"東京都","city":"西多摩郡日の出町","address":"西多摩郡日の出町大久野1628-7","lat":35.744387,"lon":139.233581},{"name":"こどもデイサービス　Poco　a　Poco　第２","province":"東京都","city":"西多摩郡日の出町","address":"西多摩郡日の出町大字平井字三吉野欠上15-15","lat":35.738615,"lon":139.283147},{"name":"日の出町子ども家庭支援センター","province":"東京都","city":"西多摩郡日の出町","address":"日の出町大字平井2780日の出町役場1階子育て支援福祉課内","lat":35.742114,"lon":139.257405},{"name":"日の出町子ども家庭支援センター","province":"東京都","city":"西多摩郡日の出町","address":"日の出町大字平井2780日の出町役場1階子育て支援福祉課内","lat":35.74244,"lon":139.25661},{"name":"想い出を語るロマンの杜ひので斎場","province":"東京都","city":"西多摩郡日の出町","address":"東京都西多摩郡日の出町平井（大字）3092","lat":35.75204107,"lon":139.25521292},{"name":"こどもデイサービス　Poco　a　Poco","province":"東京都","city":"西多摩郡日の出町","address":"西多摩郡日の出町大久野1628-7","lat":35.744387,"lon":139.233581},{"name":"こどもデイサービス　Poco　a　Poco　第２","province":"東京都","city":"西多摩郡日の出町","address":"西多摩郡日の出町大字平井字三吉野欠上15-15","lat":35.738615,"lon":139.283147},{"name":"日の出町子ども家庭支援センター","province":"東京都","city":"西多摩郡日の出町","address":"日の出町大字平井2780日の出町役場1階子育て支援福祉課内","lat":35.742114,"lon":139.257405},{"name":"日の出町子ども家庭支援センター","province":"東京都","city":"西多摩郡日の出町","address":"日の出町大字平井2780日の出町役場1階子育て支援福祉課内","lat":35.74244,"lon":139.25661},{"name":"こどもデイサービス　Poco　a　Poco","province":"東京都","city":"西多摩郡日の出町","address":"西多摩郡日の出町大久野1628-7","lat":35.744387,"lon":139.233581},{"name":"こどもデイサービス　Poco　a　Poco　第２","province":"東京都","city":"西多摩郡日の出町","address":"西多摩郡日の出町大字平井字三吉野欠上15-15","lat":35.738615,"lon":139.283147},{"name":"日の出町子ども家庭支援センター","province":"東京都","city":"西多摩郡日の出町","address":"日の出町大字平井2780日の出町役場1階子育て支援福祉課内","lat":35.742114,"lon":139.257405},{"name":"日の出町子ども家庭支援センター","province":"東京都","city":"西多摩郡日の出町","address":"日の出町大字平井2780日の出町役場1階子育て支援福祉課内","lat":35.74244,"lon":139.25661},{"name":"こどもデイサービス　Poco　a　Poco","province":"東京都","city":"西多摩郡日の出町","address":"西多摩郡日の出町大久野1628-7","lat":35.744387,"lon":139.233581},{"name":"こどもデイサービス　Poco　a　Poco　第２","province":"東京都","city":"西多摩郡日の出町","address":"西多摩郡日の出町大字平井字三吉野欠上15-15","lat":35.738615,"lon":139.283147},{"name":"日の出町子ども家庭支援センター","province":"東京都","city":"西多摩郡日の出町","address":"日の出町大字平井2780日の出町役場1階子育て支援福祉課内","lat":35.742114,"lon":139.257405},{"name":"日の出町子ども家庭支援センター","province":"東京都","city":"西多摩郡日の出町","address":"日の出町大字平井2780日の出町役場1階子育て支援福祉課内","lat":35.74244,"lon":139.25661},{"name":"こどもデイサービス　Poco　a　Poco","province":"東京都","city":"西多摩郡日の出町","address":"西多摩郡日の出町大久野1628-7","lat":35.744387,"lon":139.233581},{"name":"こどもデイサービス　Poco　a　Poco　第２","province":"東京都","city":"西多摩郡日の出町","address":"西多摩郡日の出町大字平井字三吉野欠上15-15","lat":35.738615,"lon":139.283147},{"name":"日の出町子ども家庭支援センター","province":"東京都","city":"西多摩郡日の出町","address":"日の出町大字平井2780日の出町役場1階子育て支援福祉課内","lat":35.742114,"lon":139.257405},{"name":"日の出町子ども家庭支援センター","province":"東京都","city":"西多摩郡日の出町","address":"日の出町大字平井2780日の出町役場1階子育て支援福祉課内","lat":35.74244,"lon":139.25661},{"name":"こどもデイサービス　Poco　a　Poco","province":"東京都","city":"西多摩郡日の出町","address":"西多摩郡日の出町大久野1628-7","lat":35.744387,"lon":139.233581},{"name":"こどもデイサービス　Poco　a　Poco　第２","province":"東京都","city":"西多摩郡日の出町","address":"西多摩郡日の出町大字平井字三吉野欠上15-15","lat":35.738615,"lon":139.283147},{"name":"日の出町子ども家庭支援センター","province":"東京都","city":"西多摩郡日の出町","address":"日の出町大字平井2780日の出町役場1階子育て支援福祉課内","lat":35.742114,"lon":139.257405},{"name":"日の出町子ども家庭支援センター","province":"東京都","city":"西多摩郡日の出町","address":"日の出町大字平井2780日の出町役場1階子育て支援福祉課内","lat":35.74244,"lon":139.25661},{"name":"こどもデイサービス　Poco　a　Poco","province":"東京都","city":"西多摩郡日の出町","address":"西多摩郡日の出町大久野1628-7","lat":35.744387,"lon":139.233581},{"name":"こどもデイサービス　Poco　a　Poco　第２","province":"東京都","city":"西多摩郡日の出町","address":"西多摩郡日の出町大字平井字三吉野欠上15-15","lat":35.738615,"lon":139.283147},{"name":"日の出町子ども家庭支援センター","province":"東京都","city":"西多摩郡日の出町","address":"日の出町大字平井2780日の出町役場1階子育て支援福祉課内","lat":35.742114,"lon":139.257405},{"name":"日の出町子ども家庭支援センター","province":"東京都","city":"西多摩郡日の出町","address":"日の出町大字平井2780日の出町役場1階子育て支援福祉課内","lat":35.74244,"lon":139.25661},{"name":"こどもデイサービス　Poco　a　Poco","province":"東京都","city":"西多摩郡日の出町","address":"西多摩郡日の出町大久野1628-7","lat":35.744387,"lon":139.233581},{"name":"こどもデイサービス　Poco　a　Poco　第２","province":"東京都","city":"西多摩郡日の出町","address":"西多摩郡日の出町大字平井字三吉野欠上15-15","lat":35.738615,"lon":139.283147},{"name":"日の出町子ども家庭支援センター","province":"東京都","city":"西多摩郡日の出町","address":"日の出町大字平井2780日の出町役場1階子育て支援福祉課内","lat":35.742114,"lon":139.257405},{"name":"日の出町子ども家庭支援センター","province":"東京都","city":"西多摩郡日の出町","address":"日の出町大字平井2780日の出町役場1階子育て支援福祉課内","lat":35.74244,"lon":139.25661},{"name":"こどもデイサービス　Poco　a　Poco","province":"東京都","city":"西多摩郡日の出町","address":"西多摩郡日の出町大久野1628-7","lat":35.744387,"lon":139.233581},{"name":"こどもデイサービス　Poco　a　Poco　第２","province":"東京都","city":"西多摩郡日の出町","address":"西多摩郡日の出町大字平井字三吉野欠上15-15","lat":35.738615,"lon":139.283147},{"name":"日の出町子ども家庭支援センター","province":"東京都","city":"西多摩郡日の出町","address":"日の出町大字平井2780日の出町役場1階子育て支援福祉課内","lat":35.742114,"lon":139.257405},{"name":"日の出町子ども家庭支援センター","province":"東京都","city":"西多摩郡日の出町","address":"日の出町大字平井2780日の出町役場1階子育て支援福祉課内","lat":35.74244,"lon":139.25661},{"name":"こどもデイサービス　Poco　a　Poco","province":"東京都","city":"西多摩郡日の出町","address":"西多摩郡日の出町大久野1628-7","lat":35.744387,"lon":139.233581},{"name":"こどもデイサービス　Poco　a　Poco　第２","province":"東京都","city":"西多摩郡日の出町","address":"西多摩郡日の出町大字平井字三吉野欠上15-15","lat":35.738615,"lon":139.283147},{"name":"日の出町子ども家庭支援センター","province":"東京都","city":"西多摩郡日の出町","address":"日の出町大字平井2780日の出町役場1階子育て支援福祉課内","lat":35.742114,"lon":139.257405},{"name":"日の出町子ども家庭支援センター","province":"東京都","city":"西多摩郡日の出町","address":"日の出町大字平井2780日の出町役場1階子育て支援福祉課内","lat":35.74244,"lon":139.25661},{"name":"こどもデイサービス　Poco　a　Poco","province":"東京都","city":"西多摩郡日の出町","address":"西多摩郡日の出町大久野1628-7","lat":35.744387,"lon":139.233581},{"name":"こどもデイサービス　Poco　a　Poco　第２","province":"東京都","city":"西多摩郡日の出町","address":"西多摩郡日の出町大字平井字三吉野欠上15-15","lat":35.738615,"lon":139.283147},{"name":"日の出町子ども家庭支援センター","province":"東京都","city":"西多摩郡日の出町","address":"日の出町大字平井2780日の出町役場1階子育て支援福祉課内","lat":35.742114,"lon":139.257405},{"name":"日の出町子ども家庭支援センター","province":"東京都","city":"西多摩郡日の出町","address":"日の出町大字平井2780日の出町役場1階子育て支援福祉課内","lat":35.74244,"lon":139.25661},{"name":"こどもデイサービス　Poco　a　Poco","province":"東京都","city":"西多摩郡日の出町","address":"西多摩郡日の出町大久野1628-7","lat":35.744387,"lon":139.233581},{"name":"こどもデイサービス　Poco　a　Poco　第２","province":"東京都","city":"西多摩郡日の出町","address":"西多摩郡日の出町大字平井字三吉野欠上15-15","lat":35.738615,"lon":139.283147},{"name":"日の出町子ども家庭支援センター","province":"東京都","city":"西多摩郡日の出町","address":"日の出町大字平井2780日の出町役場1階子育て支援福祉課内","lat":35.742114,"lon":139.257405},{"name":"日の出町子ども家庭支援センター","province":"東京都","city":"西多摩郡日の出町","address":"日の出町大字平井2780日の出町役場1階子育て支援福祉課内","lat":35.74244,"lon":139.25661},{"name":"こどもデイサービス　Poco　a　Poco","province":"東京都","city":"西多摩郡日の出町","address":"西多摩郡日の出町大久野1628-7","lat":35.744387,"lon":139.233581},{"name":"こどもデイサービス　Poco　a　Poco　第２","province":"東京都","city":"西多摩郡日の出町","address":"西多摩郡日の出町大字平井字三吉野欠上15-15","lat":35.738615,"lon":139.283147},{"name":"日の出町子ども家庭支援センター","province":"東京都","city":"西多摩郡日の出町","address":"日の出町大字平井2780日の出町役場1階子育て支援福祉課内","lat":35.742114,"lon":139.257405},{"name":"日の出町子ども家庭支援センター","province":"東京都","city":"西多摩郡日の出町","address":"日の出町大字平井2780日の出町役場1階子育て支援福祉課内","lat":35.74244,"lon":139.25661},{"name":"こどもデイサービス　Poco　a　Poco","province":"東京都","city":"西多摩郡日の出町","address":"西多摩郡日の出町大久野1628-7","lat":35.744387,"lon":139.233581},{"name":"こどもデイサービス　Poco　a　Poco　第２","province":"東京都","city":"西多摩郡日の出町","address":"西多摩郡日の出町大字平井字三吉野欠上15-15","lat":35.738615,"lon":139.283147},{"name":"日の出町子ども家庭支援センター","province":"東京都","city":"西多摩郡日の出町","address":"日の出町大字平井2780日の出町役場1階子育て支援福祉課内","lat":35.742114,"lon":139.257405},{"name":"日の出町子ども家庭支援センター","province":"東京都","city":"西多摩郡日の出町","address":"日の出町大字平井2780日の出町役場1階子育て支援福祉課内","lat":35.74244,"lon":139.25661},{"name":"こどもデイサービス　Poco　a　Poco","province":"東京都","city":"西多摩郡日の出町","address":"西多摩郡日の出町大久野1628-7","lat":35.744387,"lon":139.233581},{"name":"こどもデイサービス　Poco　a　Poco　第２","province":"東京都","city":"西多摩郡日の出町","address":"西多摩郡日の出町大字平井字三吉野欠上15-15","lat":35.738615,"lon":139.283147},{"name":"日の出町子ども家庭支援センター","province":"東京都","city":"西多摩郡日の出町","address":"日の出町大字平井2780日の出町役場1階子育て支援福祉課内","lat":35.742114,"lon":139.257405},{"name":"日の出町子ども家庭支援センター","province":"東京都","city":"西多摩郡日の出町","address":"日の出町大字平井2780日の出町役場1階子育て支援福祉課内","lat":35.74244,"lon":139.25661},{"name":"こどもデイサービス　Poco　a　Poco","province":"東京都","city":"西多摩郡日の出町","address":"西多摩郡日の出町大久野1628-7","lat":35.744387,"lon":139.233581},{"name":"こどもデイサービス　Poco　a　Poco　第２","province":"東京都","city":"西多摩郡日の出町","address":"西多摩郡日の出町大字平井字三吉野欠上15-15","lat":35.738615,"lon":139.283147},{"name":"日の出町子ども家庭支援センター","province":"東京都","city":"西多摩郡日の出町","address":"日の出町大字平井2780日の出町役場1階子育て支援福祉課内","lat":35.742114,"lon":139.257405},{"name":"日の出町子ども家庭支援センター","province":"東京都","city":"西多摩郡日の出町","address":"日の出町大字平井2780日の出町役場1階子育て支援福祉課内","lat":35.74244,"lon":139.25661},{"name":"こどもデイサービス　Poco　a　Poco","province":"東京都","city":"西多摩郡日の出町","address":"西多摩郡日の出町大久野1628-7","lat":35.744387,"lon":139.233581},{"name":"こどもデイサービス　Poco　a　Poco　第２","province":"東京都","city":"西多摩郡日の出町","address":"西多摩郡日の出町大字平井字三吉野欠上15-15","lat":35.738615,"lon":139.283147},{"name":"日の出町子ども家庭支援センター","province":"東京都","city":"西多摩郡日の出町","address":"日の出町大字平井2780日の出町役場1階子育て支援福祉課内","lat":35.742114,"lon":139.257405},{"name":"日の出町子ども家庭支援センター","province":"東京都","city":"西多摩郡日の出町","address":"日の出町大字平井2780日の出町役場1階子育て支援福祉課内","lat":35.74244,"lon":139.25661},{"name":"こどもデイサービス　Poco　a　Poco","province":"東京都","city":"西多摩郡日の出町","address":"西多摩郡日の出町大久野1628-7","lat":35.744387,"lon":139.233581},{"name":"こどもデイサービス　Poco　a　Poco　第２","province":"東京都","city":"西多摩郡日の出町","address":"西多摩郡日の出町大字平井字三吉野欠上15-15","lat":35.738615,"lon":139.283147},{"name":"日の出町子ども家庭支援センター","province":"東京都","city":"西多摩郡日の出町","address":"日の出町大字平井2780日の出町役場1階子育て支援福祉課内","lat":35.742114,"lon":139.257405},{"name":"日の出町子ども家庭支援センター","province":"東京都","city":"西多摩郡日の出町","address":"日の出町大字平井2780日の出町役場1階子育て支援福祉課内","lat":35.74244,"lon":139.25661},{"name":"こどもデイサービス　Poco　a　Poco","province":"東京都","city":"西多摩郡日の出町","address":"西多摩郡日の出町大久野1628-7","lat":35.744387,"lon":139.233581},{"name":"こどもデイサービス　Poco　a　Poco　第２","province":"東京都","city":"西多摩郡日の出町","address":"西多摩郡日の出町大字平井字三吉野欠上15-15","lat":35.738615,"lon":139.283147},{"name":"日の出町子ども家庭支援センター","province":"東京都","city":"西多摩郡日の出町","address":"日の出町大字平井2780日の出町役場1階子育て支援福祉課内","lat":35.742114,"lon":139.257405},{"name":"日の出町子ども家庭支援センター","province":"東京都","city":"西多摩郡日の出町","address":"日の出町大字平井2780日の出町役場1階子育て支援福祉課内","lat":35.74244,"lon":139.25661},{"name":"こどもデイサービス　Poco　a　Poco","province":"東京都","city":"西多摩郡日の出町","address":"西多摩郡日の出町大久野1628-7","lat":35.744387,"lon":139.233581},{"name":"こどもデイサービス　Poco　a　Poco　第２","province":"東京都","city":"西多摩郡日の出町","address":"西多摩郡日の出町大字平井字三吉野欠上15-15","lat":35.738615,"lon":139.283147},{"name":"日の出町子ども家庭支援センター","province":"東京都","city":"西多摩郡日の出町","address":"日の出町大字平井2780日の出町役場1階子育て支援福祉課内","lat":35.742114,"lon":139.257405},{"name":"日の出町子ども家庭支援センター","province":"東京都","city":"西多摩郡日の出町","address":"日の出町大字平井2780日の出町役場1階子育て支援福祉課内","lat":35.74244,"lon":139.25661},{"name":"こどもデイサービス　Poco　a　Poco","province":"東京都","city":"西多摩郡日の出町","address":"西多摩郡日の出町大久野1628-7","lat":35.744387,"lon":139.233581},{"name":"こどもデイサービス　Poco　a　Poco　第２","province":"東京都","city":"西多摩郡日の出町","address":"西多摩郡日の出町大字平井字三吉野欠上15-15","lat":35.738615,"lon":139.283147},{"name":"日の出町子ども家庭支援センター","province":"東京都","city":"西多摩郡日の出町","address":"日の出町大字平井2780日の出町役場1階子育て支援福祉課内","lat":35.742114,"lon":139.257405},{"name":"日の出町子ども家庭支援センター","province":"東京都","city":"西多摩郡日の出町","address":"日の出町大字平井2780日の出町役場1階子育て支援福祉課内","lat":35.74244,"lon":139.25661},{"name":"こどもデイサービス　Poco　a　Poco","province":"東京都","city":"西多摩郡日の出町","address":"西多摩郡日の出町大久野1628-7","lat":35.744387,"lon":139.233581},{"name":"こどもデイサービス　Poco　a　Poco　第２","province":"東京都","city":"西多摩郡日の出町","address":"西多摩郡日の出町大字平井字三吉野欠上15-15","lat":35.738615,"lon":139.283147},{"name":"日の出町子ども家庭支援センター","province":"東京都","city":"西多摩郡日の出町","address":"日の出町大字平井2780日の出町役場1階子育て支援福祉課内","lat":35.742114,"lon":139.257405},{"name":"日の出町子ども家庭支援センター","province":"東京都","city":"西多摩郡日の出町","address":"日の出町大字平井2780日の出町役場1階子育て支援福祉課内","lat":35.74244,"lon":139.25661},{"name":"こどもデイサービス　Poco　a　Poco","province":"東京都","city":"西多摩郡日の出町","address":"西多摩郡日の出町大久野1628-7","lat":35.744387,"lon":139.233581},{"name":"こどもデイサービス　Poco　a　Poco　第２","province":"東京都","city":"西多摩郡日の出町","address":"西多摩郡日の出町大字平井字三吉野欠上15-15","lat":35.738615,"lon":139.283147},{"name":"日の出町子ども家庭支援センター","province":"東京都","city":"西多摩郡日の出町","address":"日の出町大字平井2780日の出町役場1階子育て支援福祉課内","lat":35.742114,"lon":139.257405},{"name":"日の出町子ども家庭支援センター","province":"東京都","city":"西多摩郡日の出町","address":"日の出町大字平井2780日の出町役場1階子育て支援福祉課内","lat":35.74244,"lon":139.25661},{"name":"こどもデイサービス　Poco　a　Poco","province":"東京都","city":"西多摩郡日の出町","address":"西多摩郡日の出町大久野1628-7","lat":35.744387,"lon":139.233581},{"name":"こどもデイサービス　Poco　a　Poco　第２","province":"東京都","city":"西多摩郡日の出町","address":"西多摩郡日の出町大字平井字三吉野欠上15-15","lat":35.738615,"lon":139.283147},{"name":"日の出町子ども家庭支援センター","province":"東京都","city":"西多摩郡日の出町","address":"日の出町大字平井2780日の出町役場1階子育て支援福祉課内","lat":35.742114,"lon":139.257405},{"name":"日の出町子ども家庭支援センター","province":"東京都","city":"西多摩郡日の出町","address":"日の出町大字平井2780日の出町役場1階子育て支援福祉課内","lat":35.74244,"lon":139.25661},{"name":"こどもデイサービス　Poco　a　Poco","province":"東京都","city":"西多摩郡日の出町","address":"西多摩郡日の出町大久野1628-7","lat":35.744387,"lon":139.233581},{"name":"こどもデイサービス　Poco　a　Poco　第２","province":"東京都","city":"西多摩郡日の出町","address":"西多摩郡日の出町大字平井字三吉野欠上15-15","lat":35.738615,"lon":139.283147},{"name":"日の出町子ども家庭支援センター","province":"東京都","city":"西多摩郡日の出町","address":"日の出町大字平井2780日の出町役場1階子育て支援福祉課内","lat":35.742114,"lon":139.257405},{"name":"日の出町子ども家庭支援センター","province":"東京都","city":"西多摩郡日の出町","address":"日の出町大字平井2780日の出町役場1階子育て支援福祉課内","lat":35.74244,"lon":139.25661},{"name":"こどもデイサービス　Poco　a　Poco","province":"東京都","city":"西多摩郡日の出町","address":"西多摩郡日の出町大久野1628-7","lat":35.744387,"lon":139.233581},{"name":"こどもデイサービス　Poco　a　Poco　第２","province":"東京都","city":"西多摩郡日の出町","address":"西多摩郡日の出町大字平井字三吉野欠上15-15","lat":35.738615,"lon":139.283147},{"name":"日の出町子ども家庭支援センター","province":"東京都","city":"西多摩郡日の出町","address":"日の出町大字平井2780日の出町役場1階子育て支援福祉課内","lat":35.742114,"lon":139.257405},{"name":"日の出町子ども家庭支援センター","province":"東京都","city":"西多摩郡日の出町","address":"日の出町大字平井2780日の出町役場1階子育て支援福祉課内","lat":35.74244,"lon":139.25661}]}