{"keyword":"椅子","data":[{"name":"家畜保健衛生所","province":"東京都","city":"西多摩郡日の出町","address":"東京都西多摩郡日の出町大字平井2759","lat":35.741198,"lon":139.258035},{"name":"日の出町役場庁舎","province":"東京都","city":"西多摩郡日の出町","address":"東京都西多摩郡日の出町大字平井2780","lat":35.742165,"lon":139.257669},{"name":"日の出町教育センター","province":"東京都","city":"西多摩郡日の出町","address":"東京都西多摩郡日の出町大字平井2780","lat":35.742251,"lon":139.256869},{"name":"日の出町保健センター","province":"東京都","city":"西多摩郡日の出町","address":"東京都西多摩郡日の出町大字平井","lat":35.742139,"lon":139.257977},{"name":"やまびこホール","province":"東京都","city":"西多摩郡日の出町","address":"東京都西多摩郡日の出町大字大久野1165-2","lat":35.745759,"lon":139.235913},{"name":"町民グランド","province":"東京都","city":"西多摩郡日の出町","address":"東京都西多摩郡日の出町大字平井","lat":35.740646,"lon":139.259981},{"name":"欠上公園","province":"東京都","city":"西多摩郡日の出町","address":"東京都西多摩郡日の出町大字平井21","lat":35.73776,"lon":139.278048},{"name":"欠下２号公園","province":"東京都","city":"西多摩郡日の出町","address":"東京都西多摩郡日の出町大字平井5","lat":35.740579,"lon":139.279262},{"name":"桜木中央公園","province":"東京都","city":"西多摩郡日の出町","address":"東京都西多摩郡日の出町大字平井","lat":35.735834,"lon":139.272286},{"name":"こども未来公園","province":"東京都","city":"西多摩郡日の出町","address":"東京都西多摩郡日の出町大字大久野","lat":35.74444,"lon":139.23267},{"name":"やすらぎとふれあいの丘公園","province":"東京都","city":"西多摩郡日の出町","address":"東京都西多摩郡日の出町大字大久野","lat":35.742466,"lon":139.24856},{"name":"下原2号公園","province":"東京都","city":"西多摩郡日の出町","address":"東京都西多摩郡日の出町大字平井32","lat":35.735599,"lon":139.279848},{"name":"ひので野鳥の森自然公園管理棟","province":"東京都","city":"西多摩郡日の出町","address":"東京都西多摩郡日の出町大字平井","lat":35.745804,"lon":139.276912},{"name":"日の出町平井・生涯青春ふれあい総合福祉センター","province":"東京都","city":"西多摩郡日の出町","address":"東京都西多摩郡日の出町大字平井4118","lat":35.743203,"lon":139.274753},{"name":"日の出町大久野老人福祉センター","province":"東京都","city":"西多摩郡日の出町","address":"東京都西多摩郡日の出町大字大久野2120-1","lat":35.743752,"lon":139.228254},{"name":"日の出町本宿老人福祉センター","province":"東京都","city":"西多摩郡日の出町","address":"東京都西多摩郡日の出町大字平井1982","lat":35.735777,"lon":139.260284},{"name":"日の出町本宿老人福祉センター","province":"東京都","city":"西多摩郡日の出町","address":"東京都西多摩郡日の出町大字平井2780","lat":35.742105,"lon":139.257432},{"name":"志茂町児童館","province":"東京都","city":"西多摩郡日の出町","address":"東京都西多摩郡日の出町大字平井1254-1","lat":35.740899,"lon":139.270329},{"name":"ひので肝要の里","province":"東京都","city":"西多摩郡日の出町","address":"東京都西多摩郡日の出町大字大久野","lat":35.770488,"lon":139.205953},{"name":"ひので肝要の里","province":"東京都","city":"西多摩郡日の出町","address":"東京都西多摩郡日の出町大字大久野4089","lat":35.770396,"lon":139.206103},{"name":"生涯青春の湯つるつる温泉センター","province":"東京都","city":"西多摩郡日の出町","address":"東京都西多摩郡日の出町大字大久野4718","lat":35.779427,"lon":139.192004}]}