{"keyword":"男女","data":[{"name":"大正保育園","province":"東京都","city":"西多摩郡日の出町","address":"西多摩郡日の出町大久野711-1","lat":35.749414,"lon":139.241706},{"name":"大久野保育園","province":"東京都","city":"西多摩郡日の出町","address":"西多摩郡日の出町大久野1660-1","lat":35.74361,"lon":139.230337},{"name":"さくらぎ保育園","province":"東京都","city":"西多摩郡日の出町","address":"西多摩郡日の出町平井661","lat":35.738762,"lon":139.273245},{"name":"宝光保育園","province":"東京都","city":"西多摩郡日の出町","address":"西多摩郡日の出町平井3389-1","lat":35.742331,"lon":139.263971},{"name":"さくらぎこぱん","province":"東京都","city":"西多摩郡日の出町","address":"西多摩郡日の出町平井673-1","lat":35.738149,"lon":139.273959},{"name":"こどもデイサービス　Poco　a　Poco","province":"東京都","city":"西多摩郡日の出町","address":"西多摩郡日の出町大久野1628-7","lat":35.744387,"lon":139.233581},{"name":"こどもデイサービス　Poco　a　Poco　第２","province":"東京都","city":"西多摩郡日の出町","address":"西多摩郡日の出町大字平井字三吉野欠上15-15","lat":35.738615,"lon":139.283147},{"name":"日の出太陽の家","province":"東京都","city":"西多摩郡日の出町","address":"西多摩郡日の出町大久野5107番地","lat":35.765432,"lon":139.226709},{"name":"山の子の家","province":"東京都","city":"西多摩郡日の出町","address":"西多摩郡日の出町大久野8025-11","lat":35.757324,"lon":139.253049},{"name":"日の出舎","province":"東京都","city":"西多摩郡日の出町","address":"西多摩郡日の出町平井3030","lat":35.748197,"lon":139.258566},{"name":"日の出福祉園","province":"東京都","city":"西多摩郡日の出町","address":"西多摩郡日の出町平井376","lat":35.732969,"lon":139.281372},{"name":"日の出町保健センター","province":"東京都","city":"西多摩郡日の出町","address":"西多摩郡日の出町平井2780","lat":35.742114,"lon":139.257405},{"name":"家畜保健衛生所","province":"東京都","city":"西多摩郡日の出町","address":"東京都西多摩郡日の出町大字平井2759","lat":35.741198,"lon":139.258035},{"name":"日の出町役場庁舎","province":"東京都","city":"西多摩郡日の出町","address":"東京都西多摩郡日の出町大字平井2780","lat":35.742165,"lon":139.257669},{"name":"日の出町教育センター","province":"東京都","city":"西多摩郡日の出町","address":"東京都西多摩郡日の出町大字平井2780","lat":35.742251,"lon":139.256869},{"name":"日の出町保健センター","province":"東京都","city":"西多摩郡日の出町","address":"東京都西多摩郡日の出町大字平井","lat":35.742139,"lon":139.257977},{"name":"やまびこホール","province":"東京都","city":"西多摩郡日の出町","address":"東京都西多摩郡日の出町大字大久野1165-2","lat":35.745759,"lon":139.235913},{"name":"町民グランド","province":"東京都","city":"西多摩郡日の出町","address":"東京都西多摩郡日の出町大字平井","lat":35.740646,"lon":139.259981},{"name":"欠上公園","province":"東京都","city":"西多摩郡日の出町","address":"東京都西多摩郡日の出町大字平井21","lat":35.73776,"lon":139.278048},{"name":"欠下２号公園","province":"東京都","city":"西多摩郡日の出町","address":"東京都西多摩郡日の出町大字平井5","lat":35.740579,"lon":139.279262},{"name":"桜木中央公園","province":"東京都","city":"西多摩郡日の出町","address":"東京都西多摩郡日の出町大字平井","lat":35.735834,"lon":139.272286},{"name":"こども未来公園","province":"東京都","city":"西多摩郡日の出町","address":"東京都西多摩郡日の出町大字大久野","lat":35.74444,"lon":139.23267},{"name":"やすらぎとふれあいの丘公園","province":"東京都","city":"西多摩郡日の出町","address":"東京都西多摩郡日の出町大字大久野","lat":35.742466,"lon":139.24856},{"name":"下原2号公園","province":"東京都","city":"西多摩郡日の出町","address":"東京都西多摩郡日の出町大字平井32","lat":35.735599,"lon":139.279848},{"name":"ひので野鳥の森自然公園管理棟","province":"東京都","city":"西多摩郡日の出町","address":"東京都西多摩郡日の出町大字平井","lat":35.745804,"lon":139.276912},{"name":"日の出町平井・生涯青春ふれあい総合福祉センター","province":"東京都","city":"西多摩郡日の出町","address":"東京都西多摩郡日の出町大字平井4118","lat":35.743203,"lon":139.274753},{"name":"日の出町大久野老人福祉センター","province":"東京都","city":"西多摩郡日の出町","address":"東京都西多摩郡日の出町大字大久野2120-1","lat":35.743752,"lon":139.228254},{"name":"日の出町本宿老人福祉センター","province":"東京都","city":"西多摩郡日の出町","address":"東京都西多摩郡日の出町大字平井1982","lat":35.735777,"lon":139.260284},{"name":"日の出町本宿老人福祉センター","province":"東京都","city":"西多摩郡日の出町","address":"東京都西多摩郡日の出町大字平井2780","lat":35.742105,"lon":139.257432},{"name":"志茂町児童館","province":"東京都","city":"西多摩郡日の出町","address":"東京都西多摩郡日の出町大字平井1254-1","lat":35.740899,"lon":139.270329},{"name":"ひので肝要の里","province":"東京都","city":"西多摩郡日の出町","address":"東京都西多摩郡日の出町大字大久野","lat":35.770488,"lon":139.205953},{"name":"ひので肝要の里","province":"東京都","city":"西多摩郡日の出町","address":"東京都西多摩郡日の出町大字大久野4089","lat":35.770396,"lon":139.206103},{"name":"生涯青春の湯つるつる温泉センター","province":"東京都","city":"西多摩郡日の出町","address":"東京都西多摩郡日の出町大字大久野4718","lat":35.779427,"lon":139.192004},{"name":"日の出町立図書館","province":"東京都","city":"西多摩郡日の出町","address":"東京都西多摩郡日の出町大字平井2780","lat":35.742119,"lon":139.236806},{"name":"スポーツパーク・やすらぎとふれあいの丘","province":"東京都","city":"西多摩郡日の出町","address":"東京都西多摩郡日の出町大久野（大字）2399","lat":35.74654556,"lon":139.23111725},{"name":"スポーツと文化の森・谷戸沢グランド","province":"東京都","city":"西多摩郡日の出町","address":"東京都西多摩郡日の出町平井（大字）3141","lat":35.75159946,"lon":139.25658506},{"name":"スポーツと文化の森・谷戸沢サッカー場","province":"東京都","city":"西多摩郡日の出町","address":"東京都西多摩郡日の出町平井（大字）3141","lat":35.75159946,"lon":139.25658506},{"name":"大久野みつぼし食堂","province":"東京都","city":"西多摩郡日の出町","address":"東京都西多摩郡日の出町大久野（大字）1660-1","lat":35.74360987,"lon":139.23033701},{"name":"文化の森給水所","province":"東京都","city":"西多摩郡日の出町","address":"東京都日の出町平井3075","lat":35.74752,"lon":139.25519},{"name":"大久野保育園","province":"東京都","city":"西多摩郡日の出町","address":"西多摩郡日の出町大久野1660-1","lat":35.76409,"lon":139.21674},{"name":"大正保育園","province":"東京都","city":"西多摩郡日の出町","address":"西多摩郡日の出町大久野711-1","lat":35.74944,"lon":139.24133},{"name":"宝光保育園","province":"東京都","city":"西多摩郡日の出町","address":"西多摩郡日の出町平井3389-1","lat":35.74556,"lon":139.26164},{"name":"さくらぎ保育園","province":"東京都","city":"西多摩郡日の出町","address":"西多摩郡日の出町平井661","lat":35.73905,"lon":139.27295},{"name":"さくらぎこぱん","province":"東京都","city":"西多摩郡日の出町","address":"西多摩郡日の出町平井673-1","lat":35.74571,"lon":139.26711},{"name":"日の出町在宅支援センター(日の出町包括支援センター)","province":"東京都","city":"西多摩郡日の出町","address":"西多摩郡日の出町大字大久野88-1","lat":35.742645,"lon":139.251236},{"name":"いきいき健康課高齢支援係","province":"東京都","city":"西多摩郡日の出町","address":"西多摩郡日の出町大字平井2780番地","lat":35.742443,"lon":139.256607},{"name":"日の出リハビリ","province":"東京都","city":"西多摩郡日の出町","address":"東京都西多摩郡日の出町平井（大字）2218-19","lat":35.73889798,"lon":139.25467745},{"name":"ワークスタディ日の出","province":"東京都","city":"西多摩郡日の出町","address":"東京都西多摩郡日の出町平井（大字）2218-19","lat":35.73889798,"lon":139.25467745},{"name":"さくらぎこぱん","province":"東京都","city":"西多摩郡日の出町","address":"西多摩郡日の出町平井673-1","lat":35.74148,"lon":139.27971},{"name":"文化の森入口","province":"東京都","city":"西多摩郡日の出町","address":"東京都西多摩郡日の出町平井（大字）2714","lat":35.74252266,"lon":139.25657154},{"name":"阿伎留医療センター西","province":"東京都","city":"西多摩郡日の出町","address":"東京都西多摩郡日の出町平井（大字）1454-3","lat":35.73329631,"lon":139.27082622},{"name":"想い出を語るロマンの杜ひので斎場","province":"東京都","city":"西多摩郡日の出町","address":"東京都西多摩郡日の出町平井（大字）3092","lat":35.75204107,"lon":139.25521292},{"name":"文化の森給水所","province":"東京都","city":"西多摩郡日の出町","address":"東京都西多摩郡日の出町平井（大字）3075","lat":35.74757768,"lon":139.2552131},{"name":"亜細亜大学日の出グラウンド","province":"東京都","city":"西多摩郡日の出町","address":"東京都西多摩郡日の出町平井（大字）1466","lat":35.73682361,"lon":139.26896791},{"name":"谷戸沢グラウンド","province":"東京都","city":"西多摩郡日の出町","address":"東京都西多摩郡日の出町平井（大字）3141","lat":35.75159946,"lon":139.25658506},{"name":"＊?小さな蔵の資料館","province":"東京都","city":"西多摩郡日の出町","address":"日の出町大字大久野4090-2","lat":35.770449,"lon":139.206461},{"name":"＊?かやくぼ地区学習等供用施設","province":"東京都","city":"西多摩郡日の出町","address":"日の出町大字大久野1167","lat":35.745199,"lon":139.235803},{"name":"＊?本宿地区学習等供用施設","province":"東京都","city":"西多摩郡日の出町","address":"日の出町大字平井2144","lat":35.737783,"lon":139.256177},{"name":"＊?日の出町やまびこホール","province":"東京都","city":"西多摩郡日の出町","address":"日の出町大字大久野1165-2","lat":35.745776,"lon":139.235959},{"name":"日の出町立図書館（本館）","province":"東京都","city":"西多摩郡日の出町","address":"日の出町平井2780","lat":35.742443,"lon":139.256607},{"name":"日の出町立図書館大久野分室","province":"東京都","city":"西多摩郡日の出町","address":"日の出町大字大久野1167-6","lat":35.749889,"lon":139.231094},{"name":"小さな蔵の資料館","province":"東京都","city":"西多摩郡日の出町","address":"日の出町大字大久野4090-2","lat":35.769436,"lon":139.209503},{"name":"本宿地区学習等供用施設","province":"東京都","city":"西多摩郡日の出町","address":"日の出町大字平井2144","lat":35.737881,"lon":139.256012},{"name":"日の出町やまびこホール","province":"東京都","city":"西多摩郡日の出町","address":"日の出町大字大久野1165-2","lat":35.749889,"lon":139.231094},{"name":"教育委員会","province":"東京都","city":"西多摩郡日の出町","address":"東京都西多摩郡日の出町平井（大字）2780","lat":35.74211436,"lon":139.25740482},{"name":"日の出町保健センター","province":"東京都","city":"西多摩郡日の出町","address":"東京都西多摩郡日の出町平井（大字）2780","lat":35.74211436,"lon":139.25740482},{"name":"日の出町本庁舎","province":"東京都","city":"西多摩郡日の出町","address":"東京都西多摩郡日の出町平井（大字）2780","lat":35.74211436,"lon":139.25740482},{"name":"日の出町本庁舎","province":"東京都","city":"西多摩郡日の出町","address":"西多摩郡日の出町大字平井2780","lat":35.742115,"lon":139.257405},{"name":"亜細亜大学日の出グランド","province":"東京都","city":"西多摩郡日の出町","address":"日の出町平井1466","lat":35.73674,"lon":139.2695},{"name":"※日の出町本庁舎","province":"東京都","city":"西多摩郡日の出町","address":"東京都西多摩郡日の出町平井（大字）2780","lat":35.74211436,"lon":139.25740482},{"name":"思い出を語るロマン社ひので斎場","province":"東京都","city":"西多摩郡日の出町","address":"東京都西多摩郡日の出町平井（大字）3092","lat":35.75204107,"lon":139.25521292},{"name":"東京たまエコセメント化施設","province":"東京都","city":"西多摩郡日の出町","address":"日の出町大字大久野7642","lat":35.763477,"lon":139.249741},{"name":"こどもデイサービス　Poco　a　Poco","province":"東京都","city":"西多摩郡日の出町","address":"西多摩郡日の出町大久野1628-7","lat":35.744387,"lon":139.233581},{"name":"こどもデイサービス　Poco　a　Poco　第２","province":"東京都","city":"西多摩郡日の出町","address":"西多摩郡日の出町大字平井字三吉野欠上15-15","lat":35.738615,"lon":139.283147},{"name":"日の出町立図書館","province":"東京都","city":"西多摩郡日の出町","address":"東京都西多摩郡日の出町大字平井2780","lat":35.742119,"lon":139.236806},{"name":"スポーツパーク・やすらぎとふれあいの丘","province":"東京都","city":"西多摩郡日の出町","address":"東京都西多摩郡日の出町大久野（大字）2399","lat":35.74654556,"lon":139.23111725},{"name":"スポーツと文化の森・谷戸沢グランド","province":"東京都","city":"西多摩郡日の出町","address":"東京都西多摩郡日の出町平井（大字）3141","lat":35.75159946,"lon":139.25658506},{"name":"スポーツと文化の森・谷戸沢サッカー場","province":"東京都","city":"西多摩郡日の出町","address":"東京都西多摩郡日の出町平井（大字）3141","lat":35.75159946,"lon":139.25658506},{"name":"大久野みつぼし食堂","province":"東京都","city":"西多摩郡日の出町","address":"東京都西多摩郡日の出町大久野（大字）1660-1","lat":35.74360987,"lon":139.23033701},{"name":"文化の森給水所","province":"東京都","city":"西多摩郡日の出町","address":"東京都日の出町平井3075","lat":35.74752,"lon":139.25519},{"name":"日の出町在宅支援センター(日の出町包括支援センター)","province":"東京都","city":"西多摩郡日の出町","address":"西多摩郡日の出町大字大久野88-1","lat":35.742645,"lon":139.251236},{"name":"いきいき健康課高齢支援係","province":"東京都","city":"西多摩郡日の出町","address":"西多摩郡日の出町大字平井2780番地","lat":35.742443,"lon":139.256607},{"name":"文化の森入口","province":"東京都","city":"西多摩郡日の出町","address":"東京都西多摩郡日の出町平井（大字）2714","lat":35.74252266,"lon":139.25657154},{"name":"阿伎留医療センター西","province":"東京都","city":"西多摩郡日の出町","address":"東京都西多摩郡日の出町平井（大字）1454-3","lat":35.73329631,"lon":139.27082622},{"name":"＊?小さな蔵の資料館","province":"東京都","city":"西多摩郡日の出町","address":"日の出町大字大久野4090-2","lat":35.770449,"lon":139.206461},{"name":"＊?かやくぼ地区学習等供用施設","province":"東京都","city":"西多摩郡日の出町","address":"日の出町大字大久野1167","lat":35.745199,"lon":139.235803},{"name":"＊?本宿地区学習等供用施設","province":"東京都","city":"西多摩郡日の出町","address":"日の出町大字平井2144","lat":35.737783,"lon":139.256177},{"name":"＊?日の出町やまびこホール","province":"東京都","city":"西多摩郡日の出町","address":"日の出町大字大久野1165-2","lat":35.745776,"lon":139.235959},{"name":"日の出町立図書館（本館）","province":"東京都","city":"西多摩郡日の出町","address":"日の出町平井2780","lat":35.742443,"lon":139.256607},{"name":"日の出町立図書館大久野分室","province":"東京都","city":"西多摩郡日の出町","address":"日の出町大字大久野1167-6","lat":35.749889,"lon":139.231094},{"name":"小さな蔵の資料館","province":"東京都","city":"西多摩郡日の出町","address":"日の出町大字大久野4090-2","lat":35.769436,"lon":139.209503},{"name":"本宿地区学習等供用施設","province":"東京都","city":"西多摩郡日の出町","address":"日の出町大字平井2144","lat":35.737881,"lon":139.256012},{"name":"日の出町やまびこホール","province":"東京都","city":"西多摩郡日の出町","address":"日の出町大字大久野1165-2","lat":35.749889,"lon":139.231094},{"name":"教育委員会","province":"東京都","city":"西多摩郡日の出町","address":"東京都西多摩郡日の出町平井（大字）2780","lat":35.74211436,"lon":139.25740482},{"name":"亜細亜大学日の出グランド","province":"東京都","city":"西多摩郡日の出町","address":"日の出町平井1466","lat":35.73674,"lon":139.2695},{"name":"思い出を語るロマン社ひので斎場","province":"東京都","city":"西多摩郡日の出町","address":"東京都西多摩郡日の出町平井（大字）3092","lat":35.75204107,"lon":139.25521292},{"name":"こどもデイサービス　Poco　a　Poco","province":"東京都","city":"西多摩郡日の出町","address":"西多摩郡日の出町大久野1628-7","lat":35.744387,"lon":139.233581},{"name":"こどもデイサービス　Poco　a　Poco　第２","province":"東京都","city":"西多摩郡日の出町","address":"西多摩郡日の出町大字平井字三吉野欠上15-15","lat":35.738615,"lon":139.283147},{"name":"日の出町立図書館","province":"東京都","city":"西多摩郡日の出町","address":"東京都西多摩郡日の出町大字平井2780","lat":35.742119,"lon":139.236806},{"name":"スポーツパーク・やすらぎとふれあいの丘","province":"東京都","city":"西多摩郡日の出町","address":"東京都西多摩郡日の出町大久野（大字）2399","lat":35.74654556,"lon":139.23111725},{"name":"スポーツと文化の森・谷戸沢グランド","province":"東京都","city":"西多摩郡日の出町","address":"東京都西多摩郡日の出町平井（大字）3141","lat":35.75159946,"lon":139.25658506},{"name":"スポーツと文化の森・谷戸沢サッカー場","province":"東京都","city":"西多摩郡日の出町","address":"東京都西多摩郡日の出町平井（大字）3141","lat":35.75159946,"lon":139.25658506},{"name":"大久野みつぼし食堂","province":"東京都","city":"西多摩郡日の出町","address":"東京都西多摩郡日の出町大久野（大字）1660-1","lat":35.74360987,"lon":139.23033701},{"name":"文化の森給水所","province":"東京都","city":"西多摩郡日の出町","address":"東京都日の出町平井3075","lat":35.74752,"lon":139.25519},{"name":"日の出町在宅支援センター(日の出町包括支援センター)","province":"東京都","city":"西多摩郡日の出町","address":"西多摩郡日の出町大字大久野88-1","lat":35.742645,"lon":139.251236},{"name":"いきいき健康課高齢支援係","province":"東京都","city":"西多摩郡日の出町","address":"西多摩郡日の出町大字平井2780番地","lat":35.742443,"lon":139.256607},{"name":"文化の森入口","province":"東京都","city":"西多摩郡日の出町","address":"東京都西多摩郡日の出町平井（大字）2714","lat":35.74252266,"lon":139.25657154},{"name":"阿伎留医療センター西","province":"東京都","city":"西多摩郡日の出町","address":"東京都西多摩郡日の出町平井（大字）1454-3","lat":35.73329631,"lon":139.27082622},{"name":"＊?小さな蔵の資料館","province":"東京都","city":"西多摩郡日の出町","address":"日の出町大字大久野4090-2","lat":35.770449,"lon":139.206461},{"name":"＊?かやくぼ地区学習等供用施設","province":"東京都","city":"西多摩郡日の出町","address":"日の出町大字大久野1167","lat":35.745199,"lon":139.235803},{"name":"＊?本宿地区学習等供用施設","province":"東京都","city":"西多摩郡日の出町","address":"日の出町大字平井2144","lat":35.737783,"lon":139.256177},{"name":"＊?日の出町やまびこホール","province":"東京都","city":"西多摩郡日の出町","address":"日の出町大字大久野1165-2","lat":35.745776,"lon":139.235959},{"name":"日の出町立図書館（本館）","province":"東京都","city":"西多摩郡日の出町","address":"日の出町平井2780","lat":35.742443,"lon":139.256607},{"name":"日の出町立図書館大久野分室","province":"東京都","city":"西多摩郡日の出町","address":"日の出町大字大久野1167-6","lat":35.749889,"lon":139.231094},{"name":"小さな蔵の資料館","province":"東京都","city":"西多摩郡日の出町","address":"日の出町大字大久野4090-2","lat":35.769436,"lon":139.209503},{"name":"本宿地区学習等供用施設","province":"東京都","city":"西多摩郡日の出町","address":"日の出町大字平井2144","lat":35.737881,"lon":139.256012},{"name":"日の出町やまびこホール","province":"東京都","city":"西多摩郡日の出町","address":"日の出町大字大久野1165-2","lat":35.749889,"lon":139.231094},{"name":"教育委員会","province":"東京都","city":"西多摩郡日の出町","address":"東京都西多摩郡日の出町平井（大字）2780","lat":35.74211436,"lon":139.25740482},{"name":"思い出を語るロマン社ひので斎場","province":"東京都","city":"西多摩郡日の出町","address":"東京都西多摩郡日の出町平井（大字）3092","lat":35.75204107,"lon":139.25521292},{"name":"こどもデイサービス　Poco　a　Poco","province":"東京都","city":"西多摩郡日の出町","address":"西多摩郡日の出町大久野1628-7","lat":35.744387,"lon":139.233581},{"name":"こどもデイサービス　Poco　a　Poco　第２","province":"東京都","city":"西多摩郡日の出町","address":"西多摩郡日の出町大字平井字三吉野欠上15-15","lat":35.738615,"lon":139.283147},{"name":"日の出町立図書館","province":"東京都","city":"西多摩郡日の出町","address":"東京都西多摩郡日の出町大字平井2780","lat":35.742119,"lon":139.236806},{"name":"スポーツパーク・やすらぎとふれあいの丘","province":"東京都","city":"西多摩郡日の出町","address":"東京都西多摩郡日の出町大久野（大字）2399","lat":35.74654556,"lon":139.23111725},{"name":"スポーツと文化の森・谷戸沢グランド","province":"東京都","city":"西多摩郡日の出町","address":"東京都西多摩郡日の出町平井（大字）3141","lat":35.75159946,"lon":139.25658506},{"name":"スポーツと文化の森・谷戸沢サッカー場","province":"東京都","city":"西多摩郡日の出町","address":"東京都西多摩郡日の出町平井（大字）3141","lat":35.75159946,"lon":139.25658506},{"name":"大久野みつぼし食堂","province":"東京都","city":"西多摩郡日の出町","address":"東京都西多摩郡日の出町大久野（大字）1660-1","lat":35.74360987,"lon":139.23033701},{"name":"文化の森給水所","province":"東京都","city":"西多摩郡日の出町","address":"東京都日の出町平井3075","lat":35.74752,"lon":139.25519},{"name":"文化の森入口","province":"東京都","city":"西多摩郡日の出町","address":"東京都西多摩郡日の出町平井（大字）2714","lat":35.74252266,"lon":139.25657154},{"name":"阿伎留医療センター西","province":"東京都","city":"西多摩郡日の出町","address":"東京都西多摩郡日の出町平井（大字）1454-3","lat":35.73329631,"lon":139.27082622},{"name":"＊?小さな蔵の資料館","province":"東京都","city":"西多摩郡日の出町","address":"日の出町大字大久野4090-2","lat":35.770449,"lon":139.206461},{"name":"＊?かやくぼ地区学習等供用施設","province":"東京都","city":"西多摩郡日の出町","address":"日の出町大字大久野1167","lat":35.745199,"lon":139.235803},{"name":"＊?本宿地区学習等供用施設","province":"東京都","city":"西多摩郡日の出町","address":"日の出町大字平井2144","lat":35.737783,"lon":139.256177},{"name":"＊?日の出町やまびこホール","province":"東京都","city":"西多摩郡日の出町","address":"日の出町大字大久野1165-2","lat":35.745776,"lon":139.235959},{"name":"日の出町立図書館（本館）","province":"東京都","city":"西多摩郡日の出町","address":"日の出町平井2780","lat":35.742443,"lon":139.256607},{"name":"日の出町立図書館大久野分室","province":"東京都","city":"西多摩郡日の出町","address":"日の出町大字大久野1167-6","lat":35.749889,"lon":139.231094},{"name":"小さな蔵の資料館","province":"東京都","city":"西多摩郡日の出町","address":"日の出町大字大久野4090-2","lat":35.769436,"lon":139.209503},{"name":"本宿地区学習等供用施設","province":"東京都","city":"西多摩郡日の出町","address":"日の出町大字平井2144","lat":35.737881,"lon":139.256012},{"name":"日の出町やまびこホール","province":"東京都","city":"西多摩郡日の出町","address":"日の出町大字大久野1165-2","lat":35.749889,"lon":139.231094},{"name":"教育委員会","province":"東京都","city":"西多摩郡日の出町","address":"東京都西多摩郡日の出町平井（大字）2780","lat":35.74211436,"lon":139.25740482},{"name":"思い出を語るロマン社ひので斎場","province":"東京都","city":"西多摩郡日の出町","address":"東京都西多摩郡日の出町平井（大字）3092","lat":35.75204107,"lon":139.25521292},{"name":"こどもデイサービス　Poco　a　Poco","province":"東京都","city":"西多摩郡日の出町","address":"西多摩郡日の出町大久野1628-7","lat":35.744387,"lon":139.233581},{"name":"こどもデイサービス　Poco　a　Poco　第２","province":"東京都","city":"西多摩郡日の出町","address":"西多摩郡日の出町大字平井字三吉野欠上15-15","lat":35.738615,"lon":139.283147},{"name":"日の出町立図書館","province":"東京都","city":"西多摩郡日の出町","address":"東京都西多摩郡日の出町大字平井2780","lat":35.742119,"lon":139.236806},{"name":"スポーツパーク・やすらぎとふれあいの丘","province":"東京都","city":"西多摩郡日の出町","address":"東京都西多摩郡日の出町大久野（大字）2399","lat":35.74654556,"lon":139.23111725},{"name":"スポーツと文化の森・谷戸沢グランド","province":"東京都","city":"西多摩郡日の出町","address":"東京都西多摩郡日の出町平井（大字）3141","lat":35.75159946,"lon":139.25658506},{"name":"スポーツと文化の森・谷戸沢サッカー場","province":"東京都","city":"西多摩郡日の出町","address":"東京都西多摩郡日の出町平井（大字）3141","lat":35.75159946,"lon":139.25658506},{"name":"大久野みつぼし食堂","province":"東京都","city":"西多摩郡日の出町","address":"東京都西多摩郡日の出町大久野（大字）1660-1","lat":35.74360987,"lon":139.23033701},{"name":"文化の森給水所","province":"東京都","city":"西多摩郡日の出町","address":"東京都日の出町平井3075","lat":35.74752,"lon":139.25519},{"name":"文化の森入口","province":"東京都","city":"西多摩郡日の出町","address":"東京都西多摩郡日の出町平井（大字）2714","lat":35.74252266,"lon":139.25657154},{"name":"阿伎留医療センター西","province":"東京都","city":"西多摩郡日の出町","address":"東京都西多摩郡日の出町平井（大字）1454-3","lat":35.73329631,"lon":139.27082622},{"name":"＊?小さな蔵の資料館","province":"東京都","city":"西多摩郡日の出町","address":"日の出町大字大久野4090-2","lat":35.770449,"lon":139.206461},{"name":"＊?かやくぼ地区学習等供用施設","province":"東京都","city":"西多摩郡日の出町","address":"日の出町大字大久野1167","lat":35.745199,"lon":139.235803},{"name":"＊?本宿地区学習等供用施設","province":"東京都","city":"西多摩郡日の出町","address":"日の出町大字平井2144","lat":35.737783,"lon":139.256177},{"name":"＊?日の出町やまびこホール","province":"東京都","city":"西多摩郡日の出町","address":"日の出町大字大久野1165-2","lat":35.745776,"lon":139.235959},{"name":"日の出町立図書館（本館）","province":"東京都","city":"西多摩郡日の出町","address":"日の出町平井2780","lat":35.742443,"lon":139.256607},{"name":"日の出町立図書館大久野分室","province":"東京都","city":"西多摩郡日の出町","address":"日の出町大字大久野1167-6","lat":35.749889,"lon":139.231094},{"name":"小さな蔵の資料館","province":"東京都","city":"西多摩郡日の出町","address":"日の出町大字大久野4090-2","lat":35.769436,"lon":139.209503},{"name":"本宿地区学習等供用施設","province":"東京都","city":"西多摩郡日の出町","address":"日の出町大字平井2144","lat":35.737881,"lon":139.256012},{"name":"日の出町やまびこホール","province":"東京都","city":"西多摩郡日の出町","address":"日の出町大字大久野1165-2","lat":35.749889,"lon":139.231094},{"name":"教育委員会","province":"東京都","city":"西多摩郡日の出町","address":"東京都西多摩郡日の出町平井（大字）2780","lat":35.74211436,"lon":139.25740482},{"name":"思い出を語るロマン社ひので斎場","province":"東京都","city":"西多摩郡日の出町","address":"東京都西多摩郡日の出町平井（大字）3092","lat":35.75204107,"lon":139.25521292},{"name":"こどもデイサービス　Poco　a　Poco","province":"東京都","city":"西多摩郡日の出町","address":"西多摩郡日の出町大久野1628-7","lat":35.744387,"lon":139.233581},{"name":"こどもデイサービス　Poco　a　Poco　第２","province":"東京都","city":"西多摩郡日の出町","address":"西多摩郡日の出町大字平井字三吉野欠上15-15","lat":35.738615,"lon":139.283147},{"name":"大久野みつぼし食堂","province":"東京都","city":"西多摩郡日の出町","address":"東京都西多摩郡日の出町大久野（大字）1660-1","lat":35.74360987,"lon":139.23033701},{"name":"文化の森給水所","province":"東京都","city":"西多摩郡日の出町","address":"東京都日の出町平井3075","lat":35.74752,"lon":139.25519},{"name":"文化の森入口","province":"東京都","city":"西多摩郡日の出町","address":"東京都西多摩郡日の出町平井（大字）2714","lat":35.74252266,"lon":139.25657154},{"name":"阿伎留医療センター西","province":"東京都","city":"西多摩郡日の出町","address":"東京都西多摩郡日の出町平井（大字）1454-3","lat":35.73329631,"lon":139.27082622},{"name":"＊?かやくぼ地区学習等供用施設","province":"東京都","city":"西多摩郡日の出町","address":"日の出町大字大久野1167","lat":35.745199,"lon":139.235803},{"name":"＊?本宿地区学習等供用施設","province":"東京都","city":"西多摩郡日の出町","address":"日の出町大字平井2144","lat":35.737783,"lon":139.256177},{"name":"＊?日の出町やまびこホール","province":"東京都","city":"西多摩郡日の出町","address":"日の出町大字大久野1165-2","lat":35.745776,"lon":139.235959},{"name":"日の出町立図書館（本館）","province":"東京都","city":"西多摩郡日の出町","address":"日の出町平井2780","lat":35.742443,"lon":139.256607},{"name":"日の出町立図書館大久野分室","province":"東京都","city":"西多摩郡日の出町","address":"日の出町大字大久野1167-6","lat":35.749889,"lon":139.231094},{"name":"小さな蔵の資料館","province":"東京都","city":"西多摩郡日の出町","address":"日の出町大字大久野4090-2","lat":35.769436,"lon":139.209503},{"name":"本宿地区学習等供用施設","province":"東京都","city":"西多摩郡日の出町","address":"日の出町大字平井2144","lat":35.737881,"lon":139.256012},{"name":"日の出町やまびこホール","province":"東京都","city":"西多摩郡日の出町","address":"日の出町大字大久野1165-2","lat":35.749889,"lon":139.231094},{"name":"教育委員会","province":"東京都","city":"西多摩郡日の出町","address":"東京都西多摩郡日の出町平井（大字）2780","lat":35.74211436,"lon":139.25740482},{"name":"こどもデイサービス　Poco　a　Poco","province":"東京都","city":"西多摩郡日の出町","address":"西多摩郡日の出町大久野1628-7","lat":35.744387,"lon":139.233581},{"name":"こどもデイサービス　Poco　a　Poco　第２","province":"東京都","city":"西多摩郡日の出町","address":"西多摩郡日の出町大字平井字三吉野欠上15-15","lat":35.738615,"lon":139.283147},{"name":"文化の森給水所","province":"東京都","city":"西多摩郡日の出町","address":"東京都日の出町平井3075","lat":35.74752,"lon":139.25519},{"name":"文化の森入口","province":"東京都","city":"西多摩郡日の出町","address":"東京都西多摩郡日の出町平井（大字）2714","lat":35.74252266,"lon":139.25657154},{"name":"阿伎留医療センター西","province":"東京都","city":"西多摩郡日の出町","address":"東京都西多摩郡日の出町平井（大字）1454-3","lat":35.73329631,"lon":139.27082622},{"name":"日の出町立図書館（本館）","province":"東京都","city":"西多摩郡日の出町","address":"日の出町平井2780","lat":35.742443,"lon":139.256607},{"name":"日の出町立図書館大久野分室","province":"東京都","city":"西多摩郡日の出町","address":"日の出町大字大久野1167-6","lat":35.749889,"lon":139.231094},{"name":"小さな蔵の資料館","province":"東京都","city":"西多摩郡日の出町","address":"日の出町大字大久野4090-2","lat":35.769436,"lon":139.209503},{"name":"本宿地区学習等供用施設","province":"東京都","city":"西多摩郡日の出町","address":"日の出町大字平井2144","lat":35.737881,"lon":139.256012},{"name":"日の出町やまびこホール","province":"東京都","city":"西多摩郡日の出町","address":"日の出町大字大久野1165-2","lat":35.749889,"lon":139.231094},{"name":"教育委員会","province":"東京都","city":"西多摩郡日の出町","address":"東京都西多摩郡日の出町平井（大字）2780","lat":35.74211436,"lon":139.25740482},{"name":"文化の森給水所","province":"東京都","city":"西多摩郡日の出町","address":"東京都日の出町平井3075","lat":35.74752,"lon":139.25519},{"name":"日の出町立図書館（本館）","province":"東京都","city":"西多摩郡日の出町","address":"日の出町平井2780","lat":35.742443,"lon":139.256607},{"name":"日の出町立図書館大久野分室","province":"東京都","city":"西多摩郡日の出町","address":"日の出町大字大久野1167-6","lat":35.749889,"lon":139.231094},{"name":"小さな蔵の資料館","province":"東京都","city":"西多摩郡日の出町","address":"日の出町大字大久野4090-2","lat":35.769436,"lon":139.209503},{"name":"本宿地区学習等供用施設","province":"東京都","city":"西多摩郡日の出町","address":"日の出町大字平井2144","lat":35.737881,"lon":139.256012},{"name":"日の出町やまびこホール","province":"東京都","city":"西多摩郡日の出町","address":"日の出町大字大久野1165-2","lat":35.749889,"lon":139.231094},{"name":"教育委員会","province":"東京都","city":"西多摩郡日の出町","address":"東京都西多摩郡日の出町平井（大字）2780","lat":35.74211436,"lon":139.25740482},{"name":"文化の森給水所","province":"東京都","city":"西多摩郡日の出町","address":"東京都日の出町平井3075","lat":35.74752,"lon":139.25519},{"name":"日の出町立図書館（本館）","province":"東京都","city":"西多摩郡日の出町","address":"日の出町平井2780","lat":35.742443,"lon":139.256607},{"name":"日の出町立図書館大久野分室","province":"東京都","city":"西多摩郡日の出町","address":"日の出町大字大久野1167-6","lat":35.749889,"lon":139.231094},{"name":"小さな蔵の資料館","province":"東京都","city":"西多摩郡日の出町","address":"日の出町大字大久野4090-2","lat":35.769436,"lon":139.209503},{"name":"本宿地区学習等供用施設","province":"東京都","city":"西多摩郡日の出町","address":"日の出町大字平井2144","lat":35.737881,"lon":139.256012},{"name":"日の出町やまびこホール","province":"東京都","city":"西多摩郡日の出町","address":"日の出町大字大久野1165-2","lat":35.749889,"lon":139.231094},{"name":"教育委員会","province":"東京都","city":"西多摩郡日の出町","address":"東京都西多摩郡日の出町平井（大字）2780","lat":35.74211436,"lon":139.25740482},{"name":"文化の森給水所","province":"東京都","city":"西多摩郡日の出町","address":"東京都日の出町平井3075","lat":35.74752,"lon":139.25519},{"name":"日の出町立図書館（本館）","province":"東京都","city":"西多摩郡日の出町","address":"日の出町平井2780","lat":35.742443,"lon":139.256607},{"name":"日の出町立図書館大久野分室","province":"東京都","city":"西多摩郡日の出町","address":"日の出町大字大久野1167-6","lat":35.749889,"lon":139.231094},{"name":"小さな蔵の資料館","province":"東京都","city":"西多摩郡日の出町","address":"日の出町大字大久野4090-2","lat":35.769436,"lon":139.209503},{"name":"本宿地区学習等供用施設","province":"東京都","city":"西多摩郡日の出町","address":"日の出町大字平井2144","lat":35.737881,"lon":139.256012},{"name":"日の出町やまびこホール","province":"東京都","city":"西多摩郡日の出町","address":"日の出町大字大久野1165-2","lat":35.749889,"lon":139.231094},{"name":"教育委員会","province":"東京都","city":"西多摩郡日の出町","address":"東京都西多摩郡日の出町平井（大字）2780","lat":35.74211436,"lon":139.25740482},{"name":"日の出町立図書館（本館）","province":"東京都","city":"西多摩郡日の出町","address":"日の出町平井2780","lat":35.742443,"lon":139.256607},{"name":"日の出町立図書館大久野分室","province":"東京都","city":"西多摩郡日の出町","address":"日の出町大字大久野1167-6","lat":35.749889,"lon":139.231094},{"name":"小さな蔵の資料館","province":"東京都","city":"西多摩郡日の出町","address":"日の出町大字大久野4090-2","lat":35.769436,"lon":139.209503},{"name":"本宿地区学習等供用施設","province":"東京都","city":"西多摩郡日の出町","address":"日の出町大字平井2144","lat":35.737881,"lon":139.256012},{"name":"日の出町やまびこホール","province":"東京都","city":"西多摩郡日の出町","address":"日の出町大字大久野1165-2","lat":35.749889,"lon":139.231094},{"name":"教育委員会","province":"東京都","city":"西多摩郡日の出町","address":"東京都西多摩郡日の出町平井（大字）2780","lat":35.74211436,"lon":139.25740482},{"name":"日の出町立図書館（本館）","province":"東京都","city":"西多摩郡日の出町","address":"日の出町平井2780","lat":35.742443,"lon":139.256607},{"name":"日の出町立図書館大久野分室","province":"東京都","city":"西多摩郡日の出町","address":"日の出町大字大久野1167-6","lat":35.749889,"lon":139.231094},{"name":"小さな蔵の資料館","province":"東京都","city":"西多摩郡日の出町","address":"日の出町大字大久野4090-2","lat":35.769436,"lon":139.209503},{"name":"本宿地区学習等供用施設","province":"東京都","city":"西多摩郡日の出町","address":"日の出町大字平井2144","lat":35.737881,"lon":139.256012},{"name":"日の出町やまびこホール","province":"東京都","city":"西多摩郡日の出町","address":"日の出町大字大久野1165-2","lat":35.749889,"lon":139.231094},{"name":"教育委員会","province":"東京都","city":"西多摩郡日の出町","address":"東京都西多摩郡日の出町平井（大字）2780","lat":35.74211436,"lon":139.25740482},{"name":"日の出町立図書館（本館）","province":"東京都","city":"西多摩郡日の出町","address":"日の出町平井2780","lat":35.742443,"lon":139.256607},{"name":"日の出町立図書館大久野分室","province":"東京都","city":"西多摩郡日の出町","address":"日の出町大字大久野1167-6","lat":35.749889,"lon":139.231094},{"name":"小さな蔵の資料館","province":"東京都","city":"西多摩郡日の出町","address":"日の出町大字大久野4090-2","lat":35.769436,"lon":139.209503},{"name":"本宿地区学習等供用施設","province":"東京都","city":"西多摩郡日の出町","address":"日の出町大字平井2144","lat":35.737881,"lon":139.256012},{"name":"日の出町やまびこホール","province":"東京都","city":"西多摩郡日の出町","address":"日の出町大字大久野1165-2","lat":35.749889,"lon":139.231094},{"name":"教育委員会","province":"東京都","city":"西多摩郡日の出町","address":"東京都西多摩郡日の出町平井（大字）2780","lat":35.74211436,"lon":139.25740482},{"name":"日の出町立図書館（本館）","province":"東京都","city":"西多摩郡日の出町","address":"日の出町平井2780","lat":35.742443,"lon":139.256607},{"name":"日の出町立図書館大久野分室","province":"東京都","city":"西多摩郡日の出町","address":"日の出町大字大久野1167-6","lat":35.749889,"lon":139.231094},{"name":"小さな蔵の資料館","province":"東京都","city":"西多摩郡日の出町","address":"日の出町大字大久野4090-2","lat":35.769436,"lon":139.209503},{"name":"本宿地区学習等供用施設","province":"東京都","city":"西多摩郡日の出町","address":"日の出町大字平井2144","lat":35.737881,"lon":139.256012},{"name":"日の出町やまびこホール","province":"東京都","city":"西多摩郡日の出町","address":"日の出町大字大久野1165-2","lat":35.749889,"lon":139.231094},{"name":"教育委員会","province":"東京都","city":"西多摩郡日の出町","address":"東京都西多摩郡日の出町平井（大字）2780","lat":35.74211436,"lon":139.25740482},{"name":"日の出町立図書館（本館）","province":"東京都","city":"西多摩郡日の出町","address":"日の出町平井2780","lat":35.742443,"lon":139.256607},{"name":"日の出町立図書館大久野分室","province":"東京都","city":"西多摩郡日の出町","address":"日の出町大字大久野1167-6","lat":35.749889,"lon":139.231094},{"name":"小さな蔵の資料館","province":"東京都","city":"西多摩郡日の出町","address":"日の出町大字大久野4090-2","lat":35.769436,"lon":139.209503},{"name":"本宿地区学習等供用施設","province":"東京都","city":"西多摩郡日の出町","address":"日の出町大字平井2144","lat":35.737881,"lon":139.256012},{"name":"日の出町やまびこホール","province":"東京都","city":"西多摩郡日の出町","address":"日の出町大字大久野1165-2","lat":35.749889,"lon":139.231094},{"name":"教育委員会","province":"東京都","city":"西多摩郡日の出町","address":"東京都西多摩郡日の出町平井（大字）2780","lat":35.74211436,"lon":139.25740482},{"name":"日の出町立図書館（本館）","province":"東京都","city":"西多摩郡日の出町","address":"日の出町平井2780","lat":35.742443,"lon":139.256607},{"name":"日の出町立図書館大久野分室","province":"東京都","city":"西多摩郡日の出町","address":"日の出町大字大久野1167-6","lat":35.749889,"lon":139.231094},{"name":"小さな蔵の資料館","province":"東京都","city":"西多摩郡日の出町","address":"日の出町大字大久野4090-2","lat":35.769436,"lon":139.209503},{"name":"本宿地区学習等供用施設","province":"東京都","city":"西多摩郡日の出町","address":"日の出町大字平井2144","lat":35.737881,"lon":139.256012},{"name":"日の出町やまびこホール","province":"東京都","city":"西多摩郡日の出町","address":"日の出町大字大久野1165-2","lat":35.749889,"lon":139.231094},{"name":"教育委員会","province":"東京都","city":"西多摩郡日の出町","address":"東京都西多摩郡日の出町平井（大字）2780","lat":35.74211436,"lon":139.25740482},{"name":"日の出町立図書館（本館）","province":"東京都","city":"西多摩郡日の出町","address":"日の出町平井2780","lat":35.742443,"lon":139.256607},{"name":"日の出町立図書館大久野分室","province":"東京都","city":"西多摩郡日の出町","address":"日の出町大字大久野1167-6","lat":35.749889,"lon":139.231094},{"name":"小さな蔵の資料館","province":"東京都","city":"西多摩郡日の出町","address":"日の出町大字大久野4090-2","lat":35.769436,"lon":139.209503},{"name":"本宿地区学習等供用施設","province":"東京都","city":"西多摩郡日の出町","address":"日の出町大字平井2144","lat":35.737881,"lon":139.256012},{"name":"日の出町やまびこホール","province":"東京都","city":"西多摩郡日の出町","address":"日の出町大字大久野1165-2","lat":35.749889,"lon":139.231094},{"name":"教育委員会","province":"東京都","city":"西多摩郡日の出町","address":"東京都西多摩郡日の出町平井（大字）2780","lat":35.74211436,"lon":139.25740482},{"name":"日の出町立図書館（本館）","province":"東京都","city":"西多摩郡日の出町","address":"日の出町平井2780","lat":35.742443,"lon":139.256607},{"name":"日の出町立図書館大久野分室","province":"東京都","city":"西多摩郡日の出町","address":"日の出町大字大久野1167-6","lat":35.749889,"lon":139.231094},{"name":"小さな蔵の資料館","province":"東京都","city":"西多摩郡日の出町","address":"日の出町大字大久野4090-2","lat":35.769436,"lon":139.209503},{"name":"本宿地区学習等供用施設","province":"東京都","city":"西多摩郡日の出町","address":"日の出町大字平井2144","lat":35.737881,"lon":139.256012},{"name":"日の出町やまびこホール","province":"東京都","city":"西多摩郡日の出町","address":"日の出町大字大久野1165-2","lat":35.749889,"lon":139.231094},{"name":"教育委員会","province":"東京都","city":"西多摩郡日の出町","address":"東京都西多摩郡日の出町平井（大字）2780","lat":35.74211436,"lon":139.25740482},{"name":"日の出町立図書館（本館）","province":"東京都","city":"西多摩郡日の出町","address":"日の出町平井2780","lat":35.742443,"lon":139.256607},{"name":"日の出町立図書館大久野分室","province":"東京都","city":"西多摩郡日の出町","address":"日の出町大字大久野1167-6","lat":35.749889,"lon":139.231094},{"name":"小さな蔵の資料館","province":"東京都","city":"西多摩郡日の出町","address":"日の出町大字大久野4090-2","lat":35.769436,"lon":139.209503},{"name":"本宿地区学習等供用施設","province":"東京都","city":"西多摩郡日の出町","address":"日の出町大字平井2144","lat":35.737881,"lon":139.256012},{"name":"日の出町やまびこホール","province":"東京都","city":"西多摩郡日の出町","address":"日の出町大字大久野1165-2","lat":35.749889,"lon":139.231094},{"name":"教育委員会","province":"東京都","city":"西多摩郡日の出町","address":"東京都西多摩郡日の出町平井（大字）2780","lat":35.74211436,"lon":139.25740482},{"name":"日の出町立図書館（本館）","province":"東京都","city":"西多摩郡日の出町","address":"日の出町平井2780","lat":35.742443,"lon":139.256607},{"name":"日の出町立図書館大久野分室","province":"東京都","city":"西多摩郡日の出町","address":"日の出町大字大久野1167-6","lat":35.749889,"lon":139.231094},{"name":"小さな蔵の資料館","province":"東京都","city":"西多摩郡日の出町","address":"日の出町大字大久野4090-2","lat":35.769436,"lon":139.209503},{"name":"本宿地区学習等供用施設","province":"東京都","city":"西多摩郡日の出町","address":"日の出町大字平井2144","lat":35.737881,"lon":139.256012},{"name":"日の出町やまびこホール","province":"東京都","city":"西多摩郡日の出町","address":"日の出町大字大久野1165-2","lat":35.749889,"lon":139.231094},{"name":"教育委員会","province":"東京都","city":"西多摩郡日の出町","address":"東京都西多摩郡日の出町平井（大字）2780","lat":35.74211436,"lon":139.25740482},{"name":"日の出町立図書館（本館）","province":"東京都","city":"西多摩郡日の出町","address":"日の出町平井2780","lat":35.742443,"lon":139.256607},{"name":"日の出町立図書館大久野分室","province":"東京都","city":"西多摩郡日の出町","address":"日の出町大字大久野1167-6","lat":35.749889,"lon":139.231094},{"name":"小さな蔵の資料館","province":"東京都","city":"西多摩郡日の出町","address":"日の出町大字大久野4090-2","lat":35.769436,"lon":139.209503},{"name":"本宿地区学習等供用施設","province":"東京都","city":"西多摩郡日の出町","address":"日の出町大字平井2144","lat":35.737881,"lon":139.256012},{"name":"日の出町やまびこホール","province":"東京都","city":"西多摩郡日の出町","address":"日の出町大字大久野1165-2","lat":35.749889,"lon":139.231094},{"name":"教育委員会","province":"東京都","city":"西多摩郡日の出町","address":"東京都西多摩郡日の出町平井（大字）2780","lat":35.74211436,"lon":139.25740482},{"name":"日の出町立図書館（本館）","province":"東京都","city":"西多摩郡日の出町","address":"日の出町平井2780","lat":35.742443,"lon":139.256607},{"name":"日の出町立図書館大久野分室","province":"東京都","city":"西多摩郡日の出町","address":"日の出町大字大久野1167-6","lat":35.749889,"lon":139.231094},{"name":"小さな蔵の資料館","province":"東京都","city":"西多摩郡日の出町","address":"日の出町大字大久野4090-2","lat":35.769436,"lon":139.209503},{"name":"本宿地区学習等供用施設","province":"東京都","city":"西多摩郡日の出町","address":"日の出町大字平井2144","lat":35.737881,"lon":139.256012},{"name":"日の出町やまびこホール","province":"東京都","city":"西多摩郡日の出町","address":"日の出町大字大久野1165-2","lat":35.749889,"lon":139.231094},{"name":"教育委員会","province":"東京都","city":"西多摩郡日の出町","address":"東京都西多摩郡日の出町平井（大字）2780","lat":35.74211436,"lon":139.25740482},{"name":"日の出町立図書館（本館）","province":"東京都","city":"西多摩郡日の出町","address":"日の出町平井2780","lat":35.742443,"lon":139.256607},{"name":"日の出町立図書館大久野分室","province":"東京都","city":"西多摩郡日の出町","address":"日の出町大字大久野1167-6","lat":35.749889,"lon":139.231094},{"name":"小さな蔵の資料館","province":"東京都","city":"西多摩郡日の出町","address":"日の出町大字大久野4090-2","lat":35.769436,"lon":139.209503},{"name":"本宿地区学習等供用施設","province":"東京都","city":"西多摩郡日の出町","address":"日の出町大字平井2144","lat":35.737881,"lon":139.256012},{"name":"日の出町やまびこホール","province":"東京都","city":"西多摩郡日の出町","address":"日の出町大字大久野1165-2","lat":35.749889,"lon":139.231094},{"name":"教育委員会","province":"東京都","city":"西多摩郡日の出町","address":"東京都西多摩郡日の出町平井（大字）2780","lat":35.74211436,"lon":139.25740482},{"name":"教育委員会","province":"東京都","city":"西多摩郡日の出町","address":"東京都西多摩郡日の出町平井（大字）2780","lat":35.74211436,"lon":139.25740482},{"name":"教育委員会","province":"東京都","city":"西多摩郡日の出町","address":"東京都西多摩郡日の出町平井（大字）2780","lat":35.74211436,"lon":139.25740482},{"name":"教育委員会","province":"東京都","city":"西多摩郡日の出町","address":"東京都西多摩郡日の出町平井（大字）2780","lat":35.74211436,"lon":139.25740482},{"name":"教育委員会","province":"東京都","city":"西多摩郡日の出町","address":"東京都西多摩郡日の出町平井（大字）2780","lat":35.74211436,"lon":139.25740482},{"name":"教育委員会","province":"東京都","city":"西多摩郡日の出町","address":"東京都西多摩郡日の出町平井（大字）2780","lat":35.74211436,"lon":139.25740482},{"name":"教育委員会","province":"東京都","city":"西多摩郡日の出町","address":"東京都西多摩郡日の出町平井（大字）2780","lat":35.74211436,"lon":139.25740482},{"name":"教育委員会","province":"東京都","city":"西多摩郡日の出町","address":"東京都西多摩郡日の出町平井（大字）2780","lat":35.74211436,"lon":139.25740482},{"name":"教育委員会","province":"東京都","city":"西多摩郡日の出町","address":"東京都西多摩郡日の出町平井（大字）2780","lat":35.74211436,"lon":139.25740482},{"name":"教育委員会","province":"東京都","city":"西多摩郡日の出町","address":"東京都西多摩郡日の出町平井（大字）2780","lat":35.74211436,"lon":139.25740482},{"name":"教育委員会","province":"東京都","city":"西多摩郡日の出町","address":"東京都西多摩郡日の出町平井（大字）2780","lat":35.74211436,"lon":139.25740482},{"name":"教育委員会","province":"東京都","city":"西多摩郡日の出町","address":"東京都西多摩郡日の出町平井（大字）2780","lat":35.74211436,"lon":139.25740482},{"name":"教育委員会","province":"東京都","city":"西多摩郡日の出町","address":"東京都西多摩郡日の出町平井（大字）2780","lat":35.74211436,"lon":139.25740482},{"name":"教育委員会","province":"東京都","city":"西多摩郡日の出町","address":"東京都西多摩郡日の出町平井（大字）2780","lat":35.74211436,"lon":139.25740482},{"name":"教育委員会","province":"東京都","city":"西多摩郡日の出町","address":"東京都西多摩郡日の出町平井（大字）2780","lat":35.74211436,"lon":139.25740482},{"name":"教育委員会","province":"東京都","city":"西多摩郡日の出町","address":"東京都西多摩郡日の出町平井（大字）2780","lat":35.74211436,"lon":139.25740482},{"name":"教育委員会","province":"東京都","city":"西多摩郡日の出町","address":"東京都西多摩郡日の出町平井（大字）2780","lat":35.74211436,"lon":139.25740482},{"name":"教育委員会","province":"東京都","city":"西多摩郡日の出町","address":"東京都西多摩郡日の出町平井（大字）2780","lat":35.74211436,"lon":139.25740482},{"name":"教育委員会","province":"東京都","city":"西多摩郡日の出町","address":"東京都西多摩郡日の出町平井（大字）2780","lat":35.74211436,"lon":139.25740482},{"name":"教育委員会","province":"東京都","city":"西多摩郡日の出町","address":"東京都西多摩郡日の出町平井（大字）2780","lat":35.74211436,"lon":139.25740482},{"name":"教育委員会","province":"東京都","city":"西多摩郡日の出町","address":"東京都西多摩郡日の出町平井（大字）2780","lat":35.74211436,"lon":139.25740482},{"name":"教育委員会","province":"東京都","city":"西多摩郡日の出町","address":"東京都西多摩郡日の出町平井（大字）2780","lat":35.74211436,"lon":139.25740482},{"name":"教育委員会","province":"東京都","city":"西多摩郡日の出町","address":"東京都西多摩郡日の出町平井（大字）2780","lat":35.74211436,"lon":139.25740482},{"name":"教育委員会","province":"東京都","city":"西多摩郡日の出町","address":"東京都西多摩郡日の出町平井（大字）2780","lat":35.74211436,"lon":139.25740482},{"name":"教育委員会","province":"東京都","city":"西多摩郡日の出町","address":"東京都西多摩郡日の出町平井（大字）2780","lat":35.74211436,"lon":139.25740482},{"name":"教育委員会","province":"東京都","city":"西多摩郡日の出町","address":"東京都西多摩郡日の出町平井（大字）2780","lat":35.74211436,"lon":139.25740482},{"name":"教育委員会","province":"東京都","city":"西多摩郡日の出町","address":"東京都西多摩郡日の出町平井（大字）2780","lat":35.74211436,"lon":139.25740482},{"name":"教育委員会","province":"東京都","city":"西多摩郡日の出町","address":"東京都西多摩郡日の出町平井（大字）2780","lat":35.74211436,"lon":139.25740482},{"name":"教育委員会","province":"東京都","city":"西多摩郡日の出町","address":"東京都西多摩郡日の出町平井（大字）2780","lat":35.74211436,"lon":139.25740482},{"name":"教育委員会","province":"東京都","city":"西多摩郡日の出町","address":"東京都西多摩郡日の出町平井（大字）2780","lat":35.74211436,"lon":139.25740482},{"name":"教育委員会","province":"東京都","city":"西多摩郡日の出町","address":"東京都西多摩郡日の出町平井（大字）2780","lat":35.74211436,"lon":139.25740482},{"name":"教育委員会","province":"東京都","city":"西多摩郡日の出町","address":"東京都西多摩郡日の出町平井（大字）2780","lat":35.74211436,"lon":139.25740482},{"name":"教育委員会","province":"東京都","city":"西多摩郡日の出町","address":"東京都西多摩郡日の出町平井（大字）2780","lat":35.74211436,"lon":139.25740482},{"name":"教育委員会","province":"東京都","city":"西多摩郡日の出町","address":"東京都西多摩郡日の出町平井（大字）2780","lat":35.74211436,"lon":139.25740482},{"name":"教育委員会","province":"東京都","city":"西多摩郡日の出町","address":"東京都西多摩郡日の出町平井（大字）2780","lat":35.74211436,"lon":139.25740482}]}