{"keyword":"週","data":[{"name":"志茂町児童館","province":"東京都","city":"西多摩郡日の出町","address":"西多摩郡日の出町平井1254-1","lat":35.740876,"lon":139.270248},{"name":"日の出町社会福祉協議会","province":"東京都","city":"西多摩郡日の出町","address":"西多摩郡日の出町大字平井2780","lat":35.742114,"lon":139.257405},{"name":"日の出町立図書館","province":"東京都","city":"西多摩郡日の出町","address":"東京都西多摩郡日の出町大字平井2780","lat":35.742119,"lon":139.236806},{"name":"スポーツパーク・やすらぎとふれあいの丘","province":"東京都","city":"西多摩郡日の出町","address":"東京都西多摩郡日の出町大久野（大字）2399","lat":35.74654556,"lon":139.23111725},{"name":"スポーツと文化の森・谷戸沢グランド","province":"東京都","city":"西多摩郡日の出町","address":"東京都西多摩郡日の出町平井（大字）3141","lat":35.75159946,"lon":139.25658506},{"name":"スポーツと文化の森・谷戸沢サッカー場","province":"東京都","city":"西多摩郡日の出町","address":"東京都西多摩郡日の出町平井（大字）3141","lat":35.75159946,"lon":139.25658506},{"name":"志茂町児童館","province":"東京都","city":"西多摩郡日の出町","address":"西多摩郡日の出町平井1254-1","lat":35.74092,"lon":139.27},{"name":"日の出町社会福祉協議会","province":"東京都","city":"西多摩郡日の出町","address":"西多摩郡日の出町大字平井2780","lat":35.74244,"lon":139.25661},{"name":"想い出を語るロマンの杜ひので斎場","province":"東京都","city":"西多摩郡日の出町","address":"東京都西多摩郡日の出町平井（大字）3092","lat":35.75204107,"lon":139.25521292},{"name":"文化の森給水所","province":"東京都","city":"西多摩郡日の出町","address":"東京都西多摩郡日の出町平井（大字）3075","lat":35.74757768,"lon":139.2552131},{"name":"亜細亜大学日の出グラウンド","province":"東京都","city":"西多摩郡日の出町","address":"東京都西多摩郡日の出町平井（大字）1466","lat":35.73682361,"lon":139.26896791},{"name":"谷戸沢グラウンド","province":"東京都","city":"西多摩郡日の出町","address":"東京都西多摩郡日の出町平井（大字）3141","lat":35.75159946,"lon":139.25658506},{"name":"＊?小さな蔵の資料館","province":"東京都","city":"西多摩郡日の出町","address":"日の出町大字大久野4090-2","lat":35.770449,"lon":139.206461},{"name":"＊?日の出町立図書館大久野分室","province":"東京都","city":"西多摩郡日の出町","address":"日の出町大字大久野1167-6","lat":35.745199,"lon":139.235803},{"name":"＊?日の出町立図書館","province":"東京都","city":"西多摩郡日の出町","address":"日の出町平井2780","lat":35.742186,"lon":139.256972},{"name":"日の出町保健センター","province":"東京都","city":"西多摩郡日の出町","address":"東京都西多摩郡日の出町平井（大字）2780","lat":35.74211436,"lon":139.25740482},{"name":"日の出町本庁舎","province":"東京都","city":"西多摩郡日の出町","address":"西多摩郡日の出町大字平井2780","lat":35.742115,"lon":139.257405},{"name":"亜細亜大学日の出グランド","province":"東京都","city":"西多摩郡日の出町","address":"日の出町平井1466","lat":35.73674,"lon":139.2695},{"name":"※日の出町本庁舎","province":"東京都","city":"西多摩郡日の出町","address":"東京都西多摩郡日の出町平井（大字）2780","lat":35.74211436,"lon":139.25740482},{"name":"思い出を語るロマン社ひので斎場","province":"東京都","city":"西多摩郡日の出町","address":"東京都西多摩郡日の出町平井（大字）3092","lat":35.75204107,"lon":139.25521292},{"name":"東京たまエコセメント化施設","province":"東京都","city":"西多摩郡日の出町","address":"日の出町大字大久野7642","lat":35.763477,"lon":139.249741},{"name":"志茂町児童館","province":"東京都","city":"西多摩郡日の出町","address":"西多摩郡日の出町平井1254-1","lat":35.740876,"lon":139.270248},{"name":"日の出町社会福祉協議会","province":"東京都","city":"西多摩郡日の出町","address":"西多摩郡日の出町大字平井2780","lat":35.742114,"lon":139.257405},{"name":"日の出町立図書館","province":"東京都","city":"西多摩郡日の出町","address":"東京都西多摩郡日の出町大字平井2780","lat":35.742119,"lon":139.236806},{"name":"スポーツパーク・やすらぎとふれあいの丘","province":"東京都","city":"西多摩郡日の出町","address":"東京都西多摩郡日の出町大久野（大字）2399","lat":35.74654556,"lon":139.23111725},{"name":"スポーツと文化の森・谷戸沢グランド","province":"東京都","city":"西多摩郡日の出町","address":"東京都西多摩郡日の出町平井（大字）3141","lat":35.75159946,"lon":139.25658506},{"name":"スポーツと文化の森・谷戸沢サッカー場","province":"東京都","city":"西多摩郡日の出町","address":"東京都西多摩郡日の出町平井（大字）3141","lat":35.75159946,"lon":139.25658506},{"name":"志茂町児童館","province":"東京都","city":"西多摩郡日の出町","address":"西多摩郡日の出町平井1254-1","lat":35.74092,"lon":139.27},{"name":"日の出町社会福祉協議会","province":"東京都","city":"西多摩郡日の出町","address":"西多摩郡日の出町大字平井2780","lat":35.74244,"lon":139.25661},{"name":"想い出を語るロマンの杜ひので斎場","province":"東京都","city":"西多摩郡日の出町","address":"東京都西多摩郡日の出町平井（大字）3092","lat":35.75204107,"lon":139.25521292},{"name":"文化の森給水所","province":"東京都","city":"西多摩郡日の出町","address":"東京都西多摩郡日の出町平井（大字）3075","lat":35.74757768,"lon":139.2552131},{"name":"＊?小さな蔵の資料館","province":"東京都","city":"西多摩郡日の出町","address":"日の出町大字大久野4090-2","lat":35.770449,"lon":139.206461},{"name":"＊?日の出町立図書館大久野分室","province":"東京都","city":"西多摩郡日の出町","address":"日の出町大字大久野1167-6","lat":35.745199,"lon":139.235803},{"name":"＊?日の出町立図書館","province":"東京都","city":"西多摩郡日の出町","address":"日の出町平井2780","lat":35.742186,"lon":139.256972},{"name":"日の出町保健センター","province":"東京都","city":"西多摩郡日の出町","address":"東京都西多摩郡日の出町平井（大字）2780","lat":35.74211436,"lon":139.25740482},{"name":"日の出町本庁舎","province":"東京都","city":"西多摩郡日の出町","address":"西多摩郡日の出町大字平井2780","lat":35.742115,"lon":139.257405},{"name":"亜細亜大学日の出グランド","province":"東京都","city":"西多摩郡日の出町","address":"日の出町平井1466","lat":35.73674,"lon":139.2695},{"name":"東京たまエコセメント化施設","province":"東京都","city":"西多摩郡日の出町","address":"日の出町大字大久野7642","lat":35.763477,"lon":139.249741},{"name":"志茂町児童館","province":"東京都","city":"西多摩郡日の出町","address":"西多摩郡日の出町平井1254-1","lat":35.740876,"lon":139.270248},{"name":"日の出町社会福祉協議会","province":"東京都","city":"西多摩郡日の出町","address":"西多摩郡日の出町大字平井2780","lat":35.742114,"lon":139.257405},{"name":"日の出町立図書館","province":"東京都","city":"西多摩郡日の出町","address":"東京都西多摩郡日の出町大字平井2780","lat":35.742119,"lon":139.236806},{"name":"スポーツパーク・やすらぎとふれあいの丘","province":"東京都","city":"西多摩郡日の出町","address":"東京都西多摩郡日の出町大久野（大字）2399","lat":35.74654556,"lon":139.23111725},{"name":"スポーツと文化の森・谷戸沢グランド","province":"東京都","city":"西多摩郡日の出町","address":"東京都西多摩郡日の出町平井（大字）3141","lat":35.75159946,"lon":139.25658506},{"name":"スポーツと文化の森・谷戸沢サッカー場","province":"東京都","city":"西多摩郡日の出町","address":"東京都西多摩郡日の出町平井（大字）3141","lat":35.75159946,"lon":139.25658506},{"name":"志茂町児童館","province":"東京都","city":"西多摩郡日の出町","address":"西多摩郡日の出町平井1254-1","lat":35.74092,"lon":139.27},{"name":"日の出町社会福祉協議会","province":"東京都","city":"西多摩郡日の出町","address":"西多摩郡日の出町大字平井2780","lat":35.74244,"lon":139.25661},{"name":"＊?小さな蔵の資料館","province":"東京都","city":"西多摩郡日の出町","address":"日の出町大字大久野4090-2","lat":35.770449,"lon":139.206461},{"name":"＊?日の出町立図書館大久野分室","province":"東京都","city":"西多摩郡日の出町","address":"日の出町大字大久野1167-6","lat":35.745199,"lon":139.235803},{"name":"＊?日の出町立図書館","province":"東京都","city":"西多摩郡日の出町","address":"日の出町平井2780","lat":35.742186,"lon":139.256972},{"name":"東京たまエコセメント化施設","province":"東京都","city":"西多摩郡日の出町","address":"日の出町大字大久野7642","lat":35.763477,"lon":139.249741},{"name":"志茂町児童館","province":"東京都","city":"西多摩郡日の出町","address":"西多摩郡日の出町平井1254-1","lat":35.740876,"lon":139.270248},{"name":"日の出町社会福祉協議会","province":"東京都","city":"西多摩郡日の出町","address":"西多摩郡日の出町大字平井2780","lat":35.742114,"lon":139.257405},{"name":"日の出町立図書館","province":"東京都","city":"西多摩郡日の出町","address":"東京都西多摩郡日の出町大字平井2780","lat":35.742119,"lon":139.236806},{"name":"スポーツパーク・やすらぎとふれあいの丘","province":"東京都","city":"西多摩郡日の出町","address":"東京都西多摩郡日の出町大久野（大字）2399","lat":35.74654556,"lon":139.23111725},{"name":"スポーツと文化の森・谷戸沢グランド","province":"東京都","city":"西多摩郡日の出町","address":"東京都西多摩郡日の出町平井（大字）3141","lat":35.75159946,"lon":139.25658506},{"name":"スポーツと文化の森・谷戸沢サッカー場","province":"東京都","city":"西多摩郡日の出町","address":"東京都西多摩郡日の出町平井（大字）3141","lat":35.75159946,"lon":139.25658506},{"name":"志茂町児童館","province":"東京都","city":"西多摩郡日の出町","address":"西多摩郡日の出町平井1254-1","lat":35.74092,"lon":139.27},{"name":"日の出町社会福祉協議会","province":"東京都","city":"西多摩郡日の出町","address":"西多摩郡日の出町大字平井2780","lat":35.74244,"lon":139.25661},{"name":"＊?小さな蔵の資料館","province":"東京都","city":"西多摩郡日の出町","address":"日の出町大字大久野4090-2","lat":35.770449,"lon":139.206461},{"name":"＊?日の出町立図書館大久野分室","province":"東京都","city":"西多摩郡日の出町","address":"日の出町大字大久野1167-6","lat":35.745199,"lon":139.235803},{"name":"＊?日の出町立図書館","province":"東京都","city":"西多摩郡日の出町","address":"日の出町平井2780","lat":35.742186,"lon":139.256972},{"name":"東京たまエコセメント化施設","province":"東京都","city":"西多摩郡日の出町","address":"日の出町大字大久野7642","lat":35.763477,"lon":139.249741},{"name":"志茂町児童館","province":"東京都","city":"西多摩郡日の出町","address":"西多摩郡日の出町平井1254-1","lat":35.740876,"lon":139.270248},{"name":"日の出町立図書館","province":"東京都","city":"西多摩郡日の出町","address":"東京都西多摩郡日の出町大字平井2780","lat":35.742119,"lon":139.236806},{"name":"スポーツパーク・やすらぎとふれあいの丘","province":"東京都","city":"西多摩郡日の出町","address":"東京都西多摩郡日の出町大久野（大字）2399","lat":35.74654556,"lon":139.23111725},{"name":"スポーツと文化の森・谷戸沢グランド","province":"東京都","city":"西多摩郡日の出町","address":"東京都西多摩郡日の出町平井（大字）3141","lat":35.75159946,"lon":139.25658506},{"name":"スポーツと文化の森・谷戸沢サッカー場","province":"東京都","city":"西多摩郡日の出町","address":"東京都西多摩郡日の出町平井（大字）3141","lat":35.75159946,"lon":139.25658506},{"name":"志茂町児童館","province":"東京都","city":"西多摩郡日の出町","address":"西多摩郡日の出町平井1254-1","lat":35.74092,"lon":139.27},{"name":"＊?小さな蔵の資料館","province":"東京都","city":"西多摩郡日の出町","address":"日の出町大字大久野4090-2","lat":35.770449,"lon":139.206461},{"name":"＊?日の出町立図書館大久野分室","province":"東京都","city":"西多摩郡日の出町","address":"日の出町大字大久野1167-6","lat":35.745199,"lon":139.235803},{"name":"＊?日の出町立図書館","province":"東京都","city":"西多摩郡日の出町","address":"日の出町平井2780","lat":35.742186,"lon":139.256972},{"name":"東京たまエコセメント化施設","province":"東京都","city":"西多摩郡日の出町","address":"日の出町大字大久野7642","lat":35.763477,"lon":139.249741},{"name":"志茂町児童館","province":"東京都","city":"西多摩郡日の出町","address":"西多摩郡日の出町平井1254-1","lat":35.740876,"lon":139.270248},{"name":"日の出町立図書館","province":"東京都","city":"西多摩郡日の出町","address":"東京都西多摩郡日の出町大字平井2780","lat":35.742119,"lon":139.236806},{"name":"スポーツパーク・やすらぎとふれあいの丘","province":"東京都","city":"西多摩郡日の出町","address":"東京都西多摩郡日の出町大久野（大字）2399","lat":35.74654556,"lon":139.23111725},{"name":"スポーツと文化の森・谷戸沢グランド","province":"東京都","city":"西多摩郡日の出町","address":"東京都西多摩郡日の出町平井（大字）3141","lat":35.75159946,"lon":139.25658506},{"name":"スポーツと文化の森・谷戸沢サッカー場","province":"東京都","city":"西多摩郡日の出町","address":"東京都西多摩郡日の出町平井（大字）3141","lat":35.75159946,"lon":139.25658506},{"name":"志茂町児童館","province":"東京都","city":"西多摩郡日の出町","address":"西多摩郡日の出町平井1254-1","lat":35.74092,"lon":139.27},{"name":"＊?小さな蔵の資料館","province":"東京都","city":"西多摩郡日の出町","address":"日の出町大字大久野4090-2","lat":35.770449,"lon":139.206461},{"name":"＊?日の出町立図書館大久野分室","province":"東京都","city":"西多摩郡日の出町","address":"日の出町大字大久野1167-6","lat":35.745199,"lon":139.235803},{"name":"＊?日の出町立図書館","province":"東京都","city":"西多摩郡日の出町","address":"日の出町平井2780","lat":35.742186,"lon":139.256972},{"name":"東京たまエコセメント化施設","province":"東京都","city":"西多摩郡日の出町","address":"日の出町大字大久野7642","lat":35.763477,"lon":139.249741},{"name":"志茂町児童館","province":"東京都","city":"西多摩郡日の出町","address":"西多摩郡日の出町平井1254-1","lat":35.740876,"lon":139.270248},{"name":"日の出町立図書館","province":"東京都","city":"西多摩郡日の出町","address":"東京都西多摩郡日の出町大字平井2780","lat":35.742119,"lon":139.236806},{"name":"スポーツパーク・やすらぎとふれあいの丘","province":"東京都","city":"西多摩郡日の出町","address":"東京都西多摩郡日の出町大久野（大字）2399","lat":35.74654556,"lon":139.23111725},{"name":"スポーツと文化の森・谷戸沢グランド","province":"東京都","city":"西多摩郡日の出町","address":"東京都西多摩郡日の出町平井（大字）3141","lat":35.75159946,"lon":139.25658506},{"name":"スポーツと文化の森・谷戸沢サッカー場","province":"東京都","city":"西多摩郡日の出町","address":"東京都西多摩郡日の出町平井（大字）3141","lat":35.75159946,"lon":139.25658506},{"name":"志茂町児童館","province":"東京都","city":"西多摩郡日の出町","address":"西多摩郡日の出町平井1254-1","lat":35.74092,"lon":139.27},{"name":"＊?小さな蔵の資料館","province":"東京都","city":"西多摩郡日の出町","address":"日の出町大字大久野4090-2","lat":35.770449,"lon":139.206461},{"name":"＊?日の出町立図書館大久野分室","province":"東京都","city":"西多摩郡日の出町","address":"日の出町大字大久野1167-6","lat":35.745199,"lon":139.235803},{"name":"＊?日の出町立図書館","province":"東京都","city":"西多摩郡日の出町","address":"日の出町平井2780","lat":35.742186,"lon":139.256972},{"name":"東京たまエコセメント化施設","province":"東京都","city":"西多摩郡日の出町","address":"日の出町大字大久野7642","lat":35.763477,"lon":139.249741},{"name":"志茂町児童館","province":"東京都","city":"西多摩郡日の出町","address":"西多摩郡日の出町平井1254-1","lat":35.740876,"lon":139.270248},{"name":"日の出町立図書館","province":"東京都","city":"西多摩郡日の出町","address":"東京都西多摩郡日の出町大字平井2780","lat":35.742119,"lon":139.236806},{"name":"スポーツパーク・やすらぎとふれあいの丘","province":"東京都","city":"西多摩郡日の出町","address":"東京都西多摩郡日の出町大久野（大字）2399","lat":35.74654556,"lon":139.23111725},{"name":"スポーツと文化の森・谷戸沢グランド","province":"東京都","city":"西多摩郡日の出町","address":"東京都西多摩郡日の出町平井（大字）3141","lat":35.75159946,"lon":139.25658506},{"name":"スポーツと文化の森・谷戸沢サッカー場","province":"東京都","city":"西多摩郡日の出町","address":"東京都西多摩郡日の出町平井（大字）3141","lat":35.75159946,"lon":139.25658506},{"name":"志茂町児童館","province":"東京都","city":"西多摩郡日の出町","address":"西多摩郡日の出町平井1254-1","lat":35.74092,"lon":139.27},{"name":"＊?小さな蔵の資料館","province":"東京都","city":"西多摩郡日の出町","address":"日の出町大字大久野4090-2","lat":35.770449,"lon":139.206461},{"name":"＊?日の出町立図書館大久野分室","province":"東京都","city":"西多摩郡日の出町","address":"日の出町大字大久野1167-6","lat":35.745199,"lon":139.235803},{"name":"＊?日の出町立図書館","province":"東京都","city":"西多摩郡日の出町","address":"日の出町平井2780","lat":35.742186,"lon":139.256972},{"name":"東京たまエコセメント化施設","province":"東京都","city":"西多摩郡日の出町","address":"日の出町大字大久野7642","lat":35.763477,"lon":139.249741},{"name":"志茂町児童館","province":"東京都","city":"西多摩郡日の出町","address":"西多摩郡日の出町平井1254-1","lat":35.740876,"lon":139.270248},{"name":"日の出町立図書館","province":"東京都","city":"西多摩郡日の出町","address":"東京都西多摩郡日の出町大字平井2780","lat":35.742119,"lon":139.236806},{"name":"スポーツパーク・やすらぎとふれあいの丘","province":"東京都","city":"西多摩郡日の出町","address":"東京都西多摩郡日の出町大久野（大字）2399","lat":35.74654556,"lon":139.23111725},{"name":"スポーツと文化の森・谷戸沢グランド","province":"東京都","city":"西多摩郡日の出町","address":"東京都西多摩郡日の出町平井（大字）3141","lat":35.75159946,"lon":139.25658506},{"name":"スポーツと文化の森・谷戸沢サッカー場","province":"東京都","city":"西多摩郡日の出町","address":"東京都西多摩郡日の出町平井（大字）3141","lat":35.75159946,"lon":139.25658506},{"name":"志茂町児童館","province":"東京都","city":"西多摩郡日の出町","address":"西多摩郡日の出町平井1254-1","lat":35.74092,"lon":139.27},{"name":"＊?小さな蔵の資料館","province":"東京都","city":"西多摩郡日の出町","address":"日の出町大字大久野4090-2","lat":35.770449,"lon":139.206461},{"name":"＊?日の出町立図書館大久野分室","province":"東京都","city":"西多摩郡日の出町","address":"日の出町大字大久野1167-6","lat":35.745199,"lon":139.235803},{"name":"＊?日の出町立図書館","province":"東京都","city":"西多摩郡日の出町","address":"日の出町平井2780","lat":35.742186,"lon":139.256972},{"name":"東京たまエコセメント化施設","province":"東京都","city":"西多摩郡日の出町","address":"日の出町大字大久野7642","lat":35.763477,"lon":139.249741},{"name":"志茂町児童館","province":"東京都","city":"西多摩郡日の出町","address":"西多摩郡日の出町平井1254-1","lat":35.740876,"lon":139.270248},{"name":"日の出町立図書館","province":"東京都","city":"西多摩郡日の出町","address":"東京都西多摩郡日の出町大字平井2780","lat":35.742119,"lon":139.236806},{"name":"スポーツパーク・やすらぎとふれあいの丘","province":"東京都","city":"西多摩郡日の出町","address":"東京都西多摩郡日の出町大久野（大字）2399","lat":35.74654556,"lon":139.23111725},{"name":"スポーツと文化の森・谷戸沢グランド","province":"東京都","city":"西多摩郡日の出町","address":"東京都西多摩郡日の出町平井（大字）3141","lat":35.75159946,"lon":139.25658506},{"name":"スポーツと文化の森・谷戸沢サッカー場","province":"東京都","city":"西多摩郡日の出町","address":"東京都西多摩郡日の出町平井（大字）3141","lat":35.75159946,"lon":139.25658506},{"name":"志茂町児童館","province":"東京都","city":"西多摩郡日の出町","address":"西多摩郡日の出町平井1254-1","lat":35.74092,"lon":139.27},{"name":"＊?日の出町立図書館大久野分室","province":"東京都","city":"西多摩郡日の出町","address":"日の出町大字大久野1167-6","lat":35.745199,"lon":139.235803},{"name":"＊?日の出町立図書館","province":"東京都","city":"西多摩郡日の出町","address":"日の出町平井2780","lat":35.742186,"lon":139.256972},{"name":"東京たまエコセメント化施設","province":"東京都","city":"西多摩郡日の出町","address":"日の出町大字大久野7642","lat":35.763477,"lon":139.249741},{"name":"志茂町児童館","province":"東京都","city":"西多摩郡日の出町","address":"西多摩郡日の出町平井1254-1","lat":35.740876,"lon":139.270248},{"name":"日の出町立図書館","province":"東京都","city":"西多摩郡日の出町","address":"東京都西多摩郡日の出町大字平井2780","lat":35.742119,"lon":139.236806},{"name":"スポーツパーク・やすらぎとふれあいの丘","province":"東京都","city":"西多摩郡日の出町","address":"東京都西多摩郡日の出町大久野（大字）2399","lat":35.74654556,"lon":139.23111725},{"name":"スポーツと文化の森・谷戸沢グランド","province":"東京都","city":"西多摩郡日の出町","address":"東京都西多摩郡日の出町平井（大字）3141","lat":35.75159946,"lon":139.25658506},{"name":"スポーツと文化の森・谷戸沢サッカー場","province":"東京都","city":"西多摩郡日の出町","address":"東京都西多摩郡日の出町平井（大字）3141","lat":35.75159946,"lon":139.25658506},{"name":"志茂町児童館","province":"東京都","city":"西多摩郡日の出町","address":"西多摩郡日の出町平井1254-1","lat":35.74092,"lon":139.27},{"name":"＊?日の出町立図書館大久野分室","province":"東京都","city":"西多摩郡日の出町","address":"日の出町大字大久野1167-6","lat":35.745199,"lon":139.235803},{"name":"＊?日の出町立図書館","province":"東京都","city":"西多摩郡日の出町","address":"日の出町平井2780","lat":35.742186,"lon":139.256972},{"name":"東京たまエコセメント化施設","province":"東京都","city":"西多摩郡日の出町","address":"日の出町大字大久野7642","lat":35.763477,"lon":139.249741},{"name":"志茂町児童館","province":"東京都","city":"西多摩郡日の出町","address":"西多摩郡日の出町平井1254-1","lat":35.740876,"lon":139.270248},{"name":"日の出町立図書館","province":"東京都","city":"西多摩郡日の出町","address":"東京都西多摩郡日の出町大字平井2780","lat":35.742119,"lon":139.236806},{"name":"スポーツパーク・やすらぎとふれあいの丘","province":"東京都","city":"西多摩郡日の出町","address":"東京都西多摩郡日の出町大久野（大字）2399","lat":35.74654556,"lon":139.23111725},{"name":"スポーツと文化の森・谷戸沢グランド","province":"東京都","city":"西多摩郡日の出町","address":"東京都西多摩郡日の出町平井（大字）3141","lat":35.75159946,"lon":139.25658506},{"name":"スポーツと文化の森・谷戸沢サッカー場","province":"東京都","city":"西多摩郡日の出町","address":"東京都西多摩郡日の出町平井（大字）3141","lat":35.75159946,"lon":139.25658506},{"name":"志茂町児童館","province":"東京都","city":"西多摩郡日の出町","address":"西多摩郡日の出町平井1254-1","lat":35.74092,"lon":139.27},{"name":"＊?日の出町立図書館大久野分室","province":"東京都","city":"西多摩郡日の出町","address":"日の出町大字大久野1167-6","lat":35.745199,"lon":139.235803},{"name":"＊?日の出町立図書館","province":"東京都","city":"西多摩郡日の出町","address":"日の出町平井2780","lat":35.742186,"lon":139.256972},{"name":"東京たまエコセメント化施設","province":"東京都","city":"西多摩郡日の出町","address":"日の出町大字大久野7642","lat":35.763477,"lon":139.249741},{"name":"志茂町児童館","province":"東京都","city":"西多摩郡日の出町","address":"西多摩郡日の出町平井1254-1","lat":35.740876,"lon":139.270248},{"name":"日の出町立図書館","province":"東京都","city":"西多摩郡日の出町","address":"東京都西多摩郡日の出町大字平井2780","lat":35.742119,"lon":139.236806},{"name":"スポーツパーク・やすらぎとふれあいの丘","province":"東京都","city":"西多摩郡日の出町","address":"東京都西多摩郡日の出町大久野（大字）2399","lat":35.74654556,"lon":139.23111725},{"name":"スポーツと文化の森・谷戸沢グランド","province":"東京都","city":"西多摩郡日の出町","address":"東京都西多摩郡日の出町平井（大字）3141","lat":35.75159946,"lon":139.25658506},{"name":"スポーツと文化の森・谷戸沢サッカー場","province":"東京都","city":"西多摩郡日の出町","address":"東京都西多摩郡日の出町平井（大字）3141","lat":35.75159946,"lon":139.25658506},{"name":"志茂町児童館","province":"東京都","city":"西多摩郡日の出町","address":"西多摩郡日の出町平井1254-1","lat":35.74092,"lon":139.27},{"name":"＊?日の出町立図書館大久野分室","province":"東京都","city":"西多摩郡日の出町","address":"日の出町大字大久野1167-6","lat":35.745199,"lon":139.235803},{"name":"＊?日の出町立図書館","province":"東京都","city":"西多摩郡日の出町","address":"日の出町平井2780","lat":35.742186,"lon":139.256972},{"name":"東京たまエコセメント化施設","province":"東京都","city":"西多摩郡日の出町","address":"日の出町大字大久野7642","lat":35.763477,"lon":139.249741},{"name":"志茂町児童館","province":"東京都","city":"西多摩郡日の出町","address":"西多摩郡日の出町平井1254-1","lat":35.740876,"lon":139.270248},{"name":"日の出町立図書館","province":"東京都","city":"西多摩郡日の出町","address":"東京都西多摩郡日の出町大字平井2780","lat":35.742119,"lon":139.236806},{"name":"スポーツパーク・やすらぎとふれあいの丘","province":"東京都","city":"西多摩郡日の出町","address":"東京都西多摩郡日の出町大久野（大字）2399","lat":35.74654556,"lon":139.23111725},{"name":"スポーツと文化の森・谷戸沢グランド","province":"東京都","city":"西多摩郡日の出町","address":"東京都西多摩郡日の出町平井（大字）3141","lat":35.75159946,"lon":139.25658506},{"name":"スポーツと文化の森・谷戸沢サッカー場","province":"東京都","city":"西多摩郡日の出町","address":"東京都西多摩郡日の出町平井（大字）3141","lat":35.75159946,"lon":139.25658506},{"name":"志茂町児童館","province":"東京都","city":"西多摩郡日の出町","address":"西多摩郡日の出町平井1254-1","lat":35.74092,"lon":139.27},{"name":"＊?日の出町立図書館大久野分室","province":"東京都","city":"西多摩郡日の出町","address":"日の出町大字大久野1167-6","lat":35.745199,"lon":139.235803},{"name":"＊?日の出町立図書館","province":"東京都","city":"西多摩郡日の出町","address":"日の出町平井2780","lat":35.742186,"lon":139.256972},{"name":"東京たまエコセメント化施設","province":"東京都","city":"西多摩郡日の出町","address":"日の出町大字大久野7642","lat":35.763477,"lon":139.249741},{"name":"志茂町児童館","province":"東京都","city":"西多摩郡日の出町","address":"西多摩郡日の出町平井1254-1","lat":35.740876,"lon":139.270248},{"name":"日の出町立図書館","province":"東京都","city":"西多摩郡日の出町","address":"東京都西多摩郡日の出町大字平井2780","lat":35.742119,"lon":139.236806},{"name":"スポーツパーク・やすらぎとふれあいの丘","province":"東京都","city":"西多摩郡日の出町","address":"東京都西多摩郡日の出町大久野（大字）2399","lat":35.74654556,"lon":139.23111725},{"name":"スポーツと文化の森・谷戸沢グランド","province":"東京都","city":"西多摩郡日の出町","address":"東京都西多摩郡日の出町平井（大字）3141","lat":35.75159946,"lon":139.25658506},{"name":"スポーツと文化の森・谷戸沢サッカー場","province":"東京都","city":"西多摩郡日の出町","address":"東京都西多摩郡日の出町平井（大字）3141","lat":35.75159946,"lon":139.25658506},{"name":"志茂町児童館","province":"東京都","city":"西多摩郡日の出町","address":"西多摩郡日の出町平井1254-1","lat":35.74092,"lon":139.27},{"name":"＊?日の出町立図書館大久野分室","province":"東京都","city":"西多摩郡日の出町","address":"日の出町大字大久野1167-6","lat":35.745199,"lon":139.235803},{"name":"＊?日の出町立図書館","province":"東京都","city":"西多摩郡日の出町","address":"日の出町平井2780","lat":35.742186,"lon":139.256972},{"name":"東京たまエコセメント化施設","province":"東京都","city":"西多摩郡日の出町","address":"日の出町大字大久野7642","lat":35.763477,"lon":139.249741},{"name":"志茂町児童館","province":"東京都","city":"西多摩郡日の出町","address":"西多摩郡日の出町平井1254-1","lat":35.740876,"lon":139.270248},{"name":"日の出町立図書館","province":"東京都","city":"西多摩郡日の出町","address":"東京都西多摩郡日の出町大字平井2780","lat":35.742119,"lon":139.236806},{"name":"スポーツパーク・やすらぎとふれあいの丘","province":"東京都","city":"西多摩郡日の出町","address":"東京都西多摩郡日の出町大久野（大字）2399","lat":35.74654556,"lon":139.23111725},{"name":"スポーツと文化の森・谷戸沢グランド","province":"東京都","city":"西多摩郡日の出町","address":"東京都西多摩郡日の出町平井（大字）3141","lat":35.75159946,"lon":139.25658506},{"name":"スポーツと文化の森・谷戸沢サッカー場","province":"東京都","city":"西多摩郡日の出町","address":"東京都西多摩郡日の出町平井（大字）3141","lat":35.75159946,"lon":139.25658506},{"name":"志茂町児童館","province":"東京都","city":"西多摩郡日の出町","address":"西多摩郡日の出町平井1254-1","lat":35.74092,"lon":139.27},{"name":"＊?日の出町立図書館大久野分室","province":"東京都","city":"西多摩郡日の出町","address":"日の出町大字大久野1167-6","lat":35.745199,"lon":139.235803},{"name":"＊?日の出町立図書館","province":"東京都","city":"西多摩郡日の出町","address":"日の出町平井2780","lat":35.742186,"lon":139.256972},{"name":"東京たまエコセメント化施設","province":"東京都","city":"西多摩郡日の出町","address":"日の出町大字大久野7642","lat":35.763477,"lon":139.249741},{"name":"志茂町児童館","province":"東京都","city":"西多摩郡日の出町","address":"西多摩郡日の出町平井1254-1","lat":35.740876,"lon":139.270248},{"name":"日の出町立図書館","province":"東京都","city":"西多摩郡日の出町","address":"東京都西多摩郡日の出町大字平井2780","lat":35.742119,"lon":139.236806},{"name":"スポーツパーク・やすらぎとふれあいの丘","province":"東京都","city":"西多摩郡日の出町","address":"東京都西多摩郡日の出町大久野（大字）2399","lat":35.74654556,"lon":139.23111725},{"name":"スポーツと文化の森・谷戸沢グランド","province":"東京都","city":"西多摩郡日の出町","address":"東京都西多摩郡日の出町平井（大字）3141","lat":35.75159946,"lon":139.25658506},{"name":"スポーツと文化の森・谷戸沢サッカー場","province":"東京都","city":"西多摩郡日の出町","address":"東京都西多摩郡日の出町平井（大字）3141","lat":35.75159946,"lon":139.25658506},{"name":"志茂町児童館","province":"東京都","city":"西多摩郡日の出町","address":"西多摩郡日の出町平井1254-1","lat":35.74092,"lon":139.27},{"name":"＊?日の出町立図書館大久野分室","province":"東京都","city":"西多摩郡日の出町","address":"日の出町大字大久野1167-6","lat":35.745199,"lon":139.235803},{"name":"＊?日の出町立図書館","province":"東京都","city":"西多摩郡日の出町","address":"日の出町平井2780","lat":35.742186,"lon":139.256972},{"name":"東京たまエコセメント化施設","province":"東京都","city":"西多摩郡日の出町","address":"日の出町大字大久野7642","lat":35.763477,"lon":139.249741},{"name":"志茂町児童館","province":"東京都","city":"西多摩郡日の出町","address":"西多摩郡日の出町平井1254-1","lat":35.740876,"lon":139.270248},{"name":"日の出町立図書館","province":"東京都","city":"西多摩郡日の出町","address":"東京都西多摩郡日の出町大字平井2780","lat":35.742119,"lon":139.236806},{"name":"スポーツパーク・やすらぎとふれあいの丘","province":"東京都","city":"西多摩郡日の出町","address":"東京都西多摩郡日の出町大久野（大字）2399","lat":35.74654556,"lon":139.23111725},{"name":"スポーツと文化の森・谷戸沢グランド","province":"東京都","city":"西多摩郡日の出町","address":"東京都西多摩郡日の出町平井（大字）3141","lat":35.75159946,"lon":139.25658506},{"name":"スポーツと文化の森・谷戸沢サッカー場","province":"東京都","city":"西多摩郡日の出町","address":"東京都西多摩郡日の出町平井（大字）3141","lat":35.75159946,"lon":139.25658506},{"name":"志茂町児童館","province":"東京都","city":"西多摩郡日の出町","address":"西多摩郡日の出町平井1254-1","lat":35.74092,"lon":139.27},{"name":"＊?日の出町立図書館大久野分室","province":"東京都","city":"西多摩郡日の出町","address":"日の出町大字大久野1167-6","lat":35.745199,"lon":139.235803},{"name":"＊?日の出町立図書館","province":"東京都","city":"西多摩郡日の出町","address":"日の出町平井2780","lat":35.742186,"lon":139.256972},{"name":"東京たまエコセメント化施設","province":"東京都","city":"西多摩郡日の出町","address":"日の出町大字大久野7642","lat":35.763477,"lon":139.249741},{"name":"志茂町児童館","province":"東京都","city":"西多摩郡日の出町","address":"西多摩郡日の出町平井1254-1","lat":35.740876,"lon":139.270248},{"name":"日の出町立図書館","province":"東京都","city":"西多摩郡日の出町","address":"東京都西多摩郡日の出町大字平井2780","lat":35.742119,"lon":139.236806},{"name":"スポーツパーク・やすらぎとふれあいの丘","province":"東京都","city":"西多摩郡日の出町","address":"東京都西多摩郡日の出町大久野（大字）2399","lat":35.74654556,"lon":139.23111725},{"name":"スポーツと文化の森・谷戸沢グランド","province":"東京都","city":"西多摩郡日の出町","address":"東京都西多摩郡日の出町平井（大字）3141","lat":35.75159946,"lon":139.25658506},{"name":"スポーツと文化の森・谷戸沢サッカー場","province":"東京都","city":"西多摩郡日の出町","address":"東京都西多摩郡日の出町平井（大字）3141","lat":35.75159946,"lon":139.25658506},{"name":"志茂町児童館","province":"東京都","city":"西多摩郡日の出町","address":"西多摩郡日の出町平井1254-1","lat":35.74092,"lon":139.27},{"name":"＊?日の出町立図書館大久野分室","province":"東京都","city":"西多摩郡日の出町","address":"日の出町大字大久野1167-6","lat":35.745199,"lon":139.235803},{"name":"＊?日の出町立図書館","province":"東京都","city":"西多摩郡日の出町","address":"日の出町平井2780","lat":35.742186,"lon":139.256972},{"name":"東京たまエコセメント化施設","province":"東京都","city":"西多摩郡日の出町","address":"日の出町大字大久野7642","lat":35.763477,"lon":139.249741},{"name":"志茂町児童館","province":"東京都","city":"西多摩郡日の出町","address":"西多摩郡日の出町平井1254-1","lat":35.740876,"lon":139.270248},{"name":"日の出町立図書館","province":"東京都","city":"西多摩郡日の出町","address":"東京都西多摩郡日の出町大字平井2780","lat":35.742119,"lon":139.236806},{"name":"スポーツパーク・やすらぎとふれあいの丘","province":"東京都","city":"西多摩郡日の出町","address":"東京都西多摩郡日の出町大久野（大字）2399","lat":35.74654556,"lon":139.23111725},{"name":"スポーツと文化の森・谷戸沢グランド","province":"東京都","city":"西多摩郡日の出町","address":"東京都西多摩郡日の出町平井（大字）3141","lat":35.75159946,"lon":139.25658506},{"name":"スポーツと文化の森・谷戸沢サッカー場","province":"東京都","city":"西多摩郡日の出町","address":"東京都西多摩郡日の出町平井（大字）3141","lat":35.75159946,"lon":139.25658506},{"name":"志茂町児童館","province":"東京都","city":"西多摩郡日の出町","address":"西多摩郡日の出町平井1254-1","lat":35.74092,"lon":139.27},{"name":"＊?日の出町立図書館大久野分室","province":"東京都","city":"西多摩郡日の出町","address":"日の出町大字大久野1167-6","lat":35.745199,"lon":139.235803},{"name":"＊?日の出町立図書館","province":"東京都","city":"西多摩郡日の出町","address":"日の出町平井2780","lat":35.742186,"lon":139.256972},{"name":"東京たまエコセメント化施設","province":"東京都","city":"西多摩郡日の出町","address":"日の出町大字大久野7642","lat":35.763477,"lon":139.249741},{"name":"志茂町児童館","province":"東京都","city":"西多摩郡日の出町","address":"西多摩郡日の出町平井1254-1","lat":35.740876,"lon":139.270248},{"name":"日の出町立図書館","province":"東京都","city":"西多摩郡日の出町","address":"東京都西多摩郡日の出町大字平井2780","lat":35.742119,"lon":139.236806},{"name":"スポーツパーク・やすらぎとふれあいの丘","province":"東京都","city":"西多摩郡日の出町","address":"東京都西多摩郡日の出町大久野（大字）2399","lat":35.74654556,"lon":139.23111725},{"name":"スポーツと文化の森・谷戸沢グランド","province":"東京都","city":"西多摩郡日の出町","address":"東京都西多摩郡日の出町平井（大字）3141","lat":35.75159946,"lon":139.25658506},{"name":"スポーツと文化の森・谷戸沢サッカー場","province":"東京都","city":"西多摩郡日の出町","address":"東京都西多摩郡日の出町平井（大字）3141","lat":35.75159946,"lon":139.25658506},{"name":"志茂町児童館","province":"東京都","city":"西多摩郡日の出町","address":"西多摩郡日の出町平井1254-1","lat":35.74092,"lon":139.27},{"name":"＊?日の出町立図書館大久野分室","province":"東京都","city":"西多摩郡日の出町","address":"日の出町大字大久野1167-6","lat":35.745199,"lon":139.235803},{"name":"＊?日の出町立図書館","province":"東京都","city":"西多摩郡日の出町","address":"日の出町平井2780","lat":35.742186,"lon":139.256972},{"name":"東京たまエコセメント化施設","province":"東京都","city":"西多摩郡日の出町","address":"日の出町大字大久野7642","lat":35.763477,"lon":139.249741},{"name":"志茂町児童館","province":"東京都","city":"西多摩郡日の出町","address":"西多摩郡日の出町平井1254-1","lat":35.740876,"lon":139.270248},{"name":"日の出町立図書館","province":"東京都","city":"西多摩郡日の出町","address":"東京都西多摩郡日の出町大字平井2780","lat":35.742119,"lon":139.236806},{"name":"スポーツパーク・やすらぎとふれあいの丘","province":"東京都","city":"西多摩郡日の出町","address":"東京都西多摩郡日の出町大久野（大字）2399","lat":35.74654556,"lon":139.23111725},{"name":"スポーツと文化の森・谷戸沢グランド","province":"東京都","city":"西多摩郡日の出町","address":"東京都西多摩郡日の出町平井（大字）3141","lat":35.75159946,"lon":139.25658506},{"name":"スポーツと文化の森・谷戸沢サッカー場","province":"東京都","city":"西多摩郡日の出町","address":"東京都西多摩郡日の出町平井（大字）3141","lat":35.75159946,"lon":139.25658506},{"name":"志茂町児童館","province":"東京都","city":"西多摩郡日の出町","address":"西多摩郡日の出町平井1254-1","lat":35.74092,"lon":139.27},{"name":"＊?日の出町立図書館大久野分室","province":"東京都","city":"西多摩郡日の出町","address":"日の出町大字大久野1167-6","lat":35.745199,"lon":139.235803},{"name":"＊?日の出町立図書館","province":"東京都","city":"西多摩郡日の出町","address":"日の出町平井2780","lat":35.742186,"lon":139.256972},{"name":"東京たまエコセメント化施設","province":"東京都","city":"西多摩郡日の出町","address":"日の出町大字大久野7642","lat":35.763477,"lon":139.249741},{"name":"志茂町児童館","province":"東京都","city":"西多摩郡日の出町","address":"西多摩郡日の出町平井1254-1","lat":35.740876,"lon":139.270248},{"name":"日の出町立図書館","province":"東京都","city":"西多摩郡日の出町","address":"東京都西多摩郡日の出町大字平井2780","lat":35.742119,"lon":139.236806},{"name":"スポーツパーク・やすらぎとふれあいの丘","province":"東京都","city":"西多摩郡日の出町","address":"東京都西多摩郡日の出町大久野（大字）2399","lat":35.74654556,"lon":139.23111725},{"name":"スポーツと文化の森・谷戸沢グランド","province":"東京都","city":"西多摩郡日の出町","address":"東京都西多摩郡日の出町平井（大字）3141","lat":35.75159946,"lon":139.25658506},{"name":"スポーツと文化の森・谷戸沢サッカー場","province":"東京都","city":"西多摩郡日の出町","address":"東京都西多摩郡日の出町平井（大字）3141","lat":35.75159946,"lon":139.25658506},{"name":"志茂町児童館","province":"東京都","city":"西多摩郡日の出町","address":"西多摩郡日の出町平井1254-1","lat":35.74092,"lon":139.27},{"name":"＊?日の出町立図書館大久野分室","province":"東京都","city":"西多摩郡日の出町","address":"日の出町大字大久野1167-6","lat":35.745199,"lon":139.235803},{"name":"＊?日の出町立図書館","province":"東京都","city":"西多摩郡日の出町","address":"日の出町平井2780","lat":35.742186,"lon":139.256972},{"name":"志茂町児童館","province":"東京都","city":"西多摩郡日の出町","address":"西多摩郡日の出町平井1254-1","lat":35.740876,"lon":139.270248},{"name":"日の出町立図書館","province":"東京都","city":"西多摩郡日の出町","address":"東京都西多摩郡日の出町大字平井2780","lat":35.742119,"lon":139.236806},{"name":"スポーツパーク・やすらぎとふれあいの丘","province":"東京都","city":"西多摩郡日の出町","address":"東京都西多摩郡日の出町大久野（大字）2399","lat":35.74654556,"lon":139.23111725},{"name":"スポーツと文化の森・谷戸沢グランド","province":"東京都","city":"西多摩郡日の出町","address":"東京都西多摩郡日の出町平井（大字）3141","lat":35.75159946,"lon":139.25658506},{"name":"スポーツと文化の森・谷戸沢サッカー場","province":"東京都","city":"西多摩郡日の出町","address":"東京都西多摩郡日の出町平井（大字）3141","lat":35.75159946,"lon":139.25658506},{"name":"志茂町児童館","province":"東京都","city":"西多摩郡日の出町","address":"西多摩郡日の出町平井1254-1","lat":35.74092,"lon":139.27},{"name":"＊?日の出町立図書館大久野分室","province":"東京都","city":"西多摩郡日の出町","address":"日の出町大字大久野1167-6","lat":35.745199,"lon":139.235803},{"name":"＊?日の出町立図書館","province":"東京都","city":"西多摩郡日の出町","address":"日の出町平井2780","lat":35.742186,"lon":139.256972},{"name":"志茂町児童館","province":"東京都","city":"西多摩郡日の出町","address":"西多摩郡日の出町平井1254-1","lat":35.740876,"lon":139.270248},{"name":"日の出町立図書館","province":"東京都","city":"西多摩郡日の出町","address":"東京都西多摩郡日の出町大字平井2780","lat":35.742119,"lon":139.236806},{"name":"スポーツパーク・やすらぎとふれあいの丘","province":"東京都","city":"西多摩郡日の出町","address":"東京都西多摩郡日の出町大久野（大字）2399","lat":35.74654556,"lon":139.23111725},{"name":"スポーツと文化の森・谷戸沢グランド","province":"東京都","city":"西多摩郡日の出町","address":"東京都西多摩郡日の出町平井（大字）3141","lat":35.75159946,"lon":139.25658506},{"name":"スポーツと文化の森・谷戸沢サッカー場","province":"東京都","city":"西多摩郡日の出町","address":"東京都西多摩郡日の出町平井（大字）3141","lat":35.75159946,"lon":139.25658506},{"name":"志茂町児童館","province":"東京都","city":"西多摩郡日の出町","address":"西多摩郡日の出町平井1254-1","lat":35.74092,"lon":139.27},{"name":"＊?日の出町立図書館大久野分室","province":"東京都","city":"西多摩郡日の出町","address":"日の出町大字大久野1167-6","lat":35.745199,"lon":139.235803},{"name":"＊?日の出町立図書館","province":"東京都","city":"西多摩郡日の出町","address":"日の出町平井2780","lat":35.742186,"lon":139.256972},{"name":"志茂町児童館","province":"東京都","city":"西多摩郡日の出町","address":"西多摩郡日の出町平井1254-1","lat":35.740876,"lon":139.270248},{"name":"日の出町立図書館","province":"東京都","city":"西多摩郡日の出町","address":"東京都西多摩郡日の出町大字平井2780","lat":35.742119,"lon":139.236806},{"name":"スポーツパーク・やすらぎとふれあいの丘","province":"東京都","city":"西多摩郡日の出町","address":"東京都西多摩郡日の出町大久野（大字）2399","lat":35.74654556,"lon":139.23111725},{"name":"スポーツと文化の森・谷戸沢グランド","province":"東京都","city":"西多摩郡日の出町","address":"東京都西多摩郡日の出町平井（大字）3141","lat":35.75159946,"lon":139.25658506},{"name":"スポーツと文化の森・谷戸沢サッカー場","province":"東京都","city":"西多摩郡日の出町","address":"東京都西多摩郡日の出町平井（大字）3141","lat":35.75159946,"lon":139.25658506},{"name":"志茂町児童館","province":"東京都","city":"西多摩郡日の出町","address":"西多摩郡日の出町平井1254-1","lat":35.74092,"lon":139.27},{"name":"＊?日の出町立図書館大久野分室","province":"東京都","city":"西多摩郡日の出町","address":"日の出町大字大久野1167-6","lat":35.745199,"lon":139.235803},{"name":"＊?日の出町立図書館","province":"東京都","city":"西多摩郡日の出町","address":"日の出町平井2780","lat":35.742186,"lon":139.256972},{"name":"志茂町児童館","province":"東京都","city":"西多摩郡日の出町","address":"西多摩郡日の出町平井1254-1","lat":35.740876,"lon":139.270248},{"name":"日の出町立図書館","province":"東京都","city":"西多摩郡日の出町","address":"東京都西多摩郡日の出町大字平井2780","lat":35.742119,"lon":139.236806},{"name":"スポーツパーク・やすらぎとふれあいの丘","province":"東京都","city":"西多摩郡日の出町","address":"東京都西多摩郡日の出町大久野（大字）2399","lat":35.74654556,"lon":139.23111725},{"name":"スポーツと文化の森・谷戸沢グランド","province":"東京都","city":"西多摩郡日の出町","address":"東京都西多摩郡日の出町平井（大字）3141","lat":35.75159946,"lon":139.25658506},{"name":"スポーツと文化の森・谷戸沢サッカー場","province":"東京都","city":"西多摩郡日の出町","address":"東京都西多摩郡日の出町平井（大字）3141","lat":35.75159946,"lon":139.25658506},{"name":"志茂町児童館","province":"東京都","city":"西多摩郡日の出町","address":"西多摩郡日の出町平井1254-1","lat":35.74092,"lon":139.27},{"name":"＊?日の出町立図書館大久野分室","province":"東京都","city":"西多摩郡日の出町","address":"日の出町大字大久野1167-6","lat":35.745199,"lon":139.235803},{"name":"＊?日の出町立図書館","province":"東京都","city":"西多摩郡日の出町","address":"日の出町平井2780","lat":35.742186,"lon":139.256972},{"name":"志茂町児童館","province":"東京都","city":"西多摩郡日の出町","address":"西多摩郡日の出町平井1254-1","lat":35.740876,"lon":139.270248},{"name":"日の出町立図書館","province":"東京都","city":"西多摩郡日の出町","address":"東京都西多摩郡日の出町大字平井2780","lat":35.742119,"lon":139.236806},{"name":"スポーツパーク・やすらぎとふれあいの丘","province":"東京都","city":"西多摩郡日の出町","address":"東京都西多摩郡日の出町大久野（大字）2399","lat":35.74654556,"lon":139.23111725},{"name":"スポーツと文化の森・谷戸沢グランド","province":"東京都","city":"西多摩郡日の出町","address":"東京都西多摩郡日の出町平井（大字）3141","lat":35.75159946,"lon":139.25658506},{"name":"スポーツと文化の森・谷戸沢サッカー場","province":"東京都","city":"西多摩郡日の出町","address":"東京都西多摩郡日の出町平井（大字）3141","lat":35.75159946,"lon":139.25658506},{"name":"志茂町児童館","province":"東京都","city":"西多摩郡日の出町","address":"西多摩郡日の出町平井1254-1","lat":35.74092,"lon":139.27},{"name":"＊?日の出町立図書館大久野分室","province":"東京都","city":"西多摩郡日の出町","address":"日の出町大字大久野1167-6","lat":35.745199,"lon":139.235803},{"name":"＊?日の出町立図書館","province":"東京都","city":"西多摩郡日の出町","address":"日の出町平井2780","lat":35.742186,"lon":139.256972},{"name":"志茂町児童館","province":"東京都","city":"西多摩郡日の出町","address":"西多摩郡日の出町平井1254-1","lat":35.740876,"lon":139.270248},{"name":"日の出町立図書館","province":"東京都","city":"西多摩郡日の出町","address":"東京都西多摩郡日の出町大字平井2780","lat":35.742119,"lon":139.236806},{"name":"スポーツパーク・やすらぎとふれあいの丘","province":"東京都","city":"西多摩郡日の出町","address":"東京都西多摩郡日の出町大久野（大字）2399","lat":35.74654556,"lon":139.23111725},{"name":"スポーツと文化の森・谷戸沢グランド","province":"東京都","city":"西多摩郡日の出町","address":"東京都西多摩郡日の出町平井（大字）3141","lat":35.75159946,"lon":139.25658506},{"name":"スポーツと文化の森・谷戸沢サッカー場","province":"東京都","city":"西多摩郡日の出町","address":"東京都西多摩郡日の出町平井（大字）3141","lat":35.75159946,"lon":139.25658506},{"name":"志茂町児童館","province":"東京都","city":"西多摩郡日の出町","address":"西多摩郡日の出町平井1254-1","lat":35.74092,"lon":139.27},{"name":"＊?日の出町立図書館大久野分室","province":"東京都","city":"西多摩郡日の出町","address":"日の出町大字大久野1167-6","lat":35.745199,"lon":139.235803},{"name":"＊?日の出町立図書館","province":"東京都","city":"西多摩郡日の出町","address":"日の出町平井2780","lat":35.742186,"lon":139.256972},{"name":"志茂町児童館","province":"東京都","city":"西多摩郡日の出町","address":"西多摩郡日の出町平井1254-1","lat":35.740876,"lon":139.270248},{"name":"日の出町立図書館","province":"東京都","city":"西多摩郡日の出町","address":"東京都西多摩郡日の出町大字平井2780","lat":35.742119,"lon":139.236806},{"name":"スポーツパーク・やすらぎとふれあいの丘","province":"東京都","city":"西多摩郡日の出町","address":"東京都西多摩郡日の出町大久野（大字）2399","lat":35.74654556,"lon":139.23111725},{"name":"スポーツと文化の森・谷戸沢グランド","province":"東京都","city":"西多摩郡日の出町","address":"東京都西多摩郡日の出町平井（大字）3141","lat":35.75159946,"lon":139.25658506},{"name":"スポーツと文化の森・谷戸沢サッカー場","province":"東京都","city":"西多摩郡日の出町","address":"東京都西多摩郡日の出町平井（大字）3141","lat":35.75159946,"lon":139.25658506},{"name":"志茂町児童館","province":"東京都","city":"西多摩郡日の出町","address":"西多摩郡日の出町平井1254-1","lat":35.74092,"lon":139.27},{"name":"＊?日の出町立図書館大久野分室","province":"東京都","city":"西多摩郡日の出町","address":"日の出町大字大久野1167-6","lat":35.745199,"lon":139.235803},{"name":"＊?日の出町立図書館","province":"東京都","city":"西多摩郡日の出町","address":"日の出町平井2780","lat":35.742186,"lon":139.256972},{"name":"志茂町児童館","province":"東京都","city":"西多摩郡日の出町","address":"西多摩郡日の出町平井1254-1","lat":35.740876,"lon":139.270248},{"name":"日の出町立図書館","province":"東京都","city":"西多摩郡日の出町","address":"東京都西多摩郡日の出町大字平井2780","lat":35.742119,"lon":139.236806},{"name":"スポーツパーク・やすらぎとふれあいの丘","province":"東京都","city":"西多摩郡日の出町","address":"東京都西多摩郡日の出町大久野（大字）2399","lat":35.74654556,"lon":139.23111725},{"name":"スポーツと文化の森・谷戸沢グランド","province":"東京都","city":"西多摩郡日の出町","address":"東京都西多摩郡日の出町平井（大字）3141","lat":35.75159946,"lon":139.25658506},{"name":"スポーツと文化の森・谷戸沢サッカー場","province":"東京都","city":"西多摩郡日の出町","address":"東京都西多摩郡日の出町平井（大字）3141","lat":35.75159946,"lon":139.25658506},{"name":"志茂町児童館","province":"東京都","city":"西多摩郡日の出町","address":"西多摩郡日の出町平井1254-1","lat":35.74092,"lon":139.27},{"name":"＊?日の出町立図書館大久野分室","province":"東京都","city":"西多摩郡日の出町","address":"日の出町大字大久野1167-6","lat":35.745199,"lon":139.235803},{"name":"＊?日の出町立図書館","province":"東京都","city":"西多摩郡日の出町","address":"日の出町平井2780","lat":35.742186,"lon":139.256972},{"name":"志茂町児童館","province":"東京都","city":"西多摩郡日の出町","address":"西多摩郡日の出町平井1254-1","lat":35.740876,"lon":139.270248},{"name":"日の出町立図書館","province":"東京都","city":"西多摩郡日の出町","address":"東京都西多摩郡日の出町大字平井2780","lat":35.742119,"lon":139.236806},{"name":"スポーツパーク・やすらぎとふれあいの丘","province":"東京都","city":"西多摩郡日の出町","address":"東京都西多摩郡日の出町大久野（大字）2399","lat":35.74654556,"lon":139.23111725},{"name":"スポーツと文化の森・谷戸沢グランド","province":"東京都","city":"西多摩郡日の出町","address":"東京都西多摩郡日の出町平井（大字）3141","lat":35.75159946,"lon":139.25658506},{"name":"スポーツと文化の森・谷戸沢サッカー場","province":"東京都","city":"西多摩郡日の出町","address":"東京都西多摩郡日の出町平井（大字）3141","lat":35.75159946,"lon":139.25658506},{"name":"志茂町児童館","province":"東京都","city":"西多摩郡日の出町","address":"西多摩郡日の出町平井1254-1","lat":35.74092,"lon":139.27},{"name":"＊?日の出町立図書館大久野分室","province":"東京都","city":"西多摩郡日の出町","address":"日の出町大字大久野1167-6","lat":35.745199,"lon":139.235803},{"name":"＊?日の出町立図書館","province":"東京都","city":"西多摩郡日の出町","address":"日の出町平井2780","lat":35.742186,"lon":139.256972},{"name":"志茂町児童館","province":"東京都","city":"西多摩郡日の出町","address":"西多摩郡日の出町平井1254-1","lat":35.740876,"lon":139.270248},{"name":"日の出町立図書館","province":"東京都","city":"西多摩郡日の出町","address":"東京都西多摩郡日の出町大字平井2780","lat":35.742119,"lon":139.236806},{"name":"スポーツパーク・やすらぎとふれあいの丘","province":"東京都","city":"西多摩郡日の出町","address":"東京都西多摩郡日の出町大久野（大字）2399","lat":35.74654556,"lon":139.23111725},{"name":"スポーツと文化の森・谷戸沢グランド","province":"東京都","city":"西多摩郡日の出町","address":"東京都西多摩郡日の出町平井（大字）3141","lat":35.75159946,"lon":139.25658506},{"name":"スポーツと文化の森・谷戸沢サッカー場","province":"東京都","city":"西多摩郡日の出町","address":"東京都西多摩郡日の出町平井（大字）3141","lat":35.75159946,"lon":139.25658506},{"name":"志茂町児童館","province":"東京都","city":"西多摩郡日の出町","address":"西多摩郡日の出町平井1254-1","lat":35.74092,"lon":139.27},{"name":"＊?日の出町立図書館大久野分室","province":"東京都","city":"西多摩郡日の出町","address":"日の出町大字大久野1167-6","lat":35.745199,"lon":139.235803},{"name":"＊?日の出町立図書館","province":"東京都","city":"西多摩郡日の出町","address":"日の出町平井2780","lat":35.742186,"lon":139.256972},{"name":"志茂町児童館","province":"東京都","city":"西多摩郡日の出町","address":"西多摩郡日の出町平井1254-1","lat":35.740876,"lon":139.270248},{"name":"日の出町立図書館","province":"東京都","city":"西多摩郡日の出町","address":"東京都西多摩郡日の出町大字平井2780","lat":35.742119,"lon":139.236806},{"name":"スポーツパーク・やすらぎとふれあいの丘","province":"東京都","city":"西多摩郡日の出町","address":"東京都西多摩郡日の出町大久野（大字）2399","lat":35.74654556,"lon":139.23111725},{"name":"スポーツと文化の森・谷戸沢グランド","province":"東京都","city":"西多摩郡日の出町","address":"東京都西多摩郡日の出町平井（大字）3141","lat":35.75159946,"lon":139.25658506},{"name":"スポーツと文化の森・谷戸沢サッカー場","province":"東京都","city":"西多摩郡日の出町","address":"東京都西多摩郡日の出町平井（大字）3141","lat":35.75159946,"lon":139.25658506},{"name":"志茂町児童館","province":"東京都","city":"西多摩郡日の出町","address":"西多摩郡日の出町平井1254-1","lat":35.74092,"lon":139.27},{"name":"＊?日の出町立図書館大久野分室","province":"東京都","city":"西多摩郡日の出町","address":"日の出町大字大久野1167-6","lat":35.745199,"lon":139.235803},{"name":"＊?日の出町立図書館","province":"東京都","city":"西多摩郡日の出町","address":"日の出町平井2780","lat":35.742186,"lon":139.256972},{"name":"志茂町児童館","province":"東京都","city":"西多摩郡日の出町","address":"西多摩郡日の出町平井1254-1","lat":35.740876,"lon":139.270248},{"name":"日の出町立図書館","province":"東京都","city":"西多摩郡日の出町","address":"東京都西多摩郡日の出町大字平井2780","lat":35.742119,"lon":139.236806},{"name":"スポーツパーク・やすらぎとふれあいの丘","province":"東京都","city":"西多摩郡日の出町","address":"東京都西多摩郡日の出町大久野（大字）2399","lat":35.74654556,"lon":139.23111725},{"name":"スポーツと文化の森・谷戸沢グランド","province":"東京都","city":"西多摩郡日の出町","address":"東京都西多摩郡日の出町平井（大字）3141","lat":35.75159946,"lon":139.25658506},{"name":"スポーツと文化の森・谷戸沢サッカー場","province":"東京都","city":"西多摩郡日の出町","address":"東京都西多摩郡日の出町平井（大字）3141","lat":35.75159946,"lon":139.25658506},{"name":"志茂町児童館","province":"東京都","city":"西多摩郡日の出町","address":"西多摩郡日の出町平井1254-1","lat":35.74092,"lon":139.27},{"name":"＊?日の出町立図書館大久野分室","province":"東京都","city":"西多摩郡日の出町","address":"日の出町大字大久野1167-6","lat":35.745199,"lon":139.235803},{"name":"＊?日の出町立図書館","province":"東京都","city":"西多摩郡日の出町","address":"日の出町平井2780","lat":35.742186,"lon":139.256972},{"name":"志茂町児童館","province":"東京都","city":"西多摩郡日の出町","address":"西多摩郡日の出町平井1254-1","lat":35.740876,"lon":139.270248},{"name":"日の出町立図書館","province":"東京都","city":"西多摩郡日の出町","address":"東京都西多摩郡日の出町大字平井2780","lat":35.742119,"lon":139.236806},{"name":"スポーツパーク・やすらぎとふれあいの丘","province":"東京都","city":"西多摩郡日の出町","address":"東京都西多摩郡日の出町大久野（大字）2399","lat":35.74654556,"lon":139.23111725},{"name":"スポーツと文化の森・谷戸沢グランド","province":"東京都","city":"西多摩郡日の出町","address":"東京都西多摩郡日の出町平井（大字）3141","lat":35.75159946,"lon":139.25658506},{"name":"スポーツと文化の森・谷戸沢サッカー場","province":"東京都","city":"西多摩郡日の出町","address":"東京都西多摩郡日の出町平井（大字）3141","lat":35.75159946,"lon":139.25658506},{"name":"志茂町児童館","province":"東京都","city":"西多摩郡日の出町","address":"西多摩郡日の出町平井1254-1","lat":35.74092,"lon":139.27},{"name":"＊?日の出町立図書館大久野分室","province":"東京都","city":"西多摩郡日の出町","address":"日の出町大字大久野1167-6","lat":35.745199,"lon":139.235803},{"name":"＊?日の出町立図書館","province":"東京都","city":"西多摩郡日の出町","address":"日の出町平井2780","lat":35.742186,"lon":139.256972},{"name":"志茂町児童館","province":"東京都","city":"西多摩郡日の出町","address":"西多摩郡日の出町平井1254-1","lat":35.740876,"lon":139.270248},{"name":"日の出町立図書館","province":"東京都","city":"西多摩郡日の出町","address":"東京都西多摩郡日の出町大字平井2780","lat":35.742119,"lon":139.236806},{"name":"スポーツパーク・やすらぎとふれあいの丘","province":"東京都","city":"西多摩郡日の出町","address":"東京都西多摩郡日の出町大久野（大字）2399","lat":35.74654556,"lon":139.23111725},{"name":"スポーツと文化の森・谷戸沢グランド","province":"東京都","city":"西多摩郡日の出町","address":"東京都西多摩郡日の出町平井（大字）3141","lat":35.75159946,"lon":139.25658506},{"name":"スポーツと文化の森・谷戸沢サッカー場","province":"東京都","city":"西多摩郡日の出町","address":"東京都西多摩郡日の出町平井（大字）3141","lat":35.75159946,"lon":139.25658506},{"name":"志茂町児童館","province":"東京都","city":"西多摩郡日の出町","address":"西多摩郡日の出町平井1254-1","lat":35.74092,"lon":139.27},{"name":"＊?日の出町立図書館大久野分室","province":"東京都","city":"西多摩郡日の出町","address":"日の出町大字大久野1167-6","lat":35.745199,"lon":139.235803},{"name":"＊?日の出町立図書館","province":"東京都","city":"西多摩郡日の出町","address":"日の出町平井2780","lat":35.742186,"lon":139.256972},{"name":"志茂町児童館","province":"東京都","city":"西多摩郡日の出町","address":"西多摩郡日の出町平井1254-1","lat":35.740876,"lon":139.270248},{"name":"日の出町立図書館","province":"東京都","city":"西多摩郡日の出町","address":"東京都西多摩郡日の出町大字平井2780","lat":35.742119,"lon":139.236806},{"name":"スポーツパーク・やすらぎとふれあいの丘","province":"東京都","city":"西多摩郡日の出町","address":"東京都西多摩郡日の出町大久野（大字）2399","lat":35.74654556,"lon":139.23111725},{"name":"スポーツと文化の森・谷戸沢グランド","province":"東京都","city":"西多摩郡日の出町","address":"東京都西多摩郡日の出町平井（大字）3141","lat":35.75159946,"lon":139.25658506},{"name":"スポーツと文化の森・谷戸沢サッカー場","province":"東京都","city":"西多摩郡日の出町","address":"東京都西多摩郡日の出町平井（大字）3141","lat":35.75159946,"lon":139.25658506},{"name":"志茂町児童館","province":"東京都","city":"西多摩郡日の出町","address":"西多摩郡日の出町平井1254-1","lat":35.74092,"lon":139.27},{"name":"＊?日の出町立図書館大久野分室","province":"東京都","city":"西多摩郡日の出町","address":"日の出町大字大久野1167-6","lat":35.745199,"lon":139.235803},{"name":"＊?日の出町立図書館","province":"東京都","city":"西多摩郡日の出町","address":"日の出町平井2780","lat":35.742186,"lon":139.256972},{"name":"志茂町児童館","province":"東京都","city":"西多摩郡日の出町","address":"西多摩郡日の出町平井1254-1","lat":35.740876,"lon":139.270248},{"name":"日の出町立図書館","province":"東京都","city":"西多摩郡日の出町","address":"東京都西多摩郡日の出町大字平井2780","lat":35.742119,"lon":139.236806},{"name":"スポーツパーク・やすらぎとふれあいの丘","province":"東京都","city":"西多摩郡日の出町","address":"東京都西多摩郡日の出町大久野（大字）2399","lat":35.74654556,"lon":139.23111725},{"name":"スポーツと文化の森・谷戸沢グランド","province":"東京都","city":"西多摩郡日の出町","address":"東京都西多摩郡日の出町平井（大字）3141","lat":35.75159946,"lon":139.25658506},{"name":"スポーツと文化の森・谷戸沢サッカー場","province":"東京都","city":"西多摩郡日の出町","address":"東京都西多摩郡日の出町平井（大字）3141","lat":35.75159946,"lon":139.25658506},{"name":"志茂町児童館","province":"東京都","city":"西多摩郡日の出町","address":"西多摩郡日の出町平井1254-1","lat":35.74092,"lon":139.27},{"name":"＊?日の出町立図書館大久野分室","province":"東京都","city":"西多摩郡日の出町","address":"日の出町大字大久野1167-6","lat":35.745199,"lon":139.235803},{"name":"＊?日の出町立図書館","province":"東京都","city":"西多摩郡日の出町","address":"日の出町平井2780","lat":35.742186,"lon":139.256972},{"name":"志茂町児童館","province":"東京都","city":"西多摩郡日の出町","address":"西多摩郡日の出町平井1254-1","lat":35.740876,"lon":139.270248},{"name":"日の出町立図書館","province":"東京都","city":"西多摩郡日の出町","address":"東京都西多摩郡日の出町大字平井2780","lat":35.742119,"lon":139.236806},{"name":"スポーツパーク・やすらぎとふれあいの丘","province":"東京都","city":"西多摩郡日の出町","address":"東京都西多摩郡日の出町大久野（大字）2399","lat":35.74654556,"lon":139.23111725},{"name":"スポーツと文化の森・谷戸沢グランド","province":"東京都","city":"西多摩郡日の出町","address":"東京都西多摩郡日の出町平井（大字）3141","lat":35.75159946,"lon":139.25658506},{"name":"スポーツと文化の森・谷戸沢サッカー場","province":"東京都","city":"西多摩郡日の出町","address":"東京都西多摩郡日の出町平井（大字）3141","lat":35.75159946,"lon":139.25658506},{"name":"志茂町児童館","province":"東京都","city":"西多摩郡日の出町","address":"西多摩郡日の出町平井1254-1","lat":35.74092,"lon":139.27},{"name":"＊?日の出町立図書館大久野分室","province":"東京都","city":"西多摩郡日の出町","address":"日の出町大字大久野1167-6","lat":35.745199,"lon":139.235803},{"name":"＊?日の出町立図書館","province":"東京都","city":"西多摩郡日の出町","address":"日の出町平井2780","lat":35.742186,"lon":139.256972},{"name":"志茂町児童館","province":"東京都","city":"西多摩郡日の出町","address":"西多摩郡日の出町平井1254-1","lat":35.740876,"lon":139.270248},{"name":"日の出町立図書館","province":"東京都","city":"西多摩郡日の出町","address":"東京都西多摩郡日の出町大字平井2780","lat":35.742119,"lon":139.236806},{"name":"スポーツパーク・やすらぎとふれあいの丘","province":"東京都","city":"西多摩郡日の出町","address":"東京都西多摩郡日の出町大久野（大字）2399","lat":35.74654556,"lon":139.23111725},{"name":"スポーツと文化の森・谷戸沢グランド","province":"東京都","city":"西多摩郡日の出町","address":"東京都西多摩郡日の出町平井（大字）3141","lat":35.75159946,"lon":139.25658506},{"name":"スポーツと文化の森・谷戸沢サッカー場","province":"東京都","city":"西多摩郡日の出町","address":"東京都西多摩郡日の出町平井（大字）3141","lat":35.75159946,"lon":139.25658506},{"name":"志茂町児童館","province":"東京都","city":"西多摩郡日の出町","address":"西多摩郡日の出町平井1254-1","lat":35.74092,"lon":139.27},{"name":"＊?日の出町立図書館大久野分室","province":"東京都","city":"西多摩郡日の出町","address":"日の出町大字大久野1167-6","lat":35.745199,"lon":139.235803},{"name":"＊?日の出町立図書館","province":"東京都","city":"西多摩郡日の出町","address":"日の出町平井2780","lat":35.742186,"lon":139.256972},{"name":"志茂町児童館","province":"東京都","city":"西多摩郡日の出町","address":"西多摩郡日の出町平井1254-1","lat":35.740876,"lon":139.270248},{"name":"日の出町立図書館","province":"東京都","city":"西多摩郡日の出町","address":"東京都西多摩郡日の出町大字平井2780","lat":35.742119,"lon":139.236806},{"name":"スポーツパーク・やすらぎとふれあいの丘","province":"東京都","city":"西多摩郡日の出町","address":"東京都西多摩郡日の出町大久野（大字）2399","lat":35.74654556,"lon":139.23111725},{"name":"スポーツと文化の森・谷戸沢グランド","province":"東京都","city":"西多摩郡日の出町","address":"東京都西多摩郡日の出町平井（大字）3141","lat":35.75159946,"lon":139.25658506},{"name":"スポーツと文化の森・谷戸沢サッカー場","province":"東京都","city":"西多摩郡日の出町","address":"東京都西多摩郡日の出町平井（大字）3141","lat":35.75159946,"lon":139.25658506},{"name":"志茂町児童館","province":"東京都","city":"西多摩郡日の出町","address":"西多摩郡日の出町平井1254-1","lat":35.74092,"lon":139.27},{"name":"＊?日の出町立図書館大久野分室","province":"東京都","city":"西多摩郡日の出町","address":"日の出町大字大久野1167-6","lat":35.745199,"lon":139.235803},{"name":"＊?日の出町立図書館","province":"東京都","city":"西多摩郡日の出町","address":"日の出町平井2780","lat":35.742186,"lon":139.256972},{"name":"志茂町児童館","province":"東京都","city":"西多摩郡日の出町","address":"西多摩郡日の出町平井1254-1","lat":35.740876,"lon":139.270248},{"name":"日の出町立図書館","province":"東京都","city":"西多摩郡日の出町","address":"東京都西多摩郡日の出町大字平井2780","lat":35.742119,"lon":139.236806},{"name":"スポーツパーク・やすらぎとふれあいの丘","province":"東京都","city":"西多摩郡日の出町","address":"東京都西多摩郡日の出町大久野（大字）2399","lat":35.74654556,"lon":139.23111725},{"name":"スポーツと文化の森・谷戸沢グランド","province":"東京都","city":"西多摩郡日の出町","address":"東京都西多摩郡日の出町平井（大字）3141","lat":35.75159946,"lon":139.25658506},{"name":"スポーツと文化の森・谷戸沢サッカー場","province":"東京都","city":"西多摩郡日の出町","address":"東京都西多摩郡日の出町平井（大字）3141","lat":35.75159946,"lon":139.25658506},{"name":"志茂町児童館","province":"東京都","city":"西多摩郡日の出町","address":"西多摩郡日の出町平井1254-1","lat":35.74092,"lon":139.27},{"name":"＊?日の出町立図書館大久野分室","province":"東京都","city":"西多摩郡日の出町","address":"日の出町大字大久野1167-6","lat":35.745199,"lon":139.235803},{"name":"＊?日の出町立図書館","province":"東京都","city":"西多摩郡日の出町","address":"日の出町平井2780","lat":35.742186,"lon":139.256972},{"name":"志茂町児童館","province":"東京都","city":"西多摩郡日の出町","address":"西多摩郡日の出町平井1254-1","lat":35.740876,"lon":139.270248},{"name":"日の出町立図書館","province":"東京都","city":"西多摩郡日の出町","address":"東京都西多摩郡日の出町大字平井2780","lat":35.742119,"lon":139.236806},{"name":"スポーツパーク・やすらぎとふれあいの丘","province":"東京都","city":"西多摩郡日の出町","address":"東京都西多摩郡日の出町大久野（大字）2399","lat":35.74654556,"lon":139.23111725},{"name":"スポーツと文化の森・谷戸沢グランド","province":"東京都","city":"西多摩郡日の出町","address":"東京都西多摩郡日の出町平井（大字）3141","lat":35.75159946,"lon":139.25658506},{"name":"スポーツと文化の森・谷戸沢サッカー場","province":"東京都","city":"西多摩郡日の出町","address":"東京都西多摩郡日の出町平井（大字）3141","lat":35.75159946,"lon":139.25658506},{"name":"志茂町児童館","province":"東京都","city":"西多摩郡日の出町","address":"西多摩郡日の出町平井1254-1","lat":35.74092,"lon":139.27},{"name":"＊?日の出町立図書館大久野分室","province":"東京都","city":"西多摩郡日の出町","address":"日の出町大字大久野1167-6","lat":35.745199,"lon":139.235803},{"name":"＊?日の出町立図書館","province":"東京都","city":"西多摩郡日の出町","address":"日の出町平井2780","lat":35.742186,"lon":139.256972},{"name":"志茂町児童館","province":"東京都","city":"西多摩郡日の出町","address":"西多摩郡日の出町平井1254-1","lat":35.740876,"lon":139.270248},{"name":"日の出町立図書館","province":"東京都","city":"西多摩郡日の出町","address":"東京都西多摩郡日の出町大字平井2780","lat":35.742119,"lon":139.236806},{"name":"スポーツパーク・やすらぎとふれあいの丘","province":"東京都","city":"西多摩郡日の出町","address":"東京都西多摩郡日の出町大久野（大字）2399","lat":35.74654556,"lon":139.23111725},{"name":"スポーツと文化の森・谷戸沢グランド","province":"東京都","city":"西多摩郡日の出町","address":"東京都西多摩郡日の出町平井（大字）3141","lat":35.75159946,"lon":139.25658506},{"name":"スポーツと文化の森・谷戸沢サッカー場","province":"東京都","city":"西多摩郡日の出町","address":"東京都西多摩郡日の出町平井（大字）3141","lat":35.75159946,"lon":139.25658506},{"name":"志茂町児童館","province":"東京都","city":"西多摩郡日の出町","address":"西多摩郡日の出町平井1254-1","lat":35.74092,"lon":139.27},{"name":"＊?日の出町立図書館大久野分室","province":"東京都","city":"西多摩郡日の出町","address":"日の出町大字大久野1167-6","lat":35.745199,"lon":139.235803},{"name":"＊?日の出町立図書館","province":"東京都","city":"西多摩郡日の出町","address":"日の出町平井2780","lat":35.742186,"lon":139.256972},{"name":"志茂町児童館","province":"東京都","city":"西多摩郡日の出町","address":"西多摩郡日の出町平井1254-1","lat":35.740876,"lon":139.270248},{"name":"日の出町立図書館","province":"東京都","city":"西多摩郡日の出町","address":"東京都西多摩郡日の出町大字平井2780","lat":35.742119,"lon":139.236806},{"name":"スポーツパーク・やすらぎとふれあいの丘","province":"東京都","city":"西多摩郡日の出町","address":"東京都西多摩郡日の出町大久野（大字）2399","lat":35.74654556,"lon":139.23111725},{"name":"スポーツと文化の森・谷戸沢グランド","province":"東京都","city":"西多摩郡日の出町","address":"東京都西多摩郡日の出町平井（大字）3141","lat":35.75159946,"lon":139.25658506},{"name":"スポーツと文化の森・谷戸沢サッカー場","province":"東京都","city":"西多摩郡日の出町","address":"東京都西多摩郡日の出町平井（大字）3141","lat":35.75159946,"lon":139.25658506},{"name":"志茂町児童館","province":"東京都","city":"西多摩郡日の出町","address":"西多摩郡日の出町平井1254-1","lat":35.74092,"lon":139.27},{"name":"＊?日の出町立図書館大久野分室","province":"東京都","city":"西多摩郡日の出町","address":"日の出町大字大久野1167-6","lat":35.745199,"lon":139.235803},{"name":"＊?日の出町立図書館","province":"東京都","city":"西多摩郡日の出町","address":"日の出町平井2780","lat":35.742186,"lon":139.256972},{"name":"志茂町児童館","province":"東京都","city":"西多摩郡日の出町","address":"西多摩郡日の出町平井1254-1","lat":35.740876,"lon":139.270248},{"name":"日の出町立図書館","province":"東京都","city":"西多摩郡日の出町","address":"東京都西多摩郡日の出町大字平井2780","lat":35.742119,"lon":139.236806},{"name":"スポーツパーク・やすらぎとふれあいの丘","province":"東京都","city":"西多摩郡日の出町","address":"東京都西多摩郡日の出町大久野（大字）2399","lat":35.74654556,"lon":139.23111725},{"name":"スポーツと文化の森・谷戸沢グランド","province":"東京都","city":"西多摩郡日の出町","address":"東京都西多摩郡日の出町平井（大字）3141","lat":35.75159946,"lon":139.25658506},{"name":"スポーツと文化の森・谷戸沢サッカー場","province":"東京都","city":"西多摩郡日の出町","address":"東京都西多摩郡日の出町平井（大字）3141","lat":35.75159946,"lon":139.25658506},{"name":"志茂町児童館","province":"東京都","city":"西多摩郡日の出町","address":"西多摩郡日の出町平井1254-1","lat":35.74092,"lon":139.27},{"name":"＊?日の出町立図書館大久野分室","province":"東京都","city":"西多摩郡日の出町","address":"日の出町大字大久野1167-6","lat":35.745199,"lon":139.235803},{"name":"＊?日の出町立図書館","province":"東京都","city":"西多摩郡日の出町","address":"日の出町平井2780","lat":35.742186,"lon":139.256972},{"name":"志茂町児童館","province":"東京都","city":"西多摩郡日の出町","address":"西多摩郡日の出町平井1254-1","lat":35.740876,"lon":139.270248},{"name":"日の出町立図書館","province":"東京都","city":"西多摩郡日の出町","address":"東京都西多摩郡日の出町大字平井2780","lat":35.742119,"lon":139.236806},{"name":"スポーツパーク・やすらぎとふれあいの丘","province":"東京都","city":"西多摩郡日の出町","address":"東京都西多摩郡日の出町大久野（大字）2399","lat":35.74654556,"lon":139.23111725},{"name":"スポーツと文化の森・谷戸沢グランド","province":"東京都","city":"西多摩郡日の出町","address":"東京都西多摩郡日の出町平井（大字）3141","lat":35.75159946,"lon":139.25658506},{"name":"スポーツと文化の森・谷戸沢サッカー場","province":"東京都","city":"西多摩郡日の出町","address":"東京都西多摩郡日の出町平井（大字）3141","lat":35.75159946,"lon":139.25658506},{"name":"志茂町児童館","province":"東京都","city":"西多摩郡日の出町","address":"西多摩郡日の出町平井1254-1","lat":35.74092,"lon":139.27},{"name":"＊?日の出町立図書館大久野分室","province":"東京都","city":"西多摩郡日の出町","address":"日の出町大字大久野1167-6","lat":35.745199,"lon":139.235803},{"name":"＊?日の出町立図書館","province":"東京都","city":"西多摩郡日の出町","address":"日の出町平井2780","lat":35.742186,"lon":139.256972},{"name":"志茂町児童館","province":"東京都","city":"西多摩郡日の出町","address":"西多摩郡日の出町平井1254-1","lat":35.740876,"lon":139.270248},{"name":"日の出町立図書館","province":"東京都","city":"西多摩郡日の出町","address":"東京都西多摩郡日の出町大字平井2780","lat":35.742119,"lon":139.236806},{"name":"スポーツパーク・やすらぎとふれあいの丘","province":"東京都","city":"西多摩郡日の出町","address":"東京都西多摩郡日の出町大久野（大字）2399","lat":35.74654556,"lon":139.23111725},{"name":"スポーツと文化の森・谷戸沢グランド","province":"東京都","city":"西多摩郡日の出町","address":"東京都西多摩郡日の出町平井（大字）3141","lat":35.75159946,"lon":139.25658506},{"name":"スポーツと文化の森・谷戸沢サッカー場","province":"東京都","city":"西多摩郡日の出町","address":"東京都西多摩郡日の出町平井（大字）3141","lat":35.75159946,"lon":139.25658506},{"name":"志茂町児童館","province":"東京都","city":"西多摩郡日の出町","address":"西多摩郡日の出町平井1254-1","lat":35.74092,"lon":139.27},{"name":"＊?日の出町立図書館大久野分室","province":"東京都","city":"西多摩郡日の出町","address":"日の出町大字大久野1167-6","lat":35.745199,"lon":139.235803},{"name":"＊?日の出町立図書館","province":"東京都","city":"西多摩郡日の出町","address":"日の出町平井2780","lat":35.742186,"lon":139.256972},{"name":"志茂町児童館","province":"東京都","city":"西多摩郡日の出町","address":"西多摩郡日の出町平井1254-1","lat":35.740876,"lon":139.270248},{"name":"日の出町立図書館","province":"東京都","city":"西多摩郡日の出町","address":"東京都西多摩郡日の出町大字平井2780","lat":35.742119,"lon":139.236806},{"name":"スポーツパーク・やすらぎとふれあいの丘","province":"東京都","city":"西多摩郡日の出町","address":"東京都西多摩郡日の出町大久野（大字）2399","lat":35.74654556,"lon":139.23111725},{"name":"スポーツと文化の森・谷戸沢グランド","province":"東京都","city":"西多摩郡日の出町","address":"東京都西多摩郡日の出町平井（大字）3141","lat":35.75159946,"lon":139.25658506},{"name":"スポーツと文化の森・谷戸沢サッカー場","province":"東京都","city":"西多摩郡日の出町","address":"東京都西多摩郡日の出町平井（大字）3141","lat":35.75159946,"lon":139.25658506},{"name":"志茂町児童館","province":"東京都","city":"西多摩郡日の出町","address":"西多摩郡日の出町平井1254-1","lat":35.74092,"lon":139.27},{"name":"＊?日の出町立図書館大久野分室","province":"東京都","city":"西多摩郡日の出町","address":"日の出町大字大久野1167-6","lat":35.745199,"lon":139.235803},{"name":"＊?日の出町立図書館","province":"東京都","city":"西多摩郡日の出町","address":"日の出町平井2780","lat":35.742186,"lon":139.256972},{"name":"志茂町児童館","province":"東京都","city":"西多摩郡日の出町","address":"西多摩郡日の出町平井1254-1","lat":35.740876,"lon":139.270248},{"name":"日の出町立図書館","province":"東京都","city":"西多摩郡日の出町","address":"東京都西多摩郡日の出町大字平井2780","lat":35.742119,"lon":139.236806},{"name":"スポーツパーク・やすらぎとふれあいの丘","province":"東京都","city":"西多摩郡日の出町","address":"東京都西多摩郡日の出町大久野（大字）2399","lat":35.74654556,"lon":139.23111725},{"name":"スポーツと文化の森・谷戸沢グランド","province":"東京都","city":"西多摩郡日の出町","address":"東京都西多摩郡日の出町平井（大字）3141","lat":35.75159946,"lon":139.25658506},{"name":"スポーツと文化の森・谷戸沢サッカー場","province":"東京都","city":"西多摩郡日の出町","address":"東京都西多摩郡日の出町平井（大字）3141","lat":35.75159946,"lon":139.25658506},{"name":"志茂町児童館","province":"東京都","city":"西多摩郡日の出町","address":"西多摩郡日の出町平井1254-1","lat":35.74092,"lon":139.27},{"name":"＊?日の出町立図書館大久野分室","province":"東京都","city":"西多摩郡日の出町","address":"日の出町大字大久野1167-6","lat":35.745199,"lon":139.235803},{"name":"＊?日の出町立図書館","province":"東京都","city":"西多摩郡日の出町","address":"日の出町平井2780","lat":35.742186,"lon":139.256972},{"name":"志茂町児童館","province":"東京都","city":"西多摩郡日の出町","address":"西多摩郡日の出町平井1254-1","lat":35.740876,"lon":139.270248},{"name":"日の出町立図書館","province":"東京都","city":"西多摩郡日の出町","address":"東京都西多摩郡日の出町大字平井2780","lat":35.742119,"lon":139.236806},{"name":"スポーツパーク・やすらぎとふれあいの丘","province":"東京都","city":"西多摩郡日の出町","address":"東京都西多摩郡日の出町大久野（大字）2399","lat":35.74654556,"lon":139.23111725},{"name":"スポーツと文化の森・谷戸沢グランド","province":"東京都","city":"西多摩郡日の出町","address":"東京都西多摩郡日の出町平井（大字）3141","lat":35.75159946,"lon":139.25658506},{"name":"スポーツと文化の森・谷戸沢サッカー場","province":"東京都","city":"西多摩郡日の出町","address":"東京都西多摩郡日の出町平井（大字）3141","lat":35.75159946,"lon":139.25658506},{"name":"志茂町児童館","province":"東京都","city":"西多摩郡日の出町","address":"西多摩郡日の出町平井1254-1","lat":35.74092,"lon":139.27},{"name":"＊?日の出町立図書館大久野分室","province":"東京都","city":"西多摩郡日の出町","address":"日の出町大字大久野1167-6","lat":35.745199,"lon":139.235803},{"name":"＊?日の出町立図書館","province":"東京都","city":"西多摩郡日の出町","address":"日の出町平井2780","lat":35.742186,"lon":139.256972}]}