{"keyword":"自転車","data":[{"name":"仲御徒町駅自転車駐車場","province":"","city":"","address":"東上野1丁目14番地先","lat":35.70788482,"lon":139.776465},{"name":"つくばエクスプレス浅草駅南自転車駐車場","province":"","city":"","address":"浅草1丁目25番地先","lat":35.71260336,"lon":139.7922545},{"name":"つくばエクスプレス浅草駅北自転車駐車場","province":"","city":"","address":"浅草2丁目13番地先","lat":35.7154644,"lon":139.7926134},{"name":"上野駅南自転車駐車場","province":"","city":"","address":"上野6丁目7番地先首都高出口下","lat":35.70982463,"lon":139.7764949},{"name":"隅田公園自転車駐車場","province":"","city":"","address":"花川戸1丁目1番隅田公園内","lat":35.71138485,"lon":139.798843},{"name":"駒形自転車駐車場","province":"","city":"","address":"駒形1丁目1番5号","lat":35.70569535,"lon":139.7931042},{"name":"蔵前自転車駐車場","province":"","city":"","address":"蔵前3丁目13番11号","lat":35.70463545,"lon":139.7924644},{"name":"入谷自転車駐車場","province":"東京都","city":"台東区","address":"台東区入谷1丁目17番","lat":35.72057264,"lon":139.7846958},{"name":"三ノ輪自転車駐車場","province":"","city":"","address":"三ノ輪1丁目27番11号福祉センター1階","lat":35.72927297,"lon":139.7924125},{"name":"御徒町駅南口自転車駐車場","province":"","city":"","address":"上野5丁目21番御徒町駅南口脇","lat":35.70654492,"lon":139.7751351},{"name":"御徒町自転車駐車場","province":"","city":"","address":"台東4丁目8番首都高速高架下","lat":35.70587501,"lon":139.7761651},{"name":"鶯谷定期貸し第１自転車駐車場","province":"","city":"","address":"根岸1-5先","lat":35.72278289,"lon":139.7790274},{"name":"新御徒町駅自転車駐車場","province":"","city":"","address":"小島2丁目21番春日通り地下","lat":35.7067951,"lon":139.7830648},{"name":"上野駅公園口自転車駐車場","province":"","city":"","address":"上野7丁目1番上野駅公園口","lat":35.71363426,"lon":139.7758548},{"name":"入谷駅南自転車等駐車場","province":"","city":"","address":"北上野1丁目15番地先","lat":35.71925505,"lon":139.7837123},{"name":"鶯谷定期貸し第２自転車駐車場","province":"","city":"","address":"根岸1-9先","lat":35.72318273,"lon":139.7779291},{"name":"鶯谷一日貸し第３自転車駐車場","province":"","city":"","address":"根岸1-10先","lat":35.72337979,"lon":139.7771487},{"name":"鶯谷一日貸し第４自転車駐車場","province":"","city":"","address":"根岸2-2先","lat":35.72349808,"lon":139.7772039},{"name":"鶯谷第５定期・一日貸し自転車駐車場","province":"","city":"","address":"根岸1-10先","lat":35.72350367,"lon":139.7769},{"name":"不忍池自転車駐車場","province":"","city":"","address":"上野公園2丁目1番先","lat":35.70988773,"lon":139.7727669},{"name":"上野公園通り原動機付自転車駐車場","province":"","city":"","address":"上野公園1-50先","lat":35.71193788,"lon":139.7746868},{"name":"御徒町南口駅前広場自転車駐車場","province":"","city":"","address":"上野3-26地先","lat":35.70658339,"lon":139.7742599},{"name":"稲荷町自転車駐車場","province":"","city":"","address":"東上野3-33地先","lat":35.71127631,"lon":139.7822161},{"name":"稲荷町自転車駐車場","province":"","city":"","address":"東上野5-1地先","lat":35.71151293,"lon":139.7822228},{"name":"ＪＲ東急目黒ビル","province":"","city":"","address":"上大崎3丁目1番","lat":35.633034,"lon":139.716349},{"name":"不動前駅","province":"","city":"","address":"西五反田4丁目32番","lat":35.626605,"lon":139.714275},{"name":"南　小山6丁目1番\"","province":"","city":"","address":"自転車","lat":35.615692,"lon":139.698865},{"name":"浅草通り押上側","province":"東京都","city":"墨田区","address":"東京都墨田区業平2丁目17-9","lat":35.70920755,"lon":139.81204218},{"name":"浅草通り業平側","province":"東京都","city":"墨田区","address":"東京都墨田区業平3丁目13","lat":35.70864096,"lon":139.81275611},{"name":"駅前","province":"東京都","city":"墨田区","address":"東京都墨田区押上1丁目8-25","lat":35.71136332,"lon":139.81407504},{"name":"桜橋通り際仮設","province":"東京都","city":"墨田区","address":"東京都墨田区押上2丁目26","lat":35.71233565,"lon":139.81485838},{"name":"第二","province":"東京都","city":"墨田区","address":"東京都墨田区押上2丁目26","lat":35.71233565,"lon":139.81485838},{"name":"中之郷","province":"東京都","city":"墨田区","address":"東京都墨田区押上2丁目17","lat":35.71237432,"lon":139.81305294},{"name":"南口臨時","province":"東京都","city":"墨田区","address":"東京都墨田区押上1丁目25","lat":35.7097467,"lon":139.81495027},{"name":"第一","province":"東京都","city":"墨田区","address":"東京都墨田区文花2丁目20","lat":35.7103999,"lon":139.82737141},{"name":"第二","province":"東京都","city":"墨田区","address":"東京都墨田区文花2丁目19","lat":35.71059997,"lon":139.82644927},{"name":"北","province":"東京都","city":"墨田区","address":"東京都墨田区墨田5丁目50","lat":35.73393424,"lon":139.82069698},{"name":"南","province":"東京都","city":"墨田区","address":"東京都墨田区墨田3丁目31-12","lat":35.73230947,"lon":139.82037493},{"name":"北口","province":"東京都","city":"墨田区","address":"東京都墨田区菊川3丁目16","lat":35.68865408,"lon":139.80683132},{"name":"北口第二","province":"東京都","city":"墨田区","address":"東京都墨田区菊川3丁目17-2","lat":35.68928454,"lon":139.8065591},{"name":"新大橋通り北","province":"東京都","city":"墨田区","address":"東京都墨田区菊川2丁目6","lat":35.68860965,"lon":139.80549549},{"name":"新大橋通り南","province":"東京都","city":"墨田区","address":"東京都墨田区菊川2丁目5","lat":35.6879903,"lon":139.8052706},{"name":"北斎通り路上","province":"東京都","city":"墨田区","address":"東京都墨田区錦糸1丁目5","lat":35.69772229,"lon":139.81023003},{"name":"牡丹橋通り","province":"東京都","city":"墨田区","address":"東京都墨田区江東橋3丁目1","lat":35.69318953,"lon":139.81466311},{"name":"南口地下","province":"東京都","city":"墨田区","address":"東京都墨田区江東橋3丁目14-4","lat":35.69607523,"lon":139.81461854},{"name":"四ツ目通り路上","province":"東京都","city":"墨田区","address":"東京都墨田区錦糸1丁目2","lat":35.6968835,"lon":139.81061897},{"name":"西臨時","province":"東京都","city":"墨田区","address":"東京都墨田区京島1丁目39","lat":35.71863582,"lon":139.81964728},{"name":"南臨時","province":"東京都","city":"墨田区","address":"東京都墨田区京島1丁目1","lat":35.71623582,"lon":139.81742796},{"name":"南臨時","province":"東京都","city":"墨田区","address":"東京都墨田区京島1丁目8","lat":35.71598863,"lon":139.81777512},{"name":"仮設","province":"東京都","city":"墨田区","address":"東京都墨田区業平1丁目16","lat":35.70923509,"lon":139.80794806},{"name":"第一","province":"東京都","city":"墨田区","address":"東京都墨田区向島1丁目32","lat":35.70982394,"lon":139.80806183},{"name":"第二","province":"東京都","city":"墨田区","address":"東京都墨田区業平1丁目17-5","lat":35.70934065,"lon":139.8082591},{"name":"駅前","province":"東京都","city":"墨田区","address":"東京都墨田区立花4丁目23-7","lat":35.70720253,"lon":139.83185169},{"name":"線路沿","province":"東京都","city":"墨田区","address":"東京都墨田区立花4丁目23-7","lat":35.70720253,"lon":139.83185169},{"name":"西臨時","province":"東京都","city":"墨田区","address":"東京都墨田区立花1丁目23","lat":35.70658864,"lon":139.83072412},{"name":"高架下","province":"東京都","city":"墨田区","address":"東京都墨田区東向島4丁目35","lat":35.72618799,"lon":139.81953645},{"name":"高架下","province":"東京都","city":"墨田区","address":"東京都墨田区東向島2丁目27","lat":35.71824129,"lon":139.8169976},{"name":"東","province":"東京都","city":"墨田区","address":"東京都墨田区東向島2丁目27","lat":35.71824129,"lon":139.8169976},{"name":"第一","province":"東京都","city":"墨田区","address":"東京都墨田区吾妻橋2丁目2","lat":35.70834626,"lon":139.80381824},{"name":"第二","province":"東京都","city":"墨田区","address":"東京都墨田区吾妻橋2丁目3","lat":35.708849,"lon":139.80373206},{"name":"第三","province":"東京都","city":"墨田区","address":"東京都墨田区吾妻橋3丁目6-15","lat":35.70901011,"lon":139.80632333},{"name":"第四","province":"東京都","city":"墨田区","address":"東京都墨田区吾妻橋3丁目1","lat":35.70828516,"lon":139.80487087},{"name":"西臨時","province":"東京都","city":"墨田区","address":"東京都墨田区吾妻橋1丁目12","lat":35.70811849,"lon":139.79838292},{"name":"高架下","province":"東京都","city":"墨田区","address":"東京都墨田区八広6丁目25","lat":35.72683527,"lon":139.82786582},{"name":"新四ツ木橋下","province":"東京都","city":"墨田区","address":"東京都墨田区八広6丁目5","lat":35.72904346,"lon":139.82710758},{"name":"第一","province":"東京都","city":"墨田区","address":"東京都墨田区八広6丁目35-1","lat":35.72651028,"lon":139.82940171},{"name":"第二","province":"東京都","city":"墨田区","address":"東京都墨田区八広6丁目32","lat":35.7268603,"lon":139.83024328},{"name":"高架下","province":"東京都","city":"墨田区","address":"東京都墨田区亀沢1丁目1","lat":35.6958282,"lon":139.79822079},{"name":"国技館通り路上","province":"東京都","city":"墨田区","address":"東京都墨田区横網1丁目3","lat":35.69637252,"lon":139.79309595},{"name":"西口","province":"東京都","city":"墨田区","address":"東京都墨田区横網1丁目2","lat":35.69716407,"lon":139.79182642},{"name":"東口","province":"東京都","city":"墨田区","address":"東京都墨田区横網1丁目3","lat":35.69637252,"lon":139.79309595}]}