{"category":"wireless","data":[{"name":"東京医科大学八王子医療センター","province":"東京都","city":"八王子市","address":"東京都八王子市館町1163","lat":35.63195929,"lon":139.28900889},{"name":"東海大学八王子病院","province":"東京都","city":"八王子市","address":"東京都八王子市石川町1838","lat":35.67377242,"lon":139.35707362},{"name":"八王子市斎場","province":"東京都","city":"八王子市","address":"東京都八王子市山田町1681-2","lat":35.6428166,"lon":139.31698648},{"name":"鑓水給水所","province":"東京都","city":"八王子市","address":"東京都八王子市鑓水401","lat":35.62415583,"lon":139.34980654},{"name":"狭間給水所","province":"東京都","city":"八王子市","address":"東京都八王子市狭間町1994-478","lat":35.63029296,"lon":139.27876559},{"name":"犬目第二給水所","province":"東京都","city":"八王子市","address":"東京都八王子市犬目町710","lat":35.69936256,"lon":139.30266063},{"name":"散田給水所","province":"東京都","city":"八王子市","address":"東京都八王子市散田町2丁目6-1","lat":35.65135168,"lon":139.31473913},{"name":"東浅川給水所","province":"東京都","city":"八王子市","address":"東京都八王子市東浅川町674-42","lat":35.64237733,"lon":139.29781872},{"name":"元八王子配水所","province":"東京都","city":"八王子市","address":"東京都八王子市元八王子町3丁目2750-487","lat":35.64669566,"lon":139.26642416},{"name":"北野給水所","province":"東京都","city":"八王子市","address":"東京都八王子市北野町595-3","lat":35.65385799,"lon":139.35498833},{"name":"楢原給水所","province":"東京都","city":"八王子市","address":"東京都八王子市楢原町1294-3","lat":35.67707642,"lon":139.30724447},{"name":"暁町配水所","province":"東京都","city":"八王子市","address":"東京都八王子市暁町3丁目3-1","lat":35.67475519,"lon":139.3369892},{"name":"鑓水小山給水所","province":"東京都","city":"八王子市","address":"東京都八王子市鑓水2丁目92","lat":35.60622202,"lon":139.36017588},{"name":"東海大学医学部付属八王子病院","province":"東京都","city":"八王子市","address":"東京都八王子市石川町1838","lat":35.67377242,"lon":139.35707362},{"name":"八王子市保健所","province":"東京都","city":"八王子市","address":"東京都八王子市旭町13-18","lat":35.65737951,"lon":139.34168383},{"name":"首都大学東京南大沢キャンパス","province":"東京都","city":"八王子市","address":"東京都八王子市南大沢1丁目1","lat":35.61654608,"lon":139.37719898},{"name":"八王子都税事務所","province":"東京都","city":"八王子市","address":"東京都八王子市明神町3丁目19-2","lat":35.65675182,"lon":139.34245322},{"name":"労働相談情報センター八王子事務所","province":"東京都","city":"八王子市","address":"東京都八王子市明神町3丁目5-1","lat":35.65595477,"lon":139.34558075},{"name":"多摩職業能力開発センター八王子校","province":"東京都","city":"八王子市","address":"東京都八王子市台町1丁目11-1","lat":35.64984943,"lon":139.32771865},{"name":"八王子北高等学校","province":"東京都","city":"八王子市","address":"東京都八王子市楢原町601","lat":35.68519758,"lon":139.30295007},{"name":"八王子拓真高等学校","province":"東京都","city":"八王子市","address":"東京都八王子市台町3丁目25-1","lat":35.65470693,"lon":139.31724991},{"name":"南多摩中等教育学校","province":"東京都","city":"八王子市","address":"東京都八王子市明神町4丁目20-1","lat":35.66063198,"lon":139.34429182},{"name":"八王子桑志高等学校","province":"東京都","city":"八王子市","address":"東京都八王子市千人町4丁目8-1","lat":35.65808959,"lon":139.30537307},{"name":"片倉高等学校","province":"東京都","city":"八王子市","address":"東京都八王子市片倉町1643","lat":35.62971325,"lon":139.34077375},{"name":"翔陽高等学校","province":"東京都","city":"八王子市","address":"東京都八王子市館町1097-136","lat":35.62922368,"lon":139.29131717},{"name":"八王子東高等学校","province":"東京都","city":"八王子市","address":"東京都八王子市高倉町68-1","lat":35.66190448,"lon":139.36441227},{"name":"富士森高等学校","province":"東京都","city":"八王子市","address":"東京都八王子市長房町420-2","lat":35.65720628,"lon":139.30200118},{"name":"松が谷高等学校","province":"東京都","city":"八王子市","address":"東京都八王子市松が谷1772","lat":35.62826501,"lon":139.41032919},{"name":"片倉つどいの森公園","province":"東京都","city":"八王子市","address":"東京都八王子市片倉町3506","lat":35.63762703,"lon":139.3311096},{"name":"あったかホール","province":"東京都","city":"八王子市","address":"東京都八王子市北野町596-3","lat":35.65532723,"lon":139.35342175},{"name":"東京工科大学八王子キャンパス","province":"東京都","city":"八王子市","address":"東京都八王子市片倉町1404-1","lat":35.6248611,"lon":139.34197108}]}