{"keyword":"スモッグ","data":[{"name":"明治の森高尾国定公園","province":"東京都","city":"八王子市","address":"東京都八王子市高尾町","lat":35.631366,"lon":139.26758},{"name":"高尾陣場自然公園","province":"東京都","city":"八王子市","address":"東京都八王子市高尾町","lat":35.625024,"lon":139.243244},{"name":"滝山自然公園","province":"東京都","city":"八王子市","address":"東京都八王子市高月町、丹木町二、三丁目","lat":35.701454,"lon":139.330101},{"name":"多摩丘陵自然公園","province":"東京都","city":"八王子市","address":"東京都八王子市、町田市、多摩市","lat":35.659984,"lon":139.41034},{"name":"秋川丘陵自然公園","province":"東京都","city":"八王子市","address":"東京都八王子市、あきる野市","lat":35.720824,"lon":139.231591},{"name":"小宮公園","province":"東京都","city":"八王子市","address":"東京都八王子市大谷町、暁町二丁目","lat":35.673446,"lon":139.340673},{"name":"滝山公園","province":"東京都","city":"八王子市","address":"東京都八王子市高月町、丹木町二、三丁目","lat":35.701454,"lon":139.330101},{"name":"長沼公園","province":"東京都","city":"八王子市","address":"東京都八王子市長沼町・下柚木・堀之内","lat":35.638301,"lon":139.368525},{"name":"平山城址公園","province":"東京都","city":"八王子市","address":"東京都八王子市堀之内","lat":35.647956,"lon":139.380848},{"name":"陵南公園","province":"東京都","city":"八王子市","address":"東京都八王子市長房町、東浅川町","lat":35.649066,"lon":139.289172},{"name":"鑓水給水所","province":"東京都","city":"八王子市","address":"東京都八王子市鑓水401","lat":35.62415583,"lon":139.34980654},{"name":"狭間給水所","province":"東京都","city":"八王子市","address":"東京都八王子市狭間町1994-478","lat":35.63029296,"lon":139.27876559},{"name":"犬目第二給水所","province":"東京都","city":"八王子市","address":"東京都八王子市犬目町710","lat":35.69936256,"lon":139.30266063},{"name":"散田給水所","province":"東京都","city":"八王子市","address":"東京都八王子市散田町2丁目6-1","lat":35.65135168,"lon":139.31473913},{"name":"東浅川給水所","province":"東京都","city":"八王子市","address":"東京都八王子市東浅川町674-42","lat":35.64237733,"lon":139.29781872},{"name":"元八王子配水所","province":"東京都","city":"八王子市","address":"東京都八王子市元八王子町3丁目2750-487","lat":35.64669566,"lon":139.26642416},{"name":"北野給水所","province":"東京都","city":"八王子市","address":"東京都八王子市北野町595-3","lat":35.65385799,"lon":139.35498833},{"name":"楢原給水所","province":"東京都","city":"八王子市","address":"東京都八王子市楢原町1294-3","lat":35.67707642,"lon":139.30724447},{"name":"暁町配水所","province":"東京都","city":"八王子市","address":"東京都八王子市暁町3丁目3-1","lat":35.67475519,"lon":139.3369892},{"name":"鑓水小山給水所","province":"東京都","city":"八王子市","address":"東京都八王子市鑓水2丁目92","lat":35.60622202,"lon":139.36017588},{"name":"清川河川敷広場","province":"東京都","city":"八王子市","address":"東京都八王子市清川町19","lat":35.67043837,"lon":139.31111937},{"name":"滝が原運動場","province":"東京都","city":"八王子市","address":"東京都八王子市高月町2401","lat":35.70420999,"lon":139.32938606},{"name":"八王子市立由木中学校校庭","province":"東京都","city":"八王子市","address":"東京都八王子市下柚木2丁目34-2","lat":35.62702284,"lon":139.38510899},{"name":"西寺方グラウンド野球場","province":"東京都","city":"八王子市","address":"東京都八王子市西寺方町626","lat":35.68011387,"lon":139.27269728},{"name":"拓殖大学グラウンド","province":"東京都","city":"八王子市","address":"東京都八王子市館町815-1","lat":35.62907928,"lon":139.27986556},{"name":"共立女子学園グラウンド","province":"東京都","city":"八王子市","address":"東京都八王子市元八王子町1丁目710","lat":35.66072221,"lon":139.28961323},{"name":"東海大学八王子病院へリポート","province":"東京都","city":"八王子市","address":"東京都八王子市石川町1838","lat":35.67377242,"lon":139.35707362},{"name":"元横山２号河川敷広場","province":"東京都","city":"八王子市","address":"東京都八王子市田町4","lat":35.66624502,"lon":139.33558406},{"name":"八王子市立富士森公園陸上競技場","province":"東京都","city":"八王子市","address":"東京都八王子市台町2丁目2","lat":35.65092139,"lon":139.3227357},{"name":"八王子市立大塚公園運動場","province":"東京都","city":"八王子市","address":"東京都八王子市松が谷66","lat":35.63167023,"lon":139.41335657},{"name":"東京医科大学八王子医療センターへリポート","province":"東京都","city":"八王子市","address":"東京都八王子市館町1163","lat":35.63195929,"lon":139.28900889},{"name":"首都大学東京南大沢キャンパスグラウンド","province":"東京都","city":"八王子市","address":"東京都八王子市南大沢1丁目1","lat":35.61654608,"lon":139.37719898},{"name":"久保田鉄鋼(株)","province":"東京都","city":"八王子市","address":"八王子市中野上町2-18-3","lat":35.669109,"lon":139.324997},{"name":"三弘紙業(株)  八王子営業所","province":"東京都","city":"八王子市","address":"八王子市宮下町54-1","lat":35.703022,"lon":139.312744},{"name":"東京紙業(株)  多摩事業所","province":"東京都","city":"八王子市","address":"八王子市中野上町1-16-16","lat":35.667873,"lon":139.326584},{"name":"八王子容器(有)","province":"東京都","city":"八王子市","address":"八王子市西寺方町81-4","lat":35.67337,"lon":139.26532},{"name":"(有)長岡商店","province":"東京都","city":"八王子市","address":"八王子市上川町601-1","lat":35.704987,"lon":139.248047},{"name":"八王子資源化事業(協)","province":"東京都","city":"八王子市","address":"八王子市楢原町1452-1","lat":35.680737,"lon":139.30249},{"name":"(株)こんの","province":"東京都","city":"八王子市","address":"八王子市石川町2802","lat":35.674221,"lon":139.366211},{"name":"(有)西田商店","province":"東京都","city":"八王子市","address":"八王子市戸吹町1891-3","lat":35.703228,"lon":139.295197},{"name":"(株)エコネット","province":"東京都","city":"八王子市","address":"八王子市犬目町776","lat":35.689659,"lon":139.307724},{"name":"(株)完山金属  高尾リサイクルセンター","province":"東京都","city":"八王子市","address":"八王子市南浅川町3952-1","lat":35.615612,"lon":139.244919},{"name":"(株)トーホー商事  丹木資源リサイクル事業所","province":"東京都","city":"八王子市","address":"八王子市丹木町1-570","lat":35.690018,"lon":139.333572},{"name":"明治の森高尾国定公園","province":"東京都","city":"八王子市","address":"東京都八王子市高尾町","lat":35.631366,"lon":139.26758},{"name":"高尾陣場自然公園","province":"東京都","city":"八王子市","address":"東京都八王子市高尾町","lat":35.625024,"lon":139.243244},{"name":"滝山自然公園","province":"東京都","city":"八王子市","address":"東京都八王子市高月町、丹木町二、三丁目","lat":35.701454,"lon":139.330101},{"name":"多摩丘陵自然公園","province":"東京都","city":"八王子市","address":"東京都八王子市、町田市、多摩市","lat":35.659984,"lon":139.41034},{"name":"秋川丘陵自然公園","province":"東京都","city":"八王子市","address":"東京都八王子市、あきる野市","lat":35.720824,"lon":139.231591},{"name":"小宮公園","province":"東京都","city":"八王子市","address":"東京都八王子市大谷町、暁町二丁目","lat":35.673446,"lon":139.340673},{"name":"滝山公園","province":"東京都","city":"八王子市","address":"東京都八王子市高月町、丹木町二、三丁目","lat":35.701454,"lon":139.330101},{"name":"長沼公園","province":"東京都","city":"八王子市","address":"東京都八王子市長沼町・下柚木・堀之内","lat":35.638301,"lon":139.368525},{"name":"平山城址公園","province":"東京都","city":"八王子市","address":"東京都八王子市堀之内","lat":35.647956,"lon":139.380848},{"name":"陵南公園","province":"東京都","city":"八王子市","address":"東京都八王子市長房町、東浅川町","lat":35.649066,"lon":139.289172},{"name":"久保田鉄鋼(株)","province":"東京都","city":"八王子市","address":"八王子市中野上町2-18-3","lat":35.669109,"lon":139.324997},{"name":"三弘紙業(株)  八王子営業所","province":"東京都","city":"八王子市","address":"八王子市宮下町54-1","lat":35.703022,"lon":139.312744},{"name":"東京紙業(株)  多摩事業所","province":"東京都","city":"八王子市","address":"八王子市中野上町1-16-16","lat":35.667873,"lon":139.326584},{"name":"八王子容器(有)","province":"東京都","city":"八王子市","address":"八王子市西寺方町81-4","lat":35.67337,"lon":139.26532},{"name":"(有)長岡商店","province":"東京都","city":"八王子市","address":"八王子市上川町601-1","lat":35.704987,"lon":139.248047},{"name":"八王子資源化事業(協)","province":"東京都","city":"八王子市","address":"八王子市楢原町1452-1","lat":35.680737,"lon":139.30249},{"name":"(株)こんの","province":"東京都","city":"八王子市","address":"八王子市石川町2802","lat":35.674221,"lon":139.366211},{"name":"(有)西田商店","province":"東京都","city":"八王子市","address":"八王子市戸吹町1891-3","lat":35.703228,"lon":139.295197},{"name":"(株)エコネット","province":"東京都","city":"八王子市","address":"八王子市犬目町776","lat":35.689659,"lon":139.307724},{"name":"(株)完山金属  高尾リサイクルセンター","province":"東京都","city":"八王子市","address":"八王子市南浅川町3952-1","lat":35.615612,"lon":139.244919},{"name":"(株)トーホー商事  丹木資源リサイクル事業所","province":"東京都","city":"八王子市","address":"八王子市丹木町1-570","lat":35.690018,"lon":139.333572},{"name":"明治の森高尾国定公園","province":"東京都","city":"八王子市","address":"東京都八王子市高尾町","lat":35.631366,"lon":139.26758},{"name":"高尾陣場自然公園","province":"東京都","city":"八王子市","address":"東京都八王子市高尾町","lat":35.625024,"lon":139.243244},{"name":"滝山自然公園","province":"東京都","city":"八王子市","address":"東京都八王子市高月町、丹木町二、三丁目","lat":35.701454,"lon":139.330101},{"name":"多摩丘陵自然公園","province":"東京都","city":"八王子市","address":"東京都八王子市、町田市、多摩市","lat":35.659984,"lon":139.41034},{"name":"秋川丘陵自然公園","province":"東京都","city":"八王子市","address":"東京都八王子市、あきる野市","lat":35.720824,"lon":139.231591},{"name":"小宮公園","province":"東京都","city":"八王子市","address":"東京都八王子市大谷町、暁町二丁目","lat":35.673446,"lon":139.340673},{"name":"滝山公園","province":"東京都","city":"八王子市","address":"東京都八王子市高月町、丹木町二、三丁目","lat":35.701454,"lon":139.330101},{"name":"長沼公園","province":"東京都","city":"八王子市","address":"東京都八王子市長沼町・下柚木・堀之内","lat":35.638301,"lon":139.368525},{"name":"平山城址公園","province":"東京都","city":"八王子市","address":"東京都八王子市堀之内","lat":35.647956,"lon":139.380848},{"name":"陵南公園","province":"東京都","city":"八王子市","address":"東京都八王子市長房町、東浅川町","lat":35.649066,"lon":139.289172},{"name":"久保田鉄鋼(株)","province":"東京都","city":"八王子市","address":"八王子市中野上町2-18-3","lat":35.669109,"lon":139.324997},{"name":"三弘紙業(株)  八王子営業所","province":"東京都","city":"八王子市","address":"八王子市宮下町54-1","lat":35.703022,"lon":139.312744},{"name":"東京紙業(株)  多摩事業所","province":"東京都","city":"八王子市","address":"八王子市中野上町1-16-16","lat":35.667873,"lon":139.326584},{"name":"八王子容器(有)","province":"東京都","city":"八王子市","address":"八王子市西寺方町81-4","lat":35.67337,"lon":139.26532},{"name":"(有)長岡商店","province":"東京都","city":"八王子市","address":"八王子市上川町601-1","lat":35.704987,"lon":139.248047},{"name":"八王子資源化事業(協)","province":"東京都","city":"八王子市","address":"八王子市楢原町1452-1","lat":35.680737,"lon":139.30249},{"name":"(株)こんの","province":"東京都","city":"八王子市","address":"八王子市石川町2802","lat":35.674221,"lon":139.366211},{"name":"(有)西田商店","province":"東京都","city":"八王子市","address":"八王子市戸吹町1891-3","lat":35.703228,"lon":139.295197},{"name":"(株)エコネット","province":"東京都","city":"八王子市","address":"八王子市犬目町776","lat":35.689659,"lon":139.307724},{"name":"(株)完山金属  高尾リサイクルセンター","province":"東京都","city":"八王子市","address":"八王子市南浅川町3952-1","lat":35.615612,"lon":139.244919},{"name":"(株)トーホー商事  丹木資源リサイクル事業所","province":"東京都","city":"八王子市","address":"八王子市丹木町1-570","lat":35.690018,"lon":139.333572},{"name":"明治の森高尾国定公園","province":"東京都","city":"八王子市","address":"東京都八王子市高尾町","lat":35.631366,"lon":139.26758},{"name":"高尾陣場自然公園","province":"東京都","city":"八王子市","address":"東京都八王子市高尾町","lat":35.625024,"lon":139.243244},{"name":"滝山自然公園","province":"東京都","city":"八王子市","address":"東京都八王子市高月町、丹木町二、三丁目","lat":35.701454,"lon":139.330101},{"name":"多摩丘陵自然公園","province":"東京都","city":"八王子市","address":"東京都八王子市、町田市、多摩市","lat":35.659984,"lon":139.41034},{"name":"秋川丘陵自然公園","province":"東京都","city":"八王子市","address":"東京都八王子市、あきる野市","lat":35.720824,"lon":139.231591},{"name":"小宮公園","province":"東京都","city":"八王子市","address":"東京都八王子市大谷町、暁町二丁目","lat":35.673446,"lon":139.340673},{"name":"滝山公園","province":"東京都","city":"八王子市","address":"東京都八王子市高月町、丹木町二、三丁目","lat":35.701454,"lon":139.330101},{"name":"長沼公園","province":"東京都","city":"八王子市","address":"東京都八王子市長沼町・下柚木・堀之内","lat":35.638301,"lon":139.368525},{"name":"平山城址公園","province":"東京都","city":"八王子市","address":"東京都八王子市堀之内","lat":35.647956,"lon":139.380848},{"name":"陵南公園","province":"東京都","city":"八王子市","address":"東京都八王子市長房町、東浅川町","lat":35.649066,"lon":139.289172},{"name":"久保田鉄鋼(株)","province":"東京都","city":"八王子市","address":"八王子市中野上町2-18-3","lat":35.669109,"lon":139.324997},{"name":"三弘紙業(株)  八王子営業所","province":"東京都","city":"八王子市","address":"八王子市宮下町54-1","lat":35.703022,"lon":139.312744},{"name":"東京紙業(株)  多摩事業所","province":"東京都","city":"八王子市","address":"八王子市中野上町1-16-16","lat":35.667873,"lon":139.326584},{"name":"八王子容器(有)","province":"東京都","city":"八王子市","address":"八王子市西寺方町81-4","lat":35.67337,"lon":139.26532},{"name":"(有)長岡商店","province":"東京都","city":"八王子市","address":"八王子市上川町601-1","lat":35.704987,"lon":139.248047},{"name":"八王子資源化事業(協)","province":"東京都","city":"八王子市","address":"八王子市楢原町1452-1","lat":35.680737,"lon":139.30249},{"name":"(株)こんの","province":"東京都","city":"八王子市","address":"八王子市石川町2802","lat":35.674221,"lon":139.366211},{"name":"(有)西田商店","province":"東京都","city":"八王子市","address":"八王子市戸吹町1891-3","lat":35.703228,"lon":139.295197},{"name":"(株)エコネット","province":"東京都","city":"八王子市","address":"八王子市犬目町776","lat":35.689659,"lon":139.307724},{"name":"(株)完山金属  高尾リサイクルセンター","province":"東京都","city":"八王子市","address":"八王子市南浅川町3952-1","lat":35.615612,"lon":139.244919},{"name":"(株)トーホー商事  丹木資源リサイクル事業所","province":"東京都","city":"八王子市","address":"八王子市丹木町1-570","lat":35.690018,"lon":139.333572},{"name":"明治の森高尾国定公園","province":"東京都","city":"八王子市","address":"東京都八王子市高尾町","lat":35.631366,"lon":139.26758},{"name":"高尾陣場自然公園","province":"東京都","city":"八王子市","address":"東京都八王子市高尾町","lat":35.625024,"lon":139.243244},{"name":"滝山自然公園","province":"東京都","city":"八王子市","address":"東京都八王子市高月町、丹木町二、三丁目","lat":35.701454,"lon":139.330101},{"name":"多摩丘陵自然公園","province":"東京都","city":"八王子市","address":"東京都八王子市、町田市、多摩市","lat":35.659984,"lon":139.41034},{"name":"秋川丘陵自然公園","province":"東京都","city":"八王子市","address":"東京都八王子市、あきる野市","lat":35.720824,"lon":139.231591},{"name":"小宮公園","province":"東京都","city":"八王子市","address":"東京都八王子市大谷町、暁町二丁目","lat":35.673446,"lon":139.340673},{"name":"滝山公園","province":"東京都","city":"八王子市","address":"東京都八王子市高月町、丹木町二、三丁目","lat":35.701454,"lon":139.330101},{"name":"長沼公園","province":"東京都","city":"八王子市","address":"東京都八王子市長沼町・下柚木・堀之内","lat":35.638301,"lon":139.368525},{"name":"平山城址公園","province":"東京都","city":"八王子市","address":"東京都八王子市堀之内","lat":35.647956,"lon":139.380848},{"name":"陵南公園","province":"東京都","city":"八王子市","address":"東京都八王子市長房町、東浅川町","lat":35.649066,"lon":139.289172},{"name":"久保田鉄鋼(株)","province":"東京都","city":"八王子市","address":"八王子市中野上町2-18-3","lat":35.669109,"lon":139.324997},{"name":"三弘紙業(株)  八王子営業所","province":"東京都","city":"八王子市","address":"八王子市宮下町54-1","lat":35.703022,"lon":139.312744},{"name":"東京紙業(株)  多摩事業所","province":"東京都","city":"八王子市","address":"八王子市中野上町1-16-16","lat":35.667873,"lon":139.326584},{"name":"八王子容器(有)","province":"東京都","city":"八王子市","address":"八王子市西寺方町81-4","lat":35.67337,"lon":139.26532},{"name":"(有)長岡商店","province":"東京都","city":"八王子市","address":"八王子市上川町601-1","lat":35.704987,"lon":139.248047},{"name":"八王子資源化事業(協)","province":"東京都","city":"八王子市","address":"八王子市楢原町1452-1","lat":35.680737,"lon":139.30249},{"name":"(株)こんの","province":"東京都","city":"八王子市","address":"八王子市石川町2802","lat":35.674221,"lon":139.366211},{"name":"(有)西田商店","province":"東京都","city":"八王子市","address":"八王子市戸吹町1891-3","lat":35.703228,"lon":139.295197},{"name":"(株)エコネット","province":"東京都","city":"八王子市","address":"八王子市犬目町776","lat":35.689659,"lon":139.307724},{"name":"(株)完山金属  高尾リサイクルセンター","province":"東京都","city":"八王子市","address":"八王子市南浅川町3952-1","lat":35.615612,"lon":139.244919},{"name":"(株)トーホー商事  丹木資源リサイクル事業所","province":"東京都","city":"八王子市","address":"八王子市丹木町1-570","lat":35.690018,"lon":139.333572},{"name":"明治の森高尾国定公園","province":"東京都","city":"八王子市","address":"東京都八王子市高尾町","lat":35.631366,"lon":139.26758},{"name":"高尾陣場自然公園","province":"東京都","city":"八王子市","address":"東京都八王子市高尾町","lat":35.625024,"lon":139.243244},{"name":"滝山自然公園","province":"東京都","city":"八王子市","address":"東京都八王子市高月町、丹木町二、三丁目","lat":35.701454,"lon":139.330101},{"name":"多摩丘陵自然公園","province":"東京都","city":"八王子市","address":"東京都八王子市、町田市、多摩市","lat":35.659984,"lon":139.41034},{"name":"秋川丘陵自然公園","province":"東京都","city":"八王子市","address":"東京都八王子市、あきる野市","lat":35.720824,"lon":139.231591},{"name":"小宮公園","province":"東京都","city":"八王子市","address":"東京都八王子市大谷町、暁町二丁目","lat":35.673446,"lon":139.340673},{"name":"滝山公園","province":"東京都","city":"八王子市","address":"東京都八王子市高月町、丹木町二、三丁目","lat":35.701454,"lon":139.330101},{"name":"長沼公園","province":"東京都","city":"八王子市","address":"東京都八王子市長沼町・下柚木・堀之内","lat":35.638301,"lon":139.368525},{"name":"平山城址公園","province":"東京都","city":"八王子市","address":"東京都八王子市堀之内","lat":35.647956,"lon":139.380848},{"name":"陵南公園","province":"東京都","city":"八王子市","address":"東京都八王子市長房町、東浅川町","lat":35.649066,"lon":139.289172},{"name":"久保田鉄鋼(株)","province":"東京都","city":"八王子市","address":"八王子市中野上町2-18-3","lat":35.669109,"lon":139.324997},{"name":"三弘紙業(株)  八王子営業所","province":"東京都","city":"八王子市","address":"八王子市宮下町54-1","lat":35.703022,"lon":139.312744},{"name":"東京紙業(株)  多摩事業所","province":"東京都","city":"八王子市","address":"八王子市中野上町1-16-16","lat":35.667873,"lon":139.326584},{"name":"八王子容器(有)","province":"東京都","city":"八王子市","address":"八王子市西寺方町81-4","lat":35.67337,"lon":139.26532},{"name":"(有)長岡商店","province":"東京都","city":"八王子市","address":"八王子市上川町601-1","lat":35.704987,"lon":139.248047},{"name":"八王子資源化事業(協)","province":"東京都","city":"八王子市","address":"八王子市楢原町1452-1","lat":35.680737,"lon":139.30249},{"name":"(株)こんの","province":"東京都","city":"八王子市","address":"八王子市石川町2802","lat":35.674221,"lon":139.366211},{"name":"(有)西田商店","province":"東京都","city":"八王子市","address":"八王子市戸吹町1891-3","lat":35.703228,"lon":139.295197},{"name":"(株)エコネット","province":"東京都","city":"八王子市","address":"八王子市犬目町776","lat":35.689659,"lon":139.307724},{"name":"(株)完山金属  高尾リサイクルセンター","province":"東京都","city":"八王子市","address":"八王子市南浅川町3952-1","lat":35.615612,"lon":139.244919},{"name":"(株)トーホー商事  丹木資源リサイクル事業所","province":"東京都","city":"八王子市","address":"八王子市丹木町1-570","lat":35.690018,"lon":139.333572},{"name":"明治の森高尾国定公園","province":"東京都","city":"八王子市","address":"東京都八王子市高尾町","lat":35.631366,"lon":139.26758},{"name":"高尾陣場自然公園","province":"東京都","city":"八王子市","address":"東京都八王子市高尾町","lat":35.625024,"lon":139.243244},{"name":"滝山自然公園","province":"東京都","city":"八王子市","address":"東京都八王子市高月町、丹木町二、三丁目","lat":35.701454,"lon":139.330101},{"name":"多摩丘陵自然公園","province":"東京都","city":"八王子市","address":"東京都八王子市、町田市、多摩市","lat":35.659984,"lon":139.41034},{"name":"秋川丘陵自然公園","province":"東京都","city":"八王子市","address":"東京都八王子市、あきる野市","lat":35.720824,"lon":139.231591},{"name":"小宮公園","province":"東京都","city":"八王子市","address":"東京都八王子市大谷町、暁町二丁目","lat":35.673446,"lon":139.340673},{"name":"滝山公園","province":"東京都","city":"八王子市","address":"東京都八王子市高月町、丹木町二、三丁目","lat":35.701454,"lon":139.330101},{"name":"長沼公園","province":"東京都","city":"八王子市","address":"東京都八王子市長沼町・下柚木・堀之内","lat":35.638301,"lon":139.368525},{"name":"平山城址公園","province":"東京都","city":"八王子市","address":"東京都八王子市堀之内","lat":35.647956,"lon":139.380848},{"name":"陵南公園","province":"東京都","city":"八王子市","address":"東京都八王子市長房町、東浅川町","lat":35.649066,"lon":139.289172},{"name":"久保田鉄鋼(株)","province":"東京都","city":"八王子市","address":"八王子市中野上町2-18-3","lat":35.669109,"lon":139.324997},{"name":"三弘紙業(株)  八王子営業所","province":"東京都","city":"八王子市","address":"八王子市宮下町54-1","lat":35.703022,"lon":139.312744},{"name":"東京紙業(株)  多摩事業所","province":"東京都","city":"八王子市","address":"八王子市中野上町1-16-16","lat":35.667873,"lon":139.326584},{"name":"八王子容器(有)","province":"東京都","city":"八王子市","address":"八王子市西寺方町81-4","lat":35.67337,"lon":139.26532},{"name":"(有)長岡商店","province":"東京都","city":"八王子市","address":"八王子市上川町601-1","lat":35.704987,"lon":139.248047},{"name":"八王子資源化事業(協)","province":"東京都","city":"八王子市","address":"八王子市楢原町1452-1","lat":35.680737,"lon":139.30249},{"name":"(株)こんの","province":"東京都","city":"八王子市","address":"八王子市石川町2802","lat":35.674221,"lon":139.366211},{"name":"(有)西田商店","province":"東京都","city":"八王子市","address":"八王子市戸吹町1891-3","lat":35.703228,"lon":139.295197},{"name":"(株)エコネット","province":"東京都","city":"八王子市","address":"八王子市犬目町776","lat":35.689659,"lon":139.307724},{"name":"(株)完山金属  高尾リサイクルセンター","province":"東京都","city":"八王子市","address":"八王子市南浅川町3952-1","lat":35.615612,"lon":139.244919},{"name":"(株)トーホー商事  丹木資源リサイクル事業所","province":"東京都","city":"八王子市","address":"八王子市丹木町1-570","lat":35.690018,"lon":139.333572},{"name":"明治の森高尾国定公園","province":"東京都","city":"八王子市","address":"東京都八王子市高尾町","lat":35.631366,"lon":139.26758},{"name":"高尾陣場自然公園","province":"東京都","city":"八王子市","address":"東京都八王子市高尾町","lat":35.625024,"lon":139.243244},{"name":"滝山自然公園","province":"東京都","city":"八王子市","address":"東京都八王子市高月町、丹木町二、三丁目","lat":35.701454,"lon":139.330101},{"name":"多摩丘陵自然公園","province":"東京都","city":"八王子市","address":"東京都八王子市、町田市、多摩市","lat":35.659984,"lon":139.41034},{"name":"秋川丘陵自然公園","province":"東京都","city":"八王子市","address":"東京都八王子市、あきる野市","lat":35.720824,"lon":139.231591},{"name":"小宮公園","province":"東京都","city":"八王子市","address":"東京都八王子市大谷町、暁町二丁目","lat":35.673446,"lon":139.340673},{"name":"滝山公園","province":"東京都","city":"八王子市","address":"東京都八王子市高月町、丹木町二、三丁目","lat":35.701454,"lon":139.330101},{"name":"長沼公園","province":"東京都","city":"八王子市","address":"東京都八王子市長沼町・下柚木・堀之内","lat":35.638301,"lon":139.368525},{"name":"平山城址公園","province":"東京都","city":"八王子市","address":"東京都八王子市堀之内","lat":35.647956,"lon":139.380848},{"name":"陵南公園","province":"東京都","city":"八王子市","address":"東京都八王子市長房町、東浅川町","lat":35.649066,"lon":139.289172},{"name":"久保田鉄鋼(株)","province":"東京都","city":"八王子市","address":"八王子市中野上町2-18-3","lat":35.669109,"lon":139.324997},{"name":"三弘紙業(株)  八王子営業所","province":"東京都","city":"八王子市","address":"八王子市宮下町54-1","lat":35.703022,"lon":139.312744},{"name":"東京紙業(株)  多摩事業所","province":"東京都","city":"八王子市","address":"八王子市中野上町1-16-16","lat":35.667873,"lon":139.326584},{"name":"八王子容器(有)","province":"東京都","city":"八王子市","address":"八王子市西寺方町81-4","lat":35.67337,"lon":139.26532},{"name":"(有)長岡商店","province":"東京都","city":"八王子市","address":"八王子市上川町601-1","lat":35.704987,"lon":139.248047},{"name":"八王子資源化事業(協)","province":"東京都","city":"八王子市","address":"八王子市楢原町1452-1","lat":35.680737,"lon":139.30249},{"name":"(株)こんの","province":"東京都","city":"八王子市","address":"八王子市石川町2802","lat":35.674221,"lon":139.366211},{"name":"(有)西田商店","province":"東京都","city":"八王子市","address":"八王子市戸吹町1891-3","lat":35.703228,"lon":139.295197},{"name":"(株)エコネット","province":"東京都","city":"八王子市","address":"八王子市犬目町776","lat":35.689659,"lon":139.307724},{"name":"(株)完山金属  高尾リサイクルセンター","province":"東京都","city":"八王子市","address":"八王子市南浅川町3952-1","lat":35.615612,"lon":139.244919},{"name":"(株)トーホー商事  丹木資源リサイクル事業所","province":"東京都","city":"八王子市","address":"八王子市丹木町1-570","lat":35.690018,"lon":139.333572},{"name":"明治の森高尾国定公園","province":"東京都","city":"八王子市","address":"東京都八王子市高尾町","lat":35.631366,"lon":139.26758},{"name":"高尾陣場自然公園","province":"東京都","city":"八王子市","address":"東京都八王子市高尾町","lat":35.625024,"lon":139.243244},{"name":"滝山自然公園","province":"東京都","city":"八王子市","address":"東京都八王子市高月町、丹木町二、三丁目","lat":35.701454,"lon":139.330101},{"name":"多摩丘陵自然公園","province":"東京都","city":"八王子市","address":"東京都八王子市、町田市、多摩市","lat":35.659984,"lon":139.41034},{"name":"秋川丘陵自然公園","province":"東京都","city":"八王子市","address":"東京都八王子市、あきる野市","lat":35.720824,"lon":139.231591},{"name":"小宮公園","province":"東京都","city":"八王子市","address":"東京都八王子市大谷町、暁町二丁目","lat":35.673446,"lon":139.340673},{"name":"滝山公園","province":"東京都","city":"八王子市","address":"東京都八王子市高月町、丹木町二、三丁目","lat":35.701454,"lon":139.330101},{"name":"長沼公園","province":"東京都","city":"八王子市","address":"東京都八王子市長沼町・下柚木・堀之内","lat":35.638301,"lon":139.368525},{"name":"平山城址公園","province":"東京都","city":"八王子市","address":"東京都八王子市堀之内","lat":35.647956,"lon":139.380848},{"name":"陵南公園","province":"東京都","city":"八王子市","address":"東京都八王子市長房町、東浅川町","lat":35.649066,"lon":139.289172},{"name":"久保田鉄鋼(株)","province":"東京都","city":"八王子市","address":"八王子市中野上町2-18-3","lat":35.669109,"lon":139.324997},{"name":"三弘紙業(株)  八王子営業所","province":"東京都","city":"八王子市","address":"八王子市宮下町54-1","lat":35.703022,"lon":139.312744},{"name":"東京紙業(株)  多摩事業所","province":"東京都","city":"八王子市","address":"八王子市中野上町1-16-16","lat":35.667873,"lon":139.326584},{"name":"八王子容器(有)","province":"東京都","city":"八王子市","address":"八王子市西寺方町81-4","lat":35.67337,"lon":139.26532},{"name":"(有)長岡商店","province":"東京都","city":"八王子市","address":"八王子市上川町601-1","lat":35.704987,"lon":139.248047},{"name":"八王子資源化事業(協)","province":"東京都","city":"八王子市","address":"八王子市楢原町1452-1","lat":35.680737,"lon":139.30249},{"name":"(株)こんの","province":"東京都","city":"八王子市","address":"八王子市石川町2802","lat":35.674221,"lon":139.366211},{"name":"(有)西田商店","province":"東京都","city":"八王子市","address":"八王子市戸吹町1891-3","lat":35.703228,"lon":139.295197},{"name":"(株)エコネット","province":"東京都","city":"八王子市","address":"八王子市犬目町776","lat":35.689659,"lon":139.307724},{"name":"(株)完山金属  高尾リサイクルセンター","province":"東京都","city":"八王子市","address":"八王子市南浅川町3952-1","lat":35.615612,"lon":139.244919},{"name":"(株)トーホー商事  丹木資源リサイクル事業所","province":"東京都","city":"八王子市","address":"八王子市丹木町1-570","lat":35.690018,"lon":139.333572},{"name":"明治の森高尾国定公園","province":"東京都","city":"八王子市","address":"東京都八王子市高尾町","lat":35.631366,"lon":139.26758},{"name":"高尾陣場自然公園","province":"東京都","city":"八王子市","address":"東京都八王子市高尾町","lat":35.625024,"lon":139.243244},{"name":"滝山自然公園","province":"東京都","city":"八王子市","address":"東京都八王子市高月町、丹木町二、三丁目","lat":35.701454,"lon":139.330101},{"name":"多摩丘陵自然公園","province":"東京都","city":"八王子市","address":"東京都八王子市、町田市、多摩市","lat":35.659984,"lon":139.41034},{"name":"秋川丘陵自然公園","province":"東京都","city":"八王子市","address":"東京都八王子市、あきる野市","lat":35.720824,"lon":139.231591},{"name":"小宮公園","province":"東京都","city":"八王子市","address":"東京都八王子市大谷町、暁町二丁目","lat":35.673446,"lon":139.340673},{"name":"滝山公園","province":"東京都","city":"八王子市","address":"東京都八王子市高月町、丹木町二、三丁目","lat":35.701454,"lon":139.330101},{"name":"長沼公園","province":"東京都","city":"八王子市","address":"東京都八王子市長沼町・下柚木・堀之内","lat":35.638301,"lon":139.368525},{"name":"平山城址公園","province":"東京都","city":"八王子市","address":"東京都八王子市堀之内","lat":35.647956,"lon":139.380848},{"name":"陵南公園","province":"東京都","city":"八王子市","address":"東京都八王子市長房町、東浅川町","lat":35.649066,"lon":139.289172},{"name":"久保田鉄鋼(株)","province":"東京都","city":"八王子市","address":"八王子市中野上町2-18-3","lat":35.669109,"lon":139.324997},{"name":"三弘紙業(株)  八王子営業所","province":"東京都","city":"八王子市","address":"八王子市宮下町54-1","lat":35.703022,"lon":139.312744},{"name":"東京紙業(株)  多摩事業所","province":"東京都","city":"八王子市","address":"八王子市中野上町1-16-16","lat":35.667873,"lon":139.326584},{"name":"八王子容器(有)","province":"東京都","city":"八王子市","address":"八王子市西寺方町81-4","lat":35.67337,"lon":139.26532},{"name":"(有)長岡商店","province":"東京都","city":"八王子市","address":"八王子市上川町601-1","lat":35.704987,"lon":139.248047},{"name":"八王子資源化事業(協)","province":"東京都","city":"八王子市","address":"八王子市楢原町1452-1","lat":35.680737,"lon":139.30249},{"name":"(株)こんの","province":"東京都","city":"八王子市","address":"八王子市石川町2802","lat":35.674221,"lon":139.366211},{"name":"(有)西田商店","province":"東京都","city":"八王子市","address":"八王子市戸吹町1891-3","lat":35.703228,"lon":139.295197},{"name":"(株)エコネット","province":"東京都","city":"八王子市","address":"八王子市犬目町776","lat":35.689659,"lon":139.307724},{"name":"(株)完山金属  高尾リサイクルセンター","province":"東京都","city":"八王子市","address":"八王子市南浅川町3952-1","lat":35.615612,"lon":139.244919},{"name":"(株)トーホー商事  丹木資源リサイクル事業所","province":"東京都","city":"八王子市","address":"八王子市丹木町1-570","lat":35.690018,"lon":139.333572},{"name":"明治の森高尾国定公園","province":"東京都","city":"八王子市","address":"東京都八王子市高尾町","lat":35.631366,"lon":139.26758},{"name":"高尾陣場自然公園","province":"東京都","city":"八王子市","address":"東京都八王子市高尾町","lat":35.625024,"lon":139.243244},{"name":"滝山自然公園","province":"東京都","city":"八王子市","address":"東京都八王子市高月町、丹木町二、三丁目","lat":35.701454,"lon":139.330101},{"name":"多摩丘陵自然公園","province":"東京都","city":"八王子市","address":"東京都八王子市、町田市、多摩市","lat":35.659984,"lon":139.41034},{"name":"秋川丘陵自然公園","province":"東京都","city":"八王子市","address":"東京都八王子市、あきる野市","lat":35.720824,"lon":139.231591},{"name":"小宮公園","province":"東京都","city":"八王子市","address":"東京都八王子市大谷町、暁町二丁目","lat":35.673446,"lon":139.340673},{"name":"滝山公園","province":"東京都","city":"八王子市","address":"東京都八王子市高月町、丹木町二、三丁目","lat":35.701454,"lon":139.330101},{"name":"長沼公園","province":"東京都","city":"八王子市","address":"東京都八王子市長沼町・下柚木・堀之内","lat":35.638301,"lon":139.368525},{"name":"平山城址公園","province":"東京都","city":"八王子市","address":"東京都八王子市堀之内","lat":35.647956,"lon":139.380848},{"name":"陵南公園","province":"東京都","city":"八王子市","address":"東京都八王子市長房町、東浅川町","lat":35.649066,"lon":139.289172},{"name":"久保田鉄鋼(株)","province":"東京都","city":"八王子市","address":"八王子市中野上町2-18-3","lat":35.669109,"lon":139.324997},{"name":"三弘紙業(株)  八王子営業所","province":"東京都","city":"八王子市","address":"八王子市宮下町54-1","lat":35.703022,"lon":139.312744},{"name":"東京紙業(株)  多摩事業所","province":"東京都","city":"八王子市","address":"八王子市中野上町1-16-16","lat":35.667873,"lon":139.326584},{"name":"八王子容器(有)","province":"東京都","city":"八王子市","address":"八王子市西寺方町81-4","lat":35.67337,"lon":139.26532},{"name":"(有)長岡商店","province":"東京都","city":"八王子市","address":"八王子市上川町601-1","lat":35.704987,"lon":139.248047},{"name":"八王子資源化事業(協)","province":"東京都","city":"八王子市","address":"八王子市楢原町1452-1","lat":35.680737,"lon":139.30249},{"name":"(株)こんの","province":"東京都","city":"八王子市","address":"八王子市石川町2802","lat":35.674221,"lon":139.366211},{"name":"(有)西田商店","province":"東京都","city":"八王子市","address":"八王子市戸吹町1891-3","lat":35.703228,"lon":139.295197},{"name":"(株)エコネット","province":"東京都","city":"八王子市","address":"八王子市犬目町776","lat":35.689659,"lon":139.307724},{"name":"(株)完山金属  高尾リサイクルセンター","province":"東京都","city":"八王子市","address":"八王子市南浅川町3952-1","lat":35.615612,"lon":139.244919},{"name":"(株)トーホー商事  丹木資源リサイクル事業所","province":"東京都","city":"八王子市","address":"八王子市丹木町1-570","lat":35.690018,"lon":139.333572},{"name":"明治の森高尾国定公園","province":"東京都","city":"八王子市","address":"東京都八王子市高尾町","lat":35.631366,"lon":139.26758},{"name":"高尾陣場自然公園","province":"東京都","city":"八王子市","address":"東京都八王子市高尾町","lat":35.625024,"lon":139.243244},{"name":"滝山自然公園","province":"東京都","city":"八王子市","address":"東京都八王子市高月町、丹木町二、三丁目","lat":35.701454,"lon":139.330101},{"name":"多摩丘陵自然公園","province":"東京都","city":"八王子市","address":"東京都八王子市、町田市、多摩市","lat":35.659984,"lon":139.41034},{"name":"秋川丘陵自然公園","province":"東京都","city":"八王子市","address":"東京都八王子市、あきる野市","lat":35.720824,"lon":139.231591},{"name":"小宮公園","province":"東京都","city":"八王子市","address":"東京都八王子市大谷町、暁町二丁目","lat":35.673446,"lon":139.340673},{"name":"滝山公園","province":"東京都","city":"八王子市","address":"東京都八王子市高月町、丹木町二、三丁目","lat":35.701454,"lon":139.330101},{"name":"長沼公園","province":"東京都","city":"八王子市","address":"東京都八王子市長沼町・下柚木・堀之内","lat":35.638301,"lon":139.368525},{"name":"平山城址公園","province":"東京都","city":"八王子市","address":"東京都八王子市堀之内","lat":35.647956,"lon":139.380848},{"name":"陵南公園","province":"東京都","city":"八王子市","address":"東京都八王子市長房町、東浅川町","lat":35.649066,"lon":139.289172},{"name":"久保田鉄鋼(株)","province":"東京都","city":"八王子市","address":"八王子市中野上町2-18-3","lat":35.669109,"lon":139.324997},{"name":"三弘紙業(株)  八王子営業所","province":"東京都","city":"八王子市","address":"八王子市宮下町54-1","lat":35.703022,"lon":139.312744},{"name":"東京紙業(株)  多摩事業所","province":"東京都","city":"八王子市","address":"八王子市中野上町1-16-16","lat":35.667873,"lon":139.326584},{"name":"八王子容器(有)","province":"東京都","city":"八王子市","address":"八王子市西寺方町81-4","lat":35.67337,"lon":139.26532},{"name":"(有)長岡商店","province":"東京都","city":"八王子市","address":"八王子市上川町601-1","lat":35.704987,"lon":139.248047},{"name":"八王子資源化事業(協)","province":"東京都","city":"八王子市","address":"八王子市楢原町1452-1","lat":35.680737,"lon":139.30249},{"name":"(株)こんの","province":"東京都","city":"八王子市","address":"八王子市石川町2802","lat":35.674221,"lon":139.366211},{"name":"(有)西田商店","province":"東京都","city":"八王子市","address":"八王子市戸吹町1891-3","lat":35.703228,"lon":139.295197},{"name":"(株)エコネット","province":"東京都","city":"八王子市","address":"八王子市犬目町776","lat":35.689659,"lon":139.307724},{"name":"(株)完山金属  高尾リサイクルセンター","province":"東京都","city":"八王子市","address":"八王子市南浅川町3952-1","lat":35.615612,"lon":139.244919},{"name":"(株)トーホー商事  丹木資源リサイクル事業所","province":"東京都","city":"八王子市","address":"八王子市丹木町1-570","lat":35.690018,"lon":139.333572},{"name":"明治の森高尾国定公園","province":"東京都","city":"八王子市","address":"東京都八王子市高尾町","lat":35.631366,"lon":139.26758},{"name":"高尾陣場自然公園","province":"東京都","city":"八王子市","address":"東京都八王子市高尾町","lat":35.625024,"lon":139.243244},{"name":"滝山自然公園","province":"東京都","city":"八王子市","address":"東京都八王子市高月町、丹木町二、三丁目","lat":35.701454,"lon":139.330101},{"name":"多摩丘陵自然公園","province":"東京都","city":"八王子市","address":"東京都八王子市、町田市、多摩市","lat":35.659984,"lon":139.41034},{"name":"秋川丘陵自然公園","province":"東京都","city":"八王子市","address":"東京都八王子市、あきる野市","lat":35.720824,"lon":139.231591},{"name":"小宮公園","province":"東京都","city":"八王子市","address":"東京都八王子市大谷町、暁町二丁目","lat":35.673446,"lon":139.340673},{"name":"滝山公園","province":"東京都","city":"八王子市","address":"東京都八王子市高月町、丹木町二、三丁目","lat":35.701454,"lon":139.330101},{"name":"長沼公園","province":"東京都","city":"八王子市","address":"東京都八王子市長沼町・下柚木・堀之内","lat":35.638301,"lon":139.368525},{"name":"平山城址公園","province":"東京都","city":"八王子市","address":"東京都八王子市堀之内","lat":35.647956,"lon":139.380848},{"name":"陵南公園","province":"東京都","city":"八王子市","address":"東京都八王子市長房町、東浅川町","lat":35.649066,"lon":139.289172},{"name":"久保田鉄鋼(株)","province":"東京都","city":"八王子市","address":"八王子市中野上町2-18-3","lat":35.669109,"lon":139.324997},{"name":"三弘紙業(株)  八王子営業所","province":"東京都","city":"八王子市","address":"八王子市宮下町54-1","lat":35.703022,"lon":139.312744},{"name":"東京紙業(株)  多摩事業所","province":"東京都","city":"八王子市","address":"八王子市中野上町1-16-16","lat":35.667873,"lon":139.326584},{"name":"八王子容器(有)","province":"東京都","city":"八王子市","address":"八王子市西寺方町81-4","lat":35.67337,"lon":139.26532},{"name":"(有)長岡商店","province":"東京都","city":"八王子市","address":"八王子市上川町601-1","lat":35.704987,"lon":139.248047},{"name":"八王子資源化事業(協)","province":"東京都","city":"八王子市","address":"八王子市楢原町1452-1","lat":35.680737,"lon":139.30249},{"name":"(株)こんの","province":"東京都","city":"八王子市","address":"八王子市石川町2802","lat":35.674221,"lon":139.366211},{"name":"(有)西田商店","province":"東京都","city":"八王子市","address":"八王子市戸吹町1891-3","lat":35.703228,"lon":139.295197},{"name":"(株)エコネット","province":"東京都","city":"八王子市","address":"八王子市犬目町776","lat":35.689659,"lon":139.307724},{"name":"(株)完山金属  高尾リサイクルセンター","province":"東京都","city":"八王子市","address":"八王子市南浅川町3952-1","lat":35.615612,"lon":139.244919},{"name":"(株)トーホー商事  丹木資源リサイクル事業所","province":"東京都","city":"八王子市","address":"八王子市丹木町1-570","lat":35.690018,"lon":139.333572},{"name":"明治の森高尾国定公園","province":"東京都","city":"八王子市","address":"東京都八王子市高尾町","lat":35.631366,"lon":139.26758},{"name":"高尾陣場自然公園","province":"東京都","city":"八王子市","address":"東京都八王子市高尾町","lat":35.625024,"lon":139.243244},{"name":"滝山自然公園","province":"東京都","city":"八王子市","address":"東京都八王子市高月町、丹木町二、三丁目","lat":35.701454,"lon":139.330101},{"name":"多摩丘陵自然公園","province":"東京都","city":"八王子市","address":"東京都八王子市、町田市、多摩市","lat":35.659984,"lon":139.41034},{"name":"秋川丘陵自然公園","province":"東京都","city":"八王子市","address":"東京都八王子市、あきる野市","lat":35.720824,"lon":139.231591},{"name":"小宮公園","province":"東京都","city":"八王子市","address":"東京都八王子市大谷町、暁町二丁目","lat":35.673446,"lon":139.340673},{"name":"滝山公園","province":"東京都","city":"八王子市","address":"東京都八王子市高月町、丹木町二、三丁目","lat":35.701454,"lon":139.330101},{"name":"長沼公園","province":"東京都","city":"八王子市","address":"東京都八王子市長沼町・下柚木・堀之内","lat":35.638301,"lon":139.368525},{"name":"平山城址公園","province":"東京都","city":"八王子市","address":"東京都八王子市堀之内","lat":35.647956,"lon":139.380848},{"name":"陵南公園","province":"東京都","city":"八王子市","address":"東京都八王子市長房町、東浅川町","lat":35.649066,"lon":139.289172},{"name":"久保田鉄鋼(株)","province":"東京都","city":"八王子市","address":"八王子市中野上町2-18-3","lat":35.669109,"lon":139.324997},{"name":"三弘紙業(株)  八王子営業所","province":"東京都","city":"八王子市","address":"八王子市宮下町54-1","lat":35.703022,"lon":139.312744},{"name":"東京紙業(株)  多摩事業所","province":"東京都","city":"八王子市","address":"八王子市中野上町1-16-16","lat":35.667873,"lon":139.326584},{"name":"八王子容器(有)","province":"東京都","city":"八王子市","address":"八王子市西寺方町81-4","lat":35.67337,"lon":139.26532},{"name":"(有)長岡商店","province":"東京都","city":"八王子市","address":"八王子市上川町601-1","lat":35.704987,"lon":139.248047},{"name":"八王子資源化事業(協)","province":"東京都","city":"八王子市","address":"八王子市楢原町1452-1","lat":35.680737,"lon":139.30249},{"name":"(株)こんの","province":"東京都","city":"八王子市","address":"八王子市石川町2802","lat":35.674221,"lon":139.366211},{"name":"(有)西田商店","province":"東京都","city":"八王子市","address":"八王子市戸吹町1891-3","lat":35.703228,"lon":139.295197},{"name":"(株)エコネット","province":"東京都","city":"八王子市","address":"八王子市犬目町776","lat":35.689659,"lon":139.307724},{"name":"(株)完山金属  高尾リサイクルセンター","province":"東京都","city":"八王子市","address":"八王子市南浅川町3952-1","lat":35.615612,"lon":139.244919},{"name":"(株)トーホー商事  丹木資源リサイクル事業所","province":"東京都","city":"八王子市","address":"八王子市丹木町1-570","lat":35.690018,"lon":139.333572},{"name":"明治の森高尾国定公園","province":"東京都","city":"八王子市","address":"東京都八王子市高尾町","lat":35.631366,"lon":139.26758},{"name":"高尾陣場自然公園","province":"東京都","city":"八王子市","address":"東京都八王子市高尾町","lat":35.625024,"lon":139.243244},{"name":"滝山自然公園","province":"東京都","city":"八王子市","address":"東京都八王子市高月町、丹木町二、三丁目","lat":35.701454,"lon":139.330101},{"name":"多摩丘陵自然公園","province":"東京都","city":"八王子市","address":"東京都八王子市、町田市、多摩市","lat":35.659984,"lon":139.41034},{"name":"秋川丘陵自然公園","province":"東京都","city":"八王子市","address":"東京都八王子市、あきる野市","lat":35.720824,"lon":139.231591},{"name":"小宮公園","province":"東京都","city":"八王子市","address":"東京都八王子市大谷町、暁町二丁目","lat":35.673446,"lon":139.340673},{"name":"滝山公園","province":"東京都","city":"八王子市","address":"東京都八王子市高月町、丹木町二、三丁目","lat":35.701454,"lon":139.330101},{"name":"長沼公園","province":"東京都","city":"八王子市","address":"東京都八王子市長沼町・下柚木・堀之内","lat":35.638301,"lon":139.368525},{"name":"平山城址公園","province":"東京都","city":"八王子市","address":"東京都八王子市堀之内","lat":35.647956,"lon":139.380848},{"name":"陵南公園","province":"東京都","city":"八王子市","address":"東京都八王子市長房町、東浅川町","lat":35.649066,"lon":139.289172},{"name":"久保田鉄鋼(株)","province":"東京都","city":"八王子市","address":"八王子市中野上町2-18-3","lat":35.669109,"lon":139.324997},{"name":"三弘紙業(株)  八王子営業所","province":"東京都","city":"八王子市","address":"八王子市宮下町54-1","lat":35.703022,"lon":139.312744},{"name":"東京紙業(株)  多摩事業所","province":"東京都","city":"八王子市","address":"八王子市中野上町1-16-16","lat":35.667873,"lon":139.326584},{"name":"八王子容器(有)","province":"東京都","city":"八王子市","address":"八王子市西寺方町81-4","lat":35.67337,"lon":139.26532},{"name":"(有)長岡商店","province":"東京都","city":"八王子市","address":"八王子市上川町601-1","lat":35.704987,"lon":139.248047},{"name":"八王子資源化事業(協)","province":"東京都","city":"八王子市","address":"八王子市楢原町1452-1","lat":35.680737,"lon":139.30249},{"name":"(株)こんの","province":"東京都","city":"八王子市","address":"八王子市石川町2802","lat":35.674221,"lon":139.366211},{"name":"(有)西田商店","province":"東京都","city":"八王子市","address":"八王子市戸吹町1891-3","lat":35.703228,"lon":139.295197},{"name":"(株)エコネット","province":"東京都","city":"八王子市","address":"八王子市犬目町776","lat":35.689659,"lon":139.307724},{"name":"(株)完山金属  高尾リサイクルセンター","province":"東京都","city":"八王子市","address":"八王子市南浅川町3952-1","lat":35.615612,"lon":139.244919},{"name":"(株)トーホー商事  丹木資源リサイクル事業所","province":"東京都","city":"八王子市","address":"八王子市丹木町1-570","lat":35.690018,"lon":139.333572},{"name":"明治の森高尾国定公園","province":"東京都","city":"八王子市","address":"東京都八王子市高尾町","lat":35.631366,"lon":139.26758},{"name":"高尾陣場自然公園","province":"東京都","city":"八王子市","address":"東京都八王子市高尾町","lat":35.625024,"lon":139.243244},{"name":"滝山自然公園","province":"東京都","city":"八王子市","address":"東京都八王子市高月町、丹木町二、三丁目","lat":35.701454,"lon":139.330101},{"name":"多摩丘陵自然公園","province":"東京都","city":"八王子市","address":"東京都八王子市、町田市、多摩市","lat":35.659984,"lon":139.41034},{"name":"秋川丘陵自然公園","province":"東京都","city":"八王子市","address":"東京都八王子市、あきる野市","lat":35.720824,"lon":139.231591},{"name":"小宮公園","province":"東京都","city":"八王子市","address":"東京都八王子市大谷町、暁町二丁目","lat":35.673446,"lon":139.340673},{"name":"滝山公園","province":"東京都","city":"八王子市","address":"東京都八王子市高月町、丹木町二、三丁目","lat":35.701454,"lon":139.330101},{"name":"長沼公園","province":"東京都","city":"八王子市","address":"東京都八王子市長沼町・下柚木・堀之内","lat":35.638301,"lon":139.368525},{"name":"平山城址公園","province":"東京都","city":"八王子市","address":"東京都八王子市堀之内","lat":35.647956,"lon":139.380848},{"name":"陵南公園","province":"東京都","city":"八王子市","address":"東京都八王子市長房町、東浅川町","lat":35.649066,"lon":139.289172},{"name":"久保田鉄鋼(株)","province":"東京都","city":"八王子市","address":"八王子市中野上町2-18-3","lat":35.669109,"lon":139.324997},{"name":"三弘紙業(株)  八王子営業所","province":"東京都","city":"八王子市","address":"八王子市宮下町54-1","lat":35.703022,"lon":139.312744},{"name":"東京紙業(株)  多摩事業所","province":"東京都","city":"八王子市","address":"八王子市中野上町1-16-16","lat":35.667873,"lon":139.326584},{"name":"八王子容器(有)","province":"東京都","city":"八王子市","address":"八王子市西寺方町81-4","lat":35.67337,"lon":139.26532},{"name":"(有)長岡商店","province":"東京都","city":"八王子市","address":"八王子市上川町601-1","lat":35.704987,"lon":139.248047},{"name":"八王子資源化事業(協)","province":"東京都","city":"八王子市","address":"八王子市楢原町1452-1","lat":35.680737,"lon":139.30249},{"name":"(株)こんの","province":"東京都","city":"八王子市","address":"八王子市石川町2802","lat":35.674221,"lon":139.366211},{"name":"(有)西田商店","province":"東京都","city":"八王子市","address":"八王子市戸吹町1891-3","lat":35.703228,"lon":139.295197},{"name":"(株)エコネット","province":"東京都","city":"八王子市","address":"八王子市犬目町776","lat":35.689659,"lon":139.307724},{"name":"(株)完山金属  高尾リサイクルセンター","province":"東京都","city":"八王子市","address":"八王子市南浅川町3952-1","lat":35.615612,"lon":139.244919},{"name":"(株)トーホー商事  丹木資源リサイクル事業所","province":"東京都","city":"八王子市","address":"八王子市丹木町1-570","lat":35.690018,"lon":139.333572},{"name":"明治の森高尾国定公園","province":"東京都","city":"八王子市","address":"東京都八王子市高尾町","lat":35.631366,"lon":139.26758},{"name":"高尾陣場自然公園","province":"東京都","city":"八王子市","address":"東京都八王子市高尾町","lat":35.625024,"lon":139.243244},{"name":"滝山自然公園","province":"東京都","city":"八王子市","address":"東京都八王子市高月町、丹木町二、三丁目","lat":35.701454,"lon":139.330101},{"name":"多摩丘陵自然公園","province":"東京都","city":"八王子市","address":"東京都八王子市、町田市、多摩市","lat":35.659984,"lon":139.41034},{"name":"秋川丘陵自然公園","province":"東京都","city":"八王子市","address":"東京都八王子市、あきる野市","lat":35.720824,"lon":139.231591},{"name":"小宮公園","province":"東京都","city":"八王子市","address":"東京都八王子市大谷町、暁町二丁目","lat":35.673446,"lon":139.340673},{"name":"滝山公園","province":"東京都","city":"八王子市","address":"東京都八王子市高月町、丹木町二、三丁目","lat":35.701454,"lon":139.330101},{"name":"長沼公園","province":"東京都","city":"八王子市","address":"東京都八王子市長沼町・下柚木・堀之内","lat":35.638301,"lon":139.368525},{"name":"平山城址公園","province":"東京都","city":"八王子市","address":"東京都八王子市堀之内","lat":35.647956,"lon":139.380848},{"name":"陵南公園","province":"東京都","city":"八王子市","address":"東京都八王子市長房町、東浅川町","lat":35.649066,"lon":139.289172},{"name":"久保田鉄鋼(株)","province":"東京都","city":"八王子市","address":"八王子市中野上町2-18-3","lat":35.669109,"lon":139.324997},{"name":"三弘紙業(株)  八王子営業所","province":"東京都","city":"八王子市","address":"八王子市宮下町54-1","lat":35.703022,"lon":139.312744},{"name":"東京紙業(株)  多摩事業所","province":"東京都","city":"八王子市","address":"八王子市中野上町1-16-16","lat":35.667873,"lon":139.326584},{"name":"八王子容器(有)","province":"東京都","city":"八王子市","address":"八王子市西寺方町81-4","lat":35.67337,"lon":139.26532},{"name":"(有)長岡商店","province":"東京都","city":"八王子市","address":"八王子市上川町601-1","lat":35.704987,"lon":139.248047},{"name":"八王子資源化事業(協)","province":"東京都","city":"八王子市","address":"八王子市楢原町1452-1","lat":35.680737,"lon":139.30249},{"name":"(株)こんの","province":"東京都","city":"八王子市","address":"八王子市石川町2802","lat":35.674221,"lon":139.366211},{"name":"(有)西田商店","province":"東京都","city":"八王子市","address":"八王子市戸吹町1891-3","lat":35.703228,"lon":139.295197},{"name":"(株)エコネット","province":"東京都","city":"八王子市","address":"八王子市犬目町776","lat":35.689659,"lon":139.307724},{"name":"(株)完山金属  高尾リサイクルセンター","province":"東京都","city":"八王子市","address":"八王子市南浅川町3952-1","lat":35.615612,"lon":139.244919},{"name":"(株)トーホー商事  丹木資源リサイクル事業所","province":"東京都","city":"八王子市","address":"八王子市丹木町1-570","lat":35.690018,"lon":139.333572},{"name":"明治の森高尾国定公園","province":"東京都","city":"八王子市","address":"東京都八王子市高尾町","lat":35.631366,"lon":139.26758},{"name":"高尾陣場自然公園","province":"東京都","city":"八王子市","address":"東京都八王子市高尾町","lat":35.625024,"lon":139.243244},{"name":"滝山自然公園","province":"東京都","city":"八王子市","address":"東京都八王子市高月町、丹木町二、三丁目","lat":35.701454,"lon":139.330101},{"name":"多摩丘陵自然公園","province":"東京都","city":"八王子市","address":"東京都八王子市、町田市、多摩市","lat":35.659984,"lon":139.41034},{"name":"秋川丘陵自然公園","province":"東京都","city":"八王子市","address":"東京都八王子市、あきる野市","lat":35.720824,"lon":139.231591},{"name":"小宮公園","province":"東京都","city":"八王子市","address":"東京都八王子市大谷町、暁町二丁目","lat":35.673446,"lon":139.340673},{"name":"滝山公園","province":"東京都","city":"八王子市","address":"東京都八王子市高月町、丹木町二、三丁目","lat":35.701454,"lon":139.330101},{"name":"長沼公園","province":"東京都","city":"八王子市","address":"東京都八王子市長沼町・下柚木・堀之内","lat":35.638301,"lon":139.368525},{"name":"平山城址公園","province":"東京都","city":"八王子市","address":"東京都八王子市堀之内","lat":35.647956,"lon":139.380848},{"name":"陵南公園","province":"東京都","city":"八王子市","address":"東京都八王子市長房町、東浅川町","lat":35.649066,"lon":139.289172},{"name":"久保田鉄鋼(株)","province":"東京都","city":"八王子市","address":"八王子市中野上町2-18-3","lat":35.669109,"lon":139.324997},{"name":"三弘紙業(株)  八王子営業所","province":"東京都","city":"八王子市","address":"八王子市宮下町54-1","lat":35.703022,"lon":139.312744},{"name":"東京紙業(株)  多摩事業所","province":"東京都","city":"八王子市","address":"八王子市中野上町1-16-16","lat":35.667873,"lon":139.326584},{"name":"八王子容器(有)","province":"東京都","city":"八王子市","address":"八王子市西寺方町81-4","lat":35.67337,"lon":139.26532},{"name":"(有)長岡商店","province":"東京都","city":"八王子市","address":"八王子市上川町601-1","lat":35.704987,"lon":139.248047},{"name":"八王子資源化事業(協)","province":"東京都","city":"八王子市","address":"八王子市楢原町1452-1","lat":35.680737,"lon":139.30249},{"name":"(株)こんの","province":"東京都","city":"八王子市","address":"八王子市石川町2802","lat":35.674221,"lon":139.366211},{"name":"(有)西田商店","province":"東京都","city":"八王子市","address":"八王子市戸吹町1891-3","lat":35.703228,"lon":139.295197},{"name":"(株)エコネット","province":"東京都","city":"八王子市","address":"八王子市犬目町776","lat":35.689659,"lon":139.307724},{"name":"(株)完山金属  高尾リサイクルセンター","province":"東京都","city":"八王子市","address":"八王子市南浅川町3952-1","lat":35.615612,"lon":139.244919},{"name":"(株)トーホー商事  丹木資源リサイクル事業所","province":"東京都","city":"八王子市","address":"八王子市丹木町1-570","lat":35.690018,"lon":139.333572},{"name":"明治の森高尾国定公園","province":"東京都","city":"八王子市","address":"東京都八王子市高尾町","lat":35.631366,"lon":139.26758},{"name":"高尾陣場自然公園","province":"東京都","city":"八王子市","address":"東京都八王子市高尾町","lat":35.625024,"lon":139.243244},{"name":"滝山自然公園","province":"東京都","city":"八王子市","address":"東京都八王子市高月町、丹木町二、三丁目","lat":35.701454,"lon":139.330101},{"name":"多摩丘陵自然公園","province":"東京都","city":"八王子市","address":"東京都八王子市、町田市、多摩市","lat":35.659984,"lon":139.41034},{"name":"秋川丘陵自然公園","province":"東京都","city":"八王子市","address":"東京都八王子市、あきる野市","lat":35.720824,"lon":139.231591},{"name":"小宮公園","province":"東京都","city":"八王子市","address":"東京都八王子市大谷町、暁町二丁目","lat":35.673446,"lon":139.340673},{"name":"滝山公園","province":"東京都","city":"八王子市","address":"東京都八王子市高月町、丹木町二、三丁目","lat":35.701454,"lon":139.330101},{"name":"長沼公園","province":"東京都","city":"八王子市","address":"東京都八王子市長沼町・下柚木・堀之内","lat":35.638301,"lon":139.368525},{"name":"平山城址公園","province":"東京都","city":"八王子市","address":"東京都八王子市堀之内","lat":35.647956,"lon":139.380848},{"name":"陵南公園","province":"東京都","city":"八王子市","address":"東京都八王子市長房町、東浅川町","lat":35.649066,"lon":139.289172},{"name":"久保田鉄鋼(株)","province":"東京都","city":"八王子市","address":"八王子市中野上町2-18-3","lat":35.669109,"lon":139.324997},{"name":"三弘紙業(株)  八王子営業所","province":"東京都","city":"八王子市","address":"八王子市宮下町54-1","lat":35.703022,"lon":139.312744},{"name":"東京紙業(株)  多摩事業所","province":"東京都","city":"八王子市","address":"八王子市中野上町1-16-16","lat":35.667873,"lon":139.326584},{"name":"八王子容器(有)","province":"東京都","city":"八王子市","address":"八王子市西寺方町81-4","lat":35.67337,"lon":139.26532},{"name":"(有)長岡商店","province":"東京都","city":"八王子市","address":"八王子市上川町601-1","lat":35.704987,"lon":139.248047},{"name":"八王子資源化事業(協)","province":"東京都","city":"八王子市","address":"八王子市楢原町1452-1","lat":35.680737,"lon":139.30249},{"name":"(株)こんの","province":"東京都","city":"八王子市","address":"八王子市石川町2802","lat":35.674221,"lon":139.366211},{"name":"(有)西田商店","province":"東京都","city":"八王子市","address":"八王子市戸吹町1891-3","lat":35.703228,"lon":139.295197},{"name":"(株)エコネット","province":"東京都","city":"八王子市","address":"八王子市犬目町776","lat":35.689659,"lon":139.307724},{"name":"(株)完山金属  高尾リサイクルセンター","province":"東京都","city":"八王子市","address":"八王子市南浅川町3952-1","lat":35.615612,"lon":139.244919},{"name":"(株)トーホー商事  丹木資源リサイクル事業所","province":"東京都","city":"八王子市","address":"八王子市丹木町1-570","lat":35.690018,"lon":139.333572},{"name":"明治の森高尾国定公園","province":"東京都","city":"八王子市","address":"東京都八王子市高尾町","lat":35.631366,"lon":139.26758},{"name":"高尾陣場自然公園","province":"東京都","city":"八王子市","address":"東京都八王子市高尾町","lat":35.625024,"lon":139.243244},{"name":"滝山自然公園","province":"東京都","city":"八王子市","address":"東京都八王子市高月町、丹木町二、三丁目","lat":35.701454,"lon":139.330101},{"name":"多摩丘陵自然公園","province":"東京都","city":"八王子市","address":"東京都八王子市、町田市、多摩市","lat":35.659984,"lon":139.41034},{"name":"秋川丘陵自然公園","province":"東京都","city":"八王子市","address":"東京都八王子市、あきる野市","lat":35.720824,"lon":139.231591},{"name":"小宮公園","province":"東京都","city":"八王子市","address":"東京都八王子市大谷町、暁町二丁目","lat":35.673446,"lon":139.340673},{"name":"滝山公園","province":"東京都","city":"八王子市","address":"東京都八王子市高月町、丹木町二、三丁目","lat":35.701454,"lon":139.330101},{"name":"長沼公園","province":"東京都","city":"八王子市","address":"東京都八王子市長沼町・下柚木・堀之内","lat":35.638301,"lon":139.368525},{"name":"平山城址公園","province":"東京都","city":"八王子市","address":"東京都八王子市堀之内","lat":35.647956,"lon":139.380848},{"name":"陵南公園","province":"東京都","city":"八王子市","address":"東京都八王子市長房町、東浅川町","lat":35.649066,"lon":139.289172},{"name":"久保田鉄鋼(株)","province":"東京都","city":"八王子市","address":"八王子市中野上町2-18-3","lat":35.669109,"lon":139.324997},{"name":"三弘紙業(株)  八王子営業所","province":"東京都","city":"八王子市","address":"八王子市宮下町54-1","lat":35.703022,"lon":139.312744},{"name":"東京紙業(株)  多摩事業所","province":"東京都","city":"八王子市","address":"八王子市中野上町1-16-16","lat":35.667873,"lon":139.326584},{"name":"八王子容器(有)","province":"東京都","city":"八王子市","address":"八王子市西寺方町81-4","lat":35.67337,"lon":139.26532},{"name":"(有)長岡商店","province":"東京都","city":"八王子市","address":"八王子市上川町601-1","lat":35.704987,"lon":139.248047},{"name":"八王子資源化事業(協)","province":"東京都","city":"八王子市","address":"八王子市楢原町1452-1","lat":35.680737,"lon":139.30249},{"name":"(株)こんの","province":"東京都","city":"八王子市","address":"八王子市石川町2802","lat":35.674221,"lon":139.366211},{"name":"(有)西田商店","province":"東京都","city":"八王子市","address":"八王子市戸吹町1891-3","lat":35.703228,"lon":139.295197},{"name":"(株)エコネット","province":"東京都","city":"八王子市","address":"八王子市犬目町776","lat":35.689659,"lon":139.307724},{"name":"(株)完山金属  高尾リサイクルセンター","province":"東京都","city":"八王子市","address":"八王子市南浅川町3952-1","lat":35.615612,"lon":139.244919},{"name":"(株)トーホー商事  丹木資源リサイクル事業所","province":"東京都","city":"八王子市","address":"八王子市丹木町1-570","lat":35.690018,"lon":139.333572},{"name":"明治の森高尾国定公園","province":"東京都","city":"八王子市","address":"東京都八王子市高尾町","lat":35.631366,"lon":139.26758},{"name":"高尾陣場自然公園","province":"東京都","city":"八王子市","address":"東京都八王子市高尾町","lat":35.625024,"lon":139.243244},{"name":"滝山自然公園","province":"東京都","city":"八王子市","address":"東京都八王子市高月町、丹木町二、三丁目","lat":35.701454,"lon":139.330101},{"name":"多摩丘陵自然公園","province":"東京都","city":"八王子市","address":"東京都八王子市、町田市、多摩市","lat":35.659984,"lon":139.41034},{"name":"秋川丘陵自然公園","province":"東京都","city":"八王子市","address":"東京都八王子市、あきる野市","lat":35.720824,"lon":139.231591},{"name":"小宮公園","province":"東京都","city":"八王子市","address":"東京都八王子市大谷町、暁町二丁目","lat":35.673446,"lon":139.340673},{"name":"滝山公園","province":"東京都","city":"八王子市","address":"東京都八王子市高月町、丹木町二、三丁目","lat":35.701454,"lon":139.330101},{"name":"長沼公園","province":"東京都","city":"八王子市","address":"東京都八王子市長沼町・下柚木・堀之内","lat":35.638301,"lon":139.368525},{"name":"平山城址公園","province":"東京都","city":"八王子市","address":"東京都八王子市堀之内","lat":35.647956,"lon":139.380848},{"name":"陵南公園","province":"東京都","city":"八王子市","address":"東京都八王子市長房町、東浅川町","lat":35.649066,"lon":139.289172},{"name":"久保田鉄鋼(株)","province":"東京都","city":"八王子市","address":"八王子市中野上町2-18-3","lat":35.669109,"lon":139.324997},{"name":"三弘紙業(株)  八王子営業所","province":"東京都","city":"八王子市","address":"八王子市宮下町54-1","lat":35.703022,"lon":139.312744},{"name":"東京紙業(株)  多摩事業所","province":"東京都","city":"八王子市","address":"八王子市中野上町1-16-16","lat":35.667873,"lon":139.326584},{"name":"八王子容器(有)","province":"東京都","city":"八王子市","address":"八王子市西寺方町81-4","lat":35.67337,"lon":139.26532},{"name":"(有)長岡商店","province":"東京都","city":"八王子市","address":"八王子市上川町601-1","lat":35.704987,"lon":139.248047},{"name":"八王子資源化事業(協)","province":"東京都","city":"八王子市","address":"八王子市楢原町1452-1","lat":35.680737,"lon":139.30249},{"name":"(株)こんの","province":"東京都","city":"八王子市","address":"八王子市石川町2802","lat":35.674221,"lon":139.366211},{"name":"(有)西田商店","province":"東京都","city":"八王子市","address":"八王子市戸吹町1891-3","lat":35.703228,"lon":139.295197},{"name":"(株)エコネット","province":"東京都","city":"八王子市","address":"八王子市犬目町776","lat":35.689659,"lon":139.307724},{"name":"(株)完山金属  高尾リサイクルセンター","province":"東京都","city":"八王子市","address":"八王子市南浅川町3952-1","lat":35.615612,"lon":139.244919},{"name":"(株)トーホー商事  丹木資源リサイクル事業所","province":"東京都","city":"八王子市","address":"八王子市丹木町1-570","lat":35.690018,"lon":139.333572},{"name":"明治の森高尾国定公園","province":"東京都","city":"八王子市","address":"東京都八王子市高尾町","lat":35.631366,"lon":139.26758},{"name":"高尾陣場自然公園","province":"東京都","city":"八王子市","address":"東京都八王子市高尾町","lat":35.625024,"lon":139.243244},{"name":"滝山自然公園","province":"東京都","city":"八王子市","address":"東京都八王子市高月町、丹木町二、三丁目","lat":35.701454,"lon":139.330101},{"name":"多摩丘陵自然公園","province":"東京都","city":"八王子市","address":"東京都八王子市、町田市、多摩市","lat":35.659984,"lon":139.41034},{"name":"秋川丘陵自然公園","province":"東京都","city":"八王子市","address":"東京都八王子市、あきる野市","lat":35.720824,"lon":139.231591},{"name":"小宮公園","province":"東京都","city":"八王子市","address":"東京都八王子市大谷町、暁町二丁目","lat":35.673446,"lon":139.340673},{"name":"滝山公園","province":"東京都","city":"八王子市","address":"東京都八王子市高月町、丹木町二、三丁目","lat":35.701454,"lon":139.330101},{"name":"長沼公園","province":"東京都","city":"八王子市","address":"東京都八王子市長沼町・下柚木・堀之内","lat":35.638301,"lon":139.368525},{"name":"平山城址公園","province":"東京都","city":"八王子市","address":"東京都八王子市堀之内","lat":35.647956,"lon":139.380848},{"name":"陵南公園","province":"東京都","city":"八王子市","address":"東京都八王子市長房町、東浅川町","lat":35.649066,"lon":139.289172},{"name":"久保田鉄鋼(株)","province":"東京都","city":"八王子市","address":"八王子市中野上町2-18-3","lat":35.669109,"lon":139.324997},{"name":"三弘紙業(株)  八王子営業所","province":"東京都","city":"八王子市","address":"八王子市宮下町54-1","lat":35.703022,"lon":139.312744},{"name":"東京紙業(株)  多摩事業所","province":"東京都","city":"八王子市","address":"八王子市中野上町1-16-16","lat":35.667873,"lon":139.326584},{"name":"八王子容器(有)","province":"東京都","city":"八王子市","address":"八王子市西寺方町81-4","lat":35.67337,"lon":139.26532},{"name":"(有)長岡商店","province":"東京都","city":"八王子市","address":"八王子市上川町601-1","lat":35.704987,"lon":139.248047},{"name":"八王子資源化事業(協)","province":"東京都","city":"八王子市","address":"八王子市楢原町1452-1","lat":35.680737,"lon":139.30249},{"name":"(株)こんの","province":"東京都","city":"八王子市","address":"八王子市石川町2802","lat":35.674221,"lon":139.366211},{"name":"(有)西田商店","province":"東京都","city":"八王子市","address":"八王子市戸吹町1891-3","lat":35.703228,"lon":139.295197},{"name":"(株)エコネット","province":"東京都","city":"八王子市","address":"八王子市犬目町776","lat":35.689659,"lon":139.307724},{"name":"(株)完山金属  高尾リサイクルセンター","province":"東京都","city":"八王子市","address":"八王子市南浅川町3952-1","lat":35.615612,"lon":139.244919},{"name":"(株)トーホー商事  丹木資源リサイクル事業所","province":"東京都","city":"八王子市","address":"八王子市丹木町1-570","lat":35.690018,"lon":139.333572},{"name":"明治の森高尾国定公園","province":"東京都","city":"八王子市","address":"東京都八王子市高尾町","lat":35.631366,"lon":139.26758},{"name":"高尾陣場自然公園","province":"東京都","city":"八王子市","address":"東京都八王子市高尾町","lat":35.625024,"lon":139.243244},{"name":"滝山自然公園","province":"東京都","city":"八王子市","address":"東京都八王子市高月町、丹木町二、三丁目","lat":35.701454,"lon":139.330101},{"name":"多摩丘陵自然公園","province":"東京都","city":"八王子市","address":"東京都八王子市、町田市、多摩市","lat":35.659984,"lon":139.41034},{"name":"秋川丘陵自然公園","province":"東京都","city":"八王子市","address":"東京都八王子市、あきる野市","lat":35.720824,"lon":139.231591},{"name":"小宮公園","province":"東京都","city":"八王子市","address":"東京都八王子市大谷町、暁町二丁目","lat":35.673446,"lon":139.340673},{"name":"滝山公園","province":"東京都","city":"八王子市","address":"東京都八王子市高月町、丹木町二、三丁目","lat":35.701454,"lon":139.330101},{"name":"長沼公園","province":"東京都","city":"八王子市","address":"東京都八王子市長沼町・下柚木・堀之内","lat":35.638301,"lon":139.368525},{"name":"平山城址公園","province":"東京都","city":"八王子市","address":"東京都八王子市堀之内","lat":35.647956,"lon":139.380848},{"name":"陵南公園","province":"東京都","city":"八王子市","address":"東京都八王子市長房町、東浅川町","lat":35.649066,"lon":139.289172},{"name":"久保田鉄鋼(株)","province":"東京都","city":"八王子市","address":"八王子市中野上町2-18-3","lat":35.669109,"lon":139.324997},{"name":"三弘紙業(株)  八王子営業所","province":"東京都","city":"八王子市","address":"八王子市宮下町54-1","lat":35.703022,"lon":139.312744},{"name":"東京紙業(株)  多摩事業所","province":"東京都","city":"八王子市","address":"八王子市中野上町1-16-16","lat":35.667873,"lon":139.326584},{"name":"八王子容器(有)","province":"東京都","city":"八王子市","address":"八王子市西寺方町81-4","lat":35.67337,"lon":139.26532},{"name":"(有)長岡商店","province":"東京都","city":"八王子市","address":"八王子市上川町601-1","lat":35.704987,"lon":139.248047},{"name":"八王子資源化事業(協)","province":"東京都","city":"八王子市","address":"八王子市楢原町1452-1","lat":35.680737,"lon":139.30249},{"name":"(株)こんの","province":"東京都","city":"八王子市","address":"八王子市石川町2802","lat":35.674221,"lon":139.366211},{"name":"(有)西田商店","province":"東京都","city":"八王子市","address":"八王子市戸吹町1891-3","lat":35.703228,"lon":139.295197},{"name":"(株)エコネット","province":"東京都","city":"八王子市","address":"八王子市犬目町776","lat":35.689659,"lon":139.307724},{"name":"(株)完山金属  高尾リサイクルセンター","province":"東京都","city":"八王子市","address":"八王子市南浅川町3952-1","lat":35.615612,"lon":139.244919},{"name":"(株)トーホー商事  丹木資源リサイクル事業所","province":"東京都","city":"八王子市","address":"八王子市丹木町1-570","lat":35.690018,"lon":139.333572},{"name":"明治の森高尾国定公園","province":"東京都","city":"八王子市","address":"東京都八王子市高尾町","lat":35.631366,"lon":139.26758},{"name":"高尾陣場自然公園","province":"東京都","city":"八王子市","address":"東京都八王子市高尾町","lat":35.625024,"lon":139.243244},{"name":"滝山自然公園","province":"東京都","city":"八王子市","address":"東京都八王子市高月町、丹木町二、三丁目","lat":35.701454,"lon":139.330101},{"name":"多摩丘陵自然公園","province":"東京都","city":"八王子市","address":"東京都八王子市、町田市、多摩市","lat":35.659984,"lon":139.41034},{"name":"秋川丘陵自然公園","province":"東京都","city":"八王子市","address":"東京都八王子市、あきる野市","lat":35.720824,"lon":139.231591},{"name":"小宮公園","province":"東京都","city":"八王子市","address":"東京都八王子市大谷町、暁町二丁目","lat":35.673446,"lon":139.340673},{"name":"滝山公園","province":"東京都","city":"八王子市","address":"東京都八王子市高月町、丹木町二、三丁目","lat":35.701454,"lon":139.330101},{"name":"長沼公園","province":"東京都","city":"八王子市","address":"東京都八王子市長沼町・下柚木・堀之内","lat":35.638301,"lon":139.368525},{"name":"平山城址公園","province":"東京都","city":"八王子市","address":"東京都八王子市堀之内","lat":35.647956,"lon":139.380848},{"name":"陵南公園","province":"東京都","city":"八王子市","address":"東京都八王子市長房町、東浅川町","lat":35.649066,"lon":139.289172},{"name":"久保田鉄鋼(株)","province":"東京都","city":"八王子市","address":"八王子市中野上町2-18-3","lat":35.669109,"lon":139.324997},{"name":"三弘紙業(株)  八王子営業所","province":"東京都","city":"八王子市","address":"八王子市宮下町54-1","lat":35.703022,"lon":139.312744},{"name":"東京紙業(株)  多摩事業所","province":"東京都","city":"八王子市","address":"八王子市中野上町1-16-16","lat":35.667873,"lon":139.326584},{"name":"八王子容器(有)","province":"東京都","city":"八王子市","address":"八王子市西寺方町81-4","lat":35.67337,"lon":139.26532},{"name":"(有)長岡商店","province":"東京都","city":"八王子市","address":"八王子市上川町601-1","lat":35.704987,"lon":139.248047},{"name":"八王子資源化事業(協)","province":"東京都","city":"八王子市","address":"八王子市楢原町1452-1","lat":35.680737,"lon":139.30249},{"name":"(株)こんの","province":"東京都","city":"八王子市","address":"八王子市石川町2802","lat":35.674221,"lon":139.366211},{"name":"(有)西田商店","province":"東京都","city":"八王子市","address":"八王子市戸吹町1891-3","lat":35.703228,"lon":139.295197},{"name":"(株)エコネット","province":"東京都","city":"八王子市","address":"八王子市犬目町776","lat":35.689659,"lon":139.307724},{"name":"(株)完山金属  高尾リサイクルセンター","province":"東京都","city":"八王子市","address":"八王子市南浅川町3952-1","lat":35.615612,"lon":139.244919},{"name":"(株)トーホー商事  丹木資源リサイクル事業所","province":"東京都","city":"八王子市","address":"八王子市丹木町1-570","lat":35.690018,"lon":139.333572},{"name":"明治の森高尾国定公園","province":"東京都","city":"八王子市","address":"東京都八王子市高尾町","lat":35.631366,"lon":139.26758},{"name":"高尾陣場自然公園","province":"東京都","city":"八王子市","address":"東京都八王子市高尾町","lat":35.625024,"lon":139.243244},{"name":"滝山自然公園","province":"東京都","city":"八王子市","address":"東京都八王子市高月町、丹木町二、三丁目","lat":35.701454,"lon":139.330101},{"name":"多摩丘陵自然公園","province":"東京都","city":"八王子市","address":"東京都八王子市、町田市、多摩市","lat":35.659984,"lon":139.41034},{"name":"秋川丘陵自然公園","province":"東京都","city":"八王子市","address":"東京都八王子市、あきる野市","lat":35.720824,"lon":139.231591},{"name":"小宮公園","province":"東京都","city":"八王子市","address":"東京都八王子市大谷町、暁町二丁目","lat":35.673446,"lon":139.340673},{"name":"滝山公園","province":"東京都","city":"八王子市","address":"東京都八王子市高月町、丹木町二、三丁目","lat":35.701454,"lon":139.330101},{"name":"長沼公園","province":"東京都","city":"八王子市","address":"東京都八王子市長沼町・下柚木・堀之内","lat":35.638301,"lon":139.368525},{"name":"平山城址公園","province":"東京都","city":"八王子市","address":"東京都八王子市堀之内","lat":35.647956,"lon":139.380848},{"name":"陵南公園","province":"東京都","city":"八王子市","address":"東京都八王子市長房町、東浅川町","lat":35.649066,"lon":139.289172},{"name":"久保田鉄鋼(株)","province":"東京都","city":"八王子市","address":"八王子市中野上町2-18-3","lat":35.669109,"lon":139.324997},{"name":"三弘紙業(株)  八王子営業所","province":"東京都","city":"八王子市","address":"八王子市宮下町54-1","lat":35.703022,"lon":139.312744},{"name":"東京紙業(株)  多摩事業所","province":"東京都","city":"八王子市","address":"八王子市中野上町1-16-16","lat":35.667873,"lon":139.326584},{"name":"八王子容器(有)","province":"東京都","city":"八王子市","address":"八王子市西寺方町81-4","lat":35.67337,"lon":139.26532},{"name":"(有)長岡商店","province":"東京都","city":"八王子市","address":"八王子市上川町601-1","lat":35.704987,"lon":139.248047},{"name":"八王子資源化事業(協)","province":"東京都","city":"八王子市","address":"八王子市楢原町1452-1","lat":35.680737,"lon":139.30249},{"name":"(株)こんの","province":"東京都","city":"八王子市","address":"八王子市石川町2802","lat":35.674221,"lon":139.366211},{"name":"(有)西田商店","province":"東京都","city":"八王子市","address":"八王子市戸吹町1891-3","lat":35.703228,"lon":139.295197},{"name":"(株)エコネット","province":"東京都","city":"八王子市","address":"八王子市犬目町776","lat":35.689659,"lon":139.307724},{"name":"(株)完山金属  高尾リサイクルセンター","province":"東京都","city":"八王子市","address":"八王子市南浅川町3952-1","lat":35.615612,"lon":139.244919},{"name":"(株)トーホー商事  丹木資源リサイクル事業所","province":"東京都","city":"八王子市","address":"八王子市丹木町1-570","lat":35.690018,"lon":139.333572},{"name":"明治の森高尾国定公園","province":"東京都","city":"八王子市","address":"東京都八王子市高尾町","lat":35.631366,"lon":139.26758},{"name":"高尾陣場自然公園","province":"東京都","city":"八王子市","address":"東京都八王子市高尾町","lat":35.625024,"lon":139.243244},{"name":"滝山自然公園","province":"東京都","city":"八王子市","address":"東京都八王子市高月町、丹木町二、三丁目","lat":35.701454,"lon":139.330101},{"name":"多摩丘陵自然公園","province":"東京都","city":"八王子市","address":"東京都八王子市、町田市、多摩市","lat":35.659984,"lon":139.41034},{"name":"秋川丘陵自然公園","province":"東京都","city":"八王子市","address":"東京都八王子市、あきる野市","lat":35.720824,"lon":139.231591},{"name":"小宮公園","province":"東京都","city":"八王子市","address":"東京都八王子市大谷町、暁町二丁目","lat":35.673446,"lon":139.340673},{"name":"滝山公園","province":"東京都","city":"八王子市","address":"東京都八王子市高月町、丹木町二、三丁目","lat":35.701454,"lon":139.330101},{"name":"長沼公園","province":"東京都","city":"八王子市","address":"東京都八王子市長沼町・下柚木・堀之内","lat":35.638301,"lon":139.368525},{"name":"平山城址公園","province":"東京都","city":"八王子市","address":"東京都八王子市堀之内","lat":35.647956,"lon":139.380848},{"name":"陵南公園","province":"東京都","city":"八王子市","address":"東京都八王子市長房町、東浅川町","lat":35.649066,"lon":139.289172},{"name":"久保田鉄鋼(株)","province":"東京都","city":"八王子市","address":"八王子市中野上町2-18-3","lat":35.669109,"lon":139.324997},{"name":"三弘紙業(株)  八王子営業所","province":"東京都","city":"八王子市","address":"八王子市宮下町54-1","lat":35.703022,"lon":139.312744},{"name":"東京紙業(株)  多摩事業所","province":"東京都","city":"八王子市","address":"八王子市中野上町1-16-16","lat":35.667873,"lon":139.326584},{"name":"八王子容器(有)","province":"東京都","city":"八王子市","address":"八王子市西寺方町81-4","lat":35.67337,"lon":139.26532},{"name":"(有)長岡商店","province":"東京都","city":"八王子市","address":"八王子市上川町601-1","lat":35.704987,"lon":139.248047},{"name":"八王子資源化事業(協)","province":"東京都","city":"八王子市","address":"八王子市楢原町1452-1","lat":35.680737,"lon":139.30249},{"name":"(株)こんの","province":"東京都","city":"八王子市","address":"八王子市石川町2802","lat":35.674221,"lon":139.366211},{"name":"(有)西田商店","province":"東京都","city":"八王子市","address":"八王子市戸吹町1891-3","lat":35.703228,"lon":139.295197},{"name":"(株)エコネット","province":"東京都","city":"八王子市","address":"八王子市犬目町776","lat":35.689659,"lon":139.307724},{"name":"(株)完山金属  高尾リサイクルセンター","province":"東京都","city":"八王子市","address":"八王子市南浅川町3952-1","lat":35.615612,"lon":139.244919},{"name":"(株)トーホー商事  丹木資源リサイクル事業所","province":"東京都","city":"八王子市","address":"八王子市丹木町1-570","lat":35.690018,"lon":139.333572},{"name":"明治の森高尾国定公園","province":"東京都","city":"八王子市","address":"東京都八王子市高尾町","lat":35.631366,"lon":139.26758},{"name":"高尾陣場自然公園","province":"東京都","city":"八王子市","address":"東京都八王子市高尾町","lat":35.625024,"lon":139.243244},{"name":"滝山自然公園","province":"東京都","city":"八王子市","address":"東京都八王子市高月町、丹木町二、三丁目","lat":35.701454,"lon":139.330101},{"name":"多摩丘陵自然公園","province":"東京都","city":"八王子市","address":"東京都八王子市、町田市、多摩市","lat":35.659984,"lon":139.41034},{"name":"秋川丘陵自然公園","province":"東京都","city":"八王子市","address":"東京都八王子市、あきる野市","lat":35.720824,"lon":139.231591},{"name":"小宮公園","province":"東京都","city":"八王子市","address":"東京都八王子市大谷町、暁町二丁目","lat":35.673446,"lon":139.340673},{"name":"滝山公園","province":"東京都","city":"八王子市","address":"東京都八王子市高月町、丹木町二、三丁目","lat":35.701454,"lon":139.330101},{"name":"長沼公園","province":"東京都","city":"八王子市","address":"東京都八王子市長沼町・下柚木・堀之内","lat":35.638301,"lon":139.368525},{"name":"平山城址公園","province":"東京都","city":"八王子市","address":"東京都八王子市堀之内","lat":35.647956,"lon":139.380848},{"name":"陵南公園","province":"東京都","city":"八王子市","address":"東京都八王子市長房町、東浅川町","lat":35.649066,"lon":139.289172},{"name":"久保田鉄鋼(株)","province":"東京都","city":"八王子市","address":"八王子市中野上町2-18-3","lat":35.669109,"lon":139.324997},{"name":"三弘紙業(株)  八王子営業所","province":"東京都","city":"八王子市","address":"八王子市宮下町54-1","lat":35.703022,"lon":139.312744},{"name":"東京紙業(株)  多摩事業所","province":"東京都","city":"八王子市","address":"八王子市中野上町1-16-16","lat":35.667873,"lon":139.326584},{"name":"八王子容器(有)","province":"東京都","city":"八王子市","address":"八王子市西寺方町81-4","lat":35.67337,"lon":139.26532},{"name":"(有)長岡商店","province":"東京都","city":"八王子市","address":"八王子市上川町601-1","lat":35.704987,"lon":139.248047},{"name":"八王子資源化事業(協)","province":"東京都","city":"八王子市","address":"八王子市楢原町1452-1","lat":35.680737,"lon":139.30249},{"name":"(株)こんの","province":"東京都","city":"八王子市","address":"八王子市石川町2802","lat":35.674221,"lon":139.366211},{"name":"(有)西田商店","province":"東京都","city":"八王子市","address":"八王子市戸吹町1891-3","lat":35.703228,"lon":139.295197},{"name":"(株)エコネット","province":"東京都","city":"八王子市","address":"八王子市犬目町776","lat":35.689659,"lon":139.307724},{"name":"(株)完山金属  高尾リサイクルセンター","province":"東京都","city":"八王子市","address":"八王子市南浅川町3952-1","lat":35.615612,"lon":139.244919},{"name":"(株)トーホー商事  丹木資源リサイクル事業所","province":"東京都","city":"八王子市","address":"八王子市丹木町1-570","lat":35.690018,"lon":139.333572},{"name":"明治の森高尾国定公園","province":"東京都","city":"八王子市","address":"東京都八王子市高尾町","lat":35.631366,"lon":139.26758},{"name":"高尾陣場自然公園","province":"東京都","city":"八王子市","address":"東京都八王子市高尾町","lat":35.625024,"lon":139.243244},{"name":"滝山自然公園","province":"東京都","city":"八王子市","address":"東京都八王子市高月町、丹木町二、三丁目","lat":35.701454,"lon":139.330101},{"name":"多摩丘陵自然公園","province":"東京都","city":"八王子市","address":"東京都八王子市、町田市、多摩市","lat":35.659984,"lon":139.41034},{"name":"秋川丘陵自然公園","province":"東京都","city":"八王子市","address":"東京都八王子市、あきる野市","lat":35.720824,"lon":139.231591},{"name":"小宮公園","province":"東京都","city":"八王子市","address":"東京都八王子市大谷町、暁町二丁目","lat":35.673446,"lon":139.340673},{"name":"滝山公園","province":"東京都","city":"八王子市","address":"東京都八王子市高月町、丹木町二、三丁目","lat":35.701454,"lon":139.330101},{"name":"長沼公園","province":"東京都","city":"八王子市","address":"東京都八王子市長沼町・下柚木・堀之内","lat":35.638301,"lon":139.368525},{"name":"平山城址公園","province":"東京都","city":"八王子市","address":"東京都八王子市堀之内","lat":35.647956,"lon":139.380848},{"name":"陵南公園","province":"東京都","city":"八王子市","address":"東京都八王子市長房町、東浅川町","lat":35.649066,"lon":139.289172},{"name":"久保田鉄鋼(株)","province":"東京都","city":"八王子市","address":"八王子市中野上町2-18-3","lat":35.669109,"lon":139.324997},{"name":"三弘紙業(株)  八王子営業所","province":"東京都","city":"八王子市","address":"八王子市宮下町54-1","lat":35.703022,"lon":139.312744},{"name":"東京紙業(株)  多摩事業所","province":"東京都","city":"八王子市","address":"八王子市中野上町1-16-16","lat":35.667873,"lon":139.326584},{"name":"八王子容器(有)","province":"東京都","city":"八王子市","address":"八王子市西寺方町81-4","lat":35.67337,"lon":139.26532},{"name":"(有)長岡商店","province":"東京都","city":"八王子市","address":"八王子市上川町601-1","lat":35.704987,"lon":139.248047},{"name":"八王子資源化事業(協)","province":"東京都","city":"八王子市","address":"八王子市楢原町1452-1","lat":35.680737,"lon":139.30249},{"name":"(株)こんの","province":"東京都","city":"八王子市","address":"八王子市石川町2802","lat":35.674221,"lon":139.366211},{"name":"(有)西田商店","province":"東京都","city":"八王子市","address":"八王子市戸吹町1891-3","lat":35.703228,"lon":139.295197},{"name":"(株)エコネット","province":"東京都","city":"八王子市","address":"八王子市犬目町776","lat":35.689659,"lon":139.307724},{"name":"(株)完山金属  高尾リサイクルセンター","province":"東京都","city":"八王子市","address":"八王子市南浅川町3952-1","lat":35.615612,"lon":139.244919},{"name":"(株)トーホー商事  丹木資源リサイクル事業所","province":"東京都","city":"八王子市","address":"八王子市丹木町1-570","lat":35.690018,"lon":139.333572},{"name":"明治の森高尾国定公園","province":"東京都","city":"八王子市","address":"東京都八王子市高尾町","lat":35.631366,"lon":139.26758},{"name":"高尾陣場自然公園","province":"東京都","city":"八王子市","address":"東京都八王子市高尾町","lat":35.625024,"lon":139.243244},{"name":"滝山自然公園","province":"東京都","city":"八王子市","address":"東京都八王子市高月町、丹木町二、三丁目","lat":35.701454,"lon":139.330101},{"name":"多摩丘陵自然公園","province":"東京都","city":"八王子市","address":"東京都八王子市、町田市、多摩市","lat":35.659984,"lon":139.41034},{"name":"秋川丘陵自然公園","province":"東京都","city":"八王子市","address":"東京都八王子市、あきる野市","lat":35.720824,"lon":139.231591},{"name":"小宮公園","province":"東京都","city":"八王子市","address":"東京都八王子市大谷町、暁町二丁目","lat":35.673446,"lon":139.340673},{"name":"滝山公園","province":"東京都","city":"八王子市","address":"東京都八王子市高月町、丹木町二、三丁目","lat":35.701454,"lon":139.330101},{"name":"長沼公園","province":"東京都","city":"八王子市","address":"東京都八王子市長沼町・下柚木・堀之内","lat":35.638301,"lon":139.368525},{"name":"平山城址公園","province":"東京都","city":"八王子市","address":"東京都八王子市堀之内","lat":35.647956,"lon":139.380848},{"name":"陵南公園","province":"東京都","city":"八王子市","address":"東京都八王子市長房町、東浅川町","lat":35.649066,"lon":139.289172},{"name":"久保田鉄鋼(株)","province":"東京都","city":"八王子市","address":"八王子市中野上町2-18-3","lat":35.669109,"lon":139.324997},{"name":"三弘紙業(株)  八王子営業所","province":"東京都","city":"八王子市","address":"八王子市宮下町54-1","lat":35.703022,"lon":139.312744},{"name":"東京紙業(株)  多摩事業所","province":"東京都","city":"八王子市","address":"八王子市中野上町1-16-16","lat":35.667873,"lon":139.326584},{"name":"八王子容器(有)","province":"東京都","city":"八王子市","address":"八王子市西寺方町81-4","lat":35.67337,"lon":139.26532},{"name":"(有)長岡商店","province":"東京都","city":"八王子市","address":"八王子市上川町601-1","lat":35.704987,"lon":139.248047},{"name":"八王子資源化事業(協)","province":"東京都","city":"八王子市","address":"八王子市楢原町1452-1","lat":35.680737,"lon":139.30249},{"name":"(株)こんの","province":"東京都","city":"八王子市","address":"八王子市石川町2802","lat":35.674221,"lon":139.366211},{"name":"(有)西田商店","province":"東京都","city":"八王子市","address":"八王子市戸吹町1891-3","lat":35.703228,"lon":139.295197},{"name":"(株)エコネット","province":"東京都","city":"八王子市","address":"八王子市犬目町776","lat":35.689659,"lon":139.307724},{"name":"(株)完山金属  高尾リサイクルセンター","province":"東京都","city":"八王子市","address":"八王子市南浅川町3952-1","lat":35.615612,"lon":139.244919},{"name":"(株)トーホー商事  丹木資源リサイクル事業所","province":"東京都","city":"八王子市","address":"八王子市丹木町1-570","lat":35.690018,"lon":139.333572},{"name":"明治の森高尾国定公園","province":"東京都","city":"八王子市","address":"東京都八王子市高尾町","lat":35.631366,"lon":139.26758},{"name":"高尾陣場自然公園","province":"東京都","city":"八王子市","address":"東京都八王子市高尾町","lat":35.625024,"lon":139.243244},{"name":"滝山自然公園","province":"東京都","city":"八王子市","address":"東京都八王子市高月町、丹木町二、三丁目","lat":35.701454,"lon":139.330101},{"name":"多摩丘陵自然公園","province":"東京都","city":"八王子市","address":"東京都八王子市、町田市、多摩市","lat":35.659984,"lon":139.41034},{"name":"秋川丘陵自然公園","province":"東京都","city":"八王子市","address":"東京都八王子市、あきる野市","lat":35.720824,"lon":139.231591},{"name":"小宮公園","province":"東京都","city":"八王子市","address":"東京都八王子市大谷町、暁町二丁目","lat":35.673446,"lon":139.340673},{"name":"滝山公園","province":"東京都","city":"八王子市","address":"東京都八王子市高月町、丹木町二、三丁目","lat":35.701454,"lon":139.330101},{"name":"長沼公園","province":"東京都","city":"八王子市","address":"東京都八王子市長沼町・下柚木・堀之内","lat":35.638301,"lon":139.368525},{"name":"平山城址公園","province":"東京都","city":"八王子市","address":"東京都八王子市堀之内","lat":35.647956,"lon":139.380848},{"name":"陵南公園","province":"東京都","city":"八王子市","address":"東京都八王子市長房町、東浅川町","lat":35.649066,"lon":139.289172},{"name":"久保田鉄鋼(株)","province":"東京都","city":"八王子市","address":"八王子市中野上町2-18-3","lat":35.669109,"lon":139.324997},{"name":"三弘紙業(株)  八王子営業所","province":"東京都","city":"八王子市","address":"八王子市宮下町54-1","lat":35.703022,"lon":139.312744},{"name":"東京紙業(株)  多摩事業所","province":"東京都","city":"八王子市","address":"八王子市中野上町1-16-16","lat":35.667873,"lon":139.326584},{"name":"八王子容器(有)","province":"東京都","city":"八王子市","address":"八王子市西寺方町81-4","lat":35.67337,"lon":139.26532},{"name":"(有)長岡商店","province":"東京都","city":"八王子市","address":"八王子市上川町601-1","lat":35.704987,"lon":139.248047},{"name":"八王子資源化事業(協)","province":"東京都","city":"八王子市","address":"八王子市楢原町1452-1","lat":35.680737,"lon":139.30249},{"name":"(株)こんの","province":"東京都","city":"八王子市","address":"八王子市石川町2802","lat":35.674221,"lon":139.366211},{"name":"(有)西田商店","province":"東京都","city":"八王子市","address":"八王子市戸吹町1891-3","lat":35.703228,"lon":139.295197},{"name":"(株)エコネット","province":"東京都","city":"八王子市","address":"八王子市犬目町776","lat":35.689659,"lon":139.307724},{"name":"(株)完山金属  高尾リサイクルセンター","province":"東京都","city":"八王子市","address":"八王子市南浅川町3952-1","lat":35.615612,"lon":139.244919},{"name":"(株)トーホー商事  丹木資源リサイクル事業所","province":"東京都","city":"八王子市","address":"八王子市丹木町1-570","lat":35.690018,"lon":139.333572},{"name":"明治の森高尾国定公園","province":"東京都","city":"八王子市","address":"東京都八王子市高尾町","lat":35.631366,"lon":139.26758},{"name":"高尾陣場自然公園","province":"東京都","city":"八王子市","address":"東京都八王子市高尾町","lat":35.625024,"lon":139.243244},{"name":"滝山自然公園","province":"東京都","city":"八王子市","address":"東京都八王子市高月町、丹木町二、三丁目","lat":35.701454,"lon":139.330101},{"name":"多摩丘陵自然公園","province":"東京都","city":"八王子市","address":"東京都八王子市、町田市、多摩市","lat":35.659984,"lon":139.41034},{"name":"秋川丘陵自然公園","province":"東京都","city":"八王子市","address":"東京都八王子市、あきる野市","lat":35.720824,"lon":139.231591},{"name":"小宮公園","province":"東京都","city":"八王子市","address":"東京都八王子市大谷町、暁町二丁目","lat":35.673446,"lon":139.340673},{"name":"滝山公園","province":"東京都","city":"八王子市","address":"東京都八王子市高月町、丹木町二、三丁目","lat":35.701454,"lon":139.330101},{"name":"長沼公園","province":"東京都","city":"八王子市","address":"東京都八王子市長沼町・下柚木・堀之内","lat":35.638301,"lon":139.368525},{"name":"平山城址公園","province":"東京都","city":"八王子市","address":"東京都八王子市堀之内","lat":35.647956,"lon":139.380848},{"name":"陵南公園","province":"東京都","city":"八王子市","address":"東京都八王子市長房町、東浅川町","lat":35.649066,"lon":139.289172},{"name":"久保田鉄鋼(株)","province":"東京都","city":"八王子市","address":"八王子市中野上町2-18-3","lat":35.669109,"lon":139.324997},{"name":"三弘紙業(株)  八王子営業所","province":"東京都","city":"八王子市","address":"八王子市宮下町54-1","lat":35.703022,"lon":139.312744},{"name":"東京紙業(株)  多摩事業所","province":"東京都","city":"八王子市","address":"八王子市中野上町1-16-16","lat":35.667873,"lon":139.326584},{"name":"八王子容器(有)","province":"東京都","city":"八王子市","address":"八王子市西寺方町81-4","lat":35.67337,"lon":139.26532},{"name":"(有)長岡商店","province":"東京都","city":"八王子市","address":"八王子市上川町601-1","lat":35.704987,"lon":139.248047},{"name":"八王子資源化事業(協)","province":"東京都","city":"八王子市","address":"八王子市楢原町1452-1","lat":35.680737,"lon":139.30249},{"name":"(株)こんの","province":"東京都","city":"八王子市","address":"八王子市石川町2802","lat":35.674221,"lon":139.366211},{"name":"(有)西田商店","province":"東京都","city":"八王子市","address":"八王子市戸吹町1891-3","lat":35.703228,"lon":139.295197},{"name":"(株)エコネット","province":"東京都","city":"八王子市","address":"八王子市犬目町776","lat":35.689659,"lon":139.307724},{"name":"(株)完山金属  高尾リサイクルセンター","province":"東京都","city":"八王子市","address":"八王子市南浅川町3952-1","lat":35.615612,"lon":139.244919},{"name":"(株)トーホー商事  丹木資源リサイクル事業所","province":"東京都","city":"八王子市","address":"八王子市丹木町1-570","lat":35.690018,"lon":139.333572},{"name":"明治の森高尾国定公園","province":"東京都","city":"八王子市","address":"東京都八王子市高尾町","lat":35.631366,"lon":139.26758},{"name":"高尾陣場自然公園","province":"東京都","city":"八王子市","address":"東京都八王子市高尾町","lat":35.625024,"lon":139.243244},{"name":"滝山自然公園","province":"東京都","city":"八王子市","address":"東京都八王子市高月町、丹木町二、三丁目","lat":35.701454,"lon":139.330101},{"name":"多摩丘陵自然公園","province":"東京都","city":"八王子市","address":"東京都八王子市、町田市、多摩市","lat":35.659984,"lon":139.41034},{"name":"秋川丘陵自然公園","province":"東京都","city":"八王子市","address":"東京都八王子市、あきる野市","lat":35.720824,"lon":139.231591},{"name":"小宮公園","province":"東京都","city":"八王子市","address":"東京都八王子市大谷町、暁町二丁目","lat":35.673446,"lon":139.340673},{"name":"滝山公園","province":"東京都","city":"八王子市","address":"東京都八王子市高月町、丹木町二、三丁目","lat":35.701454,"lon":139.330101},{"name":"長沼公園","province":"東京都","city":"八王子市","address":"東京都八王子市長沼町・下柚木・堀之内","lat":35.638301,"lon":139.368525},{"name":"平山城址公園","province":"東京都","city":"八王子市","address":"東京都八王子市堀之内","lat":35.647956,"lon":139.380848},{"name":"陵南公園","province":"東京都","city":"八王子市","address":"東京都八王子市長房町、東浅川町","lat":35.649066,"lon":139.289172},{"name":"久保田鉄鋼(株)","province":"東京都","city":"八王子市","address":"八王子市中野上町2-18-3","lat":35.669109,"lon":139.324997},{"name":"三弘紙業(株)  八王子営業所","province":"東京都","city":"八王子市","address":"八王子市宮下町54-1","lat":35.703022,"lon":139.312744},{"name":"東京紙業(株)  多摩事業所","province":"東京都","city":"八王子市","address":"八王子市中野上町1-16-16","lat":35.667873,"lon":139.326584},{"name":"八王子容器(有)","province":"東京都","city":"八王子市","address":"八王子市西寺方町81-4","lat":35.67337,"lon":139.26532},{"name":"(有)長岡商店","province":"東京都","city":"八王子市","address":"八王子市上川町601-1","lat":35.704987,"lon":139.248047},{"name":"八王子資源化事業(協)","province":"東京都","city":"八王子市","address":"八王子市楢原町1452-1","lat":35.680737,"lon":139.30249},{"name":"(株)こんの","province":"東京都","city":"八王子市","address":"八王子市石川町2802","lat":35.674221,"lon":139.366211},{"name":"(有)西田商店","province":"東京都","city":"八王子市","address":"八王子市戸吹町1891-3","lat":35.703228,"lon":139.295197},{"name":"(株)エコネット","province":"東京都","city":"八王子市","address":"八王子市犬目町776","lat":35.689659,"lon":139.307724},{"name":"(株)完山金属  高尾リサイクルセンター","province":"東京都","city":"八王子市","address":"八王子市南浅川町3952-1","lat":35.615612,"lon":139.244919},{"name":"(株)トーホー商事  丹木資源リサイクル事業所","province":"東京都","city":"八王子市","address":"八王子市丹木町1-570","lat":35.690018,"lon":139.333572},{"name":"明治の森高尾国定公園","province":"東京都","city":"八王子市","address":"東京都八王子市高尾町","lat":35.631366,"lon":139.26758},{"name":"高尾陣場自然公園","province":"東京都","city":"八王子市","address":"東京都八王子市高尾町","lat":35.625024,"lon":139.243244},{"name":"滝山自然公園","province":"東京都","city":"八王子市","address":"東京都八王子市高月町、丹木町二、三丁目","lat":35.701454,"lon":139.330101},{"name":"多摩丘陵自然公園","province":"東京都","city":"八王子市","address":"東京都八王子市、町田市、多摩市","lat":35.659984,"lon":139.41034},{"name":"秋川丘陵自然公園","province":"東京都","city":"八王子市","address":"東京都八王子市、あきる野市","lat":35.720824,"lon":139.231591},{"name":"小宮公園","province":"東京都","city":"八王子市","address":"東京都八王子市大谷町、暁町二丁目","lat":35.673446,"lon":139.340673},{"name":"滝山公園","province":"東京都","city":"八王子市","address":"東京都八王子市高月町、丹木町二、三丁目","lat":35.701454,"lon":139.330101},{"name":"長沼公園","province":"東京都","city":"八王子市","address":"東京都八王子市長沼町・下柚木・堀之内","lat":35.638301,"lon":139.368525},{"name":"平山城址公園","province":"東京都","city":"八王子市","address":"東京都八王子市堀之内","lat":35.647956,"lon":139.380848},{"name":"陵南公園","province":"東京都","city":"八王子市","address":"東京都八王子市長房町、東浅川町","lat":35.649066,"lon":139.289172},{"name":"久保田鉄鋼(株)","province":"東京都","city":"八王子市","address":"八王子市中野上町2-18-3","lat":35.669109,"lon":139.324997},{"name":"三弘紙業(株)  八王子営業所","province":"東京都","city":"八王子市","address":"八王子市宮下町54-1","lat":35.703022,"lon":139.312744},{"name":"東京紙業(株)  多摩事業所","province":"東京都","city":"八王子市","address":"八王子市中野上町1-16-16","lat":35.667873,"lon":139.326584},{"name":"八王子容器(有)","province":"東京都","city":"八王子市","address":"八王子市西寺方町81-4","lat":35.67337,"lon":139.26532},{"name":"(有)長岡商店","province":"東京都","city":"八王子市","address":"八王子市上川町601-1","lat":35.704987,"lon":139.248047},{"name":"八王子資源化事業(協)","province":"東京都","city":"八王子市","address":"八王子市楢原町1452-1","lat":35.680737,"lon":139.30249},{"name":"(株)こんの","province":"東京都","city":"八王子市","address":"八王子市石川町2802","lat":35.674221,"lon":139.366211},{"name":"(有)西田商店","province":"東京都","city":"八王子市","address":"八王子市戸吹町1891-3","lat":35.703228,"lon":139.295197},{"name":"(株)エコネット","province":"東京都","city":"八王子市","address":"八王子市犬目町776","lat":35.689659,"lon":139.307724},{"name":"(株)完山金属  高尾リサイクルセンター","province":"東京都","city":"八王子市","address":"八王子市南浅川町3952-1","lat":35.615612,"lon":139.244919},{"name":"(株)トーホー商事  丹木資源リサイクル事業所","province":"東京都","city":"八王子市","address":"八王子市丹木町1-570","lat":35.690018,"lon":139.333572},{"name":"明治の森高尾国定公園","province":"東京都","city":"八王子市","address":"東京都八王子市高尾町","lat":35.631366,"lon":139.26758},{"name":"高尾陣場自然公園","province":"東京都","city":"八王子市","address":"東京都八王子市高尾町","lat":35.625024,"lon":139.243244},{"name":"滝山自然公園","province":"東京都","city":"八王子市","address":"東京都八王子市高月町、丹木町二、三丁目","lat":35.701454,"lon":139.330101},{"name":"多摩丘陵自然公園","province":"東京都","city":"八王子市","address":"東京都八王子市、町田市、多摩市","lat":35.659984,"lon":139.41034},{"name":"秋川丘陵自然公園","province":"東京都","city":"八王子市","address":"東京都八王子市、あきる野市","lat":35.720824,"lon":139.231591},{"name":"小宮公園","province":"東京都","city":"八王子市","address":"東京都八王子市大谷町、暁町二丁目","lat":35.673446,"lon":139.340673},{"name":"滝山公園","province":"東京都","city":"八王子市","address":"東京都八王子市高月町、丹木町二、三丁目","lat":35.701454,"lon":139.330101},{"name":"長沼公園","province":"東京都","city":"八王子市","address":"東京都八王子市長沼町・下柚木・堀之内","lat":35.638301,"lon":139.368525},{"name":"平山城址公園","province":"東京都","city":"八王子市","address":"東京都八王子市堀之内","lat":35.647956,"lon":139.380848},{"name":"陵南公園","province":"東京都","city":"八王子市","address":"東京都八王子市長房町、東浅川町","lat":35.649066,"lon":139.289172},{"name":"久保田鉄鋼(株)","province":"東京都","city":"八王子市","address":"八王子市中野上町2-18-3","lat":35.669109,"lon":139.324997},{"name":"三弘紙業(株)  八王子営業所","province":"東京都","city":"八王子市","address":"八王子市宮下町54-1","lat":35.703022,"lon":139.312744},{"name":"東京紙業(株)  多摩事業所","province":"東京都","city":"八王子市","address":"八王子市中野上町1-16-16","lat":35.667873,"lon":139.326584},{"name":"八王子容器(有)","province":"東京都","city":"八王子市","address":"八王子市西寺方町81-4","lat":35.67337,"lon":139.26532},{"name":"(有)長岡商店","province":"東京都","city":"八王子市","address":"八王子市上川町601-1","lat":35.704987,"lon":139.248047},{"name":"八王子資源化事業(協)","province":"東京都","city":"八王子市","address":"八王子市楢原町1452-1","lat":35.680737,"lon":139.30249},{"name":"(株)こんの","province":"東京都","city":"八王子市","address":"八王子市石川町2802","lat":35.674221,"lon":139.366211},{"name":"(有)西田商店","province":"東京都","city":"八王子市","address":"八王子市戸吹町1891-3","lat":35.703228,"lon":139.295197},{"name":"(株)エコネット","province":"東京都","city":"八王子市","address":"八王子市犬目町776","lat":35.689659,"lon":139.307724},{"name":"(株)完山金属  高尾リサイクルセンター","province":"東京都","city":"八王子市","address":"八王子市南浅川町3952-1","lat":35.615612,"lon":139.244919},{"name":"(株)トーホー商事  丹木資源リサイクル事業所","province":"東京都","city":"八王子市","address":"八王子市丹木町1-570","lat":35.690018,"lon":139.333572},{"name":"明治の森高尾国定公園","province":"東京都","city":"八王子市","address":"東京都八王子市高尾町","lat":35.631366,"lon":139.26758},{"name":"高尾陣場自然公園","province":"東京都","city":"八王子市","address":"東京都八王子市高尾町","lat":35.625024,"lon":139.243244},{"name":"滝山自然公園","province":"東京都","city":"八王子市","address":"東京都八王子市高月町、丹木町二、三丁目","lat":35.701454,"lon":139.330101},{"name":"多摩丘陵自然公園","province":"東京都","city":"八王子市","address":"東京都八王子市、町田市、多摩市","lat":35.659984,"lon":139.41034},{"name":"秋川丘陵自然公園","province":"東京都","city":"八王子市","address":"東京都八王子市、あきる野市","lat":35.720824,"lon":139.231591},{"name":"小宮公園","province":"東京都","city":"八王子市","address":"東京都八王子市大谷町、暁町二丁目","lat":35.673446,"lon":139.340673},{"name":"滝山公園","province":"東京都","city":"八王子市","address":"東京都八王子市高月町、丹木町二、三丁目","lat":35.701454,"lon":139.330101},{"name":"長沼公園","province":"東京都","city":"八王子市","address":"東京都八王子市長沼町・下柚木・堀之内","lat":35.638301,"lon":139.368525},{"name":"平山城址公園","province":"東京都","city":"八王子市","address":"東京都八王子市堀之内","lat":35.647956,"lon":139.380848},{"name":"陵南公園","province":"東京都","city":"八王子市","address":"東京都八王子市長房町、東浅川町","lat":35.649066,"lon":139.289172},{"name":"久保田鉄鋼(株)","province":"東京都","city":"八王子市","address":"八王子市中野上町2-18-3","lat":35.669109,"lon":139.324997},{"name":"三弘紙業(株)  八王子営業所","province":"東京都","city":"八王子市","address":"八王子市宮下町54-1","lat":35.703022,"lon":139.312744},{"name":"東京紙業(株)  多摩事業所","province":"東京都","city":"八王子市","address":"八王子市中野上町1-16-16","lat":35.667873,"lon":139.326584},{"name":"八王子容器(有)","province":"東京都","city":"八王子市","address":"八王子市西寺方町81-4","lat":35.67337,"lon":139.26532},{"name":"(有)長岡商店","province":"東京都","city":"八王子市","address":"八王子市上川町601-1","lat":35.704987,"lon":139.248047},{"name":"八王子資源化事業(協)","province":"東京都","city":"八王子市","address":"八王子市楢原町1452-1","lat":35.680737,"lon":139.30249},{"name":"(株)こんの","province":"東京都","city":"八王子市","address":"八王子市石川町2802","lat":35.674221,"lon":139.366211},{"name":"(有)西田商店","province":"東京都","city":"八王子市","address":"八王子市戸吹町1891-3","lat":35.703228,"lon":139.295197},{"name":"(株)エコネット","province":"東京都","city":"八王子市","address":"八王子市犬目町776","lat":35.689659,"lon":139.307724},{"name":"(株)完山金属  高尾リサイクルセンター","province":"東京都","city":"八王子市","address":"八王子市南浅川町3952-1","lat":35.615612,"lon":139.244919},{"name":"(株)トーホー商事  丹木資源リサイクル事業所","province":"東京都","city":"八王子市","address":"八王子市丹木町1-570","lat":35.690018,"lon":139.333572},{"name":"明治の森高尾国定公園","province":"東京都","city":"八王子市","address":"東京都八王子市高尾町","lat":35.631366,"lon":139.26758},{"name":"高尾陣場自然公園","province":"東京都","city":"八王子市","address":"東京都八王子市高尾町","lat":35.625024,"lon":139.243244},{"name":"滝山自然公園","province":"東京都","city":"八王子市","address":"東京都八王子市高月町、丹木町二、三丁目","lat":35.701454,"lon":139.330101},{"name":"多摩丘陵自然公園","province":"東京都","city":"八王子市","address":"東京都八王子市、町田市、多摩市","lat":35.659984,"lon":139.41034},{"name":"秋川丘陵自然公園","province":"東京都","city":"八王子市","address":"東京都八王子市、あきる野市","lat":35.720824,"lon":139.231591},{"name":"小宮公園","province":"東京都","city":"八王子市","address":"東京都八王子市大谷町、暁町二丁目","lat":35.673446,"lon":139.340673},{"name":"滝山公園","province":"東京都","city":"八王子市","address":"東京都八王子市高月町、丹木町二、三丁目","lat":35.701454,"lon":139.330101},{"name":"長沼公園","province":"東京都","city":"八王子市","address":"東京都八王子市長沼町・下柚木・堀之内","lat":35.638301,"lon":139.368525},{"name":"平山城址公園","province":"東京都","city":"八王子市","address":"東京都八王子市堀之内","lat":35.647956,"lon":139.380848},{"name":"陵南公園","province":"東京都","city":"八王子市","address":"東京都八王子市長房町、東浅川町","lat":35.649066,"lon":139.289172},{"name":"久保田鉄鋼(株)","province":"東京都","city":"八王子市","address":"八王子市中野上町2-18-3","lat":35.669109,"lon":139.324997},{"name":"三弘紙業(株)  八王子営業所","province":"東京都","city":"八王子市","address":"八王子市宮下町54-1","lat":35.703022,"lon":139.312744},{"name":"東京紙業(株)  多摩事業所","province":"東京都","city":"八王子市","address":"八王子市中野上町1-16-16","lat":35.667873,"lon":139.326584},{"name":"八王子容器(有)","province":"東京都","city":"八王子市","address":"八王子市西寺方町81-4","lat":35.67337,"lon":139.26532},{"name":"(有)長岡商店","province":"東京都","city":"八王子市","address":"八王子市上川町601-1","lat":35.704987,"lon":139.248047},{"name":"八王子資源化事業(協)","province":"東京都","city":"八王子市","address":"八王子市楢原町1452-1","lat":35.680737,"lon":139.30249},{"name":"(株)こんの","province":"東京都","city":"八王子市","address":"八王子市石川町2802","lat":35.674221,"lon":139.366211},{"name":"(有)西田商店","province":"東京都","city":"八王子市","address":"八王子市戸吹町1891-3","lat":35.703228,"lon":139.295197},{"name":"(株)エコネット","province":"東京都","city":"八王子市","address":"八王子市犬目町776","lat":35.689659,"lon":139.307724},{"name":"(株)完山金属  高尾リサイクルセンター","province":"東京都","city":"八王子市","address":"八王子市南浅川町3952-1","lat":35.615612,"lon":139.244919},{"name":"(株)トーホー商事  丹木資源リサイクル事業所","province":"東京都","city":"八王子市","address":"八王子市丹木町1-570","lat":35.690018,"lon":139.333572},{"name":"明治の森高尾国定公園","province":"東京都","city":"八王子市","address":"東京都八王子市高尾町","lat":35.631366,"lon":139.26758},{"name":"高尾陣場自然公園","province":"東京都","city":"八王子市","address":"東京都八王子市高尾町","lat":35.625024,"lon":139.243244},{"name":"滝山自然公園","province":"東京都","city":"八王子市","address":"東京都八王子市高月町、丹木町二、三丁目","lat":35.701454,"lon":139.330101},{"name":"多摩丘陵自然公園","province":"東京都","city":"八王子市","address":"東京都八王子市、町田市、多摩市","lat":35.659984,"lon":139.41034},{"name":"秋川丘陵自然公園","province":"東京都","city":"八王子市","address":"東京都八王子市、あきる野市","lat":35.720824,"lon":139.231591},{"name":"小宮公園","province":"東京都","city":"八王子市","address":"東京都八王子市大谷町、暁町二丁目","lat":35.673446,"lon":139.340673},{"name":"滝山公園","province":"東京都","city":"八王子市","address":"東京都八王子市高月町、丹木町二、三丁目","lat":35.701454,"lon":139.330101},{"name":"長沼公園","province":"東京都","city":"八王子市","address":"東京都八王子市長沼町・下柚木・堀之内","lat":35.638301,"lon":139.368525},{"name":"平山城址公園","province":"東京都","city":"八王子市","address":"東京都八王子市堀之内","lat":35.647956,"lon":139.380848},{"name":"陵南公園","province":"東京都","city":"八王子市","address":"東京都八王子市長房町、東浅川町","lat":35.649066,"lon":139.289172},{"name":"久保田鉄鋼(株)","province":"東京都","city":"八王子市","address":"八王子市中野上町2-18-3","lat":35.669109,"lon":139.324997},{"name":"三弘紙業(株)  八王子営業所","province":"東京都","city":"八王子市","address":"八王子市宮下町54-1","lat":35.703022,"lon":139.312744},{"name":"東京紙業(株)  多摩事業所","province":"東京都","city":"八王子市","address":"八王子市中野上町1-16-16","lat":35.667873,"lon":139.326584},{"name":"八王子容器(有)","province":"東京都","city":"八王子市","address":"八王子市西寺方町81-4","lat":35.67337,"lon":139.26532},{"name":"(有)長岡商店","province":"東京都","city":"八王子市","address":"八王子市上川町601-1","lat":35.704987,"lon":139.248047},{"name":"八王子資源化事業(協)","province":"東京都","city":"八王子市","address":"八王子市楢原町1452-1","lat":35.680737,"lon":139.30249},{"name":"(株)こんの","province":"東京都","city":"八王子市","address":"八王子市石川町2802","lat":35.674221,"lon":139.366211},{"name":"(有)西田商店","province":"東京都","city":"八王子市","address":"八王子市戸吹町1891-3","lat":35.703228,"lon":139.295197},{"name":"(株)エコネット","province":"東京都","city":"八王子市","address":"八王子市犬目町776","lat":35.689659,"lon":139.307724},{"name":"(株)完山金属  高尾リサイクルセンター","province":"東京都","city":"八王子市","address":"八王子市南浅川町3952-1","lat":35.615612,"lon":139.244919},{"name":"(株)トーホー商事  丹木資源リサイクル事業所","province":"東京都","city":"八王子市","address":"八王子市丹木町1-570","lat":35.690018,"lon":139.333572},{"name":"明治の森高尾国定公園","province":"東京都","city":"八王子市","address":"東京都八王子市高尾町","lat":35.631366,"lon":139.26758},{"name":"高尾陣場自然公園","province":"東京都","city":"八王子市","address":"東京都八王子市高尾町","lat":35.625024,"lon":139.243244},{"name":"滝山自然公園","province":"東京都","city":"八王子市","address":"東京都八王子市高月町、丹木町二、三丁目","lat":35.701454,"lon":139.330101},{"name":"多摩丘陵自然公園","province":"東京都","city":"八王子市","address":"東京都八王子市、町田市、多摩市","lat":35.659984,"lon":139.41034},{"name":"秋川丘陵自然公園","province":"東京都","city":"八王子市","address":"東京都八王子市、あきる野市","lat":35.720824,"lon":139.231591},{"name":"小宮公園","province":"東京都","city":"八王子市","address":"東京都八王子市大谷町、暁町二丁目","lat":35.673446,"lon":139.340673},{"name":"滝山公園","province":"東京都","city":"八王子市","address":"東京都八王子市高月町、丹木町二、三丁目","lat":35.701454,"lon":139.330101},{"name":"長沼公園","province":"東京都","city":"八王子市","address":"東京都八王子市長沼町・下柚木・堀之内","lat":35.638301,"lon":139.368525},{"name":"平山城址公園","province":"東京都","city":"八王子市","address":"東京都八王子市堀之内","lat":35.647956,"lon":139.380848},{"name":"陵南公園","province":"東京都","city":"八王子市","address":"東京都八王子市長房町、東浅川町","lat":35.649066,"lon":139.289172},{"name":"久保田鉄鋼(株)","province":"東京都","city":"八王子市","address":"八王子市中野上町2-18-3","lat":35.669109,"lon":139.324997},{"name":"三弘紙業(株)  八王子営業所","province":"東京都","city":"八王子市","address":"八王子市宮下町54-1","lat":35.703022,"lon":139.312744},{"name":"東京紙業(株)  多摩事業所","province":"東京都","city":"八王子市","address":"八王子市中野上町1-16-16","lat":35.667873,"lon":139.326584},{"name":"八王子容器(有)","province":"東京都","city":"八王子市","address":"八王子市西寺方町81-4","lat":35.67337,"lon":139.26532},{"name":"(有)長岡商店","province":"東京都","city":"八王子市","address":"八王子市上川町601-1","lat":35.704987,"lon":139.248047},{"name":"八王子資源化事業(協)","province":"東京都","city":"八王子市","address":"八王子市楢原町1452-1","lat":35.680737,"lon":139.30249},{"name":"(株)こんの","province":"東京都","city":"八王子市","address":"八王子市石川町2802","lat":35.674221,"lon":139.366211},{"name":"(有)西田商店","province":"東京都","city":"八王子市","address":"八王子市戸吹町1891-3","lat":35.703228,"lon":139.295197},{"name":"(株)エコネット","province":"東京都","city":"八王子市","address":"八王子市犬目町776","lat":35.689659,"lon":139.307724},{"name":"(株)完山金属  高尾リサイクルセンター","province":"東京都","city":"八王子市","address":"八王子市南浅川町3952-1","lat":35.615612,"lon":139.244919},{"name":"(株)トーホー商事  丹木資源リサイクル事業所","province":"東京都","city":"八王子市","address":"八王子市丹木町1-570","lat":35.690018,"lon":139.333572},{"name":"明治の森高尾国定公園","province":"東京都","city":"八王子市","address":"東京都八王子市高尾町","lat":35.631366,"lon":139.26758},{"name":"高尾陣場自然公園","province":"東京都","city":"八王子市","address":"東京都八王子市高尾町","lat":35.625024,"lon":139.243244},{"name":"滝山自然公園","province":"東京都","city":"八王子市","address":"東京都八王子市高月町、丹木町二、三丁目","lat":35.701454,"lon":139.330101},{"name":"多摩丘陵自然公園","province":"東京都","city":"八王子市","address":"東京都八王子市、町田市、多摩市","lat":35.659984,"lon":139.41034},{"name":"秋川丘陵自然公園","province":"東京都","city":"八王子市","address":"東京都八王子市、あきる野市","lat":35.720824,"lon":139.231591},{"name":"小宮公園","province":"東京都","city":"八王子市","address":"東京都八王子市大谷町、暁町二丁目","lat":35.673446,"lon":139.340673},{"name":"滝山公園","province":"東京都","city":"八王子市","address":"東京都八王子市高月町、丹木町二、三丁目","lat":35.701454,"lon":139.330101},{"name":"長沼公園","province":"東京都","city":"八王子市","address":"東京都八王子市長沼町・下柚木・堀之内","lat":35.638301,"lon":139.368525},{"name":"平山城址公園","province":"東京都","city":"八王子市","address":"東京都八王子市堀之内","lat":35.647956,"lon":139.380848},{"name":"陵南公園","province":"東京都","city":"八王子市","address":"東京都八王子市長房町、東浅川町","lat":35.649066,"lon":139.289172},{"name":"久保田鉄鋼(株)","province":"東京都","city":"八王子市","address":"八王子市中野上町2-18-3","lat":35.669109,"lon":139.324997},{"name":"三弘紙業(株)  八王子営業所","province":"東京都","city":"八王子市","address":"八王子市宮下町54-1","lat":35.703022,"lon":139.312744},{"name":"東京紙業(株)  多摩事業所","province":"東京都","city":"八王子市","address":"八王子市中野上町1-16-16","lat":35.667873,"lon":139.326584},{"name":"八王子容器(有)","province":"東京都","city":"八王子市","address":"八王子市西寺方町81-4","lat":35.67337,"lon":139.26532},{"name":"(有)長岡商店","province":"東京都","city":"八王子市","address":"八王子市上川町601-1","lat":35.704987,"lon":139.248047},{"name":"八王子資源化事業(協)","province":"東京都","city":"八王子市","address":"八王子市楢原町1452-1","lat":35.680737,"lon":139.30249},{"name":"(株)こんの","province":"東京都","city":"八王子市","address":"八王子市石川町2802","lat":35.674221,"lon":139.366211},{"name":"(有)西田商店","province":"東京都","city":"八王子市","address":"八王子市戸吹町1891-3","lat":35.703228,"lon":139.295197},{"name":"(株)エコネット","province":"東京都","city":"八王子市","address":"八王子市犬目町776","lat":35.689659,"lon":139.307724},{"name":"(株)完山金属  高尾リサイクルセンター","province":"東京都","city":"八王子市","address":"八王子市南浅川町3952-1","lat":35.615612,"lon":139.244919},{"name":"(株)トーホー商事  丹木資源リサイクル事業所","province":"東京都","city":"八王子市","address":"八王子市丹木町1-570","lat":35.690018,"lon":139.333572},{"name":"明治の森高尾国定公園","province":"東京都","city":"八王子市","address":"東京都八王子市高尾町","lat":35.631366,"lon":139.26758},{"name":"高尾陣場自然公園","province":"東京都","city":"八王子市","address":"東京都八王子市高尾町","lat":35.625024,"lon":139.243244},{"name":"滝山自然公園","province":"東京都","city":"八王子市","address":"東京都八王子市高月町、丹木町二、三丁目","lat":35.701454,"lon":139.330101},{"name":"多摩丘陵自然公園","province":"東京都","city":"八王子市","address":"東京都八王子市、町田市、多摩市","lat":35.659984,"lon":139.41034},{"name":"秋川丘陵自然公園","province":"東京都","city":"八王子市","address":"東京都八王子市、あきる野市","lat":35.720824,"lon":139.231591},{"name":"小宮公園","province":"東京都","city":"八王子市","address":"東京都八王子市大谷町、暁町二丁目","lat":35.673446,"lon":139.340673},{"name":"滝山公園","province":"東京都","city":"八王子市","address":"東京都八王子市高月町、丹木町二、三丁目","lat":35.701454,"lon":139.330101},{"name":"長沼公園","province":"東京都","city":"八王子市","address":"東京都八王子市長沼町・下柚木・堀之内","lat":35.638301,"lon":139.368525},{"name":"平山城址公園","province":"東京都","city":"八王子市","address":"東京都八王子市堀之内","lat":35.647956,"lon":139.380848},{"name":"陵南公園","province":"東京都","city":"八王子市","address":"東京都八王子市長房町、東浅川町","lat":35.649066,"lon":139.289172},{"name":"久保田鉄鋼(株)","province":"東京都","city":"八王子市","address":"八王子市中野上町2-18-3","lat":35.669109,"lon":139.324997},{"name":"三弘紙業(株)  八王子営業所","province":"東京都","city":"八王子市","address":"八王子市宮下町54-1","lat":35.703022,"lon":139.312744},{"name":"東京紙業(株)  多摩事業所","province":"東京都","city":"八王子市","address":"八王子市中野上町1-16-16","lat":35.667873,"lon":139.326584},{"name":"八王子容器(有)","province":"東京都","city":"八王子市","address":"八王子市西寺方町81-4","lat":35.67337,"lon":139.26532},{"name":"(有)長岡商店","province":"東京都","city":"八王子市","address":"八王子市上川町601-1","lat":35.704987,"lon":139.248047},{"name":"八王子資源化事業(協)","province":"東京都","city":"八王子市","address":"八王子市楢原町1452-1","lat":35.680737,"lon":139.30249},{"name":"(株)こんの","province":"東京都","city":"八王子市","address":"八王子市石川町2802","lat":35.674221,"lon":139.366211},{"name":"(有)西田商店","province":"東京都","city":"八王子市","address":"八王子市戸吹町1891-3","lat":35.703228,"lon":139.295197},{"name":"(株)エコネット","province":"東京都","city":"八王子市","address":"八王子市犬目町776","lat":35.689659,"lon":139.307724},{"name":"(株)完山金属  高尾リサイクルセンター","province":"東京都","city":"八王子市","address":"八王子市南浅川町3952-1","lat":35.615612,"lon":139.244919},{"name":"(株)トーホー商事  丹木資源リサイクル事業所","province":"東京都","city":"八王子市","address":"八王子市丹木町1-570","lat":35.690018,"lon":139.333572},{"name":"明治の森高尾国定公園","province":"東京都","city":"八王子市","address":"東京都八王子市高尾町","lat":35.631366,"lon":139.26758},{"name":"高尾陣場自然公園","province":"東京都","city":"八王子市","address":"東京都八王子市高尾町","lat":35.625024,"lon":139.243244},{"name":"滝山自然公園","province":"東京都","city":"八王子市","address":"東京都八王子市高月町、丹木町二、三丁目","lat":35.701454,"lon":139.330101},{"name":"多摩丘陵自然公園","province":"東京都","city":"八王子市","address":"東京都八王子市、町田市、多摩市","lat":35.659984,"lon":139.41034},{"name":"秋川丘陵自然公園","province":"東京都","city":"八王子市","address":"東京都八王子市、あきる野市","lat":35.720824,"lon":139.231591},{"name":"小宮公園","province":"東京都","city":"八王子市","address":"東京都八王子市大谷町、暁町二丁目","lat":35.673446,"lon":139.340673},{"name":"滝山公園","province":"東京都","city":"八王子市","address":"東京都八王子市高月町、丹木町二、三丁目","lat":35.701454,"lon":139.330101},{"name":"長沼公園","province":"東京都","city":"八王子市","address":"東京都八王子市長沼町・下柚木・堀之内","lat":35.638301,"lon":139.368525},{"name":"平山城址公園","province":"東京都","city":"八王子市","address":"東京都八王子市堀之内","lat":35.647956,"lon":139.380848},{"name":"陵南公園","province":"東京都","city":"八王子市","address":"東京都八王子市長房町、東浅川町","lat":35.649066,"lon":139.289172},{"name":"久保田鉄鋼(株)","province":"東京都","city":"八王子市","address":"八王子市中野上町2-18-3","lat":35.669109,"lon":139.324997},{"name":"三弘紙業(株)  八王子営業所","province":"東京都","city":"八王子市","address":"八王子市宮下町54-1","lat":35.703022,"lon":139.312744},{"name":"東京紙業(株)  多摩事業所","province":"東京都","city":"八王子市","address":"八王子市中野上町1-16-16","lat":35.667873,"lon":139.326584},{"name":"八王子容器(有)","province":"東京都","city":"八王子市","address":"八王子市西寺方町81-4","lat":35.67337,"lon":139.26532},{"name":"(有)長岡商店","province":"東京都","city":"八王子市","address":"八王子市上川町601-1","lat":35.704987,"lon":139.248047},{"name":"八王子資源化事業(協)","province":"東京都","city":"八王子市","address":"八王子市楢原町1452-1","lat":35.680737,"lon":139.30249},{"name":"(株)こんの","province":"東京都","city":"八王子市","address":"八王子市石川町2802","lat":35.674221,"lon":139.366211},{"name":"(有)西田商店","province":"東京都","city":"八王子市","address":"八王子市戸吹町1891-3","lat":35.703228,"lon":139.295197},{"name":"(株)エコネット","province":"東京都","city":"八王子市","address":"八王子市犬目町776","lat":35.689659,"lon":139.307724},{"name":"(株)完山金属  高尾リサイクルセンター","province":"東京都","city":"八王子市","address":"八王子市南浅川町3952-1","lat":35.615612,"lon":139.244919},{"name":"(株)トーホー商事  丹木資源リサイクル事業所","province":"東京都","city":"八王子市","address":"八王子市丹木町1-570","lat":35.690018,"lon":139.333572},{"name":"明治の森高尾国定公園","province":"東京都","city":"八王子市","address":"東京都八王子市高尾町","lat":35.631366,"lon":139.26758},{"name":"高尾陣場自然公園","province":"東京都","city":"八王子市","address":"東京都八王子市高尾町","lat":35.625024,"lon":139.243244},{"name":"滝山自然公園","province":"東京都","city":"八王子市","address":"東京都八王子市高月町、丹木町二、三丁目","lat":35.701454,"lon":139.330101},{"name":"多摩丘陵自然公園","province":"東京都","city":"八王子市","address":"東京都八王子市、町田市、多摩市","lat":35.659984,"lon":139.41034},{"name":"秋川丘陵自然公園","province":"東京都","city":"八王子市","address":"東京都八王子市、あきる野市","lat":35.720824,"lon":139.231591},{"name":"小宮公園","province":"東京都","city":"八王子市","address":"東京都八王子市大谷町、暁町二丁目","lat":35.673446,"lon":139.340673},{"name":"滝山公園","province":"東京都","city":"八王子市","address":"東京都八王子市高月町、丹木町二、三丁目","lat":35.701454,"lon":139.330101},{"name":"長沼公園","province":"東京都","city":"八王子市","address":"東京都八王子市長沼町・下柚木・堀之内","lat":35.638301,"lon":139.368525},{"name":"平山城址公園","province":"東京都","city":"八王子市","address":"東京都八王子市堀之内","lat":35.647956,"lon":139.380848},{"name":"陵南公園","province":"東京都","city":"八王子市","address":"東京都八王子市長房町、東浅川町","lat":35.649066,"lon":139.289172},{"name":"久保田鉄鋼(株)","province":"東京都","city":"八王子市","address":"八王子市中野上町2-18-3","lat":35.669109,"lon":139.324997},{"name":"三弘紙業(株)  八王子営業所","province":"東京都","city":"八王子市","address":"八王子市宮下町54-1","lat":35.703022,"lon":139.312744},{"name":"東京紙業(株)  多摩事業所","province":"東京都","city":"八王子市","address":"八王子市中野上町1-16-16","lat":35.667873,"lon":139.326584},{"name":"八王子容器(有)","province":"東京都","city":"八王子市","address":"八王子市西寺方町81-4","lat":35.67337,"lon":139.26532},{"name":"(有)長岡商店","province":"東京都","city":"八王子市","address":"八王子市上川町601-1","lat":35.704987,"lon":139.248047},{"name":"八王子資源化事業(協)","province":"東京都","city":"八王子市","address":"八王子市楢原町1452-1","lat":35.680737,"lon":139.30249},{"name":"(株)こんの","province":"東京都","city":"八王子市","address":"八王子市石川町2802","lat":35.674221,"lon":139.366211},{"name":"(有)西田商店","province":"東京都","city":"八王子市","address":"八王子市戸吹町1891-3","lat":35.703228,"lon":139.295197},{"name":"(株)エコネット","province":"東京都","city":"八王子市","address":"八王子市犬目町776","lat":35.689659,"lon":139.307724},{"name":"(株)完山金属  高尾リサイクルセンター","province":"東京都","city":"八王子市","address":"八王子市南浅川町3952-1","lat":35.615612,"lon":139.244919},{"name":"(株)トーホー商事  丹木資源リサイクル事業所","province":"東京都","city":"八王子市","address":"八王子市丹木町1-570","lat":35.690018,"lon":139.333572},{"name":"明治の森高尾国定公園","province":"東京都","city":"八王子市","address":"東京都八王子市高尾町","lat":35.631366,"lon":139.26758},{"name":"高尾陣場自然公園","province":"東京都","city":"八王子市","address":"東京都八王子市高尾町","lat":35.625024,"lon":139.243244},{"name":"滝山自然公園","province":"東京都","city":"八王子市","address":"東京都八王子市高月町、丹木町二、三丁目","lat":35.701454,"lon":139.330101},{"name":"多摩丘陵自然公園","province":"東京都","city":"八王子市","address":"東京都八王子市、町田市、多摩市","lat":35.659984,"lon":139.41034},{"name":"秋川丘陵自然公園","province":"東京都","city":"八王子市","address":"東京都八王子市、あきる野市","lat":35.720824,"lon":139.231591},{"name":"小宮公園","province":"東京都","city":"八王子市","address":"東京都八王子市大谷町、暁町二丁目","lat":35.673446,"lon":139.340673},{"name":"滝山公園","province":"東京都","city":"八王子市","address":"東京都八王子市高月町、丹木町二、三丁目","lat":35.701454,"lon":139.330101},{"name":"長沼公園","province":"東京都","city":"八王子市","address":"東京都八王子市長沼町・下柚木・堀之内","lat":35.638301,"lon":139.368525},{"name":"平山城址公園","province":"東京都","city":"八王子市","address":"東京都八王子市堀之内","lat":35.647956,"lon":139.380848},{"name":"陵南公園","province":"東京都","city":"八王子市","address":"東京都八王子市長房町、東浅川町","lat":35.649066,"lon":139.289172},{"name":"久保田鉄鋼(株)","province":"東京都","city":"八王子市","address":"八王子市中野上町2-18-3","lat":35.669109,"lon":139.324997},{"name":"三弘紙業(株)  八王子営業所","province":"東京都","city":"八王子市","address":"八王子市宮下町54-1","lat":35.703022,"lon":139.312744},{"name":"東京紙業(株)  多摩事業所","province":"東京都","city":"八王子市","address":"八王子市中野上町1-16-16","lat":35.667873,"lon":139.326584},{"name":"八王子容器(有)","province":"東京都","city":"八王子市","address":"八王子市西寺方町81-4","lat":35.67337,"lon":139.26532},{"name":"(有)長岡商店","province":"東京都","city":"八王子市","address":"八王子市上川町601-1","lat":35.704987,"lon":139.248047},{"name":"八王子資源化事業(協)","province":"東京都","city":"八王子市","address":"八王子市楢原町1452-1","lat":35.680737,"lon":139.30249},{"name":"(株)こんの","province":"東京都","city":"八王子市","address":"八王子市石川町2802","lat":35.674221,"lon":139.366211},{"name":"(有)西田商店","province":"東京都","city":"八王子市","address":"八王子市戸吹町1891-3","lat":35.703228,"lon":139.295197},{"name":"(株)エコネット","province":"東京都","city":"八王子市","address":"八王子市犬目町776","lat":35.689659,"lon":139.307724},{"name":"(株)完山金属  高尾リサイクルセンター","province":"東京都","city":"八王子市","address":"八王子市南浅川町3952-1","lat":35.615612,"lon":139.244919},{"name":"(株)トーホー商事  丹木資源リサイクル事業所","province":"東京都","city":"八王子市","address":"八王子市丹木町1-570","lat":35.690018,"lon":139.333572},{"name":"明治の森高尾国定公園","province":"東京都","city":"八王子市","address":"東京都八王子市高尾町","lat":35.631366,"lon":139.26758},{"name":"高尾陣場自然公園","province":"東京都","city":"八王子市","address":"東京都八王子市高尾町","lat":35.625024,"lon":139.243244},{"name":"滝山自然公園","province":"東京都","city":"八王子市","address":"東京都八王子市高月町、丹木町二、三丁目","lat":35.701454,"lon":139.330101},{"name":"多摩丘陵自然公園","province":"東京都","city":"八王子市","address":"東京都八王子市、町田市、多摩市","lat":35.659984,"lon":139.41034},{"name":"秋川丘陵自然公園","province":"東京都","city":"八王子市","address":"東京都八王子市、あきる野市","lat":35.720824,"lon":139.231591},{"name":"小宮公園","province":"東京都","city":"八王子市","address":"東京都八王子市大谷町、暁町二丁目","lat":35.673446,"lon":139.340673},{"name":"滝山公園","province":"東京都","city":"八王子市","address":"東京都八王子市高月町、丹木町二、三丁目","lat":35.701454,"lon":139.330101},{"name":"長沼公園","province":"東京都","city":"八王子市","address":"東京都八王子市長沼町・下柚木・堀之内","lat":35.638301,"lon":139.368525},{"name":"平山城址公園","province":"東京都","city":"八王子市","address":"東京都八王子市堀之内","lat":35.647956,"lon":139.380848},{"name":"陵南公園","province":"東京都","city":"八王子市","address":"東京都八王子市長房町、東浅川町","lat":35.649066,"lon":139.289172},{"name":"久保田鉄鋼(株)","province":"東京都","city":"八王子市","address":"八王子市中野上町2-18-3","lat":35.669109,"lon":139.324997},{"name":"三弘紙業(株)  八王子営業所","province":"東京都","city":"八王子市","address":"八王子市宮下町54-1","lat":35.703022,"lon":139.312744},{"name":"東京紙業(株)  多摩事業所","province":"東京都","city":"八王子市","address":"八王子市中野上町1-16-16","lat":35.667873,"lon":139.326584},{"name":"八王子容器(有)","province":"東京都","city":"八王子市","address":"八王子市西寺方町81-4","lat":35.67337,"lon":139.26532},{"name":"(有)長岡商店","province":"東京都","city":"八王子市","address":"八王子市上川町601-1","lat":35.704987,"lon":139.248047},{"name":"八王子資源化事業(協)","province":"東京都","city":"八王子市","address":"八王子市楢原町1452-1","lat":35.680737,"lon":139.30249},{"name":"(株)こんの","province":"東京都","city":"八王子市","address":"八王子市石川町2802","lat":35.674221,"lon":139.366211},{"name":"(有)西田商店","province":"東京都","city":"八王子市","address":"八王子市戸吹町1891-3","lat":35.703228,"lon":139.295197},{"name":"(株)エコネット","province":"東京都","city":"八王子市","address":"八王子市犬目町776","lat":35.689659,"lon":139.307724},{"name":"(株)完山金属  高尾リサイクルセンター","province":"東京都","city":"八王子市","address":"八王子市南浅川町3952-1","lat":35.615612,"lon":139.244919},{"name":"(株)トーホー商事  丹木資源リサイクル事業所","province":"東京都","city":"八王子市","address":"八王子市丹木町1-570","lat":35.690018,"lon":139.333572},{"name":"明治の森高尾国定公園","province":"東京都","city":"八王子市","address":"東京都八王子市高尾町","lat":35.631366,"lon":139.26758},{"name":"高尾陣場自然公園","province":"東京都","city":"八王子市","address":"東京都八王子市高尾町","lat":35.625024,"lon":139.243244},{"name":"滝山自然公園","province":"東京都","city":"八王子市","address":"東京都八王子市高月町、丹木町二、三丁目","lat":35.701454,"lon":139.330101},{"name":"多摩丘陵自然公園","province":"東京都","city":"八王子市","address":"東京都八王子市、町田市、多摩市","lat":35.659984,"lon":139.41034},{"name":"秋川丘陵自然公園","province":"東京都","city":"八王子市","address":"東京都八王子市、あきる野市","lat":35.720824,"lon":139.231591},{"name":"小宮公園","province":"東京都","city":"八王子市","address":"東京都八王子市大谷町、暁町二丁目","lat":35.673446,"lon":139.340673},{"name":"滝山公園","province":"東京都","city":"八王子市","address":"東京都八王子市高月町、丹木町二、三丁目","lat":35.701454,"lon":139.330101},{"name":"長沼公園","province":"東京都","city":"八王子市","address":"東京都八王子市長沼町・下柚木・堀之内","lat":35.638301,"lon":139.368525},{"name":"平山城址公園","province":"東京都","city":"八王子市","address":"東京都八王子市堀之内","lat":35.647956,"lon":139.380848},{"name":"陵南公園","province":"東京都","city":"八王子市","address":"東京都八王子市長房町、東浅川町","lat":35.649066,"lon":139.289172},{"name":"久保田鉄鋼(株)","province":"東京都","city":"八王子市","address":"八王子市中野上町2-18-3","lat":35.669109,"lon":139.324997},{"name":"三弘紙業(株)  八王子営業所","province":"東京都","city":"八王子市","address":"八王子市宮下町54-1","lat":35.703022,"lon":139.312744},{"name":"東京紙業(株)  多摩事業所","province":"東京都","city":"八王子市","address":"八王子市中野上町1-16-16","lat":35.667873,"lon":139.326584},{"name":"八王子容器(有)","province":"東京都","city":"八王子市","address":"八王子市西寺方町81-4","lat":35.67337,"lon":139.26532},{"name":"(有)長岡商店","province":"東京都","city":"八王子市","address":"八王子市上川町601-1","lat":35.704987,"lon":139.248047},{"name":"八王子資源化事業(協)","province":"東京都","city":"八王子市","address":"八王子市楢原町1452-1","lat":35.680737,"lon":139.30249},{"name":"(株)こんの","province":"東京都","city":"八王子市","address":"八王子市石川町2802","lat":35.674221,"lon":139.366211},{"name":"(有)西田商店","province":"東京都","city":"八王子市","address":"八王子市戸吹町1891-3","lat":35.703228,"lon":139.295197},{"name":"(株)エコネット","province":"東京都","city":"八王子市","address":"八王子市犬目町776","lat":35.689659,"lon":139.307724},{"name":"(株)完山金属  高尾リサイクルセンター","province":"東京都","city":"八王子市","address":"八王子市南浅川町3952-1","lat":35.615612,"lon":139.244919},{"name":"(株)トーホー商事  丹木資源リサイクル事業所","province":"東京都","city":"八王子市","address":"八王子市丹木町1-570","lat":35.690018,"lon":139.333572},{"name":"明治の森高尾国定公園","province":"東京都","city":"八王子市","address":"東京都八王子市高尾町","lat":35.631366,"lon":139.26758},{"name":"高尾陣場自然公園","province":"東京都","city":"八王子市","address":"東京都八王子市高尾町","lat":35.625024,"lon":139.243244},{"name":"滝山自然公園","province":"東京都","city":"八王子市","address":"東京都八王子市高月町、丹木町二、三丁目","lat":35.701454,"lon":139.330101},{"name":"多摩丘陵自然公園","province":"東京都","city":"八王子市","address":"東京都八王子市、町田市、多摩市","lat":35.659984,"lon":139.41034},{"name":"秋川丘陵自然公園","province":"東京都","city":"八王子市","address":"東京都八王子市、あきる野市","lat":35.720824,"lon":139.231591},{"name":"小宮公園","province":"東京都","city":"八王子市","address":"東京都八王子市大谷町、暁町二丁目","lat":35.673446,"lon":139.340673},{"name":"滝山公園","province":"東京都","city":"八王子市","address":"東京都八王子市高月町、丹木町二、三丁目","lat":35.701454,"lon":139.330101},{"name":"長沼公園","province":"東京都","city":"八王子市","address":"東京都八王子市長沼町・下柚木・堀之内","lat":35.638301,"lon":139.368525},{"name":"平山城址公園","province":"東京都","city":"八王子市","address":"東京都八王子市堀之内","lat":35.647956,"lon":139.380848},{"name":"陵南公園","province":"東京都","city":"八王子市","address":"東京都八王子市長房町、東浅川町","lat":35.649066,"lon":139.289172},{"name":"久保田鉄鋼(株)","province":"東京都","city":"八王子市","address":"八王子市中野上町2-18-3","lat":35.669109,"lon":139.324997},{"name":"三弘紙業(株)  八王子営業所","province":"東京都","city":"八王子市","address":"八王子市宮下町54-1","lat":35.703022,"lon":139.312744},{"name":"東京紙業(株)  多摩事業所","province":"東京都","city":"八王子市","address":"八王子市中野上町1-16-16","lat":35.667873,"lon":139.326584},{"name":"八王子容器(有)","province":"東京都","city":"八王子市","address":"八王子市西寺方町81-4","lat":35.67337,"lon":139.26532},{"name":"(有)長岡商店","province":"東京都","city":"八王子市","address":"八王子市上川町601-1","lat":35.704987,"lon":139.248047},{"name":"八王子資源化事業(協)","province":"東京都","city":"八王子市","address":"八王子市楢原町1452-1","lat":35.680737,"lon":139.30249},{"name":"(株)こんの","province":"東京都","city":"八王子市","address":"八王子市石川町2802","lat":35.674221,"lon":139.366211},{"name":"(有)西田商店","province":"東京都","city":"八王子市","address":"八王子市戸吹町1891-3","lat":35.703228,"lon":139.295197},{"name":"(株)エコネット","province":"東京都","city":"八王子市","address":"八王子市犬目町776","lat":35.689659,"lon":139.307724},{"name":"(株)完山金属  高尾リサイクルセンター","province":"東京都","city":"八王子市","address":"八王子市南浅川町3952-1","lat":35.615612,"lon":139.244919},{"name":"(株)トーホー商事  丹木資源リサイクル事業所","province":"東京都","city":"八王子市","address":"八王子市丹木町1-570","lat":35.690018,"lon":139.333572}]}