{"keyword":"一覧","data":[{"name":"（クリエイトホール）\"","province":"東京都","city":"八王子市","address":"東京都八王子市東町5-6","lat":35.65857655,"lon":139.33998949},{"name":"石川市民センター","province":"東京都","city":"八王子市","address":"東京都八王子市石川町438","lat":35.68029124,"lon":139.36442002},{"name":"南大谷子ども・若者育成支援センター","province":"東京都","city":"八王子市","address":"東京都八王子市大谷町46-1","lat":35.66933398,"lon":139.35371573},{"name":"大横保健福祉センター","province":"東京都","city":"八王子市","address":"東京都八王子市大横町11-35","lat":35.66431726,"lon":139.32781535},{"name":"（八王子市こども科学館）\"","province":"東京都","city":"八王子市","address":"東京都八王子市大横町9-13","lat":35.66484498,"lon":139.327807},{"name":"大和田市民センター","province":"東京都","city":"八王子市","address":"東京都八王子市大和田町5丁目9-1","lat":35.66315131,"lon":139.35201885},{"name":"由木東市民センター","province":"東京都","city":"八王子市","address":"東京都八王子市鹿島111-1","lat":35.63421459,"lon":139.42155025},{"name":"松が谷子ども・若者育成支援センター鹿島分館","province":"東京都","city":"八王子市","address":"東京都八王子市鹿島2","lat":35.63301763,"lon":139.42671097},{"name":"加住市民センター","province":"東京都","city":"八王子市","address":"東京都八王子市加住町1丁目338","lat":35.69957151,"lon":139.32391723},{"name":"由井市民センター","province":"東京都","city":"八王子市","address":"東京都八王子市片倉町702-1","lat":35.64135632,"lon":139.34020396},{"name":"元八王子市民センター","province":"東京都","city":"八王子市","address":"東京都八王子市上壱分方町747-1","lat":35.68312511,"lon":139.28624597},{"name":"夕やけ小やけふれあいの里","province":"東京都","city":"八王子市","address":"東京都八王子市上恩方町2030","lat":35.66959833,"lon":139.2164327},{"name":"川口市民センター","province":"東京都","city":"八王子市","address":"東京都八王子市川口町3838","lat":35.68672505,"lon":139.29877535},{"name":"生涯学習センター川口分館","province":"東京都","city":"八王子市","address":"東京都八王子市川口町3838","lat":35.68672505,"lon":139.29877535},{"name":"川口子ども・若者育成支援センター","province":"東京都","city":"八王子市","address":"東京都八王子市川口町3974","lat":35.69268206,"lon":139.28217097},{"name":"北野事務所","province":"東京都","city":"八王子市","address":"東京都八王子市北野町549-5","lat":35.64602276,"lon":139.35309986},{"name":"北野子ども・若者育成支援センター","province":"東京都","city":"八王子市","address":"東京都八王子市北野町549-9","lat":35.64644771,"lon":139.35307485},{"name":"横山南市民センター","province":"東京都","city":"八王子市","address":"東京都八王子市椚田町137-3","lat":35.63377589,"lon":139.31052351},{"name":"由木子ども・若者育成支援センター","province":"東京都","city":"八王子市","address":"東京都八王子市越野692-1","lat":35.62934754,"lon":139.38438672},{"name":"子安市民センター","province":"東京都","city":"八王子市","address":"東京都八王子市子安町2丁目6-1","lat":35.65072757,"lon":139.34465045},{"name":"富士森体育館分館","province":"東京都","city":"八王子市","address":"東京都八王子市散田町2丁目37-1","lat":35.64897985,"lon":139.31924162},{"name":"由木中央市民センター","province":"東京都","city":"八王子市","address":"東京都八王子市下柚木2丁目10-6","lat":35.62696168,"lon":139.38275641},{"name":"富士森体育館","province":"東京都","city":"八王子市","address":"東京都八王子市台町2丁目3-7","lat":35.65041589,"lon":139.32258573},{"name":"台町市民センター","province":"東京都","city":"八王子市","address":"東京都八王子市台町3丁目20-1","lat":35.65504863,"lon":139.32010522},{"name":"元八王子子ども・若者育成支援センター","province":"東京都","city":"八王子市","address":"東京都八王子市大楽寺町508-3","lat":35.67178785,"lon":139.29656223},{"name":"浅川市民センター","province":"東京都","city":"八王子市","address":"東京都八王子市高尾町1652-1","lat":35.64360737,"lon":139.27689276},{"name":"戸吹湯ったり館","province":"東京都","city":"八王子市","address":"東京都八王子市戸吹町1798","lat":35.70214799,"lon":139.2944612},{"name":"中野子ども・若者育成支援センター","province":"東京都","city":"八王子市","address":"東京都八王子市中野山王3丁目6-27","lat":35.67456883,"lon":139.32535966},{"name":"中野市民センター","province":"東京都","city":"八王子市","address":"東京都八王子市中野町2726-7","lat":35.68171508,"lon":139.31857111},{"name":"八王子市甲の原体育館","province":"東京都","city":"八王子市","address":"東京都八王子市中野町2726-8","lat":35.68122345,"lon":139.31826282},{"name":"中郷子ども・若者育成支援センター長房分館","province":"東京都","city":"八王子市","address":"東京都八王子市長房町341","lat":35.65669511,"lon":139.29757937},{"name":"長房市民センター","province":"東京都","city":"八王子市","address":"東京都八王子市長房町506-2","lat":35.65040686,"lon":139.29530197},{"name":"中郷子ども・若者育成支援センター","province":"東京都","city":"八王子市","address":"東京都八王子市長房町891-2","lat":35.65348969,"lon":139.29069392},{"name":"恩方市民センター","province":"東京都","city":"八王子市","address":"東京都八王子市西寺方町260-4","lat":35.67396725,"lon":139.26872285},{"name":"エスフォルタアリーナ八王子","province":"東京都","city":"八王子市","address":"東京都八王子市狭間町1453-1","lat":35.63985811,"lon":139.29251929},{"name":"浅川子ども・若者育成支援センター","province":"東京都","city":"八王子市","address":"東京都八王子市初沢町1323","lat":35.63924134,"lon":139.28183972},{"name":"東浅川保健福祉センター","province":"東京都","city":"八王子市","address":"東京都八王子市東浅川町551-1","lat":35.64523516,"lon":139.29196356},{"name":"松が谷子ども・若者育成支援センター","province":"東京都","city":"八王子市","address":"東京都八王子市松が谷13","lat":35.6293483,"lon":139.41393162},{"name":"東京都立大学　南大沢キャンパス図書館","province":"東京都","city":"八王子市","address":"東京都八王子市南大沢1丁目1","lat":35.61654608,"lon":139.37719898},{"name":"生涯学習センター南大沢分館","province":"東京都","city":"八王子市","address":"東京都八王子市南大沢2丁目27","lat":35.61194113,"lon":139.37926012},{"name":"南大沢市民センター","province":"東京都","city":"八王子市","address":"東京都八王子市南大沢2丁目27","lat":35.61194113,"lon":139.37926012},{"name":"南大沢文化会館","province":"東京都","city":"八王子市","address":"東京都八王子市南大沢2丁目27","lat":35.61194113,"lon":139.37926012},{"name":"ガレリア・ユギ（イトーヨーカドー南大沢店）","province":"東京都","city":"八王子市","address":"東京都八王子市南大沢2丁目28-1","lat":35.61321042,"lon":139.37930729},{"name":"八王子市役所","province":"東京都","city":"八王子市","address":"東京都八王子市元本郷町3丁目24-1","lat":35.66650282,"lon":139.3160274},{"name":"館ヶ丘子ども・若者育成支援センター","province":"東京都","city":"八王子市","address":"東京都八王子市館町1097-57","lat":35.62823496,"lon":139.2877148},{"name":"北野環境学習センター（あったかホール）","province":"東京都","city":"八王子市","address":"東京都八王子市北野町596-3","lat":35.65532723,"lon":139.35342175},{"name":"東京都立大学　南大沢キャンパス","province":"東京都","city":"八王子市","address":"東京都八王子市南大沢1丁目1","lat":35.61654608,"lon":139.37719898}]}