{"keyword":"中核","data":[{"name":"八王子市保健所","province":"東京都","city":"八王子市","address":"東京都八王子市明神町3丁目19-2","lat":35.65675182,"lon":139.34245322},{"name":"八王子市大横保健福祉センター","province":"東京都","city":"八王子市","address":"東京都八王子市大横町11-35","lat":35.66431726,"lon":139.32781535},{"name":"八王子市東浅川保健福祉センター","province":"東京都","city":"八王子市","address":"東京都八王子市東浅川町551-1","lat":35.64523516,"lon":139.29196356},{"name":"八王子市南大沢保健福祉センター","province":"東京都","city":"八王子市","address":"東京都八王子市南大沢2丁目27","lat":35.61194113,"lon":139.37926012},{"name":"八王子市保健所","province":"東京都","city":"八王子市","address":"八王子市旭町13-18","lat":35.65695,"lon":139.34128},{"name":"八王子市南大沢保健福祉センター","province":"東京都","city":"八王子市","address":"八王子市南大沢2-27フレスコ南大沢公共施設棟1階","lat":35.611881,"lon":139.379471},{"name":"八王子市大横保健福祉センター","province":"東京都","city":"八王子市","address":"八王子市大横町11-35","lat":35.66379,"lon":139.329}]}