{"keyword":"伐採","data":[{"name":"東京医科大学八王子医療センター","province":"東京都","city":"八王子市","address":"東京都八王子市館町1163","lat":35.63195929,"lon":139.28900889},{"name":"東海大学八王子病院","province":"東京都","city":"八王子市","address":"東京都八王子市石川町1838","lat":35.67377242,"lon":139.35707362},{"name":"東海大学医学部付属八王子病院","province":"東京都","city":"八王子市","address":"東京都八王子市石川町1838","lat":35.67377242,"lon":139.35707362},{"name":"清川河川敷広場","province":"東京都","city":"八王子市","address":"東京都八王子市清川町19","lat":35.67043837,"lon":139.31111937},{"name":"滝が原運動場","province":"東京都","city":"八王子市","address":"東京都八王子市高月町2401","lat":35.70420999,"lon":139.32938606},{"name":"八王子市立由木中学校校庭","province":"東京都","city":"八王子市","address":"東京都八王子市下柚木2丁目34-2","lat":35.62702284,"lon":139.38510899},{"name":"西寺方グラウンド野球場","province":"東京都","city":"八王子市","address":"東京都八王子市西寺方町626","lat":35.68011387,"lon":139.27269728},{"name":"拓殖大学グラウンド","province":"東京都","city":"八王子市","address":"東京都八王子市館町815-1","lat":35.62907928,"lon":139.27986556},{"name":"共立女子学園グラウンド","province":"東京都","city":"八王子市","address":"東京都八王子市元八王子町1丁目710","lat":35.66072221,"lon":139.28961323},{"name":"東海大学八王子病院へリポート","province":"東京都","city":"八王子市","address":"東京都八王子市石川町1838","lat":35.67377242,"lon":139.35707362},{"name":"元横山２号河川敷広場","province":"東京都","city":"八王子市","address":"東京都八王子市田町4","lat":35.66624502,"lon":139.33558406},{"name":"八王子市立富士森公園陸上競技場","province":"東京都","city":"八王子市","address":"東京都八王子市台町2丁目2","lat":35.65092139,"lon":139.3227357},{"name":"八王子市立大塚公園運動場","province":"東京都","city":"八王子市","address":"東京都八王子市松が谷66","lat":35.63167023,"lon":139.41335657},{"name":"東京医科大学八王子医療センターへリポート","province":"東京都","city":"八王子市","address":"東京都八王子市館町1163","lat":35.63195929,"lon":139.28900889},{"name":"首都大学東京南大沢キャンパスグラウンド","province":"東京都","city":"八王子市","address":"東京都八王子市南大沢1丁目1","lat":35.61654608,"lon":139.37719898},{"name":"東京医科大学八王子医療センター","province":"東京都","city":"八王子市","address":"東京都八王子市館町1163","lat":35.63195929,"lon":139.28900889},{"name":"東海大学八王子病院","province":"東京都","city":"八王子市","address":"東京都八王子市石川町1838","lat":35.67377242,"lon":139.35707362},{"name":"東海大学医学部付属八王子病院","province":"東京都","city":"八王子市","address":"東京都八王子市石川町1838","lat":35.67377242,"lon":139.35707362},{"name":"清川河川敷広場","province":"東京都","city":"八王子市","address":"東京都八王子市清川町19","lat":35.67043837,"lon":139.31111937},{"name":"滝が原運動場","province":"東京都","city":"八王子市","address":"東京都八王子市高月町2401","lat":35.70420999,"lon":139.32938606},{"name":"八王子市立由木中学校校庭","province":"東京都","city":"八王子市","address":"東京都八王子市下柚木2丁目34-2","lat":35.62702284,"lon":139.38510899},{"name":"西寺方グラウンド野球場","province":"東京都","city":"八王子市","address":"東京都八王子市西寺方町626","lat":35.68011387,"lon":139.27269728},{"name":"拓殖大学グラウンド","province":"東京都","city":"八王子市","address":"東京都八王子市館町815-1","lat":35.62907928,"lon":139.27986556},{"name":"共立女子学園グラウンド","province":"東京都","city":"八王子市","address":"東京都八王子市元八王子町1丁目710","lat":35.66072221,"lon":139.28961323},{"name":"東海大学八王子病院へリポート","province":"東京都","city":"八王子市","address":"東京都八王子市石川町1838","lat":35.67377242,"lon":139.35707362},{"name":"元横山２号河川敷広場","province":"東京都","city":"八王子市","address":"東京都八王子市田町4","lat":35.66624502,"lon":139.33558406},{"name":"八王子市立富士森公園陸上競技場","province":"東京都","city":"八王子市","address":"東京都八王子市台町2丁目2","lat":35.65092139,"lon":139.3227357},{"name":"八王子市立大塚公園運動場","province":"東京都","city":"八王子市","address":"東京都八王子市松が谷66","lat":35.63167023,"lon":139.41335657},{"name":"東京医科大学八王子医療センターへリポート","province":"東京都","city":"八王子市","address":"東京都八王子市館町1163","lat":35.63195929,"lon":139.28900889},{"name":"首都大学東京南大沢キャンパスグラウンド","province":"東京都","city":"八王子市","address":"東京都八王子市南大沢1丁目1","lat":35.61654608,"lon":139.37719898},{"name":"東京医科大学八王子医療センター","province":"東京都","city":"八王子市","address":"東京都八王子市館町1163","lat":35.63195929,"lon":139.28900889},{"name":"東海大学八王子病院","province":"東京都","city":"八王子市","address":"東京都八王子市石川町1838","lat":35.67377242,"lon":139.35707362},{"name":"東海大学医学部付属八王子病院","province":"東京都","city":"八王子市","address":"東京都八王子市石川町1838","lat":35.67377242,"lon":139.35707362},{"name":"清川河川敷広場","province":"東京都","city":"八王子市","address":"東京都八王子市清川町19","lat":35.67043837,"lon":139.31111937},{"name":"滝が原運動場","province":"東京都","city":"八王子市","address":"東京都八王子市高月町2401","lat":35.70420999,"lon":139.32938606},{"name":"八王子市立由木中学校校庭","province":"東京都","city":"八王子市","address":"東京都八王子市下柚木2丁目34-2","lat":35.62702284,"lon":139.38510899},{"name":"西寺方グラウンド野球場","province":"東京都","city":"八王子市","address":"東京都八王子市西寺方町626","lat":35.68011387,"lon":139.27269728},{"name":"拓殖大学グラウンド","province":"東京都","city":"八王子市","address":"東京都八王子市館町815-1","lat":35.62907928,"lon":139.27986556},{"name":"共立女子学園グラウンド","province":"東京都","city":"八王子市","address":"東京都八王子市元八王子町1丁目710","lat":35.66072221,"lon":139.28961323},{"name":"東海大学八王子病院へリポート","province":"東京都","city":"八王子市","address":"東京都八王子市石川町1838","lat":35.67377242,"lon":139.35707362},{"name":"元横山２号河川敷広場","province":"東京都","city":"八王子市","address":"東京都八王子市田町4","lat":35.66624502,"lon":139.33558406},{"name":"八王子市立富士森公園陸上競技場","province":"東京都","city":"八王子市","address":"東京都八王子市台町2丁目2","lat":35.65092139,"lon":139.3227357},{"name":"八王子市立大塚公園運動場","province":"東京都","city":"八王子市","address":"東京都八王子市松が谷66","lat":35.63167023,"lon":139.41335657},{"name":"東京医科大学八王子医療センターへリポート","province":"東京都","city":"八王子市","address":"東京都八王子市館町1163","lat":35.63195929,"lon":139.28900889},{"name":"首都大学東京南大沢キャンパスグラウンド","province":"東京都","city":"八王子市","address":"東京都八王子市南大沢1丁目1","lat":35.61654608,"lon":139.37719898},{"name":"東京医科大学八王子医療センター","province":"東京都","city":"八王子市","address":"東京都八王子市館町1163","lat":35.63195929,"lon":139.28900889},{"name":"東海大学八王子病院","province":"東京都","city":"八王子市","address":"東京都八王子市石川町1838","lat":35.67377242,"lon":139.35707362},{"name":"東海大学医学部付属八王子病院","province":"東京都","city":"八王子市","address":"東京都八王子市石川町1838","lat":35.67377242,"lon":139.35707362},{"name":"東京医科大学八王子医療センター","province":"東京都","city":"八王子市","address":"東京都八王子市館町1163","lat":35.63195929,"lon":139.28900889},{"name":"東海大学八王子病院","province":"東京都","city":"八王子市","address":"東京都八王子市石川町1838","lat":35.67377242,"lon":139.35707362},{"name":"東海大学医学部付属八王子病院","province":"東京都","city":"八王子市","address":"東京都八王子市石川町1838","lat":35.67377242,"lon":139.35707362},{"name":"東京医科大学八王子医療センター","province":"東京都","city":"八王子市","address":"東京都八王子市館町1163","lat":35.63195929,"lon":139.28900889},{"name":"東海大学八王子病院","province":"東京都","city":"八王子市","address":"東京都八王子市石川町1838","lat":35.67377242,"lon":139.35707362},{"name":"東海大学医学部付属八王子病院","province":"東京都","city":"八王子市","address":"東京都八王子市石川町1838","lat":35.67377242,"lon":139.35707362},{"name":"東京医科大学八王子医療センター","province":"東京都","city":"八王子市","address":"東京都八王子市館町1163","lat":35.63195929,"lon":139.28900889},{"name":"東海大学八王子病院","province":"東京都","city":"八王子市","address":"東京都八王子市石川町1838","lat":35.67377242,"lon":139.35707362},{"name":"東海大学医学部付属八王子病院","province":"東京都","city":"八王子市","address":"東京都八王子市石川町1838","lat":35.67377242,"lon":139.35707362},{"name":"東京医科大学八王子医療センター","province":"東京都","city":"八王子市","address":"東京都八王子市館町1163","lat":35.63195929,"lon":139.28900889},{"name":"東海大学八王子病院","province":"東京都","city":"八王子市","address":"東京都八王子市石川町1838","lat":35.67377242,"lon":139.35707362},{"name":"東海大学医学部付属八王子病院","province":"東京都","city":"八王子市","address":"東京都八王子市石川町1838","lat":35.67377242,"lon":139.35707362},{"name":"東京医科大学八王子医療センター","province":"東京都","city":"八王子市","address":"東京都八王子市館町1163","lat":35.63195929,"lon":139.28900889},{"name":"東海大学八王子病院","province":"東京都","city":"八王子市","address":"東京都八王子市石川町1838","lat":35.67377242,"lon":139.35707362},{"name":"東海大学医学部付属八王子病院","province":"東京都","city":"八王子市","address":"東京都八王子市石川町1838","lat":35.67377242,"lon":139.35707362},{"name":"東京医科大学八王子医療センター","province":"東京都","city":"八王子市","address":"東京都八王子市館町1163","lat":35.63195929,"lon":139.28900889},{"name":"東海大学八王子病院","province":"東京都","city":"八王子市","address":"東京都八王子市石川町1838","lat":35.67377242,"lon":139.35707362},{"name":"東海大学医学部付属八王子病院","province":"東京都","city":"八王子市","address":"東京都八王子市石川町1838","lat":35.67377242,"lon":139.35707362},{"name":"東京医科大学八王子医療センター","province":"東京都","city":"八王子市","address":"東京都八王子市館町1163","lat":35.63195929,"lon":139.28900889},{"name":"東海大学八王子病院","province":"東京都","city":"八王子市","address":"東京都八王子市石川町1838","lat":35.67377242,"lon":139.35707362},{"name":"東海大学医学部付属八王子病院","province":"東京都","city":"八王子市","address":"東京都八王子市石川町1838","lat":35.67377242,"lon":139.35707362},{"name":"東京医科大学八王子医療センター","province":"東京都","city":"八王子市","address":"東京都八王子市館町1163","lat":35.63195929,"lon":139.28900889},{"name":"東海大学八王子病院","province":"東京都","city":"八王子市","address":"東京都八王子市石川町1838","lat":35.67377242,"lon":139.35707362},{"name":"東海大学医学部付属八王子病院","province":"東京都","city":"八王子市","address":"東京都八王子市石川町1838","lat":35.67377242,"lon":139.35707362},{"name":"東京医科大学八王子医療センター","province":"東京都","city":"八王子市","address":"東京都八王子市館町1163","lat":35.63195929,"lon":139.28900889},{"name":"東海大学八王子病院","province":"東京都","city":"八王子市","address":"東京都八王子市石川町1838","lat":35.67377242,"lon":139.35707362},{"name":"東海大学医学部付属八王子病院","province":"東京都","city":"八王子市","address":"東京都八王子市石川町1838","lat":35.67377242,"lon":139.35707362},{"name":"東京医科大学八王子医療センター","province":"東京都","city":"八王子市","address":"東京都八王子市館町1163","lat":35.63195929,"lon":139.28900889},{"name":"東海大学八王子病院","province":"東京都","city":"八王子市","address":"東京都八王子市石川町1838","lat":35.67377242,"lon":139.35707362},{"name":"東海大学医学部付属八王子病院","province":"東京都","city":"八王子市","address":"東京都八王子市石川町1838","lat":35.67377242,"lon":139.35707362},{"name":"東京医科大学八王子医療センター","province":"東京都","city":"八王子市","address":"東京都八王子市館町1163","lat":35.63195929,"lon":139.28900889},{"name":"東海大学八王子病院","province":"東京都","city":"八王子市","address":"東京都八王子市石川町1838","lat":35.67377242,"lon":139.35707362},{"name":"東海大学医学部付属八王子病院","province":"東京都","city":"八王子市","address":"東京都八王子市石川町1838","lat":35.67377242,"lon":139.35707362},{"name":"東京医科大学八王子医療センター","province":"東京都","city":"八王子市","address":"東京都八王子市館町1163","lat":35.63195929,"lon":139.28900889},{"name":"東海大学八王子病院","province":"東京都","city":"八王子市","address":"東京都八王子市石川町1838","lat":35.67377242,"lon":139.35707362},{"name":"東海大学医学部付属八王子病院","province":"東京都","city":"八王子市","address":"東京都八王子市石川町1838","lat":35.67377242,"lon":139.35707362},{"name":"東京医科大学八王子医療センター","province":"東京都","city":"八王子市","address":"東京都八王子市館町1163","lat":35.63195929,"lon":139.28900889},{"name":"東海大学八王子病院","province":"東京都","city":"八王子市","address":"東京都八王子市石川町1838","lat":35.67377242,"lon":139.35707362},{"name":"東海大学医学部付属八王子病院","province":"東京都","city":"八王子市","address":"東京都八王子市石川町1838","lat":35.67377242,"lon":139.35707362},{"name":"東京医科大学八王子医療センター","province":"東京都","city":"八王子市","address":"東京都八王子市館町1163","lat":35.63195929,"lon":139.28900889},{"name":"東海大学八王子病院","province":"東京都","city":"八王子市","address":"東京都八王子市石川町1838","lat":35.67377242,"lon":139.35707362},{"name":"東海大学医学部付属八王子病院","province":"東京都","city":"八王子市","address":"東京都八王子市石川町1838","lat":35.67377242,"lon":139.35707362},{"name":"東京医科大学八王子医療センター","province":"東京都","city":"八王子市","address":"東京都八王子市館町1163","lat":35.63195929,"lon":139.28900889},{"name":"東海大学八王子病院","province":"東京都","city":"八王子市","address":"東京都八王子市石川町1838","lat":35.67377242,"lon":139.35707362},{"name":"東海大学医学部付属八王子病院","province":"東京都","city":"八王子市","address":"東京都八王子市石川町1838","lat":35.67377242,"lon":139.35707362},{"name":"東京医科大学八王子医療センター","province":"東京都","city":"八王子市","address":"東京都八王子市館町1163","lat":35.63195929,"lon":139.28900889},{"name":"東海大学八王子病院","province":"東京都","city":"八王子市","address":"東京都八王子市石川町1838","lat":35.67377242,"lon":139.35707362},{"name":"東海大学医学部付属八王子病院","province":"東京都","city":"八王子市","address":"東京都八王子市石川町1838","lat":35.67377242,"lon":139.35707362},{"name":"東京医科大学八王子医療センター","province":"東京都","city":"八王子市","address":"東京都八王子市館町1163","lat":35.63195929,"lon":139.28900889},{"name":"東海大学八王子病院","province":"東京都","city":"八王子市","address":"東京都八王子市石川町1838","lat":35.67377242,"lon":139.35707362},{"name":"東海大学医学部付属八王子病院","province":"東京都","city":"八王子市","address":"東京都八王子市石川町1838","lat":35.67377242,"lon":139.35707362},{"name":"東京医科大学八王子医療センター","province":"東京都","city":"八王子市","address":"東京都八王子市館町1163","lat":35.63195929,"lon":139.28900889},{"name":"東海大学八王子病院","province":"東京都","city":"八王子市","address":"東京都八王子市石川町1838","lat":35.67377242,"lon":139.35707362},{"name":"東海大学医学部付属八王子病院","province":"東京都","city":"八王子市","address":"東京都八王子市石川町1838","lat":35.67377242,"lon":139.35707362},{"name":"東京医科大学八王子医療センター","province":"東京都","city":"八王子市","address":"東京都八王子市館町1163","lat":35.63195929,"lon":139.28900889},{"name":"東海大学八王子病院","province":"東京都","city":"八王子市","address":"東京都八王子市石川町1838","lat":35.67377242,"lon":139.35707362},{"name":"東海大学医学部付属八王子病院","province":"東京都","city":"八王子市","address":"東京都八王子市石川町1838","lat":35.67377242,"lon":139.35707362},{"name":"東京医科大学八王子医療センター","province":"東京都","city":"八王子市","address":"東京都八王子市館町1163","lat":35.63195929,"lon":139.28900889},{"name":"東海大学八王子病院","province":"東京都","city":"八王子市","address":"東京都八王子市石川町1838","lat":35.67377242,"lon":139.35707362},{"name":"東海大学医学部付属八王子病院","province":"東京都","city":"八王子市","address":"東京都八王子市石川町1838","lat":35.67377242,"lon":139.35707362},{"name":"東京医科大学八王子医療センター","province":"東京都","city":"八王子市","address":"東京都八王子市館町1163","lat":35.63195929,"lon":139.28900889},{"name":"東海大学八王子病院","province":"東京都","city":"八王子市","address":"東京都八王子市石川町1838","lat":35.67377242,"lon":139.35707362},{"name":"東海大学医学部付属八王子病院","province":"東京都","city":"八王子市","address":"東京都八王子市石川町1838","lat":35.67377242,"lon":139.35707362},{"name":"東京医科大学八王子医療センター","province":"東京都","city":"八王子市","address":"東京都八王子市館町1163","lat":35.63195929,"lon":139.28900889},{"name":"東海大学八王子病院","province":"東京都","city":"八王子市","address":"東京都八王子市石川町1838","lat":35.67377242,"lon":139.35707362},{"name":"東海大学医学部付属八王子病院","province":"東京都","city":"八王子市","address":"東京都八王子市石川町1838","lat":35.67377242,"lon":139.35707362},{"name":"東京医科大学八王子医療センター","province":"東京都","city":"八王子市","address":"東京都八王子市館町1163","lat":35.63195929,"lon":139.28900889},{"name":"東海大学八王子病院","province":"東京都","city":"八王子市","address":"東京都八王子市石川町1838","lat":35.67377242,"lon":139.35707362},{"name":"東海大学医学部付属八王子病院","province":"東京都","city":"八王子市","address":"東京都八王子市石川町1838","lat":35.67377242,"lon":139.35707362},{"name":"東京医科大学八王子医療センター","province":"東京都","city":"八王子市","address":"東京都八王子市館町1163","lat":35.63195929,"lon":139.28900889},{"name":"東海大学八王子病院","province":"東京都","city":"八王子市","address":"東京都八王子市石川町1838","lat":35.67377242,"lon":139.35707362},{"name":"東海大学医学部付属八王子病院","province":"東京都","city":"八王子市","address":"東京都八王子市石川町1838","lat":35.67377242,"lon":139.35707362},{"name":"東京医科大学八王子医療センター","province":"東京都","city":"八王子市","address":"東京都八王子市館町1163","lat":35.63195929,"lon":139.28900889},{"name":"東海大学八王子病院","province":"東京都","city":"八王子市","address":"東京都八王子市石川町1838","lat":35.67377242,"lon":139.35707362},{"name":"東海大学医学部付属八王子病院","province":"東京都","city":"八王子市","address":"東京都八王子市石川町1838","lat":35.67377242,"lon":139.35707362},{"name":"東京医科大学八王子医療センター","province":"東京都","city":"八王子市","address":"東京都八王子市館町1163","lat":35.63195929,"lon":139.28900889},{"name":"東海大学八王子病院","province":"東京都","city":"八王子市","address":"東京都八王子市石川町1838","lat":35.67377242,"lon":139.35707362},{"name":"東海大学医学部付属八王子病院","province":"東京都","city":"八王子市","address":"東京都八王子市石川町1838","lat":35.67377242,"lon":139.35707362},{"name":"東京医科大学八王子医療センター","province":"東京都","city":"八王子市","address":"東京都八王子市館町1163","lat":35.63195929,"lon":139.28900889},{"name":"東海大学八王子病院","province":"東京都","city":"八王子市","address":"東京都八王子市石川町1838","lat":35.67377242,"lon":139.35707362},{"name":"東海大学医学部付属八王子病院","province":"東京都","city":"八王子市","address":"東京都八王子市石川町1838","lat":35.67377242,"lon":139.35707362},{"name":"東京医科大学八王子医療センター","province":"東京都","city":"八王子市","address":"東京都八王子市館町1163","lat":35.63195929,"lon":139.28900889},{"name":"東海大学八王子病院","province":"東京都","city":"八王子市","address":"東京都八王子市石川町1838","lat":35.67377242,"lon":139.35707362},{"name":"東海大学医学部付属八王子病院","province":"東京都","city":"八王子市","address":"東京都八王子市石川町1838","lat":35.67377242,"lon":139.35707362},{"name":"東京医科大学八王子医療センター","province":"東京都","city":"八王子市","address":"東京都八王子市館町1163","lat":35.63195929,"lon":139.28900889},{"name":"東海大学八王子病院","province":"東京都","city":"八王子市","address":"東京都八王子市石川町1838","lat":35.67377242,"lon":139.35707362},{"name":"東海大学医学部付属八王子病院","province":"東京都","city":"八王子市","address":"東京都八王子市石川町1838","lat":35.67377242,"lon":139.35707362},{"name":"東京医科大学八王子医療センター","province":"東京都","city":"八王子市","address":"東京都八王子市館町1163","lat":35.63195929,"lon":139.28900889},{"name":"東海大学八王子病院","province":"東京都","city":"八王子市","address":"東京都八王子市石川町1838","lat":35.67377242,"lon":139.35707362},{"name":"東海大学医学部付属八王子病院","province":"東京都","city":"八王子市","address":"東京都八王子市石川町1838","lat":35.67377242,"lon":139.35707362},{"name":"東京医科大学八王子医療センター","province":"東京都","city":"八王子市","address":"東京都八王子市館町1163","lat":35.63195929,"lon":139.28900889},{"name":"東海大学八王子病院","province":"東京都","city":"八王子市","address":"東京都八王子市石川町1838","lat":35.67377242,"lon":139.35707362},{"name":"東海大学医学部付属八王子病院","province":"東京都","city":"八王子市","address":"東京都八王子市石川町1838","lat":35.67377242,"lon":139.35707362}]}