{"keyword":"保育","data":[{"name":"光明第七保育園","province":"東京都","city":"八王子市","address":"八王子市宮下町354","lat":35.705234,"lon":139.309127},{"name":"わらべうつき台保育園","province":"東京都","city":"八王子市","address":"八王子市久保山町1丁目21番","lat":35.68614,"lon":139.36044},{"name":"わらべ保育園","province":"東京都","city":"八王子市","address":"八王子市宇津木町832","lat":35.684935,"lon":139.349571},{"name":"石川保育園","province":"東京都","city":"八王子市","address":"八王子市石川町2966-8","lat":35.671195,"lon":139.361279},{"name":"敬愛高倉保育園","province":"東京都","city":"八王子市","address":"八王子市高倉町47-2","lat":35.66584,"lon":139.369323},{"name":"中野保育園","province":"東京都","city":"八王子市","address":"八王子市中野上町1-22-11","lat":35.666734,"lon":139.324816},{"name":"津久田保育園","province":"東京都","city":"八王子市","address":"八王子市中野山王3-22-3","lat":35.674299,"lon":139.320904},{"name":"富士見台保育園","province":"東京都","city":"八王子市","address":"八王子市富士見町21-1","lat":35.669242,"lon":139.345944},{"name":"愛光大和田保育園","province":"東京都","city":"八王子市","address":"八王子市大和田町5-9-4","lat":35.663257,"lon":139.351611},{"name":"省我保育園","province":"東京都","city":"八王子市","address":"八王子市大和田町7-6-17","lat":35.667373,"lon":139.342358},{"name":"南原台保育園","province":"東京都","city":"八王子市","address":"八王子市大和田町1-3-14","lat":35.664179,"lon":139.360937},{"name":"つくし保育園","province":"東京都","city":"八王子市","address":"八王子市明神町1丁目22番20号","lat":35.659099,"lon":139.347783},{"name":"船森保育園","province":"東京都","city":"八王子市","address":"八王子市明神町4-9-1","lat":35.658977,"lon":139.341975},{"name":"多賀保育園","province":"東京都","city":"八王子市","address":"八王子市元本郷町3-8-16","lat":35.663425,"lon":139.315294},{"name":"白百合ベビーホーム","province":"東京都","city":"八王子市","address":"八王子市元本郷町2-6-20","lat":35.663578,"lon":139.319269},{"name":"光明第一保育園","province":"東京都","city":"八王子市","address":"八王子市八木町8-11","lat":35.661784,"lon":139.320458},{"name":"静教保育園","province":"東京都","city":"八王子市","address":"八王子市元横山町3-19-13","lat":35.665259,"lon":139.333082},{"name":"まや保育園","province":"東京都","city":"八王子市","address":"八王子市寺町1","lat":35.657368,"lon":139.332304},{"name":"ベテル保育園","province":"東京都","city":"八王子市","address":"八王子市西寺方町716-2","lat":35.680142,"lon":139.274664},{"name":"恩方保育園","province":"東京都","city":"八王子市","address":"八王子市下恩方町1314","lat":35.671167,"lon":139.254438},{"name":"元木保育園","province":"東京都","city":"八王子市","address":"八王子市下恩方町595","lat":35.68053,"lon":139.267212},{"name":"めぐみ第一保育園","province":"東京都","city":"八王子市","address":"八王子市松が谷14","lat":35.629523,"lon":139.413982},{"name":"わらべ里山保育園","province":"東京都","city":"八王子市","address":"八王子市堀之内1200","lat":35.635839,"lon":139.388925},{"name":"駅前なかよし保育園第２","province":"東京都","city":"八王子市","address":"八王子市堀之内3-30-7","lat":35.626562,"lon":139.400391},{"name":"まつの木保育園","province":"東京都","city":"八王子市","address":"八王子市松木6-2","lat":35.627231,"lon":139.391003},{"name":"せいがの森こども園","province":"東京都","city":"八王子市","address":"八王子市別所1-73","lat":35.613111,"lon":139.39047},{"name":"このみ保育園","province":"東京都","city":"八王子市","address":"八王子市別所1-33-1","lat":35.618505,"lon":139.393636},{"name":"やまと第一保育園","province":"東京都","city":"八王子市","address":"八王子市別所2-32","lat":35.617816,"lon":139.397911},{"name":"駅前なかよし保育園第１","province":"東京都","city":"八王子市","address":"八王子市別所1-9-3","lat":35.623585,"lon":139.399322},{"name":"堀之内プチ・クレイシュ","province":"東京都","city":"八王子市","address":"八王子市別所2-2-1クレヴィア京王堀之内パークナードII2階","lat":35.624924,"lon":139.401683},{"name":"誠美保育園","province":"東京都","city":"八王子市","address":"八王子市南大沢5-12","lat":35.611274,"lon":139.370766},{"name":"南大沢保育園","province":"東京都","city":"八王子市","address":"八王子市南大沢4丁目11番地","lat":35.609586,"lon":139.378707},{"name":"由木あすなろ保育園","province":"東京都","city":"八王子市","address":"八王子市南大沢3-6-1","lat":35.608425,"lon":139.381818},{"name":"京王キッズプラッツ南大沢","province":"東京都","city":"八王子市","address":"八王子市南大沢2-27フレスコ南大沢内","lat":35.611941,"lon":139.37926},{"name":"なみのり第二保育園","province":"東京都","city":"八王子市","address":"八王子市下柚木3-5","lat":35.620512,"lon":139.379929},{"name":"由木保育園","province":"東京都","city":"八王子市","address":"八王子市下柚木15-1","lat":35.63037,"lon":139.383417},{"name":"敬愛フレンド保育園","province":"東京都","city":"八王子市","address":"八王子市上柚木3-7","lat":35.616463,"lon":139.370791},{"name":"光明第八保育園","province":"東京都","city":"八王子市","address":"八王子市上柚木3-13-2","lat":35.613927,"lon":139.368458},{"name":"めぐみ第二保育園","province":"東京都","city":"八王子市","address":"八王子市鑓水2-79","lat":35.611419,"lon":139.364336},{"name":"若葉の丘保育園","province":"東京都","city":"八王子市","address":"八王子市鑓水二丁目77番","lat":35.610166,"lon":139.361262},{"name":"よろず保育園","province":"東京都","city":"八王子市","address":"八王子市万町3番地1","lat":35.655038,"lon":139.334473},{"name":"子安保育園","province":"東京都","city":"八王子市","address":"八王子市子安町4-31-1","lat":35.652885,"lon":139.335754},{"name":"藤井保育園","province":"東京都","city":"八王子市","address":"八王子市子安町2-23-25","lat":35.648842,"lon":139.340481},{"name":"敬愛きたの保育園","province":"東京都","city":"八王子市","address":"八王子市北野町545-3きたのタウンビル3F","lat":35.645431,"lon":139.354764},{"name":"北野保育園","province":"東京都","city":"八王子市","address":"八王子市北野町570-12","lat":35.650028,"lon":139.354036},{"name":"打越保育園","province":"東京都","city":"八王子市","address":"八王子市長沼町793","lat":35.643334,"lon":139.363416},{"name":"北野ひなた保育園","province":"東京都","city":"八王子市","address":"八王子市打越町2003-4エントピア北野2階","lat":35.645398,"lon":139.351267},{"name":"由井さゆり保育園","province":"東京都","city":"八王子市","address":"八王子市片倉町2436","lat":35.641348,"lon":139.33854},{"name":"星の子保育園","province":"東京都","city":"八王子市","address":"八王子市片倉町704-14","lat":35.640809,"lon":139.341023},{"name":"さゆりの丘保育園","province":"東京都","city":"八王子市","address":"八王子市宇津貫町945","lat":35.627855,"lon":139.331914},{"name":"みなみ野保育園","province":"東京都","city":"八王子市","address":"八王子市みなみ野6-1-1","lat":35.630988,"lon":139.32397},{"name":"みなみ野さゆり保育園","province":"東京都","city":"八王子市","address":"八王子市七国五丁目14の1","lat":35.622897,"lon":139.31877},{"name":"みなみ野敬愛保育園","province":"東京都","city":"八王子市","address":"八王子市七国3-53-1","lat":35.61637,"lon":139.321459},{"name":"からまつ保育園","province":"東京都","city":"八王子市","address":"八王子市川口町1543","lat":35.68322,"lon":139.296842},{"name":"光明第三保育園","province":"東京都","city":"八王子市","address":"八王子市楢原町971","lat":35.682934,"lon":139.309405},{"name":"松枝保育園","province":"東京都","city":"八王子市","address":"八王子市諏訪町1922-1","lat":35.682289,"lon":139.293018},{"name":"諏訪保育園","province":"東京都","city":"八王子市","address":"八王子市諏訪町5","lat":35.677884,"lon":139.288815},{"name":"八王子隣保館","province":"東京都","city":"八王子市","address":"八王子市叶谷町1133","lat":35.671896,"lon":139.302884},{"name":"さつき保育園","province":"東京都","city":"八王子市","address":"八王子市大楽寺町347-1","lat":35.673401,"lon":139.29264},{"name":"元八王子保育園","province":"東京都","city":"八王子市","address":"八王子市弐分方町739","lat":35.670596,"lon":139.289318},{"name":"光明第四保育園","province":"東京都","city":"八王子市","address":"八王子市横川町603","lat":35.663033,"lon":139.302856},{"name":"長房西保育園","province":"東京都","city":"八王子市","address":"八王子市長房町588都営西8号棟","lat":35.654534,"lon":139.292327},{"name":"長房中央保育園","province":"東京都","city":"八王子市","address":"八王子市長房町588都営西29号棟","lat":35.654534,"lon":139.292327},{"name":"長房南保育園","province":"東京都","city":"八王子市","address":"八王子市長房町520都営54棟","lat":35.653445,"lon":139.295957},{"name":"城山保育園","province":"東京都","city":"八王子市","address":"八王子市元八王子町2-2025-2","lat":35.656042,"lon":139.280411},{"name":"たんぽぽ保育園","province":"東京都","city":"八王子市","address":"八王子市散田町5-17-20","lat":35.64946,"lon":139.304651},{"name":"敬愛保育園","province":"東京都","city":"八王子市","address":"八王子市散田町5-35-5","lat":35.647357,"lon":139.303607},{"name":"山田保育園","province":"東京都","city":"八王子市","address":"八王子市散田町2-46-11","lat":35.648102,"lon":139.316675},{"name":"敬愛クレヨン保育園","province":"東京都","city":"八王子市","address":"八王子市散田町5-8-20","lat":35.647988,"lon":139.298907},{"name":"敬愛シンフォニー保育園","province":"東京都","city":"八王子市","address":"八王子市散田町4-7-11","lat":35.65206,"lon":139.304537},{"name":"敬愛たかお保育園","province":"東京都","city":"八王子市","address":"八王子市東浅川町550-32","lat":35.644432,"lon":139.290011},{"name":"浅川保育園","province":"東京都","city":"八王子市","address":"八王子市東浅川町968","lat":35.64423,"lon":139.28617},{"name":"保育園コスモ・アレー","province":"東京都","city":"八王子市","address":"八王子市東浅川町709-1新都市はざま1階","lat":35.640219,"lon":139.294333},{"name":"千人保育園","province":"東京都","city":"八王子市","address":"八王子市千人町3-5-17","lat":35.658809,"lon":139.310078},{"name":"多摩文化保育園","province":"東京都","city":"八王子市","address":"八王子市千人町4-1-6","lat":35.654873,"lon":139.308767},{"name":"ピノキオ幼児舎西八王子保育園","province":"東京都","city":"八王子市","address":"八王子市千人町2-18-7","lat":35.657709,"lon":139.311539},{"name":"高尾保育園","province":"東京都","city":"八王子市","address":"八王子市高尾町1737","lat":35.643063,"lon":139.274407},{"name":"みころん保育園","province":"東京都","city":"八王子市","address":"八王子市初沢町1303オルタシア1F・2F","lat":35.63965,"lon":139.283017},{"name":"八王子ふたば保育園","province":"東京都","city":"八王子市","address":"八王子市台町4-4-14","lat":35.657721,"lon":139.32371},{"name":"わらべふじ森保育園","province":"東京都","city":"八王子市","address":"八王子市台町1-62-3","lat":35.651169,"lon":139.327233},{"name":"めじろ保育園","province":"東京都","city":"八王子市","address":"八王子市山田町1888-6","lat":35.641933,"lon":139.314026},{"name":"光明第五保育園","province":"東京都","city":"八王子市","address":"八王子市山田町1688-2","lat":35.641111,"lon":139.315953},{"name":"白百合椚田保育園","province":"東京都","city":"八王子市","address":"八王子市椚田町529-5","lat":35.636834,"lon":139.310979},{"name":"白百合寺田保育園","province":"東京都","city":"八王子市","address":"八王子市寺田町432-126","lat":35.623519,"lon":139.309374},{"name":"館ケ丘保育園","province":"東京都","city":"八王子市","address":"八王子市館町1097","lat":35.627063,"lon":139.287523},{"name":"八王子ひまわり保育園","province":"東京都","city":"八王子市","address":"八王子市館町1629","lat":35.632906,"lon":139.2989},{"name":"まごころ保育園","province":"東京都","city":"八王子市","address":"八王子市館町1097-96","lat":35.627402,"lon":139.287912}]}