{"keyword":"児童","data":[{"name":"今良学舎","province":"東京都","city":"八王子市","address":"八王子市暁町3-23-18","lat":35.67678,"lon":139.33917},{"name":"武蔵野児童学園","province":"東京都","city":"八王子市","address":"八王子市元八王子町2-1326","lat":35.66125,"lon":139.2829},{"name":"エスオーエスこどもの村","province":"東京都","city":"八王子市","address":"八王子市裏高尾町991","lat":35.63493,"lon":139.24884},{"name":"こどものうち八栄寮","province":"東京都","city":"八王子市","address":"八王子市館町2232-1","lat":35.63077,"lon":139.30614},{"name":"今良学舎","province":"東京都","city":"八王子市","address":"八王子市暁町3-23-18","lat":35.676788,"lon":139.338661},{"name":"武蔵野児童学園","province":"東京都","city":"八王子市","address":"八王子市元八王子町2-1326","lat":35.662732,"lon":139.282159},{"name":"エスオーエスこどもの村","province":"東京都","city":"八王子市","address":"八王子市裏高尾町991","lat":35.639108,"lon":139.253054},{"name":"こどものうち八栄寮","province":"東京都","city":"八王子市","address":"八王子市館町2232-1","lat":35.630301,"lon":139.305635},{"name":"武蔵野児童学園","province":"東京都","city":"八王子市","address":"八王子市元八王子町2-1326","lat":35.66126,"lon":139.2829}]}