{"keyword":"公共","data":[{"name":"明治の森高尾国定公園","province":"東京都","city":"八王子市","address":"東京都八王子市高尾町","lat":35.631366,"lon":139.26758},{"name":"高尾陣場自然公園","province":"東京都","city":"八王子市","address":"東京都八王子市高尾町","lat":35.625024,"lon":139.243244},{"name":"滝山自然公園","province":"東京都","city":"八王子市","address":"東京都八王子市高月町、丹木町二、三丁目","lat":35.701454,"lon":139.330101},{"name":"多摩丘陵自然公園","province":"東京都","city":"八王子市","address":"東京都八王子市、町田市、多摩市","lat":35.659984,"lon":139.41034},{"name":"秋川丘陵自然公園","province":"東京都","city":"八王子市","address":"東京都八王子市、あきる野市","lat":35.720824,"lon":139.231591},{"name":"小宮公園","province":"東京都","city":"八王子市","address":"東京都八王子市大谷町、暁町二丁目","lat":35.673446,"lon":139.340673},{"name":"滝山公園","province":"東京都","city":"八王子市","address":"東京都八王子市高月町、丹木町二、三丁目","lat":35.701454,"lon":139.330101},{"name":"長沼公園","province":"東京都","city":"八王子市","address":"東京都八王子市長沼町・下柚木・堀之内","lat":35.638301,"lon":139.368525},{"name":"平山城址公園","province":"東京都","city":"八王子市","address":"東京都八王子市堀之内","lat":35.647956,"lon":139.380848},{"name":"陵南公園","province":"東京都","city":"八王子市","address":"東京都八王子市長房町、東浅川町","lat":35.649066,"lon":139.289172}]}