{"keyword":"再生","data":[{"name":"久保田鉄鋼(株)","province":"東京都","city":"八王子市","address":"八王子市中野上町2-18-3","lat":35.669109,"lon":139.324997},{"name":"三弘紙業(株)  八王子営業所","province":"東京都","city":"八王子市","address":"八王子市宮下町54-1","lat":35.703022,"lon":139.312744},{"name":"東京紙業(株)  多摩事業所","province":"東京都","city":"八王子市","address":"八王子市中野上町1-16-16","lat":35.667873,"lon":139.326584},{"name":"八王子容器(有)","province":"東京都","city":"八王子市","address":"八王子市西寺方町81-4","lat":35.67337,"lon":139.26532},{"name":"(有)長岡商店","province":"東京都","city":"八王子市","address":"八王子市上川町601-1","lat":35.704987,"lon":139.248047},{"name":"八王子資源化事業(協)","province":"東京都","city":"八王子市","address":"八王子市楢原町1452-1","lat":35.680737,"lon":139.30249},{"name":"(株)こんの","province":"東京都","city":"八王子市","address":"八王子市石川町2802","lat":35.674221,"lon":139.366211},{"name":"(有)西田商店","province":"東京都","city":"八王子市","address":"八王子市戸吹町1891-3","lat":35.703228,"lon":139.295197},{"name":"(株)エコネット","province":"東京都","city":"八王子市","address":"八王子市犬目町776","lat":35.689659,"lon":139.307724},{"name":"(株)完山金属  高尾リサイクルセンター","province":"東京都","city":"八王子市","address":"八王子市南浅川町3952-1","lat":35.615612,"lon":139.244919},{"name":"(株)トーホー商事  丹木資源リサイクル事業所","province":"東京都","city":"八王子市","address":"八王子市丹木町1-570","lat":35.690018,"lon":139.333572}]}