{"keyword":"収蔵","data":[{"name":"鑓水給水所","province":"東京都","city":"八王子市","address":"東京都八王子市鑓水401","lat":35.6241461,"lon":139.349782},{"name":"西寺方給水所","province":"東京都","city":"八王子市","address":"東京都八王子市西寺方町1006-167","lat":35.68939,"lon":139.26638},{"name":"狭間給水所","province":"東京都","city":"八王子市","address":"東京都八王子市狭間町1994-478","lat":35.6302942,"lon":139.278766},{"name":"犬目第二給水所","province":"東京都","city":"八王子市","address":"東京都八王子市犬目町710","lat":35.6993634,"lon":139.302661},{"name":"高月給水所","province":"東京都","city":"八王子市","address":"東京都八王子市高月町2240","lat":35.7061,"lon":139.32019},{"name":"散田給水所","province":"東京都","city":"八王子市","address":"東京都八王子市散田町2-6-1","lat":35.651316,"lon":139.315081},{"name":"東浅川給水所","province":"東京都","city":"八王子市","address":"東京都八王子市東浅川町674","lat":35.6405654,"lon":139.299999},{"name":"寺田配水所","province":"東京都","city":"八王子市","address":"東京都八王子市寺田町1359-4","lat":35.616192,"lon":139.296856},{"name":"元八王子配水所","province":"東京都","city":"八王子市","address":"東京都八王子市元八王子町3-2750-487","lat":35.64726,"lon":139.26656},{"name":"北野給水所","province":"東京都","city":"八王子市","address":"東京都八王子市北野町595-3","lat":35.6538594,"lon":139.354989},{"name":"南陽台配水所","province":"東京都","city":"八王子市","address":"東京都八王子市南陽台3-5-1","lat":35.6364467,"lon":139.374855},{"name":"楢原給水所","province":"東京都","city":"八王子市","address":"東京都八王子市楢原町1294-3","lat":35.6772291,"lon":139.307184},{"name":"暁町配水所","province":"東京都","city":"八王子市","address":"東京都八王子市暁町3-3-1","lat":35.6746641,"lon":139.336637},{"name":"久保山配水所","province":"東京都","city":"八王子市","address":"東京都八王子市久保山町2-15-1","lat":35.6864664,"lon":139.352866},{"name":"大船給水所","province":"東京都","city":"八王子市","address":"東京都八王子市七国3-56-1","lat":35.616612,"lon":139.317224},{"name":"鑓水小山給水所","province":"東京都","city":"八王子市","address":"東京都八王子市鑓水2-92","lat":35.606811,"lon":139.361154},{"name":"南大沢給水所","province":"東京都","city":"八王子市","address":"東京都八王子市南大沢4-25","lat":35.603229,"lon":139.37947},{"name":"都立陵南公園","province":"東京都","city":"八王子市","address":"東京都八王子市長房町1572","lat":35.6490541,"lon":139.2897306},{"name":"椚田ポンプ所","province":"東京都","city":"八王子市","address":"東京都八王子市椚田町545","lat":35.635202,"lon":139.310873},{"name":"東京医科大学八王子医療センター","province":"東京都","city":"八王子市","address":"東京都八王子市館町1163","lat":35.63195929,"lon":139.28900889},{"name":"東海大学八王子病院","province":"東京都","city":"八王子市","address":"東京都八王子市石川町1838","lat":35.67377242,"lon":139.35707362},{"name":"鑓水給水所","province":"東京都","city":"八王子市","address":"東京都八王子市鑓水401","lat":35.62415583,"lon":139.34980654},{"name":"狭間給水所","province":"東京都","city":"八王子市","address":"東京都八王子市狭間町1994-478","lat":35.63029296,"lon":139.27876559},{"name":"犬目第二給水所","province":"東京都","city":"八王子市","address":"東京都八王子市犬目町710","lat":35.69936256,"lon":139.30266063},{"name":"散田給水所","province":"東京都","city":"八王子市","address":"東京都八王子市散田町2丁目6-1","lat":35.65135168,"lon":139.31473913},{"name":"東浅川給水所","province":"東京都","city":"八王子市","address":"東京都八王子市東浅川町674-42","lat":35.64237733,"lon":139.29781872},{"name":"元八王子配水所","province":"東京都","city":"八王子市","address":"東京都八王子市元八王子町3丁目2750-487","lat":35.64669566,"lon":139.26642416},{"name":"北野給水所","province":"東京都","city":"八王子市","address":"東京都八王子市北野町595-3","lat":35.65385799,"lon":139.35498833},{"name":"楢原給水所","province":"東京都","city":"八王子市","address":"東京都八王子市楢原町1294-3","lat":35.67707642,"lon":139.30724447},{"name":"暁町配水所","province":"東京都","city":"八王子市","address":"東京都八王子市暁町3丁目3-1","lat":35.67475519,"lon":139.3369892},{"name":"鑓水小山給水所","province":"東京都","city":"八王子市","address":"東京都八王子市鑓水2丁目92","lat":35.60622202,"lon":139.36017588},{"name":"東海大学医学部付属八王子病院","province":"東京都","city":"八王子市","address":"東京都八王子市石川町1838","lat":35.67377242,"lon":139.35707362},{"name":"清川河川敷広場","province":"東京都","city":"八王子市","address":"東京都八王子市清川町19","lat":35.67043837,"lon":139.31111937},{"name":"滝が原運動場","province":"東京都","city":"八王子市","address":"東京都八王子市高月町2401","lat":35.70420999,"lon":139.32938606},{"name":"八王子市立由木中学校校庭","province":"東京都","city":"八王子市","address":"東京都八王子市下柚木2丁目34-2","lat":35.62702284,"lon":139.38510899},{"name":"西寺方グラウンド野球場","province":"東京都","city":"八王子市","address":"東京都八王子市西寺方町626","lat":35.68011387,"lon":139.27269728},{"name":"拓殖大学グラウンド","province":"東京都","city":"八王子市","address":"東京都八王子市館町815-1","lat":35.62907928,"lon":139.27986556},{"name":"共立女子学園グラウンド","province":"東京都","city":"八王子市","address":"東京都八王子市元八王子町1丁目710","lat":35.66072221,"lon":139.28961323},{"name":"東海大学八王子病院へリポート","province":"東京都","city":"八王子市","address":"東京都八王子市石川町1838","lat":35.67377242,"lon":139.35707362},{"name":"元横山２号河川敷広場","province":"東京都","city":"八王子市","address":"東京都八王子市田町4","lat":35.66624502,"lon":139.33558406},{"name":"八王子市立富士森公園陸上競技場","province":"東京都","city":"八王子市","address":"東京都八王子市台町2丁目2","lat":35.65092139,"lon":139.3227357},{"name":"八王子市立大塚公園運動場","province":"東京都","city":"八王子市","address":"東京都八王子市松が谷66","lat":35.63167023,"lon":139.41335657},{"name":"東京医科大学八王子医療センターへリポート","province":"東京都","city":"八王子市","address":"東京都八王子市館町1163","lat":35.63195929,"lon":139.28900889},{"name":"首都大学東京南大沢キャンパスグラウンド","province":"東京都","city":"八王子市","address":"東京都八王子市南大沢1丁目1","lat":35.61654608,"lon":139.37719898},{"name":"鑓水給水所","province":"東京都","city":"八王子市","address":"東京都八王子市鑓水401","lat":35.6241461,"lon":139.349782},{"name":"西寺方給水所","province":"東京都","city":"八王子市","address":"東京都八王子市西寺方町1006-167","lat":35.68939,"lon":139.26638},{"name":"狭間給水所","province":"東京都","city":"八王子市","address":"東京都八王子市狭間町1994-478","lat":35.6302942,"lon":139.278766},{"name":"犬目第二給水所","province":"東京都","city":"八王子市","address":"東京都八王子市犬目町710","lat":35.6993634,"lon":139.302661},{"name":"高月給水所","province":"東京都","city":"八王子市","address":"東京都八王子市高月町2240","lat":35.7061,"lon":139.32019},{"name":"散田給水所","province":"東京都","city":"八王子市","address":"東京都八王子市散田町2-6-1","lat":35.651316,"lon":139.315081},{"name":"東浅川給水所","province":"東京都","city":"八王子市","address":"東京都八王子市東浅川町674","lat":35.6405654,"lon":139.299999},{"name":"寺田配水所","province":"東京都","city":"八王子市","address":"東京都八王子市寺田町1359-4","lat":35.616192,"lon":139.296856},{"name":"元八王子配水所","province":"東京都","city":"八王子市","address":"東京都八王子市元八王子町3-2750-487","lat":35.64726,"lon":139.26656},{"name":"北野給水所","province":"東京都","city":"八王子市","address":"東京都八王子市北野町595-3","lat":35.6538594,"lon":139.354989},{"name":"南陽台配水所","province":"東京都","city":"八王子市","address":"東京都八王子市南陽台3-5-1","lat":35.6364467,"lon":139.374855},{"name":"楢原給水所","province":"東京都","city":"八王子市","address":"東京都八王子市楢原町1294-3","lat":35.6772291,"lon":139.307184},{"name":"暁町配水所","province":"東京都","city":"八王子市","address":"東京都八王子市暁町3-3-1","lat":35.6746641,"lon":139.336637},{"name":"久保山配水所","province":"東京都","city":"八王子市","address":"東京都八王子市久保山町2-15-1","lat":35.6864664,"lon":139.352866},{"name":"大船給水所","province":"東京都","city":"八王子市","address":"東京都八王子市七国3-56-1","lat":35.616612,"lon":139.317224},{"name":"鑓水小山給水所","province":"東京都","city":"八王子市","address":"東京都八王子市鑓水2-92","lat":35.606811,"lon":139.361154},{"name":"南大沢給水所","province":"東京都","city":"八王子市","address":"東京都八王子市南大沢4-25","lat":35.603229,"lon":139.37947},{"name":"都立陵南公園","province":"東京都","city":"八王子市","address":"東京都八王子市長房町1572","lat":35.6490541,"lon":139.2897306},{"name":"椚田ポンプ所","province":"東京都","city":"八王子市","address":"東京都八王子市椚田町545","lat":35.635202,"lon":139.310873},{"name":"東京医科大学八王子医療センター","province":"東京都","city":"八王子市","address":"東京都八王子市館町1163","lat":35.63195929,"lon":139.28900889},{"name":"東海大学八王子病院","province":"東京都","city":"八王子市","address":"東京都八王子市石川町1838","lat":35.67377242,"lon":139.35707362},{"name":"鑓水給水所","province":"東京都","city":"八王子市","address":"東京都八王子市鑓水401","lat":35.62415583,"lon":139.34980654},{"name":"狭間給水所","province":"東京都","city":"八王子市","address":"東京都八王子市狭間町1994-478","lat":35.63029296,"lon":139.27876559},{"name":"犬目第二給水所","province":"東京都","city":"八王子市","address":"東京都八王子市犬目町710","lat":35.69936256,"lon":139.30266063},{"name":"散田給水所","province":"東京都","city":"八王子市","address":"東京都八王子市散田町2丁目6-1","lat":35.65135168,"lon":139.31473913},{"name":"東浅川給水所","province":"東京都","city":"八王子市","address":"東京都八王子市東浅川町674-42","lat":35.64237733,"lon":139.29781872},{"name":"元八王子配水所","province":"東京都","city":"八王子市","address":"東京都八王子市元八王子町3丁目2750-487","lat":35.64669566,"lon":139.26642416},{"name":"北野給水所","province":"東京都","city":"八王子市","address":"東京都八王子市北野町595-3","lat":35.65385799,"lon":139.35498833},{"name":"楢原給水所","province":"東京都","city":"八王子市","address":"東京都八王子市楢原町1294-3","lat":35.67707642,"lon":139.30724447},{"name":"暁町配水所","province":"東京都","city":"八王子市","address":"東京都八王子市暁町3丁目3-1","lat":35.67475519,"lon":139.3369892},{"name":"鑓水小山給水所","province":"東京都","city":"八王子市","address":"東京都八王子市鑓水2丁目92","lat":35.60622202,"lon":139.36017588},{"name":"東海大学医学部付属八王子病院","province":"東京都","city":"八王子市","address":"東京都八王子市石川町1838","lat":35.67377242,"lon":139.35707362},{"name":"清川河川敷広場","province":"東京都","city":"八王子市","address":"東京都八王子市清川町19","lat":35.67043837,"lon":139.31111937},{"name":"滝が原運動場","province":"東京都","city":"八王子市","address":"東京都八王子市高月町2401","lat":35.70420999,"lon":139.32938606},{"name":"八王子市立由木中学校校庭","province":"東京都","city":"八王子市","address":"東京都八王子市下柚木2丁目34-2","lat":35.62702284,"lon":139.38510899},{"name":"西寺方グラウンド野球場","province":"東京都","city":"八王子市","address":"東京都八王子市西寺方町626","lat":35.68011387,"lon":139.27269728},{"name":"拓殖大学グラウンド","province":"東京都","city":"八王子市","address":"東京都八王子市館町815-1","lat":35.62907928,"lon":139.27986556},{"name":"共立女子学園グラウンド","province":"東京都","city":"八王子市","address":"東京都八王子市元八王子町1丁目710","lat":35.66072221,"lon":139.28961323},{"name":"東海大学八王子病院へリポート","province":"東京都","city":"八王子市","address":"東京都八王子市石川町1838","lat":35.67377242,"lon":139.35707362},{"name":"元横山２号河川敷広場","province":"東京都","city":"八王子市","address":"東京都八王子市田町4","lat":35.66624502,"lon":139.33558406},{"name":"八王子市立富士森公園陸上競技場","province":"東京都","city":"八王子市","address":"東京都八王子市台町2丁目2","lat":35.65092139,"lon":139.3227357},{"name":"八王子市立大塚公園運動場","province":"東京都","city":"八王子市","address":"東京都八王子市松が谷66","lat":35.63167023,"lon":139.41335657},{"name":"東京医科大学八王子医療センターへリポート","province":"東京都","city":"八王子市","address":"東京都八王子市館町1163","lat":35.63195929,"lon":139.28900889},{"name":"首都大学東京南大沢キャンパスグラウンド","province":"東京都","city":"八王子市","address":"東京都八王子市南大沢1丁目1","lat":35.61654608,"lon":139.37719898},{"name":"鑓水給水所","province":"東京都","city":"八王子市","address":"東京都八王子市鑓水401","lat":35.6241461,"lon":139.349782},{"name":"西寺方給水所","province":"東京都","city":"八王子市","address":"東京都八王子市西寺方町1006-167","lat":35.68939,"lon":139.26638},{"name":"狭間給水所","province":"東京都","city":"八王子市","address":"東京都八王子市狭間町1994-478","lat":35.6302942,"lon":139.278766},{"name":"犬目第二給水所","province":"東京都","city":"八王子市","address":"東京都八王子市犬目町710","lat":35.6993634,"lon":139.302661},{"name":"高月給水所","province":"東京都","city":"八王子市","address":"東京都八王子市高月町2240","lat":35.7061,"lon":139.32019},{"name":"散田給水所","province":"東京都","city":"八王子市","address":"東京都八王子市散田町2-6-1","lat":35.651316,"lon":139.315081},{"name":"東浅川給水所","province":"東京都","city":"八王子市","address":"東京都八王子市東浅川町674","lat":35.6405654,"lon":139.299999},{"name":"寺田配水所","province":"東京都","city":"八王子市","address":"東京都八王子市寺田町1359-4","lat":35.616192,"lon":139.296856},{"name":"元八王子配水所","province":"東京都","city":"八王子市","address":"東京都八王子市元八王子町3-2750-487","lat":35.64726,"lon":139.26656},{"name":"北野給水所","province":"東京都","city":"八王子市","address":"東京都八王子市北野町595-3","lat":35.6538594,"lon":139.354989},{"name":"南陽台配水所","province":"東京都","city":"八王子市","address":"東京都八王子市南陽台3-5-1","lat":35.6364467,"lon":139.374855},{"name":"楢原給水所","province":"東京都","city":"八王子市","address":"東京都八王子市楢原町1294-3","lat":35.6772291,"lon":139.307184},{"name":"暁町配水所","province":"東京都","city":"八王子市","address":"東京都八王子市暁町3-3-1","lat":35.6746641,"lon":139.336637},{"name":"久保山配水所","province":"東京都","city":"八王子市","address":"東京都八王子市久保山町2-15-1","lat":35.6864664,"lon":139.352866},{"name":"大船給水所","province":"東京都","city":"八王子市","address":"東京都八王子市七国3-56-1","lat":35.616612,"lon":139.317224},{"name":"鑓水小山給水所","province":"東京都","city":"八王子市","address":"東京都八王子市鑓水2-92","lat":35.606811,"lon":139.361154},{"name":"南大沢給水所","province":"東京都","city":"八王子市","address":"東京都八王子市南大沢4-25","lat":35.603229,"lon":139.37947},{"name":"都立陵南公園","province":"東京都","city":"八王子市","address":"東京都八王子市長房町1572","lat":35.6490541,"lon":139.2897306},{"name":"椚田ポンプ所","province":"東京都","city":"八王子市","address":"東京都八王子市椚田町545","lat":35.635202,"lon":139.310873},{"name":"東京医科大学八王子医療センター","province":"東京都","city":"八王子市","address":"東京都八王子市館町1163","lat":35.63195929,"lon":139.28900889},{"name":"東海大学八王子病院","province":"東京都","city":"八王子市","address":"東京都八王子市石川町1838","lat":35.67377242,"lon":139.35707362},{"name":"鑓水給水所","province":"東京都","city":"八王子市","address":"東京都八王子市鑓水401","lat":35.62415583,"lon":139.34980654},{"name":"狭間給水所","province":"東京都","city":"八王子市","address":"東京都八王子市狭間町1994-478","lat":35.63029296,"lon":139.27876559},{"name":"犬目第二給水所","province":"東京都","city":"八王子市","address":"東京都八王子市犬目町710","lat":35.69936256,"lon":139.30266063},{"name":"散田給水所","province":"東京都","city":"八王子市","address":"東京都八王子市散田町2丁目6-1","lat":35.65135168,"lon":139.31473913},{"name":"東浅川給水所","province":"東京都","city":"八王子市","address":"東京都八王子市東浅川町674-42","lat":35.64237733,"lon":139.29781872},{"name":"元八王子配水所","province":"東京都","city":"八王子市","address":"東京都八王子市元八王子町3丁目2750-487","lat":35.64669566,"lon":139.26642416},{"name":"北野給水所","province":"東京都","city":"八王子市","address":"東京都八王子市北野町595-3","lat":35.65385799,"lon":139.35498833},{"name":"楢原給水所","province":"東京都","city":"八王子市","address":"東京都八王子市楢原町1294-3","lat":35.67707642,"lon":139.30724447},{"name":"暁町配水所","province":"東京都","city":"八王子市","address":"東京都八王子市暁町3丁目3-1","lat":35.67475519,"lon":139.3369892},{"name":"鑓水小山給水所","province":"東京都","city":"八王子市","address":"東京都八王子市鑓水2丁目92","lat":35.60622202,"lon":139.36017588},{"name":"東海大学医学部付属八王子病院","province":"東京都","city":"八王子市","address":"東京都八王子市石川町1838","lat":35.67377242,"lon":139.35707362},{"name":"清川河川敷広場","province":"東京都","city":"八王子市","address":"東京都八王子市清川町19","lat":35.67043837,"lon":139.31111937},{"name":"滝が原運動場","province":"東京都","city":"八王子市","address":"東京都八王子市高月町2401","lat":35.70420999,"lon":139.32938606},{"name":"八王子市立由木中学校校庭","province":"東京都","city":"八王子市","address":"東京都八王子市下柚木2丁目34-2","lat":35.62702284,"lon":139.38510899},{"name":"西寺方グラウンド野球場","province":"東京都","city":"八王子市","address":"東京都八王子市西寺方町626","lat":35.68011387,"lon":139.27269728},{"name":"拓殖大学グラウンド","province":"東京都","city":"八王子市","address":"東京都八王子市館町815-1","lat":35.62907928,"lon":139.27986556},{"name":"共立女子学園グラウンド","province":"東京都","city":"八王子市","address":"東京都八王子市元八王子町1丁目710","lat":35.66072221,"lon":139.28961323},{"name":"東海大学八王子病院へリポート","province":"東京都","city":"八王子市","address":"東京都八王子市石川町1838","lat":35.67377242,"lon":139.35707362},{"name":"元横山２号河川敷広場","province":"東京都","city":"八王子市","address":"東京都八王子市田町4","lat":35.66624502,"lon":139.33558406},{"name":"八王子市立富士森公園陸上競技場","province":"東京都","city":"八王子市","address":"東京都八王子市台町2丁目2","lat":35.65092139,"lon":139.3227357},{"name":"八王子市立大塚公園運動場","province":"東京都","city":"八王子市","address":"東京都八王子市松が谷66","lat":35.63167023,"lon":139.41335657},{"name":"東京医科大学八王子医療センターへリポート","province":"東京都","city":"八王子市","address":"東京都八王子市館町1163","lat":35.63195929,"lon":139.28900889},{"name":"首都大学東京南大沢キャンパスグラウンド","province":"東京都","city":"八王子市","address":"東京都八王子市南大沢1丁目1","lat":35.61654608,"lon":139.37719898},{"name":"鑓水給水所","province":"東京都","city":"八王子市","address":"東京都八王子市鑓水401","lat":35.6241461,"lon":139.349782},{"name":"西寺方給水所","province":"東京都","city":"八王子市","address":"東京都八王子市西寺方町1006-167","lat":35.68939,"lon":139.26638},{"name":"狭間給水所","province":"東京都","city":"八王子市","address":"東京都八王子市狭間町1994-478","lat":35.6302942,"lon":139.278766},{"name":"犬目第二給水所","province":"東京都","city":"八王子市","address":"東京都八王子市犬目町710","lat":35.6993634,"lon":139.302661},{"name":"高月給水所","province":"東京都","city":"八王子市","address":"東京都八王子市高月町2240","lat":35.7061,"lon":139.32019},{"name":"散田給水所","province":"東京都","city":"八王子市","address":"東京都八王子市散田町2-6-1","lat":35.651316,"lon":139.315081},{"name":"東浅川給水所","province":"東京都","city":"八王子市","address":"東京都八王子市東浅川町674","lat":35.6405654,"lon":139.299999},{"name":"寺田配水所","province":"東京都","city":"八王子市","address":"東京都八王子市寺田町1359-4","lat":35.616192,"lon":139.296856},{"name":"元八王子配水所","province":"東京都","city":"八王子市","address":"東京都八王子市元八王子町3-2750-487","lat":35.64726,"lon":139.26656},{"name":"北野給水所","province":"東京都","city":"八王子市","address":"東京都八王子市北野町595-3","lat":35.6538594,"lon":139.354989},{"name":"南陽台配水所","province":"東京都","city":"八王子市","address":"東京都八王子市南陽台3-5-1","lat":35.6364467,"lon":139.374855},{"name":"楢原給水所","province":"東京都","city":"八王子市","address":"東京都八王子市楢原町1294-3","lat":35.6772291,"lon":139.307184},{"name":"暁町配水所","province":"東京都","city":"八王子市","address":"東京都八王子市暁町3-3-1","lat":35.6746641,"lon":139.336637},{"name":"久保山配水所","province":"東京都","city":"八王子市","address":"東京都八王子市久保山町2-15-1","lat":35.6864664,"lon":139.352866},{"name":"大船給水所","province":"東京都","city":"八王子市","address":"東京都八王子市七国3-56-1","lat":35.616612,"lon":139.317224},{"name":"鑓水小山給水所","province":"東京都","city":"八王子市","address":"東京都八王子市鑓水2-92","lat":35.606811,"lon":139.361154},{"name":"南大沢給水所","province":"東京都","city":"八王子市","address":"東京都八王子市南大沢4-25","lat":35.603229,"lon":139.37947},{"name":"都立陵南公園","province":"東京都","city":"八王子市","address":"東京都八王子市長房町1572","lat":35.6490541,"lon":139.2897306},{"name":"椚田ポンプ所","province":"東京都","city":"八王子市","address":"東京都八王子市椚田町545","lat":35.635202,"lon":139.310873},{"name":"東京医科大学八王子医療センター","province":"東京都","city":"八王子市","address":"東京都八王子市館町1163","lat":35.63195929,"lon":139.28900889},{"name":"東海大学八王子病院","province":"東京都","city":"八王子市","address":"東京都八王子市石川町1838","lat":35.67377242,"lon":139.35707362},{"name":"東海大学医学部付属八王子病院","province":"東京都","city":"八王子市","address":"東京都八王子市石川町1838","lat":35.67377242,"lon":139.35707362},{"name":"清川河川敷広場","province":"東京都","city":"八王子市","address":"東京都八王子市清川町19","lat":35.67043837,"lon":139.31111937},{"name":"滝が原運動場","province":"東京都","city":"八王子市","address":"東京都八王子市高月町2401","lat":35.70420999,"lon":139.32938606},{"name":"八王子市立由木中学校校庭","province":"東京都","city":"八王子市","address":"東京都八王子市下柚木2丁目34-2","lat":35.62702284,"lon":139.38510899},{"name":"西寺方グラウンド野球場","province":"東京都","city":"八王子市","address":"東京都八王子市西寺方町626","lat":35.68011387,"lon":139.27269728},{"name":"拓殖大学グラウンド","province":"東京都","city":"八王子市","address":"東京都八王子市館町815-1","lat":35.62907928,"lon":139.27986556},{"name":"共立女子学園グラウンド","province":"東京都","city":"八王子市","address":"東京都八王子市元八王子町1丁目710","lat":35.66072221,"lon":139.28961323},{"name":"東海大学八王子病院へリポート","province":"東京都","city":"八王子市","address":"東京都八王子市石川町1838","lat":35.67377242,"lon":139.35707362},{"name":"元横山２号河川敷広場","province":"東京都","city":"八王子市","address":"東京都八王子市田町4","lat":35.66624502,"lon":139.33558406},{"name":"八王子市立富士森公園陸上競技場","province":"東京都","city":"八王子市","address":"東京都八王子市台町2丁目2","lat":35.65092139,"lon":139.3227357},{"name":"八王子市立大塚公園運動場","province":"東京都","city":"八王子市","address":"東京都八王子市松が谷66","lat":35.63167023,"lon":139.41335657},{"name":"東京医科大学八王子医療センターへリポート","province":"東京都","city":"八王子市","address":"東京都八王子市館町1163","lat":35.63195929,"lon":139.28900889},{"name":"首都大学東京南大沢キャンパスグラウンド","province":"東京都","city":"八王子市","address":"東京都八王子市南大沢1丁目1","lat":35.61654608,"lon":139.37719898},{"name":"鑓水給水所","province":"東京都","city":"八王子市","address":"東京都八王子市鑓水401","lat":35.6241461,"lon":139.349782},{"name":"西寺方給水所","province":"東京都","city":"八王子市","address":"東京都八王子市西寺方町1006-167","lat":35.68939,"lon":139.26638},{"name":"狭間給水所","province":"東京都","city":"八王子市","address":"東京都八王子市狭間町1994-478","lat":35.6302942,"lon":139.278766},{"name":"犬目第二給水所","province":"東京都","city":"八王子市","address":"東京都八王子市犬目町710","lat":35.6993634,"lon":139.302661},{"name":"高月給水所","province":"東京都","city":"八王子市","address":"東京都八王子市高月町2240","lat":35.7061,"lon":139.32019},{"name":"散田給水所","province":"東京都","city":"八王子市","address":"東京都八王子市散田町2-6-1","lat":35.651316,"lon":139.315081},{"name":"東浅川給水所","province":"東京都","city":"八王子市","address":"東京都八王子市東浅川町674","lat":35.6405654,"lon":139.299999},{"name":"寺田配水所","province":"東京都","city":"八王子市","address":"東京都八王子市寺田町1359-4","lat":35.616192,"lon":139.296856},{"name":"元八王子配水所","province":"東京都","city":"八王子市","address":"東京都八王子市元八王子町3-2750-487","lat":35.64726,"lon":139.26656},{"name":"北野給水所","province":"東京都","city":"八王子市","address":"東京都八王子市北野町595-3","lat":35.6538594,"lon":139.354989},{"name":"南陽台配水所","province":"東京都","city":"八王子市","address":"東京都八王子市南陽台3-5-1","lat":35.6364467,"lon":139.374855},{"name":"楢原給水所","province":"東京都","city":"八王子市","address":"東京都八王子市楢原町1294-3","lat":35.6772291,"lon":139.307184},{"name":"暁町配水所","province":"東京都","city":"八王子市","address":"東京都八王子市暁町3-3-1","lat":35.6746641,"lon":139.336637},{"name":"久保山配水所","province":"東京都","city":"八王子市","address":"東京都八王子市久保山町2-15-1","lat":35.6864664,"lon":139.352866},{"name":"大船給水所","province":"東京都","city":"八王子市","address":"東京都八王子市七国3-56-1","lat":35.616612,"lon":139.317224},{"name":"鑓水小山給水所","province":"東京都","city":"八王子市","address":"東京都八王子市鑓水2-92","lat":35.606811,"lon":139.361154},{"name":"南大沢給水所","province":"東京都","city":"八王子市","address":"東京都八王子市南大沢4-25","lat":35.603229,"lon":139.37947},{"name":"都立陵南公園","province":"東京都","city":"八王子市","address":"東京都八王子市長房町1572","lat":35.6490541,"lon":139.2897306},{"name":"椚田ポンプ所","province":"東京都","city":"八王子市","address":"東京都八王子市椚田町545","lat":35.635202,"lon":139.310873},{"name":"東京医科大学八王子医療センター","province":"東京都","city":"八王子市","address":"東京都八王子市館町1163","lat":35.63195929,"lon":139.28900889},{"name":"東海大学八王子病院","province":"東京都","city":"八王子市","address":"東京都八王子市石川町1838","lat":35.67377242,"lon":139.35707362},{"name":"東海大学医学部付属八王子病院","province":"東京都","city":"八王子市","address":"東京都八王子市石川町1838","lat":35.67377242,"lon":139.35707362},{"name":"鑓水給水所","province":"東京都","city":"八王子市","address":"東京都八王子市鑓水401","lat":35.6241461,"lon":139.349782},{"name":"西寺方給水所","province":"東京都","city":"八王子市","address":"東京都八王子市西寺方町1006-167","lat":35.68939,"lon":139.26638},{"name":"狭間給水所","province":"東京都","city":"八王子市","address":"東京都八王子市狭間町1994-478","lat":35.6302942,"lon":139.278766},{"name":"犬目第二給水所","province":"東京都","city":"八王子市","address":"東京都八王子市犬目町710","lat":35.6993634,"lon":139.302661},{"name":"高月給水所","province":"東京都","city":"八王子市","address":"東京都八王子市高月町2240","lat":35.7061,"lon":139.32019},{"name":"散田給水所","province":"東京都","city":"八王子市","address":"東京都八王子市散田町2-6-1","lat":35.651316,"lon":139.315081},{"name":"東浅川給水所","province":"東京都","city":"八王子市","address":"東京都八王子市東浅川町674","lat":35.6405654,"lon":139.299999},{"name":"寺田配水所","province":"東京都","city":"八王子市","address":"東京都八王子市寺田町1359-4","lat":35.616192,"lon":139.296856},{"name":"元八王子配水所","province":"東京都","city":"八王子市","address":"東京都八王子市元八王子町3-2750-487","lat":35.64726,"lon":139.26656},{"name":"北野給水所","province":"東京都","city":"八王子市","address":"東京都八王子市北野町595-3","lat":35.6538594,"lon":139.354989},{"name":"南陽台配水所","province":"東京都","city":"八王子市","address":"東京都八王子市南陽台3-5-1","lat":35.6364467,"lon":139.374855},{"name":"楢原給水所","province":"東京都","city":"八王子市","address":"東京都八王子市楢原町1294-3","lat":35.6772291,"lon":139.307184},{"name":"暁町配水所","province":"東京都","city":"八王子市","address":"東京都八王子市暁町3-3-1","lat":35.6746641,"lon":139.336637},{"name":"久保山配水所","province":"東京都","city":"八王子市","address":"東京都八王子市久保山町2-15-1","lat":35.6864664,"lon":139.352866},{"name":"大船給水所","province":"東京都","city":"八王子市","address":"東京都八王子市七国3-56-1","lat":35.616612,"lon":139.317224},{"name":"鑓水小山給水所","province":"東京都","city":"八王子市","address":"東京都八王子市鑓水2-92","lat":35.606811,"lon":139.361154},{"name":"南大沢給水所","province":"東京都","city":"八王子市","address":"東京都八王子市南大沢4-25","lat":35.603229,"lon":139.37947},{"name":"都立陵南公園","province":"東京都","city":"八王子市","address":"東京都八王子市長房町1572","lat":35.6490541,"lon":139.2897306},{"name":"椚田ポンプ所","province":"東京都","city":"八王子市","address":"東京都八王子市椚田町545","lat":35.635202,"lon":139.310873},{"name":"東京医科大学八王子医療センター","province":"東京都","city":"八王子市","address":"東京都八王子市館町1163","lat":35.63195929,"lon":139.28900889},{"name":"東海大学八王子病院","province":"東京都","city":"八王子市","address":"東京都八王子市石川町1838","lat":35.67377242,"lon":139.35707362},{"name":"東海大学医学部付属八王子病院","province":"東京都","city":"八王子市","address":"東京都八王子市石川町1838","lat":35.67377242,"lon":139.35707362},{"name":"鑓水給水所","province":"東京都","city":"八王子市","address":"東京都八王子市鑓水401","lat":35.6241461,"lon":139.349782},{"name":"西寺方給水所","province":"東京都","city":"八王子市","address":"東京都八王子市西寺方町1006-167","lat":35.68939,"lon":139.26638},{"name":"狭間給水所","province":"東京都","city":"八王子市","address":"東京都八王子市狭間町1994-478","lat":35.6302942,"lon":139.278766},{"name":"犬目第二給水所","province":"東京都","city":"八王子市","address":"東京都八王子市犬目町710","lat":35.6993634,"lon":139.302661},{"name":"高月給水所","province":"東京都","city":"八王子市","address":"東京都八王子市高月町2240","lat":35.7061,"lon":139.32019},{"name":"散田給水所","province":"東京都","city":"八王子市","address":"東京都八王子市散田町2-6-1","lat":35.651316,"lon":139.315081},{"name":"東浅川給水所","province":"東京都","city":"八王子市","address":"東京都八王子市東浅川町674","lat":35.6405654,"lon":139.299999},{"name":"寺田配水所","province":"東京都","city":"八王子市","address":"東京都八王子市寺田町1359-4","lat":35.616192,"lon":139.296856},{"name":"元八王子配水所","province":"東京都","city":"八王子市","address":"東京都八王子市元八王子町3-2750-487","lat":35.64726,"lon":139.26656},{"name":"北野給水所","province":"東京都","city":"八王子市","address":"東京都八王子市北野町595-3","lat":35.6538594,"lon":139.354989},{"name":"南陽台配水所","province":"東京都","city":"八王子市","address":"東京都八王子市南陽台3-5-1","lat":35.6364467,"lon":139.374855},{"name":"楢原給水所","province":"東京都","city":"八王子市","address":"東京都八王子市楢原町1294-3","lat":35.6772291,"lon":139.307184},{"name":"暁町配水所","province":"東京都","city":"八王子市","address":"東京都八王子市暁町3-3-1","lat":35.6746641,"lon":139.336637},{"name":"久保山配水所","province":"東京都","city":"八王子市","address":"東京都八王子市久保山町2-15-1","lat":35.6864664,"lon":139.352866},{"name":"大船給水所","province":"東京都","city":"八王子市","address":"東京都八王子市七国3-56-1","lat":35.616612,"lon":139.317224},{"name":"鑓水小山給水所","province":"東京都","city":"八王子市","address":"東京都八王子市鑓水2-92","lat":35.606811,"lon":139.361154},{"name":"南大沢給水所","province":"東京都","city":"八王子市","address":"東京都八王子市南大沢4-25","lat":35.603229,"lon":139.37947},{"name":"都立陵南公園","province":"東京都","city":"八王子市","address":"東京都八王子市長房町1572","lat":35.6490541,"lon":139.2897306},{"name":"椚田ポンプ所","province":"東京都","city":"八王子市","address":"東京都八王子市椚田町545","lat":35.635202,"lon":139.310873},{"name":"東京医科大学八王子医療センター","province":"東京都","city":"八王子市","address":"東京都八王子市館町1163","lat":35.63195929,"lon":139.28900889},{"name":"東海大学八王子病院","province":"東京都","city":"八王子市","address":"東京都八王子市石川町1838","lat":35.67377242,"lon":139.35707362},{"name":"東海大学医学部付属八王子病院","province":"東京都","city":"八王子市","address":"東京都八王子市石川町1838","lat":35.67377242,"lon":139.35707362},{"name":"鑓水給水所","province":"東京都","city":"八王子市","address":"東京都八王子市鑓水401","lat":35.6241461,"lon":139.349782},{"name":"西寺方給水所","province":"東京都","city":"八王子市","address":"東京都八王子市西寺方町1006-167","lat":35.68939,"lon":139.26638},{"name":"狭間給水所","province":"東京都","city":"八王子市","address":"東京都八王子市狭間町1994-478","lat":35.6302942,"lon":139.278766},{"name":"犬目第二給水所","province":"東京都","city":"八王子市","address":"東京都八王子市犬目町710","lat":35.6993634,"lon":139.302661},{"name":"高月給水所","province":"東京都","city":"八王子市","address":"東京都八王子市高月町2240","lat":35.7061,"lon":139.32019},{"name":"散田給水所","province":"東京都","city":"八王子市","address":"東京都八王子市散田町2-6-1","lat":35.651316,"lon":139.315081},{"name":"東浅川給水所","province":"東京都","city":"八王子市","address":"東京都八王子市東浅川町674","lat":35.6405654,"lon":139.299999},{"name":"寺田配水所","province":"東京都","city":"八王子市","address":"東京都八王子市寺田町1359-4","lat":35.616192,"lon":139.296856},{"name":"元八王子配水所","province":"東京都","city":"八王子市","address":"東京都八王子市元八王子町3-2750-487","lat":35.64726,"lon":139.26656},{"name":"北野給水所","province":"東京都","city":"八王子市","address":"東京都八王子市北野町595-3","lat":35.6538594,"lon":139.354989},{"name":"南陽台配水所","province":"東京都","city":"八王子市","address":"東京都八王子市南陽台3-5-1","lat":35.6364467,"lon":139.374855},{"name":"楢原給水所","province":"東京都","city":"八王子市","address":"東京都八王子市楢原町1294-3","lat":35.6772291,"lon":139.307184},{"name":"暁町配水所","province":"東京都","city":"八王子市","address":"東京都八王子市暁町3-3-1","lat":35.6746641,"lon":139.336637},{"name":"久保山配水所","province":"東京都","city":"八王子市","address":"東京都八王子市久保山町2-15-1","lat":35.6864664,"lon":139.352866},{"name":"大船給水所","province":"東京都","city":"八王子市","address":"東京都八王子市七国3-56-1","lat":35.616612,"lon":139.317224},{"name":"鑓水小山給水所","province":"東京都","city":"八王子市","address":"東京都八王子市鑓水2-92","lat":35.606811,"lon":139.361154},{"name":"南大沢給水所","province":"東京都","city":"八王子市","address":"東京都八王子市南大沢4-25","lat":35.603229,"lon":139.37947},{"name":"都立陵南公園","province":"東京都","city":"八王子市","address":"東京都八王子市長房町1572","lat":35.6490541,"lon":139.2897306},{"name":"椚田ポンプ所","province":"東京都","city":"八王子市","address":"東京都八王子市椚田町545","lat":35.635202,"lon":139.310873},{"name":"東京医科大学八王子医療センター","province":"東京都","city":"八王子市","address":"東京都八王子市館町1163","lat":35.63195929,"lon":139.28900889},{"name":"東海大学八王子病院","province":"東京都","city":"八王子市","address":"東京都八王子市石川町1838","lat":35.67377242,"lon":139.35707362},{"name":"東海大学医学部付属八王子病院","province":"東京都","city":"八王子市","address":"東京都八王子市石川町1838","lat":35.67377242,"lon":139.35707362},{"name":"鑓水給水所","province":"東京都","city":"八王子市","address":"東京都八王子市鑓水401","lat":35.6241461,"lon":139.349782},{"name":"西寺方給水所","province":"東京都","city":"八王子市","address":"東京都八王子市西寺方町1006-167","lat":35.68939,"lon":139.26638},{"name":"狭間給水所","province":"東京都","city":"八王子市","address":"東京都八王子市狭間町1994-478","lat":35.6302942,"lon":139.278766},{"name":"犬目第二給水所","province":"東京都","city":"八王子市","address":"東京都八王子市犬目町710","lat":35.6993634,"lon":139.302661},{"name":"高月給水所","province":"東京都","city":"八王子市","address":"東京都八王子市高月町2240","lat":35.7061,"lon":139.32019},{"name":"散田給水所","province":"東京都","city":"八王子市","address":"東京都八王子市散田町2-6-1","lat":35.651316,"lon":139.315081},{"name":"東浅川給水所","province":"東京都","city":"八王子市","address":"東京都八王子市東浅川町674","lat":35.6405654,"lon":139.299999},{"name":"寺田配水所","province":"東京都","city":"八王子市","address":"東京都八王子市寺田町1359-4","lat":35.616192,"lon":139.296856},{"name":"元八王子配水所","province":"東京都","city":"八王子市","address":"東京都八王子市元八王子町3-2750-487","lat":35.64726,"lon":139.26656},{"name":"北野給水所","province":"東京都","city":"八王子市","address":"東京都八王子市北野町595-3","lat":35.6538594,"lon":139.354989},{"name":"南陽台配水所","province":"東京都","city":"八王子市","address":"東京都八王子市南陽台3-5-1","lat":35.6364467,"lon":139.374855},{"name":"楢原給水所","province":"東京都","city":"八王子市","address":"東京都八王子市楢原町1294-3","lat":35.6772291,"lon":139.307184},{"name":"暁町配水所","province":"東京都","city":"八王子市","address":"東京都八王子市暁町3-3-1","lat":35.6746641,"lon":139.336637},{"name":"久保山配水所","province":"東京都","city":"八王子市","address":"東京都八王子市久保山町2-15-1","lat":35.6864664,"lon":139.352866},{"name":"大船給水所","province":"東京都","city":"八王子市","address":"東京都八王子市七国3-56-1","lat":35.616612,"lon":139.317224},{"name":"鑓水小山給水所","province":"東京都","city":"八王子市","address":"東京都八王子市鑓水2-92","lat":35.606811,"lon":139.361154},{"name":"南大沢給水所","province":"東京都","city":"八王子市","address":"東京都八王子市南大沢4-25","lat":35.603229,"lon":139.37947},{"name":"都立陵南公園","province":"東京都","city":"八王子市","address":"東京都八王子市長房町1572","lat":35.6490541,"lon":139.2897306},{"name":"椚田ポンプ所","province":"東京都","city":"八王子市","address":"東京都八王子市椚田町545","lat":35.635202,"lon":139.310873},{"name":"東京医科大学八王子医療センター","province":"東京都","city":"八王子市","address":"東京都八王子市館町1163","lat":35.63195929,"lon":139.28900889},{"name":"東海大学八王子病院","province":"東京都","city":"八王子市","address":"東京都八王子市石川町1838","lat":35.67377242,"lon":139.35707362},{"name":"東海大学医学部付属八王子病院","province":"東京都","city":"八王子市","address":"東京都八王子市石川町1838","lat":35.67377242,"lon":139.35707362},{"name":"鑓水給水所","province":"東京都","city":"八王子市","address":"東京都八王子市鑓水401","lat":35.6241461,"lon":139.349782},{"name":"西寺方給水所","province":"東京都","city":"八王子市","address":"東京都八王子市西寺方町1006-167","lat":35.68939,"lon":139.26638},{"name":"狭間給水所","province":"東京都","city":"八王子市","address":"東京都八王子市狭間町1994-478","lat":35.6302942,"lon":139.278766},{"name":"犬目第二給水所","province":"東京都","city":"八王子市","address":"東京都八王子市犬目町710","lat":35.6993634,"lon":139.302661},{"name":"高月給水所","province":"東京都","city":"八王子市","address":"東京都八王子市高月町2240","lat":35.7061,"lon":139.32019},{"name":"散田給水所","province":"東京都","city":"八王子市","address":"東京都八王子市散田町2-6-1","lat":35.651316,"lon":139.315081},{"name":"東浅川給水所","province":"東京都","city":"八王子市","address":"東京都八王子市東浅川町674","lat":35.6405654,"lon":139.299999},{"name":"寺田配水所","province":"東京都","city":"八王子市","address":"東京都八王子市寺田町1359-4","lat":35.616192,"lon":139.296856},{"name":"元八王子配水所","province":"東京都","city":"八王子市","address":"東京都八王子市元八王子町3-2750-487","lat":35.64726,"lon":139.26656},{"name":"北野給水所","province":"東京都","city":"八王子市","address":"東京都八王子市北野町595-3","lat":35.6538594,"lon":139.354989},{"name":"南陽台配水所","province":"東京都","city":"八王子市","address":"東京都八王子市南陽台3-5-1","lat":35.6364467,"lon":139.374855},{"name":"楢原給水所","province":"東京都","city":"八王子市","address":"東京都八王子市楢原町1294-3","lat":35.6772291,"lon":139.307184},{"name":"暁町配水所","province":"東京都","city":"八王子市","address":"東京都八王子市暁町3-3-1","lat":35.6746641,"lon":139.336637},{"name":"久保山配水所","province":"東京都","city":"八王子市","address":"東京都八王子市久保山町2-15-1","lat":35.6864664,"lon":139.352866},{"name":"大船給水所","province":"東京都","city":"八王子市","address":"東京都八王子市七国3-56-1","lat":35.616612,"lon":139.317224},{"name":"鑓水小山給水所","province":"東京都","city":"八王子市","address":"東京都八王子市鑓水2-92","lat":35.606811,"lon":139.361154},{"name":"南大沢給水所","province":"東京都","city":"八王子市","address":"東京都八王子市南大沢4-25","lat":35.603229,"lon":139.37947},{"name":"都立陵南公園","province":"東京都","city":"八王子市","address":"東京都八王子市長房町1572","lat":35.6490541,"lon":139.2897306},{"name":"椚田ポンプ所","province":"東京都","city":"八王子市","address":"東京都八王子市椚田町545","lat":35.635202,"lon":139.310873},{"name":"東京医科大学八王子医療センター","province":"東京都","city":"八王子市","address":"東京都八王子市館町1163","lat":35.63195929,"lon":139.28900889},{"name":"東海大学八王子病院","province":"東京都","city":"八王子市","address":"東京都八王子市石川町1838","lat":35.67377242,"lon":139.35707362},{"name":"東海大学医学部付属八王子病院","province":"東京都","city":"八王子市","address":"東京都八王子市石川町1838","lat":35.67377242,"lon":139.35707362},{"name":"鑓水給水所","province":"東京都","city":"八王子市","address":"東京都八王子市鑓水401","lat":35.6241461,"lon":139.349782},{"name":"西寺方給水所","province":"東京都","city":"八王子市","address":"東京都八王子市西寺方町1006-167","lat":35.68939,"lon":139.26638},{"name":"狭間給水所","province":"東京都","city":"八王子市","address":"東京都八王子市狭間町1994-478","lat":35.6302942,"lon":139.278766},{"name":"犬目第二給水所","province":"東京都","city":"八王子市","address":"東京都八王子市犬目町710","lat":35.6993634,"lon":139.302661},{"name":"高月給水所","province":"東京都","city":"八王子市","address":"東京都八王子市高月町2240","lat":35.7061,"lon":139.32019},{"name":"散田給水所","province":"東京都","city":"八王子市","address":"東京都八王子市散田町2-6-1","lat":35.651316,"lon":139.315081},{"name":"東浅川給水所","province":"東京都","city":"八王子市","address":"東京都八王子市東浅川町674","lat":35.6405654,"lon":139.299999},{"name":"寺田配水所","province":"東京都","city":"八王子市","address":"東京都八王子市寺田町1359-4","lat":35.616192,"lon":139.296856},{"name":"元八王子配水所","province":"東京都","city":"八王子市","address":"東京都八王子市元八王子町3-2750-487","lat":35.64726,"lon":139.26656},{"name":"北野給水所","province":"東京都","city":"八王子市","address":"東京都八王子市北野町595-3","lat":35.6538594,"lon":139.354989},{"name":"南陽台配水所","province":"東京都","city":"八王子市","address":"東京都八王子市南陽台3-5-1","lat":35.6364467,"lon":139.374855},{"name":"楢原給水所","province":"東京都","city":"八王子市","address":"東京都八王子市楢原町1294-3","lat":35.6772291,"lon":139.307184},{"name":"暁町配水所","province":"東京都","city":"八王子市","address":"東京都八王子市暁町3-3-1","lat":35.6746641,"lon":139.336637},{"name":"久保山配水所","province":"東京都","city":"八王子市","address":"東京都八王子市久保山町2-15-1","lat":35.6864664,"lon":139.352866},{"name":"大船給水所","province":"東京都","city":"八王子市","address":"東京都八王子市七国3-56-1","lat":35.616612,"lon":139.317224},{"name":"鑓水小山給水所","province":"東京都","city":"八王子市","address":"東京都八王子市鑓水2-92","lat":35.606811,"lon":139.361154},{"name":"南大沢給水所","province":"東京都","city":"八王子市","address":"東京都八王子市南大沢4-25","lat":35.603229,"lon":139.37947},{"name":"都立陵南公園","province":"東京都","city":"八王子市","address":"東京都八王子市長房町1572","lat":35.6490541,"lon":139.2897306},{"name":"椚田ポンプ所","province":"東京都","city":"八王子市","address":"東京都八王子市椚田町545","lat":35.635202,"lon":139.310873},{"name":"鑓水給水所","province":"東京都","city":"八王子市","address":"東京都八王子市鑓水401","lat":35.6241461,"lon":139.349782},{"name":"西寺方給水所","province":"東京都","city":"八王子市","address":"東京都八王子市西寺方町1006-167","lat":35.68939,"lon":139.26638},{"name":"狭間給水所","province":"東京都","city":"八王子市","address":"東京都八王子市狭間町1994-478","lat":35.6302942,"lon":139.278766},{"name":"犬目第二給水所","province":"東京都","city":"八王子市","address":"東京都八王子市犬目町710","lat":35.6993634,"lon":139.302661},{"name":"高月給水所","province":"東京都","city":"八王子市","address":"東京都八王子市高月町2240","lat":35.7061,"lon":139.32019},{"name":"散田給水所","province":"東京都","city":"八王子市","address":"東京都八王子市散田町2-6-1","lat":35.651316,"lon":139.315081},{"name":"東浅川給水所","province":"東京都","city":"八王子市","address":"東京都八王子市東浅川町674","lat":35.6405654,"lon":139.299999},{"name":"寺田配水所","province":"東京都","city":"八王子市","address":"東京都八王子市寺田町1359-4","lat":35.616192,"lon":139.296856},{"name":"元八王子配水所","province":"東京都","city":"八王子市","address":"東京都八王子市元八王子町3-2750-487","lat":35.64726,"lon":139.26656},{"name":"北野給水所","province":"東京都","city":"八王子市","address":"東京都八王子市北野町595-3","lat":35.6538594,"lon":139.354989},{"name":"南陽台配水所","province":"東京都","city":"八王子市","address":"東京都八王子市南陽台3-5-1","lat":35.6364467,"lon":139.374855},{"name":"楢原給水所","province":"東京都","city":"八王子市","address":"東京都八王子市楢原町1294-3","lat":35.6772291,"lon":139.307184},{"name":"暁町配水所","province":"東京都","city":"八王子市","address":"東京都八王子市暁町3-3-1","lat":35.6746641,"lon":139.336637},{"name":"久保山配水所","province":"東京都","city":"八王子市","address":"東京都八王子市久保山町2-15-1","lat":35.6864664,"lon":139.352866},{"name":"大船給水所","province":"東京都","city":"八王子市","address":"東京都八王子市七国3-56-1","lat":35.616612,"lon":139.317224},{"name":"鑓水小山給水所","province":"東京都","city":"八王子市","address":"東京都八王子市鑓水2-92","lat":35.606811,"lon":139.361154},{"name":"南大沢給水所","province":"東京都","city":"八王子市","address":"東京都八王子市南大沢4-25","lat":35.603229,"lon":139.37947},{"name":"都立陵南公園","province":"東京都","city":"八王子市","address":"東京都八王子市長房町1572","lat":35.6490541,"lon":139.2897306},{"name":"椚田ポンプ所","province":"東京都","city":"八王子市","address":"東京都八王子市椚田町545","lat":35.635202,"lon":139.310873},{"name":"鑓水給水所","province":"東京都","city":"八王子市","address":"東京都八王子市鑓水401","lat":35.6241461,"lon":139.349782},{"name":"西寺方給水所","province":"東京都","city":"八王子市","address":"東京都八王子市西寺方町1006-167","lat":35.68939,"lon":139.26638},{"name":"狭間給水所","province":"東京都","city":"八王子市","address":"東京都八王子市狭間町1994-478","lat":35.6302942,"lon":139.278766},{"name":"犬目第二給水所","province":"東京都","city":"八王子市","address":"東京都八王子市犬目町710","lat":35.6993634,"lon":139.302661},{"name":"高月給水所","province":"東京都","city":"八王子市","address":"東京都八王子市高月町2240","lat":35.7061,"lon":139.32019},{"name":"散田給水所","province":"東京都","city":"八王子市","address":"東京都八王子市散田町2-6-1","lat":35.651316,"lon":139.315081},{"name":"東浅川給水所","province":"東京都","city":"八王子市","address":"東京都八王子市東浅川町674","lat":35.6405654,"lon":139.299999},{"name":"寺田配水所","province":"東京都","city":"八王子市","address":"東京都八王子市寺田町1359-4","lat":35.616192,"lon":139.296856},{"name":"元八王子配水所","province":"東京都","city":"八王子市","address":"東京都八王子市元八王子町3-2750-487","lat":35.64726,"lon":139.26656},{"name":"北野給水所","province":"東京都","city":"八王子市","address":"東京都八王子市北野町595-3","lat":35.6538594,"lon":139.354989},{"name":"南陽台配水所","province":"東京都","city":"八王子市","address":"東京都八王子市南陽台3-5-1","lat":35.6364467,"lon":139.374855},{"name":"楢原給水所","province":"東京都","city":"八王子市","address":"東京都八王子市楢原町1294-3","lat":35.6772291,"lon":139.307184},{"name":"暁町配水所","province":"東京都","city":"八王子市","address":"東京都八王子市暁町3-3-1","lat":35.6746641,"lon":139.336637},{"name":"久保山配水所","province":"東京都","city":"八王子市","address":"東京都八王子市久保山町2-15-1","lat":35.6864664,"lon":139.352866},{"name":"大船給水所","province":"東京都","city":"八王子市","address":"東京都八王子市七国3-56-1","lat":35.616612,"lon":139.317224},{"name":"鑓水小山給水所","province":"東京都","city":"八王子市","address":"東京都八王子市鑓水2-92","lat":35.606811,"lon":139.361154},{"name":"南大沢給水所","province":"東京都","city":"八王子市","address":"東京都八王子市南大沢4-25","lat":35.603229,"lon":139.37947},{"name":"都立陵南公園","province":"東京都","city":"八王子市","address":"東京都八王子市長房町1572","lat":35.6490541,"lon":139.2897306},{"name":"椚田ポンプ所","province":"東京都","city":"八王子市","address":"東京都八王子市椚田町545","lat":35.635202,"lon":139.310873},{"name":"鑓水給水所","province":"東京都","city":"八王子市","address":"東京都八王子市鑓水401","lat":35.6241461,"lon":139.349782},{"name":"西寺方給水所","province":"東京都","city":"八王子市","address":"東京都八王子市西寺方町1006-167","lat":35.68939,"lon":139.26638},{"name":"狭間給水所","province":"東京都","city":"八王子市","address":"東京都八王子市狭間町1994-478","lat":35.6302942,"lon":139.278766},{"name":"犬目第二給水所","province":"東京都","city":"八王子市","address":"東京都八王子市犬目町710","lat":35.6993634,"lon":139.302661},{"name":"高月給水所","province":"東京都","city":"八王子市","address":"東京都八王子市高月町2240","lat":35.7061,"lon":139.32019},{"name":"散田給水所","province":"東京都","city":"八王子市","address":"東京都八王子市散田町2-6-1","lat":35.651316,"lon":139.315081},{"name":"東浅川給水所","province":"東京都","city":"八王子市","address":"東京都八王子市東浅川町674","lat":35.6405654,"lon":139.299999},{"name":"寺田配水所","province":"東京都","city":"八王子市","address":"東京都八王子市寺田町1359-4","lat":35.616192,"lon":139.296856},{"name":"元八王子配水所","province":"東京都","city":"八王子市","address":"東京都八王子市元八王子町3-2750-487","lat":35.64726,"lon":139.26656},{"name":"北野給水所","province":"東京都","city":"八王子市","address":"東京都八王子市北野町595-3","lat":35.6538594,"lon":139.354989},{"name":"南陽台配水所","province":"東京都","city":"八王子市","address":"東京都八王子市南陽台3-5-1","lat":35.6364467,"lon":139.374855},{"name":"楢原給水所","province":"東京都","city":"八王子市","address":"東京都八王子市楢原町1294-3","lat":35.6772291,"lon":139.307184},{"name":"暁町配水所","province":"東京都","city":"八王子市","address":"東京都八王子市暁町3-3-1","lat":35.6746641,"lon":139.336637},{"name":"久保山配水所","province":"東京都","city":"八王子市","address":"東京都八王子市久保山町2-15-1","lat":35.6864664,"lon":139.352866},{"name":"大船給水所","province":"東京都","city":"八王子市","address":"東京都八王子市七国3-56-1","lat":35.616612,"lon":139.317224},{"name":"鑓水小山給水所","province":"東京都","city":"八王子市","address":"東京都八王子市鑓水2-92","lat":35.606811,"lon":139.361154},{"name":"南大沢給水所","province":"東京都","city":"八王子市","address":"東京都八王子市南大沢4-25","lat":35.603229,"lon":139.37947},{"name":"都立陵南公園","province":"東京都","city":"八王子市","address":"東京都八王子市長房町1572","lat":35.6490541,"lon":139.2897306},{"name":"椚田ポンプ所","province":"東京都","city":"八王子市","address":"東京都八王子市椚田町545","lat":35.635202,"lon":139.310873},{"name":"鑓水給水所","province":"東京都","city":"八王子市","address":"東京都八王子市鑓水401","lat":35.6241461,"lon":139.349782},{"name":"西寺方給水所","province":"東京都","city":"八王子市","address":"東京都八王子市西寺方町1006-167","lat":35.68939,"lon":139.26638},{"name":"狭間給水所","province":"東京都","city":"八王子市","address":"東京都八王子市狭間町1994-478","lat":35.6302942,"lon":139.278766},{"name":"犬目第二給水所","province":"東京都","city":"八王子市","address":"東京都八王子市犬目町710","lat":35.6993634,"lon":139.302661},{"name":"高月給水所","province":"東京都","city":"八王子市","address":"東京都八王子市高月町2240","lat":35.7061,"lon":139.32019},{"name":"散田給水所","province":"東京都","city":"八王子市","address":"東京都八王子市散田町2-6-1","lat":35.651316,"lon":139.315081},{"name":"東浅川給水所","province":"東京都","city":"八王子市","address":"東京都八王子市東浅川町674","lat":35.6405654,"lon":139.299999},{"name":"寺田配水所","province":"東京都","city":"八王子市","address":"東京都八王子市寺田町1359-4","lat":35.616192,"lon":139.296856},{"name":"元八王子配水所","province":"東京都","city":"八王子市","address":"東京都八王子市元八王子町3-2750-487","lat":35.64726,"lon":139.26656},{"name":"北野給水所","province":"東京都","city":"八王子市","address":"東京都八王子市北野町595-3","lat":35.6538594,"lon":139.354989},{"name":"南陽台配水所","province":"東京都","city":"八王子市","address":"東京都八王子市南陽台3-5-1","lat":35.6364467,"lon":139.374855},{"name":"楢原給水所","province":"東京都","city":"八王子市","address":"東京都八王子市楢原町1294-3","lat":35.6772291,"lon":139.307184},{"name":"暁町配水所","province":"東京都","city":"八王子市","address":"東京都八王子市暁町3-3-1","lat":35.6746641,"lon":139.336637},{"name":"久保山配水所","province":"東京都","city":"八王子市","address":"東京都八王子市久保山町2-15-1","lat":35.6864664,"lon":139.352866},{"name":"大船給水所","province":"東京都","city":"八王子市","address":"東京都八王子市七国3-56-1","lat":35.616612,"lon":139.317224},{"name":"鑓水小山給水所","province":"東京都","city":"八王子市","address":"東京都八王子市鑓水2-92","lat":35.606811,"lon":139.361154},{"name":"南大沢給水所","province":"東京都","city":"八王子市","address":"東京都八王子市南大沢4-25","lat":35.603229,"lon":139.37947},{"name":"都立陵南公園","province":"東京都","city":"八王子市","address":"東京都八王子市長房町1572","lat":35.6490541,"lon":139.2897306},{"name":"椚田ポンプ所","province":"東京都","city":"八王子市","address":"東京都八王子市椚田町545","lat":35.635202,"lon":139.310873},{"name":"鑓水給水所","province":"東京都","city":"八王子市","address":"東京都八王子市鑓水401","lat":35.6241461,"lon":139.349782},{"name":"西寺方給水所","province":"東京都","city":"八王子市","address":"東京都八王子市西寺方町1006-167","lat":35.68939,"lon":139.26638},{"name":"狭間給水所","province":"東京都","city":"八王子市","address":"東京都八王子市狭間町1994-478","lat":35.6302942,"lon":139.278766},{"name":"犬目第二給水所","province":"東京都","city":"八王子市","address":"東京都八王子市犬目町710","lat":35.6993634,"lon":139.302661},{"name":"高月給水所","province":"東京都","city":"八王子市","address":"東京都八王子市高月町2240","lat":35.7061,"lon":139.32019},{"name":"散田給水所","province":"東京都","city":"八王子市","address":"東京都八王子市散田町2-6-1","lat":35.651316,"lon":139.315081},{"name":"東浅川給水所","province":"東京都","city":"八王子市","address":"東京都八王子市東浅川町674","lat":35.6405654,"lon":139.299999},{"name":"寺田配水所","province":"東京都","city":"八王子市","address":"東京都八王子市寺田町1359-4","lat":35.616192,"lon":139.296856},{"name":"元八王子配水所","province":"東京都","city":"八王子市","address":"東京都八王子市元八王子町3-2750-487","lat":35.64726,"lon":139.26656},{"name":"北野給水所","province":"東京都","city":"八王子市","address":"東京都八王子市北野町595-3","lat":35.6538594,"lon":139.354989},{"name":"南陽台配水所","province":"東京都","city":"八王子市","address":"東京都八王子市南陽台3-5-1","lat":35.6364467,"lon":139.374855},{"name":"楢原給水所","province":"東京都","city":"八王子市","address":"東京都八王子市楢原町1294-3","lat":35.6772291,"lon":139.307184},{"name":"暁町配水所","province":"東京都","city":"八王子市","address":"東京都八王子市暁町3-3-1","lat":35.6746641,"lon":139.336637},{"name":"久保山配水所","province":"東京都","city":"八王子市","address":"東京都八王子市久保山町2-15-1","lat":35.6864664,"lon":139.352866},{"name":"大船給水所","province":"東京都","city":"八王子市","address":"東京都八王子市七国3-56-1","lat":35.616612,"lon":139.317224},{"name":"鑓水小山給水所","province":"東京都","city":"八王子市","address":"東京都八王子市鑓水2-92","lat":35.606811,"lon":139.361154},{"name":"南大沢給水所","province":"東京都","city":"八王子市","address":"東京都八王子市南大沢4-25","lat":35.603229,"lon":139.37947},{"name":"都立陵南公園","province":"東京都","city":"八王子市","address":"東京都八王子市長房町1572","lat":35.6490541,"lon":139.2897306},{"name":"椚田ポンプ所","province":"東京都","city":"八王子市","address":"東京都八王子市椚田町545","lat":35.635202,"lon":139.310873},{"name":"鑓水給水所","province":"東京都","city":"八王子市","address":"東京都八王子市鑓水401","lat":35.6241461,"lon":139.349782},{"name":"西寺方給水所","province":"東京都","city":"八王子市","address":"東京都八王子市西寺方町1006-167","lat":35.68939,"lon":139.26638},{"name":"狭間給水所","province":"東京都","city":"八王子市","address":"東京都八王子市狭間町1994-478","lat":35.6302942,"lon":139.278766},{"name":"犬目第二給水所","province":"東京都","city":"八王子市","address":"東京都八王子市犬目町710","lat":35.6993634,"lon":139.302661},{"name":"高月給水所","province":"東京都","city":"八王子市","address":"東京都八王子市高月町2240","lat":35.7061,"lon":139.32019},{"name":"散田給水所","province":"東京都","city":"八王子市","address":"東京都八王子市散田町2-6-1","lat":35.651316,"lon":139.315081},{"name":"東浅川給水所","province":"東京都","city":"八王子市","address":"東京都八王子市東浅川町674","lat":35.6405654,"lon":139.299999},{"name":"寺田配水所","province":"東京都","city":"八王子市","address":"東京都八王子市寺田町1359-4","lat":35.616192,"lon":139.296856},{"name":"元八王子配水所","province":"東京都","city":"八王子市","address":"東京都八王子市元八王子町3-2750-487","lat":35.64726,"lon":139.26656},{"name":"北野給水所","province":"東京都","city":"八王子市","address":"東京都八王子市北野町595-3","lat":35.6538594,"lon":139.354989},{"name":"南陽台配水所","province":"東京都","city":"八王子市","address":"東京都八王子市南陽台3-5-1","lat":35.6364467,"lon":139.374855},{"name":"楢原給水所","province":"東京都","city":"八王子市","address":"東京都八王子市楢原町1294-3","lat":35.6772291,"lon":139.307184},{"name":"暁町配水所","province":"東京都","city":"八王子市","address":"東京都八王子市暁町3-3-1","lat":35.6746641,"lon":139.336637},{"name":"久保山配水所","province":"東京都","city":"八王子市","address":"東京都八王子市久保山町2-15-1","lat":35.6864664,"lon":139.352866},{"name":"大船給水所","province":"東京都","city":"八王子市","address":"東京都八王子市七国3-56-1","lat":35.616612,"lon":139.317224},{"name":"鑓水小山給水所","province":"東京都","city":"八王子市","address":"東京都八王子市鑓水2-92","lat":35.606811,"lon":139.361154},{"name":"南大沢給水所","province":"東京都","city":"八王子市","address":"東京都八王子市南大沢4-25","lat":35.603229,"lon":139.37947},{"name":"都立陵南公園","province":"東京都","city":"八王子市","address":"東京都八王子市長房町1572","lat":35.6490541,"lon":139.2897306},{"name":"椚田ポンプ所","province":"東京都","city":"八王子市","address":"東京都八王子市椚田町545","lat":35.635202,"lon":139.310873},{"name":"鑓水給水所","province":"東京都","city":"八王子市","address":"東京都八王子市鑓水401","lat":35.6241461,"lon":139.349782},{"name":"西寺方給水所","province":"東京都","city":"八王子市","address":"東京都八王子市西寺方町1006-167","lat":35.68939,"lon":139.26638},{"name":"狭間給水所","province":"東京都","city":"八王子市","address":"東京都八王子市狭間町1994-478","lat":35.6302942,"lon":139.278766},{"name":"犬目第二給水所","province":"東京都","city":"八王子市","address":"東京都八王子市犬目町710","lat":35.6993634,"lon":139.302661},{"name":"高月給水所","province":"東京都","city":"八王子市","address":"東京都八王子市高月町2240","lat":35.7061,"lon":139.32019},{"name":"散田給水所","province":"東京都","city":"八王子市","address":"東京都八王子市散田町2-6-1","lat":35.651316,"lon":139.315081},{"name":"東浅川給水所","province":"東京都","city":"八王子市","address":"東京都八王子市東浅川町674","lat":35.6405654,"lon":139.299999},{"name":"寺田配水所","province":"東京都","city":"八王子市","address":"東京都八王子市寺田町1359-4","lat":35.616192,"lon":139.296856},{"name":"元八王子配水所","province":"東京都","city":"八王子市","address":"東京都八王子市元八王子町3-2750-487","lat":35.64726,"lon":139.26656},{"name":"北野給水所","province":"東京都","city":"八王子市","address":"東京都八王子市北野町595-3","lat":35.6538594,"lon":139.354989},{"name":"南陽台配水所","province":"東京都","city":"八王子市","address":"東京都八王子市南陽台3-5-1","lat":35.6364467,"lon":139.374855},{"name":"楢原給水所","province":"東京都","city":"八王子市","address":"東京都八王子市楢原町1294-3","lat":35.6772291,"lon":139.307184},{"name":"暁町配水所","province":"東京都","city":"八王子市","address":"東京都八王子市暁町3-3-1","lat":35.6746641,"lon":139.336637},{"name":"久保山配水所","province":"東京都","city":"八王子市","address":"東京都八王子市久保山町2-15-1","lat":35.6864664,"lon":139.352866},{"name":"大船給水所","province":"東京都","city":"八王子市","address":"東京都八王子市七国3-56-1","lat":35.616612,"lon":139.317224},{"name":"鑓水小山給水所","province":"東京都","city":"八王子市","address":"東京都八王子市鑓水2-92","lat":35.606811,"lon":139.361154},{"name":"南大沢給水所","province":"東京都","city":"八王子市","address":"東京都八王子市南大沢4-25","lat":35.603229,"lon":139.37947},{"name":"都立陵南公園","province":"東京都","city":"八王子市","address":"東京都八王子市長房町1572","lat":35.6490541,"lon":139.2897306},{"name":"椚田ポンプ所","province":"東京都","city":"八王子市","address":"東京都八王子市椚田町545","lat":35.635202,"lon":139.310873},{"name":"鑓水給水所","province":"東京都","city":"八王子市","address":"東京都八王子市鑓水401","lat":35.6241461,"lon":139.349782},{"name":"西寺方給水所","province":"東京都","city":"八王子市","address":"東京都八王子市西寺方町1006-167","lat":35.68939,"lon":139.26638},{"name":"狭間給水所","province":"東京都","city":"八王子市","address":"東京都八王子市狭間町1994-478","lat":35.6302942,"lon":139.278766},{"name":"犬目第二給水所","province":"東京都","city":"八王子市","address":"東京都八王子市犬目町710","lat":35.6993634,"lon":139.302661},{"name":"高月給水所","province":"東京都","city":"八王子市","address":"東京都八王子市高月町2240","lat":35.7061,"lon":139.32019},{"name":"散田給水所","province":"東京都","city":"八王子市","address":"東京都八王子市散田町2-6-1","lat":35.651316,"lon":139.315081},{"name":"東浅川給水所","province":"東京都","city":"八王子市","address":"東京都八王子市東浅川町674","lat":35.6405654,"lon":139.299999},{"name":"寺田配水所","province":"東京都","city":"八王子市","address":"東京都八王子市寺田町1359-4","lat":35.616192,"lon":139.296856},{"name":"元八王子配水所","province":"東京都","city":"八王子市","address":"東京都八王子市元八王子町3-2750-487","lat":35.64726,"lon":139.26656},{"name":"北野給水所","province":"東京都","city":"八王子市","address":"東京都八王子市北野町595-3","lat":35.6538594,"lon":139.354989},{"name":"南陽台配水所","province":"東京都","city":"八王子市","address":"東京都八王子市南陽台3-5-1","lat":35.6364467,"lon":139.374855},{"name":"楢原給水所","province":"東京都","city":"八王子市","address":"東京都八王子市楢原町1294-3","lat":35.6772291,"lon":139.307184},{"name":"暁町配水所","province":"東京都","city":"八王子市","address":"東京都八王子市暁町3-3-1","lat":35.6746641,"lon":139.336637},{"name":"久保山配水所","province":"東京都","city":"八王子市","address":"東京都八王子市久保山町2-15-1","lat":35.6864664,"lon":139.352866},{"name":"大船給水所","province":"東京都","city":"八王子市","address":"東京都八王子市七国3-56-1","lat":35.616612,"lon":139.317224},{"name":"鑓水小山給水所","province":"東京都","city":"八王子市","address":"東京都八王子市鑓水2-92","lat":35.606811,"lon":139.361154},{"name":"南大沢給水所","province":"東京都","city":"八王子市","address":"東京都八王子市南大沢4-25","lat":35.603229,"lon":139.37947},{"name":"都立陵南公園","province":"東京都","city":"八王子市","address":"東京都八王子市長房町1572","lat":35.6490541,"lon":139.2897306},{"name":"椚田ポンプ所","province":"東京都","city":"八王子市","address":"東京都八王子市椚田町545","lat":35.635202,"lon":139.310873},{"name":"鑓水給水所","province":"東京都","city":"八王子市","address":"東京都八王子市鑓水401","lat":35.6241461,"lon":139.349782},{"name":"西寺方給水所","province":"東京都","city":"八王子市","address":"東京都八王子市西寺方町1006-167","lat":35.68939,"lon":139.26638},{"name":"狭間給水所","province":"東京都","city":"八王子市","address":"東京都八王子市狭間町1994-478","lat":35.6302942,"lon":139.278766},{"name":"犬目第二給水所","province":"東京都","city":"八王子市","address":"東京都八王子市犬目町710","lat":35.6993634,"lon":139.302661},{"name":"高月給水所","province":"東京都","city":"八王子市","address":"東京都八王子市高月町2240","lat":35.7061,"lon":139.32019},{"name":"散田給水所","province":"東京都","city":"八王子市","address":"東京都八王子市散田町2-6-1","lat":35.651316,"lon":139.315081},{"name":"東浅川給水所","province":"東京都","city":"八王子市","address":"東京都八王子市東浅川町674","lat":35.6405654,"lon":139.299999},{"name":"寺田配水所","province":"東京都","city":"八王子市","address":"東京都八王子市寺田町1359-4","lat":35.616192,"lon":139.296856},{"name":"元八王子配水所","province":"東京都","city":"八王子市","address":"東京都八王子市元八王子町3-2750-487","lat":35.64726,"lon":139.26656},{"name":"北野給水所","province":"東京都","city":"八王子市","address":"東京都八王子市北野町595-3","lat":35.6538594,"lon":139.354989},{"name":"南陽台配水所","province":"東京都","city":"八王子市","address":"東京都八王子市南陽台3-5-1","lat":35.6364467,"lon":139.374855},{"name":"楢原給水所","province":"東京都","city":"八王子市","address":"東京都八王子市楢原町1294-3","lat":35.6772291,"lon":139.307184},{"name":"暁町配水所","province":"東京都","city":"八王子市","address":"東京都八王子市暁町3-3-1","lat":35.6746641,"lon":139.336637},{"name":"久保山配水所","province":"東京都","city":"八王子市","address":"東京都八王子市久保山町2-15-1","lat":35.6864664,"lon":139.352866},{"name":"大船給水所","province":"東京都","city":"八王子市","address":"東京都八王子市七国3-56-1","lat":35.616612,"lon":139.317224},{"name":"鑓水小山給水所","province":"東京都","city":"八王子市","address":"東京都八王子市鑓水2-92","lat":35.606811,"lon":139.361154},{"name":"南大沢給水所","province":"東京都","city":"八王子市","address":"東京都八王子市南大沢4-25","lat":35.603229,"lon":139.37947},{"name":"都立陵南公園","province":"東京都","city":"八王子市","address":"東京都八王子市長房町1572","lat":35.6490541,"lon":139.2897306},{"name":"椚田ポンプ所","province":"東京都","city":"八王子市","address":"東京都八王子市椚田町545","lat":35.635202,"lon":139.310873},{"name":"鑓水給水所","province":"東京都","city":"八王子市","address":"東京都八王子市鑓水401","lat":35.6241461,"lon":139.349782},{"name":"西寺方給水所","province":"東京都","city":"八王子市","address":"東京都八王子市西寺方町1006-167","lat":35.68939,"lon":139.26638},{"name":"狭間給水所","province":"東京都","city":"八王子市","address":"東京都八王子市狭間町1994-478","lat":35.6302942,"lon":139.278766},{"name":"犬目第二給水所","province":"東京都","city":"八王子市","address":"東京都八王子市犬目町710","lat":35.6993634,"lon":139.302661},{"name":"高月給水所","province":"東京都","city":"八王子市","address":"東京都八王子市高月町2240","lat":35.7061,"lon":139.32019},{"name":"散田給水所","province":"東京都","city":"八王子市","address":"東京都八王子市散田町2-6-1","lat":35.651316,"lon":139.315081},{"name":"東浅川給水所","province":"東京都","city":"八王子市","address":"東京都八王子市東浅川町674","lat":35.6405654,"lon":139.299999},{"name":"寺田配水所","province":"東京都","city":"八王子市","address":"東京都八王子市寺田町1359-4","lat":35.616192,"lon":139.296856},{"name":"元八王子配水所","province":"東京都","city":"八王子市","address":"東京都八王子市元八王子町3-2750-487","lat":35.64726,"lon":139.26656},{"name":"北野給水所","province":"東京都","city":"八王子市","address":"東京都八王子市北野町595-3","lat":35.6538594,"lon":139.354989},{"name":"南陽台配水所","province":"東京都","city":"八王子市","address":"東京都八王子市南陽台3-5-1","lat":35.6364467,"lon":139.374855},{"name":"楢原給水所","province":"東京都","city":"八王子市","address":"東京都八王子市楢原町1294-3","lat":35.6772291,"lon":139.307184},{"name":"暁町配水所","province":"東京都","city":"八王子市","address":"東京都八王子市暁町3-3-1","lat":35.6746641,"lon":139.336637},{"name":"久保山配水所","province":"東京都","city":"八王子市","address":"東京都八王子市久保山町2-15-1","lat":35.6864664,"lon":139.352866},{"name":"大船給水所","province":"東京都","city":"八王子市","address":"東京都八王子市七国3-56-1","lat":35.616612,"lon":139.317224},{"name":"鑓水小山給水所","province":"東京都","city":"八王子市","address":"東京都八王子市鑓水2-92","lat":35.606811,"lon":139.361154},{"name":"南大沢給水所","province":"東京都","city":"八王子市","address":"東京都八王子市南大沢4-25","lat":35.603229,"lon":139.37947},{"name":"都立陵南公園","province":"東京都","city":"八王子市","address":"東京都八王子市長房町1572","lat":35.6490541,"lon":139.2897306},{"name":"椚田ポンプ所","province":"東京都","city":"八王子市","address":"東京都八王子市椚田町545","lat":35.635202,"lon":139.310873},{"name":"鑓水給水所","province":"東京都","city":"八王子市","address":"東京都八王子市鑓水401","lat":35.6241461,"lon":139.349782},{"name":"西寺方給水所","province":"東京都","city":"八王子市","address":"東京都八王子市西寺方町1006-167","lat":35.68939,"lon":139.26638},{"name":"狭間給水所","province":"東京都","city":"八王子市","address":"東京都八王子市狭間町1994-478","lat":35.6302942,"lon":139.278766},{"name":"犬目第二給水所","province":"東京都","city":"八王子市","address":"東京都八王子市犬目町710","lat":35.6993634,"lon":139.302661},{"name":"高月給水所","province":"東京都","city":"八王子市","address":"東京都八王子市高月町2240","lat":35.7061,"lon":139.32019},{"name":"散田給水所","province":"東京都","city":"八王子市","address":"東京都八王子市散田町2-6-1","lat":35.651316,"lon":139.315081},{"name":"東浅川給水所","province":"東京都","city":"八王子市","address":"東京都八王子市東浅川町674","lat":35.6405654,"lon":139.299999},{"name":"寺田配水所","province":"東京都","city":"八王子市","address":"東京都八王子市寺田町1359-4","lat":35.616192,"lon":139.296856},{"name":"元八王子配水所","province":"東京都","city":"八王子市","address":"東京都八王子市元八王子町3-2750-487","lat":35.64726,"lon":139.26656},{"name":"北野給水所","province":"東京都","city":"八王子市","address":"東京都八王子市北野町595-3","lat":35.6538594,"lon":139.354989},{"name":"南陽台配水所","province":"東京都","city":"八王子市","address":"東京都八王子市南陽台3-5-1","lat":35.6364467,"lon":139.374855},{"name":"楢原給水所","province":"東京都","city":"八王子市","address":"東京都八王子市楢原町1294-3","lat":35.6772291,"lon":139.307184},{"name":"暁町配水所","province":"東京都","city":"八王子市","address":"東京都八王子市暁町3-3-1","lat":35.6746641,"lon":139.336637},{"name":"久保山配水所","province":"東京都","city":"八王子市","address":"東京都八王子市久保山町2-15-1","lat":35.6864664,"lon":139.352866},{"name":"大船給水所","province":"東京都","city":"八王子市","address":"東京都八王子市七国3-56-1","lat":35.616612,"lon":139.317224},{"name":"鑓水小山給水所","province":"東京都","city":"八王子市","address":"東京都八王子市鑓水2-92","lat":35.606811,"lon":139.361154},{"name":"南大沢給水所","province":"東京都","city":"八王子市","address":"東京都八王子市南大沢4-25","lat":35.603229,"lon":139.37947},{"name":"都立陵南公園","province":"東京都","city":"八王子市","address":"東京都八王子市長房町1572","lat":35.6490541,"lon":139.2897306},{"name":"椚田ポンプ所","province":"東京都","city":"八王子市","address":"東京都八王子市椚田町545","lat":35.635202,"lon":139.310873},{"name":"鑓水給水所","province":"東京都","city":"八王子市","address":"東京都八王子市鑓水401","lat":35.6241461,"lon":139.349782},{"name":"西寺方給水所","province":"東京都","city":"八王子市","address":"東京都八王子市西寺方町1006-167","lat":35.68939,"lon":139.26638},{"name":"狭間給水所","province":"東京都","city":"八王子市","address":"東京都八王子市狭間町1994-478","lat":35.6302942,"lon":139.278766},{"name":"犬目第二給水所","province":"東京都","city":"八王子市","address":"東京都八王子市犬目町710","lat":35.6993634,"lon":139.302661},{"name":"高月給水所","province":"東京都","city":"八王子市","address":"東京都八王子市高月町2240","lat":35.7061,"lon":139.32019},{"name":"散田給水所","province":"東京都","city":"八王子市","address":"東京都八王子市散田町2-6-1","lat":35.651316,"lon":139.315081},{"name":"東浅川給水所","province":"東京都","city":"八王子市","address":"東京都八王子市東浅川町674","lat":35.6405654,"lon":139.299999},{"name":"寺田配水所","province":"東京都","city":"八王子市","address":"東京都八王子市寺田町1359-4","lat":35.616192,"lon":139.296856},{"name":"元八王子配水所","province":"東京都","city":"八王子市","address":"東京都八王子市元八王子町3-2750-487","lat":35.64726,"lon":139.26656},{"name":"北野給水所","province":"東京都","city":"八王子市","address":"東京都八王子市北野町595-3","lat":35.6538594,"lon":139.354989},{"name":"南陽台配水所","province":"東京都","city":"八王子市","address":"東京都八王子市南陽台3-5-1","lat":35.6364467,"lon":139.374855},{"name":"楢原給水所","province":"東京都","city":"八王子市","address":"東京都八王子市楢原町1294-3","lat":35.6772291,"lon":139.307184},{"name":"暁町配水所","province":"東京都","city":"八王子市","address":"東京都八王子市暁町3-3-1","lat":35.6746641,"lon":139.336637},{"name":"久保山配水所","province":"東京都","city":"八王子市","address":"東京都八王子市久保山町2-15-1","lat":35.6864664,"lon":139.352866},{"name":"大船給水所","province":"東京都","city":"八王子市","address":"東京都八王子市七国3-56-1","lat":35.616612,"lon":139.317224},{"name":"鑓水小山給水所","province":"東京都","city":"八王子市","address":"東京都八王子市鑓水2-92","lat":35.606811,"lon":139.361154},{"name":"南大沢給水所","province":"東京都","city":"八王子市","address":"東京都八王子市南大沢4-25","lat":35.603229,"lon":139.37947},{"name":"都立陵南公園","province":"東京都","city":"八王子市","address":"東京都八王子市長房町1572","lat":35.6490541,"lon":139.2897306},{"name":"椚田ポンプ所","province":"東京都","city":"八王子市","address":"東京都八王子市椚田町545","lat":35.635202,"lon":139.310873},{"name":"鑓水給水所","province":"東京都","city":"八王子市","address":"東京都八王子市鑓水401","lat":35.6241461,"lon":139.349782},{"name":"西寺方給水所","province":"東京都","city":"八王子市","address":"東京都八王子市西寺方町1006-167","lat":35.68939,"lon":139.26638},{"name":"狭間給水所","province":"東京都","city":"八王子市","address":"東京都八王子市狭間町1994-478","lat":35.6302942,"lon":139.278766},{"name":"犬目第二給水所","province":"東京都","city":"八王子市","address":"東京都八王子市犬目町710","lat":35.6993634,"lon":139.302661},{"name":"高月給水所","province":"東京都","city":"八王子市","address":"東京都八王子市高月町2240","lat":35.7061,"lon":139.32019},{"name":"散田給水所","province":"東京都","city":"八王子市","address":"東京都八王子市散田町2-6-1","lat":35.651316,"lon":139.315081},{"name":"東浅川給水所","province":"東京都","city":"八王子市","address":"東京都八王子市東浅川町674","lat":35.6405654,"lon":139.299999},{"name":"寺田配水所","province":"東京都","city":"八王子市","address":"東京都八王子市寺田町1359-4","lat":35.616192,"lon":139.296856},{"name":"元八王子配水所","province":"東京都","city":"八王子市","address":"東京都八王子市元八王子町3-2750-487","lat":35.64726,"lon":139.26656},{"name":"北野給水所","province":"東京都","city":"八王子市","address":"東京都八王子市北野町595-3","lat":35.6538594,"lon":139.354989},{"name":"南陽台配水所","province":"東京都","city":"八王子市","address":"東京都八王子市南陽台3-5-1","lat":35.6364467,"lon":139.374855},{"name":"楢原給水所","province":"東京都","city":"八王子市","address":"東京都八王子市楢原町1294-3","lat":35.6772291,"lon":139.307184},{"name":"暁町配水所","province":"東京都","city":"八王子市","address":"東京都八王子市暁町3-3-1","lat":35.6746641,"lon":139.336637},{"name":"久保山配水所","province":"東京都","city":"八王子市","address":"東京都八王子市久保山町2-15-1","lat":35.6864664,"lon":139.352866},{"name":"大船給水所","province":"東京都","city":"八王子市","address":"東京都八王子市七国3-56-1","lat":35.616612,"lon":139.317224},{"name":"鑓水小山給水所","province":"東京都","city":"八王子市","address":"東京都八王子市鑓水2-92","lat":35.606811,"lon":139.361154},{"name":"南大沢給水所","province":"東京都","city":"八王子市","address":"東京都八王子市南大沢4-25","lat":35.603229,"lon":139.37947},{"name":"都立陵南公園","province":"東京都","city":"八王子市","address":"東京都八王子市長房町1572","lat":35.6490541,"lon":139.2897306},{"name":"椚田ポンプ所","province":"東京都","city":"八王子市","address":"東京都八王子市椚田町545","lat":35.635202,"lon":139.310873},{"name":"鑓水給水所","province":"東京都","city":"八王子市","address":"東京都八王子市鑓水401","lat":35.6241461,"lon":139.349782},{"name":"西寺方給水所","province":"東京都","city":"八王子市","address":"東京都八王子市西寺方町1006-167","lat":35.68939,"lon":139.26638},{"name":"狭間給水所","province":"東京都","city":"八王子市","address":"東京都八王子市狭間町1994-478","lat":35.6302942,"lon":139.278766},{"name":"犬目第二給水所","province":"東京都","city":"八王子市","address":"東京都八王子市犬目町710","lat":35.6993634,"lon":139.302661},{"name":"高月給水所","province":"東京都","city":"八王子市","address":"東京都八王子市高月町2240","lat":35.7061,"lon":139.32019},{"name":"散田給水所","province":"東京都","city":"八王子市","address":"東京都八王子市散田町2-6-1","lat":35.651316,"lon":139.315081},{"name":"東浅川給水所","province":"東京都","city":"八王子市","address":"東京都八王子市東浅川町674","lat":35.6405654,"lon":139.299999},{"name":"寺田配水所","province":"東京都","city":"八王子市","address":"東京都八王子市寺田町1359-4","lat":35.616192,"lon":139.296856},{"name":"元八王子配水所","province":"東京都","city":"八王子市","address":"東京都八王子市元八王子町3-2750-487","lat":35.64726,"lon":139.26656},{"name":"北野給水所","province":"東京都","city":"八王子市","address":"東京都八王子市北野町595-3","lat":35.6538594,"lon":139.354989},{"name":"南陽台配水所","province":"東京都","city":"八王子市","address":"東京都八王子市南陽台3-5-1","lat":35.6364467,"lon":139.374855},{"name":"楢原給水所","province":"東京都","city":"八王子市","address":"東京都八王子市楢原町1294-3","lat":35.6772291,"lon":139.307184},{"name":"暁町配水所","province":"東京都","city":"八王子市","address":"東京都八王子市暁町3-3-1","lat":35.6746641,"lon":139.336637},{"name":"久保山配水所","province":"東京都","city":"八王子市","address":"東京都八王子市久保山町2-15-1","lat":35.6864664,"lon":139.352866},{"name":"大船給水所","province":"東京都","city":"八王子市","address":"東京都八王子市七国3-56-1","lat":35.616612,"lon":139.317224},{"name":"鑓水小山給水所","province":"東京都","city":"八王子市","address":"東京都八王子市鑓水2-92","lat":35.606811,"lon":139.361154},{"name":"南大沢給水所","province":"東京都","city":"八王子市","address":"東京都八王子市南大沢4-25","lat":35.603229,"lon":139.37947},{"name":"都立陵南公園","province":"東京都","city":"八王子市","address":"東京都八王子市長房町1572","lat":35.6490541,"lon":139.2897306},{"name":"椚田ポンプ所","province":"東京都","city":"八王子市","address":"東京都八王子市椚田町545","lat":35.635202,"lon":139.310873},{"name":"鑓水給水所","province":"東京都","city":"八王子市","address":"東京都八王子市鑓水401","lat":35.6241461,"lon":139.349782},{"name":"西寺方給水所","province":"東京都","city":"八王子市","address":"東京都八王子市西寺方町1006-167","lat":35.68939,"lon":139.26638},{"name":"狭間給水所","province":"東京都","city":"八王子市","address":"東京都八王子市狭間町1994-478","lat":35.6302942,"lon":139.278766},{"name":"犬目第二給水所","province":"東京都","city":"八王子市","address":"東京都八王子市犬目町710","lat":35.6993634,"lon":139.302661},{"name":"高月給水所","province":"東京都","city":"八王子市","address":"東京都八王子市高月町2240","lat":35.7061,"lon":139.32019},{"name":"散田給水所","province":"東京都","city":"八王子市","address":"東京都八王子市散田町2-6-1","lat":35.651316,"lon":139.315081},{"name":"東浅川給水所","province":"東京都","city":"八王子市","address":"東京都八王子市東浅川町674","lat":35.6405654,"lon":139.299999},{"name":"寺田配水所","province":"東京都","city":"八王子市","address":"東京都八王子市寺田町1359-4","lat":35.616192,"lon":139.296856},{"name":"元八王子配水所","province":"東京都","city":"八王子市","address":"東京都八王子市元八王子町3-2750-487","lat":35.64726,"lon":139.26656},{"name":"北野給水所","province":"東京都","city":"八王子市","address":"東京都八王子市北野町595-3","lat":35.6538594,"lon":139.354989},{"name":"南陽台配水所","province":"東京都","city":"八王子市","address":"東京都八王子市南陽台3-5-1","lat":35.6364467,"lon":139.374855},{"name":"楢原給水所","province":"東京都","city":"八王子市","address":"東京都八王子市楢原町1294-3","lat":35.6772291,"lon":139.307184},{"name":"暁町配水所","province":"東京都","city":"八王子市","address":"東京都八王子市暁町3-3-1","lat":35.6746641,"lon":139.336637},{"name":"久保山配水所","province":"東京都","city":"八王子市","address":"東京都八王子市久保山町2-15-1","lat":35.6864664,"lon":139.352866},{"name":"大船給水所","province":"東京都","city":"八王子市","address":"東京都八王子市七国3-56-1","lat":35.616612,"lon":139.317224},{"name":"鑓水小山給水所","province":"東京都","city":"八王子市","address":"東京都八王子市鑓水2-92","lat":35.606811,"lon":139.361154},{"name":"南大沢給水所","province":"東京都","city":"八王子市","address":"東京都八王子市南大沢4-25","lat":35.603229,"lon":139.37947},{"name":"都立陵南公園","province":"東京都","city":"八王子市","address":"東京都八王子市長房町1572","lat":35.6490541,"lon":139.2897306},{"name":"椚田ポンプ所","province":"東京都","city":"八王子市","address":"東京都八王子市椚田町545","lat":35.635202,"lon":139.310873},{"name":"鑓水給水所","province":"東京都","city":"八王子市","address":"東京都八王子市鑓水401","lat":35.6241461,"lon":139.349782},{"name":"西寺方給水所","province":"東京都","city":"八王子市","address":"東京都八王子市西寺方町1006-167","lat":35.68939,"lon":139.26638},{"name":"狭間給水所","province":"東京都","city":"八王子市","address":"東京都八王子市狭間町1994-478","lat":35.6302942,"lon":139.278766},{"name":"犬目第二給水所","province":"東京都","city":"八王子市","address":"東京都八王子市犬目町710","lat":35.6993634,"lon":139.302661},{"name":"高月給水所","province":"東京都","city":"八王子市","address":"東京都八王子市高月町2240","lat":35.7061,"lon":139.32019},{"name":"散田給水所","province":"東京都","city":"八王子市","address":"東京都八王子市散田町2-6-1","lat":35.651316,"lon":139.315081},{"name":"東浅川給水所","province":"東京都","city":"八王子市","address":"東京都八王子市東浅川町674","lat":35.6405654,"lon":139.299999},{"name":"寺田配水所","province":"東京都","city":"八王子市","address":"東京都八王子市寺田町1359-4","lat":35.616192,"lon":139.296856},{"name":"元八王子配水所","province":"東京都","city":"八王子市","address":"東京都八王子市元八王子町3-2750-487","lat":35.64726,"lon":139.26656},{"name":"北野給水所","province":"東京都","city":"八王子市","address":"東京都八王子市北野町595-3","lat":35.6538594,"lon":139.354989},{"name":"南陽台配水所","province":"東京都","city":"八王子市","address":"東京都八王子市南陽台3-5-1","lat":35.6364467,"lon":139.374855},{"name":"楢原給水所","province":"東京都","city":"八王子市","address":"東京都八王子市楢原町1294-3","lat":35.6772291,"lon":139.307184},{"name":"暁町配水所","province":"東京都","city":"八王子市","address":"東京都八王子市暁町3-3-1","lat":35.6746641,"lon":139.336637},{"name":"久保山配水所","province":"東京都","city":"八王子市","address":"東京都八王子市久保山町2-15-1","lat":35.6864664,"lon":139.352866},{"name":"大船給水所","province":"東京都","city":"八王子市","address":"東京都八王子市七国3-56-1","lat":35.616612,"lon":139.317224},{"name":"鑓水小山給水所","province":"東京都","city":"八王子市","address":"東京都八王子市鑓水2-92","lat":35.606811,"lon":139.361154},{"name":"南大沢給水所","province":"東京都","city":"八王子市","address":"東京都八王子市南大沢4-25","lat":35.603229,"lon":139.37947},{"name":"都立陵南公園","province":"東京都","city":"八王子市","address":"東京都八王子市長房町1572","lat":35.6490541,"lon":139.2897306},{"name":"椚田ポンプ所","province":"東京都","city":"八王子市","address":"東京都八王子市椚田町545","lat":35.635202,"lon":139.310873},{"name":"鑓水給水所","province":"東京都","city":"八王子市","address":"東京都八王子市鑓水401","lat":35.6241461,"lon":139.349782},{"name":"西寺方給水所","province":"東京都","city":"八王子市","address":"東京都八王子市西寺方町1006-167","lat":35.68939,"lon":139.26638},{"name":"狭間給水所","province":"東京都","city":"八王子市","address":"東京都八王子市狭間町1994-478","lat":35.6302942,"lon":139.278766},{"name":"犬目第二給水所","province":"東京都","city":"八王子市","address":"東京都八王子市犬目町710","lat":35.6993634,"lon":139.302661},{"name":"高月給水所","province":"東京都","city":"八王子市","address":"東京都八王子市高月町2240","lat":35.7061,"lon":139.32019},{"name":"散田給水所","province":"東京都","city":"八王子市","address":"東京都八王子市散田町2-6-1","lat":35.651316,"lon":139.315081},{"name":"東浅川給水所","province":"東京都","city":"八王子市","address":"東京都八王子市東浅川町674","lat":35.6405654,"lon":139.299999},{"name":"寺田配水所","province":"東京都","city":"八王子市","address":"東京都八王子市寺田町1359-4","lat":35.616192,"lon":139.296856},{"name":"元八王子配水所","province":"東京都","city":"八王子市","address":"東京都八王子市元八王子町3-2750-487","lat":35.64726,"lon":139.26656},{"name":"北野給水所","province":"東京都","city":"八王子市","address":"東京都八王子市北野町595-3","lat":35.6538594,"lon":139.354989},{"name":"南陽台配水所","province":"東京都","city":"八王子市","address":"東京都八王子市南陽台3-5-1","lat":35.6364467,"lon":139.374855},{"name":"楢原給水所","province":"東京都","city":"八王子市","address":"東京都八王子市楢原町1294-3","lat":35.6772291,"lon":139.307184},{"name":"暁町配水所","province":"東京都","city":"八王子市","address":"東京都八王子市暁町3-3-1","lat":35.6746641,"lon":139.336637},{"name":"久保山配水所","province":"東京都","city":"八王子市","address":"東京都八王子市久保山町2-15-1","lat":35.6864664,"lon":139.352866},{"name":"大船給水所","province":"東京都","city":"八王子市","address":"東京都八王子市七国3-56-1","lat":35.616612,"lon":139.317224},{"name":"鑓水小山給水所","province":"東京都","city":"八王子市","address":"東京都八王子市鑓水2-92","lat":35.606811,"lon":139.361154},{"name":"南大沢給水所","province":"東京都","city":"八王子市","address":"東京都八王子市南大沢4-25","lat":35.603229,"lon":139.37947},{"name":"都立陵南公園","province":"東京都","city":"八王子市","address":"東京都八王子市長房町1572","lat":35.6490541,"lon":139.2897306},{"name":"椚田ポンプ所","province":"東京都","city":"八王子市","address":"東京都八王子市椚田町545","lat":35.635202,"lon":139.310873},{"name":"鑓水給水所","province":"東京都","city":"八王子市","address":"東京都八王子市鑓水401","lat":35.6241461,"lon":139.349782},{"name":"西寺方給水所","province":"東京都","city":"八王子市","address":"東京都八王子市西寺方町1006-167","lat":35.68939,"lon":139.26638},{"name":"狭間給水所","province":"東京都","city":"八王子市","address":"東京都八王子市狭間町1994-478","lat":35.6302942,"lon":139.278766},{"name":"犬目第二給水所","province":"東京都","city":"八王子市","address":"東京都八王子市犬目町710","lat":35.6993634,"lon":139.302661},{"name":"高月給水所","province":"東京都","city":"八王子市","address":"東京都八王子市高月町2240","lat":35.7061,"lon":139.32019},{"name":"散田給水所","province":"東京都","city":"八王子市","address":"東京都八王子市散田町2-6-1","lat":35.651316,"lon":139.315081},{"name":"東浅川給水所","province":"東京都","city":"八王子市","address":"東京都八王子市東浅川町674","lat":35.6405654,"lon":139.299999},{"name":"寺田配水所","province":"東京都","city":"八王子市","address":"東京都八王子市寺田町1359-4","lat":35.616192,"lon":139.296856},{"name":"元八王子配水所","province":"東京都","city":"八王子市","address":"東京都八王子市元八王子町3-2750-487","lat":35.64726,"lon":139.26656},{"name":"北野給水所","province":"東京都","city":"八王子市","address":"東京都八王子市北野町595-3","lat":35.6538594,"lon":139.354989},{"name":"南陽台配水所","province":"東京都","city":"八王子市","address":"東京都八王子市南陽台3-5-1","lat":35.6364467,"lon":139.374855},{"name":"楢原給水所","province":"東京都","city":"八王子市","address":"東京都八王子市楢原町1294-3","lat":35.6772291,"lon":139.307184},{"name":"暁町配水所","province":"東京都","city":"八王子市","address":"東京都八王子市暁町3-3-1","lat":35.6746641,"lon":139.336637},{"name":"久保山配水所","province":"東京都","city":"八王子市","address":"東京都八王子市久保山町2-15-1","lat":35.6864664,"lon":139.352866},{"name":"大船給水所","province":"東京都","city":"八王子市","address":"東京都八王子市七国3-56-1","lat":35.616612,"lon":139.317224},{"name":"鑓水小山給水所","province":"東京都","city":"八王子市","address":"東京都八王子市鑓水2-92","lat":35.606811,"lon":139.361154},{"name":"南大沢給水所","province":"東京都","city":"八王子市","address":"東京都八王子市南大沢4-25","lat":35.603229,"lon":139.37947},{"name":"都立陵南公園","province":"東京都","city":"八王子市","address":"東京都八王子市長房町1572","lat":35.6490541,"lon":139.2897306},{"name":"椚田ポンプ所","province":"東京都","city":"八王子市","address":"東京都八王子市椚田町545","lat":35.635202,"lon":139.310873},{"name":"鑓水給水所","province":"東京都","city":"八王子市","address":"東京都八王子市鑓水401","lat":35.6241461,"lon":139.349782},{"name":"西寺方給水所","province":"東京都","city":"八王子市","address":"東京都八王子市西寺方町1006-167","lat":35.68939,"lon":139.26638},{"name":"狭間給水所","province":"東京都","city":"八王子市","address":"東京都八王子市狭間町1994-478","lat":35.6302942,"lon":139.278766},{"name":"犬目第二給水所","province":"東京都","city":"八王子市","address":"東京都八王子市犬目町710","lat":35.6993634,"lon":139.302661},{"name":"高月給水所","province":"東京都","city":"八王子市","address":"東京都八王子市高月町2240","lat":35.7061,"lon":139.32019},{"name":"散田給水所","province":"東京都","city":"八王子市","address":"東京都八王子市散田町2-6-1","lat":35.651316,"lon":139.315081},{"name":"東浅川給水所","province":"東京都","city":"八王子市","address":"東京都八王子市東浅川町674","lat":35.6405654,"lon":139.299999},{"name":"寺田配水所","province":"東京都","city":"八王子市","address":"東京都八王子市寺田町1359-4","lat":35.616192,"lon":139.296856},{"name":"元八王子配水所","province":"東京都","city":"八王子市","address":"東京都八王子市元八王子町3-2750-487","lat":35.64726,"lon":139.26656},{"name":"北野給水所","province":"東京都","city":"八王子市","address":"東京都八王子市北野町595-3","lat":35.6538594,"lon":139.354989},{"name":"南陽台配水所","province":"東京都","city":"八王子市","address":"東京都八王子市南陽台3-5-1","lat":35.6364467,"lon":139.374855},{"name":"楢原給水所","province":"東京都","city":"八王子市","address":"東京都八王子市楢原町1294-3","lat":35.6772291,"lon":139.307184},{"name":"暁町配水所","province":"東京都","city":"八王子市","address":"東京都八王子市暁町3-3-1","lat":35.6746641,"lon":139.336637},{"name":"久保山配水所","province":"東京都","city":"八王子市","address":"東京都八王子市久保山町2-15-1","lat":35.6864664,"lon":139.352866},{"name":"大船給水所","province":"東京都","city":"八王子市","address":"東京都八王子市七国3-56-1","lat":35.616612,"lon":139.317224},{"name":"鑓水小山給水所","province":"東京都","city":"八王子市","address":"東京都八王子市鑓水2-92","lat":35.606811,"lon":139.361154},{"name":"南大沢給水所","province":"東京都","city":"八王子市","address":"東京都八王子市南大沢4-25","lat":35.603229,"lon":139.37947},{"name":"都立陵南公園","province":"東京都","city":"八王子市","address":"東京都八王子市長房町1572","lat":35.6490541,"lon":139.2897306},{"name":"椚田ポンプ所","province":"東京都","city":"八王子市","address":"東京都八王子市椚田町545","lat":35.635202,"lon":139.310873},{"name":"鑓水給水所","province":"東京都","city":"八王子市","address":"東京都八王子市鑓水401","lat":35.6241461,"lon":139.349782},{"name":"西寺方給水所","province":"東京都","city":"八王子市","address":"東京都八王子市西寺方町1006-167","lat":35.68939,"lon":139.26638},{"name":"狭間給水所","province":"東京都","city":"八王子市","address":"東京都八王子市狭間町1994-478","lat":35.6302942,"lon":139.278766},{"name":"犬目第二給水所","province":"東京都","city":"八王子市","address":"東京都八王子市犬目町710","lat":35.6993634,"lon":139.302661},{"name":"高月給水所","province":"東京都","city":"八王子市","address":"東京都八王子市高月町2240","lat":35.7061,"lon":139.32019},{"name":"散田給水所","province":"東京都","city":"八王子市","address":"東京都八王子市散田町2-6-1","lat":35.651316,"lon":139.315081},{"name":"東浅川給水所","province":"東京都","city":"八王子市","address":"東京都八王子市東浅川町674","lat":35.6405654,"lon":139.299999},{"name":"寺田配水所","province":"東京都","city":"八王子市","address":"東京都八王子市寺田町1359-4","lat":35.616192,"lon":139.296856},{"name":"元八王子配水所","province":"東京都","city":"八王子市","address":"東京都八王子市元八王子町3-2750-487","lat":35.64726,"lon":139.26656},{"name":"北野給水所","province":"東京都","city":"八王子市","address":"東京都八王子市北野町595-3","lat":35.6538594,"lon":139.354989},{"name":"南陽台配水所","province":"東京都","city":"八王子市","address":"東京都八王子市南陽台3-5-1","lat":35.6364467,"lon":139.374855},{"name":"楢原給水所","province":"東京都","city":"八王子市","address":"東京都八王子市楢原町1294-3","lat":35.6772291,"lon":139.307184},{"name":"暁町配水所","province":"東京都","city":"八王子市","address":"東京都八王子市暁町3-3-1","lat":35.6746641,"lon":139.336637},{"name":"久保山配水所","province":"東京都","city":"八王子市","address":"東京都八王子市久保山町2-15-1","lat":35.6864664,"lon":139.352866},{"name":"大船給水所","province":"東京都","city":"八王子市","address":"東京都八王子市七国3-56-1","lat":35.616612,"lon":139.317224},{"name":"鑓水小山給水所","province":"東京都","city":"八王子市","address":"東京都八王子市鑓水2-92","lat":35.606811,"lon":139.361154},{"name":"南大沢給水所","province":"東京都","city":"八王子市","address":"東京都八王子市南大沢4-25","lat":35.603229,"lon":139.37947},{"name":"都立陵南公園","province":"東京都","city":"八王子市","address":"東京都八王子市長房町1572","lat":35.6490541,"lon":139.2897306},{"name":"椚田ポンプ所","province":"東京都","city":"八王子市","address":"東京都八王子市椚田町545","lat":35.635202,"lon":139.310873},{"name":"鑓水給水所","province":"東京都","city":"八王子市","address":"東京都八王子市鑓水401","lat":35.6241461,"lon":139.349782},{"name":"西寺方給水所","province":"東京都","city":"八王子市","address":"東京都八王子市西寺方町1006-167","lat":35.68939,"lon":139.26638},{"name":"狭間給水所","province":"東京都","city":"八王子市","address":"東京都八王子市狭間町1994-478","lat":35.6302942,"lon":139.278766},{"name":"犬目第二給水所","province":"東京都","city":"八王子市","address":"東京都八王子市犬目町710","lat":35.6993634,"lon":139.302661},{"name":"高月給水所","province":"東京都","city":"八王子市","address":"東京都八王子市高月町2240","lat":35.7061,"lon":139.32019},{"name":"散田給水所","province":"東京都","city":"八王子市","address":"東京都八王子市散田町2-6-1","lat":35.651316,"lon":139.315081},{"name":"東浅川給水所","province":"東京都","city":"八王子市","address":"東京都八王子市東浅川町674","lat":35.6405654,"lon":139.299999},{"name":"寺田配水所","province":"東京都","city":"八王子市","address":"東京都八王子市寺田町1359-4","lat":35.616192,"lon":139.296856},{"name":"元八王子配水所","province":"東京都","city":"八王子市","address":"東京都八王子市元八王子町3-2750-487","lat":35.64726,"lon":139.26656},{"name":"北野給水所","province":"東京都","city":"八王子市","address":"東京都八王子市北野町595-3","lat":35.6538594,"lon":139.354989},{"name":"南陽台配水所","province":"東京都","city":"八王子市","address":"東京都八王子市南陽台3-5-1","lat":35.6364467,"lon":139.374855},{"name":"楢原給水所","province":"東京都","city":"八王子市","address":"東京都八王子市楢原町1294-3","lat":35.6772291,"lon":139.307184},{"name":"暁町配水所","province":"東京都","city":"八王子市","address":"東京都八王子市暁町3-3-1","lat":35.6746641,"lon":139.336637},{"name":"久保山配水所","province":"東京都","city":"八王子市","address":"東京都八王子市久保山町2-15-1","lat":35.6864664,"lon":139.352866},{"name":"大船給水所","province":"東京都","city":"八王子市","address":"東京都八王子市七国3-56-1","lat":35.616612,"lon":139.317224},{"name":"鑓水小山給水所","province":"東京都","city":"八王子市","address":"東京都八王子市鑓水2-92","lat":35.606811,"lon":139.361154},{"name":"南大沢給水所","province":"東京都","city":"八王子市","address":"東京都八王子市南大沢4-25","lat":35.603229,"lon":139.37947},{"name":"都立陵南公園","province":"東京都","city":"八王子市","address":"東京都八王子市長房町1572","lat":35.6490541,"lon":139.2897306},{"name":"椚田ポンプ所","province":"東京都","city":"八王子市","address":"東京都八王子市椚田町545","lat":35.635202,"lon":139.310873},{"name":"鑓水給水所","province":"東京都","city":"八王子市","address":"東京都八王子市鑓水401","lat":35.6241461,"lon":139.349782},{"name":"西寺方給水所","province":"東京都","city":"八王子市","address":"東京都八王子市西寺方町1006-167","lat":35.68939,"lon":139.26638},{"name":"狭間給水所","province":"東京都","city":"八王子市","address":"東京都八王子市狭間町1994-478","lat":35.6302942,"lon":139.278766},{"name":"犬目第二給水所","province":"東京都","city":"八王子市","address":"東京都八王子市犬目町710","lat":35.6993634,"lon":139.302661},{"name":"高月給水所","province":"東京都","city":"八王子市","address":"東京都八王子市高月町2240","lat":35.7061,"lon":139.32019},{"name":"散田給水所","province":"東京都","city":"八王子市","address":"東京都八王子市散田町2-6-1","lat":35.651316,"lon":139.315081},{"name":"東浅川給水所","province":"東京都","city":"八王子市","address":"東京都八王子市東浅川町674","lat":35.6405654,"lon":139.299999},{"name":"寺田配水所","province":"東京都","city":"八王子市","address":"東京都八王子市寺田町1359-4","lat":35.616192,"lon":139.296856},{"name":"元八王子配水所","province":"東京都","city":"八王子市","address":"東京都八王子市元八王子町3-2750-487","lat":35.64726,"lon":139.26656},{"name":"北野給水所","province":"東京都","city":"八王子市","address":"東京都八王子市北野町595-3","lat":35.6538594,"lon":139.354989},{"name":"南陽台配水所","province":"東京都","city":"八王子市","address":"東京都八王子市南陽台3-5-1","lat":35.6364467,"lon":139.374855},{"name":"楢原給水所","province":"東京都","city":"八王子市","address":"東京都八王子市楢原町1294-3","lat":35.6772291,"lon":139.307184},{"name":"暁町配水所","province":"東京都","city":"八王子市","address":"東京都八王子市暁町3-3-1","lat":35.6746641,"lon":139.336637},{"name":"久保山配水所","province":"東京都","city":"八王子市","address":"東京都八王子市久保山町2-15-1","lat":35.6864664,"lon":139.352866},{"name":"大船給水所","province":"東京都","city":"八王子市","address":"東京都八王子市七国3-56-1","lat":35.616612,"lon":139.317224},{"name":"鑓水小山給水所","province":"東京都","city":"八王子市","address":"東京都八王子市鑓水2-92","lat":35.606811,"lon":139.361154},{"name":"南大沢給水所","province":"東京都","city":"八王子市","address":"東京都八王子市南大沢4-25","lat":35.603229,"lon":139.37947},{"name":"都立陵南公園","province":"東京都","city":"八王子市","address":"東京都八王子市長房町1572","lat":35.6490541,"lon":139.2897306},{"name":"椚田ポンプ所","province":"東京都","city":"八王子市","address":"東京都八王子市椚田町545","lat":35.635202,"lon":139.310873},{"name":"鑓水給水所","province":"東京都","city":"八王子市","address":"東京都八王子市鑓水401","lat":35.6241461,"lon":139.349782},{"name":"西寺方給水所","province":"東京都","city":"八王子市","address":"東京都八王子市西寺方町1006-167","lat":35.68939,"lon":139.26638},{"name":"狭間給水所","province":"東京都","city":"八王子市","address":"東京都八王子市狭間町1994-478","lat":35.6302942,"lon":139.278766},{"name":"犬目第二給水所","province":"東京都","city":"八王子市","address":"東京都八王子市犬目町710","lat":35.6993634,"lon":139.302661},{"name":"高月給水所","province":"東京都","city":"八王子市","address":"東京都八王子市高月町2240","lat":35.7061,"lon":139.32019},{"name":"散田給水所","province":"東京都","city":"八王子市","address":"東京都八王子市散田町2-6-1","lat":35.651316,"lon":139.315081},{"name":"東浅川給水所","province":"東京都","city":"八王子市","address":"東京都八王子市東浅川町674","lat":35.6405654,"lon":139.299999},{"name":"寺田配水所","province":"東京都","city":"八王子市","address":"東京都八王子市寺田町1359-4","lat":35.616192,"lon":139.296856},{"name":"元八王子配水所","province":"東京都","city":"八王子市","address":"東京都八王子市元八王子町3-2750-487","lat":35.64726,"lon":139.26656},{"name":"北野給水所","province":"東京都","city":"八王子市","address":"東京都八王子市北野町595-3","lat":35.6538594,"lon":139.354989},{"name":"南陽台配水所","province":"東京都","city":"八王子市","address":"東京都八王子市南陽台3-5-1","lat":35.6364467,"lon":139.374855},{"name":"楢原給水所","province":"東京都","city":"八王子市","address":"東京都八王子市楢原町1294-3","lat":35.6772291,"lon":139.307184},{"name":"暁町配水所","province":"東京都","city":"八王子市","address":"東京都八王子市暁町3-3-1","lat":35.6746641,"lon":139.336637},{"name":"久保山配水所","province":"東京都","city":"八王子市","address":"東京都八王子市久保山町2-15-1","lat":35.6864664,"lon":139.352866},{"name":"大船給水所","province":"東京都","city":"八王子市","address":"東京都八王子市七国3-56-1","lat":35.616612,"lon":139.317224},{"name":"鑓水小山給水所","province":"東京都","city":"八王子市","address":"東京都八王子市鑓水2-92","lat":35.606811,"lon":139.361154},{"name":"南大沢給水所","province":"東京都","city":"八王子市","address":"東京都八王子市南大沢4-25","lat":35.603229,"lon":139.37947},{"name":"都立陵南公園","province":"東京都","city":"八王子市","address":"東京都八王子市長房町1572","lat":35.6490541,"lon":139.2897306},{"name":"椚田ポンプ所","province":"東京都","city":"八王子市","address":"東京都八王子市椚田町545","lat":35.635202,"lon":139.310873},{"name":"鑓水給水所","province":"東京都","city":"八王子市","address":"東京都八王子市鑓水401","lat":35.6241461,"lon":139.349782},{"name":"西寺方給水所","province":"東京都","city":"八王子市","address":"東京都八王子市西寺方町1006-167","lat":35.68939,"lon":139.26638},{"name":"狭間給水所","province":"東京都","city":"八王子市","address":"東京都八王子市狭間町1994-478","lat":35.6302942,"lon":139.278766},{"name":"犬目第二給水所","province":"東京都","city":"八王子市","address":"東京都八王子市犬目町710","lat":35.6993634,"lon":139.302661},{"name":"高月給水所","province":"東京都","city":"八王子市","address":"東京都八王子市高月町2240","lat":35.7061,"lon":139.32019},{"name":"散田給水所","province":"東京都","city":"八王子市","address":"東京都八王子市散田町2-6-1","lat":35.651316,"lon":139.315081},{"name":"東浅川給水所","province":"東京都","city":"八王子市","address":"東京都八王子市東浅川町674","lat":35.6405654,"lon":139.299999},{"name":"寺田配水所","province":"東京都","city":"八王子市","address":"東京都八王子市寺田町1359-4","lat":35.616192,"lon":139.296856},{"name":"元八王子配水所","province":"東京都","city":"八王子市","address":"東京都八王子市元八王子町3-2750-487","lat":35.64726,"lon":139.26656},{"name":"北野給水所","province":"東京都","city":"八王子市","address":"東京都八王子市北野町595-3","lat":35.6538594,"lon":139.354989},{"name":"南陽台配水所","province":"東京都","city":"八王子市","address":"東京都八王子市南陽台3-5-1","lat":35.6364467,"lon":139.374855},{"name":"楢原給水所","province":"東京都","city":"八王子市","address":"東京都八王子市楢原町1294-3","lat":35.6772291,"lon":139.307184},{"name":"暁町配水所","province":"東京都","city":"八王子市","address":"東京都八王子市暁町3-3-1","lat":35.6746641,"lon":139.336637},{"name":"久保山配水所","province":"東京都","city":"八王子市","address":"東京都八王子市久保山町2-15-1","lat":35.6864664,"lon":139.352866},{"name":"大船給水所","province":"東京都","city":"八王子市","address":"東京都八王子市七国3-56-1","lat":35.616612,"lon":139.317224},{"name":"鑓水小山給水所","province":"東京都","city":"八王子市","address":"東京都八王子市鑓水2-92","lat":35.606811,"lon":139.361154},{"name":"南大沢給水所","province":"東京都","city":"八王子市","address":"東京都八王子市南大沢4-25","lat":35.603229,"lon":139.37947},{"name":"都立陵南公園","province":"東京都","city":"八王子市","address":"東京都八王子市長房町1572","lat":35.6490541,"lon":139.2897306},{"name":"椚田ポンプ所","province":"東京都","city":"八王子市","address":"東京都八王子市椚田町545","lat":35.635202,"lon":139.310873},{"name":"鑓水給水所","province":"東京都","city":"八王子市","address":"東京都八王子市鑓水401","lat":35.6241461,"lon":139.349782},{"name":"西寺方給水所","province":"東京都","city":"八王子市","address":"東京都八王子市西寺方町1006-167","lat":35.68939,"lon":139.26638},{"name":"狭間給水所","province":"東京都","city":"八王子市","address":"東京都八王子市狭間町1994-478","lat":35.6302942,"lon":139.278766},{"name":"犬目第二給水所","province":"東京都","city":"八王子市","address":"東京都八王子市犬目町710","lat":35.6993634,"lon":139.302661},{"name":"高月給水所","province":"東京都","city":"八王子市","address":"東京都八王子市高月町2240","lat":35.7061,"lon":139.32019},{"name":"散田給水所","province":"東京都","city":"八王子市","address":"東京都八王子市散田町2-6-1","lat":35.651316,"lon":139.315081},{"name":"東浅川給水所","province":"東京都","city":"八王子市","address":"東京都八王子市東浅川町674","lat":35.6405654,"lon":139.299999},{"name":"寺田配水所","province":"東京都","city":"八王子市","address":"東京都八王子市寺田町1359-4","lat":35.616192,"lon":139.296856},{"name":"元八王子配水所","province":"東京都","city":"八王子市","address":"東京都八王子市元八王子町3-2750-487","lat":35.64726,"lon":139.26656},{"name":"北野給水所","province":"東京都","city":"八王子市","address":"東京都八王子市北野町595-3","lat":35.6538594,"lon":139.354989},{"name":"南陽台配水所","province":"東京都","city":"八王子市","address":"東京都八王子市南陽台3-5-1","lat":35.6364467,"lon":139.374855},{"name":"楢原給水所","province":"東京都","city":"八王子市","address":"東京都八王子市楢原町1294-3","lat":35.6772291,"lon":139.307184},{"name":"暁町配水所","province":"東京都","city":"八王子市","address":"東京都八王子市暁町3-3-1","lat":35.6746641,"lon":139.336637},{"name":"久保山配水所","province":"東京都","city":"八王子市","address":"東京都八王子市久保山町2-15-1","lat":35.6864664,"lon":139.352866},{"name":"大船給水所","province":"東京都","city":"八王子市","address":"東京都八王子市七国3-56-1","lat":35.616612,"lon":139.317224},{"name":"鑓水小山給水所","province":"東京都","city":"八王子市","address":"東京都八王子市鑓水2-92","lat":35.606811,"lon":139.361154},{"name":"南大沢給水所","province":"東京都","city":"八王子市","address":"東京都八王子市南大沢4-25","lat":35.603229,"lon":139.37947},{"name":"都立陵南公園","province":"東京都","city":"八王子市","address":"東京都八王子市長房町1572","lat":35.6490541,"lon":139.2897306},{"name":"椚田ポンプ所","province":"東京都","city":"八王子市","address":"東京都八王子市椚田町545","lat":35.635202,"lon":139.310873},{"name":"鑓水給水所","province":"東京都","city":"八王子市","address":"東京都八王子市鑓水401","lat":35.6241461,"lon":139.349782},{"name":"西寺方給水所","province":"東京都","city":"八王子市","address":"東京都八王子市西寺方町1006-167","lat":35.68939,"lon":139.26638},{"name":"狭間給水所","province":"東京都","city":"八王子市","address":"東京都八王子市狭間町1994-478","lat":35.6302942,"lon":139.278766},{"name":"犬目第二給水所","province":"東京都","city":"八王子市","address":"東京都八王子市犬目町710","lat":35.6993634,"lon":139.302661},{"name":"高月給水所","province":"東京都","city":"八王子市","address":"東京都八王子市高月町2240","lat":35.7061,"lon":139.32019},{"name":"散田給水所","province":"東京都","city":"八王子市","address":"東京都八王子市散田町2-6-1","lat":35.651316,"lon":139.315081},{"name":"東浅川給水所","province":"東京都","city":"八王子市","address":"東京都八王子市東浅川町674","lat":35.6405654,"lon":139.299999},{"name":"寺田配水所","province":"東京都","city":"八王子市","address":"東京都八王子市寺田町1359-4","lat":35.616192,"lon":139.296856},{"name":"元八王子配水所","province":"東京都","city":"八王子市","address":"東京都八王子市元八王子町3-2750-487","lat":35.64726,"lon":139.26656},{"name":"北野給水所","province":"東京都","city":"八王子市","address":"東京都八王子市北野町595-3","lat":35.6538594,"lon":139.354989},{"name":"南陽台配水所","province":"東京都","city":"八王子市","address":"東京都八王子市南陽台3-5-1","lat":35.6364467,"lon":139.374855},{"name":"楢原給水所","province":"東京都","city":"八王子市","address":"東京都八王子市楢原町1294-3","lat":35.6772291,"lon":139.307184},{"name":"暁町配水所","province":"東京都","city":"八王子市","address":"東京都八王子市暁町3-3-1","lat":35.6746641,"lon":139.336637},{"name":"久保山配水所","province":"東京都","city":"八王子市","address":"東京都八王子市久保山町2-15-1","lat":35.6864664,"lon":139.352866},{"name":"大船給水所","province":"東京都","city":"八王子市","address":"東京都八王子市七国3-56-1","lat":35.616612,"lon":139.317224},{"name":"鑓水小山給水所","province":"東京都","city":"八王子市","address":"東京都八王子市鑓水2-92","lat":35.606811,"lon":139.361154},{"name":"南大沢給水所","province":"東京都","city":"八王子市","address":"東京都八王子市南大沢4-25","lat":35.603229,"lon":139.37947},{"name":"都立陵南公園","province":"東京都","city":"八王子市","address":"東京都八王子市長房町1572","lat":35.6490541,"lon":139.2897306},{"name":"椚田ポンプ所","province":"東京都","city":"八王子市","address":"東京都八王子市椚田町545","lat":35.635202,"lon":139.310873},{"name":"鑓水給水所","province":"東京都","city":"八王子市","address":"東京都八王子市鑓水401","lat":35.6241461,"lon":139.349782},{"name":"西寺方給水所","province":"東京都","city":"八王子市","address":"東京都八王子市西寺方町1006-167","lat":35.68939,"lon":139.26638},{"name":"狭間給水所","province":"東京都","city":"八王子市","address":"東京都八王子市狭間町1994-478","lat":35.6302942,"lon":139.278766},{"name":"犬目第二給水所","province":"東京都","city":"八王子市","address":"東京都八王子市犬目町710","lat":35.6993634,"lon":139.302661},{"name":"高月給水所","province":"東京都","city":"八王子市","address":"東京都八王子市高月町2240","lat":35.7061,"lon":139.32019},{"name":"散田給水所","province":"東京都","city":"八王子市","address":"東京都八王子市散田町2-6-1","lat":35.651316,"lon":139.315081},{"name":"東浅川給水所","province":"東京都","city":"八王子市","address":"東京都八王子市東浅川町674","lat":35.6405654,"lon":139.299999},{"name":"寺田配水所","province":"東京都","city":"八王子市","address":"東京都八王子市寺田町1359-4","lat":35.616192,"lon":139.296856},{"name":"元八王子配水所","province":"東京都","city":"八王子市","address":"東京都八王子市元八王子町3-2750-487","lat":35.64726,"lon":139.26656},{"name":"北野給水所","province":"東京都","city":"八王子市","address":"東京都八王子市北野町595-3","lat":35.6538594,"lon":139.354989},{"name":"南陽台配水所","province":"東京都","city":"八王子市","address":"東京都八王子市南陽台3-5-1","lat":35.6364467,"lon":139.374855},{"name":"楢原給水所","province":"東京都","city":"八王子市","address":"東京都八王子市楢原町1294-3","lat":35.6772291,"lon":139.307184},{"name":"暁町配水所","province":"東京都","city":"八王子市","address":"東京都八王子市暁町3-3-1","lat":35.6746641,"lon":139.336637},{"name":"久保山配水所","province":"東京都","city":"八王子市","address":"東京都八王子市久保山町2-15-1","lat":35.6864664,"lon":139.352866},{"name":"大船給水所","province":"東京都","city":"八王子市","address":"東京都八王子市七国3-56-1","lat":35.616612,"lon":139.317224},{"name":"鑓水小山給水所","province":"東京都","city":"八王子市","address":"東京都八王子市鑓水2-92","lat":35.606811,"lon":139.361154},{"name":"南大沢給水所","province":"東京都","city":"八王子市","address":"東京都八王子市南大沢4-25","lat":35.603229,"lon":139.37947},{"name":"都立陵南公園","province":"東京都","city":"八王子市","address":"東京都八王子市長房町1572","lat":35.6490541,"lon":139.2897306},{"name":"椚田ポンプ所","province":"東京都","city":"八王子市","address":"東京都八王子市椚田町545","lat":35.635202,"lon":139.310873},{"name":"鑓水給水所","province":"東京都","city":"八王子市","address":"東京都八王子市鑓水401","lat":35.6241461,"lon":139.349782},{"name":"西寺方給水所","province":"東京都","city":"八王子市","address":"東京都八王子市西寺方町1006-167","lat":35.68939,"lon":139.26638},{"name":"狭間給水所","province":"東京都","city":"八王子市","address":"東京都八王子市狭間町1994-478","lat":35.6302942,"lon":139.278766},{"name":"犬目第二給水所","province":"東京都","city":"八王子市","address":"東京都八王子市犬目町710","lat":35.6993634,"lon":139.302661},{"name":"高月給水所","province":"東京都","city":"八王子市","address":"東京都八王子市高月町2240","lat":35.7061,"lon":139.32019},{"name":"散田給水所","province":"東京都","city":"八王子市","address":"東京都八王子市散田町2-6-1","lat":35.651316,"lon":139.315081},{"name":"東浅川給水所","province":"東京都","city":"八王子市","address":"東京都八王子市東浅川町674","lat":35.6405654,"lon":139.299999},{"name":"寺田配水所","province":"東京都","city":"八王子市","address":"東京都八王子市寺田町1359-4","lat":35.616192,"lon":139.296856},{"name":"元八王子配水所","province":"東京都","city":"八王子市","address":"東京都八王子市元八王子町3-2750-487","lat":35.64726,"lon":139.26656},{"name":"北野給水所","province":"東京都","city":"八王子市","address":"東京都八王子市北野町595-3","lat":35.6538594,"lon":139.354989},{"name":"南陽台配水所","province":"東京都","city":"八王子市","address":"東京都八王子市南陽台3-5-1","lat":35.6364467,"lon":139.374855},{"name":"楢原給水所","province":"東京都","city":"八王子市","address":"東京都八王子市楢原町1294-3","lat":35.6772291,"lon":139.307184},{"name":"暁町配水所","province":"東京都","city":"八王子市","address":"東京都八王子市暁町3-3-1","lat":35.6746641,"lon":139.336637},{"name":"久保山配水所","province":"東京都","city":"八王子市","address":"東京都八王子市久保山町2-15-1","lat":35.6864664,"lon":139.352866},{"name":"大船給水所","province":"東京都","city":"八王子市","address":"東京都八王子市七国3-56-1","lat":35.616612,"lon":139.317224},{"name":"鑓水小山給水所","province":"東京都","city":"八王子市","address":"東京都八王子市鑓水2-92","lat":35.606811,"lon":139.361154},{"name":"南大沢給水所","province":"東京都","city":"八王子市","address":"東京都八王子市南大沢4-25","lat":35.603229,"lon":139.37947},{"name":"都立陵南公園","province":"東京都","city":"八王子市","address":"東京都八王子市長房町1572","lat":35.6490541,"lon":139.2897306},{"name":"椚田ポンプ所","province":"東京都","city":"八王子市","address":"東京都八王子市椚田町545","lat":35.635202,"lon":139.310873},{"name":"鑓水給水所","province":"東京都","city":"八王子市","address":"東京都八王子市鑓水401","lat":35.6241461,"lon":139.349782},{"name":"西寺方給水所","province":"東京都","city":"八王子市","address":"東京都八王子市西寺方町1006-167","lat":35.68939,"lon":139.26638},{"name":"狭間給水所","province":"東京都","city":"八王子市","address":"東京都八王子市狭間町1994-478","lat":35.6302942,"lon":139.278766},{"name":"犬目第二給水所","province":"東京都","city":"八王子市","address":"東京都八王子市犬目町710","lat":35.6993634,"lon":139.302661},{"name":"高月給水所","province":"東京都","city":"八王子市","address":"東京都八王子市高月町2240","lat":35.7061,"lon":139.32019},{"name":"散田給水所","province":"東京都","city":"八王子市","address":"東京都八王子市散田町2-6-1","lat":35.651316,"lon":139.315081},{"name":"東浅川給水所","province":"東京都","city":"八王子市","address":"東京都八王子市東浅川町674","lat":35.6405654,"lon":139.299999},{"name":"寺田配水所","province":"東京都","city":"八王子市","address":"東京都八王子市寺田町1359-4","lat":35.616192,"lon":139.296856},{"name":"元八王子配水所","province":"東京都","city":"八王子市","address":"東京都八王子市元八王子町3-2750-487","lat":35.64726,"lon":139.26656},{"name":"北野給水所","province":"東京都","city":"八王子市","address":"東京都八王子市北野町595-3","lat":35.6538594,"lon":139.354989},{"name":"南陽台配水所","province":"東京都","city":"八王子市","address":"東京都八王子市南陽台3-5-1","lat":35.6364467,"lon":139.374855},{"name":"楢原給水所","province":"東京都","city":"八王子市","address":"東京都八王子市楢原町1294-3","lat":35.6772291,"lon":139.307184},{"name":"暁町配水所","province":"東京都","city":"八王子市","address":"東京都八王子市暁町3-3-1","lat":35.6746641,"lon":139.336637},{"name":"久保山配水所","province":"東京都","city":"八王子市","address":"東京都八王子市久保山町2-15-1","lat":35.6864664,"lon":139.352866},{"name":"大船給水所","province":"東京都","city":"八王子市","address":"東京都八王子市七国3-56-1","lat":35.616612,"lon":139.317224},{"name":"鑓水小山給水所","province":"東京都","city":"八王子市","address":"東京都八王子市鑓水2-92","lat":35.606811,"lon":139.361154},{"name":"南大沢給水所","province":"東京都","city":"八王子市","address":"東京都八王子市南大沢4-25","lat":35.603229,"lon":139.37947},{"name":"都立陵南公園","province":"東京都","city":"八王子市","address":"東京都八王子市長房町1572","lat":35.6490541,"lon":139.2897306},{"name":"椚田ポンプ所","province":"東京都","city":"八王子市","address":"東京都八王子市椚田町545","lat":35.635202,"lon":139.310873},{"name":"鑓水給水所","province":"東京都","city":"八王子市","address":"東京都八王子市鑓水401","lat":35.6241461,"lon":139.349782},{"name":"西寺方給水所","province":"東京都","city":"八王子市","address":"東京都八王子市西寺方町1006-167","lat":35.68939,"lon":139.26638},{"name":"狭間給水所","province":"東京都","city":"八王子市","address":"東京都八王子市狭間町1994-478","lat":35.6302942,"lon":139.278766},{"name":"犬目第二給水所","province":"東京都","city":"八王子市","address":"東京都八王子市犬目町710","lat":35.6993634,"lon":139.302661},{"name":"高月給水所","province":"東京都","city":"八王子市","address":"東京都八王子市高月町2240","lat":35.7061,"lon":139.32019},{"name":"散田給水所","province":"東京都","city":"八王子市","address":"東京都八王子市散田町2-6-1","lat":35.651316,"lon":139.315081},{"name":"東浅川給水所","province":"東京都","city":"八王子市","address":"東京都八王子市東浅川町674","lat":35.6405654,"lon":139.299999},{"name":"寺田配水所","province":"東京都","city":"八王子市","address":"東京都八王子市寺田町1359-4","lat":35.616192,"lon":139.296856},{"name":"元八王子配水所","province":"東京都","city":"八王子市","address":"東京都八王子市元八王子町3-2750-487","lat":35.64726,"lon":139.26656},{"name":"北野給水所","province":"東京都","city":"八王子市","address":"東京都八王子市北野町595-3","lat":35.6538594,"lon":139.354989},{"name":"南陽台配水所","province":"東京都","city":"八王子市","address":"東京都八王子市南陽台3-5-1","lat":35.6364467,"lon":139.374855},{"name":"楢原給水所","province":"東京都","city":"八王子市","address":"東京都八王子市楢原町1294-3","lat":35.6772291,"lon":139.307184},{"name":"暁町配水所","province":"東京都","city":"八王子市","address":"東京都八王子市暁町3-3-1","lat":35.6746641,"lon":139.336637},{"name":"久保山配水所","province":"東京都","city":"八王子市","address":"東京都八王子市久保山町2-15-1","lat":35.6864664,"lon":139.352866},{"name":"大船給水所","province":"東京都","city":"八王子市","address":"東京都八王子市七国3-56-1","lat":35.616612,"lon":139.317224},{"name":"鑓水小山給水所","province":"東京都","city":"八王子市","address":"東京都八王子市鑓水2-92","lat":35.606811,"lon":139.361154},{"name":"南大沢給水所","province":"東京都","city":"八王子市","address":"東京都八王子市南大沢4-25","lat":35.603229,"lon":139.37947},{"name":"都立陵南公園","province":"東京都","city":"八王子市","address":"東京都八王子市長房町1572","lat":35.6490541,"lon":139.2897306},{"name":"椚田ポンプ所","province":"東京都","city":"八王子市","address":"東京都八王子市椚田町545","lat":35.635202,"lon":139.310873},{"name":"鑓水給水所","province":"東京都","city":"八王子市","address":"東京都八王子市鑓水401","lat":35.6241461,"lon":139.349782},{"name":"西寺方給水所","province":"東京都","city":"八王子市","address":"東京都八王子市西寺方町1006-167","lat":35.68939,"lon":139.26638},{"name":"狭間給水所","province":"東京都","city":"八王子市","address":"東京都八王子市狭間町1994-478","lat":35.6302942,"lon":139.278766},{"name":"犬目第二給水所","province":"東京都","city":"八王子市","address":"東京都八王子市犬目町710","lat":35.6993634,"lon":139.302661},{"name":"高月給水所","province":"東京都","city":"八王子市","address":"東京都八王子市高月町2240","lat":35.7061,"lon":139.32019},{"name":"散田給水所","province":"東京都","city":"八王子市","address":"東京都八王子市散田町2-6-1","lat":35.651316,"lon":139.315081},{"name":"東浅川給水所","province":"東京都","city":"八王子市","address":"東京都八王子市東浅川町674","lat":35.6405654,"lon":139.299999},{"name":"寺田配水所","province":"東京都","city":"八王子市","address":"東京都八王子市寺田町1359-4","lat":35.616192,"lon":139.296856},{"name":"元八王子配水所","province":"東京都","city":"八王子市","address":"東京都八王子市元八王子町3-2750-487","lat":35.64726,"lon":139.26656},{"name":"北野給水所","province":"東京都","city":"八王子市","address":"東京都八王子市北野町595-3","lat":35.6538594,"lon":139.354989},{"name":"南陽台配水所","province":"東京都","city":"八王子市","address":"東京都八王子市南陽台3-5-1","lat":35.6364467,"lon":139.374855},{"name":"楢原給水所","province":"東京都","city":"八王子市","address":"東京都八王子市楢原町1294-3","lat":35.6772291,"lon":139.307184},{"name":"暁町配水所","province":"東京都","city":"八王子市","address":"東京都八王子市暁町3-3-1","lat":35.6746641,"lon":139.336637},{"name":"久保山配水所","province":"東京都","city":"八王子市","address":"東京都八王子市久保山町2-15-1","lat":35.6864664,"lon":139.352866},{"name":"大船給水所","province":"東京都","city":"八王子市","address":"東京都八王子市七国3-56-1","lat":35.616612,"lon":139.317224},{"name":"鑓水小山給水所","province":"東京都","city":"八王子市","address":"東京都八王子市鑓水2-92","lat":35.606811,"lon":139.361154},{"name":"南大沢給水所","province":"東京都","city":"八王子市","address":"東京都八王子市南大沢4-25","lat":35.603229,"lon":139.37947},{"name":"都立陵南公園","province":"東京都","city":"八王子市","address":"東京都八王子市長房町1572","lat":35.6490541,"lon":139.2897306},{"name":"椚田ポンプ所","province":"東京都","city":"八王子市","address":"東京都八王子市椚田町545","lat":35.635202,"lon":139.310873},{"name":"鑓水給水所","province":"東京都","city":"八王子市","address":"東京都八王子市鑓水401","lat":35.6241461,"lon":139.349782},{"name":"西寺方給水所","province":"東京都","city":"八王子市","address":"東京都八王子市西寺方町1006-167","lat":35.68939,"lon":139.26638},{"name":"狭間給水所","province":"東京都","city":"八王子市","address":"東京都八王子市狭間町1994-478","lat":35.6302942,"lon":139.278766},{"name":"犬目第二給水所","province":"東京都","city":"八王子市","address":"東京都八王子市犬目町710","lat":35.6993634,"lon":139.302661},{"name":"高月給水所","province":"東京都","city":"八王子市","address":"東京都八王子市高月町2240","lat":35.7061,"lon":139.32019},{"name":"散田給水所","province":"東京都","city":"八王子市","address":"東京都八王子市散田町2-6-1","lat":35.651316,"lon":139.315081},{"name":"東浅川給水所","province":"東京都","city":"八王子市","address":"東京都八王子市東浅川町674","lat":35.6405654,"lon":139.299999},{"name":"寺田配水所","province":"東京都","city":"八王子市","address":"東京都八王子市寺田町1359-4","lat":35.616192,"lon":139.296856},{"name":"元八王子配水所","province":"東京都","city":"八王子市","address":"東京都八王子市元八王子町3-2750-487","lat":35.64726,"lon":139.26656},{"name":"北野給水所","province":"東京都","city":"八王子市","address":"東京都八王子市北野町595-3","lat":35.6538594,"lon":139.354989},{"name":"南陽台配水所","province":"東京都","city":"八王子市","address":"東京都八王子市南陽台3-5-1","lat":35.6364467,"lon":139.374855},{"name":"楢原給水所","province":"東京都","city":"八王子市","address":"東京都八王子市楢原町1294-3","lat":35.6772291,"lon":139.307184},{"name":"暁町配水所","province":"東京都","city":"八王子市","address":"東京都八王子市暁町3-3-1","lat":35.6746641,"lon":139.336637},{"name":"久保山配水所","province":"東京都","city":"八王子市","address":"東京都八王子市久保山町2-15-1","lat":35.6864664,"lon":139.352866},{"name":"大船給水所","province":"東京都","city":"八王子市","address":"東京都八王子市七国3-56-1","lat":35.616612,"lon":139.317224},{"name":"鑓水小山給水所","province":"東京都","city":"八王子市","address":"東京都八王子市鑓水2-92","lat":35.606811,"lon":139.361154},{"name":"南大沢給水所","province":"東京都","city":"八王子市","address":"東京都八王子市南大沢4-25","lat":35.603229,"lon":139.37947},{"name":"都立陵南公園","province":"東京都","city":"八王子市","address":"東京都八王子市長房町1572","lat":35.6490541,"lon":139.2897306},{"name":"椚田ポンプ所","province":"東京都","city":"八王子市","address":"東京都八王子市椚田町545","lat":35.635202,"lon":139.310873},{"name":"鑓水給水所","province":"東京都","city":"八王子市","address":"東京都八王子市鑓水401","lat":35.6241461,"lon":139.349782},{"name":"西寺方給水所","province":"東京都","city":"八王子市","address":"東京都八王子市西寺方町1006-167","lat":35.68939,"lon":139.26638},{"name":"狭間給水所","province":"東京都","city":"八王子市","address":"東京都八王子市狭間町1994-478","lat":35.6302942,"lon":139.278766},{"name":"犬目第二給水所","province":"東京都","city":"八王子市","address":"東京都八王子市犬目町710","lat":35.6993634,"lon":139.302661},{"name":"高月給水所","province":"東京都","city":"八王子市","address":"東京都八王子市高月町2240","lat":35.7061,"lon":139.32019},{"name":"散田給水所","province":"東京都","city":"八王子市","address":"東京都八王子市散田町2-6-1","lat":35.651316,"lon":139.315081},{"name":"東浅川給水所","province":"東京都","city":"八王子市","address":"東京都八王子市東浅川町674","lat":35.6405654,"lon":139.299999},{"name":"寺田配水所","province":"東京都","city":"八王子市","address":"東京都八王子市寺田町1359-4","lat":35.616192,"lon":139.296856},{"name":"元八王子配水所","province":"東京都","city":"八王子市","address":"東京都八王子市元八王子町3-2750-487","lat":35.64726,"lon":139.26656},{"name":"北野給水所","province":"東京都","city":"八王子市","address":"東京都八王子市北野町595-3","lat":35.6538594,"lon":139.354989},{"name":"南陽台配水所","province":"東京都","city":"八王子市","address":"東京都八王子市南陽台3-5-1","lat":35.6364467,"lon":139.374855},{"name":"楢原給水所","province":"東京都","city":"八王子市","address":"東京都八王子市楢原町1294-3","lat":35.6772291,"lon":139.307184},{"name":"暁町配水所","province":"東京都","city":"八王子市","address":"東京都八王子市暁町3-3-1","lat":35.6746641,"lon":139.336637},{"name":"久保山配水所","province":"東京都","city":"八王子市","address":"東京都八王子市久保山町2-15-1","lat":35.6864664,"lon":139.352866},{"name":"大船給水所","province":"東京都","city":"八王子市","address":"東京都八王子市七国3-56-1","lat":35.616612,"lon":139.317224},{"name":"鑓水小山給水所","province":"東京都","city":"八王子市","address":"東京都八王子市鑓水2-92","lat":35.606811,"lon":139.361154},{"name":"南大沢給水所","province":"東京都","city":"八王子市","address":"東京都八王子市南大沢4-25","lat":35.603229,"lon":139.37947},{"name":"都立陵南公園","province":"東京都","city":"八王子市","address":"東京都八王子市長房町1572","lat":35.6490541,"lon":139.2897306},{"name":"椚田ポンプ所","province":"東京都","city":"八王子市","address":"東京都八王子市椚田町545","lat":35.635202,"lon":139.310873},{"name":"鑓水給水所","province":"東京都","city":"八王子市","address":"東京都八王子市鑓水401","lat":35.6241461,"lon":139.349782},{"name":"西寺方給水所","province":"東京都","city":"八王子市","address":"東京都八王子市西寺方町1006-167","lat":35.68939,"lon":139.26638},{"name":"狭間給水所","province":"東京都","city":"八王子市","address":"東京都八王子市狭間町1994-478","lat":35.6302942,"lon":139.278766},{"name":"犬目第二給水所","province":"東京都","city":"八王子市","address":"東京都八王子市犬目町710","lat":35.6993634,"lon":139.302661},{"name":"高月給水所","province":"東京都","city":"八王子市","address":"東京都八王子市高月町2240","lat":35.7061,"lon":139.32019},{"name":"散田給水所","province":"東京都","city":"八王子市","address":"東京都八王子市散田町2-6-1","lat":35.651316,"lon":139.315081},{"name":"東浅川給水所","province":"東京都","city":"八王子市","address":"東京都八王子市東浅川町674","lat":35.6405654,"lon":139.299999},{"name":"寺田配水所","province":"東京都","city":"八王子市","address":"東京都八王子市寺田町1359-4","lat":35.616192,"lon":139.296856},{"name":"元八王子配水所","province":"東京都","city":"八王子市","address":"東京都八王子市元八王子町3-2750-487","lat":35.64726,"lon":139.26656},{"name":"北野給水所","province":"東京都","city":"八王子市","address":"東京都八王子市北野町595-3","lat":35.6538594,"lon":139.354989},{"name":"南陽台配水所","province":"東京都","city":"八王子市","address":"東京都八王子市南陽台3-5-1","lat":35.6364467,"lon":139.374855},{"name":"楢原給水所","province":"東京都","city":"八王子市","address":"東京都八王子市楢原町1294-3","lat":35.6772291,"lon":139.307184},{"name":"暁町配水所","province":"東京都","city":"八王子市","address":"東京都八王子市暁町3-3-1","lat":35.6746641,"lon":139.336637},{"name":"久保山配水所","province":"東京都","city":"八王子市","address":"東京都八王子市久保山町2-15-1","lat":35.6864664,"lon":139.352866},{"name":"大船給水所","province":"東京都","city":"八王子市","address":"東京都八王子市七国3-56-1","lat":35.616612,"lon":139.317224},{"name":"鑓水小山給水所","province":"東京都","city":"八王子市","address":"東京都八王子市鑓水2-92","lat":35.606811,"lon":139.361154},{"name":"南大沢給水所","province":"東京都","city":"八王子市","address":"東京都八王子市南大沢4-25","lat":35.603229,"lon":139.37947},{"name":"都立陵南公園","province":"東京都","city":"八王子市","address":"東京都八王子市長房町1572","lat":35.6490541,"lon":139.2897306},{"name":"椚田ポンプ所","province":"東京都","city":"八王子市","address":"東京都八王子市椚田町545","lat":35.635202,"lon":139.310873}]}