{"keyword":"子育て","data":[{"name":"八王子市立子安保育園","province":"東京都","city":"八王子市","address":"東京都八王子市子安町四丁目31ー1","lat":35.652889,"lon":139.335726},{"name":"八王子市立千人保育園","province":"東京都","city":"八王子市","address":"東京都八王子市千人町三丁目5ー17","lat":35.658824,"lon":139.310088},{"name":"八王子市立高尾保育園","province":"東京都","city":"八王子市","address":"東京都八王子市高尾町1737","lat":35.643057,"lon":139.274417},{"name":"八王子市立恩方保育園","province":"東京都","city":"八王子市","address":"東京都八王子市下恩方町1314","lat":35.671179,"lon":139.254426},{"name":"八王子市立富士見台保育園","province":"東京都","city":"八王子市","address":"東京都八王子市富士見町21ー1","lat":35.669308,"lon":139.346013},{"name":"八王子市立津久田保育園","province":"東京都","city":"八王子市","address":"東京都八王子市中野山王三丁目22-3","lat":35.674221,"lon":139.321064},{"name":"八王子市立長房中央保育園","province":"東京都","city":"八王子市","address":"東京都八王子市長房町588","lat":35.6562,"lon":139.294711},{"name":"八王子市立北野保育園","province":"東京都","city":"八王子市","address":"東京都八王子市北野町570ー12","lat":35.650003,"lon":139.35407},{"name":"八王子市立元八王子保育園","province":"東京都","city":"八王子市","address":"東京都八王子市弐分方町739","lat":35.670583,"lon":139.289338},{"name":"八王子市立みなみ野保育園","province":"東京都","city":"八王子市","address":"東京都八王子市みなみ野六丁目1ー1","lat":35.63116,"lon":139.3239},{"name":"八王子市立中野保育園","province":"東京都","city":"八王子市","address":"東京都八王子市中野上町一丁目22ー11","lat":35.666753,"lon":139.324828},{"name":"八王子市立石川保育園","province":"東京都","city":"八王子市","address":"東京都八王子市石川町2966ー8","lat":35.671202,"lon":139.36134},{"name":"八王子市立静教保育園","province":"東京都","city":"八王子市","address":"東京都八王子市元横山町三丁目19ー13","lat":35.665291,"lon":139.333085},{"name":"八王子市立多賀保育園","province":"東京都","city":"八王子市","address":"東京都八王子市元本郷町三丁目8ー16","lat":35.66344,"lon":139.315344},{"name":"八王子市立長房南保育園","province":"東京都","city":"八王子市","address":"東京都八王子市長房町520","lat":35.653931,"lon":139.296702},{"name":"八王子市立長房西保育園","province":"東京都","city":"八王子市","address":"東京都八王子市長房町588","lat":35.654754,"lon":139.289796},{"name":"光明第一保育園","province":"東京都","city":"八王子市","address":"東京都八王子市八木町8-11","lat":35.661785,"lon":139.320458},{"name":"光明第三保育園","province":"東京都","city":"八王子市","address":"東京都八王子市楢原町971","lat":35.682934,"lon":139.309406},{"name":"八王子隣保館保育園","province":"東京都","city":"八王子市","address":"東京都八王子市叶谷町1133","lat":35.671897,"lon":139.302884},{"name":"船森保育園","province":"東京都","city":"八王子市","address":"東京都八王子市明神町四丁目9-1","lat":35.658977,"lon":139.341976},{"name":"八王子共励保育園","province":"東京都","city":"八王子市","address":"東京都八王子市明神町一丁目9-20","lat":35.659114,"lon":139.350275},{"name":"由井さゆり保育園","province":"東京都","city":"八王子市","address":"東京都八王子市片倉町2436","lat":35.641349,"lon":139.33854},{"name":"多摩文化保育園","province":"東京都","city":"八王子市","address":"東京都八王子市千人町四丁目1-6","lat":35.654874,"lon":139.308768},{"name":"桑都保育園","province":"東京都","city":"八王子市","address":"東京都八王子市小門町7-18","lat":35.658335,"lon":139.326635},{"name":"八王子ふたば保育園","province":"東京都","city":"八王子市","address":"東京都八王子市台町四丁目4-14","lat":35.657721,"lon":139.323711},{"name":"藤井保育園","province":"東京都","city":"八王子市","address":"東京都八王子市子安町二丁目23-25","lat":35.648842,"lon":139.340482},{"name":"浅川保育園","province":"東京都","city":"八王子市","address":"東京都八王子市東浅川町968","lat":35.644231,"lon":139.28617},{"name":"多摩小ばと保育園","province":"東京都","city":"八王子市","address":"東京都八王子市石川町3279","lat":35.676281,"lon":139.375861},{"name":"甲ノ原保育園","province":"東京都","city":"八王子市","address":"東京都八王子市中野町2517-2","lat":35.680132,"lon":139.319727},{"name":"光明第四保育園","province":"東京都","city":"八王子市","address":"東京都八王子市横川町603","lat":35.663034,"lon":139.302857},{"name":"光明第五保育園","province":"東京都","city":"八王子市","address":"東京都八王子市山田町1688-2","lat":35.641112,"lon":139.315954},{"name":"打越保育園","province":"東京都","city":"八王子市","address":"東京都八王子市長沼町793","lat":35.643335,"lon":139.363416},{"name":"打越保育園分園","province":"東京都","city":"八王子市","address":"東京都八王子市片倉町717-4","lat":35.640641,"lon":139.342512},{"name":"光明第七保育園","province":"東京都","city":"八王子市","address":"東京都八王子市宮下町354","lat":35.705235,"lon":139.309127},{"name":"共励第二保育園","province":"東京都","city":"八王子市","address":"東京都八王子市川口町2631","lat":35.694477,"lon":139.282311},{"name":"愛光大和田保育園","province":"東京都","city":"八王子市","address":"東京都八王子市大和田町5-9-4","lat":35.663258,"lon":139.351611},{"name":"愛光大和田保育園アネックス","province":"東京都","city":"八王子市","address":"東京都八王子市大和田町五丁目11-18","lat":35.664101,"lon":139.35193},{"name":"愛光大和田保育園ステーション","province":"東京都","city":"八王子市","address":"東京都八王子市明神町四丁目5-3","lat":35.658661,"lon":139.343778},{"name":"敬愛保育園","province":"東京都","city":"八王子市","address":"東京都八王子市散田町五丁目35-5","lat":35.647378,"lon":139.303621},{"name":"諏訪保育園","province":"東京都","city":"八王子市","address":"東京都八王子市諏訪町5","lat":35.677884,"lon":139.288816},{"name":"諏訪保育園のぞみ乳児園","province":"東京都","city":"八王子市","address":"東京都八王子市上壱分方町422-1","lat":35.680551,"lon":139.285944},{"name":"由木保育園","province":"東京都","city":"八王子市","address":"東京都八王子市下柚木15-1","lat":35.63037,"lon":139.383418},{"name":"まや保育園","province":"東京都","city":"八王子市","address":"東京都八王子市寺町1","lat":35.657369,"lon":139.332304},{"name":"八王子ひまわり保育園","province":"東京都","city":"八王子市","address":"東京都八王子市館町1629","lat":35.632908,"lon":139.2989},{"name":"山田保育園","province":"東京都","city":"八王子市","address":"東京都八王子市散田町二丁目46-11","lat":35.648103,"lon":139.316676},{"name":"ベテル保育園","province":"東京都","city":"八王子市","address":"東京都八王子市西寺方町716-2","lat":35.680142,"lon":139.274665},{"name":"敬愛高倉保育園","province":"東京都","city":"八王子市","address":"東京都八王子市高倉町47-2","lat":35.665841,"lon":139.369323},{"name":"まごころ保育園","province":"東京都","city":"八王子市","address":"東京都八王子市館町1097-96","lat":35.627414,"lon":139.287946},{"name":"めじろ保育園","province":"東京都","city":"八王子市","address":"東京都八王子市山田町1888-6","lat":35.641934,"lon":139.314026},{"name":"大塚保育園","province":"東京都","city":"八王子市","address":"東京都八王子市鹿島15","lat":35.634762,"lon":139.423967},{"name":"大塚子どもふれあい館","province":"東京都","city":"八王子市","address":"東京都八王子市大塚620-7","lat":35.636792,"lon":139.417057},{"name":"めぐみ第一保育園","province":"東京都","city":"八王子市","address":"東京都八王子市松が谷14","lat":35.629524,"lon":139.413982},{"name":"松枝保育園","province":"東京都","city":"八王子市","address":"東京都八王子市諏訪町1922-1","lat":35.68229,"lon":139.293018},{"name":"城山保育園","province":"東京都","city":"八王子市","address":"東京都八王子市元八王子町二丁目2025-2","lat":35.656043,"lon":139.280412},{"name":"美山保育園","province":"東京都","city":"八王子市","address":"東京都八王子市美山町1791-3","lat":35.68713,"lon":139.2505},{"name":"白百合ベビーホーム","province":"東京都","city":"八王子市","address":"東京都八王子市元本郷町二丁目6-20","lat":35.663579,"lon":139.319269},{"name":"わらべ保育園","province":"東京都","city":"八王子市","address":"東京都八王子市宇津木町832","lat":35.684935,"lon":139.349572},{"name":"からまつ保育園","province":"東京都","city":"八王子市","address":"東京都八王子市川口町1543","lat":35.68322,"lon":139.296843},{"name":"館ヶ丘保育園","province":"東京都","city":"八王子市","address":"東京都八王子市館町1097","lat":35.627064,"lon":139.287524},{"name":"白百合第二ベビーホーム","province":"東京都","city":"八王子市","address":"東京都八王子市平岡町20-3","lat":35.663937,"lon":139.326674},{"name":"さつき保育園","province":"東京都","city":"八王子市","address":"東京都八王子市大楽寺町347-1","lat":35.673402,"lon":139.292641},{"name":"省我保育園","province":"東京都","city":"八王子市","address":"東京都八王子市大和田町七丁目6-17","lat":35.667373,"lon":139.342359},{"name":"たんぽぽ保育園","province":"東京都","city":"八王子市","address":"東京都八王子市散田町五丁目17-20","lat":35.649461,"lon":139.304652},{"name":"なみのり保育園","province":"東京都","city":"八王子市","address":"東京都八王子市中山858","lat":35.62697,"lon":139.35862},{"name":"フエロー保育園","province":"東京都","city":"八王子市","address":"東京都八王子市大楽寺町508-1","lat":35.672291,"lon":139.296521},{"name":"南原台保育園","province":"東京都","city":"八王子市","address":"東京都八王子市大和田町一丁目3-14","lat":35.66418,"lon":139.360938},{"name":"元木保育園","province":"東京都","city":"八王子市","address":"東京都八王子市下恩方町595","lat":35.680531,"lon":139.267212},{"name":"よろず保育園","province":"東京都","city":"八王子市","address":"東京都八王子市万町3-1","lat":35.655039,"lon":139.334474},{"name":"横川保育園","province":"東京都","city":"八王子市","address":"東京都八王子市横川町108","lat":35.667561,"lon":139.30852},{"name":"白百合寺田保育園","province":"東京都","city":"八王子市","address":"東京都八王子市寺田町432-126","lat":35.62352,"lon":139.309375},{"name":"由木あすなろ保育園","province":"東京都","city":"八王子市","address":"東京都八王子市南大沢三丁目6-1","lat":35.608425,"lon":139.381819},{"name":"南大沢保育園","province":"東京都","city":"八王子市","address":"東京都八王子市南大沢四丁目11","lat":35.609586,"lon":139.378708},{"name":"わらべうつき台保育園","province":"東京都","city":"八王子市","address":"東京都八王子市久保山町一丁目21","lat":35.686141,"lon":139.36044},{"name":"誠美保育園","province":"東京都","city":"八王子市","address":"東京都八王子市南大沢五丁目12","lat":35.611275,"lon":139.370767},{"name":"やまと第一保育園","province":"東京都","city":"八王子市","address":"東京都八王子市別所二丁目32","lat":35.617816,"lon":139.397912},{"name":"敬愛フレンド保育園","province":"東京都","city":"八王子市","address":"東京都八王子市上柚木三丁目7","lat":35.616463,"lon":139.370792},{"name":"このみ保育園","province":"東京都","city":"八王子市","address":"東京都八王子市別所1丁目33-1","lat":35.618505,"lon":139.393637},{"name":"なみのり第二保育園","province":"東京都","city":"八王子市","address":"東京都八王子市下柚木三丁目5","lat":35.620513,"lon":139.37993},{"name":"光明第八保育園","province":"東京都","city":"八王子市","address":"東京都八王子市上柚木三丁目13-2","lat":35.613927,"lon":139.368459},{"name":"せいがの森こども園","province":"東京都","city":"八王子市","address":"東京都八王子市別所一丁目73","lat":35.613111,"lon":139.390471},{"name":"めぐみ第二保育園","province":"東京都","city":"八王子市","address":"東京都八王子市鑓水二丁目79","lat":35.611419,"lon":139.364337},{"name":"つくし保育園","province":"東京都","city":"八王子市","address":"東京都八王子市明神町一丁目22-20","lat":35.6591,"lon":139.347784},{"name":"みなみ野さゆり保育園","province":"東京都","city":"八王子市","address":"東京都八王子市七国五丁目14-1","lat":35.622898,"lon":139.318771},{"name":"敬愛たかお保育園","province":"東京都","city":"八王子市","address":"東京都八王子市東浅川町550-32","lat":35.644434,"lon":139.290011},{"name":"まつの木保育園","province":"東京都","city":"八王子市","address":"東京都八王子市松木6-2","lat":35.627231,"lon":139.391004},{"name":"敬愛きたの保育園","province":"東京都","city":"八王子市","address":"東京都八王子市北野町545-3","lat":35.645432,"lon":139.354764},{"name":"みなみ野敬愛保育園","province":"東京都","city":"八王子市","address":"東京都八王子市七国3-53-1","lat":35.616372,"lon":139.32146},{"name":"駅前なかよし保育園第１","province":"東京都","city":"八王子市","address":"東京都八王子市別所一丁目9-3","lat":35.623552,"lon":139.399316},{"name":"ひなた保育園","province":"東京都","city":"八王子市","address":"東京都八王子市石川町1094-2","lat":35.681172,"lon":139.371875},{"name":"敬愛ハーモニー保育園","province":"東京都","city":"八王子市","address":"東京都八王子市大和田町二丁目20-2","lat":35.665418,"lon":139.36041},{"name":"さゆりの丘保育園","province":"東京都","city":"八王子市","address":"東京都八王子市宇津貫町945","lat":35.627856,"lon":139.331914},{"name":"わらべ里山保育園","province":"東京都","city":"八王子市","address":"東京都八王子市堀之内1200","lat":35.635839,"lon":139.388926},{"name":"敬愛クレヨン保育園","province":"東京都","city":"八王子市","address":"東京都八王子市散田町五丁目8-20","lat":35.647989,"lon":139.298908},{"name":"白百合椚田保育園","province":"東京都","city":"八王子市","address":"東京都八王子市椚田町529-5","lat":35.636835,"lon":139.310979},{"name":"フエロー第二保育園","province":"東京都","city":"八王子市","address":"東京都八王子市中野上町一丁目15-8","lat":35.666681,"lon":139.327121},{"name":"若葉の丘保育園","province":"東京都","city":"八王子市","address":"東京都八王子市鑓水二丁目77","lat":35.610167,"lon":139.361262},{"name":"駅前なかよし保育園第２","province":"東京都","city":"八王子市","address":"東京都八王子市堀之内三丁目30-7","lat":35.626579,"lon":139.400427},{"name":"北野ひなた保育園","province":"東京都","city":"八王子市","address":"東京都八王子市打越町2003-4","lat":35.645399,"lon":139.351267},{"name":"みころん保育園","province":"東京都","city":"八王子市","address":"東京都八王子市初沢町1303番地","lat":35.639651,"lon":139.283018},{"name":"みころん保育園分園","province":"東京都","city":"八王子市","address":"東京都八王子市初沢町1348","lat":35.64132,"lon":139.282387},{"name":"保育園コスモ・アレー","province":"東京都","city":"八王子市","address":"東京都八王子市東浅川町709-1","lat":35.640231,"lon":139.294317},{"name":"京王キッズプラッツ南大沢","province":"東京都","city":"八王子市","address":"東京都八王子市南大沢二丁目27番地","lat":35.611194,"lon":139.382552},{"name":"星の子保育園","province":"東京都","city":"八王子市","address":"東京都八王子市片倉町704-14","lat":35.64081,"lon":139.341024},{"name":"堀之内プチ・クレイシュ","province":"東京都","city":"八王子市","address":"東京都八王子市別所二丁目2-1","lat":35.62498,"lon":139.401776},{"name":"敬愛シンフォニー保育園","province":"東京都","city":"八王子市","address":"東京都八王子市散田町四丁目7-11","lat":35.65206,"lon":139.304538},{"name":"ピノキオ幼児舎西八王子保育園","province":"東京都","city":"八王子市","address":"東京都八王子市千人町二丁目18-7","lat":35.65771,"lon":139.31154},{"name":"真理学園幼稚園","province":"東京都","city":"八王子市","address":"東京都八王子市別所二丁目24","lat":35.620941,"lon":139.401272},{"name":"聖徳学園八王子中央幼稚園","province":"東京都","city":"八王子市","address":"東京都八王子市椚田町1003","lat":35.639618,"lon":139.303346},{"name":"聖徳学園多摩中央幼稚園","province":"東京都","city":"八王子市","address":"東京都八王子市鹿島1","lat":35.63249,"lon":139.427795},{"name":"麻生学園南多摩幼稚園","province":"東京都","city":"八王子市","address":"東京都八王子市南大沢三丁目10","lat":35.605831,"lon":139.380361},{"name":"帝京大学幼稚園","province":"東京都","city":"八王子市","address":"東京都八王子市大塚359","lat":35.64174,"lon":139.419748},{"name":"なかよし幼稚園","province":"東京都","city":"八王子市","address":"東京都八王子市台町四丁目34-11","lat":35.657788,"lon":139.317533},{"name":"多摩なかよし幼稚園","province":"東京都","city":"八王子市","address":"東京都八王子市南大沢五丁目23","lat":35.610796,"lon":139.369636},{"name":"八王子実践幼稚園","province":"東京都","city":"八王子市","address":"東京都八王子市台町一丁目12-15","lat":35.65078,"lon":139.327466},{"name":"武蔵野幼稚園","province":"東京都","city":"八王子市","address":"東京都八王子市松が谷24","lat":35.630554,"lon":139.418885},{"name":"柚木武蔵野幼稚園","province":"東京都","city":"八王子市","address":"東京都八王子市上柚木三丁目8","lat":35.616083,"lon":139.370329},{"name":"サンライズ幼稚園","province":"東京都","city":"八王子市","address":"東京都八王子市片倉町1296-6","lat":35.630381,"lon":139.346524},{"name":"横川幼稚園","province":"東京都","city":"八王子市","address":"東京都八王子市横川町209","lat":35.667733,"lon":139.306681},{"name":"よこかわキッズステーション","province":"東京都","city":"八王子市","address":"東京都八王子市散田町3-1-16-101","lat":35.656612,"lon":139.310988},{"name":"グリーンヒル幼稚園","province":"東京都","city":"八王子市","address":"東京都八王子市寺田町432","lat":35.622187,"lon":139.307623},{"name":"八王子白百合幼稚園","province":"東京都","city":"八王子市","address":"東京都八王子市長房町75-1","lat":35.660412,"lon":139.303349},{"name":"なかの幼稚園","province":"東京都","city":"八王子市","address":"東京都八王子市中野上町五丁目32-13","lat":35.675055,"lon":139.314978},{"name":"長沼幼稚園","province":"東京都","city":"八王子市","address":"東京都八王子市長沼町960-11","lat":35.641546,"lon":139.363799},{"name":"本町幼稚園","province":"東京都","city":"八王子市","address":"東京都八王子市本町16-3","lat":35.661346,"lon":139.331929},{"name":"犬目幼稚園","province":"東京都","city":"八王子市","address":"東京都八王子市犬目町488","lat":35.687245,"lon":139.311448},{"name":"永明院ルンビニ幼稚園","province":"東京都","city":"八王子市","address":"東京都八王子市山田町1622","lat":35.647422,"lon":139.318645},{"name":"セント・ベル幼稚園","province":"東京都","city":"八王子市","address":"東京都八王子市並木町33-2","lat":35.654929,"lon":139.303313},{"name":"高尾幼稚園","province":"東京都","city":"八王子市","address":"東京都八王子市東浅川町515-5","lat":35.645831,"lon":139.296852},{"name":"たてまち幼稚園","province":"東京都","city":"八王子市","address":"東京都八王子市館町2435","lat":35.627681,"lon":139.294789},{"name":"東京ゆりかご幼稚園","province":"東京都","city":"八王子市","address":"東京都八王子市七国3-50-2","lat":35.616217,"lon":139.327183},{"name":"八王子桑の実幼稚園","province":"東京都","city":"八王子市","address":"東京都八王子市諏訪町212","lat":35.677809,"lon":139.291646},{"name":"八王子すみれ幼稚園","province":"東京都","city":"八王子市","address":"東京都八王子市丹木町二丁目355","lat":35.696022,"lon":139.333842},{"name":"みころも幼稚園","province":"東京都","city":"八王子市","address":"東京都八王子市初沢町1310","lat":35.639179,"lon":139.283096},{"name":"元八王子幼稚園","province":"東京都","city":"八王子市","address":"東京都八王子市元八王子町二丁目1012-3","lat":35.662409,"lon":139.283919},{"name":"かしわ幼稚園","province":"東京都","city":"八王子市","address":"東京都八王子市明神町一丁目20-7","lat":35.660441,"lon":139.347889},{"name":"聖公会八王子幼稚園","province":"東京都","city":"八王子市","address":"東京都八王子市新町1-11","lat":35.660155,"lon":139.341195},{"name":"八王子幼稚園","province":"東京都","city":"八王子市","address":"東京都八王子市天神町22-1","lat":35.657296,"lon":139.329952},{"name":"おさひめ幼稚園","province":"東京都","city":"八王子市","address":"東京都八王子市下柚木1982","lat":35.631925,"lon":139.365317},{"name":"キッズスペースドリーム大和田","province":"東京都","city":"八王子市","address":"東京都八王子市大和田町4-21-6","lat":35.667052,"lon":139.354144},{"name":"こばと保育園","province":"東京都","city":"八王子市","address":"東京都八王子市中野上町1-32-19","lat":35.668445,"lon":139.322344},{"name":"わくわくランド","province":"東京都","city":"八王子市","address":"東京都八王子市千人町3-1-8","lat":35.65611,"lon":139.311142},{"name":"キッズルームあおい","province":"東京都","city":"八王子市","address":"東京都八王子市子安町3-23-14","lat":35.650414,"lon":139.338193},{"name":"テクノすくすく保育園","province":"東京都","city":"八王子市","address":"東京都八王子市打越町2002-7","lat":35.644735,"lon":139.351911},{"name":"創価大学つばさ保育所","province":"東京都","city":"八王子市","address":"東京都八王子市丹木町1-236","lat":35.68942,"lon":139.32852},{"name":"サニー・ベル","province":"東京都","city":"八王子市","address":"東京都八王子市並木町36-19","lat":35.65386,"lon":139.30389},{"name":"クラージュ保育園","province":"東京都","city":"八王子市","address":"東京都八王子市七国4-13-1","lat":35.622121,"lon":139.31733},{"name":"なかの幼稚園内保育所さくら","province":"東京都","city":"八王子市","address":"東京都八王子市中野上町5-39-15","lat":35.675116,"lon":139.314425},{"name":"安斉　洋子","province":"東京都","city":"八王子市","address":"東京都八王子市長沼町738-22","lat":35.64386,"lon":139.367313},{"name":"ピッコロ保育室","province":"東京都","city":"八王子市","address":"東京都八王子市堀之内3-3-28","lat":35.62704,"lon":139.39957},{"name":"めだかの子家庭保育室","province":"東京都","city":"八王子市","address":"東京都八王子市大和田町4-8-12","lat":35.664319,"lon":139.354852},{"name":"木村　卯多子","province":"東京都","city":"八王子市","address":"東京都八王子市元八王子町2-1354-13","lat":35.663145,"lon":139.284528},{"name":"mignon bébé（ミニヨンベベ）","province":"東京都","city":"八王子市","address":"東京都八王子市横川町108-171","lat":35.665556,"lon":139.309542},{"name":"川和　由美子","province":"東京都","city":"八王子市","address":"東京都八王子市片倉町14-2","lat":35.646409,"lon":139.333146},{"name":"平井　律子","province":"東京都","city":"八王子市","address":"東京都八王子市めじろ台3-42-5","lat":35.640304,"lon":139.308196},{"name":"オーシャンキッズルーム","province":"東京都","city":"八王子市","address":"東京都八王子市犬目町221-4","lat":35.680988,"lon":139.314375},{"name":"こにし保育ママの家","province":"東京都","city":"八王子市","address":"東京都八王子市館町1915-10","lat":35.628781,"lon":139.29902},{"name":"丘の上保育室","province":"東京都","city":"八王子市","address":"東京都八王子市大船町156-38","lat":35.624795,"lon":139.314044},{"name":"由木めぐみ野保育室","province":"東京都","city":"八王子市","address":"東京都八王子市下柚木1400-47","lat":35.629128,"lon":139.373369},{"name":"峰岸　百合","province":"東京都","city":"八王子市","address":"東京都八王子市諏訪町156","lat":35.676479,"lon":139.294127},{"name":"スマイルベビールーム","province":"東京都","city":"八王子市","address":"東京都八王子市みなみ野4-16-13","lat":35.626131,"lon":139.321459},{"name":"おひさまルーム","province":"東京都","city":"八王子市","address":"東京都八王子市鑓水2-68-10","lat":35.612939,"lon":139.36111},{"name":"保育室ももの木","province":"東京都","city":"八王子市","address":"東京都八王子市散田町1-2-3","lat":35.65503,"lon":139.315848},{"name":"ベビールーム　アンジュ","province":"東京都","city":"八王子市","address":"東京都八王子市本町22-9","lat":35.662735,"lon":139.331224},{"name":"ピヨピヨ保育室　ひよっこ","province":"東京都","city":"八王子市","address":"東京都八王子市片倉町937-103","lat":35.634827,"lon":139.346351},{"name":"笠原保育室","province":"東京都","city":"八王子市","address":"東京都八王子市川口町3715-14","lat":35.686511,"lon":139.283577},{"name":"八王子エンゼルホーム","province":"東京都","city":"八王子市","address":"東京都八王子市明神町4-7-3","lat":35.657863,"lon":139.341984},{"name":"八王子みなみ野雲母保育園","province":"東京都","city":"八王子市","address":"東京都八王子市西片倉2-1-3","lat":35.633466,"lon":139.330994},{"name":"キッズスペースドリーム","province":"東京都","city":"八王子市","address":"東京都八王子市寺町23-5","lat":35.656516,"lon":139.331681},{"name":"ココファン・ナーサリー八王子南館","province":"東京都","city":"八王子市","address":"東京都八王子市旭町1-17","lat":35.654678,"lon":139.33889},{"name":"ほっぺるランド西八王子","province":"東京都","city":"八王子市","address":"東京都八王子市千人町1-1-11","lat":35.660018,"lon":139.315817},{"name":"ルカ保育園","province":"東京都","city":"八王子市","address":"東京都八王子市子安町4-13-8","lat":35.653803,"lon":139.336093},{"name":"ココファン・ナーサリー八王子北館","province":"東京都","city":"八王子市","address":"東京都八王子市旭町1-1セレオ八王子北館5階","lat":35.654678,"lon":139.33889}]}