{"keyword":"戸数","data":[{"name":"八王子市社会福祉協議会","province":"東京都","city":"八王子市","address":"八王子市元本郷町3-24-1八王子市役所内","lat":35.666569,"lon":139.316075},{"name":"八王子市","province":"東京都","city":"八王子市","address":"八王子市元本郷町3-24-1","lat":35.66657,"lon":139.316075},{"name":"（株）愛礼儀典","province":"東京都","city":"八王子市","address":"東京都八王子市楢原町1042","lat":35.68145096,"lon":139.30872197},{"name":"（株）愛和セレモニー","province":"東京都","city":"八王子市","address":"東京都八王子市千人町4丁目2-23","lat":35.65598713,"lon":139.30902557},{"name":"アットホームなお葬式","province":"東京都","city":"八王子市","address":"東京都八王子市大和田町6丁目10-26","lat":35.66341231,"lon":139.34859969},{"name":"（株）伊藤祐次商店","province":"東京都","city":"八王子市","address":"東京都八王子市八幡町13-8","lat":35.66062877,"lon":139.32752939},{"name":"(株)追分葬儀社","province":"東京都","city":"八王子市","address":"東京都八王子市追分町8-10","lat":35.66061742,"lon":139.31834685},{"name":"おぐら葬祭・（株）アットイーズ","province":"東京都","city":"八王子市","address":"東京都八王子市高尾町1599","lat":35.64431564,"lon":139.28310602},{"name":"（株）雅邦","province":"東京都","city":"八王子市","address":"東京都八王子市川口町1690-53","lat":35.68914129,"lon":139.29450338},{"name":"キクヤセレモニー","province":"東京都","city":"八王子市","address":"東京都八王子市寺町39","lat":35.65612112,"lon":139.33360958},{"name":"煌ハートセレモニー","province":"東京都","city":"八王子市","address":"東京都八王子市川口町1905-8","lat":35.69106313,"lon":139.2907314},{"name":"（株）くらしの友","province":"東京都","city":"八王子市","address":"東京都八王子市北野町538-21","lat":35.64703928,"lon":139.35210547},{"name":"京王メモリアル北野","province":"東京都","city":"八王子市","address":"東京都八王子市打越町331-1","lat":35.64400078,"lon":139.35396374},{"name":"（株）サン・ライフ","province":"東京都","city":"八王子市","address":"東京都八王子市大和田町6丁目2-9","lat":35.66424547,"lon":139.34497497},{"name":"（株）セレモア八王子本社","province":"東京都","city":"八王子市","address":"東京都八王子市大横町13-20","lat":35.66290077,"lon":139.32879031},{"name":"セレモハイネス(株）","province":"東京都","city":"八王子市","address":"東京都八王子市山田町1688-4","lat":35.64050017,"lon":139.31601442},{"name":"千の風　八王子斎場","province":"東京都","city":"八王子市","address":"東京都八王子市椚田町535-15","lat":35.63859475,"lon":139.31153156},{"name":"葬儀支援サービス・（株）三峰","province":"東京都","city":"八王子市","address":"東京都八王子市大船町153-46","lat":35.62624359,"lon":139.31234867},{"name":"（株）葬儀の大地","province":"東京都","city":"八王子市","address":"東京都八王子市散田町4丁目15-6","lat":35.65248193,"lon":139.30783691},{"name":"たくみ葬祭","province":"東京都","city":"八王子市","address":"東京都八王子市中野上町1丁目2-8","lat":35.66781694,"lon":139.33080942},{"name":"多摩福祉葬祭","province":"東京都","city":"八王子市","address":"東京都八王子市大塚1687-3","lat":35.63379505,"lon":139.41619514},{"name":"東花堂","province":"東京都","city":"八王子市","address":"東京都八王子市中山446","lat":35.62826944,"lon":139.36423844},{"name":"（株）トレセレ","province":"東京都","city":"八王子市","address":"東京都八王子市鑓水2020-1","lat":35.61522366,"lon":139.35550922},{"name":"（株）ドリーミー","province":"東京都","city":"八王子市","address":"東京都八王子市長沼町854-3","lat":35.6424206,"lon":139.36414902},{"name":"（有）西東京葬祭","province":"東京都","city":"八王子市","address":"東京都八王子市楢原町1473","lat":35.68226455,"lon":139.30139754},{"name":"（株）富士白蓮社","province":"東京都","city":"八王子市","address":"東京都八王子市梅坪町62-1","lat":35.68749543,"lon":139.33830812},{"name":"（株）Plants（プランツ）","province":"東京都","city":"八王子市","address":"東京都八王子市千人町3丁目12-5","lat":35.65808963,"lon":139.30706458},{"name":"マインドセレモニー","province":"東京都","city":"八王子市","address":"東京都八王子市元本郷町1丁目27-10","lat":35.66531147,"lon":139.32316293},{"name":"（株）溝口祭典","province":"東京都","city":"八王子市","address":"東京都八王子市元横山町2丁目14-19","lat":35.66171777,"lon":139.33625916},{"name":"（株）都典礼","province":"東京都","city":"八王子市","address":"東京都八王子市打越町1364-1","lat":35.64413402,"lon":139.34996409},{"name":"メモアールまちだ・（有）町田商店","province":"東京都","city":"八王子市","address":"東京都八王子市天神町14","lat":35.65762922,"lon":139.33169025},{"name":"メモリーサポート","province":"東京都","city":"八王子市","address":"東京都八王子市下柚木1941-9","lat":35.63261896,"lon":139.36587146},{"name":"株式会社丸勝葬祭","province":"東京都","city":"八王子市","address":"東京都八王子市元八王子町3丁目2232","lat":35.65491687,"lon":139.27515906},{"name":"（有）東京相互葬祭","province":"東京都","city":"八王子市","address":"東京都八王子市小宮町747-1","lat":35.68729323,"lon":139.36608355},{"name":"八王子市社会福祉協議会","province":"東京都","city":"八王子市","address":"八王子市元本郷町3-24-1八王子市役所内","lat":35.6665,"lon":139.31616},{"name":"八王子市福祉部高齢者福祉課","province":"東京都","city":"八王子市","address":"八王子市元本郷町3-24-1","lat":35.666496,"lon":139.316162},{"name":"八王子市高齢者あんしん相談センター旭町","province":"東京都","city":"八王子市","address":"八王子市旭町8-10比留間ビル3階","lat":35.657585,"lon":139.338303},{"name":"八王子市高齢者あんしん相談センター高尾","province":"東京都","city":"八王子市","address":"八王子市東浅川町551-1東浅川保健福祉センター2階","lat":35.645088,"lon":139.293137},{"name":"八王子市高齢者あんしん相談センター左入","province":"東京都","city":"八王子市","address":"八王子市左入町372-4","lat":35.685505,"lon":139.34639},{"name":"八王子市高齢者あんしん相談センター中野","province":"東京都","city":"八王子市","address":"八王子市中野上町4-27-4ボナールHONDA1階","lat":35.670242,"lon":139.316483},{"name":"八王子市高齢者あんしん相談センター南大沢","province":"東京都","city":"八王子市","address":"八王子市南大沢2-17-5","lat":35.611408,"lon":139.382706},{"name":"八王子市高齢者あんしん相談センターめじろ","province":"東京都","city":"八王子市","address":"八王子市めじろ台2-55-5","lat":35.641174,"lon":139.313736},{"name":"八王子市高齢者あんしん相談センター長沼","province":"東京都","city":"八王子市","address":"八王子市長沼町1302-1都営長沼第二アパート16号棟1階","lat":35.884872,"lon":139.611465},{"name":"八王子市高齢者あんしん相談センター川口","province":"東京都","city":"八王子市","address":"八王子市川口町908-1川口事務所内","lat":35.693378,"lon":139.279099},{"name":"八王子市高齢者あんしん相談センター片倉","province":"東京都","city":"八王子市","address":"八王子市片倉町440-2","lat":35.642548,"lon":139.340469},{"name":"八王子市高齢者あんしん相談センター堀之内","province":"東京都","city":"八王子市","address":"八王子市堀之内1206","lat":35.63586,"lon":139.388535},{"name":"八王子市高齢者あんしん相談センター長房","province":"東京都","city":"八王子市","address":"八王子市長房町588、長房アパート西22号棟1階","lat":35.660057,"lon":139.331146},{"name":"八王子市高齢者あんしん相談センター子安","province":"東京都","city":"八王子市","address":"八王子市子安町4-10-9西村ビル4階","lat":35.653934,"lon":139.337601},{"name":"八王子市高齢者あんしん相談センターもとはち南","province":"東京都","city":"八王子市","address":"八王子市元八王子町2-1946-2宮崎ビル101","lat":35.659649,"lon":139.280975},{"name":"八王子市高齢者あんしん相談センター寺田","province":"東京都","city":"八王子市","address":"八王子市寺田町137-1","lat":35.631626,"lon":139.310333},{"name":"八王子市高齢者あんしん相談センター大横","province":"東京都","city":"八王子市","address":"八王子市大横町11-35、大横保健福祉センター4階","lat":35.664471,"lon":139.328445},{"name":"八王子市高齢者あんしん相談センター恩方","province":"東京都","city":"八王子市","address":"八王子市下恩方町3395恩方事務所内","lat":35.669819,"lon":139.248489},{"name":"市民部消費生活センター","province":"東京都","city":"八王子市","address":"八王子市東町5-6クリエイトホール地下1階","lat":35.658527,"lon":139.339554},{"name":"八王子市高齢者あんしん相談センター由木東","province":"東京都","city":"八王子市","address":"八王子市鹿島111-1由木東事務所内","lat":35.634281,"lon":139.422501},{"name":"八王子市高齢者あんしん相談センター石川","province":"東京都","city":"八王子市","address":"八王子市石川町481石川事務所内","lat":35.680756,"lon":139.366241},{"name":"東京医科大学八王子医療センター","province":"東京都","city":"八王子市","address":"東京都八王子市館町1163","lat":35.63195929,"lon":139.28900889},{"name":"東海大学八王子病院","province":"東京都","city":"八王子市","address":"東京都八王子市石川町1838","lat":35.67377242,"lon":139.35707362},{"name":"八王子市斎場","province":"東京都","city":"八王子市","address":"東京都八王子市山田町1681-2","lat":35.6428166,"lon":139.31698648},{"name":"鑓水給水所","province":"東京都","city":"八王子市","address":"東京都八王子市鑓水401","lat":35.62415583,"lon":139.34980654},{"name":"狭間給水所","province":"東京都","city":"八王子市","address":"東京都八王子市狭間町1994-478","lat":35.63029296,"lon":139.27876559},{"name":"犬目第二給水所","province":"東京都","city":"八王子市","address":"東京都八王子市犬目町710","lat":35.69936256,"lon":139.30266063},{"name":"散田給水所","province":"東京都","city":"八王子市","address":"東京都八王子市散田町2丁目6-1","lat":35.65135168,"lon":139.31473913},{"name":"東浅川給水所","province":"東京都","city":"八王子市","address":"東京都八王子市東浅川町674-42","lat":35.64237733,"lon":139.29781872},{"name":"元八王子配水所","province":"東京都","city":"八王子市","address":"東京都八王子市元八王子町3丁目2750-487","lat":35.64669566,"lon":139.26642416},{"name":"北野給水所","province":"東京都","city":"八王子市","address":"東京都八王子市北野町595-3","lat":35.65385799,"lon":139.35498833},{"name":"楢原給水所","province":"東京都","city":"八王子市","address":"東京都八王子市楢原町1294-3","lat":35.67707642,"lon":139.30724447},{"name":"暁町配水所","province":"東京都","city":"八王子市","address":"東京都八王子市暁町3丁目3-1","lat":35.67475519,"lon":139.3369892},{"name":"鑓水小山給水所","province":"東京都","city":"八王子市","address":"東京都八王子市鑓水2丁目92","lat":35.60622202,"lon":139.36017588},{"name":"清川河川敷広場","province":"東京都","city":"八王子市","address":"東京都八王子市清川町19","lat":35.67043837,"lon":139.31111937},{"name":"滝が原運動場","province":"東京都","city":"八王子市","address":"東京都八王子市高月町2401","lat":35.70420999,"lon":139.32938606},{"name":"八王子市立由木中学校校庭","province":"東京都","city":"八王子市","address":"東京都八王子市下柚木2丁目34-2","lat":35.62702284,"lon":139.38510899},{"name":"西寺方グラウンド野球場","province":"東京都","city":"八王子市","address":"東京都八王子市西寺方町626","lat":35.68011387,"lon":139.27269728},{"name":"拓殖大学グラウンド","province":"東京都","city":"八王子市","address":"東京都八王子市館町815-1","lat":35.62907928,"lon":139.27986556},{"name":"共立女子学園グラウンド","province":"東京都","city":"八王子市","address":"東京都八王子市元八王子町1丁目710","lat":35.66072221,"lon":139.28961323},{"name":"東海大学八王子病院へリポート","province":"東京都","city":"八王子市","address":"東京都八王子市石川町1838","lat":35.67377242,"lon":139.35707362},{"name":"元横山２号河川敷広場","province":"東京都","city":"八王子市","address":"東京都八王子市田町4","lat":35.66624502,"lon":139.33558406},{"name":"八王子市立富士森公園陸上競技場","province":"東京都","city":"八王子市","address":"東京都八王子市台町2丁目2","lat":35.65092139,"lon":139.3227357},{"name":"八王子市立大塚公園運動場","province":"東京都","city":"八王子市","address":"東京都八王子市松が谷66","lat":35.63167023,"lon":139.41335657},{"name":"東京医科大学八王子医療センターへリポート","province":"東京都","city":"八王子市","address":"東京都八王子市館町1163","lat":35.63195929,"lon":139.28900889},{"name":"首都大学東京南大沢キャンパスグラウンド","province":"東京都","city":"八王子市","address":"東京都八王子市南大沢1丁目1","lat":35.61654608,"lon":139.37719898},{"name":"高尾の森わくわくビレッジ","province":"東京都","city":"八王子市","address":"八王子市市川町55","lat":35.67045013,"lon":139.2798417},{"name":"八王子市選挙管理委員会","province":"東京都","city":"八王子市","address":"八王子市元本郷町3-24-1","lat":35.666428,"lon":139.315993},{"name":"首都大学東京南大沢キャンパス","province":"東京都","city":"八王子市","address":"東京都八王子市南大沢1丁目1","lat":35.61654608,"lon":139.37719898},{"name":"八王子都税事務所","province":"東京都","city":"八王子市","address":"東京都八王子市明神町3丁目19-2","lat":35.65675182,"lon":139.34245322},{"name":"労働相談情報センター八王子事務所","province":"東京都","city":"八王子市","address":"東京都八王子市明神町3丁目5-1","lat":35.65595477,"lon":139.34558075},{"name":"多摩職業能力開発センター八王子校","province":"東京都","city":"八王子市","address":"東京都八王子市台町1丁目11-1","lat":35.64984943,"lon":139.32771865},{"name":"八王子北高等学校","province":"東京都","city":"八王子市","address":"東京都八王子市楢原町601","lat":35.68519758,"lon":139.30295007},{"name":"八王子拓真高等学校","province":"東京都","city":"八王子市","address":"東京都八王子市台町3丁目25-1","lat":35.65470693,"lon":139.31724991},{"name":"南多摩中等教育学校","province":"東京都","city":"八王子市","address":"東京都八王子市明神町4丁目20-1","lat":35.66063198,"lon":139.34429182},{"name":"八王子桑志高等学校","province":"東京都","city":"八王子市","address":"東京都八王子市千人町4丁目8-1","lat":35.65808959,"lon":139.30537307},{"name":"片倉高等学校","province":"東京都","city":"八王子市","address":"東京都八王子市片倉町1643","lat":35.62971325,"lon":139.34077375},{"name":"翔陽高等学校","province":"東京都","city":"八王子市","address":"東京都八王子市館町1097-136","lat":35.62922368,"lon":139.29131717},{"name":"八王子東高等学校","province":"東京都","city":"八王子市","address":"東京都八王子市高倉町68-1","lat":35.66190448,"lon":139.36441227},{"name":"富士森高等学校","province":"東京都","city":"八王子市","address":"東京都八王子市長房町420-2","lat":35.65720628,"lon":139.30200118},{"name":"松が谷高等学校","province":"東京都","city":"八王子市","address":"東京都八王子市松が谷1772","lat":35.62826501,"lon":139.41032919},{"name":"相武国道事務所","province":"東京都","city":"八王子市","address":"八王子市大和田町4-3-13","lat":35.66372,"lon":139.3554},{"name":"南多摩西部建設事務所","province":"東京都","city":"八王子市","address":"八王子市明神町3-19-2","lat":35.65639,"lon":139.3435},{"name":"八王子支社","province":"東京都","city":"八王子市","address":"八王子市宇津木町231","lat":35.67749,"lon":139.3437},{"name":"八王子保全・サービスセンター","province":"東京都","city":"八王子市","address":"八王子市宇津木町287-1","lat":35.67785,"lon":139.3459},{"name":"戸吹清掃工場","province":"東京都","city":"八王子市","address":"八王子市戸吹町1916","lat":35.700718,"lon":139.292725},{"name":"北野清掃工場","province":"東京都","city":"八王子市","address":"八王子市北野町596-3","lat":35.655785,"lon":139.351822},{"name":"八王子市社会福祉協議会","province":"東京都","city":"八王子市","address":"八王子市元本郷町3-24-1八王子市役所内","lat":35.666569,"lon":139.316075},{"name":"八王子市社会福祉協議会","province":"東京都","city":"八王子市","address":"八王子市元本郷町3-24-1八王子市役所内","lat":35.6665,"lon":139.31616},{"name":"八王子市福祉部高齢者福祉課","province":"東京都","city":"八王子市","address":"八王子市元本郷町3-24-1","lat":35.666496,"lon":139.316162},{"name":"八王子市高齢者あんしん相談センター旭町","province":"東京都","city":"八王子市","address":"八王子市旭町8-10比留間ビル3階","lat":35.657585,"lon":139.338303},{"name":"八王子市高齢者あんしん相談センター高尾","province":"東京都","city":"八王子市","address":"八王子市東浅川町551-1東浅川保健福祉センター2階","lat":35.645088,"lon":139.293137},{"name":"八王子市高齢者あんしん相談センター左入","province":"東京都","city":"八王子市","address":"八王子市左入町372-4","lat":35.685505,"lon":139.34639},{"name":"八王子市高齢者あんしん相談センター中野","province":"東京都","city":"八王子市","address":"八王子市中野上町4-27-4ボナールHONDA1階","lat":35.670242,"lon":139.316483},{"name":"八王子市高齢者あんしん相談センター南大沢","province":"東京都","city":"八王子市","address":"八王子市南大沢2-17-5","lat":35.611408,"lon":139.382706},{"name":"八王子市高齢者あんしん相談センターめじろ","province":"東京都","city":"八王子市","address":"八王子市めじろ台2-55-5","lat":35.641174,"lon":139.313736},{"name":"八王子市高齢者あんしん相談センター長沼","province":"東京都","city":"八王子市","address":"八王子市長沼町1302-1都営長沼第二アパート16号棟1階","lat":35.884872,"lon":139.611465},{"name":"八王子市高齢者あんしん相談センター川口","province":"東京都","city":"八王子市","address":"八王子市川口町908-1川口事務所内","lat":35.693378,"lon":139.279099},{"name":"八王子市高齢者あんしん相談センター片倉","province":"東京都","city":"八王子市","address":"八王子市片倉町440-2","lat":35.642548,"lon":139.340469},{"name":"八王子市高齢者あんしん相談センター堀之内","province":"東京都","city":"八王子市","address":"八王子市堀之内1206","lat":35.63586,"lon":139.388535},{"name":"八王子市高齢者あんしん相談センター長房","province":"東京都","city":"八王子市","address":"八王子市長房町588、長房アパート西22号棟1階","lat":35.660057,"lon":139.331146},{"name":"八王子市高齢者あんしん相談センター子安","province":"東京都","city":"八王子市","address":"八王子市子安町4-10-9西村ビル4階","lat":35.653934,"lon":139.337601},{"name":"八王子市高齢者あんしん相談センターもとはち南","province":"東京都","city":"八王子市","address":"八王子市元八王子町2-1946-2宮崎ビル101","lat":35.659649,"lon":139.280975},{"name":"八王子市高齢者あんしん相談センター寺田","province":"東京都","city":"八王子市","address":"八王子市寺田町137-1","lat":35.631626,"lon":139.310333},{"name":"八王子市高齢者あんしん相談センター大横","province":"東京都","city":"八王子市","address":"八王子市大横町11-35、大横保健福祉センター4階","lat":35.664471,"lon":139.328445},{"name":"八王子市高齢者あんしん相談センター恩方","province":"東京都","city":"八王子市","address":"八王子市下恩方町3395恩方事務所内","lat":35.669819,"lon":139.248489},{"name":"市民部消費生活センター","province":"東京都","city":"八王子市","address":"八王子市東町5-6クリエイトホール地下1階","lat":35.658527,"lon":139.339554},{"name":"八王子市高齢者あんしん相談センター由木東","province":"東京都","city":"八王子市","address":"八王子市鹿島111-1由木東事務所内","lat":35.634281,"lon":139.422501},{"name":"八王子市高齢者あんしん相談センター石川","province":"東京都","city":"八王子市","address":"八王子市石川町481石川事務所内","lat":35.680756,"lon":139.366241},{"name":"東京医科大学八王子医療センター","province":"東京都","city":"八王子市","address":"東京都八王子市館町1163","lat":35.63195929,"lon":139.28900889},{"name":"東海大学八王子病院","province":"東京都","city":"八王子市","address":"東京都八王子市石川町1838","lat":35.67377242,"lon":139.35707362},{"name":"八王子市斎場","province":"東京都","city":"八王子市","address":"東京都八王子市山田町1681-2","lat":35.6428166,"lon":139.31698648},{"name":"鑓水給水所","province":"東京都","city":"八王子市","address":"東京都八王子市鑓水401","lat":35.62415583,"lon":139.34980654},{"name":"狭間給水所","province":"東京都","city":"八王子市","address":"東京都八王子市狭間町1994-478","lat":35.63029296,"lon":139.27876559},{"name":"犬目第二給水所","province":"東京都","city":"八王子市","address":"東京都八王子市犬目町710","lat":35.69936256,"lon":139.30266063},{"name":"散田給水所","province":"東京都","city":"八王子市","address":"東京都八王子市散田町2丁目6-1","lat":35.65135168,"lon":139.31473913},{"name":"東浅川給水所","province":"東京都","city":"八王子市","address":"東京都八王子市東浅川町674-42","lat":35.64237733,"lon":139.29781872},{"name":"元八王子配水所","province":"東京都","city":"八王子市","address":"東京都八王子市元八王子町3丁目2750-487","lat":35.64669566,"lon":139.26642416},{"name":"北野給水所","province":"東京都","city":"八王子市","address":"東京都八王子市北野町595-3","lat":35.65385799,"lon":139.35498833},{"name":"楢原給水所","province":"東京都","city":"八王子市","address":"東京都八王子市楢原町1294-3","lat":35.67707642,"lon":139.30724447},{"name":"暁町配水所","province":"東京都","city":"八王子市","address":"東京都八王子市暁町3丁目3-1","lat":35.67475519,"lon":139.3369892},{"name":"鑓水小山給水所","province":"東京都","city":"八王子市","address":"東京都八王子市鑓水2丁目92","lat":35.60622202,"lon":139.36017588},{"name":"清川河川敷広場","province":"東京都","city":"八王子市","address":"東京都八王子市清川町19","lat":35.67043837,"lon":139.31111937},{"name":"滝が原運動場","province":"東京都","city":"八王子市","address":"東京都八王子市高月町2401","lat":35.70420999,"lon":139.32938606},{"name":"八王子市立由木中学校校庭","province":"東京都","city":"八王子市","address":"東京都八王子市下柚木2丁目34-2","lat":35.62702284,"lon":139.38510899},{"name":"西寺方グラウンド野球場","province":"東京都","city":"八王子市","address":"東京都八王子市西寺方町626","lat":35.68011387,"lon":139.27269728},{"name":"拓殖大学グラウンド","province":"東京都","city":"八王子市","address":"東京都八王子市館町815-1","lat":35.62907928,"lon":139.27986556},{"name":"共立女子学園グラウンド","province":"東京都","city":"八王子市","address":"東京都八王子市元八王子町1丁目710","lat":35.66072221,"lon":139.28961323},{"name":"東海大学八王子病院へリポート","province":"東京都","city":"八王子市","address":"東京都八王子市石川町1838","lat":35.67377242,"lon":139.35707362},{"name":"元横山２号河川敷広場","province":"東京都","city":"八王子市","address":"東京都八王子市田町4","lat":35.66624502,"lon":139.33558406},{"name":"八王子市立富士森公園陸上競技場","province":"東京都","city":"八王子市","address":"東京都八王子市台町2丁目2","lat":35.65092139,"lon":139.3227357},{"name":"八王子市立大塚公園運動場","province":"東京都","city":"八王子市","address":"東京都八王子市松が谷66","lat":35.63167023,"lon":139.41335657},{"name":"東京医科大学八王子医療センターへリポート","province":"東京都","city":"八王子市","address":"東京都八王子市館町1163","lat":35.63195929,"lon":139.28900889},{"name":"首都大学東京南大沢キャンパスグラウンド","province":"東京都","city":"八王子市","address":"東京都八王子市南大沢1丁目1","lat":35.61654608,"lon":139.37719898},{"name":"高尾の森わくわくビレッジ","province":"東京都","city":"八王子市","address":"八王子市市川町55","lat":35.67045013,"lon":139.2798417},{"name":"首都大学東京南大沢キャンパス","province":"東京都","city":"八王子市","address":"東京都八王子市南大沢1丁目1","lat":35.61654608,"lon":139.37719898},{"name":"八王子都税事務所","province":"東京都","city":"八王子市","address":"東京都八王子市明神町3丁目19-2","lat":35.65675182,"lon":139.34245322},{"name":"労働相談情報センター八王子事務所","province":"東京都","city":"八王子市","address":"東京都八王子市明神町3丁目5-1","lat":35.65595477,"lon":139.34558075},{"name":"多摩職業能力開発センター八王子校","province":"東京都","city":"八王子市","address":"東京都八王子市台町1丁目11-1","lat":35.64984943,"lon":139.32771865},{"name":"八王子北高等学校","province":"東京都","city":"八王子市","address":"東京都八王子市楢原町601","lat":35.68519758,"lon":139.30295007},{"name":"八王子拓真高等学校","province":"東京都","city":"八王子市","address":"東京都八王子市台町3丁目25-1","lat":35.65470693,"lon":139.31724991},{"name":"南多摩中等教育学校","province":"東京都","city":"八王子市","address":"東京都八王子市明神町4丁目20-1","lat":35.66063198,"lon":139.34429182},{"name":"八王子桑志高等学校","province":"東京都","city":"八王子市","address":"東京都八王子市千人町4丁目8-1","lat":35.65808959,"lon":139.30537307},{"name":"片倉高等学校","province":"東京都","city":"八王子市","address":"東京都八王子市片倉町1643","lat":35.62971325,"lon":139.34077375},{"name":"翔陽高等学校","province":"東京都","city":"八王子市","address":"東京都八王子市館町1097-136","lat":35.62922368,"lon":139.29131717},{"name":"八王子東高等学校","province":"東京都","city":"八王子市","address":"東京都八王子市高倉町68-1","lat":35.66190448,"lon":139.36441227},{"name":"富士森高等学校","province":"東京都","city":"八王子市","address":"東京都八王子市長房町420-2","lat":35.65720628,"lon":139.30200118},{"name":"松が谷高等学校","province":"東京都","city":"八王子市","address":"東京都八王子市松が谷1772","lat":35.62826501,"lon":139.41032919},{"name":"相武国道事務所","province":"東京都","city":"八王子市","address":"八王子市大和田町4-3-13","lat":35.66372,"lon":139.3554},{"name":"南多摩西部建設事務所","province":"東京都","city":"八王子市","address":"八王子市明神町3-19-2","lat":35.65639,"lon":139.3435},{"name":"八王子支社","province":"東京都","city":"八王子市","address":"八王子市宇津木町231","lat":35.67749,"lon":139.3437},{"name":"八王子保全・サービスセンター","province":"東京都","city":"八王子市","address":"八王子市宇津木町287-1","lat":35.67785,"lon":139.3459},{"name":"戸吹清掃工場","province":"東京都","city":"八王子市","address":"八王子市戸吹町1916","lat":35.700718,"lon":139.292725},{"name":"北野清掃工場","province":"東京都","city":"八王子市","address":"八王子市北野町596-3","lat":35.655785,"lon":139.351822},{"name":"八王子市福祉部高齢者福祉課","province":"東京都","city":"八王子市","address":"八王子市元本郷町3-24-1","lat":35.666496,"lon":139.316162},{"name":"八王子市高齢者あんしん相談センター旭町","province":"東京都","city":"八王子市","address":"八王子市旭町8-10比留間ビル3階","lat":35.657585,"lon":139.338303},{"name":"八王子市高齢者あんしん相談センター高尾","province":"東京都","city":"八王子市","address":"八王子市東浅川町551-1東浅川保健福祉センター2階","lat":35.645088,"lon":139.293137},{"name":"八王子市高齢者あんしん相談センター左入","province":"東京都","city":"八王子市","address":"八王子市左入町372-4","lat":35.685505,"lon":139.34639},{"name":"八王子市高齢者あんしん相談センター中野","province":"東京都","city":"八王子市","address":"八王子市中野上町4-27-4ボナールHONDA1階","lat":35.670242,"lon":139.316483},{"name":"八王子市高齢者あんしん相談センター南大沢","province":"東京都","city":"八王子市","address":"八王子市南大沢2-17-5","lat":35.611408,"lon":139.382706},{"name":"八王子市高齢者あんしん相談センターめじろ","province":"東京都","city":"八王子市","address":"八王子市めじろ台2-55-5","lat":35.641174,"lon":139.313736},{"name":"八王子市高齢者あんしん相談センター長沼","province":"東京都","city":"八王子市","address":"八王子市長沼町1302-1都営長沼第二アパート16号棟1階","lat":35.884872,"lon":139.611465},{"name":"八王子市高齢者あんしん相談センター川口","province":"東京都","city":"八王子市","address":"八王子市川口町908-1川口事務所内","lat":35.693378,"lon":139.279099},{"name":"八王子市高齢者あんしん相談センター片倉","province":"東京都","city":"八王子市","address":"八王子市片倉町440-2","lat":35.642548,"lon":139.340469},{"name":"八王子市高齢者あんしん相談センター堀之内","province":"東京都","city":"八王子市","address":"八王子市堀之内1206","lat":35.63586,"lon":139.388535},{"name":"八王子市高齢者あんしん相談センター長房","province":"東京都","city":"八王子市","address":"八王子市長房町588、長房アパート西22号棟1階","lat":35.660057,"lon":139.331146},{"name":"八王子市高齢者あんしん相談センター子安","province":"東京都","city":"八王子市","address":"八王子市子安町4-10-9西村ビル4階","lat":35.653934,"lon":139.337601},{"name":"八王子市高齢者あんしん相談センターもとはち南","province":"東京都","city":"八王子市","address":"八王子市元八王子町2-1946-2宮崎ビル101","lat":35.659649,"lon":139.280975},{"name":"八王子市高齢者あんしん相談センター寺田","province":"東京都","city":"八王子市","address":"八王子市寺田町137-1","lat":35.631626,"lon":139.310333},{"name":"八王子市高齢者あんしん相談センター大横","province":"東京都","city":"八王子市","address":"八王子市大横町11-35、大横保健福祉センター4階","lat":35.664471,"lon":139.328445},{"name":"八王子市高齢者あんしん相談センター恩方","province":"東京都","city":"八王子市","address":"八王子市下恩方町3395恩方事務所内","lat":35.669819,"lon":139.248489},{"name":"市民部消費生活センター","province":"東京都","city":"八王子市","address":"八王子市東町5-6クリエイトホール地下1階","lat":35.658527,"lon":139.339554},{"name":"八王子市高齢者あんしん相談センター由木東","province":"東京都","city":"八王子市","address":"八王子市鹿島111-1由木東事務所内","lat":35.634281,"lon":139.422501},{"name":"八王子市高齢者あんしん相談センター石川","province":"東京都","city":"八王子市","address":"八王子市石川町481石川事務所内","lat":35.680756,"lon":139.366241},{"name":"東京医科大学八王子医療センター","province":"東京都","city":"八王子市","address":"東京都八王子市館町1163","lat":35.63195929,"lon":139.28900889},{"name":"東海大学八王子病院","province":"東京都","city":"八王子市","address":"東京都八王子市石川町1838","lat":35.67377242,"lon":139.35707362},{"name":"首都大学東京南大沢キャンパス","province":"東京都","city":"八王子市","address":"東京都八王子市南大沢1丁目1","lat":35.61654608,"lon":139.37719898},{"name":"八王子都税事務所","province":"東京都","city":"八王子市","address":"東京都八王子市明神町3丁目19-2","lat":35.65675182,"lon":139.34245322},{"name":"労働相談情報センター八王子事務所","province":"東京都","city":"八王子市","address":"東京都八王子市明神町3丁目5-1","lat":35.65595477,"lon":139.34558075},{"name":"多摩職業能力開発センター八王子校","province":"東京都","city":"八王子市","address":"東京都八王子市台町1丁目11-1","lat":35.64984943,"lon":139.32771865},{"name":"八王子北高等学校","province":"東京都","city":"八王子市","address":"東京都八王子市楢原町601","lat":35.68519758,"lon":139.30295007},{"name":"八王子拓真高等学校","province":"東京都","city":"八王子市","address":"東京都八王子市台町3丁目25-1","lat":35.65470693,"lon":139.31724991},{"name":"南多摩中等教育学校","province":"東京都","city":"八王子市","address":"東京都八王子市明神町4丁目20-1","lat":35.66063198,"lon":139.34429182},{"name":"八王子桑志高等学校","province":"東京都","city":"八王子市","address":"東京都八王子市千人町4丁目8-1","lat":35.65808959,"lon":139.30537307},{"name":"片倉高等学校","province":"東京都","city":"八王子市","address":"東京都八王子市片倉町1643","lat":35.62971325,"lon":139.34077375},{"name":"翔陽高等学校","province":"東京都","city":"八王子市","address":"東京都八王子市館町1097-136","lat":35.62922368,"lon":139.29131717},{"name":"八王子東高等学校","province":"東京都","city":"八王子市","address":"東京都八王子市高倉町68-1","lat":35.66190448,"lon":139.36441227},{"name":"富士森高等学校","province":"東京都","city":"八王子市","address":"東京都八王子市長房町420-2","lat":35.65720628,"lon":139.30200118},{"name":"松が谷高等学校","province":"東京都","city":"八王子市","address":"東京都八王子市松が谷1772","lat":35.62826501,"lon":139.41032919},{"name":"八王子市福祉部高齢者福祉課","province":"東京都","city":"八王子市","address":"八王子市元本郷町3-24-1","lat":35.666496,"lon":139.316162},{"name":"八王子市高齢者あんしん相談センター旭町","province":"東京都","city":"八王子市","address":"八王子市旭町8-10比留間ビル3階","lat":35.657585,"lon":139.338303},{"name":"八王子市高齢者あんしん相談センター高尾","province":"東京都","city":"八王子市","address":"八王子市東浅川町551-1東浅川保健福祉センター2階","lat":35.645088,"lon":139.293137},{"name":"八王子市高齢者あんしん相談センター左入","province":"東京都","city":"八王子市","address":"八王子市左入町372-4","lat":35.685505,"lon":139.34639},{"name":"八王子市高齢者あんしん相談センター中野","province":"東京都","city":"八王子市","address":"八王子市中野上町4-27-4ボナールHONDA1階","lat":35.670242,"lon":139.316483},{"name":"八王子市高齢者あんしん相談センター南大沢","province":"東京都","city":"八王子市","address":"八王子市南大沢2-17-5","lat":35.611408,"lon":139.382706},{"name":"八王子市高齢者あんしん相談センターめじろ","province":"東京都","city":"八王子市","address":"八王子市めじろ台2-55-5","lat":35.641174,"lon":139.313736},{"name":"八王子市高齢者あんしん相談センター長沼","province":"東京都","city":"八王子市","address":"八王子市長沼町1302-1都営長沼第二アパート16号棟1階","lat":35.884872,"lon":139.611465},{"name":"八王子市高齢者あんしん相談センター川口","province":"東京都","city":"八王子市","address":"八王子市川口町908-1川口事務所内","lat":35.693378,"lon":139.279099},{"name":"八王子市高齢者あんしん相談センター片倉","province":"東京都","city":"八王子市","address":"八王子市片倉町440-2","lat":35.642548,"lon":139.340469},{"name":"八王子市高齢者あんしん相談センター堀之内","province":"東京都","city":"八王子市","address":"八王子市堀之内1206","lat":35.63586,"lon":139.388535},{"name":"八王子市高齢者あんしん相談センター長房","province":"東京都","city":"八王子市","address":"八王子市長房町588、長房アパート西22号棟1階","lat":35.660057,"lon":139.331146},{"name":"八王子市高齢者あんしん相談センター子安","province":"東京都","city":"八王子市","address":"八王子市子安町4-10-9西村ビル4階","lat":35.653934,"lon":139.337601},{"name":"八王子市高齢者あんしん相談センターもとはち南","province":"東京都","city":"八王子市","address":"八王子市元八王子町2-1946-2宮崎ビル101","lat":35.659649,"lon":139.280975},{"name":"八王子市高齢者あんしん相談センター寺田","province":"東京都","city":"八王子市","address":"八王子市寺田町137-1","lat":35.631626,"lon":139.310333},{"name":"八王子市高齢者あんしん相談センター大横","province":"東京都","city":"八王子市","address":"八王子市大横町11-35、大横保健福祉センター4階","lat":35.664471,"lon":139.328445},{"name":"八王子市高齢者あんしん相談センター恩方","province":"東京都","city":"八王子市","address":"八王子市下恩方町3395恩方事務所内","lat":35.669819,"lon":139.248489},{"name":"市民部消費生活センター","province":"東京都","city":"八王子市","address":"八王子市東町5-6クリエイトホール地下1階","lat":35.658527,"lon":139.339554},{"name":"八王子市高齢者あんしん相談センター由木東","province":"東京都","city":"八王子市","address":"八王子市鹿島111-1由木東事務所内","lat":35.634281,"lon":139.422501},{"name":"八王子市高齢者あんしん相談センター石川","province":"東京都","city":"八王子市","address":"八王子市石川町481石川事務所内","lat":35.680756,"lon":139.366241},{"name":"東京医科大学八王子医療センター","province":"東京都","city":"八王子市","address":"東京都八王子市館町1163","lat":35.63195929,"lon":139.28900889},{"name":"東海大学八王子病院","province":"東京都","city":"八王子市","address":"東京都八王子市石川町1838","lat":35.67377242,"lon":139.35707362},{"name":"首都大学東京南大沢キャンパス","province":"東京都","city":"八王子市","address":"東京都八王子市南大沢1丁目1","lat":35.61654608,"lon":139.37719898},{"name":"八王子都税事務所","province":"東京都","city":"八王子市","address":"東京都八王子市明神町3丁目19-2","lat":35.65675182,"lon":139.34245322},{"name":"労働相談情報センター八王子事務所","province":"東京都","city":"八王子市","address":"東京都八王子市明神町3丁目5-1","lat":35.65595477,"lon":139.34558075},{"name":"多摩職業能力開発センター八王子校","province":"東京都","city":"八王子市","address":"東京都八王子市台町1丁目11-1","lat":35.64984943,"lon":139.32771865},{"name":"八王子北高等学校","province":"東京都","city":"八王子市","address":"東京都八王子市楢原町601","lat":35.68519758,"lon":139.30295007},{"name":"八王子拓真高等学校","province":"東京都","city":"八王子市","address":"東京都八王子市台町3丁目25-1","lat":35.65470693,"lon":139.31724991},{"name":"南多摩中等教育学校","province":"東京都","city":"八王子市","address":"東京都八王子市明神町4丁目20-1","lat":35.66063198,"lon":139.34429182},{"name":"八王子桑志高等学校","province":"東京都","city":"八王子市","address":"東京都八王子市千人町4丁目8-1","lat":35.65808959,"lon":139.30537307},{"name":"片倉高等学校","province":"東京都","city":"八王子市","address":"東京都八王子市片倉町1643","lat":35.62971325,"lon":139.34077375},{"name":"翔陽高等学校","province":"東京都","city":"八王子市","address":"東京都八王子市館町1097-136","lat":35.62922368,"lon":139.29131717},{"name":"八王子東高等学校","province":"東京都","city":"八王子市","address":"東京都八王子市高倉町68-1","lat":35.66190448,"lon":139.36441227},{"name":"富士森高等学校","province":"東京都","city":"八王子市","address":"東京都八王子市長房町420-2","lat":35.65720628,"lon":139.30200118},{"name":"松が谷高等学校","province":"東京都","city":"八王子市","address":"東京都八王子市松が谷1772","lat":35.62826501,"lon":139.41032919},{"name":"八王子市福祉部高齢者福祉課","province":"東京都","city":"八王子市","address":"八王子市元本郷町3-24-1","lat":35.666496,"lon":139.316162},{"name":"八王子市高齢者あんしん相談センター旭町","province":"東京都","city":"八王子市","address":"八王子市旭町8-10比留間ビル3階","lat":35.657585,"lon":139.338303},{"name":"八王子市高齢者あんしん相談センター高尾","province":"東京都","city":"八王子市","address":"八王子市東浅川町551-1東浅川保健福祉センター2階","lat":35.645088,"lon":139.293137},{"name":"八王子市高齢者あんしん相談センター左入","province":"東京都","city":"八王子市","address":"八王子市左入町372-4","lat":35.685505,"lon":139.34639},{"name":"八王子市高齢者あんしん相談センター中野","province":"東京都","city":"八王子市","address":"八王子市中野上町4-27-4ボナールHONDA1階","lat":35.670242,"lon":139.316483},{"name":"八王子市高齢者あんしん相談センター南大沢","province":"東京都","city":"八王子市","address":"八王子市南大沢2-17-5","lat":35.611408,"lon":139.382706},{"name":"八王子市高齢者あんしん相談センターめじろ","province":"東京都","city":"八王子市","address":"八王子市めじろ台2-55-5","lat":35.641174,"lon":139.313736},{"name":"八王子市高齢者あんしん相談センター長沼","province":"東京都","city":"八王子市","address":"八王子市長沼町1302-1都営長沼第二アパート16号棟1階","lat":35.884872,"lon":139.611465},{"name":"八王子市高齢者あんしん相談センター川口","province":"東京都","city":"八王子市","address":"八王子市川口町908-1川口事務所内","lat":35.693378,"lon":139.279099},{"name":"八王子市高齢者あんしん相談センター片倉","province":"東京都","city":"八王子市","address":"八王子市片倉町440-2","lat":35.642548,"lon":139.340469},{"name":"八王子市高齢者あんしん相談センター堀之内","province":"東京都","city":"八王子市","address":"八王子市堀之内1206","lat":35.63586,"lon":139.388535},{"name":"八王子市高齢者あんしん相談センター長房","province":"東京都","city":"八王子市","address":"八王子市長房町588、長房アパート西22号棟1階","lat":35.660057,"lon":139.331146},{"name":"八王子市高齢者あんしん相談センター子安","province":"東京都","city":"八王子市","address":"八王子市子安町4-10-9西村ビル4階","lat":35.653934,"lon":139.337601},{"name":"八王子市高齢者あんしん相談センターもとはち南","province":"東京都","city":"八王子市","address":"八王子市元八王子町2-1946-2宮崎ビル101","lat":35.659649,"lon":139.280975},{"name":"八王子市高齢者あんしん相談センター寺田","province":"東京都","city":"八王子市","address":"八王子市寺田町137-1","lat":35.631626,"lon":139.310333},{"name":"八王子市高齢者あんしん相談センター大横","province":"東京都","city":"八王子市","address":"八王子市大横町11-35、大横保健福祉センター4階","lat":35.664471,"lon":139.328445},{"name":"八王子市高齢者あんしん相談センター恩方","province":"東京都","city":"八王子市","address":"八王子市下恩方町3395恩方事務所内","lat":35.669819,"lon":139.248489},{"name":"市民部消費生活センター","province":"東京都","city":"八王子市","address":"八王子市東町5-6クリエイトホール地下1階","lat":35.658527,"lon":139.339554},{"name":"八王子市高齢者あんしん相談センター由木東","province":"東京都","city":"八王子市","address":"八王子市鹿島111-1由木東事務所内","lat":35.634281,"lon":139.422501},{"name":"八王子市高齢者あんしん相談センター石川","province":"東京都","city":"八王子市","address":"八王子市石川町481石川事務所内","lat":35.680756,"lon":139.366241},{"name":"八王子市福祉部高齢者福祉課","province":"東京都","city":"八王子市","address":"八王子市元本郷町3-24-1","lat":35.666496,"lon":139.316162},{"name":"八王子市高齢者あんしん相談センター旭町","province":"東京都","city":"八王子市","address":"八王子市旭町8-10比留間ビル3階","lat":35.657585,"lon":139.338303},{"name":"八王子市高齢者あんしん相談センター高尾","province":"東京都","city":"八王子市","address":"八王子市東浅川町551-1東浅川保健福祉センター2階","lat":35.645088,"lon":139.293137},{"name":"八王子市高齢者あんしん相談センター左入","province":"東京都","city":"八王子市","address":"八王子市左入町372-4","lat":35.685505,"lon":139.34639},{"name":"八王子市高齢者あんしん相談センター中野","province":"東京都","city":"八王子市","address":"八王子市中野上町4-27-4ボナールHONDA1階","lat":35.670242,"lon":139.316483},{"name":"八王子市高齢者あんしん相談センター南大沢","province":"東京都","city":"八王子市","address":"八王子市南大沢2-17-5","lat":35.611408,"lon":139.382706},{"name":"八王子市高齢者あんしん相談センターめじろ","province":"東京都","city":"八王子市","address":"八王子市めじろ台2-55-5","lat":35.641174,"lon":139.313736},{"name":"八王子市高齢者あんしん相談センター長沼","province":"東京都","city":"八王子市","address":"八王子市長沼町1302-1都営長沼第二アパート16号棟1階","lat":35.884872,"lon":139.611465},{"name":"八王子市高齢者あんしん相談センター川口","province":"東京都","city":"八王子市","address":"八王子市川口町908-1川口事務所内","lat":35.693378,"lon":139.279099},{"name":"八王子市高齢者あんしん相談センター片倉","province":"東京都","city":"八王子市","address":"八王子市片倉町440-2","lat":35.642548,"lon":139.340469},{"name":"八王子市高齢者あんしん相談センター堀之内","province":"東京都","city":"八王子市","address":"八王子市堀之内1206","lat":35.63586,"lon":139.388535},{"name":"八王子市高齢者あんしん相談センター長房","province":"東京都","city":"八王子市","address":"八王子市長房町588、長房アパート西22号棟1階","lat":35.660057,"lon":139.331146},{"name":"八王子市高齢者あんしん相談センター子安","province":"東京都","city":"八王子市","address":"八王子市子安町4-10-9西村ビル4階","lat":35.653934,"lon":139.337601},{"name":"八王子市高齢者あんしん相談センターもとはち南","province":"東京都","city":"八王子市","address":"八王子市元八王子町2-1946-2宮崎ビル101","lat":35.659649,"lon":139.280975},{"name":"八王子市高齢者あんしん相談センター寺田","province":"東京都","city":"八王子市","address":"八王子市寺田町137-1","lat":35.631626,"lon":139.310333},{"name":"八王子市高齢者あんしん相談センター大横","province":"東京都","city":"八王子市","address":"八王子市大横町11-35、大横保健福祉センター4階","lat":35.664471,"lon":139.328445},{"name":"八王子市高齢者あんしん相談センター恩方","province":"東京都","city":"八王子市","address":"八王子市下恩方町3395恩方事務所内","lat":35.669819,"lon":139.248489},{"name":"市民部消費生活センター","province":"東京都","city":"八王子市","address":"八王子市東町5-6クリエイトホール地下1階","lat":35.658527,"lon":139.339554},{"name":"八王子市高齢者あんしん相談センター由木東","province":"東京都","city":"八王子市","address":"八王子市鹿島111-1由木東事務所内","lat":35.634281,"lon":139.422501},{"name":"八王子市高齢者あんしん相談センター石川","province":"東京都","city":"八王子市","address":"八王子市石川町481石川事務所内","lat":35.680756,"lon":139.366241},{"name":"八王子市福祉部高齢者福祉課","province":"東京都","city":"八王子市","address":"八王子市元本郷町3-24-1","lat":35.666496,"lon":139.316162},{"name":"八王子市高齢者あんしん相談センター旭町","province":"東京都","city":"八王子市","address":"八王子市旭町8-10比留間ビル3階","lat":35.657585,"lon":139.338303},{"name":"八王子市高齢者あんしん相談センター高尾","province":"東京都","city":"八王子市","address":"八王子市東浅川町551-1東浅川保健福祉センター2階","lat":35.645088,"lon":139.293137},{"name":"八王子市高齢者あんしん相談センター左入","province":"東京都","city":"八王子市","address":"八王子市左入町372-4","lat":35.685505,"lon":139.34639},{"name":"八王子市高齢者あんしん相談センター中野","province":"東京都","city":"八王子市","address":"八王子市中野上町4-27-4ボナールHONDA1階","lat":35.670242,"lon":139.316483},{"name":"八王子市高齢者あんしん相談センター南大沢","province":"東京都","city":"八王子市","address":"八王子市南大沢2-17-5","lat":35.611408,"lon":139.382706},{"name":"八王子市高齢者あんしん相談センターめじろ","province":"東京都","city":"八王子市","address":"八王子市めじろ台2-55-5","lat":35.641174,"lon":139.313736},{"name":"八王子市高齢者あんしん相談センター長沼","province":"東京都","city":"八王子市","address":"八王子市長沼町1302-1都営長沼第二アパート16号棟1階","lat":35.884872,"lon":139.611465},{"name":"八王子市高齢者あんしん相談センター川口","province":"東京都","city":"八王子市","address":"八王子市川口町908-1川口事務所内","lat":35.693378,"lon":139.279099},{"name":"八王子市高齢者あんしん相談センター片倉","province":"東京都","city":"八王子市","address":"八王子市片倉町440-2","lat":35.642548,"lon":139.340469},{"name":"八王子市高齢者あんしん相談センター堀之内","province":"東京都","city":"八王子市","address":"八王子市堀之内1206","lat":35.63586,"lon":139.388535},{"name":"八王子市高齢者あんしん相談センター長房","province":"東京都","city":"八王子市","address":"八王子市長房町588、長房アパート西22号棟1階","lat":35.660057,"lon":139.331146},{"name":"八王子市高齢者あんしん相談センター子安","province":"東京都","city":"八王子市","address":"八王子市子安町4-10-9西村ビル4階","lat":35.653934,"lon":139.337601},{"name":"八王子市高齢者あんしん相談センターもとはち南","province":"東京都","city":"八王子市","address":"八王子市元八王子町2-1946-2宮崎ビル101","lat":35.659649,"lon":139.280975},{"name":"八王子市高齢者あんしん相談センター寺田","province":"東京都","city":"八王子市","address":"八王子市寺田町137-1","lat":35.631626,"lon":139.310333},{"name":"八王子市高齢者あんしん相談センター大横","province":"東京都","city":"八王子市","address":"八王子市大横町11-35、大横保健福祉センター4階","lat":35.664471,"lon":139.328445},{"name":"八王子市高齢者あんしん相談センター恩方","province":"東京都","city":"八王子市","address":"八王子市下恩方町3395恩方事務所内","lat":35.669819,"lon":139.248489},{"name":"市民部消費生活センター","province":"東京都","city":"八王子市","address":"八王子市東町5-6クリエイトホール地下1階","lat":35.658527,"lon":139.339554},{"name":"八王子市高齢者あんしん相談センター由木東","province":"東京都","city":"八王子市","address":"八王子市鹿島111-1由木東事務所内","lat":35.634281,"lon":139.422501},{"name":"八王子市高齢者あんしん相談センター石川","province":"東京都","city":"八王子市","address":"八王子市石川町481石川事務所内","lat":35.680756,"lon":139.366241},{"name":"八王子市福祉部高齢者福祉課","province":"東京都","city":"八王子市","address":"八王子市元本郷町3-24-1","lat":35.666496,"lon":139.316162},{"name":"八王子市高齢者あんしん相談センター旭町","province":"東京都","city":"八王子市","address":"八王子市旭町8-10比留間ビル3階","lat":35.657585,"lon":139.338303},{"name":"八王子市高齢者あんしん相談センター高尾","province":"東京都","city":"八王子市","address":"八王子市東浅川町551-1東浅川保健福祉センター2階","lat":35.645088,"lon":139.293137},{"name":"八王子市高齢者あんしん相談センター左入","province":"東京都","city":"八王子市","address":"八王子市左入町372-4","lat":35.685505,"lon":139.34639},{"name":"八王子市高齢者あんしん相談センター中野","province":"東京都","city":"八王子市","address":"八王子市中野上町4-27-4ボナールHONDA1階","lat":35.670242,"lon":139.316483},{"name":"八王子市高齢者あんしん相談センター南大沢","province":"東京都","city":"八王子市","address":"八王子市南大沢2-17-5","lat":35.611408,"lon":139.382706},{"name":"八王子市高齢者あんしん相談センターめじろ","province":"東京都","city":"八王子市","address":"八王子市めじろ台2-55-5","lat":35.641174,"lon":139.313736},{"name":"八王子市高齢者あんしん相談センター長沼","province":"東京都","city":"八王子市","address":"八王子市長沼町1302-1都営長沼第二アパート16号棟1階","lat":35.884872,"lon":139.611465},{"name":"八王子市高齢者あんしん相談センター川口","province":"東京都","city":"八王子市","address":"八王子市川口町908-1川口事務所内","lat":35.693378,"lon":139.279099},{"name":"八王子市高齢者あんしん相談センター片倉","province":"東京都","city":"八王子市","address":"八王子市片倉町440-2","lat":35.642548,"lon":139.340469},{"name":"八王子市高齢者あんしん相談センター堀之内","province":"東京都","city":"八王子市","address":"八王子市堀之内1206","lat":35.63586,"lon":139.388535},{"name":"八王子市高齢者あんしん相談センター長房","province":"東京都","city":"八王子市","address":"八王子市長房町588、長房アパート西22号棟1階","lat":35.660057,"lon":139.331146},{"name":"八王子市高齢者あんしん相談センター子安","province":"東京都","city":"八王子市","address":"八王子市子安町4-10-9西村ビル4階","lat":35.653934,"lon":139.337601},{"name":"八王子市高齢者あんしん相談センターもとはち南","province":"東京都","city":"八王子市","address":"八王子市元八王子町2-1946-2宮崎ビル101","lat":35.659649,"lon":139.280975},{"name":"八王子市高齢者あんしん相談センター寺田","province":"東京都","city":"八王子市","address":"八王子市寺田町137-1","lat":35.631626,"lon":139.310333},{"name":"八王子市高齢者あんしん相談センター大横","province":"東京都","city":"八王子市","address":"八王子市大横町11-35、大横保健福祉センター4階","lat":35.664471,"lon":139.328445},{"name":"八王子市高齢者あんしん相談センター恩方","province":"東京都","city":"八王子市","address":"八王子市下恩方町3395恩方事務所内","lat":35.669819,"lon":139.248489},{"name":"市民部消費生活センター","province":"東京都","city":"八王子市","address":"八王子市東町5-6クリエイトホール地下1階","lat":35.658527,"lon":139.339554},{"name":"八王子市高齢者あんしん相談センター由木東","province":"東京都","city":"八王子市","address":"八王子市鹿島111-1由木東事務所内","lat":35.634281,"lon":139.422501},{"name":"八王子市高齢者あんしん相談センター石川","province":"東京都","city":"八王子市","address":"八王子市石川町481石川事務所内","lat":35.680756,"lon":139.366241},{"name":"八王子市福祉部高齢者福祉課","province":"東京都","city":"八王子市","address":"八王子市元本郷町3-24-1","lat":35.666496,"lon":139.316162},{"name":"八王子市高齢者あんしん相談センター旭町","province":"東京都","city":"八王子市","address":"八王子市旭町8-10比留間ビル3階","lat":35.657585,"lon":139.338303},{"name":"八王子市高齢者あんしん相談センター高尾","province":"東京都","city":"八王子市","address":"八王子市東浅川町551-1東浅川保健福祉センター2階","lat":35.645088,"lon":139.293137},{"name":"八王子市高齢者あんしん相談センター左入","province":"東京都","city":"八王子市","address":"八王子市左入町372-4","lat":35.685505,"lon":139.34639},{"name":"八王子市高齢者あんしん相談センター中野","province":"東京都","city":"八王子市","address":"八王子市中野上町4-27-4ボナールHONDA1階","lat":35.670242,"lon":139.316483},{"name":"八王子市高齢者あんしん相談センター南大沢","province":"東京都","city":"八王子市","address":"八王子市南大沢2-17-5","lat":35.611408,"lon":139.382706},{"name":"八王子市高齢者あんしん相談センターめじろ","province":"東京都","city":"八王子市","address":"八王子市めじろ台2-55-5","lat":35.641174,"lon":139.313736},{"name":"八王子市高齢者あんしん相談センター長沼","province":"東京都","city":"八王子市","address":"八王子市長沼町1302-1都営長沼第二アパート16号棟1階","lat":35.884872,"lon":139.611465},{"name":"八王子市高齢者あんしん相談センター川口","province":"東京都","city":"八王子市","address":"八王子市川口町908-1川口事務所内","lat":35.693378,"lon":139.279099},{"name":"八王子市高齢者あんしん相談センター片倉","province":"東京都","city":"八王子市","address":"八王子市片倉町440-2","lat":35.642548,"lon":139.340469},{"name":"八王子市高齢者あんしん相談センター堀之内","province":"東京都","city":"八王子市","address":"八王子市堀之内1206","lat":35.63586,"lon":139.388535},{"name":"八王子市高齢者あんしん相談センター長房","province":"東京都","city":"八王子市","address":"八王子市長房町588、長房アパート西22号棟1階","lat":35.660057,"lon":139.331146},{"name":"八王子市高齢者あんしん相談センター子安","province":"東京都","city":"八王子市","address":"八王子市子安町4-10-9西村ビル4階","lat":35.653934,"lon":139.337601},{"name":"八王子市高齢者あんしん相談センターもとはち南","province":"東京都","city":"八王子市","address":"八王子市元八王子町2-1946-2宮崎ビル101","lat":35.659649,"lon":139.280975},{"name":"八王子市高齢者あんしん相談センター寺田","province":"東京都","city":"八王子市","address":"八王子市寺田町137-1","lat":35.631626,"lon":139.310333},{"name":"八王子市高齢者あんしん相談センター大横","province":"東京都","city":"八王子市","address":"八王子市大横町11-35、大横保健福祉センター4階","lat":35.664471,"lon":139.328445},{"name":"八王子市高齢者あんしん相談センター恩方","province":"東京都","city":"八王子市","address":"八王子市下恩方町3395恩方事務所内","lat":35.669819,"lon":139.248489},{"name":"市民部消費生活センター","province":"東京都","city":"八王子市","address":"八王子市東町5-6クリエイトホール地下1階","lat":35.658527,"lon":139.339554},{"name":"八王子市高齢者あんしん相談センター由木東","province":"東京都","city":"八王子市","address":"八王子市鹿島111-1由木東事務所内","lat":35.634281,"lon":139.422501},{"name":"八王子市高齢者あんしん相談センター石川","province":"東京都","city":"八王子市","address":"八王子市石川町481石川事務所内","lat":35.680756,"lon":139.366241},{"name":"八王子市福祉部高齢者福祉課","province":"東京都","city":"八王子市","address":"八王子市元本郷町3-24-1","lat":35.666496,"lon":139.316162},{"name":"八王子市高齢者あんしん相談センター旭町","province":"東京都","city":"八王子市","address":"八王子市旭町8-10比留間ビル3階","lat":35.657585,"lon":139.338303},{"name":"八王子市高齢者あんしん相談センター高尾","province":"東京都","city":"八王子市","address":"八王子市東浅川町551-1東浅川保健福祉センター2階","lat":35.645088,"lon":139.293137},{"name":"八王子市高齢者あんしん相談センター左入","province":"東京都","city":"八王子市","address":"八王子市左入町372-4","lat":35.685505,"lon":139.34639},{"name":"八王子市高齢者あんしん相談センター中野","province":"東京都","city":"八王子市","address":"八王子市中野上町4-27-4ボナールHONDA1階","lat":35.670242,"lon":139.316483},{"name":"八王子市高齢者あんしん相談センター南大沢","province":"東京都","city":"八王子市","address":"八王子市南大沢2-17-5","lat":35.611408,"lon":139.382706},{"name":"八王子市高齢者あんしん相談センターめじろ","province":"東京都","city":"八王子市","address":"八王子市めじろ台2-55-5","lat":35.641174,"lon":139.313736},{"name":"八王子市高齢者あんしん相談センター長沼","province":"東京都","city":"八王子市","address":"八王子市長沼町1302-1都営長沼第二アパート16号棟1階","lat":35.884872,"lon":139.611465},{"name":"八王子市高齢者あんしん相談センター川口","province":"東京都","city":"八王子市","address":"八王子市川口町908-1川口事務所内","lat":35.693378,"lon":139.279099},{"name":"八王子市高齢者あんしん相談センター片倉","province":"東京都","city":"八王子市","address":"八王子市片倉町440-2","lat":35.642548,"lon":139.340469},{"name":"八王子市高齢者あんしん相談センター堀之内","province":"東京都","city":"八王子市","address":"八王子市堀之内1206","lat":35.63586,"lon":139.388535},{"name":"八王子市高齢者あんしん相談センター長房","province":"東京都","city":"八王子市","address":"八王子市長房町588、長房アパート西22号棟1階","lat":35.660057,"lon":139.331146},{"name":"八王子市高齢者あんしん相談センター子安","province":"東京都","city":"八王子市","address":"八王子市子安町4-10-9西村ビル4階","lat":35.653934,"lon":139.337601},{"name":"八王子市高齢者あんしん相談センターもとはち南","province":"東京都","city":"八王子市","address":"八王子市元八王子町2-1946-2宮崎ビル101","lat":35.659649,"lon":139.280975},{"name":"八王子市高齢者あんしん相談センター寺田","province":"東京都","city":"八王子市","address":"八王子市寺田町137-1","lat":35.631626,"lon":139.310333},{"name":"八王子市高齢者あんしん相談センター大横","province":"東京都","city":"八王子市","address":"八王子市大横町11-35、大横保健福祉センター4階","lat":35.664471,"lon":139.328445},{"name":"八王子市高齢者あんしん相談センター恩方","province":"東京都","city":"八王子市","address":"八王子市下恩方町3395恩方事務所内","lat":35.669819,"lon":139.248489},{"name":"市民部消費生活センター","province":"東京都","city":"八王子市","address":"八王子市東町5-6クリエイトホール地下1階","lat":35.658527,"lon":139.339554},{"name":"八王子市高齢者あんしん相談センター由木東","province":"東京都","city":"八王子市","address":"八王子市鹿島111-1由木東事務所内","lat":35.634281,"lon":139.422501},{"name":"八王子市高齢者あんしん相談センター石川","province":"東京都","city":"八王子市","address":"八王子市石川町481石川事務所内","lat":35.680756,"lon":139.366241},{"name":"八王子市福祉部高齢者福祉課","province":"東京都","city":"八王子市","address":"八王子市元本郷町3-24-1","lat":35.666496,"lon":139.316162},{"name":"八王子市高齢者あんしん相談センター旭町","province":"東京都","city":"八王子市","address":"八王子市旭町8-10比留間ビル3階","lat":35.657585,"lon":139.338303},{"name":"八王子市高齢者あんしん相談センター高尾","province":"東京都","city":"八王子市","address":"八王子市東浅川町551-1東浅川保健福祉センター2階","lat":35.645088,"lon":139.293137},{"name":"八王子市高齢者あんしん相談センター左入","province":"東京都","city":"八王子市","address":"八王子市左入町372-4","lat":35.685505,"lon":139.34639},{"name":"八王子市高齢者あんしん相談センター中野","province":"東京都","city":"八王子市","address":"八王子市中野上町4-27-4ボナールHONDA1階","lat":35.670242,"lon":139.316483},{"name":"八王子市高齢者あんしん相談センター南大沢","province":"東京都","city":"八王子市","address":"八王子市南大沢2-17-5","lat":35.611408,"lon":139.382706},{"name":"八王子市高齢者あんしん相談センターめじろ","province":"東京都","city":"八王子市","address":"八王子市めじろ台2-55-5","lat":35.641174,"lon":139.313736},{"name":"八王子市高齢者あんしん相談センター長沼","province":"東京都","city":"八王子市","address":"八王子市長沼町1302-1都営長沼第二アパート16号棟1階","lat":35.884872,"lon":139.611465},{"name":"八王子市高齢者あんしん相談センター川口","province":"東京都","city":"八王子市","address":"八王子市川口町908-1川口事務所内","lat":35.693378,"lon":139.279099},{"name":"八王子市高齢者あんしん相談センター片倉","province":"東京都","city":"八王子市","address":"八王子市片倉町440-2","lat":35.642548,"lon":139.340469},{"name":"八王子市高齢者あんしん相談センター堀之内","province":"東京都","city":"八王子市","address":"八王子市堀之内1206","lat":35.63586,"lon":139.388535},{"name":"八王子市高齢者あんしん相談センター長房","province":"東京都","city":"八王子市","address":"八王子市長房町588、長房アパート西22号棟1階","lat":35.660057,"lon":139.331146},{"name":"八王子市高齢者あんしん相談センター子安","province":"東京都","city":"八王子市","address":"八王子市子安町4-10-9西村ビル4階","lat":35.653934,"lon":139.337601},{"name":"八王子市高齢者あんしん相談センターもとはち南","province":"東京都","city":"八王子市","address":"八王子市元八王子町2-1946-2宮崎ビル101","lat":35.659649,"lon":139.280975},{"name":"八王子市高齢者あんしん相談センター寺田","province":"東京都","city":"八王子市","address":"八王子市寺田町137-1","lat":35.631626,"lon":139.310333},{"name":"八王子市高齢者あんしん相談センター大横","province":"東京都","city":"八王子市","address":"八王子市大横町11-35、大横保健福祉センター4階","lat":35.664471,"lon":139.328445},{"name":"八王子市高齢者あんしん相談センター恩方","province":"東京都","city":"八王子市","address":"八王子市下恩方町3395恩方事務所内","lat":35.669819,"lon":139.248489},{"name":"市民部消費生活センター","province":"東京都","city":"八王子市","address":"八王子市東町5-6クリエイトホール地下1階","lat":35.658527,"lon":139.339554},{"name":"八王子市高齢者あんしん相談センター由木東","province":"東京都","city":"八王子市","address":"八王子市鹿島111-1由木東事務所内","lat":35.634281,"lon":139.422501},{"name":"八王子市高齢者あんしん相談センター石川","province":"東京都","city":"八王子市","address":"八王子市石川町481石川事務所内","lat":35.680756,"lon":139.366241},{"name":"八王子市福祉部高齢者福祉課","province":"東京都","city":"八王子市","address":"八王子市元本郷町3-24-1","lat":35.666496,"lon":139.316162},{"name":"八王子市高齢者あんしん相談センター旭町","province":"東京都","city":"八王子市","address":"八王子市旭町8-10比留間ビル3階","lat":35.657585,"lon":139.338303},{"name":"八王子市高齢者あんしん相談センター高尾","province":"東京都","city":"八王子市","address":"八王子市東浅川町551-1東浅川保健福祉センター2階","lat":35.645088,"lon":139.293137},{"name":"八王子市高齢者あんしん相談センター左入","province":"東京都","city":"八王子市","address":"八王子市左入町372-4","lat":35.685505,"lon":139.34639},{"name":"八王子市高齢者あんしん相談センター中野","province":"東京都","city":"八王子市","address":"八王子市中野上町4-27-4ボナールHONDA1階","lat":35.670242,"lon":139.316483},{"name":"八王子市高齢者あんしん相談センター南大沢","province":"東京都","city":"八王子市","address":"八王子市南大沢2-17-5","lat":35.611408,"lon":139.382706},{"name":"八王子市高齢者あんしん相談センターめじろ","province":"東京都","city":"八王子市","address":"八王子市めじろ台2-55-5","lat":35.641174,"lon":139.313736},{"name":"八王子市高齢者あんしん相談センター長沼","province":"東京都","city":"八王子市","address":"八王子市長沼町1302-1都営長沼第二アパート16号棟1階","lat":35.884872,"lon":139.611465},{"name":"八王子市高齢者あんしん相談センター川口","province":"東京都","city":"八王子市","address":"八王子市川口町908-1川口事務所内","lat":35.693378,"lon":139.279099},{"name":"八王子市高齢者あんしん相談センター片倉","province":"東京都","city":"八王子市","address":"八王子市片倉町440-2","lat":35.642548,"lon":139.340469},{"name":"八王子市高齢者あんしん相談センター堀之内","province":"東京都","city":"八王子市","address":"八王子市堀之内1206","lat":35.63586,"lon":139.388535},{"name":"八王子市高齢者あんしん相談センター長房","province":"東京都","city":"八王子市","address":"八王子市長房町588、長房アパート西22号棟1階","lat":35.660057,"lon":139.331146},{"name":"八王子市高齢者あんしん相談センター子安","province":"東京都","city":"八王子市","address":"八王子市子安町4-10-9西村ビル4階","lat":35.653934,"lon":139.337601},{"name":"八王子市高齢者あんしん相談センターもとはち南","province":"東京都","city":"八王子市","address":"八王子市元八王子町2-1946-2宮崎ビル101","lat":35.659649,"lon":139.280975},{"name":"八王子市高齢者あんしん相談センター寺田","province":"東京都","city":"八王子市","address":"八王子市寺田町137-1","lat":35.631626,"lon":139.310333},{"name":"八王子市高齢者あんしん相談センター大横","province":"東京都","city":"八王子市","address":"八王子市大横町11-35、大横保健福祉センター4階","lat":35.664471,"lon":139.328445},{"name":"八王子市高齢者あんしん相談センター恩方","province":"東京都","city":"八王子市","address":"八王子市下恩方町3395恩方事務所内","lat":35.669819,"lon":139.248489},{"name":"市民部消費生活センター","province":"東京都","city":"八王子市","address":"八王子市東町5-6クリエイトホール地下1階","lat":35.658527,"lon":139.339554},{"name":"八王子市高齢者あんしん相談センター由木東","province":"東京都","city":"八王子市","address":"八王子市鹿島111-1由木東事務所内","lat":35.634281,"lon":139.422501},{"name":"八王子市高齢者あんしん相談センター石川","province":"東京都","city":"八王子市","address":"八王子市石川町481石川事務所内","lat":35.680756,"lon":139.366241},{"name":"八王子市福祉部高齢者福祉課","province":"東京都","city":"八王子市","address":"八王子市元本郷町3-24-1","lat":35.666496,"lon":139.316162},{"name":"八王子市高齢者あんしん相談センター旭町","province":"東京都","city":"八王子市","address":"八王子市旭町8-10比留間ビル3階","lat":35.657585,"lon":139.338303},{"name":"八王子市高齢者あんしん相談センター高尾","province":"東京都","city":"八王子市","address":"八王子市東浅川町551-1東浅川保健福祉センター2階","lat":35.645088,"lon":139.293137},{"name":"八王子市高齢者あんしん相談センター左入","province":"東京都","city":"八王子市","address":"八王子市左入町372-4","lat":35.685505,"lon":139.34639},{"name":"八王子市高齢者あんしん相談センター中野","province":"東京都","city":"八王子市","address":"八王子市中野上町4-27-4ボナールHONDA1階","lat":35.670242,"lon":139.316483},{"name":"八王子市高齢者あんしん相談センター南大沢","province":"東京都","city":"八王子市","address":"八王子市南大沢2-17-5","lat":35.611408,"lon":139.382706},{"name":"八王子市高齢者あんしん相談センターめじろ","province":"東京都","city":"八王子市","address":"八王子市めじろ台2-55-5","lat":35.641174,"lon":139.313736},{"name":"八王子市高齢者あんしん相談センター長沼","province":"東京都","city":"八王子市","address":"八王子市長沼町1302-1都営長沼第二アパート16号棟1階","lat":35.884872,"lon":139.611465},{"name":"八王子市高齢者あんしん相談センター川口","province":"東京都","city":"八王子市","address":"八王子市川口町908-1川口事務所内","lat":35.693378,"lon":139.279099},{"name":"八王子市高齢者あんしん相談センター片倉","province":"東京都","city":"八王子市","address":"八王子市片倉町440-2","lat":35.642548,"lon":139.340469},{"name":"八王子市高齢者あんしん相談センター堀之内","province":"東京都","city":"八王子市","address":"八王子市堀之内1206","lat":35.63586,"lon":139.388535},{"name":"八王子市高齢者あんしん相談センター長房","province":"東京都","city":"八王子市","address":"八王子市長房町588、長房アパート西22号棟1階","lat":35.660057,"lon":139.331146},{"name":"八王子市高齢者あんしん相談センター子安","province":"東京都","city":"八王子市","address":"八王子市子安町4-10-9西村ビル4階","lat":35.653934,"lon":139.337601},{"name":"八王子市高齢者あんしん相談センターもとはち南","province":"東京都","city":"八王子市","address":"八王子市元八王子町2-1946-2宮崎ビル101","lat":35.659649,"lon":139.280975},{"name":"八王子市高齢者あんしん相談センター寺田","province":"東京都","city":"八王子市","address":"八王子市寺田町137-1","lat":35.631626,"lon":139.310333},{"name":"八王子市高齢者あんしん相談センター大横","province":"東京都","city":"八王子市","address":"八王子市大横町11-35、大横保健福祉センター4階","lat":35.664471,"lon":139.328445},{"name":"八王子市高齢者あんしん相談センター恩方","province":"東京都","city":"八王子市","address":"八王子市下恩方町3395恩方事務所内","lat":35.669819,"lon":139.248489},{"name":"市民部消費生活センター","province":"東京都","city":"八王子市","address":"八王子市東町5-6クリエイトホール地下1階","lat":35.658527,"lon":139.339554},{"name":"八王子市高齢者あんしん相談センター由木東","province":"東京都","city":"八王子市","address":"八王子市鹿島111-1由木東事務所内","lat":35.634281,"lon":139.422501},{"name":"八王子市高齢者あんしん相談センター石川","province":"東京都","city":"八王子市","address":"八王子市石川町481石川事務所内","lat":35.680756,"lon":139.366241},{"name":"八王子市福祉部高齢者福祉課","province":"東京都","city":"八王子市","address":"八王子市元本郷町3-24-1","lat":35.666496,"lon":139.316162},{"name":"八王子市高齢者あんしん相談センター旭町","province":"東京都","city":"八王子市","address":"八王子市旭町8-10比留間ビル3階","lat":35.657585,"lon":139.338303},{"name":"八王子市高齢者あんしん相談センター高尾","province":"東京都","city":"八王子市","address":"八王子市東浅川町551-1東浅川保健福祉センター2階","lat":35.645088,"lon":139.293137},{"name":"八王子市高齢者あんしん相談センター左入","province":"東京都","city":"八王子市","address":"八王子市左入町372-4","lat":35.685505,"lon":139.34639},{"name":"八王子市高齢者あんしん相談センター中野","province":"東京都","city":"八王子市","address":"八王子市中野上町4-27-4ボナールHONDA1階","lat":35.670242,"lon":139.316483},{"name":"八王子市高齢者あんしん相談センター南大沢","province":"東京都","city":"八王子市","address":"八王子市南大沢2-17-5","lat":35.611408,"lon":139.382706},{"name":"八王子市高齢者あんしん相談センターめじろ","province":"東京都","city":"八王子市","address":"八王子市めじろ台2-55-5","lat":35.641174,"lon":139.313736},{"name":"八王子市高齢者あんしん相談センター長沼","province":"東京都","city":"八王子市","address":"八王子市長沼町1302-1都営長沼第二アパート16号棟1階","lat":35.884872,"lon":139.611465},{"name":"八王子市高齢者あんしん相談センター川口","province":"東京都","city":"八王子市","address":"八王子市川口町908-1川口事務所内","lat":35.693378,"lon":139.279099},{"name":"八王子市高齢者あんしん相談センター片倉","province":"東京都","city":"八王子市","address":"八王子市片倉町440-2","lat":35.642548,"lon":139.340469},{"name":"八王子市高齢者あんしん相談センター堀之内","province":"東京都","city":"八王子市","address":"八王子市堀之内1206","lat":35.63586,"lon":139.388535},{"name":"八王子市高齢者あんしん相談センター長房","province":"東京都","city":"八王子市","address":"八王子市長房町588、長房アパート西22号棟1階","lat":35.660057,"lon":139.331146},{"name":"八王子市高齢者あんしん相談センター子安","province":"東京都","city":"八王子市","address":"八王子市子安町4-10-9西村ビル4階","lat":35.653934,"lon":139.337601},{"name":"八王子市高齢者あんしん相談センターもとはち南","province":"東京都","city":"八王子市","address":"八王子市元八王子町2-1946-2宮崎ビル101","lat":35.659649,"lon":139.280975},{"name":"八王子市高齢者あんしん相談センター寺田","province":"東京都","city":"八王子市","address":"八王子市寺田町137-1","lat":35.631626,"lon":139.310333},{"name":"八王子市高齢者あんしん相談センター大横","province":"東京都","city":"八王子市","address":"八王子市大横町11-35、大横保健福祉センター4階","lat":35.664471,"lon":139.328445},{"name":"八王子市高齢者あんしん相談センター恩方","province":"東京都","city":"八王子市","address":"八王子市下恩方町3395恩方事務所内","lat":35.669819,"lon":139.248489},{"name":"市民部消費生活センター","province":"東京都","city":"八王子市","address":"八王子市東町5-6クリエイトホール地下1階","lat":35.658527,"lon":139.339554},{"name":"八王子市高齢者あんしん相談センター由木東","province":"東京都","city":"八王子市","address":"八王子市鹿島111-1由木東事務所内","lat":35.634281,"lon":139.422501},{"name":"八王子市高齢者あんしん相談センター石川","province":"東京都","city":"八王子市","address":"八王子市石川町481石川事務所内","lat":35.680756,"lon":139.366241},{"name":"八王子市福祉部高齢者福祉課","province":"東京都","city":"八王子市","address":"八王子市元本郷町3-24-1","lat":35.666496,"lon":139.316162},{"name":"八王子市高齢者あんしん相談センター旭町","province":"東京都","city":"八王子市","address":"八王子市旭町8-10比留間ビル3階","lat":35.657585,"lon":139.338303},{"name":"八王子市高齢者あんしん相談センター高尾","province":"東京都","city":"八王子市","address":"八王子市東浅川町551-1東浅川保健福祉センター2階","lat":35.645088,"lon":139.293137},{"name":"八王子市高齢者あんしん相談センター左入","province":"東京都","city":"八王子市","address":"八王子市左入町372-4","lat":35.685505,"lon":139.34639},{"name":"八王子市高齢者あんしん相談センター中野","province":"東京都","city":"八王子市","address":"八王子市中野上町4-27-4ボナールHONDA1階","lat":35.670242,"lon":139.316483},{"name":"八王子市高齢者あんしん相談センター南大沢","province":"東京都","city":"八王子市","address":"八王子市南大沢2-17-5","lat":35.611408,"lon":139.382706},{"name":"八王子市高齢者あんしん相談センターめじろ","province":"東京都","city":"八王子市","address":"八王子市めじろ台2-55-5","lat":35.641174,"lon":139.313736},{"name":"八王子市高齢者あんしん相談センター長沼","province":"東京都","city":"八王子市","address":"八王子市長沼町1302-1都営長沼第二アパート16号棟1階","lat":35.884872,"lon":139.611465},{"name":"八王子市高齢者あんしん相談センター川口","province":"東京都","city":"八王子市","address":"八王子市川口町908-1川口事務所内","lat":35.693378,"lon":139.279099},{"name":"八王子市高齢者あんしん相談センター片倉","province":"東京都","city":"八王子市","address":"八王子市片倉町440-2","lat":35.642548,"lon":139.340469},{"name":"八王子市高齢者あんしん相談センター堀之内","province":"東京都","city":"八王子市","address":"八王子市堀之内1206","lat":35.63586,"lon":139.388535},{"name":"八王子市高齢者あんしん相談センター長房","province":"東京都","city":"八王子市","address":"八王子市長房町588、長房アパート西22号棟1階","lat":35.660057,"lon":139.331146},{"name":"八王子市高齢者あんしん相談センター子安","province":"東京都","city":"八王子市","address":"八王子市子安町4-10-9西村ビル4階","lat":35.653934,"lon":139.337601},{"name":"八王子市高齢者あんしん相談センターもとはち南","province":"東京都","city":"八王子市","address":"八王子市元八王子町2-1946-2宮崎ビル101","lat":35.659649,"lon":139.280975},{"name":"八王子市高齢者あんしん相談センター寺田","province":"東京都","city":"八王子市","address":"八王子市寺田町137-1","lat":35.631626,"lon":139.310333},{"name":"八王子市高齢者あんしん相談センター大横","province":"東京都","city":"八王子市","address":"八王子市大横町11-35、大横保健福祉センター4階","lat":35.664471,"lon":139.328445},{"name":"八王子市高齢者あんしん相談センター恩方","province":"東京都","city":"八王子市","address":"八王子市下恩方町3395恩方事務所内","lat":35.669819,"lon":139.248489},{"name":"市民部消費生活センター","province":"東京都","city":"八王子市","address":"八王子市東町5-6クリエイトホール地下1階","lat":35.658527,"lon":139.339554},{"name":"八王子市高齢者あんしん相談センター由木東","province":"東京都","city":"八王子市","address":"八王子市鹿島111-1由木東事務所内","lat":35.634281,"lon":139.422501},{"name":"八王子市高齢者あんしん相談センター石川","province":"東京都","city":"八王子市","address":"八王子市石川町481石川事務所内","lat":35.680756,"lon":139.366241},{"name":"八王子市福祉部高齢者福祉課","province":"東京都","city":"八王子市","address":"八王子市元本郷町3-24-1","lat":35.666496,"lon":139.316162},{"name":"八王子市高齢者あんしん相談センター旭町","province":"東京都","city":"八王子市","address":"八王子市旭町8-10比留間ビル3階","lat":35.657585,"lon":139.338303},{"name":"八王子市高齢者あんしん相談センター高尾","province":"東京都","city":"八王子市","address":"八王子市東浅川町551-1東浅川保健福祉センター2階","lat":35.645088,"lon":139.293137},{"name":"八王子市高齢者あんしん相談センター左入","province":"東京都","city":"八王子市","address":"八王子市左入町372-4","lat":35.685505,"lon":139.34639},{"name":"八王子市高齢者あんしん相談センター中野","province":"東京都","city":"八王子市","address":"八王子市中野上町4-27-4ボナールHONDA1階","lat":35.670242,"lon":139.316483},{"name":"八王子市高齢者あんしん相談センター南大沢","province":"東京都","city":"八王子市","address":"八王子市南大沢2-17-5","lat":35.611408,"lon":139.382706},{"name":"八王子市高齢者あんしん相談センターめじろ","province":"東京都","city":"八王子市","address":"八王子市めじろ台2-55-5","lat":35.641174,"lon":139.313736},{"name":"八王子市高齢者あんしん相談センター長沼","province":"東京都","city":"八王子市","address":"八王子市長沼町1302-1都営長沼第二アパート16号棟1階","lat":35.884872,"lon":139.611465},{"name":"八王子市高齢者あんしん相談センター川口","province":"東京都","city":"八王子市","address":"八王子市川口町908-1川口事務所内","lat":35.693378,"lon":139.279099},{"name":"八王子市高齢者あんしん相談センター片倉","province":"東京都","city":"八王子市","address":"八王子市片倉町440-2","lat":35.642548,"lon":139.340469},{"name":"八王子市高齢者あんしん相談センター堀之内","province":"東京都","city":"八王子市","address":"八王子市堀之内1206","lat":35.63586,"lon":139.388535},{"name":"八王子市高齢者あんしん相談センター長房","province":"東京都","city":"八王子市","address":"八王子市長房町588、長房アパート西22号棟1階","lat":35.660057,"lon":139.331146},{"name":"八王子市高齢者あんしん相談センター子安","province":"東京都","city":"八王子市","address":"八王子市子安町4-10-9西村ビル4階","lat":35.653934,"lon":139.337601},{"name":"八王子市高齢者あんしん相談センターもとはち南","province":"東京都","city":"八王子市","address":"八王子市元八王子町2-1946-2宮崎ビル101","lat":35.659649,"lon":139.280975},{"name":"八王子市高齢者あんしん相談センター寺田","province":"東京都","city":"八王子市","address":"八王子市寺田町137-1","lat":35.631626,"lon":139.310333},{"name":"八王子市高齢者あんしん相談センター大横","province":"東京都","city":"八王子市","address":"八王子市大横町11-35、大横保健福祉センター4階","lat":35.664471,"lon":139.328445},{"name":"八王子市高齢者あんしん相談センター恩方","province":"東京都","city":"八王子市","address":"八王子市下恩方町3395恩方事務所内","lat":35.669819,"lon":139.248489},{"name":"市民部消費生活センター","province":"東京都","city":"八王子市","address":"八王子市東町5-6クリエイトホール地下1階","lat":35.658527,"lon":139.339554},{"name":"八王子市高齢者あんしん相談センター由木東","province":"東京都","city":"八王子市","address":"八王子市鹿島111-1由木東事務所内","lat":35.634281,"lon":139.422501},{"name":"八王子市高齢者あんしん相談センター石川","province":"東京都","city":"八王子市","address":"八王子市石川町481石川事務所内","lat":35.680756,"lon":139.366241},{"name":"八王子市福祉部高齢者福祉課","province":"東京都","city":"八王子市","address":"八王子市元本郷町3-24-1","lat":35.666496,"lon":139.316162},{"name":"八王子市高齢者あんしん相談センター旭町","province":"東京都","city":"八王子市","address":"八王子市旭町8-10比留間ビル3階","lat":35.657585,"lon":139.338303},{"name":"八王子市高齢者あんしん相談センター高尾","province":"東京都","city":"八王子市","address":"八王子市東浅川町551-1東浅川保健福祉センター2階","lat":35.645088,"lon":139.293137},{"name":"八王子市高齢者あんしん相談センター左入","province":"東京都","city":"八王子市","address":"八王子市左入町372-4","lat":35.685505,"lon":139.34639},{"name":"八王子市高齢者あんしん相談センター中野","province":"東京都","city":"八王子市","address":"八王子市中野上町4-27-4ボナールHONDA1階","lat":35.670242,"lon":139.316483},{"name":"八王子市高齢者あんしん相談センター南大沢","province":"東京都","city":"八王子市","address":"八王子市南大沢2-17-5","lat":35.611408,"lon":139.382706},{"name":"八王子市高齢者あんしん相談センターめじろ","province":"東京都","city":"八王子市","address":"八王子市めじろ台2-55-5","lat":35.641174,"lon":139.313736},{"name":"八王子市高齢者あんしん相談センター長沼","province":"東京都","city":"八王子市","address":"八王子市長沼町1302-1都営長沼第二アパート16号棟1階","lat":35.884872,"lon":139.611465},{"name":"八王子市高齢者あんしん相談センター川口","province":"東京都","city":"八王子市","address":"八王子市川口町908-1川口事務所内","lat":35.693378,"lon":139.279099},{"name":"八王子市高齢者あんしん相談センター片倉","province":"東京都","city":"八王子市","address":"八王子市片倉町440-2","lat":35.642548,"lon":139.340469},{"name":"八王子市高齢者あんしん相談センター堀之内","province":"東京都","city":"八王子市","address":"八王子市堀之内1206","lat":35.63586,"lon":139.388535},{"name":"八王子市高齢者あんしん相談センター長房","province":"東京都","city":"八王子市","address":"八王子市長房町588、長房アパート西22号棟1階","lat":35.660057,"lon":139.331146},{"name":"八王子市高齢者あんしん相談センター子安","province":"東京都","city":"八王子市","address":"八王子市子安町4-10-9西村ビル4階","lat":35.653934,"lon":139.337601},{"name":"八王子市高齢者あんしん相談センターもとはち南","province":"東京都","city":"八王子市","address":"八王子市元八王子町2-1946-2宮崎ビル101","lat":35.659649,"lon":139.280975},{"name":"八王子市高齢者あんしん相談センター寺田","province":"東京都","city":"八王子市","address":"八王子市寺田町137-1","lat":35.631626,"lon":139.310333},{"name":"八王子市高齢者あんしん相談センター大横","province":"東京都","city":"八王子市","address":"八王子市大横町11-35、大横保健福祉センター4階","lat":35.664471,"lon":139.328445},{"name":"八王子市高齢者あんしん相談センター恩方","province":"東京都","city":"八王子市","address":"八王子市下恩方町3395恩方事務所内","lat":35.669819,"lon":139.248489},{"name":"市民部消費生活センター","province":"東京都","city":"八王子市","address":"八王子市東町5-6クリエイトホール地下1階","lat":35.658527,"lon":139.339554},{"name":"八王子市高齢者あんしん相談センター由木東","province":"東京都","city":"八王子市","address":"八王子市鹿島111-1由木東事務所内","lat":35.634281,"lon":139.422501},{"name":"八王子市高齢者あんしん相談センター石川","province":"東京都","city":"八王子市","address":"八王子市石川町481石川事務所内","lat":35.680756,"lon":139.366241},{"name":"八王子市福祉部高齢者福祉課","province":"東京都","city":"八王子市","address":"八王子市元本郷町3-24-1","lat":35.666496,"lon":139.316162},{"name":"八王子市高齢者あんしん相談センター旭町","province":"東京都","city":"八王子市","address":"八王子市旭町8-10比留間ビル3階","lat":35.657585,"lon":139.338303},{"name":"八王子市高齢者あんしん相談センター高尾","province":"東京都","city":"八王子市","address":"八王子市東浅川町551-1東浅川保健福祉センター2階","lat":35.645088,"lon":139.293137},{"name":"八王子市高齢者あんしん相談センター左入","province":"東京都","city":"八王子市","address":"八王子市左入町372-4","lat":35.685505,"lon":139.34639},{"name":"八王子市高齢者あんしん相談センター中野","province":"東京都","city":"八王子市","address":"八王子市中野上町4-27-4ボナールHONDA1階","lat":35.670242,"lon":139.316483},{"name":"八王子市高齢者あんしん相談センター南大沢","province":"東京都","city":"八王子市","address":"八王子市南大沢2-17-5","lat":35.611408,"lon":139.382706},{"name":"八王子市高齢者あんしん相談センターめじろ","province":"東京都","city":"八王子市","address":"八王子市めじろ台2-55-5","lat":35.641174,"lon":139.313736},{"name":"八王子市高齢者あんしん相談センター長沼","province":"東京都","city":"八王子市","address":"八王子市長沼町1302-1都営長沼第二アパート16号棟1階","lat":35.884872,"lon":139.611465},{"name":"八王子市高齢者あんしん相談センター川口","province":"東京都","city":"八王子市","address":"八王子市川口町908-1川口事務所内","lat":35.693378,"lon":139.279099},{"name":"八王子市高齢者あんしん相談センター片倉","province":"東京都","city":"八王子市","address":"八王子市片倉町440-2","lat":35.642548,"lon":139.340469},{"name":"八王子市高齢者あんしん相談センター堀之内","province":"東京都","city":"八王子市","address":"八王子市堀之内1206","lat":35.63586,"lon":139.388535},{"name":"八王子市高齢者あんしん相談センター長房","province":"東京都","city":"八王子市","address":"八王子市長房町588、長房アパート西22号棟1階","lat":35.660057,"lon":139.331146},{"name":"八王子市高齢者あんしん相談センター子安","province":"東京都","city":"八王子市","address":"八王子市子安町4-10-9西村ビル4階","lat":35.653934,"lon":139.337601},{"name":"八王子市高齢者あんしん相談センターもとはち南","province":"東京都","city":"八王子市","address":"八王子市元八王子町2-1946-2宮崎ビル101","lat":35.659649,"lon":139.280975},{"name":"八王子市高齢者あんしん相談センター寺田","province":"東京都","city":"八王子市","address":"八王子市寺田町137-1","lat":35.631626,"lon":139.310333},{"name":"八王子市高齢者あんしん相談センター大横","province":"東京都","city":"八王子市","address":"八王子市大横町11-35、大横保健福祉センター4階","lat":35.664471,"lon":139.328445},{"name":"八王子市高齢者あんしん相談センター恩方","province":"東京都","city":"八王子市","address":"八王子市下恩方町3395恩方事務所内","lat":35.669819,"lon":139.248489},{"name":"市民部消費生活センター","province":"東京都","city":"八王子市","address":"八王子市東町5-6クリエイトホール地下1階","lat":35.658527,"lon":139.339554},{"name":"八王子市高齢者あんしん相談センター由木東","province":"東京都","city":"八王子市","address":"八王子市鹿島111-1由木東事務所内","lat":35.634281,"lon":139.422501},{"name":"八王子市高齢者あんしん相談センター石川","province":"東京都","city":"八王子市","address":"八王子市石川町481石川事務所内","lat":35.680756,"lon":139.366241},{"name":"八王子市福祉部高齢者福祉課","province":"東京都","city":"八王子市","address":"八王子市元本郷町3-24-1","lat":35.666496,"lon":139.316162},{"name":"八王子市高齢者あんしん相談センター旭町","province":"東京都","city":"八王子市","address":"八王子市旭町8-10比留間ビル3階","lat":35.657585,"lon":139.338303},{"name":"八王子市高齢者あんしん相談センター高尾","province":"東京都","city":"八王子市","address":"八王子市東浅川町551-1東浅川保健福祉センター2階","lat":35.645088,"lon":139.293137},{"name":"八王子市高齢者あんしん相談センター左入","province":"東京都","city":"八王子市","address":"八王子市左入町372-4","lat":35.685505,"lon":139.34639},{"name":"八王子市高齢者あんしん相談センター中野","province":"東京都","city":"八王子市","address":"八王子市中野上町4-27-4ボナールHONDA1階","lat":35.670242,"lon":139.316483},{"name":"八王子市高齢者あんしん相談センター南大沢","province":"東京都","city":"八王子市","address":"八王子市南大沢2-17-5","lat":35.611408,"lon":139.382706},{"name":"八王子市高齢者あんしん相談センターめじろ","province":"東京都","city":"八王子市","address":"八王子市めじろ台2-55-5","lat":35.641174,"lon":139.313736},{"name":"八王子市高齢者あんしん相談センター長沼","province":"東京都","city":"八王子市","address":"八王子市長沼町1302-1都営長沼第二アパート16号棟1階","lat":35.884872,"lon":139.611465},{"name":"八王子市高齢者あんしん相談センター川口","province":"東京都","city":"八王子市","address":"八王子市川口町908-1川口事務所内","lat":35.693378,"lon":139.279099},{"name":"八王子市高齢者あんしん相談センター片倉","province":"東京都","city":"八王子市","address":"八王子市片倉町440-2","lat":35.642548,"lon":139.340469},{"name":"八王子市高齢者あんしん相談センター堀之内","province":"東京都","city":"八王子市","address":"八王子市堀之内1206","lat":35.63586,"lon":139.388535},{"name":"八王子市高齢者あんしん相談センター長房","province":"東京都","city":"八王子市","address":"八王子市長房町588、長房アパート西22号棟1階","lat":35.660057,"lon":139.331146},{"name":"八王子市高齢者あんしん相談センター子安","province":"東京都","city":"八王子市","address":"八王子市子安町4-10-9西村ビル4階","lat":35.653934,"lon":139.337601},{"name":"八王子市高齢者あんしん相談センターもとはち南","province":"東京都","city":"八王子市","address":"八王子市元八王子町2-1946-2宮崎ビル101","lat":35.659649,"lon":139.280975},{"name":"八王子市高齢者あんしん相談センター寺田","province":"東京都","city":"八王子市","address":"八王子市寺田町137-1","lat":35.631626,"lon":139.310333},{"name":"八王子市高齢者あんしん相談センター大横","province":"東京都","city":"八王子市","address":"八王子市大横町11-35、大横保健福祉センター4階","lat":35.664471,"lon":139.328445},{"name":"八王子市高齢者あんしん相談センター恩方","province":"東京都","city":"八王子市","address":"八王子市下恩方町3395恩方事務所内","lat":35.669819,"lon":139.248489},{"name":"市民部消費生活センター","province":"東京都","city":"八王子市","address":"八王子市東町5-6クリエイトホール地下1階","lat":35.658527,"lon":139.339554},{"name":"八王子市高齢者あんしん相談センター由木東","province":"東京都","city":"八王子市","address":"八王子市鹿島111-1由木東事務所内","lat":35.634281,"lon":139.422501},{"name":"八王子市高齢者あんしん相談センター石川","province":"東京都","city":"八王子市","address":"八王子市石川町481石川事務所内","lat":35.680756,"lon":139.366241},{"name":"八王子市福祉部高齢者福祉課","province":"東京都","city":"八王子市","address":"八王子市元本郷町3-24-1","lat":35.666496,"lon":139.316162},{"name":"八王子市高齢者あんしん相談センター旭町","province":"東京都","city":"八王子市","address":"八王子市旭町8-10比留間ビル3階","lat":35.657585,"lon":139.338303},{"name":"八王子市高齢者あんしん相談センター高尾","province":"東京都","city":"八王子市","address":"八王子市東浅川町551-1東浅川保健福祉センター2階","lat":35.645088,"lon":139.293137},{"name":"八王子市高齢者あんしん相談センター左入","province":"東京都","city":"八王子市","address":"八王子市左入町372-4","lat":35.685505,"lon":139.34639},{"name":"八王子市高齢者あんしん相談センター中野","province":"東京都","city":"八王子市","address":"八王子市中野上町4-27-4ボナールHONDA1階","lat":35.670242,"lon":139.316483},{"name":"八王子市高齢者あんしん相談センター南大沢","province":"東京都","city":"八王子市","address":"八王子市南大沢2-17-5","lat":35.611408,"lon":139.382706},{"name":"八王子市高齢者あんしん相談センターめじろ","province":"東京都","city":"八王子市","address":"八王子市めじろ台2-55-5","lat":35.641174,"lon":139.313736},{"name":"八王子市高齢者あんしん相談センター長沼","province":"東京都","city":"八王子市","address":"八王子市長沼町1302-1都営長沼第二アパート16号棟1階","lat":35.884872,"lon":139.611465},{"name":"八王子市高齢者あんしん相談センター川口","province":"東京都","city":"八王子市","address":"八王子市川口町908-1川口事務所内","lat":35.693378,"lon":139.279099},{"name":"八王子市高齢者あんしん相談センター片倉","province":"東京都","city":"八王子市","address":"八王子市片倉町440-2","lat":35.642548,"lon":139.340469},{"name":"八王子市高齢者あんしん相談センター堀之内","province":"東京都","city":"八王子市","address":"八王子市堀之内1206","lat":35.63586,"lon":139.388535},{"name":"八王子市高齢者あんしん相談センター長房","province":"東京都","city":"八王子市","address":"八王子市長房町588、長房アパート西22号棟1階","lat":35.660057,"lon":139.331146},{"name":"八王子市高齢者あんしん相談センター子安","province":"東京都","city":"八王子市","address":"八王子市子安町4-10-9西村ビル4階","lat":35.653934,"lon":139.337601},{"name":"八王子市高齢者あんしん相談センターもとはち南","province":"東京都","city":"八王子市","address":"八王子市元八王子町2-1946-2宮崎ビル101","lat":35.659649,"lon":139.280975},{"name":"八王子市高齢者あんしん相談センター寺田","province":"東京都","city":"八王子市","address":"八王子市寺田町137-1","lat":35.631626,"lon":139.310333},{"name":"八王子市高齢者あんしん相談センター大横","province":"東京都","city":"八王子市","address":"八王子市大横町11-35、大横保健福祉センター4階","lat":35.664471,"lon":139.328445},{"name":"八王子市高齢者あんしん相談センター恩方","province":"東京都","city":"八王子市","address":"八王子市下恩方町3395恩方事務所内","lat":35.669819,"lon":139.248489},{"name":"市民部消費生活センター","province":"東京都","city":"八王子市","address":"八王子市東町5-6クリエイトホール地下1階","lat":35.658527,"lon":139.339554},{"name":"八王子市高齢者あんしん相談センター由木東","province":"東京都","city":"八王子市","address":"八王子市鹿島111-1由木東事務所内","lat":35.634281,"lon":139.422501},{"name":"八王子市高齢者あんしん相談センター石川","province":"東京都","city":"八王子市","address":"八王子市石川町481石川事務所内","lat":35.680756,"lon":139.366241},{"name":"八王子市福祉部高齢者福祉課","province":"東京都","city":"八王子市","address":"八王子市元本郷町3-24-1","lat":35.666496,"lon":139.316162},{"name":"八王子市高齢者あんしん相談センター旭町","province":"東京都","city":"八王子市","address":"八王子市旭町8-10比留間ビル3階","lat":35.657585,"lon":139.338303},{"name":"八王子市高齢者あんしん相談センター高尾","province":"東京都","city":"八王子市","address":"八王子市東浅川町551-1東浅川保健福祉センター2階","lat":35.645088,"lon":139.293137},{"name":"八王子市高齢者あんしん相談センター左入","province":"東京都","city":"八王子市","address":"八王子市左入町372-4","lat":35.685505,"lon":139.34639},{"name":"八王子市高齢者あんしん相談センター中野","province":"東京都","city":"八王子市","address":"八王子市中野上町4-27-4ボナールHONDA1階","lat":35.670242,"lon":139.316483},{"name":"八王子市高齢者あんしん相談センター南大沢","province":"東京都","city":"八王子市","address":"八王子市南大沢2-17-5","lat":35.611408,"lon":139.382706},{"name":"八王子市高齢者あんしん相談センターめじろ","province":"東京都","city":"八王子市","address":"八王子市めじろ台2-55-5","lat":35.641174,"lon":139.313736},{"name":"八王子市高齢者あんしん相談センター長沼","province":"東京都","city":"八王子市","address":"八王子市長沼町1302-1都営長沼第二アパート16号棟1階","lat":35.884872,"lon":139.611465},{"name":"八王子市高齢者あんしん相談センター川口","province":"東京都","city":"八王子市","address":"八王子市川口町908-1川口事務所内","lat":35.693378,"lon":139.279099},{"name":"八王子市高齢者あんしん相談センター片倉","province":"東京都","city":"八王子市","address":"八王子市片倉町440-2","lat":35.642548,"lon":139.340469},{"name":"八王子市高齢者あんしん相談センター堀之内","province":"東京都","city":"八王子市","address":"八王子市堀之内1206","lat":35.63586,"lon":139.388535},{"name":"八王子市高齢者あんしん相談センター長房","province":"東京都","city":"八王子市","address":"八王子市長房町588、長房アパート西22号棟1階","lat":35.660057,"lon":139.331146},{"name":"八王子市高齢者あんしん相談センター子安","province":"東京都","city":"八王子市","address":"八王子市子安町4-10-9西村ビル4階","lat":35.653934,"lon":139.337601},{"name":"八王子市高齢者あんしん相談センターもとはち南","province":"東京都","city":"八王子市","address":"八王子市元八王子町2-1946-2宮崎ビル101","lat":35.659649,"lon":139.280975},{"name":"八王子市高齢者あんしん相談センター寺田","province":"東京都","city":"八王子市","address":"八王子市寺田町137-1","lat":35.631626,"lon":139.310333},{"name":"八王子市高齢者あんしん相談センター大横","province":"東京都","city":"八王子市","address":"八王子市大横町11-35、大横保健福祉センター4階","lat":35.664471,"lon":139.328445},{"name":"八王子市高齢者あんしん相談センター恩方","province":"東京都","city":"八王子市","address":"八王子市下恩方町3395恩方事務所内","lat":35.669819,"lon":139.248489},{"name":"市民部消費生活センター","province":"東京都","city":"八王子市","address":"八王子市東町5-6クリエイトホール地下1階","lat":35.658527,"lon":139.339554},{"name":"八王子市高齢者あんしん相談センター由木東","province":"東京都","city":"八王子市","address":"八王子市鹿島111-1由木東事務所内","lat":35.634281,"lon":139.422501},{"name":"八王子市高齢者あんしん相談センター石川","province":"東京都","city":"八王子市","address":"八王子市石川町481石川事務所内","lat":35.680756,"lon":139.366241}]}