{"keyword":"放課後","data":[{"name":"戸吹の杜","province":"東京都","city":"八王子市","address":"八王子市戸吹町391-5","lat":35.709816,"lon":139.289617},{"name":"いくをくらＢｏｏ","province":"東京都","city":"八王子市","address":"八王子市石川町93-1TIKビル1階","lat":35.681224,"lon":139.357979},{"name":"ベアーズハウス　中野上町","province":"東京都","city":"八王子市","address":"八王子市中野上町1-11-5","lat":35.668178,"lon":139.32826},{"name":"運動療育で生きる力を育む　シエル","province":"東京都","city":"八王子市","address":"八王子市中野山王1丁目12番地2号オガタビル202号室","lat":35.673322,"lon":139.328582},{"name":"ぽんぽこクラブ","province":"東京都","city":"八王子市","address":"八王子市大和田町2-20-7","lat":35.665101,"lon":139.359596},{"name":"Ｂａｍｂｏｕ","province":"東京都","city":"八王子市","address":"八王子市大和田町4-5-4","lat":35.662793,"lon":139.354096},{"name":"青空クラブ","province":"東京都","city":"八王子市","address":"八王子市元本郷町4-20-26","lat":35.665906,"lon":139.31458},{"name":"「あそび」「運動」「学習」で笑顔溢れる発達支援教室","province":"東京都","city":"八王子市","address":"八王子市天神町24-3プラムフィールド202号","lat":35.657446,"lon":139.328374},{"name":"ばんびーの","province":"東京都","city":"八王子市","address":"八王子市西寺方町1090-5","lat":35.682933,"lon":139.268125},{"name":"こぱん","province":"東京都","city":"八王子市","address":"八王子市西寺方町449-1","lat":35.676186,"lon":139.268653},{"name":"こどもでいさーびす　はるいろ","province":"東京都","city":"八王子市","address":"八王子市下恩方町766ジュネス2番館1階","lat":35.679133,"lon":139.263532},{"name":"ドリームボックス","province":"東京都","city":"八王子市","address":"八王子市東中野1255-1","lat":35.632506,"lon":139.405652},{"name":"放課後等デイサービス　おひさま","province":"東京都","city":"八王子市","address":"八王子市大塚165","lat":35.639475,"lon":139.417906},{"name":"あんふぁん大塚事業所","province":"東京都","city":"八王子市","address":"八王子市大塚623番地3かざまビル401号室","lat":35.638156,"lon":139.418395},{"name":"通所支援ベルテール八王子大塚園","province":"東京都","city":"八王子市","address":"八王子市大塚494-1","lat":35.638695,"lon":139.421431},{"name":"あんふぁん由木事業所","province":"東京都","city":"八王子市","address":"八王子市大塚627-18フォースフロンティア1階","lat":35.637081,"lon":139.419984},{"name":"コラソンキッズ八王子","province":"東京都","city":"八王子市","address":"八王子市堀之内2-17-1","lat":35.629481,"lon":139.402741},{"name":"ハッピーテラス堀之内教室","province":"東京都","city":"八王子市","address":"八王子市越野25-31プランドール美鶴1階","lat":35.62809,"lon":139.392686},{"name":"オリーブ芸術療法研究所","province":"東京都","city":"八王子市","address":"八王子市南大沢1-22-2","lat":35.617018,"lon":139.384843},{"name":"セントスクエア","province":"東京都","city":"八王子市","address":"八王子市南大沢2-27フレスコ南大沢5F","lat":35.611941,"lon":139.37926},{"name":"ビバーチェ","province":"東京都","city":"八王子市","address":"八王子市南大沢2-212-3三協ビル2階","lat":35.611014,"lon":139.384865},{"name":"通所支援ベルテール八王子第二南大沢園","province":"東京都","city":"八王子市","address":"八王子市南大沢2-13-4田中ビル201号室","lat":35.612144,"lon":139.38316},{"name":"通所支援ベルテール　八王子南大沢園","province":"東京都","city":"八王子市","address":"八王子市下柚木3-6","lat":35.621115,"lon":139.380618},{"name":"こころみの会","province":"東京都","city":"八王子市","address":"八王子市上野町103-1レジデンス富士森1階","lat":35.653232,"lon":139.327563},{"name":"リュミエール","province":"東京都","city":"八王子市","address":"八王子市上野町27-3コスモス八王子101、202","lat":35.653899,"lon":139.327821},{"name":"ドリームボックス北野","province":"東京都","city":"八王子市","address":"八王子市北野町557-19メゾン根来1階101号室","lat":35.645584,"lon":139.359116},{"name":"放課後等デイサービス　ハートマーク","province":"東京都","city":"八王子市","address":"八王子市北野町555-16","lat":35.646239,"lon":139.356941},{"name":"スポーツひろばプレイス八王子教室","province":"東京都","city":"八王子市","address":"八王子市打越町344-4北野シティプラザ201","lat":35.644551,"lon":139.355028},{"name":"クローバーハウス片倉町本店","province":"東京都","city":"八王子市","address":"八王子市片倉町439-4","lat":35.642698,"lon":139.339329},{"name":"わんぱくキッズ","province":"東京都","city":"八王子市","address":"八王子市片倉町359-4","lat":35.642803,"lon":139.338226},{"name":"たから","province":"東京都","city":"八王子市","address":"八王子市片倉町301-2","lat":35.643414,"lon":139.334532},{"name":"スパークスタジオみなみ野　Ｒａｉｎｂｏｗ　Ｋｉｄｓ","province":"東京都","city":"八王子市","address":"八王子市みなみ野3-31-17ボヌールA","lat":35.629407,"lon":139.322039},{"name":"通所支援ベルテール八王子みなみ野園","province":"東京都","city":"八王子市","address":"八王子市みなみ野1-7-1","lat":35.632335,"lon":139.328228},{"name":"ハッピーテラス八王子みなみ野","province":"東京都","city":"八王子市","address":"八王子市みなみ野3-31-17ボヌールB","lat":35.629407,"lon":139.322039},{"name":"チャレンジぴぴ","province":"東京都","city":"八王子市","address":"八王子市犬目町44番1","lat":35.688142,"lon":139.306541},{"name":"ベアーズハウス","province":"東京都","city":"八王子市","address":"八王子市散田町5-6-14第1サンダファイブ1階","lat":35.649015,"lon":139.299293},{"name":"ベアーズハウス　西八王子","province":"東京都","city":"八王子市","address":"八王子市散田町4-16-13クレール西八王子B棟1階","lat":35.652174,"lon":139.307817},{"name":"脳を育てる療育プログラム　チャイルド・ブレイン","province":"東京都","city":"八王子市","address":"八王子市東浅川町1番地11","lat":35.650596,"lon":139.298571},{"name":"ころぽっくる","province":"東京都","city":"八王子市","address":"八王子市東浅川町629番地1","lat":35.643111,"lon":139.299827},{"name":"Ｐｅａｃｅ","province":"東京都","city":"八王子市","address":"八王子市東浅川町336-11","lat":35.646074,"lon":139.287772},{"name":"Ｒａｃｉｎｅ","province":"東京都","city":"八王子市","address":"八王子市千人町4-6-5プラムグローブ1階","lat":35.657151,"lon":139.307087},{"name":"みんなのひろば","province":"東京都","city":"八王子市","address":"八王子市千人町1-6-2杉本マンション1階","lat":35.65979,"lon":139.315694},{"name":"放課後デイサービスわくわく","province":"東京都","city":"八王子市","address":"八王子市千人町2-6-5プライムコート千人町1階","lat":35.659481,"lon":139.31225},{"name":"ハッピーテラス西八王子教室","province":"東京都","city":"八王子市","address":"八王子市日吉町18-6","lat":35.661606,"lon":139.314653},{"name":"Ｅａｒｔｈ　Ｃｈｉｌｄｒｅｎ","province":"東京都","city":"八王子市","address":"八王子市台町4-19-12","lat":35.656898,"lon":139.320522},{"name":"すぎな愛育園こすもす","province":"東京都","city":"八王子市","address":"八王子市台町2-7-22","lat":35.649091,"lon":139.321239},{"name":"こあらくらぶ","province":"東京都","city":"八王子市","address":"八王子市台町4-33-12ヴィレッジ木下","lat":35.657551,"lon":139.318078},{"name":"すぎな愛育園あみぃ","province":"東京都","city":"八王子市","address":"八王子市椚田町539-9","lat":35.637453,"lon":139.308785}]}