{"keyword":"文化","data":[{"name":"船田石器時代遺跡","province":"東京都","city":"八王子市","address":"東京都八王子市長房町1360","lat":35.64938454,"lon":139.2872888},{"name":"滝山城跡","province":"東京都","city":"八王子市","address":"東京都八王子市丹木町2丁目","lat":35.69518599,"lon":139.32755042},{"name":"椚田遺跡","province":"東京都","city":"八王子市","address":"東京都八王子市椚田町541","lat":35.636939,"lon":139.305324},{"name":"相模集","province":"東京都","city":"八王子市","address":"東京都八王子市谷野町492-1","lat":35.686268,"lon":139.32907},{"name":"太刀（一）","province":"東京都","city":"八王子市","address":"東京都八王子市谷野町492-1","lat":35.686268,"lon":139.32907},{"name":"太刀（近景）","province":"東京都","city":"八王子市","address":"東京都八王子市谷野町492-1","lat":35.686268,"lon":139.32907},{"name":"太刀（有綱）","province":"東京都","city":"八王子市","address":"東京都八王子市谷野町492-1","lat":35.686268,"lon":139.32907},{"name":"八王子車人形","province":"東京都","city":"八王子市","address":"東京都八王子市下恩方町1566","lat":35.670212,"lon":139.255122},{"name":"薬王院飯縄権現堂","province":"東京都","city":"八王子市","address":"東京都八王子市高尾町2177","lat":35.62743,"lon":139.250311},{"name":"髙尾山不動堂　附　須弥壇一基","province":"東京都","city":"八王子市","address":"東京都八王子市高尾町2177","lat":35.62743,"lon":139.250311},{"name":"西蓮寺薬師堂　附　厨子一基","province":"東京都","city":"八王子市","address":"東京都八王子市大楽寺566","lat":35.669697,"lon":139.300856},{"name":"広園寺　総門・山門・仏殿・鐘楼　附　銅鐘一口","province":"東京都","city":"八王子市","address":"東京都八王子市山田町1577ほか","lat":35.646741,"lon":139.316795},{"name":"薬王院仁王門","province":"東京都","city":"八王子市","address":"東京都八王子市高尾町2177","lat":35.62743,"lon":139.250311},{"name":"浄福寺観音堂内厨子","province":"東京都","city":"八王子市","address":"東京都八王子市下恩方町3259","lat":35.66734,"lon":139.247997},{"name":"薬王院大師堂","province":"東京都","city":"八王子市","address":"東京都八王子市高尾町2177","lat":35.62743,"lon":139.250311},{"name":"紙本着色高野山図絵","province":"東京都","city":"八王子市","address":"東京都八王子市上野町39-2","lat":35.656999,"lon":139.327374},{"name":"紙本着色西王母図","province":"東京都","city":"八王子市","address":"東京都八王子市上野町39-2","lat":35.656999,"lon":139.327374},{"name":"木造蔵王権現立像","province":"東京都","city":"八王子市","address":"東京都八王子市丹木町2-294","lat":35.697402,"lon":139.328264},{"name":"木造十一面観音立像（二躯）・木造菩薩型立像（一躯）","province":"東京都","city":"八王子市","address":"東京都八王子市丹木町2-294","lat":35.697402,"lon":139.328264},{"name":"木造毘沙門天立像","province":"東京都","city":"八王子市","address":"東京都八王子市西寺方町998","lat":35.684983,"lon":139.270372},{"name":"木造盧遮那仏坐像","province":"東京都","city":"八王子市","address":"東京都八王子市別所1-19-10","lat":35.61836,"lon":139.394923},{"name":"木造十一面観世音菩薩立像","province":"東京都","city":"八王子市","address":"東京都八王子市大塚378","lat":35.641172,"lon":139.420081},{"name":"木造薬師如来坐像","province":"東京都","city":"八王子市","address":"東京都八王子市川口町335","lat":35.693226,"lon":139.271247},{"name":"木造法光円融禅師坐像","province":"東京都","city":"八王子市","address":"東京都八王子市山田町1577ほか","lat":35.646741,"lon":139.316795},{"name":"木造大日如来（金剛界）坐像","province":"東京都","city":"八王子市","address":"東京都八王子市館町1630","lat":35.63289,"lon":139.298475},{"name":"木造不動明王及びニ童子立像","province":"東京都","city":"八王子市","address":"東京都八王子市高尾町2177","lat":35.62743,"lon":139.250311},{"name":"木造地蔵菩薩立像","province":"東京都","city":"八王子市","address":"東京都八王子市高尾町2177","lat":35.62743,"lon":139.250311},{"name":"木造軍船ひな形　附正徳四年十二月十六日仁科資真寄付状・寄付目録","province":"東京都","city":"八王子市","address":"東京都八王子市台町3-18-28","lat":35.655957,"lon":139.322352},{"name":"八王子市中山白山神社経塚群出土品","province":"東京都","city":"八王子市","address":"東京都八王子市散田町2-37-1","lat":35.660573,"lon":139.317314},{"name":"広園寺境域","province":"東京都","city":"八王子市","address":"東京都八王子市山田町1577ほか","lat":35.646741,"lon":139.316795},{"name":"長田作左衛門墓","province":"東京都","city":"八王子市","address":"東京都八王子市大横町7-1","lat":35.665009,"lon":139.331271},{"name":"玉田院墓","province":"東京都","city":"八王子市","address":"東京都八王子市大横町7-1","lat":35.665009,"lon":139.331271},{"name":"塩野適斎墓","province":"東京都","city":"八王子市","address":"東京都八王子市大横町7-1","lat":35.665009,"lon":139.331271},{"name":"植田孟縉墓","province":"東京都","city":"八王子市","address":"東京都八王子市滝山町1-7-9","lat":35.688515,"lon":139.342116},{"name":"初沢城跡","province":"東京都","city":"八王子市","address":"東京都八王子市初沢町","lat":35.63929971,"lon":139.27576533},{"name":"北条氏照及び家臣墓","province":"東京都","city":"八王子市","address":"東京都八王子市元八王子町3丁目","lat":35.65087841,"lon":139.26986527},{"name":"松原庵星布墓","province":"東京都","city":"八王子市","address":"東京都八王子市元横山町2-8-4","lat":35.662157,"lon":139.337606},{"name":"横山氏墓","province":"東京都","city":"八王子市","address":"東京都八王子市元横山町2-18-1","lat":35.663298,"lon":139.33547},{"name":"原胤敦墓","province":"東京都","city":"八王子市","address":"東京都八王子市上野町11-1","lat":35.655479,"lon":139.330102},{"name":"横山党根拠地","province":"東京都","city":"八王子市","address":"東京都八王子市元横山町2-15-27","lat":35.661182,"lon":139.335151},{"name":"松本斗機蔵墓","province":"東京都","city":"八王子市","address":"東京都八王子市千人町2-14-18","lat":35.659865,"lon":139.309975},{"name":"高尾山のスギ並木","province":"東京都","city":"八王子市","address":"東京都八王子市高尾町2177","lat":35.62743,"lon":139.250311},{"name":"小仏のカゴノキ","province":"東京都","city":"八王子市","address":"東京都八王子市裏高尾町1785","lat":35.63976,"lon":139.228442},{"name":"高尾山の飯盛スギ","province":"東京都","city":"八王子市","address":"東京都八王子市高尾町2177","lat":35.62743,"lon":139.250311},{"name":"桑都日記稿本","province":"東京都","city":"八王子市","address":"東京都八王子市散田町2-37-1","lat":35.660573,"lon":139.317314},{"name":"旧多摩郡鑓水村名主大塚家文書","province":"東京都","city":"八王子市","address":"東京都八王子市散田町2-37-1","lat":35.660573,"lon":139.317314},{"name":"髙尾山薬王院文書","province":"東京都","city":"八王子市","address":"東京都八王子市散田町2-37-1","lat":35.660573,"lon":139.317314},{"name":"宇津木向原遺跡方形周溝墓出土品","province":"東京都","city":"八王子市","address":"東京都八王子市上野町33","lat":35.65566,"lon":139.326305},{"name":"桂福寺鐘楼山門","province":"東京都","city":"八王子市","address":"東京都八王子市戸吹町193","lat":35.708814,"lon":139.295994},{"name":"絹本着色大内図巻","province":"東京都","city":"八王子市","address":"東京都八王子市散田町2-37-1","lat":35.660573,"lon":139.317314},{"name":"紙本墨画松原庵星布尼自筆自画像","province":"東京都","city":"八王子市","address":"東京都八王子市散田町2-37-1","lat":35.660573,"lon":139.317314},{"name":"木造阿弥陀如来立像","province":"東京都","city":"八王子市","address":"東京都八王子市大横町7-1","lat":35.665009,"lon":139.331271},{"name":"木造松姫坐像","province":"東京都","city":"八王子市","address":"東京都八王子市台町3丁目18-28","lat":35.655957,"lon":139.322352},{"name":"木造石平道人坐像","province":"東京都","city":"八王子市","address":"東京都八王子市長房町1258","lat":35.652862,"lon":139.288466},{"name":"木造聖観音菩薩坐像","province":"東京都","city":"八王子市","address":"東京都八王子市越野728","lat":35.630731,"lon":139.386664},{"name":"龍光寺金銅孔雀文磬","province":"東京都","city":"八王子市","address":"東京都八王子市散田町2-37-1","lat":35.660573,"lon":139.317314},{"name":"金銅薬師如来倚像","province":"東京都","city":"八王子市","address":"東京都八王子市散田町2-37-1","lat":35.660573,"lon":139.317314},{"name":"子安神社懸仏","province":"東京都","city":"八王子市","address":"東京都八王子市明神町4丁目10-3","lat":35.659179,"lon":139.341309},{"name":"勝手神社懸仏","province":"東京都","city":"八王子市","address":"東京都八王子市加住町1丁目257","lat":35.699191,"lon":139.321198},{"name":"大善寺銅造梵鐘","province":"東京都","city":"八王子市","address":"東京都八王子市大谷町1019-1","lat":35.671745,"lon":139.345239},{"name":"八王子神社扁額","province":"東京都","city":"八王子市","address":"東京都八王子市散田町2-37-1","lat":35.660573,"lon":139.317314},{"name":"千人頭六二間筋兜","province":"東京都","city":"八王子市","address":"東京都八王子市散田町2-37-1","lat":35.660573,"lon":139.317314},{"name":"千人頭の具足","province":"東京都","city":"八王子市","address":"東京都八王子市散田町2-37-1","lat":35.660573,"lon":139.317314},{"name":"宗関寺銅造梵鐘","province":"東京都","city":"八王子市","address":"東京都八王子市元八王子町3丁目2562","lat":35.657922,"lon":139.26776},{"name":"銅造地蔵菩薩坐像","province":"東京都","city":"八王子市","address":"東京都八王子市泉町1132","lat":35.672691,"lon":139.30222},{"name":"時の鐘","province":"東京都","city":"八王子市","address":"東京都八王子市上野町1-6","lat":35.656604,"lon":139.328254},{"name":"鉄造聖観音菩薩立像","province":"東京都","city":"八王子市","address":"東京都八王子市散田町2-37-1","lat":35.660573,"lon":139.317314},{"name":"龍光寺の鰐口","province":"東京都","city":"八王子市","address":"東京都八王子市宇津木町738","lat":35.683804,"lon":139.350691},{"name":"住吉神社の鰐口","province":"東京都","city":"八王子市","address":"東京都八王子市散田町2-37-1","lat":35.660573,"lon":139.317314},{"name":"太刀","province":"東京都","city":"八王子市","address":"東京都八王子市散田町2-37-1","lat":35.660573,"lon":139.317314},{"name":"刀（武州下原住山本外記周重）","province":"東京都","city":"八王子市","address":"東京都八王子市散田町2-37-1","lat":35.660573,"lon":139.317314},{"name":"刀（武州下原住広重）","province":"東京都","city":"八王子市","address":"東京都八王子市散田町2-37-1","lat":35.660573,"lon":139.317314},{"name":"脇指（武州住照広）","province":"東京都","city":"八王子市","address":"東京都八王子市散田町2-37-1","lat":35.660573,"lon":139.317314},{"name":"薙刀（武州下原住広重）","province":"東京都","city":"八王子市","address":"東京都八王子市散田町2-37-1","lat":35.660573,"lon":139.317314},{"name":"刀（武州下原住康重）　脇指（武州住康重）","province":"東京都","city":"八王子市","address":"東京都八王子市散田町2-37-1","lat":35.660573,"lon":139.317314},{"name":"槍（下原住康重）","province":"東京都","city":"八王子市","address":"東京都八王子市散田町2-37-1","lat":35.660573,"lon":139.317314},{"name":"脇指（武州住外記利長）","province":"東京都","city":"八王子市","address":"東京都八王子市散田町2-37-1","lat":35.660573,"lon":139.317314},{"name":"脇指（房州下原康重）","province":"東京都","city":"八王子市","address":"東京都八王子市散田町2-37-1","lat":35.660573,"lon":139.317314},{"name":"槍（武州下原住内記康重）","province":"東京都","city":"八王子市","address":"東京都八王子市散田町2-37-1","lat":35.660573,"lon":139.317314},{"name":"考古資料（井上コレクション）","province":"東京都","city":"八王子市","address":"東京都八王子市上野町33","lat":35.65566,"lon":139.326305},{"name":"弥生式土器","province":"東京都","city":"八王子市","address":"東京都八王子市上野町33","lat":35.65566,"lon":139.326305},{"name":"縄文式土器","province":"東京都","city":"八王子市","address":"東京都八王子市上野町33","lat":35.65566,"lon":139.326305},{"name":"小銅鐸（中郷遺跡出土）","province":"東京都","city":"八王子市","address":"東京都八王子市散田町2-37-1","lat":35.660573,"lon":139.317314},{"name":"円福寺の大般若経","province":"東京都","city":"八王子市","address":"東京都八王子市散田町2-37-1","lat":35.660573,"lon":139.317314},{"name":"伊藤家八王子千人同心関係文書","province":"東京都","city":"八王子市","address":"東京都八王子市散田町2-37-1","lat":35.660573,"lon":139.317314},{"name":"粟沢家八王子千人同心関係文書","province":"東京都","city":"八王子市","address":"東京都八王子市散田町2-37-1","lat":35.660573,"lon":139.317314},{"name":"小松茂盛氏収集八王子千人同心関係文書","province":"東京都","city":"八王子市","address":"東京都八王子市散田町2-37-1","lat":35.660573,"lon":139.317314},{"name":"北条氏照書簡他（宝生寺文書）","province":"東京都","city":"八王子市","address":"東京都八王子市西寺方町998","lat":35.684983,"lon":139.270372},{"name":"関文川書簡","province":"東京都","city":"八王子市","address":"東京都八王子市散田町2-37-1","lat":35.660573,"lon":139.317314},{"name":"河野家千人同心関係文書","province":"東京都","city":"八王子市","address":"東京都八王子市散田町2-37-1","lat":35.660573,"lon":139.317314},{"name":"新野家文書","province":"東京都","city":"八王子市","address":"東京都八王子市散田町2-37-1","lat":35.660573,"lon":139.317314},{"name":"磯沼家村方文書","province":"東京都","city":"八王子市","address":"東京都八王子市散田町2-37-1","lat":35.660573,"lon":139.317314},{"name":"武田信玄感状","province":"東京都","city":"八王子市","address":"東京都八王子市散田町2-37-1","lat":35.660573,"lon":139.317314},{"name":"秋山家八王子千人同心関係文書","province":"東京都","city":"八王子市","address":"東京都八王子市散田町2-37-1","lat":35.660573,"lon":139.317314},{"name":"草木家村方文書","province":"東京都","city":"八王子市","address":"東京都八王子市散田町2-37-1","lat":35.660573,"lon":139.317314},{"name":"北条氏朱印状","province":"東京都","city":"八王子市","address":"東京都八王子市大楽寺町566","lat":35.669697,"lon":139.300856},{"name":"高乗寺文書","province":"東京都","city":"八王子市","address":"東京都八王子市散田町2-37-1","lat":35.660573,"lon":139.317314},{"name":"諸色覚日記（石川日記）","province":"東京都","city":"八王子市","address":"東京都八王子市散田町2-37-1","lat":35.660573,"lon":139.317314},{"name":"尾崎日記","province":"東京都","city":"八王子市","address":"東京都八王子市散田町2-37-1","lat":35.660573,"lon":139.317314},{"name":"大石系図","province":"東京都","city":"八王子市","address":"東京都八王子市散田町2-37-1","lat":35.660573,"lon":139.317314},{"name":"北条氏照朱印状","province":"東京都","city":"八王子市","address":"東京都八王子市散田町2-37-1","lat":35.660573,"lon":139.317314},{"name":"清鏡寺の豊臣秀吉禁制","province":"東京都","city":"八王子市","address":"東京都八王子市大塚378","lat":35.641172,"lon":139.420081},{"name":"大野家千人同心関係文書","province":"東京都","city":"八王子市","address":"東京都八王子市散田町2-37-1","lat":35.660573,"lon":139.317314},{"name":"八王子空襲焼け跡写真原板","province":"東京都","city":"八王子市","address":"東京都八王子市散田町2-37-1","lat":35.660573,"lon":139.317314},{"name":"千人同心組頭三木家の肖像画","province":"東京都","city":"八王子市","address":"東京都八王子市散田町2-37-1","lat":35.660573,"lon":139.317314},{"name":"住吉神社の算額","province":"東京都","city":"八王子市","address":"東京都八王子市散田町2-37-1","lat":35.660573,"lon":139.317314},{"name":"傳法院石塀","province":"東京都","city":"八王子市","address":"東京都八王子市南新町4","lat":35.658896,"lon":139.330554},{"name":"松原庵星布の俳額","province":"東京都","city":"八王子市","address":"東京都八王子市散田町2-37-1","lat":35.660573,"lon":139.317314},{"name":"狭間の獅子舞","province":"東京都","city":"八王子市","address":"東京都八王子市狭間町","lat":35.632998,"lon":139.27945145},{"name":"四谷の龍頭舞","province":"東京都","city":"八王子市","address":"東京都八王子市四谷町","lat":35.67852319,"lon":139.29669528},{"name":"梅坪の簓獅子舞","province":"東京都","city":"八王子市","address":"東京都八王子市梅坪町","lat":35.68760096,"lon":139.33717209},{"name":"小津の獅子舞","province":"東京都","city":"八王子市","address":"東京都八王子市小津町","lat":35.67823693,"lon":139.24248426},{"name":"山入の簓獅子舞","province":"東京都","city":"八王子市","address":"東京都八王子市美山町","lat":35.68348828,"lon":139.25873195},{"name":"今熊神社の獅子舞","province":"東京都","city":"八王子市","address":"東京都八王子市上川町","lat":35.70009463,"lon":139.26775541},{"name":"田守神社の獅子舞　附「永代神口官」軸","province":"東京都","city":"八王子市","address":"東京都八王子市上川町","lat":35.70009463,"lon":139.26775541},{"name":"氷川神社の獅子舞","province":"東京都","city":"八王子市","address":"東京都八王子市東浅川町","lat":35.64324658,"lon":139.29387459},{"name":"石川町龍頭の舞","province":"東京都","city":"八王子市","address":"東京都八王子市石川町","lat":35.67357809,"lon":139.36163435},{"name":"木遣","province":"東京都","city":"八王子市","address":"東京都八王子市平岡町","lat":35.66333122,"lon":139.32650438},{"name":"上案下のセエノカミ","province":"東京都","city":"八王子市","address":"東京都八王子市上恩方町","lat":35.66984578,"lon":139.24264545},{"name":"興林寺の弘安の板碑","province":"東京都","city":"八王子市","address":"東京都八王子市子安町4丁目4-18","lat":35.65516,"lon":139.335493},{"name":"龍光寺の文和の板碑","province":"東京都","city":"八王子市","address":"東京都八王子市宇津木町738","lat":35.683804,"lon":139.350691},{"name":"禅東院の応永の板碑","province":"東京都","city":"八王子市","address":"東京都八王子市本町17-1","lat":35.66119,"lon":139.331229},{"name":"多賀神社扁額","province":"東京都","city":"八王子市","address":"東京都八王子市散田町2-37-1","lat":35.660573,"lon":139.317314},{"name":"龍源寺の文安の板碑","province":"東京都","city":"八王子市","address":"東京都八王子市加住町2丁目64","lat":35.695727,"lon":139.321056},{"name":"安楽院の文永の板碑","province":"東京都","city":"八王子市","address":"東京都八王子市散田町2-37-1","lat":35.660573,"lon":139.317314},{"name":"蓮生寺の宝篋印塔","province":"東京都","city":"八王子市","address":"東京都八王子市別所1丁目19-10","lat":35.61836,"lon":139.394923},{"name":"直入院石造五智如来立像","province":"東京都","city":"八王子市","address":"東京都八王子市緑町223","lat":35.649413,"lon":139.325341},{"name":"北野石器時代住居跡","province":"東京都","city":"八王子市","address":"東京都八王子市北野町550-1","lat":35.646798,"lon":139.353067},{"name":"松姫尼公墓","province":"東京都","city":"八王子市","address":"東京都八王子市台町3丁目18-28","lat":35.655957,"lon":139.322352},{"name":"石見土手","province":"東京都","city":"八王子市","address":"東京都八王子市千人町2丁目14-18","lat":35.659865,"lon":139.309975},{"name":"石平道人墓","province":"東京都","city":"八王子市","address":"東京都八王子市長房町1258","lat":35.652862,"lon":139.288466},{"name":"市守神社","province":"東京都","city":"八王子市","address":"東京都八王子市横山町25-3","lat":35.660371,"lon":139.339939},{"name":"石坂弥次右衛門墓","province":"東京都","city":"八王子市","address":"東京都八王子市千人町1丁目2-8","lat":35.659495,"lon":139.316383},{"name":"新町竹の鼻の一里塚跡","province":"東京都","city":"八王子市","address":"東京都八王子市新町5","lat":35.662279,"lon":139.34177},{"name":"大久保石見守長安陣屋跡","province":"東京都","city":"八王子市","address":"東京都八王子市小門町82","lat":35.658676,"lon":139.324888},{"name":"小谷田子寅の碑","province":"東京都","city":"八王子市","address":"東京都八王子市下恩方町1970","lat":35.668918,"lon":139.259566},{"name":"大石氏居館跡","province":"東京都","city":"八王子市","address":"東京都八王子市下柚木4","lat":35.631172,"lon":139.382259},{"name":"中田遺跡","province":"東京都","city":"八王子市","address":"東京都八王子市中野山王3丁目12","lat":35.674174,"lon":139.323363},{"name":"浄福寺城跡（新城跡）","province":"東京都","city":"八王子市","address":"東京都八王子市下恩方町3259","lat":35.66734,"lon":139.247997},{"name":"絹の道","province":"東京都","city":"八王子市","address":"東京都八王子市鑓水","lat":35.615446,"lon":139.35947},{"name":"高楽寺横穴石仏群","province":"東京都","city":"八王子市","address":"東京都八王子市狭間町1868","lat":35.638747,"lon":139.286612},{"name":"長田作左衛門邸跡伝承地","province":"東京都","city":"八王子市","address":"東京都八王子市横山町10-19","lat":35.659735,"lon":139.335501},{"name":"廿里古戦場","province":"東京都","city":"八王子市","address":"東京都八王子市廿里町","lat":35.644577,"lon":139.281137},{"name":"真覚寺蛙合戦の旧地","province":"東京都","city":"八王子市","address":"東京都八王子市散田町5丁目36-10","lat":35.648196,"lon":139.304199},{"name":"高尾たこスギ","province":"東京都","city":"八王子市","address":"東京都八王子市高尾町2177","lat":35.62743,"lon":139.250311},{"name":"甲州街道イチョウ並木","province":"東京都","city":"八王子市","address":"東京都八王子市追分町","lat":35.661837,"lon":139.318788},{"name":"下柚木御嶽神社のスダジイ","province":"東京都","city":"八王子市","address":"東京都八王子市下柚木148","lat":35.632644,"lon":139.379126},{"name":"南大沢のオオツクバネガシ","province":"東京都","city":"八王子市","address":"東京都八王子市南大沢1丁目262","lat":35.616804,"lon":139.381146},{"name":"大塚神明社のイチョウ","province":"東京都","city":"八王子市","address":"東京都八王子市鹿島112-1","lat":35.634556,"lon":139.42057},{"name":"横山事務所のオオツクバネガシ","province":"東京都","city":"八王子市","address":"東京都八王子市並木町15-15","lat":35.651054,"lon":139.30034},{"name":"原胤敦墓","province":"東京都","city":"八王子市","address":"東京都八王子市上野町11-2","lat":35.655468,"lon":139.329732}]}