{"keyword":"椅子","data":[{"name":"複合ビルパオレ","province":"東京都","city":"八王子市","address":"東京都八王子市南大沢2丁目2","lat":35.614038,"lon":139.379079},{"name":"複合ビルパオレ","province":"東京都","city":"八王子市","address":"東京都八王子市南大沢2丁目2","lat":35.614038,"lon":139.379077},{"name":"一丁平園地","province":"東京都","city":"八王子市","address":"東京都八王子市南浅川町","lat":35.626486,"lon":139.229021},{"name":"高尾ビジターセンター","province":"東京都","city":"八王子市","address":"東京都八王子市高尾町","lat":35.625158,"lon":139.243316},{"name":"大見晴園地","province":"東京都","city":"八王子市","address":"東京都八王子市高尾町","lat":35.62574,"lon":139.244564},{"name":"東京都立多摩職業能力開発センター八王子校","province":"東京都","city":"八王子市","address":"東京都八王子市台町1丁目11-1","lat":35.649842,"lon":139.328003},{"name":"東京都立多摩職業能力開発センター八王子校","province":"東京都","city":"八王子市","address":"東京都八王子市台町1丁目11-1","lat":35.649749,"lon":139.328088},{"name":"小宮公園","province":"東京都","city":"八王子市","address":"東京都八王子市大谷町","lat":35.675399,"lon":139.339318},{"name":"小宮公園","province":"東京都","city":"八王子市","address":"東京都八王子市暁町2丁目41-6","lat":35.671178,"lon":139.341291},{"name":"小宮公園","province":"東京都","city":"八王子市","address":"東京都八王子市大谷町","lat":35.671183,"lon":139.342761},{"name":"小宮公園","province":"東京都","city":"八王子市","address":"東京都八王子市暁町2丁目43","lat":35.671959,"lon":139.340154},{"name":"滝山公園","province":"東京都","city":"八王子市","address":"東京都八王子市高月町","lat":35.701614,"lon":139.329405},{"name":"長沼公園","province":"東京都","city":"八王子市","address":"東京都八王子市長沼町","lat":35.639956,"lon":139.369403},{"name":"小山内裏公園","province":"東京都","city":"八王子市","address":"東京都八王子市南大沢4丁目50","lat":35.606925,"lon":139.374716},{"name":"小山内裏公園","province":"東京都","city":"八王子市","address":"東京都八王子市南大沢4丁目50","lat":35.604865,"lon":139.373288},{"name":"陵南公園","province":"東京都","city":"八王子市","address":"東京都八王子市長房町","lat":35.648547,"lon":139.288565},{"name":"陵南公園","province":"東京都","city":"八王子市","address":"東京都八王子市長房町","lat":35.649384,"lon":139.289622},{"name":"陵南公園","province":"東京都","city":"八王子市","address":"東京都八王子市東浅川町","lat":35.648794,"lon":139.292423},{"name":"八王子霊園","province":"東京都","city":"八王子市","address":"東京都八王子市川町","lat":35.665042,"lon":139.269773},{"name":"八王子霊園","province":"東京都","city":"八王子市","address":"東京都八王子市元八王子町3丁目","lat":35.659223,"lon":139.267223},{"name":"八王子霊園","province":"東京都","city":"八王子市","address":"東京都八王子市川町","lat":35.666401,"lon":139.273417},{"name":"八王子霊園","province":"東京都","city":"八王子市","address":"東京都八王子市川町","lat":35.663135,"lon":139.269514},{"name":"八王子霊園","province":"東京都","city":"八王子市","address":"東京都八王子市川町","lat":35.660899,"lon":139.263287},{"name":"八王子霊園","province":"東京都","city":"八王子市","address":"東京都八王子市川町","lat":35.663064,"lon":139.266502},{"name":"八王子霊園","province":"東京都","city":"八王子市","address":"東京都八王子市元八王子町3丁目","lat":35.659855,"lon":139.264094},{"name":"八王子霊園","province":"東京都","city":"八王子市","address":"東京都八王子市川町","lat":35.660403,"lon":139.267841},{"name":"八王子サービスステーション","province":"東京都","city":"八王子市","address":"東京都八王子市元本郷町4丁目19-1","lat":35.666735,"lon":139.312993},{"name":"高尾の森わくわくビレッジ","province":"東京都","city":"八王子市","address":"東京都八王子市川町55","lat":35.67355,"lon":139.276377},{"name":"高尾の森わくわくビレッジ","province":"東京都","city":"八王子市","address":"東京都八王子市川町55","lat":35.673448,"lon":139.276418},{"name":"高尾の森わくわくビレッジ","province":"東京都","city":"八王子市","address":"東京都八王子市川町","lat":35.673511,"lon":139.278102},{"name":"高尾の森わくわくビレッジ","province":"東京都","city":"八王子市","address":"東京都八王子市川町55","lat":35.673863,"lon":139.277048},{"name":"高尾の森わくわくビレッジ","province":"東京都","city":"八王子市","address":"東京都八王子市川町55","lat":35.672903,"lon":139.276505},{"name":"高尾の森わくわくビレッジ","province":"東京都","city":"八王子市","address":"東京都八王子市川町","lat":35.673337,"lon":139.277306},{"name":"八王子消防署","province":"東京都","city":"八王子市","address":"東京都八王子市上野町33","lat":35.655684,"lon":139.326698},{"name":"八王子消防署みなみ野出張所","province":"東京都","city":"八王子市","address":"東京都八王子市大船町1044-2","lat":35.617226,"lon":139.315714},{"name":"八王子消防署楢原出張所","province":"東京都","city":"八王子市","address":"東京都八王子市楢原町501","lat":35.682161,"lon":139.305409},{"name":"生涯学習センタークリエイトホール","province":"東京都","city":"八王子市","address":"東京都八王子市東町5-6","lat":35.658445,"lon":139.339855},{"name":"八王子市役所本庁舎","province":"東京都","city":"八王子市","address":"東京都八王子市元本郷町3丁目24-1","lat":35.666478,"lon":139.316031},{"name":"八王子市八王子駅南口総合事務所","province":"東京都","city":"八王子市","address":"東京都八王子市子安町4丁目7-1","lat":35.654437,"lon":139.337684},{"name":"八王子市浅川事務所","province":"東京都","city":"八王子市","address":"東京都八王子市高尾町1652-1","lat":35.643548,"lon":139.276934},{"name":"八王子市横山事務所","province":"東京都","city":"八王子市","address":"東京都八王子市並木町15-15","lat":35.650997,"lon":139.300425},{"name":"八王子市館事務所","province":"東京都","city":"八王子市","address":"東京都八王子市館町156","lat":35.634513,"lon":139.3066},{"name":"八王子市由木事務所","province":"東京都","city":"八王子市","address":"東京都八王子市下柚木2丁目10-6","lat":35.62708,"lon":139.382746},{"name":"八王子市由木東事務所","province":"東京都","city":"八王子市","address":"東京都八王子市鹿島111-1","lat":35.634224,"lon":139.42151},{"name":"八王子市南大沢事務所","province":"東京都","city":"八王子市","address":"東京都八王子市南大沢2丁目27","lat":35.612191,"lon":139.379534},{"name":"八王子市元八王子事務所","province":"東京都","city":"八王子市","address":"東京都八王子市大楽寺町419-1","lat":35.671439,"lon":139.293107},{"name":"八王子市恩方事務所","province":"東京都","city":"八王子市","address":"東京都八王子市下恩方町3395","lat":35.667585,"lon":139.24918},{"name":"八王子市川口事務所","province":"東京都","city":"八王子市","address":"東京都八王子市川口町908-1","lat":35.693144,"lon":139.279224},{"name":"八王子市加住事務所","province":"東京都","city":"八王子市","address":"東京都八王子市加住町1丁目170-2","lat":35.700528,"lon":139.316154},{"name":"八王子市北野事務所","province":"東京都","city":"八王子市","address":"東京都八王子市北野町549-5","lat":35.64604,"lon":139.35316},{"name":"八王子市由井事務所","province":"東京都","city":"八王子市","address":"東京都八王子市片倉町119-4","lat":35.643254,"lon":139.333357},{"name":"八王子市石川事務所","province":"東京都","city":"八王子市","address":"東京都八王子市石川町481","lat":35.680731,"lon":139.366274},{"name":"石川市民センター","province":"東京都","city":"八王子市","address":"東京都八王子市石川町438","lat":35.68037,"lon":139.364296},{"name":"石川市民センター","province":"東京都","city":"八王子市","address":"東京都八王子市石川町","lat":35.680399,"lon":139.364385},{"name":"大和田市民センター","province":"東京都","city":"八王子市","address":"東京都八王子市大和田町5丁目9-1","lat":35.663087,"lon":139.351874},{"name":"大和田市民センター","province":"東京都","city":"八王子市","address":"東京都八王子市大和田町5丁目9-1","lat":35.663086,"lon":139.351874},{"name":"八王子市子安市民センター","province":"東京都","city":"八王子市","address":"東京都八王子市子安町2丁目6-1","lat":35.650701,"lon":139.344677},{"name":"八王子市子安市民センター","province":"東京都","city":"八王子市","address":"東京都八王子市子安町2丁目6-1","lat":35.650743,"lon":139.344668},{"name":"八王子市台町市民センター","province":"東京都","city":"八王子市","address":"東京都八王子市台町3丁目20-1","lat":35.655025,"lon":139.320135},{"name":"八王子市台町市民センター","province":"東京都","city":"八王子市","address":"東京都八王子市台町3丁目20-1","lat":35.655053,"lon":139.320144},{"name":"八王子市中野市民センター","province":"東京都","city":"八王子市","address":"東京都八王子市中野町2726-7","lat":35.68181,"lon":139.318522},{"name":"八王子市浅川市民センター","province":"東京都","city":"八王子市","address":"東京都八王子市高尾町1652-1","lat":35.643574,"lon":139.276945},{"name":"八王子市由木中央市民センター","province":"東京都","city":"八王子市","address":"東京都八王子市下柚木2丁目10-6","lat":35.627105,"lon":139.38276},{"name":"八王子市南大沢市民センター","province":"東京都","city":"八王子市","address":"東京都八王子市南大沢2丁目27","lat":35.612097,"lon":139.379362},{"name":"八王子市由木東市民センター","province":"東京都","city":"八王子市","address":"東京都八王子市鹿島111-1","lat":35.634192,"lon":139.421253},{"name":"八王子市長房市民センター","province":"東京都","city":"八王子市","address":"東京都八王子市長房町506-2","lat":35.650429,"lon":139.295245},{"name":"八王子市長房市民センター","province":"東京都","city":"八王子市","address":"東京都八王子市長房町506-2","lat":35.650402,"lon":139.295351},{"name":"八王子市横山南市民センター","province":"東京都","city":"八王子市","address":"東京都八王子市椚田町137-3","lat":35.63367,"lon":139.310501},{"name":"八王子市元八王子市民センター","province":"東京都","city":"八王子市","address":"東京都八王子市上壱分方町747-1","lat":35.683195,"lon":139.286287},{"name":"八王子市恩方市民センター","province":"東京都","city":"八王子市","address":"東京都八王子市西寺方町260-4","lat":35.673896,"lon":139.268545},{"name":"川口やまゆり館","province":"東京都","city":"八王子市","address":"東京都八王子市川口町3838","lat":35.686559,"lon":139.299113},{"name":"八王子市加住市民センター","province":"東京都","city":"八王子市","address":"東京都八王子市加住町1丁目338","lat":35.699437,"lon":139.324165},{"name":"八王子市由井市民センター","province":"東京都","city":"八王子市","address":"東京都八王子市片倉町702-1","lat":35.641324,"lon":139.340335},{"name":"八王子市由井市民センターみなみ野分館","province":"東京都","city":"八王子市","address":"東京都八王子市みなみ野1丁目7-1","lat":35.632444,"lon":139.328281},{"name":"八王子市北野市民センター","province":"東京都","city":"八王子市","address":"東京都八王子市北野町545-3","lat":35.645373,"lon":139.354628},{"name":"八王子市長房ふれあい館","province":"東京都","city":"八王子市","address":"東京都八王子市長房町588","lat":35.653178,"lon":139.291951},{"name":"八王子市市民活動支援センター","province":"東京都","city":"八王子市","address":"東京都八王子市旭町12-1","lat":35.657495,"lon":139.341213},{"name":"生涯学習センタークリエイトホール","province":"東京都","city":"八王子市","address":"東京都八王子市東町5-6","lat":35.658441,"lon":139.339908},{"name":"生涯学習センタークリエイトホール","province":"東京都","city":"八王子市","address":"東京都八王子市東町5-6","lat":35.658374,"lon":139.339854},{"name":"生涯学習センタークリエイトホール","province":"東京都","city":"八王子市","address":"東京都八王子市東町5-6","lat":35.658371,"lon":139.339923},{"name":"生涯学習センタークリエイトホール","province":"東京都","city":"八王子市","address":"東京都八王子市東町5-6","lat":35.658531,"lon":139.340045},{"name":"生涯学習センタークリエイトホール","province":"東京都","city":"八王子市","address":"東京都八王子市東町5-6","lat":35.658534,"lon":139.33999},{"name":"生涯学習センタークリエイトホール","province":"東京都","city":"八王子市","address":"東京都八王子市東町5-6","lat":35.658442,"lon":139.339881},{"name":"八王子市保健所","province":"東京都","city":"八王子市","address":"東京都八王子市明神町3丁目19-2","lat":35.656522,"lon":139.342459},{"name":"夕やけ小やけふれあいの里","province":"東京都","city":"八王子市","address":"東京都八王子市上恩方町2030","lat":35.669592,"lon":139.216466},{"name":"八王子市中央図書館","province":"東京都","city":"八王子市","address":"東京都八王子市千人町3丁目3-6","lat":35.657242,"lon":139.310629},{"name":"八王子市中央図書館","province":"東京都","city":"八王子市","address":"東京都八王子市千人町3丁目3-6","lat":35.657259,"lon":139.310425},{"name":"八王子城跡","province":"東京都","city":"八王子市","address":"東京都八王子市元八王子町3丁目2715-2","lat":35.65475,"lon":139.259553},{"name":"八王子城跡ガイダンス施設","province":"東京都","city":"八王子市","address":"東京都八王子市元八王子町3丁目2664-2","lat":35.65592,"lon":139.261686},{"name":"絹の道資料館","province":"東京都","city":"八王子市","address":"東京都八王子市鑓水989-2","lat":35.61838,"lon":139.354801},{"name":"高尾599ミュージアム","province":"東京都","city":"八王子市","address":"東京都八王子市高尾町2435-3","lat":35.630427,"lon":139.268765},{"name":"Ｊ:ＣＯＭホール八王子（八王子市民会館）","province":"東京都","city":"八王子市","address":"東京都八王子市子安町4丁目7-1","lat":35.654876,"lon":139.33775},{"name":"コニカミノルタ サイエンスドーム（こども科学館）","province":"東京都","city":"八王子市","address":"東京都八王子市大横町9-13","lat":35.664811,"lon":139.327985},{"name":"八王子市芸術文化会館","province":"東京都","city":"八王子市","address":"東京都八王子市本町24-1","lat":35.662428,"lon":139.332402},{"name":"恩方農村環境改善センター","province":"東京都","city":"八王子市","address":"東京都八王子市下恩方町3247-2","lat":35.667527,"lon":139.248887},{"name":"Ｊ:ＣＯＭホール八王子（八王子市民会館）","province":"東京都","city":"八王子市","address":"東京都八王子市子安町4丁目7-1","lat":35.654657,"lon":139.337342},{"name":"Ｊ:ＣＯＭホール八王子（八王子市民会館）","province":"東京都","city":"八王子市","address":"東京都八王子市子安町4丁目7-1","lat":35.654552,"lon":139.337691},{"name":"Ｊ:ＣＯＭホール八王子（八王子市民会館）","province":"東京都","city":"八王子市","address":"東京都八王子市子安町4丁目7-1","lat":35.654534,"lon":139.337329},{"name":"Ｊ:ＣＯＭホール八王子（八王子市民会館）","province":"東京都","city":"八王子市","address":"東京都八王子市子安町4丁目7-1","lat":35.654836,"lon":139.337771},{"name":"Ｊ:ＣＯＭホール八王子（八王子市民会館）","province":"東京都","city":"八王子市","address":"東京都八王子市子安町4丁目7-1","lat":35.654532,"lon":139.337738},{"name":"八王子市学園都市センター","province":"東京都","city":"八王子市","address":"東京都八王子市旭町9-1","lat":35.657544,"lon":139.338798},{"name":"八王子市学園都市センター","province":"東京都","city":"八王子市","address":"東京都八王子市旭町9-1","lat":35.657527,"lon":139.338768},{"name":"八王子市学園都市センター","province":"東京都","city":"八王子市","address":"東京都八王子市旭町9-1","lat":35.657545,"lon":139.338785},{"name":"八王子市南大沢文化会館","province":"東京都","city":"八王子市","address":"東京都八王子市南大沢2丁目27","lat":35.611632,"lon":139.37987},{"name":"八王子市南大沢文化会館","province":"東京都","city":"八王子市","address":"東京都八王子市南大沢2丁目27","lat":35.611434,"lon":139.379816},{"name":"八王子市南大沢文化会館","province":"東京都","city":"八王子市","address":"東京都八王子市南大沢2丁目27","lat":35.611723,"lon":139.379419},{"name":"八王子市南大沢文化会館","province":"東京都","city":"八王子市","address":"東京都八王子市南大沢2丁目27","lat":35.611665,"lon":139.379676},{"name":"八王子市南大沢文化会館","province":"東京都","city":"八王子市","address":"東京都八王子市南大沢2丁目27","lat":35.611464,"lon":139.379474},{"name":"八王子市南大沢文化会館","province":"東京都","city":"八王子市","address":"東京都八王子市南大沢2丁目27","lat":35.611669,"lon":139.379396},{"name":"八王子市夢美術館","province":"東京都","city":"八王子市","address":"東京都八王子市八日町8-1","lat":35.660599,"lon":139.330565},{"name":"八王子市立八木町公園","province":"東京都","city":"八王子市","address":"東京都八王子市八木町8","lat":35.661592,"lon":139.321165},{"name":"八王子市立東浅川公園","province":"東京都","city":"八王子市","address":"東京都八王子市東浅川町","lat":35.646847,"lon":139.296007},{"name":"八王子市立狭間公園","province":"東京都","city":"八王子市","address":"東京都八王子市東浅川町","lat":35.641232,"lon":139.290435},{"name":"八王子市立諏訪町公園","province":"東京都","city":"八王子市","address":"東京都八王子市諏訪町","lat":35.677332,"lon":139.289863},{"name":"八王子市立片倉城跡公園","province":"東京都","city":"八王子市","address":"東京都八王子市片倉町","lat":35.640822,"lon":139.338591},{"name":"八王子市立東散田公園","province":"東京都","city":"八王子市","address":"東京都八王子市散田町3丁目24","lat":35.65168,"lon":139.309879},{"name":"八王子市立子安公園","province":"東京都","city":"八王子市","address":"東京都八王子市子安町4丁目31","lat":35.652889,"lon":139.335048},{"name":"八王子市立高倉南公園","province":"東京都","city":"八王子市","address":"東京都八王子市高倉町69","lat":35.661347,"lon":139.363801},{"name":"八王子市立松竹農村公園","province":"東京都","city":"八王子市","address":"東京都八王子市下恩方町","lat":35.666295,"lon":139.25118},{"name":"八王子市立大塚公園","province":"東京都","city":"八王子市","address":"東京都八王子市松が谷66","lat":35.631789,"lon":139.414037},{"name":"八王子市立下川口公園","province":"東京都","city":"八王子市","address":"東京都八王子市川口町","lat":35.683254,"lon":139.298408},{"name":"八王子市立南大沢中郷公園","province":"東京都","city":"八王子市","address":"東京都八王子市南大沢2丁目26","lat":35.612807,"lon":139.380353},{"name":"八王子市上柚木公園","province":"東京都","city":"八王子市","address":"東京都八王子市上柚木2丁目19","lat":35.621197,"lon":139.373915},{"name":"八王子市上柚木公園","province":"東京都","city":"八王子市","address":"東京都八王子市上柚木2丁目51","lat":35.61889,"lon":139.364594},{"name":"八王子市上柚木公園","province":"東京都","city":"八王子市","address":"東京都八王子市上柚木2丁目40","lat":35.618959,"lon":139.370863},{"name":"八王子市立蓮生寺公園","province":"東京都","city":"八王子市","address":"東京都八王子市別所1丁目","lat":35.61907,"lon":139.394028},{"name":"八王子市立別所やまざくら公園","province":"東京都","city":"八王子市","address":"東京都八王子市別所1丁目40","lat":35.616448,"lon":139.387284},{"name":"八王子市立長池公園","province":"東京都","city":"八王子市","address":"東京都八王子市別所2丁目58","lat":35.603965,"lon":139.386747},{"name":"八王子市立長池公園","province":"東京都","city":"八王子市","address":"東京都八王子市別所2丁目58","lat":35.610578,"lon":139.390809},{"name":"八王子市立長池公園","province":"東京都","city":"八王子市","address":"東京都八王子市別所2丁目58","lat":35.608621,"lon":139.392298},{"name":"八王子市立殿入中央公園","province":"東京都","city":"八王子市","address":"東京都八王子市館町","lat":35.627958,"lon":139.295432},{"name":"八王子市立みなみ野の丘公園","province":"東京都","city":"八王子市","address":"東京都八王子市みなみ野1丁目10","lat":35.632287,"lon":139.324895},{"name":"八王子市立栃谷戸公園","province":"東京都","city":"八王子市","address":"東京都八王子市みなみ野5丁目29","lat":35.629532,"lon":139.318483},{"name":"八王子市立みなみ野けやき公園","province":"東京都","city":"八王子市","address":"東京都八王子市みなみ野6丁目13","lat":35.631603,"lon":139.321594},{"name":"八王子市立由木めぐみ野公園","province":"東京都","city":"八王子市","address":"東京都八王子市下柚木","lat":35.630276,"lon":139.374197},{"name":"八王子市立みなみ野菖蒲谷戸公園","province":"東京都","city":"八王子市","address":"東京都八王子市みなみ野3丁目19","lat":35.629094,"lon":139.325248},{"name":"八王子市立鑓水小山緑地","province":"東京都","city":"八王子市","address":"東京都八王子市鑓水2丁目148","lat":35.607724,"lon":139.356081},{"name":"八王子市立兵衛下平公園","province":"東京都","city":"八王子市","address":"東京都八王子市兵衛1丁目8","lat":35.628186,"lon":139.330294},{"name":"八王子市立七国君田公園","province":"東京都","city":"八王子市","address":"東京都八王子市七国6丁目6","lat":35.624265,"lon":139.322851},{"name":"八王子市立七国西公園","province":"東京都","city":"八王子市","address":"東京都八王子市七国4丁目39","lat":35.620442,"lon":139.317961},{"name":"八王子市立堀之内寺沢里山公園","province":"東京都","city":"八王子市","address":"東京都八王子市堀之内","lat":35.632975,"lon":139.396235},{"name":"八王子市立みなみ野下大船公園","province":"東京都","city":"八王子市","address":"東京都八王子市大船町","lat":35.625787,"lon":139.315619},{"name":"八王子市立七国閑道公園","province":"東京都","city":"八王子市","address":"東京都八王子市七国3丁目16","lat":35.6183,"lon":139.32239},{"name":"八王子市立七国公園","province":"東京都","city":"八王子市","address":"東京都八王子市七国3丁目52","lat":35.615818,"lon":139.323629},{"name":"八王子市立白山神社下公園","province":"東京都","city":"八王子市","address":"東京都八王子市中山","lat":35.627595,"lon":139.359511},{"name":"八王子市立小田野中央公園","province":"東京都","city":"八王子市","address":"東京都八王子市西寺方町","lat":35.676933,"lon":139.266136},{"name":"八王子市立片倉つどいの森公園","province":"東京都","city":"八王子市","address":"東京都八王子市片倉町","lat":35.639004,"lon":139.332446},{"name":"八王子市立片倉つどいの森公園","province":"東京都","city":"八王子市","address":"東京都八王子市片倉町","lat":35.637415,"lon":139.331916},{"name":"高尾駒木野庭園","province":"東京都","city":"八王子市","address":"東京都八王子市裏高尾町268-1","lat":35.640592,"lon":139.269969},{"name":"高尾駒木野庭園","province":"東京都","city":"八王子市","address":"東京都八王子市裏高尾町","lat":35.640537,"lon":139.269928},{"name":"八王子市立台町ふれあい公園","province":"東京都","city":"八王子市","address":"東京都八王子市台町4丁目15","lat":35.657096,"lon":139.321688},{"name":"八王子市立堀之内沖ノ谷戸公園","province":"東京都","city":"八王子市","address":"東京都八王子市東中野","lat":35.63517,"lon":139.400673},{"name":"八王子市立高尾梅の郷まちの広場","province":"東京都","city":"八王子市","address":"東京都八王子市裏高尾町","lat":35.638517,"lon":139.255931},{"name":"八王子市立戸吹スポーツ公園","province":"東京都","city":"八王子市","address":"東京都八王子市戸吹町","lat":35.701143,"lon":139.28798},{"name":"八王子市立宇津貫公園","province":"東京都","city":"八王子市","address":"東京都八王子市七国6丁目1","lat":35.625035,"lon":139.325565},{"name":"八王子市立久保山公園","province":"東京都","city":"八王子市","address":"東京都八王子市久保山町2丁目48","lat":35.684715,"lon":139.356487},{"name":"八王子市立秋葉台公園","province":"東京都","city":"八王子市","address":"東京都八王子市別所2丁目4","lat":35.625926,"lon":139.405772},{"name":"八王子市立小門公園","province":"東京都","city":"八王子市","address":"東京都八王子市小門町","lat":35.658533,"lon":139.323573},{"name":"八王子市立松木公園","province":"東京都","city":"八王子市","address":"東京都八王子市別所1丁目56","lat":35.612118,"lon":139.389868},{"name":"八王子市立松木公園","province":"東京都","city":"八王子市","address":"東京都八王子市別所1丁目56","lat":35.611875,"lon":139.390046},{"name":"八王子市立船森公園","province":"東京都","city":"八王子市","address":"東京都八王子市明神町4丁目9","lat":35.658636,"lon":139.342129},{"name":"八王子市立竹の花公園","province":"東京都","city":"八王子市","address":"東京都八王子市新町5","lat":35.662145,"lon":139.341922},{"name":"八王子市立中土入公園","province":"東京都","city":"八王子市","address":"東京都八王子市片倉町","lat":35.642184,"lon":139.344967},{"name":"八王子市立内裏谷戸公園","province":"東京都","city":"八王子市","address":"東京都八王子市南大沢5丁目24","lat":35.609265,"lon":139.3698},{"name":"八王子市立富士見台公園","province":"東京都","city":"八王子市","address":"東京都八王子市下柚木","lat":35.625798,"lon":139.385589},{"name":"八王子市富士森公園","province":"東京都","city":"八王子市","address":"東京都八王子市台町2丁目2","lat":35.652787,"lon":139.322689},{"name":"八王子市富士森公園","province":"東京都","city":"八王子市","address":"東京都八王子市台町2丁目2","lat":35.65108,"lon":139.323951},{"name":"八王子市富士森公園","province":"東京都","city":"八王子市","address":"東京都八王子市台町2丁目2","lat":35.651001,"lon":139.320897},{"name":"八王子市富士森公園","province":"東京都","city":"八王子市","address":"東京都八王子市台町2丁目2","lat":35.652011,"lon":139.323206},{"name":"八王子市富士森公園","province":"東京都","city":"八王子市","address":"東京都八王子市台町2丁目2","lat":35.651744,"lon":139.325373},{"name":"八王子市立別所公園","province":"東京都","city":"八王子市","address":"東京都八王子市別所2丁目33","lat":35.617529,"lon":139.399288},{"name":"八王子市立北楽公園","province":"東京都","city":"八王子市","address":"東京都八王子市南陽台3丁目6","lat":35.636006,"lon":139.375941},{"name":"八王子市立北八王子公園","province":"東京都","city":"八王子市","address":"東京都八王子市石川町","lat":35.667996,"lon":139.358723},{"name":"八王子市立柳沢の池公園","province":"東京都","city":"八王子市","address":"東京都八王子市下柚木3丁目","lat":35.618405,"lon":139.377516},{"name":"八王子市立鑓水公園","province":"東京都","city":"八王子市","address":"東京都八王子市鑓水2丁目66","lat":35.611468,"lon":139.359577},{"name":"八王子市立来光寺公園","province":"東京都","city":"八王子市","address":"東京都八王子市片倉町","lat":35.642717,"lon":139.342982},{"name":"八王子市立南浅川緑地","province":"東京都","city":"八王子市","address":"東京都八王子市長房町","lat":35.658463,"lon":139.303813},{"name":"八王子市立大平公園","province":"東京都","city":"八王子市","address":"東京都八王子市南大沢3丁目11","lat":35.606345,"lon":139.381425},{"name":"暁公園","province":"東京都","city":"八王子市","address":"東京都八王子市暁町1丁目7","lat":35.668019,"lon":139.335363},{"name":"万葉公園","province":"東京都","city":"八王子市","address":"東京都八王子市散田町5丁目37","lat":35.646279,"lon":139.304461},{"name":"明神町なかよし公園","province":"東京都","city":"八王子市","address":"東京都八王子市明神町2丁目9","lat":35.656821,"lon":139.347357},{"name":"中野山王せせらぎ公園","province":"東京都","city":"八王子市","address":"東京都八王子市中野上町3丁目4","lat":35.671664,"lon":139.32359},{"name":"中田遺跡公園","province":"東京都","city":"八王子市","address":"東京都八王子市中野山王3丁目12","lat":35.674526,"lon":139.32359},{"name":"八王子駅北口公衆便所","province":"東京都","city":"八王子市","address":"東京都八王子市旭町1-1","lat":35.656289,"lon":139.338717},{"name":"八王子駅南口公衆便所","province":"東京都","city":"八王子市","address":"東京都八王子市子安町4丁目7","lat":35.654075,"lon":139.338335},{"name":"高尾駅北口公衆便所","province":"東京都","city":"八王子市","address":"東京都八王子市高尾町1201","lat":35.642082,"lon":139.281382},{"name":"元横山町公衆便所","province":"東京都","city":"八王子市","address":"東京都八王子市元横山町2丁目14","lat":35.660973,"lon":139.335874},{"name":"みなみ野駅前公衆便所","province":"東京都","city":"八王子市","address":"東京都八王子市みなみ野1丁目2","lat":35.630722,"lon":139.330301},{"name":"南大沢駅公衆便所","province":"東京都","city":"八王子市","address":"東京都八王子市南大沢2丁目77","lat":35.614268,"lon":139.380863},{"name":"堀之内駅公衆便所","province":"東京都","city":"八王子市","address":"東京都八王子市堀之内3丁目26","lat":35.625142,"lon":139.400896},{"name":"高尾山麓公衆便所","province":"東京都","city":"八王子市","address":"東京都八王子市高尾町","lat":35.632973,"lon":139.270782},{"name":"陣馬高原下公衆便所","province":"東京都","city":"八王子市","address":"東京都八王子市上恩方町","lat":35.652695,"lon":139.166865},{"name":"小仏公衆便所","province":"東京都","city":"八王子市","address":"東京都八王子市裏高尾町","lat":35.639833,"lon":139.232114},{"name":"今熊公衆便所","province":"東京都","city":"八王子市","address":"東京都八王子市上川町","lat":35.709774,"lon":139.221292},{"name":"道の駅八王子滝山","province":"東京都","city":"八王子市","address":"東京都八王子市滝山町1丁目592-2","lat":35.686488,"lon":139.341701},{"name":"東浅川町公共トイレ","province":"東京都","city":"八王子市","address":"東京都八王子市東浅川町","lat":35.647132,"lon":139.28586},{"name":"八王子駅北口地下自由通路","province":"東京都","city":"八王子市","address":"東京都八王子市旭町1","lat":35.655533,"lon":139.339735},{"name":"八王子市滝ガ原運動場","province":"東京都","city":"八王子市","address":"東京都八王子市高月町","lat":35.701672,"lon":139.333437},{"name":"富士森体育館分館競技場","province":"東京都","city":"八王子市","address":"東京都八王子市散田町2丁目37-1","lat":35.649413,"lon":139.319207},{"name":"八王子市上柚木公園陸上競技場","province":"東京都","city":"八王子市","address":"東京都八王子市上柚木2丁目40","lat":35.61998,"lon":139.37049},{"name":"八王子市上柚木公園陸上競技場","province":"東京都","city":"八王子市","address":"東京都八王子市上柚木2丁目40","lat":35.619881,"lon":139.370496},{"name":"八王子市上柚木公園野球場","province":"東京都","city":"八王子市","address":"東京都八王子市上柚木2丁目51","lat":35.61896,"lon":139.365656},{"name":"八王子市上柚木公園テニスコート","province":"東京都","city":"八王子市","address":"東京都八王子市上柚木2丁目51","lat":35.617762,"lon":139.366074},{"name":"富士森体育館","province":"東京都","city":"八王子市","address":"東京都八王子市台町2丁目3-7","lat":35.650524,"lon":139.322385},{"name":"富士森体育館","province":"東京都","city":"八王子市","address":"東京都八王子市台町2丁目3-7","lat":35.65065,"lon":139.322765},{"name":"甲の原体育館","province":"東京都","city":"八王子市","address":"東京都八王子市中野町2726-8","lat":35.681236,"lon":139.318316},{"name":"甲の原体育館","province":"東京都","city":"八王子市","address":"東京都八王子市中野町2726-8","lat":35.681408,"lon":139.318209},{"name":"八王子市総合体育館エスフォルタアリーナ八王子","province":"東京都","city":"八王子市","address":"東京都八王子市狭間町1453-1","lat":35.639556,"lon":139.292548},{"name":"八王子市総合体育館エスフォルタアリーナ八王子","province":"東京都","city":"八王子市","address":"東京都八王子市狭間町1453-1","lat":35.63977,"lon":139.292541},{"name":"八王子市総合体育館エスフォルタアリーナ八王子","province":"東京都","city":"八王子市","address":"東京都八王子市狭間町1453-1","lat":35.640006,"lon":139.292567},{"name":"八王子市総合体育館エスフォルタアリーナ八王子","province":"東京都","city":"八王子市","address":"東京都八王子市狭間町1453-1","lat":35.64,"lon":139.292416},{"name":"上川農村環境改善センター","province":"東京都","city":"八王子市","address":"東京都八王子市上川町925-1","lat":35.70731,"lon":139.244834},{"name":"北野環境学習センター","province":"東京都","city":"八王子市","address":"東京都八王子市北野町596-3","lat":35.65647,"lon":139.352613},{"name":"八王子市斎場","province":"東京都","city":"八王子市","address":"東京都八王子市山田町1681-2","lat":35.64298,"lon":139.316429},{"name":"八王子市斎場","province":"東京都","city":"八王子市","address":"東京都八王子市山田町1681-2","lat":35.64315,"lon":139.317041},{"name":"八王子市地域子ども家庭支援センターみなみ野","province":"東京都","city":"八王子市","address":"東京都八王子市みなみ野6丁目1-1","lat":35.631043,"lon":139.324008},{"name":"八王子市地域子ども家庭支援センター南大沢","province":"東京都","city":"八王子市","address":"東京都八王子市南大沢2丁目17-5","lat":35.611122,"lon":139.382683},{"name":"八王子市親子ふれあい広場南大沢","province":"東京都","city":"八王子市","address":"東京都八王子市南大沢2丁目16","lat":35.611,"lon":139.383556},{"name":"フレスコ南大沢","province":"東京都","city":"八王子市","address":"東京都八王子市南大沢2丁目27","lat":35.612288,"lon":139.379566},{"name":"八王子市子どもキャンプ場","province":"東京都","city":"八王子市","address":"東京都八王子市上壱分方町","lat":35.683832,"lon":139.28132},{"name":"館ヶ丘児童館","province":"東京都","city":"八王子市","address":"東京都八王子市館町1097-57","lat":35.628213,"lon":139.287733},{"name":"八王子市心身障害者福祉センター","province":"東京都","city":"八王子市","address":"東京都八王子市台町2丁目7-22","lat":35.649106,"lon":139.321083},{"name":"八王子市小児・障害メディカルセンター","province":"東京都","city":"八王子市","address":"東京都八王子市台町4丁目33-13","lat":35.657456,"lon":139.318614},{"name":"八王子市小児・障害メディカルセンター","province":"東京都","city":"八王子市","address":"東京都八王子市台町4丁目33-13","lat":35.657475,"lon":139.318612},{"name":"八王子市小児・障害メディカルセンター","province":"東京都","city":"八王子市","address":"東京都八王子市台町4丁目33-13","lat":35.657444,"lon":139.318558},{"name":"八王子市小児・障害メディカルセンター","province":"東京都","city":"八王子市","address":"東京都八王子市台町4丁目33-13","lat":35.657354,"lon":139.318578},{"name":"八王子市小児・障害メディカルセンター","province":"東京都","city":"八王子市","address":"東京都八王子市台町4丁目33-13","lat":35.657784,"lon":139.318501},{"name":"八王子市小児・障害メディカルセンター","province":"東京都","city":"八王子市","address":"東京都八王子市台町4丁目33-13","lat":35.657383,"lon":139.318396},{"name":"八王子市小児・障害メディカルセンター","province":"東京都","city":"八王子市","address":"東京都八王子市台町4丁目33-13","lat":35.657347,"lon":139.318418},{"name":"八王子市小児・障害メディカルセンター","province":"東京都","city":"八王子市","address":"東京都八王子市台町4丁目33-13","lat":35.657416,"lon":139.318561},{"name":"東浅川保健福祉センター","province":"東京都","city":"八王子市","address":"東京都八王子市東浅川町551-1","lat":35.645399,"lon":139.291974},{"name":"東浅川保健福祉センター","province":"東京都","city":"八王子市","address":"東京都八王子市東浅川町551-1","lat":35.645381,"lon":139.291985},{"name":"東浅川保健福祉センター","province":"東京都","city":"八王子市","address":"東京都八王子市東浅川町551-1","lat":35.645294,"lon":139.291999},{"name":"東浅川保健福祉センター","province":"東京都","city":"八王子市","address":"東京都八王子市東浅川町551-1","lat":35.645154,"lon":139.291864},{"name":"北野余熱利用センター","province":"東京都","city":"八王子市","address":"東京都八王子市北野町596-3","lat":35.656307,"lon":139.352392},{"name":"北野余熱利用センター","province":"東京都","city":"八王子市","address":"東京都八王子市北野町596-3","lat":35.656588,"lon":139.352399},{"name":"南大沢保健福祉センター","province":"東京都","city":"八王子市","address":"東京都八王子市南大沢2丁目27","lat":35.611914,"lon":139.379088},{"name":"大横保健福祉センター","province":"東京都","city":"八王子市","address":"東京都八王子市大横町11","lat":35.664417,"lon":139.327869},{"name":"大横保健福祉センター","province":"東京都","city":"八王子市","address":"東京都八王子市大横町11-35","lat":35.664407,"lon":139.327842},{"name":"大横保健福祉センター","province":"東京都","city":"八王子市","address":"東京都八王子市大横町11","lat":35.664417,"lon":139.32787},{"name":"まちなか休憩所 八王子宿","province":"東京都","city":"八王子市","address":"東京都八王子市中町12-11","lat":35.658697,"lon":139.334744},{"name":"八王子市緑町霊園","province":"東京都","city":"八王子市","address":"東京都八王子市緑町222","lat":35.649574,"lon":139.324397},{"name":"八王子市学校給食センター元横山","province":"東京都","city":"八王子市","address":"東京都八王子市元横山町1丁目29-18","lat":35.66562,"lon":139.338267},{"name":"八王子市学校給食センター南大沢","province":"東京都","city":"八王子市","address":"東京都八王子市南大沢3丁目20","lat":35.602106,"lon":139.384538},{"name":"八王子市学校給食センター元八王子","province":"東京都","city":"八王子市","address":"東京都八王子市叶谷町","lat":35.670919,"lon":139.305238},{"name":"八王子市甲の原霊園","province":"東京都","city":"八王子市","address":"東京都八王子市中野町","lat":35.683173,"lon":139.319838},{"name":"八王子市南多摩都市霊園","province":"東京都","city":"八王子市","address":"東京都八王子市南大沢3丁目","lat":35.600061,"lon":139.385698},{"name":"西寺方グラウンド","province":"東京都","city":"八王子市","address":"東京都八王子市西寺方町","lat":35.681441,"lon":139.274437},{"name":"館クリーンセンター","province":"東京都","city":"八王子市","address":"東京都八王子市館町","lat":35.621471,"lon":139.290944},{"name":"館クリーンセンター","province":"東京都","city":"八王子市","address":"東京都八王子市館町2700","lat":35.621425,"lon":139.289961},{"name":"給食センター楢原","province":"東京都","city":"八王子市","address":"東京都八王子市楢原町","lat":35.677278,"lon":139.305579},{"name":"尾根緑道","province":"東京都","city":"八王子市","address":"東京都八王子市南大沢3丁目","lat":35.600061,"lon":139.385666}]}