{"keyword":"浄水","data":[{"name":"鑓水給水所","province":"東京都","city":"八王子市","address":"東京都八王子市鑓水401","lat":35.62415583,"lon":139.34980654},{"name":"狭間給水所","province":"東京都","city":"八王子市","address":"東京都八王子市狭間町1994-478","lat":35.63029296,"lon":139.27876559},{"name":"犬目第二給水所","province":"東京都","city":"八王子市","address":"東京都八王子市犬目町710","lat":35.69936256,"lon":139.30266063},{"name":"散田給水所","province":"東京都","city":"八王子市","address":"東京都八王子市散田町2丁目6-1","lat":35.65135168,"lon":139.31473913},{"name":"東浅川給水所","province":"東京都","city":"八王子市","address":"東京都八王子市東浅川町674-42","lat":35.64237733,"lon":139.29781872},{"name":"元八王子配水所","province":"東京都","city":"八王子市","address":"東京都八王子市元八王子町3丁目2750-487","lat":35.64669566,"lon":139.26642416},{"name":"北野給水所","province":"東京都","city":"八王子市","address":"東京都八王子市北野町595-3","lat":35.65385799,"lon":139.35498833},{"name":"楢原給水所","province":"東京都","city":"八王子市","address":"東京都八王子市楢原町1294-3","lat":35.67707642,"lon":139.30724447},{"name":"暁町配水所","province":"東京都","city":"八王子市","address":"東京都八王子市暁町3丁目3-1","lat":35.67475519,"lon":139.3369892},{"name":"鑓水小山給水所","province":"東京都","city":"八王子市","address":"東京都八王子市鑓水2丁目92","lat":35.60622202,"lon":139.36017588}]}