{"keyword":"給水","data":[{"name":"鑓水給水所","province":"東京都","city":"八王子市","address":"東京都八王子市鑓水401","lat":35.6241461,"lon":139.349782},{"name":"西寺方給水所","province":"東京都","city":"八王子市","address":"東京都八王子市西寺方町1006-167","lat":35.68939,"lon":139.26638},{"name":"狭間給水所","province":"東京都","city":"八王子市","address":"東京都八王子市狭間町1994-478","lat":35.6302942,"lon":139.278766},{"name":"犬目第二給水所","province":"東京都","city":"八王子市","address":"東京都八王子市犬目町710","lat":35.6993634,"lon":139.302661},{"name":"高月給水所","province":"東京都","city":"八王子市","address":"東京都八王子市高月町2240","lat":35.7061,"lon":139.32019},{"name":"散田給水所","province":"東京都","city":"八王子市","address":"東京都八王子市散田町2-6-1","lat":35.651316,"lon":139.315081},{"name":"東浅川給水所","province":"東京都","city":"八王子市","address":"東京都八王子市東浅川町674","lat":35.6405654,"lon":139.299999},{"name":"寺田配水所","province":"東京都","city":"八王子市","address":"東京都八王子市寺田町1359-4","lat":35.616192,"lon":139.296856},{"name":"元八王子配水所","province":"東京都","city":"八王子市","address":"東京都八王子市元八王子町3-2750-487","lat":35.64726,"lon":139.26656},{"name":"北野給水所","province":"東京都","city":"八王子市","address":"東京都八王子市北野町595-3","lat":35.6538594,"lon":139.354989},{"name":"南陽台配水所","province":"東京都","city":"八王子市","address":"東京都八王子市南陽台3-5-1","lat":35.6364467,"lon":139.374855},{"name":"楢原給水所","province":"東京都","city":"八王子市","address":"東京都八王子市楢原町1294-3","lat":35.6772291,"lon":139.307184},{"name":"暁町配水所","province":"東京都","city":"八王子市","address":"東京都八王子市暁町3-3-1","lat":35.6746641,"lon":139.336637},{"name":"久保山配水所","province":"東京都","city":"八王子市","address":"東京都八王子市久保山町2-15-1","lat":35.6864664,"lon":139.352866},{"name":"大船給水所","province":"東京都","city":"八王子市","address":"東京都八王子市七国3-56-1","lat":35.616612,"lon":139.317224},{"name":"鑓水小山給水所","province":"東京都","city":"八王子市","address":"東京都八王子市鑓水2-92","lat":35.606811,"lon":139.361154},{"name":"南大沢給水所","province":"東京都","city":"八王子市","address":"東京都八王子市南大沢4-25","lat":35.603229,"lon":139.37947},{"name":"都立陵南公園","province":"東京都","city":"八王子市","address":"東京都八王子市長房町1572","lat":35.6490541,"lon":139.2897306},{"name":"椚田ポンプ所","province":"東京都","city":"八王子市","address":"東京都八王子市椚田町545","lat":35.635202,"lon":139.310873}]}