{"keyword":"脳","data":[{"name":"社会福祉法人蕗の会ふきのとう","province":"東京都","city":"八王子市","address":"東京都八王子市東浅川町625-5","lat":35.64332169,"lon":139.29959909},{"name":"社会福祉法人蕗の会ひのき工房","province":"東京都","city":"八王子市","address":"東京都八王子市元八王子町2丁目1839-2","lat":35.65851655,"lon":139.27867807},{"name":"特定非営利活動法人木馬工房","province":"東京都","city":"八王子市","address":"東京都八王子市元本郷町3丁目17-13","lat":35.66566123,"lon":139.31513862},{"name":"社会福祉法人八王子いちょうの会いちょう工房そら","province":"東京都","city":"八王子市","address":"東京都八王子市元本郷町2丁目19-1","lat":35.66570854,"lon":139.31863554},{"name":"特定非営利活動法人わかくさ福祉会地域生活支援センターあくせす","province":"東京都","city":"八王子市","address":"東京都八王子市子安町3丁目6-7","lat":35.65169119,"lon":139.33821489},{"name":"特定非営利活動法人わかくさ福祉会クロスジョブ東京","province":"東京都","city":"八王子市","address":"東京都八王子市明神町4丁目5-3","lat":35.65865998,"lon":139.34377804},{"name":"特定非営利活動法人藍の会藍作業所","province":"東京都","city":"八王子市","address":"東京都八王子市楢原町384-5","lat":35.67723206,"lon":139.31124967},{"name":"社会福祉法人もくば会グループＧ","province":"東京都","city":"八王子市","address":"東京都八王子市西寺方町366","lat":35.67473933,"lon":139.26615918},{"name":"社会福祉法人もくば会デイサービスTRY","province":"東京都","city":"八王子市","address":"東京都八王子市寺町60-5","lat":35.65695438,"lon":139.33469279},{"name":"社会福祉法人もくば会生活介護事業所ウイングス","province":"東京都","city":"八王子市","address":"東京都八王子市上壱分方町229-2","lat":35.67766748,"lon":139.28609062},{"name":"特定非営利活動法人ここかまど生活介護事業かまどっちゃ","province":"東京都","city":"八王子市","address":"東京都八王子市上野町103-1","lat":35.65323238,"lon":139.32756297},{"name":"特定非営利活動法人Ｐｕｒｅ ぴゅあさぽーとせんたー","province":"東京都","city":"八王子市","address":"東京都八王子市小比企町1769-4","lat":35.63856434,"lon":139.31853372},{"name":"特定非営利活動法人Ｐｕｒｅあらいと","province":"東京都","city":"八王子市","address":"東京都八王子市並木町14-20","lat":35.65170685,"lon":139.3010792},{"name":"生活介護事業所らいふ結","province":"東京都","city":"八王子市","address":"東京都八王子市元八王子町2丁目1211","lat":35.65996646,"lon":139.2810667},{"name":"Cocorport八王子駅前Office","province":"東京都","city":"八王子市","address":"東京都八王子市東町9-10","lat":35.65844876,"lon":139.33894791},{"name":"一般社団法人おおぞらひまわり","province":"東京都","city":"八王子市","address":"東京都八王子市片倉町720-1","lat":35.6398871,"lon":139.34218994},{"name":"社会福祉法人月峰会Mitleben穂高","province":"東京都","city":"八王子市","address":"東京都八王子市元横山町2丁目22-10","lat":35.66275925,"lon":139.33336214},{"name":"社会福祉法人草むら就労継続支援Ｂ型ぶるー夢","province":"東京都","city":"八王子市","address":"東京都八王子市南大沢2丁目220-9","lat":35.60699463,"lon":139.3852793},{"name":"社会福祉法人草むらシャル夢","province":"東京都","city":"八王子市","address":"東京都八王子市南大沢2丁目220-9","lat":35.60699463,"lon":139.3852793},{"name":"特定非営利活動法人多摩草むらの会パソコンサロン夢像","province":"東京都","city":"八王子市","address":"東京都八王子市別所1丁目11-8","lat":35.62250432,"lon":139.39839149},{"name":"きずな工房からまつ","province":"東京都","city":"八王子市","address":"東京都八王子市川口町3824","lat":35.68613346,"lon":139.29899758},{"name":"株式会社LITALICOパートナーズLITALICOワークス八王子","province":"東京都","city":"八王子市","address":"東京都八王子市旭町12-4","lat":35.65740449,"lon":139.34093389},{"name":"特定非営利活動法人E-SMILENICOTT","province":"東京都","city":"八王子市","address":"東京都八王子市長沼町1306-4","lat":35.64693946,"lon":139.3604964},{"name":"ＨＡＣＨＩＯＪＩＦＡＲＭＥＲ’ＳＫＩＴＣＨＥＮふぁむ","province":"東京都","city":"八王子市","address":"東京都八王子市川口町3721-2","lat":35.68851055,"lon":139.28709847},{"name":"株式会社あやめ会めだか販売店","province":"東京都","city":"八王子市","address":"東京都八王子市子安町1丁目2-6","lat":35.65414649,"lon":139.33937302},{"name":"特定非営利活動法人あるがホープスカイ","province":"東京都","city":"八王子市","address":"東京都八王子市下恩方町1158-10","lat":35.67481976,"lon":139.25771836},{"name":"特定非営利活動法人しあわせのたねファースト・ステップ","province":"東京都","city":"八王子市","address":"東京都八王子市八日町7-18","lat":35.66083993,"lon":139.33020415},{"name":"ＮＰＯ法人みんなのひろば森のぱんやさん","province":"東京都","city":"八王子市","address":"東京都八王子市千人町2丁目3-1","lat":35.65826201,"lon":139.31401952},{"name":"株式会社ハートエースアポイント","province":"東京都","city":"八王子市","address":"東京都八王子市横山町6-9","lat":35.65955693,"lon":139.33745635},{"name":"社会福祉法人ＳＨＩＰＥＳＰＲＩＴ","province":"東京都","city":"八王子市","address":"東京都八王子市戸吹町111","lat":35.70668381,"lon":139.30011887},{"name":"株式会社ピーライフアース事業所","province":"東京都","city":"八王子市","address":"東京都八王子市片倉町706-6","lat":35.64030089,"lon":139.34059285},{"name":"株式会社ピーライフリーフ事業所","province":"東京都","city":"八王子市","address":"東京都八王子市千人町2丁目3-16","lat":35.65827034,"lon":139.31357511},{"name":"多摩地域IPS就労支援センターリスタ八王子","province":"東京都","city":"八王子市","address":"東京都八王子市横山町3-6","lat":35.65955697,"lon":139.33902565},{"name":"サーカス","province":"東京都","city":"八王子市","address":"東京都八王子市西寺方町658-1","lat":35.6784529,"lon":139.27061142},{"name":"チャレンジドジャパン八王子センター","province":"東京都","city":"八王子市","address":"東京都八王子市東町3-11","lat":35.65853493,"lon":139.34122271},{"name":"松坂ティーエムコンサルタンツ株式会社いちょう企画","province":"東京都","city":"八王子市","address":"東京都八王子市本町4-7","lat":35.66193713,"lon":139.33425098}]}