{"keyword":"自転車","data":[{"name":"北八王子駅西口臨時自転車駐車場","province":"東京都","city":"八王子市","address":"東京都八王子市石川町2951-4","lat":35.66849535,"lon":139.36158175},{"name":"北八王子駅東口臨時第1自転車駐車場","province":"東京都","city":"八王子市","address":"東京都八王子市高倉町9-1","lat":35.66832874,"lon":139.36388433},{"name":"北八王子駅東口臨時第2自転車駐車場","province":"東京都","city":"八王子市","address":"東京都八王子市高倉町9-1","lat":35.66832874,"lon":139.36388433},{"name":"松が谷駅自転車駐車場","province":"東京都","city":"八王子市","address":"東京都八王子市松が谷51-1","lat":35.62721244,"lon":139.41381506},{"name":"大塚・帝京大学駅第1自転車駐車場","province":"東京都","city":"八王子市","address":"東京都八王子市大塚","lat":35.63783363,"lon":139.42258056},{"name":"大塚・帝京大学駅第2自転車駐車場","province":"東京都","city":"八王子市","address":"東京都八王子市大塚","lat":35.63783363,"lon":139.42258056},{"name":"楢原町自転車駐車場","province":"東京都","city":"八王子市","address":"東京都八王子市楢原町503","lat":35.68236466,"lon":139.30562219},{"name":"八王子駅北口旭町自転車駐車場","province":"東京都","city":"八王子市","address":"東京都八王子市旭町4-19","lat":35.6563517,"lon":139.33569272},{"name":"八王子駅北口旭町ミニバイク自転車駐車場","province":"東京都","city":"八王子市","address":"東京都八王子市旭町4-23","lat":35.65634338,"lon":139.33619546},{"name":"八王子駅北口地下自転車駐車場","province":"東京都","city":"八王子市","address":"東京都八王子市旭町1","lat":35.656399,"lon":139.33927296},{"name":"八王子駅南口地下タワー式自転車駐車場","province":"東京都","city":"八王子市","address":"東京都八王子市子安町4丁目7-1","lat":35.65469915,"lon":139.33750651},{"name":"西八王子駅北口自転車駐車場","province":"東京都","city":"八王子市","address":"東京都八王子市千人町3丁目1-25","lat":35.65663159,"lon":139.3122225},{"name":"西八王子駅北口第３自転車駐車場","province":"東京都","city":"八王子市","address":"東京都八王子市千人町3丁目1-17","lat":35.65670934,"lon":139.31141423},{"name":"西八王子駅北口西自転車駐車場","province":"東京都","city":"八王子市","address":"東京都八王子市千人町3丁目19-25","lat":35.65624825,"lon":139.31063376},{"name":"西八王子駅南口臨時自転車駐車場","province":"東京都","city":"八王子市","address":"東京都八王子市台町4丁目48","lat":35.6566344,"lon":139.31322797},{"name":"高尾駅南口自転車駐車場","province":"東京都","city":"八王子市","address":"東京都八王子市初沢町1231-26","lat":35.64225481,"lon":139.28307834},{"name":"片倉駅自転車駐車場","province":"東京都","city":"八王子市","address":"東京都八王子市片倉町712-6","lat":35.64046203,"lon":139.3418844},{"name":"八王子みなみ野駅西自転車駐車場","province":"東京都","city":"八王子市","address":"東京都八王子市みなみ野1丁目3","lat":35.63159601,"lon":139.33008019},{"name":"八王子みなみ野駅東自転車駐車場","province":"東京都","city":"八王子市","address":"東京都八王子市兵衛1丁目4","lat":35.63006287,"lon":139.33087461},{"name":"京王八王子駅南臨時自転車駐車場","province":"東京都","city":"八王子市","address":"東京都八王子市明神町3丁目18-10","lat":35.65615187,"lon":139.3416061},{"name":"京王八王子駅中央自転車駐車場","province":"東京都","city":"八王子市","address":"東京都八王子市明神町4丁目7-15","lat":35.658085,"lon":139.34221987},{"name":"京王八王子駅中央第２自転車駐車場","province":"東京都","city":"八王子市","address":"東京都八王子市明神町3丁目27-1","lat":35.65788227,"lon":139.34316423},{"name":"京王八王子駅東自転車駐車場","province":"東京都","city":"八王子市","address":"東京都八王子市明神町3丁目6-11","lat":35.65652692,"lon":139.34537519},{"name":"北野駅東自転車駐車場","province":"東京都","city":"八王子市","address":"東京都八王子市打越町335-1","lat":35.64444797,"lon":139.35458867},{"name":"南大沢大橋自転車駐車場","province":"東京都","city":"八王子市","address":"東京都八王子市南大沢2丁目29","lat":35.61383537,"lon":139.37999332},{"name":"南大沢駅中央自転車駐車場","province":"東京都","city":"八王子市","address":"東京都八王子市南大沢2丁目3","lat":35.61444918,"lon":139.37986552},{"name":"京王堀之内駅自転車駐車場","province":"東京都","city":"八王子市","address":"東京都八王子市堀之内3丁目24-4","lat":35.62429026,"lon":139.40009404},{"name":"八王子駅北口駅前駐輪帯","province":"東京都","city":"八王子市","address":"東京都八王子市旭町9-1","lat":35.65743499,"lon":139.33874242},{"name":"ジョイ五番街通り自転車駐輪帯Bブロック","province":"東京都","city":"八王子市","address":"東京都八王子市東町10-4","lat":35.65859596,"lon":139.3386035},{"name":"ジョイ五番街通り自転車駐輪帯Cブロック","province":"東京都","city":"八王子市","address":"東京都八王子市東町11-2","lat":35.65785716,"lon":139.33850353},{"name":"ジョイ五番街通り自転車駐輪帯Dブロック","province":"東京都","city":"八王子市","address":"東京都八王子市旭町9-1","lat":35.65743499,"lon":139.33874242},{"name":"ジョイ五番街通り自転車駐輪帯Eブロック","province":"東京都","city":"八王子市","address":"東京都八王子市横山町5-13","lat":35.6594153,"lon":139.33828406},{"name":"ジョイ五番街通り自転車駐輪帯Fブロック","province":"東京都","city":"八王子市","address":"東京都八王子市東町13-10","lat":35.65880704,"lon":139.3382813},{"name":"ジョイ五番街通り自転車駐輪帯Gブロック","province":"東京都","city":"八王子市","address":"東京都八王子市東町12-14","lat":35.65820711,"lon":139.33811467},{"name":"ドン・キホーテ西自転車駐輪帯","province":"東京都","city":"八王子市","address":"東京都八王子市中町1-3","lat":35.65800711,"lon":139.33724253},{"name":"京王八王子駅北自転車駐輪帯","province":"東京都","city":"八王子市","address":"東京都八王子市明神町4丁目20","lat":35.66029311,"lon":139.34334746},{"name":"八王子駅南口臨時自転車駐車場","province":"東京都","city":"八王子市","address":"東京都八王子市子安町1丁目11-14","lat":35.65428261,"lon":139.34030628},{"name":"西八王子駅北口第4自転車駐車場","province":"東京都","city":"八王子市","address":"東京都八王子市千人町3丁目1-3","lat":35.65647882,"lon":139.31185031},{"name":"京王八王子駅南臨時第2自転車駐車場","province":"東京都","city":"八王子市","address":"東京都八王子市明神町3丁目19-2","lat":35.65675182,"lon":139.34245322}]}