{"keyword":"葬儀","data":[{"name":"（株）愛礼儀典","province":"東京都","city":"八王子市","address":"東京都八王子市楢原町1042","lat":35.68145096,"lon":139.30872197},{"name":"（株）愛和セレモニー","province":"東京都","city":"八王子市","address":"東京都八王子市千人町4丁目2-23","lat":35.65598713,"lon":139.30902557},{"name":"アットホームなお葬式","province":"東京都","city":"八王子市","address":"東京都八王子市大和田町6丁目10-26","lat":35.66341231,"lon":139.34859969},{"name":"（株）伊藤祐次商店","province":"東京都","city":"八王子市","address":"東京都八王子市八幡町13-8","lat":35.66062877,"lon":139.32752939},{"name":"(株)追分葬儀社","province":"東京都","city":"八王子市","address":"東京都八王子市追分町8-10","lat":35.66061742,"lon":139.31834685},{"name":"おぐら葬祭・（株）アットイーズ","province":"東京都","city":"八王子市","address":"東京都八王子市高尾町1599","lat":35.64431564,"lon":139.28310602},{"name":"（株）雅邦","province":"東京都","city":"八王子市","address":"東京都八王子市川口町1690-53","lat":35.68914129,"lon":139.29450338},{"name":"キクヤセレモニー","province":"東京都","city":"八王子市","address":"東京都八王子市寺町39","lat":35.65612112,"lon":139.33360958},{"name":"煌ハートセレモニー","province":"東京都","city":"八王子市","address":"東京都八王子市川口町1905-8","lat":35.69106313,"lon":139.2907314},{"name":"（株）くらしの友","province":"東京都","city":"八王子市","address":"東京都八王子市北野町538-21","lat":35.64703928,"lon":139.35210547},{"name":"京王メモリアル北野","province":"東京都","city":"八王子市","address":"東京都八王子市打越町331-1","lat":35.64400078,"lon":139.35396374},{"name":"（株）サン・ライフ","province":"東京都","city":"八王子市","address":"東京都八王子市大和田町6丁目2-9","lat":35.66424547,"lon":139.34497497},{"name":"（株）セレモア八王子本社","province":"東京都","city":"八王子市","address":"東京都八王子市大横町13-20","lat":35.66290077,"lon":139.32879031},{"name":"セレモハイネス(株）","province":"東京都","city":"八王子市","address":"東京都八王子市山田町1688-4","lat":35.64050017,"lon":139.31601442},{"name":"千の風　八王子斎場","province":"東京都","city":"八王子市","address":"東京都八王子市椚田町535-15","lat":35.63859475,"lon":139.31153156},{"name":"葬儀支援サービス・（株）三峰","province":"東京都","city":"八王子市","address":"東京都八王子市大船町153-46","lat":35.62624359,"lon":139.31234867},{"name":"（株）葬儀の大地","province":"東京都","city":"八王子市","address":"東京都八王子市散田町4丁目15-6","lat":35.65248193,"lon":139.30783691},{"name":"たくみ葬祭","province":"東京都","city":"八王子市","address":"東京都八王子市中野上町1丁目2-8","lat":35.66781694,"lon":139.33080942},{"name":"多摩福祉葬祭","province":"東京都","city":"八王子市","address":"東京都八王子市大塚1687-3","lat":35.63379505,"lon":139.41619514},{"name":"東花堂","province":"東京都","city":"八王子市","address":"東京都八王子市中山446","lat":35.62826944,"lon":139.36423844},{"name":"（株）トレセレ","province":"東京都","city":"八王子市","address":"東京都八王子市鑓水2020-1","lat":35.61522366,"lon":139.35550922},{"name":"（株）ドリーミー","province":"東京都","city":"八王子市","address":"東京都八王子市長沼町854-3","lat":35.6424206,"lon":139.36414902},{"name":"（有）西東京葬祭","province":"東京都","city":"八王子市","address":"東京都八王子市楢原町1473","lat":35.68226455,"lon":139.30139754},{"name":"（株）富士白蓮社","province":"東京都","city":"八王子市","address":"東京都八王子市梅坪町62-1","lat":35.68749543,"lon":139.33830812},{"name":"（株）Plants（プランツ）","province":"東京都","city":"八王子市","address":"東京都八王子市千人町3丁目12-5","lat":35.65808963,"lon":139.30706458},{"name":"マインドセレモニー","province":"東京都","city":"八王子市","address":"東京都八王子市元本郷町1丁目27-10","lat":35.66531147,"lon":139.32316293},{"name":"（株）溝口祭典","province":"東京都","city":"八王子市","address":"東京都八王子市元横山町2丁目14-19","lat":35.66171777,"lon":139.33625916},{"name":"（株）都典礼","province":"東京都","city":"八王子市","address":"東京都八王子市打越町1364-1","lat":35.64413402,"lon":139.34996409},{"name":"メモアールまちだ・（有）町田商店","province":"東京都","city":"八王子市","address":"東京都八王子市天神町14","lat":35.65762922,"lon":139.33169025},{"name":"メモリーサポート","province":"東京都","city":"八王子市","address":"東京都八王子市下柚木1941-9","lat":35.63261896,"lon":139.36587146},{"name":"株式会社丸勝葬祭","province":"東京都","city":"八王子市","address":"東京都八王子市元八王子町3丁目2232","lat":35.65491687,"lon":139.27515906},{"name":"（有）東京相互葬祭","province":"東京都","city":"八王子市","address":"東京都八王子市小宮町747-1","lat":35.68729323,"lon":139.36608355}]}