{"keyword":"認可","data":[{"name":"光明第七保育園","province":"東京都","city":"八王子市","address":"八王子市宮下町354","lat":35.70843,"lon":139.31017},{"name":"光明第八保育園","province":"東京都","city":"八王子市","address":"八王子市上柚木3-13-2","lat":35.61348,"lon":139.3689},{"name":"光明第三保育園","province":"東京都","city":"八王子市","address":"八王子市楢原町971","lat":35.68226,"lon":139.31018},{"name":"光明第四保育園","province":"東京都","city":"八王子市","address":"八王子市横川町603","lat":35.66293,"lon":139.30379},{"name":"館ケ丘保育園","province":"東京都","city":"八王子市","address":"八王子市館町1097","lat":35.62996,"lon":139.28412},{"name":"幼保連携型認定こども園　まごころ保育園","province":"東京都","city":"八王子市","address":"八王子市館町1097-96","lat":35.62996,"lon":139.28412},{"name":"敬愛高倉保育園","province":"東京都","city":"八王子市","address":"八王子市高倉町47-2","lat":35.66639,"lon":139.36888},{"name":"誠美保育園","province":"東京都","city":"八王子市","address":"八王子市南大沢5-12","lat":35.61143,"lon":139.37079},{"name":"長房みなみ保育園","province":"東京都","city":"八王子市","address":"八王子市長房町355-4","lat":35.653923,"lon":139.296684},{"name":"由井さゆり保育園","province":"東京都","city":"八王子市","address":"八王子市片倉町2436","lat":35.64114,"lon":139.33768},{"name":"さゆりの丘保育園","province":"東京都","city":"八王子市","address":"八王子市宇津貫町945","lat":35.62589,"lon":139.33417},{"name":"みなみ野さゆり保育園","province":"東京都","city":"八王子市","address":"八王子市七国5-14-1","lat":35.62302,"lon":139.31944},{"name":"まごころ保育園","province":"東京都","city":"八王子市","address":"八王子市館町1097-96","lat":35.62996,"lon":139.28412},{"name":"八王子隣保館保育園","province":"東京都","city":"八王子市","address":"八王子市叶谷町1133","lat":35.67188,"lon":139.30234},{"name":"多摩小ばと保育園","province":"東京都","city":"八王子市","address":"八王子市石川町3279","lat":35.67612,"lon":139.37557},{"name":"中野保育園","province":"東京都","city":"八王子市","address":"八王子市中野上町1-22-11","lat":35.66678,"lon":139.32468},{"name":"白百合ベビーホーム","province":"東京都","city":"八王子市","address":"八王子市元本郷町2-6-20","lat":35.6634,"lon":139.31888},{"name":"大塚保育園","province":"東京都","city":"八王子市","address":"八王子市鹿島15","lat":35.63466,"lon":139.42401},{"name":"なみのり第二保育園","province":"東京都","city":"八王子市","address":"八王子市下柚木3-5","lat":35.62063,"lon":139.37972},{"name":"星の子保育園","province":"東京都","city":"八王子市","address":"八王子市片倉町704-14","lat":35.64116,"lon":139.3411},{"name":"からまつ保育園","province":"東京都","city":"八王子市","address":"八王子市川口町1543","lat":35.68366,"lon":139.29678},{"name":"城山保育園","province":"東京都","city":"八王子市","address":"八王子市元八王子町2-2025-2","lat":35.65581,"lon":139.28005},{"name":"山田保育園","province":"東京都","city":"八王子市","address":"八王子市散田町2-46-11","lat":35.64808,"lon":139.3169},{"name":"敬愛たかお保育園","province":"東京都","city":"八王子市","address":"八王子市東浅川町550-32","lat":35.64354,"lon":139.28919},{"name":"めじろ保育園","province":"東京都","city":"八王子市","address":"八王子市山田町1888-6","lat":35.64185,"lon":139.31397},{"name":"堀之内プチ・クレイシュ","province":"東京都","city":"八王子市","address":"八王子市別所2-2-1クレヴィア京王堀之内パークナードII2階","lat":35.62971,"lon":139.40219},{"name":"長房みなみ保育園","province":"東京都","city":"八王子市","address":"八王子市長房町355-4","lat":35.66176,"lon":139.30832},{"name":"わらべふじ森保育園","province":"東京都","city":"八王子市","address":"八王子市台町1-62-3","lat":35.65175,"lon":139.33031}]}