{"keyword":"連絡","data":[{"name":"八王子市福祉部高齢者福祉課","province":"東京都","city":"八王子市","address":"八王子市元本郷町3-24-1","lat":35.666496,"lon":139.316162},{"name":"八王子市高齢者あんしん相談センター旭町","province":"東京都","city":"八王子市","address":"八王子市旭町8-10比留間ビル3階","lat":35.657585,"lon":139.338303},{"name":"八王子市高齢者あんしん相談センター高尾","province":"東京都","city":"八王子市","address":"八王子市東浅川町551-1東浅川保健福祉センター2階","lat":35.645088,"lon":139.293137},{"name":"八王子市高齢者あんしん相談センター左入","province":"東京都","city":"八王子市","address":"八王子市左入町372-4","lat":35.685505,"lon":139.34639},{"name":"八王子市高齢者あんしん相談センター中野","province":"東京都","city":"八王子市","address":"八王子市中野上町4-27-4ボナールHONDA1階","lat":35.670242,"lon":139.316483},{"name":"八王子市高齢者あんしん相談センター南大沢","province":"東京都","city":"八王子市","address":"八王子市南大沢2-17-5","lat":35.611408,"lon":139.382706},{"name":"八王子市高齢者あんしん相談センターめじろ","province":"東京都","city":"八王子市","address":"八王子市めじろ台2-55-5","lat":35.641174,"lon":139.313736},{"name":"八王子市高齢者あんしん相談センター長沼","province":"東京都","city":"八王子市","address":"八王子市長沼町1302-1都営長沼第二アパート16号棟1階","lat":35.884872,"lon":139.611465},{"name":"八王子市高齢者あんしん相談センター川口","province":"東京都","city":"八王子市","address":"八王子市川口町908-1川口事務所内","lat":35.693378,"lon":139.279099},{"name":"八王子市高齢者あんしん相談センター片倉","province":"東京都","city":"八王子市","address":"八王子市片倉町440-2","lat":35.642548,"lon":139.340469},{"name":"八王子市高齢者あんしん相談センター堀之内","province":"東京都","city":"八王子市","address":"八王子市堀之内1206","lat":35.63586,"lon":139.388535},{"name":"八王子市高齢者あんしん相談センター長房","province":"東京都","city":"八王子市","address":"八王子市長房町588、長房アパート西22号棟1階","lat":35.660057,"lon":139.331146},{"name":"八王子市高齢者あんしん相談センター子安","province":"東京都","city":"八王子市","address":"八王子市子安町4-10-9西村ビル4階","lat":35.653934,"lon":139.337601},{"name":"八王子市高齢者あんしん相談センターもとはち南","province":"東京都","city":"八王子市","address":"八王子市元八王子町2-1946-2宮崎ビル101","lat":35.659649,"lon":139.280975},{"name":"八王子市高齢者あんしん相談センター寺田","province":"東京都","city":"八王子市","address":"八王子市寺田町137-1","lat":35.631626,"lon":139.310333},{"name":"八王子市高齢者あんしん相談センター大横","province":"東京都","city":"八王子市","address":"八王子市大横町11-35、大横保健福祉センター4階","lat":35.664471,"lon":139.328445},{"name":"八王子市高齢者あんしん相談センター恩方","province":"東京都","city":"八王子市","address":"八王子市下恩方町3395恩方事務所内","lat":35.669819,"lon":139.248489},{"name":"市民部消費生活センター","province":"東京都","city":"八王子市","address":"八王子市東町5-6クリエイトホール地下1階","lat":35.658527,"lon":139.339554},{"name":"八王子市高齢者あんしん相談センター由木東","province":"東京都","city":"八王子市","address":"八王子市鹿島111-1由木東事務所内","lat":35.634281,"lon":139.422501},{"name":"八王子市高齢者あんしん相談センター石川","province":"東京都","city":"八王子市","address":"八王子市石川町481石川事務所内","lat":35.680756,"lon":139.366241}]}