{"keyword":"音響","data":[{"name":"八王子みなみ野駅入口","province":"東京都","city":"八王子市","address":"東京都八王子市みなみ野1丁目7","lat":35.63259024,"lon":139.32702764},{"name":"北野公園南","province":"東京都","city":"八王子市","address":"東京都八王子市長沼町1307-11","lat":35.64668671,"lon":139.35998534},{"name":"高嶺小学校前","province":"東京都","city":"八王子市","address":"東京都八王子市北野台4丁目20","lat":35.62864145,"lon":139.35240611},{"name":"堀之内駅前","province":"東京都","city":"八王子市","address":"東京都八王子市堀之内3丁目35-9","lat":35.62554012,"lon":139.40060229},{"name":"別所小学校入口北","province":"東京都","city":"八王子市","address":"東京都八王子市別所1丁目18","lat":35.61814926,"lon":139.39637518},{"name":"南大沢中学校西","province":"東京都","city":"八王子市","address":"東京都八王子市南大沢4丁目10","lat":35.61059403,"lon":139.37852969},{"name":"南大沢駅前第二","province":"東京都","city":"八王子市","address":"東京都八王子市南大沢2丁目2","lat":35.61367146,"lon":139.37858788},{"name":"高尾駅前","province":"東京都","city":"八王子市","address":"東京都八王子市高尾町1583","lat":35.6425992,"lon":139.28142293},{"name":"八王子四谷町","province":"東京都","city":"八王子市","address":"東京都八王子市四谷町815","lat":35.67347929,"lon":139.29531227},{"name":"台町五差路","province":"東京都","city":"八王子市","address":"東京都八王子市散田町1丁目1-1","lat":35.65482908,"lon":139.31480567},{"name":"多摩御陵入口","province":"東京都","city":"八王子市","address":"東京都八王子市東浅川町185","lat":35.6474127,"lon":139.29298283},{"name":"元八王子中学校前","province":"東京都","city":"八王子市","address":"東京都八王子市大楽寺町415","lat":35.67234326,"lon":139.29371521},{"name":"東浅川","province":"東京都","city":"八王子市","address":"東京都八王子市東浅川町548-1","lat":35.64204933,"lon":139.28640305},{"name":"都立八王子拓真高校南","province":"東京都","city":"八王子市","address":"東京都八王子市散田町1丁目7-3","lat":35.6536237,"lon":139.31666388},{"name":"長房団地西","province":"東京都","city":"八王子市","address":"東京都八王子市長房町588","lat":35.65453408,"lon":139.29232708},{"name":"東浅川小学校前","province":"東京都","city":"八王子市","address":"東京都八王子市東浅川町550","lat":35.64443244,"lon":139.29001098},{"name":"西八王子駅南","province":"東京都","city":"八王子市","address":"東京都八王子市散田町1丁目1","lat":35.65550401,"lon":139.31516673},{"name":"南多摩病院前","province":"東京都","city":"八王子市","address":"東京都八王子市散田町3丁目9-15","lat":35.65582894,"lon":139.31365574},{"name":"都立八王子拓真高校西","province":"東京都","city":"八王子市","address":"東京都八王子市散田町1丁目1","lat":35.65550401,"lon":139.31516673},{"name":"道路試験場前","province":"東京都","city":"八王子市","address":"東京都八王子市東浅川町552-18","lat":35.64408533,"lon":139.29266909},{"name":"川原宿","province":"東京都","city":"八王子市","address":"東京都八王子市下恩方町1748","lat":35.67229499,"lon":139.25944876},{"name":"長房第一住宅前南","province":"東京都","city":"八王子市","address":"東京都八王子市長房町588","lat":35.65453408,"lon":139.29232708},{"name":"八日町","province":"東京都","city":"八王子市","address":"東京都八王子市八日町10-1","lat":35.66011788,"lon":139.33347333},{"name":"八王子八幡町","province":"東京都","city":"八王子市","address":"東京都八王子市八幡町2-17","lat":35.66017329,"lon":139.32846543},{"name":"明神町","province":"東京都","city":"八王子市","address":"東京都八王子市明神町4丁目21-1","lat":35.66040147,"lon":139.3451473},{"name":"本郷横丁","province":"東京都","city":"八王子市","address":"東京都八王子市八幡町8-4","lat":35.66101473,"lon":139.3235075},{"name":"横山町","province":"東京都","city":"八王子市","address":"東京都八王子市横山町22-8","lat":35.66012076,"lon":139.33726467},{"name":"西八王子駅入口","province":"東京都","city":"八王子市","address":"東京都八王子市千人町2丁目4-8","lat":35.65841474,"lon":139.31261685},{"name":"大和田町五丁目","province":"東京都","city":"八王子市","address":"東京都八王子市大和田町5丁目3-5","lat":35.66257356,"lon":139.35061899},{"name":"千人町","province":"東京都","city":"八王子市","address":"東京都八王子市千人町1丁目10-9","lat":35.65918136,"lon":139.31381951},{"name":"八王子台町","province":"東京都","city":"八王子市","address":"東京都八王子市上野町103-15","lat":35.65276021,"lon":139.32721025},{"name":"八王子市本町","province":"東京都","city":"八王子市","address":"東京都八王子市本町10-9","lat":35.66189822,"lon":139.33330107},{"name":"子安町三丁目","province":"東京都","city":"八王子市","address":"東京都八王子市子安町3丁目4-1","lat":35.65219668,"lon":139.33783712},{"name":"八王子保健所前","province":"東京都","city":"八王子市","address":"東京都八王子市明神町3丁目20-5","lat":35.65753783,"lon":139.342156},{"name":"いちょうホール西","province":"東京都","city":"八王子市","address":"東京都八王子市大横町12-5","lat":35.66330906,"lon":139.32854032},{"name":"西八王子駅西入口","province":"東京都","city":"八王子市","address":"東京都八王子市千人町2丁目18-7","lat":35.65770924,"lon":139.31153919},{"name":"横山町郵便局前","province":"東京都","city":"八王子市","address":"東京都八王子市横山町10-19","lat":35.65973465,"lon":139.33550095},{"name":"八王子中町","province":"東京都","city":"八王子市","address":"東京都八王子市中町9","lat":35.65870975,"lon":139.33507325},{"name":"八王子駅入口","province":"東京都","city":"八王子市","address":"東京都八王子市横山町24-14","lat":35.65999304,"lon":139.33929228},{"name":"八王子中町東第二","province":"東京都","city":"八王子市","address":"東京都八王子市中町1-3","lat":35.65800711,"lon":139.33724253},{"name":"八日町第二","province":"東京都","city":"八王子市","address":"東京都八王子市八日町8-1","lat":35.66042332,"lon":139.33062913},{"name":"八日町第三","province":"東京都","city":"八王子市","address":"東京都八王子市八日町5-17","lat":35.65999558,"lon":139.33000698},{"name":"八王子日吉町","province":"東京都","city":"八王子市","address":"東京都八王子市日吉町12-14","lat":35.66141167,"lon":139.31404442},{"name":"八日町西","province":"東京都","city":"八王子市","address":"東京都八王子市八日町9-2","lat":35.6606039,"lon":139.33228454},{"name":"八王子中町東","province":"東京都","city":"八王子市","address":"東京都八王子市中町1-3","lat":35.65800711,"lon":139.33724253},{"name":"八木町西","province":"東京都","city":"八王子市","address":"東京都八王子市八木町4-6","lat":35.66107575,"lon":139.32031332},{"name":"八王子第三小学校入口","province":"東京都","city":"八王子市","address":"東京都八王子市万町117-1","lat":35.6545296,"lon":139.33249585},{"name":"八日町東","province":"東京都","city":"八王子市","address":"東京都八王子市横山町15-3","lat":35.66024843,"lon":139.33408717},{"name":"八王子市民体育館前","province":"東京都","city":"八王子市","address":"東京都八王子市台町1丁目26-10","lat":35.6499021,"lon":139.32396896},{"name":"浅川大橋南","province":"東京都","city":"八王子市","address":"東京都八王子市元横山町1丁目15-1","lat":35.66362876,"lon":139.34023097},{"name":"八王子駅前郵便局","province":"東京都","city":"八王子市","address":"東京都八王子市旭町11-6","lat":35.65754055,"lon":139.33955901},{"name":"八王子市営球場前","province":"東京都","city":"八王子市","address":"東京都八王子市台町2丁目12","lat":35.65031579,"lon":139.31873883},{"name":"八王子駅入口東","province":"東京都","city":"八王子市","address":"東京都八王子市新町1-8","lat":35.65984587,"lon":139.34042829},{"name":"八王子第七小学校前","province":"東京都","city":"八王子市","address":"東京都八王子市台町4丁目11-10","lat":35.65730679,"lon":139.32263548},{"name":"富士森公園北","province":"東京都","city":"八王子市","address":"東京都八王子市台町2丁目2","lat":35.65092139,"lon":139.3227357},{"name":"南多摩中等教育学校前","province":"東京都","city":"八王子市","address":"東京都八王子市明神町4丁目14-1","lat":35.65986257,"lon":139.34233369},{"name":"八王子駅前郵便局西","province":"東京都","city":"八王子市","address":"東京都八王子市東町12-1","lat":35.65783215,"lon":139.33818134},{"name":"八王子駅北口西","province":"東京都","city":"八王子市","address":"東京都八王子市旭町8-1","lat":35.65731832,"lon":139.33811748},{"name":"八王子東町","province":"東京都","city":"八王子市","address":"東京都八王子市東町7-6","lat":35.65814881,"lon":139.33966453},{"name":"富士森交番前","province":"東京都","city":"八王子市","address":"東京都八王子市上野町27-3","lat":35.65389897,"lon":139.32782127},{"name":"大谷団地入口","province":"東京都","city":"八王子市","address":"東京都八王子市大和田町4丁目23-9","lat":35.66808413,"lon":139.35391853},{"name":"京王八王子駅前","province":"東京都","city":"八王子市","address":"東京都八王子市明神町4丁目6-1","lat":35.65826,"lon":139.34300868},{"name":"京王八王子駅前第二","province":"東京都","city":"八王子市","address":"東京都八王子市明神町4丁目6-3","lat":35.65842386,"lon":139.34279481},{"name":"八王子駅入口南","province":"東京都","city":"八王子市","address":"東京都八王子市東町5-7","lat":35.65864875,"lon":139.33964784},{"name":"八王子駅入口西","province":"東京都","city":"八王子市","address":"東京都八王子市横山町23-4","lat":35.66005412,"lon":139.3385229},{"name":"富士森公園前","province":"東京都","city":"八王子市","address":"東京都八王子市台町2丁目2","lat":35.65092139,"lon":139.3227357},{"name":"子安町四丁目","province":"東京都","city":"八王子市","address":"東京都八王子市万町20-1","lat":35.65411025,"lon":139.33407073},{"name":"八王子駅南口","province":"東京都","city":"八王子市","address":"東京都八王子市子安町4丁目7-1","lat":35.65469915,"lon":139.33750651},{"name":"新町西","province":"東京都","city":"八王子市","address":"東京都八王子市元横山町2丁目2-2","lat":35.66178729,"lon":139.33972273},{"name":"八王子市役所入口","province":"東京都","city":"八王子市","address":"東京都八王子市元本郷町3丁目17-8","lat":35.66534737,"lon":139.31497475},{"name":"八王子駅入口北","province":"東京都","city":"八王子市","address":"東京都八王子市横山町25-9","lat":35.660443,"lon":139.33963945},{"name":"八王子中町第三","province":"東京都","city":"八王子市","address":"東京都八王子市中町9","lat":35.65870975,"lon":139.33507325},{"name":"八王子簡易裁判所南","province":"東京都","city":"八王子市","address":"東京都八王子市明神町4丁目21-2","lat":35.65993763,"lon":139.34502511},{"name":"千人町三丁目","province":"東京都","city":"八王子市","address":"東京都八王子市千人町3丁目18-24","lat":35.6566482,"lon":139.31039766},{"name":"八王子市役所北","province":"東京都","city":"八王子市","address":"東京都八王子市中野上町4丁目22-1","lat":35.6711079,"lon":139.31721325},{"name":"八王子市役所前","province":"東京都","city":"八王子市","address":"東京都八王子市元本郷町4丁目20-24","lat":35.66620005,"lon":139.31488862},{"name":"浅川大橋南第二","province":"東京都","city":"八王子市","address":"東京都八王子市元横山町2丁目2-9","lat":35.66214002,"lon":139.33942274},{"name":"山田駅前","province":"東京都","city":"八王子市","address":"東京都八王子市緑町604","lat":35.64455819,"lon":139.32176934},{"name":"八王子駅南口西","province":"東京都","city":"八王子市","address":"東京都八王子市子安町4丁目7-1","lat":35.65469915,"lon":139.33750651},{"name":"八王子盲学校正門前","province":"東京都","city":"八王子市","address":"東京都八王子市台町3丁目19-22","lat":35.65600685,"lon":139.3194108},{"name":"八王子盲学校北","province":"東京都","city":"八王子市","address":"東京都八王子市台町4丁目29-1","lat":35.65795942,"lon":139.31949961},{"name":"子安町四丁目東","province":"東京都","city":"八王子市","address":"東京都八王子市子安町4丁目6-5","lat":35.6544797,"lon":139.33627885},{"name":"大竹学園前","province":"東京都","city":"八王子市","address":"東京都八王子市台町3丁目29-19","lat":35.65631507,"lon":139.31671657},{"name":"八王子盲学校西","province":"東京都","city":"八王子市","address":"東京都八王子市台町4丁目31-6","lat":35.65674842,"lon":139.31899692},{"name":"信松院西","province":"東京都","city":"八王子市","address":"東京都八王子市台町3丁目19-28","lat":35.65657347,"lon":139.32051624},{"name":"富士森公園南","province":"東京都","city":"八王子市","address":"東京都八王子市台町2丁目7-24","lat":35.64913268,"lon":139.32186917},{"name":"ハローワーク八王子","province":"東京都","city":"八王子市","address":"東京都八王子市子安町1丁目8-12","lat":35.65353825,"lon":139.34045629}]}