{"keyword":"館","data":[{"name":"南大谷児童館","province":"東京都","city":"八王子市","address":"八王子市大谷町46-1","lat":35.669334,"lon":139.353716},{"name":"中野児童館","province":"東京都","city":"八王子市","address":"八王子市中野山王3-6-27","lat":35.674569,"lon":139.32536},{"name":"松が谷児童館鹿島分館","province":"東京都","city":"八王子市","address":"八王子市鹿島2","lat":35.633018,"lon":139.426711},{"name":"松が谷児童館","province":"東京都","city":"八王子市","address":"八王子市松が谷13","lat":35.629348,"lon":139.413932},{"name":"由木児童館","province":"東京都","city":"八王子市","address":"八王子市越野692-1","lat":35.629367,"lon":139.384378},{"name":"北野児童館","province":"東京都","city":"八王子市","address":"八王子市北野町549-9","lat":35.646448,"lon":139.353075},{"name":"川口児童館","province":"東京都","city":"八王子市","address":"八王子市川口町3974","lat":35.692682,"lon":139.282171},{"name":"元八王子児童館","province":"東京都","city":"八王子市","address":"八王子市大楽寺町508-3","lat":35.671755,"lon":139.29654},{"name":"中郷児童館","province":"東京都","city":"八王子市","address":"八王子市長房町891-2","lat":35.65349,"lon":139.290694},{"name":"中郷児童館長房分館","province":"東京都","city":"八王子市","address":"八王子市長房町341","lat":35.65612,"lon":139.297399},{"name":"浅川児童館","province":"東京都","city":"八王子市","address":"八王子市初沢町1323","lat":35.639241,"lon":139.28184},{"name":"館ケ丘児童館","province":"東京都","city":"八王子市","address":"八王子市館町1097-57","lat":35.628235,"lon":139.287715},{"name":"八王子市中央図書館","province":"東京都","city":"八王子市","address":"東京都八王子市千人町三丁目3-6","lat":35.657197,"lon":139.310544},{"name":"八王子市生涯学習センター図書館","province":"東京都","city":"八王子市","address":"東京都八王子市東町5-6","lat":36.65856,"lon":139.3398},{"name":"八王子市南大沢図書館","province":"東京都","city":"八王子市","address":"東京都八王子市南大沢2丁目27フレスコ南大沢内","lat":35.657197,"lon":139.310544},{"name":"八王子市川口図書館","province":"東京都","city":"八王子市","address":"東京都八王子市川口町3838川口やまゆり館内","lat":35.686461,"lon":139.299454},{"name":"八王子市由木中央市民センター図書館","province":"東京都","city":"八王子市","address":"東京都八王子市下柚木二丁目10-6由木中央市民センター内","lat":35.627101,"lon":139.382633},{"name":"八王子市恩方市民センター図書館","province":"東京都","city":"八王子市","address":"東京都八王子市西寺方町260-4恩方市民センター内","lat":35.674141,"lon":139.268745},{"name":"八王子市由井市民センターみなみ野図書館","province":"東京都","city":"八王子市","address":"東京都八王子市みなみ野一丁目7-1片柳学園第3学生会館2階","lat":35.632492,"lon":139.328193},{"name":"八王子市北野市民センター図書館","province":"東京都","city":"八王子市","address":"東京都八王子市北野町545-3きたのタウンビル7階","lat":35.64523,"lon":139.354574},{"name":"八王子市石川市民センター図書館","province":"東京都","city":"八王子市","address":"東京都八王子市石川町438石川市民センター内","lat":35.680378,"lon":139.364512},{"name":"南大谷児童館","province":"東京都","city":"八王子市","address":"八王子市大谷町46-1","lat":35.66929,"lon":139.3537},{"name":"中野児童館","province":"東京都","city":"八王子市","address":"八王子市中野山王3-6-27","lat":35.67445,"lon":139.32471},{"name":"松が谷児童館鹿島分館","province":"東京都","city":"八王子市","address":"八王子市鹿島2","lat":35.63253,"lon":139.42668},{"name":"松が谷児童館","province":"東京都","city":"八王子市","address":"八王子市松が谷13","lat":35.62923,"lon":139.41422},{"name":"由木児童館","province":"東京都","city":"八王子市","address":"八王子市越野692-1","lat":35.62955,"lon":139.38437},{"name":"北野児童館","province":"東京都","city":"八王子市","address":"八王子市北野町549-9","lat":35.64614,"lon":139.35321},{"name":"川口児童館","province":"東京都","city":"八王子市","address":"八王子市川口町3974","lat":35.69294,"lon":139.28227},{"name":"元八王子児童館","province":"東京都","city":"八王子市","address":"八王子市大楽寺町508-3","lat":35.67197,"lon":139.29648},{"name":"中郷児童館長房分館","province":"東京都","city":"八王子市","address":"八王子市長房町341","lat":35.65749,"lon":139.29739},{"name":"中郷児童館","province":"東京都","city":"八王子市","address":"八王子市長房町891-2","lat":35.65393,"lon":139.29031},{"name":"浅川児童館","province":"東京都","city":"八王子市","address":"八王子市初沢町1323","lat":35.63897,"lon":139.28186},{"name":"館ケ丘児童館","province":"東京都","city":"八王子市","address":"八王子市館町1097-57","lat":35.62996,"lon":139.28412},{"name":"由木児童館","province":"東京都","city":"八王子市","address":"八王子市越野692-1","lat":35.62956,"lon":139.38437},{"name":"＊?中央図書館","province":"東京都","city":"八王子市","address":"八王子市千人町3-3-6","lat":35.657252,"lon":139.310429},{"name":"＊?生涯学習センター図書館","province":"東京都","city":"八王子市","address":"八王子市東町5-6","lat":35.658531,"lon":139.339976},{"name":"＊?南大沢図書館","province":"東京都","city":"八王子市","address":"八王子市南大沢2-27","lat":35.611658,"lon":139.379434},{"name":"＊?川口図書館","province":"東京都","city":"八王子市","address":"八王子市川口町3838","lat":35.686523,"lon":139.299031},{"name":"＊?中央図書館北野分室","province":"東京都","city":"八王子市","address":"八王子市北野町545-3","lat":35.645539,"lon":139.354839},{"name":"＊?中央図書館みなみ野分室","province":"東京都","city":"八王子市","address":"八王子市みなみ野1-7-1片柳学園第3学生会館2階","lat":35.632475,"lon":139.328288}]}