{"keyword":"相談","data":[{"name":"東京都児童相談センター","province":"東京都","city":"新宿区","address":"新宿区北新宿4-6-1","lat":35.708274,"lon":139.693808},{"name":"東京都江東児童相談所","province":"東京都","city":"江東区","address":"江東区枝川3-6-9","lat":35.658677,"lon":139.81066},{"name":"東京都品川児童相談所","province":"東京都","city":"品川区","address":"品川区北品川3-7-21","lat":35.617874,"lon":139.740343},{"name":"東京都世田谷児童相談所","province":"東京都","city":"世田谷区","address":"世田谷区桜丘5-28-12","lat":35.643557,"lon":139.619769},{"name":"東京都杉並児童相談所","province":"東京都","city":"杉並区","address":"杉並区南荻窪4-23-6","lat":35.701142,"lon":139.615026},{"name":"東京都北児童相談所","province":"東京都","city":"北区","address":"北区王子6-1-12","lat":35.761278,"lon":139.738885},{"name":"東京都足立児童相談所","province":"東京都","city":"足立区","address":"足立区西新井本町3-8-4","lat":35.775519,"lon":139.776267},{"name":"東京都八王子児童相談所","province":"東京都","city":"八王子市","address":"八王子市台町2-7-13","lat":35.648952,"lon":139.320525},{"name":"東京都立川児童相談所","province":"東京都","city":"立川市","address":"立川市曙町3-10-19","lat":35.700632,"lon":139.428967},{"name":"東京都小平児童相談所","province":"東京都","city":"小平市","address":"小平市花小金井1-31-24","lat":35.730062,"lon":139.516688},{"name":"東京都多摩児童相談所","province":"東京都","city":"多摩市","address":"多摩市諏訪2-6","lat":35.627772,"lon":139.451659},{"name":"東京都足立児童相談所","province":"東京都","city":"足立区","address":"足立区江北3-8-12(平成30年12月3日に移転しました)","lat":35.773132,"lon":139.762421},{"name":"東京都八王子児童相談所","province":"東京都","city":"八王子市","address":"八王子市台町3-17-30","lat":35.654816,"lon":139.321991},{"name":"光が丘保健相談所","province":"東京都","city":"練馬区","address":"練馬区光が丘2-9-6","lat":35.75938724,"lon":139.6294721},{"name":"石神井保健相談所","province":"東京都","city":"練馬区","address":"練馬区石神井町7-3-28","lat":35.74460735,"lon":139.6013376},{"name":"大泉保健相談所","province":"東京都","city":"練馬区","address":"練馬区大泉学園町5-8-8","lat":35.76709489,"lon":139.5864916},{"name":"豊玉保健相談所","province":"東京都","city":"練馬区","address":"練馬区豊玉北5-15-19","lat":35.73588948,"lon":139.6549919},{"name":"関保健相談所","province":"東京都","city":"練馬区","address":"練馬区関町東1-27-4","lat":35.72641435,"lon":139.5813846},{"name":"港区児童相談所","province":"東京都","city":"港区","address":"港区南青山5-7-11","lat":35.66269,"lon":139.71281},{"name":"東京都児童相談センター","province":"東京都","city":"新宿区","address":"新宿区北新宿4-6-1","lat":35.7081,"lon":139.69383},{"name":"東京都江東児童相談所","province":"東京都","city":"江東区","address":"江東区枝川3-6-9","lat":35.65856,"lon":139.81053},{"name":"東京都品川児童相談所","province":"東京都","city":"品川区","address":"品川区北品川3-7-21","lat":35.61713,"lon":139.7392},{"name":"世田谷区児童相談所","province":"東京都","city":"世田谷区","address":"世田谷区松原6-41-7","lat":35.65681,"lon":139.64966},{"name":"中野区児童相談所","province":"東京都","city":"中野区","address":"中野区中央1-41-2","lat":35.69867,"lon":139.68387},{"name":"東京都杉並児童相談所","province":"東京都","city":"杉並区","address":"杉並区南荻窪4-23-6","lat":35.7012,"lon":139.61522},{"name":"豊島区児童相談所","province":"東京都","city":"豊島区","address":"豊島区長崎3-6-24","lat":35.72884,"lon":139.68799},{"name":"東京都北児童相談所","province":"東京都","city":"北区","address":"北区王子6-1-12","lat":35.76057,"lon":139.7392},{"name":"荒川区子ども家庭総合センター","province":"東京都","city":"荒川区","address":"荒川区荒川1-50-17","lat":35.73388,"lon":139.78474},{"name":"板橋区子ども家庭総合支援センター","province":"東京都","city":"板橋区","address":"板橋区本町24-17","lat":35.75935,"lon":139.70844},{"name":"東京都足立児童相談所","province":"東京都","city":"足立区","address":"足立区西新井本町3-8-4","lat":35.77607,"lon":139.77638},{"name":"葛飾区児童相談所","province":"東京都","city":"葛飾区","address":"葛飾区立石2-30-1","lat":35.7404419,"lon":139.841239},{"name":"江戸川区児童相談所","province":"東京都","city":"江戸川区","address":"江戸川区中央3-4-18","lat":35.71037,"lon":139.8714},{"name":"東京都八王子児童相談所","province":"東京都","city":"八王子市","address":"八王子市台町3-17-30","lat":35.65511,"lon":139.32129},{"name":"東京都立川児童相談所","province":"東京都","city":"立川市","address":"立川市柴崎町2-21-19","lat":35.69401,"lon":139.40842},{"name":"東京都小平児童相談所","province":"東京都","city":"小平市","address":"小平市花小金井1-31-24","lat":35.72992,"lon":139.51636},{"name":"東京都多摩児童相談所","province":"東京都","city":"多摩市","address":"多摩市諏訪2-6","lat":35.62797,"lon":139.45168},{"name":"東京都足立児童相談所","province":"東京都","city":"足立区","address":"足立区江北3-8-12","lat":35.77313,"lon":139.76242},{"name":"東京都品川児童相談所","province":"東京都","city":"品川区","address":"品川区北品川3-7-21","lat":35.61787,"lon":139.74064},{"name":"世田谷区児童相談所","province":"東京都","city":"世田谷区","address":"世田谷区松原6-41-7","lat":35.65682,"lon":139.64966},{"name":"東京都北児童相談所","province":"東京都","city":"北区","address":"北区王子6-1-12","lat":35.76151,"lon":139.73883}]}