{"keyword":"スモッグ","data":[{"name":"明治公園","province":"東京都","city":"渋谷区","address":"東京都渋谷区千駄ヶ谷一丁目","lat":33.588397,"lon":130.416439},{"name":"代々木公園","province":"東京都","city":"渋谷区","address":"東京都渋谷区代々木神園町、神南二丁目","lat":35.671736,"lon":139.694945},{"name":"都立代々木公園競技場（織田フィールド）","province":"東京都","city":"渋谷区","address":"東京都渋谷区神南2丁目3-1","lat":35.66632898,"lon":139.69484253},{"name":"渋谷区立スポーツセンター","province":"東京都","city":"渋谷区","address":"東京都渋谷区西原1丁目40-18","lat":35.67556369,"lon":139.68096562},{"name":"都立広尾病院ヘリポート","province":"東京都","city":"渋谷区","address":"東京都渋谷区恵比寿2丁目34-10","lat":35.64707054,"lon":139.72073544},{"name":"日本赤十字社医療センターヘリポート","province":"東京都","city":"渋谷区","address":"東京都渋谷区広尾4丁目1-22","lat":35.65443909,"lon":139.71794375},{"name":"(株)中田","province":"東京都","city":"渋谷区","address":"渋谷区恵比寿西2-6-6","lat":35.65123,"lon":139.706802},{"name":"(株)平松商店","province":"東京都","city":"渋谷区","address":"渋谷区幡ケ谷2-42-5","lat":35.678211,"lon":139.67424},{"name":"明治公園","province":"東京都","city":"渋谷区","address":"東京都渋谷区千駄ヶ谷一丁目","lat":33.588397,"lon":130.416439},{"name":"代々木公園","province":"東京都","city":"渋谷区","address":"東京都渋谷区代々木神園町、神南二丁目","lat":35.671736,"lon":139.694945},{"name":"(株)中田","province":"東京都","city":"渋谷区","address":"渋谷区恵比寿西2-6-6","lat":35.65123,"lon":139.706802},{"name":"(株)平松商店","province":"東京都","city":"渋谷区","address":"渋谷区幡ケ谷2-42-5","lat":35.678211,"lon":139.67424},{"name":"明治公園","province":"東京都","city":"渋谷区","address":"東京都渋谷区千駄ヶ谷一丁目","lat":33.588397,"lon":130.416439},{"name":"代々木公園","province":"東京都","city":"渋谷区","address":"東京都渋谷区代々木神園町、神南二丁目","lat":35.671736,"lon":139.694945},{"name":"(株)中田","province":"東京都","city":"渋谷区","address":"渋谷区恵比寿西2-6-6","lat":35.65123,"lon":139.706802},{"name":"(株)平松商店","province":"東京都","city":"渋谷区","address":"渋谷区幡ケ谷2-42-5","lat":35.678211,"lon":139.67424},{"name":"明治公園","province":"東京都","city":"渋谷区","address":"東京都渋谷区千駄ヶ谷一丁目","lat":33.588397,"lon":130.416439},{"name":"代々木公園","province":"東京都","city":"渋谷区","address":"東京都渋谷区代々木神園町、神南二丁目","lat":35.671736,"lon":139.694945},{"name":"(株)中田","province":"東京都","city":"渋谷区","address":"渋谷区恵比寿西2-6-6","lat":35.65123,"lon":139.706802},{"name":"(株)平松商店","province":"東京都","city":"渋谷区","address":"渋谷区幡ケ谷2-42-5","lat":35.678211,"lon":139.67424},{"name":"明治公園","province":"東京都","city":"渋谷区","address":"東京都渋谷区千駄ヶ谷一丁目","lat":33.588397,"lon":130.416439},{"name":"代々木公園","province":"東京都","city":"渋谷区","address":"東京都渋谷区代々木神園町、神南二丁目","lat":35.671736,"lon":139.694945},{"name":"(株)中田","province":"東京都","city":"渋谷区","address":"渋谷区恵比寿西2-6-6","lat":35.65123,"lon":139.706802},{"name":"(株)平松商店","province":"東京都","city":"渋谷区","address":"渋谷区幡ケ谷2-42-5","lat":35.678211,"lon":139.67424},{"name":"明治公園","province":"東京都","city":"渋谷区","address":"東京都渋谷区千駄ヶ谷一丁目","lat":33.588397,"lon":130.416439},{"name":"代々木公園","province":"東京都","city":"渋谷区","address":"東京都渋谷区代々木神園町、神南二丁目","lat":35.671736,"lon":139.694945},{"name":"(株)中田","province":"東京都","city":"渋谷区","address":"渋谷区恵比寿西2-6-6","lat":35.65123,"lon":139.706802},{"name":"(株)平松商店","province":"東京都","city":"渋谷区","address":"渋谷区幡ケ谷2-42-5","lat":35.678211,"lon":139.67424},{"name":"明治公園","province":"東京都","city":"渋谷区","address":"東京都渋谷区千駄ヶ谷一丁目","lat":33.588397,"lon":130.416439},{"name":"代々木公園","province":"東京都","city":"渋谷区","address":"東京都渋谷区代々木神園町、神南二丁目","lat":35.671736,"lon":139.694945},{"name":"(株)中田","province":"東京都","city":"渋谷区","address":"渋谷区恵比寿西2-6-6","lat":35.65123,"lon":139.706802},{"name":"(株)平松商店","province":"東京都","city":"渋谷区","address":"渋谷区幡ケ谷2-42-5","lat":35.678211,"lon":139.67424},{"name":"明治公園","province":"東京都","city":"渋谷区","address":"東京都渋谷区千駄ヶ谷一丁目","lat":33.588397,"lon":130.416439},{"name":"代々木公園","province":"東京都","city":"渋谷区","address":"東京都渋谷区代々木神園町、神南二丁目","lat":35.671736,"lon":139.694945},{"name":"(株)中田","province":"東京都","city":"渋谷区","address":"渋谷区恵比寿西2-6-6","lat":35.65123,"lon":139.706802},{"name":"(株)平松商店","province":"東京都","city":"渋谷区","address":"渋谷区幡ケ谷2-42-5","lat":35.678211,"lon":139.67424},{"name":"明治公園","province":"東京都","city":"渋谷区","address":"東京都渋谷区千駄ヶ谷一丁目","lat":33.588397,"lon":130.416439},{"name":"代々木公園","province":"東京都","city":"渋谷区","address":"東京都渋谷区代々木神園町、神南二丁目","lat":35.671736,"lon":139.694945},{"name":"(株)中田","province":"東京都","city":"渋谷区","address":"渋谷区恵比寿西2-6-6","lat":35.65123,"lon":139.706802},{"name":"(株)平松商店","province":"東京都","city":"渋谷区","address":"渋谷区幡ケ谷2-42-5","lat":35.678211,"lon":139.67424},{"name":"明治公園","province":"東京都","city":"渋谷区","address":"東京都渋谷区千駄ヶ谷一丁目","lat":33.588397,"lon":130.416439},{"name":"代々木公園","province":"東京都","city":"渋谷区","address":"東京都渋谷区代々木神園町、神南二丁目","lat":35.671736,"lon":139.694945},{"name":"(株)中田","province":"東京都","city":"渋谷区","address":"渋谷区恵比寿西2-6-6","lat":35.65123,"lon":139.706802},{"name":"(株)平松商店","province":"東京都","city":"渋谷区","address":"渋谷区幡ケ谷2-42-5","lat":35.678211,"lon":139.67424},{"name":"明治公園","province":"東京都","city":"渋谷区","address":"東京都渋谷区千駄ヶ谷一丁目","lat":33.588397,"lon":130.416439},{"name":"代々木公園","province":"東京都","city":"渋谷区","address":"東京都渋谷区代々木神園町、神南二丁目","lat":35.671736,"lon":139.694945},{"name":"(株)中田","province":"東京都","city":"渋谷区","address":"渋谷区恵比寿西2-6-6","lat":35.65123,"lon":139.706802},{"name":"(株)平松商店","province":"東京都","city":"渋谷区","address":"渋谷区幡ケ谷2-42-5","lat":35.678211,"lon":139.67424},{"name":"明治公園","province":"東京都","city":"渋谷区","address":"東京都渋谷区千駄ヶ谷一丁目","lat":33.588397,"lon":130.416439},{"name":"代々木公園","province":"東京都","city":"渋谷区","address":"東京都渋谷区代々木神園町、神南二丁目","lat":35.671736,"lon":139.694945},{"name":"(株)中田","province":"東京都","city":"渋谷区","address":"渋谷区恵比寿西2-6-6","lat":35.65123,"lon":139.706802},{"name":"(株)平松商店","province":"東京都","city":"渋谷区","address":"渋谷区幡ケ谷2-42-5","lat":35.678211,"lon":139.67424},{"name":"明治公園","province":"東京都","city":"渋谷区","address":"東京都渋谷区千駄ヶ谷一丁目","lat":33.588397,"lon":130.416439},{"name":"代々木公園","province":"東京都","city":"渋谷区","address":"東京都渋谷区代々木神園町、神南二丁目","lat":35.671736,"lon":139.694945},{"name":"(株)中田","province":"東京都","city":"渋谷区","address":"渋谷区恵比寿西2-6-6","lat":35.65123,"lon":139.706802},{"name":"(株)平松商店","province":"東京都","city":"渋谷区","address":"渋谷区幡ケ谷2-42-5","lat":35.678211,"lon":139.67424},{"name":"明治公園","province":"東京都","city":"渋谷区","address":"東京都渋谷区千駄ヶ谷一丁目","lat":33.588397,"lon":130.416439},{"name":"代々木公園","province":"東京都","city":"渋谷区","address":"東京都渋谷区代々木神園町、神南二丁目","lat":35.671736,"lon":139.694945},{"name":"(株)中田","province":"東京都","city":"渋谷区","address":"渋谷区恵比寿西2-6-6","lat":35.65123,"lon":139.706802},{"name":"(株)平松商店","province":"東京都","city":"渋谷区","address":"渋谷区幡ケ谷2-42-5","lat":35.678211,"lon":139.67424},{"name":"明治公園","province":"東京都","city":"渋谷区","address":"東京都渋谷区千駄ヶ谷一丁目","lat":33.588397,"lon":130.416439},{"name":"代々木公園","province":"東京都","city":"渋谷区","address":"東京都渋谷区代々木神園町、神南二丁目","lat":35.671736,"lon":139.694945},{"name":"(株)中田","province":"東京都","city":"渋谷区","address":"渋谷区恵比寿西2-6-6","lat":35.65123,"lon":139.706802},{"name":"(株)平松商店","province":"東京都","city":"渋谷区","address":"渋谷区幡ケ谷2-42-5","lat":35.678211,"lon":139.67424},{"name":"明治公園","province":"東京都","city":"渋谷区","address":"東京都渋谷区千駄ヶ谷一丁目","lat":33.588397,"lon":130.416439},{"name":"代々木公園","province":"東京都","city":"渋谷区","address":"東京都渋谷区代々木神園町、神南二丁目","lat":35.671736,"lon":139.694945},{"name":"(株)中田","province":"東京都","city":"渋谷区","address":"渋谷区恵比寿西2-6-6","lat":35.65123,"lon":139.706802},{"name":"(株)平松商店","province":"東京都","city":"渋谷区","address":"渋谷区幡ケ谷2-42-5","lat":35.678211,"lon":139.67424},{"name":"明治公園","province":"東京都","city":"渋谷区","address":"東京都渋谷区千駄ヶ谷一丁目","lat":33.588397,"lon":130.416439},{"name":"代々木公園","province":"東京都","city":"渋谷区","address":"東京都渋谷区代々木神園町、神南二丁目","lat":35.671736,"lon":139.694945},{"name":"(株)中田","province":"東京都","city":"渋谷区","address":"渋谷区恵比寿西2-6-6","lat":35.65123,"lon":139.706802},{"name":"(株)平松商店","province":"東京都","city":"渋谷区","address":"渋谷区幡ケ谷2-42-5","lat":35.678211,"lon":139.67424},{"name":"明治公園","province":"東京都","city":"渋谷区","address":"東京都渋谷区千駄ヶ谷一丁目","lat":33.588397,"lon":130.416439},{"name":"代々木公園","province":"東京都","city":"渋谷区","address":"東京都渋谷区代々木神園町、神南二丁目","lat":35.671736,"lon":139.694945},{"name":"(株)中田","province":"東京都","city":"渋谷区","address":"渋谷区恵比寿西2-6-6","lat":35.65123,"lon":139.706802},{"name":"(株)平松商店","province":"東京都","city":"渋谷区","address":"渋谷区幡ケ谷2-42-5","lat":35.678211,"lon":139.67424},{"name":"明治公園","province":"東京都","city":"渋谷区","address":"東京都渋谷区千駄ヶ谷一丁目","lat":33.588397,"lon":130.416439},{"name":"代々木公園","province":"東京都","city":"渋谷区","address":"東京都渋谷区代々木神園町、神南二丁目","lat":35.671736,"lon":139.694945},{"name":"(株)中田","province":"東京都","city":"渋谷区","address":"渋谷区恵比寿西2-6-6","lat":35.65123,"lon":139.706802},{"name":"(株)平松商店","province":"東京都","city":"渋谷区","address":"渋谷区幡ケ谷2-42-5","lat":35.678211,"lon":139.67424},{"name":"明治公園","province":"東京都","city":"渋谷区","address":"東京都渋谷区千駄ヶ谷一丁目","lat":33.588397,"lon":130.416439},{"name":"代々木公園","province":"東京都","city":"渋谷区","address":"東京都渋谷区代々木神園町、神南二丁目","lat":35.671736,"lon":139.694945},{"name":"(株)中田","province":"東京都","city":"渋谷区","address":"渋谷区恵比寿西2-6-6","lat":35.65123,"lon":139.706802},{"name":"(株)平松商店","province":"東京都","city":"渋谷区","address":"渋谷区幡ケ谷2-42-5","lat":35.678211,"lon":139.67424},{"name":"明治公園","province":"東京都","city":"渋谷区","address":"東京都渋谷区千駄ヶ谷一丁目","lat":33.588397,"lon":130.416439},{"name":"代々木公園","province":"東京都","city":"渋谷区","address":"東京都渋谷区代々木神園町、神南二丁目","lat":35.671736,"lon":139.694945},{"name":"(株)中田","province":"東京都","city":"渋谷区","address":"渋谷区恵比寿西2-6-6","lat":35.65123,"lon":139.706802},{"name":"(株)平松商店","province":"東京都","city":"渋谷区","address":"渋谷区幡ケ谷2-42-5","lat":35.678211,"lon":139.67424},{"name":"明治公園","province":"東京都","city":"渋谷区","address":"東京都渋谷区千駄ヶ谷一丁目","lat":33.588397,"lon":130.416439},{"name":"代々木公園","province":"東京都","city":"渋谷区","address":"東京都渋谷区代々木神園町、神南二丁目","lat":35.671736,"lon":139.694945},{"name":"(株)中田","province":"東京都","city":"渋谷区","address":"渋谷区恵比寿西2-6-6","lat":35.65123,"lon":139.706802},{"name":"(株)平松商店","province":"東京都","city":"渋谷区","address":"渋谷区幡ケ谷2-42-5","lat":35.678211,"lon":139.67424},{"name":"明治公園","province":"東京都","city":"渋谷区","address":"東京都渋谷区千駄ヶ谷一丁目","lat":33.588397,"lon":130.416439},{"name":"代々木公園","province":"東京都","city":"渋谷区","address":"東京都渋谷区代々木神園町、神南二丁目","lat":35.671736,"lon":139.694945},{"name":"(株)中田","province":"東京都","city":"渋谷区","address":"渋谷区恵比寿西2-6-6","lat":35.65123,"lon":139.706802},{"name":"(株)平松商店","province":"東京都","city":"渋谷区","address":"渋谷区幡ケ谷2-42-5","lat":35.678211,"lon":139.67424},{"name":"明治公園","province":"東京都","city":"渋谷区","address":"東京都渋谷区千駄ヶ谷一丁目","lat":33.588397,"lon":130.416439},{"name":"代々木公園","province":"東京都","city":"渋谷区","address":"東京都渋谷区代々木神園町、神南二丁目","lat":35.671736,"lon":139.694945},{"name":"(株)中田","province":"東京都","city":"渋谷区","address":"渋谷区恵比寿西2-6-6","lat":35.65123,"lon":139.706802},{"name":"(株)平松商店","province":"東京都","city":"渋谷区","address":"渋谷区幡ケ谷2-42-5","lat":35.678211,"lon":139.67424},{"name":"明治公園","province":"東京都","city":"渋谷区","address":"東京都渋谷区千駄ヶ谷一丁目","lat":33.588397,"lon":130.416439},{"name":"代々木公園","province":"東京都","city":"渋谷区","address":"東京都渋谷区代々木神園町、神南二丁目","lat":35.671736,"lon":139.694945},{"name":"(株)中田","province":"東京都","city":"渋谷区","address":"渋谷区恵比寿西2-6-6","lat":35.65123,"lon":139.706802},{"name":"(株)平松商店","province":"東京都","city":"渋谷区","address":"渋谷区幡ケ谷2-42-5","lat":35.678211,"lon":139.67424},{"name":"明治公園","province":"東京都","city":"渋谷区","address":"東京都渋谷区千駄ヶ谷一丁目","lat":33.588397,"lon":130.416439},{"name":"代々木公園","province":"東京都","city":"渋谷区","address":"東京都渋谷区代々木神園町、神南二丁目","lat":35.671736,"lon":139.694945},{"name":"(株)中田","province":"東京都","city":"渋谷区","address":"渋谷区恵比寿西2-6-6","lat":35.65123,"lon":139.706802},{"name":"(株)平松商店","province":"東京都","city":"渋谷区","address":"渋谷区幡ケ谷2-42-5","lat":35.678211,"lon":139.67424},{"name":"明治公園","province":"東京都","city":"渋谷区","address":"東京都渋谷区千駄ヶ谷一丁目","lat":33.588397,"lon":130.416439},{"name":"代々木公園","province":"東京都","city":"渋谷区","address":"東京都渋谷区代々木神園町、神南二丁目","lat":35.671736,"lon":139.694945},{"name":"(株)中田","province":"東京都","city":"渋谷区","address":"渋谷区恵比寿西2-6-6","lat":35.65123,"lon":139.706802},{"name":"(株)平松商店","province":"東京都","city":"渋谷区","address":"渋谷区幡ケ谷2-42-5","lat":35.678211,"lon":139.67424},{"name":"明治公園","province":"東京都","city":"渋谷区","address":"東京都渋谷区千駄ヶ谷一丁目","lat":33.588397,"lon":130.416439},{"name":"代々木公園","province":"東京都","city":"渋谷区","address":"東京都渋谷区代々木神園町、神南二丁目","lat":35.671736,"lon":139.694945},{"name":"(株)中田","province":"東京都","city":"渋谷区","address":"渋谷区恵比寿西2-6-6","lat":35.65123,"lon":139.706802},{"name":"(株)平松商店","province":"東京都","city":"渋谷区","address":"渋谷区幡ケ谷2-42-5","lat":35.678211,"lon":139.67424},{"name":"明治公園","province":"東京都","city":"渋谷区","address":"東京都渋谷区千駄ヶ谷一丁目","lat":33.588397,"lon":130.416439},{"name":"代々木公園","province":"東京都","city":"渋谷区","address":"東京都渋谷区代々木神園町、神南二丁目","lat":35.671736,"lon":139.694945},{"name":"(株)中田","province":"東京都","city":"渋谷区","address":"渋谷区恵比寿西2-6-6","lat":35.65123,"lon":139.706802},{"name":"(株)平松商店","province":"東京都","city":"渋谷区","address":"渋谷区幡ケ谷2-42-5","lat":35.678211,"lon":139.67424},{"name":"明治公園","province":"東京都","city":"渋谷区","address":"東京都渋谷区千駄ヶ谷一丁目","lat":33.588397,"lon":130.416439},{"name":"代々木公園","province":"東京都","city":"渋谷区","address":"東京都渋谷区代々木神園町、神南二丁目","lat":35.671736,"lon":139.694945},{"name":"(株)中田","province":"東京都","city":"渋谷区","address":"渋谷区恵比寿西2-6-6","lat":35.65123,"lon":139.706802},{"name":"(株)平松商店","province":"東京都","city":"渋谷区","address":"渋谷区幡ケ谷2-42-5","lat":35.678211,"lon":139.67424},{"name":"明治公園","province":"東京都","city":"渋谷区","address":"東京都渋谷区千駄ヶ谷一丁目","lat":33.588397,"lon":130.416439},{"name":"代々木公園","province":"東京都","city":"渋谷区","address":"東京都渋谷区代々木神園町、神南二丁目","lat":35.671736,"lon":139.694945},{"name":"(株)中田","province":"東京都","city":"渋谷区","address":"渋谷区恵比寿西2-6-6","lat":35.65123,"lon":139.706802},{"name":"(株)平松商店","province":"東京都","city":"渋谷区","address":"渋谷区幡ケ谷2-42-5","lat":35.678211,"lon":139.67424},{"name":"明治公園","province":"東京都","city":"渋谷区","address":"東京都渋谷区千駄ヶ谷一丁目","lat":33.588397,"lon":130.416439},{"name":"代々木公園","province":"東京都","city":"渋谷区","address":"東京都渋谷区代々木神園町、神南二丁目","lat":35.671736,"lon":139.694945},{"name":"(株)中田","province":"東京都","city":"渋谷区","address":"渋谷区恵比寿西2-6-6","lat":35.65123,"lon":139.706802},{"name":"(株)平松商店","province":"東京都","city":"渋谷区","address":"渋谷区幡ケ谷2-42-5","lat":35.678211,"lon":139.67424},{"name":"明治公園","province":"東京都","city":"渋谷区","address":"東京都渋谷区千駄ヶ谷一丁目","lat":33.588397,"lon":130.416439},{"name":"代々木公園","province":"東京都","city":"渋谷区","address":"東京都渋谷区代々木神園町、神南二丁目","lat":35.671736,"lon":139.694945},{"name":"(株)中田","province":"東京都","city":"渋谷区","address":"渋谷区恵比寿西2-6-6","lat":35.65123,"lon":139.706802},{"name":"(株)平松商店","province":"東京都","city":"渋谷区","address":"渋谷区幡ケ谷2-42-5","lat":35.678211,"lon":139.67424},{"name":"明治公園","province":"東京都","city":"渋谷区","address":"東京都渋谷区千駄ヶ谷一丁目","lat":33.588397,"lon":130.416439},{"name":"代々木公園","province":"東京都","city":"渋谷区","address":"東京都渋谷区代々木神園町、神南二丁目","lat":35.671736,"lon":139.694945},{"name":"(株)中田","province":"東京都","city":"渋谷区","address":"渋谷区恵比寿西2-6-6","lat":35.65123,"lon":139.706802},{"name":"(株)平松商店","province":"東京都","city":"渋谷区","address":"渋谷区幡ケ谷2-42-5","lat":35.678211,"lon":139.67424},{"name":"明治公園","province":"東京都","city":"渋谷区","address":"東京都渋谷区千駄ヶ谷一丁目","lat":33.588397,"lon":130.416439},{"name":"代々木公園","province":"東京都","city":"渋谷区","address":"東京都渋谷区代々木神園町、神南二丁目","lat":35.671736,"lon":139.694945},{"name":"(株)中田","province":"東京都","city":"渋谷区","address":"渋谷区恵比寿西2-6-6","lat":35.65123,"lon":139.706802},{"name":"(株)平松商店","province":"東京都","city":"渋谷区","address":"渋谷区幡ケ谷2-42-5","lat":35.678211,"lon":139.67424},{"name":"明治公園","province":"東京都","city":"渋谷区","address":"東京都渋谷区千駄ヶ谷一丁目","lat":33.588397,"lon":130.416439},{"name":"代々木公園","province":"東京都","city":"渋谷区","address":"東京都渋谷区代々木神園町、神南二丁目","lat":35.671736,"lon":139.694945},{"name":"(株)中田","province":"東京都","city":"渋谷区","address":"渋谷区恵比寿西2-6-6","lat":35.65123,"lon":139.706802},{"name":"(株)平松商店","province":"東京都","city":"渋谷区","address":"渋谷区幡ケ谷2-42-5","lat":35.678211,"lon":139.67424},{"name":"明治公園","province":"東京都","city":"渋谷区","address":"東京都渋谷区千駄ヶ谷一丁目","lat":33.588397,"lon":130.416439},{"name":"代々木公園","province":"東京都","city":"渋谷区","address":"東京都渋谷区代々木神園町、神南二丁目","lat":35.671736,"lon":139.694945},{"name":"(株)中田","province":"東京都","city":"渋谷区","address":"渋谷区恵比寿西2-6-6","lat":35.65123,"lon":139.706802},{"name":"(株)平松商店","province":"東京都","city":"渋谷区","address":"渋谷区幡ケ谷2-42-5","lat":35.678211,"lon":139.67424},{"name":"明治公園","province":"東京都","city":"渋谷区","address":"東京都渋谷区千駄ヶ谷一丁目","lat":33.588397,"lon":130.416439},{"name":"代々木公園","province":"東京都","city":"渋谷区","address":"東京都渋谷区代々木神園町、神南二丁目","lat":35.671736,"lon":139.694945},{"name":"(株)中田","province":"東京都","city":"渋谷区","address":"渋谷区恵比寿西2-6-6","lat":35.65123,"lon":139.706802},{"name":"(株)平松商店","province":"東京都","city":"渋谷区","address":"渋谷区幡ケ谷2-42-5","lat":35.678211,"lon":139.67424},{"name":"明治公園","province":"東京都","city":"渋谷区","address":"東京都渋谷区千駄ヶ谷一丁目","lat":33.588397,"lon":130.416439},{"name":"代々木公園","province":"東京都","city":"渋谷区","address":"東京都渋谷区代々木神園町、神南二丁目","lat":35.671736,"lon":139.694945},{"name":"(株)中田","province":"東京都","city":"渋谷区","address":"渋谷区恵比寿西2-6-6","lat":35.65123,"lon":139.706802},{"name":"(株)平松商店","province":"東京都","city":"渋谷区","address":"渋谷区幡ケ谷2-42-5","lat":35.678211,"lon":139.67424},{"name":"明治公園","province":"東京都","city":"渋谷区","address":"東京都渋谷区千駄ヶ谷一丁目","lat":33.588397,"lon":130.416439},{"name":"代々木公園","province":"東京都","city":"渋谷区","address":"東京都渋谷区代々木神園町、神南二丁目","lat":35.671736,"lon":139.694945},{"name":"(株)中田","province":"東京都","city":"渋谷区","address":"渋谷区恵比寿西2-6-6","lat":35.65123,"lon":139.706802},{"name":"(株)平松商店","province":"東京都","city":"渋谷区","address":"渋谷区幡ケ谷2-42-5","lat":35.678211,"lon":139.67424},{"name":"明治公園","province":"東京都","city":"渋谷区","address":"東京都渋谷区千駄ヶ谷一丁目","lat":33.588397,"lon":130.416439},{"name":"代々木公園","province":"東京都","city":"渋谷区","address":"東京都渋谷区代々木神園町、神南二丁目","lat":35.671736,"lon":139.694945},{"name":"(株)中田","province":"東京都","city":"渋谷区","address":"渋谷区恵比寿西2-6-6","lat":35.65123,"lon":139.706802},{"name":"(株)平松商店","province":"東京都","city":"渋谷区","address":"渋谷区幡ケ谷2-42-5","lat":35.678211,"lon":139.67424},{"name":"明治公園","province":"東京都","city":"渋谷区","address":"東京都渋谷区千駄ヶ谷一丁目","lat":33.588397,"lon":130.416439},{"name":"代々木公園","province":"東京都","city":"渋谷区","address":"東京都渋谷区代々木神園町、神南二丁目","lat":35.671736,"lon":139.694945},{"name":"(株)中田","province":"東京都","city":"渋谷区","address":"渋谷区恵比寿西2-6-6","lat":35.65123,"lon":139.706802},{"name":"(株)平松商店","province":"東京都","city":"渋谷区","address":"渋谷区幡ケ谷2-42-5","lat":35.678211,"lon":139.67424},{"name":"明治公園","province":"東京都","city":"渋谷区","address":"東京都渋谷区千駄ヶ谷一丁目","lat":33.588397,"lon":130.416439},{"name":"代々木公園","province":"東京都","city":"渋谷区","address":"東京都渋谷区代々木神園町、神南二丁目","lat":35.671736,"lon":139.694945},{"name":"(株)中田","province":"東京都","city":"渋谷区","address":"渋谷区恵比寿西2-6-6","lat":35.65123,"lon":139.706802},{"name":"(株)平松商店","province":"東京都","city":"渋谷区","address":"渋谷区幡ケ谷2-42-5","lat":35.678211,"lon":139.67424},{"name":"明治公園","province":"東京都","city":"渋谷区","address":"東京都渋谷区千駄ヶ谷一丁目","lat":33.588397,"lon":130.416439},{"name":"代々木公園","province":"東京都","city":"渋谷区","address":"東京都渋谷区代々木神園町、神南二丁目","lat":35.671736,"lon":139.694945},{"name":"(株)中田","province":"東京都","city":"渋谷区","address":"渋谷区恵比寿西2-6-6","lat":35.65123,"lon":139.706802},{"name":"(株)平松商店","province":"東京都","city":"渋谷区","address":"渋谷区幡ケ谷2-42-5","lat":35.678211,"lon":139.67424},{"name":"明治公園","province":"東京都","city":"渋谷区","address":"東京都渋谷区千駄ヶ谷一丁目","lat":33.588397,"lon":130.416439},{"name":"代々木公園","province":"東京都","city":"渋谷区","address":"東京都渋谷区代々木神園町、神南二丁目","lat":35.671736,"lon":139.694945},{"name":"(株)中田","province":"東京都","city":"渋谷区","address":"渋谷区恵比寿西2-6-6","lat":35.65123,"lon":139.706802},{"name":"(株)平松商店","province":"東京都","city":"渋谷区","address":"渋谷区幡ケ谷2-42-5","lat":35.678211,"lon":139.67424},{"name":"明治公園","province":"東京都","city":"渋谷区","address":"東京都渋谷区千駄ヶ谷一丁目","lat":33.588397,"lon":130.416439},{"name":"代々木公園","province":"東京都","city":"渋谷区","address":"東京都渋谷区代々木神園町、神南二丁目","lat":35.671736,"lon":139.694945},{"name":"(株)中田","province":"東京都","city":"渋谷区","address":"渋谷区恵比寿西2-6-6","lat":35.65123,"lon":139.706802},{"name":"(株)平松商店","province":"東京都","city":"渋谷区","address":"渋谷区幡ケ谷2-42-5","lat":35.678211,"lon":139.67424}]}