{"keyword":"ホタル","data":[{"name":"東京都赤十字血液センター渋谷供給出張所","province":"東京都","city":"渋谷区","address":"渋谷区鶯谷町2-16","lat":35.65398,"lon":139.7044},{"name":"東京都赤十字血液センター渋谷供給出張所","province":"東京都","city":"渋谷区","address":"渋谷区鶯谷町2-16","lat":35.65398,"lon":139.7044},{"name":"東京都赤十字血液センター渋谷供給出張所","province":"東京都","city":"渋谷区","address":"渋谷区鶯谷町2-16","lat":35.65398,"lon":139.7044},{"name":"東京都赤十字血液センター渋谷供給出張所","province":"東京都","city":"渋谷区","address":"渋谷区鶯谷町2-16","lat":35.65398,"lon":139.7044},{"name":"東京都赤十字血液センター渋谷供給出張所","province":"東京都","city":"渋谷区","address":"渋谷区鶯谷町2-16","lat":35.65398,"lon":139.7044},{"name":"東京都赤十字血液センター渋谷供給出張所","province":"東京都","city":"渋谷区","address":"渋谷区鶯谷町2-16","lat":35.65398,"lon":139.7044},{"name":"東京都赤十字血液センター渋谷供給出張所","province":"東京都","city":"渋谷区","address":"渋谷区鶯谷町2-16","lat":35.65398,"lon":139.7044},{"name":"東京都赤十字血液センター渋谷供給出張所","province":"東京都","city":"渋谷区","address":"渋谷区鶯谷町2-16","lat":35.65398,"lon":139.7044},{"name":"東京都赤十字血液センター渋谷供給出張所","province":"東京都","city":"渋谷区","address":"渋谷区鶯谷町2-16","lat":35.65398,"lon":139.7044}]}