{"keyword":"メール","data":[{"name":"東京ウィメンズプラザ","province":"東京都","city":"渋谷区","address":"東京都渋谷区神宮前5丁目53-67","lat":35.662788,"lon":139.70793876},{"name":"青山高等学校","province":"東京都","city":"渋谷区","address":"東京都渋谷区神宮前2丁目1-8","lat":35.67270374,"lon":139.71607374},{"name":"広尾高等学校","province":"東京都","city":"渋谷区","address":"東京都渋谷区東4丁目14-14","lat":35.65287808,"lon":139.71284984},{"name":"第一商業高等学校","province":"東京都","city":"渋谷区","address":"東京都渋谷区鉢山町8-1","lat":35.65016143,"lon":139.6985845},{"name":"東京消防庁消防学校","province":"東京都","city":"渋谷区","address":"東京都渋谷区西原2丁目51-1","lat":35.67232498,"lon":139.67333307},{"name":"東京ウィメンズプラザ","province":"東京都","city":"渋谷区","address":"東京都渋谷区神宮前5丁目53-67","lat":35.662788,"lon":139.70793876},{"name":"青山高等学校","province":"東京都","city":"渋谷区","address":"東京都渋谷区神宮前2丁目1-8","lat":35.67270374,"lon":139.71607374},{"name":"広尾高等学校","province":"東京都","city":"渋谷区","address":"東京都渋谷区東4丁目14-14","lat":35.65287808,"lon":139.71284984},{"name":"第一商業高等学校","province":"東京都","city":"渋谷区","address":"東京都渋谷区鉢山町8-1","lat":35.65016143,"lon":139.6985845},{"name":"東京消防庁消防学校","province":"東京都","city":"渋谷区","address":"東京都渋谷区西原2丁目51-1","lat":35.67232498,"lon":139.67333307},{"name":"東京ウィメンズプラザ","province":"東京都","city":"渋谷区","address":"東京都渋谷区神宮前5丁目53-67","lat":35.662788,"lon":139.70793876},{"name":"青山高等学校","province":"東京都","city":"渋谷区","address":"東京都渋谷区神宮前2丁目1-8","lat":35.67270374,"lon":139.71607374},{"name":"広尾高等学校","province":"東京都","city":"渋谷区","address":"東京都渋谷区東4丁目14-14","lat":35.65287808,"lon":139.71284984},{"name":"第一商業高等学校","province":"東京都","city":"渋谷区","address":"東京都渋谷区鉢山町8-1","lat":35.65016143,"lon":139.6985845},{"name":"東京消防庁消防学校","province":"東京都","city":"渋谷区","address":"東京都渋谷区西原2丁目51-1","lat":35.67232498,"lon":139.67333307},{"name":"東京ウィメンズプラザ","province":"東京都","city":"渋谷区","address":"東京都渋谷区神宮前5丁目53-67","lat":35.662788,"lon":139.70793876},{"name":"青山高等学校","province":"東京都","city":"渋谷区","address":"東京都渋谷区神宮前2丁目1-8","lat":35.67270374,"lon":139.71607374},{"name":"広尾高等学校","province":"東京都","city":"渋谷区","address":"東京都渋谷区東4丁目14-14","lat":35.65287808,"lon":139.71284984},{"name":"第一商業高等学校","province":"東京都","city":"渋谷区","address":"東京都渋谷区鉢山町8-1","lat":35.65016143,"lon":139.6985845},{"name":"東京消防庁消防学校","province":"東京都","city":"渋谷区","address":"東京都渋谷区西原2丁目51-1","lat":35.67232498,"lon":139.67333307},{"name":"東京ウィメンズプラザ","province":"東京都","city":"渋谷区","address":"東京都渋谷区神宮前5丁目53-67","lat":35.662788,"lon":139.70793876},{"name":"青山高等学校","province":"東京都","city":"渋谷区","address":"東京都渋谷区神宮前2丁目1-8","lat":35.67270374,"lon":139.71607374},{"name":"広尾高等学校","province":"東京都","city":"渋谷区","address":"東京都渋谷区東4丁目14-14","lat":35.65287808,"lon":139.71284984},{"name":"第一商業高等学校","province":"東京都","city":"渋谷区","address":"東京都渋谷区鉢山町8-1","lat":35.65016143,"lon":139.6985845},{"name":"東京消防庁消防学校","province":"東京都","city":"渋谷区","address":"東京都渋谷区西原2丁目51-1","lat":35.67232498,"lon":139.67333307},{"name":"東京ウィメンズプラザ","province":"東京都","city":"渋谷区","address":"東京都渋谷区神宮前5丁目53-67","lat":35.662788,"lon":139.70793876},{"name":"青山高等学校","province":"東京都","city":"渋谷区","address":"東京都渋谷区神宮前2丁目1-8","lat":35.67270374,"lon":139.71607374},{"name":"広尾高等学校","province":"東京都","city":"渋谷区","address":"東京都渋谷区東4丁目14-14","lat":35.65287808,"lon":139.71284984},{"name":"第一商業高等学校","province":"東京都","city":"渋谷区","address":"東京都渋谷区鉢山町8-1","lat":35.65016143,"lon":139.6985845},{"name":"東京消防庁消防学校","province":"東京都","city":"渋谷区","address":"東京都渋谷区西原2丁目51-1","lat":35.67232498,"lon":139.67333307},{"name":"東京ウィメンズプラザ","province":"東京都","city":"渋谷区","address":"東京都渋谷区神宮前5丁目53-67","lat":35.662788,"lon":139.70793876},{"name":"青山高等学校","province":"東京都","city":"渋谷区","address":"東京都渋谷区神宮前2丁目1-8","lat":35.67270374,"lon":139.71607374},{"name":"広尾高等学校","province":"東京都","city":"渋谷区","address":"東京都渋谷区東4丁目14-14","lat":35.65287808,"lon":139.71284984},{"name":"第一商業高等学校","province":"東京都","city":"渋谷区","address":"東京都渋谷区鉢山町8-1","lat":35.65016143,"lon":139.6985845},{"name":"東京消防庁消防学校","province":"東京都","city":"渋谷区","address":"東京都渋谷区西原2丁目51-1","lat":35.67232498,"lon":139.67333307}]}