{"keyword":"一覧","data":[{"name":"富ヶ谷図書館","province":"東京都","city":"渋谷区","address":"東京都渋谷区上原1丁目46-2","lat":35.66850076,"lon":139.68712923},{"name":"上原社会教育館","province":"東京都","city":"渋谷区","address":"東京都渋谷区上原3丁目13-8","lat":35.66649521,"lon":139.67853283},{"name":"渋谷区役所","province":"東京都","city":"渋谷区","address":"東京都渋谷区宇田川町1-1","lat":35.66395376,"lon":139.69807679},{"name":"恵比寿社会教育館","province":"東京都","city":"渋谷区","address":"東京都渋谷区恵比寿2丁目27-18","lat":35.64530128,"lon":139.7196134},{"name":"長谷戸社会教育館","province":"東京都","city":"渋谷区","address":"東京都渋谷区恵比寿西1丁目23-4","lat":35.64716751,"lon":139.70657563},{"name":"笹塚こども図書館","province":"東京都","city":"渋谷区","address":"東京都渋谷区笹塚3丁目3-1","lat":35.67870195,"lon":139.6697526},{"name":"美竹の丘・しぶや","province":"東京都","city":"渋谷区","address":"東京都渋谷区渋谷1丁目18-9","lat":35.66183525,"lon":139.70455298},{"name":"中央図書館","province":"東京都","city":"渋谷区","address":"東京都渋谷区神宮前1丁目4-1","lat":35.67234689,"lon":139.70568495},{"name":"ケアコミュニティー・原宿の丘","province":"東京都","city":"渋谷区","address":"東京都渋谷区神宮前3丁目12-8","lat":35.66989841,"lon":139.71114095},{"name":"千駄ヶ谷社会教育館","province":"東京都","city":"渋谷区","address":"東京都渋谷区千駄ヶ谷1丁目6-5","lat":35.67810855,"lon":139.70992962},{"name":"東京体育館","province":"東京都","city":"渋谷区","address":"東京都渋谷区千駄ヶ谷1丁目17-1","lat":35.67985008,"lon":139.712496},{"name":"総合ケアコミュニティ・せせらぎ","province":"東京都","city":"渋谷区","address":"東京都渋谷区西原1丁目40-10","lat":35.67531374,"lon":139.68189331},{"name":"西原図書館","province":"東京都","city":"渋谷区","address":"東京都渋谷区西原2丁目28-9","lat":35.67493868,"lon":139.67767704},{"name":"初台青年館","province":"東京都","city":"渋谷区","address":"東京都渋谷区初台1丁目33-10","lat":35.67960221,"lon":139.68485123},{"name":"幡ヶ谷社会教育館（一時使用休止中）","province":"東京都","city":"渋谷区","address":"東京都渋谷区幡ヶ谷2丁目50-2","lat":35.6799242,"lon":139.677288},{"name":"渋谷図書館","province":"東京都","city":"渋谷区","address":"東京都渋谷区東1丁目6-6","lat":35.65630543,"lon":139.7098944},{"name":"リフレッシュ氷川","province":"東京都","city":"渋谷区","address":"東京都渋谷区東1丁目26-23","lat":35.65489165,"lon":139.70737802},{"name":"ひがし健康プラザ","province":"東京都","city":"渋谷区","address":"東京都渋谷区東3丁目14-13","lat":35.65087548,"lon":139.7097391},{"name":"臨川みんなの図書館","province":"東京都","city":"渋谷区","address":"東京都渋谷区広尾1丁目9-17","lat":35.64900913,"lon":139.71626634},{"name":"本町図書館","province":"東京都","city":"渋谷区","address":"東京都渋谷区本町1丁目33-5","lat":35.68073811,"lon":139.68165702},{"name":"地域交流センター　二軒家","province":"東京都","city":"渋谷区","address":"東京都渋谷区本町3丁目35-4","lat":35.68923433,"lon":139.68117896},{"name":"児童青少年センター","province":"東京都","city":"渋谷区","address":"東京都渋谷区本町6丁目6-2","lat":35.68210179,"lon":139.67953493},{"name":"新宿駅（都営大江戸線）","province":"東京都","city":"渋谷区","address":"東京都渋谷区代々木2丁目1-1","lat":35.68688783,"lon":139.69832198},{"name":"東京観光情報センターバスタ新宿","province":"東京都","city":"渋谷区","address":"東京都渋谷区千駄ヶ谷5丁目24-55","lat":35.6886377,"lon":139.70138553}]}