{"keyword":"保育","data":[{"name":"神宮前あおぞらこども園","province":"東京都","city":"渋谷区","address":"渋谷区神宮前5-6-1","lat":35.666224,"lon":139.708172},{"name":"渋谷保育園","province":"東京都","city":"渋谷区","address":"渋谷区神宮前3-18-33","lat":35.670937,"lon":139.709272},{"name":"神宮前保育園にじ","province":"東京都","city":"渋谷区","address":"渋谷区神宮前6-10-14","lat":35.667535,"lon":139.705208},{"name":"ベネッセ美竹の丘保育園","province":"東京都","city":"渋谷区","address":"渋谷区渋谷1-18-9","lat":35.661835,"lon":139.704553},{"name":"氷川保育園","province":"東京都","city":"渋谷区","address":"渋谷区東2-20-18","lat":35.653678,"lon":139.709072},{"name":"渋谷東ちとせ保育園","province":"東京都","city":"渋谷区","address":"渋谷区東4-7-8","lat":35.655753,"lon":139.713086},{"name":"広尾保育園","province":"東京都","city":"渋谷区","address":"渋谷区広尾5-7-1","lat":35.649543,"lon":139.722074},{"name":"広尾上宮保育園","province":"東京都","city":"渋谷区","address":"渋谷区広尾4-1-1","lat":35.652906,"lon":139.719046},{"name":"新橋保育園","province":"東京都","city":"渋谷区","address":"渋谷区恵比寿1-27-10","lat":35.647579,"lon":139.716347},{"name":"恵比寿のびのびこども園","province":"東京都","city":"渋谷区","address":"渋谷区恵比寿西1-19-1","lat":35.647112,"lon":139.706767},{"name":"恵比寿保育園","province":"東京都","city":"渋谷区","address":"渋谷区恵比寿西2-8-1","lat":35.649998,"lon":139.707292},{"name":"さくら上宮保育園","province":"東京都","city":"渋谷区","address":"渋谷区桜丘町23-21","lat":35.655514,"lon":139.699962},{"name":"ほっぺるランド渋谷","province":"東京都","city":"渋谷区","address":"渋谷区鴬谷町2-16","lat":35.653978,"lon":139.704384},{"name":"代官山保育園","province":"東京都","city":"渋谷区","address":"渋谷区代官山町7-9","lat":35.650728,"lon":139.704953},{"name":"渋谷もりのこ保育園神南","province":"東京都","city":"渋谷区","address":"渋谷区宇田川町38-4","lat":35.66211,"lon":139.695962},{"name":"大向保育園","province":"東京都","city":"渋谷区","address":"渋谷区松濤1-26-6","lat":35.659005,"lon":139.693068},{"name":"千駄ケ谷保育園","province":"東京都","city":"渋谷区","address":"渋谷区千駄ヶ谷3-34-9","lat":35.677514,"lon":139.70701},{"name":"鳩の森保育園","province":"東京都","city":"渋谷区","address":"渋谷区千駄ヶ谷4-28-8","lat":35.680672,"lon":139.703572},{"name":"キッズハーモニー・ＮＥＷｏＭａｎ","province":"東京都","city":"渋谷区","address":"渋谷区千駄ヶ谷五丁目24番55号","lat":35.688763,"lon":139.701294},{"name":"まちのこども園代々木公園","province":"東京都","city":"渋谷区","address":"渋谷区代々木神園町2-1","lat":35.6728,"lon":139.692595},{"name":"代々木至誠こども園","province":"東京都","city":"渋谷区","address":"渋谷区代々木5-14-16","lat":35.673742,"lon":139.688312},{"name":"代々木保育園","province":"東京都","city":"渋谷区","address":"渋谷区代々木3-51-8","lat":35.681988,"lon":139.695972},{"name":"聖ヨゼフ保育園","province":"東京都","city":"渋谷区","address":"渋谷区代々木5-16-4","lat":35.674742,"lon":139.688657},{"name":"キッズハーモニー・よよぎの杜","province":"東京都","city":"渋谷区","address":"渋谷区代々木二丁目35番1号","lat":35.684158,"lon":139.697725},{"name":"参宮橋ちとせ保育園","province":"東京都","city":"渋谷区","address":"渋谷区代々木4-50-13","lat":35.678439,"lon":139.691592},{"name":"みんなのみらいをつくる保育園初台","province":"東京都","city":"渋谷区","address":"渋谷区代々木4-37-15","lat":35.680816,"lon":139.689181},{"name":"太陽の子代々木西参道保育園","province":"東京都","city":"渋谷区","address":"渋谷区代々木4-27-6","lat":35.682885,"lon":139.691239},{"name":"グローバルキッズ代々木八幡園","province":"東京都","city":"渋谷区","address":"渋谷区代々木5-7-2","lat":35.669976,"lon":139.688635},{"name":"初台保育園","province":"東京都","city":"渋谷区","address":"渋谷区初台2-17-22","lat":35.677461,"lon":139.684685},{"name":"ゆめの樹保育園はつだい","province":"東京都","city":"渋谷区","address":"渋谷区初台2-13-11","lat":35.676505,"lon":139.683343},{"name":"元代々木保育園","province":"東京都","city":"渋谷区","address":"渋谷区元代々木町51-19","lat":35.673317,"lon":139.686654},{"name":"富ヶ谷保育園","province":"東京都","city":"渋谷区","address":"渋谷区富ヶ谷2-30-8","lat":35.664987,"lon":139.68511},{"name":"富ヶ谷ちとせ保育園","province":"東京都","city":"渋谷区","address":"渋谷区富ヶ谷1-31-3","lat":35.66604,"lon":139.688338},{"name":"薫る風・上原こども園","province":"東京都","city":"渋谷区","address":"渋谷区上原2-2-17","lat":35.667779,"lon":139.684157},{"name":"まちのこども園代々木上原","province":"東京都","city":"渋谷区","address":"渋谷区上原2-24-15","lat":35.664498,"lon":139.681005},{"name":"うえはらさくらさくほいくえん","province":"東京都","city":"渋谷区","address":"渋谷区上原3-37-9","lat":35.666251,"lon":139.676394},{"name":"西原りとるぱんぷきんず","province":"東京都","city":"渋谷区","address":"渋谷区西原2-46-4","lat":35.672797,"lon":139.678666},{"name":"聖ヨゼフ保育園西原","province":"東京都","city":"渋谷区","address":"渋谷区西原1-47-2","lat":35.673848,"lon":139.684731},{"name":"西原保育園ゆめ","province":"東京都","city":"渋谷区","address":"渋谷区西原一丁目22番20号","lat":35.676541,"lon":139.67823},{"name":"にしはらさくらさくほいくえん","province":"東京都","city":"渋谷区","address":"渋谷区西原2-33-17","lat":35.674566,"lon":139.676472},{"name":"グローバルキッズ代々木上原園","province":"東京都","city":"渋谷区","address":"渋谷区西原3-15-10","lat":35.670062,"lon":139.679597},{"name":"本町きらきらこども園","province":"東京都","city":"渋谷区","address":"渋谷区本町3-38-10","lat":35.688795,"lon":139.681351},{"name":"本町そよかぜこども園","province":"東京都","city":"渋谷区","address":"渋谷区本町六丁目6番2号","lat":35.682102,"lon":139.679535},{"name":"幡ヶ谷保育園","province":"東京都","city":"渋谷区","address":"渋谷区本町5-35-12","lat":35.683202,"lon":139.67606},{"name":"本町第三保育園","province":"東京都","city":"渋谷区","address":"渋谷区本町1-5-5","lat":35.681249,"lon":139.684276},{"name":"あい・あい保育園初台本町園","province":"東京都","city":"渋谷区","address":"渋谷区本町2-6-32階","lat":35.682991,"lon":139.683385},{"name":"グローバルキッズ幡ヶ谷園","province":"東京都","city":"渋谷区","address":"渋谷区本町1-19-3","lat":35.679002,"lon":139.679613},{"name":"幡ヶ谷第二保育園","province":"東京都","city":"渋谷区","address":"渋谷区幡ヶ谷3-4-1","lat":35.679783,"lon":139.67598},{"name":"幡ヶ谷第三保育園","province":"東京都","city":"渋谷区","address":"渋谷区幡ヶ谷2-56-6","lat":35.677835,"lon":139.671514},{"name":"まなびの森保育園幡ヶ谷","province":"東京都","city":"渋谷区","address":"渋谷区幡ヶ谷2-42-15","lat":35.678233,"lon":139.67418},{"name":"笹塚保育園","province":"東京都","city":"渋谷区","address":"渋谷区笹塚3-36-13","lat":35.677177,"lon":139.66585},{"name":"笹塚第二保育園","province":"東京都","city":"渋谷区","address":"渋谷区笹塚2-34-12","lat":35.675141,"lon":139.664567},{"name":"保育園うさぎとかめ","province":"東京都","city":"渋谷区","address":"渋谷区笹塚2-31-8","lat":35.67445,"lon":139.663789}]}