{"keyword":"区","data":[{"name":"渋谷区保健所","province":"東京都","city":"渋谷区","address":"渋谷区渋谷1-18-21","lat":35.661974,"lon":139.703739},{"name":"恵比寿保健相談所","province":"東京都","city":"渋谷区","address":"渋谷区恵比寿2-27-18","lat":35.645301,"lon":139.719613},{"name":"幡ケ谷保健相談所","province":"東京都","city":"渋谷区","address":"渋谷区幡ケ谷3-39-1","lat":35.679416,"lon":139.672005},{"name":"渋谷区保健所","province":"東京都","city":"渋谷区","address":"東京都渋谷区宇田川町1-1","lat":35.66395376,"lon":139.69807679},{"name":"中央保健相談所","province":"東京都","city":"渋谷区","address":"東京都渋谷区宇田川町5-6","lat":35.66287111,"lon":139.69819793},{"name":"恵比寿保健相談所","province":"東京都","city":"渋谷区","address":"東京都渋谷区恵比寿2丁目27-18","lat":35.64530128,"lon":139.7196134},{"name":"幡ケ谷保健相談所","province":"東京都","city":"渋谷区","address":"東京都渋谷区幡ヶ谷3丁目39-1","lat":35.67936858,"lon":139.67202737},{"name":"渋谷区保健所","province":"東京都","city":"渋谷区","address":"渋谷区宇田川町1-1","lat":35.66415,"lon":139.69789},{"name":"中央保健相談所","province":"東京都","city":"渋谷区","address":"渋谷区宇田川町5-6","lat":35.66322,"lon":139.69783},{"name":"恵比寿保健相談所","province":"東京都","city":"渋谷区","address":"渋谷区恵比寿2-27-18","lat":35.64554,"lon":139.72012},{"name":"幡ケ谷保健相談所","province":"東京都","city":"渋谷区","address":"渋谷区幡ケ谷3-39-1","lat":35.67944,"lon":139.67197},{"name":"渋谷区保健所","province":"東京都","city":"渋谷区","address":"渋谷区宇田川町1-1","lat":35.663475,"lon":139.697189},{"name":"中央保健相談所","province":"東京都","city":"渋谷区","address":"渋谷区渋谷1-18-21","lat":35.661461,"lon":139.703949},{"name":"中央保健相談所","province":"東京都","city":"渋谷区","address":"渋谷区渋谷1-18-21","lat":35.66185,"lon":139.70392}]}