{"keyword":"子ども","data":[{"name":"渋谷合同庁舎","province":"東京都","city":"渋谷区","address":"東京都渋谷区千駄ヶ谷4丁目3-15","lat":35.679382,"lon":139.704326},{"name":"東京ウィメンズプラザ","province":"東京都","city":"渋谷区","address":"東京都渋谷区神宮前5丁目53-67","lat":35.66323,"lon":139.708327},{"name":"東京ウィメンズプラザ","province":"東京都","city":"渋谷区","address":"東京都渋谷区神宮前5丁目53-67","lat":35.663357,"lon":139.708094},{"name":"東京ウィメンズプラザ","province":"東京都","city":"渋谷区","address":"東京都渋谷区神宮前5丁目53-67","lat":35.663148,"lon":139.708446},{"name":"東京体育館","province":"東京都","city":"渋谷区","address":"東京都渋谷区千駄ヶ谷1丁目17","lat":35.678997,"lon":139.712315},{"name":"東京体育館","province":"東京都","city":"渋谷区","address":"東京都渋谷区千駄ヶ谷1丁目17-1","lat":35.679959,"lon":139.712824},{"name":"東京体育館","province":"東京都","city":"渋谷区","address":"東京都渋谷区千駄ヶ谷1丁目17-1","lat":35.679385,"lon":139.712417},{"name":"東京体育館","province":"東京都","city":"渋谷区","address":"東京都渋谷区千駄ヶ谷1丁目17-1","lat":35.679596,"lon":139.712117},{"name":"東京体育館","province":"東京都","city":"渋谷区","address":"東京都渋谷区千駄ヶ谷1丁目17-1","lat":35.680115,"lon":139.712514},{"name":"東京体育館","province":"東京都","city":"渋谷区","address":"東京都渋谷区千駄ヶ谷1丁目17-1","lat":35.679713,"lon":139.711931},{"name":"東京体育館","province":"東京都","city":"渋谷区","address":"東京都渋谷区千駄ヶ谷1丁目17-1","lat":35.68021,"lon":139.712317},{"name":"東京体育館","province":"東京都","city":"渋谷区","address":"東京都渋谷区千駄ヶ谷1丁目17-1","lat":35.679962,"lon":139.713023},{"name":"東京体育館","province":"東京都","city":"渋谷区","address":"東京都渋谷区千駄ヶ谷1丁目17-1","lat":35.679304,"lon":139.712532},{"name":"東京体育館","province":"東京都","city":"渋谷区","address":"東京都渋谷区千駄ヶ谷1丁目17-1","lat":35.679591,"lon":139.711976},{"name":"東京体育館","province":"東京都","city":"渋谷区","address":"東京都渋谷区千駄ヶ谷1丁目17-1","lat":35.680228,"lon":139.71247},{"name":"東京体育館","province":"東京都","city":"渋谷区","address":"東京都渋谷区千駄ヶ谷1丁目17","lat":35.679213,"lon":139.712714},{"name":"東京体育館","province":"東京都","city":"渋谷区","address":"東京都渋谷区千駄ヶ谷1丁目17","lat":35.679206,"lon":139.711644},{"name":"東京体育館","province":"東京都","city":"渋谷区","address":"東京都渋谷区千駄ヶ谷1丁目17","lat":35.679578,"lon":139.7118},{"name":"東京体育館","province":"東京都","city":"渋谷区","address":"東京都渋谷区千駄ヶ谷1丁目17","lat":35.679112,"lon":139.711802},{"name":"東京体育館","province":"東京都","city":"渋谷区","address":"東京都渋谷区千駄ヶ谷1丁目17","lat":35.679082,"lon":139.711601},{"name":"東京体育館","province":"東京都","city":"渋谷区","address":"東京都渋谷区千駄ヶ谷1丁目17","lat":35.679086,"lon":139.711662},{"name":"代々木公園","province":"東京都","city":"渋谷区","address":"東京都渋谷区代々木神園町2","lat":35.670022,"lon":139.693158},{"name":"代々木公園","province":"東京都","city":"渋谷区","address":"東京都渋谷区代々木神園町2","lat":35.671229,"lon":139.692974},{"name":"代々木公園","province":"東京都","city":"渋谷区","address":"東京都渋谷区代々木神園町2","lat":35.672381,"lon":139.691715},{"name":"代々木公園","province":"東京都","city":"渋谷区","address":"東京都渋谷区代々木神園町2","lat":35.672915,"lon":139.693814},{"name":"代々木公園","province":"東京都","city":"渋谷区","address":"東京都渋谷区代々木神園町2","lat":35.671731,"lon":139.696483},{"name":"代々木公園","province":"東京都","city":"渋谷区","address":"東京都渋谷区代々木神園町2","lat":35.670498,"lon":139.698151},{"name":"代々木公園","province":"東京都","city":"渋谷区","address":"東京都渋谷区代々木神園町2","lat":35.668967,"lon":139.700097},{"name":"代々木公園","province":"東京都","city":"渋谷区","address":"東京都渋谷区代々木神園町2","lat":35.669148,"lon":139.695395},{"name":"代々木公園","province":"東京都","city":"渋谷区","address":"東京都渋谷区代々木神園町2-1","lat":35.671779,"lon":139.691743},{"name":"代々木公園","province":"東京都","city":"渋谷区","address":"東京都渋谷区神南2丁目3","lat":35.667765,"lon":139.694879},{"name":"代々木公園","province":"東京都","city":"渋谷区","address":"東京都渋谷区神南2丁目3","lat":35.66781,"lon":139.694924},{"name":"代々木公園","province":"東京都","city":"渋谷区","address":"東京都渋谷区神南2丁目3","lat":35.667227,"lon":139.69671},{"name":"代々木公園","province":"東京都","city":"渋谷区","address":"東京都渋谷区神南2丁目3","lat":35.666512,"lon":139.694916},{"name":"代々木公園","province":"東京都","city":"渋谷区","address":"東京都渋谷区神南2丁目3","lat":35.667001,"lon":139.69684},{"name":"代々木公園","province":"東京都","city":"渋谷区","address":"東京都渋谷区神南2丁目3-1","lat":35.666314,"lon":139.694855},{"name":"都営大江戸線新宿駅","province":"東京都","city":"渋谷区","address":"東京都渋谷区代々木2丁目7","lat":35.687992,"lon":139.699274},{"name":"都営大江戸線代々木駅","province":"東京都","city":"渋谷区","address":"東京都渋谷区代々木1丁目36","lat":35.683961,"lon":139.70147},{"name":"東京都渋谷営業所","province":"東京都","city":"渋谷区","address":"東京都渋谷区千駄ヶ谷4丁目3-15","lat":35.679511,"lon":139.704419},{"name":"代々木八幡公衆便所","province":"東京都","city":"渋谷区","address":"東京都渋谷区代々木5丁目1","lat":35.671403,"lon":139.687981},{"name":"千駄ヶ谷出張所","province":"東京都","city":"渋谷区","address":"東京都渋谷区千駄ヶ谷4丁目25-14","lat":35.68103,"lon":139.705398},{"name":"神宮前公衆便所","province":"東京都","city":"渋谷区","address":"東京都渋谷区神宮前1丁目3","lat":35.672442,"lon":139.707977},{"name":"美竹分庁舎清掃事務所","province":"東京都","city":"渋谷区","address":"東京都渋谷区渋谷1丁目2-17","lat":35.661528,"lon":139.706222},{"name":"渋谷区役所本庁舎","province":"東京都","city":"渋谷区","address":"東京都渋谷区宇田川町1-1","lat":35.663661,"lon":139.697439},{"name":"渋谷区役所本庁舎","province":"東京都","city":"渋谷区","address":"東京都渋谷区宇田川町1-1","lat":35.663745,"lon":139.698049},{"name":"渋谷区役所本庁舎","province":"東京都","city":"渋谷区","address":"東京都渋谷区宇田川町1-1","lat":35.663795,"lon":139.697848},{"name":"渋谷区役所本庁舎","province":"東京都","city":"渋谷区","address":"東京都渋谷区宇田川町1-1","lat":35.663798,"lon":139.697845},{"name":"渋谷区役所本庁舎","province":"東京都","city":"渋谷区","address":"東京都渋谷区宇田川町1-1","lat":35.663798,"lon":139.697848},{"name":"渋谷区役所本庁舎","province":"東京都","city":"渋谷区","address":"東京都渋谷区宇田川町1-1","lat":35.663797,"lon":139.69785},{"name":"渋谷区役所本庁舎","province":"東京都","city":"渋谷区","address":"東京都渋谷区宇田川町1-1","lat":35.663798,"lon":139.697849},{"name":"北谷分庁舎（かんなみの杜・渋谷）","province":"東京都","city":"渋谷区","address":"東京都渋谷区神南1丁目8-6","lat":35.664367,"lon":139.700807},{"name":"YCC 代々木八幡区民施設","province":"東京都","city":"渋谷区","address":"東京都渋谷区代々木5丁目1-15","lat":35.67189,"lon":139.689399},{"name":"鍋島松濤公園","province":"東京都","city":"渋谷区","address":"東京都渋谷区松濤2丁目10","lat":35.65965,"lon":139.691533},{"name":"本町区民会館","province":"東京都","city":"渋谷区","address":"東京都渋谷区本町4丁目9-7","lat":35.68675,"lon":139.680723},{"name":"笹塚区民会館","province":"東京都","city":"渋谷区","address":"東京都渋谷区笹塚3丁目1-9","lat":35.67763,"lon":139.670233},{"name":"幡ヶ谷区民会館","province":"東京都","city":"渋谷区","address":"東京都渋谷区幡ヶ谷3丁目4","lat":35.67981,"lon":139.676134},{"name":"地域交流センター新橋","province":"東京都","city":"渋谷区","address":"東京都渋谷区恵比寿1丁目27-10","lat":35.64751,"lon":139.716381},{"name":"地域交流センター新橋","province":"東京都","city":"渋谷区","address":"東京都渋谷区恵比寿1丁目27-10","lat":35.6476,"lon":139.716359},{"name":"地域交流センター恵比寿","province":"東京都","city":"渋谷区","address":"東京都渋谷区恵比寿西2丁目8","lat":35.6499,"lon":139.707134},{"name":"地域交流センター恵比寿","province":"東京都","city":"渋谷区","address":"東京都渋谷区恵比寿西2丁目8","lat":35.65002,"lon":139.707129},{"name":"地域交流センター大向","province":"東京都","city":"渋谷区","address":"東京都渋谷区松濤1丁目26-6","lat":35.65904,"lon":139.693066},{"name":"地域交流センター上原","province":"東京都","city":"渋谷区","address":"東京都渋谷区上原1丁目18","lat":35.66868,"lon":139.683038},{"name":"地域交流センター西原","province":"東京都","city":"渋谷区","address":"東京都渋谷区西原2丁目26","lat":35.67444,"lon":139.678642},{"name":"地域交流センター代々木","province":"東京都","city":"渋谷区","address":"東京都渋谷区代々木3丁目51-8","lat":35.68199,"lon":139.695828},{"name":"地域交流センター二軒家","province":"東京都","city":"渋谷区","address":"東京都渋谷区本町3丁目35-4","lat":35.68931,"lon":139.681045},{"name":"地域交流センター二軒家","province":"東京都","city":"渋谷区","address":"東京都渋谷区本町3丁目35-4","lat":35.68928,"lon":139.68109},{"name":"地域交流センター本町","province":"東京都","city":"渋谷区","address":"東京都渋谷区本町6丁目6-2","lat":35.68206,"lon":139.679338},{"name":"地域交流センター代々木の杜","province":"東京都","city":"渋谷区","address":"東京都渋谷区代々木2丁目35-1","lat":35.68416,"lon":139.697577},{"name":"地域交流センター神宮前","province":"東京都","city":"渋谷区","address":"東京都渋谷区神宮前6丁目10-14","lat":35.66759,"lon":139.705137},{"name":"リフレッシュ氷川","province":"東京都","city":"渋谷区","address":"東京都渋谷区東1丁目26-23","lat":35.65488,"lon":139.707356},{"name":"リフレッシュ氷川","province":"東京都","city":"渋谷区","address":"東京都渋谷区東1丁目26-23","lat":35.65493,"lon":139.707352},{"name":"リフレッシュ氷川","province":"東京都","city":"渋谷区","address":"東京都渋谷区東1丁目26-23","lat":35.65495,"lon":139.707384},{"name":"リフレッシュ氷川","province":"東京都","city":"渋谷区","address":"東京都渋谷区東1丁目26-23","lat":35.65494,"lon":139.707439},{"name":"リフレッシュ氷川","province":"東京都","city":"渋谷区","address":"東京都渋谷区東1丁目26-23","lat":35.65493,"lon":139.707419},{"name":"笹塚駅前区民施設","province":"東京都","city":"渋谷区","address":"東京都渋谷区笹塚1丁目47-1","lat":35.67354,"lon":139.667712},{"name":"地域交流センター笹塚","province":"東京都","city":"渋谷区","address":"東京都渋谷区笹塚1丁目27-1","lat":35.672264,"lon":139.66723},{"name":"渋谷区保健所　幡ヶ谷保健相談所","province":"東京都","city":"渋谷区","address":"東京都渋谷区幡ヶ谷3丁目39-1","lat":35.679526,"lon":139.672176},{"name":"渋谷区保健所　幡ヶ谷保健相談所","province":"東京都","city":"渋谷区","address":"東京都渋谷区幡ヶ谷3丁目39-1","lat":35.679423,"lon":139.672057},{"name":"恵比寿保健相談所","province":"東京都","city":"渋谷区","address":"東京都渋谷区恵比寿2丁目27-18","lat":35.645319,"lon":139.719605},{"name":"渋谷区立中央図書館","province":"東京都","city":"渋谷区","address":"東京都渋谷区神宮前1丁目4-1","lat":35.672509,"lon":139.70617},{"name":"渋谷区立中央図書館","province":"東京都","city":"渋谷区","address":"東京都渋谷区神宮前1丁目4-1","lat":35.67242,"lon":139.706244},{"name":"渋谷区立中央図書館","province":"東京都","city":"渋谷区","address":"東京都渋谷区神宮前1丁目4-1","lat":35.672551,"lon":139.706134},{"name":"渋谷区立中央図書館","province":"東京都","city":"渋谷区","address":"東京都渋谷区神宮前1丁目4-1","lat":35.672584,"lon":139.706108},{"name":"渋谷区立臨川みんなの図書館","province":"東京都","city":"渋谷区","address":"東京都渋谷区広尾1丁目9-17","lat":35.649558,"lon":139.716472},{"name":"本町図書館","province":"東京都","city":"渋谷区","address":"東京都渋谷区本町1丁目33-5","lat":35.680734,"lon":139.681624},{"name":"富ヶ谷図書館","province":"東京都","city":"渋谷区","address":"東京都渋谷区上原1丁目46-2","lat":35.668396,"lon":139.687195},{"name":"西原図書館","province":"東京都","city":"渋谷区","address":"東京都渋谷区西原2丁目28","lat":35.67498,"lon":139.677831},{"name":"西原図書館","province":"東京都","city":"渋谷区","address":"東京都渋谷区西原2丁目28","lat":35.674979,"lon":139.67783},{"name":"渋谷区文化総合センター大和田","province":"東京都","city":"渋谷区","address":"東京都渋谷区桜丘町23-21","lat":35.655522,"lon":139.699967},{"name":"渋谷区文化総合センター大和田","province":"東京都","city":"渋谷区","address":"東京都渋谷区桜丘町23-21","lat":35.655456,"lon":139.699752},{"name":"渋谷区文化総合センター大和田","province":"東京都","city":"渋谷区","address":"東京都渋谷区桜丘町23-21","lat":35.65582,"lon":139.700049},{"name":"渋谷区文化総合センター大和田","province":"東京都","city":"渋谷区","address":"東京都渋谷区桜丘町23-21","lat":35.655376,"lon":139.700053},{"name":"渋谷区文化総合センター大和田","province":"東京都","city":"渋谷区","address":"東京都渋谷区桜丘町23-21","lat":35.655166,"lon":139.699986},{"name":"渋谷区文化総合センター大和田","province":"東京都","city":"渋谷区","address":"東京都渋谷区桜丘町23-21","lat":35.65571,"lon":139.700175},{"name":"渋谷区文化総合センター大和田","province":"東京都","city":"渋谷区","address":"東京都渋谷区桜丘町23-21","lat":35.655541,"lon":139.699974},{"name":"渋谷区文化総合センター大和田","province":"東京都","city":"渋谷区","address":"東京都渋谷区桜丘町23-21","lat":35.655492,"lon":139.699957},{"name":"渋谷区文化総合センター大和田","province":"東京都","city":"渋谷区","address":"東京都渋谷区桜丘町23-21","lat":35.655387,"lon":139.700114},{"name":"渋谷区文化総合センター大和田","province":"東京都","city":"渋谷区","address":"東京都渋谷区桜丘町23-21","lat":35.655476,"lon":139.699838},{"name":"松濤美術館","province":"東京都","city":"渋谷区","address":"東京都渋谷区松濤2丁目14-14","lat":35.658788,"lon":139.691778},{"name":"松濤美術館","province":"東京都","city":"渋谷区","address":"東京都渋谷区松濤2丁目14-14","lat":35.658788,"lon":139.691779},{"name":"白根郷土博物館・文学館","province":"東京都","city":"渋谷区","address":"東京都渋谷区東4丁目9-1","lat":35.656358,"lon":139.712502},{"name":"LINE CUBE SHIBUYA（渋谷公会堂）","province":"東京都","city":"渋谷区","address":"東京都渋谷区宇田川町1-1","lat":35.664004,"lon":139.698629},{"name":"LINE CUBE SHIBUYA（渋谷公会堂）","province":"東京都","city":"渋谷区","address":"東京都渋谷区宇田川町1-1","lat":35.664052,"lon":139.698808},{"name":"恵比寿東公園","province":"東京都","city":"渋谷区","address":"東京都渋谷区恵比寿1丁目2","lat":35.648172,"lon":139.711197},{"name":"代々木大山公園","province":"東京都","city":"渋谷区","address":"東京都渋谷区西原2丁目53","lat":35.671422,"lon":139.67513},{"name":"代々木ポニー公園","province":"東京都","city":"渋谷区","address":"東京都渋谷区代々木神園町4","lat":35.678794,"lon":139.694924},{"name":"恵比寿南二公園","province":"東京都","city":"渋谷区","address":"東京都渋谷区恵比寿南2丁目11","lat":35.643436,"lon":139.708643},{"name":"神宮通公園","province":"東京都","city":"渋谷区","address":"東京都渋谷区神宮前6丁目21","lat":35.664193,"lon":139.702053},{"name":"恵比寿南一公園","province":"東京都","city":"渋谷区","address":"東京都渋谷区恵比寿南1丁目26","lat":35.642596,"lon":139.711664},{"name":"恵比寿公園","province":"東京都","city":"渋谷区","address":"東京都渋谷区恵比寿西1丁目19","lat":35.647003,"lon":139.707108},{"name":"はるのおがわ ｺﾐｭﾆﾃｨﾊﾟｰｸ","province":"東京都","city":"渋谷区","address":"東京都渋谷区代々木5丁目68","lat":35.672238,"lon":139.691055},{"name":"幡ヶ谷新道公園","province":"東京都","city":"渋谷区","address":"東京都渋谷区幡ヶ谷3丁目56","lat":35.681897,"lon":139.674803},{"name":"幡ヶ谷第一公園","province":"東京都","city":"渋谷区","address":"東京都渋谷区幡ヶ谷1丁目11","lat":35.674771,"lon":139.671922},{"name":"二軒家公園","province":"東京都","city":"渋谷区","address":"東京都渋谷区本町3丁目30","lat":35.690443,"lon":139.682783},{"name":"代々木深町小公園","province":"東京都","city":"渋谷区","address":"東京都渋谷区富ヶ谷1丁目54","lat":35.669324,"lon":139.690725},{"name":"上原公園","province":"東京都","city":"渋谷区","address":"東京都渋谷区上原3丁目13","lat":35.666798,"lon":139.678614},{"name":"幡ヶ谷第三公園","province":"東京都","city":"渋谷区","address":"東京都渋谷区幡ヶ谷3丁目35","lat":35.678119,"lon":139.671526},{"name":"広尾北公園","province":"東京都","city":"渋谷区","address":"東京都渋谷区広尾4丁目1","lat":35.656367,"lon":139.719885},{"name":"本町公園","province":"東京都","city":"渋谷区","address":"東京都渋谷区本町4丁目5","lat":35.68641,"lon":139.681244},{"name":"景丘公園","province":"東京都","city":"渋谷区","address":"東京都渋谷区恵比寿4丁目19","lat":35.643795,"lon":139.713549},{"name":"代々木みどり公園","province":"東京都","city":"渋谷区","address":"東京都渋谷区代々木1丁目37","lat":35.68318,"lon":139.70061},{"name":"代官山公園","province":"東京都","city":"渋谷区","address":"東京都渋谷区代官山町17","lat":35.648649,"lon":139.703637},{"name":"本町さくら公園","province":"東京都","city":"渋谷区","address":"東京都渋谷区本町2丁目21","lat":35.68376,"lon":139.680431},{"name":"富ヶ谷三本杉公園","province":"東京都","city":"渋谷区","address":"東京都渋谷区富ヶ谷2丁目2","lat":35.666568,"lon":139.687158},{"name":"臨川四季の森","province":"東京都","city":"渋谷区","address":"東京都渋谷区広尾5丁目23","lat":35.648623,"lon":139.718951},{"name":"二軒家ふるさと公園","province":"東京都","city":"渋谷区","address":"東京都渋谷区本町3丁目35","lat":35.689363,"lon":139.680929},{"name":"玉川上水旧水路　初台緑道②","province":"東京都","city":"渋谷区","address":"東京都渋谷区初台1丁目32","lat":35.679496,"lon":139.683628},{"name":"笹塚緑道公園便所","province":"東京都","city":"渋谷区","address":"東京都渋谷区笹塚1丁目29","lat":35.673373,"lon":139.666798},{"name":"幡ヶ谷ひだまり公園","province":"東京都","city":"渋谷区","address":"東京都渋谷区幡ヶ谷2丁目42","lat":35.6782,"lon":139.674386},{"name":"本町南児童遊園地","province":"東京都","city":"渋谷区","address":"東京都渋谷区本町1丁目56","lat":35.683107,"lon":139.684205},{"name":"広尾児童遊園地","province":"東京都","city":"渋谷区","address":"東京都渋谷区広尾5丁目16","lat":35.649568,"lon":139.720683},{"name":"並木橋公衆便所","province":"東京都","city":"渋谷区","address":"東京都渋谷区東1丁目27","lat":35.65497,"lon":139.706575},{"name":"本町一丁目児童遊園地","province":"東京都","city":"渋谷区","address":"東京都渋谷区本町1丁目26","lat":35.679556,"lon":139.679889},{"name":"代々木二丁目あおい公園","province":"東京都","city":"渋谷区","address":"東京都渋谷区代々木2丁目13-4","lat":35.687076,"lon":139.696354},{"name":"宮下公園","province":"東京都","city":"渋谷区","address":"東京都渋谷区渋谷1丁目26-5","lat":35.661609,"lon":139.70159},{"name":"渋谷区子育てネウボラ","province":"東京都","city":"渋谷区","address":"東京都渋谷区宇田川町5-6","lat":35.662875,"lon":139.69821},{"name":"広尾東公園","province":"東京都","city":"渋谷区","address":"東京都渋谷区広尾4丁目2","lat":35.653329,"lon":139.721108},{"name":"七号通り公園","province":"東京都","city":"渋谷区","address":"東京都渋谷区幡ヶ谷2丁目53","lat":35.678883,"lon":139.674417},{"name":"西原一丁目公園","province":"東京都","city":"渋谷区","address":"東京都渋谷区西原1丁目28","lat":35.677626,"lon":139.679602},{"name":"東三丁目公衆便所","province":"東京都","city":"渋谷区","address":"東京都渋谷区東3丁目27","lat":35.64896,"lon":139.709152},{"name":"表参道公衆便所","province":"東京都","city":"渋谷区","address":"東京都渋谷区神宮前4丁目12","lat":35.66672,"lon":139.70971},{"name":"渋谷駅西口公衆便所","province":"東京都","city":"渋谷区","address":"東京都渋谷区道玄坂1丁目1","lat":35.658288,"lon":139.701035},{"name":"渋谷駅東口公衆便所","province":"東京都","city":"渋谷区","address":"東京都渋谷区渋谷2丁目24","lat":35.659126,"lon":139.701847},{"name":"渋谷駅東口公衆便所","province":"東京都","city":"渋谷区","address":"東京都渋谷区渋谷2丁目24","lat":35.659122,"lon":139.701847},{"name":"幡ヶ谷公衆便所","province":"東京都","city":"渋谷区","address":"東京都渋谷区幡ヶ谷3丁目37","lat":35.677771,"lon":139.670536},{"name":"千駄ヶ谷駅前公衆便所","province":"東京都","city":"渋谷区","address":"東京都渋谷区千駄ヶ谷1丁目","lat":35.680781,"lon":139.712097},{"name":"恵比寿駅西口公衆便所","province":"東京都","city":"渋谷区","address":"東京都渋谷区恵比寿南1丁目5","lat":35.647435,"lon":139.709431},{"name":"区役所前公衆便所","province":"東京都","city":"渋谷区","address":"東京都渋谷区神南1丁目5","lat":35.664843,"lon":139.699259},{"name":"神宮前一丁目公衆便所","province":"東京都","city":"渋谷区","address":"東京都渋谷区神宮前1丁目5","lat":35.671396,"lon":139.704958},{"name":"渋谷駅東口公衆便所","province":"東京都","city":"渋谷区","address":"東京都渋谷区渋谷2丁目23","lat":35.657942,"lon":139.703104},{"name":"幡ヶ谷社会教育館","province":"東京都","city":"渋谷区","address":"東京都渋谷区幡ヶ谷2丁目50-2","lat":35.67993,"lon":139.677279},{"name":"恵比寿社会教育館","province":"東京都","city":"渋谷区","address":"東京都渋谷区恵比寿2丁目27-18","lat":35.64532,"lon":139.719558},{"name":"長谷戸社会教育館","province":"東京都","city":"渋谷区","address":"東京都渋谷区恵比寿西1丁目23-4","lat":35.647095,"lon":139.706509},{"name":"千駄ヶ谷社会教育館","province":"東京都","city":"渋谷区","address":"東京都渋谷区千駄ヶ谷1丁目6","lat":35.678021,"lon":139.709928},{"name":"上原社会教育館","province":"東京都","city":"渋谷区","address":"東京都渋谷区上原3丁目13-8","lat":35.666525,"lon":139.678725},{"name":"渋谷区スポーツセンター","province":"東京都","city":"渋谷区","address":"東京都渋谷区西原1丁目40-18","lat":35.675785,"lon":139.680574},{"name":"渋谷区スポーツセンター","province":"東京都","city":"渋谷区","address":"東京都渋谷区西原1丁目40-18","lat":35.675806,"lon":139.680583},{"name":"渋谷区スポーツセンター","province":"東京都","city":"渋谷区","address":"東京都渋谷区西原1丁目40","lat":35.675797,"lon":139.68091},{"name":"渋谷区スポーツセンター","province":"東京都","city":"渋谷区","address":"東京都渋谷区西原1丁目40","lat":35.675785,"lon":139.680945},{"name":"渋谷区代官山スポーツプラザ","province":"東京都","city":"渋谷区","address":"東京都渋谷区代官山町17-2","lat":35.648967,"lon":139.703704},{"name":"渋谷区代々木西原公園庭球場","province":"東京都","city":"渋谷区","address":"東京都渋谷区西原1丁目47-2","lat":35.673794,"lon":139.684707},{"name":"渋谷区猿楽トレーニングジム","province":"東京都","city":"渋谷区","address":"東京都渋谷区猿楽町12-35","lat":35.650441,"lon":139.701912},{"name":"渋谷区ひがし健康プラザ","province":"東京都","city":"渋谷区","address":"東京都渋谷区東3丁目14-13","lat":35.650947,"lon":139.709624},{"name":"渋谷区ひがし健康プラザ","province":"東京都","city":"渋谷区","address":"東京都渋谷区東3丁目14","lat":35.651017,"lon":139.70968},{"name":"渋谷区ひがし健康プラザ","province":"東京都","city":"渋谷区","address":"東京都渋谷区東3丁目14","lat":35.650887,"lon":139.709803},{"name":"総合ケアコミュニティ・せせらぎ","province":"東京都","city":"渋谷区","address":"東京都渋谷区西原1丁目40-10","lat":35.675412,"lon":139.681807},{"name":"美竹の丘・しぶや","province":"東京都","city":"渋谷区","address":"東京都渋谷区渋谷1丁目18-9","lat":35.661848,"lon":139.704498},{"name":"美竹の丘・しぶや","province":"東京都","city":"渋谷区","address":"東京都渋谷区渋谷1丁目18-9","lat":35.661879,"lon":139.704769},{"name":"ケアコミュニティ・原宿の丘","province":"東京都","city":"渋谷区","address":"東京都渋谷区神宮前3丁目12-8","lat":35.669862,"lon":139.711135},{"name":"渋谷区立商工会館・消費者センター","province":"東京都","city":"渋谷区","address":"東京都渋谷区渋谷1丁目12-5","lat":35.660506,"lon":139.703742},{"name":"渋谷区立勤労福祉会館","province":"東京都","city":"渋谷区","address":"東京都渋谷区神南1丁目19-8","lat":35.662595,"lon":139.699577},{"name":"西原敬老館","province":"東京都","city":"渋谷区","address":"東京都渋谷区西原2丁目35-12","lat":35.674116,"lon":139.674787},{"name":"はつらつセンター幡ヶ谷","province":"東京都","city":"渋谷区","address":"東京都渋谷区幡ヶ谷2丁目19-14","lat":35.677378,"lon":139.6742},{"name":"はつらつセンター富ヶ谷","province":"東京都","city":"渋谷区","address":"東京都渋谷区富ヶ谷2丁目27-12","lat":35.664023,"lon":139.684547},{"name":"はつらつセンター参宮橋","province":"東京都","city":"渋谷区","address":"東京都渋谷区代々木4丁目4-1","lat":35.678781,"lon":139.693079},{"name":"はつらつセンターケアステーション本町","province":"東京都","city":"渋谷区","address":"東京都渋谷区本町2丁目9-17","lat":35.683075,"lon":139.68251},{"name":"かんなみの杜・渋谷","province":"東京都","city":"渋谷区","address":"東京都渋谷区神南1丁目8-6","lat":35.664248,"lon":139.700799},{"name":"卯めこども食堂","province":"東京都","city":"渋谷区","address":"東京都渋谷区恵比寿1丁目25-12","lat":35.64673716,"lon":139.71588036},{"name":"パール子どもテーブル活動","province":"東京都","city":"渋谷区","address":"東京都渋谷区鉢山町3-27","lat":35.65275836,"lon":139.69863162},{"name":"ミート・ザ・おやつ","province":"東京都","city":"渋谷区","address":"東京都渋谷区代官山町7-9","lat":35.65073373,"lon":139.70500339},{"name":"長谷戸生活学校子ども食堂","province":"東京都","city":"渋谷区","address":"東京都渋谷区代官山町7-9","lat":35.65073373,"lon":139.70500339},{"name":"渋谷こどもテーブルゆめとぴあ","province":"東京都","city":"渋谷区","address":"東京都渋谷区鶯谷町10-15","lat":35.65317784,"lon":139.70248406},{"name":"渋谷・長崎歴史文化情報発信塾","province":"東京都","city":"渋谷区","address":"東京都渋谷区鶯谷町10-15","lat":35.65317784,"lon":139.70248406},{"name":"くるり食堂","province":"東京都","city":"渋谷区","address":"東京都渋谷区恵比寿西1丁目7-9","lat":35.64770638,"lon":139.70876432},{"name":"リフレッシュ氷川こども食堂","province":"東京都","city":"渋谷区","address":"東京都渋谷区東1丁目26-23","lat":35.65489165,"lon":139.70737802},{"name":"美竹の丘こどもごはん","province":"東京都","city":"渋谷区","address":"東京都渋谷区渋谷1丁目18-9","lat":35.66183525,"lon":139.70455298},{"name":"渋喜屋テーブル","province":"東京都","city":"渋谷区","address":"東京都渋谷区広尾3丁目2-14","lat":35.65542504,"lon":139.71414961},{"name":"スマイルきっちんナチュレ","province":"東京都","city":"渋谷区","address":"東京都渋谷区渋谷2丁目22-7","lat":35.65841895,"lon":139.70366153},{"name":"オーガニックおおうち食堂","province":"東京都","city":"渋谷区","address":"東京都渋谷区渋谷2丁目8-4","lat":35.66048268,"lon":139.70750555},{"name":"子ども料理教室","province":"東京都","city":"渋谷区","address":"東京都渋谷区宇田川町3-10","lat":35.66255726,"lon":139.69872846},{"name":"渋谷センター街こども食堂","province":"東京都","city":"渋谷区","address":"東京都渋谷区宇田川町16-8","lat":35.66085469,"lon":139.6989785},{"name":"子ども食堂","province":"東京都","city":"渋谷区","address":"東京都渋谷区円山町28-5","lat":35.65559128,"lon":139.69434298},{"name":"上富ダイニング","province":"東京都","city":"渋谷区","address":"東京都渋谷区上原3丁目13-8","lat":35.66649521,"lon":139.67853283},{"name":"みらいこどもテーブル","province":"東京都","city":"渋谷区","address":"東京都渋谷区富ヶ谷1丁目35-23","lat":35.66753145,"lon":139.68840416},{"name":"SHIBUYAコドモとママのミライ創造プロジェクト","province":"東京都","city":"渋谷区","address":"東京都渋谷区富ヶ谷2丁目9-13","lat":35.66466785,"lon":139.68643499},{"name":"コドモ大学食育部","province":"東京都","city":"渋谷区","address":"東京都渋谷区富ヶ谷2丁目9-15","lat":35.66486505,"lon":139.68663496},{"name":"上原ファンインずっとも食堂","province":"東京都","city":"渋谷区","address":"東京都渋谷区大山町21-10","lat":35.66962806,"lon":139.67275545},{"name":"サンキューキッチン","province":"東京都","city":"渋谷区","address":"東京都渋谷区西原1丁目22-9","lat":35.67686069,"lon":139.67813526},{"name":"Mamapura Kids＆Baby","province":"東京都","city":"渋谷区","address":"東京都渋谷区西原2丁目35-1","lat":35.67506917,"lon":139.6757161},{"name":"初台キッズ食堂","province":"東京都","city":"渋谷区","address":"東京都渋谷区初台1丁目33-10","lat":35.67960221,"lon":139.68485123},{"name":"初台クラブ","province":"東京都","city":"渋谷区","address":"東京都渋谷区初台1丁目11-2","lat":35.67944116,"lon":139.68679272},{"name":"みんなのカフェ“大空”","province":"東京都","city":"渋谷区","address":"東京都渋谷区幡ヶ谷2丁目50-2","lat":35.6799242,"lon":139.677288},{"name":"いるかのテーブル","province":"東京都","city":"渋谷区","address":"東京都渋谷区幡ヶ谷3丁目66-4","lat":35.68224048,"lon":139.6722439},{"name":"wakuwakuこどもひろば","province":"東京都","city":"渋谷区","address":"東京都渋谷区幡ヶ谷3丁目70","lat":35.68130169,"lon":139.67169399},{"name":"東京西ローターアクトクラブ","province":"東京都","city":"渋谷区","address":"東京都渋谷区幡ヶ谷2丁目50-2","lat":35.6799242,"lon":139.677288},{"name":"ささはたっこ","province":"東京都","city":"渋谷区","address":"東京都渋谷区笹塚1丁目50-16","lat":35.67466631,"lon":139.67015826},{"name":"やずぴょんち","province":"東京都","city":"渋谷区","address":"東京都渋谷区幡ヶ谷2丁目50-2","lat":35.6799242,"lon":139.677288},{"name":"ささはたカフェガーデン","province":"東京都","city":"渋谷区","address":"東京都渋谷区幡ヶ谷2丁目42-15","lat":35.6779799,"lon":139.67398836},{"name":"FUNNY CURRY","province":"東京都","city":"渋谷区","address":"東京都渋谷区幡ヶ谷3丁目42-8","lat":35.68035181,"lon":139.67218565},{"name":"こども食堂ささはたさんち","province":"東京都","city":"渋谷区","address":"東京都渋谷区笹塚1丁目20-4","lat":35.67272483,"lon":139.66873069},{"name":"「どなたでも食堂～お夕ご飯の日～」","province":"東京都","city":"渋谷区","address":"東京都渋谷区千駄ヶ谷5丁目12-9","lat":35.68336062,"lon":139.70524372},{"name":"みんなの世界テーブル","province":"東京都","city":"渋谷区","address":"東京都渋谷区代々木2丁目35-1","lat":35.68415756,"lon":139.69772492},{"name":"pure meat shop｜counter こども食堂","province":"東京都","city":"渋谷区","address":"東京都渋谷区千駄ヶ谷2丁目10-6","lat":35.67590603,"lon":139.70999081},{"name":"Mama's Kitchen","province":"東京都","city":"渋谷区","address":"東京都渋谷区神宮前4丁目22-11","lat":35.66867905,"lon":139.70864956},{"name":"お花屋さんのこどもごはん","province":"東京都","city":"渋谷区","address":"東京都渋谷区千駄ヶ谷3丁目54-15","lat":35.67498104,"lon":139.70591344},{"name":"ななかい子ども食堂","province":"東京都","city":"渋谷区","address":"東京都渋谷区神宮前3丁目12-8","lat":35.66989841,"lon":139.71114095},{"name":"ひといく子ども夢テーブル","province":"東京都","city":"渋谷区","address":"東京都渋谷区神宮前6丁目10-14","lat":35.66753464,"lon":139.70520824},{"name":"Yin Urasando子ども食堂","province":"東京都","city":"渋谷区","address":"東京都渋谷区神宮前4丁目15-2","lat":35.66848188,"lon":139.71092437},{"name":"都立代々木公園競技場（織田フィールド）","province":"東京都","city":"渋谷区","address":"東京都渋谷区神南2丁目3-1","lat":35.66632898,"lon":139.69484253},{"name":"渋谷区立スポーツセンター","province":"東京都","city":"渋谷区","address":"東京都渋谷区西原1丁目40-18","lat":35.67556369,"lon":139.68096562},{"name":"都立広尾病院ヘリポート","province":"東京都","city":"渋谷区","address":"東京都渋谷区恵比寿2丁目34-10","lat":35.64707054,"lon":139.72073544},{"name":"日本赤十字社医療センターヘリポート","province":"東京都","city":"渋谷区","address":"東京都渋谷区広尾4丁目1-22","lat":35.65443909,"lon":139.71794375},{"name":"渋谷区本庁舎","province":"東京都","city":"渋谷区","address":"東京都渋谷区宇田川町1-1","lat":35.66395376,"lon":139.69807679},{"name":"東京急行電鉄（株）","province":"東京都","city":"渋谷区","address":"渋谷区南平台町5-6","lat":35.65497,"lon":139.6979},{"name":"渋谷区","province":"東京都","city":"渋谷区","address":"渋谷区東3-14-13","lat":35.650896,"lon":139.709739},{"name":"※渋谷区本庁舎","province":"東京都","city":"渋谷区","address":"東京都渋谷区宇田川町1-1","lat":35.66395376,"lon":139.69807679},{"name":"渋谷駅","province":"東京都","city":"渋谷区","address":"東京都渋谷区道玄坂1丁目1-1","lat":35.65844945,"lon":139.70127562},{"name":"代々木ＰＡ","province":"東京都","city":"渋谷区","address":"東京都渋谷区","lat":35.66368489,"lon":139.69770072},{"name":"渋谷合同庁舎","province":"東京都","city":"渋谷区","address":"東京都渋谷区千駄ヶ谷4丁目3-15","lat":35.679382,"lon":139.704326},{"name":"東京ウィメンズプラザ","province":"東京都","city":"渋谷区","address":"東京都渋谷区神宮前5丁目53-67","lat":35.66323,"lon":139.708327},{"name":"東京ウィメンズプラザ","province":"東京都","city":"渋谷区","address":"東京都渋谷区神宮前5丁目53-67","lat":35.663357,"lon":139.708094},{"name":"東京ウィメンズプラザ","province":"東京都","city":"渋谷区","address":"東京都渋谷区神宮前5丁目53-67","lat":35.663148,"lon":139.708446},{"name":"東京体育館","province":"東京都","city":"渋谷区","address":"東京都渋谷区千駄ヶ谷1丁目17","lat":35.678997,"lon":139.712315},{"name":"東京体育館","province":"東京都","city":"渋谷区","address":"東京都渋谷区千駄ヶ谷1丁目17-1","lat":35.679959,"lon":139.712824},{"name":"東京体育館","province":"東京都","city":"渋谷区","address":"東京都渋谷区千駄ヶ谷1丁目17-1","lat":35.679385,"lon":139.712417},{"name":"東京体育館","province":"東京都","city":"渋谷区","address":"東京都渋谷区千駄ヶ谷1丁目17-1","lat":35.679596,"lon":139.712117},{"name":"東京体育館","province":"東京都","city":"渋谷区","address":"東京都渋谷区千駄ヶ谷1丁目17-1","lat":35.680115,"lon":139.712514},{"name":"東京体育館","province":"東京都","city":"渋谷区","address":"東京都渋谷区千駄ヶ谷1丁目17-1","lat":35.679713,"lon":139.711931},{"name":"東京体育館","province":"東京都","city":"渋谷区","address":"東京都渋谷区千駄ヶ谷1丁目17-1","lat":35.68021,"lon":139.712317},{"name":"東京体育館","province":"東京都","city":"渋谷区","address":"東京都渋谷区千駄ヶ谷1丁目17-1","lat":35.679962,"lon":139.713023},{"name":"東京体育館","province":"東京都","city":"渋谷区","address":"東京都渋谷区千駄ヶ谷1丁目17-1","lat":35.679304,"lon":139.712532},{"name":"東京体育館","province":"東京都","city":"渋谷区","address":"東京都渋谷区千駄ヶ谷1丁目17-1","lat":35.679591,"lon":139.711976},{"name":"東京体育館","province":"東京都","city":"渋谷区","address":"東京都渋谷区千駄ヶ谷1丁目17-1","lat":35.680228,"lon":139.71247},{"name":"東京体育館","province":"東京都","city":"渋谷区","address":"東京都渋谷区千駄ヶ谷1丁目17","lat":35.679213,"lon":139.712714},{"name":"東京体育館","province":"東京都","city":"渋谷区","address":"東京都渋谷区千駄ヶ谷1丁目17","lat":35.679206,"lon":139.711644},{"name":"東京体育館","province":"東京都","city":"渋谷区","address":"東京都渋谷区千駄ヶ谷1丁目17","lat":35.679578,"lon":139.7118},{"name":"東京体育館","province":"東京都","city":"渋谷区","address":"東京都渋谷区千駄ヶ谷1丁目17","lat":35.679112,"lon":139.711802},{"name":"東京体育館","province":"東京都","city":"渋谷区","address":"東京都渋谷区千駄ヶ谷1丁目17","lat":35.679082,"lon":139.711601},{"name":"東京体育館","province":"東京都","city":"渋谷区","address":"東京都渋谷区千駄ヶ谷1丁目17","lat":35.679086,"lon":139.711662},{"name":"代々木公園","province":"東京都","city":"渋谷区","address":"東京都渋谷区代々木神園町2","lat":35.670022,"lon":139.693158},{"name":"代々木公園","province":"東京都","city":"渋谷区","address":"東京都渋谷区代々木神園町2","lat":35.671229,"lon":139.692974},{"name":"代々木公園","province":"東京都","city":"渋谷区","address":"東京都渋谷区代々木神園町2","lat":35.672381,"lon":139.691715},{"name":"代々木公園","province":"東京都","city":"渋谷区","address":"東京都渋谷区代々木神園町2","lat":35.672915,"lon":139.693814},{"name":"代々木公園","province":"東京都","city":"渋谷区","address":"東京都渋谷区代々木神園町2","lat":35.671731,"lon":139.696483},{"name":"代々木公園","province":"東京都","city":"渋谷区","address":"東京都渋谷区代々木神園町2","lat":35.670498,"lon":139.698151},{"name":"代々木公園","province":"東京都","city":"渋谷区","address":"東京都渋谷区代々木神園町2","lat":35.668967,"lon":139.700097},{"name":"代々木公園","province":"東京都","city":"渋谷区","address":"東京都渋谷区代々木神園町2","lat":35.669148,"lon":139.695395},{"name":"代々木公園","province":"東京都","city":"渋谷区","address":"東京都渋谷区代々木神園町2-1","lat":35.671779,"lon":139.691743},{"name":"代々木公園","province":"東京都","city":"渋谷区","address":"東京都渋谷区神南2丁目3","lat":35.667765,"lon":139.694879},{"name":"代々木公園","province":"東京都","city":"渋谷区","address":"東京都渋谷区神南2丁目3","lat":35.66781,"lon":139.694924},{"name":"代々木公園","province":"東京都","city":"渋谷区","address":"東京都渋谷区神南2丁目3","lat":35.667227,"lon":139.69671},{"name":"代々木公園","province":"東京都","city":"渋谷区","address":"東京都渋谷区神南2丁目3","lat":35.666512,"lon":139.694916},{"name":"代々木公園","province":"東京都","city":"渋谷区","address":"東京都渋谷区神南2丁目3","lat":35.667001,"lon":139.69684},{"name":"代々木公園","province":"東京都","city":"渋谷区","address":"東京都渋谷区神南2丁目3-1","lat":35.666314,"lon":139.694855},{"name":"都営大江戸線新宿駅","province":"東京都","city":"渋谷区","address":"東京都渋谷区代々木2丁目7","lat":35.687992,"lon":139.699274},{"name":"都営大江戸線代々木駅","province":"東京都","city":"渋谷区","address":"東京都渋谷区代々木1丁目36","lat":35.683961,"lon":139.70147},{"name":"東京都渋谷営業所","province":"東京都","city":"渋谷区","address":"東京都渋谷区千駄ヶ谷4丁目3-15","lat":35.679511,"lon":139.704419},{"name":"代々木八幡公衆便所","province":"東京都","city":"渋谷区","address":"東京都渋谷区代々木5丁目1","lat":35.671403,"lon":139.687981},{"name":"千駄ヶ谷出張所","province":"東京都","city":"渋谷区","address":"東京都渋谷区千駄ヶ谷4丁目25-14","lat":35.68103,"lon":139.705398},{"name":"神宮前公衆便所","province":"東京都","city":"渋谷区","address":"東京都渋谷区神宮前1丁目3","lat":35.672442,"lon":139.707977},{"name":"美竹分庁舎清掃事務所","province":"東京都","city":"渋谷区","address":"東京都渋谷区渋谷1丁目2-17","lat":35.661528,"lon":139.706222},{"name":"渋谷区役所本庁舎","province":"東京都","city":"渋谷区","address":"東京都渋谷区宇田川町1-1","lat":35.663661,"lon":139.697439},{"name":"渋谷区役所本庁舎","province":"東京都","city":"渋谷区","address":"東京都渋谷区宇田川町1-1","lat":35.663745,"lon":139.698049},{"name":"渋谷区役所本庁舎","province":"東京都","city":"渋谷区","address":"東京都渋谷区宇田川町1-1","lat":35.663795,"lon":139.697848},{"name":"渋谷区役所本庁舎","province":"東京都","city":"渋谷区","address":"東京都渋谷区宇田川町1-1","lat":35.663798,"lon":139.697845},{"name":"渋谷区役所本庁舎","province":"東京都","city":"渋谷区","address":"東京都渋谷区宇田川町1-1","lat":35.663798,"lon":139.697848},{"name":"渋谷区役所本庁舎","province":"東京都","city":"渋谷区","address":"東京都渋谷区宇田川町1-1","lat":35.663797,"lon":139.69785},{"name":"渋谷区役所本庁舎","province":"東京都","city":"渋谷区","address":"東京都渋谷区宇田川町1-1","lat":35.663798,"lon":139.697849},{"name":"北谷分庁舎（かんなみの杜・渋谷）","province":"東京都","city":"渋谷区","address":"東京都渋谷区神南1丁目8-6","lat":35.664367,"lon":139.700807},{"name":"YCC 代々木八幡区民施設","province":"東京都","city":"渋谷区","address":"東京都渋谷区代々木5丁目1-15","lat":35.67189,"lon":139.689399},{"name":"鍋島松濤公園","province":"東京都","city":"渋谷区","address":"東京都渋谷区松濤2丁目10","lat":35.65965,"lon":139.691533},{"name":"本町区民会館","province":"東京都","city":"渋谷区","address":"東京都渋谷区本町4丁目9-7","lat":35.68675,"lon":139.680723},{"name":"笹塚区民会館","province":"東京都","city":"渋谷区","address":"東京都渋谷区笹塚3丁目1-9","lat":35.67763,"lon":139.670233},{"name":"幡ヶ谷区民会館","province":"東京都","city":"渋谷区","address":"東京都渋谷区幡ヶ谷3丁目4","lat":35.67981,"lon":139.676134},{"name":"地域交流センター新橋","province":"東京都","city":"渋谷区","address":"東京都渋谷区恵比寿1丁目27-10","lat":35.64751,"lon":139.716381},{"name":"地域交流センター新橋","province":"東京都","city":"渋谷区","address":"東京都渋谷区恵比寿1丁目27-10","lat":35.6476,"lon":139.716359},{"name":"地域交流センター恵比寿","province":"東京都","city":"渋谷区","address":"東京都渋谷区恵比寿西2丁目8","lat":35.6499,"lon":139.707134},{"name":"地域交流センター恵比寿","province":"東京都","city":"渋谷区","address":"東京都渋谷区恵比寿西2丁目8","lat":35.65002,"lon":139.707129},{"name":"地域交流センター大向","province":"東京都","city":"渋谷区","address":"東京都渋谷区松濤1丁目26-6","lat":35.65904,"lon":139.693066},{"name":"地域交流センター上原","province":"東京都","city":"渋谷区","address":"東京都渋谷区上原1丁目18","lat":35.66868,"lon":139.683038},{"name":"地域交流センター西原","province":"東京都","city":"渋谷区","address":"東京都渋谷区西原2丁目26","lat":35.67444,"lon":139.678642},{"name":"地域交流センター代々木","province":"東京都","city":"渋谷区","address":"東京都渋谷区代々木3丁目51-8","lat":35.68199,"lon":139.695828},{"name":"地域交流センター二軒家","province":"東京都","city":"渋谷区","address":"東京都渋谷区本町3丁目35-4","lat":35.68931,"lon":139.681045},{"name":"地域交流センター二軒家","province":"東京都","city":"渋谷区","address":"東京都渋谷区本町3丁目35-4","lat":35.68928,"lon":139.68109},{"name":"地域交流センター本町","province":"東京都","city":"渋谷区","address":"東京都渋谷区本町6丁目6-2","lat":35.68206,"lon":139.679338},{"name":"地域交流センター代々木の杜","province":"東京都","city":"渋谷区","address":"東京都渋谷区代々木2丁目35-1","lat":35.68416,"lon":139.697577},{"name":"地域交流センター神宮前","province":"東京都","city":"渋谷区","address":"東京都渋谷区神宮前6丁目10-14","lat":35.66759,"lon":139.705137},{"name":"リフレッシュ氷川","province":"東京都","city":"渋谷区","address":"東京都渋谷区東1丁目26-23","lat":35.65488,"lon":139.707356},{"name":"リフレッシュ氷川","province":"東京都","city":"渋谷区","address":"東京都渋谷区東1丁目26-23","lat":35.65493,"lon":139.707352},{"name":"リフレッシュ氷川","province":"東京都","city":"渋谷区","address":"東京都渋谷区東1丁目26-23","lat":35.65495,"lon":139.707384},{"name":"リフレッシュ氷川","province":"東京都","city":"渋谷区","address":"東京都渋谷区東1丁目26-23","lat":35.65494,"lon":139.707439},{"name":"リフレッシュ氷川","province":"東京都","city":"渋谷区","address":"東京都渋谷区東1丁目26-23","lat":35.65493,"lon":139.707419},{"name":"笹塚駅前区民施設","province":"東京都","city":"渋谷区","address":"東京都渋谷区笹塚1丁目47-1","lat":35.67354,"lon":139.667712},{"name":"地域交流センター笹塚","province":"東京都","city":"渋谷区","address":"東京都渋谷区笹塚1丁目27-1","lat":35.672264,"lon":139.66723},{"name":"渋谷区保健所　幡ヶ谷保健相談所","province":"東京都","city":"渋谷区","address":"東京都渋谷区幡ヶ谷3丁目39-1","lat":35.679526,"lon":139.672176},{"name":"渋谷区保健所　幡ヶ谷保健相談所","province":"東京都","city":"渋谷区","address":"東京都渋谷区幡ヶ谷3丁目39-1","lat":35.679423,"lon":139.672057},{"name":"恵比寿保健相談所","province":"東京都","city":"渋谷区","address":"東京都渋谷区恵比寿2丁目27-18","lat":35.645319,"lon":139.719605},{"name":"渋谷区立中央図書館","province":"東京都","city":"渋谷区","address":"東京都渋谷区神宮前1丁目4-1","lat":35.672509,"lon":139.70617},{"name":"渋谷区立中央図書館","province":"東京都","city":"渋谷区","address":"東京都渋谷区神宮前1丁目4-1","lat":35.67242,"lon":139.706244},{"name":"渋谷区立中央図書館","province":"東京都","city":"渋谷区","address":"東京都渋谷区神宮前1丁目4-1","lat":35.672551,"lon":139.706134},{"name":"渋谷区立中央図書館","province":"東京都","city":"渋谷区","address":"東京都渋谷区神宮前1丁目4-1","lat":35.672584,"lon":139.706108},{"name":"渋谷区立臨川みんなの図書館","province":"東京都","city":"渋谷区","address":"東京都渋谷区広尾1丁目9-17","lat":35.649558,"lon":139.716472},{"name":"本町図書館","province":"東京都","city":"渋谷区","address":"東京都渋谷区本町1丁目33-5","lat":35.680734,"lon":139.681624},{"name":"富ヶ谷図書館","province":"東京都","city":"渋谷区","address":"東京都渋谷区上原1丁目46-2","lat":35.668396,"lon":139.687195},{"name":"西原図書館","province":"東京都","city":"渋谷区","address":"東京都渋谷区西原2丁目28","lat":35.67498,"lon":139.677831},{"name":"西原図書館","province":"東京都","city":"渋谷区","address":"東京都渋谷区西原2丁目28","lat":35.674979,"lon":139.67783},{"name":"渋谷区文化総合センター大和田","province":"東京都","city":"渋谷区","address":"東京都渋谷区桜丘町23-21","lat":35.655522,"lon":139.699967},{"name":"渋谷区文化総合センター大和田","province":"東京都","city":"渋谷区","address":"東京都渋谷区桜丘町23-21","lat":35.655456,"lon":139.699752},{"name":"渋谷区文化総合センター大和田","province":"東京都","city":"渋谷区","address":"東京都渋谷区桜丘町23-21","lat":35.65582,"lon":139.700049},{"name":"渋谷区文化総合センター大和田","province":"東京都","city":"渋谷区","address":"東京都渋谷区桜丘町23-21","lat":35.655376,"lon":139.700053},{"name":"渋谷区文化総合センター大和田","province":"東京都","city":"渋谷区","address":"東京都渋谷区桜丘町23-21","lat":35.655166,"lon":139.699986},{"name":"渋谷区文化総合センター大和田","province":"東京都","city":"渋谷区","address":"東京都渋谷区桜丘町23-21","lat":35.65571,"lon":139.700175},{"name":"渋谷区文化総合センター大和田","province":"東京都","city":"渋谷区","address":"東京都渋谷区桜丘町23-21","lat":35.655541,"lon":139.699974},{"name":"渋谷区文化総合センター大和田","province":"東京都","city":"渋谷区","address":"東京都渋谷区桜丘町23-21","lat":35.655492,"lon":139.699957},{"name":"渋谷区文化総合センター大和田","province":"東京都","city":"渋谷区","address":"東京都渋谷区桜丘町23-21","lat":35.655387,"lon":139.700114},{"name":"渋谷区文化総合センター大和田","province":"東京都","city":"渋谷区","address":"東京都渋谷区桜丘町23-21","lat":35.655476,"lon":139.699838},{"name":"松濤美術館","province":"東京都","city":"渋谷区","address":"東京都渋谷区松濤2丁目14-14","lat":35.658788,"lon":139.691778},{"name":"松濤美術館","province":"東京都","city":"渋谷区","address":"東京都渋谷区松濤2丁目14-14","lat":35.658788,"lon":139.691779},{"name":"白根郷土博物館・文学館","province":"東京都","city":"渋谷区","address":"東京都渋谷区東4丁目9-1","lat":35.656358,"lon":139.712502},{"name":"LINE CUBE SHIBUYA（渋谷公会堂）","province":"東京都","city":"渋谷区","address":"東京都渋谷区宇田川町1-1","lat":35.664004,"lon":139.698629},{"name":"LINE CUBE SHIBUYA（渋谷公会堂）","province":"東京都","city":"渋谷区","address":"東京都渋谷区宇田川町1-1","lat":35.664052,"lon":139.698808},{"name":"恵比寿東公園","province":"東京都","city":"渋谷区","address":"東京都渋谷区恵比寿1丁目2","lat":35.648172,"lon":139.711197},{"name":"代々木大山公園","province":"東京都","city":"渋谷区","address":"東京都渋谷区西原2丁目53","lat":35.671422,"lon":139.67513},{"name":"代々木ポニー公園","province":"東京都","city":"渋谷区","address":"東京都渋谷区代々木神園町4","lat":35.678794,"lon":139.694924},{"name":"恵比寿南二公園","province":"東京都","city":"渋谷区","address":"東京都渋谷区恵比寿南2丁目11","lat":35.643436,"lon":139.708643},{"name":"神宮通公園","province":"東京都","city":"渋谷区","address":"東京都渋谷区神宮前6丁目21","lat":35.664193,"lon":139.702053},{"name":"恵比寿南一公園","province":"東京都","city":"渋谷区","address":"東京都渋谷区恵比寿南1丁目26","lat":35.642596,"lon":139.711664},{"name":"恵比寿公園","province":"東京都","city":"渋谷区","address":"東京都渋谷区恵比寿西1丁目19","lat":35.647003,"lon":139.707108},{"name":"はるのおがわ ｺﾐｭﾆﾃｨﾊﾟｰｸ","province":"東京都","city":"渋谷区","address":"東京都渋谷区代々木5丁目68","lat":35.672238,"lon":139.691055},{"name":"幡ヶ谷新道公園","province":"東京都","city":"渋谷区","address":"東京都渋谷区幡ヶ谷3丁目56","lat":35.681897,"lon":139.674803},{"name":"幡ヶ谷第一公園","province":"東京都","city":"渋谷区","address":"東京都渋谷区幡ヶ谷1丁目11","lat":35.674771,"lon":139.671922},{"name":"二軒家公園","province":"東京都","city":"渋谷区","address":"東京都渋谷区本町3丁目30","lat":35.690443,"lon":139.682783},{"name":"代々木深町小公園","province":"東京都","city":"渋谷区","address":"東京都渋谷区富ヶ谷1丁目54","lat":35.669324,"lon":139.690725},{"name":"上原公園","province":"東京都","city":"渋谷区","address":"東京都渋谷区上原3丁目13","lat":35.666798,"lon":139.678614},{"name":"幡ヶ谷第三公園","province":"東京都","city":"渋谷区","address":"東京都渋谷区幡ヶ谷3丁目35","lat":35.678119,"lon":139.671526},{"name":"広尾北公園","province":"東京都","city":"渋谷区","address":"東京都渋谷区広尾4丁目1","lat":35.656367,"lon":139.719885},{"name":"本町公園","province":"東京都","city":"渋谷区","address":"東京都渋谷区本町4丁目5","lat":35.68641,"lon":139.681244},{"name":"景丘公園","province":"東京都","city":"渋谷区","address":"東京都渋谷区恵比寿4丁目19","lat":35.643795,"lon":139.713549},{"name":"代々木みどり公園","province":"東京都","city":"渋谷区","address":"東京都渋谷区代々木1丁目37","lat":35.68318,"lon":139.70061},{"name":"代官山公園","province":"東京都","city":"渋谷区","address":"東京都渋谷区代官山町17","lat":35.648649,"lon":139.703637},{"name":"本町さくら公園","province":"東京都","city":"渋谷区","address":"東京都渋谷区本町2丁目21","lat":35.68376,"lon":139.680431},{"name":"富ヶ谷三本杉公園","province":"東京都","city":"渋谷区","address":"東京都渋谷区富ヶ谷2丁目2","lat":35.666568,"lon":139.687158},{"name":"臨川四季の森","province":"東京都","city":"渋谷区","address":"東京都渋谷区広尾5丁目23","lat":35.648623,"lon":139.718951},{"name":"二軒家ふるさと公園","province":"東京都","city":"渋谷区","address":"東京都渋谷区本町3丁目35","lat":35.689363,"lon":139.680929},{"name":"玉川上水旧水路　初台緑道②","province":"東京都","city":"渋谷区","address":"東京都渋谷区初台1丁目32","lat":35.679496,"lon":139.683628},{"name":"笹塚緑道公園便所","province":"東京都","city":"渋谷区","address":"東京都渋谷区笹塚1丁目29","lat":35.673373,"lon":139.666798},{"name":"幡ヶ谷ひだまり公園","province":"東京都","city":"渋谷区","address":"東京都渋谷区幡ヶ谷2丁目42","lat":35.6782,"lon":139.674386},{"name":"本町南児童遊園地","province":"東京都","city":"渋谷区","address":"東京都渋谷区本町1丁目56","lat":35.683107,"lon":139.684205},{"name":"広尾児童遊園地","province":"東京都","city":"渋谷区","address":"東京都渋谷区広尾5丁目16","lat":35.649568,"lon":139.720683},{"name":"並木橋公衆便所","province":"東京都","city":"渋谷区","address":"東京都渋谷区東1丁目27","lat":35.65497,"lon":139.706575},{"name":"本町一丁目児童遊園地","province":"東京都","city":"渋谷区","address":"東京都渋谷区本町1丁目26","lat":35.679556,"lon":139.679889},{"name":"代々木二丁目あおい公園","province":"東京都","city":"渋谷区","address":"東京都渋谷区代々木2丁目13-4","lat":35.687076,"lon":139.696354},{"name":"宮下公園","province":"東京都","city":"渋谷区","address":"東京都渋谷区渋谷1丁目26-5","lat":35.661609,"lon":139.70159},{"name":"渋谷区子育てネウボラ","province":"東京都","city":"渋谷区","address":"東京都渋谷区宇田川町5-6","lat":35.662875,"lon":139.69821},{"name":"広尾東公園","province":"東京都","city":"渋谷区","address":"東京都渋谷区広尾4丁目2","lat":35.653329,"lon":139.721108},{"name":"七号通り公園","province":"東京都","city":"渋谷区","address":"東京都渋谷区幡ヶ谷2丁目53","lat":35.678883,"lon":139.674417},{"name":"西原一丁目公園","province":"東京都","city":"渋谷区","address":"東京都渋谷区西原1丁目28","lat":35.677626,"lon":139.679602},{"name":"東三丁目公衆便所","province":"東京都","city":"渋谷区","address":"東京都渋谷区東3丁目27","lat":35.64896,"lon":139.709152},{"name":"表参道公衆便所","province":"東京都","city":"渋谷区","address":"東京都渋谷区神宮前4丁目12","lat":35.66672,"lon":139.70971},{"name":"渋谷駅西口公衆便所","province":"東京都","city":"渋谷区","address":"東京都渋谷区道玄坂1丁目1","lat":35.658288,"lon":139.701035},{"name":"渋谷駅東口公衆便所","province":"東京都","city":"渋谷区","address":"東京都渋谷区渋谷2丁目24","lat":35.659126,"lon":139.701847},{"name":"渋谷駅東口公衆便所","province":"東京都","city":"渋谷区","address":"東京都渋谷区渋谷2丁目24","lat":35.659122,"lon":139.701847},{"name":"幡ヶ谷公衆便所","province":"東京都","city":"渋谷区","address":"東京都渋谷区幡ヶ谷3丁目37","lat":35.677771,"lon":139.670536},{"name":"千駄ヶ谷駅前公衆便所","province":"東京都","city":"渋谷区","address":"東京都渋谷区千駄ヶ谷1丁目","lat":35.680781,"lon":139.712097},{"name":"恵比寿駅西口公衆便所","province":"東京都","city":"渋谷区","address":"東京都渋谷区恵比寿南1丁目5","lat":35.647435,"lon":139.709431},{"name":"区役所前公衆便所","province":"東京都","city":"渋谷区","address":"東京都渋谷区神南1丁目5","lat":35.664843,"lon":139.699259},{"name":"神宮前一丁目公衆便所","province":"東京都","city":"渋谷区","address":"東京都渋谷区神宮前1丁目5","lat":35.671396,"lon":139.704958},{"name":"渋谷駅東口公衆便所","province":"東京都","city":"渋谷区","address":"東京都渋谷区渋谷2丁目23","lat":35.657942,"lon":139.703104},{"name":"幡ヶ谷社会教育館","province":"東京都","city":"渋谷区","address":"東京都渋谷区幡ヶ谷2丁目50-2","lat":35.67993,"lon":139.677279},{"name":"恵比寿社会教育館","province":"東京都","city":"渋谷区","address":"東京都渋谷区恵比寿2丁目27-18","lat":35.64532,"lon":139.719558},{"name":"長谷戸社会教育館","province":"東京都","city":"渋谷区","address":"東京都渋谷区恵比寿西1丁目23-4","lat":35.647095,"lon":139.706509},{"name":"千駄ヶ谷社会教育館","province":"東京都","city":"渋谷区","address":"東京都渋谷区千駄ヶ谷1丁目6","lat":35.678021,"lon":139.709928},{"name":"上原社会教育館","province":"東京都","city":"渋谷区","address":"東京都渋谷区上原3丁目13-8","lat":35.666525,"lon":139.678725},{"name":"渋谷区スポーツセンター","province":"東京都","city":"渋谷区","address":"東京都渋谷区西原1丁目40-18","lat":35.675785,"lon":139.680574},{"name":"渋谷区スポーツセンター","province":"東京都","city":"渋谷区","address":"東京都渋谷区西原1丁目40-18","lat":35.675806,"lon":139.680583},{"name":"渋谷区スポーツセンター","province":"東京都","city":"渋谷区","address":"東京都渋谷区西原1丁目40","lat":35.675797,"lon":139.68091},{"name":"渋谷区スポーツセンター","province":"東京都","city":"渋谷区","address":"東京都渋谷区西原1丁目40","lat":35.675785,"lon":139.680945},{"name":"渋谷区代官山スポーツプラザ","province":"東京都","city":"渋谷区","address":"東京都渋谷区代官山町17-2","lat":35.648967,"lon":139.703704},{"name":"渋谷区代々木西原公園庭球場","province":"東京都","city":"渋谷区","address":"東京都渋谷区西原1丁目47-2","lat":35.673794,"lon":139.684707},{"name":"渋谷区猿楽トレーニングジム","province":"東京都","city":"渋谷区","address":"東京都渋谷区猿楽町12-35","lat":35.650441,"lon":139.701912},{"name":"渋谷区ひがし健康プラザ","province":"東京都","city":"渋谷区","address":"東京都渋谷区東3丁目14-13","lat":35.650947,"lon":139.709624},{"name":"渋谷区ひがし健康プラザ","province":"東京都","city":"渋谷区","address":"東京都渋谷区東3丁目14","lat":35.651017,"lon":139.70968},{"name":"渋谷区ひがし健康プラザ","province":"東京都","city":"渋谷区","address":"東京都渋谷区東3丁目14","lat":35.650887,"lon":139.709803},{"name":"総合ケアコミュニティ・せせらぎ","province":"東京都","city":"渋谷区","address":"東京都渋谷区西原1丁目40-10","lat":35.675412,"lon":139.681807},{"name":"美竹の丘・しぶや","province":"東京都","city":"渋谷区","address":"東京都渋谷区渋谷1丁目18-9","lat":35.661848,"lon":139.704498},{"name":"美竹の丘・しぶや","province":"東京都","city":"渋谷区","address":"東京都渋谷区渋谷1丁目18-9","lat":35.661879,"lon":139.704769},{"name":"ケアコミュニティ・原宿の丘","province":"東京都","city":"渋谷区","address":"東京都渋谷区神宮前3丁目12-8","lat":35.669862,"lon":139.711135},{"name":"渋谷区立商工会館・消費者センター","province":"東京都","city":"渋谷区","address":"東京都渋谷区渋谷1丁目12-5","lat":35.660506,"lon":139.703742},{"name":"渋谷区立勤労福祉会館","province":"東京都","city":"渋谷区","address":"東京都渋谷区神南1丁目19-8","lat":35.662595,"lon":139.699577},{"name":"西原敬老館","province":"東京都","city":"渋谷区","address":"東京都渋谷区西原2丁目35-12","lat":35.674116,"lon":139.674787},{"name":"はつらつセンター幡ヶ谷","province":"東京都","city":"渋谷区","address":"東京都渋谷区幡ヶ谷2丁目19-14","lat":35.677378,"lon":139.6742},{"name":"はつらつセンター富ヶ谷","province":"東京都","city":"渋谷区","address":"東京都渋谷区富ヶ谷2丁目27-12","lat":35.664023,"lon":139.684547},{"name":"はつらつセンター参宮橋","province":"東京都","city":"渋谷区","address":"東京都渋谷区代々木4丁目4-1","lat":35.678781,"lon":139.693079},{"name":"はつらつセンターケアステーション本町","province":"東京都","city":"渋谷区","address":"東京都渋谷区本町2丁目9-17","lat":35.683075,"lon":139.68251},{"name":"かんなみの杜・渋谷","province":"東京都","city":"渋谷区","address":"東京都渋谷区神南1丁目8-6","lat":35.664248,"lon":139.700799},{"name":"卯めこども食堂","province":"東京都","city":"渋谷区","address":"東京都渋谷区恵比寿1丁目25-12","lat":35.64673716,"lon":139.71588036},{"name":"パール子どもテーブル活動","province":"東京都","city":"渋谷区","address":"東京都渋谷区鉢山町3-27","lat":35.65275836,"lon":139.69863162},{"name":"ミート・ザ・おやつ","province":"東京都","city":"渋谷区","address":"東京都渋谷区代官山町7-9","lat":35.65073373,"lon":139.70500339},{"name":"長谷戸生活学校子ども食堂","province":"東京都","city":"渋谷区","address":"東京都渋谷区代官山町7-9","lat":35.65073373,"lon":139.70500339},{"name":"渋谷こどもテーブルゆめとぴあ","province":"東京都","city":"渋谷区","address":"東京都渋谷区鶯谷町10-15","lat":35.65317784,"lon":139.70248406},{"name":"渋谷・長崎歴史文化情報発信塾","province":"東京都","city":"渋谷区","address":"東京都渋谷区鶯谷町10-15","lat":35.65317784,"lon":139.70248406},{"name":"くるり食堂","province":"東京都","city":"渋谷区","address":"東京都渋谷区恵比寿西1丁目7-9","lat":35.64770638,"lon":139.70876432},{"name":"リフレッシュ氷川こども食堂","province":"東京都","city":"渋谷区","address":"東京都渋谷区東1丁目26-23","lat":35.65489165,"lon":139.70737802},{"name":"美竹の丘こどもごはん","province":"東京都","city":"渋谷区","address":"東京都渋谷区渋谷1丁目18-9","lat":35.66183525,"lon":139.70455298},{"name":"渋喜屋テーブル","province":"東京都","city":"渋谷区","address":"東京都渋谷区広尾3丁目2-14","lat":35.65542504,"lon":139.71414961},{"name":"スマイルきっちんナチュレ","province":"東京都","city":"渋谷区","address":"東京都渋谷区渋谷2丁目22-7","lat":35.65841895,"lon":139.70366153},{"name":"オーガニックおおうち食堂","province":"東京都","city":"渋谷区","address":"東京都渋谷区渋谷2丁目8-4","lat":35.66048268,"lon":139.70750555},{"name":"子ども料理教室","province":"東京都","city":"渋谷区","address":"東京都渋谷区宇田川町3-10","lat":35.66255726,"lon":139.69872846},{"name":"渋谷センター街こども食堂","province":"東京都","city":"渋谷区","address":"東京都渋谷区宇田川町16-8","lat":35.66085469,"lon":139.6989785},{"name":"子ども食堂","province":"東京都","city":"渋谷区","address":"東京都渋谷区円山町28-5","lat":35.65559128,"lon":139.69434298},{"name":"上富ダイニング","province":"東京都","city":"渋谷区","address":"東京都渋谷区上原3丁目13-8","lat":35.66649521,"lon":139.67853283},{"name":"みらいこどもテーブル","province":"東京都","city":"渋谷区","address":"東京都渋谷区富ヶ谷1丁目35-23","lat":35.66753145,"lon":139.68840416},{"name":"SHIBUYAコドモとママのミライ創造プロジェクト","province":"東京都","city":"渋谷区","address":"東京都渋谷区富ヶ谷2丁目9-13","lat":35.66466785,"lon":139.68643499},{"name":"コドモ大学食育部","province":"東京都","city":"渋谷区","address":"東京都渋谷区富ヶ谷2丁目9-15","lat":35.66486505,"lon":139.68663496},{"name":"上原ファンインずっとも食堂","province":"東京都","city":"渋谷区","address":"東京都渋谷区大山町21-10","lat":35.66962806,"lon":139.67275545},{"name":"サンキューキッチン","province":"東京都","city":"渋谷区","address":"東京都渋谷区西原1丁目22-9","lat":35.67686069,"lon":139.67813526},{"name":"Mamapura Kids＆Baby","province":"東京都","city":"渋谷区","address":"東京都渋谷区西原2丁目35-1","lat":35.67506917,"lon":139.6757161},{"name":"初台キッズ食堂","province":"東京都","city":"渋谷区","address":"東京都渋谷区初台1丁目33-10","lat":35.67960221,"lon":139.68485123},{"name":"初台クラブ","province":"東京都","city":"渋谷区","address":"東京都渋谷区初台1丁目11-2","lat":35.67944116,"lon":139.68679272},{"name":"みんなのカフェ“大空”","province":"東京都","city":"渋谷区","address":"東京都渋谷区幡ヶ谷2丁目50-2","lat":35.6799242,"lon":139.677288},{"name":"いるかのテーブル","province":"東京都","city":"渋谷区","address":"東京都渋谷区幡ヶ谷3丁目66-4","lat":35.68224048,"lon":139.6722439},{"name":"wakuwakuこどもひろば","province":"東京都","city":"渋谷区","address":"東京都渋谷区幡ヶ谷3丁目70","lat":35.68130169,"lon":139.67169399},{"name":"東京西ローターアクトクラブ","province":"東京都","city":"渋谷区","address":"東京都渋谷区幡ヶ谷2丁目50-2","lat":35.6799242,"lon":139.677288},{"name":"ささはたっこ","province":"東京都","city":"渋谷区","address":"東京都渋谷区笹塚1丁目50-16","lat":35.67466631,"lon":139.67015826},{"name":"やずぴょんち","province":"東京都","city":"渋谷区","address":"東京都渋谷区幡ヶ谷2丁目50-2","lat":35.6799242,"lon":139.677288},{"name":"ささはたカフェガーデン","province":"東京都","city":"渋谷区","address":"東京都渋谷区幡ヶ谷2丁目42-15","lat":35.6779799,"lon":139.67398836},{"name":"FUNNY CURRY","province":"東京都","city":"渋谷区","address":"東京都渋谷区幡ヶ谷3丁目42-8","lat":35.68035181,"lon":139.67218565},{"name":"こども食堂ささはたさんち","province":"東京都","city":"渋谷区","address":"東京都渋谷区笹塚1丁目20-4","lat":35.67272483,"lon":139.66873069},{"name":"「どなたでも食堂～お夕ご飯の日～」","province":"東京都","city":"渋谷区","address":"東京都渋谷区千駄ヶ谷5丁目12-9","lat":35.68336062,"lon":139.70524372},{"name":"みんなの世界テーブル","province":"東京都","city":"渋谷区","address":"東京都渋谷区代々木2丁目35-1","lat":35.68415756,"lon":139.69772492},{"name":"pure meat shop｜counter こども食堂","province":"東京都","city":"渋谷区","address":"東京都渋谷区千駄ヶ谷2丁目10-6","lat":35.67590603,"lon":139.70999081},{"name":"Mama's Kitchen","province":"東京都","city":"渋谷区","address":"東京都渋谷区神宮前4丁目22-11","lat":35.66867905,"lon":139.70864956},{"name":"お花屋さんのこどもごはん","province":"東京都","city":"渋谷区","address":"東京都渋谷区千駄ヶ谷3丁目54-15","lat":35.67498104,"lon":139.70591344},{"name":"ななかい子ども食堂","province":"東京都","city":"渋谷区","address":"東京都渋谷区神宮前3丁目12-8","lat":35.66989841,"lon":139.71114095},{"name":"ひといく子ども夢テーブル","province":"東京都","city":"渋谷区","address":"東京都渋谷区神宮前6丁目10-14","lat":35.66753464,"lon":139.70520824},{"name":"Yin Urasando子ども食堂","province":"東京都","city":"渋谷区","address":"東京都渋谷区神宮前4丁目15-2","lat":35.66848188,"lon":139.71092437},{"name":"渋谷合同庁舎","province":"東京都","city":"渋谷区","address":"東京都渋谷区千駄ヶ谷4丁目3-15","lat":35.679382,"lon":139.704326},{"name":"東京ウィメンズプラザ","province":"東京都","city":"渋谷区","address":"東京都渋谷区神宮前5丁目53-67","lat":35.66323,"lon":139.708327},{"name":"東京ウィメンズプラザ","province":"東京都","city":"渋谷区","address":"東京都渋谷区神宮前5丁目53-67","lat":35.663357,"lon":139.708094},{"name":"東京ウィメンズプラザ","province":"東京都","city":"渋谷区","address":"東京都渋谷区神宮前5丁目53-67","lat":35.663148,"lon":139.708446},{"name":"東京体育館","province":"東京都","city":"渋谷区","address":"東京都渋谷区千駄ヶ谷1丁目17","lat":35.678997,"lon":139.712315},{"name":"東京体育館","province":"東京都","city":"渋谷区","address":"東京都渋谷区千駄ヶ谷1丁目17-1","lat":35.679959,"lon":139.712824},{"name":"東京体育館","province":"東京都","city":"渋谷区","address":"東京都渋谷区千駄ヶ谷1丁目17-1","lat":35.679385,"lon":139.712417},{"name":"東京体育館","province":"東京都","city":"渋谷区","address":"東京都渋谷区千駄ヶ谷1丁目17-1","lat":35.679596,"lon":139.712117},{"name":"東京体育館","province":"東京都","city":"渋谷区","address":"東京都渋谷区千駄ヶ谷1丁目17-1","lat":35.680115,"lon":139.712514},{"name":"東京体育館","province":"東京都","city":"渋谷区","address":"東京都渋谷区千駄ヶ谷1丁目17-1","lat":35.679713,"lon":139.711931},{"name":"東京体育館","province":"東京都","city":"渋谷区","address":"東京都渋谷区千駄ヶ谷1丁目17-1","lat":35.68021,"lon":139.712317},{"name":"東京体育館","province":"東京都","city":"渋谷区","address":"東京都渋谷区千駄ヶ谷1丁目17-1","lat":35.679962,"lon":139.713023},{"name":"東京体育館","province":"東京都","city":"渋谷区","address":"東京都渋谷区千駄ヶ谷1丁目17-1","lat":35.679304,"lon":139.712532},{"name":"東京体育館","province":"東京都","city":"渋谷区","address":"東京都渋谷区千駄ヶ谷1丁目17-1","lat":35.679591,"lon":139.711976},{"name":"東京体育館","province":"東京都","city":"渋谷区","address":"東京都渋谷区千駄ヶ谷1丁目17-1","lat":35.680228,"lon":139.71247},{"name":"東京体育館","province":"東京都","city":"渋谷区","address":"東京都渋谷区千駄ヶ谷1丁目17","lat":35.679213,"lon":139.712714},{"name":"東京体育館","province":"東京都","city":"渋谷区","address":"東京都渋谷区千駄ヶ谷1丁目17","lat":35.679206,"lon":139.711644},{"name":"東京体育館","province":"東京都","city":"渋谷区","address":"東京都渋谷区千駄ヶ谷1丁目17","lat":35.679578,"lon":139.7118},{"name":"東京体育館","province":"東京都","city":"渋谷区","address":"東京都渋谷区千駄ヶ谷1丁目17","lat":35.679112,"lon":139.711802},{"name":"東京体育館","province":"東京都","city":"渋谷区","address":"東京都渋谷区千駄ヶ谷1丁目17","lat":35.679082,"lon":139.711601},{"name":"東京体育館","province":"東京都","city":"渋谷区","address":"東京都渋谷区千駄ヶ谷1丁目17","lat":35.679086,"lon":139.711662},{"name":"代々木公園","province":"東京都","city":"渋谷区","address":"東京都渋谷区代々木神園町2","lat":35.670022,"lon":139.693158},{"name":"代々木公園","province":"東京都","city":"渋谷区","address":"東京都渋谷区代々木神園町2","lat":35.671229,"lon":139.692974},{"name":"代々木公園","province":"東京都","city":"渋谷区","address":"東京都渋谷区代々木神園町2","lat":35.672381,"lon":139.691715},{"name":"代々木公園","province":"東京都","city":"渋谷区","address":"東京都渋谷区代々木神園町2","lat":35.672915,"lon":139.693814},{"name":"代々木公園","province":"東京都","city":"渋谷区","address":"東京都渋谷区代々木神園町2","lat":35.671731,"lon":139.696483},{"name":"代々木公園","province":"東京都","city":"渋谷区","address":"東京都渋谷区代々木神園町2","lat":35.670498,"lon":139.698151},{"name":"代々木公園","province":"東京都","city":"渋谷区","address":"東京都渋谷区代々木神園町2","lat":35.668967,"lon":139.700097},{"name":"代々木公園","province":"東京都","city":"渋谷区","address":"東京都渋谷区代々木神園町2","lat":35.669148,"lon":139.695395},{"name":"代々木公園","province":"東京都","city":"渋谷区","address":"東京都渋谷区代々木神園町2-1","lat":35.671779,"lon":139.691743},{"name":"代々木公園","province":"東京都","city":"渋谷区","address":"東京都渋谷区神南2丁目3","lat":35.667765,"lon":139.694879},{"name":"代々木公園","province":"東京都","city":"渋谷区","address":"東京都渋谷区神南2丁目3","lat":35.66781,"lon":139.694924},{"name":"代々木公園","province":"東京都","city":"渋谷区","address":"東京都渋谷区神南2丁目3","lat":35.667227,"lon":139.69671},{"name":"代々木公園","province":"東京都","city":"渋谷区","address":"東京都渋谷区神南2丁目3","lat":35.666512,"lon":139.694916},{"name":"代々木公園","province":"東京都","city":"渋谷区","address":"東京都渋谷区神南2丁目3","lat":35.667001,"lon":139.69684},{"name":"代々木公園","province":"東京都","city":"渋谷区","address":"東京都渋谷区神南2丁目3-1","lat":35.666314,"lon":139.694855},{"name":"都営大江戸線新宿駅","province":"東京都","city":"渋谷区","address":"東京都渋谷区代々木2丁目7","lat":35.687992,"lon":139.699274},{"name":"都営大江戸線代々木駅","province":"東京都","city":"渋谷区","address":"東京都渋谷区代々木1丁目36","lat":35.683961,"lon":139.70147},{"name":"東京都渋谷営業所","province":"東京都","city":"渋谷区","address":"東京都渋谷区千駄ヶ谷4丁目3-15","lat":35.679511,"lon":139.704419},{"name":"代々木八幡公衆便所","province":"東京都","city":"渋谷区","address":"東京都渋谷区代々木5丁目1","lat":35.671403,"lon":139.687981},{"name":"千駄ヶ谷出張所","province":"東京都","city":"渋谷区","address":"東京都渋谷区千駄ヶ谷4丁目25-14","lat":35.68103,"lon":139.705398},{"name":"神宮前公衆便所","province":"東京都","city":"渋谷区","address":"東京都渋谷区神宮前1丁目3","lat":35.672442,"lon":139.707977},{"name":"美竹分庁舎清掃事務所","province":"東京都","city":"渋谷区","address":"東京都渋谷区渋谷1丁目2-17","lat":35.661528,"lon":139.706222},{"name":"渋谷区役所本庁舎","province":"東京都","city":"渋谷区","address":"東京都渋谷区宇田川町1-1","lat":35.663661,"lon":139.697439},{"name":"渋谷区役所本庁舎","province":"東京都","city":"渋谷区","address":"東京都渋谷区宇田川町1-1","lat":35.663745,"lon":139.698049},{"name":"渋谷区役所本庁舎","province":"東京都","city":"渋谷区","address":"東京都渋谷区宇田川町1-1","lat":35.663795,"lon":139.697848},{"name":"渋谷区役所本庁舎","province":"東京都","city":"渋谷区","address":"東京都渋谷区宇田川町1-1","lat":35.663798,"lon":139.697845},{"name":"渋谷区役所本庁舎","province":"東京都","city":"渋谷区","address":"東京都渋谷区宇田川町1-1","lat":35.663798,"lon":139.697848},{"name":"渋谷区役所本庁舎","province":"東京都","city":"渋谷区","address":"東京都渋谷区宇田川町1-1","lat":35.663797,"lon":139.69785},{"name":"渋谷区役所本庁舎","province":"東京都","city":"渋谷区","address":"東京都渋谷区宇田川町1-1","lat":35.663798,"lon":139.697849},{"name":"北谷分庁舎（かんなみの杜・渋谷）","province":"東京都","city":"渋谷区","address":"東京都渋谷区神南1丁目8-6","lat":35.664367,"lon":139.700807},{"name":"YCC 代々木八幡区民施設","province":"東京都","city":"渋谷区","address":"東京都渋谷区代々木5丁目1-15","lat":35.67189,"lon":139.689399},{"name":"鍋島松濤公園","province":"東京都","city":"渋谷区","address":"東京都渋谷区松濤2丁目10","lat":35.65965,"lon":139.691533},{"name":"本町区民会館","province":"東京都","city":"渋谷区","address":"東京都渋谷区本町4丁目9-7","lat":35.68675,"lon":139.680723},{"name":"笹塚区民会館","province":"東京都","city":"渋谷区","address":"東京都渋谷区笹塚3丁目1-9","lat":35.67763,"lon":139.670233},{"name":"幡ヶ谷区民会館","province":"東京都","city":"渋谷区","address":"東京都渋谷区幡ヶ谷3丁目4","lat":35.67981,"lon":139.676134},{"name":"地域交流センター新橋","province":"東京都","city":"渋谷区","address":"東京都渋谷区恵比寿1丁目27-10","lat":35.64751,"lon":139.716381},{"name":"地域交流センター新橋","province":"東京都","city":"渋谷区","address":"東京都渋谷区恵比寿1丁目27-10","lat":35.6476,"lon":139.716359},{"name":"地域交流センター恵比寿","province":"東京都","city":"渋谷区","address":"東京都渋谷区恵比寿西2丁目8","lat":35.6499,"lon":139.707134},{"name":"地域交流センター恵比寿","province":"東京都","city":"渋谷区","address":"東京都渋谷区恵比寿西2丁目8","lat":35.65002,"lon":139.707129},{"name":"地域交流センター大向","province":"東京都","city":"渋谷区","address":"東京都渋谷区松濤1丁目26-6","lat":35.65904,"lon":139.693066},{"name":"地域交流センター上原","province":"東京都","city":"渋谷区","address":"東京都渋谷区上原1丁目18","lat":35.66868,"lon":139.683038},{"name":"地域交流センター西原","province":"東京都","city":"渋谷区","address":"東京都渋谷区西原2丁目26","lat":35.67444,"lon":139.678642},{"name":"地域交流センター代々木","province":"東京都","city":"渋谷区","address":"東京都渋谷区代々木3丁目51-8","lat":35.68199,"lon":139.695828},{"name":"地域交流センター二軒家","province":"東京都","city":"渋谷区","address":"東京都渋谷区本町3丁目35-4","lat":35.68931,"lon":139.681045},{"name":"地域交流センター二軒家","province":"東京都","city":"渋谷区","address":"東京都渋谷区本町3丁目35-4","lat":35.68928,"lon":139.68109},{"name":"地域交流センター本町","province":"東京都","city":"渋谷区","address":"東京都渋谷区本町6丁目6-2","lat":35.68206,"lon":139.679338},{"name":"地域交流センター代々木の杜","province":"東京都","city":"渋谷区","address":"東京都渋谷区代々木2丁目35-1","lat":35.68416,"lon":139.697577},{"name":"地域交流センター神宮前","province":"東京都","city":"渋谷区","address":"東京都渋谷区神宮前6丁目10-14","lat":35.66759,"lon":139.705137},{"name":"リフレッシュ氷川","province":"東京都","city":"渋谷区","address":"東京都渋谷区東1丁目26-23","lat":35.65488,"lon":139.707356},{"name":"リフレッシュ氷川","province":"東京都","city":"渋谷区","address":"東京都渋谷区東1丁目26-23","lat":35.65493,"lon":139.707352},{"name":"リフレッシュ氷川","province":"東京都","city":"渋谷区","address":"東京都渋谷区東1丁目26-23","lat":35.65495,"lon":139.707384},{"name":"リフレッシュ氷川","province":"東京都","city":"渋谷区","address":"東京都渋谷区東1丁目26-23","lat":35.65494,"lon":139.707439},{"name":"リフレッシュ氷川","province":"東京都","city":"渋谷区","address":"東京都渋谷区東1丁目26-23","lat":35.65493,"lon":139.707419},{"name":"笹塚駅前区民施設","province":"東京都","city":"渋谷区","address":"東京都渋谷区笹塚1丁目47-1","lat":35.67354,"lon":139.667712},{"name":"地域交流センター笹塚","province":"東京都","city":"渋谷区","address":"東京都渋谷区笹塚1丁目27-1","lat":35.672264,"lon":139.66723},{"name":"渋谷区保健所　幡ヶ谷保健相談所","province":"東京都","city":"渋谷区","address":"東京都渋谷区幡ヶ谷3丁目39-1","lat":35.679526,"lon":139.672176},{"name":"渋谷区保健所　幡ヶ谷保健相談所","province":"東京都","city":"渋谷区","address":"東京都渋谷区幡ヶ谷3丁目39-1","lat":35.679423,"lon":139.672057},{"name":"恵比寿保健相談所","province":"東京都","city":"渋谷区","address":"東京都渋谷区恵比寿2丁目27-18","lat":35.645319,"lon":139.719605},{"name":"渋谷区立中央図書館","province":"東京都","city":"渋谷区","address":"東京都渋谷区神宮前1丁目4-1","lat":35.672509,"lon":139.70617},{"name":"渋谷区立中央図書館","province":"東京都","city":"渋谷区","address":"東京都渋谷区神宮前1丁目4-1","lat":35.67242,"lon":139.706244},{"name":"渋谷区立中央図書館","province":"東京都","city":"渋谷区","address":"東京都渋谷区神宮前1丁目4-1","lat":35.672551,"lon":139.706134},{"name":"渋谷区立中央図書館","province":"東京都","city":"渋谷区","address":"東京都渋谷区神宮前1丁目4-1","lat":35.672584,"lon":139.706108},{"name":"渋谷区立臨川みんなの図書館","province":"東京都","city":"渋谷区","address":"東京都渋谷区広尾1丁目9-17","lat":35.649558,"lon":139.716472},{"name":"本町図書館","province":"東京都","city":"渋谷区","address":"東京都渋谷区本町1丁目33-5","lat":35.680734,"lon":139.681624},{"name":"富ヶ谷図書館","province":"東京都","city":"渋谷区","address":"東京都渋谷区上原1丁目46-2","lat":35.668396,"lon":139.687195},{"name":"西原図書館","province":"東京都","city":"渋谷区","address":"東京都渋谷区西原2丁目28","lat":35.67498,"lon":139.677831},{"name":"西原図書館","province":"東京都","city":"渋谷区","address":"東京都渋谷区西原2丁目28","lat":35.674979,"lon":139.67783},{"name":"渋谷区文化総合センター大和田","province":"東京都","city":"渋谷区","address":"東京都渋谷区桜丘町23-21","lat":35.655522,"lon":139.699967},{"name":"渋谷区文化総合センター大和田","province":"東京都","city":"渋谷区","address":"東京都渋谷区桜丘町23-21","lat":35.655456,"lon":139.699752},{"name":"渋谷区文化総合センター大和田","province":"東京都","city":"渋谷区","address":"東京都渋谷区桜丘町23-21","lat":35.65582,"lon":139.700049},{"name":"渋谷区文化総合センター大和田","province":"東京都","city":"渋谷区","address":"東京都渋谷区桜丘町23-21","lat":35.655376,"lon":139.700053},{"name":"渋谷区文化総合センター大和田","province":"東京都","city":"渋谷区","address":"東京都渋谷区桜丘町23-21","lat":35.655166,"lon":139.699986},{"name":"渋谷区文化総合センター大和田","province":"東京都","city":"渋谷区","address":"東京都渋谷区桜丘町23-21","lat":35.65571,"lon":139.700175},{"name":"渋谷区文化総合センター大和田","province":"東京都","city":"渋谷区","address":"東京都渋谷区桜丘町23-21","lat":35.655541,"lon":139.699974},{"name":"渋谷区文化総合センター大和田","province":"東京都","city":"渋谷区","address":"東京都渋谷区桜丘町23-21","lat":35.655492,"lon":139.699957},{"name":"渋谷区文化総合センター大和田","province":"東京都","city":"渋谷区","address":"東京都渋谷区桜丘町23-21","lat":35.655387,"lon":139.700114},{"name":"渋谷区文化総合センター大和田","province":"東京都","city":"渋谷区","address":"東京都渋谷区桜丘町23-21","lat":35.655476,"lon":139.699838},{"name":"松濤美術館","province":"東京都","city":"渋谷区","address":"東京都渋谷区松濤2丁目14-14","lat":35.658788,"lon":139.691778},{"name":"松濤美術館","province":"東京都","city":"渋谷区","address":"東京都渋谷区松濤2丁目14-14","lat":35.658788,"lon":139.691779},{"name":"白根郷土博物館・文学館","province":"東京都","city":"渋谷区","address":"東京都渋谷区東4丁目9-1","lat":35.656358,"lon":139.712502},{"name":"LINE CUBE SHIBUYA（渋谷公会堂）","province":"東京都","city":"渋谷区","address":"東京都渋谷区宇田川町1-1","lat":35.664004,"lon":139.698629},{"name":"LINE CUBE SHIBUYA（渋谷公会堂）","province":"東京都","city":"渋谷区","address":"東京都渋谷区宇田川町1-1","lat":35.664052,"lon":139.698808},{"name":"恵比寿東公園","province":"東京都","city":"渋谷区","address":"東京都渋谷区恵比寿1丁目2","lat":35.648172,"lon":139.711197},{"name":"代々木大山公園","province":"東京都","city":"渋谷区","address":"東京都渋谷区西原2丁目53","lat":35.671422,"lon":139.67513},{"name":"代々木ポニー公園","province":"東京都","city":"渋谷区","address":"東京都渋谷区代々木神園町4","lat":35.678794,"lon":139.694924},{"name":"恵比寿南二公園","province":"東京都","city":"渋谷区","address":"東京都渋谷区恵比寿南2丁目11","lat":35.643436,"lon":139.708643},{"name":"神宮通公園","province":"東京都","city":"渋谷区","address":"東京都渋谷区神宮前6丁目21","lat":35.664193,"lon":139.702053},{"name":"恵比寿南一公園","province":"東京都","city":"渋谷区","address":"東京都渋谷区恵比寿南1丁目26","lat":35.642596,"lon":139.711664},{"name":"恵比寿公園","province":"東京都","city":"渋谷区","address":"東京都渋谷区恵比寿西1丁目19","lat":35.647003,"lon":139.707108},{"name":"はるのおがわ ｺﾐｭﾆﾃｨﾊﾟｰｸ","province":"東京都","city":"渋谷区","address":"東京都渋谷区代々木5丁目68","lat":35.672238,"lon":139.691055},{"name":"幡ヶ谷新道公園","province":"東京都","city":"渋谷区","address":"東京都渋谷区幡ヶ谷3丁目56","lat":35.681897,"lon":139.674803},{"name":"幡ヶ谷第一公園","province":"東京都","city":"渋谷区","address":"東京都渋谷区幡ヶ谷1丁目11","lat":35.674771,"lon":139.671922},{"name":"二軒家公園","province":"東京都","city":"渋谷区","address":"東京都渋谷区本町3丁目30","lat":35.690443,"lon":139.682783},{"name":"代々木深町小公園","province":"東京都","city":"渋谷区","address":"東京都渋谷区富ヶ谷1丁目54","lat":35.669324,"lon":139.690725},{"name":"上原公園","province":"東京都","city":"渋谷区","address":"東京都渋谷区上原3丁目13","lat":35.666798,"lon":139.678614},{"name":"幡ヶ谷第三公園","province":"東京都","city":"渋谷区","address":"東京都渋谷区幡ヶ谷3丁目35","lat":35.678119,"lon":139.671526},{"name":"広尾北公園","province":"東京都","city":"渋谷区","address":"東京都渋谷区広尾4丁目1","lat":35.656367,"lon":139.719885},{"name":"本町公園","province":"東京都","city":"渋谷区","address":"東京都渋谷区本町4丁目5","lat":35.68641,"lon":139.681244},{"name":"景丘公園","province":"東京都","city":"渋谷区","address":"東京都渋谷区恵比寿4丁目19","lat":35.643795,"lon":139.713549},{"name":"代々木みどり公園","province":"東京都","city":"渋谷区","address":"東京都渋谷区代々木1丁目37","lat":35.68318,"lon":139.70061},{"name":"代官山公園","province":"東京都","city":"渋谷区","address":"東京都渋谷区代官山町17","lat":35.648649,"lon":139.703637},{"name":"本町さくら公園","province":"東京都","city":"渋谷区","address":"東京都渋谷区本町2丁目21","lat":35.68376,"lon":139.680431},{"name":"富ヶ谷三本杉公園","province":"東京都","city":"渋谷区","address":"東京都渋谷区富ヶ谷2丁目2","lat":35.666568,"lon":139.687158},{"name":"臨川四季の森","province":"東京都","city":"渋谷区","address":"東京都渋谷区広尾5丁目23","lat":35.648623,"lon":139.718951},{"name":"二軒家ふるさと公園","province":"東京都","city":"渋谷区","address":"東京都渋谷区本町3丁目35","lat":35.689363,"lon":139.680929},{"name":"玉川上水旧水路　初台緑道②","province":"東京都","city":"渋谷区","address":"東京都渋谷区初台1丁目32","lat":35.679496,"lon":139.683628},{"name":"笹塚緑道公園便所","province":"東京都","city":"渋谷区","address":"東京都渋谷区笹塚1丁目29","lat":35.673373,"lon":139.666798},{"name":"幡ヶ谷ひだまり公園","province":"東京都","city":"渋谷区","address":"東京都渋谷区幡ヶ谷2丁目42","lat":35.6782,"lon":139.674386},{"name":"本町南児童遊園地","province":"東京都","city":"渋谷区","address":"東京都渋谷区本町1丁目56","lat":35.683107,"lon":139.684205},{"name":"広尾児童遊園地","province":"東京都","city":"渋谷区","address":"東京都渋谷区広尾5丁目16","lat":35.649568,"lon":139.720683},{"name":"並木橋公衆便所","province":"東京都","city":"渋谷区","address":"東京都渋谷区東1丁目27","lat":35.65497,"lon":139.706575},{"name":"本町一丁目児童遊園地","province":"東京都","city":"渋谷区","address":"東京都渋谷区本町1丁目26","lat":35.679556,"lon":139.679889},{"name":"代々木二丁目あおい公園","province":"東京都","city":"渋谷区","address":"東京都渋谷区代々木2丁目13-4","lat":35.687076,"lon":139.696354},{"name":"宮下公園","province":"東京都","city":"渋谷区","address":"東京都渋谷区渋谷1丁目26-5","lat":35.661609,"lon":139.70159},{"name":"渋谷区子育てネウボラ","province":"東京都","city":"渋谷区","address":"東京都渋谷区宇田川町5-6","lat":35.662875,"lon":139.69821},{"name":"広尾東公園","province":"東京都","city":"渋谷区","address":"東京都渋谷区広尾4丁目2","lat":35.653329,"lon":139.721108},{"name":"七号通り公園","province":"東京都","city":"渋谷区","address":"東京都渋谷区幡ヶ谷2丁目53","lat":35.678883,"lon":139.674417},{"name":"西原一丁目公園","province":"東京都","city":"渋谷区","address":"東京都渋谷区西原1丁目28","lat":35.677626,"lon":139.679602},{"name":"東三丁目公衆便所","province":"東京都","city":"渋谷区","address":"東京都渋谷区東3丁目27","lat":35.64896,"lon":139.709152},{"name":"表参道公衆便所","province":"東京都","city":"渋谷区","address":"東京都渋谷区神宮前4丁目12","lat":35.66672,"lon":139.70971},{"name":"渋谷駅西口公衆便所","province":"東京都","city":"渋谷区","address":"東京都渋谷区道玄坂1丁目1","lat":35.658288,"lon":139.701035},{"name":"渋谷駅東口公衆便所","province":"東京都","city":"渋谷区","address":"東京都渋谷区渋谷2丁目24","lat":35.659126,"lon":139.701847},{"name":"渋谷駅東口公衆便所","province":"東京都","city":"渋谷区","address":"東京都渋谷区渋谷2丁目24","lat":35.659122,"lon":139.701847},{"name":"幡ヶ谷公衆便所","province":"東京都","city":"渋谷区","address":"東京都渋谷区幡ヶ谷3丁目37","lat":35.677771,"lon":139.670536},{"name":"千駄ヶ谷駅前公衆便所","province":"東京都","city":"渋谷区","address":"東京都渋谷区千駄ヶ谷1丁目","lat":35.680781,"lon":139.712097},{"name":"恵比寿駅西口公衆便所","province":"東京都","city":"渋谷区","address":"東京都渋谷区恵比寿南1丁目5","lat":35.647435,"lon":139.709431},{"name":"区役所前公衆便所","province":"東京都","city":"渋谷区","address":"東京都渋谷区神南1丁目5","lat":35.664843,"lon":139.699259},{"name":"神宮前一丁目公衆便所","province":"東京都","city":"渋谷区","address":"東京都渋谷区神宮前1丁目5","lat":35.671396,"lon":139.704958},{"name":"渋谷駅東口公衆便所","province":"東京都","city":"渋谷区","address":"東京都渋谷区渋谷2丁目23","lat":35.657942,"lon":139.703104},{"name":"幡ヶ谷社会教育館","province":"東京都","city":"渋谷区","address":"東京都渋谷区幡ヶ谷2丁目50-2","lat":35.67993,"lon":139.677279},{"name":"恵比寿社会教育館","province":"東京都","city":"渋谷区","address":"東京都渋谷区恵比寿2丁目27-18","lat":35.64532,"lon":139.719558},{"name":"長谷戸社会教育館","province":"東京都","city":"渋谷区","address":"東京都渋谷区恵比寿西1丁目23-4","lat":35.647095,"lon":139.706509},{"name":"千駄ヶ谷社会教育館","province":"東京都","city":"渋谷区","address":"東京都渋谷区千駄ヶ谷1丁目6","lat":35.678021,"lon":139.709928},{"name":"上原社会教育館","province":"東京都","city":"渋谷区","address":"東京都渋谷区上原3丁目13-8","lat":35.666525,"lon":139.678725},{"name":"渋谷区スポーツセンター","province":"東京都","city":"渋谷区","address":"東京都渋谷区西原1丁目40-18","lat":35.675785,"lon":139.680574},{"name":"渋谷区スポーツセンター","province":"東京都","city":"渋谷区","address":"東京都渋谷区西原1丁目40-18","lat":35.675806,"lon":139.680583},{"name":"渋谷区スポーツセンター","province":"東京都","city":"渋谷区","address":"東京都渋谷区西原1丁目40","lat":35.675797,"lon":139.68091},{"name":"渋谷区スポーツセンター","province":"東京都","city":"渋谷区","address":"東京都渋谷区西原1丁目40","lat":35.675785,"lon":139.680945},{"name":"渋谷区代官山スポーツプラザ","province":"東京都","city":"渋谷区","address":"東京都渋谷区代官山町17-2","lat":35.648967,"lon":139.703704},{"name":"渋谷区代々木西原公園庭球場","province":"東京都","city":"渋谷区","address":"東京都渋谷区西原1丁目47-2","lat":35.673794,"lon":139.684707},{"name":"渋谷区猿楽トレーニングジム","province":"東京都","city":"渋谷区","address":"東京都渋谷区猿楽町12-35","lat":35.650441,"lon":139.701912},{"name":"渋谷区ひがし健康プラザ","province":"東京都","city":"渋谷区","address":"東京都渋谷区東3丁目14-13","lat":35.650947,"lon":139.709624},{"name":"渋谷区ひがし健康プラザ","province":"東京都","city":"渋谷区","address":"東京都渋谷区東3丁目14","lat":35.651017,"lon":139.70968},{"name":"渋谷区ひがし健康プラザ","province":"東京都","city":"渋谷区","address":"東京都渋谷区東3丁目14","lat":35.650887,"lon":139.709803},{"name":"総合ケアコミュニティ・せせらぎ","province":"東京都","city":"渋谷区","address":"東京都渋谷区西原1丁目40-10","lat":35.675412,"lon":139.681807},{"name":"美竹の丘・しぶや","province":"東京都","city":"渋谷区","address":"東京都渋谷区渋谷1丁目18-9","lat":35.661848,"lon":139.704498},{"name":"美竹の丘・しぶや","province":"東京都","city":"渋谷区","address":"東京都渋谷区渋谷1丁目18-9","lat":35.661879,"lon":139.704769},{"name":"ケアコミュニティ・原宿の丘","province":"東京都","city":"渋谷区","address":"東京都渋谷区神宮前3丁目12-8","lat":35.669862,"lon":139.711135},{"name":"渋谷区立商工会館・消費者センター","province":"東京都","city":"渋谷区","address":"東京都渋谷区渋谷1丁目12-5","lat":35.660506,"lon":139.703742},{"name":"渋谷区立勤労福祉会館","province":"東京都","city":"渋谷区","address":"東京都渋谷区神南1丁目19-8","lat":35.662595,"lon":139.699577},{"name":"西原敬老館","province":"東京都","city":"渋谷区","address":"東京都渋谷区西原2丁目35-12","lat":35.674116,"lon":139.674787},{"name":"はつらつセンター幡ヶ谷","province":"東京都","city":"渋谷区","address":"東京都渋谷区幡ヶ谷2丁目19-14","lat":35.677378,"lon":139.6742},{"name":"はつらつセンター富ヶ谷","province":"東京都","city":"渋谷区","address":"東京都渋谷区富ヶ谷2丁目27-12","lat":35.664023,"lon":139.684547},{"name":"はつらつセンター参宮橋","province":"東京都","city":"渋谷区","address":"東京都渋谷区代々木4丁目4-1","lat":35.678781,"lon":139.693079},{"name":"はつらつセンターケアステーション本町","province":"東京都","city":"渋谷区","address":"東京都渋谷区本町2丁目9-17","lat":35.683075,"lon":139.68251},{"name":"かんなみの杜・渋谷","province":"東京都","city":"渋谷区","address":"東京都渋谷区神南1丁目8-6","lat":35.664248,"lon":139.700799},{"name":"卯めこども食堂","province":"東京都","city":"渋谷区","address":"東京都渋谷区恵比寿1丁目25-12","lat":35.64673716,"lon":139.71588036},{"name":"パール子どもテーブル活動","province":"東京都","city":"渋谷区","address":"東京都渋谷区鉢山町3-27","lat":35.65275836,"lon":139.69863162},{"name":"ミート・ザ・おやつ","province":"東京都","city":"渋谷区","address":"東京都渋谷区代官山町7-9","lat":35.65073373,"lon":139.70500339},{"name":"長谷戸生活学校子ども食堂","province":"東京都","city":"渋谷区","address":"東京都渋谷区代官山町7-9","lat":35.65073373,"lon":139.70500339},{"name":"渋谷こどもテーブルゆめとぴあ","province":"東京都","city":"渋谷区","address":"東京都渋谷区鶯谷町10-15","lat":35.65317784,"lon":139.70248406},{"name":"渋谷・長崎歴史文化情報発信塾","province":"東京都","city":"渋谷区","address":"東京都渋谷区鶯谷町10-15","lat":35.65317784,"lon":139.70248406},{"name":"くるり食堂","province":"東京都","city":"渋谷区","address":"東京都渋谷区恵比寿西1丁目7-9","lat":35.64770638,"lon":139.70876432},{"name":"リフレッシュ氷川こども食堂","province":"東京都","city":"渋谷区","address":"東京都渋谷区東1丁目26-23","lat":35.65489165,"lon":139.70737802},{"name":"美竹の丘こどもごはん","province":"東京都","city":"渋谷区","address":"東京都渋谷区渋谷1丁目18-9","lat":35.66183525,"lon":139.70455298},{"name":"渋喜屋テーブル","province":"東京都","city":"渋谷区","address":"東京都渋谷区広尾3丁目2-14","lat":35.65542504,"lon":139.71414961},{"name":"スマイルきっちんナチュレ","province":"東京都","city":"渋谷区","address":"東京都渋谷区渋谷2丁目22-7","lat":35.65841895,"lon":139.70366153},{"name":"オーガニックおおうち食堂","province":"東京都","city":"渋谷区","address":"東京都渋谷区渋谷2丁目8-4","lat":35.66048268,"lon":139.70750555},{"name":"子ども料理教室","province":"東京都","city":"渋谷区","address":"東京都渋谷区宇田川町3-10","lat":35.66255726,"lon":139.69872846},{"name":"渋谷センター街こども食堂","province":"東京都","city":"渋谷区","address":"東京都渋谷区宇田川町16-8","lat":35.66085469,"lon":139.6989785},{"name":"子ども食堂","province":"東京都","city":"渋谷区","address":"東京都渋谷区円山町28-5","lat":35.65559128,"lon":139.69434298},{"name":"上富ダイニング","province":"東京都","city":"渋谷区","address":"東京都渋谷区上原3丁目13-8","lat":35.66649521,"lon":139.67853283},{"name":"みらいこどもテーブル","province":"東京都","city":"渋谷区","address":"東京都渋谷区富ヶ谷1丁目35-23","lat":35.66753145,"lon":139.68840416},{"name":"SHIBUYAコドモとママのミライ創造プロジェクト","province":"東京都","city":"渋谷区","address":"東京都渋谷区富ヶ谷2丁目9-13","lat":35.66466785,"lon":139.68643499},{"name":"コドモ大学食育部","province":"東京都","city":"渋谷区","address":"東京都渋谷区富ヶ谷2丁目9-15","lat":35.66486505,"lon":139.68663496},{"name":"上原ファンインずっとも食堂","province":"東京都","city":"渋谷区","address":"東京都渋谷区大山町21-10","lat":35.66962806,"lon":139.67275545},{"name":"サンキューキッチン","province":"東京都","city":"渋谷区","address":"東京都渋谷区西原1丁目22-9","lat":35.67686069,"lon":139.67813526},{"name":"Mamapura Kids＆Baby","province":"東京都","city":"渋谷区","address":"東京都渋谷区西原2丁目35-1","lat":35.67506917,"lon":139.6757161},{"name":"初台キッズ食堂","province":"東京都","city":"渋谷区","address":"東京都渋谷区初台1丁目33-10","lat":35.67960221,"lon":139.68485123},{"name":"初台クラブ","province":"東京都","city":"渋谷区","address":"東京都渋谷区初台1丁目11-2","lat":35.67944116,"lon":139.68679272},{"name":"みんなのカフェ“大空”","province":"東京都","city":"渋谷区","address":"東京都渋谷区幡ヶ谷2丁目50-2","lat":35.6799242,"lon":139.677288},{"name":"いるかのテーブル","province":"東京都","city":"渋谷区","address":"東京都渋谷区幡ヶ谷3丁目66-4","lat":35.68224048,"lon":139.6722439},{"name":"wakuwakuこどもひろば","province":"東京都","city":"渋谷区","address":"東京都渋谷区幡ヶ谷3丁目70","lat":35.68130169,"lon":139.67169399},{"name":"東京西ローターアクトクラブ","province":"東京都","city":"渋谷区","address":"東京都渋谷区幡ヶ谷2丁目50-2","lat":35.6799242,"lon":139.677288},{"name":"ささはたっこ","province":"東京都","city":"渋谷区","address":"東京都渋谷区笹塚1丁目50-16","lat":35.67466631,"lon":139.67015826},{"name":"やずぴょんち","province":"東京都","city":"渋谷区","address":"東京都渋谷区幡ヶ谷2丁目50-2","lat":35.6799242,"lon":139.677288},{"name":"ささはたカフェガーデン","province":"東京都","city":"渋谷区","address":"東京都渋谷区幡ヶ谷2丁目42-15","lat":35.6779799,"lon":139.67398836},{"name":"FUNNY CURRY","province":"東京都","city":"渋谷区","address":"東京都渋谷区幡ヶ谷3丁目42-8","lat":35.68035181,"lon":139.67218565},{"name":"こども食堂ささはたさんち","province":"東京都","city":"渋谷区","address":"東京都渋谷区笹塚1丁目20-4","lat":35.67272483,"lon":139.66873069},{"name":"「どなたでも食堂～お夕ご飯の日～」","province":"東京都","city":"渋谷区","address":"東京都渋谷区千駄ヶ谷5丁目12-9","lat":35.68336062,"lon":139.70524372},{"name":"みんなの世界テーブル","province":"東京都","city":"渋谷区","address":"東京都渋谷区代々木2丁目35-1","lat":35.68415756,"lon":139.69772492},{"name":"pure meat shop｜counter こども食堂","province":"東京都","city":"渋谷区","address":"東京都渋谷区千駄ヶ谷2丁目10-6","lat":35.67590603,"lon":139.70999081},{"name":"Mama's Kitchen","province":"東京都","city":"渋谷区","address":"東京都渋谷区神宮前4丁目22-11","lat":35.66867905,"lon":139.70864956},{"name":"お花屋さんのこどもごはん","province":"東京都","city":"渋谷区","address":"東京都渋谷区千駄ヶ谷3丁目54-15","lat":35.67498104,"lon":139.70591344},{"name":"ななかい子ども食堂","province":"東京都","city":"渋谷区","address":"東京都渋谷区神宮前3丁目12-8","lat":35.66989841,"lon":139.71114095},{"name":"ひといく子ども夢テーブル","province":"東京都","city":"渋谷区","address":"東京都渋谷区神宮前6丁目10-14","lat":35.66753464,"lon":139.70520824},{"name":"Yin Urasando子ども食堂","province":"東京都","city":"渋谷区","address":"東京都渋谷区神宮前4丁目15-2","lat":35.66848188,"lon":139.71092437},{"name":"渋谷合同庁舎","province":"東京都","city":"渋谷区","address":"東京都渋谷区千駄ヶ谷4丁目3-15","lat":35.679382,"lon":139.704326},{"name":"東京ウィメンズプラザ","province":"東京都","city":"渋谷区","address":"東京都渋谷区神宮前5丁目53-67","lat":35.66323,"lon":139.708327},{"name":"東京ウィメンズプラザ","province":"東京都","city":"渋谷区","address":"東京都渋谷区神宮前5丁目53-67","lat":35.663357,"lon":139.708094},{"name":"東京ウィメンズプラザ","province":"東京都","city":"渋谷区","address":"東京都渋谷区神宮前5丁目53-67","lat":35.663148,"lon":139.708446},{"name":"東京体育館","province":"東京都","city":"渋谷区","address":"東京都渋谷区千駄ヶ谷1丁目17","lat":35.678997,"lon":139.712315},{"name":"東京体育館","province":"東京都","city":"渋谷区","address":"東京都渋谷区千駄ヶ谷1丁目17-1","lat":35.679959,"lon":139.712824},{"name":"東京体育館","province":"東京都","city":"渋谷区","address":"東京都渋谷区千駄ヶ谷1丁目17-1","lat":35.679385,"lon":139.712417},{"name":"東京体育館","province":"東京都","city":"渋谷区","address":"東京都渋谷区千駄ヶ谷1丁目17-1","lat":35.679596,"lon":139.712117},{"name":"東京体育館","province":"東京都","city":"渋谷区","address":"東京都渋谷区千駄ヶ谷1丁目17-1","lat":35.680115,"lon":139.712514},{"name":"東京体育館","province":"東京都","city":"渋谷区","address":"東京都渋谷区千駄ヶ谷1丁目17-1","lat":35.679713,"lon":139.711931},{"name":"東京体育館","province":"東京都","city":"渋谷区","address":"東京都渋谷区千駄ヶ谷1丁目17-1","lat":35.68021,"lon":139.712317},{"name":"東京体育館","province":"東京都","city":"渋谷区","address":"東京都渋谷区千駄ヶ谷1丁目17-1","lat":35.679962,"lon":139.713023},{"name":"東京体育館","province":"東京都","city":"渋谷区","address":"東京都渋谷区千駄ヶ谷1丁目17-1","lat":35.679304,"lon":139.712532},{"name":"東京体育館","province":"東京都","city":"渋谷区","address":"東京都渋谷区千駄ヶ谷1丁目17-1","lat":35.679591,"lon":139.711976},{"name":"東京体育館","province":"東京都","city":"渋谷区","address":"東京都渋谷区千駄ヶ谷1丁目17-1","lat":35.680228,"lon":139.71247},{"name":"東京体育館","province":"東京都","city":"渋谷区","address":"東京都渋谷区千駄ヶ谷1丁目17","lat":35.679213,"lon":139.712714},{"name":"東京体育館","province":"東京都","city":"渋谷区","address":"東京都渋谷区千駄ヶ谷1丁目17","lat":35.679206,"lon":139.711644},{"name":"東京体育館","province":"東京都","city":"渋谷区","address":"東京都渋谷区千駄ヶ谷1丁目17","lat":35.679578,"lon":139.7118},{"name":"東京体育館","province":"東京都","city":"渋谷区","address":"東京都渋谷区千駄ヶ谷1丁目17","lat":35.679112,"lon":139.711802},{"name":"東京体育館","province":"東京都","city":"渋谷区","address":"東京都渋谷区千駄ヶ谷1丁目17","lat":35.679082,"lon":139.711601},{"name":"東京体育館","province":"東京都","city":"渋谷区","address":"東京都渋谷区千駄ヶ谷1丁目17","lat":35.679086,"lon":139.711662},{"name":"代々木公園","province":"東京都","city":"渋谷区","address":"東京都渋谷区代々木神園町2","lat":35.670022,"lon":139.693158},{"name":"代々木公園","province":"東京都","city":"渋谷区","address":"東京都渋谷区代々木神園町2","lat":35.671229,"lon":139.692974},{"name":"代々木公園","province":"東京都","city":"渋谷区","address":"東京都渋谷区代々木神園町2","lat":35.672381,"lon":139.691715},{"name":"代々木公園","province":"東京都","city":"渋谷区","address":"東京都渋谷区代々木神園町2","lat":35.672915,"lon":139.693814},{"name":"代々木公園","province":"東京都","city":"渋谷区","address":"東京都渋谷区代々木神園町2","lat":35.671731,"lon":139.696483},{"name":"代々木公園","province":"東京都","city":"渋谷区","address":"東京都渋谷区代々木神園町2","lat":35.670498,"lon":139.698151},{"name":"代々木公園","province":"東京都","city":"渋谷区","address":"東京都渋谷区代々木神園町2","lat":35.668967,"lon":139.700097},{"name":"代々木公園","province":"東京都","city":"渋谷区","address":"東京都渋谷区代々木神園町2","lat":35.669148,"lon":139.695395},{"name":"代々木公園","province":"東京都","city":"渋谷区","address":"東京都渋谷区代々木神園町2-1","lat":35.671779,"lon":139.691743},{"name":"代々木公園","province":"東京都","city":"渋谷区","address":"東京都渋谷区神南2丁目3","lat":35.667765,"lon":139.694879},{"name":"代々木公園","province":"東京都","city":"渋谷区","address":"東京都渋谷区神南2丁目3","lat":35.66781,"lon":139.694924},{"name":"代々木公園","province":"東京都","city":"渋谷区","address":"東京都渋谷区神南2丁目3","lat":35.667227,"lon":139.69671},{"name":"代々木公園","province":"東京都","city":"渋谷区","address":"東京都渋谷区神南2丁目3","lat":35.666512,"lon":139.694916},{"name":"代々木公園","province":"東京都","city":"渋谷区","address":"東京都渋谷区神南2丁目3","lat":35.667001,"lon":139.69684},{"name":"代々木公園","province":"東京都","city":"渋谷区","address":"東京都渋谷区神南2丁目3-1","lat":35.666314,"lon":139.694855},{"name":"都営大江戸線新宿駅","province":"東京都","city":"渋谷区","address":"東京都渋谷区代々木2丁目7","lat":35.687992,"lon":139.699274},{"name":"都営大江戸線代々木駅","province":"東京都","city":"渋谷区","address":"東京都渋谷区代々木1丁目36","lat":35.683961,"lon":139.70147},{"name":"東京都渋谷営業所","province":"東京都","city":"渋谷区","address":"東京都渋谷区千駄ヶ谷4丁目3-15","lat":35.679511,"lon":139.704419},{"name":"代々木八幡公衆便所","province":"東京都","city":"渋谷区","address":"東京都渋谷区代々木5丁目1","lat":35.671403,"lon":139.687981},{"name":"千駄ヶ谷出張所","province":"東京都","city":"渋谷区","address":"東京都渋谷区千駄ヶ谷4丁目25-14","lat":35.68103,"lon":139.705398},{"name":"神宮前公衆便所","province":"東京都","city":"渋谷区","address":"東京都渋谷区神宮前1丁目3","lat":35.672442,"lon":139.707977},{"name":"美竹分庁舎清掃事務所","province":"東京都","city":"渋谷区","address":"東京都渋谷区渋谷1丁目2-17","lat":35.661528,"lon":139.706222},{"name":"渋谷区役所本庁舎","province":"東京都","city":"渋谷区","address":"東京都渋谷区宇田川町1-1","lat":35.663661,"lon":139.697439},{"name":"渋谷区役所本庁舎","province":"東京都","city":"渋谷区","address":"東京都渋谷区宇田川町1-1","lat":35.663745,"lon":139.698049},{"name":"渋谷区役所本庁舎","province":"東京都","city":"渋谷区","address":"東京都渋谷区宇田川町1-1","lat":35.663795,"lon":139.697848},{"name":"渋谷区役所本庁舎","province":"東京都","city":"渋谷区","address":"東京都渋谷区宇田川町1-1","lat":35.663798,"lon":139.697845},{"name":"渋谷区役所本庁舎","province":"東京都","city":"渋谷区","address":"東京都渋谷区宇田川町1-1","lat":35.663798,"lon":139.697848},{"name":"渋谷区役所本庁舎","province":"東京都","city":"渋谷区","address":"東京都渋谷区宇田川町1-1","lat":35.663797,"lon":139.69785},{"name":"渋谷区役所本庁舎","province":"東京都","city":"渋谷区","address":"東京都渋谷区宇田川町1-1","lat":35.663798,"lon":139.697849},{"name":"北谷分庁舎（かんなみの杜・渋谷）","province":"東京都","city":"渋谷区","address":"東京都渋谷区神南1丁目8-6","lat":35.664367,"lon":139.700807},{"name":"YCC 代々木八幡区民施設","province":"東京都","city":"渋谷区","address":"東京都渋谷区代々木5丁目1-15","lat":35.67189,"lon":139.689399},{"name":"鍋島松濤公園","province":"東京都","city":"渋谷区","address":"東京都渋谷区松濤2丁目10","lat":35.65965,"lon":139.691533},{"name":"本町区民会館","province":"東京都","city":"渋谷区","address":"東京都渋谷区本町4丁目9-7","lat":35.68675,"lon":139.680723},{"name":"笹塚区民会館","province":"東京都","city":"渋谷区","address":"東京都渋谷区笹塚3丁目1-9","lat":35.67763,"lon":139.670233},{"name":"幡ヶ谷区民会館","province":"東京都","city":"渋谷区","address":"東京都渋谷区幡ヶ谷3丁目4","lat":35.67981,"lon":139.676134},{"name":"地域交流センター新橋","province":"東京都","city":"渋谷区","address":"東京都渋谷区恵比寿1丁目27-10","lat":35.64751,"lon":139.716381},{"name":"地域交流センター新橋","province":"東京都","city":"渋谷区","address":"東京都渋谷区恵比寿1丁目27-10","lat":35.6476,"lon":139.716359},{"name":"地域交流センター恵比寿","province":"東京都","city":"渋谷区","address":"東京都渋谷区恵比寿西2丁目8","lat":35.6499,"lon":139.707134},{"name":"地域交流センター恵比寿","province":"東京都","city":"渋谷区","address":"東京都渋谷区恵比寿西2丁目8","lat":35.65002,"lon":139.707129},{"name":"地域交流センター大向","province":"東京都","city":"渋谷区","address":"東京都渋谷区松濤1丁目26-6","lat":35.65904,"lon":139.693066},{"name":"地域交流センター上原","province":"東京都","city":"渋谷区","address":"東京都渋谷区上原1丁目18","lat":35.66868,"lon":139.683038},{"name":"地域交流センター西原","province":"東京都","city":"渋谷区","address":"東京都渋谷区西原2丁目26","lat":35.67444,"lon":139.678642},{"name":"地域交流センター代々木","province":"東京都","city":"渋谷区","address":"東京都渋谷区代々木3丁目51-8","lat":35.68199,"lon":139.695828},{"name":"地域交流センター二軒家","province":"東京都","city":"渋谷区","address":"東京都渋谷区本町3丁目35-4","lat":35.68931,"lon":139.681045},{"name":"地域交流センター二軒家","province":"東京都","city":"渋谷区","address":"東京都渋谷区本町3丁目35-4","lat":35.68928,"lon":139.68109},{"name":"地域交流センター本町","province":"東京都","city":"渋谷区","address":"東京都渋谷区本町6丁目6-2","lat":35.68206,"lon":139.679338},{"name":"地域交流センター代々木の杜","province":"東京都","city":"渋谷区","address":"東京都渋谷区代々木2丁目35-1","lat":35.68416,"lon":139.697577},{"name":"地域交流センター神宮前","province":"東京都","city":"渋谷区","address":"東京都渋谷区神宮前6丁目10-14","lat":35.66759,"lon":139.705137},{"name":"リフレッシュ氷川","province":"東京都","city":"渋谷区","address":"東京都渋谷区東1丁目26-23","lat":35.65488,"lon":139.707356},{"name":"リフレッシュ氷川","province":"東京都","city":"渋谷区","address":"東京都渋谷区東1丁目26-23","lat":35.65493,"lon":139.707352},{"name":"リフレッシュ氷川","province":"東京都","city":"渋谷区","address":"東京都渋谷区東1丁目26-23","lat":35.65495,"lon":139.707384},{"name":"リフレッシュ氷川","province":"東京都","city":"渋谷区","address":"東京都渋谷区東1丁目26-23","lat":35.65494,"lon":139.707439},{"name":"リフレッシュ氷川","province":"東京都","city":"渋谷区","address":"東京都渋谷区東1丁目26-23","lat":35.65493,"lon":139.707419},{"name":"笹塚駅前区民施設","province":"東京都","city":"渋谷区","address":"東京都渋谷区笹塚1丁目47-1","lat":35.67354,"lon":139.667712},{"name":"地域交流センター笹塚","province":"東京都","city":"渋谷区","address":"東京都渋谷区笹塚1丁目27-1","lat":35.672264,"lon":139.66723},{"name":"渋谷区保健所　幡ヶ谷保健相談所","province":"東京都","city":"渋谷区","address":"東京都渋谷区幡ヶ谷3丁目39-1","lat":35.679526,"lon":139.672176},{"name":"渋谷区保健所　幡ヶ谷保健相談所","province":"東京都","city":"渋谷区","address":"東京都渋谷区幡ヶ谷3丁目39-1","lat":35.679423,"lon":139.672057},{"name":"恵比寿保健相談所","province":"東京都","city":"渋谷区","address":"東京都渋谷区恵比寿2丁目27-18","lat":35.645319,"lon":139.719605},{"name":"渋谷区立中央図書館","province":"東京都","city":"渋谷区","address":"東京都渋谷区神宮前1丁目4-1","lat":35.672509,"lon":139.70617},{"name":"渋谷区立中央図書館","province":"東京都","city":"渋谷区","address":"東京都渋谷区神宮前1丁目4-1","lat":35.67242,"lon":139.706244},{"name":"渋谷区立中央図書館","province":"東京都","city":"渋谷区","address":"東京都渋谷区神宮前1丁目4-1","lat":35.672551,"lon":139.706134},{"name":"渋谷区立中央図書館","province":"東京都","city":"渋谷区","address":"東京都渋谷区神宮前1丁目4-1","lat":35.672584,"lon":139.706108},{"name":"渋谷区立臨川みんなの図書館","province":"東京都","city":"渋谷区","address":"東京都渋谷区広尾1丁目9-17","lat":35.649558,"lon":139.716472},{"name":"本町図書館","province":"東京都","city":"渋谷区","address":"東京都渋谷区本町1丁目33-5","lat":35.680734,"lon":139.681624},{"name":"富ヶ谷図書館","province":"東京都","city":"渋谷区","address":"東京都渋谷区上原1丁目46-2","lat":35.668396,"lon":139.687195},{"name":"西原図書館","province":"東京都","city":"渋谷区","address":"東京都渋谷区西原2丁目28","lat":35.67498,"lon":139.677831},{"name":"西原図書館","province":"東京都","city":"渋谷区","address":"東京都渋谷区西原2丁目28","lat":35.674979,"lon":139.67783},{"name":"渋谷区文化総合センター大和田","province":"東京都","city":"渋谷区","address":"東京都渋谷区桜丘町23-21","lat":35.655522,"lon":139.699967},{"name":"渋谷区文化総合センター大和田","province":"東京都","city":"渋谷区","address":"東京都渋谷区桜丘町23-21","lat":35.655456,"lon":139.699752},{"name":"渋谷区文化総合センター大和田","province":"東京都","city":"渋谷区","address":"東京都渋谷区桜丘町23-21","lat":35.65582,"lon":139.700049},{"name":"渋谷区文化総合センター大和田","province":"東京都","city":"渋谷区","address":"東京都渋谷区桜丘町23-21","lat":35.655376,"lon":139.700053},{"name":"渋谷区文化総合センター大和田","province":"東京都","city":"渋谷区","address":"東京都渋谷区桜丘町23-21","lat":35.655166,"lon":139.699986},{"name":"渋谷区文化総合センター大和田","province":"東京都","city":"渋谷区","address":"東京都渋谷区桜丘町23-21","lat":35.65571,"lon":139.700175},{"name":"渋谷区文化総合センター大和田","province":"東京都","city":"渋谷区","address":"東京都渋谷区桜丘町23-21","lat":35.655541,"lon":139.699974},{"name":"渋谷区文化総合センター大和田","province":"東京都","city":"渋谷区","address":"東京都渋谷区桜丘町23-21","lat":35.655492,"lon":139.699957},{"name":"渋谷区文化総合センター大和田","province":"東京都","city":"渋谷区","address":"東京都渋谷区桜丘町23-21","lat":35.655387,"lon":139.700114},{"name":"渋谷区文化総合センター大和田","province":"東京都","city":"渋谷区","address":"東京都渋谷区桜丘町23-21","lat":35.655476,"lon":139.699838},{"name":"松濤美術館","province":"東京都","city":"渋谷区","address":"東京都渋谷区松濤2丁目14-14","lat":35.658788,"lon":139.691778},{"name":"松濤美術館","province":"東京都","city":"渋谷区","address":"東京都渋谷区松濤2丁目14-14","lat":35.658788,"lon":139.691779},{"name":"白根郷土博物館・文学館","province":"東京都","city":"渋谷区","address":"東京都渋谷区東4丁目9-1","lat":35.656358,"lon":139.712502},{"name":"LINE CUBE SHIBUYA（渋谷公会堂）","province":"東京都","city":"渋谷区","address":"東京都渋谷区宇田川町1-1","lat":35.664004,"lon":139.698629},{"name":"LINE CUBE SHIBUYA（渋谷公会堂）","province":"東京都","city":"渋谷区","address":"東京都渋谷区宇田川町1-1","lat":35.664052,"lon":139.698808},{"name":"恵比寿東公園","province":"東京都","city":"渋谷区","address":"東京都渋谷区恵比寿1丁目2","lat":35.648172,"lon":139.711197},{"name":"代々木大山公園","province":"東京都","city":"渋谷区","address":"東京都渋谷区西原2丁目53","lat":35.671422,"lon":139.67513},{"name":"代々木ポニー公園","province":"東京都","city":"渋谷区","address":"東京都渋谷区代々木神園町4","lat":35.678794,"lon":139.694924},{"name":"恵比寿南二公園","province":"東京都","city":"渋谷区","address":"東京都渋谷区恵比寿南2丁目11","lat":35.643436,"lon":139.708643},{"name":"神宮通公園","province":"東京都","city":"渋谷区","address":"東京都渋谷区神宮前6丁目21","lat":35.664193,"lon":139.702053},{"name":"恵比寿南一公園","province":"東京都","city":"渋谷区","address":"東京都渋谷区恵比寿南1丁目26","lat":35.642596,"lon":139.711664},{"name":"恵比寿公園","province":"東京都","city":"渋谷区","address":"東京都渋谷区恵比寿西1丁目19","lat":35.647003,"lon":139.707108},{"name":"はるのおがわ ｺﾐｭﾆﾃｨﾊﾟｰｸ","province":"東京都","city":"渋谷区","address":"東京都渋谷区代々木5丁目68","lat":35.672238,"lon":139.691055},{"name":"幡ヶ谷新道公園","province":"東京都","city":"渋谷区","address":"東京都渋谷区幡ヶ谷3丁目56","lat":35.681897,"lon":139.674803},{"name":"幡ヶ谷第一公園","province":"東京都","city":"渋谷区","address":"東京都渋谷区幡ヶ谷1丁目11","lat":35.674771,"lon":139.671922},{"name":"二軒家公園","province":"東京都","city":"渋谷区","address":"東京都渋谷区本町3丁目30","lat":35.690443,"lon":139.682783},{"name":"代々木深町小公園","province":"東京都","city":"渋谷区","address":"東京都渋谷区富ヶ谷1丁目54","lat":35.669324,"lon":139.690725},{"name":"上原公園","province":"東京都","city":"渋谷区","address":"東京都渋谷区上原3丁目13","lat":35.666798,"lon":139.678614},{"name":"幡ヶ谷第三公園","province":"東京都","city":"渋谷区","address":"東京都渋谷区幡ヶ谷3丁目35","lat":35.678119,"lon":139.671526},{"name":"広尾北公園","province":"東京都","city":"渋谷区","address":"東京都渋谷区広尾4丁目1","lat":35.656367,"lon":139.719885},{"name":"本町公園","province":"東京都","city":"渋谷区","address":"東京都渋谷区本町4丁目5","lat":35.68641,"lon":139.681244},{"name":"景丘公園","province":"東京都","city":"渋谷区","address":"東京都渋谷区恵比寿4丁目19","lat":35.643795,"lon":139.713549},{"name":"代々木みどり公園","province":"東京都","city":"渋谷区","address":"東京都渋谷区代々木1丁目37","lat":35.68318,"lon":139.70061},{"name":"代官山公園","province":"東京都","city":"渋谷区","address":"東京都渋谷区代官山町17","lat":35.648649,"lon":139.703637},{"name":"本町さくら公園","province":"東京都","city":"渋谷区","address":"東京都渋谷区本町2丁目21","lat":35.68376,"lon":139.680431},{"name":"富ヶ谷三本杉公園","province":"東京都","city":"渋谷区","address":"東京都渋谷区富ヶ谷2丁目2","lat":35.666568,"lon":139.687158},{"name":"臨川四季の森","province":"東京都","city":"渋谷区","address":"東京都渋谷区広尾5丁目23","lat":35.648623,"lon":139.718951},{"name":"二軒家ふるさと公園","province":"東京都","city":"渋谷区","address":"東京都渋谷区本町3丁目35","lat":35.689363,"lon":139.680929},{"name":"玉川上水旧水路　初台緑道②","province":"東京都","city":"渋谷区","address":"東京都渋谷区初台1丁目32","lat":35.679496,"lon":139.683628},{"name":"笹塚緑道公園便所","province":"東京都","city":"渋谷区","address":"東京都渋谷区笹塚1丁目29","lat":35.673373,"lon":139.666798},{"name":"幡ヶ谷ひだまり公園","province":"東京都","city":"渋谷区","address":"東京都渋谷区幡ヶ谷2丁目42","lat":35.6782,"lon":139.674386},{"name":"本町南児童遊園地","province":"東京都","city":"渋谷区","address":"東京都渋谷区本町1丁目56","lat":35.683107,"lon":139.684205},{"name":"広尾児童遊園地","province":"東京都","city":"渋谷区","address":"東京都渋谷区広尾5丁目16","lat":35.649568,"lon":139.720683},{"name":"並木橋公衆便所","province":"東京都","city":"渋谷区","address":"東京都渋谷区東1丁目27","lat":35.65497,"lon":139.706575},{"name":"本町一丁目児童遊園地","province":"東京都","city":"渋谷区","address":"東京都渋谷区本町1丁目26","lat":35.679556,"lon":139.679889},{"name":"代々木二丁目あおい公園","province":"東京都","city":"渋谷区","address":"東京都渋谷区代々木2丁目13-4","lat":35.687076,"lon":139.696354},{"name":"宮下公園","province":"東京都","city":"渋谷区","address":"東京都渋谷区渋谷1丁目26-5","lat":35.661609,"lon":139.70159},{"name":"渋谷区子育てネウボラ","province":"東京都","city":"渋谷区","address":"東京都渋谷区宇田川町5-6","lat":35.662875,"lon":139.69821},{"name":"広尾東公園","province":"東京都","city":"渋谷区","address":"東京都渋谷区広尾4丁目2","lat":35.653329,"lon":139.721108},{"name":"七号通り公園","province":"東京都","city":"渋谷区","address":"東京都渋谷区幡ヶ谷2丁目53","lat":35.678883,"lon":139.674417},{"name":"西原一丁目公園","province":"東京都","city":"渋谷区","address":"東京都渋谷区西原1丁目28","lat":35.677626,"lon":139.679602},{"name":"東三丁目公衆便所","province":"東京都","city":"渋谷区","address":"東京都渋谷区東3丁目27","lat":35.64896,"lon":139.709152},{"name":"表参道公衆便所","province":"東京都","city":"渋谷区","address":"東京都渋谷区神宮前4丁目12","lat":35.66672,"lon":139.70971},{"name":"渋谷駅西口公衆便所","province":"東京都","city":"渋谷区","address":"東京都渋谷区道玄坂1丁目1","lat":35.658288,"lon":139.701035},{"name":"渋谷駅東口公衆便所","province":"東京都","city":"渋谷区","address":"東京都渋谷区渋谷2丁目24","lat":35.659126,"lon":139.701847},{"name":"渋谷駅東口公衆便所","province":"東京都","city":"渋谷区","address":"東京都渋谷区渋谷2丁目24","lat":35.659122,"lon":139.701847},{"name":"幡ヶ谷公衆便所","province":"東京都","city":"渋谷区","address":"東京都渋谷区幡ヶ谷3丁目37","lat":35.677771,"lon":139.670536},{"name":"千駄ヶ谷駅前公衆便所","province":"東京都","city":"渋谷区","address":"東京都渋谷区千駄ヶ谷1丁目","lat":35.680781,"lon":139.712097},{"name":"恵比寿駅西口公衆便所","province":"東京都","city":"渋谷区","address":"東京都渋谷区恵比寿南1丁目5","lat":35.647435,"lon":139.709431},{"name":"区役所前公衆便所","province":"東京都","city":"渋谷区","address":"東京都渋谷区神南1丁目5","lat":35.664843,"lon":139.699259},{"name":"神宮前一丁目公衆便所","province":"東京都","city":"渋谷区","address":"東京都渋谷区神宮前1丁目5","lat":35.671396,"lon":139.704958},{"name":"渋谷駅東口公衆便所","province":"東京都","city":"渋谷区","address":"東京都渋谷区渋谷2丁目23","lat":35.657942,"lon":139.703104},{"name":"幡ヶ谷社会教育館","province":"東京都","city":"渋谷区","address":"東京都渋谷区幡ヶ谷2丁目50-2","lat":35.67993,"lon":139.677279},{"name":"恵比寿社会教育館","province":"東京都","city":"渋谷区","address":"東京都渋谷区恵比寿2丁目27-18","lat":35.64532,"lon":139.719558},{"name":"長谷戸社会教育館","province":"東京都","city":"渋谷区","address":"東京都渋谷区恵比寿西1丁目23-4","lat":35.647095,"lon":139.706509},{"name":"千駄ヶ谷社会教育館","province":"東京都","city":"渋谷区","address":"東京都渋谷区千駄ヶ谷1丁目6","lat":35.678021,"lon":139.709928},{"name":"上原社会教育館","province":"東京都","city":"渋谷区","address":"東京都渋谷区上原3丁目13-8","lat":35.666525,"lon":139.678725},{"name":"渋谷区スポーツセンター","province":"東京都","city":"渋谷区","address":"東京都渋谷区西原1丁目40-18","lat":35.675785,"lon":139.680574},{"name":"渋谷区スポーツセンター","province":"東京都","city":"渋谷区","address":"東京都渋谷区西原1丁目40-18","lat":35.675806,"lon":139.680583},{"name":"渋谷区スポーツセンター","province":"東京都","city":"渋谷区","address":"東京都渋谷区西原1丁目40","lat":35.675797,"lon":139.68091},{"name":"渋谷区スポーツセンター","province":"東京都","city":"渋谷区","address":"東京都渋谷区西原1丁目40","lat":35.675785,"lon":139.680945},{"name":"渋谷区代官山スポーツプラザ","province":"東京都","city":"渋谷区","address":"東京都渋谷区代官山町17-2","lat":35.648967,"lon":139.703704},{"name":"渋谷区代々木西原公園庭球場","province":"東京都","city":"渋谷区","address":"東京都渋谷区西原1丁目47-2","lat":35.673794,"lon":139.684707},{"name":"渋谷区猿楽トレーニングジム","province":"東京都","city":"渋谷区","address":"東京都渋谷区猿楽町12-35","lat":35.650441,"lon":139.701912},{"name":"渋谷区ひがし健康プラザ","province":"東京都","city":"渋谷区","address":"東京都渋谷区東3丁目14-13","lat":35.650947,"lon":139.709624},{"name":"渋谷区ひがし健康プラザ","province":"東京都","city":"渋谷区","address":"東京都渋谷区東3丁目14","lat":35.651017,"lon":139.70968},{"name":"渋谷区ひがし健康プラザ","province":"東京都","city":"渋谷区","address":"東京都渋谷区東3丁目14","lat":35.650887,"lon":139.709803},{"name":"総合ケアコミュニティ・せせらぎ","province":"東京都","city":"渋谷区","address":"東京都渋谷区西原1丁目40-10","lat":35.675412,"lon":139.681807},{"name":"美竹の丘・しぶや","province":"東京都","city":"渋谷区","address":"東京都渋谷区渋谷1丁目18-9","lat":35.661848,"lon":139.704498},{"name":"美竹の丘・しぶや","province":"東京都","city":"渋谷区","address":"東京都渋谷区渋谷1丁目18-9","lat":35.661879,"lon":139.704769},{"name":"ケアコミュニティ・原宿の丘","province":"東京都","city":"渋谷区","address":"東京都渋谷区神宮前3丁目12-8","lat":35.669862,"lon":139.711135},{"name":"渋谷区立商工会館・消費者センター","province":"東京都","city":"渋谷区","address":"東京都渋谷区渋谷1丁目12-5","lat":35.660506,"lon":139.703742},{"name":"渋谷区立勤労福祉会館","province":"東京都","city":"渋谷区","address":"東京都渋谷区神南1丁目19-8","lat":35.662595,"lon":139.699577},{"name":"西原敬老館","province":"東京都","city":"渋谷区","address":"東京都渋谷区西原2丁目35-12","lat":35.674116,"lon":139.674787},{"name":"はつらつセンター幡ヶ谷","province":"東京都","city":"渋谷区","address":"東京都渋谷区幡ヶ谷2丁目19-14","lat":35.677378,"lon":139.6742},{"name":"はつらつセンター富ヶ谷","province":"東京都","city":"渋谷区","address":"東京都渋谷区富ヶ谷2丁目27-12","lat":35.664023,"lon":139.684547},{"name":"はつらつセンター参宮橋","province":"東京都","city":"渋谷区","address":"東京都渋谷区代々木4丁目4-1","lat":35.678781,"lon":139.693079},{"name":"はつらつセンターケアステーション本町","province":"東京都","city":"渋谷区","address":"東京都渋谷区本町2丁目9-17","lat":35.683075,"lon":139.68251},{"name":"かんなみの杜・渋谷","province":"東京都","city":"渋谷区","address":"東京都渋谷区神南1丁目8-6","lat":35.664248,"lon":139.700799},{"name":"卯めこども食堂","province":"東京都","city":"渋谷区","address":"東京都渋谷区恵比寿1丁目25-12","lat":35.64673716,"lon":139.71588036},{"name":"パール子どもテーブル活動","province":"東京都","city":"渋谷区","address":"東京都渋谷区鉢山町3-27","lat":35.65275836,"lon":139.69863162},{"name":"ミート・ザ・おやつ","province":"東京都","city":"渋谷区","address":"東京都渋谷区代官山町7-9","lat":35.65073373,"lon":139.70500339},{"name":"長谷戸生活学校子ども食堂","province":"東京都","city":"渋谷区","address":"東京都渋谷区代官山町7-9","lat":35.65073373,"lon":139.70500339},{"name":"渋谷こどもテーブルゆめとぴあ","province":"東京都","city":"渋谷区","address":"東京都渋谷区鶯谷町10-15","lat":35.65317784,"lon":139.70248406},{"name":"渋谷・長崎歴史文化情報発信塾","province":"東京都","city":"渋谷区","address":"東京都渋谷区鶯谷町10-15","lat":35.65317784,"lon":139.70248406},{"name":"くるり食堂","province":"東京都","city":"渋谷区","address":"東京都渋谷区恵比寿西1丁目7-9","lat":35.64770638,"lon":139.70876432},{"name":"リフレッシュ氷川こども食堂","province":"東京都","city":"渋谷区","address":"東京都渋谷区東1丁目26-23","lat":35.65489165,"lon":139.70737802},{"name":"美竹の丘こどもごはん","province":"東京都","city":"渋谷区","address":"東京都渋谷区渋谷1丁目18-9","lat":35.66183525,"lon":139.70455298},{"name":"渋喜屋テーブル","province":"東京都","city":"渋谷区","address":"東京都渋谷区広尾3丁目2-14","lat":35.65542504,"lon":139.71414961},{"name":"スマイルきっちんナチュレ","province":"東京都","city":"渋谷区","address":"東京都渋谷区渋谷2丁目22-7","lat":35.65841895,"lon":139.70366153},{"name":"オーガニックおおうち食堂","province":"東京都","city":"渋谷区","address":"東京都渋谷区渋谷2丁目8-4","lat":35.66048268,"lon":139.70750555},{"name":"子ども料理教室","province":"東京都","city":"渋谷区","address":"東京都渋谷区宇田川町3-10","lat":35.66255726,"lon":139.69872846},{"name":"渋谷センター街こども食堂","province":"東京都","city":"渋谷区","address":"東京都渋谷区宇田川町16-8","lat":35.66085469,"lon":139.6989785},{"name":"子ども食堂","province":"東京都","city":"渋谷区","address":"東京都渋谷区円山町28-5","lat":35.65559128,"lon":139.69434298},{"name":"上富ダイニング","province":"東京都","city":"渋谷区","address":"東京都渋谷区上原3丁目13-8","lat":35.66649521,"lon":139.67853283},{"name":"みらいこどもテーブル","province":"東京都","city":"渋谷区","address":"東京都渋谷区富ヶ谷1丁目35-23","lat":35.66753145,"lon":139.68840416},{"name":"SHIBUYAコドモとママのミライ創造プロジェクト","province":"東京都","city":"渋谷区","address":"東京都渋谷区富ヶ谷2丁目9-13","lat":35.66466785,"lon":139.68643499},{"name":"コドモ大学食育部","province":"東京都","city":"渋谷区","address":"東京都渋谷区富ヶ谷2丁目9-15","lat":35.66486505,"lon":139.68663496},{"name":"上原ファンインずっとも食堂","province":"東京都","city":"渋谷区","address":"東京都渋谷区大山町21-10","lat":35.66962806,"lon":139.67275545},{"name":"サンキューキッチン","province":"東京都","city":"渋谷区","address":"東京都渋谷区西原1丁目22-9","lat":35.67686069,"lon":139.67813526},{"name":"Mamapura Kids＆Baby","province":"東京都","city":"渋谷区","address":"東京都渋谷区西原2丁目35-1","lat":35.67506917,"lon":139.6757161},{"name":"初台キッズ食堂","province":"東京都","city":"渋谷区","address":"東京都渋谷区初台1丁目33-10","lat":35.67960221,"lon":139.68485123},{"name":"初台クラブ","province":"東京都","city":"渋谷区","address":"東京都渋谷区初台1丁目11-2","lat":35.67944116,"lon":139.68679272},{"name":"みんなのカフェ“大空”","province":"東京都","city":"渋谷区","address":"東京都渋谷区幡ヶ谷2丁目50-2","lat":35.6799242,"lon":139.677288},{"name":"いるかのテーブル","province":"東京都","city":"渋谷区","address":"東京都渋谷区幡ヶ谷3丁目66-4","lat":35.68224048,"lon":139.6722439},{"name":"wakuwakuこどもひろば","province":"東京都","city":"渋谷区","address":"東京都渋谷区幡ヶ谷3丁目70","lat":35.68130169,"lon":139.67169399},{"name":"東京西ローターアクトクラブ","province":"東京都","city":"渋谷区","address":"東京都渋谷区幡ヶ谷2丁目50-2","lat":35.6799242,"lon":139.677288},{"name":"ささはたっこ","province":"東京都","city":"渋谷区","address":"東京都渋谷区笹塚1丁目50-16","lat":35.67466631,"lon":139.67015826},{"name":"やずぴょんち","province":"東京都","city":"渋谷区","address":"東京都渋谷区幡ヶ谷2丁目50-2","lat":35.6799242,"lon":139.677288},{"name":"ささはたカフェガーデン","province":"東京都","city":"渋谷区","address":"東京都渋谷区幡ヶ谷2丁目42-15","lat":35.6779799,"lon":139.67398836},{"name":"FUNNY CURRY","province":"東京都","city":"渋谷区","address":"東京都渋谷区幡ヶ谷3丁目42-8","lat":35.68035181,"lon":139.67218565},{"name":"こども食堂ささはたさんち","province":"東京都","city":"渋谷区","address":"東京都渋谷区笹塚1丁目20-4","lat":35.67272483,"lon":139.66873069},{"name":"「どなたでも食堂～お夕ご飯の日～」","province":"東京都","city":"渋谷区","address":"東京都渋谷区千駄ヶ谷5丁目12-9","lat":35.68336062,"lon":139.70524372},{"name":"みんなの世界テーブル","province":"東京都","city":"渋谷区","address":"東京都渋谷区代々木2丁目35-1","lat":35.68415756,"lon":139.69772492},{"name":"pure meat shop｜counter こども食堂","province":"東京都","city":"渋谷区","address":"東京都渋谷区千駄ヶ谷2丁目10-6","lat":35.67590603,"lon":139.70999081},{"name":"Mama's Kitchen","province":"東京都","city":"渋谷区","address":"東京都渋谷区神宮前4丁目22-11","lat":35.66867905,"lon":139.70864956},{"name":"お花屋さんのこどもごはん","province":"東京都","city":"渋谷区","address":"東京都渋谷区千駄ヶ谷3丁目54-15","lat":35.67498104,"lon":139.70591344},{"name":"ななかい子ども食堂","province":"東京都","city":"渋谷区","address":"東京都渋谷区神宮前3丁目12-8","lat":35.66989841,"lon":139.71114095},{"name":"ひといく子ども夢テーブル","province":"東京都","city":"渋谷区","address":"東京都渋谷区神宮前6丁目10-14","lat":35.66753464,"lon":139.70520824},{"name":"Yin Urasando子ども食堂","province":"東京都","city":"渋谷区","address":"東京都渋谷区神宮前4丁目15-2","lat":35.66848188,"lon":139.71092437},{"name":"卯めこども食堂","province":"東京都","city":"渋谷区","address":"東京都渋谷区恵比寿1丁目25-12","lat":35.64673716,"lon":139.71588036},{"name":"パール子どもテーブル活動","province":"東京都","city":"渋谷区","address":"東京都渋谷区鉢山町3-27","lat":35.65275836,"lon":139.69863162},{"name":"ミート・ザ・おやつ","province":"東京都","city":"渋谷区","address":"東京都渋谷区代官山町7-9","lat":35.65073373,"lon":139.70500339},{"name":"長谷戸生活学校子ども食堂","province":"東京都","city":"渋谷区","address":"東京都渋谷区代官山町7-9","lat":35.65073373,"lon":139.70500339},{"name":"渋谷こどもテーブルゆめとぴあ","province":"東京都","city":"渋谷区","address":"東京都渋谷区鶯谷町10-15","lat":35.65317784,"lon":139.70248406},{"name":"渋谷・長崎歴史文化情報発信塾","province":"東京都","city":"渋谷区","address":"東京都渋谷区鶯谷町10-15","lat":35.65317784,"lon":139.70248406},{"name":"くるり食堂","province":"東京都","city":"渋谷区","address":"東京都渋谷区恵比寿西1丁目7-9","lat":35.64770638,"lon":139.70876432},{"name":"リフレッシュ氷川こども食堂","province":"東京都","city":"渋谷区","address":"東京都渋谷区東1丁目26-23","lat":35.65489165,"lon":139.70737802},{"name":"美竹の丘こどもごはん","province":"東京都","city":"渋谷区","address":"東京都渋谷区渋谷1丁目18-9","lat":35.66183525,"lon":139.70455298},{"name":"渋喜屋テーブル","province":"東京都","city":"渋谷区","address":"東京都渋谷区広尾3丁目2-14","lat":35.65542504,"lon":139.71414961},{"name":"スマイルきっちんナチュレ","province":"東京都","city":"渋谷区","address":"東京都渋谷区渋谷2丁目22-7","lat":35.65841895,"lon":139.70366153},{"name":"オーガニックおおうち食堂","province":"東京都","city":"渋谷区","address":"東京都渋谷区渋谷2丁目8-4","lat":35.66048268,"lon":139.70750555},{"name":"子ども料理教室","province":"東京都","city":"渋谷区","address":"東京都渋谷区宇田川町3-10","lat":35.66255726,"lon":139.69872846},{"name":"渋谷センター街こども食堂","province":"東京都","city":"渋谷区","address":"東京都渋谷区宇田川町16-8","lat":35.66085469,"lon":139.6989785},{"name":"子ども食堂","province":"東京都","city":"渋谷区","address":"東京都渋谷区円山町28-5","lat":35.65559128,"lon":139.69434298},{"name":"上富ダイニング","province":"東京都","city":"渋谷区","address":"東京都渋谷区上原3丁目13-8","lat":35.66649521,"lon":139.67853283},{"name":"みらいこどもテーブル","province":"東京都","city":"渋谷区","address":"東京都渋谷区富ヶ谷1丁目35-23","lat":35.66753145,"lon":139.68840416},{"name":"SHIBUYAコドモとママのミライ創造プロジェクト","province":"東京都","city":"渋谷区","address":"東京都渋谷区富ヶ谷2丁目9-13","lat":35.66466785,"lon":139.68643499},{"name":"コドモ大学食育部","province":"東京都","city":"渋谷区","address":"東京都渋谷区富ヶ谷2丁目9-15","lat":35.66486505,"lon":139.68663496},{"name":"上原ファンインずっとも食堂","province":"東京都","city":"渋谷区","address":"東京都渋谷区大山町21-10","lat":35.66962806,"lon":139.67275545},{"name":"サンキューキッチン","province":"東京都","city":"渋谷区","address":"東京都渋谷区西原1丁目22-9","lat":35.67686069,"lon":139.67813526},{"name":"Mamapura Kids＆Baby","province":"東京都","city":"渋谷区","address":"東京都渋谷区西原2丁目35-1","lat":35.67506917,"lon":139.6757161},{"name":"初台キッズ食堂","province":"東京都","city":"渋谷区","address":"東京都渋谷区初台1丁目33-10","lat":35.67960221,"lon":139.68485123},{"name":"初台クラブ","province":"東京都","city":"渋谷区","address":"東京都渋谷区初台1丁目11-2","lat":35.67944116,"lon":139.68679272},{"name":"みんなのカフェ“大空”","province":"東京都","city":"渋谷区","address":"東京都渋谷区幡ヶ谷2丁目50-2","lat":35.6799242,"lon":139.677288},{"name":"いるかのテーブル","province":"東京都","city":"渋谷区","address":"東京都渋谷区幡ヶ谷3丁目66-4","lat":35.68224048,"lon":139.6722439},{"name":"wakuwakuこどもひろば","province":"東京都","city":"渋谷区","address":"東京都渋谷区幡ヶ谷3丁目70","lat":35.68130169,"lon":139.67169399},{"name":"東京西ローターアクトクラブ","province":"東京都","city":"渋谷区","address":"東京都渋谷区幡ヶ谷2丁目50-2","lat":35.6799242,"lon":139.677288},{"name":"ささはたっこ","province":"東京都","city":"渋谷区","address":"東京都渋谷区笹塚1丁目50-16","lat":35.67466631,"lon":139.67015826},{"name":"やずぴょんち","province":"東京都","city":"渋谷区","address":"東京都渋谷区幡ヶ谷2丁目50-2","lat":35.6799242,"lon":139.677288},{"name":"ささはたカフェガーデン","province":"東京都","city":"渋谷区","address":"東京都渋谷区幡ヶ谷2丁目42-15","lat":35.6779799,"lon":139.67398836},{"name":"FUNNY CURRY","province":"東京都","city":"渋谷区","address":"東京都渋谷区幡ヶ谷3丁目42-8","lat":35.68035181,"lon":139.67218565},{"name":"こども食堂ささはたさんち","province":"東京都","city":"渋谷区","address":"東京都渋谷区笹塚1丁目20-4","lat":35.67272483,"lon":139.66873069},{"name":"「どなたでも食堂～お夕ご飯の日～」","province":"東京都","city":"渋谷区","address":"東京都渋谷区千駄ヶ谷5丁目12-9","lat":35.68336062,"lon":139.70524372},{"name":"みんなの世界テーブル","province":"東京都","city":"渋谷区","address":"東京都渋谷区代々木2丁目35-1","lat":35.68415756,"lon":139.69772492},{"name":"pure meat shop｜counter こども食堂","province":"東京都","city":"渋谷区","address":"東京都渋谷区千駄ヶ谷2丁目10-6","lat":35.67590603,"lon":139.70999081},{"name":"Mama's Kitchen","province":"東京都","city":"渋谷区","address":"東京都渋谷区神宮前4丁目22-11","lat":35.66867905,"lon":139.70864956},{"name":"お花屋さんのこどもごはん","province":"東京都","city":"渋谷区","address":"東京都渋谷区千駄ヶ谷3丁目54-15","lat":35.67498104,"lon":139.70591344},{"name":"ななかい子ども食堂","province":"東京都","city":"渋谷区","address":"東京都渋谷区神宮前3丁目12-8","lat":35.66989841,"lon":139.71114095},{"name":"ひといく子ども夢テーブル","province":"東京都","city":"渋谷区","address":"東京都渋谷区神宮前6丁目10-14","lat":35.66753464,"lon":139.70520824},{"name":"Yin Urasando子ども食堂","province":"東京都","city":"渋谷区","address":"東京都渋谷区神宮前4丁目15-2","lat":35.66848188,"lon":139.71092437},{"name":"卯めこども食堂","province":"東京都","city":"渋谷区","address":"東京都渋谷区恵比寿1丁目25-12","lat":35.64673716,"lon":139.71588036},{"name":"パール子どもテーブル活動","province":"東京都","city":"渋谷区","address":"東京都渋谷区鉢山町3-27","lat":35.65275836,"lon":139.69863162},{"name":"ミート・ザ・おやつ","province":"東京都","city":"渋谷区","address":"東京都渋谷区代官山町7-9","lat":35.65073373,"lon":139.70500339},{"name":"長谷戸生活学校子ども食堂","province":"東京都","city":"渋谷区","address":"東京都渋谷区代官山町7-9","lat":35.65073373,"lon":139.70500339},{"name":"渋谷こどもテーブルゆめとぴあ","province":"東京都","city":"渋谷区","address":"東京都渋谷区鶯谷町10-15","lat":35.65317784,"lon":139.70248406},{"name":"渋谷・長崎歴史文化情報発信塾","province":"東京都","city":"渋谷区","address":"東京都渋谷区鶯谷町10-15","lat":35.65317784,"lon":139.70248406},{"name":"くるり食堂","province":"東京都","city":"渋谷区","address":"東京都渋谷区恵比寿西1丁目7-9","lat":35.64770638,"lon":139.70876432},{"name":"リフレッシュ氷川こども食堂","province":"東京都","city":"渋谷区","address":"東京都渋谷区東1丁目26-23","lat":35.65489165,"lon":139.70737802},{"name":"美竹の丘こどもごはん","province":"東京都","city":"渋谷区","address":"東京都渋谷区渋谷1丁目18-9","lat":35.66183525,"lon":139.70455298},{"name":"渋喜屋テーブル","province":"東京都","city":"渋谷区","address":"東京都渋谷区広尾3丁目2-14","lat":35.65542504,"lon":139.71414961},{"name":"スマイルきっちんナチュレ","province":"東京都","city":"渋谷区","address":"東京都渋谷区渋谷2丁目22-7","lat":35.65841895,"lon":139.70366153},{"name":"オーガニックおおうち食堂","province":"東京都","city":"渋谷区","address":"東京都渋谷区渋谷2丁目8-4","lat":35.66048268,"lon":139.70750555},{"name":"子ども料理教室","province":"東京都","city":"渋谷区","address":"東京都渋谷区宇田川町3-10","lat":35.66255726,"lon":139.69872846},{"name":"渋谷センター街こども食堂","province":"東京都","city":"渋谷区","address":"東京都渋谷区宇田川町16-8","lat":35.66085469,"lon":139.6989785},{"name":"子ども食堂","province":"東京都","city":"渋谷区","address":"東京都渋谷区円山町28-5","lat":35.65559128,"lon":139.69434298},{"name":"上富ダイニング","province":"東京都","city":"渋谷区","address":"東京都渋谷区上原3丁目13-8","lat":35.66649521,"lon":139.67853283},{"name":"みらいこどもテーブル","province":"東京都","city":"渋谷区","address":"東京都渋谷区富ヶ谷1丁目35-23","lat":35.66753145,"lon":139.68840416},{"name":"SHIBUYAコドモとママのミライ創造プロジェクト","province":"東京都","city":"渋谷区","address":"東京都渋谷区富ヶ谷2丁目9-13","lat":35.66466785,"lon":139.68643499},{"name":"コドモ大学食育部","province":"東京都","city":"渋谷区","address":"東京都渋谷区富ヶ谷2丁目9-15","lat":35.66486505,"lon":139.68663496},{"name":"上原ファンインずっとも食堂","province":"東京都","city":"渋谷区","address":"東京都渋谷区大山町21-10","lat":35.66962806,"lon":139.67275545},{"name":"サンキューキッチン","province":"東京都","city":"渋谷区","address":"東京都渋谷区西原1丁目22-9","lat":35.67686069,"lon":139.67813526},{"name":"Mamapura Kids＆Baby","province":"東京都","city":"渋谷区","address":"東京都渋谷区西原2丁目35-1","lat":35.67506917,"lon":139.6757161},{"name":"初台キッズ食堂","province":"東京都","city":"渋谷区","address":"東京都渋谷区初台1丁目33-10","lat":35.67960221,"lon":139.68485123},{"name":"初台クラブ","province":"東京都","city":"渋谷区","address":"東京都渋谷区初台1丁目11-2","lat":35.67944116,"lon":139.68679272},{"name":"みんなのカフェ“大空”","province":"東京都","city":"渋谷区","address":"東京都渋谷区幡ヶ谷2丁目50-2","lat":35.6799242,"lon":139.677288},{"name":"いるかのテーブル","province":"東京都","city":"渋谷区","address":"東京都渋谷区幡ヶ谷3丁目66-4","lat":35.68224048,"lon":139.6722439},{"name":"wakuwakuこどもひろば","province":"東京都","city":"渋谷区","address":"東京都渋谷区幡ヶ谷3丁目70","lat":35.68130169,"lon":139.67169399},{"name":"東京西ローターアクトクラブ","province":"東京都","city":"渋谷区","address":"東京都渋谷区幡ヶ谷2丁目50-2","lat":35.6799242,"lon":139.677288},{"name":"ささはたっこ","province":"東京都","city":"渋谷区","address":"東京都渋谷区笹塚1丁目50-16","lat":35.67466631,"lon":139.67015826},{"name":"やずぴょんち","province":"東京都","city":"渋谷区","address":"東京都渋谷区幡ヶ谷2丁目50-2","lat":35.6799242,"lon":139.677288},{"name":"ささはたカフェガーデン","province":"東京都","city":"渋谷区","address":"東京都渋谷区幡ヶ谷2丁目42-15","lat":35.6779799,"lon":139.67398836},{"name":"FUNNY CURRY","province":"東京都","city":"渋谷区","address":"東京都渋谷区幡ヶ谷3丁目42-8","lat":35.68035181,"lon":139.67218565},{"name":"こども食堂ささはたさんち","province":"東京都","city":"渋谷区","address":"東京都渋谷区笹塚1丁目20-4","lat":35.67272483,"lon":139.66873069},{"name":"「どなたでも食堂～お夕ご飯の日～」","province":"東京都","city":"渋谷区","address":"東京都渋谷区千駄ヶ谷5丁目12-9","lat":35.68336062,"lon":139.70524372},{"name":"みんなの世界テーブル","province":"東京都","city":"渋谷区","address":"東京都渋谷区代々木2丁目35-1","lat":35.68415756,"lon":139.69772492},{"name":"pure meat shop｜counter こども食堂","province":"東京都","city":"渋谷区","address":"東京都渋谷区千駄ヶ谷2丁目10-6","lat":35.67590603,"lon":139.70999081},{"name":"Mama's Kitchen","province":"東京都","city":"渋谷区","address":"東京都渋谷区神宮前4丁目22-11","lat":35.66867905,"lon":139.70864956},{"name":"お花屋さんのこどもごはん","province":"東京都","city":"渋谷区","address":"東京都渋谷区千駄ヶ谷3丁目54-15","lat":35.67498104,"lon":139.70591344},{"name":"ななかい子ども食堂","province":"東京都","city":"渋谷区","address":"東京都渋谷区神宮前3丁目12-8","lat":35.66989841,"lon":139.71114095},{"name":"ひといく子ども夢テーブル","province":"東京都","city":"渋谷区","address":"東京都渋谷区神宮前6丁目10-14","lat":35.66753464,"lon":139.70520824},{"name":"Yin Urasando子ども食堂","province":"東京都","city":"渋谷区","address":"東京都渋谷区神宮前4丁目15-2","lat":35.66848188,"lon":139.71092437},{"name":"卯めこども食堂","province":"東京都","city":"渋谷区","address":"東京都渋谷区恵比寿1丁目25-12","lat":35.64673716,"lon":139.71588036},{"name":"パール子どもテーブル活動","province":"東京都","city":"渋谷区","address":"東京都渋谷区鉢山町3-27","lat":35.65275836,"lon":139.69863162},{"name":"ミート・ザ・おやつ","province":"東京都","city":"渋谷区","address":"東京都渋谷区代官山町7-9","lat":35.65073373,"lon":139.70500339},{"name":"長谷戸生活学校子ども食堂","province":"東京都","city":"渋谷区","address":"東京都渋谷区代官山町7-9","lat":35.65073373,"lon":139.70500339},{"name":"渋谷こどもテーブルゆめとぴあ","province":"東京都","city":"渋谷区","address":"東京都渋谷区鶯谷町10-15","lat":35.65317784,"lon":139.70248406},{"name":"渋谷・長崎歴史文化情報発信塾","province":"東京都","city":"渋谷区","address":"東京都渋谷区鶯谷町10-15","lat":35.65317784,"lon":139.70248406},{"name":"くるり食堂","province":"東京都","city":"渋谷区","address":"東京都渋谷区恵比寿西1丁目7-9","lat":35.64770638,"lon":139.70876432},{"name":"リフレッシュ氷川こども食堂","province":"東京都","city":"渋谷区","address":"東京都渋谷区東1丁目26-23","lat":35.65489165,"lon":139.70737802},{"name":"美竹の丘こどもごはん","province":"東京都","city":"渋谷区","address":"東京都渋谷区渋谷1丁目18-9","lat":35.66183525,"lon":139.70455298},{"name":"渋喜屋テーブル","province":"東京都","city":"渋谷区","address":"東京都渋谷区広尾3丁目2-14","lat":35.65542504,"lon":139.71414961},{"name":"スマイルきっちんナチュレ","province":"東京都","city":"渋谷区","address":"東京都渋谷区渋谷2丁目22-7","lat":35.65841895,"lon":139.70366153},{"name":"オーガニックおおうち食堂","province":"東京都","city":"渋谷区","address":"東京都渋谷区渋谷2丁目8-4","lat":35.66048268,"lon":139.70750555},{"name":"子ども料理教室","province":"東京都","city":"渋谷区","address":"東京都渋谷区宇田川町3-10","lat":35.66255726,"lon":139.69872846},{"name":"渋谷センター街こども食堂","province":"東京都","city":"渋谷区","address":"東京都渋谷区宇田川町16-8","lat":35.66085469,"lon":139.6989785},{"name":"子ども食堂","province":"東京都","city":"渋谷区","address":"東京都渋谷区円山町28-5","lat":35.65559128,"lon":139.69434298},{"name":"上富ダイニング","province":"東京都","city":"渋谷区","address":"東京都渋谷区上原3丁目13-8","lat":35.66649521,"lon":139.67853283},{"name":"みらいこどもテーブル","province":"東京都","city":"渋谷区","address":"東京都渋谷区富ヶ谷1丁目35-23","lat":35.66753145,"lon":139.68840416},{"name":"SHIBUYAコドモとママのミライ創造プロジェクト","province":"東京都","city":"渋谷区","address":"東京都渋谷区富ヶ谷2丁目9-13","lat":35.66466785,"lon":139.68643499},{"name":"コドモ大学食育部","province":"東京都","city":"渋谷区","address":"東京都渋谷区富ヶ谷2丁目9-15","lat":35.66486505,"lon":139.68663496},{"name":"上原ファンインずっとも食堂","province":"東京都","city":"渋谷区","address":"東京都渋谷区大山町21-10","lat":35.66962806,"lon":139.67275545},{"name":"サンキューキッチン","province":"東京都","city":"渋谷区","address":"東京都渋谷区西原1丁目22-9","lat":35.67686069,"lon":139.67813526},{"name":"Mamapura Kids＆Baby","province":"東京都","city":"渋谷区","address":"東京都渋谷区西原2丁目35-1","lat":35.67506917,"lon":139.6757161},{"name":"初台キッズ食堂","province":"東京都","city":"渋谷区","address":"東京都渋谷区初台1丁目33-10","lat":35.67960221,"lon":139.68485123},{"name":"初台クラブ","province":"東京都","city":"渋谷区","address":"東京都渋谷区初台1丁目11-2","lat":35.67944116,"lon":139.68679272},{"name":"みんなのカフェ“大空”","province":"東京都","city":"渋谷区","address":"東京都渋谷区幡ヶ谷2丁目50-2","lat":35.6799242,"lon":139.677288},{"name":"いるかのテーブル","province":"東京都","city":"渋谷区","address":"東京都渋谷区幡ヶ谷3丁目66-4","lat":35.68224048,"lon":139.6722439},{"name":"wakuwakuこどもひろば","province":"東京都","city":"渋谷区","address":"東京都渋谷区幡ヶ谷3丁目70","lat":35.68130169,"lon":139.67169399},{"name":"東京西ローターアクトクラブ","province":"東京都","city":"渋谷区","address":"東京都渋谷区幡ヶ谷2丁目50-2","lat":35.6799242,"lon":139.677288},{"name":"ささはたっこ","province":"東京都","city":"渋谷区","address":"東京都渋谷区笹塚1丁目50-16","lat":35.67466631,"lon":139.67015826},{"name":"やずぴょんち","province":"東京都","city":"渋谷区","address":"東京都渋谷区幡ヶ谷2丁目50-2","lat":35.6799242,"lon":139.677288},{"name":"ささはたカフェガーデン","province":"東京都","city":"渋谷区","address":"東京都渋谷区幡ヶ谷2丁目42-15","lat":35.6779799,"lon":139.67398836},{"name":"FUNNY CURRY","province":"東京都","city":"渋谷区","address":"東京都渋谷区幡ヶ谷3丁目42-8","lat":35.68035181,"lon":139.67218565},{"name":"こども食堂ささはたさんち","province":"東京都","city":"渋谷区","address":"東京都渋谷区笹塚1丁目20-4","lat":35.67272483,"lon":139.66873069},{"name":"「どなたでも食堂～お夕ご飯の日～」","province":"東京都","city":"渋谷区","address":"東京都渋谷区千駄ヶ谷5丁目12-9","lat":35.68336062,"lon":139.70524372},{"name":"みんなの世界テーブル","province":"東京都","city":"渋谷区","address":"東京都渋谷区代々木2丁目35-1","lat":35.68415756,"lon":139.69772492},{"name":"pure meat shop｜counter こども食堂","province":"東京都","city":"渋谷区","address":"東京都渋谷区千駄ヶ谷2丁目10-6","lat":35.67590603,"lon":139.70999081},{"name":"Mama's Kitchen","province":"東京都","city":"渋谷区","address":"東京都渋谷区神宮前4丁目22-11","lat":35.66867905,"lon":139.70864956},{"name":"お花屋さんのこどもごはん","province":"東京都","city":"渋谷区","address":"東京都渋谷区千駄ヶ谷3丁目54-15","lat":35.67498104,"lon":139.70591344},{"name":"ななかい子ども食堂","province":"東京都","city":"渋谷区","address":"東京都渋谷区神宮前3丁目12-8","lat":35.66989841,"lon":139.71114095},{"name":"ひといく子ども夢テーブル","province":"東京都","city":"渋谷区","address":"東京都渋谷区神宮前6丁目10-14","lat":35.66753464,"lon":139.70520824},{"name":"Yin Urasando子ども食堂","province":"東京都","city":"渋谷区","address":"東京都渋谷区神宮前4丁目15-2","lat":35.66848188,"lon":139.71092437},{"name":"卯めこども食堂","province":"東京都","city":"渋谷区","address":"東京都渋谷区恵比寿1丁目25-12","lat":35.64673716,"lon":139.71588036},{"name":"パール子どもテーブル活動","province":"東京都","city":"渋谷区","address":"東京都渋谷区鉢山町3-27","lat":35.65275836,"lon":139.69863162},{"name":"ミート・ザ・おやつ","province":"東京都","city":"渋谷区","address":"東京都渋谷区代官山町7-9","lat":35.65073373,"lon":139.70500339},{"name":"長谷戸生活学校子ども食堂","province":"東京都","city":"渋谷区","address":"東京都渋谷区代官山町7-9","lat":35.65073373,"lon":139.70500339},{"name":"渋谷こどもテーブルゆめとぴあ","province":"東京都","city":"渋谷区","address":"東京都渋谷区鶯谷町10-15","lat":35.65317784,"lon":139.70248406},{"name":"渋谷・長崎歴史文化情報発信塾","province":"東京都","city":"渋谷区","address":"東京都渋谷区鶯谷町10-15","lat":35.65317784,"lon":139.70248406},{"name":"くるり食堂","province":"東京都","city":"渋谷区","address":"東京都渋谷区恵比寿西1丁目7-9","lat":35.64770638,"lon":139.70876432},{"name":"リフレッシュ氷川こども食堂","province":"東京都","city":"渋谷区","address":"東京都渋谷区東1丁目26-23","lat":35.65489165,"lon":139.70737802},{"name":"美竹の丘こどもごはん","province":"東京都","city":"渋谷区","address":"東京都渋谷区渋谷1丁目18-9","lat":35.66183525,"lon":139.70455298},{"name":"渋喜屋テーブル","province":"東京都","city":"渋谷区","address":"東京都渋谷区広尾3丁目2-14","lat":35.65542504,"lon":139.71414961},{"name":"スマイルきっちんナチュレ","province":"東京都","city":"渋谷区","address":"東京都渋谷区渋谷2丁目22-7","lat":35.65841895,"lon":139.70366153},{"name":"オーガニックおおうち食堂","province":"東京都","city":"渋谷区","address":"東京都渋谷区渋谷2丁目8-4","lat":35.66048268,"lon":139.70750555},{"name":"子ども料理教室","province":"東京都","city":"渋谷区","address":"東京都渋谷区宇田川町3-10","lat":35.66255726,"lon":139.69872846},{"name":"渋谷センター街こども食堂","province":"東京都","city":"渋谷区","address":"東京都渋谷区宇田川町16-8","lat":35.66085469,"lon":139.6989785},{"name":"子ども食堂","province":"東京都","city":"渋谷区","address":"東京都渋谷区円山町28-5","lat":35.65559128,"lon":139.69434298},{"name":"上富ダイニング","province":"東京都","city":"渋谷区","address":"東京都渋谷区上原3丁目13-8","lat":35.66649521,"lon":139.67853283},{"name":"みらいこどもテーブル","province":"東京都","city":"渋谷区","address":"東京都渋谷区富ヶ谷1丁目35-23","lat":35.66753145,"lon":139.68840416},{"name":"SHIBUYAコドモとママのミライ創造プロジェクト","province":"東京都","city":"渋谷区","address":"東京都渋谷区富ヶ谷2丁目9-13","lat":35.66466785,"lon":139.68643499},{"name":"コドモ大学食育部","province":"東京都","city":"渋谷区","address":"東京都渋谷区富ヶ谷2丁目9-15","lat":35.66486505,"lon":139.68663496},{"name":"上原ファンインずっとも食堂","province":"東京都","city":"渋谷区","address":"東京都渋谷区大山町21-10","lat":35.66962806,"lon":139.67275545},{"name":"サンキューキッチン","province":"東京都","city":"渋谷区","address":"東京都渋谷区西原1丁目22-9","lat":35.67686069,"lon":139.67813526},{"name":"Mamapura Kids＆Baby","province":"東京都","city":"渋谷区","address":"東京都渋谷区西原2丁目35-1","lat":35.67506917,"lon":139.6757161},{"name":"初台キッズ食堂","province":"東京都","city":"渋谷区","address":"東京都渋谷区初台1丁目33-10","lat":35.67960221,"lon":139.68485123},{"name":"初台クラブ","province":"東京都","city":"渋谷区","address":"東京都渋谷区初台1丁目11-2","lat":35.67944116,"lon":139.68679272},{"name":"みんなのカフェ“大空”","province":"東京都","city":"渋谷区","address":"東京都渋谷区幡ヶ谷2丁目50-2","lat":35.6799242,"lon":139.677288},{"name":"いるかのテーブル","province":"東京都","city":"渋谷区","address":"東京都渋谷区幡ヶ谷3丁目66-4","lat":35.68224048,"lon":139.6722439},{"name":"wakuwakuこどもひろば","province":"東京都","city":"渋谷区","address":"東京都渋谷区幡ヶ谷3丁目70","lat":35.68130169,"lon":139.67169399},{"name":"東京西ローターアクトクラブ","province":"東京都","city":"渋谷区","address":"東京都渋谷区幡ヶ谷2丁目50-2","lat":35.6799242,"lon":139.677288},{"name":"ささはたっこ","province":"東京都","city":"渋谷区","address":"東京都渋谷区笹塚1丁目50-16","lat":35.67466631,"lon":139.67015826},{"name":"やずぴょんち","province":"東京都","city":"渋谷区","address":"東京都渋谷区幡ヶ谷2丁目50-2","lat":35.6799242,"lon":139.677288},{"name":"ささはたカフェガーデン","province":"東京都","city":"渋谷区","address":"東京都渋谷区幡ヶ谷2丁目42-15","lat":35.6779799,"lon":139.67398836},{"name":"FUNNY CURRY","province":"東京都","city":"渋谷区","address":"東京都渋谷区幡ヶ谷3丁目42-8","lat":35.68035181,"lon":139.67218565},{"name":"こども食堂ささはたさんち","province":"東京都","city":"渋谷区","address":"東京都渋谷区笹塚1丁目20-4","lat":35.67272483,"lon":139.66873069},{"name":"「どなたでも食堂～お夕ご飯の日～」","province":"東京都","city":"渋谷区","address":"東京都渋谷区千駄ヶ谷5丁目12-9","lat":35.68336062,"lon":139.70524372},{"name":"みんなの世界テーブル","province":"東京都","city":"渋谷区","address":"東京都渋谷区代々木2丁目35-1","lat":35.68415756,"lon":139.69772492},{"name":"pure meat shop｜counter こども食堂","province":"東京都","city":"渋谷区","address":"東京都渋谷区千駄ヶ谷2丁目10-6","lat":35.67590603,"lon":139.70999081},{"name":"Mama's Kitchen","province":"東京都","city":"渋谷区","address":"東京都渋谷区神宮前4丁目22-11","lat":35.66867905,"lon":139.70864956},{"name":"お花屋さんのこどもごはん","province":"東京都","city":"渋谷区","address":"東京都渋谷区千駄ヶ谷3丁目54-15","lat":35.67498104,"lon":139.70591344},{"name":"ななかい子ども食堂","province":"東京都","city":"渋谷区","address":"東京都渋谷区神宮前3丁目12-8","lat":35.66989841,"lon":139.71114095},{"name":"ひといく子ども夢テーブル","province":"東京都","city":"渋谷区","address":"東京都渋谷区神宮前6丁目10-14","lat":35.66753464,"lon":139.70520824},{"name":"Yin Urasando子ども食堂","province":"東京都","city":"渋谷区","address":"東京都渋谷区神宮前4丁目15-2","lat":35.66848188,"lon":139.71092437},{"name":"卯めこども食堂","province":"東京都","city":"渋谷区","address":"東京都渋谷区恵比寿1丁目25-12","lat":35.64673716,"lon":139.71588036},{"name":"パール子どもテーブル活動","province":"東京都","city":"渋谷区","address":"東京都渋谷区鉢山町3-27","lat":35.65275836,"lon":139.69863162},{"name":"ミート・ザ・おやつ","province":"東京都","city":"渋谷区","address":"東京都渋谷区代官山町7-9","lat":35.65073373,"lon":139.70500339},{"name":"長谷戸生活学校子ども食堂","province":"東京都","city":"渋谷区","address":"東京都渋谷区代官山町7-9","lat":35.65073373,"lon":139.70500339},{"name":"渋谷こどもテーブルゆめとぴあ","province":"東京都","city":"渋谷区","address":"東京都渋谷区鶯谷町10-15","lat":35.65317784,"lon":139.70248406},{"name":"渋谷・長崎歴史文化情報発信塾","province":"東京都","city":"渋谷区","address":"東京都渋谷区鶯谷町10-15","lat":35.65317784,"lon":139.70248406},{"name":"くるり食堂","province":"東京都","city":"渋谷区","address":"東京都渋谷区恵比寿西1丁目7-9","lat":35.64770638,"lon":139.70876432},{"name":"リフレッシュ氷川こども食堂","province":"東京都","city":"渋谷区","address":"東京都渋谷区東1丁目26-23","lat":35.65489165,"lon":139.70737802},{"name":"美竹の丘こどもごはん","province":"東京都","city":"渋谷区","address":"東京都渋谷区渋谷1丁目18-9","lat":35.66183525,"lon":139.70455298},{"name":"渋喜屋テーブル","province":"東京都","city":"渋谷区","address":"東京都渋谷区広尾3丁目2-14","lat":35.65542504,"lon":139.71414961},{"name":"スマイルきっちんナチュレ","province":"東京都","city":"渋谷区","address":"東京都渋谷区渋谷2丁目22-7","lat":35.65841895,"lon":139.70366153},{"name":"オーガニックおおうち食堂","province":"東京都","city":"渋谷区","address":"東京都渋谷区渋谷2丁目8-4","lat":35.66048268,"lon":139.70750555},{"name":"子ども料理教室","province":"東京都","city":"渋谷区","address":"東京都渋谷区宇田川町3-10","lat":35.66255726,"lon":139.69872846},{"name":"渋谷センター街こども食堂","province":"東京都","city":"渋谷区","address":"東京都渋谷区宇田川町16-8","lat":35.66085469,"lon":139.6989785},{"name":"子ども食堂","province":"東京都","city":"渋谷区","address":"東京都渋谷区円山町28-5","lat":35.65559128,"lon":139.69434298},{"name":"上富ダイニング","province":"東京都","city":"渋谷区","address":"東京都渋谷区上原3丁目13-8","lat":35.66649521,"lon":139.67853283},{"name":"みらいこどもテーブル","province":"東京都","city":"渋谷区","address":"東京都渋谷区富ヶ谷1丁目35-23","lat":35.66753145,"lon":139.68840416},{"name":"SHIBUYAコドモとママのミライ創造プロジェクト","province":"東京都","city":"渋谷区","address":"東京都渋谷区富ヶ谷2丁目9-13","lat":35.66466785,"lon":139.68643499},{"name":"コドモ大学食育部","province":"東京都","city":"渋谷区","address":"東京都渋谷区富ヶ谷2丁目9-15","lat":35.66486505,"lon":139.68663496},{"name":"上原ファンインずっとも食堂","province":"東京都","city":"渋谷区","address":"東京都渋谷区大山町21-10","lat":35.66962806,"lon":139.67275545},{"name":"サンキューキッチン","province":"東京都","city":"渋谷区","address":"東京都渋谷区西原1丁目22-9","lat":35.67686069,"lon":139.67813526},{"name":"Mamapura Kids＆Baby","province":"東京都","city":"渋谷区","address":"東京都渋谷区西原2丁目35-1","lat":35.67506917,"lon":139.6757161},{"name":"初台キッズ食堂","province":"東京都","city":"渋谷区","address":"東京都渋谷区初台1丁目33-10","lat":35.67960221,"lon":139.68485123},{"name":"初台クラブ","province":"東京都","city":"渋谷区","address":"東京都渋谷区初台1丁目11-2","lat":35.67944116,"lon":139.68679272},{"name":"みんなのカフェ“大空”","province":"東京都","city":"渋谷区","address":"東京都渋谷区幡ヶ谷2丁目50-2","lat":35.6799242,"lon":139.677288},{"name":"いるかのテーブル","province":"東京都","city":"渋谷区","address":"東京都渋谷区幡ヶ谷3丁目66-4","lat":35.68224048,"lon":139.6722439},{"name":"wakuwakuこどもひろば","province":"東京都","city":"渋谷区","address":"東京都渋谷区幡ヶ谷3丁目70","lat":35.68130169,"lon":139.67169399},{"name":"東京西ローターアクトクラブ","province":"東京都","city":"渋谷区","address":"東京都渋谷区幡ヶ谷2丁目50-2","lat":35.6799242,"lon":139.677288},{"name":"ささはたっこ","province":"東京都","city":"渋谷区","address":"東京都渋谷区笹塚1丁目50-16","lat":35.67466631,"lon":139.67015826},{"name":"やずぴょんち","province":"東京都","city":"渋谷区","address":"東京都渋谷区幡ヶ谷2丁目50-2","lat":35.6799242,"lon":139.677288},{"name":"ささはたカフェガーデン","province":"東京都","city":"渋谷区","address":"東京都渋谷区幡ヶ谷2丁目42-15","lat":35.6779799,"lon":139.67398836},{"name":"FUNNY CURRY","province":"東京都","city":"渋谷区","address":"東京都渋谷区幡ヶ谷3丁目42-8","lat":35.68035181,"lon":139.67218565},{"name":"こども食堂ささはたさんち","province":"東京都","city":"渋谷区","address":"東京都渋谷区笹塚1丁目20-4","lat":35.67272483,"lon":139.66873069},{"name":"「どなたでも食堂～お夕ご飯の日～」","province":"東京都","city":"渋谷区","address":"東京都渋谷区千駄ヶ谷5丁目12-9","lat":35.68336062,"lon":139.70524372},{"name":"みんなの世界テーブル","province":"東京都","city":"渋谷区","address":"東京都渋谷区代々木2丁目35-1","lat":35.68415756,"lon":139.69772492},{"name":"pure meat shop｜counter こども食堂","province":"東京都","city":"渋谷区","address":"東京都渋谷区千駄ヶ谷2丁目10-6","lat":35.67590603,"lon":139.70999081},{"name":"Mama's Kitchen","province":"東京都","city":"渋谷区","address":"東京都渋谷区神宮前4丁目22-11","lat":35.66867905,"lon":139.70864956},{"name":"お花屋さんのこどもごはん","province":"東京都","city":"渋谷区","address":"東京都渋谷区千駄ヶ谷3丁目54-15","lat":35.67498104,"lon":139.70591344},{"name":"ななかい子ども食堂","province":"東京都","city":"渋谷区","address":"東京都渋谷区神宮前3丁目12-8","lat":35.66989841,"lon":139.71114095},{"name":"ひといく子ども夢テーブル","province":"東京都","city":"渋谷区","address":"東京都渋谷区神宮前6丁目10-14","lat":35.66753464,"lon":139.70520824},{"name":"Yin Urasando子ども食堂","province":"東京都","city":"渋谷区","address":"東京都渋谷区神宮前4丁目15-2","lat":35.66848188,"lon":139.71092437}]}