{"keyword":"戸数","data":[{"name":"広尾病院","province":"東京都","city":"渋谷区","address":"東京都渋谷区恵比寿2丁目34-10","lat":35.64707054,"lon":139.72073544},{"name":"渋谷区社会福祉協議会","province":"東京都","city":"渋谷区","address":"渋谷区宇田川町5-2渋谷区役所神南分庁舎1階","lat":35.66286,"lon":139.698215},{"name":"渋谷区","province":"東京都","city":"渋谷区","address":"渋谷区宇田川町1-1","lat":35.6639604,"lon":139.6980822},{"name":"渋谷区社会福祉協議会","province":"東京都","city":"渋谷区","address":"渋谷区宇田川町1-1渋谷区役所内","lat":35.66415,"lon":139.69789},{"name":"渋谷区社会福祉協議会","province":"東京都","city":"渋谷区","address":"渋谷区宇田川町1-1渋谷区役所内","lat":35.663475,"lon":139.697189},{"name":"東京都立広尾病院","province":"東京都","city":"渋谷区","address":"東京都渋谷区恵比寿2丁目34-10","lat":35.64707054,"lon":139.72073544},{"name":"日本赤十字社医療センター","province":"東京都","city":"渋谷区","address":"東京都渋谷区広尾4丁目1-22","lat":35.65443909,"lon":139.71794375},{"name":"代々幡斎場","province":"東京都","city":"渋谷区","address":"東京都渋谷区西原2丁目42-1","lat":35.67335551,"lon":139.67732435},{"name":"都立代々木公園","province":"東京都","city":"渋谷区","address":"東京都渋谷区代々木神園町2-1","lat":35.67281151,"lon":139.69257026},{"name":"都立第一商業高等学校","province":"東京都","city":"渋谷区","address":"東京都渋谷区鉢山町8-1","lat":35.65016143,"lon":139.6985845},{"name":"区立景丘公園","province":"東京都","city":"渋谷区","address":"東京都渋谷区恵比寿4丁目19-21","lat":35.6437958,"lon":139.71358068},{"name":"都立代々木公園競技場（織田フィールド）","province":"東京都","city":"渋谷区","address":"東京都渋谷区神南2丁目3-1","lat":35.66632898,"lon":139.69484253},{"name":"渋谷区立スポーツセンター","province":"東京都","city":"渋谷区","address":"東京都渋谷区西原1丁目40-18","lat":35.67556369,"lon":139.68096562},{"name":"都立広尾病院ヘリポート","province":"東京都","city":"渋谷区","address":"東京都渋谷区恵比寿2丁目34-10","lat":35.64707054,"lon":139.72073544},{"name":"日本赤十字社医療センターヘリポート","province":"東京都","city":"渋谷区","address":"東京都渋谷区広尾4丁目1-22","lat":35.65443909,"lon":139.71794375},{"name":"国立オリンピック記念青少年総合センター","province":"東京都","city":"渋谷区","address":"渋谷区代々木神園町3-1","lat":35.67181671,"lon":139.6970502},{"name":"渋谷区選挙管理委員会","province":"東京都","city":"渋谷区","address":"渋谷区宇田川町1-1渋谷区役所12階","lat":35.663684,"lon":139.697741},{"name":"東京体育館","province":"東京都","city":"渋谷区","address":"東京都渋谷区千駄ヶ谷1-17-1","lat":35.68005,"lon":139.713501},{"name":"東京体育館","province":"東京都","city":"渋谷区","address":"東京都渋谷区","lat":35.66368489,"lon":139.69770072},{"name":"東京ウィメンズプラザ","province":"東京都","city":"渋谷区","address":"東京都渋谷区神宮前5丁目53-67","lat":35.662788,"lon":139.70793876},{"name":"青山高等学校","province":"東京都","city":"渋谷区","address":"東京都渋谷区神宮前2丁目1-8","lat":35.67270374,"lon":139.71607374},{"name":"広尾高等学校","province":"東京都","city":"渋谷区","address":"東京都渋谷区東4丁目14-14","lat":35.65287808,"lon":139.71284984},{"name":"第一商業高等学校","province":"東京都","city":"渋谷区","address":"東京都渋谷区鉢山町8-1","lat":35.65016143,"lon":139.6985845},{"name":"東京消防庁消防学校","province":"東京都","city":"渋谷区","address":"東京都渋谷区西原2丁目51-1","lat":35.67232498,"lon":139.67333307},{"name":"東京急行電鉄（株）","province":"東京都","city":"渋谷区","address":"渋谷区南平台町5-6","lat":35.65497,"lon":139.6979},{"name":"日本放送協会","province":"東京都","city":"渋谷区","address":"渋谷区神南2-2-1","lat":35.66656,"lon":139.6969},{"name":"渋谷区","province":"東京都","city":"渋谷区","address":"渋谷区東3-14-13","lat":35.650896,"lon":139.709739},{"name":"（株）ＮＴＴドコモドコモ代々木","province":"東京都","city":"渋谷区","address":"渋谷区千駄ヶ谷5-24-3","lat":35.6844,"lon":139.7031},{"name":"ＮＴＴコミュニケーションズ（株）渋谷鉢山ビル","province":"東京都","city":"渋谷区","address":"渋谷区鉢山町9-31","lat":35.65135,"lon":139.698},{"name":"広尾病院","province":"東京都","city":"渋谷区","address":"東京都渋谷区恵比寿2丁目34-10","lat":35.64707054,"lon":139.72073544},{"name":"渋谷区社会福祉協議会","province":"東京都","city":"渋谷区","address":"渋谷区宇田川町5-2渋谷区役所神南分庁舎1階","lat":35.66286,"lon":139.698215},{"name":"渋谷区社会福祉協議会","province":"東京都","city":"渋谷区","address":"渋谷区宇田川町1-1渋谷区役所内","lat":35.66415,"lon":139.69789},{"name":"渋谷区社会福祉協議会","province":"東京都","city":"渋谷区","address":"渋谷区宇田川町1-1渋谷区役所内","lat":35.663475,"lon":139.697189},{"name":"東京都立広尾病院","province":"東京都","city":"渋谷区","address":"東京都渋谷区恵比寿2丁目34-10","lat":35.64707054,"lon":139.72073544},{"name":"日本赤十字社医療センター","province":"東京都","city":"渋谷区","address":"東京都渋谷区広尾4丁目1-22","lat":35.65443909,"lon":139.71794375},{"name":"代々幡斎場","province":"東京都","city":"渋谷区","address":"東京都渋谷区西原2丁目42-1","lat":35.67335551,"lon":139.67732435},{"name":"都立代々木公園","province":"東京都","city":"渋谷区","address":"東京都渋谷区代々木神園町2-1","lat":35.67281151,"lon":139.69257026},{"name":"都立第一商業高等学校","province":"東京都","city":"渋谷区","address":"東京都渋谷区鉢山町8-1","lat":35.65016143,"lon":139.6985845},{"name":"区立景丘公園","province":"東京都","city":"渋谷区","address":"東京都渋谷区恵比寿4丁目19-21","lat":35.6437958,"lon":139.71358068},{"name":"都立代々木公園競技場（織田フィールド）","province":"東京都","city":"渋谷区","address":"東京都渋谷区神南2丁目3-1","lat":35.66632898,"lon":139.69484253},{"name":"渋谷区立スポーツセンター","province":"東京都","city":"渋谷区","address":"東京都渋谷区西原1丁目40-18","lat":35.67556369,"lon":139.68096562},{"name":"都立広尾病院ヘリポート","province":"東京都","city":"渋谷区","address":"東京都渋谷区恵比寿2丁目34-10","lat":35.64707054,"lon":139.72073544},{"name":"日本赤十字社医療センターヘリポート","province":"東京都","city":"渋谷区","address":"東京都渋谷区広尾4丁目1-22","lat":35.65443909,"lon":139.71794375},{"name":"国立オリンピック記念青少年総合センター","province":"東京都","city":"渋谷区","address":"渋谷区代々木神園町3-1","lat":35.67181671,"lon":139.6970502},{"name":"東京体育館","province":"東京都","city":"渋谷区","address":"東京都渋谷区千駄ヶ谷1-17-1","lat":35.68005,"lon":139.713501},{"name":"東京ウィメンズプラザ","province":"東京都","city":"渋谷区","address":"東京都渋谷区神宮前5丁目53-67","lat":35.662788,"lon":139.70793876},{"name":"青山高等学校","province":"東京都","city":"渋谷区","address":"東京都渋谷区神宮前2丁目1-8","lat":35.67270374,"lon":139.71607374},{"name":"広尾高等学校","province":"東京都","city":"渋谷区","address":"東京都渋谷区東4丁目14-14","lat":35.65287808,"lon":139.71284984},{"name":"第一商業高等学校","province":"東京都","city":"渋谷区","address":"東京都渋谷区鉢山町8-1","lat":35.65016143,"lon":139.6985845},{"name":"東京消防庁消防学校","province":"東京都","city":"渋谷区","address":"東京都渋谷区西原2丁目51-1","lat":35.67232498,"lon":139.67333307},{"name":"東京急行電鉄（株）","province":"東京都","city":"渋谷区","address":"渋谷区南平台町5-6","lat":35.65497,"lon":139.6979},{"name":"日本放送協会","province":"東京都","city":"渋谷区","address":"渋谷区神南2-2-1","lat":35.66656,"lon":139.6969},{"name":"渋谷区","province":"東京都","city":"渋谷区","address":"渋谷区東3-14-13","lat":35.650896,"lon":139.709739},{"name":"（株）ＮＴＴドコモドコモ代々木","province":"東京都","city":"渋谷区","address":"渋谷区千駄ヶ谷5-24-3","lat":35.6844,"lon":139.7031},{"name":"ＮＴＴコミュニケーションズ（株）渋谷鉢山ビル","province":"東京都","city":"渋谷区","address":"渋谷区鉢山町9-31","lat":35.65135,"lon":139.698},{"name":"広尾病院","province":"東京都","city":"渋谷区","address":"東京都渋谷区恵比寿2丁目34-10","lat":35.64707054,"lon":139.72073544},{"name":"東京都立広尾病院","province":"東京都","city":"渋谷区","address":"東京都渋谷区恵比寿2丁目34-10","lat":35.64707054,"lon":139.72073544},{"name":"日本赤十字社医療センター","province":"東京都","city":"渋谷区","address":"東京都渋谷区広尾4丁目1-22","lat":35.65443909,"lon":139.71794375},{"name":"東京ウィメンズプラザ","province":"東京都","city":"渋谷区","address":"東京都渋谷区神宮前5丁目53-67","lat":35.662788,"lon":139.70793876},{"name":"青山高等学校","province":"東京都","city":"渋谷区","address":"東京都渋谷区神宮前2丁目1-8","lat":35.67270374,"lon":139.71607374},{"name":"広尾高等学校","province":"東京都","city":"渋谷区","address":"東京都渋谷区東4丁目14-14","lat":35.65287808,"lon":139.71284984},{"name":"第一商業高等学校","province":"東京都","city":"渋谷区","address":"東京都渋谷区鉢山町8-1","lat":35.65016143,"lon":139.6985845},{"name":"東京消防庁消防学校","province":"東京都","city":"渋谷区","address":"東京都渋谷区西原2丁目51-1","lat":35.67232498,"lon":139.67333307},{"name":"広尾病院","province":"東京都","city":"渋谷区","address":"東京都渋谷区恵比寿2丁目34-10","lat":35.64707054,"lon":139.72073544},{"name":"東京都立広尾病院","province":"東京都","city":"渋谷区","address":"東京都渋谷区恵比寿2丁目34-10","lat":35.64707054,"lon":139.72073544},{"name":"日本赤十字社医療センター","province":"東京都","city":"渋谷区","address":"東京都渋谷区広尾4丁目1-22","lat":35.65443909,"lon":139.71794375},{"name":"東京ウィメンズプラザ","province":"東京都","city":"渋谷区","address":"東京都渋谷区神宮前5丁目53-67","lat":35.662788,"lon":139.70793876},{"name":"青山高等学校","province":"東京都","city":"渋谷区","address":"東京都渋谷区神宮前2丁目1-8","lat":35.67270374,"lon":139.71607374},{"name":"広尾高等学校","province":"東京都","city":"渋谷区","address":"東京都渋谷区東4丁目14-14","lat":35.65287808,"lon":139.71284984},{"name":"第一商業高等学校","province":"東京都","city":"渋谷区","address":"東京都渋谷区鉢山町8-1","lat":35.65016143,"lon":139.6985845},{"name":"東京消防庁消防学校","province":"東京都","city":"渋谷区","address":"東京都渋谷区西原2丁目51-1","lat":35.67232498,"lon":139.67333307},{"name":"広尾病院","province":"東京都","city":"渋谷区","address":"東京都渋谷区恵比寿2丁目34-10","lat":35.64707054,"lon":139.72073544},{"name":"広尾病院","province":"東京都","city":"渋谷区","address":"東京都渋谷区恵比寿2丁目34-10","lat":35.64707054,"lon":139.72073544}]}