{"keyword":"放課後","data":[{"name":"広尾てくてく","province":"東京都","city":"渋谷区","address":"渋谷区広尾四丁目2番12号","lat":35.655159,"lon":139.722279},{"name":"特別支援教育研究所　Ｗｉｓh","province":"東京都","city":"渋谷区","address":"渋谷区神泉町15-11","lat":35.657005,"lon":139.691963},{"name":"よよこ～クラブ","province":"東京都","city":"渋谷区","address":"渋谷区千駄ヶ谷5-8-2","lat":35.681647,"lon":139.705038},{"name":"スタジオそら原宿","province":"東京都","city":"渋谷区","address":"渋谷区千駄ヶ谷3-51-6原宿MOA1階","lat":35.675037,"lon":139.706133},{"name":"渋谷区障害者福祉センター代々木の杜","province":"東京都","city":"渋谷区","address":"渋谷区代々木2-35-1","lat":35.684158,"lon":139.697725},{"name":"スタジオそら代々木公園","province":"東京都","city":"渋谷区","address":"渋谷区富ヶ谷一丁目2番1号","lat":35.670367,"lon":139.690043},{"name":"放課後等デイサービス　あいだっく","province":"東京都","city":"渋谷区","address":"渋谷区上原3-23-5オーガストハウス1階","lat":35.66427,"lon":139.676789},{"name":"デイサービスなかよし","province":"東京都","city":"渋谷区","address":"渋谷区西原2-36-7","lat":35.674441,"lon":139.675613},{"name":"児童発達支援・放課後等デイサービス　マリリン　スポーツ塾　初台","province":"東京都","city":"渋谷区","address":"渋谷区本町2-5-11三山ビル1階","lat":35.684004,"lon":139.683515},{"name":"Ａｒｔ＆Ｍｕｓｉｃ　豆庭　Ｍａｍｅ－Ｎｉｗａ","province":"東京都","city":"渋谷区","address":"渋谷区幡ヶ谷1-8-4リッツパラシオ202","lat":35.675572,"lon":139.672291}]}