{"keyword":"月間","data":[{"name":"広尾てくてく","province":"東京都","city":"渋谷区","address":"渋谷区広尾四丁目2番12号","lat":35.655159,"lon":139.722279},{"name":"特別支援教育研究所　Ｗｉｓh","province":"東京都","city":"渋谷区","address":"渋谷区神泉町15-11","lat":35.657005,"lon":139.691963},{"name":"よよこ～クラブ","province":"東京都","city":"渋谷区","address":"渋谷区千駄ヶ谷5-8-2","lat":35.681647,"lon":139.705038},{"name":"スタジオそら原宿","province":"東京都","city":"渋谷区","address":"渋谷区千駄ヶ谷3-51-6原宿MOA1階","lat":35.675037,"lon":139.706133},{"name":"渋谷区障害者福祉センター代々木の杜","province":"東京都","city":"渋谷区","address":"渋谷区代々木2-35-1","lat":35.684158,"lon":139.697725},{"name":"スタジオそら代々木公園","province":"東京都","city":"渋谷区","address":"渋谷区富ヶ谷一丁目2番1号","lat":35.670367,"lon":139.690043},{"name":"放課後等デイサービス　あいだっく","province":"東京都","city":"渋谷区","address":"渋谷区上原3-23-5オーガストハウス1階","lat":35.66427,"lon":139.676789},{"name":"デイサービスなかよし","province":"東京都","city":"渋谷区","address":"渋谷区西原2-36-7","lat":35.674441,"lon":139.675613},{"name":"児童発達支援・放課後等デイサービス　マリリン　スポーツ塾　初台","province":"東京都","city":"渋谷区","address":"渋谷区本町2-5-11三山ビル1階","lat":35.684004,"lon":139.683515},{"name":"Ａｒｔ＆Ｍｕｓｉｃ　豆庭　Ｍａｍｅ－Ｎｉｗａ","province":"東京都","city":"渋谷区","address":"渋谷区幡ヶ谷1-8-4リッツパラシオ202","lat":35.675572,"lon":139.672291},{"name":"渋谷区子ども家庭支援センター","province":"東京都","city":"渋谷区","address":"渋谷区神宮前3-18-33","lat":35.670937,"lon":139.709272},{"name":"渋谷区子ども家庭支援センター","province":"東京都","city":"渋谷区","address":"渋谷区宇田川町5-6","lat":35.66322,"lon":139.69783},{"name":"渋谷区子ども家庭支援センター","province":"東京都","city":"渋谷区","address":"渋谷区渋谷1-18-21","lat":35.662012,"lon":139.703662},{"name":"渋谷区子ども家庭支援センター","province":"東京都","city":"渋谷区","address":"渋谷区渋谷1-18-21","lat":35.66185,"lon":139.70392},{"name":"道玄坂下","province":"東京都","city":"渋谷区","address":"東京都渋谷区道玄坂2丁目5-9","lat":35.65930764,"lon":139.69951185},{"name":"渋谷駅前","province":"東京都","city":"渋谷区","address":"東京都渋谷区道玄坂2丁目1-1","lat":35.65929935,"lon":139.70101727},{"name":"宮下公園前","province":"東京都","city":"渋谷区","address":"東京都渋谷区松濤1丁目16-4","lat":35.66192666,"lon":139.69347894},{"name":"恵比寿南","province":"東京都","city":"渋谷区","address":"東京都渋谷区恵比寿南2丁目1-12","lat":35.64606209,"lon":139.7073534},{"name":"道玄坂上交番前","province":"東京都","city":"渋谷区","address":"東京都渋谷区円山町3-6","lat":35.65751331,"lon":139.69552615},{"name":"恵比寿駅前","province":"東京都","city":"渋谷区","address":"東京都渋谷区恵比寿南1丁目5-5","lat":35.64671485,"lon":139.71033922},{"name":"神宮前六丁目","province":"東京都","city":"渋谷区","address":"東京都渋谷区神宮前6丁目19-15","lat":35.66342392,"lon":139.70241976},{"name":"渋谷二丁目","province":"東京都","city":"渋谷区","address":"東京都渋谷区渋谷2丁目12-11","lat":35.65866902,"lon":139.70836944},{"name":"恵比寿駅東口","province":"東京都","city":"渋谷区","address":"東京都渋谷区恵比寿1丁目11-5","lat":35.6463677,"lon":139.71171966},{"name":"南平台","province":"東京都","city":"渋谷区","address":"東京都渋谷区桜丘町31-11","lat":35.65596354,"lon":139.69766492},{"name":"神南郵便局前","province":"東京都","city":"渋谷区","address":"東京都渋谷区神南1丁目22-14","lat":35.66189351,"lon":139.7011005},{"name":"東交番前","province":"東京都","city":"渋谷区","address":"東京都渋谷区東1丁目27-10","lat":35.6539362,"lon":139.70767803},{"name":"勤労福祉会館前","province":"東京都","city":"渋谷区","address":"東京都渋谷区宇田川町15-1","lat":35.66204899,"lon":139.69893957},{"name":"庚申橋","province":"東京都","city":"渋谷区","address":"東京都渋谷区恵比寿3丁目16-2","lat":35.64395141,"lon":139.71834411},{"name":"美竹交番東","province":"東京都","city":"渋谷区","address":"東京都渋谷区渋谷1丁目17-8","lat":35.6611742,"lon":139.70405305},{"name":"井の頭通り入口","province":"東京都","city":"渋谷区","address":"東京都渋谷区神南1丁目22-3","lat":35.66045478,"lon":139.70097557},{"name":"東電電力館前","province":"東京都","city":"渋谷区","address":"東京都渋谷区神南1丁目9-2","lat":35.66376553,"lon":139.70139762},{"name":"恵比寿駅前第二","province":"東京都","city":"渋谷区","address":"東京都渋谷区恵比寿南1丁目1-1","lat":35.64674539,"lon":139.70893101},{"name":"渋谷駅南口第一","province":"東京都","city":"渋谷区","address":"東京都渋谷区道玄坂1丁目2","lat":35.65751342,"lon":139.70031463},{"name":"広尾病院前","province":"東京都","city":"渋谷区","address":"東京都渋谷区広尾5丁目25-8","lat":35.64769271,"lon":139.7218131},{"name":"渋谷警察署東","province":"東京都","city":"渋谷区","address":"東京都渋谷区渋谷3丁目6-2","lat":35.65791348,"lon":139.70497532},{"name":"道玄坂二丁目東","province":"東京都","city":"渋谷区","address":"東京都渋谷区道玄坂2丁目29-20","lat":35.65976312,"lon":139.69815917},{"name":"宇田川町","province":"東京都","city":"渋谷区","address":"東京都渋谷区宇田川町3-1","lat":35.66317942,"lon":139.69879787},{"name":"並木橋北","province":"東京都","city":"渋谷区","address":"東京都渋谷区神宮前3丁目17-15","lat":35.67080662,"lon":139.71041043},{"name":"千駄ヶ谷駅前","province":"東京都","city":"渋谷区","address":"東京都渋谷区千駄ヶ谷1丁目35-7","lat":35.68080274,"lon":139.71177658},{"name":"明治神宮北参道","province":"東京都","city":"渋谷区","address":"東京都渋谷区千駄ヶ谷4丁目5-14","lat":35.68006098,"lon":139.70440227},{"name":"明治神宮北参道第二","province":"東京都","city":"渋谷区","address":"東京都渋谷区千駄ヶ谷4丁目27-1","lat":35.68059702,"lon":139.70414671},{"name":"明治神宮北参道第三","province":"東京都","city":"渋谷区","address":"東京都渋谷区千駄ヶ谷4丁目6-15","lat":35.68016931,"lon":139.70479111},{"name":"代々木駅前","province":"東京都","city":"渋谷区","address":"東京都渋谷区代々木1丁目32-12","lat":35.68265784,"lon":139.70206903},{"name":"鳩森小学校西","province":"東京都","city":"渋谷区","address":"東京都渋谷区千駄ヶ谷5丁目21-8","lat":35.68257736,"lon":139.70438272},{"name":"原宿駅竹下口","province":"東京都","city":"渋谷区","address":"東京都渋谷区神宮前1丁目17-1","lat":35.67144526,"lon":139.70321104},{"name":"代々木一丁目","province":"東京都","city":"渋谷区","address":"東京都渋谷区代々木1丁目10-1","lat":35.68201616,"lon":139.69793887},{"name":"東郷神社前","province":"東京都","city":"渋谷区","address":"東京都渋谷区神宮前1丁目5-1","lat":35.67127038,"lon":139.70703849},{"name":"代々木駅前第二","province":"東京都","city":"渋谷区","address":"東京都渋谷区代々木1丁目36-6","lat":35.68364382,"lon":139.70138851},{"name":"東京体育館南","province":"東京都","city":"渋谷区","address":"東京都渋谷区千駄ヶ谷1丁目14","lat":35.67772254,"lon":139.71225999},{"name":"国立能楽堂前","province":"東京都","city":"渋谷区","address":"東京都渋谷区千駄ヶ谷4丁目20-3","lat":35.68101373,"lon":139.70756583},{"name":"神宮前四丁目","province":"東京都","city":"渋谷区","address":"東京都渋谷区神宮前4丁目3-6","lat":35.66638488,"lon":139.71060503},{"name":"神宮前小学校南","province":"東京都","city":"渋谷区","address":"東京都渋谷区神宮前5丁目8-2","lat":35.66692088,"lon":139.7079247},{"name":"はあとぴあ原宿入口","province":"東京都","city":"渋谷区","address":"東京都渋谷区神宮前2丁目17","lat":35.67260364,"lon":139.7104409},{"name":"代々木八幡前","province":"東京都","city":"渋谷区","address":"東京都渋谷区元代々木町31-10","lat":35.67183649,"lon":139.6873652},{"name":"笹塚出張所前","province":"東京都","city":"渋谷区","address":"東京都渋谷区笹塚2丁目49-4","lat":35.67733544,"lon":139.67008317},{"name":"社会教育館前","province":"東京都","city":"渋谷区","address":"東京都渋谷区幡ヶ谷2丁目52-3","lat":35.67969088,"lon":139.6765214},{"name":"富士見丘高等学校前","province":"東京都","city":"渋谷区","address":"東京都渋谷区笹塚2丁目42-16","lat":35.67644938,"lon":139.66769176},{"name":"青少年センター前","province":"東京都","city":"渋谷区","address":"東京都渋谷区代々木神園町3","lat":35.67875255,"lon":139.69443097},{"name":"代々木上原駅南","province":"東京都","city":"渋谷区","address":"東京都渋谷区上原1丁目30-8","lat":35.66845335,"lon":139.67939102},{"name":"渋谷区役所総合庁舎前","province":"東京都","city":"渋谷区","address":"東京都渋谷区神南1丁目6","lat":35.66423765,"lon":139.69958665},{"name":"西新宿三丁目","province":"東京都","city":"渋谷区","address":"東京都渋谷区代々木3丁目25-3","lat":35.68469625,"lon":139.69232259},{"name":"東京都立広尾病院","province":"東京都","city":"渋谷区","address":"東京都渋谷区恵比寿2丁目34-10","lat":35.64707054,"lon":139.72073544},{"name":"日本赤十字社医療センター","province":"東京都","city":"渋谷区","address":"東京都渋谷区広尾4丁目1-22","lat":35.65443909,"lon":139.71794375},{"name":"代々幡斎場","province":"東京都","city":"渋谷区","address":"東京都渋谷区西原2丁目42-1","lat":35.67335551,"lon":139.67732435},{"name":"都立代々木公園","province":"東京都","city":"渋谷区","address":"東京都渋谷区代々木神園町2-1","lat":35.67281151,"lon":139.69257026},{"name":"都立第一商業高等学校","province":"東京都","city":"渋谷区","address":"東京都渋谷区鉢山町8-1","lat":35.65016143,"lon":139.6985845},{"name":"区立景丘公園","province":"東京都","city":"渋谷区","address":"東京都渋谷区恵比寿4丁目19-21","lat":35.6437958,"lon":139.71358068},{"name":"都立広尾病院","province":"東京都","city":"渋谷区","address":"東京都渋谷区恵比寿2丁目34-10","lat":35.64707054,"lon":139.72073544},{"name":"都立代々木公園競技場（織田フィールド）","province":"東京都","city":"渋谷区","address":"東京都渋谷区神南2丁目3-1","lat":35.66632898,"lon":139.69484253},{"name":"渋谷区立スポーツセンター","province":"東京都","city":"渋谷区","address":"東京都渋谷区西原1丁目40-18","lat":35.67556369,"lon":139.68096562},{"name":"都立広尾病院ヘリポート","province":"東京都","city":"渋谷区","address":"東京都渋谷区恵比寿2丁目34-10","lat":35.64707054,"lon":139.72073544},{"name":"日本赤十字社医療センターヘリポート","province":"東京都","city":"渋谷区","address":"東京都渋谷区広尾4丁目1-22","lat":35.65443909,"lon":139.71794375},{"name":"ＳＹＤ青年部((公財)修養団)","province":"東京都","city":"渋谷区","address":"東京都渋谷区千駄ヶ谷4丁目25-2","lat":35.68103588,"lon":139.70502994},{"name":"(特定非営利活動法人)東京少年少女センター","province":"東京都","city":"渋谷区","address":"東京都渋谷区代々木2丁目44-11","lat":35.68292713,"lon":139.69662785},{"name":"（公財）東京都体育協会","province":"東京都","city":"渋谷区","address":"東京都渋谷区神南1丁目1-1","lat":35.66618747,"lon":139.70106977},{"name":"（公財）東京都体育協会東京都スポーツ少年団","province":"東京都","city":"渋谷区","address":"東京都渋谷区神南1丁目1-1","lat":35.66618747,"lon":139.70106977},{"name":"(特定非営利活動法人)東京都地域婦人団体連盟","province":"東京都","city":"渋谷区","address":"東京都渋谷区渋谷1丁目17-14","lat":35.66111586,"lon":139.70322257},{"name":"（公財）ハーモニィセンター","province":"東京都","city":"渋谷区","address":"東京都渋谷区代々木神園町3-1","lat":35.67505296,"lon":139.69382284},{"name":"＊?渋谷男女平等・ダイバーシティセンター＜アイリス＞","province":"東京都","city":"渋谷区","address":"渋谷区桜丘町23-21","lat":35.655458,"lon":139.699965},{"name":"東京体育館","province":"東京都","city":"渋谷区","address":"東京都渋谷区","lat":35.66368489,"lon":139.69770072},{"name":"東京ウィメンズプラザ","province":"東京都","city":"渋谷区","address":"東京都渋谷区神宮前5丁目53-67","lat":35.662788,"lon":139.70793876},{"name":"青山高等学校","province":"東京都","city":"渋谷区","address":"東京都渋谷区神宮前2丁目1-8","lat":35.67270374,"lon":139.71607374},{"name":"広尾高等学校","province":"東京都","city":"渋谷区","address":"東京都渋谷区東4丁目14-14","lat":35.65287808,"lon":139.71284984},{"name":"第一商業高等学校","province":"東京都","city":"渋谷区","address":"東京都渋谷区鉢山町8-1","lat":35.65016143,"lon":139.6985845},{"name":"東京消防庁消防学校","province":"東京都","city":"渋谷区","address":"東京都渋谷区西原2丁目51-1","lat":35.67232498,"lon":139.67333307},{"name":"渋谷区本庁舎","province":"東京都","city":"渋谷区","address":"東京都渋谷区宇田川町1-1","lat":35.66395376,"lon":139.69807679},{"name":"渋谷区本庁舎","province":"東京都","city":"渋谷区","address":"渋谷区宇田川町1-1","lat":35.66396,"lon":139.698082},{"name":"東京急行電鉄（株）","province":"東京都","city":"渋谷区","address":"渋谷区南平台町5-6","lat":35.65497,"lon":139.6979},{"name":"日本放送協会","province":"東京都","city":"渋谷区","address":"渋谷区神南2-2-1","lat":35.66656,"lon":139.6969},{"name":"渋谷警察署","province":"東京都","city":"渋谷区","address":"渋谷区渋谷3-8-15","lat":35.65779,"lon":139.7039},{"name":"原宿警察署","province":"東京都","city":"渋谷区","address":"渋谷区神宮前1-4-17","lat":35.67188,"lon":139.7074},{"name":"代々木警察署","province":"東京都","city":"渋谷区","address":"渋谷区本町1-11-3","lat":35.67985,"lon":139.6832},{"name":"第三方面訓練場","province":"東京都","city":"渋谷区","address":"渋谷区幡ヶ谷1-13","lat":35.67292,"lon":139.6717},{"name":"消防学校","province":"東京都","city":"渋谷区","address":"渋谷区西原2-51-1","lat":35.6723,"lon":139.6735},{"name":"渋谷消防署","province":"東京都","city":"渋谷区","address":"渋谷区神南1-8-3","lat":35.66434,"lon":139.7012},{"name":"渋谷区","province":"東京都","city":"渋谷区","address":"渋谷区東3-14-13","lat":35.650896,"lon":139.709739},{"name":"東京都赤十字血液センター渋谷供給出張所","province":"東京都","city":"渋谷区","address":"渋谷区鶯谷町2-16","lat":35.65398,"lon":139.7044},{"name":"都立代々木公園陸上競技場・サッカー場","province":"東京都","city":"渋谷区","address":"渋谷区代々木神園町地内","lat":35.6747,"lon":139.6934},{"name":"渋谷清掃工場","province":"東京都","city":"渋谷区","address":"渋谷区東1-35-1","lat":35.65326,"lon":139.7065},{"name":"都立広尾病院専用臨時ヘリポート","province":"東京都","city":"渋谷区","address":"渋谷区恵比寿2-34-10","lat":35.646638,"lon":139.721236},{"name":"日本赤十字社医療センターヘリポート","province":"東京都","city":"渋谷区","address":"渋谷区広尾4-1-22","lat":35.65444,"lon":139.717944},{"name":"（株）ＮＴＴドコモドコモ代々木","province":"東京都","city":"渋谷区","address":"渋谷区千駄ヶ谷5-24-3","lat":35.6844,"lon":139.7031},{"name":"ＮＴＴコミュニケーションズ（株）渋谷鉢山ビル","province":"東京都","city":"渋谷区","address":"渋谷区鉢山町9-31","lat":35.65135,"lon":139.698},{"name":"東京電力（株）渋谷支社","province":"東京都","city":"渋谷区","address":"渋谷区神南1-12-10","lat":35.66345,"lon":139.7009},{"name":"※渋谷区本庁舎","province":"東京都","city":"渋谷区","address":"東京都渋谷区宇田川町1-1","lat":35.66395376,"lon":139.69807679},{"name":"渋谷駅","province":"東京都","city":"渋谷区","address":"東京都渋谷区道玄坂1丁目1-1","lat":35.65844945,"lon":139.70127562},{"name":"代々木ＰＡ","province":"東京都","city":"渋谷区","address":"東京都渋谷区","lat":35.66368489,"lon":139.69770072},{"name":"渋谷自動車営業所","province":"東京都","city":"渋谷区","address":"東京都渋谷区東2丁目25-36","lat":35.65310297,"lon":139.70793916},{"name":"広尾てくてく","province":"東京都","city":"渋谷区","address":"渋谷区広尾四丁目2番12号","lat":35.655159,"lon":139.722279},{"name":"特別支援教育研究所　Ｗｉｓh","province":"東京都","city":"渋谷区","address":"渋谷区神泉町15-11","lat":35.657005,"lon":139.691963},{"name":"よよこ～クラブ","province":"東京都","city":"渋谷区","address":"渋谷区千駄ヶ谷5-8-2","lat":35.681647,"lon":139.705038},{"name":"スタジオそら原宿","province":"東京都","city":"渋谷区","address":"渋谷区千駄ヶ谷3-51-6原宿MOA1階","lat":35.675037,"lon":139.706133},{"name":"渋谷区障害者福祉センター代々木の杜","province":"東京都","city":"渋谷区","address":"渋谷区代々木2-35-1","lat":35.684158,"lon":139.697725},{"name":"スタジオそら代々木公園","province":"東京都","city":"渋谷区","address":"渋谷区富ヶ谷一丁目2番1号","lat":35.670367,"lon":139.690043},{"name":"放課後等デイサービス　あいだっく","province":"東京都","city":"渋谷区","address":"渋谷区上原3-23-5オーガストハウス1階","lat":35.66427,"lon":139.676789},{"name":"デイサービスなかよし","province":"東京都","city":"渋谷区","address":"渋谷区西原2-36-7","lat":35.674441,"lon":139.675613},{"name":"児童発達支援・放課後等デイサービス　マリリン　スポーツ塾　初台","province":"東京都","city":"渋谷区","address":"渋谷区本町2-5-11三山ビル1階","lat":35.684004,"lon":139.683515},{"name":"Ａｒｔ＆Ｍｕｓｉｃ　豆庭　Ｍａｍｅ－Ｎｉｗａ","province":"東京都","city":"渋谷区","address":"渋谷区幡ヶ谷1-8-4リッツパラシオ202","lat":35.675572,"lon":139.672291},{"name":"渋谷区子ども家庭支援センター","province":"東京都","city":"渋谷区","address":"渋谷区神宮前3-18-33","lat":35.670937,"lon":139.709272},{"name":"渋谷区子ども家庭支援センター","province":"東京都","city":"渋谷区","address":"渋谷区宇田川町5-6","lat":35.66322,"lon":139.69783},{"name":"渋谷区子ども家庭支援センター","province":"東京都","city":"渋谷区","address":"渋谷区渋谷1-18-21","lat":35.662012,"lon":139.703662},{"name":"渋谷区子ども家庭支援センター","province":"東京都","city":"渋谷区","address":"渋谷区渋谷1-18-21","lat":35.66185,"lon":139.70392},{"name":"道玄坂下","province":"東京都","city":"渋谷区","address":"東京都渋谷区道玄坂2丁目5-9","lat":35.65930764,"lon":139.69951185},{"name":"渋谷駅前","province":"東京都","city":"渋谷区","address":"東京都渋谷区道玄坂2丁目1-1","lat":35.65929935,"lon":139.70101727},{"name":"宮下公園前","province":"東京都","city":"渋谷区","address":"東京都渋谷区松濤1丁目16-4","lat":35.66192666,"lon":139.69347894},{"name":"恵比寿南","province":"東京都","city":"渋谷区","address":"東京都渋谷区恵比寿南2丁目1-12","lat":35.64606209,"lon":139.7073534},{"name":"道玄坂上交番前","province":"東京都","city":"渋谷区","address":"東京都渋谷区円山町3-6","lat":35.65751331,"lon":139.69552615},{"name":"恵比寿駅前","province":"東京都","city":"渋谷区","address":"東京都渋谷区恵比寿南1丁目5-5","lat":35.64671485,"lon":139.71033922},{"name":"神宮前六丁目","province":"東京都","city":"渋谷区","address":"東京都渋谷区神宮前6丁目19-15","lat":35.66342392,"lon":139.70241976},{"name":"渋谷二丁目","province":"東京都","city":"渋谷区","address":"東京都渋谷区渋谷2丁目12-11","lat":35.65866902,"lon":139.70836944},{"name":"恵比寿駅東口","province":"東京都","city":"渋谷区","address":"東京都渋谷区恵比寿1丁目11-5","lat":35.6463677,"lon":139.71171966},{"name":"南平台","province":"東京都","city":"渋谷区","address":"東京都渋谷区桜丘町31-11","lat":35.65596354,"lon":139.69766492},{"name":"神南郵便局前","province":"東京都","city":"渋谷区","address":"東京都渋谷区神南1丁目22-14","lat":35.66189351,"lon":139.7011005},{"name":"東交番前","province":"東京都","city":"渋谷区","address":"東京都渋谷区東1丁目27-10","lat":35.6539362,"lon":139.70767803},{"name":"勤労福祉会館前","province":"東京都","city":"渋谷区","address":"東京都渋谷区宇田川町15-1","lat":35.66204899,"lon":139.69893957},{"name":"庚申橋","province":"東京都","city":"渋谷区","address":"東京都渋谷区恵比寿3丁目16-2","lat":35.64395141,"lon":139.71834411},{"name":"美竹交番東","province":"東京都","city":"渋谷区","address":"東京都渋谷区渋谷1丁目17-8","lat":35.6611742,"lon":139.70405305},{"name":"井の頭通り入口","province":"東京都","city":"渋谷区","address":"東京都渋谷区神南1丁目22-3","lat":35.66045478,"lon":139.70097557},{"name":"東電電力館前","province":"東京都","city":"渋谷区","address":"東京都渋谷区神南1丁目9-2","lat":35.66376553,"lon":139.70139762},{"name":"恵比寿駅前第二","province":"東京都","city":"渋谷区","address":"東京都渋谷区恵比寿南1丁目1-1","lat":35.64674539,"lon":139.70893101},{"name":"渋谷駅南口第一","province":"東京都","city":"渋谷区","address":"東京都渋谷区道玄坂1丁目2","lat":35.65751342,"lon":139.70031463},{"name":"広尾病院前","province":"東京都","city":"渋谷区","address":"東京都渋谷区広尾5丁目25-8","lat":35.64769271,"lon":139.7218131},{"name":"渋谷警察署東","province":"東京都","city":"渋谷区","address":"東京都渋谷区渋谷3丁目6-2","lat":35.65791348,"lon":139.70497532},{"name":"道玄坂二丁目東","province":"東京都","city":"渋谷区","address":"東京都渋谷区道玄坂2丁目29-20","lat":35.65976312,"lon":139.69815917},{"name":"宇田川町","province":"東京都","city":"渋谷区","address":"東京都渋谷区宇田川町3-1","lat":35.66317942,"lon":139.69879787},{"name":"並木橋北","province":"東京都","city":"渋谷区","address":"東京都渋谷区神宮前3丁目17-15","lat":35.67080662,"lon":139.71041043},{"name":"千駄ヶ谷駅前","province":"東京都","city":"渋谷区","address":"東京都渋谷区千駄ヶ谷1丁目35-7","lat":35.68080274,"lon":139.71177658},{"name":"明治神宮北参道","province":"東京都","city":"渋谷区","address":"東京都渋谷区千駄ヶ谷4丁目5-14","lat":35.68006098,"lon":139.70440227},{"name":"明治神宮北参道第二","province":"東京都","city":"渋谷区","address":"東京都渋谷区千駄ヶ谷4丁目27-1","lat":35.68059702,"lon":139.70414671},{"name":"明治神宮北参道第三","province":"東京都","city":"渋谷区","address":"東京都渋谷区千駄ヶ谷4丁目6-15","lat":35.68016931,"lon":139.70479111},{"name":"代々木駅前","province":"東京都","city":"渋谷区","address":"東京都渋谷区代々木1丁目32-12","lat":35.68265784,"lon":139.70206903},{"name":"鳩森小学校西","province":"東京都","city":"渋谷区","address":"東京都渋谷区千駄ヶ谷5丁目21-8","lat":35.68257736,"lon":139.70438272},{"name":"原宿駅竹下口","province":"東京都","city":"渋谷区","address":"東京都渋谷区神宮前1丁目17-1","lat":35.67144526,"lon":139.70321104},{"name":"代々木一丁目","province":"東京都","city":"渋谷区","address":"東京都渋谷区代々木1丁目10-1","lat":35.68201616,"lon":139.69793887},{"name":"東郷神社前","province":"東京都","city":"渋谷区","address":"東京都渋谷区神宮前1丁目5-1","lat":35.67127038,"lon":139.70703849},{"name":"代々木駅前第二","province":"東京都","city":"渋谷区","address":"東京都渋谷区代々木1丁目36-6","lat":35.68364382,"lon":139.70138851},{"name":"東京体育館南","province":"東京都","city":"渋谷区","address":"東京都渋谷区千駄ヶ谷1丁目14","lat":35.67772254,"lon":139.71225999},{"name":"国立能楽堂前","province":"東京都","city":"渋谷区","address":"東京都渋谷区千駄ヶ谷4丁目20-3","lat":35.68101373,"lon":139.70756583},{"name":"神宮前四丁目","province":"東京都","city":"渋谷区","address":"東京都渋谷区神宮前4丁目3-6","lat":35.66638488,"lon":139.71060503},{"name":"神宮前小学校南","province":"東京都","city":"渋谷区","address":"東京都渋谷区神宮前5丁目8-2","lat":35.66692088,"lon":139.7079247},{"name":"はあとぴあ原宿入口","province":"東京都","city":"渋谷区","address":"東京都渋谷区神宮前2丁目17","lat":35.67260364,"lon":139.7104409},{"name":"代々木八幡前","province":"東京都","city":"渋谷区","address":"東京都渋谷区元代々木町31-10","lat":35.67183649,"lon":139.6873652},{"name":"笹塚出張所前","province":"東京都","city":"渋谷区","address":"東京都渋谷区笹塚2丁目49-4","lat":35.67733544,"lon":139.67008317},{"name":"社会教育館前","province":"東京都","city":"渋谷区","address":"東京都渋谷区幡ヶ谷2丁目52-3","lat":35.67969088,"lon":139.6765214},{"name":"富士見丘高等学校前","province":"東京都","city":"渋谷区","address":"東京都渋谷区笹塚2丁目42-16","lat":35.67644938,"lon":139.66769176},{"name":"青少年センター前","province":"東京都","city":"渋谷区","address":"東京都渋谷区代々木神園町3","lat":35.67875255,"lon":139.69443097},{"name":"代々木上原駅南","province":"東京都","city":"渋谷区","address":"東京都渋谷区上原1丁目30-8","lat":35.66845335,"lon":139.67939102},{"name":"渋谷区役所総合庁舎前","province":"東京都","city":"渋谷区","address":"東京都渋谷区神南1丁目6","lat":35.66423765,"lon":139.69958665},{"name":"西新宿三丁目","province":"東京都","city":"渋谷区","address":"東京都渋谷区代々木3丁目25-3","lat":35.68469625,"lon":139.69232259},{"name":"東京都立広尾病院","province":"東京都","city":"渋谷区","address":"東京都渋谷区恵比寿2丁目34-10","lat":35.64707054,"lon":139.72073544},{"name":"日本赤十字社医療センター","province":"東京都","city":"渋谷区","address":"東京都渋谷区広尾4丁目1-22","lat":35.65443909,"lon":139.71794375},{"name":"代々幡斎場","province":"東京都","city":"渋谷区","address":"東京都渋谷区西原2丁目42-1","lat":35.67335551,"lon":139.67732435},{"name":"都立代々木公園","province":"東京都","city":"渋谷区","address":"東京都渋谷区代々木神園町2-1","lat":35.67281151,"lon":139.69257026},{"name":"都立第一商業高等学校","province":"東京都","city":"渋谷区","address":"東京都渋谷区鉢山町8-1","lat":35.65016143,"lon":139.6985845},{"name":"区立景丘公園","province":"東京都","city":"渋谷区","address":"東京都渋谷区恵比寿4丁目19-21","lat":35.6437958,"lon":139.71358068},{"name":"都立広尾病院","province":"東京都","city":"渋谷区","address":"東京都渋谷区恵比寿2丁目34-10","lat":35.64707054,"lon":139.72073544},{"name":"都立代々木公園競技場（織田フィールド）","province":"東京都","city":"渋谷区","address":"東京都渋谷区神南2丁目3-1","lat":35.66632898,"lon":139.69484253},{"name":"渋谷区立スポーツセンター","province":"東京都","city":"渋谷区","address":"東京都渋谷区西原1丁目40-18","lat":35.67556369,"lon":139.68096562},{"name":"都立広尾病院ヘリポート","province":"東京都","city":"渋谷区","address":"東京都渋谷区恵比寿2丁目34-10","lat":35.64707054,"lon":139.72073544},{"name":"日本赤十字社医療センターヘリポート","province":"東京都","city":"渋谷区","address":"東京都渋谷区広尾4丁目1-22","lat":35.65443909,"lon":139.71794375},{"name":"ＳＹＤ青年部((公財)修養団)","province":"東京都","city":"渋谷区","address":"東京都渋谷区千駄ヶ谷4丁目25-2","lat":35.68103588,"lon":139.70502994},{"name":"(特定非営利活動法人)東京少年少女センター","province":"東京都","city":"渋谷区","address":"東京都渋谷区代々木2丁目44-11","lat":35.68292713,"lon":139.69662785},{"name":"（公財）東京都体育協会","province":"東京都","city":"渋谷区","address":"東京都渋谷区神南1丁目1-1","lat":35.66618747,"lon":139.70106977},{"name":"（公財）東京都体育協会東京都スポーツ少年団","province":"東京都","city":"渋谷区","address":"東京都渋谷区神南1丁目1-1","lat":35.66618747,"lon":139.70106977},{"name":"(特定非営利活動法人)東京都地域婦人団体連盟","province":"東京都","city":"渋谷区","address":"東京都渋谷区渋谷1丁目17-14","lat":35.66111586,"lon":139.70322257},{"name":"（公財）ハーモニィセンター","province":"東京都","city":"渋谷区","address":"東京都渋谷区代々木神園町3-1","lat":35.67505296,"lon":139.69382284},{"name":"＊?渋谷男女平等・ダイバーシティセンター＜アイリス＞","province":"東京都","city":"渋谷区","address":"渋谷区桜丘町23-21","lat":35.655458,"lon":139.699965},{"name":"東京体育館","province":"東京都","city":"渋谷区","address":"東京都渋谷区","lat":35.66368489,"lon":139.69770072},{"name":"東京ウィメンズプラザ","province":"東京都","city":"渋谷区","address":"東京都渋谷区神宮前5丁目53-67","lat":35.662788,"lon":139.70793876},{"name":"青山高等学校","province":"東京都","city":"渋谷区","address":"東京都渋谷区神宮前2丁目1-8","lat":35.67270374,"lon":139.71607374},{"name":"広尾高等学校","province":"東京都","city":"渋谷区","address":"東京都渋谷区東4丁目14-14","lat":35.65287808,"lon":139.71284984},{"name":"第一商業高等学校","province":"東京都","city":"渋谷区","address":"東京都渋谷区鉢山町8-1","lat":35.65016143,"lon":139.6985845},{"name":"東京消防庁消防学校","province":"東京都","city":"渋谷区","address":"東京都渋谷区西原2丁目51-1","lat":35.67232498,"lon":139.67333307},{"name":"広尾てくてく","province":"東京都","city":"渋谷区","address":"渋谷区広尾四丁目2番12号","lat":35.655159,"lon":139.722279},{"name":"特別支援教育研究所　Ｗｉｓh","province":"東京都","city":"渋谷区","address":"渋谷区神泉町15-11","lat":35.657005,"lon":139.691963},{"name":"よよこ～クラブ","province":"東京都","city":"渋谷区","address":"渋谷区千駄ヶ谷5-8-2","lat":35.681647,"lon":139.705038},{"name":"スタジオそら原宿","province":"東京都","city":"渋谷区","address":"渋谷区千駄ヶ谷3-51-6原宿MOA1階","lat":35.675037,"lon":139.706133},{"name":"渋谷区障害者福祉センター代々木の杜","province":"東京都","city":"渋谷区","address":"渋谷区代々木2-35-1","lat":35.684158,"lon":139.697725},{"name":"スタジオそら代々木公園","province":"東京都","city":"渋谷区","address":"渋谷区富ヶ谷一丁目2番1号","lat":35.670367,"lon":139.690043},{"name":"放課後等デイサービス　あいだっく","province":"東京都","city":"渋谷区","address":"渋谷区上原3-23-5オーガストハウス1階","lat":35.66427,"lon":139.676789},{"name":"デイサービスなかよし","province":"東京都","city":"渋谷区","address":"渋谷区西原2-36-7","lat":35.674441,"lon":139.675613},{"name":"児童発達支援・放課後等デイサービス　マリリン　スポーツ塾　初台","province":"東京都","city":"渋谷区","address":"渋谷区本町2-5-11三山ビル1階","lat":35.684004,"lon":139.683515},{"name":"Ａｒｔ＆Ｍｕｓｉｃ　豆庭　Ｍａｍｅ－Ｎｉｗａ","province":"東京都","city":"渋谷区","address":"渋谷区幡ヶ谷1-8-4リッツパラシオ202","lat":35.675572,"lon":139.672291},{"name":"渋谷区子ども家庭支援センター","province":"東京都","city":"渋谷区","address":"渋谷区神宮前3-18-33","lat":35.670937,"lon":139.709272},{"name":"渋谷区子ども家庭支援センター","province":"東京都","city":"渋谷区","address":"渋谷区宇田川町5-6","lat":35.66322,"lon":139.69783},{"name":"渋谷区子ども家庭支援センター","province":"東京都","city":"渋谷区","address":"渋谷区渋谷1-18-21","lat":35.662012,"lon":139.703662},{"name":"渋谷区子ども家庭支援センター","province":"東京都","city":"渋谷区","address":"渋谷区渋谷1-18-21","lat":35.66185,"lon":139.70392},{"name":"道玄坂下","province":"東京都","city":"渋谷区","address":"東京都渋谷区道玄坂2丁目5-9","lat":35.65930764,"lon":139.69951185},{"name":"渋谷駅前","province":"東京都","city":"渋谷区","address":"東京都渋谷区道玄坂2丁目1-1","lat":35.65929935,"lon":139.70101727},{"name":"宮下公園前","province":"東京都","city":"渋谷区","address":"東京都渋谷区松濤1丁目16-4","lat":35.66192666,"lon":139.69347894},{"name":"恵比寿南","province":"東京都","city":"渋谷区","address":"東京都渋谷区恵比寿南2丁目1-12","lat":35.64606209,"lon":139.7073534},{"name":"道玄坂上交番前","province":"東京都","city":"渋谷区","address":"東京都渋谷区円山町3-6","lat":35.65751331,"lon":139.69552615},{"name":"恵比寿駅前","province":"東京都","city":"渋谷区","address":"東京都渋谷区恵比寿南1丁目5-5","lat":35.64671485,"lon":139.71033922},{"name":"神宮前六丁目","province":"東京都","city":"渋谷区","address":"東京都渋谷区神宮前6丁目19-15","lat":35.66342392,"lon":139.70241976},{"name":"渋谷二丁目","province":"東京都","city":"渋谷区","address":"東京都渋谷区渋谷2丁目12-11","lat":35.65866902,"lon":139.70836944},{"name":"恵比寿駅東口","province":"東京都","city":"渋谷区","address":"東京都渋谷区恵比寿1丁目11-5","lat":35.6463677,"lon":139.71171966},{"name":"南平台","province":"東京都","city":"渋谷区","address":"東京都渋谷区桜丘町31-11","lat":35.65596354,"lon":139.69766492},{"name":"神南郵便局前","province":"東京都","city":"渋谷区","address":"東京都渋谷区神南1丁目22-14","lat":35.66189351,"lon":139.7011005},{"name":"東交番前","province":"東京都","city":"渋谷区","address":"東京都渋谷区東1丁目27-10","lat":35.6539362,"lon":139.70767803},{"name":"勤労福祉会館前","province":"東京都","city":"渋谷区","address":"東京都渋谷区宇田川町15-1","lat":35.66204899,"lon":139.69893957},{"name":"庚申橋","province":"東京都","city":"渋谷区","address":"東京都渋谷区恵比寿3丁目16-2","lat":35.64395141,"lon":139.71834411},{"name":"美竹交番東","province":"東京都","city":"渋谷区","address":"東京都渋谷区渋谷1丁目17-8","lat":35.6611742,"lon":139.70405305},{"name":"井の頭通り入口","province":"東京都","city":"渋谷区","address":"東京都渋谷区神南1丁目22-3","lat":35.66045478,"lon":139.70097557},{"name":"東電電力館前","province":"東京都","city":"渋谷区","address":"東京都渋谷区神南1丁目9-2","lat":35.66376553,"lon":139.70139762},{"name":"恵比寿駅前第二","province":"東京都","city":"渋谷区","address":"東京都渋谷区恵比寿南1丁目1-1","lat":35.64674539,"lon":139.70893101},{"name":"渋谷駅南口第一","province":"東京都","city":"渋谷区","address":"東京都渋谷区道玄坂1丁目2","lat":35.65751342,"lon":139.70031463},{"name":"広尾病院前","province":"東京都","city":"渋谷区","address":"東京都渋谷区広尾5丁目25-8","lat":35.64769271,"lon":139.7218131},{"name":"渋谷警察署東","province":"東京都","city":"渋谷区","address":"東京都渋谷区渋谷3丁目6-2","lat":35.65791348,"lon":139.70497532},{"name":"道玄坂二丁目東","province":"東京都","city":"渋谷区","address":"東京都渋谷区道玄坂2丁目29-20","lat":35.65976312,"lon":139.69815917},{"name":"宇田川町","province":"東京都","city":"渋谷区","address":"東京都渋谷区宇田川町3-1","lat":35.66317942,"lon":139.69879787},{"name":"並木橋北","province":"東京都","city":"渋谷区","address":"東京都渋谷区神宮前3丁目17-15","lat":35.67080662,"lon":139.71041043},{"name":"千駄ヶ谷駅前","province":"東京都","city":"渋谷区","address":"東京都渋谷区千駄ヶ谷1丁目35-7","lat":35.68080274,"lon":139.71177658},{"name":"明治神宮北参道","province":"東京都","city":"渋谷区","address":"東京都渋谷区千駄ヶ谷4丁目5-14","lat":35.68006098,"lon":139.70440227},{"name":"明治神宮北参道第二","province":"東京都","city":"渋谷区","address":"東京都渋谷区千駄ヶ谷4丁目27-1","lat":35.68059702,"lon":139.70414671},{"name":"明治神宮北参道第三","province":"東京都","city":"渋谷区","address":"東京都渋谷区千駄ヶ谷4丁目6-15","lat":35.68016931,"lon":139.70479111},{"name":"代々木駅前","province":"東京都","city":"渋谷区","address":"東京都渋谷区代々木1丁目32-12","lat":35.68265784,"lon":139.70206903},{"name":"鳩森小学校西","province":"東京都","city":"渋谷区","address":"東京都渋谷区千駄ヶ谷5丁目21-8","lat":35.68257736,"lon":139.70438272},{"name":"原宿駅竹下口","province":"東京都","city":"渋谷区","address":"東京都渋谷区神宮前1丁目17-1","lat":35.67144526,"lon":139.70321104},{"name":"代々木一丁目","province":"東京都","city":"渋谷区","address":"東京都渋谷区代々木1丁目10-1","lat":35.68201616,"lon":139.69793887},{"name":"東郷神社前","province":"東京都","city":"渋谷区","address":"東京都渋谷区神宮前1丁目5-1","lat":35.67127038,"lon":139.70703849},{"name":"代々木駅前第二","province":"東京都","city":"渋谷区","address":"東京都渋谷区代々木1丁目36-6","lat":35.68364382,"lon":139.70138851},{"name":"東京体育館南","province":"東京都","city":"渋谷区","address":"東京都渋谷区千駄ヶ谷1丁目14","lat":35.67772254,"lon":139.71225999},{"name":"国立能楽堂前","province":"東京都","city":"渋谷区","address":"東京都渋谷区千駄ヶ谷4丁目20-3","lat":35.68101373,"lon":139.70756583},{"name":"神宮前四丁目","province":"東京都","city":"渋谷区","address":"東京都渋谷区神宮前4丁目3-6","lat":35.66638488,"lon":139.71060503},{"name":"神宮前小学校南","province":"東京都","city":"渋谷区","address":"東京都渋谷区神宮前5丁目8-2","lat":35.66692088,"lon":139.7079247},{"name":"はあとぴあ原宿入口","province":"東京都","city":"渋谷区","address":"東京都渋谷区神宮前2丁目17","lat":35.67260364,"lon":139.7104409},{"name":"代々木八幡前","province":"東京都","city":"渋谷区","address":"東京都渋谷区元代々木町31-10","lat":35.67183649,"lon":139.6873652},{"name":"笹塚出張所前","province":"東京都","city":"渋谷区","address":"東京都渋谷区笹塚2丁目49-4","lat":35.67733544,"lon":139.67008317},{"name":"社会教育館前","province":"東京都","city":"渋谷区","address":"東京都渋谷区幡ヶ谷2丁目52-3","lat":35.67969088,"lon":139.6765214},{"name":"富士見丘高等学校前","province":"東京都","city":"渋谷区","address":"東京都渋谷区笹塚2丁目42-16","lat":35.67644938,"lon":139.66769176},{"name":"青少年センター前","province":"東京都","city":"渋谷区","address":"東京都渋谷区代々木神園町3","lat":35.67875255,"lon":139.69443097},{"name":"代々木上原駅南","province":"東京都","city":"渋谷区","address":"東京都渋谷区上原1丁目30-8","lat":35.66845335,"lon":139.67939102},{"name":"渋谷区役所総合庁舎前","province":"東京都","city":"渋谷区","address":"東京都渋谷区神南1丁目6","lat":35.66423765,"lon":139.69958665},{"name":"西新宿三丁目","province":"東京都","city":"渋谷区","address":"東京都渋谷区代々木3丁目25-3","lat":35.68469625,"lon":139.69232259},{"name":"東京都立広尾病院","province":"東京都","city":"渋谷区","address":"東京都渋谷区恵比寿2丁目34-10","lat":35.64707054,"lon":139.72073544},{"name":"日本赤十字社医療センター","province":"東京都","city":"渋谷区","address":"東京都渋谷区広尾4丁目1-22","lat":35.65443909,"lon":139.71794375},{"name":"代々幡斎場","province":"東京都","city":"渋谷区","address":"東京都渋谷区西原2丁目42-1","lat":35.67335551,"lon":139.67732435},{"name":"都立代々木公園","province":"東京都","city":"渋谷区","address":"東京都渋谷区代々木神園町2-1","lat":35.67281151,"lon":139.69257026},{"name":"都立第一商業高等学校","province":"東京都","city":"渋谷区","address":"東京都渋谷区鉢山町8-1","lat":35.65016143,"lon":139.6985845},{"name":"区立景丘公園","province":"東京都","city":"渋谷区","address":"東京都渋谷区恵比寿4丁目19-21","lat":35.6437958,"lon":139.71358068},{"name":"都立広尾病院","province":"東京都","city":"渋谷区","address":"東京都渋谷区恵比寿2丁目34-10","lat":35.64707054,"lon":139.72073544},{"name":"都立代々木公園競技場（織田フィールド）","province":"東京都","city":"渋谷区","address":"東京都渋谷区神南2丁目3-1","lat":35.66632898,"lon":139.69484253},{"name":"渋谷区立スポーツセンター","province":"東京都","city":"渋谷区","address":"東京都渋谷区西原1丁目40-18","lat":35.67556369,"lon":139.68096562},{"name":"都立広尾病院ヘリポート","province":"東京都","city":"渋谷区","address":"東京都渋谷区恵比寿2丁目34-10","lat":35.64707054,"lon":139.72073544},{"name":"日本赤十字社医療センターヘリポート","province":"東京都","city":"渋谷区","address":"東京都渋谷区広尾4丁目1-22","lat":35.65443909,"lon":139.71794375},{"name":"ＳＹＤ青年部((公財)修養団)","province":"東京都","city":"渋谷区","address":"東京都渋谷区千駄ヶ谷4丁目25-2","lat":35.68103588,"lon":139.70502994},{"name":"(特定非営利活動法人)東京少年少女センター","province":"東京都","city":"渋谷区","address":"東京都渋谷区代々木2丁目44-11","lat":35.68292713,"lon":139.69662785},{"name":"（公財）東京都体育協会","province":"東京都","city":"渋谷区","address":"東京都渋谷区神南1丁目1-1","lat":35.66618747,"lon":139.70106977},{"name":"（公財）東京都体育協会東京都スポーツ少年団","province":"東京都","city":"渋谷区","address":"東京都渋谷区神南1丁目1-1","lat":35.66618747,"lon":139.70106977},{"name":"(特定非営利活動法人)東京都地域婦人団体連盟","province":"東京都","city":"渋谷区","address":"東京都渋谷区渋谷1丁目17-14","lat":35.66111586,"lon":139.70322257},{"name":"（公財）ハーモニィセンター","province":"東京都","city":"渋谷区","address":"東京都渋谷区代々木神園町3-1","lat":35.67505296,"lon":139.69382284},{"name":"＊?渋谷男女平等・ダイバーシティセンター＜アイリス＞","province":"東京都","city":"渋谷区","address":"渋谷区桜丘町23-21","lat":35.655458,"lon":139.699965},{"name":"東京ウィメンズプラザ","province":"東京都","city":"渋谷区","address":"東京都渋谷区神宮前5丁目53-67","lat":35.662788,"lon":139.70793876},{"name":"青山高等学校","province":"東京都","city":"渋谷区","address":"東京都渋谷区神宮前2丁目1-8","lat":35.67270374,"lon":139.71607374},{"name":"広尾高等学校","province":"東京都","city":"渋谷区","address":"東京都渋谷区東4丁目14-14","lat":35.65287808,"lon":139.71284984},{"name":"第一商業高等学校","province":"東京都","city":"渋谷区","address":"東京都渋谷区鉢山町8-1","lat":35.65016143,"lon":139.6985845},{"name":"東京消防庁消防学校","province":"東京都","city":"渋谷区","address":"東京都渋谷区西原2丁目51-1","lat":35.67232498,"lon":139.67333307},{"name":"広尾てくてく","province":"東京都","city":"渋谷区","address":"渋谷区広尾四丁目2番12号","lat":35.655159,"lon":139.722279},{"name":"特別支援教育研究所　Ｗｉｓh","province":"東京都","city":"渋谷区","address":"渋谷区神泉町15-11","lat":35.657005,"lon":139.691963},{"name":"よよこ～クラブ","province":"東京都","city":"渋谷区","address":"渋谷区千駄ヶ谷5-8-2","lat":35.681647,"lon":139.705038},{"name":"スタジオそら原宿","province":"東京都","city":"渋谷区","address":"渋谷区千駄ヶ谷3-51-6原宿MOA1階","lat":35.675037,"lon":139.706133},{"name":"渋谷区障害者福祉センター代々木の杜","province":"東京都","city":"渋谷区","address":"渋谷区代々木2-35-1","lat":35.684158,"lon":139.697725},{"name":"スタジオそら代々木公園","province":"東京都","city":"渋谷区","address":"渋谷区富ヶ谷一丁目2番1号","lat":35.670367,"lon":139.690043},{"name":"放課後等デイサービス　あいだっく","province":"東京都","city":"渋谷区","address":"渋谷区上原3-23-5オーガストハウス1階","lat":35.66427,"lon":139.676789},{"name":"デイサービスなかよし","province":"東京都","city":"渋谷区","address":"渋谷区西原2-36-7","lat":35.674441,"lon":139.675613},{"name":"児童発達支援・放課後等デイサービス　マリリン　スポーツ塾　初台","province":"東京都","city":"渋谷区","address":"渋谷区本町2-5-11三山ビル1階","lat":35.684004,"lon":139.683515},{"name":"Ａｒｔ＆Ｍｕｓｉｃ　豆庭　Ｍａｍｅ－Ｎｉｗａ","province":"東京都","city":"渋谷区","address":"渋谷区幡ヶ谷1-8-4リッツパラシオ202","lat":35.675572,"lon":139.672291},{"name":"渋谷区子ども家庭支援センター","province":"東京都","city":"渋谷区","address":"渋谷区神宮前3-18-33","lat":35.670937,"lon":139.709272},{"name":"渋谷区子ども家庭支援センター","province":"東京都","city":"渋谷区","address":"渋谷区宇田川町5-6","lat":35.66322,"lon":139.69783},{"name":"渋谷区子ども家庭支援センター","province":"東京都","city":"渋谷区","address":"渋谷区渋谷1-18-21","lat":35.662012,"lon":139.703662},{"name":"渋谷区子ども家庭支援センター","province":"東京都","city":"渋谷区","address":"渋谷区渋谷1-18-21","lat":35.66185,"lon":139.70392},{"name":"代々幡斎場","province":"東京都","city":"渋谷区","address":"東京都渋谷区西原2丁目42-1","lat":35.67335551,"lon":139.67732435},{"name":"都立代々木公園競技場（織田フィールド）","province":"東京都","city":"渋谷区","address":"東京都渋谷区神南2丁目3-1","lat":35.66632898,"lon":139.69484253},{"name":"渋谷区立スポーツセンター","province":"東京都","city":"渋谷区","address":"東京都渋谷区西原1丁目40-18","lat":35.67556369,"lon":139.68096562},{"name":"都立広尾病院ヘリポート","province":"東京都","city":"渋谷区","address":"東京都渋谷区恵比寿2丁目34-10","lat":35.64707054,"lon":139.72073544},{"name":"日本赤十字社医療センターヘリポート","province":"東京都","city":"渋谷区","address":"東京都渋谷区広尾4丁目1-22","lat":35.65443909,"lon":139.71794375},{"name":"ＳＹＤ青年部((公財)修養団)","province":"東京都","city":"渋谷区","address":"東京都渋谷区千駄ヶ谷4丁目25-2","lat":35.68103588,"lon":139.70502994},{"name":"(特定非営利活動法人)東京少年少女センター","province":"東京都","city":"渋谷区","address":"東京都渋谷区代々木2丁目44-11","lat":35.68292713,"lon":139.69662785},{"name":"（公財）東京都体育協会","province":"東京都","city":"渋谷区","address":"東京都渋谷区神南1丁目1-1","lat":35.66618747,"lon":139.70106977},{"name":"（公財）東京都体育協会東京都スポーツ少年団","province":"東京都","city":"渋谷区","address":"東京都渋谷区神南1丁目1-1","lat":35.66618747,"lon":139.70106977},{"name":"(特定非営利活動法人)東京都地域婦人団体連盟","province":"東京都","city":"渋谷区","address":"東京都渋谷区渋谷1丁目17-14","lat":35.66111586,"lon":139.70322257},{"name":"（公財）ハーモニィセンター","province":"東京都","city":"渋谷区","address":"東京都渋谷区代々木神園町3-1","lat":35.67505296,"lon":139.69382284},{"name":"＊?渋谷男女平等・ダイバーシティセンター＜アイリス＞","province":"東京都","city":"渋谷区","address":"渋谷区桜丘町23-21","lat":35.655458,"lon":139.699965},{"name":"東京ウィメンズプラザ","province":"東京都","city":"渋谷区","address":"東京都渋谷区神宮前5丁目53-67","lat":35.662788,"lon":139.70793876},{"name":"青山高等学校","province":"東京都","city":"渋谷区","address":"東京都渋谷区神宮前2丁目1-8","lat":35.67270374,"lon":139.71607374},{"name":"広尾高等学校","province":"東京都","city":"渋谷区","address":"東京都渋谷区東4丁目14-14","lat":35.65287808,"lon":139.71284984},{"name":"第一商業高等学校","province":"東京都","city":"渋谷区","address":"東京都渋谷区鉢山町8-1","lat":35.65016143,"lon":139.6985845},{"name":"東京消防庁消防学校","province":"東京都","city":"渋谷区","address":"東京都渋谷区西原2丁目51-1","lat":35.67232498,"lon":139.67333307},{"name":"広尾てくてく","province":"東京都","city":"渋谷区","address":"渋谷区広尾四丁目2番12号","lat":35.655159,"lon":139.722279},{"name":"特別支援教育研究所　Ｗｉｓh","province":"東京都","city":"渋谷区","address":"渋谷区神泉町15-11","lat":35.657005,"lon":139.691963},{"name":"よよこ～クラブ","province":"東京都","city":"渋谷区","address":"渋谷区千駄ヶ谷5-8-2","lat":35.681647,"lon":139.705038},{"name":"スタジオそら原宿","province":"東京都","city":"渋谷区","address":"渋谷区千駄ヶ谷3-51-6原宿MOA1階","lat":35.675037,"lon":139.706133},{"name":"渋谷区障害者福祉センター代々木の杜","province":"東京都","city":"渋谷区","address":"渋谷区代々木2-35-1","lat":35.684158,"lon":139.697725},{"name":"スタジオそら代々木公園","province":"東京都","city":"渋谷区","address":"渋谷区富ヶ谷一丁目2番1号","lat":35.670367,"lon":139.690043},{"name":"放課後等デイサービス　あいだっく","province":"東京都","city":"渋谷区","address":"渋谷区上原3-23-5オーガストハウス1階","lat":35.66427,"lon":139.676789},{"name":"デイサービスなかよし","province":"東京都","city":"渋谷区","address":"渋谷区西原2-36-7","lat":35.674441,"lon":139.675613},{"name":"児童発達支援・放課後等デイサービス　マリリン　スポーツ塾　初台","province":"東京都","city":"渋谷区","address":"渋谷区本町2-5-11三山ビル1階","lat":35.684004,"lon":139.683515},{"name":"Ａｒｔ＆Ｍｕｓｉｃ　豆庭　Ｍａｍｅ－Ｎｉｗａ","province":"東京都","city":"渋谷区","address":"渋谷区幡ヶ谷1-8-4リッツパラシオ202","lat":35.675572,"lon":139.672291},{"name":"渋谷区子ども家庭支援センター","province":"東京都","city":"渋谷区","address":"渋谷区神宮前3-18-33","lat":35.670937,"lon":139.709272},{"name":"渋谷区子ども家庭支援センター","province":"東京都","city":"渋谷区","address":"渋谷区宇田川町5-6","lat":35.66322,"lon":139.69783},{"name":"渋谷区子ども家庭支援センター","province":"東京都","city":"渋谷区","address":"渋谷区渋谷1-18-21","lat":35.662012,"lon":139.703662},{"name":"渋谷区子ども家庭支援センター","province":"東京都","city":"渋谷区","address":"渋谷区渋谷1-18-21","lat":35.66185,"lon":139.70392},{"name":"代々幡斎場","province":"東京都","city":"渋谷区","address":"東京都渋谷区西原2丁目42-1","lat":35.67335551,"lon":139.67732435},{"name":"ＳＹＤ青年部((公財)修養団)","province":"東京都","city":"渋谷区","address":"東京都渋谷区千駄ヶ谷4丁目25-2","lat":35.68103588,"lon":139.70502994},{"name":"(特定非営利活動法人)東京少年少女センター","province":"東京都","city":"渋谷区","address":"東京都渋谷区代々木2丁目44-11","lat":35.68292713,"lon":139.69662785},{"name":"（公財）東京都体育協会","province":"東京都","city":"渋谷区","address":"東京都渋谷区神南1丁目1-1","lat":35.66618747,"lon":139.70106977},{"name":"（公財）東京都体育協会東京都スポーツ少年団","province":"東京都","city":"渋谷区","address":"東京都渋谷区神南1丁目1-1","lat":35.66618747,"lon":139.70106977},{"name":"(特定非営利活動法人)東京都地域婦人団体連盟","province":"東京都","city":"渋谷区","address":"東京都渋谷区渋谷1丁目17-14","lat":35.66111586,"lon":139.70322257},{"name":"（公財）ハーモニィセンター","province":"東京都","city":"渋谷区","address":"東京都渋谷区代々木神園町3-1","lat":35.67505296,"lon":139.69382284},{"name":"＊?渋谷男女平等・ダイバーシティセンター＜アイリス＞","province":"東京都","city":"渋谷区","address":"渋谷区桜丘町23-21","lat":35.655458,"lon":139.699965},{"name":"東京ウィメンズプラザ","province":"東京都","city":"渋谷区","address":"東京都渋谷区神宮前5丁目53-67","lat":35.662788,"lon":139.70793876},{"name":"青山高等学校","province":"東京都","city":"渋谷区","address":"東京都渋谷区神宮前2丁目1-8","lat":35.67270374,"lon":139.71607374},{"name":"広尾高等学校","province":"東京都","city":"渋谷区","address":"東京都渋谷区東4丁目14-14","lat":35.65287808,"lon":139.71284984},{"name":"第一商業高等学校","province":"東京都","city":"渋谷区","address":"東京都渋谷区鉢山町8-1","lat":35.65016143,"lon":139.6985845},{"name":"東京消防庁消防学校","province":"東京都","city":"渋谷区","address":"東京都渋谷区西原2丁目51-1","lat":35.67232498,"lon":139.67333307},{"name":"広尾てくてく","province":"東京都","city":"渋谷区","address":"渋谷区広尾四丁目2番12号","lat":35.655159,"lon":139.722279},{"name":"特別支援教育研究所　Ｗｉｓh","province":"東京都","city":"渋谷区","address":"渋谷区神泉町15-11","lat":35.657005,"lon":139.691963},{"name":"よよこ～クラブ","province":"東京都","city":"渋谷区","address":"渋谷区千駄ヶ谷5-8-2","lat":35.681647,"lon":139.705038},{"name":"スタジオそら原宿","province":"東京都","city":"渋谷区","address":"渋谷区千駄ヶ谷3-51-6原宿MOA1階","lat":35.675037,"lon":139.706133},{"name":"渋谷区障害者福祉センター代々木の杜","province":"東京都","city":"渋谷区","address":"渋谷区代々木2-35-1","lat":35.684158,"lon":139.697725},{"name":"スタジオそら代々木公園","province":"東京都","city":"渋谷区","address":"渋谷区富ヶ谷一丁目2番1号","lat":35.670367,"lon":139.690043},{"name":"放課後等デイサービス　あいだっく","province":"東京都","city":"渋谷区","address":"渋谷区上原3-23-5オーガストハウス1階","lat":35.66427,"lon":139.676789},{"name":"デイサービスなかよし","province":"東京都","city":"渋谷区","address":"渋谷区西原2-36-7","lat":35.674441,"lon":139.675613},{"name":"児童発達支援・放課後等デイサービス　マリリン　スポーツ塾　初台","province":"東京都","city":"渋谷区","address":"渋谷区本町2-5-11三山ビル1階","lat":35.684004,"lon":139.683515},{"name":"Ａｒｔ＆Ｍｕｓｉｃ　豆庭　Ｍａｍｅ－Ｎｉｗａ","province":"東京都","city":"渋谷区","address":"渋谷区幡ヶ谷1-8-4リッツパラシオ202","lat":35.675572,"lon":139.672291},{"name":"渋谷区子ども家庭支援センター","province":"東京都","city":"渋谷区","address":"渋谷区神宮前3-18-33","lat":35.670937,"lon":139.709272},{"name":"渋谷区子ども家庭支援センター","province":"東京都","city":"渋谷区","address":"渋谷区宇田川町5-6","lat":35.66322,"lon":139.69783},{"name":"渋谷区子ども家庭支援センター","province":"東京都","city":"渋谷区","address":"渋谷区渋谷1-18-21","lat":35.662012,"lon":139.703662},{"name":"渋谷区子ども家庭支援センター","province":"東京都","city":"渋谷区","address":"渋谷区渋谷1-18-21","lat":35.66185,"lon":139.70392},{"name":"代々幡斎場","province":"東京都","city":"渋谷区","address":"東京都渋谷区西原2丁目42-1","lat":35.67335551,"lon":139.67732435},{"name":"ＳＹＤ青年部((公財)修養団)","province":"東京都","city":"渋谷区","address":"東京都渋谷区千駄ヶ谷4丁目25-2","lat":35.68103588,"lon":139.70502994},{"name":"(特定非営利活動法人)東京少年少女センター","province":"東京都","city":"渋谷区","address":"東京都渋谷区代々木2丁目44-11","lat":35.68292713,"lon":139.69662785},{"name":"（公財）東京都体育協会","province":"東京都","city":"渋谷区","address":"東京都渋谷区神南1丁目1-1","lat":35.66618747,"lon":139.70106977},{"name":"（公財）東京都体育協会東京都スポーツ少年団","province":"東京都","city":"渋谷区","address":"東京都渋谷区神南1丁目1-1","lat":35.66618747,"lon":139.70106977},{"name":"(特定非営利活動法人)東京都地域婦人団体連盟","province":"東京都","city":"渋谷区","address":"東京都渋谷区渋谷1丁目17-14","lat":35.66111586,"lon":139.70322257},{"name":"（公財）ハーモニィセンター","province":"東京都","city":"渋谷区","address":"東京都渋谷区代々木神園町3-1","lat":35.67505296,"lon":139.69382284},{"name":"＊?渋谷男女平等・ダイバーシティセンター＜アイリス＞","province":"東京都","city":"渋谷区","address":"渋谷区桜丘町23-21","lat":35.655458,"lon":139.699965},{"name":"東京ウィメンズプラザ","province":"東京都","city":"渋谷区","address":"東京都渋谷区神宮前5丁目53-67","lat":35.662788,"lon":139.70793876},{"name":"青山高等学校","province":"東京都","city":"渋谷区","address":"東京都渋谷区神宮前2丁目1-8","lat":35.67270374,"lon":139.71607374},{"name":"広尾高等学校","province":"東京都","city":"渋谷区","address":"東京都渋谷区東4丁目14-14","lat":35.65287808,"lon":139.71284984},{"name":"第一商業高等学校","province":"東京都","city":"渋谷区","address":"東京都渋谷区鉢山町8-1","lat":35.65016143,"lon":139.6985845},{"name":"東京消防庁消防学校","province":"東京都","city":"渋谷区","address":"東京都渋谷区西原2丁目51-1","lat":35.67232498,"lon":139.67333307},{"name":"広尾てくてく","province":"東京都","city":"渋谷区","address":"渋谷区広尾四丁目2番12号","lat":35.655159,"lon":139.722279},{"name":"特別支援教育研究所　Ｗｉｓh","province":"東京都","city":"渋谷区","address":"渋谷区神泉町15-11","lat":35.657005,"lon":139.691963},{"name":"よよこ～クラブ","province":"東京都","city":"渋谷区","address":"渋谷区千駄ヶ谷5-8-2","lat":35.681647,"lon":139.705038},{"name":"スタジオそら原宿","province":"東京都","city":"渋谷区","address":"渋谷区千駄ヶ谷3-51-6原宿MOA1階","lat":35.675037,"lon":139.706133},{"name":"渋谷区障害者福祉センター代々木の杜","province":"東京都","city":"渋谷区","address":"渋谷区代々木2-35-1","lat":35.684158,"lon":139.697725},{"name":"スタジオそら代々木公園","province":"東京都","city":"渋谷区","address":"渋谷区富ヶ谷一丁目2番1号","lat":35.670367,"lon":139.690043},{"name":"放課後等デイサービス　あいだっく","province":"東京都","city":"渋谷区","address":"渋谷区上原3-23-5オーガストハウス1階","lat":35.66427,"lon":139.676789},{"name":"デイサービスなかよし","province":"東京都","city":"渋谷区","address":"渋谷区西原2-36-7","lat":35.674441,"lon":139.675613},{"name":"児童発達支援・放課後等デイサービス　マリリン　スポーツ塾　初台","province":"東京都","city":"渋谷区","address":"渋谷区本町2-5-11三山ビル1階","lat":35.684004,"lon":139.683515},{"name":"Ａｒｔ＆Ｍｕｓｉｃ　豆庭　Ｍａｍｅ－Ｎｉｗａ","province":"東京都","city":"渋谷区","address":"渋谷区幡ヶ谷1-8-4リッツパラシオ202","lat":35.675572,"lon":139.672291},{"name":"渋谷区子ども家庭支援センター","province":"東京都","city":"渋谷区","address":"渋谷区神宮前3-18-33","lat":35.670937,"lon":139.709272},{"name":"渋谷区子ども家庭支援センター","province":"東京都","city":"渋谷区","address":"渋谷区宇田川町5-6","lat":35.66322,"lon":139.69783},{"name":"渋谷区子ども家庭支援センター","province":"東京都","city":"渋谷区","address":"渋谷区渋谷1-18-21","lat":35.662012,"lon":139.703662},{"name":"渋谷区子ども家庭支援センター","province":"東京都","city":"渋谷区","address":"渋谷区渋谷1-18-21","lat":35.66185,"lon":139.70392},{"name":"代々幡斎場","province":"東京都","city":"渋谷区","address":"東京都渋谷区西原2丁目42-1","lat":35.67335551,"lon":139.67732435},{"name":"＊?渋谷男女平等・ダイバーシティセンター＜アイリス＞","province":"東京都","city":"渋谷区","address":"渋谷区桜丘町23-21","lat":35.655458,"lon":139.699965},{"name":"東京ウィメンズプラザ","province":"東京都","city":"渋谷区","address":"東京都渋谷区神宮前5丁目53-67","lat":35.662788,"lon":139.70793876},{"name":"青山高等学校","province":"東京都","city":"渋谷区","address":"東京都渋谷区神宮前2丁目1-8","lat":35.67270374,"lon":139.71607374},{"name":"広尾高等学校","province":"東京都","city":"渋谷区","address":"東京都渋谷区東4丁目14-14","lat":35.65287808,"lon":139.71284984},{"name":"第一商業高等学校","province":"東京都","city":"渋谷区","address":"東京都渋谷区鉢山町8-1","lat":35.65016143,"lon":139.6985845},{"name":"東京消防庁消防学校","province":"東京都","city":"渋谷区","address":"東京都渋谷区西原2丁目51-1","lat":35.67232498,"lon":139.67333307},{"name":"広尾てくてく","province":"東京都","city":"渋谷区","address":"渋谷区広尾四丁目2番12号","lat":35.655159,"lon":139.722279},{"name":"特別支援教育研究所　Ｗｉｓh","province":"東京都","city":"渋谷区","address":"渋谷区神泉町15-11","lat":35.657005,"lon":139.691963},{"name":"よよこ～クラブ","province":"東京都","city":"渋谷区","address":"渋谷区千駄ヶ谷5-8-2","lat":35.681647,"lon":139.705038},{"name":"スタジオそら原宿","province":"東京都","city":"渋谷区","address":"渋谷区千駄ヶ谷3-51-6原宿MOA1階","lat":35.675037,"lon":139.706133},{"name":"渋谷区障害者福祉センター代々木の杜","province":"東京都","city":"渋谷区","address":"渋谷区代々木2-35-1","lat":35.684158,"lon":139.697725},{"name":"スタジオそら代々木公園","province":"東京都","city":"渋谷区","address":"渋谷区富ヶ谷一丁目2番1号","lat":35.670367,"lon":139.690043},{"name":"放課後等デイサービス　あいだっく","province":"東京都","city":"渋谷区","address":"渋谷区上原3-23-5オーガストハウス1階","lat":35.66427,"lon":139.676789},{"name":"デイサービスなかよし","province":"東京都","city":"渋谷区","address":"渋谷区西原2-36-7","lat":35.674441,"lon":139.675613},{"name":"児童発達支援・放課後等デイサービス　マリリン　スポーツ塾　初台","province":"東京都","city":"渋谷区","address":"渋谷区本町2-5-11三山ビル1階","lat":35.684004,"lon":139.683515},{"name":"Ａｒｔ＆Ｍｕｓｉｃ　豆庭　Ｍａｍｅ－Ｎｉｗａ","province":"東京都","city":"渋谷区","address":"渋谷区幡ヶ谷1-8-4リッツパラシオ202","lat":35.675572,"lon":139.672291},{"name":"渋谷区子ども家庭支援センター","province":"東京都","city":"渋谷区","address":"渋谷区神宮前3-18-33","lat":35.670937,"lon":139.709272},{"name":"渋谷区子ども家庭支援センター","province":"東京都","city":"渋谷区","address":"渋谷区宇田川町5-6","lat":35.66322,"lon":139.69783},{"name":"渋谷区子ども家庭支援センター","province":"東京都","city":"渋谷区","address":"渋谷区渋谷1-18-21","lat":35.662012,"lon":139.703662},{"name":"渋谷区子ども家庭支援センター","province":"東京都","city":"渋谷区","address":"渋谷区渋谷1-18-21","lat":35.66185,"lon":139.70392},{"name":"代々幡斎場","province":"東京都","city":"渋谷区","address":"東京都渋谷区西原2丁目42-1","lat":35.67335551,"lon":139.67732435},{"name":"＊?渋谷男女平等・ダイバーシティセンター＜アイリス＞","province":"東京都","city":"渋谷区","address":"渋谷区桜丘町23-21","lat":35.655458,"lon":139.699965},{"name":"東京ウィメンズプラザ","province":"東京都","city":"渋谷区","address":"東京都渋谷区神宮前5丁目53-67","lat":35.662788,"lon":139.70793876},{"name":"青山高等学校","province":"東京都","city":"渋谷区","address":"東京都渋谷区神宮前2丁目1-8","lat":35.67270374,"lon":139.71607374},{"name":"広尾高等学校","province":"東京都","city":"渋谷区","address":"東京都渋谷区東4丁目14-14","lat":35.65287808,"lon":139.71284984},{"name":"第一商業高等学校","province":"東京都","city":"渋谷区","address":"東京都渋谷区鉢山町8-1","lat":35.65016143,"lon":139.6985845},{"name":"東京消防庁消防学校","province":"東京都","city":"渋谷区","address":"東京都渋谷区西原2丁目51-1","lat":35.67232498,"lon":139.67333307},{"name":"広尾てくてく","province":"東京都","city":"渋谷区","address":"渋谷区広尾四丁目2番12号","lat":35.655159,"lon":139.722279},{"name":"特別支援教育研究所　Ｗｉｓh","province":"東京都","city":"渋谷区","address":"渋谷区神泉町15-11","lat":35.657005,"lon":139.691963},{"name":"よよこ～クラブ","province":"東京都","city":"渋谷区","address":"渋谷区千駄ヶ谷5-8-2","lat":35.681647,"lon":139.705038},{"name":"スタジオそら原宿","province":"東京都","city":"渋谷区","address":"渋谷区千駄ヶ谷3-51-6原宿MOA1階","lat":35.675037,"lon":139.706133},{"name":"渋谷区障害者福祉センター代々木の杜","province":"東京都","city":"渋谷区","address":"渋谷区代々木2-35-1","lat":35.684158,"lon":139.697725},{"name":"スタジオそら代々木公園","province":"東京都","city":"渋谷区","address":"渋谷区富ヶ谷一丁目2番1号","lat":35.670367,"lon":139.690043},{"name":"放課後等デイサービス　あいだっく","province":"東京都","city":"渋谷区","address":"渋谷区上原3-23-5オーガストハウス1階","lat":35.66427,"lon":139.676789},{"name":"デイサービスなかよし","province":"東京都","city":"渋谷区","address":"渋谷区西原2-36-7","lat":35.674441,"lon":139.675613},{"name":"児童発達支援・放課後等デイサービス　マリリン　スポーツ塾　初台","province":"東京都","city":"渋谷区","address":"渋谷区本町2-5-11三山ビル1階","lat":35.684004,"lon":139.683515},{"name":"Ａｒｔ＆Ｍｕｓｉｃ　豆庭　Ｍａｍｅ－Ｎｉｗａ","province":"東京都","city":"渋谷区","address":"渋谷区幡ヶ谷1-8-4リッツパラシオ202","lat":35.675572,"lon":139.672291},{"name":"渋谷区子ども家庭支援センター","province":"東京都","city":"渋谷区","address":"渋谷区神宮前3-18-33","lat":35.670937,"lon":139.709272},{"name":"渋谷区子ども家庭支援センター","province":"東京都","city":"渋谷区","address":"渋谷区宇田川町5-6","lat":35.66322,"lon":139.69783},{"name":"渋谷区子ども家庭支援センター","province":"東京都","city":"渋谷区","address":"渋谷区渋谷1-18-21","lat":35.662012,"lon":139.703662},{"name":"渋谷区子ども家庭支援センター","province":"東京都","city":"渋谷区","address":"渋谷区渋谷1-18-21","lat":35.66185,"lon":139.70392},{"name":"代々幡斎場","province":"東京都","city":"渋谷区","address":"東京都渋谷区西原2丁目42-1","lat":35.67335551,"lon":139.67732435},{"name":"＊?渋谷男女平等・ダイバーシティセンター＜アイリス＞","province":"東京都","city":"渋谷区","address":"渋谷区桜丘町23-21","lat":35.655458,"lon":139.699965},{"name":"東京ウィメンズプラザ","province":"東京都","city":"渋谷区","address":"東京都渋谷区神宮前5丁目53-67","lat":35.662788,"lon":139.70793876},{"name":"青山高等学校","province":"東京都","city":"渋谷区","address":"東京都渋谷区神宮前2丁目1-8","lat":35.67270374,"lon":139.71607374},{"name":"広尾高等学校","province":"東京都","city":"渋谷区","address":"東京都渋谷区東4丁目14-14","lat":35.65287808,"lon":139.71284984},{"name":"第一商業高等学校","province":"東京都","city":"渋谷区","address":"東京都渋谷区鉢山町8-1","lat":35.65016143,"lon":139.6985845},{"name":"東京消防庁消防学校","province":"東京都","city":"渋谷区","address":"東京都渋谷区西原2丁目51-1","lat":35.67232498,"lon":139.67333307},{"name":"広尾てくてく","province":"東京都","city":"渋谷区","address":"渋谷区広尾四丁目2番12号","lat":35.655159,"lon":139.722279},{"name":"特別支援教育研究所　Ｗｉｓh","province":"東京都","city":"渋谷区","address":"渋谷区神泉町15-11","lat":35.657005,"lon":139.691963},{"name":"よよこ～クラブ","province":"東京都","city":"渋谷区","address":"渋谷区千駄ヶ谷5-8-2","lat":35.681647,"lon":139.705038},{"name":"スタジオそら原宿","province":"東京都","city":"渋谷区","address":"渋谷区千駄ヶ谷3-51-6原宿MOA1階","lat":35.675037,"lon":139.706133},{"name":"渋谷区障害者福祉センター代々木の杜","province":"東京都","city":"渋谷区","address":"渋谷区代々木2-35-1","lat":35.684158,"lon":139.697725},{"name":"スタジオそら代々木公園","province":"東京都","city":"渋谷区","address":"渋谷区富ヶ谷一丁目2番1号","lat":35.670367,"lon":139.690043},{"name":"放課後等デイサービス　あいだっく","province":"東京都","city":"渋谷区","address":"渋谷区上原3-23-5オーガストハウス1階","lat":35.66427,"lon":139.676789},{"name":"デイサービスなかよし","province":"東京都","city":"渋谷区","address":"渋谷区西原2-36-7","lat":35.674441,"lon":139.675613},{"name":"児童発達支援・放課後等デイサービス　マリリン　スポーツ塾　初台","province":"東京都","city":"渋谷区","address":"渋谷区本町2-5-11三山ビル1階","lat":35.684004,"lon":139.683515},{"name":"Ａｒｔ＆Ｍｕｓｉｃ　豆庭　Ｍａｍｅ－Ｎｉｗａ","province":"東京都","city":"渋谷区","address":"渋谷区幡ヶ谷1-8-4リッツパラシオ202","lat":35.675572,"lon":139.672291},{"name":"渋谷区子ども家庭支援センター","province":"東京都","city":"渋谷区","address":"渋谷区神宮前3-18-33","lat":35.670937,"lon":139.709272},{"name":"渋谷区子ども家庭支援センター","province":"東京都","city":"渋谷区","address":"渋谷区宇田川町5-6","lat":35.66322,"lon":139.69783},{"name":"渋谷区子ども家庭支援センター","province":"東京都","city":"渋谷区","address":"渋谷区渋谷1-18-21","lat":35.662012,"lon":139.703662},{"name":"渋谷区子ども家庭支援センター","province":"東京都","city":"渋谷区","address":"渋谷区渋谷1-18-21","lat":35.66185,"lon":139.70392},{"name":"代々幡斎場","province":"東京都","city":"渋谷区","address":"東京都渋谷区西原2丁目42-1","lat":35.67335551,"lon":139.67732435},{"name":"＊?渋谷男女平等・ダイバーシティセンター＜アイリス＞","province":"東京都","city":"渋谷区","address":"渋谷区桜丘町23-21","lat":35.655458,"lon":139.699965},{"name":"東京ウィメンズプラザ","province":"東京都","city":"渋谷区","address":"東京都渋谷区神宮前5丁目53-67","lat":35.662788,"lon":139.70793876},{"name":"青山高等学校","province":"東京都","city":"渋谷区","address":"東京都渋谷区神宮前2丁目1-8","lat":35.67270374,"lon":139.71607374},{"name":"広尾高等学校","province":"東京都","city":"渋谷区","address":"東京都渋谷区東4丁目14-14","lat":35.65287808,"lon":139.71284984},{"name":"第一商業高等学校","province":"東京都","city":"渋谷区","address":"東京都渋谷区鉢山町8-1","lat":35.65016143,"lon":139.6985845},{"name":"東京消防庁消防学校","province":"東京都","city":"渋谷区","address":"東京都渋谷区西原2丁目51-1","lat":35.67232498,"lon":139.67333307},{"name":"広尾てくてく","province":"東京都","city":"渋谷区","address":"渋谷区広尾四丁目2番12号","lat":35.655159,"lon":139.722279},{"name":"特別支援教育研究所　Ｗｉｓh","province":"東京都","city":"渋谷区","address":"渋谷区神泉町15-11","lat":35.657005,"lon":139.691963},{"name":"よよこ～クラブ","province":"東京都","city":"渋谷区","address":"渋谷区千駄ヶ谷5-8-2","lat":35.681647,"lon":139.705038},{"name":"スタジオそら原宿","province":"東京都","city":"渋谷区","address":"渋谷区千駄ヶ谷3-51-6原宿MOA1階","lat":35.675037,"lon":139.706133},{"name":"渋谷区障害者福祉センター代々木の杜","province":"東京都","city":"渋谷区","address":"渋谷区代々木2-35-1","lat":35.684158,"lon":139.697725},{"name":"スタジオそら代々木公園","province":"東京都","city":"渋谷区","address":"渋谷区富ヶ谷一丁目2番1号","lat":35.670367,"lon":139.690043},{"name":"放課後等デイサービス　あいだっく","province":"東京都","city":"渋谷区","address":"渋谷区上原3-23-5オーガストハウス1階","lat":35.66427,"lon":139.676789},{"name":"デイサービスなかよし","province":"東京都","city":"渋谷区","address":"渋谷区西原2-36-7","lat":35.674441,"lon":139.675613},{"name":"児童発達支援・放課後等デイサービス　マリリン　スポーツ塾　初台","province":"東京都","city":"渋谷区","address":"渋谷区本町2-5-11三山ビル1階","lat":35.684004,"lon":139.683515},{"name":"Ａｒｔ＆Ｍｕｓｉｃ　豆庭　Ｍａｍｅ－Ｎｉｗａ","province":"東京都","city":"渋谷区","address":"渋谷区幡ヶ谷1-8-4リッツパラシオ202","lat":35.675572,"lon":139.672291},{"name":"渋谷区子ども家庭支援センター","province":"東京都","city":"渋谷区","address":"渋谷区神宮前3-18-33","lat":35.670937,"lon":139.709272},{"name":"渋谷区子ども家庭支援センター","province":"東京都","city":"渋谷区","address":"渋谷区宇田川町5-6","lat":35.66322,"lon":139.69783},{"name":"渋谷区子ども家庭支援センター","province":"東京都","city":"渋谷区","address":"渋谷区渋谷1-18-21","lat":35.662012,"lon":139.703662},{"name":"渋谷区子ども家庭支援センター","province":"東京都","city":"渋谷区","address":"渋谷区渋谷1-18-21","lat":35.66185,"lon":139.70392},{"name":"代々幡斎場","province":"東京都","city":"渋谷区","address":"東京都渋谷区西原2丁目42-1","lat":35.67335551,"lon":139.67732435},{"name":"＊?渋谷男女平等・ダイバーシティセンター＜アイリス＞","province":"東京都","city":"渋谷区","address":"渋谷区桜丘町23-21","lat":35.655458,"lon":139.699965},{"name":"東京ウィメンズプラザ","province":"東京都","city":"渋谷区","address":"東京都渋谷区神宮前5丁目53-67","lat":35.662788,"lon":139.70793876},{"name":"青山高等学校","province":"東京都","city":"渋谷区","address":"東京都渋谷区神宮前2丁目1-8","lat":35.67270374,"lon":139.71607374},{"name":"広尾高等学校","province":"東京都","city":"渋谷区","address":"東京都渋谷区東4丁目14-14","lat":35.65287808,"lon":139.71284984},{"name":"第一商業高等学校","province":"東京都","city":"渋谷区","address":"東京都渋谷区鉢山町8-1","lat":35.65016143,"lon":139.6985845},{"name":"東京消防庁消防学校","province":"東京都","city":"渋谷区","address":"東京都渋谷区西原2丁目51-1","lat":35.67232498,"lon":139.67333307},{"name":"広尾てくてく","province":"東京都","city":"渋谷区","address":"渋谷区広尾四丁目2番12号","lat":35.655159,"lon":139.722279},{"name":"特別支援教育研究所　Ｗｉｓh","province":"東京都","city":"渋谷区","address":"渋谷区神泉町15-11","lat":35.657005,"lon":139.691963},{"name":"よよこ～クラブ","province":"東京都","city":"渋谷区","address":"渋谷区千駄ヶ谷5-8-2","lat":35.681647,"lon":139.705038},{"name":"スタジオそら原宿","province":"東京都","city":"渋谷区","address":"渋谷区千駄ヶ谷3-51-6原宿MOA1階","lat":35.675037,"lon":139.706133},{"name":"渋谷区障害者福祉センター代々木の杜","province":"東京都","city":"渋谷区","address":"渋谷区代々木2-35-1","lat":35.684158,"lon":139.697725},{"name":"スタジオそら代々木公園","province":"東京都","city":"渋谷区","address":"渋谷区富ヶ谷一丁目2番1号","lat":35.670367,"lon":139.690043},{"name":"放課後等デイサービス　あいだっく","province":"東京都","city":"渋谷区","address":"渋谷区上原3-23-5オーガストハウス1階","lat":35.66427,"lon":139.676789},{"name":"デイサービスなかよし","province":"東京都","city":"渋谷区","address":"渋谷区西原2-36-7","lat":35.674441,"lon":139.675613},{"name":"児童発達支援・放課後等デイサービス　マリリン　スポーツ塾　初台","province":"東京都","city":"渋谷区","address":"渋谷区本町2-5-11三山ビル1階","lat":35.684004,"lon":139.683515},{"name":"Ａｒｔ＆Ｍｕｓｉｃ　豆庭　Ｍａｍｅ－Ｎｉｗａ","province":"東京都","city":"渋谷区","address":"渋谷区幡ヶ谷1-8-4リッツパラシオ202","lat":35.675572,"lon":139.672291},{"name":"渋谷区子ども家庭支援センター","province":"東京都","city":"渋谷区","address":"渋谷区神宮前3-18-33","lat":35.670937,"lon":139.709272},{"name":"渋谷区子ども家庭支援センター","province":"東京都","city":"渋谷区","address":"渋谷区宇田川町5-6","lat":35.66322,"lon":139.69783},{"name":"渋谷区子ども家庭支援センター","province":"東京都","city":"渋谷区","address":"渋谷区渋谷1-18-21","lat":35.662012,"lon":139.703662},{"name":"渋谷区子ども家庭支援センター","province":"東京都","city":"渋谷区","address":"渋谷区渋谷1-18-21","lat":35.66185,"lon":139.70392},{"name":"代々幡斎場","province":"東京都","city":"渋谷区","address":"東京都渋谷区西原2丁目42-1","lat":35.67335551,"lon":139.67732435},{"name":"＊?渋谷男女平等・ダイバーシティセンター＜アイリス＞","province":"東京都","city":"渋谷区","address":"渋谷区桜丘町23-21","lat":35.655458,"lon":139.699965},{"name":"東京ウィメンズプラザ","province":"東京都","city":"渋谷区","address":"東京都渋谷区神宮前5丁目53-67","lat":35.662788,"lon":139.70793876},{"name":"青山高等学校","province":"東京都","city":"渋谷区","address":"東京都渋谷区神宮前2丁目1-8","lat":35.67270374,"lon":139.71607374},{"name":"広尾高等学校","province":"東京都","city":"渋谷区","address":"東京都渋谷区東4丁目14-14","lat":35.65287808,"lon":139.71284984},{"name":"第一商業高等学校","province":"東京都","city":"渋谷区","address":"東京都渋谷区鉢山町8-1","lat":35.65016143,"lon":139.6985845},{"name":"東京消防庁消防学校","province":"東京都","city":"渋谷区","address":"東京都渋谷区西原2丁目51-1","lat":35.67232498,"lon":139.67333307},{"name":"広尾てくてく","province":"東京都","city":"渋谷区","address":"渋谷区広尾四丁目2番12号","lat":35.655159,"lon":139.722279},{"name":"特別支援教育研究所　Ｗｉｓh","province":"東京都","city":"渋谷区","address":"渋谷区神泉町15-11","lat":35.657005,"lon":139.691963},{"name":"よよこ～クラブ","province":"東京都","city":"渋谷区","address":"渋谷区千駄ヶ谷5-8-2","lat":35.681647,"lon":139.705038},{"name":"スタジオそら原宿","province":"東京都","city":"渋谷区","address":"渋谷区千駄ヶ谷3-51-6原宿MOA1階","lat":35.675037,"lon":139.706133},{"name":"渋谷区障害者福祉センター代々木の杜","province":"東京都","city":"渋谷区","address":"渋谷区代々木2-35-1","lat":35.684158,"lon":139.697725},{"name":"スタジオそら代々木公園","province":"東京都","city":"渋谷区","address":"渋谷区富ヶ谷一丁目2番1号","lat":35.670367,"lon":139.690043},{"name":"放課後等デイサービス　あいだっく","province":"東京都","city":"渋谷区","address":"渋谷区上原3-23-5オーガストハウス1階","lat":35.66427,"lon":139.676789},{"name":"デイサービスなかよし","province":"東京都","city":"渋谷区","address":"渋谷区西原2-36-7","lat":35.674441,"lon":139.675613},{"name":"児童発達支援・放課後等デイサービス　マリリン　スポーツ塾　初台","province":"東京都","city":"渋谷区","address":"渋谷区本町2-5-11三山ビル1階","lat":35.684004,"lon":139.683515},{"name":"Ａｒｔ＆Ｍｕｓｉｃ　豆庭　Ｍａｍｅ－Ｎｉｗａ","province":"東京都","city":"渋谷区","address":"渋谷区幡ヶ谷1-8-4リッツパラシオ202","lat":35.675572,"lon":139.672291},{"name":"渋谷区子ども家庭支援センター","province":"東京都","city":"渋谷区","address":"渋谷区神宮前3-18-33","lat":35.670937,"lon":139.709272},{"name":"渋谷区子ども家庭支援センター","province":"東京都","city":"渋谷区","address":"渋谷区宇田川町5-6","lat":35.66322,"lon":139.69783},{"name":"渋谷区子ども家庭支援センター","province":"東京都","city":"渋谷区","address":"渋谷区渋谷1-18-21","lat":35.662012,"lon":139.703662},{"name":"渋谷区子ども家庭支援センター","province":"東京都","city":"渋谷区","address":"渋谷区渋谷1-18-21","lat":35.66185,"lon":139.70392},{"name":"代々幡斎場","province":"東京都","city":"渋谷区","address":"東京都渋谷区西原2丁目42-1","lat":35.67335551,"lon":139.67732435},{"name":"＊?渋谷男女平等・ダイバーシティセンター＜アイリス＞","province":"東京都","city":"渋谷区","address":"渋谷区桜丘町23-21","lat":35.655458,"lon":139.699965},{"name":"東京ウィメンズプラザ","province":"東京都","city":"渋谷区","address":"東京都渋谷区神宮前5丁目53-67","lat":35.662788,"lon":139.70793876},{"name":"青山高等学校","province":"東京都","city":"渋谷区","address":"東京都渋谷区神宮前2丁目1-8","lat":35.67270374,"lon":139.71607374},{"name":"広尾高等学校","province":"東京都","city":"渋谷区","address":"東京都渋谷区東4丁目14-14","lat":35.65287808,"lon":139.71284984},{"name":"第一商業高等学校","province":"東京都","city":"渋谷区","address":"東京都渋谷区鉢山町8-1","lat":35.65016143,"lon":139.6985845},{"name":"東京消防庁消防学校","province":"東京都","city":"渋谷区","address":"東京都渋谷区西原2丁目51-1","lat":35.67232498,"lon":139.67333307},{"name":"広尾てくてく","province":"東京都","city":"渋谷区","address":"渋谷区広尾四丁目2番12号","lat":35.655159,"lon":139.722279},{"name":"特別支援教育研究所　Ｗｉｓh","province":"東京都","city":"渋谷区","address":"渋谷区神泉町15-11","lat":35.657005,"lon":139.691963},{"name":"よよこ～クラブ","province":"東京都","city":"渋谷区","address":"渋谷区千駄ヶ谷5-8-2","lat":35.681647,"lon":139.705038},{"name":"スタジオそら原宿","province":"東京都","city":"渋谷区","address":"渋谷区千駄ヶ谷3-51-6原宿MOA1階","lat":35.675037,"lon":139.706133},{"name":"渋谷区障害者福祉センター代々木の杜","province":"東京都","city":"渋谷区","address":"渋谷区代々木2-35-1","lat":35.684158,"lon":139.697725},{"name":"スタジオそら代々木公園","province":"東京都","city":"渋谷区","address":"渋谷区富ヶ谷一丁目2番1号","lat":35.670367,"lon":139.690043},{"name":"放課後等デイサービス　あいだっく","province":"東京都","city":"渋谷区","address":"渋谷区上原3-23-5オーガストハウス1階","lat":35.66427,"lon":139.676789},{"name":"デイサービスなかよし","province":"東京都","city":"渋谷区","address":"渋谷区西原2-36-7","lat":35.674441,"lon":139.675613},{"name":"児童発達支援・放課後等デイサービス　マリリン　スポーツ塾　初台","province":"東京都","city":"渋谷区","address":"渋谷区本町2-5-11三山ビル1階","lat":35.684004,"lon":139.683515},{"name":"Ａｒｔ＆Ｍｕｓｉｃ　豆庭　Ｍａｍｅ－Ｎｉｗａ","province":"東京都","city":"渋谷区","address":"渋谷区幡ヶ谷1-8-4リッツパラシオ202","lat":35.675572,"lon":139.672291},{"name":"渋谷区子ども家庭支援センター","province":"東京都","city":"渋谷区","address":"渋谷区神宮前3-18-33","lat":35.670937,"lon":139.709272},{"name":"渋谷区子ども家庭支援センター","province":"東京都","city":"渋谷区","address":"渋谷区宇田川町5-6","lat":35.66322,"lon":139.69783},{"name":"渋谷区子ども家庭支援センター","province":"東京都","city":"渋谷区","address":"渋谷区渋谷1-18-21","lat":35.662012,"lon":139.703662},{"name":"渋谷区子ども家庭支援センター","province":"東京都","city":"渋谷区","address":"渋谷区渋谷1-18-21","lat":35.66185,"lon":139.70392},{"name":"代々幡斎場","province":"東京都","city":"渋谷区","address":"東京都渋谷区西原2丁目42-1","lat":35.67335551,"lon":139.67732435},{"name":"＊?渋谷男女平等・ダイバーシティセンター＜アイリス＞","province":"東京都","city":"渋谷区","address":"渋谷区桜丘町23-21","lat":35.655458,"lon":139.699965},{"name":"東京ウィメンズプラザ","province":"東京都","city":"渋谷区","address":"東京都渋谷区神宮前5丁目53-67","lat":35.662788,"lon":139.70793876},{"name":"青山高等学校","province":"東京都","city":"渋谷区","address":"東京都渋谷区神宮前2丁目1-8","lat":35.67270374,"lon":139.71607374},{"name":"広尾高等学校","province":"東京都","city":"渋谷区","address":"東京都渋谷区東4丁目14-14","lat":35.65287808,"lon":139.71284984},{"name":"第一商業高等学校","province":"東京都","city":"渋谷区","address":"東京都渋谷区鉢山町8-1","lat":35.65016143,"lon":139.6985845},{"name":"東京消防庁消防学校","province":"東京都","city":"渋谷区","address":"東京都渋谷区西原2丁目51-1","lat":35.67232498,"lon":139.67333307},{"name":"広尾てくてく","province":"東京都","city":"渋谷区","address":"渋谷区広尾四丁目2番12号","lat":35.655159,"lon":139.722279},{"name":"特別支援教育研究所　Ｗｉｓh","province":"東京都","city":"渋谷区","address":"渋谷区神泉町15-11","lat":35.657005,"lon":139.691963},{"name":"よよこ～クラブ","province":"東京都","city":"渋谷区","address":"渋谷区千駄ヶ谷5-8-2","lat":35.681647,"lon":139.705038},{"name":"スタジオそら原宿","province":"東京都","city":"渋谷区","address":"渋谷区千駄ヶ谷3-51-6原宿MOA1階","lat":35.675037,"lon":139.706133},{"name":"渋谷区障害者福祉センター代々木の杜","province":"東京都","city":"渋谷区","address":"渋谷区代々木2-35-1","lat":35.684158,"lon":139.697725},{"name":"スタジオそら代々木公園","province":"東京都","city":"渋谷区","address":"渋谷区富ヶ谷一丁目2番1号","lat":35.670367,"lon":139.690043},{"name":"放課後等デイサービス　あいだっく","province":"東京都","city":"渋谷区","address":"渋谷区上原3-23-5オーガストハウス1階","lat":35.66427,"lon":139.676789},{"name":"デイサービスなかよし","province":"東京都","city":"渋谷区","address":"渋谷区西原2-36-7","lat":35.674441,"lon":139.675613},{"name":"児童発達支援・放課後等デイサービス　マリリン　スポーツ塾　初台","province":"東京都","city":"渋谷区","address":"渋谷区本町2-5-11三山ビル1階","lat":35.684004,"lon":139.683515},{"name":"Ａｒｔ＆Ｍｕｓｉｃ　豆庭　Ｍａｍｅ－Ｎｉｗａ","province":"東京都","city":"渋谷区","address":"渋谷区幡ヶ谷1-8-4リッツパラシオ202","lat":35.675572,"lon":139.672291},{"name":"渋谷区子ども家庭支援センター","province":"東京都","city":"渋谷区","address":"渋谷区神宮前3-18-33","lat":35.670937,"lon":139.709272},{"name":"渋谷区子ども家庭支援センター","province":"東京都","city":"渋谷区","address":"渋谷区宇田川町5-6","lat":35.66322,"lon":139.69783},{"name":"渋谷区子ども家庭支援センター","province":"東京都","city":"渋谷区","address":"渋谷区渋谷1-18-21","lat":35.662012,"lon":139.703662},{"name":"渋谷区子ども家庭支援センター","province":"東京都","city":"渋谷区","address":"渋谷区渋谷1-18-21","lat":35.66185,"lon":139.70392},{"name":"代々幡斎場","province":"東京都","city":"渋谷区","address":"東京都渋谷区西原2丁目42-1","lat":35.67335551,"lon":139.67732435},{"name":"＊?渋谷男女平等・ダイバーシティセンター＜アイリス＞","province":"東京都","city":"渋谷区","address":"渋谷区桜丘町23-21","lat":35.655458,"lon":139.699965},{"name":"東京ウィメンズプラザ","province":"東京都","city":"渋谷区","address":"東京都渋谷区神宮前5丁目53-67","lat":35.662788,"lon":139.70793876},{"name":"青山高等学校","province":"東京都","city":"渋谷区","address":"東京都渋谷区神宮前2丁目1-8","lat":35.67270374,"lon":139.71607374},{"name":"広尾高等学校","province":"東京都","city":"渋谷区","address":"東京都渋谷区東4丁目14-14","lat":35.65287808,"lon":139.71284984},{"name":"第一商業高等学校","province":"東京都","city":"渋谷区","address":"東京都渋谷区鉢山町8-1","lat":35.65016143,"lon":139.6985845},{"name":"東京消防庁消防学校","province":"東京都","city":"渋谷区","address":"東京都渋谷区西原2丁目51-1","lat":35.67232498,"lon":139.67333307},{"name":"広尾てくてく","province":"東京都","city":"渋谷区","address":"渋谷区広尾四丁目2番12号","lat":35.655159,"lon":139.722279},{"name":"特別支援教育研究所　Ｗｉｓh","province":"東京都","city":"渋谷区","address":"渋谷区神泉町15-11","lat":35.657005,"lon":139.691963},{"name":"よよこ～クラブ","province":"東京都","city":"渋谷区","address":"渋谷区千駄ヶ谷5-8-2","lat":35.681647,"lon":139.705038},{"name":"スタジオそら原宿","province":"東京都","city":"渋谷区","address":"渋谷区千駄ヶ谷3-51-6原宿MOA1階","lat":35.675037,"lon":139.706133},{"name":"渋谷区障害者福祉センター代々木の杜","province":"東京都","city":"渋谷区","address":"渋谷区代々木2-35-1","lat":35.684158,"lon":139.697725},{"name":"スタジオそら代々木公園","province":"東京都","city":"渋谷区","address":"渋谷区富ヶ谷一丁目2番1号","lat":35.670367,"lon":139.690043},{"name":"放課後等デイサービス　あいだっく","province":"東京都","city":"渋谷区","address":"渋谷区上原3-23-5オーガストハウス1階","lat":35.66427,"lon":139.676789},{"name":"デイサービスなかよし","province":"東京都","city":"渋谷区","address":"渋谷区西原2-36-7","lat":35.674441,"lon":139.675613},{"name":"児童発達支援・放課後等デイサービス　マリリン　スポーツ塾　初台","province":"東京都","city":"渋谷区","address":"渋谷区本町2-5-11三山ビル1階","lat":35.684004,"lon":139.683515},{"name":"Ａｒｔ＆Ｍｕｓｉｃ　豆庭　Ｍａｍｅ－Ｎｉｗａ","province":"東京都","city":"渋谷区","address":"渋谷区幡ヶ谷1-8-4リッツパラシオ202","lat":35.675572,"lon":139.672291},{"name":"渋谷区子ども家庭支援センター","province":"東京都","city":"渋谷区","address":"渋谷区神宮前3-18-33","lat":35.670937,"lon":139.709272},{"name":"渋谷区子ども家庭支援センター","province":"東京都","city":"渋谷区","address":"渋谷区宇田川町5-6","lat":35.66322,"lon":139.69783},{"name":"渋谷区子ども家庭支援センター","province":"東京都","city":"渋谷区","address":"渋谷区渋谷1-18-21","lat":35.662012,"lon":139.703662},{"name":"渋谷区子ども家庭支援センター","province":"東京都","city":"渋谷区","address":"渋谷区渋谷1-18-21","lat":35.66185,"lon":139.70392},{"name":"代々幡斎場","province":"東京都","city":"渋谷区","address":"東京都渋谷区西原2丁目42-1","lat":35.67335551,"lon":139.67732435},{"name":"＊?渋谷男女平等・ダイバーシティセンター＜アイリス＞","province":"東京都","city":"渋谷区","address":"渋谷区桜丘町23-21","lat":35.655458,"lon":139.699965},{"name":"東京ウィメンズプラザ","province":"東京都","city":"渋谷区","address":"東京都渋谷区神宮前5丁目53-67","lat":35.662788,"lon":139.70793876},{"name":"青山高等学校","province":"東京都","city":"渋谷区","address":"東京都渋谷区神宮前2丁目1-8","lat":35.67270374,"lon":139.71607374},{"name":"広尾高等学校","province":"東京都","city":"渋谷区","address":"東京都渋谷区東4丁目14-14","lat":35.65287808,"lon":139.71284984},{"name":"第一商業高等学校","province":"東京都","city":"渋谷区","address":"東京都渋谷区鉢山町8-1","lat":35.65016143,"lon":139.6985845},{"name":"東京消防庁消防学校","province":"東京都","city":"渋谷区","address":"東京都渋谷区西原2丁目51-1","lat":35.67232498,"lon":139.67333307},{"name":"広尾てくてく","province":"東京都","city":"渋谷区","address":"渋谷区広尾四丁目2番12号","lat":35.655159,"lon":139.722279},{"name":"特別支援教育研究所　Ｗｉｓh","province":"東京都","city":"渋谷区","address":"渋谷区神泉町15-11","lat":35.657005,"lon":139.691963},{"name":"よよこ～クラブ","province":"東京都","city":"渋谷区","address":"渋谷区千駄ヶ谷5-8-2","lat":35.681647,"lon":139.705038},{"name":"スタジオそら原宿","province":"東京都","city":"渋谷区","address":"渋谷区千駄ヶ谷3-51-6原宿MOA1階","lat":35.675037,"lon":139.706133},{"name":"渋谷区障害者福祉センター代々木の杜","province":"東京都","city":"渋谷区","address":"渋谷区代々木2-35-1","lat":35.684158,"lon":139.697725},{"name":"スタジオそら代々木公園","province":"東京都","city":"渋谷区","address":"渋谷区富ヶ谷一丁目2番1号","lat":35.670367,"lon":139.690043},{"name":"放課後等デイサービス　あいだっく","province":"東京都","city":"渋谷区","address":"渋谷区上原3-23-5オーガストハウス1階","lat":35.66427,"lon":139.676789},{"name":"デイサービスなかよし","province":"東京都","city":"渋谷区","address":"渋谷区西原2-36-7","lat":35.674441,"lon":139.675613},{"name":"児童発達支援・放課後等デイサービス　マリリン　スポーツ塾　初台","province":"東京都","city":"渋谷区","address":"渋谷区本町2-5-11三山ビル1階","lat":35.684004,"lon":139.683515},{"name":"Ａｒｔ＆Ｍｕｓｉｃ　豆庭　Ｍａｍｅ－Ｎｉｗａ","province":"東京都","city":"渋谷区","address":"渋谷区幡ヶ谷1-8-4リッツパラシオ202","lat":35.675572,"lon":139.672291},{"name":"渋谷区子ども家庭支援センター","province":"東京都","city":"渋谷区","address":"渋谷区神宮前3-18-33","lat":35.670937,"lon":139.709272},{"name":"渋谷区子ども家庭支援センター","province":"東京都","city":"渋谷区","address":"渋谷区宇田川町5-6","lat":35.66322,"lon":139.69783},{"name":"渋谷区子ども家庭支援センター","province":"東京都","city":"渋谷区","address":"渋谷区渋谷1-18-21","lat":35.662012,"lon":139.703662},{"name":"渋谷区子ども家庭支援センター","province":"東京都","city":"渋谷区","address":"渋谷区渋谷1-18-21","lat":35.66185,"lon":139.70392},{"name":"代々幡斎場","province":"東京都","city":"渋谷区","address":"東京都渋谷区西原2丁目42-1","lat":35.67335551,"lon":139.67732435},{"name":"＊?渋谷男女平等・ダイバーシティセンター＜アイリス＞","province":"東京都","city":"渋谷区","address":"渋谷区桜丘町23-21","lat":35.655458,"lon":139.699965},{"name":"東京ウィメンズプラザ","province":"東京都","city":"渋谷区","address":"東京都渋谷区神宮前5丁目53-67","lat":35.662788,"lon":139.70793876},{"name":"青山高等学校","province":"東京都","city":"渋谷区","address":"東京都渋谷区神宮前2丁目1-8","lat":35.67270374,"lon":139.71607374},{"name":"広尾高等学校","province":"東京都","city":"渋谷区","address":"東京都渋谷区東4丁目14-14","lat":35.65287808,"lon":139.71284984},{"name":"第一商業高等学校","province":"東京都","city":"渋谷区","address":"東京都渋谷区鉢山町8-1","lat":35.65016143,"lon":139.6985845},{"name":"東京消防庁消防学校","province":"東京都","city":"渋谷区","address":"東京都渋谷区西原2丁目51-1","lat":35.67232498,"lon":139.67333307},{"name":"広尾てくてく","province":"東京都","city":"渋谷区","address":"渋谷区広尾四丁目2番12号","lat":35.655159,"lon":139.722279},{"name":"特別支援教育研究所　Ｗｉｓh","province":"東京都","city":"渋谷区","address":"渋谷区神泉町15-11","lat":35.657005,"lon":139.691963},{"name":"よよこ～クラブ","province":"東京都","city":"渋谷区","address":"渋谷区千駄ヶ谷5-8-2","lat":35.681647,"lon":139.705038},{"name":"スタジオそら原宿","province":"東京都","city":"渋谷区","address":"渋谷区千駄ヶ谷3-51-6原宿MOA1階","lat":35.675037,"lon":139.706133},{"name":"渋谷区障害者福祉センター代々木の杜","province":"東京都","city":"渋谷区","address":"渋谷区代々木2-35-1","lat":35.684158,"lon":139.697725},{"name":"スタジオそら代々木公園","province":"東京都","city":"渋谷区","address":"渋谷区富ヶ谷一丁目2番1号","lat":35.670367,"lon":139.690043},{"name":"放課後等デイサービス　あいだっく","province":"東京都","city":"渋谷区","address":"渋谷区上原3-23-5オーガストハウス1階","lat":35.66427,"lon":139.676789},{"name":"デイサービスなかよし","province":"東京都","city":"渋谷区","address":"渋谷区西原2-36-7","lat":35.674441,"lon":139.675613},{"name":"児童発達支援・放課後等デイサービス　マリリン　スポーツ塾　初台","province":"東京都","city":"渋谷区","address":"渋谷区本町2-5-11三山ビル1階","lat":35.684004,"lon":139.683515},{"name":"Ａｒｔ＆Ｍｕｓｉｃ　豆庭　Ｍａｍｅ－Ｎｉｗａ","province":"東京都","city":"渋谷区","address":"渋谷区幡ヶ谷1-8-4リッツパラシオ202","lat":35.675572,"lon":139.672291},{"name":"渋谷区子ども家庭支援センター","province":"東京都","city":"渋谷区","address":"渋谷区神宮前3-18-33","lat":35.670937,"lon":139.709272},{"name":"渋谷区子ども家庭支援センター","province":"東京都","city":"渋谷区","address":"渋谷区宇田川町5-6","lat":35.66322,"lon":139.69783},{"name":"渋谷区子ども家庭支援センター","province":"東京都","city":"渋谷区","address":"渋谷区渋谷1-18-21","lat":35.662012,"lon":139.703662},{"name":"渋谷区子ども家庭支援センター","province":"東京都","city":"渋谷区","address":"渋谷区渋谷1-18-21","lat":35.66185,"lon":139.70392},{"name":"代々幡斎場","province":"東京都","city":"渋谷区","address":"東京都渋谷区西原2丁目42-1","lat":35.67335551,"lon":139.67732435},{"name":"＊?渋谷男女平等・ダイバーシティセンター＜アイリス＞","province":"東京都","city":"渋谷区","address":"渋谷区桜丘町23-21","lat":35.655458,"lon":139.699965},{"name":"東京ウィメンズプラザ","province":"東京都","city":"渋谷区","address":"東京都渋谷区神宮前5丁目53-67","lat":35.662788,"lon":139.70793876},{"name":"青山高等学校","province":"東京都","city":"渋谷区","address":"東京都渋谷区神宮前2丁目1-8","lat":35.67270374,"lon":139.71607374},{"name":"広尾高等学校","province":"東京都","city":"渋谷区","address":"東京都渋谷区東4丁目14-14","lat":35.65287808,"lon":139.71284984},{"name":"第一商業高等学校","province":"東京都","city":"渋谷区","address":"東京都渋谷区鉢山町8-1","lat":35.65016143,"lon":139.6985845},{"name":"東京消防庁消防学校","province":"東京都","city":"渋谷区","address":"東京都渋谷区西原2丁目51-1","lat":35.67232498,"lon":139.67333307},{"name":"広尾てくてく","province":"東京都","city":"渋谷区","address":"渋谷区広尾四丁目2番12号","lat":35.655159,"lon":139.722279},{"name":"特別支援教育研究所　Ｗｉｓh","province":"東京都","city":"渋谷区","address":"渋谷区神泉町15-11","lat":35.657005,"lon":139.691963},{"name":"よよこ～クラブ","province":"東京都","city":"渋谷区","address":"渋谷区千駄ヶ谷5-8-2","lat":35.681647,"lon":139.705038},{"name":"スタジオそら原宿","province":"東京都","city":"渋谷区","address":"渋谷区千駄ヶ谷3-51-6原宿MOA1階","lat":35.675037,"lon":139.706133},{"name":"渋谷区障害者福祉センター代々木の杜","province":"東京都","city":"渋谷区","address":"渋谷区代々木2-35-1","lat":35.684158,"lon":139.697725},{"name":"スタジオそら代々木公園","province":"東京都","city":"渋谷区","address":"渋谷区富ヶ谷一丁目2番1号","lat":35.670367,"lon":139.690043},{"name":"放課後等デイサービス　あいだっく","province":"東京都","city":"渋谷区","address":"渋谷区上原3-23-5オーガストハウス1階","lat":35.66427,"lon":139.676789},{"name":"デイサービスなかよし","province":"東京都","city":"渋谷区","address":"渋谷区西原2-36-7","lat":35.674441,"lon":139.675613},{"name":"児童発達支援・放課後等デイサービス　マリリン　スポーツ塾　初台","province":"東京都","city":"渋谷区","address":"渋谷区本町2-5-11三山ビル1階","lat":35.684004,"lon":139.683515},{"name":"Ａｒｔ＆Ｍｕｓｉｃ　豆庭　Ｍａｍｅ－Ｎｉｗａ","province":"東京都","city":"渋谷区","address":"渋谷区幡ヶ谷1-8-4リッツパラシオ202","lat":35.675572,"lon":139.672291},{"name":"渋谷区子ども家庭支援センター","province":"東京都","city":"渋谷区","address":"渋谷区神宮前3-18-33","lat":35.670937,"lon":139.709272},{"name":"渋谷区子ども家庭支援センター","province":"東京都","city":"渋谷区","address":"渋谷区宇田川町5-6","lat":35.66322,"lon":139.69783},{"name":"渋谷区子ども家庭支援センター","province":"東京都","city":"渋谷区","address":"渋谷区渋谷1-18-21","lat":35.662012,"lon":139.703662},{"name":"渋谷区子ども家庭支援センター","province":"東京都","city":"渋谷区","address":"渋谷区渋谷1-18-21","lat":35.66185,"lon":139.70392},{"name":"代々幡斎場","province":"東京都","city":"渋谷区","address":"東京都渋谷区西原2丁目42-1","lat":35.67335551,"lon":139.67732435},{"name":"＊?渋谷男女平等・ダイバーシティセンター＜アイリス＞","province":"東京都","city":"渋谷区","address":"渋谷区桜丘町23-21","lat":35.655458,"lon":139.699965},{"name":"広尾てくてく","province":"東京都","city":"渋谷区","address":"渋谷区広尾四丁目2番12号","lat":35.655159,"lon":139.722279},{"name":"特別支援教育研究所　Ｗｉｓh","province":"東京都","city":"渋谷区","address":"渋谷区神泉町15-11","lat":35.657005,"lon":139.691963},{"name":"よよこ～クラブ","province":"東京都","city":"渋谷区","address":"渋谷区千駄ヶ谷5-8-2","lat":35.681647,"lon":139.705038},{"name":"スタジオそら原宿","province":"東京都","city":"渋谷区","address":"渋谷区千駄ヶ谷3-51-6原宿MOA1階","lat":35.675037,"lon":139.706133},{"name":"渋谷区障害者福祉センター代々木の杜","province":"東京都","city":"渋谷区","address":"渋谷区代々木2-35-1","lat":35.684158,"lon":139.697725},{"name":"スタジオそら代々木公園","province":"東京都","city":"渋谷区","address":"渋谷区富ヶ谷一丁目2番1号","lat":35.670367,"lon":139.690043},{"name":"放課後等デイサービス　あいだっく","province":"東京都","city":"渋谷区","address":"渋谷区上原3-23-5オーガストハウス1階","lat":35.66427,"lon":139.676789},{"name":"デイサービスなかよし","province":"東京都","city":"渋谷区","address":"渋谷区西原2-36-7","lat":35.674441,"lon":139.675613},{"name":"児童発達支援・放課後等デイサービス　マリリン　スポーツ塾　初台","province":"東京都","city":"渋谷区","address":"渋谷区本町2-5-11三山ビル1階","lat":35.684004,"lon":139.683515},{"name":"Ａｒｔ＆Ｍｕｓｉｃ　豆庭　Ｍａｍｅ－Ｎｉｗａ","province":"東京都","city":"渋谷区","address":"渋谷区幡ヶ谷1-8-4リッツパラシオ202","lat":35.675572,"lon":139.672291},{"name":"渋谷区子ども家庭支援センター","province":"東京都","city":"渋谷区","address":"渋谷区神宮前3-18-33","lat":35.670937,"lon":139.709272},{"name":"渋谷区子ども家庭支援センター","province":"東京都","city":"渋谷区","address":"渋谷区宇田川町5-6","lat":35.66322,"lon":139.69783},{"name":"渋谷区子ども家庭支援センター","province":"東京都","city":"渋谷区","address":"渋谷区渋谷1-18-21","lat":35.662012,"lon":139.703662},{"name":"渋谷区子ども家庭支援センター","province":"東京都","city":"渋谷区","address":"渋谷区渋谷1-18-21","lat":35.66185,"lon":139.70392},{"name":"代々幡斎場","province":"東京都","city":"渋谷区","address":"東京都渋谷区西原2丁目42-1","lat":35.67335551,"lon":139.67732435},{"name":"＊?渋谷男女平等・ダイバーシティセンター＜アイリス＞","province":"東京都","city":"渋谷区","address":"渋谷区桜丘町23-21","lat":35.655458,"lon":139.699965},{"name":"広尾てくてく","province":"東京都","city":"渋谷区","address":"渋谷区広尾四丁目2番12号","lat":35.655159,"lon":139.722279},{"name":"特別支援教育研究所　Ｗｉｓh","province":"東京都","city":"渋谷区","address":"渋谷区神泉町15-11","lat":35.657005,"lon":139.691963},{"name":"よよこ～クラブ","province":"東京都","city":"渋谷区","address":"渋谷区千駄ヶ谷5-8-2","lat":35.681647,"lon":139.705038},{"name":"スタジオそら原宿","province":"東京都","city":"渋谷区","address":"渋谷区千駄ヶ谷3-51-6原宿MOA1階","lat":35.675037,"lon":139.706133},{"name":"渋谷区障害者福祉センター代々木の杜","province":"東京都","city":"渋谷区","address":"渋谷区代々木2-35-1","lat":35.684158,"lon":139.697725},{"name":"スタジオそら代々木公園","province":"東京都","city":"渋谷区","address":"渋谷区富ヶ谷一丁目2番1号","lat":35.670367,"lon":139.690043},{"name":"放課後等デイサービス　あいだっく","province":"東京都","city":"渋谷区","address":"渋谷区上原3-23-5オーガストハウス1階","lat":35.66427,"lon":139.676789},{"name":"デイサービスなかよし","province":"東京都","city":"渋谷区","address":"渋谷区西原2-36-7","lat":35.674441,"lon":139.675613},{"name":"児童発達支援・放課後等デイサービス　マリリン　スポーツ塾　初台","province":"東京都","city":"渋谷区","address":"渋谷区本町2-5-11三山ビル1階","lat":35.684004,"lon":139.683515},{"name":"Ａｒｔ＆Ｍｕｓｉｃ　豆庭　Ｍａｍｅ－Ｎｉｗａ","province":"東京都","city":"渋谷区","address":"渋谷区幡ヶ谷1-8-4リッツパラシオ202","lat":35.675572,"lon":139.672291},{"name":"渋谷区子ども家庭支援センター","province":"東京都","city":"渋谷区","address":"渋谷区神宮前3-18-33","lat":35.670937,"lon":139.709272},{"name":"渋谷区子ども家庭支援センター","province":"東京都","city":"渋谷区","address":"渋谷区宇田川町5-6","lat":35.66322,"lon":139.69783},{"name":"渋谷区子ども家庭支援センター","province":"東京都","city":"渋谷区","address":"渋谷区渋谷1-18-21","lat":35.662012,"lon":139.703662},{"name":"渋谷区子ども家庭支援センター","province":"東京都","city":"渋谷区","address":"渋谷区渋谷1-18-21","lat":35.66185,"lon":139.70392},{"name":"代々幡斎場","province":"東京都","city":"渋谷区","address":"東京都渋谷区西原2丁目42-1","lat":35.67335551,"lon":139.67732435},{"name":"＊?渋谷男女平等・ダイバーシティセンター＜アイリス＞","province":"東京都","city":"渋谷区","address":"渋谷区桜丘町23-21","lat":35.655458,"lon":139.699965},{"name":"広尾てくてく","province":"東京都","city":"渋谷区","address":"渋谷区広尾四丁目2番12号","lat":35.655159,"lon":139.722279},{"name":"特別支援教育研究所　Ｗｉｓh","province":"東京都","city":"渋谷区","address":"渋谷区神泉町15-11","lat":35.657005,"lon":139.691963},{"name":"よよこ～クラブ","province":"東京都","city":"渋谷区","address":"渋谷区千駄ヶ谷5-8-2","lat":35.681647,"lon":139.705038},{"name":"スタジオそら原宿","province":"東京都","city":"渋谷区","address":"渋谷区千駄ヶ谷3-51-6原宿MOA1階","lat":35.675037,"lon":139.706133},{"name":"渋谷区障害者福祉センター代々木の杜","province":"東京都","city":"渋谷区","address":"渋谷区代々木2-35-1","lat":35.684158,"lon":139.697725},{"name":"スタジオそら代々木公園","province":"東京都","city":"渋谷区","address":"渋谷区富ヶ谷一丁目2番1号","lat":35.670367,"lon":139.690043},{"name":"放課後等デイサービス　あいだっく","province":"東京都","city":"渋谷区","address":"渋谷区上原3-23-5オーガストハウス1階","lat":35.66427,"lon":139.676789},{"name":"デイサービスなかよし","province":"東京都","city":"渋谷区","address":"渋谷区西原2-36-7","lat":35.674441,"lon":139.675613},{"name":"児童発達支援・放課後等デイサービス　マリリン　スポーツ塾　初台","province":"東京都","city":"渋谷区","address":"渋谷区本町2-5-11三山ビル1階","lat":35.684004,"lon":139.683515},{"name":"Ａｒｔ＆Ｍｕｓｉｃ　豆庭　Ｍａｍｅ－Ｎｉｗａ","province":"東京都","city":"渋谷区","address":"渋谷区幡ヶ谷1-8-4リッツパラシオ202","lat":35.675572,"lon":139.672291},{"name":"渋谷区子ども家庭支援センター","province":"東京都","city":"渋谷区","address":"渋谷区神宮前3-18-33","lat":35.670937,"lon":139.709272},{"name":"渋谷区子ども家庭支援センター","province":"東京都","city":"渋谷区","address":"渋谷区宇田川町5-6","lat":35.66322,"lon":139.69783},{"name":"渋谷区子ども家庭支援センター","province":"東京都","city":"渋谷区","address":"渋谷区渋谷1-18-21","lat":35.662012,"lon":139.703662},{"name":"渋谷区子ども家庭支援センター","province":"東京都","city":"渋谷区","address":"渋谷区渋谷1-18-21","lat":35.66185,"lon":139.70392},{"name":"代々幡斎場","province":"東京都","city":"渋谷区","address":"東京都渋谷区西原2丁目42-1","lat":35.67335551,"lon":139.67732435},{"name":"＊?渋谷男女平等・ダイバーシティセンター＜アイリス＞","province":"東京都","city":"渋谷区","address":"渋谷区桜丘町23-21","lat":35.655458,"lon":139.699965},{"name":"広尾てくてく","province":"東京都","city":"渋谷区","address":"渋谷区広尾四丁目2番12号","lat":35.655159,"lon":139.722279},{"name":"特別支援教育研究所　Ｗｉｓh","province":"東京都","city":"渋谷区","address":"渋谷区神泉町15-11","lat":35.657005,"lon":139.691963},{"name":"よよこ～クラブ","province":"東京都","city":"渋谷区","address":"渋谷区千駄ヶ谷5-8-2","lat":35.681647,"lon":139.705038},{"name":"スタジオそら原宿","province":"東京都","city":"渋谷区","address":"渋谷区千駄ヶ谷3-51-6原宿MOA1階","lat":35.675037,"lon":139.706133},{"name":"渋谷区障害者福祉センター代々木の杜","province":"東京都","city":"渋谷区","address":"渋谷区代々木2-35-1","lat":35.684158,"lon":139.697725},{"name":"スタジオそら代々木公園","province":"東京都","city":"渋谷区","address":"渋谷区富ヶ谷一丁目2番1号","lat":35.670367,"lon":139.690043},{"name":"放課後等デイサービス　あいだっく","province":"東京都","city":"渋谷区","address":"渋谷区上原3-23-5オーガストハウス1階","lat":35.66427,"lon":139.676789},{"name":"デイサービスなかよし","province":"東京都","city":"渋谷区","address":"渋谷区西原2-36-7","lat":35.674441,"lon":139.675613},{"name":"児童発達支援・放課後等デイサービス　マリリン　スポーツ塾　初台","province":"東京都","city":"渋谷区","address":"渋谷区本町2-5-11三山ビル1階","lat":35.684004,"lon":139.683515},{"name":"Ａｒｔ＆Ｍｕｓｉｃ　豆庭　Ｍａｍｅ－Ｎｉｗａ","province":"東京都","city":"渋谷区","address":"渋谷区幡ヶ谷1-8-4リッツパラシオ202","lat":35.675572,"lon":139.672291},{"name":"渋谷区子ども家庭支援センター","province":"東京都","city":"渋谷区","address":"渋谷区神宮前3-18-33","lat":35.670937,"lon":139.709272},{"name":"渋谷区子ども家庭支援センター","province":"東京都","city":"渋谷区","address":"渋谷区宇田川町5-6","lat":35.66322,"lon":139.69783},{"name":"渋谷区子ども家庭支援センター","province":"東京都","city":"渋谷区","address":"渋谷区渋谷1-18-21","lat":35.662012,"lon":139.703662},{"name":"渋谷区子ども家庭支援センター","province":"東京都","city":"渋谷区","address":"渋谷区渋谷1-18-21","lat":35.66185,"lon":139.70392},{"name":"代々幡斎場","province":"東京都","city":"渋谷区","address":"東京都渋谷区西原2丁目42-1","lat":35.67335551,"lon":139.67732435},{"name":"＊?渋谷男女平等・ダイバーシティセンター＜アイリス＞","province":"東京都","city":"渋谷区","address":"渋谷区桜丘町23-21","lat":35.655458,"lon":139.699965},{"name":"広尾てくてく","province":"東京都","city":"渋谷区","address":"渋谷区広尾四丁目2番12号","lat":35.655159,"lon":139.722279},{"name":"特別支援教育研究所　Ｗｉｓh","province":"東京都","city":"渋谷区","address":"渋谷区神泉町15-11","lat":35.657005,"lon":139.691963},{"name":"よよこ～クラブ","province":"東京都","city":"渋谷区","address":"渋谷区千駄ヶ谷5-8-2","lat":35.681647,"lon":139.705038},{"name":"スタジオそら原宿","province":"東京都","city":"渋谷区","address":"渋谷区千駄ヶ谷3-51-6原宿MOA1階","lat":35.675037,"lon":139.706133},{"name":"渋谷区障害者福祉センター代々木の杜","province":"東京都","city":"渋谷区","address":"渋谷区代々木2-35-1","lat":35.684158,"lon":139.697725},{"name":"スタジオそら代々木公園","province":"東京都","city":"渋谷区","address":"渋谷区富ヶ谷一丁目2番1号","lat":35.670367,"lon":139.690043},{"name":"放課後等デイサービス　あいだっく","province":"東京都","city":"渋谷区","address":"渋谷区上原3-23-5オーガストハウス1階","lat":35.66427,"lon":139.676789},{"name":"デイサービスなかよし","province":"東京都","city":"渋谷区","address":"渋谷区西原2-36-7","lat":35.674441,"lon":139.675613},{"name":"児童発達支援・放課後等デイサービス　マリリン　スポーツ塾　初台","province":"東京都","city":"渋谷区","address":"渋谷区本町2-5-11三山ビル1階","lat":35.684004,"lon":139.683515},{"name":"Ａｒｔ＆Ｍｕｓｉｃ　豆庭　Ｍａｍｅ－Ｎｉｗａ","province":"東京都","city":"渋谷区","address":"渋谷区幡ヶ谷1-8-4リッツパラシオ202","lat":35.675572,"lon":139.672291},{"name":"渋谷区子ども家庭支援センター","province":"東京都","city":"渋谷区","address":"渋谷区神宮前3-18-33","lat":35.670937,"lon":139.709272},{"name":"渋谷区子ども家庭支援センター","province":"東京都","city":"渋谷区","address":"渋谷区宇田川町5-6","lat":35.66322,"lon":139.69783},{"name":"渋谷区子ども家庭支援センター","province":"東京都","city":"渋谷区","address":"渋谷区渋谷1-18-21","lat":35.662012,"lon":139.703662},{"name":"渋谷区子ども家庭支援センター","province":"東京都","city":"渋谷区","address":"渋谷区渋谷1-18-21","lat":35.66185,"lon":139.70392},{"name":"代々幡斎場","province":"東京都","city":"渋谷区","address":"東京都渋谷区西原2丁目42-1","lat":35.67335551,"lon":139.67732435},{"name":"＊?渋谷男女平等・ダイバーシティセンター＜アイリス＞","province":"東京都","city":"渋谷区","address":"渋谷区桜丘町23-21","lat":35.655458,"lon":139.699965},{"name":"広尾てくてく","province":"東京都","city":"渋谷区","address":"渋谷区広尾四丁目2番12号","lat":35.655159,"lon":139.722279},{"name":"特別支援教育研究所　Ｗｉｓh","province":"東京都","city":"渋谷区","address":"渋谷区神泉町15-11","lat":35.657005,"lon":139.691963},{"name":"よよこ～クラブ","province":"東京都","city":"渋谷区","address":"渋谷区千駄ヶ谷5-8-2","lat":35.681647,"lon":139.705038},{"name":"スタジオそら原宿","province":"東京都","city":"渋谷区","address":"渋谷区千駄ヶ谷3-51-6原宿MOA1階","lat":35.675037,"lon":139.706133},{"name":"渋谷区障害者福祉センター代々木の杜","province":"東京都","city":"渋谷区","address":"渋谷区代々木2-35-1","lat":35.684158,"lon":139.697725},{"name":"スタジオそら代々木公園","province":"東京都","city":"渋谷区","address":"渋谷区富ヶ谷一丁目2番1号","lat":35.670367,"lon":139.690043},{"name":"放課後等デイサービス　あいだっく","province":"東京都","city":"渋谷区","address":"渋谷区上原3-23-5オーガストハウス1階","lat":35.66427,"lon":139.676789},{"name":"デイサービスなかよし","province":"東京都","city":"渋谷区","address":"渋谷区西原2-36-7","lat":35.674441,"lon":139.675613},{"name":"児童発達支援・放課後等デイサービス　マリリン　スポーツ塾　初台","province":"東京都","city":"渋谷区","address":"渋谷区本町2-5-11三山ビル1階","lat":35.684004,"lon":139.683515},{"name":"Ａｒｔ＆Ｍｕｓｉｃ　豆庭　Ｍａｍｅ－Ｎｉｗａ","province":"東京都","city":"渋谷区","address":"渋谷区幡ヶ谷1-8-4リッツパラシオ202","lat":35.675572,"lon":139.672291},{"name":"渋谷区子ども家庭支援センター","province":"東京都","city":"渋谷区","address":"渋谷区神宮前3-18-33","lat":35.670937,"lon":139.709272},{"name":"渋谷区子ども家庭支援センター","province":"東京都","city":"渋谷区","address":"渋谷区宇田川町5-6","lat":35.66322,"lon":139.69783},{"name":"渋谷区子ども家庭支援センター","province":"東京都","city":"渋谷区","address":"渋谷区渋谷1-18-21","lat":35.662012,"lon":139.703662},{"name":"渋谷区子ども家庭支援センター","province":"東京都","city":"渋谷区","address":"渋谷区渋谷1-18-21","lat":35.66185,"lon":139.70392},{"name":"代々幡斎場","province":"東京都","city":"渋谷区","address":"東京都渋谷区西原2丁目42-1","lat":35.67335551,"lon":139.67732435},{"name":"＊?渋谷男女平等・ダイバーシティセンター＜アイリス＞","province":"東京都","city":"渋谷区","address":"渋谷区桜丘町23-21","lat":35.655458,"lon":139.699965},{"name":"広尾てくてく","province":"東京都","city":"渋谷区","address":"渋谷区広尾四丁目2番12号","lat":35.655159,"lon":139.722279},{"name":"特別支援教育研究所　Ｗｉｓh","province":"東京都","city":"渋谷区","address":"渋谷区神泉町15-11","lat":35.657005,"lon":139.691963},{"name":"よよこ～クラブ","province":"東京都","city":"渋谷区","address":"渋谷区千駄ヶ谷5-8-2","lat":35.681647,"lon":139.705038},{"name":"スタジオそら原宿","province":"東京都","city":"渋谷区","address":"渋谷区千駄ヶ谷3-51-6原宿MOA1階","lat":35.675037,"lon":139.706133},{"name":"渋谷区障害者福祉センター代々木の杜","province":"東京都","city":"渋谷区","address":"渋谷区代々木2-35-1","lat":35.684158,"lon":139.697725},{"name":"スタジオそら代々木公園","province":"東京都","city":"渋谷区","address":"渋谷区富ヶ谷一丁目2番1号","lat":35.670367,"lon":139.690043},{"name":"放課後等デイサービス　あいだっく","province":"東京都","city":"渋谷区","address":"渋谷区上原3-23-5オーガストハウス1階","lat":35.66427,"lon":139.676789},{"name":"デイサービスなかよし","province":"東京都","city":"渋谷区","address":"渋谷区西原2-36-7","lat":35.674441,"lon":139.675613},{"name":"児童発達支援・放課後等デイサービス　マリリン　スポーツ塾　初台","province":"東京都","city":"渋谷区","address":"渋谷区本町2-5-11三山ビル1階","lat":35.684004,"lon":139.683515},{"name":"Ａｒｔ＆Ｍｕｓｉｃ　豆庭　Ｍａｍｅ－Ｎｉｗａ","province":"東京都","city":"渋谷区","address":"渋谷区幡ヶ谷1-8-4リッツパラシオ202","lat":35.675572,"lon":139.672291},{"name":"渋谷区子ども家庭支援センター","province":"東京都","city":"渋谷区","address":"渋谷区神宮前3-18-33","lat":35.670937,"lon":139.709272},{"name":"渋谷区子ども家庭支援センター","province":"東京都","city":"渋谷区","address":"渋谷区宇田川町5-6","lat":35.66322,"lon":139.69783},{"name":"渋谷区子ども家庭支援センター","province":"東京都","city":"渋谷区","address":"渋谷区渋谷1-18-21","lat":35.662012,"lon":139.703662},{"name":"渋谷区子ども家庭支援センター","province":"東京都","city":"渋谷区","address":"渋谷区渋谷1-18-21","lat":35.66185,"lon":139.70392},{"name":"＊?渋谷男女平等・ダイバーシティセンター＜アイリス＞","province":"東京都","city":"渋谷区","address":"渋谷区桜丘町23-21","lat":35.655458,"lon":139.699965},{"name":"広尾てくてく","province":"東京都","city":"渋谷区","address":"渋谷区広尾四丁目2番12号","lat":35.655159,"lon":139.722279},{"name":"特別支援教育研究所　Ｗｉｓh","province":"東京都","city":"渋谷区","address":"渋谷区神泉町15-11","lat":35.657005,"lon":139.691963},{"name":"よよこ～クラブ","province":"東京都","city":"渋谷区","address":"渋谷区千駄ヶ谷5-8-2","lat":35.681647,"lon":139.705038},{"name":"スタジオそら原宿","province":"東京都","city":"渋谷区","address":"渋谷区千駄ヶ谷3-51-6原宿MOA1階","lat":35.675037,"lon":139.706133},{"name":"渋谷区障害者福祉センター代々木の杜","province":"東京都","city":"渋谷区","address":"渋谷区代々木2-35-1","lat":35.684158,"lon":139.697725},{"name":"スタジオそら代々木公園","province":"東京都","city":"渋谷区","address":"渋谷区富ヶ谷一丁目2番1号","lat":35.670367,"lon":139.690043},{"name":"放課後等デイサービス　あいだっく","province":"東京都","city":"渋谷区","address":"渋谷区上原3-23-5オーガストハウス1階","lat":35.66427,"lon":139.676789},{"name":"デイサービスなかよし","province":"東京都","city":"渋谷区","address":"渋谷区西原2-36-7","lat":35.674441,"lon":139.675613},{"name":"児童発達支援・放課後等デイサービス　マリリン　スポーツ塾　初台","province":"東京都","city":"渋谷区","address":"渋谷区本町2-5-11三山ビル1階","lat":35.684004,"lon":139.683515},{"name":"Ａｒｔ＆Ｍｕｓｉｃ　豆庭　Ｍａｍｅ－Ｎｉｗａ","province":"東京都","city":"渋谷区","address":"渋谷区幡ヶ谷1-8-4リッツパラシオ202","lat":35.675572,"lon":139.672291},{"name":"渋谷区子ども家庭支援センター","province":"東京都","city":"渋谷区","address":"渋谷区神宮前3-18-33","lat":35.670937,"lon":139.709272},{"name":"渋谷区子ども家庭支援センター","province":"東京都","city":"渋谷区","address":"渋谷区宇田川町5-6","lat":35.66322,"lon":139.69783},{"name":"渋谷区子ども家庭支援センター","province":"東京都","city":"渋谷区","address":"渋谷区渋谷1-18-21","lat":35.662012,"lon":139.703662},{"name":"渋谷区子ども家庭支援センター","province":"東京都","city":"渋谷区","address":"渋谷区渋谷1-18-21","lat":35.66185,"lon":139.70392},{"name":"＊?渋谷男女平等・ダイバーシティセンター＜アイリス＞","province":"東京都","city":"渋谷区","address":"渋谷区桜丘町23-21","lat":35.655458,"lon":139.699965},{"name":"広尾てくてく","province":"東京都","city":"渋谷区","address":"渋谷区広尾四丁目2番12号","lat":35.655159,"lon":139.722279},{"name":"特別支援教育研究所　Ｗｉｓh","province":"東京都","city":"渋谷区","address":"渋谷区神泉町15-11","lat":35.657005,"lon":139.691963},{"name":"よよこ～クラブ","province":"東京都","city":"渋谷区","address":"渋谷区千駄ヶ谷5-8-2","lat":35.681647,"lon":139.705038},{"name":"スタジオそら原宿","province":"東京都","city":"渋谷区","address":"渋谷区千駄ヶ谷3-51-6原宿MOA1階","lat":35.675037,"lon":139.706133},{"name":"渋谷区障害者福祉センター代々木の杜","province":"東京都","city":"渋谷区","address":"渋谷区代々木2-35-1","lat":35.684158,"lon":139.697725},{"name":"スタジオそら代々木公園","province":"東京都","city":"渋谷区","address":"渋谷区富ヶ谷一丁目2番1号","lat":35.670367,"lon":139.690043},{"name":"放課後等デイサービス　あいだっく","province":"東京都","city":"渋谷区","address":"渋谷区上原3-23-5オーガストハウス1階","lat":35.66427,"lon":139.676789},{"name":"デイサービスなかよし","province":"東京都","city":"渋谷区","address":"渋谷区西原2-36-7","lat":35.674441,"lon":139.675613},{"name":"児童発達支援・放課後等デイサービス　マリリン　スポーツ塾　初台","province":"東京都","city":"渋谷区","address":"渋谷区本町2-5-11三山ビル1階","lat":35.684004,"lon":139.683515},{"name":"Ａｒｔ＆Ｍｕｓｉｃ　豆庭　Ｍａｍｅ－Ｎｉｗａ","province":"東京都","city":"渋谷区","address":"渋谷区幡ヶ谷1-8-4リッツパラシオ202","lat":35.675572,"lon":139.672291},{"name":"渋谷区子ども家庭支援センター","province":"東京都","city":"渋谷区","address":"渋谷区神宮前3-18-33","lat":35.670937,"lon":139.709272},{"name":"渋谷区子ども家庭支援センター","province":"東京都","city":"渋谷区","address":"渋谷区宇田川町5-6","lat":35.66322,"lon":139.69783},{"name":"渋谷区子ども家庭支援センター","province":"東京都","city":"渋谷区","address":"渋谷区渋谷1-18-21","lat":35.662012,"lon":139.703662},{"name":"渋谷区子ども家庭支援センター","province":"東京都","city":"渋谷区","address":"渋谷区渋谷1-18-21","lat":35.66185,"lon":139.70392},{"name":"＊?渋谷男女平等・ダイバーシティセンター＜アイリス＞","province":"東京都","city":"渋谷区","address":"渋谷区桜丘町23-21","lat":35.655458,"lon":139.699965},{"name":"広尾てくてく","province":"東京都","city":"渋谷区","address":"渋谷区広尾四丁目2番12号","lat":35.655159,"lon":139.722279},{"name":"特別支援教育研究所　Ｗｉｓh","province":"東京都","city":"渋谷区","address":"渋谷区神泉町15-11","lat":35.657005,"lon":139.691963},{"name":"よよこ～クラブ","province":"東京都","city":"渋谷区","address":"渋谷区千駄ヶ谷5-8-2","lat":35.681647,"lon":139.705038},{"name":"スタジオそら原宿","province":"東京都","city":"渋谷区","address":"渋谷区千駄ヶ谷3-51-6原宿MOA1階","lat":35.675037,"lon":139.706133},{"name":"渋谷区障害者福祉センター代々木の杜","province":"東京都","city":"渋谷区","address":"渋谷区代々木2-35-1","lat":35.684158,"lon":139.697725},{"name":"スタジオそら代々木公園","province":"東京都","city":"渋谷区","address":"渋谷区富ヶ谷一丁目2番1号","lat":35.670367,"lon":139.690043},{"name":"放課後等デイサービス　あいだっく","province":"東京都","city":"渋谷区","address":"渋谷区上原3-23-5オーガストハウス1階","lat":35.66427,"lon":139.676789},{"name":"デイサービスなかよし","province":"東京都","city":"渋谷区","address":"渋谷区西原2-36-7","lat":35.674441,"lon":139.675613},{"name":"児童発達支援・放課後等デイサービス　マリリン　スポーツ塾　初台","province":"東京都","city":"渋谷区","address":"渋谷区本町2-5-11三山ビル1階","lat":35.684004,"lon":139.683515},{"name":"Ａｒｔ＆Ｍｕｓｉｃ　豆庭　Ｍａｍｅ－Ｎｉｗａ","province":"東京都","city":"渋谷区","address":"渋谷区幡ヶ谷1-8-4リッツパラシオ202","lat":35.675572,"lon":139.672291},{"name":"渋谷区子ども家庭支援センター","province":"東京都","city":"渋谷区","address":"渋谷区神宮前3-18-33","lat":35.670937,"lon":139.709272},{"name":"渋谷区子ども家庭支援センター","province":"東京都","city":"渋谷区","address":"渋谷区宇田川町5-6","lat":35.66322,"lon":139.69783},{"name":"渋谷区子ども家庭支援センター","province":"東京都","city":"渋谷区","address":"渋谷区渋谷1-18-21","lat":35.662012,"lon":139.703662},{"name":"渋谷区子ども家庭支援センター","province":"東京都","city":"渋谷区","address":"渋谷区渋谷1-18-21","lat":35.66185,"lon":139.70392},{"name":"＊?渋谷男女平等・ダイバーシティセンター＜アイリス＞","province":"東京都","city":"渋谷区","address":"渋谷区桜丘町23-21","lat":35.655458,"lon":139.699965},{"name":"広尾てくてく","province":"東京都","city":"渋谷区","address":"渋谷区広尾四丁目2番12号","lat":35.655159,"lon":139.722279},{"name":"特別支援教育研究所　Ｗｉｓh","province":"東京都","city":"渋谷区","address":"渋谷区神泉町15-11","lat":35.657005,"lon":139.691963},{"name":"よよこ～クラブ","province":"東京都","city":"渋谷区","address":"渋谷区千駄ヶ谷5-8-2","lat":35.681647,"lon":139.705038},{"name":"スタジオそら原宿","province":"東京都","city":"渋谷区","address":"渋谷区千駄ヶ谷3-51-6原宿MOA1階","lat":35.675037,"lon":139.706133},{"name":"渋谷区障害者福祉センター代々木の杜","province":"東京都","city":"渋谷区","address":"渋谷区代々木2-35-1","lat":35.684158,"lon":139.697725},{"name":"スタジオそら代々木公園","province":"東京都","city":"渋谷区","address":"渋谷区富ヶ谷一丁目2番1号","lat":35.670367,"lon":139.690043},{"name":"放課後等デイサービス　あいだっく","province":"東京都","city":"渋谷区","address":"渋谷区上原3-23-5オーガストハウス1階","lat":35.66427,"lon":139.676789},{"name":"デイサービスなかよし","province":"東京都","city":"渋谷区","address":"渋谷区西原2-36-7","lat":35.674441,"lon":139.675613},{"name":"児童発達支援・放課後等デイサービス　マリリン　スポーツ塾　初台","province":"東京都","city":"渋谷区","address":"渋谷区本町2-5-11三山ビル1階","lat":35.684004,"lon":139.683515},{"name":"Ａｒｔ＆Ｍｕｓｉｃ　豆庭　Ｍａｍｅ－Ｎｉｗａ","province":"東京都","city":"渋谷区","address":"渋谷区幡ヶ谷1-8-4リッツパラシオ202","lat":35.675572,"lon":139.672291},{"name":"渋谷区子ども家庭支援センター","province":"東京都","city":"渋谷区","address":"渋谷区神宮前3-18-33","lat":35.670937,"lon":139.709272},{"name":"渋谷区子ども家庭支援センター","province":"東京都","city":"渋谷区","address":"渋谷区宇田川町5-6","lat":35.66322,"lon":139.69783},{"name":"渋谷区子ども家庭支援センター","province":"東京都","city":"渋谷区","address":"渋谷区渋谷1-18-21","lat":35.662012,"lon":139.703662},{"name":"渋谷区子ども家庭支援センター","province":"東京都","city":"渋谷区","address":"渋谷区渋谷1-18-21","lat":35.66185,"lon":139.70392},{"name":"＊?渋谷男女平等・ダイバーシティセンター＜アイリス＞","province":"東京都","city":"渋谷区","address":"渋谷区桜丘町23-21","lat":35.655458,"lon":139.699965},{"name":"広尾てくてく","province":"東京都","city":"渋谷区","address":"渋谷区広尾四丁目2番12号","lat":35.655159,"lon":139.722279},{"name":"特別支援教育研究所　Ｗｉｓh","province":"東京都","city":"渋谷区","address":"渋谷区神泉町15-11","lat":35.657005,"lon":139.691963},{"name":"よよこ～クラブ","province":"東京都","city":"渋谷区","address":"渋谷区千駄ヶ谷5-8-2","lat":35.681647,"lon":139.705038},{"name":"スタジオそら原宿","province":"東京都","city":"渋谷区","address":"渋谷区千駄ヶ谷3-51-6原宿MOA1階","lat":35.675037,"lon":139.706133},{"name":"渋谷区障害者福祉センター代々木の杜","province":"東京都","city":"渋谷区","address":"渋谷区代々木2-35-1","lat":35.684158,"lon":139.697725},{"name":"スタジオそら代々木公園","province":"東京都","city":"渋谷区","address":"渋谷区富ヶ谷一丁目2番1号","lat":35.670367,"lon":139.690043},{"name":"放課後等デイサービス　あいだっく","province":"東京都","city":"渋谷区","address":"渋谷区上原3-23-5オーガストハウス1階","lat":35.66427,"lon":139.676789},{"name":"デイサービスなかよし","province":"東京都","city":"渋谷区","address":"渋谷区西原2-36-7","lat":35.674441,"lon":139.675613},{"name":"児童発達支援・放課後等デイサービス　マリリン　スポーツ塾　初台","province":"東京都","city":"渋谷区","address":"渋谷区本町2-5-11三山ビル1階","lat":35.684004,"lon":139.683515},{"name":"Ａｒｔ＆Ｍｕｓｉｃ　豆庭　Ｍａｍｅ－Ｎｉｗａ","province":"東京都","city":"渋谷区","address":"渋谷区幡ヶ谷1-8-4リッツパラシオ202","lat":35.675572,"lon":139.672291},{"name":"渋谷区子ども家庭支援センター","province":"東京都","city":"渋谷区","address":"渋谷区神宮前3-18-33","lat":35.670937,"lon":139.709272},{"name":"渋谷区子ども家庭支援センター","province":"東京都","city":"渋谷区","address":"渋谷区宇田川町5-6","lat":35.66322,"lon":139.69783},{"name":"渋谷区子ども家庭支援センター","province":"東京都","city":"渋谷区","address":"渋谷区渋谷1-18-21","lat":35.662012,"lon":139.703662},{"name":"渋谷区子ども家庭支援センター","province":"東京都","city":"渋谷区","address":"渋谷区渋谷1-18-21","lat":35.66185,"lon":139.70392},{"name":"＊?渋谷男女平等・ダイバーシティセンター＜アイリス＞","province":"東京都","city":"渋谷区","address":"渋谷区桜丘町23-21","lat":35.655458,"lon":139.699965},{"name":"広尾てくてく","province":"東京都","city":"渋谷区","address":"渋谷区広尾四丁目2番12号","lat":35.655159,"lon":139.722279},{"name":"特別支援教育研究所　Ｗｉｓh","province":"東京都","city":"渋谷区","address":"渋谷区神泉町15-11","lat":35.657005,"lon":139.691963},{"name":"よよこ～クラブ","province":"東京都","city":"渋谷区","address":"渋谷区千駄ヶ谷5-8-2","lat":35.681647,"lon":139.705038},{"name":"スタジオそら原宿","province":"東京都","city":"渋谷区","address":"渋谷区千駄ヶ谷3-51-6原宿MOA1階","lat":35.675037,"lon":139.706133},{"name":"渋谷区障害者福祉センター代々木の杜","province":"東京都","city":"渋谷区","address":"渋谷区代々木2-35-1","lat":35.684158,"lon":139.697725},{"name":"スタジオそら代々木公園","province":"東京都","city":"渋谷区","address":"渋谷区富ヶ谷一丁目2番1号","lat":35.670367,"lon":139.690043},{"name":"放課後等デイサービス　あいだっく","province":"東京都","city":"渋谷区","address":"渋谷区上原3-23-5オーガストハウス1階","lat":35.66427,"lon":139.676789},{"name":"デイサービスなかよし","province":"東京都","city":"渋谷区","address":"渋谷区西原2-36-7","lat":35.674441,"lon":139.675613},{"name":"児童発達支援・放課後等デイサービス　マリリン　スポーツ塾　初台","province":"東京都","city":"渋谷区","address":"渋谷区本町2-5-11三山ビル1階","lat":35.684004,"lon":139.683515},{"name":"Ａｒｔ＆Ｍｕｓｉｃ　豆庭　Ｍａｍｅ－Ｎｉｗａ","province":"東京都","city":"渋谷区","address":"渋谷区幡ヶ谷1-8-4リッツパラシオ202","lat":35.675572,"lon":139.672291},{"name":"渋谷区子ども家庭支援センター","province":"東京都","city":"渋谷区","address":"渋谷区神宮前3-18-33","lat":35.670937,"lon":139.709272},{"name":"渋谷区子ども家庭支援センター","province":"東京都","city":"渋谷区","address":"渋谷区宇田川町5-6","lat":35.66322,"lon":139.69783},{"name":"渋谷区子ども家庭支援センター","province":"東京都","city":"渋谷区","address":"渋谷区渋谷1-18-21","lat":35.662012,"lon":139.703662},{"name":"渋谷区子ども家庭支援センター","province":"東京都","city":"渋谷区","address":"渋谷区渋谷1-18-21","lat":35.66185,"lon":139.70392},{"name":"＊?渋谷男女平等・ダイバーシティセンター＜アイリス＞","province":"東京都","city":"渋谷区","address":"渋谷区桜丘町23-21","lat":35.655458,"lon":139.699965},{"name":"広尾てくてく","province":"東京都","city":"渋谷区","address":"渋谷区広尾四丁目2番12号","lat":35.655159,"lon":139.722279},{"name":"特別支援教育研究所　Ｗｉｓh","province":"東京都","city":"渋谷区","address":"渋谷区神泉町15-11","lat":35.657005,"lon":139.691963},{"name":"よよこ～クラブ","province":"東京都","city":"渋谷区","address":"渋谷区千駄ヶ谷5-8-2","lat":35.681647,"lon":139.705038},{"name":"スタジオそら原宿","province":"東京都","city":"渋谷区","address":"渋谷区千駄ヶ谷3-51-6原宿MOA1階","lat":35.675037,"lon":139.706133},{"name":"渋谷区障害者福祉センター代々木の杜","province":"東京都","city":"渋谷区","address":"渋谷区代々木2-35-1","lat":35.684158,"lon":139.697725},{"name":"スタジオそら代々木公園","province":"東京都","city":"渋谷区","address":"渋谷区富ヶ谷一丁目2番1号","lat":35.670367,"lon":139.690043},{"name":"放課後等デイサービス　あいだっく","province":"東京都","city":"渋谷区","address":"渋谷区上原3-23-5オーガストハウス1階","lat":35.66427,"lon":139.676789},{"name":"デイサービスなかよし","province":"東京都","city":"渋谷区","address":"渋谷区西原2-36-7","lat":35.674441,"lon":139.675613},{"name":"児童発達支援・放課後等デイサービス　マリリン　スポーツ塾　初台","province":"東京都","city":"渋谷区","address":"渋谷区本町2-5-11三山ビル1階","lat":35.684004,"lon":139.683515},{"name":"Ａｒｔ＆Ｍｕｓｉｃ　豆庭　Ｍａｍｅ－Ｎｉｗａ","province":"東京都","city":"渋谷区","address":"渋谷区幡ヶ谷1-8-4リッツパラシオ202","lat":35.675572,"lon":139.672291},{"name":"渋谷区子ども家庭支援センター","province":"東京都","city":"渋谷区","address":"渋谷区神宮前3-18-33","lat":35.670937,"lon":139.709272},{"name":"渋谷区子ども家庭支援センター","province":"東京都","city":"渋谷区","address":"渋谷区宇田川町5-6","lat":35.66322,"lon":139.69783},{"name":"渋谷区子ども家庭支援センター","province":"東京都","city":"渋谷区","address":"渋谷区渋谷1-18-21","lat":35.662012,"lon":139.703662},{"name":"渋谷区子ども家庭支援センター","province":"東京都","city":"渋谷区","address":"渋谷区渋谷1-18-21","lat":35.66185,"lon":139.70392},{"name":"＊?渋谷男女平等・ダイバーシティセンター＜アイリス＞","province":"東京都","city":"渋谷区","address":"渋谷区桜丘町23-21","lat":35.655458,"lon":139.699965},{"name":"広尾てくてく","province":"東京都","city":"渋谷区","address":"渋谷区広尾四丁目2番12号","lat":35.655159,"lon":139.722279},{"name":"特別支援教育研究所　Ｗｉｓh","province":"東京都","city":"渋谷区","address":"渋谷区神泉町15-11","lat":35.657005,"lon":139.691963},{"name":"よよこ～クラブ","province":"東京都","city":"渋谷区","address":"渋谷区千駄ヶ谷5-8-2","lat":35.681647,"lon":139.705038},{"name":"スタジオそら原宿","province":"東京都","city":"渋谷区","address":"渋谷区千駄ヶ谷3-51-6原宿MOA1階","lat":35.675037,"lon":139.706133},{"name":"渋谷区障害者福祉センター代々木の杜","province":"東京都","city":"渋谷区","address":"渋谷区代々木2-35-1","lat":35.684158,"lon":139.697725},{"name":"スタジオそら代々木公園","province":"東京都","city":"渋谷区","address":"渋谷区富ヶ谷一丁目2番1号","lat":35.670367,"lon":139.690043},{"name":"放課後等デイサービス　あいだっく","province":"東京都","city":"渋谷区","address":"渋谷区上原3-23-5オーガストハウス1階","lat":35.66427,"lon":139.676789},{"name":"デイサービスなかよし","province":"東京都","city":"渋谷区","address":"渋谷区西原2-36-7","lat":35.674441,"lon":139.675613},{"name":"児童発達支援・放課後等デイサービス　マリリン　スポーツ塾　初台","province":"東京都","city":"渋谷区","address":"渋谷区本町2-5-11三山ビル1階","lat":35.684004,"lon":139.683515},{"name":"Ａｒｔ＆Ｍｕｓｉｃ　豆庭　Ｍａｍｅ－Ｎｉｗａ","province":"東京都","city":"渋谷区","address":"渋谷区幡ヶ谷1-8-4リッツパラシオ202","lat":35.675572,"lon":139.672291},{"name":"渋谷区子ども家庭支援センター","province":"東京都","city":"渋谷区","address":"渋谷区神宮前3-18-33","lat":35.670937,"lon":139.709272},{"name":"渋谷区子ども家庭支援センター","province":"東京都","city":"渋谷区","address":"渋谷区宇田川町5-6","lat":35.66322,"lon":139.69783},{"name":"渋谷区子ども家庭支援センター","province":"東京都","city":"渋谷区","address":"渋谷区渋谷1-18-21","lat":35.662012,"lon":139.703662},{"name":"渋谷区子ども家庭支援センター","province":"東京都","city":"渋谷区","address":"渋谷区渋谷1-18-21","lat":35.66185,"lon":139.70392},{"name":"＊?渋谷男女平等・ダイバーシティセンター＜アイリス＞","province":"東京都","city":"渋谷区","address":"渋谷区桜丘町23-21","lat":35.655458,"lon":139.699965},{"name":"広尾てくてく","province":"東京都","city":"渋谷区","address":"渋谷区広尾四丁目2番12号","lat":35.655159,"lon":139.722279},{"name":"特別支援教育研究所　Ｗｉｓh","province":"東京都","city":"渋谷区","address":"渋谷区神泉町15-11","lat":35.657005,"lon":139.691963},{"name":"よよこ～クラブ","province":"東京都","city":"渋谷区","address":"渋谷区千駄ヶ谷5-8-2","lat":35.681647,"lon":139.705038},{"name":"スタジオそら原宿","province":"東京都","city":"渋谷区","address":"渋谷区千駄ヶ谷3-51-6原宿MOA1階","lat":35.675037,"lon":139.706133},{"name":"渋谷区障害者福祉センター代々木の杜","province":"東京都","city":"渋谷区","address":"渋谷区代々木2-35-1","lat":35.684158,"lon":139.697725},{"name":"スタジオそら代々木公園","province":"東京都","city":"渋谷区","address":"渋谷区富ヶ谷一丁目2番1号","lat":35.670367,"lon":139.690043},{"name":"放課後等デイサービス　あいだっく","province":"東京都","city":"渋谷区","address":"渋谷区上原3-23-5オーガストハウス1階","lat":35.66427,"lon":139.676789},{"name":"デイサービスなかよし","province":"東京都","city":"渋谷区","address":"渋谷区西原2-36-7","lat":35.674441,"lon":139.675613},{"name":"児童発達支援・放課後等デイサービス　マリリン　スポーツ塾　初台","province":"東京都","city":"渋谷区","address":"渋谷区本町2-5-11三山ビル1階","lat":35.684004,"lon":139.683515},{"name":"Ａｒｔ＆Ｍｕｓｉｃ　豆庭　Ｍａｍｅ－Ｎｉｗａ","province":"東京都","city":"渋谷区","address":"渋谷区幡ヶ谷1-8-4リッツパラシオ202","lat":35.675572,"lon":139.672291},{"name":"渋谷区子ども家庭支援センター","province":"東京都","city":"渋谷区","address":"渋谷区神宮前3-18-33","lat":35.670937,"lon":139.709272},{"name":"渋谷区子ども家庭支援センター","province":"東京都","city":"渋谷区","address":"渋谷区宇田川町5-6","lat":35.66322,"lon":139.69783},{"name":"渋谷区子ども家庭支援センター","province":"東京都","city":"渋谷区","address":"渋谷区渋谷1-18-21","lat":35.662012,"lon":139.703662},{"name":"渋谷区子ども家庭支援センター","province":"東京都","city":"渋谷区","address":"渋谷区渋谷1-18-21","lat":35.66185,"lon":139.70392},{"name":"＊?渋谷男女平等・ダイバーシティセンター＜アイリス＞","province":"東京都","city":"渋谷区","address":"渋谷区桜丘町23-21","lat":35.655458,"lon":139.699965},{"name":"広尾てくてく","province":"東京都","city":"渋谷区","address":"渋谷区広尾四丁目2番12号","lat":35.655159,"lon":139.722279},{"name":"特別支援教育研究所　Ｗｉｓh","province":"東京都","city":"渋谷区","address":"渋谷区神泉町15-11","lat":35.657005,"lon":139.691963},{"name":"よよこ～クラブ","province":"東京都","city":"渋谷区","address":"渋谷区千駄ヶ谷5-8-2","lat":35.681647,"lon":139.705038},{"name":"スタジオそら原宿","province":"東京都","city":"渋谷区","address":"渋谷区千駄ヶ谷3-51-6原宿MOA1階","lat":35.675037,"lon":139.706133},{"name":"渋谷区障害者福祉センター代々木の杜","province":"東京都","city":"渋谷区","address":"渋谷区代々木2-35-1","lat":35.684158,"lon":139.697725},{"name":"スタジオそら代々木公園","province":"東京都","city":"渋谷区","address":"渋谷区富ヶ谷一丁目2番1号","lat":35.670367,"lon":139.690043},{"name":"放課後等デイサービス　あいだっく","province":"東京都","city":"渋谷区","address":"渋谷区上原3-23-5オーガストハウス1階","lat":35.66427,"lon":139.676789},{"name":"デイサービスなかよし","province":"東京都","city":"渋谷区","address":"渋谷区西原2-36-7","lat":35.674441,"lon":139.675613},{"name":"児童発達支援・放課後等デイサービス　マリリン　スポーツ塾　初台","province":"東京都","city":"渋谷区","address":"渋谷区本町2-5-11三山ビル1階","lat":35.684004,"lon":139.683515},{"name":"Ａｒｔ＆Ｍｕｓｉｃ　豆庭　Ｍａｍｅ－Ｎｉｗａ","province":"東京都","city":"渋谷区","address":"渋谷区幡ヶ谷1-8-4リッツパラシオ202","lat":35.675572,"lon":139.672291},{"name":"渋谷区子ども家庭支援センター","province":"東京都","city":"渋谷区","address":"渋谷区神宮前3-18-33","lat":35.670937,"lon":139.709272},{"name":"渋谷区子ども家庭支援センター","province":"東京都","city":"渋谷区","address":"渋谷区宇田川町5-6","lat":35.66322,"lon":139.69783},{"name":"渋谷区子ども家庭支援センター","province":"東京都","city":"渋谷区","address":"渋谷区渋谷1-18-21","lat":35.662012,"lon":139.703662},{"name":"渋谷区子ども家庭支援センター","province":"東京都","city":"渋谷区","address":"渋谷区渋谷1-18-21","lat":35.66185,"lon":139.70392},{"name":"＊?渋谷男女平等・ダイバーシティセンター＜アイリス＞","province":"東京都","city":"渋谷区","address":"渋谷区桜丘町23-21","lat":35.655458,"lon":139.699965},{"name":"広尾てくてく","province":"東京都","city":"渋谷区","address":"渋谷区広尾四丁目2番12号","lat":35.655159,"lon":139.722279},{"name":"特別支援教育研究所　Ｗｉｓh","province":"東京都","city":"渋谷区","address":"渋谷区神泉町15-11","lat":35.657005,"lon":139.691963},{"name":"よよこ～クラブ","province":"東京都","city":"渋谷区","address":"渋谷区千駄ヶ谷5-8-2","lat":35.681647,"lon":139.705038},{"name":"スタジオそら原宿","province":"東京都","city":"渋谷区","address":"渋谷区千駄ヶ谷3-51-6原宿MOA1階","lat":35.675037,"lon":139.706133},{"name":"渋谷区障害者福祉センター代々木の杜","province":"東京都","city":"渋谷区","address":"渋谷区代々木2-35-1","lat":35.684158,"lon":139.697725},{"name":"スタジオそら代々木公園","province":"東京都","city":"渋谷区","address":"渋谷区富ヶ谷一丁目2番1号","lat":35.670367,"lon":139.690043},{"name":"放課後等デイサービス　あいだっく","province":"東京都","city":"渋谷区","address":"渋谷区上原3-23-5オーガストハウス1階","lat":35.66427,"lon":139.676789},{"name":"デイサービスなかよし","province":"東京都","city":"渋谷区","address":"渋谷区西原2-36-7","lat":35.674441,"lon":139.675613},{"name":"児童発達支援・放課後等デイサービス　マリリン　スポーツ塾　初台","province":"東京都","city":"渋谷区","address":"渋谷区本町2-5-11三山ビル1階","lat":35.684004,"lon":139.683515},{"name":"Ａｒｔ＆Ｍｕｓｉｃ　豆庭　Ｍａｍｅ－Ｎｉｗａ","province":"東京都","city":"渋谷区","address":"渋谷区幡ヶ谷1-8-4リッツパラシオ202","lat":35.675572,"lon":139.672291},{"name":"渋谷区子ども家庭支援センター","province":"東京都","city":"渋谷区","address":"渋谷区神宮前3-18-33","lat":35.670937,"lon":139.709272},{"name":"渋谷区子ども家庭支援センター","province":"東京都","city":"渋谷区","address":"渋谷区宇田川町5-6","lat":35.66322,"lon":139.69783},{"name":"渋谷区子ども家庭支援センター","province":"東京都","city":"渋谷区","address":"渋谷区渋谷1-18-21","lat":35.662012,"lon":139.703662},{"name":"渋谷区子ども家庭支援センター","province":"東京都","city":"渋谷区","address":"渋谷区渋谷1-18-21","lat":35.66185,"lon":139.70392},{"name":"＊?渋谷男女平等・ダイバーシティセンター＜アイリス＞","province":"東京都","city":"渋谷区","address":"渋谷区桜丘町23-21","lat":35.655458,"lon":139.699965},{"name":"広尾てくてく","province":"東京都","city":"渋谷区","address":"渋谷区広尾四丁目2番12号","lat":35.655159,"lon":139.722279},{"name":"特別支援教育研究所　Ｗｉｓh","province":"東京都","city":"渋谷区","address":"渋谷区神泉町15-11","lat":35.657005,"lon":139.691963},{"name":"よよこ～クラブ","province":"東京都","city":"渋谷区","address":"渋谷区千駄ヶ谷5-8-2","lat":35.681647,"lon":139.705038},{"name":"スタジオそら原宿","province":"東京都","city":"渋谷区","address":"渋谷区千駄ヶ谷3-51-6原宿MOA1階","lat":35.675037,"lon":139.706133},{"name":"渋谷区障害者福祉センター代々木の杜","province":"東京都","city":"渋谷区","address":"渋谷区代々木2-35-1","lat":35.684158,"lon":139.697725},{"name":"スタジオそら代々木公園","province":"東京都","city":"渋谷区","address":"渋谷区富ヶ谷一丁目2番1号","lat":35.670367,"lon":139.690043},{"name":"放課後等デイサービス　あいだっく","province":"東京都","city":"渋谷区","address":"渋谷区上原3-23-5オーガストハウス1階","lat":35.66427,"lon":139.676789},{"name":"デイサービスなかよし","province":"東京都","city":"渋谷区","address":"渋谷区西原2-36-7","lat":35.674441,"lon":139.675613},{"name":"児童発達支援・放課後等デイサービス　マリリン　スポーツ塾　初台","province":"東京都","city":"渋谷区","address":"渋谷区本町2-5-11三山ビル1階","lat":35.684004,"lon":139.683515},{"name":"Ａｒｔ＆Ｍｕｓｉｃ　豆庭　Ｍａｍｅ－Ｎｉｗａ","province":"東京都","city":"渋谷区","address":"渋谷区幡ヶ谷1-8-4リッツパラシオ202","lat":35.675572,"lon":139.672291},{"name":"渋谷区子ども家庭支援センター","province":"東京都","city":"渋谷区","address":"渋谷区神宮前3-18-33","lat":35.670937,"lon":139.709272},{"name":"渋谷区子ども家庭支援センター","province":"東京都","city":"渋谷区","address":"渋谷区宇田川町5-6","lat":35.66322,"lon":139.69783},{"name":"渋谷区子ども家庭支援センター","province":"東京都","city":"渋谷区","address":"渋谷区渋谷1-18-21","lat":35.662012,"lon":139.703662},{"name":"渋谷区子ども家庭支援センター","province":"東京都","city":"渋谷区","address":"渋谷区渋谷1-18-21","lat":35.66185,"lon":139.70392},{"name":"＊?渋谷男女平等・ダイバーシティセンター＜アイリス＞","province":"東京都","city":"渋谷区","address":"渋谷区桜丘町23-21","lat":35.655458,"lon":139.699965},{"name":"広尾てくてく","province":"東京都","city":"渋谷区","address":"渋谷区広尾四丁目2番12号","lat":35.655159,"lon":139.722279},{"name":"特別支援教育研究所　Ｗｉｓh","province":"東京都","city":"渋谷区","address":"渋谷区神泉町15-11","lat":35.657005,"lon":139.691963},{"name":"よよこ～クラブ","province":"東京都","city":"渋谷区","address":"渋谷区千駄ヶ谷5-8-2","lat":35.681647,"lon":139.705038},{"name":"スタジオそら原宿","province":"東京都","city":"渋谷区","address":"渋谷区千駄ヶ谷3-51-6原宿MOA1階","lat":35.675037,"lon":139.706133},{"name":"渋谷区障害者福祉センター代々木の杜","province":"東京都","city":"渋谷区","address":"渋谷区代々木2-35-1","lat":35.684158,"lon":139.697725},{"name":"スタジオそら代々木公園","province":"東京都","city":"渋谷区","address":"渋谷区富ヶ谷一丁目2番1号","lat":35.670367,"lon":139.690043},{"name":"放課後等デイサービス　あいだっく","province":"東京都","city":"渋谷区","address":"渋谷区上原3-23-5オーガストハウス1階","lat":35.66427,"lon":139.676789},{"name":"デイサービスなかよし","province":"東京都","city":"渋谷区","address":"渋谷区西原2-36-7","lat":35.674441,"lon":139.675613},{"name":"児童発達支援・放課後等デイサービス　マリリン　スポーツ塾　初台","province":"東京都","city":"渋谷区","address":"渋谷区本町2-5-11三山ビル1階","lat":35.684004,"lon":139.683515},{"name":"Ａｒｔ＆Ｍｕｓｉｃ　豆庭　Ｍａｍｅ－Ｎｉｗａ","province":"東京都","city":"渋谷区","address":"渋谷区幡ヶ谷1-8-4リッツパラシオ202","lat":35.675572,"lon":139.672291},{"name":"渋谷区子ども家庭支援センター","province":"東京都","city":"渋谷区","address":"渋谷区神宮前3-18-33","lat":35.670937,"lon":139.709272},{"name":"渋谷区子ども家庭支援センター","province":"東京都","city":"渋谷区","address":"渋谷区宇田川町5-6","lat":35.66322,"lon":139.69783},{"name":"渋谷区子ども家庭支援センター","province":"東京都","city":"渋谷区","address":"渋谷区渋谷1-18-21","lat":35.662012,"lon":139.703662},{"name":"渋谷区子ども家庭支援センター","province":"東京都","city":"渋谷区","address":"渋谷区渋谷1-18-21","lat":35.66185,"lon":139.70392},{"name":"＊?渋谷男女平等・ダイバーシティセンター＜アイリス＞","province":"東京都","city":"渋谷区","address":"渋谷区桜丘町23-21","lat":35.655458,"lon":139.699965},{"name":"広尾てくてく","province":"東京都","city":"渋谷区","address":"渋谷区広尾四丁目2番12号","lat":35.655159,"lon":139.722279},{"name":"特別支援教育研究所　Ｗｉｓh","province":"東京都","city":"渋谷区","address":"渋谷区神泉町15-11","lat":35.657005,"lon":139.691963},{"name":"よよこ～クラブ","province":"東京都","city":"渋谷区","address":"渋谷区千駄ヶ谷5-8-2","lat":35.681647,"lon":139.705038},{"name":"スタジオそら原宿","province":"東京都","city":"渋谷区","address":"渋谷区千駄ヶ谷3-51-6原宿MOA1階","lat":35.675037,"lon":139.706133},{"name":"渋谷区障害者福祉センター代々木の杜","province":"東京都","city":"渋谷区","address":"渋谷区代々木2-35-1","lat":35.684158,"lon":139.697725},{"name":"スタジオそら代々木公園","province":"東京都","city":"渋谷区","address":"渋谷区富ヶ谷一丁目2番1号","lat":35.670367,"lon":139.690043},{"name":"放課後等デイサービス　あいだっく","province":"東京都","city":"渋谷区","address":"渋谷区上原3-23-5オーガストハウス1階","lat":35.66427,"lon":139.676789},{"name":"デイサービスなかよし","province":"東京都","city":"渋谷区","address":"渋谷区西原2-36-7","lat":35.674441,"lon":139.675613},{"name":"児童発達支援・放課後等デイサービス　マリリン　スポーツ塾　初台","province":"東京都","city":"渋谷区","address":"渋谷区本町2-5-11三山ビル1階","lat":35.684004,"lon":139.683515},{"name":"Ａｒｔ＆Ｍｕｓｉｃ　豆庭　Ｍａｍｅ－Ｎｉｗａ","province":"東京都","city":"渋谷区","address":"渋谷区幡ヶ谷1-8-4リッツパラシオ202","lat":35.675572,"lon":139.672291},{"name":"渋谷区子ども家庭支援センター","province":"東京都","city":"渋谷区","address":"渋谷区神宮前3-18-33","lat":35.670937,"lon":139.709272},{"name":"渋谷区子ども家庭支援センター","province":"東京都","city":"渋谷区","address":"渋谷区宇田川町5-6","lat":35.66322,"lon":139.69783},{"name":"渋谷区子ども家庭支援センター","province":"東京都","city":"渋谷区","address":"渋谷区渋谷1-18-21","lat":35.662012,"lon":139.703662},{"name":"渋谷区子ども家庭支援センター","province":"東京都","city":"渋谷区","address":"渋谷区渋谷1-18-21","lat":35.66185,"lon":139.70392},{"name":"＊?渋谷男女平等・ダイバーシティセンター＜アイリス＞","province":"東京都","city":"渋谷区","address":"渋谷区桜丘町23-21","lat":35.655458,"lon":139.699965},{"name":"広尾てくてく","province":"東京都","city":"渋谷区","address":"渋谷区広尾四丁目2番12号","lat":35.655159,"lon":139.722279},{"name":"特別支援教育研究所　Ｗｉｓh","province":"東京都","city":"渋谷区","address":"渋谷区神泉町15-11","lat":35.657005,"lon":139.691963},{"name":"よよこ～クラブ","province":"東京都","city":"渋谷区","address":"渋谷区千駄ヶ谷5-8-2","lat":35.681647,"lon":139.705038},{"name":"スタジオそら原宿","province":"東京都","city":"渋谷区","address":"渋谷区千駄ヶ谷3-51-6原宿MOA1階","lat":35.675037,"lon":139.706133},{"name":"渋谷区障害者福祉センター代々木の杜","province":"東京都","city":"渋谷区","address":"渋谷区代々木2-35-1","lat":35.684158,"lon":139.697725},{"name":"スタジオそら代々木公園","province":"東京都","city":"渋谷区","address":"渋谷区富ヶ谷一丁目2番1号","lat":35.670367,"lon":139.690043},{"name":"放課後等デイサービス　あいだっく","province":"東京都","city":"渋谷区","address":"渋谷区上原3-23-5オーガストハウス1階","lat":35.66427,"lon":139.676789},{"name":"デイサービスなかよし","province":"東京都","city":"渋谷区","address":"渋谷区西原2-36-7","lat":35.674441,"lon":139.675613},{"name":"児童発達支援・放課後等デイサービス　マリリン　スポーツ塾　初台","province":"東京都","city":"渋谷区","address":"渋谷区本町2-5-11三山ビル1階","lat":35.684004,"lon":139.683515},{"name":"Ａｒｔ＆Ｍｕｓｉｃ　豆庭　Ｍａｍｅ－Ｎｉｗａ","province":"東京都","city":"渋谷区","address":"渋谷区幡ヶ谷1-8-4リッツパラシオ202","lat":35.675572,"lon":139.672291},{"name":"渋谷区子ども家庭支援センター","province":"東京都","city":"渋谷区","address":"渋谷区神宮前3-18-33","lat":35.670937,"lon":139.709272},{"name":"渋谷区子ども家庭支援センター","province":"東京都","city":"渋谷区","address":"渋谷区宇田川町5-6","lat":35.66322,"lon":139.69783},{"name":"渋谷区子ども家庭支援センター","province":"東京都","city":"渋谷区","address":"渋谷区渋谷1-18-21","lat":35.662012,"lon":139.703662},{"name":"渋谷区子ども家庭支援センター","province":"東京都","city":"渋谷区","address":"渋谷区渋谷1-18-21","lat":35.66185,"lon":139.70392},{"name":"＊?渋谷男女平等・ダイバーシティセンター＜アイリス＞","province":"東京都","city":"渋谷区","address":"渋谷区桜丘町23-21","lat":35.655458,"lon":139.699965},{"name":"広尾てくてく","province":"東京都","city":"渋谷区","address":"渋谷区広尾四丁目2番12号","lat":35.655159,"lon":139.722279},{"name":"特別支援教育研究所　Ｗｉｓh","province":"東京都","city":"渋谷区","address":"渋谷区神泉町15-11","lat":35.657005,"lon":139.691963},{"name":"よよこ～クラブ","province":"東京都","city":"渋谷区","address":"渋谷区千駄ヶ谷5-8-2","lat":35.681647,"lon":139.705038},{"name":"スタジオそら原宿","province":"東京都","city":"渋谷区","address":"渋谷区千駄ヶ谷3-51-6原宿MOA1階","lat":35.675037,"lon":139.706133},{"name":"渋谷区障害者福祉センター代々木の杜","province":"東京都","city":"渋谷区","address":"渋谷区代々木2-35-1","lat":35.684158,"lon":139.697725},{"name":"スタジオそら代々木公園","province":"東京都","city":"渋谷区","address":"渋谷区富ヶ谷一丁目2番1号","lat":35.670367,"lon":139.690043},{"name":"放課後等デイサービス　あいだっく","province":"東京都","city":"渋谷区","address":"渋谷区上原3-23-5オーガストハウス1階","lat":35.66427,"lon":139.676789},{"name":"デイサービスなかよし","province":"東京都","city":"渋谷区","address":"渋谷区西原2-36-7","lat":35.674441,"lon":139.675613},{"name":"児童発達支援・放課後等デイサービス　マリリン　スポーツ塾　初台","province":"東京都","city":"渋谷区","address":"渋谷区本町2-5-11三山ビル1階","lat":35.684004,"lon":139.683515},{"name":"Ａｒｔ＆Ｍｕｓｉｃ　豆庭　Ｍａｍｅ－Ｎｉｗａ","province":"東京都","city":"渋谷区","address":"渋谷区幡ヶ谷1-8-4リッツパラシオ202","lat":35.675572,"lon":139.672291},{"name":"渋谷区子ども家庭支援センター","province":"東京都","city":"渋谷区","address":"渋谷区神宮前3-18-33","lat":35.670937,"lon":139.709272},{"name":"渋谷区子ども家庭支援センター","province":"東京都","city":"渋谷区","address":"渋谷区宇田川町5-6","lat":35.66322,"lon":139.69783},{"name":"渋谷区子ども家庭支援センター","province":"東京都","city":"渋谷区","address":"渋谷区渋谷1-18-21","lat":35.662012,"lon":139.703662},{"name":"渋谷区子ども家庭支援センター","province":"東京都","city":"渋谷区","address":"渋谷区渋谷1-18-21","lat":35.66185,"lon":139.70392},{"name":"＊?渋谷男女平等・ダイバーシティセンター＜アイリス＞","province":"東京都","city":"渋谷区","address":"渋谷区桜丘町23-21","lat":35.655458,"lon":139.699965},{"name":"広尾てくてく","province":"東京都","city":"渋谷区","address":"渋谷区広尾四丁目2番12号","lat":35.655159,"lon":139.722279},{"name":"特別支援教育研究所　Ｗｉｓh","province":"東京都","city":"渋谷区","address":"渋谷区神泉町15-11","lat":35.657005,"lon":139.691963},{"name":"よよこ～クラブ","province":"東京都","city":"渋谷区","address":"渋谷区千駄ヶ谷5-8-2","lat":35.681647,"lon":139.705038},{"name":"スタジオそら原宿","province":"東京都","city":"渋谷区","address":"渋谷区千駄ヶ谷3-51-6原宿MOA1階","lat":35.675037,"lon":139.706133},{"name":"渋谷区障害者福祉センター代々木の杜","province":"東京都","city":"渋谷区","address":"渋谷区代々木2-35-1","lat":35.684158,"lon":139.697725},{"name":"スタジオそら代々木公園","province":"東京都","city":"渋谷区","address":"渋谷区富ヶ谷一丁目2番1号","lat":35.670367,"lon":139.690043},{"name":"放課後等デイサービス　あいだっく","province":"東京都","city":"渋谷区","address":"渋谷区上原3-23-5オーガストハウス1階","lat":35.66427,"lon":139.676789},{"name":"デイサービスなかよし","province":"東京都","city":"渋谷区","address":"渋谷区西原2-36-7","lat":35.674441,"lon":139.675613},{"name":"児童発達支援・放課後等デイサービス　マリリン　スポーツ塾　初台","province":"東京都","city":"渋谷区","address":"渋谷区本町2-5-11三山ビル1階","lat":35.684004,"lon":139.683515},{"name":"Ａｒｔ＆Ｍｕｓｉｃ　豆庭　Ｍａｍｅ－Ｎｉｗａ","province":"東京都","city":"渋谷区","address":"渋谷区幡ヶ谷1-8-4リッツパラシオ202","lat":35.675572,"lon":139.672291},{"name":"渋谷区子ども家庭支援センター","province":"東京都","city":"渋谷区","address":"渋谷区神宮前3-18-33","lat":35.670937,"lon":139.709272},{"name":"渋谷区子ども家庭支援センター","province":"東京都","city":"渋谷区","address":"渋谷区宇田川町5-6","lat":35.66322,"lon":139.69783},{"name":"渋谷区子ども家庭支援センター","province":"東京都","city":"渋谷区","address":"渋谷区渋谷1-18-21","lat":35.662012,"lon":139.703662},{"name":"渋谷区子ども家庭支援センター","province":"東京都","city":"渋谷区","address":"渋谷区渋谷1-18-21","lat":35.66185,"lon":139.70392},{"name":"＊?渋谷男女平等・ダイバーシティセンター＜アイリス＞","province":"東京都","city":"渋谷区","address":"渋谷区桜丘町23-21","lat":35.655458,"lon":139.699965},{"name":"広尾てくてく","province":"東京都","city":"渋谷区","address":"渋谷区広尾四丁目2番12号","lat":35.655159,"lon":139.722279},{"name":"特別支援教育研究所　Ｗｉｓh","province":"東京都","city":"渋谷区","address":"渋谷区神泉町15-11","lat":35.657005,"lon":139.691963},{"name":"よよこ～クラブ","province":"東京都","city":"渋谷区","address":"渋谷区千駄ヶ谷5-8-2","lat":35.681647,"lon":139.705038},{"name":"スタジオそら原宿","province":"東京都","city":"渋谷区","address":"渋谷区千駄ヶ谷3-51-6原宿MOA1階","lat":35.675037,"lon":139.706133},{"name":"渋谷区障害者福祉センター代々木の杜","province":"東京都","city":"渋谷区","address":"渋谷区代々木2-35-1","lat":35.684158,"lon":139.697725},{"name":"スタジオそら代々木公園","province":"東京都","city":"渋谷区","address":"渋谷区富ヶ谷一丁目2番1号","lat":35.670367,"lon":139.690043},{"name":"放課後等デイサービス　あいだっく","province":"東京都","city":"渋谷区","address":"渋谷区上原3-23-5オーガストハウス1階","lat":35.66427,"lon":139.676789},{"name":"デイサービスなかよし","province":"東京都","city":"渋谷区","address":"渋谷区西原2-36-7","lat":35.674441,"lon":139.675613},{"name":"児童発達支援・放課後等デイサービス　マリリン　スポーツ塾　初台","province":"東京都","city":"渋谷区","address":"渋谷区本町2-5-11三山ビル1階","lat":35.684004,"lon":139.683515},{"name":"Ａｒｔ＆Ｍｕｓｉｃ　豆庭　Ｍａｍｅ－Ｎｉｗａ","province":"東京都","city":"渋谷区","address":"渋谷区幡ヶ谷1-8-4リッツパラシオ202","lat":35.675572,"lon":139.672291},{"name":"渋谷区子ども家庭支援センター","province":"東京都","city":"渋谷区","address":"渋谷区神宮前3-18-33","lat":35.670937,"lon":139.709272},{"name":"渋谷区子ども家庭支援センター","province":"東京都","city":"渋谷区","address":"渋谷区宇田川町5-6","lat":35.66322,"lon":139.69783},{"name":"渋谷区子ども家庭支援センター","province":"東京都","city":"渋谷区","address":"渋谷区渋谷1-18-21","lat":35.662012,"lon":139.703662},{"name":"渋谷区子ども家庭支援センター","province":"東京都","city":"渋谷区","address":"渋谷区渋谷1-18-21","lat":35.66185,"lon":139.70392},{"name":"＊?渋谷男女平等・ダイバーシティセンター＜アイリス＞","province":"東京都","city":"渋谷区","address":"渋谷区桜丘町23-21","lat":35.655458,"lon":139.699965},{"name":"広尾てくてく","province":"東京都","city":"渋谷区","address":"渋谷区広尾四丁目2番12号","lat":35.655159,"lon":139.722279},{"name":"特別支援教育研究所　Ｗｉｓh","province":"東京都","city":"渋谷区","address":"渋谷区神泉町15-11","lat":35.657005,"lon":139.691963},{"name":"よよこ～クラブ","province":"東京都","city":"渋谷区","address":"渋谷区千駄ヶ谷5-8-2","lat":35.681647,"lon":139.705038},{"name":"スタジオそら原宿","province":"東京都","city":"渋谷区","address":"渋谷区千駄ヶ谷3-51-6原宿MOA1階","lat":35.675037,"lon":139.706133},{"name":"渋谷区障害者福祉センター代々木の杜","province":"東京都","city":"渋谷区","address":"渋谷区代々木2-35-1","lat":35.684158,"lon":139.697725},{"name":"スタジオそら代々木公園","province":"東京都","city":"渋谷区","address":"渋谷区富ヶ谷一丁目2番1号","lat":35.670367,"lon":139.690043},{"name":"放課後等デイサービス　あいだっく","province":"東京都","city":"渋谷区","address":"渋谷区上原3-23-5オーガストハウス1階","lat":35.66427,"lon":139.676789},{"name":"デイサービスなかよし","province":"東京都","city":"渋谷区","address":"渋谷区西原2-36-7","lat":35.674441,"lon":139.675613},{"name":"児童発達支援・放課後等デイサービス　マリリン　スポーツ塾　初台","province":"東京都","city":"渋谷区","address":"渋谷区本町2-5-11三山ビル1階","lat":35.684004,"lon":139.683515},{"name":"Ａｒｔ＆Ｍｕｓｉｃ　豆庭　Ｍａｍｅ－Ｎｉｗａ","province":"東京都","city":"渋谷区","address":"渋谷区幡ヶ谷1-8-4リッツパラシオ202","lat":35.675572,"lon":139.672291},{"name":"渋谷区子ども家庭支援センター","province":"東京都","city":"渋谷区","address":"渋谷区神宮前3-18-33","lat":35.670937,"lon":139.709272},{"name":"渋谷区子ども家庭支援センター","province":"東京都","city":"渋谷区","address":"渋谷区宇田川町5-6","lat":35.66322,"lon":139.69783},{"name":"渋谷区子ども家庭支援センター","province":"東京都","city":"渋谷区","address":"渋谷区渋谷1-18-21","lat":35.662012,"lon":139.703662},{"name":"渋谷区子ども家庭支援センター","province":"東京都","city":"渋谷区","address":"渋谷区渋谷1-18-21","lat":35.66185,"lon":139.70392},{"name":"＊?渋谷男女平等・ダイバーシティセンター＜アイリス＞","province":"東京都","city":"渋谷区","address":"渋谷区桜丘町23-21","lat":35.655458,"lon":139.699965},{"name":"広尾てくてく","province":"東京都","city":"渋谷区","address":"渋谷区広尾四丁目2番12号","lat":35.655159,"lon":139.722279},{"name":"特別支援教育研究所　Ｗｉｓh","province":"東京都","city":"渋谷区","address":"渋谷区神泉町15-11","lat":35.657005,"lon":139.691963},{"name":"よよこ～クラブ","province":"東京都","city":"渋谷区","address":"渋谷区千駄ヶ谷5-8-2","lat":35.681647,"lon":139.705038},{"name":"スタジオそら原宿","province":"東京都","city":"渋谷区","address":"渋谷区千駄ヶ谷3-51-6原宿MOA1階","lat":35.675037,"lon":139.706133},{"name":"渋谷区障害者福祉センター代々木の杜","province":"東京都","city":"渋谷区","address":"渋谷区代々木2-35-1","lat":35.684158,"lon":139.697725},{"name":"スタジオそら代々木公園","province":"東京都","city":"渋谷区","address":"渋谷区富ヶ谷一丁目2番1号","lat":35.670367,"lon":139.690043},{"name":"放課後等デイサービス　あいだっく","province":"東京都","city":"渋谷区","address":"渋谷区上原3-23-5オーガストハウス1階","lat":35.66427,"lon":139.676789},{"name":"デイサービスなかよし","province":"東京都","city":"渋谷区","address":"渋谷区西原2-36-7","lat":35.674441,"lon":139.675613},{"name":"児童発達支援・放課後等デイサービス　マリリン　スポーツ塾　初台","province":"東京都","city":"渋谷区","address":"渋谷区本町2-5-11三山ビル1階","lat":35.684004,"lon":139.683515},{"name":"Ａｒｔ＆Ｍｕｓｉｃ　豆庭　Ｍａｍｅ－Ｎｉｗａ","province":"東京都","city":"渋谷区","address":"渋谷区幡ヶ谷1-8-4リッツパラシオ202","lat":35.675572,"lon":139.672291},{"name":"渋谷区子ども家庭支援センター","province":"東京都","city":"渋谷区","address":"渋谷区神宮前3-18-33","lat":35.670937,"lon":139.709272},{"name":"渋谷区子ども家庭支援センター","province":"東京都","city":"渋谷区","address":"渋谷区宇田川町5-6","lat":35.66322,"lon":139.69783},{"name":"渋谷区子ども家庭支援センター","province":"東京都","city":"渋谷区","address":"渋谷区渋谷1-18-21","lat":35.662012,"lon":139.703662},{"name":"渋谷区子ども家庭支援センター","province":"東京都","city":"渋谷区","address":"渋谷区渋谷1-18-21","lat":35.66185,"lon":139.70392},{"name":"＊?渋谷男女平等・ダイバーシティセンター＜アイリス＞","province":"東京都","city":"渋谷区","address":"渋谷区桜丘町23-21","lat":35.655458,"lon":139.699965},{"name":"広尾てくてく","province":"東京都","city":"渋谷区","address":"渋谷区広尾四丁目2番12号","lat":35.655159,"lon":139.722279},{"name":"特別支援教育研究所　Ｗｉｓh","province":"東京都","city":"渋谷区","address":"渋谷区神泉町15-11","lat":35.657005,"lon":139.691963},{"name":"よよこ～クラブ","province":"東京都","city":"渋谷区","address":"渋谷区千駄ヶ谷5-8-2","lat":35.681647,"lon":139.705038},{"name":"スタジオそら原宿","province":"東京都","city":"渋谷区","address":"渋谷区千駄ヶ谷3-51-6原宿MOA1階","lat":35.675037,"lon":139.706133},{"name":"渋谷区障害者福祉センター代々木の杜","province":"東京都","city":"渋谷区","address":"渋谷区代々木2-35-1","lat":35.684158,"lon":139.697725},{"name":"スタジオそら代々木公園","province":"東京都","city":"渋谷区","address":"渋谷区富ヶ谷一丁目2番1号","lat":35.670367,"lon":139.690043},{"name":"放課後等デイサービス　あいだっく","province":"東京都","city":"渋谷区","address":"渋谷区上原3-23-5オーガストハウス1階","lat":35.66427,"lon":139.676789},{"name":"デイサービスなかよし","province":"東京都","city":"渋谷区","address":"渋谷区西原2-36-7","lat":35.674441,"lon":139.675613},{"name":"児童発達支援・放課後等デイサービス　マリリン　スポーツ塾　初台","province":"東京都","city":"渋谷区","address":"渋谷区本町2-5-11三山ビル1階","lat":35.684004,"lon":139.683515},{"name":"Ａｒｔ＆Ｍｕｓｉｃ　豆庭　Ｍａｍｅ－Ｎｉｗａ","province":"東京都","city":"渋谷区","address":"渋谷区幡ヶ谷1-8-4リッツパラシオ202","lat":35.675572,"lon":139.672291},{"name":"渋谷区子ども家庭支援センター","province":"東京都","city":"渋谷区","address":"渋谷区神宮前3-18-33","lat":35.670937,"lon":139.709272},{"name":"渋谷区子ども家庭支援センター","province":"東京都","city":"渋谷区","address":"渋谷区宇田川町5-6","lat":35.66322,"lon":139.69783},{"name":"渋谷区子ども家庭支援センター","province":"東京都","city":"渋谷区","address":"渋谷区渋谷1-18-21","lat":35.662012,"lon":139.703662},{"name":"渋谷区子ども家庭支援センター","province":"東京都","city":"渋谷区","address":"渋谷区渋谷1-18-21","lat":35.66185,"lon":139.70392},{"name":"＊?渋谷男女平等・ダイバーシティセンター＜アイリス＞","province":"東京都","city":"渋谷区","address":"渋谷区桜丘町23-21","lat":35.655458,"lon":139.699965},{"name":"広尾てくてく","province":"東京都","city":"渋谷区","address":"渋谷区広尾四丁目2番12号","lat":35.655159,"lon":139.722279},{"name":"特別支援教育研究所　Ｗｉｓh","province":"東京都","city":"渋谷区","address":"渋谷区神泉町15-11","lat":35.657005,"lon":139.691963},{"name":"よよこ～クラブ","province":"東京都","city":"渋谷区","address":"渋谷区千駄ヶ谷5-8-2","lat":35.681647,"lon":139.705038},{"name":"スタジオそら原宿","province":"東京都","city":"渋谷区","address":"渋谷区千駄ヶ谷3-51-6原宿MOA1階","lat":35.675037,"lon":139.706133},{"name":"渋谷区障害者福祉センター代々木の杜","province":"東京都","city":"渋谷区","address":"渋谷区代々木2-35-1","lat":35.684158,"lon":139.697725},{"name":"スタジオそら代々木公園","province":"東京都","city":"渋谷区","address":"渋谷区富ヶ谷一丁目2番1号","lat":35.670367,"lon":139.690043},{"name":"放課後等デイサービス　あいだっく","province":"東京都","city":"渋谷区","address":"渋谷区上原3-23-5オーガストハウス1階","lat":35.66427,"lon":139.676789},{"name":"デイサービスなかよし","province":"東京都","city":"渋谷区","address":"渋谷区西原2-36-7","lat":35.674441,"lon":139.675613},{"name":"児童発達支援・放課後等デイサービス　マリリン　スポーツ塾　初台","province":"東京都","city":"渋谷区","address":"渋谷区本町2-5-11三山ビル1階","lat":35.684004,"lon":139.683515},{"name":"Ａｒｔ＆Ｍｕｓｉｃ　豆庭　Ｍａｍｅ－Ｎｉｗａ","province":"東京都","city":"渋谷区","address":"渋谷区幡ヶ谷1-8-4リッツパラシオ202","lat":35.675572,"lon":139.672291},{"name":"渋谷区子ども家庭支援センター","province":"東京都","city":"渋谷区","address":"渋谷区神宮前3-18-33","lat":35.670937,"lon":139.709272},{"name":"渋谷区子ども家庭支援センター","province":"東京都","city":"渋谷区","address":"渋谷区宇田川町5-6","lat":35.66322,"lon":139.69783},{"name":"渋谷区子ども家庭支援センター","province":"東京都","city":"渋谷区","address":"渋谷区渋谷1-18-21","lat":35.662012,"lon":139.703662},{"name":"渋谷区子ども家庭支援センター","province":"東京都","city":"渋谷区","address":"渋谷区渋谷1-18-21","lat":35.66185,"lon":139.70392},{"name":"＊?渋谷男女平等・ダイバーシティセンター＜アイリス＞","province":"東京都","city":"渋谷区","address":"渋谷区桜丘町23-21","lat":35.655458,"lon":139.699965},{"name":"広尾てくてく","province":"東京都","city":"渋谷区","address":"渋谷区広尾四丁目2番12号","lat":35.655159,"lon":139.722279},{"name":"特別支援教育研究所　Ｗｉｓh","province":"東京都","city":"渋谷区","address":"渋谷区神泉町15-11","lat":35.657005,"lon":139.691963},{"name":"よよこ～クラブ","province":"東京都","city":"渋谷区","address":"渋谷区千駄ヶ谷5-8-2","lat":35.681647,"lon":139.705038},{"name":"スタジオそら原宿","province":"東京都","city":"渋谷区","address":"渋谷区千駄ヶ谷3-51-6原宿MOA1階","lat":35.675037,"lon":139.706133},{"name":"渋谷区障害者福祉センター代々木の杜","province":"東京都","city":"渋谷区","address":"渋谷区代々木2-35-1","lat":35.684158,"lon":139.697725},{"name":"スタジオそら代々木公園","province":"東京都","city":"渋谷区","address":"渋谷区富ヶ谷一丁目2番1号","lat":35.670367,"lon":139.690043},{"name":"放課後等デイサービス　あいだっく","province":"東京都","city":"渋谷区","address":"渋谷区上原3-23-5オーガストハウス1階","lat":35.66427,"lon":139.676789},{"name":"デイサービスなかよし","province":"東京都","city":"渋谷区","address":"渋谷区西原2-36-7","lat":35.674441,"lon":139.675613},{"name":"児童発達支援・放課後等デイサービス　マリリン　スポーツ塾　初台","province":"東京都","city":"渋谷区","address":"渋谷区本町2-5-11三山ビル1階","lat":35.684004,"lon":139.683515},{"name":"Ａｒｔ＆Ｍｕｓｉｃ　豆庭　Ｍａｍｅ－Ｎｉｗａ","province":"東京都","city":"渋谷区","address":"渋谷区幡ヶ谷1-8-4リッツパラシオ202","lat":35.675572,"lon":139.672291},{"name":"渋谷区子ども家庭支援センター","province":"東京都","city":"渋谷区","address":"渋谷区神宮前3-18-33","lat":35.670937,"lon":139.709272},{"name":"渋谷区子ども家庭支援センター","province":"東京都","city":"渋谷区","address":"渋谷区宇田川町5-6","lat":35.66322,"lon":139.69783},{"name":"渋谷区子ども家庭支援センター","province":"東京都","city":"渋谷区","address":"渋谷区渋谷1-18-21","lat":35.662012,"lon":139.703662},{"name":"渋谷区子ども家庭支援センター","province":"東京都","city":"渋谷区","address":"渋谷区渋谷1-18-21","lat":35.66185,"lon":139.70392},{"name":"＊?渋谷男女平等・ダイバーシティセンター＜アイリス＞","province":"東京都","city":"渋谷区","address":"渋谷区桜丘町23-21","lat":35.655458,"lon":139.699965},{"name":"広尾てくてく","province":"東京都","city":"渋谷区","address":"渋谷区広尾四丁目2番12号","lat":35.655159,"lon":139.722279},{"name":"特別支援教育研究所　Ｗｉｓh","province":"東京都","city":"渋谷区","address":"渋谷区神泉町15-11","lat":35.657005,"lon":139.691963},{"name":"よよこ～クラブ","province":"東京都","city":"渋谷区","address":"渋谷区千駄ヶ谷5-8-2","lat":35.681647,"lon":139.705038},{"name":"スタジオそら原宿","province":"東京都","city":"渋谷区","address":"渋谷区千駄ヶ谷3-51-6原宿MOA1階","lat":35.675037,"lon":139.706133},{"name":"渋谷区障害者福祉センター代々木の杜","province":"東京都","city":"渋谷区","address":"渋谷区代々木2-35-1","lat":35.684158,"lon":139.697725},{"name":"スタジオそら代々木公園","province":"東京都","city":"渋谷区","address":"渋谷区富ヶ谷一丁目2番1号","lat":35.670367,"lon":139.690043},{"name":"放課後等デイサービス　あいだっく","province":"東京都","city":"渋谷区","address":"渋谷区上原3-23-5オーガストハウス1階","lat":35.66427,"lon":139.676789},{"name":"デイサービスなかよし","province":"東京都","city":"渋谷区","address":"渋谷区西原2-36-7","lat":35.674441,"lon":139.675613},{"name":"児童発達支援・放課後等デイサービス　マリリン　スポーツ塾　初台","province":"東京都","city":"渋谷区","address":"渋谷区本町2-5-11三山ビル1階","lat":35.684004,"lon":139.683515},{"name":"Ａｒｔ＆Ｍｕｓｉｃ　豆庭　Ｍａｍｅ－Ｎｉｗａ","province":"東京都","city":"渋谷区","address":"渋谷区幡ヶ谷1-8-4リッツパラシオ202","lat":35.675572,"lon":139.672291},{"name":"渋谷区子ども家庭支援センター","province":"東京都","city":"渋谷区","address":"渋谷区神宮前3-18-33","lat":35.670937,"lon":139.709272},{"name":"渋谷区子ども家庭支援センター","province":"東京都","city":"渋谷区","address":"渋谷区宇田川町5-6","lat":35.66322,"lon":139.69783},{"name":"渋谷区子ども家庭支援センター","province":"東京都","city":"渋谷区","address":"渋谷区渋谷1-18-21","lat":35.662012,"lon":139.703662},{"name":"渋谷区子ども家庭支援センター","province":"東京都","city":"渋谷区","address":"渋谷区渋谷1-18-21","lat":35.66185,"lon":139.70392},{"name":"＊?渋谷男女平等・ダイバーシティセンター＜アイリス＞","province":"東京都","city":"渋谷区","address":"渋谷区桜丘町23-21","lat":35.655458,"lon":139.699965}]}