{"keyword":"構築","data":[{"name":"道玄坂下","province":"東京都","city":"渋谷区","address":"東京都渋谷区道玄坂2丁目5-9","lat":35.65930764,"lon":139.69951185},{"name":"渋谷駅前","province":"東京都","city":"渋谷区","address":"東京都渋谷区道玄坂2丁目1-1","lat":35.65929935,"lon":139.70101727},{"name":"宮下公園前","province":"東京都","city":"渋谷区","address":"東京都渋谷区松濤1丁目16-4","lat":35.66192666,"lon":139.69347894},{"name":"恵比寿南","province":"東京都","city":"渋谷区","address":"東京都渋谷区恵比寿南2丁目1-12","lat":35.64606209,"lon":139.7073534},{"name":"道玄坂上交番前","province":"東京都","city":"渋谷区","address":"東京都渋谷区円山町3-6","lat":35.65751331,"lon":139.69552615},{"name":"恵比寿駅前","province":"東京都","city":"渋谷区","address":"東京都渋谷区恵比寿南1丁目5-5","lat":35.64671485,"lon":139.71033922},{"name":"神宮前六丁目","province":"東京都","city":"渋谷区","address":"東京都渋谷区神宮前6丁目19-15","lat":35.66342392,"lon":139.70241976},{"name":"渋谷二丁目","province":"東京都","city":"渋谷区","address":"東京都渋谷区渋谷2丁目12-11","lat":35.65866902,"lon":139.70836944},{"name":"恵比寿駅東口","province":"東京都","city":"渋谷区","address":"東京都渋谷区恵比寿1丁目11-5","lat":35.6463677,"lon":139.71171966},{"name":"南平台","province":"東京都","city":"渋谷区","address":"東京都渋谷区桜丘町31-11","lat":35.65596354,"lon":139.69766492},{"name":"神南郵便局前","province":"東京都","city":"渋谷区","address":"東京都渋谷区神南1丁目22-14","lat":35.66189351,"lon":139.7011005},{"name":"東交番前","province":"東京都","city":"渋谷区","address":"東京都渋谷区東1丁目27-10","lat":35.6539362,"lon":139.70767803},{"name":"勤労福祉会館前","province":"東京都","city":"渋谷区","address":"東京都渋谷区宇田川町15-1","lat":35.66204899,"lon":139.69893957},{"name":"庚申橋","province":"東京都","city":"渋谷区","address":"東京都渋谷区恵比寿3丁目16-2","lat":35.64395141,"lon":139.71834411},{"name":"美竹交番東","province":"東京都","city":"渋谷区","address":"東京都渋谷区渋谷1丁目17-8","lat":35.6611742,"lon":139.70405305},{"name":"井の頭通り入口","province":"東京都","city":"渋谷区","address":"東京都渋谷区神南1丁目22-3","lat":35.66045478,"lon":139.70097557},{"name":"東電電力館前","province":"東京都","city":"渋谷区","address":"東京都渋谷区神南1丁目9-2","lat":35.66376553,"lon":139.70139762},{"name":"恵比寿駅前第二","province":"東京都","city":"渋谷区","address":"東京都渋谷区恵比寿南1丁目1-1","lat":35.64674539,"lon":139.70893101},{"name":"渋谷駅南口第一","province":"東京都","city":"渋谷区","address":"東京都渋谷区道玄坂1丁目2","lat":35.65751342,"lon":139.70031463},{"name":"広尾病院前","province":"東京都","city":"渋谷区","address":"東京都渋谷区広尾5丁目25-8","lat":35.64769271,"lon":139.7218131},{"name":"渋谷警察署東","province":"東京都","city":"渋谷区","address":"東京都渋谷区渋谷3丁目6-2","lat":35.65791348,"lon":139.70497532},{"name":"道玄坂二丁目東","province":"東京都","city":"渋谷区","address":"東京都渋谷区道玄坂2丁目29-20","lat":35.65976312,"lon":139.69815917},{"name":"宇田川町","province":"東京都","city":"渋谷区","address":"東京都渋谷区宇田川町3-1","lat":35.66317942,"lon":139.69879787},{"name":"並木橋北","province":"東京都","city":"渋谷区","address":"東京都渋谷区神宮前3丁目17-15","lat":35.67080662,"lon":139.71041043},{"name":"千駄ヶ谷駅前","province":"東京都","city":"渋谷区","address":"東京都渋谷区千駄ヶ谷1丁目35-7","lat":35.68080274,"lon":139.71177658},{"name":"明治神宮北参道","province":"東京都","city":"渋谷区","address":"東京都渋谷区千駄ヶ谷4丁目5-14","lat":35.68006098,"lon":139.70440227},{"name":"明治神宮北参道第二","province":"東京都","city":"渋谷区","address":"東京都渋谷区千駄ヶ谷4丁目27-1","lat":35.68059702,"lon":139.70414671},{"name":"明治神宮北参道第三","province":"東京都","city":"渋谷区","address":"東京都渋谷区千駄ヶ谷4丁目6-15","lat":35.68016931,"lon":139.70479111},{"name":"代々木駅前","province":"東京都","city":"渋谷区","address":"東京都渋谷区代々木1丁目32-12","lat":35.68265784,"lon":139.70206903},{"name":"鳩森小学校西","province":"東京都","city":"渋谷区","address":"東京都渋谷区千駄ヶ谷5丁目21-8","lat":35.68257736,"lon":139.70438272},{"name":"原宿駅竹下口","province":"東京都","city":"渋谷区","address":"東京都渋谷区神宮前1丁目17-1","lat":35.67144526,"lon":139.70321104},{"name":"代々木一丁目","province":"東京都","city":"渋谷区","address":"東京都渋谷区代々木1丁目10-1","lat":35.68201616,"lon":139.69793887},{"name":"東郷神社前","province":"東京都","city":"渋谷区","address":"東京都渋谷区神宮前1丁目5-1","lat":35.67127038,"lon":139.70703849},{"name":"代々木駅前第二","province":"東京都","city":"渋谷区","address":"東京都渋谷区代々木1丁目36-6","lat":35.68364382,"lon":139.70138851},{"name":"東京体育館南","province":"東京都","city":"渋谷区","address":"東京都渋谷区千駄ヶ谷1丁目14","lat":35.67772254,"lon":139.71225999},{"name":"国立能楽堂前","province":"東京都","city":"渋谷区","address":"東京都渋谷区千駄ヶ谷4丁目20-3","lat":35.68101373,"lon":139.70756583},{"name":"神宮前四丁目","province":"東京都","city":"渋谷区","address":"東京都渋谷区神宮前4丁目3-6","lat":35.66638488,"lon":139.71060503},{"name":"神宮前小学校南","province":"東京都","city":"渋谷区","address":"東京都渋谷区神宮前5丁目8-2","lat":35.66692088,"lon":139.7079247},{"name":"はあとぴあ原宿入口","province":"東京都","city":"渋谷区","address":"東京都渋谷区神宮前2丁目17","lat":35.67260364,"lon":139.7104409},{"name":"代々木八幡前","province":"東京都","city":"渋谷区","address":"東京都渋谷区元代々木町31-10","lat":35.67183649,"lon":139.6873652},{"name":"笹塚出張所前","province":"東京都","city":"渋谷区","address":"東京都渋谷区笹塚2丁目49-4","lat":35.67733544,"lon":139.67008317},{"name":"社会教育館前","province":"東京都","city":"渋谷区","address":"東京都渋谷区幡ヶ谷2丁目52-3","lat":35.67969088,"lon":139.6765214},{"name":"富士見丘高等学校前","province":"東京都","city":"渋谷区","address":"東京都渋谷区笹塚2丁目42-16","lat":35.67644938,"lon":139.66769176},{"name":"青少年センター前","province":"東京都","city":"渋谷区","address":"東京都渋谷区代々木神園町3","lat":35.67875255,"lon":139.69443097},{"name":"代々木上原駅南","province":"東京都","city":"渋谷区","address":"東京都渋谷区上原1丁目30-8","lat":35.66845335,"lon":139.67939102},{"name":"渋谷区役所総合庁舎前","province":"東京都","city":"渋谷区","address":"東京都渋谷区神南1丁目6","lat":35.66423765,"lon":139.69958665},{"name":"西新宿三丁目","province":"東京都","city":"渋谷区","address":"東京都渋谷区代々木3丁目25-3","lat":35.68469625,"lon":139.69232259},{"name":"山種美術館","province":"東京都","city":"渋谷区","address":"渋谷区広尾3-12-36","lat":35.6533231,"lon":139.7138333},{"name":"都立代々木公園","province":"東京都","city":"渋谷区","address":"東京都渋谷区代々木神園町2-1","lat":35.67281151,"lon":139.69257026},{"name":"都立第一商業高等学校","province":"東京都","city":"渋谷区","address":"東京都渋谷区鉢山町8-1","lat":35.65016143,"lon":139.6985845},{"name":"区立景丘公園","province":"東京都","city":"渋谷区","address":"東京都渋谷区恵比寿4丁目19-21","lat":35.6437958,"lon":139.71358068},{"name":"渋谷警察署","province":"東京都","city":"渋谷区","address":"渋谷区渋谷3-8-15","lat":35.65779,"lon":139.7039},{"name":"原宿警察署","province":"東京都","city":"渋谷区","address":"渋谷区神宮前1-4-17","lat":35.67188,"lon":139.7074},{"name":"代々木警察署","province":"東京都","city":"渋谷区","address":"渋谷区本町1-11-3","lat":35.67985,"lon":139.6832},{"name":"第三方面訓練場","province":"東京都","city":"渋谷区","address":"渋谷区幡ヶ谷1-13","lat":35.67292,"lon":139.6717},{"name":"消防学校","province":"東京都","city":"渋谷区","address":"渋谷区西原2-51-1","lat":35.6723,"lon":139.6735},{"name":"渋谷消防署","province":"東京都","city":"渋谷区","address":"渋谷区神南1-8-3","lat":35.66434,"lon":139.7012},{"name":"渋谷区","province":"東京都","city":"渋谷区","address":"渋谷区東3-14-13","lat":35.650896,"lon":139.709739},{"name":"東京都赤十字血液センター渋谷供給出張所","province":"東京都","city":"渋谷区","address":"渋谷区鶯谷町2-16","lat":35.65398,"lon":139.7044},{"name":"都立代々木公園陸上競技場・サッカー場","province":"東京都","city":"渋谷区","address":"渋谷区代々木神園町地内","lat":35.6747,"lon":139.6934},{"name":"渋谷清掃工場","province":"東京都","city":"渋谷区","address":"渋谷区東1-35-1","lat":35.65326,"lon":139.7065},{"name":"都立広尾病院専用臨時ヘリポート","province":"東京都","city":"渋谷区","address":"渋谷区恵比寿2-34-10","lat":35.646638,"lon":139.721236},{"name":"日本赤十字社医療センターヘリポート","province":"東京都","city":"渋谷区","address":"渋谷区広尾4-1-22","lat":35.65444,"lon":139.717944},{"name":"道玄坂下","province":"東京都","city":"渋谷区","address":"東京都渋谷区道玄坂2丁目5-9","lat":35.65930764,"lon":139.69951185},{"name":"渋谷駅前","province":"東京都","city":"渋谷区","address":"東京都渋谷区道玄坂2丁目1-1","lat":35.65929935,"lon":139.70101727},{"name":"宮下公園前","province":"東京都","city":"渋谷区","address":"東京都渋谷区松濤1丁目16-4","lat":35.66192666,"lon":139.69347894},{"name":"恵比寿南","province":"東京都","city":"渋谷区","address":"東京都渋谷区恵比寿南2丁目1-12","lat":35.64606209,"lon":139.7073534},{"name":"道玄坂上交番前","province":"東京都","city":"渋谷区","address":"東京都渋谷区円山町3-6","lat":35.65751331,"lon":139.69552615},{"name":"恵比寿駅前","province":"東京都","city":"渋谷区","address":"東京都渋谷区恵比寿南1丁目5-5","lat":35.64671485,"lon":139.71033922},{"name":"神宮前六丁目","province":"東京都","city":"渋谷区","address":"東京都渋谷区神宮前6丁目19-15","lat":35.66342392,"lon":139.70241976},{"name":"渋谷二丁目","province":"東京都","city":"渋谷区","address":"東京都渋谷区渋谷2丁目12-11","lat":35.65866902,"lon":139.70836944},{"name":"恵比寿駅東口","province":"東京都","city":"渋谷区","address":"東京都渋谷区恵比寿1丁目11-5","lat":35.6463677,"lon":139.71171966},{"name":"南平台","province":"東京都","city":"渋谷区","address":"東京都渋谷区桜丘町31-11","lat":35.65596354,"lon":139.69766492},{"name":"神南郵便局前","province":"東京都","city":"渋谷区","address":"東京都渋谷区神南1丁目22-14","lat":35.66189351,"lon":139.7011005},{"name":"東交番前","province":"東京都","city":"渋谷区","address":"東京都渋谷区東1丁目27-10","lat":35.6539362,"lon":139.70767803},{"name":"勤労福祉会館前","province":"東京都","city":"渋谷区","address":"東京都渋谷区宇田川町15-1","lat":35.66204899,"lon":139.69893957},{"name":"庚申橋","province":"東京都","city":"渋谷区","address":"東京都渋谷区恵比寿3丁目16-2","lat":35.64395141,"lon":139.71834411},{"name":"美竹交番東","province":"東京都","city":"渋谷区","address":"東京都渋谷区渋谷1丁目17-8","lat":35.6611742,"lon":139.70405305},{"name":"井の頭通り入口","province":"東京都","city":"渋谷区","address":"東京都渋谷区神南1丁目22-3","lat":35.66045478,"lon":139.70097557},{"name":"東電電力館前","province":"東京都","city":"渋谷区","address":"東京都渋谷区神南1丁目9-2","lat":35.66376553,"lon":139.70139762},{"name":"恵比寿駅前第二","province":"東京都","city":"渋谷区","address":"東京都渋谷区恵比寿南1丁目1-1","lat":35.64674539,"lon":139.70893101},{"name":"渋谷駅南口第一","province":"東京都","city":"渋谷区","address":"東京都渋谷区道玄坂1丁目2","lat":35.65751342,"lon":139.70031463},{"name":"広尾病院前","province":"東京都","city":"渋谷区","address":"東京都渋谷区広尾5丁目25-8","lat":35.64769271,"lon":139.7218131},{"name":"渋谷警察署東","province":"東京都","city":"渋谷区","address":"東京都渋谷区渋谷3丁目6-2","lat":35.65791348,"lon":139.70497532},{"name":"道玄坂二丁目東","province":"東京都","city":"渋谷区","address":"東京都渋谷区道玄坂2丁目29-20","lat":35.65976312,"lon":139.69815917},{"name":"宇田川町","province":"東京都","city":"渋谷区","address":"東京都渋谷区宇田川町3-1","lat":35.66317942,"lon":139.69879787},{"name":"並木橋北","province":"東京都","city":"渋谷区","address":"東京都渋谷区神宮前3丁目17-15","lat":35.67080662,"lon":139.71041043},{"name":"千駄ヶ谷駅前","province":"東京都","city":"渋谷区","address":"東京都渋谷区千駄ヶ谷1丁目35-7","lat":35.68080274,"lon":139.71177658},{"name":"明治神宮北参道","province":"東京都","city":"渋谷区","address":"東京都渋谷区千駄ヶ谷4丁目5-14","lat":35.68006098,"lon":139.70440227},{"name":"明治神宮北参道第二","province":"東京都","city":"渋谷区","address":"東京都渋谷区千駄ヶ谷4丁目27-1","lat":35.68059702,"lon":139.70414671},{"name":"明治神宮北参道第三","province":"東京都","city":"渋谷区","address":"東京都渋谷区千駄ヶ谷4丁目6-15","lat":35.68016931,"lon":139.70479111},{"name":"代々木駅前","province":"東京都","city":"渋谷区","address":"東京都渋谷区代々木1丁目32-12","lat":35.68265784,"lon":139.70206903},{"name":"鳩森小学校西","province":"東京都","city":"渋谷区","address":"東京都渋谷区千駄ヶ谷5丁目21-8","lat":35.68257736,"lon":139.70438272},{"name":"原宿駅竹下口","province":"東京都","city":"渋谷区","address":"東京都渋谷区神宮前1丁目17-1","lat":35.67144526,"lon":139.70321104},{"name":"代々木一丁目","province":"東京都","city":"渋谷区","address":"東京都渋谷区代々木1丁目10-1","lat":35.68201616,"lon":139.69793887},{"name":"東郷神社前","province":"東京都","city":"渋谷区","address":"東京都渋谷区神宮前1丁目5-1","lat":35.67127038,"lon":139.70703849},{"name":"代々木駅前第二","province":"東京都","city":"渋谷区","address":"東京都渋谷区代々木1丁目36-6","lat":35.68364382,"lon":139.70138851},{"name":"東京体育館南","province":"東京都","city":"渋谷区","address":"東京都渋谷区千駄ヶ谷1丁目14","lat":35.67772254,"lon":139.71225999},{"name":"国立能楽堂前","province":"東京都","city":"渋谷区","address":"東京都渋谷区千駄ヶ谷4丁目20-3","lat":35.68101373,"lon":139.70756583},{"name":"神宮前四丁目","province":"東京都","city":"渋谷区","address":"東京都渋谷区神宮前4丁目3-6","lat":35.66638488,"lon":139.71060503},{"name":"神宮前小学校南","province":"東京都","city":"渋谷区","address":"東京都渋谷区神宮前5丁目8-2","lat":35.66692088,"lon":139.7079247},{"name":"はあとぴあ原宿入口","province":"東京都","city":"渋谷区","address":"東京都渋谷区神宮前2丁目17","lat":35.67260364,"lon":139.7104409},{"name":"代々木八幡前","province":"東京都","city":"渋谷区","address":"東京都渋谷区元代々木町31-10","lat":35.67183649,"lon":139.6873652},{"name":"笹塚出張所前","province":"東京都","city":"渋谷区","address":"東京都渋谷区笹塚2丁目49-4","lat":35.67733544,"lon":139.67008317},{"name":"社会教育館前","province":"東京都","city":"渋谷区","address":"東京都渋谷区幡ヶ谷2丁目52-3","lat":35.67969088,"lon":139.6765214},{"name":"富士見丘高等学校前","province":"東京都","city":"渋谷区","address":"東京都渋谷区笹塚2丁目42-16","lat":35.67644938,"lon":139.66769176},{"name":"青少年センター前","province":"東京都","city":"渋谷区","address":"東京都渋谷区代々木神園町3","lat":35.67875255,"lon":139.69443097},{"name":"代々木上原駅南","province":"東京都","city":"渋谷区","address":"東京都渋谷区上原1丁目30-8","lat":35.66845335,"lon":139.67939102},{"name":"渋谷区役所総合庁舎前","province":"東京都","city":"渋谷区","address":"東京都渋谷区神南1丁目6","lat":35.66423765,"lon":139.69958665},{"name":"西新宿三丁目","province":"東京都","city":"渋谷区","address":"東京都渋谷区代々木3丁目25-3","lat":35.68469625,"lon":139.69232259},{"name":"山種美術館","province":"東京都","city":"渋谷区","address":"渋谷区広尾3-12-36","lat":35.6533231,"lon":139.7138333},{"name":"都立代々木公園","province":"東京都","city":"渋谷区","address":"東京都渋谷区代々木神園町2-1","lat":35.67281151,"lon":139.69257026},{"name":"都立第一商業高等学校","province":"東京都","city":"渋谷区","address":"東京都渋谷区鉢山町8-1","lat":35.65016143,"lon":139.6985845},{"name":"区立景丘公園","province":"東京都","city":"渋谷区","address":"東京都渋谷区恵比寿4丁目19-21","lat":35.6437958,"lon":139.71358068},{"name":"渋谷警察署","province":"東京都","city":"渋谷区","address":"渋谷区渋谷3-8-15","lat":35.65779,"lon":139.7039},{"name":"原宿警察署","province":"東京都","city":"渋谷区","address":"渋谷区神宮前1-4-17","lat":35.67188,"lon":139.7074},{"name":"代々木警察署","province":"東京都","city":"渋谷区","address":"渋谷区本町1-11-3","lat":35.67985,"lon":139.6832},{"name":"第三方面訓練場","province":"東京都","city":"渋谷区","address":"渋谷区幡ヶ谷1-13","lat":35.67292,"lon":139.6717},{"name":"消防学校","province":"東京都","city":"渋谷区","address":"渋谷区西原2-51-1","lat":35.6723,"lon":139.6735},{"name":"渋谷消防署","province":"東京都","city":"渋谷区","address":"渋谷区神南1-8-3","lat":35.66434,"lon":139.7012},{"name":"渋谷区","province":"東京都","city":"渋谷区","address":"渋谷区東3-14-13","lat":35.650896,"lon":139.709739},{"name":"東京都赤十字血液センター渋谷供給出張所","province":"東京都","city":"渋谷区","address":"渋谷区鶯谷町2-16","lat":35.65398,"lon":139.7044},{"name":"道玄坂下","province":"東京都","city":"渋谷区","address":"東京都渋谷区道玄坂2丁目5-9","lat":35.65930764,"lon":139.69951185},{"name":"渋谷駅前","province":"東京都","city":"渋谷区","address":"東京都渋谷区道玄坂2丁目1-1","lat":35.65929935,"lon":139.70101727},{"name":"宮下公園前","province":"東京都","city":"渋谷区","address":"東京都渋谷区松濤1丁目16-4","lat":35.66192666,"lon":139.69347894},{"name":"恵比寿南","province":"東京都","city":"渋谷区","address":"東京都渋谷区恵比寿南2丁目1-12","lat":35.64606209,"lon":139.7073534},{"name":"道玄坂上交番前","province":"東京都","city":"渋谷区","address":"東京都渋谷区円山町3-6","lat":35.65751331,"lon":139.69552615},{"name":"恵比寿駅前","province":"東京都","city":"渋谷区","address":"東京都渋谷区恵比寿南1丁目5-5","lat":35.64671485,"lon":139.71033922},{"name":"神宮前六丁目","province":"東京都","city":"渋谷区","address":"東京都渋谷区神宮前6丁目19-15","lat":35.66342392,"lon":139.70241976},{"name":"渋谷二丁目","province":"東京都","city":"渋谷区","address":"東京都渋谷区渋谷2丁目12-11","lat":35.65866902,"lon":139.70836944},{"name":"恵比寿駅東口","province":"東京都","city":"渋谷区","address":"東京都渋谷区恵比寿1丁目11-5","lat":35.6463677,"lon":139.71171966},{"name":"南平台","province":"東京都","city":"渋谷区","address":"東京都渋谷区桜丘町31-11","lat":35.65596354,"lon":139.69766492},{"name":"神南郵便局前","province":"東京都","city":"渋谷区","address":"東京都渋谷区神南1丁目22-14","lat":35.66189351,"lon":139.7011005},{"name":"東交番前","province":"東京都","city":"渋谷区","address":"東京都渋谷区東1丁目27-10","lat":35.6539362,"lon":139.70767803},{"name":"勤労福祉会館前","province":"東京都","city":"渋谷区","address":"東京都渋谷区宇田川町15-1","lat":35.66204899,"lon":139.69893957},{"name":"庚申橋","province":"東京都","city":"渋谷区","address":"東京都渋谷区恵比寿3丁目16-2","lat":35.64395141,"lon":139.71834411},{"name":"美竹交番東","province":"東京都","city":"渋谷区","address":"東京都渋谷区渋谷1丁目17-8","lat":35.6611742,"lon":139.70405305},{"name":"井の頭通り入口","province":"東京都","city":"渋谷区","address":"東京都渋谷区神南1丁目22-3","lat":35.66045478,"lon":139.70097557},{"name":"東電電力館前","province":"東京都","city":"渋谷区","address":"東京都渋谷区神南1丁目9-2","lat":35.66376553,"lon":139.70139762},{"name":"恵比寿駅前第二","province":"東京都","city":"渋谷区","address":"東京都渋谷区恵比寿南1丁目1-1","lat":35.64674539,"lon":139.70893101},{"name":"渋谷駅南口第一","province":"東京都","city":"渋谷区","address":"東京都渋谷区道玄坂1丁目2","lat":35.65751342,"lon":139.70031463},{"name":"広尾病院前","province":"東京都","city":"渋谷区","address":"東京都渋谷区広尾5丁目25-8","lat":35.64769271,"lon":139.7218131},{"name":"渋谷警察署東","province":"東京都","city":"渋谷区","address":"東京都渋谷区渋谷3丁目6-2","lat":35.65791348,"lon":139.70497532},{"name":"道玄坂二丁目東","province":"東京都","city":"渋谷区","address":"東京都渋谷区道玄坂2丁目29-20","lat":35.65976312,"lon":139.69815917},{"name":"宇田川町","province":"東京都","city":"渋谷区","address":"東京都渋谷区宇田川町3-1","lat":35.66317942,"lon":139.69879787},{"name":"並木橋北","province":"東京都","city":"渋谷区","address":"東京都渋谷区神宮前3丁目17-15","lat":35.67080662,"lon":139.71041043},{"name":"千駄ヶ谷駅前","province":"東京都","city":"渋谷区","address":"東京都渋谷区千駄ヶ谷1丁目35-7","lat":35.68080274,"lon":139.71177658},{"name":"明治神宮北参道","province":"東京都","city":"渋谷区","address":"東京都渋谷区千駄ヶ谷4丁目5-14","lat":35.68006098,"lon":139.70440227},{"name":"明治神宮北参道第二","province":"東京都","city":"渋谷区","address":"東京都渋谷区千駄ヶ谷4丁目27-1","lat":35.68059702,"lon":139.70414671},{"name":"明治神宮北参道第三","province":"東京都","city":"渋谷区","address":"東京都渋谷区千駄ヶ谷4丁目6-15","lat":35.68016931,"lon":139.70479111},{"name":"代々木駅前","province":"東京都","city":"渋谷区","address":"東京都渋谷区代々木1丁目32-12","lat":35.68265784,"lon":139.70206903},{"name":"鳩森小学校西","province":"東京都","city":"渋谷区","address":"東京都渋谷区千駄ヶ谷5丁目21-8","lat":35.68257736,"lon":139.70438272},{"name":"原宿駅竹下口","province":"東京都","city":"渋谷区","address":"東京都渋谷区神宮前1丁目17-1","lat":35.67144526,"lon":139.70321104},{"name":"代々木一丁目","province":"東京都","city":"渋谷区","address":"東京都渋谷区代々木1丁目10-1","lat":35.68201616,"lon":139.69793887},{"name":"東郷神社前","province":"東京都","city":"渋谷区","address":"東京都渋谷区神宮前1丁目5-1","lat":35.67127038,"lon":139.70703849},{"name":"代々木駅前第二","province":"東京都","city":"渋谷区","address":"東京都渋谷区代々木1丁目36-6","lat":35.68364382,"lon":139.70138851},{"name":"東京体育館南","province":"東京都","city":"渋谷区","address":"東京都渋谷区千駄ヶ谷1丁目14","lat":35.67772254,"lon":139.71225999},{"name":"国立能楽堂前","province":"東京都","city":"渋谷区","address":"東京都渋谷区千駄ヶ谷4丁目20-3","lat":35.68101373,"lon":139.70756583},{"name":"神宮前四丁目","province":"東京都","city":"渋谷区","address":"東京都渋谷区神宮前4丁目3-6","lat":35.66638488,"lon":139.71060503},{"name":"神宮前小学校南","province":"東京都","city":"渋谷区","address":"東京都渋谷区神宮前5丁目8-2","lat":35.66692088,"lon":139.7079247},{"name":"はあとぴあ原宿入口","province":"東京都","city":"渋谷区","address":"東京都渋谷区神宮前2丁目17","lat":35.67260364,"lon":139.7104409},{"name":"代々木八幡前","province":"東京都","city":"渋谷区","address":"東京都渋谷区元代々木町31-10","lat":35.67183649,"lon":139.6873652},{"name":"笹塚出張所前","province":"東京都","city":"渋谷区","address":"東京都渋谷区笹塚2丁目49-4","lat":35.67733544,"lon":139.67008317},{"name":"社会教育館前","province":"東京都","city":"渋谷区","address":"東京都渋谷区幡ヶ谷2丁目52-3","lat":35.67969088,"lon":139.6765214},{"name":"富士見丘高等学校前","province":"東京都","city":"渋谷区","address":"東京都渋谷区笹塚2丁目42-16","lat":35.67644938,"lon":139.66769176},{"name":"青少年センター前","province":"東京都","city":"渋谷区","address":"東京都渋谷区代々木神園町3","lat":35.67875255,"lon":139.69443097},{"name":"代々木上原駅南","province":"東京都","city":"渋谷区","address":"東京都渋谷区上原1丁目30-8","lat":35.66845335,"lon":139.67939102},{"name":"渋谷区役所総合庁舎前","province":"東京都","city":"渋谷区","address":"東京都渋谷区神南1丁目6","lat":35.66423765,"lon":139.69958665},{"name":"西新宿三丁目","province":"東京都","city":"渋谷区","address":"東京都渋谷区代々木3丁目25-3","lat":35.68469625,"lon":139.69232259},{"name":"山種美術館","province":"東京都","city":"渋谷区","address":"渋谷区広尾3-12-36","lat":35.6533231,"lon":139.7138333},{"name":"都立代々木公園","province":"東京都","city":"渋谷区","address":"東京都渋谷区代々木神園町2-1","lat":35.67281151,"lon":139.69257026},{"name":"都立第一商業高等学校","province":"東京都","city":"渋谷区","address":"東京都渋谷区鉢山町8-1","lat":35.65016143,"lon":139.6985845},{"name":"区立景丘公園","province":"東京都","city":"渋谷区","address":"東京都渋谷区恵比寿4丁目19-21","lat":35.6437958,"lon":139.71358068},{"name":"渋谷警察署","province":"東京都","city":"渋谷区","address":"渋谷区渋谷3-8-15","lat":35.65779,"lon":139.7039},{"name":"原宿警察署","province":"東京都","city":"渋谷区","address":"渋谷区神宮前1-4-17","lat":35.67188,"lon":139.7074},{"name":"代々木警察署","province":"東京都","city":"渋谷区","address":"渋谷区本町1-11-3","lat":35.67985,"lon":139.6832},{"name":"第三方面訓練場","province":"東京都","city":"渋谷区","address":"渋谷区幡ヶ谷1-13","lat":35.67292,"lon":139.6717},{"name":"消防学校","province":"東京都","city":"渋谷区","address":"渋谷区西原2-51-1","lat":35.6723,"lon":139.6735},{"name":"渋谷消防署","province":"東京都","city":"渋谷区","address":"渋谷区神南1-8-3","lat":35.66434,"lon":139.7012},{"name":"渋谷区","province":"東京都","city":"渋谷区","address":"渋谷区東3-14-13","lat":35.650896,"lon":139.709739},{"name":"東京都赤十字血液センター渋谷供給出張所","province":"東京都","city":"渋谷区","address":"渋谷区鶯谷町2-16","lat":35.65398,"lon":139.7044},{"name":"道玄坂下","province":"東京都","city":"渋谷区","address":"東京都渋谷区道玄坂2丁目5-9","lat":35.65930764,"lon":139.69951185},{"name":"渋谷駅前","province":"東京都","city":"渋谷区","address":"東京都渋谷区道玄坂2丁目1-1","lat":35.65929935,"lon":139.70101727},{"name":"宮下公園前","province":"東京都","city":"渋谷区","address":"東京都渋谷区松濤1丁目16-4","lat":35.66192666,"lon":139.69347894},{"name":"恵比寿南","province":"東京都","city":"渋谷区","address":"東京都渋谷区恵比寿南2丁目1-12","lat":35.64606209,"lon":139.7073534},{"name":"道玄坂上交番前","province":"東京都","city":"渋谷区","address":"東京都渋谷区円山町3-6","lat":35.65751331,"lon":139.69552615},{"name":"恵比寿駅前","province":"東京都","city":"渋谷区","address":"東京都渋谷区恵比寿南1丁目5-5","lat":35.64671485,"lon":139.71033922},{"name":"神宮前六丁目","province":"東京都","city":"渋谷区","address":"東京都渋谷区神宮前6丁目19-15","lat":35.66342392,"lon":139.70241976},{"name":"渋谷二丁目","province":"東京都","city":"渋谷区","address":"東京都渋谷区渋谷2丁目12-11","lat":35.65866902,"lon":139.70836944},{"name":"恵比寿駅東口","province":"東京都","city":"渋谷区","address":"東京都渋谷区恵比寿1丁目11-5","lat":35.6463677,"lon":139.71171966},{"name":"南平台","province":"東京都","city":"渋谷区","address":"東京都渋谷区桜丘町31-11","lat":35.65596354,"lon":139.69766492},{"name":"神南郵便局前","province":"東京都","city":"渋谷区","address":"東京都渋谷区神南1丁目22-14","lat":35.66189351,"lon":139.7011005},{"name":"東交番前","province":"東京都","city":"渋谷区","address":"東京都渋谷区東1丁目27-10","lat":35.6539362,"lon":139.70767803},{"name":"勤労福祉会館前","province":"東京都","city":"渋谷区","address":"東京都渋谷区宇田川町15-1","lat":35.66204899,"lon":139.69893957},{"name":"庚申橋","province":"東京都","city":"渋谷区","address":"東京都渋谷区恵比寿3丁目16-2","lat":35.64395141,"lon":139.71834411},{"name":"美竹交番東","province":"東京都","city":"渋谷区","address":"東京都渋谷区渋谷1丁目17-8","lat":35.6611742,"lon":139.70405305},{"name":"井の頭通り入口","province":"東京都","city":"渋谷区","address":"東京都渋谷区神南1丁目22-3","lat":35.66045478,"lon":139.70097557},{"name":"東電電力館前","province":"東京都","city":"渋谷区","address":"東京都渋谷区神南1丁目9-2","lat":35.66376553,"lon":139.70139762},{"name":"恵比寿駅前第二","province":"東京都","city":"渋谷区","address":"東京都渋谷区恵比寿南1丁目1-1","lat":35.64674539,"lon":139.70893101},{"name":"渋谷駅南口第一","province":"東京都","city":"渋谷区","address":"東京都渋谷区道玄坂1丁目2","lat":35.65751342,"lon":139.70031463},{"name":"広尾病院前","province":"東京都","city":"渋谷区","address":"東京都渋谷区広尾5丁目25-8","lat":35.64769271,"lon":139.7218131},{"name":"渋谷警察署東","province":"東京都","city":"渋谷区","address":"東京都渋谷区渋谷3丁目6-2","lat":35.65791348,"lon":139.70497532},{"name":"道玄坂二丁目東","province":"東京都","city":"渋谷区","address":"東京都渋谷区道玄坂2丁目29-20","lat":35.65976312,"lon":139.69815917},{"name":"宇田川町","province":"東京都","city":"渋谷区","address":"東京都渋谷区宇田川町3-1","lat":35.66317942,"lon":139.69879787},{"name":"並木橋北","province":"東京都","city":"渋谷区","address":"東京都渋谷区神宮前3丁目17-15","lat":35.67080662,"lon":139.71041043},{"name":"千駄ヶ谷駅前","province":"東京都","city":"渋谷区","address":"東京都渋谷区千駄ヶ谷1丁目35-7","lat":35.68080274,"lon":139.71177658},{"name":"明治神宮北参道","province":"東京都","city":"渋谷区","address":"東京都渋谷区千駄ヶ谷4丁目5-14","lat":35.68006098,"lon":139.70440227},{"name":"明治神宮北参道第二","province":"東京都","city":"渋谷区","address":"東京都渋谷区千駄ヶ谷4丁目27-1","lat":35.68059702,"lon":139.70414671},{"name":"明治神宮北参道第三","province":"東京都","city":"渋谷区","address":"東京都渋谷区千駄ヶ谷4丁目6-15","lat":35.68016931,"lon":139.70479111},{"name":"代々木駅前","province":"東京都","city":"渋谷区","address":"東京都渋谷区代々木1丁目32-12","lat":35.68265784,"lon":139.70206903},{"name":"鳩森小学校西","province":"東京都","city":"渋谷区","address":"東京都渋谷区千駄ヶ谷5丁目21-8","lat":35.68257736,"lon":139.70438272},{"name":"原宿駅竹下口","province":"東京都","city":"渋谷区","address":"東京都渋谷区神宮前1丁目17-1","lat":35.67144526,"lon":139.70321104},{"name":"代々木一丁目","province":"東京都","city":"渋谷区","address":"東京都渋谷区代々木1丁目10-1","lat":35.68201616,"lon":139.69793887},{"name":"東郷神社前","province":"東京都","city":"渋谷区","address":"東京都渋谷区神宮前1丁目5-1","lat":35.67127038,"lon":139.70703849},{"name":"代々木駅前第二","province":"東京都","city":"渋谷区","address":"東京都渋谷区代々木1丁目36-6","lat":35.68364382,"lon":139.70138851},{"name":"東京体育館南","province":"東京都","city":"渋谷区","address":"東京都渋谷区千駄ヶ谷1丁目14","lat":35.67772254,"lon":139.71225999},{"name":"国立能楽堂前","province":"東京都","city":"渋谷区","address":"東京都渋谷区千駄ヶ谷4丁目20-3","lat":35.68101373,"lon":139.70756583},{"name":"神宮前四丁目","province":"東京都","city":"渋谷区","address":"東京都渋谷区神宮前4丁目3-6","lat":35.66638488,"lon":139.71060503},{"name":"神宮前小学校南","province":"東京都","city":"渋谷区","address":"東京都渋谷区神宮前5丁目8-2","lat":35.66692088,"lon":139.7079247},{"name":"はあとぴあ原宿入口","province":"東京都","city":"渋谷区","address":"東京都渋谷区神宮前2丁目17","lat":35.67260364,"lon":139.7104409},{"name":"代々木八幡前","province":"東京都","city":"渋谷区","address":"東京都渋谷区元代々木町31-10","lat":35.67183649,"lon":139.6873652},{"name":"笹塚出張所前","province":"東京都","city":"渋谷区","address":"東京都渋谷区笹塚2丁目49-4","lat":35.67733544,"lon":139.67008317},{"name":"社会教育館前","province":"東京都","city":"渋谷区","address":"東京都渋谷区幡ヶ谷2丁目52-3","lat":35.67969088,"lon":139.6765214},{"name":"富士見丘高等学校前","province":"東京都","city":"渋谷区","address":"東京都渋谷区笹塚2丁目42-16","lat":35.67644938,"lon":139.66769176},{"name":"青少年センター前","province":"東京都","city":"渋谷区","address":"東京都渋谷区代々木神園町3","lat":35.67875255,"lon":139.69443097},{"name":"代々木上原駅南","province":"東京都","city":"渋谷区","address":"東京都渋谷区上原1丁目30-8","lat":35.66845335,"lon":139.67939102},{"name":"渋谷区役所総合庁舎前","province":"東京都","city":"渋谷区","address":"東京都渋谷区神南1丁目6","lat":35.66423765,"lon":139.69958665},{"name":"西新宿三丁目","province":"東京都","city":"渋谷区","address":"東京都渋谷区代々木3丁目25-3","lat":35.68469625,"lon":139.69232259},{"name":"山種美術館","province":"東京都","city":"渋谷区","address":"渋谷区広尾3-12-36","lat":35.6533231,"lon":139.7138333},{"name":"都立代々木公園","province":"東京都","city":"渋谷区","address":"東京都渋谷区代々木神園町2-1","lat":35.67281151,"lon":139.69257026},{"name":"都立第一商業高等学校","province":"東京都","city":"渋谷区","address":"東京都渋谷区鉢山町8-1","lat":35.65016143,"lon":139.6985845},{"name":"区立景丘公園","province":"東京都","city":"渋谷区","address":"東京都渋谷区恵比寿4丁目19-21","lat":35.6437958,"lon":139.71358068},{"name":"渋谷警察署","province":"東京都","city":"渋谷区","address":"渋谷区渋谷3-8-15","lat":35.65779,"lon":139.7039},{"name":"原宿警察署","province":"東京都","city":"渋谷区","address":"渋谷区神宮前1-4-17","lat":35.67188,"lon":139.7074},{"name":"代々木警察署","province":"東京都","city":"渋谷区","address":"渋谷区本町1-11-3","lat":35.67985,"lon":139.6832},{"name":"第三方面訓練場","province":"東京都","city":"渋谷区","address":"渋谷区幡ヶ谷1-13","lat":35.67292,"lon":139.6717},{"name":"消防学校","province":"東京都","city":"渋谷区","address":"渋谷区西原2-51-1","lat":35.6723,"lon":139.6735},{"name":"渋谷消防署","province":"東京都","city":"渋谷区","address":"渋谷区神南1-8-3","lat":35.66434,"lon":139.7012},{"name":"渋谷区","province":"東京都","city":"渋谷区","address":"渋谷区東3-14-13","lat":35.650896,"lon":139.709739},{"name":"東京都赤十字血液センター渋谷供給出張所","province":"東京都","city":"渋谷区","address":"渋谷区鶯谷町2-16","lat":35.65398,"lon":139.7044},{"name":"道玄坂下","province":"東京都","city":"渋谷区","address":"東京都渋谷区道玄坂2丁目5-9","lat":35.65930764,"lon":139.69951185},{"name":"渋谷駅前","province":"東京都","city":"渋谷区","address":"東京都渋谷区道玄坂2丁目1-1","lat":35.65929935,"lon":139.70101727},{"name":"宮下公園前","province":"東京都","city":"渋谷区","address":"東京都渋谷区松濤1丁目16-4","lat":35.66192666,"lon":139.69347894},{"name":"恵比寿南","province":"東京都","city":"渋谷区","address":"東京都渋谷区恵比寿南2丁目1-12","lat":35.64606209,"lon":139.7073534},{"name":"道玄坂上交番前","province":"東京都","city":"渋谷区","address":"東京都渋谷区円山町3-6","lat":35.65751331,"lon":139.69552615},{"name":"恵比寿駅前","province":"東京都","city":"渋谷区","address":"東京都渋谷区恵比寿南1丁目5-5","lat":35.64671485,"lon":139.71033922},{"name":"神宮前六丁目","province":"東京都","city":"渋谷区","address":"東京都渋谷区神宮前6丁目19-15","lat":35.66342392,"lon":139.70241976},{"name":"渋谷二丁目","province":"東京都","city":"渋谷区","address":"東京都渋谷区渋谷2丁目12-11","lat":35.65866902,"lon":139.70836944},{"name":"恵比寿駅東口","province":"東京都","city":"渋谷区","address":"東京都渋谷区恵比寿1丁目11-5","lat":35.6463677,"lon":139.71171966},{"name":"南平台","province":"東京都","city":"渋谷区","address":"東京都渋谷区桜丘町31-11","lat":35.65596354,"lon":139.69766492},{"name":"神南郵便局前","province":"東京都","city":"渋谷区","address":"東京都渋谷区神南1丁目22-14","lat":35.66189351,"lon":139.7011005},{"name":"東交番前","province":"東京都","city":"渋谷区","address":"東京都渋谷区東1丁目27-10","lat":35.6539362,"lon":139.70767803},{"name":"勤労福祉会館前","province":"東京都","city":"渋谷区","address":"東京都渋谷区宇田川町15-1","lat":35.66204899,"lon":139.69893957},{"name":"庚申橋","province":"東京都","city":"渋谷区","address":"東京都渋谷区恵比寿3丁目16-2","lat":35.64395141,"lon":139.71834411},{"name":"美竹交番東","province":"東京都","city":"渋谷区","address":"東京都渋谷区渋谷1丁目17-8","lat":35.6611742,"lon":139.70405305},{"name":"井の頭通り入口","province":"東京都","city":"渋谷区","address":"東京都渋谷区神南1丁目22-3","lat":35.66045478,"lon":139.70097557},{"name":"東電電力館前","province":"東京都","city":"渋谷区","address":"東京都渋谷区神南1丁目9-2","lat":35.66376553,"lon":139.70139762},{"name":"恵比寿駅前第二","province":"東京都","city":"渋谷区","address":"東京都渋谷区恵比寿南1丁目1-1","lat":35.64674539,"lon":139.70893101},{"name":"渋谷駅南口第一","province":"東京都","city":"渋谷区","address":"東京都渋谷区道玄坂1丁目2","lat":35.65751342,"lon":139.70031463},{"name":"広尾病院前","province":"東京都","city":"渋谷区","address":"東京都渋谷区広尾5丁目25-8","lat":35.64769271,"lon":139.7218131},{"name":"渋谷警察署東","province":"東京都","city":"渋谷区","address":"東京都渋谷区渋谷3丁目6-2","lat":35.65791348,"lon":139.70497532},{"name":"道玄坂二丁目東","province":"東京都","city":"渋谷区","address":"東京都渋谷区道玄坂2丁目29-20","lat":35.65976312,"lon":139.69815917},{"name":"宇田川町","province":"東京都","city":"渋谷区","address":"東京都渋谷区宇田川町3-1","lat":35.66317942,"lon":139.69879787},{"name":"並木橋北","province":"東京都","city":"渋谷区","address":"東京都渋谷区神宮前3丁目17-15","lat":35.67080662,"lon":139.71041043},{"name":"千駄ヶ谷駅前","province":"東京都","city":"渋谷区","address":"東京都渋谷区千駄ヶ谷1丁目35-7","lat":35.68080274,"lon":139.71177658},{"name":"明治神宮北参道","province":"東京都","city":"渋谷区","address":"東京都渋谷区千駄ヶ谷4丁目5-14","lat":35.68006098,"lon":139.70440227},{"name":"明治神宮北参道第二","province":"東京都","city":"渋谷区","address":"東京都渋谷区千駄ヶ谷4丁目27-1","lat":35.68059702,"lon":139.70414671},{"name":"明治神宮北参道第三","province":"東京都","city":"渋谷区","address":"東京都渋谷区千駄ヶ谷4丁目6-15","lat":35.68016931,"lon":139.70479111},{"name":"代々木駅前","province":"東京都","city":"渋谷区","address":"東京都渋谷区代々木1丁目32-12","lat":35.68265784,"lon":139.70206903},{"name":"鳩森小学校西","province":"東京都","city":"渋谷区","address":"東京都渋谷区千駄ヶ谷5丁目21-8","lat":35.68257736,"lon":139.70438272},{"name":"原宿駅竹下口","province":"東京都","city":"渋谷区","address":"東京都渋谷区神宮前1丁目17-1","lat":35.67144526,"lon":139.70321104},{"name":"代々木一丁目","province":"東京都","city":"渋谷区","address":"東京都渋谷区代々木1丁目10-1","lat":35.68201616,"lon":139.69793887},{"name":"東郷神社前","province":"東京都","city":"渋谷区","address":"東京都渋谷区神宮前1丁目5-1","lat":35.67127038,"lon":139.70703849},{"name":"代々木駅前第二","province":"東京都","city":"渋谷区","address":"東京都渋谷区代々木1丁目36-6","lat":35.68364382,"lon":139.70138851},{"name":"東京体育館南","province":"東京都","city":"渋谷区","address":"東京都渋谷区千駄ヶ谷1丁目14","lat":35.67772254,"lon":139.71225999},{"name":"国立能楽堂前","province":"東京都","city":"渋谷区","address":"東京都渋谷区千駄ヶ谷4丁目20-3","lat":35.68101373,"lon":139.70756583},{"name":"神宮前四丁目","province":"東京都","city":"渋谷区","address":"東京都渋谷区神宮前4丁目3-6","lat":35.66638488,"lon":139.71060503},{"name":"神宮前小学校南","province":"東京都","city":"渋谷区","address":"東京都渋谷区神宮前5丁目8-2","lat":35.66692088,"lon":139.7079247},{"name":"はあとぴあ原宿入口","province":"東京都","city":"渋谷区","address":"東京都渋谷区神宮前2丁目17","lat":35.67260364,"lon":139.7104409},{"name":"代々木八幡前","province":"東京都","city":"渋谷区","address":"東京都渋谷区元代々木町31-10","lat":35.67183649,"lon":139.6873652},{"name":"笹塚出張所前","province":"東京都","city":"渋谷区","address":"東京都渋谷区笹塚2丁目49-4","lat":35.67733544,"lon":139.67008317},{"name":"社会教育館前","province":"東京都","city":"渋谷区","address":"東京都渋谷区幡ヶ谷2丁目52-3","lat":35.67969088,"lon":139.6765214},{"name":"富士見丘高等学校前","province":"東京都","city":"渋谷区","address":"東京都渋谷区笹塚2丁目42-16","lat":35.67644938,"lon":139.66769176},{"name":"青少年センター前","province":"東京都","city":"渋谷区","address":"東京都渋谷区代々木神園町3","lat":35.67875255,"lon":139.69443097},{"name":"代々木上原駅南","province":"東京都","city":"渋谷区","address":"東京都渋谷区上原1丁目30-8","lat":35.66845335,"lon":139.67939102},{"name":"渋谷区役所総合庁舎前","province":"東京都","city":"渋谷区","address":"東京都渋谷区神南1丁目6","lat":35.66423765,"lon":139.69958665},{"name":"西新宿三丁目","province":"東京都","city":"渋谷区","address":"東京都渋谷区代々木3丁目25-3","lat":35.68469625,"lon":139.69232259},{"name":"山種美術館","province":"東京都","city":"渋谷区","address":"渋谷区広尾3-12-36","lat":35.6533231,"lon":139.7138333},{"name":"都立代々木公園","province":"東京都","city":"渋谷区","address":"東京都渋谷区代々木神園町2-1","lat":35.67281151,"lon":139.69257026},{"name":"都立第一商業高等学校","province":"東京都","city":"渋谷区","address":"東京都渋谷区鉢山町8-1","lat":35.65016143,"lon":139.6985845},{"name":"区立景丘公園","province":"東京都","city":"渋谷区","address":"東京都渋谷区恵比寿4丁目19-21","lat":35.6437958,"lon":139.71358068},{"name":"渋谷警察署","province":"東京都","city":"渋谷区","address":"渋谷区渋谷3-8-15","lat":35.65779,"lon":139.7039},{"name":"原宿警察署","province":"東京都","city":"渋谷区","address":"渋谷区神宮前1-4-17","lat":35.67188,"lon":139.7074},{"name":"代々木警察署","province":"東京都","city":"渋谷区","address":"渋谷区本町1-11-3","lat":35.67985,"lon":139.6832},{"name":"第三方面訓練場","province":"東京都","city":"渋谷区","address":"渋谷区幡ヶ谷1-13","lat":35.67292,"lon":139.6717},{"name":"消防学校","province":"東京都","city":"渋谷区","address":"渋谷区西原2-51-1","lat":35.6723,"lon":139.6735},{"name":"渋谷消防署","province":"東京都","city":"渋谷区","address":"渋谷区神南1-8-3","lat":35.66434,"lon":139.7012},{"name":"渋谷区","province":"東京都","city":"渋谷区","address":"渋谷区東3-14-13","lat":35.650896,"lon":139.709739},{"name":"東京都赤十字血液センター渋谷供給出張所","province":"東京都","city":"渋谷区","address":"渋谷区鶯谷町2-16","lat":35.65398,"lon":139.7044},{"name":"道玄坂下","province":"東京都","city":"渋谷区","address":"東京都渋谷区道玄坂2丁目5-9","lat":35.65930764,"lon":139.69951185},{"name":"渋谷駅前","province":"東京都","city":"渋谷区","address":"東京都渋谷区道玄坂2丁目1-1","lat":35.65929935,"lon":139.70101727},{"name":"宮下公園前","province":"東京都","city":"渋谷区","address":"東京都渋谷区松濤1丁目16-4","lat":35.66192666,"lon":139.69347894},{"name":"恵比寿南","province":"東京都","city":"渋谷区","address":"東京都渋谷区恵比寿南2丁目1-12","lat":35.64606209,"lon":139.7073534},{"name":"道玄坂上交番前","province":"東京都","city":"渋谷区","address":"東京都渋谷区円山町3-6","lat":35.65751331,"lon":139.69552615},{"name":"恵比寿駅前","province":"東京都","city":"渋谷区","address":"東京都渋谷区恵比寿南1丁目5-5","lat":35.64671485,"lon":139.71033922},{"name":"神宮前六丁目","province":"東京都","city":"渋谷区","address":"東京都渋谷区神宮前6丁目19-15","lat":35.66342392,"lon":139.70241976},{"name":"渋谷二丁目","province":"東京都","city":"渋谷区","address":"東京都渋谷区渋谷2丁目12-11","lat":35.65866902,"lon":139.70836944},{"name":"恵比寿駅東口","province":"東京都","city":"渋谷区","address":"東京都渋谷区恵比寿1丁目11-5","lat":35.6463677,"lon":139.71171966},{"name":"南平台","province":"東京都","city":"渋谷区","address":"東京都渋谷区桜丘町31-11","lat":35.65596354,"lon":139.69766492},{"name":"神南郵便局前","province":"東京都","city":"渋谷区","address":"東京都渋谷区神南1丁目22-14","lat":35.66189351,"lon":139.7011005},{"name":"東交番前","province":"東京都","city":"渋谷区","address":"東京都渋谷区東1丁目27-10","lat":35.6539362,"lon":139.70767803},{"name":"勤労福祉会館前","province":"東京都","city":"渋谷区","address":"東京都渋谷区宇田川町15-1","lat":35.66204899,"lon":139.69893957},{"name":"庚申橋","province":"東京都","city":"渋谷区","address":"東京都渋谷区恵比寿3丁目16-2","lat":35.64395141,"lon":139.71834411},{"name":"美竹交番東","province":"東京都","city":"渋谷区","address":"東京都渋谷区渋谷1丁目17-8","lat":35.6611742,"lon":139.70405305},{"name":"井の頭通り入口","province":"東京都","city":"渋谷区","address":"東京都渋谷区神南1丁目22-3","lat":35.66045478,"lon":139.70097557},{"name":"東電電力館前","province":"東京都","city":"渋谷区","address":"東京都渋谷区神南1丁目9-2","lat":35.66376553,"lon":139.70139762},{"name":"恵比寿駅前第二","province":"東京都","city":"渋谷区","address":"東京都渋谷区恵比寿南1丁目1-1","lat":35.64674539,"lon":139.70893101},{"name":"渋谷駅南口第一","province":"東京都","city":"渋谷区","address":"東京都渋谷区道玄坂1丁目2","lat":35.65751342,"lon":139.70031463},{"name":"広尾病院前","province":"東京都","city":"渋谷区","address":"東京都渋谷区広尾5丁目25-8","lat":35.64769271,"lon":139.7218131},{"name":"渋谷警察署東","province":"東京都","city":"渋谷区","address":"東京都渋谷区渋谷3丁目6-2","lat":35.65791348,"lon":139.70497532},{"name":"道玄坂二丁目東","province":"東京都","city":"渋谷区","address":"東京都渋谷区道玄坂2丁目29-20","lat":35.65976312,"lon":139.69815917},{"name":"宇田川町","province":"東京都","city":"渋谷区","address":"東京都渋谷区宇田川町3-1","lat":35.66317942,"lon":139.69879787},{"name":"並木橋北","province":"東京都","city":"渋谷区","address":"東京都渋谷区神宮前3丁目17-15","lat":35.67080662,"lon":139.71041043},{"name":"千駄ヶ谷駅前","province":"東京都","city":"渋谷区","address":"東京都渋谷区千駄ヶ谷1丁目35-7","lat":35.68080274,"lon":139.71177658},{"name":"明治神宮北参道","province":"東京都","city":"渋谷区","address":"東京都渋谷区千駄ヶ谷4丁目5-14","lat":35.68006098,"lon":139.70440227},{"name":"明治神宮北参道第二","province":"東京都","city":"渋谷区","address":"東京都渋谷区千駄ヶ谷4丁目27-1","lat":35.68059702,"lon":139.70414671},{"name":"明治神宮北参道第三","province":"東京都","city":"渋谷区","address":"東京都渋谷区千駄ヶ谷4丁目6-15","lat":35.68016931,"lon":139.70479111},{"name":"代々木駅前","province":"東京都","city":"渋谷区","address":"東京都渋谷区代々木1丁目32-12","lat":35.68265784,"lon":139.70206903},{"name":"鳩森小学校西","province":"東京都","city":"渋谷区","address":"東京都渋谷区千駄ヶ谷5丁目21-8","lat":35.68257736,"lon":139.70438272},{"name":"原宿駅竹下口","province":"東京都","city":"渋谷区","address":"東京都渋谷区神宮前1丁目17-1","lat":35.67144526,"lon":139.70321104},{"name":"代々木一丁目","province":"東京都","city":"渋谷区","address":"東京都渋谷区代々木1丁目10-1","lat":35.68201616,"lon":139.69793887},{"name":"東郷神社前","province":"東京都","city":"渋谷区","address":"東京都渋谷区神宮前1丁目5-1","lat":35.67127038,"lon":139.70703849},{"name":"代々木駅前第二","province":"東京都","city":"渋谷区","address":"東京都渋谷区代々木1丁目36-6","lat":35.68364382,"lon":139.70138851},{"name":"東京体育館南","province":"東京都","city":"渋谷区","address":"東京都渋谷区千駄ヶ谷1丁目14","lat":35.67772254,"lon":139.71225999},{"name":"国立能楽堂前","province":"東京都","city":"渋谷区","address":"東京都渋谷区千駄ヶ谷4丁目20-3","lat":35.68101373,"lon":139.70756583},{"name":"神宮前四丁目","province":"東京都","city":"渋谷区","address":"東京都渋谷区神宮前4丁目3-6","lat":35.66638488,"lon":139.71060503},{"name":"神宮前小学校南","province":"東京都","city":"渋谷区","address":"東京都渋谷区神宮前5丁目8-2","lat":35.66692088,"lon":139.7079247},{"name":"はあとぴあ原宿入口","province":"東京都","city":"渋谷区","address":"東京都渋谷区神宮前2丁目17","lat":35.67260364,"lon":139.7104409},{"name":"代々木八幡前","province":"東京都","city":"渋谷区","address":"東京都渋谷区元代々木町31-10","lat":35.67183649,"lon":139.6873652},{"name":"笹塚出張所前","province":"東京都","city":"渋谷区","address":"東京都渋谷区笹塚2丁目49-4","lat":35.67733544,"lon":139.67008317},{"name":"社会教育館前","province":"東京都","city":"渋谷区","address":"東京都渋谷区幡ヶ谷2丁目52-3","lat":35.67969088,"lon":139.6765214},{"name":"富士見丘高等学校前","province":"東京都","city":"渋谷区","address":"東京都渋谷区笹塚2丁目42-16","lat":35.67644938,"lon":139.66769176},{"name":"青少年センター前","province":"東京都","city":"渋谷区","address":"東京都渋谷区代々木神園町3","lat":35.67875255,"lon":139.69443097},{"name":"代々木上原駅南","province":"東京都","city":"渋谷区","address":"東京都渋谷区上原1丁目30-8","lat":35.66845335,"lon":139.67939102},{"name":"渋谷区役所総合庁舎前","province":"東京都","city":"渋谷区","address":"東京都渋谷区神南1丁目6","lat":35.66423765,"lon":139.69958665},{"name":"西新宿三丁目","province":"東京都","city":"渋谷区","address":"東京都渋谷区代々木3丁目25-3","lat":35.68469625,"lon":139.69232259},{"name":"山種美術館","province":"東京都","city":"渋谷区","address":"渋谷区広尾3-12-36","lat":35.6533231,"lon":139.7138333},{"name":"都立代々木公園","province":"東京都","city":"渋谷区","address":"東京都渋谷区代々木神園町2-1","lat":35.67281151,"lon":139.69257026},{"name":"都立第一商業高等学校","province":"東京都","city":"渋谷区","address":"東京都渋谷区鉢山町8-1","lat":35.65016143,"lon":139.6985845},{"name":"区立景丘公園","province":"東京都","city":"渋谷区","address":"東京都渋谷区恵比寿4丁目19-21","lat":35.6437958,"lon":139.71358068},{"name":"渋谷警察署","province":"東京都","city":"渋谷区","address":"渋谷区渋谷3-8-15","lat":35.65779,"lon":139.7039},{"name":"原宿警察署","province":"東京都","city":"渋谷区","address":"渋谷区神宮前1-4-17","lat":35.67188,"lon":139.7074},{"name":"代々木警察署","province":"東京都","city":"渋谷区","address":"渋谷区本町1-11-3","lat":35.67985,"lon":139.6832},{"name":"第三方面訓練場","province":"東京都","city":"渋谷区","address":"渋谷区幡ヶ谷1-13","lat":35.67292,"lon":139.6717},{"name":"消防学校","province":"東京都","city":"渋谷区","address":"渋谷区西原2-51-1","lat":35.6723,"lon":139.6735},{"name":"渋谷消防署","province":"東京都","city":"渋谷区","address":"渋谷区神南1-8-3","lat":35.66434,"lon":139.7012},{"name":"渋谷区","province":"東京都","city":"渋谷区","address":"渋谷区東3-14-13","lat":35.650896,"lon":139.709739},{"name":"東京都赤十字血液センター渋谷供給出張所","province":"東京都","city":"渋谷区","address":"渋谷区鶯谷町2-16","lat":35.65398,"lon":139.7044},{"name":"道玄坂下","province":"東京都","city":"渋谷区","address":"東京都渋谷区道玄坂2丁目5-9","lat":35.65930764,"lon":139.69951185},{"name":"渋谷駅前","province":"東京都","city":"渋谷区","address":"東京都渋谷区道玄坂2丁目1-1","lat":35.65929935,"lon":139.70101727},{"name":"宮下公園前","province":"東京都","city":"渋谷区","address":"東京都渋谷区松濤1丁目16-4","lat":35.66192666,"lon":139.69347894},{"name":"恵比寿南","province":"東京都","city":"渋谷区","address":"東京都渋谷区恵比寿南2丁目1-12","lat":35.64606209,"lon":139.7073534},{"name":"道玄坂上交番前","province":"東京都","city":"渋谷区","address":"東京都渋谷区円山町3-6","lat":35.65751331,"lon":139.69552615},{"name":"恵比寿駅前","province":"東京都","city":"渋谷区","address":"東京都渋谷区恵比寿南1丁目5-5","lat":35.64671485,"lon":139.71033922},{"name":"神宮前六丁目","province":"東京都","city":"渋谷区","address":"東京都渋谷区神宮前6丁目19-15","lat":35.66342392,"lon":139.70241976},{"name":"渋谷二丁目","province":"東京都","city":"渋谷区","address":"東京都渋谷区渋谷2丁目12-11","lat":35.65866902,"lon":139.70836944},{"name":"恵比寿駅東口","province":"東京都","city":"渋谷区","address":"東京都渋谷区恵比寿1丁目11-5","lat":35.6463677,"lon":139.71171966},{"name":"南平台","province":"東京都","city":"渋谷区","address":"東京都渋谷区桜丘町31-11","lat":35.65596354,"lon":139.69766492},{"name":"神南郵便局前","province":"東京都","city":"渋谷区","address":"東京都渋谷区神南1丁目22-14","lat":35.66189351,"lon":139.7011005},{"name":"東交番前","province":"東京都","city":"渋谷区","address":"東京都渋谷区東1丁目27-10","lat":35.6539362,"lon":139.70767803},{"name":"勤労福祉会館前","province":"東京都","city":"渋谷区","address":"東京都渋谷区宇田川町15-1","lat":35.66204899,"lon":139.69893957},{"name":"庚申橋","province":"東京都","city":"渋谷区","address":"東京都渋谷区恵比寿3丁目16-2","lat":35.64395141,"lon":139.71834411},{"name":"美竹交番東","province":"東京都","city":"渋谷区","address":"東京都渋谷区渋谷1丁目17-8","lat":35.6611742,"lon":139.70405305},{"name":"井の頭通り入口","province":"東京都","city":"渋谷区","address":"東京都渋谷区神南1丁目22-3","lat":35.66045478,"lon":139.70097557},{"name":"東電電力館前","province":"東京都","city":"渋谷区","address":"東京都渋谷区神南1丁目9-2","lat":35.66376553,"lon":139.70139762},{"name":"恵比寿駅前第二","province":"東京都","city":"渋谷区","address":"東京都渋谷区恵比寿南1丁目1-1","lat":35.64674539,"lon":139.70893101},{"name":"渋谷駅南口第一","province":"東京都","city":"渋谷区","address":"東京都渋谷区道玄坂1丁目2","lat":35.65751342,"lon":139.70031463},{"name":"広尾病院前","province":"東京都","city":"渋谷区","address":"東京都渋谷区広尾5丁目25-8","lat":35.64769271,"lon":139.7218131},{"name":"渋谷警察署東","province":"東京都","city":"渋谷区","address":"東京都渋谷区渋谷3丁目6-2","lat":35.65791348,"lon":139.70497532},{"name":"道玄坂二丁目東","province":"東京都","city":"渋谷区","address":"東京都渋谷区道玄坂2丁目29-20","lat":35.65976312,"lon":139.69815917},{"name":"宇田川町","province":"東京都","city":"渋谷区","address":"東京都渋谷区宇田川町3-1","lat":35.66317942,"lon":139.69879787},{"name":"並木橋北","province":"東京都","city":"渋谷区","address":"東京都渋谷区神宮前3丁目17-15","lat":35.67080662,"lon":139.71041043},{"name":"千駄ヶ谷駅前","province":"東京都","city":"渋谷区","address":"東京都渋谷区千駄ヶ谷1丁目35-7","lat":35.68080274,"lon":139.71177658},{"name":"明治神宮北参道","province":"東京都","city":"渋谷区","address":"東京都渋谷区千駄ヶ谷4丁目5-14","lat":35.68006098,"lon":139.70440227},{"name":"明治神宮北参道第二","province":"東京都","city":"渋谷区","address":"東京都渋谷区千駄ヶ谷4丁目27-1","lat":35.68059702,"lon":139.70414671},{"name":"明治神宮北参道第三","province":"東京都","city":"渋谷区","address":"東京都渋谷区千駄ヶ谷4丁目6-15","lat":35.68016931,"lon":139.70479111},{"name":"代々木駅前","province":"東京都","city":"渋谷区","address":"東京都渋谷区代々木1丁目32-12","lat":35.68265784,"lon":139.70206903},{"name":"鳩森小学校西","province":"東京都","city":"渋谷区","address":"東京都渋谷区千駄ヶ谷5丁目21-8","lat":35.68257736,"lon":139.70438272},{"name":"原宿駅竹下口","province":"東京都","city":"渋谷区","address":"東京都渋谷区神宮前1丁目17-1","lat":35.67144526,"lon":139.70321104},{"name":"代々木一丁目","province":"東京都","city":"渋谷区","address":"東京都渋谷区代々木1丁目10-1","lat":35.68201616,"lon":139.69793887},{"name":"東郷神社前","province":"東京都","city":"渋谷区","address":"東京都渋谷区神宮前1丁目5-1","lat":35.67127038,"lon":139.70703849},{"name":"代々木駅前第二","province":"東京都","city":"渋谷区","address":"東京都渋谷区代々木1丁目36-6","lat":35.68364382,"lon":139.70138851},{"name":"東京体育館南","province":"東京都","city":"渋谷区","address":"東京都渋谷区千駄ヶ谷1丁目14","lat":35.67772254,"lon":139.71225999},{"name":"国立能楽堂前","province":"東京都","city":"渋谷区","address":"東京都渋谷区千駄ヶ谷4丁目20-3","lat":35.68101373,"lon":139.70756583},{"name":"神宮前四丁目","province":"東京都","city":"渋谷区","address":"東京都渋谷区神宮前4丁目3-6","lat":35.66638488,"lon":139.71060503},{"name":"神宮前小学校南","province":"東京都","city":"渋谷区","address":"東京都渋谷区神宮前5丁目8-2","lat":35.66692088,"lon":139.7079247},{"name":"はあとぴあ原宿入口","province":"東京都","city":"渋谷区","address":"東京都渋谷区神宮前2丁目17","lat":35.67260364,"lon":139.7104409},{"name":"代々木八幡前","province":"東京都","city":"渋谷区","address":"東京都渋谷区元代々木町31-10","lat":35.67183649,"lon":139.6873652},{"name":"笹塚出張所前","province":"東京都","city":"渋谷区","address":"東京都渋谷区笹塚2丁目49-4","lat":35.67733544,"lon":139.67008317},{"name":"社会教育館前","province":"東京都","city":"渋谷区","address":"東京都渋谷区幡ヶ谷2丁目52-3","lat":35.67969088,"lon":139.6765214},{"name":"富士見丘高等学校前","province":"東京都","city":"渋谷区","address":"東京都渋谷区笹塚2丁目42-16","lat":35.67644938,"lon":139.66769176},{"name":"青少年センター前","province":"東京都","city":"渋谷区","address":"東京都渋谷区代々木神園町3","lat":35.67875255,"lon":139.69443097},{"name":"代々木上原駅南","province":"東京都","city":"渋谷区","address":"東京都渋谷区上原1丁目30-8","lat":35.66845335,"lon":139.67939102},{"name":"渋谷区役所総合庁舎前","province":"東京都","city":"渋谷区","address":"東京都渋谷区神南1丁目6","lat":35.66423765,"lon":139.69958665},{"name":"西新宿三丁目","province":"東京都","city":"渋谷区","address":"東京都渋谷区代々木3丁目25-3","lat":35.68469625,"lon":139.69232259},{"name":"山種美術館","province":"東京都","city":"渋谷区","address":"渋谷区広尾3-12-36","lat":35.6533231,"lon":139.7138333},{"name":"都立代々木公園","province":"東京都","city":"渋谷区","address":"東京都渋谷区代々木神園町2-1","lat":35.67281151,"lon":139.69257026},{"name":"都立第一商業高等学校","province":"東京都","city":"渋谷区","address":"東京都渋谷区鉢山町8-1","lat":35.65016143,"lon":139.6985845},{"name":"区立景丘公園","province":"東京都","city":"渋谷区","address":"東京都渋谷区恵比寿4丁目19-21","lat":35.6437958,"lon":139.71358068},{"name":"渋谷警察署","province":"東京都","city":"渋谷区","address":"渋谷区渋谷3-8-15","lat":35.65779,"lon":139.7039},{"name":"原宿警察署","province":"東京都","city":"渋谷区","address":"渋谷区神宮前1-4-17","lat":35.67188,"lon":139.7074},{"name":"代々木警察署","province":"東京都","city":"渋谷区","address":"渋谷区本町1-11-3","lat":35.67985,"lon":139.6832},{"name":"第三方面訓練場","province":"東京都","city":"渋谷区","address":"渋谷区幡ヶ谷1-13","lat":35.67292,"lon":139.6717},{"name":"消防学校","province":"東京都","city":"渋谷区","address":"渋谷区西原2-51-1","lat":35.6723,"lon":139.6735},{"name":"渋谷消防署","province":"東京都","city":"渋谷区","address":"渋谷区神南1-8-3","lat":35.66434,"lon":139.7012},{"name":"渋谷区","province":"東京都","city":"渋谷区","address":"渋谷区東3-14-13","lat":35.650896,"lon":139.709739},{"name":"東京都赤十字血液センター渋谷供給出張所","province":"東京都","city":"渋谷区","address":"渋谷区鶯谷町2-16","lat":35.65398,"lon":139.7044},{"name":"道玄坂下","province":"東京都","city":"渋谷区","address":"東京都渋谷区道玄坂2丁目5-9","lat":35.65930764,"lon":139.69951185},{"name":"渋谷駅前","province":"東京都","city":"渋谷区","address":"東京都渋谷区道玄坂2丁目1-1","lat":35.65929935,"lon":139.70101727},{"name":"宮下公園前","province":"東京都","city":"渋谷区","address":"東京都渋谷区松濤1丁目16-4","lat":35.66192666,"lon":139.69347894},{"name":"恵比寿南","province":"東京都","city":"渋谷区","address":"東京都渋谷区恵比寿南2丁目1-12","lat":35.64606209,"lon":139.7073534},{"name":"道玄坂上交番前","province":"東京都","city":"渋谷区","address":"東京都渋谷区円山町3-6","lat":35.65751331,"lon":139.69552615},{"name":"恵比寿駅前","province":"東京都","city":"渋谷区","address":"東京都渋谷区恵比寿南1丁目5-5","lat":35.64671485,"lon":139.71033922},{"name":"神宮前六丁目","province":"東京都","city":"渋谷区","address":"東京都渋谷区神宮前6丁目19-15","lat":35.66342392,"lon":139.70241976},{"name":"渋谷二丁目","province":"東京都","city":"渋谷区","address":"東京都渋谷区渋谷2丁目12-11","lat":35.65866902,"lon":139.70836944},{"name":"恵比寿駅東口","province":"東京都","city":"渋谷区","address":"東京都渋谷区恵比寿1丁目11-5","lat":35.6463677,"lon":139.71171966},{"name":"南平台","province":"東京都","city":"渋谷区","address":"東京都渋谷区桜丘町31-11","lat":35.65596354,"lon":139.69766492},{"name":"神南郵便局前","province":"東京都","city":"渋谷区","address":"東京都渋谷区神南1丁目22-14","lat":35.66189351,"lon":139.7011005},{"name":"東交番前","province":"東京都","city":"渋谷区","address":"東京都渋谷区東1丁目27-10","lat":35.6539362,"lon":139.70767803},{"name":"勤労福祉会館前","province":"東京都","city":"渋谷区","address":"東京都渋谷区宇田川町15-1","lat":35.66204899,"lon":139.69893957},{"name":"庚申橋","province":"東京都","city":"渋谷区","address":"東京都渋谷区恵比寿3丁目16-2","lat":35.64395141,"lon":139.71834411},{"name":"美竹交番東","province":"東京都","city":"渋谷区","address":"東京都渋谷区渋谷1丁目17-8","lat":35.6611742,"lon":139.70405305},{"name":"井の頭通り入口","province":"東京都","city":"渋谷区","address":"東京都渋谷区神南1丁目22-3","lat":35.66045478,"lon":139.70097557},{"name":"東電電力館前","province":"東京都","city":"渋谷区","address":"東京都渋谷区神南1丁目9-2","lat":35.66376553,"lon":139.70139762},{"name":"恵比寿駅前第二","province":"東京都","city":"渋谷区","address":"東京都渋谷区恵比寿南1丁目1-1","lat":35.64674539,"lon":139.70893101},{"name":"渋谷駅南口第一","province":"東京都","city":"渋谷区","address":"東京都渋谷区道玄坂1丁目2","lat":35.65751342,"lon":139.70031463},{"name":"広尾病院前","province":"東京都","city":"渋谷区","address":"東京都渋谷区広尾5丁目25-8","lat":35.64769271,"lon":139.7218131},{"name":"渋谷警察署東","province":"東京都","city":"渋谷区","address":"東京都渋谷区渋谷3丁目6-2","lat":35.65791348,"lon":139.70497532},{"name":"道玄坂二丁目東","province":"東京都","city":"渋谷区","address":"東京都渋谷区道玄坂2丁目29-20","lat":35.65976312,"lon":139.69815917},{"name":"宇田川町","province":"東京都","city":"渋谷区","address":"東京都渋谷区宇田川町3-1","lat":35.66317942,"lon":139.69879787},{"name":"並木橋北","province":"東京都","city":"渋谷区","address":"東京都渋谷区神宮前3丁目17-15","lat":35.67080662,"lon":139.71041043},{"name":"千駄ヶ谷駅前","province":"東京都","city":"渋谷区","address":"東京都渋谷区千駄ヶ谷1丁目35-7","lat":35.68080274,"lon":139.71177658},{"name":"明治神宮北参道","province":"東京都","city":"渋谷区","address":"東京都渋谷区千駄ヶ谷4丁目5-14","lat":35.68006098,"lon":139.70440227},{"name":"明治神宮北参道第二","province":"東京都","city":"渋谷区","address":"東京都渋谷区千駄ヶ谷4丁目27-1","lat":35.68059702,"lon":139.70414671},{"name":"明治神宮北参道第三","province":"東京都","city":"渋谷区","address":"東京都渋谷区千駄ヶ谷4丁目6-15","lat":35.68016931,"lon":139.70479111},{"name":"代々木駅前","province":"東京都","city":"渋谷区","address":"東京都渋谷区代々木1丁目32-12","lat":35.68265784,"lon":139.70206903},{"name":"鳩森小学校西","province":"東京都","city":"渋谷区","address":"東京都渋谷区千駄ヶ谷5丁目21-8","lat":35.68257736,"lon":139.70438272},{"name":"原宿駅竹下口","province":"東京都","city":"渋谷区","address":"東京都渋谷区神宮前1丁目17-1","lat":35.67144526,"lon":139.70321104},{"name":"代々木一丁目","province":"東京都","city":"渋谷区","address":"東京都渋谷区代々木1丁目10-1","lat":35.68201616,"lon":139.69793887},{"name":"東郷神社前","province":"東京都","city":"渋谷区","address":"東京都渋谷区神宮前1丁目5-1","lat":35.67127038,"lon":139.70703849},{"name":"代々木駅前第二","province":"東京都","city":"渋谷区","address":"東京都渋谷区代々木1丁目36-6","lat":35.68364382,"lon":139.70138851},{"name":"東京体育館南","province":"東京都","city":"渋谷区","address":"東京都渋谷区千駄ヶ谷1丁目14","lat":35.67772254,"lon":139.71225999},{"name":"国立能楽堂前","province":"東京都","city":"渋谷区","address":"東京都渋谷区千駄ヶ谷4丁目20-3","lat":35.68101373,"lon":139.70756583},{"name":"神宮前四丁目","province":"東京都","city":"渋谷区","address":"東京都渋谷区神宮前4丁目3-6","lat":35.66638488,"lon":139.71060503},{"name":"神宮前小学校南","province":"東京都","city":"渋谷区","address":"東京都渋谷区神宮前5丁目8-2","lat":35.66692088,"lon":139.7079247},{"name":"はあとぴあ原宿入口","province":"東京都","city":"渋谷区","address":"東京都渋谷区神宮前2丁目17","lat":35.67260364,"lon":139.7104409},{"name":"代々木八幡前","province":"東京都","city":"渋谷区","address":"東京都渋谷区元代々木町31-10","lat":35.67183649,"lon":139.6873652},{"name":"笹塚出張所前","province":"東京都","city":"渋谷区","address":"東京都渋谷区笹塚2丁目49-4","lat":35.67733544,"lon":139.67008317},{"name":"社会教育館前","province":"東京都","city":"渋谷区","address":"東京都渋谷区幡ヶ谷2丁目52-3","lat":35.67969088,"lon":139.6765214},{"name":"富士見丘高等学校前","province":"東京都","city":"渋谷区","address":"東京都渋谷区笹塚2丁目42-16","lat":35.67644938,"lon":139.66769176},{"name":"青少年センター前","province":"東京都","city":"渋谷区","address":"東京都渋谷区代々木神園町3","lat":35.67875255,"lon":139.69443097},{"name":"代々木上原駅南","province":"東京都","city":"渋谷区","address":"東京都渋谷区上原1丁目30-8","lat":35.66845335,"lon":139.67939102},{"name":"渋谷区役所総合庁舎前","province":"東京都","city":"渋谷区","address":"東京都渋谷区神南1丁目6","lat":35.66423765,"lon":139.69958665},{"name":"西新宿三丁目","province":"東京都","city":"渋谷区","address":"東京都渋谷区代々木3丁目25-3","lat":35.68469625,"lon":139.69232259},{"name":"山種美術館","province":"東京都","city":"渋谷区","address":"渋谷区広尾3-12-36","lat":35.6533231,"lon":139.7138333},{"name":"都立代々木公園","province":"東京都","city":"渋谷区","address":"東京都渋谷区代々木神園町2-1","lat":35.67281151,"lon":139.69257026},{"name":"都立第一商業高等学校","province":"東京都","city":"渋谷区","address":"東京都渋谷区鉢山町8-1","lat":35.65016143,"lon":139.6985845},{"name":"区立景丘公園","province":"東京都","city":"渋谷区","address":"東京都渋谷区恵比寿4丁目19-21","lat":35.6437958,"lon":139.71358068},{"name":"渋谷警察署","province":"東京都","city":"渋谷区","address":"渋谷区渋谷3-8-15","lat":35.65779,"lon":139.7039},{"name":"原宿警察署","province":"東京都","city":"渋谷区","address":"渋谷区神宮前1-4-17","lat":35.67188,"lon":139.7074},{"name":"代々木警察署","province":"東京都","city":"渋谷区","address":"渋谷区本町1-11-3","lat":35.67985,"lon":139.6832},{"name":"第三方面訓練場","province":"東京都","city":"渋谷区","address":"渋谷区幡ヶ谷1-13","lat":35.67292,"lon":139.6717},{"name":"消防学校","province":"東京都","city":"渋谷区","address":"渋谷区西原2-51-1","lat":35.6723,"lon":139.6735},{"name":"渋谷消防署","province":"東京都","city":"渋谷区","address":"渋谷区神南1-8-3","lat":35.66434,"lon":139.7012},{"name":"渋谷区","province":"東京都","city":"渋谷区","address":"渋谷区東3-14-13","lat":35.650896,"lon":139.709739},{"name":"東京都赤十字血液センター渋谷供給出張所","province":"東京都","city":"渋谷区","address":"渋谷区鶯谷町2-16","lat":35.65398,"lon":139.7044},{"name":"道玄坂下","province":"東京都","city":"渋谷区","address":"東京都渋谷区道玄坂2丁目5-9","lat":35.65930764,"lon":139.69951185},{"name":"渋谷駅前","province":"東京都","city":"渋谷区","address":"東京都渋谷区道玄坂2丁目1-1","lat":35.65929935,"lon":139.70101727},{"name":"宮下公園前","province":"東京都","city":"渋谷区","address":"東京都渋谷区松濤1丁目16-4","lat":35.66192666,"lon":139.69347894},{"name":"恵比寿南","province":"東京都","city":"渋谷区","address":"東京都渋谷区恵比寿南2丁目1-12","lat":35.64606209,"lon":139.7073534},{"name":"道玄坂上交番前","province":"東京都","city":"渋谷区","address":"東京都渋谷区円山町3-6","lat":35.65751331,"lon":139.69552615},{"name":"恵比寿駅前","province":"東京都","city":"渋谷区","address":"東京都渋谷区恵比寿南1丁目5-5","lat":35.64671485,"lon":139.71033922},{"name":"神宮前六丁目","province":"東京都","city":"渋谷区","address":"東京都渋谷区神宮前6丁目19-15","lat":35.66342392,"lon":139.70241976},{"name":"渋谷二丁目","province":"東京都","city":"渋谷区","address":"東京都渋谷区渋谷2丁目12-11","lat":35.65866902,"lon":139.70836944},{"name":"恵比寿駅東口","province":"東京都","city":"渋谷区","address":"東京都渋谷区恵比寿1丁目11-5","lat":35.6463677,"lon":139.71171966},{"name":"南平台","province":"東京都","city":"渋谷区","address":"東京都渋谷区桜丘町31-11","lat":35.65596354,"lon":139.69766492},{"name":"神南郵便局前","province":"東京都","city":"渋谷区","address":"東京都渋谷区神南1丁目22-14","lat":35.66189351,"lon":139.7011005},{"name":"東交番前","province":"東京都","city":"渋谷区","address":"東京都渋谷区東1丁目27-10","lat":35.6539362,"lon":139.70767803},{"name":"勤労福祉会館前","province":"東京都","city":"渋谷区","address":"東京都渋谷区宇田川町15-1","lat":35.66204899,"lon":139.69893957},{"name":"庚申橋","province":"東京都","city":"渋谷区","address":"東京都渋谷区恵比寿3丁目16-2","lat":35.64395141,"lon":139.71834411},{"name":"美竹交番東","province":"東京都","city":"渋谷区","address":"東京都渋谷区渋谷1丁目17-8","lat":35.6611742,"lon":139.70405305},{"name":"井の頭通り入口","province":"東京都","city":"渋谷区","address":"東京都渋谷区神南1丁目22-3","lat":35.66045478,"lon":139.70097557},{"name":"東電電力館前","province":"東京都","city":"渋谷区","address":"東京都渋谷区神南1丁目9-2","lat":35.66376553,"lon":139.70139762},{"name":"恵比寿駅前第二","province":"東京都","city":"渋谷区","address":"東京都渋谷区恵比寿南1丁目1-1","lat":35.64674539,"lon":139.70893101},{"name":"渋谷駅南口第一","province":"東京都","city":"渋谷区","address":"東京都渋谷区道玄坂1丁目2","lat":35.65751342,"lon":139.70031463},{"name":"広尾病院前","province":"東京都","city":"渋谷区","address":"東京都渋谷区広尾5丁目25-8","lat":35.64769271,"lon":139.7218131},{"name":"渋谷警察署東","province":"東京都","city":"渋谷区","address":"東京都渋谷区渋谷3丁目6-2","lat":35.65791348,"lon":139.70497532},{"name":"道玄坂二丁目東","province":"東京都","city":"渋谷区","address":"東京都渋谷区道玄坂2丁目29-20","lat":35.65976312,"lon":139.69815917},{"name":"宇田川町","province":"東京都","city":"渋谷区","address":"東京都渋谷区宇田川町3-1","lat":35.66317942,"lon":139.69879787},{"name":"並木橋北","province":"東京都","city":"渋谷区","address":"東京都渋谷区神宮前3丁目17-15","lat":35.67080662,"lon":139.71041043},{"name":"千駄ヶ谷駅前","province":"東京都","city":"渋谷区","address":"東京都渋谷区千駄ヶ谷1丁目35-7","lat":35.68080274,"lon":139.71177658},{"name":"明治神宮北参道","province":"東京都","city":"渋谷区","address":"東京都渋谷区千駄ヶ谷4丁目5-14","lat":35.68006098,"lon":139.70440227},{"name":"明治神宮北参道第二","province":"東京都","city":"渋谷区","address":"東京都渋谷区千駄ヶ谷4丁目27-1","lat":35.68059702,"lon":139.70414671},{"name":"明治神宮北参道第三","province":"東京都","city":"渋谷区","address":"東京都渋谷区千駄ヶ谷4丁目6-15","lat":35.68016931,"lon":139.70479111},{"name":"代々木駅前","province":"東京都","city":"渋谷区","address":"東京都渋谷区代々木1丁目32-12","lat":35.68265784,"lon":139.70206903},{"name":"鳩森小学校西","province":"東京都","city":"渋谷区","address":"東京都渋谷区千駄ヶ谷5丁目21-8","lat":35.68257736,"lon":139.70438272},{"name":"原宿駅竹下口","province":"東京都","city":"渋谷区","address":"東京都渋谷区神宮前1丁目17-1","lat":35.67144526,"lon":139.70321104},{"name":"代々木一丁目","province":"東京都","city":"渋谷区","address":"東京都渋谷区代々木1丁目10-1","lat":35.68201616,"lon":139.69793887},{"name":"東郷神社前","province":"東京都","city":"渋谷区","address":"東京都渋谷区神宮前1丁目5-1","lat":35.67127038,"lon":139.70703849},{"name":"代々木駅前第二","province":"東京都","city":"渋谷区","address":"東京都渋谷区代々木1丁目36-6","lat":35.68364382,"lon":139.70138851},{"name":"東京体育館南","province":"東京都","city":"渋谷区","address":"東京都渋谷区千駄ヶ谷1丁目14","lat":35.67772254,"lon":139.71225999},{"name":"国立能楽堂前","province":"東京都","city":"渋谷区","address":"東京都渋谷区千駄ヶ谷4丁目20-3","lat":35.68101373,"lon":139.70756583},{"name":"神宮前四丁目","province":"東京都","city":"渋谷区","address":"東京都渋谷区神宮前4丁目3-6","lat":35.66638488,"lon":139.71060503},{"name":"神宮前小学校南","province":"東京都","city":"渋谷区","address":"東京都渋谷区神宮前5丁目8-2","lat":35.66692088,"lon":139.7079247},{"name":"はあとぴあ原宿入口","province":"東京都","city":"渋谷区","address":"東京都渋谷区神宮前2丁目17","lat":35.67260364,"lon":139.7104409},{"name":"代々木八幡前","province":"東京都","city":"渋谷区","address":"東京都渋谷区元代々木町31-10","lat":35.67183649,"lon":139.6873652},{"name":"笹塚出張所前","province":"東京都","city":"渋谷区","address":"東京都渋谷区笹塚2丁目49-4","lat":35.67733544,"lon":139.67008317},{"name":"社会教育館前","province":"東京都","city":"渋谷区","address":"東京都渋谷区幡ヶ谷2丁目52-3","lat":35.67969088,"lon":139.6765214},{"name":"富士見丘高等学校前","province":"東京都","city":"渋谷区","address":"東京都渋谷区笹塚2丁目42-16","lat":35.67644938,"lon":139.66769176},{"name":"青少年センター前","province":"東京都","city":"渋谷区","address":"東京都渋谷区代々木神園町3","lat":35.67875255,"lon":139.69443097},{"name":"代々木上原駅南","province":"東京都","city":"渋谷区","address":"東京都渋谷区上原1丁目30-8","lat":35.66845335,"lon":139.67939102},{"name":"渋谷区役所総合庁舎前","province":"東京都","city":"渋谷区","address":"東京都渋谷区神南1丁目6","lat":35.66423765,"lon":139.69958665},{"name":"西新宿三丁目","province":"東京都","city":"渋谷区","address":"東京都渋谷区代々木3丁目25-3","lat":35.68469625,"lon":139.69232259},{"name":"山種美術館","province":"東京都","city":"渋谷区","address":"渋谷区広尾3-12-36","lat":35.6533231,"lon":139.7138333},{"name":"都立代々木公園","province":"東京都","city":"渋谷区","address":"東京都渋谷区代々木神園町2-1","lat":35.67281151,"lon":139.69257026},{"name":"都立第一商業高等学校","province":"東京都","city":"渋谷区","address":"東京都渋谷区鉢山町8-1","lat":35.65016143,"lon":139.6985845},{"name":"区立景丘公園","province":"東京都","city":"渋谷区","address":"東京都渋谷区恵比寿4丁目19-21","lat":35.6437958,"lon":139.71358068},{"name":"渋谷警察署","province":"東京都","city":"渋谷区","address":"渋谷区渋谷3-8-15","lat":35.65779,"lon":139.7039},{"name":"原宿警察署","province":"東京都","city":"渋谷区","address":"渋谷区神宮前1-4-17","lat":35.67188,"lon":139.7074},{"name":"代々木警察署","province":"東京都","city":"渋谷区","address":"渋谷区本町1-11-3","lat":35.67985,"lon":139.6832},{"name":"第三方面訓練場","province":"東京都","city":"渋谷区","address":"渋谷区幡ヶ谷1-13","lat":35.67292,"lon":139.6717},{"name":"消防学校","province":"東京都","city":"渋谷区","address":"渋谷区西原2-51-1","lat":35.6723,"lon":139.6735},{"name":"渋谷消防署","province":"東京都","city":"渋谷区","address":"渋谷区神南1-8-3","lat":35.66434,"lon":139.7012},{"name":"渋谷区","province":"東京都","city":"渋谷区","address":"渋谷区東3-14-13","lat":35.650896,"lon":139.709739},{"name":"東京都赤十字血液センター渋谷供給出張所","province":"東京都","city":"渋谷区","address":"渋谷区鶯谷町2-16","lat":35.65398,"lon":139.7044},{"name":"道玄坂下","province":"東京都","city":"渋谷区","address":"東京都渋谷区道玄坂2丁目5-9","lat":35.65930764,"lon":139.69951185},{"name":"渋谷駅前","province":"東京都","city":"渋谷区","address":"東京都渋谷区道玄坂2丁目1-1","lat":35.65929935,"lon":139.70101727},{"name":"宮下公園前","province":"東京都","city":"渋谷区","address":"東京都渋谷区松濤1丁目16-4","lat":35.66192666,"lon":139.69347894},{"name":"恵比寿南","province":"東京都","city":"渋谷区","address":"東京都渋谷区恵比寿南2丁目1-12","lat":35.64606209,"lon":139.7073534},{"name":"道玄坂上交番前","province":"東京都","city":"渋谷区","address":"東京都渋谷区円山町3-6","lat":35.65751331,"lon":139.69552615},{"name":"恵比寿駅前","province":"東京都","city":"渋谷区","address":"東京都渋谷区恵比寿南1丁目5-5","lat":35.64671485,"lon":139.71033922},{"name":"神宮前六丁目","province":"東京都","city":"渋谷区","address":"東京都渋谷区神宮前6丁目19-15","lat":35.66342392,"lon":139.70241976},{"name":"渋谷二丁目","province":"東京都","city":"渋谷区","address":"東京都渋谷区渋谷2丁目12-11","lat":35.65866902,"lon":139.70836944},{"name":"恵比寿駅東口","province":"東京都","city":"渋谷区","address":"東京都渋谷区恵比寿1丁目11-5","lat":35.6463677,"lon":139.71171966},{"name":"南平台","province":"東京都","city":"渋谷区","address":"東京都渋谷区桜丘町31-11","lat":35.65596354,"lon":139.69766492},{"name":"神南郵便局前","province":"東京都","city":"渋谷区","address":"東京都渋谷区神南1丁目22-14","lat":35.66189351,"lon":139.7011005},{"name":"東交番前","province":"東京都","city":"渋谷区","address":"東京都渋谷区東1丁目27-10","lat":35.6539362,"lon":139.70767803},{"name":"勤労福祉会館前","province":"東京都","city":"渋谷区","address":"東京都渋谷区宇田川町15-1","lat":35.66204899,"lon":139.69893957},{"name":"庚申橋","province":"東京都","city":"渋谷区","address":"東京都渋谷区恵比寿3丁目16-2","lat":35.64395141,"lon":139.71834411},{"name":"美竹交番東","province":"東京都","city":"渋谷区","address":"東京都渋谷区渋谷1丁目17-8","lat":35.6611742,"lon":139.70405305},{"name":"井の頭通り入口","province":"東京都","city":"渋谷区","address":"東京都渋谷区神南1丁目22-3","lat":35.66045478,"lon":139.70097557},{"name":"東電電力館前","province":"東京都","city":"渋谷区","address":"東京都渋谷区神南1丁目9-2","lat":35.66376553,"lon":139.70139762},{"name":"恵比寿駅前第二","province":"東京都","city":"渋谷区","address":"東京都渋谷区恵比寿南1丁目1-1","lat":35.64674539,"lon":139.70893101},{"name":"渋谷駅南口第一","province":"東京都","city":"渋谷区","address":"東京都渋谷区道玄坂1丁目2","lat":35.65751342,"lon":139.70031463},{"name":"広尾病院前","province":"東京都","city":"渋谷区","address":"東京都渋谷区広尾5丁目25-8","lat":35.64769271,"lon":139.7218131},{"name":"渋谷警察署東","province":"東京都","city":"渋谷区","address":"東京都渋谷区渋谷3丁目6-2","lat":35.65791348,"lon":139.70497532},{"name":"道玄坂二丁目東","province":"東京都","city":"渋谷区","address":"東京都渋谷区道玄坂2丁目29-20","lat":35.65976312,"lon":139.69815917},{"name":"宇田川町","province":"東京都","city":"渋谷区","address":"東京都渋谷区宇田川町3-1","lat":35.66317942,"lon":139.69879787},{"name":"並木橋北","province":"東京都","city":"渋谷区","address":"東京都渋谷区神宮前3丁目17-15","lat":35.67080662,"lon":139.71041043},{"name":"千駄ヶ谷駅前","province":"東京都","city":"渋谷区","address":"東京都渋谷区千駄ヶ谷1丁目35-7","lat":35.68080274,"lon":139.71177658},{"name":"明治神宮北参道","province":"東京都","city":"渋谷区","address":"東京都渋谷区千駄ヶ谷4丁目5-14","lat":35.68006098,"lon":139.70440227},{"name":"明治神宮北参道第二","province":"東京都","city":"渋谷区","address":"東京都渋谷区千駄ヶ谷4丁目27-1","lat":35.68059702,"lon":139.70414671},{"name":"明治神宮北参道第三","province":"東京都","city":"渋谷区","address":"東京都渋谷区千駄ヶ谷4丁目6-15","lat":35.68016931,"lon":139.70479111},{"name":"代々木駅前","province":"東京都","city":"渋谷区","address":"東京都渋谷区代々木1丁目32-12","lat":35.68265784,"lon":139.70206903},{"name":"鳩森小学校西","province":"東京都","city":"渋谷区","address":"東京都渋谷区千駄ヶ谷5丁目21-8","lat":35.68257736,"lon":139.70438272},{"name":"原宿駅竹下口","province":"東京都","city":"渋谷区","address":"東京都渋谷区神宮前1丁目17-1","lat":35.67144526,"lon":139.70321104},{"name":"代々木一丁目","province":"東京都","city":"渋谷区","address":"東京都渋谷区代々木1丁目10-1","lat":35.68201616,"lon":139.69793887},{"name":"東郷神社前","province":"東京都","city":"渋谷区","address":"東京都渋谷区神宮前1丁目5-1","lat":35.67127038,"lon":139.70703849},{"name":"代々木駅前第二","province":"東京都","city":"渋谷区","address":"東京都渋谷区代々木1丁目36-6","lat":35.68364382,"lon":139.70138851},{"name":"東京体育館南","province":"東京都","city":"渋谷区","address":"東京都渋谷区千駄ヶ谷1丁目14","lat":35.67772254,"lon":139.71225999},{"name":"国立能楽堂前","province":"東京都","city":"渋谷区","address":"東京都渋谷区千駄ヶ谷4丁目20-3","lat":35.68101373,"lon":139.70756583},{"name":"神宮前四丁目","province":"東京都","city":"渋谷区","address":"東京都渋谷区神宮前4丁目3-6","lat":35.66638488,"lon":139.71060503},{"name":"神宮前小学校南","province":"東京都","city":"渋谷区","address":"東京都渋谷区神宮前5丁目8-2","lat":35.66692088,"lon":139.7079247},{"name":"はあとぴあ原宿入口","province":"東京都","city":"渋谷区","address":"東京都渋谷区神宮前2丁目17","lat":35.67260364,"lon":139.7104409},{"name":"代々木八幡前","province":"東京都","city":"渋谷区","address":"東京都渋谷区元代々木町31-10","lat":35.67183649,"lon":139.6873652},{"name":"笹塚出張所前","province":"東京都","city":"渋谷区","address":"東京都渋谷区笹塚2丁目49-4","lat":35.67733544,"lon":139.67008317},{"name":"社会教育館前","province":"東京都","city":"渋谷区","address":"東京都渋谷区幡ヶ谷2丁目52-3","lat":35.67969088,"lon":139.6765214},{"name":"富士見丘高等学校前","province":"東京都","city":"渋谷区","address":"東京都渋谷区笹塚2丁目42-16","lat":35.67644938,"lon":139.66769176},{"name":"青少年センター前","province":"東京都","city":"渋谷区","address":"東京都渋谷区代々木神園町3","lat":35.67875255,"lon":139.69443097},{"name":"代々木上原駅南","province":"東京都","city":"渋谷区","address":"東京都渋谷区上原1丁目30-8","lat":35.66845335,"lon":139.67939102},{"name":"渋谷区役所総合庁舎前","province":"東京都","city":"渋谷区","address":"東京都渋谷区神南1丁目6","lat":35.66423765,"lon":139.69958665},{"name":"西新宿三丁目","province":"東京都","city":"渋谷区","address":"東京都渋谷区代々木3丁目25-3","lat":35.68469625,"lon":139.69232259},{"name":"山種美術館","province":"東京都","city":"渋谷区","address":"渋谷区広尾3-12-36","lat":35.6533231,"lon":139.7138333},{"name":"都立代々木公園","province":"東京都","city":"渋谷区","address":"東京都渋谷区代々木神園町2-1","lat":35.67281151,"lon":139.69257026},{"name":"都立第一商業高等学校","province":"東京都","city":"渋谷区","address":"東京都渋谷区鉢山町8-1","lat":35.65016143,"lon":139.6985845},{"name":"区立景丘公園","province":"東京都","city":"渋谷区","address":"東京都渋谷区恵比寿4丁目19-21","lat":35.6437958,"lon":139.71358068},{"name":"渋谷警察署","province":"東京都","city":"渋谷区","address":"渋谷区渋谷3-8-15","lat":35.65779,"lon":139.7039},{"name":"原宿警察署","province":"東京都","city":"渋谷区","address":"渋谷区神宮前1-4-17","lat":35.67188,"lon":139.7074},{"name":"代々木警察署","province":"東京都","city":"渋谷区","address":"渋谷区本町1-11-3","lat":35.67985,"lon":139.6832},{"name":"第三方面訓練場","province":"東京都","city":"渋谷区","address":"渋谷区幡ヶ谷1-13","lat":35.67292,"lon":139.6717},{"name":"消防学校","province":"東京都","city":"渋谷区","address":"渋谷区西原2-51-1","lat":35.6723,"lon":139.6735},{"name":"渋谷消防署","province":"東京都","city":"渋谷区","address":"渋谷区神南1-8-3","lat":35.66434,"lon":139.7012},{"name":"渋谷区","province":"東京都","city":"渋谷区","address":"渋谷区東3-14-13","lat":35.650896,"lon":139.709739},{"name":"東京都赤十字血液センター渋谷供給出張所","province":"東京都","city":"渋谷区","address":"渋谷区鶯谷町2-16","lat":35.65398,"lon":139.7044},{"name":"道玄坂下","province":"東京都","city":"渋谷区","address":"東京都渋谷区道玄坂2丁目5-9","lat":35.65930764,"lon":139.69951185},{"name":"渋谷駅前","province":"東京都","city":"渋谷区","address":"東京都渋谷区道玄坂2丁目1-1","lat":35.65929935,"lon":139.70101727},{"name":"宮下公園前","province":"東京都","city":"渋谷区","address":"東京都渋谷区松濤1丁目16-4","lat":35.66192666,"lon":139.69347894},{"name":"恵比寿南","province":"東京都","city":"渋谷区","address":"東京都渋谷区恵比寿南2丁目1-12","lat":35.64606209,"lon":139.7073534},{"name":"道玄坂上交番前","province":"東京都","city":"渋谷区","address":"東京都渋谷区円山町3-6","lat":35.65751331,"lon":139.69552615},{"name":"恵比寿駅前","province":"東京都","city":"渋谷区","address":"東京都渋谷区恵比寿南1丁目5-5","lat":35.64671485,"lon":139.71033922},{"name":"神宮前六丁目","province":"東京都","city":"渋谷区","address":"東京都渋谷区神宮前6丁目19-15","lat":35.66342392,"lon":139.70241976},{"name":"渋谷二丁目","province":"東京都","city":"渋谷区","address":"東京都渋谷区渋谷2丁目12-11","lat":35.65866902,"lon":139.70836944},{"name":"恵比寿駅東口","province":"東京都","city":"渋谷区","address":"東京都渋谷区恵比寿1丁目11-5","lat":35.6463677,"lon":139.71171966},{"name":"南平台","province":"東京都","city":"渋谷区","address":"東京都渋谷区桜丘町31-11","lat":35.65596354,"lon":139.69766492},{"name":"神南郵便局前","province":"東京都","city":"渋谷区","address":"東京都渋谷区神南1丁目22-14","lat":35.66189351,"lon":139.7011005},{"name":"東交番前","province":"東京都","city":"渋谷区","address":"東京都渋谷区東1丁目27-10","lat":35.6539362,"lon":139.70767803},{"name":"勤労福祉会館前","province":"東京都","city":"渋谷区","address":"東京都渋谷区宇田川町15-1","lat":35.66204899,"lon":139.69893957},{"name":"庚申橋","province":"東京都","city":"渋谷区","address":"東京都渋谷区恵比寿3丁目16-2","lat":35.64395141,"lon":139.71834411},{"name":"美竹交番東","province":"東京都","city":"渋谷区","address":"東京都渋谷区渋谷1丁目17-8","lat":35.6611742,"lon":139.70405305},{"name":"井の頭通り入口","province":"東京都","city":"渋谷区","address":"東京都渋谷区神南1丁目22-3","lat":35.66045478,"lon":139.70097557},{"name":"東電電力館前","province":"東京都","city":"渋谷区","address":"東京都渋谷区神南1丁目9-2","lat":35.66376553,"lon":139.70139762},{"name":"恵比寿駅前第二","province":"東京都","city":"渋谷区","address":"東京都渋谷区恵比寿南1丁目1-1","lat":35.64674539,"lon":139.70893101},{"name":"渋谷駅南口第一","province":"東京都","city":"渋谷区","address":"東京都渋谷区道玄坂1丁目2","lat":35.65751342,"lon":139.70031463},{"name":"広尾病院前","province":"東京都","city":"渋谷区","address":"東京都渋谷区広尾5丁目25-8","lat":35.64769271,"lon":139.7218131},{"name":"渋谷警察署東","province":"東京都","city":"渋谷区","address":"東京都渋谷区渋谷3丁目6-2","lat":35.65791348,"lon":139.70497532},{"name":"道玄坂二丁目東","province":"東京都","city":"渋谷区","address":"東京都渋谷区道玄坂2丁目29-20","lat":35.65976312,"lon":139.69815917},{"name":"宇田川町","province":"東京都","city":"渋谷区","address":"東京都渋谷区宇田川町3-1","lat":35.66317942,"lon":139.69879787},{"name":"並木橋北","province":"東京都","city":"渋谷区","address":"東京都渋谷区神宮前3丁目17-15","lat":35.67080662,"lon":139.71041043},{"name":"千駄ヶ谷駅前","province":"東京都","city":"渋谷区","address":"東京都渋谷区千駄ヶ谷1丁目35-7","lat":35.68080274,"lon":139.71177658},{"name":"明治神宮北参道","province":"東京都","city":"渋谷区","address":"東京都渋谷区千駄ヶ谷4丁目5-14","lat":35.68006098,"lon":139.70440227},{"name":"明治神宮北参道第二","province":"東京都","city":"渋谷区","address":"東京都渋谷区千駄ヶ谷4丁目27-1","lat":35.68059702,"lon":139.70414671},{"name":"明治神宮北参道第三","province":"東京都","city":"渋谷区","address":"東京都渋谷区千駄ヶ谷4丁目6-15","lat":35.68016931,"lon":139.70479111},{"name":"代々木駅前","province":"東京都","city":"渋谷区","address":"東京都渋谷区代々木1丁目32-12","lat":35.68265784,"lon":139.70206903},{"name":"鳩森小学校西","province":"東京都","city":"渋谷区","address":"東京都渋谷区千駄ヶ谷5丁目21-8","lat":35.68257736,"lon":139.70438272},{"name":"原宿駅竹下口","province":"東京都","city":"渋谷区","address":"東京都渋谷区神宮前1丁目17-1","lat":35.67144526,"lon":139.70321104},{"name":"代々木一丁目","province":"東京都","city":"渋谷区","address":"東京都渋谷区代々木1丁目10-1","lat":35.68201616,"lon":139.69793887},{"name":"東郷神社前","province":"東京都","city":"渋谷区","address":"東京都渋谷区神宮前1丁目5-1","lat":35.67127038,"lon":139.70703849},{"name":"代々木駅前第二","province":"東京都","city":"渋谷区","address":"東京都渋谷区代々木1丁目36-6","lat":35.68364382,"lon":139.70138851},{"name":"東京体育館南","province":"東京都","city":"渋谷区","address":"東京都渋谷区千駄ヶ谷1丁目14","lat":35.67772254,"lon":139.71225999},{"name":"国立能楽堂前","province":"東京都","city":"渋谷区","address":"東京都渋谷区千駄ヶ谷4丁目20-3","lat":35.68101373,"lon":139.70756583},{"name":"神宮前四丁目","province":"東京都","city":"渋谷区","address":"東京都渋谷区神宮前4丁目3-6","lat":35.66638488,"lon":139.71060503},{"name":"神宮前小学校南","province":"東京都","city":"渋谷区","address":"東京都渋谷区神宮前5丁目8-2","lat":35.66692088,"lon":139.7079247},{"name":"はあとぴあ原宿入口","province":"東京都","city":"渋谷区","address":"東京都渋谷区神宮前2丁目17","lat":35.67260364,"lon":139.7104409},{"name":"代々木八幡前","province":"東京都","city":"渋谷区","address":"東京都渋谷区元代々木町31-10","lat":35.67183649,"lon":139.6873652},{"name":"笹塚出張所前","province":"東京都","city":"渋谷区","address":"東京都渋谷区笹塚2丁目49-4","lat":35.67733544,"lon":139.67008317},{"name":"社会教育館前","province":"東京都","city":"渋谷区","address":"東京都渋谷区幡ヶ谷2丁目52-3","lat":35.67969088,"lon":139.6765214},{"name":"富士見丘高等学校前","province":"東京都","city":"渋谷区","address":"東京都渋谷区笹塚2丁目42-16","lat":35.67644938,"lon":139.66769176},{"name":"青少年センター前","province":"東京都","city":"渋谷区","address":"東京都渋谷区代々木神園町3","lat":35.67875255,"lon":139.69443097},{"name":"代々木上原駅南","province":"東京都","city":"渋谷区","address":"東京都渋谷区上原1丁目30-8","lat":35.66845335,"lon":139.67939102},{"name":"渋谷区役所総合庁舎前","province":"東京都","city":"渋谷区","address":"東京都渋谷区神南1丁目6","lat":35.66423765,"lon":139.69958665},{"name":"西新宿三丁目","province":"東京都","city":"渋谷区","address":"東京都渋谷区代々木3丁目25-3","lat":35.68469625,"lon":139.69232259},{"name":"山種美術館","province":"東京都","city":"渋谷区","address":"渋谷区広尾3-12-36","lat":35.6533231,"lon":139.7138333},{"name":"都立代々木公園","province":"東京都","city":"渋谷区","address":"東京都渋谷区代々木神園町2-1","lat":35.67281151,"lon":139.69257026},{"name":"都立第一商業高等学校","province":"東京都","city":"渋谷区","address":"東京都渋谷区鉢山町8-1","lat":35.65016143,"lon":139.6985845},{"name":"区立景丘公園","province":"東京都","city":"渋谷区","address":"東京都渋谷区恵比寿4丁目19-21","lat":35.6437958,"lon":139.71358068},{"name":"渋谷警察署","province":"東京都","city":"渋谷区","address":"渋谷区渋谷3-8-15","lat":35.65779,"lon":139.7039},{"name":"原宿警察署","province":"東京都","city":"渋谷区","address":"渋谷区神宮前1-4-17","lat":35.67188,"lon":139.7074},{"name":"代々木警察署","province":"東京都","city":"渋谷区","address":"渋谷区本町1-11-3","lat":35.67985,"lon":139.6832},{"name":"第三方面訓練場","province":"東京都","city":"渋谷区","address":"渋谷区幡ヶ谷1-13","lat":35.67292,"lon":139.6717},{"name":"消防学校","province":"東京都","city":"渋谷区","address":"渋谷区西原2-51-1","lat":35.6723,"lon":139.6735},{"name":"渋谷消防署","province":"東京都","city":"渋谷区","address":"渋谷区神南1-8-3","lat":35.66434,"lon":139.7012},{"name":"渋谷区","province":"東京都","city":"渋谷区","address":"渋谷区東3-14-13","lat":35.650896,"lon":139.709739},{"name":"東京都赤十字血液センター渋谷供給出張所","province":"東京都","city":"渋谷区","address":"渋谷区鶯谷町2-16","lat":35.65398,"lon":139.7044},{"name":"道玄坂下","province":"東京都","city":"渋谷区","address":"東京都渋谷区道玄坂2丁目5-9","lat":35.65930764,"lon":139.69951185},{"name":"渋谷駅前","province":"東京都","city":"渋谷区","address":"東京都渋谷区道玄坂2丁目1-1","lat":35.65929935,"lon":139.70101727},{"name":"宮下公園前","province":"東京都","city":"渋谷区","address":"東京都渋谷区松濤1丁目16-4","lat":35.66192666,"lon":139.69347894},{"name":"恵比寿南","province":"東京都","city":"渋谷区","address":"東京都渋谷区恵比寿南2丁目1-12","lat":35.64606209,"lon":139.7073534},{"name":"道玄坂上交番前","province":"東京都","city":"渋谷区","address":"東京都渋谷区円山町3-6","lat":35.65751331,"lon":139.69552615},{"name":"恵比寿駅前","province":"東京都","city":"渋谷区","address":"東京都渋谷区恵比寿南1丁目5-5","lat":35.64671485,"lon":139.71033922},{"name":"神宮前六丁目","province":"東京都","city":"渋谷区","address":"東京都渋谷区神宮前6丁目19-15","lat":35.66342392,"lon":139.70241976},{"name":"渋谷二丁目","province":"東京都","city":"渋谷区","address":"東京都渋谷区渋谷2丁目12-11","lat":35.65866902,"lon":139.70836944},{"name":"恵比寿駅東口","province":"東京都","city":"渋谷区","address":"東京都渋谷区恵比寿1丁目11-5","lat":35.6463677,"lon":139.71171966},{"name":"南平台","province":"東京都","city":"渋谷区","address":"東京都渋谷区桜丘町31-11","lat":35.65596354,"lon":139.69766492},{"name":"神南郵便局前","province":"東京都","city":"渋谷区","address":"東京都渋谷区神南1丁目22-14","lat":35.66189351,"lon":139.7011005},{"name":"東交番前","province":"東京都","city":"渋谷区","address":"東京都渋谷区東1丁目27-10","lat":35.6539362,"lon":139.70767803},{"name":"勤労福祉会館前","province":"東京都","city":"渋谷区","address":"東京都渋谷区宇田川町15-1","lat":35.66204899,"lon":139.69893957},{"name":"庚申橋","province":"東京都","city":"渋谷区","address":"東京都渋谷区恵比寿3丁目16-2","lat":35.64395141,"lon":139.71834411},{"name":"美竹交番東","province":"東京都","city":"渋谷区","address":"東京都渋谷区渋谷1丁目17-8","lat":35.6611742,"lon":139.70405305},{"name":"井の頭通り入口","province":"東京都","city":"渋谷区","address":"東京都渋谷区神南1丁目22-3","lat":35.66045478,"lon":139.70097557},{"name":"東電電力館前","province":"東京都","city":"渋谷区","address":"東京都渋谷区神南1丁目9-2","lat":35.66376553,"lon":139.70139762},{"name":"恵比寿駅前第二","province":"東京都","city":"渋谷区","address":"東京都渋谷区恵比寿南1丁目1-1","lat":35.64674539,"lon":139.70893101},{"name":"渋谷駅南口第一","province":"東京都","city":"渋谷区","address":"東京都渋谷区道玄坂1丁目2","lat":35.65751342,"lon":139.70031463},{"name":"広尾病院前","province":"東京都","city":"渋谷区","address":"東京都渋谷区広尾5丁目25-8","lat":35.64769271,"lon":139.7218131},{"name":"渋谷警察署東","province":"東京都","city":"渋谷区","address":"東京都渋谷区渋谷3丁目6-2","lat":35.65791348,"lon":139.70497532},{"name":"道玄坂二丁目東","province":"東京都","city":"渋谷区","address":"東京都渋谷区道玄坂2丁目29-20","lat":35.65976312,"lon":139.69815917},{"name":"宇田川町","province":"東京都","city":"渋谷区","address":"東京都渋谷区宇田川町3-1","lat":35.66317942,"lon":139.69879787},{"name":"並木橋北","province":"東京都","city":"渋谷区","address":"東京都渋谷区神宮前3丁目17-15","lat":35.67080662,"lon":139.71041043},{"name":"千駄ヶ谷駅前","province":"東京都","city":"渋谷区","address":"東京都渋谷区千駄ヶ谷1丁目35-7","lat":35.68080274,"lon":139.71177658},{"name":"明治神宮北参道","province":"東京都","city":"渋谷区","address":"東京都渋谷区千駄ヶ谷4丁目5-14","lat":35.68006098,"lon":139.70440227},{"name":"明治神宮北参道第二","province":"東京都","city":"渋谷区","address":"東京都渋谷区千駄ヶ谷4丁目27-1","lat":35.68059702,"lon":139.70414671},{"name":"明治神宮北参道第三","province":"東京都","city":"渋谷区","address":"東京都渋谷区千駄ヶ谷4丁目6-15","lat":35.68016931,"lon":139.70479111},{"name":"代々木駅前","province":"東京都","city":"渋谷区","address":"東京都渋谷区代々木1丁目32-12","lat":35.68265784,"lon":139.70206903},{"name":"鳩森小学校西","province":"東京都","city":"渋谷区","address":"東京都渋谷区千駄ヶ谷5丁目21-8","lat":35.68257736,"lon":139.70438272},{"name":"原宿駅竹下口","province":"東京都","city":"渋谷区","address":"東京都渋谷区神宮前1丁目17-1","lat":35.67144526,"lon":139.70321104},{"name":"代々木一丁目","province":"東京都","city":"渋谷区","address":"東京都渋谷区代々木1丁目10-1","lat":35.68201616,"lon":139.69793887},{"name":"東郷神社前","province":"東京都","city":"渋谷区","address":"東京都渋谷区神宮前1丁目5-1","lat":35.67127038,"lon":139.70703849},{"name":"代々木駅前第二","province":"東京都","city":"渋谷区","address":"東京都渋谷区代々木1丁目36-6","lat":35.68364382,"lon":139.70138851},{"name":"東京体育館南","province":"東京都","city":"渋谷区","address":"東京都渋谷区千駄ヶ谷1丁目14","lat":35.67772254,"lon":139.71225999},{"name":"国立能楽堂前","province":"東京都","city":"渋谷区","address":"東京都渋谷区千駄ヶ谷4丁目20-3","lat":35.68101373,"lon":139.70756583},{"name":"神宮前四丁目","province":"東京都","city":"渋谷区","address":"東京都渋谷区神宮前4丁目3-6","lat":35.66638488,"lon":139.71060503},{"name":"神宮前小学校南","province":"東京都","city":"渋谷区","address":"東京都渋谷区神宮前5丁目8-2","lat":35.66692088,"lon":139.7079247},{"name":"はあとぴあ原宿入口","province":"東京都","city":"渋谷区","address":"東京都渋谷区神宮前2丁目17","lat":35.67260364,"lon":139.7104409},{"name":"代々木八幡前","province":"東京都","city":"渋谷区","address":"東京都渋谷区元代々木町31-10","lat":35.67183649,"lon":139.6873652},{"name":"笹塚出張所前","province":"東京都","city":"渋谷区","address":"東京都渋谷区笹塚2丁目49-4","lat":35.67733544,"lon":139.67008317},{"name":"社会教育館前","province":"東京都","city":"渋谷区","address":"東京都渋谷区幡ヶ谷2丁目52-3","lat":35.67969088,"lon":139.6765214},{"name":"富士見丘高等学校前","province":"東京都","city":"渋谷区","address":"東京都渋谷区笹塚2丁目42-16","lat":35.67644938,"lon":139.66769176},{"name":"青少年センター前","province":"東京都","city":"渋谷区","address":"東京都渋谷区代々木神園町3","lat":35.67875255,"lon":139.69443097},{"name":"代々木上原駅南","province":"東京都","city":"渋谷区","address":"東京都渋谷区上原1丁目30-8","lat":35.66845335,"lon":139.67939102},{"name":"渋谷区役所総合庁舎前","province":"東京都","city":"渋谷区","address":"東京都渋谷区神南1丁目6","lat":35.66423765,"lon":139.69958665},{"name":"西新宿三丁目","province":"東京都","city":"渋谷区","address":"東京都渋谷区代々木3丁目25-3","lat":35.68469625,"lon":139.69232259},{"name":"山種美術館","province":"東京都","city":"渋谷区","address":"渋谷区広尾3-12-36","lat":35.6533231,"lon":139.7138333},{"name":"都立代々木公園","province":"東京都","city":"渋谷区","address":"東京都渋谷区代々木神園町2-1","lat":35.67281151,"lon":139.69257026},{"name":"都立第一商業高等学校","province":"東京都","city":"渋谷区","address":"東京都渋谷区鉢山町8-1","lat":35.65016143,"lon":139.6985845},{"name":"区立景丘公園","province":"東京都","city":"渋谷区","address":"東京都渋谷区恵比寿4丁目19-21","lat":35.6437958,"lon":139.71358068},{"name":"渋谷警察署","province":"東京都","city":"渋谷区","address":"渋谷区渋谷3-8-15","lat":35.65779,"lon":139.7039},{"name":"原宿警察署","province":"東京都","city":"渋谷区","address":"渋谷区神宮前1-4-17","lat":35.67188,"lon":139.7074},{"name":"代々木警察署","province":"東京都","city":"渋谷区","address":"渋谷区本町1-11-3","lat":35.67985,"lon":139.6832},{"name":"第三方面訓練場","province":"東京都","city":"渋谷区","address":"渋谷区幡ヶ谷1-13","lat":35.67292,"lon":139.6717},{"name":"消防学校","province":"東京都","city":"渋谷区","address":"渋谷区西原2-51-1","lat":35.6723,"lon":139.6735},{"name":"渋谷消防署","province":"東京都","city":"渋谷区","address":"渋谷区神南1-8-3","lat":35.66434,"lon":139.7012},{"name":"渋谷区","province":"東京都","city":"渋谷区","address":"渋谷区東3-14-13","lat":35.650896,"lon":139.709739},{"name":"東京都赤十字血液センター渋谷供給出張所","province":"東京都","city":"渋谷区","address":"渋谷区鶯谷町2-16","lat":35.65398,"lon":139.7044},{"name":"道玄坂下","province":"東京都","city":"渋谷区","address":"東京都渋谷区道玄坂2丁目5-9","lat":35.65930764,"lon":139.69951185},{"name":"渋谷駅前","province":"東京都","city":"渋谷区","address":"東京都渋谷区道玄坂2丁目1-1","lat":35.65929935,"lon":139.70101727},{"name":"宮下公園前","province":"東京都","city":"渋谷区","address":"東京都渋谷区松濤1丁目16-4","lat":35.66192666,"lon":139.69347894},{"name":"恵比寿南","province":"東京都","city":"渋谷区","address":"東京都渋谷区恵比寿南2丁目1-12","lat":35.64606209,"lon":139.7073534},{"name":"道玄坂上交番前","province":"東京都","city":"渋谷区","address":"東京都渋谷区円山町3-6","lat":35.65751331,"lon":139.69552615},{"name":"恵比寿駅前","province":"東京都","city":"渋谷区","address":"東京都渋谷区恵比寿南1丁目5-5","lat":35.64671485,"lon":139.71033922},{"name":"神宮前六丁目","province":"東京都","city":"渋谷区","address":"東京都渋谷区神宮前6丁目19-15","lat":35.66342392,"lon":139.70241976},{"name":"渋谷二丁目","province":"東京都","city":"渋谷区","address":"東京都渋谷区渋谷2丁目12-11","lat":35.65866902,"lon":139.70836944},{"name":"恵比寿駅東口","province":"東京都","city":"渋谷区","address":"東京都渋谷区恵比寿1丁目11-5","lat":35.6463677,"lon":139.71171966},{"name":"南平台","province":"東京都","city":"渋谷区","address":"東京都渋谷区桜丘町31-11","lat":35.65596354,"lon":139.69766492},{"name":"神南郵便局前","province":"東京都","city":"渋谷区","address":"東京都渋谷区神南1丁目22-14","lat":35.66189351,"lon":139.7011005},{"name":"東交番前","province":"東京都","city":"渋谷区","address":"東京都渋谷区東1丁目27-10","lat":35.6539362,"lon":139.70767803},{"name":"勤労福祉会館前","province":"東京都","city":"渋谷区","address":"東京都渋谷区宇田川町15-1","lat":35.66204899,"lon":139.69893957},{"name":"庚申橋","province":"東京都","city":"渋谷区","address":"東京都渋谷区恵比寿3丁目16-2","lat":35.64395141,"lon":139.71834411},{"name":"美竹交番東","province":"東京都","city":"渋谷区","address":"東京都渋谷区渋谷1丁目17-8","lat":35.6611742,"lon":139.70405305},{"name":"井の頭通り入口","province":"東京都","city":"渋谷区","address":"東京都渋谷区神南1丁目22-3","lat":35.66045478,"lon":139.70097557},{"name":"東電電力館前","province":"東京都","city":"渋谷区","address":"東京都渋谷区神南1丁目9-2","lat":35.66376553,"lon":139.70139762},{"name":"恵比寿駅前第二","province":"東京都","city":"渋谷区","address":"東京都渋谷区恵比寿南1丁目1-1","lat":35.64674539,"lon":139.70893101},{"name":"渋谷駅南口第一","province":"東京都","city":"渋谷区","address":"東京都渋谷区道玄坂1丁目2","lat":35.65751342,"lon":139.70031463},{"name":"広尾病院前","province":"東京都","city":"渋谷区","address":"東京都渋谷区広尾5丁目25-8","lat":35.64769271,"lon":139.7218131},{"name":"渋谷警察署東","province":"東京都","city":"渋谷区","address":"東京都渋谷区渋谷3丁目6-2","lat":35.65791348,"lon":139.70497532},{"name":"道玄坂二丁目東","province":"東京都","city":"渋谷区","address":"東京都渋谷区道玄坂2丁目29-20","lat":35.65976312,"lon":139.69815917},{"name":"宇田川町","province":"東京都","city":"渋谷区","address":"東京都渋谷区宇田川町3-1","lat":35.66317942,"lon":139.69879787},{"name":"並木橋北","province":"東京都","city":"渋谷区","address":"東京都渋谷区神宮前3丁目17-15","lat":35.67080662,"lon":139.71041043},{"name":"千駄ヶ谷駅前","province":"東京都","city":"渋谷区","address":"東京都渋谷区千駄ヶ谷1丁目35-7","lat":35.68080274,"lon":139.71177658},{"name":"明治神宮北参道","province":"東京都","city":"渋谷区","address":"東京都渋谷区千駄ヶ谷4丁目5-14","lat":35.68006098,"lon":139.70440227},{"name":"明治神宮北参道第二","province":"東京都","city":"渋谷区","address":"東京都渋谷区千駄ヶ谷4丁目27-1","lat":35.68059702,"lon":139.70414671},{"name":"明治神宮北参道第三","province":"東京都","city":"渋谷区","address":"東京都渋谷区千駄ヶ谷4丁目6-15","lat":35.68016931,"lon":139.70479111},{"name":"代々木駅前","province":"東京都","city":"渋谷区","address":"東京都渋谷区代々木1丁目32-12","lat":35.68265784,"lon":139.70206903},{"name":"鳩森小学校西","province":"東京都","city":"渋谷区","address":"東京都渋谷区千駄ヶ谷5丁目21-8","lat":35.68257736,"lon":139.70438272},{"name":"原宿駅竹下口","province":"東京都","city":"渋谷区","address":"東京都渋谷区神宮前1丁目17-1","lat":35.67144526,"lon":139.70321104},{"name":"代々木一丁目","province":"東京都","city":"渋谷区","address":"東京都渋谷区代々木1丁目10-1","lat":35.68201616,"lon":139.69793887},{"name":"東郷神社前","province":"東京都","city":"渋谷区","address":"東京都渋谷区神宮前1丁目5-1","lat":35.67127038,"lon":139.70703849},{"name":"代々木駅前第二","province":"東京都","city":"渋谷区","address":"東京都渋谷区代々木1丁目36-6","lat":35.68364382,"lon":139.70138851},{"name":"東京体育館南","province":"東京都","city":"渋谷区","address":"東京都渋谷区千駄ヶ谷1丁目14","lat":35.67772254,"lon":139.71225999},{"name":"国立能楽堂前","province":"東京都","city":"渋谷区","address":"東京都渋谷区千駄ヶ谷4丁目20-3","lat":35.68101373,"lon":139.70756583},{"name":"神宮前四丁目","province":"東京都","city":"渋谷区","address":"東京都渋谷区神宮前4丁目3-6","lat":35.66638488,"lon":139.71060503},{"name":"神宮前小学校南","province":"東京都","city":"渋谷区","address":"東京都渋谷区神宮前5丁目8-2","lat":35.66692088,"lon":139.7079247},{"name":"はあとぴあ原宿入口","province":"東京都","city":"渋谷区","address":"東京都渋谷区神宮前2丁目17","lat":35.67260364,"lon":139.7104409},{"name":"代々木八幡前","province":"東京都","city":"渋谷区","address":"東京都渋谷区元代々木町31-10","lat":35.67183649,"lon":139.6873652},{"name":"笹塚出張所前","province":"東京都","city":"渋谷区","address":"東京都渋谷区笹塚2丁目49-4","lat":35.67733544,"lon":139.67008317},{"name":"社会教育館前","province":"東京都","city":"渋谷区","address":"東京都渋谷区幡ヶ谷2丁目52-3","lat":35.67969088,"lon":139.6765214},{"name":"富士見丘高等学校前","province":"東京都","city":"渋谷区","address":"東京都渋谷区笹塚2丁目42-16","lat":35.67644938,"lon":139.66769176},{"name":"青少年センター前","province":"東京都","city":"渋谷区","address":"東京都渋谷区代々木神園町3","lat":35.67875255,"lon":139.69443097},{"name":"代々木上原駅南","province":"東京都","city":"渋谷区","address":"東京都渋谷区上原1丁目30-8","lat":35.66845335,"lon":139.67939102},{"name":"渋谷区役所総合庁舎前","province":"東京都","city":"渋谷区","address":"東京都渋谷区神南1丁目6","lat":35.66423765,"lon":139.69958665},{"name":"西新宿三丁目","province":"東京都","city":"渋谷区","address":"東京都渋谷区代々木3丁目25-3","lat":35.68469625,"lon":139.69232259},{"name":"山種美術館","province":"東京都","city":"渋谷区","address":"渋谷区広尾3-12-36","lat":35.6533231,"lon":139.7138333},{"name":"都立代々木公園","province":"東京都","city":"渋谷区","address":"東京都渋谷区代々木神園町2-1","lat":35.67281151,"lon":139.69257026},{"name":"都立第一商業高等学校","province":"東京都","city":"渋谷区","address":"東京都渋谷区鉢山町8-1","lat":35.65016143,"lon":139.6985845},{"name":"区立景丘公園","province":"東京都","city":"渋谷区","address":"東京都渋谷区恵比寿4丁目19-21","lat":35.6437958,"lon":139.71358068},{"name":"渋谷警察署","province":"東京都","city":"渋谷区","address":"渋谷区渋谷3-8-15","lat":35.65779,"lon":139.7039},{"name":"原宿警察署","province":"東京都","city":"渋谷区","address":"渋谷区神宮前1-4-17","lat":35.67188,"lon":139.7074},{"name":"代々木警察署","province":"東京都","city":"渋谷区","address":"渋谷区本町1-11-3","lat":35.67985,"lon":139.6832},{"name":"第三方面訓練場","province":"東京都","city":"渋谷区","address":"渋谷区幡ヶ谷1-13","lat":35.67292,"lon":139.6717},{"name":"消防学校","province":"東京都","city":"渋谷区","address":"渋谷区西原2-51-1","lat":35.6723,"lon":139.6735},{"name":"渋谷消防署","province":"東京都","city":"渋谷区","address":"渋谷区神南1-8-3","lat":35.66434,"lon":139.7012},{"name":"渋谷区","province":"東京都","city":"渋谷区","address":"渋谷区東3-14-13","lat":35.650896,"lon":139.709739},{"name":"東京都赤十字血液センター渋谷供給出張所","province":"東京都","city":"渋谷区","address":"渋谷区鶯谷町2-16","lat":35.65398,"lon":139.7044}]}