{"keyword":"総務","data":[{"name":"都立代々木公園競技場（織田フィールド）","province":"東京都","city":"渋谷区","address":"東京都渋谷区神南2丁目3-1","lat":35.66632898,"lon":139.69484253},{"name":"渋谷区立スポーツセンター","province":"東京都","city":"渋谷区","address":"東京都渋谷区西原1丁目40-18","lat":35.67556369,"lon":139.68096562},{"name":"都立広尾病院ヘリポート","province":"東京都","city":"渋谷区","address":"東京都渋谷区恵比寿2丁目34-10","lat":35.64707054,"lon":139.72073544},{"name":"日本赤十字社医療センターヘリポート","province":"東京都","city":"渋谷区","address":"東京都渋谷区広尾4丁目1-22","lat":35.65443909,"lon":139.71794375},{"name":"東京ウィメンズプラザ","province":"東京都","city":"渋谷区","address":"東京都渋谷区神宮前5丁目53-67","lat":35.662788,"lon":139.70793876},{"name":"青山高等学校","province":"東京都","city":"渋谷区","address":"東京都渋谷区神宮前2丁目1-8","lat":35.67270374,"lon":139.71607374},{"name":"広尾高等学校","province":"東京都","city":"渋谷区","address":"東京都渋谷区東4丁目14-14","lat":35.65287808,"lon":139.71284984},{"name":"第一商業高等学校","province":"東京都","city":"渋谷区","address":"東京都渋谷区鉢山町8-1","lat":35.65016143,"lon":139.6985845},{"name":"東京消防庁消防学校","province":"東京都","city":"渋谷区","address":"東京都渋谷区西原2丁目51-1","lat":35.67232498,"lon":139.67333307}]}