{"keyword":"自転車","data":[{"name":"恵比寿駅西口第一自転車駐車場","province":"東京都","city":"渋谷区","address":"東京都渋谷区恵比寿西1丁目2","lat":35.64841463,"lon":139.70883372},{"name":"恵比寿駅西口第二自転車等駐車場","province":"東京都","city":"渋谷区","address":"東京都渋谷区恵比寿南1丁目6","lat":35.64642877,"lon":139.70978373},{"name":"ＮＨＫ西門前自転車等駐車場","province":"東京都","city":"渋谷区","address":"東京都渋谷区神山町6","lat":35.66476246,"lon":139.69398989},{"name":"恵比寿駅東口公園自転車駐車場","province":"東京都","city":"渋谷区","address":"東京都渋谷区恵比寿4丁目2-6","lat":35.64685651,"lon":139.71054753},{"name":"渋谷二丁目交差点自転車等駐車場","province":"東京都","city":"渋谷区","address":"東京都渋谷区渋谷4丁目5-8","lat":35.65864681,"lon":139.70901384},{"name":"五輪橋第一自転車駐車場","province":"東京都","city":"渋谷区","address":"東京都渋谷区代々木神園町2","lat":35.67256997,"lon":139.69640882},{"name":"五輪橋第二自転車駐車場","province":"東京都","city":"渋谷区","address":"東京都渋谷区神南2丁目1","lat":35.665993,"lon":139.69905051},{"name":"北参道第二自転車等駐車場","province":"東京都","city":"渋谷区","address":"東京都渋谷区千駄ヶ谷4丁目28","lat":35.680672,"lon":139.70357176},{"name":"初台東自転車等駐車場","province":"東京都","city":"渋谷区","address":"東京都渋谷区代々木4丁目32","lat":35.68223811,"lon":139.68870912},{"name":"初台中央自転車等駐車場","province":"東京都","city":"渋谷区","address":"東京都渋谷区初台1丁目47","lat":35.68175759,"lon":139.68795365},{"name":"初台駅南口自転車等駐車場","province":"東京都","city":"渋谷区","address":"東京都渋谷区初台1丁目37-1","lat":35.68033272,"lon":139.68671493},{"name":"笹塚駅南自転車駐車場","province":"東京都","city":"渋谷区","address":"東京都渋谷区笹塚1丁目29","lat":35.67309696,"lon":139.66698916},{"name":"笹塚東自転車等駐車場","province":"東京都","city":"渋谷区","address":"東京都渋谷区笹塚1丁目52-12","lat":35.67516905,"lon":139.67125538},{"name":"笹塚交差点前自転車等駐車場","province":"東京都","city":"渋谷区","address":"東京都渋谷区幡ヶ谷2丁目31","lat":35.67580786,"lon":139.6710637},{"name":"サイカパーク初台","province":"東京都","city":"渋谷区","address":"東京都渋谷区本町1丁目1-11","lat":35.68198527,"lon":139.68539553},{"name":"サイカパーク恵比寿","province":"東京都","city":"渋谷区","address":"東京都渋谷区恵比寿4丁目2-6","lat":35.64685651,"lon":139.71054753},{"name":"幡ヶ谷高架下第一自転車等駐車場","province":"東京都","city":"渋谷区","address":"東京都渋谷区幡ヶ谷2丁目13","lat":35.67762167,"lon":139.67652982},{"name":"幡ヶ谷南第一自転車等駐車場","province":"東京都","city":"渋谷区","address":"東京都渋谷区幡ヶ谷1丁目30","lat":35.67552744,"lon":139.67504391},{"name":"幡ヶ谷南第二自転車等駐車場","province":"東京都","city":"渋谷区","address":"東京都渋谷区幡ヶ谷1丁目2","lat":35.67694955,"lon":139.677277},{"name":"参宮橋高架下自転車等駐車場","province":"東京都","city":"渋谷区","address":"東京都渋谷区代々木4丁目1","lat":35.67950521,"lon":139.6935588},{"name":"代々木駅東口自転車等駐車場","province":"東京都","city":"渋谷区","address":"東京都渋谷区千駄ヶ谷5丁目24","lat":35.68540198,"lon":139.70221891},{"name":"代々木駅西口自転車駐車場","province":"東京都","city":"渋谷区","address":"東京都渋谷区代々木1丁目34","lat":35.68325777,"lon":139.70190791},{"name":"代々木駅北口第一自転車駐車場","province":"東京都","city":"渋谷区","address":"東京都渋谷区代々木1丁目57","lat":35.68522975,"lon":139.70148288},{"name":"代々木駅北口第二自転車駐車場","province":"東京都","city":"渋谷区","address":"東京都渋谷区代々木1丁目55","lat":35.68425485,"lon":139.70085797},{"name":"代々木一丁目自転車等駐車場","province":"東京都","city":"渋谷区","address":"東京都渋谷区代々木1丁目20-4","lat":35.68034147,"lon":139.70273851},{"name":"千駄ヶ谷駅第一自転車駐車場","province":"東京都","city":"渋谷区","address":"東京都渋谷区千駄ヶ谷1丁目35","lat":35.68120822,"lon":139.71067389},{"name":"千駄ヶ谷駅前自転車駐車場","province":"東京都","city":"渋谷区","address":"東京都渋谷区千駄ヶ谷1丁目36","lat":35.68129707,"lon":139.70956842},{"name":"渋谷道玄坂自転車駐車場","province":"東京都","city":"渋谷区","address":"東京都渋谷区道玄坂1丁目12","lat":35.65795221,"lon":139.69787037},{"name":"渋谷駅ハチ公口自転車駐車場","province":"東京都","city":"渋谷区","address":"東京都渋谷区渋谷1丁目26-5","lat":35.66171854,"lon":139.70180045},{"name":"渋谷駅新南口自転車駐車場","province":"東京都","city":"渋谷区","address":"東京都渋谷区渋谷3丁目16","lat":35.65617478,"lon":139.7049865},{"name":"金王坂上自転車駐車場","province":"東京都","city":"渋谷区","address":"東京都渋谷区渋谷2丁目16","lat":35.65966606,"lon":139.70513635},{"name":"金王坂中央第一自転車駐車場","province":"東京都","city":"渋谷区","address":"東京都渋谷区渋谷2丁目15","lat":35.65855508,"lon":139.70507529},{"name":"金王坂中央第二自転車駐車場","province":"東京都","city":"渋谷区","address":"東京都渋谷区渋谷2丁目17","lat":35.65896335,"lon":139.70458643},{"name":"代々木上原駅自転車等駐車場","province":"東京都","city":"渋谷区","address":"東京都渋谷区上原1丁目31","lat":35.6684589,"lon":139.67915493},{"name":"代々木上原駅第二自転車駐車場","province":"東京都","city":"渋谷区","address":"東京都渋谷区西原3丁目12","lat":35.66910605,"lon":139.67944099},{"name":"代々木八幡駅北自転車等駐車場","province":"東京都","city":"渋谷区","address":"東京都渋谷区元代々木町1","lat":35.66996727,"lon":139.6874097},{"name":"代々木八幡駅八幡橋高架下自転車駐車場","province":"東京都","city":"渋谷区","address":"東京都渋谷区上原1丁目47","lat":35.66917291,"lon":139.68732363},{"name":"代々木公園駅自転車駐車場","province":"東京都","city":"渋谷区","address":"東京都渋谷区富ヶ谷1丁目8","lat":35.66849807,"lon":139.6907678},{"name":"広尾橋自転車駐車場","province":"東京都","city":"渋谷区","address":"東京都渋谷区広尾5丁目6-6","lat":35.65003133,"lon":139.7218519},{"name":"あおい通り自転車等駐車場","province":"東京都","city":"渋谷区","address":"東京都渋谷区代々木2丁目9","lat":35.68804603,"lon":139.69860524},{"name":"甲州街道代々木第一自転車駐車場","province":"東京都","city":"渋谷区","address":"東京都渋谷区代々木2丁目9","lat":35.68804603,"lon":139.69860524},{"name":"甲州街道代々木第二自転車駐車場","province":"東京都","city":"渋谷区","address":"東京都渋谷区代々木2丁目11","lat":35.68737107,"lon":139.69693319},{"name":"恵比寿南まちかど公園自転車等駐車場","province":"東京都","city":"渋谷区","address":"東京都渋谷区恵比寿南1丁目15-1","lat":35.64479006,"lon":139.70924774},{"name":"宇田川自転車駐車場","province":"東京都","city":"渋谷区","address":"東京都渋谷区宇田川町11-9","lat":35.66242669,"lon":139.69716193},{"name":"神宮前4丁目自転車駐車場","province":"東京都","city":"渋谷区","address":"東京都渋谷区神宮前4丁目26-35","lat":35.66945672,"lon":139.70801902},{"name":"渋谷フクラス西自転車駐車場","province":"東京都","city":"渋谷区","address":"東京都渋谷区道玄坂1丁目2-3","lat":35.65772728,"lon":139.7001563}]}