{"keyword":"認可","data":[{"name":"ChaCha Children Daikanyama","province":"東京都","city":"渋谷区","address":"渋谷区恵比寿西2-13-5","lat":35.65088,"lon":139.70628},{"name":"AIAI　NURSERY　初台本町","province":"東京都","city":"渋谷区","address":"渋谷区本町2-6-32階","lat":35.68312,"lon":139.68343},{"name":"あい・あい保育園初台本町園","province":"東京都","city":"渋谷区","address":"渋谷区本町2-6-3","lat":35.68312,"lon":139.68343},{"name":"茶々だいかんやま保育園","province":"東京都","city":"渋谷区","address":"渋谷区恵比寿西2-13-5","lat":35.65088,"lon":139.70628},{"name":"渋谷東ちとせ保育園","province":"東京都","city":"渋谷区","address":"渋谷区東4-7-8","lat":35.65596,"lon":139.71343},{"name":"元代々木保育園","province":"東京都","city":"渋谷区","address":"渋谷区元代々木町51-19","lat":35.67316,"lon":139.68662},{"name":"富ヶ谷保育園","province":"東京都","city":"渋谷区","address":"渋谷区富ヶ谷2-30-8","lat":35.6651,"lon":139.68514},{"name":"西原保育園ゆめ","province":"東京都","city":"渋谷区","address":"渋谷区西原1-22-20","lat":35.67657,"lon":139.67835},{"name":"さくらさくみらい西原","province":"東京都","city":"渋谷区","address":"渋谷区西原2-33-17","lat":35.67452,"lon":139.67685},{"name":"笹塚保育園","province":"東京都","city":"渋谷区","address":"渋谷区笹塚3-36-13","lat":35.67729,"lon":139.66625},{"name":"笹幡保育園","province":"東京都","city":"渋谷区","address":"渋谷区笹塚2-34-12","lat":35.67507,"lon":139.6648},{"name":"元代々木保育園","province":"東京都","city":"渋谷区","address":"渋谷区元代々木町51-19","lat":35.68075,"lon":139.70139}]}