{"keyword":"週","data":[{"name":"代官山ティーンズ・クリエイティブ","province":"東京都","city":"渋谷区","address":"渋谷区代官山町7-9","lat":35.650728,"lon":139.704953},{"name":"渋谷区児童青少年センター","province":"東京都","city":"渋谷区","address":"渋谷区本町6-6-2","lat":35.682102,"lon":139.679535},{"name":"渋谷区立幡ケ谷授産場","province":"東京都","city":"渋谷区","address":"渋谷区幡ヶ谷3-53-3","lat":35.681868,"lon":139.674152},{"name":"渋谷区社会福祉協議会","province":"東京都","city":"渋谷区","address":"渋谷区宇田川町5-2渋谷区役所神南分庁舎1階","lat":35.66286,"lon":139.698215},{"name":"中央","province":"東京都","city":"渋谷区","address":"東京都渋谷区神宮前1-4-1","lat":35.672452,"lon":139.706176},{"name":"こもれび大和田","province":"東京都","city":"渋谷区","address":"東京都渋谷区桜丘町23-21","lat":35.655378,"lon":139.700314},{"name":"西原","province":"東京都","city":"渋谷区","address":"東京都渋谷区西原2-28-9","lat":35.674949,"lon":139.677778},{"name":"富ヶ谷","province":"東京都","city":"渋谷区","address":"東京都渋谷区上原1-46-2","lat":35.668512,"lon":139.687269},{"name":"笹塚","province":"東京都","city":"渋谷区","address":"東京都渋谷区笹塚1-47-1メルクマール京王笹塚4階","lat":35.673527,"lon":139.667783},{"name":"本町","province":"東京都","city":"渋谷区","address":"東京都渋谷区本町1-33-5","lat":35.68075,"lon":139.681686},{"name":"臨川みんなの","province":"東京都","city":"渋谷区","address":"東京都渋谷区広尾1-9-17","lat":35.649363,"lon":139.716734},{"name":"代々木","province":"東京都","city":"渋谷区","address":"東京都渋谷区代々木3-51-8代々木区民施設4階","lat":35.681969,"lon":139.695981},{"name":"笹塚こども","province":"東京都","city":"渋谷区","address":"東京都渋谷区笹塚3-3-1","lat":35.678743,"lon":139.669727},{"name":"白根図書サービススポット","province":"東京都","city":"渋谷区","address":"東京都渋谷区東4-9-1白根記念渋谷区郷土博物館・文学館1階","lat":35.656435,"lon":139.712507},{"name":"代官山ティーンズ・クリエイティブ","province":"東京都","city":"渋谷区","address":"渋谷区代官山町7-9","lat":35.65105,"lon":139.70528},{"name":"児童青少年センター　フレンズ本町","province":"東京都","city":"渋谷区","address":"渋谷区本町6-6-2","lat":35.68232,"lon":139.67931},{"name":"渋谷区立幡ケ谷授産場","province":"東京都","city":"渋谷区","address":"渋谷区幡ヶ谷3-53-3","lat":35.6812,"lon":139.6738},{"name":"渋谷区社会福祉協議会","province":"東京都","city":"渋谷区","address":"渋谷区宇田川町1-1渋谷区役所内","lat":35.66415,"lon":139.69789},{"name":"東京体育館","province":"東京都","city":"渋谷区","address":"東京都渋谷区千駄ヶ谷1-17-1","lat":35.679396,"lon":139.711963},{"name":"児童青少年センター　フレンズ本町","province":"東京都","city":"渋谷区","address":"渋谷区本町6-6-2","lat":35.682102,"lon":139.679535},{"name":"渋谷区社会福祉協議会","province":"東京都","city":"渋谷区","address":"渋谷区宇田川町1-1渋谷区役所内","lat":35.663475,"lon":139.697189},{"name":"山種美術館","province":"東京都","city":"渋谷区","address":"渋谷区広尾3-12-36","lat":35.6533231,"lon":139.7138333},{"name":"代々幡斎場","province":"東京都","city":"渋谷区","address":"東京都渋谷区西原2丁目42-1","lat":35.67335551,"lon":139.67732435},{"name":"都立代々木公園","province":"東京都","city":"渋谷区","address":"東京都渋谷区代々木神園町2-1","lat":35.67281151,"lon":139.69257026},{"name":"都立第一商業高等学校","province":"東京都","city":"渋谷区","address":"東京都渋谷区鉢山町8-1","lat":35.65016143,"lon":139.6985845},{"name":"区立景丘公園","province":"東京都","city":"渋谷区","address":"東京都渋谷区恵比寿4丁目19-21","lat":35.6437958,"lon":139.71358068},{"name":"都立代々木公園競技場（織田フィールド）","province":"東京都","city":"渋谷区","address":"東京都渋谷区神南2丁目3-1","lat":35.66632898,"lon":139.69484253},{"name":"渋谷区立スポーツセンター","province":"東京都","city":"渋谷区","address":"東京都渋谷区西原1丁目40-18","lat":35.67556369,"lon":139.68096562},{"name":"都立広尾病院ヘリポート","province":"東京都","city":"渋谷区","address":"東京都渋谷区恵比寿2丁目34-10","lat":35.64707054,"lon":139.72073544},{"name":"日本赤十字社医療センターヘリポート","province":"東京都","city":"渋谷区","address":"東京都渋谷区広尾4丁目1-22","lat":35.65443909,"lon":139.71794375},{"name":"国立オリンピック記念青少年総合センター","province":"東京都","city":"渋谷区","address":"渋谷区代々木神園町3-1","lat":35.67181671,"lon":139.6970502},{"name":"初台青年館","province":"東京都","city":"渋谷区","address":"東京都渋谷区初台1丁目33-10","lat":35.67960221,"lon":139.68485123},{"name":"代官山ティーンズクリエイティブ","province":"東京都","city":"渋谷区","address":"東京都渋谷区代官山町7-9","lat":35.65073373,"lon":139.70500339},{"name":"＊?幡ヶ谷社会教育館","province":"東京都","city":"渋谷区","address":"渋谷区幡ヶ谷2-50-2","lat":35.679924,"lon":139.67731},{"name":"＊?恵比寿社会教育館","province":"東京都","city":"渋谷区","address":"渋谷区恵比寿2ー27ー18","lat":35.645323,"lon":139.719616},{"name":"＊?長谷戸社会教育館","province":"東京都","city":"渋谷区","address":"渋谷区恵比寿西1ー23ー4","lat":35.647069,"lon":139.706565},{"name":"＊?千駄ヶ谷社会教育館","province":"東京都","city":"渋谷区","address":"渋谷区千駄ヶ谷1-6-5","lat":35.678101,"lon":139.709962},{"name":"＊?上原社会教育館","province":"東京都","city":"渋谷区","address":"渋谷区上原3-13-8","lat":35.666503,"lon":139.678587},{"name":"＊?松濤美術館","province":"東京都","city":"渋谷区","address":"渋谷区松濤2―14-14","lat":35.658706,"lon":139.691804},{"name":"＊?白根記念渋谷区郷土博物館・文学館","province":"東京都","city":"渋谷区","address":"渋谷区東4-9-1","lat":35.656393,"lon":139.712577},{"name":"＊?こども科学センター・ハチラボ","province":"東京都","city":"渋谷区","address":"渋谷区桜丘町23-21","lat":35.655458,"lon":139.699965},{"name":"＊?中央図書館","province":"東京都","city":"渋谷区","address":"渋谷区神宮前1-4-1","lat":35.672458,"lon":139.706188},{"name":"＊?西原図書館","province":"東京都","city":"渋谷区","address":"渋谷区西原2-28-9","lat":35.674953,"lon":139.677732},{"name":"＊?渋谷図書館","province":"東京都","city":"渋谷区","address":"渋谷区東1-6-6","lat":35.656504,"lon":139.709774},{"name":"＊?富ヶ谷図書館","province":"東京都","city":"渋谷区","address":"渋谷区上原1-46-2","lat":35.668508,"lon":139.687254},{"name":"＊?笹塚図書館","province":"東京都","city":"渋谷区","address":"渋谷区笹塚1-27-1","lat":35.67223,"lon":139.667182},{"name":"＊?本町図書館","province":"東京都","city":"渋谷区","address":"渋谷区本町1-33-5","lat":35.680752,"lon":139.681671},{"name":"＊?臨川みんなの図書館","province":"東京都","city":"渋谷区","address":"渋谷区広尾1ー9ー17","lat":35.649416,"lon":139.716607},{"name":"＊?代々木図書館","province":"東京都","city":"渋谷区","address":"渋谷区代々木3-51-8","lat":35.681984,"lon":139.695977},{"name":"＊?笹塚こども図書館","province":"東京都","city":"渋谷区","address":"渋谷区笹塚3-3-1","lat":35.678711,"lon":139.669753},{"name":"＊?こもれび大和田図書館","province":"東京都","city":"渋谷区","address":"渋谷区桜丘町23-21","lat":35.655458,"lon":139.699965},{"name":"東京体育館","province":"東京都","city":"渋谷区","address":"東京都渋谷区千駄ヶ谷1-17-1","lat":35.68005,"lon":139.713501},{"name":"東京体育館","province":"東京都","city":"渋谷区","address":"東京都渋谷区","lat":35.66368489,"lon":139.69770072},{"name":"メインアリーナ","province":"東京都","city":"渋谷区","address":"渋谷区千駄ヶ谷1-17-1","lat":35.679396,"lon":139.711963},{"name":"サブアリーナ","province":"東京都","city":"渋谷区","address":"渋谷区千駄ヶ谷1-17-1","lat":35.679396,"lon":139.711963},{"name":"50mプール","province":"東京都","city":"渋谷区","address":"渋谷区千駄ヶ谷1-17-1","lat":35.679396,"lon":139.711963},{"name":"25mプール","province":"東京都","city":"渋谷区","address":"渋谷区千駄ヶ谷1-17-1","lat":35.679396,"lon":139.711963},{"name":"陸上競技場","province":"東京都","city":"渋谷区","address":"渋谷区千駄ヶ谷1-17-1","lat":35.679396,"lon":139.711963},{"name":"トレーニングルーム","province":"東京都","city":"渋谷区","address":"渋谷区千駄ヶ谷1-17-1","lat":35.679396,"lon":139.711963},{"name":"健康体力相談室","province":"東京都","city":"渋谷区","address":"渋谷区千駄ヶ谷1-17-1","lat":35.679396,"lon":139.711963},{"name":"渋谷区本庁舎","province":"東京都","city":"渋谷区","address":"渋谷区宇田川町1-1","lat":35.66396,"lon":139.698082},{"name":"東京急行電鉄（株）","province":"東京都","city":"渋谷区","address":"渋谷区南平台町5-6","lat":35.65497,"lon":139.6979},{"name":"日本放送協会","province":"東京都","city":"渋谷区","address":"渋谷区神南2-2-1","lat":35.66656,"lon":139.6969},{"name":"渋谷警察署","province":"東京都","city":"渋谷区","address":"渋谷区渋谷3-8-15","lat":35.65779,"lon":139.7039},{"name":"原宿警察署","province":"東京都","city":"渋谷区","address":"渋谷区神宮前1-4-17","lat":35.67188,"lon":139.7074},{"name":"代々木警察署","province":"東京都","city":"渋谷区","address":"渋谷区本町1-11-3","lat":35.67985,"lon":139.6832},{"name":"第三方面訓練場","province":"東京都","city":"渋谷区","address":"渋谷区幡ヶ谷1-13","lat":35.67292,"lon":139.6717},{"name":"消防学校","province":"東京都","city":"渋谷区","address":"渋谷区西原2-51-1","lat":35.6723,"lon":139.6735},{"name":"渋谷消防署","province":"東京都","city":"渋谷区","address":"渋谷区神南1-8-3","lat":35.66434,"lon":139.7012},{"name":"渋谷区","province":"東京都","city":"渋谷区","address":"渋谷区東3-14-13","lat":35.650896,"lon":139.709739},{"name":"東京都赤十字血液センター渋谷供給出張所","province":"東京都","city":"渋谷区","address":"渋谷区鶯谷町2-16","lat":35.65398,"lon":139.7044},{"name":"都立代々木公園陸上競技場・サッカー場","province":"東京都","city":"渋谷区","address":"渋谷区代々木神園町地内","lat":35.6747,"lon":139.6934},{"name":"渋谷清掃工場","province":"東京都","city":"渋谷区","address":"渋谷区東1-35-1","lat":35.65326,"lon":139.7065},{"name":"都立広尾病院専用臨時ヘリポート","province":"東京都","city":"渋谷区","address":"渋谷区恵比寿2-34-10","lat":35.646638,"lon":139.721236},{"name":"日本赤十字社医療センターヘリポート","province":"東京都","city":"渋谷区","address":"渋谷区広尾4-1-22","lat":35.65444,"lon":139.717944},{"name":"（株）ＮＴＴドコモドコモ代々木","province":"東京都","city":"渋谷区","address":"渋谷区千駄ヶ谷5-24-3","lat":35.6844,"lon":139.7031},{"name":"ＮＴＴコミュニケーションズ（株）渋谷鉢山ビル","province":"東京都","city":"渋谷区","address":"渋谷区鉢山町9-31","lat":35.65135,"lon":139.698},{"name":"東京電力（株）渋谷支社","province":"東京都","city":"渋谷区","address":"渋谷区神南1-12-10","lat":35.66345,"lon":139.7009},{"name":"※渋谷区本庁舎","province":"東京都","city":"渋谷区","address":"東京都渋谷区宇田川町1-1","lat":35.66395376,"lon":139.69807679},{"name":"渋谷駅","province":"東京都","city":"渋谷区","address":"東京都渋谷区道玄坂1丁目1-1","lat":35.65844945,"lon":139.70127562},{"name":"代々木ＰＡ","province":"東京都","city":"渋谷区","address":"東京都渋谷区","lat":35.66368489,"lon":139.69770072},{"name":"渋谷自動車営業所","province":"東京都","city":"渋谷区","address":"東京都渋谷区東2丁目25-36","lat":35.65310297,"lon":139.70793916},{"name":"代官山ティーンズ・クリエイティブ","province":"東京都","city":"渋谷区","address":"渋谷区代官山町7-9","lat":35.650728,"lon":139.704953},{"name":"渋谷区児童青少年センター","province":"東京都","city":"渋谷区","address":"渋谷区本町6-6-2","lat":35.682102,"lon":139.679535},{"name":"渋谷区立幡ケ谷授産場","province":"東京都","city":"渋谷区","address":"渋谷区幡ヶ谷3-53-3","lat":35.681868,"lon":139.674152},{"name":"渋谷区社会福祉協議会","province":"東京都","city":"渋谷区","address":"渋谷区宇田川町5-2渋谷区役所神南分庁舎1階","lat":35.66286,"lon":139.698215},{"name":"中央","province":"東京都","city":"渋谷区","address":"東京都渋谷区神宮前1-4-1","lat":35.672452,"lon":139.706176},{"name":"こもれび大和田","province":"東京都","city":"渋谷区","address":"東京都渋谷区桜丘町23-21","lat":35.655378,"lon":139.700314},{"name":"西原","province":"東京都","city":"渋谷区","address":"東京都渋谷区西原2-28-9","lat":35.674949,"lon":139.677778},{"name":"富ヶ谷","province":"東京都","city":"渋谷区","address":"東京都渋谷区上原1-46-2","lat":35.668512,"lon":139.687269},{"name":"笹塚","province":"東京都","city":"渋谷区","address":"東京都渋谷区笹塚1-47-1メルクマール京王笹塚4階","lat":35.673527,"lon":139.667783},{"name":"本町","province":"東京都","city":"渋谷区","address":"東京都渋谷区本町1-33-5","lat":35.68075,"lon":139.681686},{"name":"臨川みんなの","province":"東京都","city":"渋谷区","address":"東京都渋谷区広尾1-9-17","lat":35.649363,"lon":139.716734},{"name":"代々木","province":"東京都","city":"渋谷区","address":"東京都渋谷区代々木3-51-8代々木区民施設4階","lat":35.681969,"lon":139.695981},{"name":"笹塚こども","province":"東京都","city":"渋谷区","address":"東京都渋谷区笹塚3-3-1","lat":35.678743,"lon":139.669727},{"name":"白根図書サービススポット","province":"東京都","city":"渋谷区","address":"東京都渋谷区東4-9-1白根記念渋谷区郷土博物館・文学館1階","lat":35.656435,"lon":139.712507},{"name":"代官山ティーンズ・クリエイティブ","province":"東京都","city":"渋谷区","address":"渋谷区代官山町7-9","lat":35.65105,"lon":139.70528},{"name":"児童青少年センター　フレンズ本町","province":"東京都","city":"渋谷区","address":"渋谷区本町6-6-2","lat":35.68232,"lon":139.67931},{"name":"渋谷区立幡ケ谷授産場","province":"東京都","city":"渋谷区","address":"渋谷区幡ヶ谷3-53-3","lat":35.6812,"lon":139.6738},{"name":"渋谷区社会福祉協議会","province":"東京都","city":"渋谷区","address":"渋谷区宇田川町1-1渋谷区役所内","lat":35.66415,"lon":139.69789},{"name":"東京体育館","province":"東京都","city":"渋谷区","address":"東京都渋谷区千駄ヶ谷1-17-1","lat":35.679396,"lon":139.711963},{"name":"児童青少年センター　フレンズ本町","province":"東京都","city":"渋谷区","address":"渋谷区本町6-6-2","lat":35.682102,"lon":139.679535},{"name":"渋谷区社会福祉協議会","province":"東京都","city":"渋谷区","address":"渋谷区宇田川町1-1渋谷区役所内","lat":35.663475,"lon":139.697189},{"name":"山種美術館","province":"東京都","city":"渋谷区","address":"渋谷区広尾3-12-36","lat":35.6533231,"lon":139.7138333},{"name":"代々幡斎場","province":"東京都","city":"渋谷区","address":"東京都渋谷区西原2丁目42-1","lat":35.67335551,"lon":139.67732435},{"name":"都立代々木公園","province":"東京都","city":"渋谷区","address":"東京都渋谷区代々木神園町2-1","lat":35.67281151,"lon":139.69257026},{"name":"都立第一商業高等学校","province":"東京都","city":"渋谷区","address":"東京都渋谷区鉢山町8-1","lat":35.65016143,"lon":139.6985845},{"name":"区立景丘公園","province":"東京都","city":"渋谷区","address":"東京都渋谷区恵比寿4丁目19-21","lat":35.6437958,"lon":139.71358068},{"name":"国立オリンピック記念青少年総合センター","province":"東京都","city":"渋谷区","address":"渋谷区代々木神園町3-1","lat":35.67181671,"lon":139.6970502},{"name":"初台青年館","province":"東京都","city":"渋谷区","address":"東京都渋谷区初台1丁目33-10","lat":35.67960221,"lon":139.68485123},{"name":"代官山ティーンズクリエイティブ","province":"東京都","city":"渋谷区","address":"東京都渋谷区代官山町7-9","lat":35.65073373,"lon":139.70500339},{"name":"＊?幡ヶ谷社会教育館","province":"東京都","city":"渋谷区","address":"渋谷区幡ヶ谷2-50-2","lat":35.679924,"lon":139.67731},{"name":"＊?恵比寿社会教育館","province":"東京都","city":"渋谷区","address":"渋谷区恵比寿2ー27ー18","lat":35.645323,"lon":139.719616},{"name":"＊?長谷戸社会教育館","province":"東京都","city":"渋谷区","address":"渋谷区恵比寿西1ー23ー4","lat":35.647069,"lon":139.706565},{"name":"＊?千駄ヶ谷社会教育館","province":"東京都","city":"渋谷区","address":"渋谷区千駄ヶ谷1-6-5","lat":35.678101,"lon":139.709962},{"name":"＊?上原社会教育館","province":"東京都","city":"渋谷区","address":"渋谷区上原3-13-8","lat":35.666503,"lon":139.678587},{"name":"＊?松濤美術館","province":"東京都","city":"渋谷区","address":"渋谷区松濤2―14-14","lat":35.658706,"lon":139.691804},{"name":"＊?白根記念渋谷区郷土博物館・文学館","province":"東京都","city":"渋谷区","address":"渋谷区東4-9-1","lat":35.656393,"lon":139.712577},{"name":"＊?こども科学センター・ハチラボ","province":"東京都","city":"渋谷区","address":"渋谷区桜丘町23-21","lat":35.655458,"lon":139.699965},{"name":"＊?中央図書館","province":"東京都","city":"渋谷区","address":"渋谷区神宮前1-4-1","lat":35.672458,"lon":139.706188},{"name":"＊?西原図書館","province":"東京都","city":"渋谷区","address":"渋谷区西原2-28-9","lat":35.674953,"lon":139.677732},{"name":"＊?渋谷図書館","province":"東京都","city":"渋谷区","address":"渋谷区東1-6-6","lat":35.656504,"lon":139.709774},{"name":"＊?富ヶ谷図書館","province":"東京都","city":"渋谷区","address":"渋谷区上原1-46-2","lat":35.668508,"lon":139.687254},{"name":"＊?笹塚図書館","province":"東京都","city":"渋谷区","address":"渋谷区笹塚1-27-1","lat":35.67223,"lon":139.667182},{"name":"＊?本町図書館","province":"東京都","city":"渋谷区","address":"渋谷区本町1-33-5","lat":35.680752,"lon":139.681671},{"name":"＊?臨川みんなの図書館","province":"東京都","city":"渋谷区","address":"渋谷区広尾1ー9ー17","lat":35.649416,"lon":139.716607},{"name":"＊?代々木図書館","province":"東京都","city":"渋谷区","address":"渋谷区代々木3-51-8","lat":35.681984,"lon":139.695977},{"name":"＊?笹塚こども図書館","province":"東京都","city":"渋谷区","address":"渋谷区笹塚3-3-1","lat":35.678711,"lon":139.669753},{"name":"＊?こもれび大和田図書館","province":"東京都","city":"渋谷区","address":"渋谷区桜丘町23-21","lat":35.655458,"lon":139.699965},{"name":"東京体育館","province":"東京都","city":"渋谷区","address":"東京都渋谷区千駄ヶ谷1-17-1","lat":35.68005,"lon":139.713501},{"name":"東京体育館","province":"東京都","city":"渋谷区","address":"東京都渋谷区","lat":35.66368489,"lon":139.69770072},{"name":"メインアリーナ","province":"東京都","city":"渋谷区","address":"渋谷区千駄ヶ谷1-17-1","lat":35.679396,"lon":139.711963},{"name":"サブアリーナ","province":"東京都","city":"渋谷区","address":"渋谷区千駄ヶ谷1-17-1","lat":35.679396,"lon":139.711963},{"name":"50mプール","province":"東京都","city":"渋谷区","address":"渋谷区千駄ヶ谷1-17-1","lat":35.679396,"lon":139.711963},{"name":"25mプール","province":"東京都","city":"渋谷区","address":"渋谷区千駄ヶ谷1-17-1","lat":35.679396,"lon":139.711963},{"name":"陸上競技場","province":"東京都","city":"渋谷区","address":"渋谷区千駄ヶ谷1-17-1","lat":35.679396,"lon":139.711963},{"name":"トレーニングルーム","province":"東京都","city":"渋谷区","address":"渋谷区千駄ヶ谷1-17-1","lat":35.679396,"lon":139.711963},{"name":"健康体力相談室","province":"東京都","city":"渋谷区","address":"渋谷区千駄ヶ谷1-17-1","lat":35.679396,"lon":139.711963},{"name":"渋谷区本庁舎","province":"東京都","city":"渋谷区","address":"渋谷区宇田川町1-1","lat":35.66396,"lon":139.698082},{"name":"日本放送協会","province":"東京都","city":"渋谷区","address":"渋谷区神南2-2-1","lat":35.66656,"lon":139.6969},{"name":"渋谷警察署","province":"東京都","city":"渋谷区","address":"渋谷区渋谷3-8-15","lat":35.65779,"lon":139.7039},{"name":"原宿警察署","province":"東京都","city":"渋谷区","address":"渋谷区神宮前1-4-17","lat":35.67188,"lon":139.7074},{"name":"代々木警察署","province":"東京都","city":"渋谷区","address":"渋谷区本町1-11-3","lat":35.67985,"lon":139.6832},{"name":"第三方面訓練場","province":"東京都","city":"渋谷区","address":"渋谷区幡ヶ谷1-13","lat":35.67292,"lon":139.6717},{"name":"消防学校","province":"東京都","city":"渋谷区","address":"渋谷区西原2-51-1","lat":35.6723,"lon":139.6735},{"name":"渋谷消防署","province":"東京都","city":"渋谷区","address":"渋谷区神南1-8-3","lat":35.66434,"lon":139.7012},{"name":"東京都赤十字血液センター渋谷供給出張所","province":"東京都","city":"渋谷区","address":"渋谷区鶯谷町2-16","lat":35.65398,"lon":139.7044},{"name":"都立代々木公園陸上競技場・サッカー場","province":"東京都","city":"渋谷区","address":"渋谷区代々木神園町地内","lat":35.6747,"lon":139.6934},{"name":"渋谷清掃工場","province":"東京都","city":"渋谷区","address":"渋谷区東1-35-1","lat":35.65326,"lon":139.7065},{"name":"都立広尾病院専用臨時ヘリポート","province":"東京都","city":"渋谷区","address":"渋谷区恵比寿2-34-10","lat":35.646638,"lon":139.721236},{"name":"日本赤十字社医療センターヘリポート","province":"東京都","city":"渋谷区","address":"渋谷区広尾4-1-22","lat":35.65444,"lon":139.717944},{"name":"（株）ＮＴＴドコモドコモ代々木","province":"東京都","city":"渋谷区","address":"渋谷区千駄ヶ谷5-24-3","lat":35.6844,"lon":139.7031},{"name":"ＮＴＴコミュニケーションズ（株）渋谷鉢山ビル","province":"東京都","city":"渋谷区","address":"渋谷区鉢山町9-31","lat":35.65135,"lon":139.698},{"name":"東京電力（株）渋谷支社","province":"東京都","city":"渋谷区","address":"渋谷区神南1-12-10","lat":35.66345,"lon":139.7009},{"name":"渋谷自動車営業所","province":"東京都","city":"渋谷区","address":"東京都渋谷区東2丁目25-36","lat":35.65310297,"lon":139.70793916},{"name":"代官山ティーンズ・クリエイティブ","province":"東京都","city":"渋谷区","address":"渋谷区代官山町7-9","lat":35.650728,"lon":139.704953},{"name":"渋谷区児童青少年センター","province":"東京都","city":"渋谷区","address":"渋谷区本町6-6-2","lat":35.682102,"lon":139.679535},{"name":"渋谷区立幡ケ谷授産場","province":"東京都","city":"渋谷区","address":"渋谷区幡ヶ谷3-53-3","lat":35.681868,"lon":139.674152},{"name":"渋谷区社会福祉協議会","province":"東京都","city":"渋谷区","address":"渋谷区宇田川町5-2渋谷区役所神南分庁舎1階","lat":35.66286,"lon":139.698215},{"name":"中央","province":"東京都","city":"渋谷区","address":"東京都渋谷区神宮前1-4-1","lat":35.672452,"lon":139.706176},{"name":"こもれび大和田","province":"東京都","city":"渋谷区","address":"東京都渋谷区桜丘町23-21","lat":35.655378,"lon":139.700314},{"name":"西原","province":"東京都","city":"渋谷区","address":"東京都渋谷区西原2-28-9","lat":35.674949,"lon":139.677778},{"name":"富ヶ谷","province":"東京都","city":"渋谷区","address":"東京都渋谷区上原1-46-2","lat":35.668512,"lon":139.687269},{"name":"笹塚","province":"東京都","city":"渋谷区","address":"東京都渋谷区笹塚1-47-1メルクマール京王笹塚4階","lat":35.673527,"lon":139.667783},{"name":"本町","province":"東京都","city":"渋谷区","address":"東京都渋谷区本町1-33-5","lat":35.68075,"lon":139.681686},{"name":"臨川みんなの","province":"東京都","city":"渋谷区","address":"東京都渋谷区広尾1-9-17","lat":35.649363,"lon":139.716734},{"name":"代々木","province":"東京都","city":"渋谷区","address":"東京都渋谷区代々木3-51-8代々木区民施設4階","lat":35.681969,"lon":139.695981},{"name":"笹塚こども","province":"東京都","city":"渋谷区","address":"東京都渋谷区笹塚3-3-1","lat":35.678743,"lon":139.669727},{"name":"白根図書サービススポット","province":"東京都","city":"渋谷区","address":"東京都渋谷区東4-9-1白根記念渋谷区郷土博物館・文学館1階","lat":35.656435,"lon":139.712507},{"name":"代官山ティーンズ・クリエイティブ","province":"東京都","city":"渋谷区","address":"渋谷区代官山町7-9","lat":35.65105,"lon":139.70528},{"name":"児童青少年センター　フレンズ本町","province":"東京都","city":"渋谷区","address":"渋谷区本町6-6-2","lat":35.68232,"lon":139.67931},{"name":"渋谷区立幡ケ谷授産場","province":"東京都","city":"渋谷区","address":"渋谷区幡ヶ谷3-53-3","lat":35.6812,"lon":139.6738},{"name":"渋谷区社会福祉協議会","province":"東京都","city":"渋谷区","address":"渋谷区宇田川町1-1渋谷区役所内","lat":35.66415,"lon":139.69789},{"name":"東京体育館","province":"東京都","city":"渋谷区","address":"東京都渋谷区千駄ヶ谷1-17-1","lat":35.679396,"lon":139.711963},{"name":"児童青少年センター　フレンズ本町","province":"東京都","city":"渋谷区","address":"渋谷区本町6-6-2","lat":35.682102,"lon":139.679535},{"name":"渋谷区社会福祉協議会","province":"東京都","city":"渋谷区","address":"渋谷区宇田川町1-1渋谷区役所内","lat":35.663475,"lon":139.697189},{"name":"山種美術館","province":"東京都","city":"渋谷区","address":"渋谷区広尾3-12-36","lat":35.6533231,"lon":139.7138333},{"name":"国立オリンピック記念青少年総合センター","province":"東京都","city":"渋谷区","address":"渋谷区代々木神園町3-1","lat":35.67181671,"lon":139.6970502},{"name":"初台青年館","province":"東京都","city":"渋谷区","address":"東京都渋谷区初台1丁目33-10","lat":35.67960221,"lon":139.68485123},{"name":"代官山ティーンズクリエイティブ","province":"東京都","city":"渋谷区","address":"東京都渋谷区代官山町7-9","lat":35.65073373,"lon":139.70500339},{"name":"＊?幡ヶ谷社会教育館","province":"東京都","city":"渋谷区","address":"渋谷区幡ヶ谷2-50-2","lat":35.679924,"lon":139.67731},{"name":"＊?恵比寿社会教育館","province":"東京都","city":"渋谷区","address":"渋谷区恵比寿2ー27ー18","lat":35.645323,"lon":139.719616},{"name":"＊?長谷戸社会教育館","province":"東京都","city":"渋谷区","address":"渋谷区恵比寿西1ー23ー4","lat":35.647069,"lon":139.706565},{"name":"＊?千駄ヶ谷社会教育館","province":"東京都","city":"渋谷区","address":"渋谷区千駄ヶ谷1-6-5","lat":35.678101,"lon":139.709962},{"name":"＊?上原社会教育館","province":"東京都","city":"渋谷区","address":"渋谷区上原3-13-8","lat":35.666503,"lon":139.678587},{"name":"＊?松濤美術館","province":"東京都","city":"渋谷区","address":"渋谷区松濤2―14-14","lat":35.658706,"lon":139.691804},{"name":"＊?白根記念渋谷区郷土博物館・文学館","province":"東京都","city":"渋谷区","address":"渋谷区東4-9-1","lat":35.656393,"lon":139.712577},{"name":"＊?こども科学センター・ハチラボ","province":"東京都","city":"渋谷区","address":"渋谷区桜丘町23-21","lat":35.655458,"lon":139.699965},{"name":"＊?中央図書館","province":"東京都","city":"渋谷区","address":"渋谷区神宮前1-4-1","lat":35.672458,"lon":139.706188},{"name":"＊?西原図書館","province":"東京都","city":"渋谷区","address":"渋谷区西原2-28-9","lat":35.674953,"lon":139.677732},{"name":"＊?渋谷図書館","province":"東京都","city":"渋谷区","address":"渋谷区東1-6-6","lat":35.656504,"lon":139.709774},{"name":"＊?富ヶ谷図書館","province":"東京都","city":"渋谷区","address":"渋谷区上原1-46-2","lat":35.668508,"lon":139.687254},{"name":"＊?笹塚図書館","province":"東京都","city":"渋谷区","address":"渋谷区笹塚1-27-1","lat":35.67223,"lon":139.667182},{"name":"＊?本町図書館","province":"東京都","city":"渋谷区","address":"渋谷区本町1-33-5","lat":35.680752,"lon":139.681671},{"name":"＊?臨川みんなの図書館","province":"東京都","city":"渋谷区","address":"渋谷区広尾1ー9ー17","lat":35.649416,"lon":139.716607},{"name":"＊?代々木図書館","province":"東京都","city":"渋谷区","address":"渋谷区代々木3-51-8","lat":35.681984,"lon":139.695977},{"name":"＊?笹塚こども図書館","province":"東京都","city":"渋谷区","address":"渋谷区笹塚3-3-1","lat":35.678711,"lon":139.669753},{"name":"＊?こもれび大和田図書館","province":"東京都","city":"渋谷区","address":"渋谷区桜丘町23-21","lat":35.655458,"lon":139.699965},{"name":"東京体育館","province":"東京都","city":"渋谷区","address":"東京都渋谷区千駄ヶ谷1-17-1","lat":35.68005,"lon":139.713501},{"name":"メインアリーナ","province":"東京都","city":"渋谷区","address":"渋谷区千駄ヶ谷1-17-1","lat":35.679396,"lon":139.711963},{"name":"サブアリーナ","province":"東京都","city":"渋谷区","address":"渋谷区千駄ヶ谷1-17-1","lat":35.679396,"lon":139.711963},{"name":"50mプール","province":"東京都","city":"渋谷区","address":"渋谷区千駄ヶ谷1-17-1","lat":35.679396,"lon":139.711963},{"name":"25mプール","province":"東京都","city":"渋谷区","address":"渋谷区千駄ヶ谷1-17-1","lat":35.679396,"lon":139.711963},{"name":"陸上競技場","province":"東京都","city":"渋谷区","address":"渋谷区千駄ヶ谷1-17-1","lat":35.679396,"lon":139.711963},{"name":"トレーニングルーム","province":"東京都","city":"渋谷区","address":"渋谷区千駄ヶ谷1-17-1","lat":35.679396,"lon":139.711963},{"name":"健康体力相談室","province":"東京都","city":"渋谷区","address":"渋谷区千駄ヶ谷1-17-1","lat":35.679396,"lon":139.711963},{"name":"代官山ティーンズ・クリエイティブ","province":"東京都","city":"渋谷区","address":"渋谷区代官山町7-9","lat":35.650728,"lon":139.704953},{"name":"渋谷区児童青少年センター","province":"東京都","city":"渋谷区","address":"渋谷区本町6-6-2","lat":35.682102,"lon":139.679535},{"name":"渋谷区立幡ケ谷授産場","province":"東京都","city":"渋谷区","address":"渋谷区幡ヶ谷3-53-3","lat":35.681868,"lon":139.674152},{"name":"渋谷区社会福祉協議会","province":"東京都","city":"渋谷区","address":"渋谷区宇田川町5-2渋谷区役所神南分庁舎1階","lat":35.66286,"lon":139.698215},{"name":"中央","province":"東京都","city":"渋谷区","address":"東京都渋谷区神宮前1-4-1","lat":35.672452,"lon":139.706176},{"name":"こもれび大和田","province":"東京都","city":"渋谷区","address":"東京都渋谷区桜丘町23-21","lat":35.655378,"lon":139.700314},{"name":"西原","province":"東京都","city":"渋谷区","address":"東京都渋谷区西原2-28-9","lat":35.674949,"lon":139.677778},{"name":"富ヶ谷","province":"東京都","city":"渋谷区","address":"東京都渋谷区上原1-46-2","lat":35.668512,"lon":139.687269},{"name":"笹塚","province":"東京都","city":"渋谷区","address":"東京都渋谷区笹塚1-47-1メルクマール京王笹塚4階","lat":35.673527,"lon":139.667783},{"name":"本町","province":"東京都","city":"渋谷区","address":"東京都渋谷区本町1-33-5","lat":35.68075,"lon":139.681686},{"name":"臨川みんなの","province":"東京都","city":"渋谷区","address":"東京都渋谷区広尾1-9-17","lat":35.649363,"lon":139.716734},{"name":"代々木","province":"東京都","city":"渋谷区","address":"東京都渋谷区代々木3-51-8代々木区民施設4階","lat":35.681969,"lon":139.695981},{"name":"笹塚こども","province":"東京都","city":"渋谷区","address":"東京都渋谷区笹塚3-3-1","lat":35.678743,"lon":139.669727},{"name":"白根図書サービススポット","province":"東京都","city":"渋谷区","address":"東京都渋谷区東4-9-1白根記念渋谷区郷土博物館・文学館1階","lat":35.656435,"lon":139.712507},{"name":"代官山ティーンズ・クリエイティブ","province":"東京都","city":"渋谷区","address":"渋谷区代官山町7-9","lat":35.65105,"lon":139.70528},{"name":"児童青少年センター　フレンズ本町","province":"東京都","city":"渋谷区","address":"渋谷区本町6-6-2","lat":35.68232,"lon":139.67931},{"name":"渋谷区立幡ケ谷授産場","province":"東京都","city":"渋谷区","address":"渋谷区幡ヶ谷3-53-3","lat":35.6812,"lon":139.6738},{"name":"渋谷区社会福祉協議会","province":"東京都","city":"渋谷区","address":"渋谷区宇田川町1-1渋谷区役所内","lat":35.66415,"lon":139.69789},{"name":"東京体育館","province":"東京都","city":"渋谷区","address":"東京都渋谷区千駄ヶ谷1-17-1","lat":35.679396,"lon":139.711963},{"name":"児童青少年センター　フレンズ本町","province":"東京都","city":"渋谷区","address":"渋谷区本町6-6-2","lat":35.682102,"lon":139.679535},{"name":"渋谷区社会福祉協議会","province":"東京都","city":"渋谷区","address":"渋谷区宇田川町1-1渋谷区役所内","lat":35.663475,"lon":139.697189},{"name":"山種美術館","province":"東京都","city":"渋谷区","address":"渋谷区広尾3-12-36","lat":35.6533231,"lon":139.7138333},{"name":"国立オリンピック記念青少年総合センター","province":"東京都","city":"渋谷区","address":"渋谷区代々木神園町3-1","lat":35.67181671,"lon":139.6970502},{"name":"初台青年館","province":"東京都","city":"渋谷区","address":"東京都渋谷区初台1丁目33-10","lat":35.67960221,"lon":139.68485123},{"name":"代官山ティーンズクリエイティブ","province":"東京都","city":"渋谷区","address":"東京都渋谷区代官山町7-9","lat":35.65073373,"lon":139.70500339},{"name":"＊?幡ヶ谷社会教育館","province":"東京都","city":"渋谷区","address":"渋谷区幡ヶ谷2-50-2","lat":35.679924,"lon":139.67731},{"name":"＊?恵比寿社会教育館","province":"東京都","city":"渋谷区","address":"渋谷区恵比寿2ー27ー18","lat":35.645323,"lon":139.719616},{"name":"＊?長谷戸社会教育館","province":"東京都","city":"渋谷区","address":"渋谷区恵比寿西1ー23ー4","lat":35.647069,"lon":139.706565},{"name":"＊?千駄ヶ谷社会教育館","province":"東京都","city":"渋谷区","address":"渋谷区千駄ヶ谷1-6-5","lat":35.678101,"lon":139.709962},{"name":"＊?上原社会教育館","province":"東京都","city":"渋谷区","address":"渋谷区上原3-13-8","lat":35.666503,"lon":139.678587},{"name":"＊?松濤美術館","province":"東京都","city":"渋谷区","address":"渋谷区松濤2―14-14","lat":35.658706,"lon":139.691804},{"name":"＊?白根記念渋谷区郷土博物館・文学館","province":"東京都","city":"渋谷区","address":"渋谷区東4-9-1","lat":35.656393,"lon":139.712577},{"name":"＊?こども科学センター・ハチラボ","province":"東京都","city":"渋谷区","address":"渋谷区桜丘町23-21","lat":35.655458,"lon":139.699965},{"name":"＊?中央図書館","province":"東京都","city":"渋谷区","address":"渋谷区神宮前1-4-1","lat":35.672458,"lon":139.706188},{"name":"＊?西原図書館","province":"東京都","city":"渋谷区","address":"渋谷区西原2-28-9","lat":35.674953,"lon":139.677732},{"name":"＊?渋谷図書館","province":"東京都","city":"渋谷区","address":"渋谷区東1-6-6","lat":35.656504,"lon":139.709774},{"name":"＊?富ヶ谷図書館","province":"東京都","city":"渋谷区","address":"渋谷区上原1-46-2","lat":35.668508,"lon":139.687254},{"name":"＊?笹塚図書館","province":"東京都","city":"渋谷区","address":"渋谷区笹塚1-27-1","lat":35.67223,"lon":139.667182},{"name":"＊?本町図書館","province":"東京都","city":"渋谷区","address":"渋谷区本町1-33-5","lat":35.680752,"lon":139.681671},{"name":"＊?臨川みんなの図書館","province":"東京都","city":"渋谷区","address":"渋谷区広尾1ー9ー17","lat":35.649416,"lon":139.716607},{"name":"＊?代々木図書館","province":"東京都","city":"渋谷区","address":"渋谷区代々木3-51-8","lat":35.681984,"lon":139.695977},{"name":"＊?笹塚こども図書館","province":"東京都","city":"渋谷区","address":"渋谷区笹塚3-3-1","lat":35.678711,"lon":139.669753},{"name":"＊?こもれび大和田図書館","province":"東京都","city":"渋谷区","address":"渋谷区桜丘町23-21","lat":35.655458,"lon":139.699965},{"name":"東京体育館","province":"東京都","city":"渋谷区","address":"東京都渋谷区千駄ヶ谷1-17-1","lat":35.68005,"lon":139.713501},{"name":"メインアリーナ","province":"東京都","city":"渋谷区","address":"渋谷区千駄ヶ谷1-17-1","lat":35.679396,"lon":139.711963},{"name":"サブアリーナ","province":"東京都","city":"渋谷区","address":"渋谷区千駄ヶ谷1-17-1","lat":35.679396,"lon":139.711963},{"name":"50mプール","province":"東京都","city":"渋谷区","address":"渋谷区千駄ヶ谷1-17-1","lat":35.679396,"lon":139.711963},{"name":"25mプール","province":"東京都","city":"渋谷区","address":"渋谷区千駄ヶ谷1-17-1","lat":35.679396,"lon":139.711963},{"name":"陸上競技場","province":"東京都","city":"渋谷区","address":"渋谷区千駄ヶ谷1-17-1","lat":35.679396,"lon":139.711963},{"name":"トレーニングルーム","province":"東京都","city":"渋谷区","address":"渋谷区千駄ヶ谷1-17-1","lat":35.679396,"lon":139.711963},{"name":"健康体力相談室","province":"東京都","city":"渋谷区","address":"渋谷区千駄ヶ谷1-17-1","lat":35.679396,"lon":139.711963},{"name":"代官山ティーンズ・クリエイティブ","province":"東京都","city":"渋谷区","address":"渋谷区代官山町7-9","lat":35.650728,"lon":139.704953},{"name":"渋谷区児童青少年センター","province":"東京都","city":"渋谷区","address":"渋谷区本町6-6-2","lat":35.682102,"lon":139.679535},{"name":"中央","province":"東京都","city":"渋谷区","address":"東京都渋谷区神宮前1-4-1","lat":35.672452,"lon":139.706176},{"name":"こもれび大和田","province":"東京都","city":"渋谷区","address":"東京都渋谷区桜丘町23-21","lat":35.655378,"lon":139.700314},{"name":"西原","province":"東京都","city":"渋谷区","address":"東京都渋谷区西原2-28-9","lat":35.674949,"lon":139.677778},{"name":"富ヶ谷","province":"東京都","city":"渋谷区","address":"東京都渋谷区上原1-46-2","lat":35.668512,"lon":139.687269},{"name":"笹塚","province":"東京都","city":"渋谷区","address":"東京都渋谷区笹塚1-47-1メルクマール京王笹塚4階","lat":35.673527,"lon":139.667783},{"name":"本町","province":"東京都","city":"渋谷区","address":"東京都渋谷区本町1-33-5","lat":35.68075,"lon":139.681686},{"name":"臨川みんなの","province":"東京都","city":"渋谷区","address":"東京都渋谷区広尾1-9-17","lat":35.649363,"lon":139.716734},{"name":"代々木","province":"東京都","city":"渋谷区","address":"東京都渋谷区代々木3-51-8代々木区民施設4階","lat":35.681969,"lon":139.695981},{"name":"笹塚こども","province":"東京都","city":"渋谷区","address":"東京都渋谷区笹塚3-3-1","lat":35.678743,"lon":139.669727},{"name":"白根図書サービススポット","province":"東京都","city":"渋谷区","address":"東京都渋谷区東4-9-1白根記念渋谷区郷土博物館・文学館1階","lat":35.656435,"lon":139.712507},{"name":"代官山ティーンズ・クリエイティブ","province":"東京都","city":"渋谷区","address":"渋谷区代官山町7-9","lat":35.65105,"lon":139.70528},{"name":"児童青少年センター　フレンズ本町","province":"東京都","city":"渋谷区","address":"渋谷区本町6-6-2","lat":35.68232,"lon":139.67931},{"name":"東京体育館","province":"東京都","city":"渋谷区","address":"東京都渋谷区千駄ヶ谷1-17-1","lat":35.679396,"lon":139.711963},{"name":"児童青少年センター　フレンズ本町","province":"東京都","city":"渋谷区","address":"渋谷区本町6-6-2","lat":35.682102,"lon":139.679535},{"name":"山種美術館","province":"東京都","city":"渋谷区","address":"渋谷区広尾3-12-36","lat":35.6533231,"lon":139.7138333},{"name":"初台青年館","province":"東京都","city":"渋谷区","address":"東京都渋谷区初台1丁目33-10","lat":35.67960221,"lon":139.68485123},{"name":"代官山ティーンズクリエイティブ","province":"東京都","city":"渋谷区","address":"東京都渋谷区代官山町7-9","lat":35.65073373,"lon":139.70500339},{"name":"＊?松濤美術館","province":"東京都","city":"渋谷区","address":"渋谷区松濤2―14-14","lat":35.658706,"lon":139.691804},{"name":"＊?白根記念渋谷区郷土博物館・文学館","province":"東京都","city":"渋谷区","address":"渋谷区東4-9-1","lat":35.656393,"lon":139.712577},{"name":"＊?こども科学センター・ハチラボ","province":"東京都","city":"渋谷区","address":"渋谷区桜丘町23-21","lat":35.655458,"lon":139.699965},{"name":"＊?中央図書館","province":"東京都","city":"渋谷区","address":"渋谷区神宮前1-4-1","lat":35.672458,"lon":139.706188},{"name":"＊?西原図書館","province":"東京都","city":"渋谷区","address":"渋谷区西原2-28-9","lat":35.674953,"lon":139.677732},{"name":"＊?渋谷図書館","province":"東京都","city":"渋谷区","address":"渋谷区東1-6-6","lat":35.656504,"lon":139.709774},{"name":"＊?富ヶ谷図書館","province":"東京都","city":"渋谷区","address":"渋谷区上原1-46-2","lat":35.668508,"lon":139.687254},{"name":"＊?笹塚図書館","province":"東京都","city":"渋谷区","address":"渋谷区笹塚1-27-1","lat":35.67223,"lon":139.667182},{"name":"＊?本町図書館","province":"東京都","city":"渋谷区","address":"渋谷区本町1-33-5","lat":35.680752,"lon":139.681671},{"name":"＊?臨川みんなの図書館","province":"東京都","city":"渋谷区","address":"渋谷区広尾1ー9ー17","lat":35.649416,"lon":139.716607},{"name":"＊?代々木図書館","province":"東京都","city":"渋谷区","address":"渋谷区代々木3-51-8","lat":35.681984,"lon":139.695977},{"name":"＊?笹塚こども図書館","province":"東京都","city":"渋谷区","address":"渋谷区笹塚3-3-1","lat":35.678711,"lon":139.669753},{"name":"＊?こもれび大和田図書館","province":"東京都","city":"渋谷区","address":"渋谷区桜丘町23-21","lat":35.655458,"lon":139.699965},{"name":"東京体育館","province":"東京都","city":"渋谷区","address":"東京都渋谷区千駄ヶ谷1-17-1","lat":35.68005,"lon":139.713501},{"name":"メインアリーナ","province":"東京都","city":"渋谷区","address":"渋谷区千駄ヶ谷1-17-1","lat":35.679396,"lon":139.711963},{"name":"サブアリーナ","province":"東京都","city":"渋谷区","address":"渋谷区千駄ヶ谷1-17-1","lat":35.679396,"lon":139.711963},{"name":"50mプール","province":"東京都","city":"渋谷区","address":"渋谷区千駄ヶ谷1-17-1","lat":35.679396,"lon":139.711963},{"name":"25mプール","province":"東京都","city":"渋谷区","address":"渋谷区千駄ヶ谷1-17-1","lat":35.679396,"lon":139.711963},{"name":"陸上競技場","province":"東京都","city":"渋谷区","address":"渋谷区千駄ヶ谷1-17-1","lat":35.679396,"lon":139.711963},{"name":"トレーニングルーム","province":"東京都","city":"渋谷区","address":"渋谷区千駄ヶ谷1-17-1","lat":35.679396,"lon":139.711963},{"name":"健康体力相談室","province":"東京都","city":"渋谷区","address":"渋谷区千駄ヶ谷1-17-1","lat":35.679396,"lon":139.711963},{"name":"代官山ティーンズ・クリエイティブ","province":"東京都","city":"渋谷区","address":"渋谷区代官山町7-9","lat":35.650728,"lon":139.704953},{"name":"渋谷区児童青少年センター","province":"東京都","city":"渋谷区","address":"渋谷区本町6-6-2","lat":35.682102,"lon":139.679535},{"name":"中央","province":"東京都","city":"渋谷区","address":"東京都渋谷区神宮前1-4-1","lat":35.672452,"lon":139.706176},{"name":"こもれび大和田","province":"東京都","city":"渋谷区","address":"東京都渋谷区桜丘町23-21","lat":35.655378,"lon":139.700314},{"name":"西原","province":"東京都","city":"渋谷区","address":"東京都渋谷区西原2-28-9","lat":35.674949,"lon":139.677778},{"name":"富ヶ谷","province":"東京都","city":"渋谷区","address":"東京都渋谷区上原1-46-2","lat":35.668512,"lon":139.687269},{"name":"笹塚","province":"東京都","city":"渋谷区","address":"東京都渋谷区笹塚1-47-1メルクマール京王笹塚4階","lat":35.673527,"lon":139.667783},{"name":"本町","province":"東京都","city":"渋谷区","address":"東京都渋谷区本町1-33-5","lat":35.68075,"lon":139.681686},{"name":"臨川みんなの","province":"東京都","city":"渋谷区","address":"東京都渋谷区広尾1-9-17","lat":35.649363,"lon":139.716734},{"name":"代々木","province":"東京都","city":"渋谷区","address":"東京都渋谷区代々木3-51-8代々木区民施設4階","lat":35.681969,"lon":139.695981},{"name":"笹塚こども","province":"東京都","city":"渋谷区","address":"東京都渋谷区笹塚3-3-1","lat":35.678743,"lon":139.669727},{"name":"白根図書サービススポット","province":"東京都","city":"渋谷区","address":"東京都渋谷区東4-9-1白根記念渋谷区郷土博物館・文学館1階","lat":35.656435,"lon":139.712507},{"name":"代官山ティーンズ・クリエイティブ","province":"東京都","city":"渋谷区","address":"渋谷区代官山町7-9","lat":35.65105,"lon":139.70528},{"name":"児童青少年センター　フレンズ本町","province":"東京都","city":"渋谷区","address":"渋谷区本町6-6-2","lat":35.68232,"lon":139.67931},{"name":"児童青少年センター　フレンズ本町","province":"東京都","city":"渋谷区","address":"渋谷区本町6-6-2","lat":35.682102,"lon":139.679535},{"name":"山種美術館","province":"東京都","city":"渋谷区","address":"渋谷区広尾3-12-36","lat":35.6533231,"lon":139.7138333},{"name":"初台青年館","province":"東京都","city":"渋谷区","address":"東京都渋谷区初台1丁目33-10","lat":35.67960221,"lon":139.68485123},{"name":"代官山ティーンズクリエイティブ","province":"東京都","city":"渋谷区","address":"東京都渋谷区代官山町7-9","lat":35.65073373,"lon":139.70500339},{"name":"＊?松濤美術館","province":"東京都","city":"渋谷区","address":"渋谷区松濤2―14-14","lat":35.658706,"lon":139.691804},{"name":"＊?白根記念渋谷区郷土博物館・文学館","province":"東京都","city":"渋谷区","address":"渋谷区東4-9-1","lat":35.656393,"lon":139.712577},{"name":"＊?こども科学センター・ハチラボ","province":"東京都","city":"渋谷区","address":"渋谷区桜丘町23-21","lat":35.655458,"lon":139.699965},{"name":"＊?中央図書館","province":"東京都","city":"渋谷区","address":"渋谷区神宮前1-4-1","lat":35.672458,"lon":139.706188},{"name":"＊?西原図書館","province":"東京都","city":"渋谷区","address":"渋谷区西原2-28-9","lat":35.674953,"lon":139.677732},{"name":"＊?渋谷図書館","province":"東京都","city":"渋谷区","address":"渋谷区東1-6-6","lat":35.656504,"lon":139.709774},{"name":"＊?富ヶ谷図書館","province":"東京都","city":"渋谷区","address":"渋谷区上原1-46-2","lat":35.668508,"lon":139.687254},{"name":"＊?笹塚図書館","province":"東京都","city":"渋谷区","address":"渋谷区笹塚1-27-1","lat":35.67223,"lon":139.667182},{"name":"＊?本町図書館","province":"東京都","city":"渋谷区","address":"渋谷区本町1-33-5","lat":35.680752,"lon":139.681671},{"name":"＊?臨川みんなの図書館","province":"東京都","city":"渋谷区","address":"渋谷区広尾1ー9ー17","lat":35.649416,"lon":139.716607},{"name":"＊?代々木図書館","province":"東京都","city":"渋谷区","address":"渋谷区代々木3-51-8","lat":35.681984,"lon":139.695977},{"name":"＊?笹塚こども図書館","province":"東京都","city":"渋谷区","address":"渋谷区笹塚3-3-1","lat":35.678711,"lon":139.669753},{"name":"＊?こもれび大和田図書館","province":"東京都","city":"渋谷区","address":"渋谷区桜丘町23-21","lat":35.655458,"lon":139.699965},{"name":"メインアリーナ","province":"東京都","city":"渋谷区","address":"渋谷区千駄ヶ谷1-17-1","lat":35.679396,"lon":139.711963},{"name":"サブアリーナ","province":"東京都","city":"渋谷区","address":"渋谷区千駄ヶ谷1-17-1","lat":35.679396,"lon":139.711963},{"name":"50mプール","province":"東京都","city":"渋谷区","address":"渋谷区千駄ヶ谷1-17-1","lat":35.679396,"lon":139.711963},{"name":"25mプール","province":"東京都","city":"渋谷区","address":"渋谷区千駄ヶ谷1-17-1","lat":35.679396,"lon":139.711963},{"name":"陸上競技場","province":"東京都","city":"渋谷区","address":"渋谷区千駄ヶ谷1-17-1","lat":35.679396,"lon":139.711963},{"name":"トレーニングルーム","province":"東京都","city":"渋谷区","address":"渋谷区千駄ヶ谷1-17-1","lat":35.679396,"lon":139.711963},{"name":"健康体力相談室","province":"東京都","city":"渋谷区","address":"渋谷区千駄ヶ谷1-17-1","lat":35.679396,"lon":139.711963},{"name":"代官山ティーンズ・クリエイティブ","province":"東京都","city":"渋谷区","address":"渋谷区代官山町7-9","lat":35.650728,"lon":139.704953},{"name":"渋谷区児童青少年センター","province":"東京都","city":"渋谷区","address":"渋谷区本町6-6-2","lat":35.682102,"lon":139.679535},{"name":"中央","province":"東京都","city":"渋谷区","address":"東京都渋谷区神宮前1-4-1","lat":35.672452,"lon":139.706176},{"name":"こもれび大和田","province":"東京都","city":"渋谷区","address":"東京都渋谷区桜丘町23-21","lat":35.655378,"lon":139.700314},{"name":"西原","province":"東京都","city":"渋谷区","address":"東京都渋谷区西原2-28-9","lat":35.674949,"lon":139.677778},{"name":"富ヶ谷","province":"東京都","city":"渋谷区","address":"東京都渋谷区上原1-46-2","lat":35.668512,"lon":139.687269},{"name":"笹塚","province":"東京都","city":"渋谷区","address":"東京都渋谷区笹塚1-47-1メルクマール京王笹塚4階","lat":35.673527,"lon":139.667783},{"name":"本町","province":"東京都","city":"渋谷区","address":"東京都渋谷区本町1-33-5","lat":35.68075,"lon":139.681686},{"name":"臨川みんなの","province":"東京都","city":"渋谷区","address":"東京都渋谷区広尾1-9-17","lat":35.649363,"lon":139.716734},{"name":"代々木","province":"東京都","city":"渋谷区","address":"東京都渋谷区代々木3-51-8代々木区民施設4階","lat":35.681969,"lon":139.695981},{"name":"笹塚こども","province":"東京都","city":"渋谷区","address":"東京都渋谷区笹塚3-3-1","lat":35.678743,"lon":139.669727},{"name":"白根図書サービススポット","province":"東京都","city":"渋谷区","address":"東京都渋谷区東4-9-1白根記念渋谷区郷土博物館・文学館1階","lat":35.656435,"lon":139.712507},{"name":"代官山ティーンズ・クリエイティブ","province":"東京都","city":"渋谷区","address":"渋谷区代官山町7-9","lat":35.65105,"lon":139.70528},{"name":"児童青少年センター　フレンズ本町","province":"東京都","city":"渋谷区","address":"渋谷区本町6-6-2","lat":35.68232,"lon":139.67931},{"name":"児童青少年センター　フレンズ本町","province":"東京都","city":"渋谷区","address":"渋谷区本町6-6-2","lat":35.682102,"lon":139.679535},{"name":"山種美術館","province":"東京都","city":"渋谷区","address":"渋谷区広尾3-12-36","lat":35.6533231,"lon":139.7138333},{"name":"初台青年館","province":"東京都","city":"渋谷区","address":"東京都渋谷区初台1丁目33-10","lat":35.67960221,"lon":139.68485123},{"name":"代官山ティーンズクリエイティブ","province":"東京都","city":"渋谷区","address":"東京都渋谷区代官山町7-9","lat":35.65073373,"lon":139.70500339},{"name":"＊?松濤美術館","province":"東京都","city":"渋谷区","address":"渋谷区松濤2―14-14","lat":35.658706,"lon":139.691804},{"name":"＊?白根記念渋谷区郷土博物館・文学館","province":"東京都","city":"渋谷区","address":"渋谷区東4-9-1","lat":35.656393,"lon":139.712577},{"name":"＊?こども科学センター・ハチラボ","province":"東京都","city":"渋谷区","address":"渋谷区桜丘町23-21","lat":35.655458,"lon":139.699965},{"name":"＊?中央図書館","province":"東京都","city":"渋谷区","address":"渋谷区神宮前1-4-1","lat":35.672458,"lon":139.706188},{"name":"＊?西原図書館","province":"東京都","city":"渋谷区","address":"渋谷区西原2-28-9","lat":35.674953,"lon":139.677732},{"name":"＊?渋谷図書館","province":"東京都","city":"渋谷区","address":"渋谷区東1-6-6","lat":35.656504,"lon":139.709774},{"name":"＊?富ヶ谷図書館","province":"東京都","city":"渋谷区","address":"渋谷区上原1-46-2","lat":35.668508,"lon":139.687254},{"name":"＊?笹塚図書館","province":"東京都","city":"渋谷区","address":"渋谷区笹塚1-27-1","lat":35.67223,"lon":139.667182},{"name":"＊?本町図書館","province":"東京都","city":"渋谷区","address":"渋谷区本町1-33-5","lat":35.680752,"lon":139.681671},{"name":"＊?臨川みんなの図書館","province":"東京都","city":"渋谷区","address":"渋谷区広尾1ー9ー17","lat":35.649416,"lon":139.716607},{"name":"＊?代々木図書館","province":"東京都","city":"渋谷区","address":"渋谷区代々木3-51-8","lat":35.681984,"lon":139.695977},{"name":"＊?笹塚こども図書館","province":"東京都","city":"渋谷区","address":"渋谷区笹塚3-3-1","lat":35.678711,"lon":139.669753},{"name":"＊?こもれび大和田図書館","province":"東京都","city":"渋谷区","address":"渋谷区桜丘町23-21","lat":35.655458,"lon":139.699965},{"name":"メインアリーナ","province":"東京都","city":"渋谷区","address":"渋谷区千駄ヶ谷1-17-1","lat":35.679396,"lon":139.711963},{"name":"サブアリーナ","province":"東京都","city":"渋谷区","address":"渋谷区千駄ヶ谷1-17-1","lat":35.679396,"lon":139.711963},{"name":"50mプール","province":"東京都","city":"渋谷区","address":"渋谷区千駄ヶ谷1-17-1","lat":35.679396,"lon":139.711963},{"name":"25mプール","province":"東京都","city":"渋谷区","address":"渋谷区千駄ヶ谷1-17-1","lat":35.679396,"lon":139.711963},{"name":"陸上競技場","province":"東京都","city":"渋谷区","address":"渋谷区千駄ヶ谷1-17-1","lat":35.679396,"lon":139.711963},{"name":"トレーニングルーム","province":"東京都","city":"渋谷区","address":"渋谷区千駄ヶ谷1-17-1","lat":35.679396,"lon":139.711963},{"name":"健康体力相談室","province":"東京都","city":"渋谷区","address":"渋谷区千駄ヶ谷1-17-1","lat":35.679396,"lon":139.711963},{"name":"代官山ティーンズ・クリエイティブ","province":"東京都","city":"渋谷区","address":"渋谷区代官山町7-9","lat":35.650728,"lon":139.704953},{"name":"渋谷区児童青少年センター","province":"東京都","city":"渋谷区","address":"渋谷区本町6-6-2","lat":35.682102,"lon":139.679535},{"name":"中央","province":"東京都","city":"渋谷区","address":"東京都渋谷区神宮前1-4-1","lat":35.672452,"lon":139.706176},{"name":"こもれび大和田","province":"東京都","city":"渋谷区","address":"東京都渋谷区桜丘町23-21","lat":35.655378,"lon":139.700314},{"name":"西原","province":"東京都","city":"渋谷区","address":"東京都渋谷区西原2-28-9","lat":35.674949,"lon":139.677778},{"name":"富ヶ谷","province":"東京都","city":"渋谷区","address":"東京都渋谷区上原1-46-2","lat":35.668512,"lon":139.687269},{"name":"笹塚","province":"東京都","city":"渋谷区","address":"東京都渋谷区笹塚1-47-1メルクマール京王笹塚4階","lat":35.673527,"lon":139.667783},{"name":"本町","province":"東京都","city":"渋谷区","address":"東京都渋谷区本町1-33-5","lat":35.68075,"lon":139.681686},{"name":"臨川みんなの","province":"東京都","city":"渋谷区","address":"東京都渋谷区広尾1-9-17","lat":35.649363,"lon":139.716734},{"name":"代々木","province":"東京都","city":"渋谷区","address":"東京都渋谷区代々木3-51-8代々木区民施設4階","lat":35.681969,"lon":139.695981},{"name":"笹塚こども","province":"東京都","city":"渋谷区","address":"東京都渋谷区笹塚3-3-1","lat":35.678743,"lon":139.669727},{"name":"白根図書サービススポット","province":"東京都","city":"渋谷区","address":"東京都渋谷区東4-9-1白根記念渋谷区郷土博物館・文学館1階","lat":35.656435,"lon":139.712507},{"name":"代官山ティーンズ・クリエイティブ","province":"東京都","city":"渋谷区","address":"渋谷区代官山町7-9","lat":35.65105,"lon":139.70528},{"name":"児童青少年センター　フレンズ本町","province":"東京都","city":"渋谷区","address":"渋谷区本町6-6-2","lat":35.68232,"lon":139.67931},{"name":"児童青少年センター　フレンズ本町","province":"東京都","city":"渋谷区","address":"渋谷区本町6-6-2","lat":35.682102,"lon":139.679535},{"name":"山種美術館","province":"東京都","city":"渋谷区","address":"渋谷区広尾3-12-36","lat":35.6533231,"lon":139.7138333},{"name":"初台青年館","province":"東京都","city":"渋谷区","address":"東京都渋谷区初台1丁目33-10","lat":35.67960221,"lon":139.68485123},{"name":"代官山ティーンズクリエイティブ","province":"東京都","city":"渋谷区","address":"東京都渋谷区代官山町7-9","lat":35.65073373,"lon":139.70500339},{"name":"＊?松濤美術館","province":"東京都","city":"渋谷区","address":"渋谷区松濤2―14-14","lat":35.658706,"lon":139.691804},{"name":"＊?白根記念渋谷区郷土博物館・文学館","province":"東京都","city":"渋谷区","address":"渋谷区東4-9-1","lat":35.656393,"lon":139.712577},{"name":"＊?こども科学センター・ハチラボ","province":"東京都","city":"渋谷区","address":"渋谷区桜丘町23-21","lat":35.655458,"lon":139.699965},{"name":"＊?中央図書館","province":"東京都","city":"渋谷区","address":"渋谷区神宮前1-4-1","lat":35.672458,"lon":139.706188},{"name":"＊?西原図書館","province":"東京都","city":"渋谷区","address":"渋谷区西原2-28-9","lat":35.674953,"lon":139.677732},{"name":"＊?渋谷図書館","province":"東京都","city":"渋谷区","address":"渋谷区東1-6-6","lat":35.656504,"lon":139.709774},{"name":"＊?富ヶ谷図書館","province":"東京都","city":"渋谷区","address":"渋谷区上原1-46-2","lat":35.668508,"lon":139.687254},{"name":"＊?笹塚図書館","province":"東京都","city":"渋谷区","address":"渋谷区笹塚1-27-1","lat":35.67223,"lon":139.667182},{"name":"＊?本町図書館","province":"東京都","city":"渋谷区","address":"渋谷区本町1-33-5","lat":35.680752,"lon":139.681671},{"name":"＊?臨川みんなの図書館","province":"東京都","city":"渋谷区","address":"渋谷区広尾1ー9ー17","lat":35.649416,"lon":139.716607},{"name":"＊?代々木図書館","province":"東京都","city":"渋谷区","address":"渋谷区代々木3-51-8","lat":35.681984,"lon":139.695977},{"name":"＊?笹塚こども図書館","province":"東京都","city":"渋谷区","address":"渋谷区笹塚3-3-1","lat":35.678711,"lon":139.669753},{"name":"＊?こもれび大和田図書館","province":"東京都","city":"渋谷区","address":"渋谷区桜丘町23-21","lat":35.655458,"lon":139.699965},{"name":"メインアリーナ","province":"東京都","city":"渋谷区","address":"渋谷区千駄ヶ谷1-17-1","lat":35.679396,"lon":139.711963},{"name":"サブアリーナ","province":"東京都","city":"渋谷区","address":"渋谷区千駄ヶ谷1-17-1","lat":35.679396,"lon":139.711963},{"name":"50mプール","province":"東京都","city":"渋谷区","address":"渋谷区千駄ヶ谷1-17-1","lat":35.679396,"lon":139.711963},{"name":"25mプール","province":"東京都","city":"渋谷区","address":"渋谷区千駄ヶ谷1-17-1","lat":35.679396,"lon":139.711963},{"name":"陸上競技場","province":"東京都","city":"渋谷区","address":"渋谷区千駄ヶ谷1-17-1","lat":35.679396,"lon":139.711963},{"name":"トレーニングルーム","province":"東京都","city":"渋谷区","address":"渋谷区千駄ヶ谷1-17-1","lat":35.679396,"lon":139.711963},{"name":"健康体力相談室","province":"東京都","city":"渋谷区","address":"渋谷区千駄ヶ谷1-17-1","lat":35.679396,"lon":139.711963},{"name":"代官山ティーンズ・クリエイティブ","province":"東京都","city":"渋谷区","address":"渋谷区代官山町7-9","lat":35.650728,"lon":139.704953},{"name":"渋谷区児童青少年センター","province":"東京都","city":"渋谷区","address":"渋谷区本町6-6-2","lat":35.682102,"lon":139.679535},{"name":"中央","province":"東京都","city":"渋谷区","address":"東京都渋谷区神宮前1-4-1","lat":35.672452,"lon":139.706176},{"name":"こもれび大和田","province":"東京都","city":"渋谷区","address":"東京都渋谷区桜丘町23-21","lat":35.655378,"lon":139.700314},{"name":"西原","province":"東京都","city":"渋谷区","address":"東京都渋谷区西原2-28-9","lat":35.674949,"lon":139.677778},{"name":"富ヶ谷","province":"東京都","city":"渋谷区","address":"東京都渋谷区上原1-46-2","lat":35.668512,"lon":139.687269},{"name":"笹塚","province":"東京都","city":"渋谷区","address":"東京都渋谷区笹塚1-47-1メルクマール京王笹塚4階","lat":35.673527,"lon":139.667783},{"name":"本町","province":"東京都","city":"渋谷区","address":"東京都渋谷区本町1-33-5","lat":35.68075,"lon":139.681686},{"name":"臨川みんなの","province":"東京都","city":"渋谷区","address":"東京都渋谷区広尾1-9-17","lat":35.649363,"lon":139.716734},{"name":"代々木","province":"東京都","city":"渋谷区","address":"東京都渋谷区代々木3-51-8代々木区民施設4階","lat":35.681969,"lon":139.695981},{"name":"笹塚こども","province":"東京都","city":"渋谷区","address":"東京都渋谷区笹塚3-3-1","lat":35.678743,"lon":139.669727},{"name":"白根図書サービススポット","province":"東京都","city":"渋谷区","address":"東京都渋谷区東4-9-1白根記念渋谷区郷土博物館・文学館1階","lat":35.656435,"lon":139.712507},{"name":"代官山ティーンズ・クリエイティブ","province":"東京都","city":"渋谷区","address":"渋谷区代官山町7-9","lat":35.65105,"lon":139.70528},{"name":"児童青少年センター　フレンズ本町","province":"東京都","city":"渋谷区","address":"渋谷区本町6-6-2","lat":35.68232,"lon":139.67931},{"name":"児童青少年センター　フレンズ本町","province":"東京都","city":"渋谷区","address":"渋谷区本町6-6-2","lat":35.682102,"lon":139.679535},{"name":"山種美術館","province":"東京都","city":"渋谷区","address":"渋谷区広尾3-12-36","lat":35.6533231,"lon":139.7138333},{"name":"初台青年館","province":"東京都","city":"渋谷区","address":"東京都渋谷区初台1丁目33-10","lat":35.67960221,"lon":139.68485123},{"name":"代官山ティーンズクリエイティブ","province":"東京都","city":"渋谷区","address":"東京都渋谷区代官山町7-9","lat":35.65073373,"lon":139.70500339},{"name":"＊?松濤美術館","province":"東京都","city":"渋谷区","address":"渋谷区松濤2―14-14","lat":35.658706,"lon":139.691804},{"name":"＊?白根記念渋谷区郷土博物館・文学館","province":"東京都","city":"渋谷区","address":"渋谷区東4-9-1","lat":35.656393,"lon":139.712577},{"name":"＊?こども科学センター・ハチラボ","province":"東京都","city":"渋谷区","address":"渋谷区桜丘町23-21","lat":35.655458,"lon":139.699965},{"name":"＊?中央図書館","province":"東京都","city":"渋谷区","address":"渋谷区神宮前1-4-1","lat":35.672458,"lon":139.706188},{"name":"＊?西原図書館","province":"東京都","city":"渋谷区","address":"渋谷区西原2-28-9","lat":35.674953,"lon":139.677732},{"name":"＊?渋谷図書館","province":"東京都","city":"渋谷区","address":"渋谷区東1-6-6","lat":35.656504,"lon":139.709774},{"name":"＊?富ヶ谷図書館","province":"東京都","city":"渋谷区","address":"渋谷区上原1-46-2","lat":35.668508,"lon":139.687254},{"name":"＊?笹塚図書館","province":"東京都","city":"渋谷区","address":"渋谷区笹塚1-27-1","lat":35.67223,"lon":139.667182},{"name":"＊?本町図書館","province":"東京都","city":"渋谷区","address":"渋谷区本町1-33-5","lat":35.680752,"lon":139.681671},{"name":"＊?臨川みんなの図書館","province":"東京都","city":"渋谷区","address":"渋谷区広尾1ー9ー17","lat":35.649416,"lon":139.716607},{"name":"＊?代々木図書館","province":"東京都","city":"渋谷区","address":"渋谷区代々木3-51-8","lat":35.681984,"lon":139.695977},{"name":"＊?笹塚こども図書館","province":"東京都","city":"渋谷区","address":"渋谷区笹塚3-3-1","lat":35.678711,"lon":139.669753},{"name":"＊?こもれび大和田図書館","province":"東京都","city":"渋谷区","address":"渋谷区桜丘町23-21","lat":35.655458,"lon":139.699965},{"name":"メインアリーナ","province":"東京都","city":"渋谷区","address":"渋谷区千駄ヶ谷1-17-1","lat":35.679396,"lon":139.711963},{"name":"サブアリーナ","province":"東京都","city":"渋谷区","address":"渋谷区千駄ヶ谷1-17-1","lat":35.679396,"lon":139.711963},{"name":"50mプール","province":"東京都","city":"渋谷区","address":"渋谷区千駄ヶ谷1-17-1","lat":35.679396,"lon":139.711963},{"name":"25mプール","province":"東京都","city":"渋谷区","address":"渋谷区千駄ヶ谷1-17-1","lat":35.679396,"lon":139.711963},{"name":"陸上競技場","province":"東京都","city":"渋谷区","address":"渋谷区千駄ヶ谷1-17-1","lat":35.679396,"lon":139.711963},{"name":"トレーニングルーム","province":"東京都","city":"渋谷区","address":"渋谷区千駄ヶ谷1-17-1","lat":35.679396,"lon":139.711963},{"name":"健康体力相談室","province":"東京都","city":"渋谷区","address":"渋谷区千駄ヶ谷1-17-1","lat":35.679396,"lon":139.711963},{"name":"代官山ティーンズ・クリエイティブ","province":"東京都","city":"渋谷区","address":"渋谷区代官山町7-9","lat":35.650728,"lon":139.704953},{"name":"渋谷区児童青少年センター","province":"東京都","city":"渋谷区","address":"渋谷区本町6-6-2","lat":35.682102,"lon":139.679535},{"name":"中央","province":"東京都","city":"渋谷区","address":"東京都渋谷区神宮前1-4-1","lat":35.672452,"lon":139.706176},{"name":"こもれび大和田","province":"東京都","city":"渋谷区","address":"東京都渋谷区桜丘町23-21","lat":35.655378,"lon":139.700314},{"name":"西原","province":"東京都","city":"渋谷区","address":"東京都渋谷区西原2-28-9","lat":35.674949,"lon":139.677778},{"name":"富ヶ谷","province":"東京都","city":"渋谷区","address":"東京都渋谷区上原1-46-2","lat":35.668512,"lon":139.687269},{"name":"笹塚","province":"東京都","city":"渋谷区","address":"東京都渋谷区笹塚1-47-1メルクマール京王笹塚4階","lat":35.673527,"lon":139.667783},{"name":"本町","province":"東京都","city":"渋谷区","address":"東京都渋谷区本町1-33-5","lat":35.68075,"lon":139.681686},{"name":"臨川みんなの","province":"東京都","city":"渋谷区","address":"東京都渋谷区広尾1-9-17","lat":35.649363,"lon":139.716734},{"name":"代々木","province":"東京都","city":"渋谷区","address":"東京都渋谷区代々木3-51-8代々木区民施設4階","lat":35.681969,"lon":139.695981},{"name":"笹塚こども","province":"東京都","city":"渋谷区","address":"東京都渋谷区笹塚3-3-1","lat":35.678743,"lon":139.669727},{"name":"白根図書サービススポット","province":"東京都","city":"渋谷区","address":"東京都渋谷区東4-9-1白根記念渋谷区郷土博物館・文学館1階","lat":35.656435,"lon":139.712507},{"name":"代官山ティーンズ・クリエイティブ","province":"東京都","city":"渋谷区","address":"渋谷区代官山町7-9","lat":35.65105,"lon":139.70528},{"name":"児童青少年センター　フレンズ本町","province":"東京都","city":"渋谷区","address":"渋谷区本町6-6-2","lat":35.68232,"lon":139.67931},{"name":"児童青少年センター　フレンズ本町","province":"東京都","city":"渋谷区","address":"渋谷区本町6-6-2","lat":35.682102,"lon":139.679535},{"name":"山種美術館","province":"東京都","city":"渋谷区","address":"渋谷区広尾3-12-36","lat":35.6533231,"lon":139.7138333},{"name":"初台青年館","province":"東京都","city":"渋谷区","address":"東京都渋谷区初台1丁目33-10","lat":35.67960221,"lon":139.68485123},{"name":"代官山ティーンズクリエイティブ","province":"東京都","city":"渋谷区","address":"東京都渋谷区代官山町7-9","lat":35.65073373,"lon":139.70500339},{"name":"＊?中央図書館","province":"東京都","city":"渋谷区","address":"渋谷区神宮前1-4-1","lat":35.672458,"lon":139.706188},{"name":"＊?西原図書館","province":"東京都","city":"渋谷区","address":"渋谷区西原2-28-9","lat":35.674953,"lon":139.677732},{"name":"＊?渋谷図書館","province":"東京都","city":"渋谷区","address":"渋谷区東1-6-6","lat":35.656504,"lon":139.709774},{"name":"＊?富ヶ谷図書館","province":"東京都","city":"渋谷区","address":"渋谷区上原1-46-2","lat":35.668508,"lon":139.687254},{"name":"＊?笹塚図書館","province":"東京都","city":"渋谷区","address":"渋谷区笹塚1-27-1","lat":35.67223,"lon":139.667182},{"name":"＊?本町図書館","province":"東京都","city":"渋谷区","address":"渋谷区本町1-33-5","lat":35.680752,"lon":139.681671},{"name":"＊?臨川みんなの図書館","province":"東京都","city":"渋谷区","address":"渋谷区広尾1ー9ー17","lat":35.649416,"lon":139.716607},{"name":"＊?代々木図書館","province":"東京都","city":"渋谷区","address":"渋谷区代々木3-51-8","lat":35.681984,"lon":139.695977},{"name":"＊?笹塚こども図書館","province":"東京都","city":"渋谷区","address":"渋谷区笹塚3-3-1","lat":35.678711,"lon":139.669753},{"name":"＊?こもれび大和田図書館","province":"東京都","city":"渋谷区","address":"渋谷区桜丘町23-21","lat":35.655458,"lon":139.699965},{"name":"メインアリーナ","province":"東京都","city":"渋谷区","address":"渋谷区千駄ヶ谷1-17-1","lat":35.679396,"lon":139.711963},{"name":"サブアリーナ","province":"東京都","city":"渋谷区","address":"渋谷区千駄ヶ谷1-17-1","lat":35.679396,"lon":139.711963},{"name":"50mプール","province":"東京都","city":"渋谷区","address":"渋谷区千駄ヶ谷1-17-1","lat":35.679396,"lon":139.711963},{"name":"25mプール","province":"東京都","city":"渋谷区","address":"渋谷区千駄ヶ谷1-17-1","lat":35.679396,"lon":139.711963},{"name":"陸上競技場","province":"東京都","city":"渋谷区","address":"渋谷区千駄ヶ谷1-17-1","lat":35.679396,"lon":139.711963},{"name":"トレーニングルーム","province":"東京都","city":"渋谷区","address":"渋谷区千駄ヶ谷1-17-1","lat":35.679396,"lon":139.711963},{"name":"健康体力相談室","province":"東京都","city":"渋谷区","address":"渋谷区千駄ヶ谷1-17-1","lat":35.679396,"lon":139.711963},{"name":"代官山ティーンズ・クリエイティブ","province":"東京都","city":"渋谷区","address":"渋谷区代官山町7-9","lat":35.650728,"lon":139.704953},{"name":"渋谷区児童青少年センター","province":"東京都","city":"渋谷区","address":"渋谷区本町6-6-2","lat":35.682102,"lon":139.679535},{"name":"中央","province":"東京都","city":"渋谷区","address":"東京都渋谷区神宮前1-4-1","lat":35.672452,"lon":139.706176},{"name":"こもれび大和田","province":"東京都","city":"渋谷区","address":"東京都渋谷区桜丘町23-21","lat":35.655378,"lon":139.700314},{"name":"西原","province":"東京都","city":"渋谷区","address":"東京都渋谷区西原2-28-9","lat":35.674949,"lon":139.677778},{"name":"富ヶ谷","province":"東京都","city":"渋谷区","address":"東京都渋谷区上原1-46-2","lat":35.668512,"lon":139.687269},{"name":"笹塚","province":"東京都","city":"渋谷区","address":"東京都渋谷区笹塚1-47-1メルクマール京王笹塚4階","lat":35.673527,"lon":139.667783},{"name":"本町","province":"東京都","city":"渋谷区","address":"東京都渋谷区本町1-33-5","lat":35.68075,"lon":139.681686},{"name":"臨川みんなの","province":"東京都","city":"渋谷区","address":"東京都渋谷区広尾1-9-17","lat":35.649363,"lon":139.716734},{"name":"代々木","province":"東京都","city":"渋谷区","address":"東京都渋谷区代々木3-51-8代々木区民施設4階","lat":35.681969,"lon":139.695981},{"name":"笹塚こども","province":"東京都","city":"渋谷区","address":"東京都渋谷区笹塚3-3-1","lat":35.678743,"lon":139.669727},{"name":"白根図書サービススポット","province":"東京都","city":"渋谷区","address":"東京都渋谷区東4-9-1白根記念渋谷区郷土博物館・文学館1階","lat":35.656435,"lon":139.712507},{"name":"代官山ティーンズ・クリエイティブ","province":"東京都","city":"渋谷区","address":"渋谷区代官山町7-9","lat":35.65105,"lon":139.70528},{"name":"児童青少年センター　フレンズ本町","province":"東京都","city":"渋谷区","address":"渋谷区本町6-6-2","lat":35.68232,"lon":139.67931},{"name":"児童青少年センター　フレンズ本町","province":"東京都","city":"渋谷区","address":"渋谷区本町6-6-2","lat":35.682102,"lon":139.679535},{"name":"山種美術館","province":"東京都","city":"渋谷区","address":"渋谷区広尾3-12-36","lat":35.6533231,"lon":139.7138333},{"name":"初台青年館","province":"東京都","city":"渋谷区","address":"東京都渋谷区初台1丁目33-10","lat":35.67960221,"lon":139.68485123},{"name":"代官山ティーンズクリエイティブ","province":"東京都","city":"渋谷区","address":"東京都渋谷区代官山町7-9","lat":35.65073373,"lon":139.70500339},{"name":"＊?中央図書館","province":"東京都","city":"渋谷区","address":"渋谷区神宮前1-4-1","lat":35.672458,"lon":139.706188},{"name":"＊?西原図書館","province":"東京都","city":"渋谷区","address":"渋谷区西原2-28-9","lat":35.674953,"lon":139.677732},{"name":"＊?渋谷図書館","province":"東京都","city":"渋谷区","address":"渋谷区東1-6-6","lat":35.656504,"lon":139.709774},{"name":"＊?富ヶ谷図書館","province":"東京都","city":"渋谷区","address":"渋谷区上原1-46-2","lat":35.668508,"lon":139.687254},{"name":"＊?笹塚図書館","province":"東京都","city":"渋谷区","address":"渋谷区笹塚1-27-1","lat":35.67223,"lon":139.667182},{"name":"＊?本町図書館","province":"東京都","city":"渋谷区","address":"渋谷区本町1-33-5","lat":35.680752,"lon":139.681671},{"name":"＊?臨川みんなの図書館","province":"東京都","city":"渋谷区","address":"渋谷区広尾1ー9ー17","lat":35.649416,"lon":139.716607},{"name":"＊?代々木図書館","province":"東京都","city":"渋谷区","address":"渋谷区代々木3-51-8","lat":35.681984,"lon":139.695977},{"name":"＊?笹塚こども図書館","province":"東京都","city":"渋谷区","address":"渋谷区笹塚3-3-1","lat":35.678711,"lon":139.669753},{"name":"＊?こもれび大和田図書館","province":"東京都","city":"渋谷区","address":"渋谷区桜丘町23-21","lat":35.655458,"lon":139.699965},{"name":"メインアリーナ","province":"東京都","city":"渋谷区","address":"渋谷区千駄ヶ谷1-17-1","lat":35.679396,"lon":139.711963},{"name":"サブアリーナ","province":"東京都","city":"渋谷区","address":"渋谷区千駄ヶ谷1-17-1","lat":35.679396,"lon":139.711963},{"name":"50mプール","province":"東京都","city":"渋谷区","address":"渋谷区千駄ヶ谷1-17-1","lat":35.679396,"lon":139.711963},{"name":"25mプール","province":"東京都","city":"渋谷区","address":"渋谷区千駄ヶ谷1-17-1","lat":35.679396,"lon":139.711963},{"name":"陸上競技場","province":"東京都","city":"渋谷区","address":"渋谷区千駄ヶ谷1-17-1","lat":35.679396,"lon":139.711963},{"name":"トレーニングルーム","province":"東京都","city":"渋谷区","address":"渋谷区千駄ヶ谷1-17-1","lat":35.679396,"lon":139.711963},{"name":"健康体力相談室","province":"東京都","city":"渋谷区","address":"渋谷区千駄ヶ谷1-17-1","lat":35.679396,"lon":139.711963},{"name":"代官山ティーンズ・クリエイティブ","province":"東京都","city":"渋谷区","address":"渋谷区代官山町7-9","lat":35.650728,"lon":139.704953},{"name":"渋谷区児童青少年センター","province":"東京都","city":"渋谷区","address":"渋谷区本町6-6-2","lat":35.682102,"lon":139.679535},{"name":"中央","province":"東京都","city":"渋谷区","address":"東京都渋谷区神宮前1-4-1","lat":35.672452,"lon":139.706176},{"name":"こもれび大和田","province":"東京都","city":"渋谷区","address":"東京都渋谷区桜丘町23-21","lat":35.655378,"lon":139.700314},{"name":"西原","province":"東京都","city":"渋谷区","address":"東京都渋谷区西原2-28-9","lat":35.674949,"lon":139.677778},{"name":"富ヶ谷","province":"東京都","city":"渋谷区","address":"東京都渋谷区上原1-46-2","lat":35.668512,"lon":139.687269},{"name":"笹塚","province":"東京都","city":"渋谷区","address":"東京都渋谷区笹塚1-47-1メルクマール京王笹塚4階","lat":35.673527,"lon":139.667783},{"name":"本町","province":"東京都","city":"渋谷区","address":"東京都渋谷区本町1-33-5","lat":35.68075,"lon":139.681686},{"name":"臨川みんなの","province":"東京都","city":"渋谷区","address":"東京都渋谷区広尾1-9-17","lat":35.649363,"lon":139.716734},{"name":"代々木","province":"東京都","city":"渋谷区","address":"東京都渋谷区代々木3-51-8代々木区民施設4階","lat":35.681969,"lon":139.695981},{"name":"笹塚こども","province":"東京都","city":"渋谷区","address":"東京都渋谷区笹塚3-3-1","lat":35.678743,"lon":139.669727},{"name":"白根図書サービススポット","province":"東京都","city":"渋谷区","address":"東京都渋谷区東4-9-1白根記念渋谷区郷土博物館・文学館1階","lat":35.656435,"lon":139.712507},{"name":"代官山ティーンズ・クリエイティブ","province":"東京都","city":"渋谷区","address":"渋谷区代官山町7-9","lat":35.65105,"lon":139.70528},{"name":"児童青少年センター　フレンズ本町","province":"東京都","city":"渋谷区","address":"渋谷区本町6-6-2","lat":35.68232,"lon":139.67931},{"name":"児童青少年センター　フレンズ本町","province":"東京都","city":"渋谷区","address":"渋谷区本町6-6-2","lat":35.682102,"lon":139.679535},{"name":"山種美術館","province":"東京都","city":"渋谷区","address":"渋谷区広尾3-12-36","lat":35.6533231,"lon":139.7138333},{"name":"初台青年館","province":"東京都","city":"渋谷区","address":"東京都渋谷区初台1丁目33-10","lat":35.67960221,"lon":139.68485123},{"name":"代官山ティーンズクリエイティブ","province":"東京都","city":"渋谷区","address":"東京都渋谷区代官山町7-9","lat":35.65073373,"lon":139.70500339},{"name":"＊?中央図書館","province":"東京都","city":"渋谷区","address":"渋谷区神宮前1-4-1","lat":35.672458,"lon":139.706188},{"name":"＊?西原図書館","province":"東京都","city":"渋谷区","address":"渋谷区西原2-28-9","lat":35.674953,"lon":139.677732},{"name":"＊?渋谷図書館","province":"東京都","city":"渋谷区","address":"渋谷区東1-6-6","lat":35.656504,"lon":139.709774},{"name":"＊?富ヶ谷図書館","province":"東京都","city":"渋谷区","address":"渋谷区上原1-46-2","lat":35.668508,"lon":139.687254},{"name":"＊?笹塚図書館","province":"東京都","city":"渋谷区","address":"渋谷区笹塚1-27-1","lat":35.67223,"lon":139.667182},{"name":"＊?本町図書館","province":"東京都","city":"渋谷区","address":"渋谷区本町1-33-5","lat":35.680752,"lon":139.681671},{"name":"＊?臨川みんなの図書館","province":"東京都","city":"渋谷区","address":"渋谷区広尾1ー9ー17","lat":35.649416,"lon":139.716607},{"name":"＊?代々木図書館","province":"東京都","city":"渋谷区","address":"渋谷区代々木3-51-8","lat":35.681984,"lon":139.695977},{"name":"＊?笹塚こども図書館","province":"東京都","city":"渋谷区","address":"渋谷区笹塚3-3-1","lat":35.678711,"lon":139.669753},{"name":"＊?こもれび大和田図書館","province":"東京都","city":"渋谷区","address":"渋谷区桜丘町23-21","lat":35.655458,"lon":139.699965},{"name":"メインアリーナ","province":"東京都","city":"渋谷区","address":"渋谷区千駄ヶ谷1-17-1","lat":35.679396,"lon":139.711963},{"name":"サブアリーナ","province":"東京都","city":"渋谷区","address":"渋谷区千駄ヶ谷1-17-1","lat":35.679396,"lon":139.711963},{"name":"50mプール","province":"東京都","city":"渋谷区","address":"渋谷区千駄ヶ谷1-17-1","lat":35.679396,"lon":139.711963},{"name":"25mプール","province":"東京都","city":"渋谷区","address":"渋谷区千駄ヶ谷1-17-1","lat":35.679396,"lon":139.711963},{"name":"陸上競技場","province":"東京都","city":"渋谷区","address":"渋谷区千駄ヶ谷1-17-1","lat":35.679396,"lon":139.711963},{"name":"トレーニングルーム","province":"東京都","city":"渋谷区","address":"渋谷区千駄ヶ谷1-17-1","lat":35.679396,"lon":139.711963},{"name":"健康体力相談室","province":"東京都","city":"渋谷区","address":"渋谷区千駄ヶ谷1-17-1","lat":35.679396,"lon":139.711963},{"name":"代官山ティーンズ・クリエイティブ","province":"東京都","city":"渋谷区","address":"渋谷区代官山町7-9","lat":35.650728,"lon":139.704953},{"name":"渋谷区児童青少年センター","province":"東京都","city":"渋谷区","address":"渋谷区本町6-6-2","lat":35.682102,"lon":139.679535},{"name":"中央","province":"東京都","city":"渋谷区","address":"東京都渋谷区神宮前1-4-1","lat":35.672452,"lon":139.706176},{"name":"こもれび大和田","province":"東京都","city":"渋谷区","address":"東京都渋谷区桜丘町23-21","lat":35.655378,"lon":139.700314},{"name":"西原","province":"東京都","city":"渋谷区","address":"東京都渋谷区西原2-28-9","lat":35.674949,"lon":139.677778},{"name":"富ヶ谷","province":"東京都","city":"渋谷区","address":"東京都渋谷区上原1-46-2","lat":35.668512,"lon":139.687269},{"name":"笹塚","province":"東京都","city":"渋谷区","address":"東京都渋谷区笹塚1-47-1メルクマール京王笹塚4階","lat":35.673527,"lon":139.667783},{"name":"本町","province":"東京都","city":"渋谷区","address":"東京都渋谷区本町1-33-5","lat":35.68075,"lon":139.681686},{"name":"臨川みんなの","province":"東京都","city":"渋谷区","address":"東京都渋谷区広尾1-9-17","lat":35.649363,"lon":139.716734},{"name":"代々木","province":"東京都","city":"渋谷区","address":"東京都渋谷区代々木3-51-8代々木区民施設4階","lat":35.681969,"lon":139.695981},{"name":"笹塚こども","province":"東京都","city":"渋谷区","address":"東京都渋谷区笹塚3-3-1","lat":35.678743,"lon":139.669727},{"name":"白根図書サービススポット","province":"東京都","city":"渋谷区","address":"東京都渋谷区東4-9-1白根記念渋谷区郷土博物館・文学館1階","lat":35.656435,"lon":139.712507},{"name":"代官山ティーンズ・クリエイティブ","province":"東京都","city":"渋谷区","address":"渋谷区代官山町7-9","lat":35.65105,"lon":139.70528},{"name":"児童青少年センター　フレンズ本町","province":"東京都","city":"渋谷区","address":"渋谷区本町6-6-2","lat":35.68232,"lon":139.67931},{"name":"児童青少年センター　フレンズ本町","province":"東京都","city":"渋谷区","address":"渋谷区本町6-6-2","lat":35.682102,"lon":139.679535},{"name":"山種美術館","province":"東京都","city":"渋谷区","address":"渋谷区広尾3-12-36","lat":35.6533231,"lon":139.7138333},{"name":"初台青年館","province":"東京都","city":"渋谷区","address":"東京都渋谷区初台1丁目33-10","lat":35.67960221,"lon":139.68485123},{"name":"代官山ティーンズクリエイティブ","province":"東京都","city":"渋谷区","address":"東京都渋谷区代官山町7-9","lat":35.65073373,"lon":139.70500339},{"name":"＊?中央図書館","province":"東京都","city":"渋谷区","address":"渋谷区神宮前1-4-1","lat":35.672458,"lon":139.706188},{"name":"＊?西原図書館","province":"東京都","city":"渋谷区","address":"渋谷区西原2-28-9","lat":35.674953,"lon":139.677732},{"name":"＊?渋谷図書館","province":"東京都","city":"渋谷区","address":"渋谷区東1-6-6","lat":35.656504,"lon":139.709774},{"name":"＊?富ヶ谷図書館","province":"東京都","city":"渋谷区","address":"渋谷区上原1-46-2","lat":35.668508,"lon":139.687254},{"name":"＊?笹塚図書館","province":"東京都","city":"渋谷区","address":"渋谷区笹塚1-27-1","lat":35.67223,"lon":139.667182},{"name":"＊?本町図書館","province":"東京都","city":"渋谷区","address":"渋谷区本町1-33-5","lat":35.680752,"lon":139.681671},{"name":"＊?臨川みんなの図書館","province":"東京都","city":"渋谷区","address":"渋谷区広尾1ー9ー17","lat":35.649416,"lon":139.716607},{"name":"＊?代々木図書館","province":"東京都","city":"渋谷区","address":"渋谷区代々木3-51-8","lat":35.681984,"lon":139.695977},{"name":"＊?笹塚こども図書館","province":"東京都","city":"渋谷区","address":"渋谷区笹塚3-3-1","lat":35.678711,"lon":139.669753},{"name":"＊?こもれび大和田図書館","province":"東京都","city":"渋谷区","address":"渋谷区桜丘町23-21","lat":35.655458,"lon":139.699965},{"name":"メインアリーナ","province":"東京都","city":"渋谷区","address":"渋谷区千駄ヶ谷1-17-1","lat":35.679396,"lon":139.711963},{"name":"サブアリーナ","province":"東京都","city":"渋谷区","address":"渋谷区千駄ヶ谷1-17-1","lat":35.679396,"lon":139.711963},{"name":"50mプール","province":"東京都","city":"渋谷区","address":"渋谷区千駄ヶ谷1-17-1","lat":35.679396,"lon":139.711963},{"name":"25mプール","province":"東京都","city":"渋谷区","address":"渋谷区千駄ヶ谷1-17-1","lat":35.679396,"lon":139.711963},{"name":"陸上競技場","province":"東京都","city":"渋谷区","address":"渋谷区千駄ヶ谷1-17-1","lat":35.679396,"lon":139.711963},{"name":"トレーニングルーム","province":"東京都","city":"渋谷区","address":"渋谷区千駄ヶ谷1-17-1","lat":35.679396,"lon":139.711963},{"name":"健康体力相談室","province":"東京都","city":"渋谷区","address":"渋谷区千駄ヶ谷1-17-1","lat":35.679396,"lon":139.711963},{"name":"代官山ティーンズ・クリエイティブ","province":"東京都","city":"渋谷区","address":"渋谷区代官山町7-9","lat":35.650728,"lon":139.704953},{"name":"渋谷区児童青少年センター","province":"東京都","city":"渋谷区","address":"渋谷区本町6-6-2","lat":35.682102,"lon":139.679535},{"name":"中央","province":"東京都","city":"渋谷区","address":"東京都渋谷区神宮前1-4-1","lat":35.672452,"lon":139.706176},{"name":"こもれび大和田","province":"東京都","city":"渋谷区","address":"東京都渋谷区桜丘町23-21","lat":35.655378,"lon":139.700314},{"name":"西原","province":"東京都","city":"渋谷区","address":"東京都渋谷区西原2-28-9","lat":35.674949,"lon":139.677778},{"name":"富ヶ谷","province":"東京都","city":"渋谷区","address":"東京都渋谷区上原1-46-2","lat":35.668512,"lon":139.687269},{"name":"笹塚","province":"東京都","city":"渋谷区","address":"東京都渋谷区笹塚1-47-1メルクマール京王笹塚4階","lat":35.673527,"lon":139.667783},{"name":"本町","province":"東京都","city":"渋谷区","address":"東京都渋谷区本町1-33-5","lat":35.68075,"lon":139.681686},{"name":"臨川みんなの","province":"東京都","city":"渋谷区","address":"東京都渋谷区広尾1-9-17","lat":35.649363,"lon":139.716734},{"name":"代々木","province":"東京都","city":"渋谷区","address":"東京都渋谷区代々木3-51-8代々木区民施設4階","lat":35.681969,"lon":139.695981},{"name":"笹塚こども","province":"東京都","city":"渋谷区","address":"東京都渋谷区笹塚3-3-1","lat":35.678743,"lon":139.669727},{"name":"白根図書サービススポット","province":"東京都","city":"渋谷区","address":"東京都渋谷区東4-9-1白根記念渋谷区郷土博物館・文学館1階","lat":35.656435,"lon":139.712507},{"name":"代官山ティーンズ・クリエイティブ","province":"東京都","city":"渋谷区","address":"渋谷区代官山町7-9","lat":35.65105,"lon":139.70528},{"name":"児童青少年センター　フレンズ本町","province":"東京都","city":"渋谷区","address":"渋谷区本町6-6-2","lat":35.68232,"lon":139.67931},{"name":"児童青少年センター　フレンズ本町","province":"東京都","city":"渋谷区","address":"渋谷区本町6-6-2","lat":35.682102,"lon":139.679535},{"name":"山種美術館","province":"東京都","city":"渋谷区","address":"渋谷区広尾3-12-36","lat":35.6533231,"lon":139.7138333},{"name":"初台青年館","province":"東京都","city":"渋谷区","address":"東京都渋谷区初台1丁目33-10","lat":35.67960221,"lon":139.68485123},{"name":"代官山ティーンズクリエイティブ","province":"東京都","city":"渋谷区","address":"東京都渋谷区代官山町7-9","lat":35.65073373,"lon":139.70500339},{"name":"＊?中央図書館","province":"東京都","city":"渋谷区","address":"渋谷区神宮前1-4-1","lat":35.672458,"lon":139.706188},{"name":"＊?西原図書館","province":"東京都","city":"渋谷区","address":"渋谷区西原2-28-9","lat":35.674953,"lon":139.677732},{"name":"＊?渋谷図書館","province":"東京都","city":"渋谷区","address":"渋谷区東1-6-6","lat":35.656504,"lon":139.709774},{"name":"＊?富ヶ谷図書館","province":"東京都","city":"渋谷区","address":"渋谷区上原1-46-2","lat":35.668508,"lon":139.687254},{"name":"＊?笹塚図書館","province":"東京都","city":"渋谷区","address":"渋谷区笹塚1-27-1","lat":35.67223,"lon":139.667182},{"name":"＊?本町図書館","province":"東京都","city":"渋谷区","address":"渋谷区本町1-33-5","lat":35.680752,"lon":139.681671},{"name":"＊?臨川みんなの図書館","province":"東京都","city":"渋谷区","address":"渋谷区広尾1ー9ー17","lat":35.649416,"lon":139.716607},{"name":"＊?代々木図書館","province":"東京都","city":"渋谷区","address":"渋谷区代々木3-51-8","lat":35.681984,"lon":139.695977},{"name":"＊?笹塚こども図書館","province":"東京都","city":"渋谷区","address":"渋谷区笹塚3-3-1","lat":35.678711,"lon":139.669753},{"name":"＊?こもれび大和田図書館","province":"東京都","city":"渋谷区","address":"渋谷区桜丘町23-21","lat":35.655458,"lon":139.699965},{"name":"メインアリーナ","province":"東京都","city":"渋谷区","address":"渋谷区千駄ヶ谷1-17-1","lat":35.679396,"lon":139.711963},{"name":"サブアリーナ","province":"東京都","city":"渋谷区","address":"渋谷区千駄ヶ谷1-17-1","lat":35.679396,"lon":139.711963},{"name":"50mプール","province":"東京都","city":"渋谷区","address":"渋谷区千駄ヶ谷1-17-1","lat":35.679396,"lon":139.711963},{"name":"25mプール","province":"東京都","city":"渋谷区","address":"渋谷区千駄ヶ谷1-17-1","lat":35.679396,"lon":139.711963},{"name":"陸上競技場","province":"東京都","city":"渋谷区","address":"渋谷区千駄ヶ谷1-17-1","lat":35.679396,"lon":139.711963},{"name":"トレーニングルーム","province":"東京都","city":"渋谷区","address":"渋谷区千駄ヶ谷1-17-1","lat":35.679396,"lon":139.711963},{"name":"健康体力相談室","province":"東京都","city":"渋谷区","address":"渋谷区千駄ヶ谷1-17-1","lat":35.679396,"lon":139.711963},{"name":"代官山ティーンズ・クリエイティブ","province":"東京都","city":"渋谷区","address":"渋谷区代官山町7-9","lat":35.650728,"lon":139.704953},{"name":"渋谷区児童青少年センター","province":"東京都","city":"渋谷区","address":"渋谷区本町6-6-2","lat":35.682102,"lon":139.679535},{"name":"中央","province":"東京都","city":"渋谷区","address":"東京都渋谷区神宮前1-4-1","lat":35.672452,"lon":139.706176},{"name":"こもれび大和田","province":"東京都","city":"渋谷区","address":"東京都渋谷区桜丘町23-21","lat":35.655378,"lon":139.700314},{"name":"西原","province":"東京都","city":"渋谷区","address":"東京都渋谷区西原2-28-9","lat":35.674949,"lon":139.677778},{"name":"富ヶ谷","province":"東京都","city":"渋谷区","address":"東京都渋谷区上原1-46-2","lat":35.668512,"lon":139.687269},{"name":"笹塚","province":"東京都","city":"渋谷区","address":"東京都渋谷区笹塚1-47-1メルクマール京王笹塚4階","lat":35.673527,"lon":139.667783},{"name":"本町","province":"東京都","city":"渋谷区","address":"東京都渋谷区本町1-33-5","lat":35.68075,"lon":139.681686},{"name":"臨川みんなの","province":"東京都","city":"渋谷区","address":"東京都渋谷区広尾1-9-17","lat":35.649363,"lon":139.716734},{"name":"代々木","province":"東京都","city":"渋谷区","address":"東京都渋谷区代々木3-51-8代々木区民施設4階","lat":35.681969,"lon":139.695981},{"name":"笹塚こども","province":"東京都","city":"渋谷区","address":"東京都渋谷区笹塚3-3-1","lat":35.678743,"lon":139.669727},{"name":"白根図書サービススポット","province":"東京都","city":"渋谷区","address":"東京都渋谷区東4-9-1白根記念渋谷区郷土博物館・文学館1階","lat":35.656435,"lon":139.712507},{"name":"代官山ティーンズ・クリエイティブ","province":"東京都","city":"渋谷区","address":"渋谷区代官山町7-9","lat":35.65105,"lon":139.70528},{"name":"児童青少年センター　フレンズ本町","province":"東京都","city":"渋谷区","address":"渋谷区本町6-6-2","lat":35.68232,"lon":139.67931},{"name":"児童青少年センター　フレンズ本町","province":"東京都","city":"渋谷区","address":"渋谷区本町6-6-2","lat":35.682102,"lon":139.679535},{"name":"山種美術館","province":"東京都","city":"渋谷区","address":"渋谷区広尾3-12-36","lat":35.6533231,"lon":139.7138333},{"name":"初台青年館","province":"東京都","city":"渋谷区","address":"東京都渋谷区初台1丁目33-10","lat":35.67960221,"lon":139.68485123},{"name":"代官山ティーンズクリエイティブ","province":"東京都","city":"渋谷区","address":"東京都渋谷区代官山町7-9","lat":35.65073373,"lon":139.70500339},{"name":"＊?中央図書館","province":"東京都","city":"渋谷区","address":"渋谷区神宮前1-4-1","lat":35.672458,"lon":139.706188},{"name":"＊?西原図書館","province":"東京都","city":"渋谷区","address":"渋谷区西原2-28-9","lat":35.674953,"lon":139.677732},{"name":"＊?渋谷図書館","province":"東京都","city":"渋谷区","address":"渋谷区東1-6-6","lat":35.656504,"lon":139.709774},{"name":"＊?富ヶ谷図書館","province":"東京都","city":"渋谷区","address":"渋谷区上原1-46-2","lat":35.668508,"lon":139.687254},{"name":"＊?笹塚図書館","province":"東京都","city":"渋谷区","address":"渋谷区笹塚1-27-1","lat":35.67223,"lon":139.667182},{"name":"＊?本町図書館","province":"東京都","city":"渋谷区","address":"渋谷区本町1-33-5","lat":35.680752,"lon":139.681671},{"name":"＊?臨川みんなの図書館","province":"東京都","city":"渋谷区","address":"渋谷区広尾1ー9ー17","lat":35.649416,"lon":139.716607},{"name":"＊?代々木図書館","province":"東京都","city":"渋谷区","address":"渋谷区代々木3-51-8","lat":35.681984,"lon":139.695977},{"name":"＊?笹塚こども図書館","province":"東京都","city":"渋谷区","address":"渋谷区笹塚3-3-1","lat":35.678711,"lon":139.669753},{"name":"＊?こもれび大和田図書館","province":"東京都","city":"渋谷区","address":"渋谷区桜丘町23-21","lat":35.655458,"lon":139.699965},{"name":"メインアリーナ","province":"東京都","city":"渋谷区","address":"渋谷区千駄ヶ谷1-17-1","lat":35.679396,"lon":139.711963},{"name":"サブアリーナ","province":"東京都","city":"渋谷区","address":"渋谷区千駄ヶ谷1-17-1","lat":35.679396,"lon":139.711963},{"name":"50mプール","province":"東京都","city":"渋谷区","address":"渋谷区千駄ヶ谷1-17-1","lat":35.679396,"lon":139.711963},{"name":"25mプール","province":"東京都","city":"渋谷区","address":"渋谷区千駄ヶ谷1-17-1","lat":35.679396,"lon":139.711963},{"name":"陸上競技場","province":"東京都","city":"渋谷区","address":"渋谷区千駄ヶ谷1-17-1","lat":35.679396,"lon":139.711963},{"name":"トレーニングルーム","province":"東京都","city":"渋谷区","address":"渋谷区千駄ヶ谷1-17-1","lat":35.679396,"lon":139.711963},{"name":"健康体力相談室","province":"東京都","city":"渋谷区","address":"渋谷区千駄ヶ谷1-17-1","lat":35.679396,"lon":139.711963},{"name":"代官山ティーンズ・クリエイティブ","province":"東京都","city":"渋谷区","address":"渋谷区代官山町7-9","lat":35.650728,"lon":139.704953},{"name":"渋谷区児童青少年センター","province":"東京都","city":"渋谷区","address":"渋谷区本町6-6-2","lat":35.682102,"lon":139.679535},{"name":"中央","province":"東京都","city":"渋谷区","address":"東京都渋谷区神宮前1-4-1","lat":35.672452,"lon":139.706176},{"name":"こもれび大和田","province":"東京都","city":"渋谷区","address":"東京都渋谷区桜丘町23-21","lat":35.655378,"lon":139.700314},{"name":"西原","province":"東京都","city":"渋谷区","address":"東京都渋谷区西原2-28-9","lat":35.674949,"lon":139.677778},{"name":"富ヶ谷","province":"東京都","city":"渋谷区","address":"東京都渋谷区上原1-46-2","lat":35.668512,"lon":139.687269},{"name":"笹塚","province":"東京都","city":"渋谷区","address":"東京都渋谷区笹塚1-47-1メルクマール京王笹塚4階","lat":35.673527,"lon":139.667783},{"name":"本町","province":"東京都","city":"渋谷区","address":"東京都渋谷区本町1-33-5","lat":35.68075,"lon":139.681686},{"name":"臨川みんなの","province":"東京都","city":"渋谷区","address":"東京都渋谷区広尾1-9-17","lat":35.649363,"lon":139.716734},{"name":"代々木","province":"東京都","city":"渋谷区","address":"東京都渋谷区代々木3-51-8代々木区民施設4階","lat":35.681969,"lon":139.695981},{"name":"笹塚こども","province":"東京都","city":"渋谷区","address":"東京都渋谷区笹塚3-3-1","lat":35.678743,"lon":139.669727},{"name":"白根図書サービススポット","province":"東京都","city":"渋谷区","address":"東京都渋谷区東4-9-1白根記念渋谷区郷土博物館・文学館1階","lat":35.656435,"lon":139.712507},{"name":"代官山ティーンズ・クリエイティブ","province":"東京都","city":"渋谷区","address":"渋谷区代官山町7-9","lat":35.65105,"lon":139.70528},{"name":"児童青少年センター　フレンズ本町","province":"東京都","city":"渋谷区","address":"渋谷区本町6-6-2","lat":35.68232,"lon":139.67931},{"name":"児童青少年センター　フレンズ本町","province":"東京都","city":"渋谷区","address":"渋谷区本町6-6-2","lat":35.682102,"lon":139.679535},{"name":"山種美術館","province":"東京都","city":"渋谷区","address":"渋谷区広尾3-12-36","lat":35.6533231,"lon":139.7138333},{"name":"初台青年館","province":"東京都","city":"渋谷区","address":"東京都渋谷区初台1丁目33-10","lat":35.67960221,"lon":139.68485123},{"name":"代官山ティーンズクリエイティブ","province":"東京都","city":"渋谷区","address":"東京都渋谷区代官山町7-9","lat":35.65073373,"lon":139.70500339},{"name":"＊?中央図書館","province":"東京都","city":"渋谷区","address":"渋谷区神宮前1-4-1","lat":35.672458,"lon":139.706188},{"name":"＊?西原図書館","province":"東京都","city":"渋谷区","address":"渋谷区西原2-28-9","lat":35.674953,"lon":139.677732},{"name":"＊?渋谷図書館","province":"東京都","city":"渋谷区","address":"渋谷区東1-6-6","lat":35.656504,"lon":139.709774},{"name":"＊?富ヶ谷図書館","province":"東京都","city":"渋谷区","address":"渋谷区上原1-46-2","lat":35.668508,"lon":139.687254},{"name":"＊?笹塚図書館","province":"東京都","city":"渋谷区","address":"渋谷区笹塚1-27-1","lat":35.67223,"lon":139.667182},{"name":"＊?本町図書館","province":"東京都","city":"渋谷区","address":"渋谷区本町1-33-5","lat":35.680752,"lon":139.681671},{"name":"＊?臨川みんなの図書館","province":"東京都","city":"渋谷区","address":"渋谷区広尾1ー9ー17","lat":35.649416,"lon":139.716607},{"name":"＊?代々木図書館","province":"東京都","city":"渋谷区","address":"渋谷区代々木3-51-8","lat":35.681984,"lon":139.695977},{"name":"＊?笹塚こども図書館","province":"東京都","city":"渋谷区","address":"渋谷区笹塚3-3-1","lat":35.678711,"lon":139.669753},{"name":"＊?こもれび大和田図書館","province":"東京都","city":"渋谷区","address":"渋谷区桜丘町23-21","lat":35.655458,"lon":139.699965},{"name":"メインアリーナ","province":"東京都","city":"渋谷区","address":"渋谷区千駄ヶ谷1-17-1","lat":35.679396,"lon":139.711963},{"name":"サブアリーナ","province":"東京都","city":"渋谷区","address":"渋谷区千駄ヶ谷1-17-1","lat":35.679396,"lon":139.711963},{"name":"50mプール","province":"東京都","city":"渋谷区","address":"渋谷区千駄ヶ谷1-17-1","lat":35.679396,"lon":139.711963},{"name":"25mプール","province":"東京都","city":"渋谷区","address":"渋谷区千駄ヶ谷1-17-1","lat":35.679396,"lon":139.711963},{"name":"陸上競技場","province":"東京都","city":"渋谷区","address":"渋谷区千駄ヶ谷1-17-1","lat":35.679396,"lon":139.711963},{"name":"トレーニングルーム","province":"東京都","city":"渋谷区","address":"渋谷区千駄ヶ谷1-17-1","lat":35.679396,"lon":139.711963},{"name":"健康体力相談室","province":"東京都","city":"渋谷区","address":"渋谷区千駄ヶ谷1-17-1","lat":35.679396,"lon":139.711963},{"name":"代官山ティーンズ・クリエイティブ","province":"東京都","city":"渋谷区","address":"渋谷区代官山町7-9","lat":35.650728,"lon":139.704953},{"name":"渋谷区児童青少年センター","province":"東京都","city":"渋谷区","address":"渋谷区本町6-6-2","lat":35.682102,"lon":139.679535},{"name":"中央","province":"東京都","city":"渋谷区","address":"東京都渋谷区神宮前1-4-1","lat":35.672452,"lon":139.706176},{"name":"こもれび大和田","province":"東京都","city":"渋谷区","address":"東京都渋谷区桜丘町23-21","lat":35.655378,"lon":139.700314},{"name":"西原","province":"東京都","city":"渋谷区","address":"東京都渋谷区西原2-28-9","lat":35.674949,"lon":139.677778},{"name":"富ヶ谷","province":"東京都","city":"渋谷区","address":"東京都渋谷区上原1-46-2","lat":35.668512,"lon":139.687269},{"name":"笹塚","province":"東京都","city":"渋谷区","address":"東京都渋谷区笹塚1-47-1メルクマール京王笹塚4階","lat":35.673527,"lon":139.667783},{"name":"本町","province":"東京都","city":"渋谷区","address":"東京都渋谷区本町1-33-5","lat":35.68075,"lon":139.681686},{"name":"臨川みんなの","province":"東京都","city":"渋谷区","address":"東京都渋谷区広尾1-9-17","lat":35.649363,"lon":139.716734},{"name":"代々木","province":"東京都","city":"渋谷区","address":"東京都渋谷区代々木3-51-8代々木区民施設4階","lat":35.681969,"lon":139.695981},{"name":"笹塚こども","province":"東京都","city":"渋谷区","address":"東京都渋谷区笹塚3-3-1","lat":35.678743,"lon":139.669727},{"name":"白根図書サービススポット","province":"東京都","city":"渋谷区","address":"東京都渋谷区東4-9-1白根記念渋谷区郷土博物館・文学館1階","lat":35.656435,"lon":139.712507},{"name":"代官山ティーンズ・クリエイティブ","province":"東京都","city":"渋谷区","address":"渋谷区代官山町7-9","lat":35.65105,"lon":139.70528},{"name":"児童青少年センター　フレンズ本町","province":"東京都","city":"渋谷区","address":"渋谷区本町6-6-2","lat":35.68232,"lon":139.67931},{"name":"児童青少年センター　フレンズ本町","province":"東京都","city":"渋谷区","address":"渋谷区本町6-6-2","lat":35.682102,"lon":139.679535},{"name":"山種美術館","province":"東京都","city":"渋谷区","address":"渋谷区広尾3-12-36","lat":35.6533231,"lon":139.7138333},{"name":"初台青年館","province":"東京都","city":"渋谷区","address":"東京都渋谷区初台1丁目33-10","lat":35.67960221,"lon":139.68485123},{"name":"代官山ティーンズクリエイティブ","province":"東京都","city":"渋谷区","address":"東京都渋谷区代官山町7-9","lat":35.65073373,"lon":139.70500339},{"name":"＊?中央図書館","province":"東京都","city":"渋谷区","address":"渋谷区神宮前1-4-1","lat":35.672458,"lon":139.706188},{"name":"＊?西原図書館","province":"東京都","city":"渋谷区","address":"渋谷区西原2-28-9","lat":35.674953,"lon":139.677732},{"name":"＊?渋谷図書館","province":"東京都","city":"渋谷区","address":"渋谷区東1-6-6","lat":35.656504,"lon":139.709774},{"name":"＊?富ヶ谷図書館","province":"東京都","city":"渋谷区","address":"渋谷区上原1-46-2","lat":35.668508,"lon":139.687254},{"name":"＊?笹塚図書館","province":"東京都","city":"渋谷区","address":"渋谷区笹塚1-27-1","lat":35.67223,"lon":139.667182},{"name":"＊?本町図書館","province":"東京都","city":"渋谷区","address":"渋谷区本町1-33-5","lat":35.680752,"lon":139.681671},{"name":"＊?臨川みんなの図書館","province":"東京都","city":"渋谷区","address":"渋谷区広尾1ー9ー17","lat":35.649416,"lon":139.716607},{"name":"＊?代々木図書館","province":"東京都","city":"渋谷区","address":"渋谷区代々木3-51-8","lat":35.681984,"lon":139.695977},{"name":"＊?笹塚こども図書館","province":"東京都","city":"渋谷区","address":"渋谷区笹塚3-3-1","lat":35.678711,"lon":139.669753},{"name":"＊?こもれび大和田図書館","province":"東京都","city":"渋谷区","address":"渋谷区桜丘町23-21","lat":35.655458,"lon":139.699965},{"name":"メインアリーナ","province":"東京都","city":"渋谷区","address":"渋谷区千駄ヶ谷1-17-1","lat":35.679396,"lon":139.711963},{"name":"サブアリーナ","province":"東京都","city":"渋谷区","address":"渋谷区千駄ヶ谷1-17-1","lat":35.679396,"lon":139.711963},{"name":"50mプール","province":"東京都","city":"渋谷区","address":"渋谷区千駄ヶ谷1-17-1","lat":35.679396,"lon":139.711963},{"name":"25mプール","province":"東京都","city":"渋谷区","address":"渋谷区千駄ヶ谷1-17-1","lat":35.679396,"lon":139.711963},{"name":"陸上競技場","province":"東京都","city":"渋谷区","address":"渋谷区千駄ヶ谷1-17-1","lat":35.679396,"lon":139.711963},{"name":"トレーニングルーム","province":"東京都","city":"渋谷区","address":"渋谷区千駄ヶ谷1-17-1","lat":35.679396,"lon":139.711963},{"name":"健康体力相談室","province":"東京都","city":"渋谷区","address":"渋谷区千駄ヶ谷1-17-1","lat":35.679396,"lon":139.711963},{"name":"代官山ティーンズ・クリエイティブ","province":"東京都","city":"渋谷区","address":"渋谷区代官山町7-9","lat":35.650728,"lon":139.704953},{"name":"渋谷区児童青少年センター","province":"東京都","city":"渋谷区","address":"渋谷区本町6-6-2","lat":35.682102,"lon":139.679535},{"name":"中央","province":"東京都","city":"渋谷区","address":"東京都渋谷区神宮前1-4-1","lat":35.672452,"lon":139.706176},{"name":"こもれび大和田","province":"東京都","city":"渋谷区","address":"東京都渋谷区桜丘町23-21","lat":35.655378,"lon":139.700314},{"name":"西原","province":"東京都","city":"渋谷区","address":"東京都渋谷区西原2-28-9","lat":35.674949,"lon":139.677778},{"name":"富ヶ谷","province":"東京都","city":"渋谷区","address":"東京都渋谷区上原1-46-2","lat":35.668512,"lon":139.687269},{"name":"笹塚","province":"東京都","city":"渋谷区","address":"東京都渋谷区笹塚1-47-1メルクマール京王笹塚4階","lat":35.673527,"lon":139.667783},{"name":"本町","province":"東京都","city":"渋谷区","address":"東京都渋谷区本町1-33-5","lat":35.68075,"lon":139.681686},{"name":"臨川みんなの","province":"東京都","city":"渋谷区","address":"東京都渋谷区広尾1-9-17","lat":35.649363,"lon":139.716734},{"name":"代々木","province":"東京都","city":"渋谷区","address":"東京都渋谷区代々木3-51-8代々木区民施設4階","lat":35.681969,"lon":139.695981},{"name":"笹塚こども","province":"東京都","city":"渋谷区","address":"東京都渋谷区笹塚3-3-1","lat":35.678743,"lon":139.669727},{"name":"白根図書サービススポット","province":"東京都","city":"渋谷区","address":"東京都渋谷区東4-9-1白根記念渋谷区郷土博物館・文学館1階","lat":35.656435,"lon":139.712507},{"name":"代官山ティーンズ・クリエイティブ","province":"東京都","city":"渋谷区","address":"渋谷区代官山町7-9","lat":35.65105,"lon":139.70528},{"name":"児童青少年センター　フレンズ本町","province":"東京都","city":"渋谷区","address":"渋谷区本町6-6-2","lat":35.68232,"lon":139.67931},{"name":"児童青少年センター　フレンズ本町","province":"東京都","city":"渋谷区","address":"渋谷区本町6-6-2","lat":35.682102,"lon":139.679535},{"name":"山種美術館","province":"東京都","city":"渋谷区","address":"渋谷区広尾3-12-36","lat":35.6533231,"lon":139.7138333},{"name":"初台青年館","province":"東京都","city":"渋谷区","address":"東京都渋谷区初台1丁目33-10","lat":35.67960221,"lon":139.68485123},{"name":"代官山ティーンズクリエイティブ","province":"東京都","city":"渋谷区","address":"東京都渋谷区代官山町7-9","lat":35.65073373,"lon":139.70500339},{"name":"＊?中央図書館","province":"東京都","city":"渋谷区","address":"渋谷区神宮前1-4-1","lat":35.672458,"lon":139.706188},{"name":"＊?西原図書館","province":"東京都","city":"渋谷区","address":"渋谷区西原2-28-9","lat":35.674953,"lon":139.677732},{"name":"＊?渋谷図書館","province":"東京都","city":"渋谷区","address":"渋谷区東1-6-6","lat":35.656504,"lon":139.709774},{"name":"＊?富ヶ谷図書館","province":"東京都","city":"渋谷区","address":"渋谷区上原1-46-2","lat":35.668508,"lon":139.687254},{"name":"＊?笹塚図書館","province":"東京都","city":"渋谷区","address":"渋谷区笹塚1-27-1","lat":35.67223,"lon":139.667182},{"name":"＊?本町図書館","province":"東京都","city":"渋谷区","address":"渋谷区本町1-33-5","lat":35.680752,"lon":139.681671},{"name":"＊?臨川みんなの図書館","province":"東京都","city":"渋谷区","address":"渋谷区広尾1ー9ー17","lat":35.649416,"lon":139.716607},{"name":"＊?代々木図書館","province":"東京都","city":"渋谷区","address":"渋谷区代々木3-51-8","lat":35.681984,"lon":139.695977},{"name":"＊?笹塚こども図書館","province":"東京都","city":"渋谷区","address":"渋谷区笹塚3-3-1","lat":35.678711,"lon":139.669753},{"name":"＊?こもれび大和田図書館","province":"東京都","city":"渋谷区","address":"渋谷区桜丘町23-21","lat":35.655458,"lon":139.699965},{"name":"メインアリーナ","province":"東京都","city":"渋谷区","address":"渋谷区千駄ヶ谷1-17-1","lat":35.679396,"lon":139.711963},{"name":"サブアリーナ","province":"東京都","city":"渋谷区","address":"渋谷区千駄ヶ谷1-17-1","lat":35.679396,"lon":139.711963},{"name":"50mプール","province":"東京都","city":"渋谷区","address":"渋谷区千駄ヶ谷1-17-1","lat":35.679396,"lon":139.711963},{"name":"25mプール","province":"東京都","city":"渋谷区","address":"渋谷区千駄ヶ谷1-17-1","lat":35.679396,"lon":139.711963},{"name":"陸上競技場","province":"東京都","city":"渋谷区","address":"渋谷区千駄ヶ谷1-17-1","lat":35.679396,"lon":139.711963},{"name":"トレーニングルーム","province":"東京都","city":"渋谷区","address":"渋谷区千駄ヶ谷1-17-1","lat":35.679396,"lon":139.711963},{"name":"健康体力相談室","province":"東京都","city":"渋谷区","address":"渋谷区千駄ヶ谷1-17-1","lat":35.679396,"lon":139.711963},{"name":"代官山ティーンズ・クリエイティブ","province":"東京都","city":"渋谷区","address":"渋谷区代官山町7-9","lat":35.650728,"lon":139.704953},{"name":"渋谷区児童青少年センター","province":"東京都","city":"渋谷区","address":"渋谷区本町6-6-2","lat":35.682102,"lon":139.679535},{"name":"中央","province":"東京都","city":"渋谷区","address":"東京都渋谷区神宮前1-4-1","lat":35.672452,"lon":139.706176},{"name":"こもれび大和田","province":"東京都","city":"渋谷区","address":"東京都渋谷区桜丘町23-21","lat":35.655378,"lon":139.700314},{"name":"西原","province":"東京都","city":"渋谷区","address":"東京都渋谷区西原2-28-9","lat":35.674949,"lon":139.677778},{"name":"富ヶ谷","province":"東京都","city":"渋谷区","address":"東京都渋谷区上原1-46-2","lat":35.668512,"lon":139.687269},{"name":"笹塚","province":"東京都","city":"渋谷区","address":"東京都渋谷区笹塚1-47-1メルクマール京王笹塚4階","lat":35.673527,"lon":139.667783},{"name":"本町","province":"東京都","city":"渋谷区","address":"東京都渋谷区本町1-33-5","lat":35.68075,"lon":139.681686},{"name":"臨川みんなの","province":"東京都","city":"渋谷区","address":"東京都渋谷区広尾1-9-17","lat":35.649363,"lon":139.716734},{"name":"代々木","province":"東京都","city":"渋谷区","address":"東京都渋谷区代々木3-51-8代々木区民施設4階","lat":35.681969,"lon":139.695981},{"name":"笹塚こども","province":"東京都","city":"渋谷区","address":"東京都渋谷区笹塚3-3-1","lat":35.678743,"lon":139.669727},{"name":"白根図書サービススポット","province":"東京都","city":"渋谷区","address":"東京都渋谷区東4-9-1白根記念渋谷区郷土博物館・文学館1階","lat":35.656435,"lon":139.712507},{"name":"代官山ティーンズ・クリエイティブ","province":"東京都","city":"渋谷区","address":"渋谷区代官山町7-9","lat":35.65105,"lon":139.70528},{"name":"児童青少年センター　フレンズ本町","province":"東京都","city":"渋谷区","address":"渋谷区本町6-6-2","lat":35.68232,"lon":139.67931},{"name":"児童青少年センター　フレンズ本町","province":"東京都","city":"渋谷区","address":"渋谷区本町6-6-2","lat":35.682102,"lon":139.679535},{"name":"山種美術館","province":"東京都","city":"渋谷区","address":"渋谷区広尾3-12-36","lat":35.6533231,"lon":139.7138333},{"name":"初台青年館","province":"東京都","city":"渋谷区","address":"東京都渋谷区初台1丁目33-10","lat":35.67960221,"lon":139.68485123},{"name":"代官山ティーンズクリエイティブ","province":"東京都","city":"渋谷区","address":"東京都渋谷区代官山町7-9","lat":35.65073373,"lon":139.70500339},{"name":"＊?中央図書館","province":"東京都","city":"渋谷区","address":"渋谷区神宮前1-4-1","lat":35.672458,"lon":139.706188},{"name":"＊?西原図書館","province":"東京都","city":"渋谷区","address":"渋谷区西原2-28-9","lat":35.674953,"lon":139.677732},{"name":"＊?渋谷図書館","province":"東京都","city":"渋谷区","address":"渋谷区東1-6-6","lat":35.656504,"lon":139.709774},{"name":"＊?富ヶ谷図書館","province":"東京都","city":"渋谷区","address":"渋谷区上原1-46-2","lat":35.668508,"lon":139.687254},{"name":"＊?笹塚図書館","province":"東京都","city":"渋谷区","address":"渋谷区笹塚1-27-1","lat":35.67223,"lon":139.667182},{"name":"＊?本町図書館","province":"東京都","city":"渋谷区","address":"渋谷区本町1-33-5","lat":35.680752,"lon":139.681671},{"name":"＊?臨川みんなの図書館","province":"東京都","city":"渋谷区","address":"渋谷区広尾1ー9ー17","lat":35.649416,"lon":139.716607},{"name":"＊?代々木図書館","province":"東京都","city":"渋谷区","address":"渋谷区代々木3-51-8","lat":35.681984,"lon":139.695977},{"name":"＊?笹塚こども図書館","province":"東京都","city":"渋谷区","address":"渋谷区笹塚3-3-1","lat":35.678711,"lon":139.669753},{"name":"＊?こもれび大和田図書館","province":"東京都","city":"渋谷区","address":"渋谷区桜丘町23-21","lat":35.655458,"lon":139.699965},{"name":"メインアリーナ","province":"東京都","city":"渋谷区","address":"渋谷区千駄ヶ谷1-17-1","lat":35.679396,"lon":139.711963},{"name":"サブアリーナ","province":"東京都","city":"渋谷区","address":"渋谷区千駄ヶ谷1-17-1","lat":35.679396,"lon":139.711963},{"name":"50mプール","province":"東京都","city":"渋谷区","address":"渋谷区千駄ヶ谷1-17-1","lat":35.679396,"lon":139.711963},{"name":"25mプール","province":"東京都","city":"渋谷区","address":"渋谷区千駄ヶ谷1-17-1","lat":35.679396,"lon":139.711963},{"name":"陸上競技場","province":"東京都","city":"渋谷区","address":"渋谷区千駄ヶ谷1-17-1","lat":35.679396,"lon":139.711963},{"name":"トレーニングルーム","province":"東京都","city":"渋谷区","address":"渋谷区千駄ヶ谷1-17-1","lat":35.679396,"lon":139.711963},{"name":"健康体力相談室","province":"東京都","city":"渋谷区","address":"渋谷区千駄ヶ谷1-17-1","lat":35.679396,"lon":139.711963},{"name":"代官山ティーンズ・クリエイティブ","province":"東京都","city":"渋谷区","address":"渋谷区代官山町7-9","lat":35.650728,"lon":139.704953},{"name":"渋谷区児童青少年センター","province":"東京都","city":"渋谷区","address":"渋谷区本町6-6-2","lat":35.682102,"lon":139.679535},{"name":"中央","province":"東京都","city":"渋谷区","address":"東京都渋谷区神宮前1-4-1","lat":35.672452,"lon":139.706176},{"name":"こもれび大和田","province":"東京都","city":"渋谷区","address":"東京都渋谷区桜丘町23-21","lat":35.655378,"lon":139.700314},{"name":"西原","province":"東京都","city":"渋谷区","address":"東京都渋谷区西原2-28-9","lat":35.674949,"lon":139.677778},{"name":"富ヶ谷","province":"東京都","city":"渋谷区","address":"東京都渋谷区上原1-46-2","lat":35.668512,"lon":139.687269},{"name":"笹塚","province":"東京都","city":"渋谷区","address":"東京都渋谷区笹塚1-47-1メルクマール京王笹塚4階","lat":35.673527,"lon":139.667783},{"name":"本町","province":"東京都","city":"渋谷区","address":"東京都渋谷区本町1-33-5","lat":35.68075,"lon":139.681686},{"name":"臨川みんなの","province":"東京都","city":"渋谷区","address":"東京都渋谷区広尾1-9-17","lat":35.649363,"lon":139.716734},{"name":"代々木","province":"東京都","city":"渋谷区","address":"東京都渋谷区代々木3-51-8代々木区民施設4階","lat":35.681969,"lon":139.695981},{"name":"笹塚こども","province":"東京都","city":"渋谷区","address":"東京都渋谷区笹塚3-3-1","lat":35.678743,"lon":139.669727},{"name":"白根図書サービススポット","province":"東京都","city":"渋谷区","address":"東京都渋谷区東4-9-1白根記念渋谷区郷土博物館・文学館1階","lat":35.656435,"lon":139.712507},{"name":"代官山ティーンズ・クリエイティブ","province":"東京都","city":"渋谷区","address":"渋谷区代官山町7-9","lat":35.65105,"lon":139.70528},{"name":"児童青少年センター　フレンズ本町","province":"東京都","city":"渋谷区","address":"渋谷区本町6-6-2","lat":35.68232,"lon":139.67931},{"name":"児童青少年センター　フレンズ本町","province":"東京都","city":"渋谷区","address":"渋谷区本町6-6-2","lat":35.682102,"lon":139.679535},{"name":"山種美術館","province":"東京都","city":"渋谷区","address":"渋谷区広尾3-12-36","lat":35.6533231,"lon":139.7138333},{"name":"初台青年館","province":"東京都","city":"渋谷区","address":"東京都渋谷区初台1丁目33-10","lat":35.67960221,"lon":139.68485123},{"name":"代官山ティーンズクリエイティブ","province":"東京都","city":"渋谷区","address":"東京都渋谷区代官山町7-9","lat":35.65073373,"lon":139.70500339},{"name":"＊?中央図書館","province":"東京都","city":"渋谷区","address":"渋谷区神宮前1-4-1","lat":35.672458,"lon":139.706188},{"name":"＊?西原図書館","province":"東京都","city":"渋谷区","address":"渋谷区西原2-28-9","lat":35.674953,"lon":139.677732},{"name":"＊?渋谷図書館","province":"東京都","city":"渋谷区","address":"渋谷区東1-6-6","lat":35.656504,"lon":139.709774},{"name":"＊?富ヶ谷図書館","province":"東京都","city":"渋谷区","address":"渋谷区上原1-46-2","lat":35.668508,"lon":139.687254},{"name":"＊?笹塚図書館","province":"東京都","city":"渋谷区","address":"渋谷区笹塚1-27-1","lat":35.67223,"lon":139.667182},{"name":"＊?本町図書館","province":"東京都","city":"渋谷区","address":"渋谷区本町1-33-5","lat":35.680752,"lon":139.681671},{"name":"＊?臨川みんなの図書館","province":"東京都","city":"渋谷区","address":"渋谷区広尾1ー9ー17","lat":35.649416,"lon":139.716607},{"name":"＊?代々木図書館","province":"東京都","city":"渋谷区","address":"渋谷区代々木3-51-8","lat":35.681984,"lon":139.695977},{"name":"＊?笹塚こども図書館","province":"東京都","city":"渋谷区","address":"渋谷区笹塚3-3-1","lat":35.678711,"lon":139.669753},{"name":"＊?こもれび大和田図書館","province":"東京都","city":"渋谷区","address":"渋谷区桜丘町23-21","lat":35.655458,"lon":139.699965},{"name":"メインアリーナ","province":"東京都","city":"渋谷区","address":"渋谷区千駄ヶ谷1-17-1","lat":35.679396,"lon":139.711963},{"name":"サブアリーナ","province":"東京都","city":"渋谷区","address":"渋谷区千駄ヶ谷1-17-1","lat":35.679396,"lon":139.711963},{"name":"50mプール","province":"東京都","city":"渋谷区","address":"渋谷区千駄ヶ谷1-17-1","lat":35.679396,"lon":139.711963},{"name":"25mプール","province":"東京都","city":"渋谷区","address":"渋谷区千駄ヶ谷1-17-1","lat":35.679396,"lon":139.711963},{"name":"陸上競技場","province":"東京都","city":"渋谷区","address":"渋谷区千駄ヶ谷1-17-1","lat":35.679396,"lon":139.711963},{"name":"トレーニングルーム","province":"東京都","city":"渋谷区","address":"渋谷区千駄ヶ谷1-17-1","lat":35.679396,"lon":139.711963},{"name":"健康体力相談室","province":"東京都","city":"渋谷区","address":"渋谷区千駄ヶ谷1-17-1","lat":35.679396,"lon":139.711963},{"name":"代官山ティーンズ・クリエイティブ","province":"東京都","city":"渋谷区","address":"渋谷区代官山町7-9","lat":35.650728,"lon":139.704953},{"name":"渋谷区児童青少年センター","province":"東京都","city":"渋谷区","address":"渋谷区本町6-6-2","lat":35.682102,"lon":139.679535},{"name":"中央","province":"東京都","city":"渋谷区","address":"東京都渋谷区神宮前1-4-1","lat":35.672452,"lon":139.706176},{"name":"こもれび大和田","province":"東京都","city":"渋谷区","address":"東京都渋谷区桜丘町23-21","lat":35.655378,"lon":139.700314},{"name":"西原","province":"東京都","city":"渋谷区","address":"東京都渋谷区西原2-28-9","lat":35.674949,"lon":139.677778},{"name":"富ヶ谷","province":"東京都","city":"渋谷区","address":"東京都渋谷区上原1-46-2","lat":35.668512,"lon":139.687269},{"name":"笹塚","province":"東京都","city":"渋谷区","address":"東京都渋谷区笹塚1-47-1メルクマール京王笹塚4階","lat":35.673527,"lon":139.667783},{"name":"本町","province":"東京都","city":"渋谷区","address":"東京都渋谷区本町1-33-5","lat":35.68075,"lon":139.681686},{"name":"臨川みんなの","province":"東京都","city":"渋谷区","address":"東京都渋谷区広尾1-9-17","lat":35.649363,"lon":139.716734},{"name":"代々木","province":"東京都","city":"渋谷区","address":"東京都渋谷区代々木3-51-8代々木区民施設4階","lat":35.681969,"lon":139.695981},{"name":"笹塚こども","province":"東京都","city":"渋谷区","address":"東京都渋谷区笹塚3-3-1","lat":35.678743,"lon":139.669727},{"name":"白根図書サービススポット","province":"東京都","city":"渋谷区","address":"東京都渋谷区東4-9-1白根記念渋谷区郷土博物館・文学館1階","lat":35.656435,"lon":139.712507},{"name":"代官山ティーンズ・クリエイティブ","province":"東京都","city":"渋谷区","address":"渋谷区代官山町7-9","lat":35.65105,"lon":139.70528},{"name":"児童青少年センター　フレンズ本町","province":"東京都","city":"渋谷区","address":"渋谷区本町6-6-2","lat":35.68232,"lon":139.67931},{"name":"児童青少年センター　フレンズ本町","province":"東京都","city":"渋谷区","address":"渋谷区本町6-6-2","lat":35.682102,"lon":139.679535},{"name":"山種美術館","province":"東京都","city":"渋谷区","address":"渋谷区広尾3-12-36","lat":35.6533231,"lon":139.7138333},{"name":"初台青年館","province":"東京都","city":"渋谷区","address":"東京都渋谷区初台1丁目33-10","lat":35.67960221,"lon":139.68485123},{"name":"代官山ティーンズクリエイティブ","province":"東京都","city":"渋谷区","address":"東京都渋谷区代官山町7-9","lat":35.65073373,"lon":139.70500339},{"name":"＊?中央図書館","province":"東京都","city":"渋谷区","address":"渋谷区神宮前1-4-1","lat":35.672458,"lon":139.706188},{"name":"＊?西原図書館","province":"東京都","city":"渋谷区","address":"渋谷区西原2-28-9","lat":35.674953,"lon":139.677732},{"name":"＊?渋谷図書館","province":"東京都","city":"渋谷区","address":"渋谷区東1-6-6","lat":35.656504,"lon":139.709774},{"name":"＊?富ヶ谷図書館","province":"東京都","city":"渋谷区","address":"渋谷区上原1-46-2","lat":35.668508,"lon":139.687254},{"name":"＊?笹塚図書館","province":"東京都","city":"渋谷区","address":"渋谷区笹塚1-27-1","lat":35.67223,"lon":139.667182},{"name":"＊?本町図書館","province":"東京都","city":"渋谷区","address":"渋谷区本町1-33-5","lat":35.680752,"lon":139.681671},{"name":"＊?臨川みんなの図書館","province":"東京都","city":"渋谷区","address":"渋谷区広尾1ー9ー17","lat":35.649416,"lon":139.716607},{"name":"＊?代々木図書館","province":"東京都","city":"渋谷区","address":"渋谷区代々木3-51-8","lat":35.681984,"lon":139.695977},{"name":"＊?笹塚こども図書館","province":"東京都","city":"渋谷区","address":"渋谷区笹塚3-3-1","lat":35.678711,"lon":139.669753},{"name":"＊?こもれび大和田図書館","province":"東京都","city":"渋谷区","address":"渋谷区桜丘町23-21","lat":35.655458,"lon":139.699965},{"name":"メインアリーナ","province":"東京都","city":"渋谷区","address":"渋谷区千駄ヶ谷1-17-1","lat":35.679396,"lon":139.711963},{"name":"サブアリーナ","province":"東京都","city":"渋谷区","address":"渋谷区千駄ヶ谷1-17-1","lat":35.679396,"lon":139.711963},{"name":"50mプール","province":"東京都","city":"渋谷区","address":"渋谷区千駄ヶ谷1-17-1","lat":35.679396,"lon":139.711963},{"name":"25mプール","province":"東京都","city":"渋谷区","address":"渋谷区千駄ヶ谷1-17-1","lat":35.679396,"lon":139.711963},{"name":"陸上競技場","province":"東京都","city":"渋谷区","address":"渋谷区千駄ヶ谷1-17-1","lat":35.679396,"lon":139.711963},{"name":"トレーニングルーム","province":"東京都","city":"渋谷区","address":"渋谷区千駄ヶ谷1-17-1","lat":35.679396,"lon":139.711963},{"name":"健康体力相談室","province":"東京都","city":"渋谷区","address":"渋谷区千駄ヶ谷1-17-1","lat":35.679396,"lon":139.711963},{"name":"代官山ティーンズ・クリエイティブ","province":"東京都","city":"渋谷区","address":"渋谷区代官山町7-9","lat":35.650728,"lon":139.704953},{"name":"渋谷区児童青少年センター","province":"東京都","city":"渋谷区","address":"渋谷区本町6-6-2","lat":35.682102,"lon":139.679535},{"name":"中央","province":"東京都","city":"渋谷区","address":"東京都渋谷区神宮前1-4-1","lat":35.672452,"lon":139.706176},{"name":"こもれび大和田","province":"東京都","city":"渋谷区","address":"東京都渋谷区桜丘町23-21","lat":35.655378,"lon":139.700314},{"name":"西原","province":"東京都","city":"渋谷区","address":"東京都渋谷区西原2-28-9","lat":35.674949,"lon":139.677778},{"name":"富ヶ谷","province":"東京都","city":"渋谷区","address":"東京都渋谷区上原1-46-2","lat":35.668512,"lon":139.687269},{"name":"笹塚","province":"東京都","city":"渋谷区","address":"東京都渋谷区笹塚1-47-1メルクマール京王笹塚4階","lat":35.673527,"lon":139.667783},{"name":"本町","province":"東京都","city":"渋谷区","address":"東京都渋谷区本町1-33-5","lat":35.68075,"lon":139.681686},{"name":"臨川みんなの","province":"東京都","city":"渋谷区","address":"東京都渋谷区広尾1-9-17","lat":35.649363,"lon":139.716734},{"name":"代々木","province":"東京都","city":"渋谷区","address":"東京都渋谷区代々木3-51-8代々木区民施設4階","lat":35.681969,"lon":139.695981},{"name":"笹塚こども","province":"東京都","city":"渋谷区","address":"東京都渋谷区笹塚3-3-1","lat":35.678743,"lon":139.669727},{"name":"白根図書サービススポット","province":"東京都","city":"渋谷区","address":"東京都渋谷区東4-9-1白根記念渋谷区郷土博物館・文学館1階","lat":35.656435,"lon":139.712507},{"name":"代官山ティーンズ・クリエイティブ","province":"東京都","city":"渋谷区","address":"渋谷区代官山町7-9","lat":35.65105,"lon":139.70528},{"name":"児童青少年センター　フレンズ本町","province":"東京都","city":"渋谷区","address":"渋谷区本町6-6-2","lat":35.68232,"lon":139.67931},{"name":"児童青少年センター　フレンズ本町","province":"東京都","city":"渋谷区","address":"渋谷区本町6-6-2","lat":35.682102,"lon":139.679535},{"name":"山種美術館","province":"東京都","city":"渋谷区","address":"渋谷区広尾3-12-36","lat":35.6533231,"lon":139.7138333},{"name":"初台青年館","province":"東京都","city":"渋谷区","address":"東京都渋谷区初台1丁目33-10","lat":35.67960221,"lon":139.68485123},{"name":"代官山ティーンズクリエイティブ","province":"東京都","city":"渋谷区","address":"東京都渋谷区代官山町7-9","lat":35.65073373,"lon":139.70500339},{"name":"＊?中央図書館","province":"東京都","city":"渋谷区","address":"渋谷区神宮前1-4-1","lat":35.672458,"lon":139.706188},{"name":"＊?西原図書館","province":"東京都","city":"渋谷区","address":"渋谷区西原2-28-9","lat":35.674953,"lon":139.677732},{"name":"＊?渋谷図書館","province":"東京都","city":"渋谷区","address":"渋谷区東1-6-6","lat":35.656504,"lon":139.709774},{"name":"＊?富ヶ谷図書館","province":"東京都","city":"渋谷区","address":"渋谷区上原1-46-2","lat":35.668508,"lon":139.687254},{"name":"＊?笹塚図書館","province":"東京都","city":"渋谷区","address":"渋谷区笹塚1-27-1","lat":35.67223,"lon":139.667182},{"name":"＊?本町図書館","province":"東京都","city":"渋谷区","address":"渋谷区本町1-33-5","lat":35.680752,"lon":139.681671},{"name":"＊?臨川みんなの図書館","province":"東京都","city":"渋谷区","address":"渋谷区広尾1ー9ー17","lat":35.649416,"lon":139.716607},{"name":"＊?代々木図書館","province":"東京都","city":"渋谷区","address":"渋谷区代々木3-51-8","lat":35.681984,"lon":139.695977},{"name":"＊?笹塚こども図書館","province":"東京都","city":"渋谷区","address":"渋谷区笹塚3-3-1","lat":35.678711,"lon":139.669753},{"name":"＊?こもれび大和田図書館","province":"東京都","city":"渋谷区","address":"渋谷区桜丘町23-21","lat":35.655458,"lon":139.699965},{"name":"メインアリーナ","province":"東京都","city":"渋谷区","address":"渋谷区千駄ヶ谷1-17-1","lat":35.679396,"lon":139.711963},{"name":"サブアリーナ","province":"東京都","city":"渋谷区","address":"渋谷区千駄ヶ谷1-17-1","lat":35.679396,"lon":139.711963},{"name":"50mプール","province":"東京都","city":"渋谷区","address":"渋谷区千駄ヶ谷1-17-1","lat":35.679396,"lon":139.711963},{"name":"25mプール","province":"東京都","city":"渋谷区","address":"渋谷区千駄ヶ谷1-17-1","lat":35.679396,"lon":139.711963},{"name":"陸上競技場","province":"東京都","city":"渋谷区","address":"渋谷区千駄ヶ谷1-17-1","lat":35.679396,"lon":139.711963},{"name":"トレーニングルーム","province":"東京都","city":"渋谷区","address":"渋谷区千駄ヶ谷1-17-1","lat":35.679396,"lon":139.711963},{"name":"健康体力相談室","province":"東京都","city":"渋谷区","address":"渋谷区千駄ヶ谷1-17-1","lat":35.679396,"lon":139.711963},{"name":"代官山ティーンズ・クリエイティブ","province":"東京都","city":"渋谷区","address":"渋谷区代官山町7-9","lat":35.650728,"lon":139.704953},{"name":"渋谷区児童青少年センター","province":"東京都","city":"渋谷区","address":"渋谷区本町6-6-2","lat":35.682102,"lon":139.679535},{"name":"中央","province":"東京都","city":"渋谷区","address":"東京都渋谷区神宮前1-4-1","lat":35.672452,"lon":139.706176},{"name":"こもれび大和田","province":"東京都","city":"渋谷区","address":"東京都渋谷区桜丘町23-21","lat":35.655378,"lon":139.700314},{"name":"西原","province":"東京都","city":"渋谷区","address":"東京都渋谷区西原2-28-9","lat":35.674949,"lon":139.677778},{"name":"富ヶ谷","province":"東京都","city":"渋谷区","address":"東京都渋谷区上原1-46-2","lat":35.668512,"lon":139.687269},{"name":"笹塚","province":"東京都","city":"渋谷区","address":"東京都渋谷区笹塚1-47-1メルクマール京王笹塚4階","lat":35.673527,"lon":139.667783},{"name":"本町","province":"東京都","city":"渋谷区","address":"東京都渋谷区本町1-33-5","lat":35.68075,"lon":139.681686},{"name":"臨川みんなの","province":"東京都","city":"渋谷区","address":"東京都渋谷区広尾1-9-17","lat":35.649363,"lon":139.716734},