{"keyword":"食堂","data":[{"name":"卯めこども食堂","province":"東京都","city":"渋谷区","address":"東京都渋谷区恵比寿1丁目25-12","lat":35.64673716,"lon":139.71588036},{"name":"パール子どもテーブル活動","province":"東京都","city":"渋谷区","address":"東京都渋谷区鉢山町3-27","lat":35.65275836,"lon":139.69863162},{"name":"ミート・ザ・おやつ","province":"東京都","city":"渋谷区","address":"東京都渋谷区代官山町7-9","lat":35.65073373,"lon":139.70500339},{"name":"長谷戸生活学校子ども食堂","province":"東京都","city":"渋谷区","address":"東京都渋谷区代官山町7-9","lat":35.65073373,"lon":139.70500339},{"name":"渋谷こどもテーブルゆめとぴあ","province":"東京都","city":"渋谷区","address":"東京都渋谷区鶯谷町10-15","lat":35.65317784,"lon":139.70248406},{"name":"渋谷・長崎歴史文化情報発信塾","province":"東京都","city":"渋谷区","address":"東京都渋谷区鶯谷町10-15","lat":35.65317784,"lon":139.70248406},{"name":"くるり食堂","province":"東京都","city":"渋谷区","address":"東京都渋谷区恵比寿西1丁目7-9","lat":35.64770638,"lon":139.70876432},{"name":"リフレッシュ氷川こども食堂","province":"東京都","city":"渋谷区","address":"東京都渋谷区東1丁目26-23","lat":35.65489165,"lon":139.70737802},{"name":"美竹の丘こどもごはん","province":"東京都","city":"渋谷区","address":"東京都渋谷区渋谷1丁目18-9","lat":35.66183525,"lon":139.70455298},{"name":"渋喜屋テーブル","province":"東京都","city":"渋谷区","address":"東京都渋谷区広尾3丁目2-14","lat":35.65542504,"lon":139.71414961},{"name":"スマイルきっちんナチュレ","province":"東京都","city":"渋谷区","address":"東京都渋谷区渋谷2丁目22-7","lat":35.65841895,"lon":139.70366153},{"name":"オーガニックおおうち食堂","province":"東京都","city":"渋谷区","address":"東京都渋谷区渋谷2丁目8-4","lat":35.66048268,"lon":139.70750555},{"name":"子ども料理教室","province":"東京都","city":"渋谷区","address":"東京都渋谷区宇田川町3-10","lat":35.66255726,"lon":139.69872846},{"name":"渋谷センター街こども食堂","province":"東京都","city":"渋谷区","address":"東京都渋谷区宇田川町16-8","lat":35.66085469,"lon":139.6989785},{"name":"子ども食堂","province":"東京都","city":"渋谷区","address":"東京都渋谷区円山町28-5","lat":35.65559128,"lon":139.69434298},{"name":"上富ダイニング","province":"東京都","city":"渋谷区","address":"東京都渋谷区上原3丁目13-8","lat":35.66649521,"lon":139.67853283},{"name":"みらいこどもテーブル","province":"東京都","city":"渋谷区","address":"東京都渋谷区富ヶ谷1丁目35-23","lat":35.66753145,"lon":139.68840416},{"name":"SHIBUYAコドモとママのミライ創造プロジェクト","province":"東京都","city":"渋谷区","address":"東京都渋谷区富ヶ谷2丁目9-13","lat":35.66466785,"lon":139.68643499},{"name":"コドモ大学食育部","province":"東京都","city":"渋谷区","address":"東京都渋谷区富ヶ谷2丁目9-15","lat":35.66486505,"lon":139.68663496},{"name":"上原ファンインずっとも食堂","province":"東京都","city":"渋谷区","address":"東京都渋谷区大山町21-10","lat":35.66962806,"lon":139.67275545},{"name":"サンキューキッチン","province":"東京都","city":"渋谷区","address":"東京都渋谷区西原1丁目22-9","lat":35.67686069,"lon":139.67813526},{"name":"Mamapura Kids＆Baby","province":"東京都","city":"渋谷区","address":"東京都渋谷区西原2丁目35-1","lat":35.67506917,"lon":139.6757161},{"name":"初台キッズ食堂","province":"東京都","city":"渋谷区","address":"東京都渋谷区初台1丁目33-10","lat":35.67960221,"lon":139.68485123},{"name":"初台クラブ","province":"東京都","city":"渋谷区","address":"東京都渋谷区初台1丁目11-2","lat":35.67944116,"lon":139.68679272},{"name":"みんなのカフェ“大空”","province":"東京都","city":"渋谷区","address":"東京都渋谷区幡ヶ谷2丁目50-2","lat":35.6799242,"lon":139.677288},{"name":"いるかのテーブル","province":"東京都","city":"渋谷区","address":"東京都渋谷区幡ヶ谷3丁目66-4","lat":35.68224048,"lon":139.6722439},{"name":"wakuwakuこどもひろば","province":"東京都","city":"渋谷区","address":"東京都渋谷区幡ヶ谷3丁目70","lat":35.68130169,"lon":139.67169399},{"name":"東京西ローターアクトクラブ","province":"東京都","city":"渋谷区","address":"東京都渋谷区幡ヶ谷2丁目50-2","lat":35.6799242,"lon":139.677288},{"name":"ささはたっこ","province":"東京都","city":"渋谷区","address":"東京都渋谷区笹塚1丁目50-16","lat":35.67466631,"lon":139.67015826},{"name":"やずぴょんち","province":"東京都","city":"渋谷区","address":"東京都渋谷区幡ヶ谷2丁目50-2","lat":35.6799242,"lon":139.677288},{"name":"ささはたカフェガーデン","province":"東京都","city":"渋谷区","address":"東京都渋谷区幡ヶ谷2丁目42-15","lat":35.6779799,"lon":139.67398836},{"name":"FUNNY CURRY","province":"東京都","city":"渋谷区","address":"東京都渋谷区幡ヶ谷3丁目42-8","lat":35.68035181,"lon":139.67218565},{"name":"こども食堂ささはたさんち","province":"東京都","city":"渋谷区","address":"東京都渋谷区笹塚1丁目20-4","lat":35.67272483,"lon":139.66873069},{"name":"「どなたでも食堂～お夕ご飯の日～」","province":"東京都","city":"渋谷区","address":"東京都渋谷区千駄ヶ谷5丁目12-9","lat":35.68336062,"lon":139.70524372},{"name":"みんなの世界テーブル","province":"東京都","city":"渋谷区","address":"東京都渋谷区代々木2丁目35-1","lat":35.68415756,"lon":139.69772492},{"name":"pure meat shop｜counter こども食堂","province":"東京都","city":"渋谷区","address":"東京都渋谷区千駄ヶ谷2丁目10-6","lat":35.67590603,"lon":139.70999081},{"name":"Mama's Kitchen","province":"東京都","city":"渋谷区","address":"東京都渋谷区神宮前4丁目22-11","lat":35.66867905,"lon":139.70864956},{"name":"お花屋さんのこどもごはん","province":"東京都","city":"渋谷区","address":"東京都渋谷区千駄ヶ谷3丁目54-15","lat":35.67498104,"lon":139.70591344},{"name":"ななかい子ども食堂","province":"東京都","city":"渋谷区","address":"東京都渋谷区神宮前3丁目12-8","lat":35.66989841,"lon":139.71114095},{"name":"ひといく子ども夢テーブル","province":"東京都","city":"渋谷区","address":"東京都渋谷区神宮前6丁目10-14","lat":35.66753464,"lon":139.70520824},{"name":"Yin Urasando子ども食堂","province":"東京都","city":"渋谷区","address":"東京都渋谷区神宮前4丁目15-2","lat":35.66848188,"lon":139.71092437}]}