{"keyword":"館","data":[{"name":"児童青少年センター　フレンズ本町","province":"東京都","city":"渋谷区","address":"渋谷区本町6-6-2","lat":35.682102,"lon":139.679535},{"name":"＊?中央図書館","province":"東京都","city":"渋谷区","address":"渋谷区神宮前1-4-1","lat":35.672458,"lon":139.706188},{"name":"＊?西原図書館","province":"東京都","city":"渋谷区","address":"渋谷区西原2-28-9","lat":35.674953,"lon":139.677732},{"name":"＊?渋谷図書館","province":"東京都","city":"渋谷区","address":"渋谷区東1-6-6","lat":35.656504,"lon":139.709774},{"name":"＊?富ヶ谷図書館","province":"東京都","city":"渋谷区","address":"渋谷区上原1-46-2","lat":35.668508,"lon":139.687254},{"name":"＊?笹塚図書館","province":"東京都","city":"渋谷区","address":"渋谷区笹塚1-27-1","lat":35.67223,"lon":139.667182},{"name":"＊?本町図書館","province":"東京都","city":"渋谷区","address":"渋谷区本町1-33-5","lat":35.680752,"lon":139.681671},{"name":"＊?臨川みんなの図書館","province":"東京都","city":"渋谷区","address":"渋谷区広尾1ー9ー17","lat":35.649416,"lon":139.716607},{"name":"＊?代々木図書館","province":"東京都","city":"渋谷区","address":"渋谷区代々木3-51-8","lat":35.681984,"lon":139.695977},{"name":"＊?笹塚こども図書館","province":"東京都","city":"渋谷区","address":"渋谷区笹塚3-3-1","lat":35.678711,"lon":139.669753},{"name":"＊?こもれび大和田図書館","province":"東京都","city":"渋谷区","address":"渋谷区桜丘町23-21","lat":35.655458,"lon":139.699965}]}