{"keyword":"財団","data":[{"name":"NewWork日吉","province":"神奈川県","city":"横浜市港北区","address":"神奈川県横浜市港北区日吉本町1丁目2-9","lat":35.55406348,"lon":139.64597779},{"name":"NewWork日吉2nd","province":"神奈川県","city":"横浜市港北区","address":"神奈川県横浜市港北区日吉本町1丁目1-6","lat":35.55380242,"lon":139.64619446},{"name":"H1T日吉","province":"神奈川県","city":"横浜市港北区","address":"神奈川県横浜市港北区日吉本町1丁目4-14","lat":35.5545495,"lon":139.64552781},{"name":"NewWork日吉","province":"神奈川県","city":"横浜市港北区","address":"神奈川県横浜市港北区日吉本町1丁目2-9","lat":35.55406348,"lon":139.64597779},{"name":"NewWork日吉2nd","province":"神奈川県","city":"横浜市港北区","address":"神奈川県横浜市港北区日吉本町1丁目1-6","lat":35.55380242,"lon":139.64619446},{"name":"H1T日吉","province":"神奈川県","city":"横浜市港北区","address":"神奈川県横浜市港北区日吉本町1丁目4-14","lat":35.5545495,"lon":139.64552781},{"name":"NewWork日吉","province":"神奈川県","city":"横浜市港北区","address":"神奈川県横浜市港北区日吉本町1丁目2-9","lat":35.55406348,"lon":139.64597779},{"name":"NewWork日吉2nd","province":"神奈川県","city":"横浜市港北区","address":"神奈川県横浜市港北区日吉本町1丁目1-6","lat":35.55380242,"lon":139.64619446},{"name":"H1T日吉","province":"神奈川県","city":"横浜市港北区","address":"神奈川県横浜市港北区日吉本町1丁目4-14","lat":35.5545495,"lon":139.64552781},{"name":"NewWork日吉","province":"神奈川県","city":"横浜市港北区","address":"神奈川県横浜市港北区日吉本町1丁目2-9","lat":35.55406348,"lon":139.64597779},{"name":"NewWork日吉2nd","province":"神奈川県","city":"横浜市港北区","address":"神奈川県横浜市港北区日吉本町1丁目1-6","lat":35.55380242,"lon":139.64619446},{"name":"H1T日吉","province":"神奈川県","city":"横浜市港北区","address":"神奈川県横浜市港北区日吉本町1丁目4-14","lat":35.5545495,"lon":139.64552781}]}