{"keyword":"備蓄","data":[{"name":"毛利","province":"東京都","city":"江東区","address":"東京都江東区毛利2丁目1-12","lat":35.69027885,"lon":139.81657956},{"name":"北烏山","province":"東京都","city":"世田谷区","address":"東京都世田谷区北烏山7丁目2","lat":35.6757112,"lon":139.59327562},{"name":"塩浜","province":"東京都","city":"江東区","address":"東京都江東区塩浜2丁目26-13","lat":35.66510149,"lon":139.81544319},{"name":"西新小岩","province":"東京都","city":"葛飾区","address":"東京都葛飾区西新小岩2丁目1","lat":35.71722108,"lon":139.85294947},{"name":"城南大橋第二","province":"東京都","city":"大田区","address":"東京都大田区東海3丁目4","lat":35.57770285,"lon":139.76242682},{"name":"麻布十番駅地下","province":"東京都","city":"港区","address":"東京都港区麻布十番1丁目2","lat":35.6567087,"lon":139.73647254},{"name":"清澄白河駅地下","province":"東京都","city":"江東区","address":"東京都江東区三好1丁目8","lat":35.68034954,"lon":139.79939054},{"name":"五色橋教育庁","province":"東京都","city":"港区","address":"東京都港区港南3丁目1-26","lat":35.63463387,"lon":139.75040273},{"name":"立川地域防災センター","province":"東京都","city":"立川市","address":"東京都立川市緑町3233-2","lat":35.70626977,"lon":139.40773762},{"name":"都庁第二本庁舎","province":"東京都","city":"新宿区","address":"東京都新宿区西新宿2丁目8-1","lat":35.68918461,"lon":139.69164748},{"name":"テレコムセンター","province":"東京都","city":"江東区","address":"東京都江東区青海2丁目5-10","lat":35.61733141,"lon":139.78018715},{"name":"江戸川区中央","province":"東京都","city":"江戸川区","address":"東京都江戸川区中央1丁目4-1","lat":35.70665062,"lon":139.8683651},{"name":"葛飾区","province":"東京都","city":"葛飾区","address":"東京都葛飾区立石5丁目13-1","lat":35.7429853,"lon":139.84740682},{"name":"西多摩福祉事務所","province":"東京都","city":"青梅市","address":"東京都青梅市河辺町6丁目4-1","lat":35.77999986,"lon":139.28959793},{"name":"本所防災備蓄倉庫","province":"東京都","city":"墨田区","address":"東京都墨田区本所2丁目6-9","lat":35.70300508,"lon":139.8007777},{"name":"白鬚東防災備蓄倉庫","province":"東京都","city":"墨田区","address":"東京都墨田区堤通2丁目7-13","lat":35.73475624,"lon":139.81720018},{"name":"国技館内防災備蓄倉庫","province":"東京都","city":"墨田区","address":"東京都墨田区横網1丁目3-28","lat":35.69721965,"lon":139.79360694},{"name":"京島防災備蓄倉庫","province":"東京都","city":"墨田区","address":"東京都墨田区京島2丁目15-5","lat":35.71313356,"lon":139.82108025},{"name":"東向島防災備蓄倉庫","province":"東京都","city":"墨田区","address":"東京都墨田区東向島4丁目8-12","lat":35.72759893,"lon":139.8155317},{"name":"庁舎内防災備蓄倉庫","province":"東京都","city":"墨田区","address":"東京都墨田区吾妻橋1丁目23-20","lat":35.71072382,"lon":139.80149602},{"name":"横川防災備蓄倉庫","province":"東京都","city":"墨田区","address":"東京都墨田区横川5丁目9-1","lat":35.70517431,"lon":139.81750923},{"name":"業平防災備蓄倉庫","province":"東京都","city":"墨田区","address":"東京都墨田区業平3丁目2-5","lat":35.70634375,"lon":139.8130676},{"name":"国際ファッションセンタービル内防災備蓄倉庫","province":"東京都","city":"墨田区","address":"東京都墨田区横網1丁目6-1","lat":35.69830846,"lon":139.79685114},{"name":"NTTドコモ墨田ビル内防災備蓄倉庫","province":"東京都","city":"墨田区","address":"東京都墨田区横網1丁目9-2","lat":35.69835288,"lon":139.79546506},{"name":"太平四丁目防災備蓄倉庫","province":"東京都","city":"墨田区","address":"東京都墨田区太平4丁目1-2","lat":35.70086065,"lon":139.81594032},{"name":"総合体育館防災備蓄倉庫","province":"東京都","city":"墨田区","address":"東京都墨田区錦糸4丁目15-1","lat":35.69947749,"lon":139.8171875},{"name":"スカイツリーウエストヤードロータリー防災備蓄倉庫","province":"東京都","city":"墨田区","address":"東京都墨田区押上1丁目1-2","lat":35.71005462,"lon":139.81070876},{"name":"本所地域プラザ防災備蓄倉庫","province":"東京都","city":"墨田区","address":"東京都墨田区本所1丁目13-4","lat":35.70316063,"lon":139.79876681},{"name":"京島三丁目コミュニティ住宅防災備蓄倉庫","province":"東京都","city":"墨田区","address":"東京都墨田区京島3丁目3-1","lat":35.71526948,"lon":139.82097199},{"name":"第7コミュニティ住宅防災備蓄倉庫","province":"東京都","city":"墨田区","address":"東京都墨田区京島3丁目3-6","lat":35.71515563,"lon":139.82138862},{"name":"第8コミュニティ住宅防災備蓄倉庫","province":"東京都","city":"墨田区","address":"東京都墨田区京島3丁目52-8","lat":35.71478047,"lon":139.82434659},{"name":"ホンダカーズ東京押上店防災備蓄倉庫","province":"東京都","city":"墨田区","address":"東京都墨田区押上2丁目22-4","lat":35.71483839,"lon":139.81445312},{"name":"京成押上ビル防災備蓄倉庫","province":"東京都","city":"墨田区","address":"東京都墨田区押上1丁目10-3","lat":35.71022161,"lon":139.81391135},{"name":"イーストコア曳舟二番館防災備蓄倉庫","province":"東京都","city":"墨田区","address":"東京都墨田区京島1丁目1-2","lat":35.71600802,"lon":139.81705298},{"name":"東武曳舟駅防災備蓄倉庫","province":"東京都","city":"墨田区","address":"東京都墨田区東向島2丁目26","lat":35.7184357,"lon":139.81642547},{"name":"八広防災備蓄倉庫","province":"東京都","city":"墨田区","address":"東京都墨田区八広6丁目35-1","lat":35.72651028,"lon":139.82940171},{"name":"総合運動場防災備蓄倉庫","province":"東京都","city":"墨田区","address":"東京都墨田区堤通2丁目11-1","lat":35.73905274,"lon":139.81669975},{"name":"情報経営イノベーション専門職大学防災備蓄倉庫","province":"東京都","city":"墨田区","address":"東京都墨田区文花1丁目18-13","lat":35.71137807,"lon":139.82328004},{"name":"アパホテル防災備蓄倉庫","province":"東京都","city":"墨田区","address":"東京都墨田区横網1丁目11-10","lat":35.69741131,"lon":139.79426523},{"name":"両国リバーセンター防災備蓄倉庫","province":"東京都","city":"墨田区","address":"東京都墨田区横網1丁目2-13","lat":35.6978029,"lon":139.79244854},{"name":"関東マツダ墨田店防災備蓄倉庫","province":"東京都","city":"墨田区","address":"東京都墨田区立花5丁目1-8","lat":35.71308031,"lon":139.8281545},{"name":"毛利倉庫","province":"東京都","city":"江東区","address":"東京都江東区毛利2丁目1-12","lat":35.69027885,"lon":139.81657956},{"name":"塩浜倉庫","province":"東京都","city":"江東区","address":"東京都江東区塩浜2丁目26-13","lat":35.66510149,"lon":139.81544319},{"name":"城南大橋第二倉庫","province":"東京都","city":"大田区","address":"東京都大田区東海3丁目4-2","lat":35.57794447,"lon":139.76251846},{"name":"西新小岩倉庫","province":"東京都","city":"葛飾区","address":"東京都葛飾区西新小岩2丁目1","lat":35.71722108,"lon":139.85294947},{"name":"麻布十番駅地下倉庫","province":"東京都","city":"港区","address":"東京都港区麻布十番1丁目2-10","lat":35.65668093,"lon":139.73633089},{"name":"清澄白河駅地下倉庫","province":"東京都","city":"江東区","address":"東京都江東区清澄3丁目","lat":35.68269931,"lon":139.7981106},{"name":"※都庁第二庁舎","province":"東京都","city":"新宿区","address":"東京都新宿区西新宿2丁目8-1","lat":35.68918461,"lon":139.69164748},{"name":"※立川地域防災センター","province":"東京都","city":"立川市","address":"東京都立川市緑町3233","lat":35.70626977,"lon":139.40773762},{"name":"※葛飾区役所","province":"東京都","city":"葛飾区","address":"東京都葛飾区立石5丁目13-1","lat":35.7429853,"lon":139.84740682},{"name":"五色橋倉庫","province":"東京都","city":"港区","address":"東京都港区港南3丁目1","lat":35.63500601,"lon":139.74919727},{"name":"江戸川区中央倉庫（区役所本庁舎備蓄倉庫）","province":"東京都","city":"江戸川区","address":"東京都江戸川区中央1丁目4-1","lat":35.70665062,"lon":139.8683651},{"name":"西多摩福祉事務所倉庫","province":"東京都","city":"青梅市","address":"東京都青梅市河辺町6丁目4-1","lat":35.77999986,"lon":139.28959793},{"name":"本所防災備蓄倉庫","province":"新潟県","city":"見附市","address":"新潟県見附市本所2丁目6-9","lat":37.53984423,"lon":138.90652521},{"name":"八広防災備蓄倉庫","province":"東京都","city":"墨田区","address":"東京都墨田区八広6丁目35-1","lat":35.72651028,"lon":139.82940171},{"name":"白鬚東防災備蓄倉庫","province":"東京都","city":"墨田区","address":"東京都墨田区堤通2丁目7-13","lat":35.73475624,"lon":139.81720018},{"name":"国技館内防災備蓄倉庫","province":"東京都","city":"墨田区","address":"東京都墨田区横網1丁目3-28","lat":35.69721965,"lon":139.79360694},{"name":"文花防災備蓄倉庫","province":"東京都","city":"墨田区","address":"東京都墨田区文花1丁目19-1","lat":35.71053903,"lon":139.82370512},{"name":"京島防災備蓄倉庫","province":"東京都","city":"墨田区","address":"東京都墨田区京島2丁目15-5","lat":35.71313356,"lon":139.82108025},{"name":"東向島防災備蓄倉庫","province":"東京都","city":"墨田区","address":"東京都墨田区東向島4丁目8-12","lat":35.72759893,"lon":139.8155317},{"name":"横川防災備蓄倉庫","province":"東京都","city":"墨田区","address":"東京都墨田区横川5丁目9-1","lat":35.70517431,"lon":139.81750923},{"name":"庁舎内防災備蓄倉庫","province":"東京都","city":"墨田区","address":"東京都墨田区吾妻橋1丁目23-20","lat":35.71072382,"lon":139.80149602},{"name":"業平防災備蓄倉庫","province":"東京都","city":"墨田区","address":"東京都墨田区業平3丁目2-5","lat":35.70634375,"lon":139.8130676},{"name":"国際ファッションセンタービル内防災備蓄倉庫","province":"東京都","city":"墨田区","address":"東京都墨田区横網1丁目6-1","lat":35.69830846,"lon":139.79685114},{"name":"NTTドコモ墨田ビル内防災備蓄倉庫","province":"東京都","city":"墨田区","address":"東京都墨田区横網1丁目9-2","lat":35.69835288,"lon":139.79546506},{"name":"太平四丁目防災備蓄倉庫","province":"東京都","city":"墨田区","address":"東京都墨田区太平4丁目1-2","lat":35.70086065,"lon":139.81594032},{"name":"東墨田防災備蓄倉庫","province":"東京都","city":"墨田区","address":"東京都墨田区東墨田2丁目12-9","lat":35.72135158,"lon":139.83258985},{"name":"総合体育館防災備蓄倉庫","province":"東京都","city":"墨田区","address":"東京都墨田区錦糸4丁目15-1","lat":35.69947749,"lon":139.8171875},{"name":"東京スカイツリータウンウエストヤード総合ロータリー備蓄倉庫","province":"東京都","city":"墨田区","address":"東京都墨田区押上1丁目1-2","lat":35.71005462,"lon":139.81070876},{"name":"本所地域プラザ防災備蓄倉庫","province":"東京都","city":"墨田区","address":"東京都墨田区本所1丁目13-4","lat":35.70316063,"lon":139.79876681},{"name":"京島三丁目コミュニティ住宅防災備蓄倉庫","province":"東京都","city":"墨田区","address":"東京都墨田区京島3丁目3-1","lat":35.71526948,"lon":139.82097199},{"name":"第7コミュニティ住宅防災備蓄倉庫","province":"東京都","city":"墨田区","address":"東京都墨田区京島3丁目3-6","lat":35.71515563,"lon":139.82138862},{"name":"第8コミュニティ住宅防災備蓄庫","province":"東京都","city":"墨田区","address":"東京都墨田区京島3丁目52-8","lat":35.71478047,"lon":139.82434659},{"name":"20　ホンダカーズ東京押上店防災備蓄倉庫","province":"東京都","city":"墨田区","address":"東京都墨田区押上2丁目22-4","lat":35.71483839,"lon":139.81445312},{"name":"21　京成押上ビル防災備蓄倉庫","province":"東京都","city":"墨田区","address":"東京都墨田区押上1丁目10-3","lat":35.71022161,"lon":139.81391135}]}