{"category":"wireless","data":[{"name":"西新小岩","province":"東京都","city":"葛飾区","address":"東京都葛飾区西新小岩2丁目1","lat":35.71722108,"lon":139.85294947},{"name":"葛飾区","province":"東京都","city":"葛飾区","address":"東京都葛飾区立石5丁目13-1","lat":35.7429853,"lon":139.84740682},{"name":"東京慈恵会医科大学葛飾医療センター","province":"東京都","city":"葛飾区","address":"東京都葛飾区青戸6丁目41-2","lat":35.75182053,"lon":139.85865266},{"name":"東京都保健医療公社東部地域病院","province":"東京都","city":"葛飾区","address":"東京都葛飾区亀有5丁目14-1","lat":35.7662352,"lon":139.84445332},{"name":"四ツ木斎場","province":"東京都","city":"葛飾区","address":"東京都葛飾区白鳥2丁目9-1","lat":35.74872634,"lon":139.84334309},{"name":"金町浄水場","province":"東京都","city":"葛飾区","address":"東京都葛飾区金町浄水場1-1","lat":35.76233004,"lon":139.87836494},{"name":"水元給水所（都立水元公園内自由広場）","province":"東京都","city":"葛飾区","address":"東京都葛飾区水元公園4","lat":35.79240643,"lon":139.86812312},{"name":"区立上千葉公園","province":"東京都","city":"葛飾区","address":"東京都葛飾区東堀切3丁目25-1","lat":35.75497273,"lon":139.83903761},{"name":"区立新小岩公園","province":"東京都","city":"葛飾区","address":"東京都葛飾区西新小岩1丁目1-3","lat":35.71611839,"lon":139.85476607},{"name":"区立渋江東公園","province":"東京都","city":"葛飾区","address":"東京都葛飾区東四つ木2丁目15","lat":35.73076194,"lon":139.8434969},{"name":"東京慈恵会医科大学附属青戸病院","province":"東京都","city":"葛飾区","address":"東京都葛飾区青戸6丁目41-2","lat":35.75182053,"lon":139.85865266},{"name":"東部地域病院","province":"東京都","city":"葛飾区","address":"東京都葛飾区亀有5丁目14-1","lat":35.7662352,"lon":139.84445332},{"name":"帝釈天参道","province":"東京都","city":"葛飾区","address":"東京都葛飾区柴又4-9","lat":35.757193,"lon":139.875873},{"name":"寅さん記念館","province":"東京都","city":"葛飾区","address":"東京都葛飾区柴又6-22-19","lat":35.757411,"lon":139.880486},{"name":"山田洋次ミュージアム","province":"東京都","city":"葛飾区","address":"東京都葛飾区柴又6-22-19","lat":35.75667,"lon":139.880508},{"name":"山本亭","province":"東京都","city":"葛飾区","address":"東京都葛飾区柴又7-19-32","lat":35.758044,"lon":139.880102},{"name":"両津勘吉像","province":"東京都","city":"葛飾区","address":"東京都葛飾区亀有5-33","lat":35.766919,"lon":139.847897},{"name":"薔薇と麗子像","province":"東京都","city":"葛飾区","address":"東京都葛飾区亀有5-34-1","lat":35.767045,"lon":139.848177},{"name":"両津勘吉祭り姿像","province":"東京都","city":"葛飾区","address":"東京都葛飾区亀有3-25-1","lat":35.766167,"lon":139.847466},{"name":"ようこそ亀有へ両さん像","province":"東京都","city":"葛飾区","address":"東京都葛飾区亀有3-26","lat":35.766036,"lon":139.847839},{"name":"ようこそこち亀の街へ！両津・中川・麗子がお出迎え像","province":"東京都","city":"葛飾区","address":"東京都葛飾区亀有3-26","lat":35.766512,"lon":139.848042},{"name":"中川像","province":"東京都","city":"葛飾区","address":"東京都葛飾区亀有3-29","lat":35.766014,"lon":139.848533},{"name":"少年よ、あの星を目指せ！両さん像","province":"東京都","city":"葛飾区","address":"東京都葛飾区亀有3-42-24","lat":35.765548,"lon":139.851006},{"name":"ワハハ両さん像","province":"東京都","city":"葛飾区","address":"東京都葛飾区亀有2-63-7","lat":35.762992,"lon":139.850629},{"name":"本田像","province":"東京都","city":"葛飾区","address":"東京都葛飾区亀有3-13-1","lat":35.762914,"lon":139.847796},{"name":"少年両さん像","province":"東京都","city":"葛飾区","address":"東京都葛飾区亀有3-15","lat":35.76411,"lon":139.848788},{"name":"サンバ両さん像","province":"東京都","city":"葛飾区","address":"東京都葛飾区亀有3-18-4","lat":35.764786,"lon":139.847842},{"name":"敬礼両さん像","province":"東京都","city":"葛飾区","address":"東京都葛飾区亀有5-14","lat":35.767554,"lon":139.845388},{"name":"ダブルピース両さん像","province":"東京都","city":"葛飾区","address":"東京都葛飾区亀有5-36-1","lat":35.767642,"lon":139.848496},{"name":"ひとやすみ両さん像","province":"東京都","city":"葛飾区","address":"東京都葛飾区亀有5-36-1","lat":35.767795,"lon":139.848677},{"name":"麗子像","province":"東京都","city":"葛飾区","address":"東京都葛飾区亀有3-26-1","lat":35.766683,"lon":139.84845},{"name":"まちの台所、絵本劇場、図書サービスカウンターほか","province":"東京都","city":"葛飾区","address":"東京都葛飾区亀有3-26-1","lat":35.766683,"lon":139.84845},{"name":"新小岩駅北口","province":"東京都","city":"葛飾区","address":"東京都葛飾区西新小岩1-2","lat":35.717394,"lon":139.85783},{"name":"新小岩駅南口","province":"東京都","city":"葛飾区","address":"東京都葛飾区新小岩1-47","lat":35.7165,"lon":139.858734},{"name":"新小岩駅東北広場","province":"東京都","city":"葛飾区","address":"東京都葛飾区東新小岩1-18","lat":35.718695,"lon":139.8593},{"name":"スカイデッキたつみ","province":"東京都","city":"葛飾区","address":"東京都葛飾区東新小岩1-18","lat":35.718223,"lon":139.859113},{"name":"石崎了像","province":"東京都","city":"葛飾区","address":"東京都葛飾区東四つ木4-15-10","lat":35.732455,"lon":139.835797},{"name":"日向小次郎像","province":"東京都","city":"葛飾区","address":"東京都葛飾区四つ木1-16-24","lat":35.733356,"lon":139.836118},{"name":"大空翼像","province":"東京都","city":"葛飾区","address":"東京都葛飾区四つ木1-22-3","lat":35.734056,"lon":139.834082},{"name":"ロベルト本郷と大空翼像","province":"東京都","city":"葛飾区","address":"東京都葛飾区四つ木2-3-3","lat":35.736242,"lon":139.83532},{"name":"中沢早苗像","province":"東京都","city":"葛飾区","address":"東京都葛飾区四つ木2-28-1","lat":35.735829,"lon":139.839385},{"name":"岬太郎像","province":"東京都","city":"葛飾区","address":"東京都葛飾区東立石3-3-1","lat":35.735412,"lon":139.842984},{"name":"若林源三像","province":"東京都","city":"葛飾区","address":"東京都葛飾区立石4-28-14","lat":35.739902,"lon":139.848728},{"name":"大空翼像（ヒールリフト）","province":"東京都","city":"葛飾区","address":"東京都葛飾区立石1-21-6","lat":35.737792,"lon":139.849803},{"name":"大空翼像（ツインシュート）","province":"東京都","city":"葛飾区","address":"東京都葛飾区立石6-4-1","lat":35.744681,"lon":139.84749},{"name":"堀切菖蒲園","province":"東京都","city":"葛飾区","address":"東京都葛飾区堀切2-19-1","lat":35.742426,"lon":139.826113},{"name":"葛飾保健所","province":"東京都","city":"葛飾区","address":"東京都葛飾区青戸4丁目15-14","lat":35.75147327,"lon":139.8505256},{"name":"産業技術研究センター城東支所","province":"東京都","city":"葛飾区","address":"東京都葛飾区青戸7丁目2-5","lat":35.75314809,"lon":139.85219761},{"name":"南葛飾高等学校","province":"東京都","city":"葛飾区","address":"東京都葛飾区立石6丁目4-1","lat":35.74460459,"lon":139.84813447},{"name":"葛飾野高等学校","province":"東京都","city":"葛飾区","address":"東京都葛飾区亀有1丁目7-1","lat":35.7557838,"lon":139.84568418},{"name":"農産高等学校","province":"東京都","city":"葛飾区","address":"東京都葛飾区西亀有1丁目28-1","lat":35.7591722,"lon":139.84153162},{"name":"葛飾商業高等学校","province":"東京都","city":"葛飾区","address":"東京都葛飾区新宿3丁目14-1","lat":35.75721985,"lon":139.86483258},{"name":"葛飾総合高等学校","province":"東京都","city":"葛飾区","address":"東京都葛飾区南水元4丁目21-1","lat":35.77796689,"lon":139.86473761},{"name":"堀切緊急用船着場","province":"東京都","city":"葛飾区","address":"東京都葛飾区堀切1丁目12","lat":35.74083039,"lon":139.82605121},{"name":"柴又緊急用船着場","province":"東京都","city":"葛飾区","address":"東京都葛飾区柴又7丁目19","lat":35.75861667,"lon":139.88019269},{"name":"東立石緑地公園船着場","province":"東京都","city":"葛飾区","address":"東京都葛飾区東立石4丁目","lat":35.73627764,"lon":139.84912363},{"name":"新小岩防災船着場","province":"東京都","city":"葛飾区","address":"東京都葛飾区西新小岩1丁目1","lat":35.71611838,"lon":139.85394669},{"name":"青戸六丁目広場付近護岸","province":"東京都","city":"葛飾区","address":"東京都葛飾区青戸6丁目40","lat":35.75167333,"lon":139.85904985},{"name":"東京東部漁協荒天時避難繋船場","province":"東京都","city":"葛飾区","address":"東京都葛飾区奥戸7丁目20","lat":35.73899155,"lon":139.86218069},{"name":"第五建築事務所上平井橋係留所","province":"東京都","city":"葛飾区","address":"東京都葛飾区東四つ木1丁目1","lat":35.72488194,"lon":139.84146404},{"name":"ミヨシ油脂（株）専用荷揚げ場","province":"東京都","city":"葛飾区","address":"東京都葛飾区堀切4丁目66","lat":35.74979264,"lon":139.8225506},{"name":"テクノプラザかつしか","province":"東京都","city":"葛飾区","address":"東京都葛飾区青戸7丁目2-1","lat":35.75232874,"lon":139.85253928},{"name":"葛飾区立総合スポーツセンターエイトホール","province":"東京都","city":"葛飾区","address":"東京都葛飾区高砂1丁目2-1","lat":35.74105524,"lon":139.86366937}]}