{"keyword":"一覧","data":[{"name":"青戸地区センター","province":"東京都","city":"葛飾区","address":"東京都葛飾区青戸5丁目20-6","lat":35.75015679,"lon":139.854317},{"name":"青戸中央憩い交流館","province":"東京都","city":"葛飾区","address":"東京都葛飾区青戸6丁目16-12","lat":35.75305926,"lon":139.85712496},{"name":"テクノプラザかつしか（葛飾区地域産業振興会館）","province":"東京都","city":"葛飾区","address":"東京都葛飾区青戸7丁目2-1","lat":35.75232874,"lon":139.85253928},{"name":"西奥戸憩い交流館","province":"東京都","city":"葛飾区","address":"東京都葛飾区奥戸1丁目12-1","lat":35.72859527,"lon":139.85405422},{"name":"奥戸総合スポーツセンター体育館","province":"東京都","city":"葛飾区","address":"東京都葛飾区奥戸7丁目17-1","lat":35.73772504,"lon":139.86210297},{"name":"お花茶屋図書館","province":"東京都","city":"葛飾区","address":"東京都葛飾区お花茶屋2丁目1-15","lat":35.75119269,"lon":139.83869897},{"name":"亀有学び交流館","province":"東京都","city":"葛飾区","address":"東京都葛飾区お花茶屋3丁目5-6","lat":35.75648368,"lon":139.84306772},{"name":"末広憩い交流館","province":"東京都","city":"葛飾区","address":"東京都葛飾区金町5丁目4-1","lat":35.76596582,"lon":139.86635724},{"name":"鎌倉図書館","province":"東京都","city":"葛飾区","address":"東京都葛飾区鎌倉2丁目4-5","lat":35.74524093,"lon":139.8753711},{"name":"鎌倉憩い交流館","province":"東京都","city":"葛飾区","address":"東京都葛飾区鎌倉2丁目6-20","lat":35.74530482,"lon":139.87452393},{"name":"亀有図書館","province":"東京都","city":"葛飾区","address":"東京都葛飾区亀有1丁目17-5","lat":35.75911949,"lon":139.84602845},{"name":"中央図書館","province":"東京都","city":"葛飾区","address":"東京都葛飾区金町6丁目2-1","lat":35.76781825,"lon":139.87126244},{"name":"小菅憩い交流館","province":"東京都","city":"葛飾区","address":"東京都葛飾区小菅3丁目6-1","lat":35.75480297,"lon":139.82407777},{"name":"こすげ地区図書館","province":"東京都","city":"葛飾区","address":"東京都葛飾区小菅3丁目8-22","lat":35.75382256,"lon":139.82480832},{"name":"柴又学び交流館","province":"東京都","city":"葛飾区","address":"東京都葛飾区柴又5丁目33-8","lat":35.75367296,"lon":139.88188158},{"name":"新小岩地区センター","province":"東京都","city":"葛飾区","address":"東京都葛飾区新小岩2丁目17-1","lat":35.7163325,"lon":139.8617432},{"name":"新宿憩い交流館","province":"東京都","city":"葛飾区","address":"東京都葛飾区新宿1丁目5-6","lat":35.75908077,"lon":139.85894123},{"name":"奥戸総合スポーツセンター温水プール館","province":"東京都","city":"葛飾区","address":"東京都葛飾区高砂1丁目2-1","lat":35.74105524,"lon":139.86366937},{"name":"高砂地区センター","province":"東京都","city":"葛飾区","address":"東京都葛飾区高砂3丁目1-39","lat":35.74596025,"lon":139.86832714},{"name":"四つ木地区センター","province":"東京都","city":"葛飾区","address":"東京都葛飾区宝町1丁目1-22","lat":35.74012489,"lon":139.83716655},{"name":"宝町憩い交流館","province":"東京都","city":"葛飾区","address":"東京都葛飾区宝町2丁目38-19","lat":35.7477293,"lon":139.83719657},{"name":"立石図書館","province":"東京都","city":"葛飾区","address":"東京都葛飾区立石1丁目9-1","lat":35.73721368,"lon":139.84567116},{"name":"ウィメンズパル","province":"東京都","city":"葛飾区","address":"東京都葛飾区立石5丁目27-1","lat":35.74569892,"lon":139.84610128},{"name":"シニア活動支援センター","province":"東京都","city":"葛飾区","address":"東京都葛飾区立石6丁目38-11","lat":35.74387419,"lon":139.85437559},{"name":"水道局葛飾営業所","province":"東京都","city":"葛飾区","address":"東京都葛飾区立石8丁目17-4","lat":35.74129945,"lon":139.85343413},{"name":"中道憩い交流館","province":"東京都","city":"葛飾区","address":"東京都葛飾区西亀有1丁目2-7","lat":35.75676969,"lon":139.83702936},{"name":"砂原憩い交流館","province":"東京都","city":"葛飾区","address":"東京都葛飾区西亀有3丁目12-1","lat":35.76248283,"lon":139.83819565},{"name":"たつみ憩い交流館","province":"東京都","city":"葛飾区","address":"東京都葛飾区西新小岩2丁目1-4","lat":35.71815437,"lon":139.85442984},{"name":"西水元地区図書館","province":"東京都","city":"葛飾区","address":"東京都葛飾区西水元2丁目2-8","lat":35.78494379,"lon":139.84906078},{"name":"東金町憩い交流館","province":"東京都","city":"葛飾区","address":"東京都葛飾区東金町5丁目22-18","lat":35.7793248,"lon":139.87804785},{"name":"上小松図書館","province":"東京都","city":"葛飾区","address":"東京都葛飾区東新小岩3丁目12-1","lat":35.72297089,"lon":139.8619316},{"name":"新小岩北地区センター","province":"東京都","city":"葛飾区","address":"東京都葛飾区東新小岩6丁目21-1","lat":35.72426786,"lon":139.85866795},{"name":"東立石地区センター","province":"東京都","city":"葛飾区","address":"東京都葛飾区東立石2丁目15-7","lat":35.73410011,"lon":139.84755724},{"name":"水元図書館","province":"東京都","city":"葛飾区","address":"東京都葛飾区東水元1丁目7-3","lat":35.77884728,"lon":139.8675263},{"name":"東四つ木地区センター","province":"東京都","city":"葛飾区","address":"東京都葛飾区東四つ木1丁目20-4","lat":35.72894304,"lon":139.84065022},{"name":"堀切憩い交流館","province":"東京都","city":"葛飾区","address":"東京都葛飾区堀切1丁目23-6","lat":35.7404527,"lon":139.82935639},{"name":"堀切地区センター","province":"東京都","city":"葛飾区","address":"東京都葛飾区堀切3丁目8-5","lat":35.74724597,"lon":139.82808645},{"name":"水元総合スポーツセンター","province":"東京都","city":"葛飾区","address":"東京都葛飾区水元1丁目23-1","lat":35.78181641,"lon":139.85867681},{"name":"水元憩い交流館","province":"東京都","city":"葛飾区","address":"東京都葛飾区水元4丁目6-15","lat":35.78816825,"lon":139.86057098},{"name":"水元学び交流館","province":"東京都","city":"葛飾区","address":"東京都葛飾区南水元2丁目13-1","lat":35.77966116,"lon":139.85567153}]}