{"keyword":"伐採","data":[{"name":"東部地域病院","province":"東京都","city":"葛飾区","address":"東京都葛飾区亀有5丁目14-1","lat":35.7662352,"lon":139.84445332},{"name":"東京慈恵会医科大学葛飾医療センター","province":"東京都","city":"葛飾区","address":"東京都葛飾区青戸6丁目41-2","lat":35.75182053,"lon":139.85865266},{"name":"東京都保健医療公社東部地域病院","province":"東京都","city":"葛飾区","address":"東京都葛飾区亀有5丁目14-1","lat":35.7662352,"lon":139.84445332},{"name":"東京慈恵会医科大学附属青戸病院","province":"東京都","city":"葛飾区","address":"東京都葛飾区青戸6丁目41-2","lat":35.75182053,"lon":139.85865266},{"name":"東部地域病院","province":"東京都","city":"葛飾区","address":"東京都葛飾区亀有5丁目14-1","lat":35.7662352,"lon":139.84445332},{"name":"葛飾区立総合スポーツセンター陸上競技場","province":"東京都","city":"葛飾区","address":"東京都葛飾区奥戸7丁目17-1","lat":35.73772504,"lon":139.86210297},{"name":"都立水元公園駐車場","province":"東京都","city":"葛飾区","address":"東京都葛飾区水元公園4","lat":35.79240643,"lon":139.86812312},{"name":"都立水元公園多目的広場","province":"東京都","city":"葛飾区","address":"東京都葛飾区東金町8丁目31","lat":35.78263806,"lon":139.88528344},{"name":"葛飾区立柴又公園（矢切の渡し）","province":"東京都","city":"葛飾区","address":"東京都葛飾区柴又7丁目","lat":35.75767798,"lon":139.87675403},{"name":"新四つ木橋地区東岸","province":"東京都","city":"葛飾区","address":"東京都葛飾区東四つ木3丁目","lat":35.73102085,"lon":139.83684505},{"name":"葛飾区立奥戸運動場","province":"東京都","city":"葛飾区","address":"東京都葛飾区高砂1丁目","lat":35.74382707,"lon":139.86149721},{"name":"葛飾区立新小岩公園","province":"東京都","city":"葛飾区","address":"東京都葛飾区西新小岩1丁目1-3","lat":35.71611839,"lon":139.85476607},{"name":"堀切緊急用船着場","province":"東京都","city":"葛飾区","address":"東京都葛飾区堀切1丁目12","lat":35.74083039,"lon":139.82605121},{"name":"柴又緊急用船着場","province":"東京都","city":"葛飾区","address":"東京都葛飾区柴又7丁目19","lat":35.75861667,"lon":139.88019269},{"name":"東立石緑地公園船着場","province":"東京都","city":"葛飾区","address":"東京都葛飾区東立石4丁目","lat":35.73627764,"lon":139.84912363},{"name":"新小岩防災船着場","province":"東京都","city":"葛飾区","address":"東京都葛飾区西新小岩1丁目1","lat":35.71611838,"lon":139.85394669},{"name":"青戸六丁目広場付近護岸","province":"東京都","city":"葛飾区","address":"東京都葛飾区青戸6丁目40","lat":35.75167333,"lon":139.85904985},{"name":"東京東部漁協荒天時避難繋船場","province":"東京都","city":"葛飾区","address":"東京都葛飾区奥戸7丁目20","lat":35.73899155,"lon":139.86218069},{"name":"第五建築事務所上平井橋係留所","province":"東京都","city":"葛飾区","address":"東京都葛飾区東四つ木1丁目1","lat":35.72488194,"lon":139.84146404},{"name":"ミヨシ油脂（株）専用荷揚げ場","province":"東京都","city":"葛飾区","address":"東京都葛飾区堀切4丁目66","lat":35.74979264,"lon":139.8225506},{"name":"東部地域病院","province":"東京都","city":"葛飾区","address":"東京都葛飾区亀有5丁目14-1","lat":35.7662352,"lon":139.84445332},{"name":"東京慈恵会医科大学葛飾医療センター","province":"東京都","city":"葛飾区","address":"東京都葛飾区青戸6丁目41-2","lat":35.75182053,"lon":139.85865266},{"name":"東京都保健医療公社東部地域病院","province":"東京都","city":"葛飾区","address":"東京都葛飾区亀有5丁目14-1","lat":35.7662352,"lon":139.84445332},{"name":"東京慈恵会医科大学附属青戸病院","province":"東京都","city":"葛飾区","address":"東京都葛飾区青戸6丁目41-2","lat":35.75182053,"lon":139.85865266},{"name":"東部地域病院","province":"東京都","city":"葛飾区","address":"東京都葛飾区亀有5丁目14-1","lat":35.7662352,"lon":139.84445332},{"name":"葛飾区立総合スポーツセンター陸上競技場","province":"東京都","city":"葛飾区","address":"東京都葛飾区奥戸7丁目17-1","lat":35.73772504,"lon":139.86210297},{"name":"都立水元公園駐車場","province":"東京都","city":"葛飾区","address":"東京都葛飾区水元公園4","lat":35.79240643,"lon":139.86812312},{"name":"都立水元公園多目的広場","province":"東京都","city":"葛飾区","address":"東京都葛飾区東金町8丁目31","lat":35.78263806,"lon":139.88528344},{"name":"葛飾区立柴又公園（矢切の渡し）","province":"東京都","city":"葛飾区","address":"東京都葛飾区柴又7丁目","lat":35.75767798,"lon":139.87675403},{"name":"新四つ木橋地区東岸","province":"東京都","city":"葛飾区","address":"東京都葛飾区東四つ木3丁目","lat":35.73102085,"lon":139.83684505},{"name":"葛飾区立奥戸運動場","province":"東京都","city":"葛飾区","address":"東京都葛飾区高砂1丁目","lat":35.74382707,"lon":139.86149721},{"name":"葛飾区立新小岩公園","province":"東京都","city":"葛飾区","address":"東京都葛飾区西新小岩1丁目1-3","lat":35.71611839,"lon":139.85476607},{"name":"堀切緊急用船着場","province":"東京都","city":"葛飾区","address":"東京都葛飾区堀切1丁目12","lat":35.74083039,"lon":139.82605121},{"name":"柴又緊急用船着場","province":"東京都","city":"葛飾区","address":"東京都葛飾区柴又7丁目19","lat":35.75861667,"lon":139.88019269},{"name":"東立石緑地公園船着場","province":"東京都","city":"葛飾区","address":"東京都葛飾区東立石4丁目","lat":35.73627764,"lon":139.84912363},{"name":"新小岩防災船着場","province":"東京都","city":"葛飾区","address":"東京都葛飾区西新小岩1丁目1","lat":35.71611838,"lon":139.85394669},{"name":"青戸六丁目広場付近護岸","province":"東京都","city":"葛飾区","address":"東京都葛飾区青戸6丁目40","lat":35.75167333,"lon":139.85904985},{"name":"東京東部漁協荒天時避難繋船場","province":"東京都","city":"葛飾区","address":"東京都葛飾区奥戸7丁目20","lat":35.73899155,"lon":139.86218069},{"name":"第五建築事務所上平井橋係留所","province":"東京都","city":"葛飾区","address":"東京都葛飾区東四つ木1丁目1","lat":35.72488194,"lon":139.84146404},{"name":"ミヨシ油脂（株）専用荷揚げ場","province":"東京都","city":"葛飾区","address":"東京都葛飾区堀切4丁目66","lat":35.74979264,"lon":139.8225506},{"name":"東部地域病院","province":"東京都","city":"葛飾区","address":"東京都葛飾区亀有5丁目14-1","lat":35.7662352,"lon":139.84445332},{"name":"東京慈恵会医科大学葛飾医療センター","province":"東京都","city":"葛飾区","address":"東京都葛飾区青戸6丁目41-2","lat":35.75182053,"lon":139.85865266},{"name":"東京都保健医療公社東部地域病院","province":"東京都","city":"葛飾区","address":"東京都葛飾区亀有5丁目14-1","lat":35.7662352,"lon":139.84445332},{"name":"東京慈恵会医科大学附属青戸病院","province":"東京都","city":"葛飾区","address":"東京都葛飾区青戸6丁目41-2","lat":35.75182053,"lon":139.85865266},{"name":"東部地域病院","province":"東京都","city":"葛飾区","address":"東京都葛飾区亀有5丁目14-1","lat":35.7662352,"lon":139.84445332},{"name":"葛飾区立総合スポーツセンター陸上競技場","province":"東京都","city":"葛飾区","address":"東京都葛飾区奥戸7丁目17-1","lat":35.73772504,"lon":139.86210297},{"name":"都立水元公園駐車場","province":"東京都","city":"葛飾区","address":"東京都葛飾区水元公園4","lat":35.79240643,"lon":139.86812312},{"name":"都立水元公園多目的広場","province":"東京都","city":"葛飾区","address":"東京都葛飾区東金町8丁目31","lat":35.78263806,"lon":139.88528344},{"name":"葛飾区立柴又公園（矢切の渡し）","province":"東京都","city":"葛飾区","address":"東京都葛飾区柴又7丁目","lat":35.75767798,"lon":139.87675403},{"name":"新四つ木橋地区東岸","province":"東京都","city":"葛飾区","address":"東京都葛飾区東四つ木3丁目","lat":35.73102085,"lon":139.83684505},{"name":"葛飾区立奥戸運動場","province":"東京都","city":"葛飾区","address":"東京都葛飾区高砂1丁目","lat":35.74382707,"lon":139.86149721},{"name":"葛飾区立新小岩公園","province":"東京都","city":"葛飾区","address":"東京都葛飾区西新小岩1丁目1-3","lat":35.71611839,"lon":139.85476607},{"name":"堀切緊急用船着場","province":"東京都","city":"葛飾区","address":"東京都葛飾区堀切1丁目12","lat":35.74083039,"lon":139.82605121},{"name":"柴又緊急用船着場","province":"東京都","city":"葛飾区","address":"東京都葛飾区柴又7丁目19","lat":35.75861667,"lon":139.88019269},{"name":"東立石緑地公園船着場","province":"東京都","city":"葛飾区","address":"東京都葛飾区東立石4丁目","lat":35.73627764,"lon":139.84912363},{"name":"新小岩防災船着場","province":"東京都","city":"葛飾区","address":"東京都葛飾区西新小岩1丁目1","lat":35.71611838,"lon":139.85394669},{"name":"青戸六丁目広場付近護岸","province":"東京都","city":"葛飾区","address":"東京都葛飾区青戸6丁目40","lat":35.75167333,"lon":139.85904985},{"name":"東京東部漁協荒天時避難繋船場","province":"東京都","city":"葛飾区","address":"東京都葛飾区奥戸7丁目20","lat":35.73899155,"lon":139.86218069},{"name":"第五建築事務所上平井橋係留所","province":"東京都","city":"葛飾区","address":"東京都葛飾区東四つ木1丁目1","lat":35.72488194,"lon":139.84146404},{"name":"ミヨシ油脂（株）専用荷揚げ場","province":"東京都","city":"葛飾区","address":"東京都葛飾区堀切4丁目66","lat":35.74979264,"lon":139.8225506},{"name":"東部地域病院","province":"東京都","city":"葛飾区","address":"東京都葛飾区亀有5丁目14-1","lat":35.7662352,"lon":139.84445332},{"name":"東京慈恵会医科大学葛飾医療センター","province":"東京都","city":"葛飾区","address":"東京都葛飾区青戸6丁目41-2","lat":35.75182053,"lon":139.85865266},{"name":"東京都保健医療公社東部地域病院","province":"東京都","city":"葛飾区","address":"東京都葛飾区亀有5丁目14-1","lat":35.7662352,"lon":139.84445332},{"name":"東京慈恵会医科大学附属青戸病院","province":"東京都","city":"葛飾区","address":"東京都葛飾区青戸6丁目41-2","lat":35.75182053,"lon":139.85865266},{"name":"東部地域病院","province":"東京都","city":"葛飾区","address":"東京都葛飾区亀有5丁目14-1","lat":35.7662352,"lon":139.84445332},{"name":"堀切緊急用船着場","province":"東京都","city":"葛飾区","address":"東京都葛飾区堀切1丁目12","lat":35.74083039,"lon":139.82605121},{"name":"柴又緊急用船着場","province":"東京都","city":"葛飾区","address":"東京都葛飾区柴又7丁目19","lat":35.75861667,"lon":139.88019269},{"name":"東立石緑地公園船着場","province":"東京都","city":"葛飾区","address":"東京都葛飾区東立石4丁目","lat":35.73627764,"lon":139.84912363},{"name":"新小岩防災船着場","province":"東京都","city":"葛飾区","address":"東京都葛飾区西新小岩1丁目1","lat":35.71611838,"lon":139.85394669},{"name":"青戸六丁目広場付近護岸","province":"東京都","city":"葛飾区","address":"東京都葛飾区青戸6丁目40","lat":35.75167333,"lon":139.85904985},{"name":"東京東部漁協荒天時避難繋船場","province":"東京都","city":"葛飾区","address":"東京都葛飾区奥戸7丁目20","lat":35.73899155,"lon":139.86218069},{"name":"第五建築事務所上平井橋係留所","province":"東京都","city":"葛飾区","address":"東京都葛飾区東四つ木1丁目1","lat":35.72488194,"lon":139.84146404},{"name":"ミヨシ油脂（株）専用荷揚げ場","province":"東京都","city":"葛飾区","address":"東京都葛飾区堀切4丁目66","lat":35.74979264,"lon":139.8225506},{"name":"東部地域病院","province":"東京都","city":"葛飾区","address":"東京都葛飾区亀有5丁目14-1","lat":35.7662352,"lon":139.84445332},{"name":"東京慈恵会医科大学葛飾医療センター","province":"東京都","city":"葛飾区","address":"東京都葛飾区青戸6丁目41-2","lat":35.75182053,"lon":139.85865266},{"name":"東京都保健医療公社東部地域病院","province":"東京都","city":"葛飾区","address":"東京都葛飾区亀有5丁目14-1","lat":35.7662352,"lon":139.84445332},{"name":"東京慈恵会医科大学附属青戸病院","province":"東京都","city":"葛飾区","address":"東京都葛飾区青戸6丁目41-2","lat":35.75182053,"lon":139.85865266},{"name":"東部地域病院","province":"東京都","city":"葛飾区","address":"東京都葛飾区亀有5丁目14-1","lat":35.7662352,"lon":139.84445332},{"name":"堀切緊急用船着場","province":"東京都","city":"葛飾区","address":"東京都葛飾区堀切1丁目12","lat":35.74083039,"lon":139.82605121},{"name":"柴又緊急用船着場","province":"東京都","city":"葛飾区","address":"東京都葛飾区柴又7丁目19","lat":35.75861667,"lon":139.88019269},{"name":"東立石緑地公園船着場","province":"東京都","city":"葛飾区","address":"東京都葛飾区東立石4丁目","lat":35.73627764,"lon":139.84912363},{"name":"新小岩防災船着場","province":"東京都","city":"葛飾区","address":"東京都葛飾区西新小岩1丁目1","lat":35.71611838,"lon":139.85394669},{"name":"青戸六丁目広場付近護岸","province":"東京都","city":"葛飾区","address":"東京都葛飾区青戸6丁目40","lat":35.75167333,"lon":139.85904985},{"name":"東京東部漁協荒天時避難繋船場","province":"東京都","city":"葛飾区","address":"東京都葛飾区奥戸7丁目20","lat":35.73899155,"lon":139.86218069},{"name":"第五建築事務所上平井橋係留所","province":"東京都","city":"葛飾区","address":"東京都葛飾区東四つ木1丁目1","lat":35.72488194,"lon":139.84146404},{"name":"ミヨシ油脂（株）専用荷揚げ場","province":"東京都","city":"葛飾区","address":"東京都葛飾区堀切4丁目66","lat":35.74979264,"lon":139.8225506},{"name":"東部地域病院","province":"東京都","city":"葛飾区","address":"東京都葛飾区亀有5丁目14-1","lat":35.7662352,"lon":139.84445332},{"name":"東京慈恵会医科大学葛飾医療センター","province":"東京都","city":"葛飾区","address":"東京都葛飾区青戸6丁目41-2","lat":35.75182053,"lon":139.85865266},{"name":"東京都保健医療公社東部地域病院","province":"東京都","city":"葛飾区","address":"東京都葛飾区亀有5丁目14-1","lat":35.7662352,"lon":139.84445332},{"name":"東京慈恵会医科大学附属青戸病院","province":"東京都","city":"葛飾区","address":"東京都葛飾区青戸6丁目41-2","lat":35.75182053,"lon":139.85865266},{"name":"東部地域病院","province":"東京都","city":"葛飾区","address":"東京都葛飾区亀有5丁目14-1","lat":35.7662352,"lon":139.84445332},{"name":"堀切緊急用船着場","province":"東京都","city":"葛飾区","address":"東京都葛飾区堀切1丁目12","lat":35.74083039,"lon":139.82605121},{"name":"柴又緊急用船着場","province":"東京都","city":"葛飾区","address":"東京都葛飾区柴又7丁目19","lat":35.75861667,"lon":139.88019269},{"name":"東立石緑地公園船着場","province":"東京都","city":"葛飾区","address":"東京都葛飾区東立石4丁目","lat":35.73627764,"lon":139.84912363},{"name":"新小岩防災船着場","province":"東京都","city":"葛飾区","address":"東京都葛飾区西新小岩1丁目1","lat":35.71611838,"lon":139.85394669},{"name":"青戸六丁目広場付近護岸","province":"東京都","city":"葛飾区","address":"東京都葛飾区青戸6丁目40","lat":35.75167333,"lon":139.85904985},{"name":"東京東部漁協荒天時避難繋船場","province":"東京都","city":"葛飾区","address":"東京都葛飾区奥戸7丁目20","lat":35.73899155,"lon":139.86218069},{"name":"第五建築事務所上平井橋係留所","province":"東京都","city":"葛飾区","address":"東京都葛飾区東四つ木1丁目1","lat":35.72488194,"lon":139.84146404},{"name":"ミヨシ油脂（株）専用荷揚げ場","province":"東京都","city":"葛飾区","address":"東京都葛飾区堀切4丁目66","lat":35.74979264,"lon":139.8225506},{"name":"東部地域病院","province":"東京都","city":"葛飾区","address":"東京都葛飾区亀有5丁目14-1","lat":35.7662352,"lon":139.84445332},{"name":"東京慈恵会医科大学葛飾医療センター","province":"東京都","city":"葛飾区","address":"東京都葛飾区青戸6丁目41-2","lat":35.75182053,"lon":139.85865266},{"name":"東京都保健医療公社東部地域病院","province":"東京都","city":"葛飾区","address":"東京都葛飾区亀有5丁目14-1","lat":35.7662352,"lon":139.84445332},{"name":"東京慈恵会医科大学附属青戸病院","province":"東京都","city":"葛飾区","address":"東京都葛飾区青戸6丁目41-2","lat":35.75182053,"lon":139.85865266},{"name":"東部地域病院","province":"東京都","city":"葛飾区","address":"東京都葛飾区亀有5丁目14-1","lat":35.7662352,"lon":139.84445332},{"name":"堀切緊急用船着場","province":"東京都","city":"葛飾区","address":"東京都葛飾区堀切1丁目12","lat":35.74083039,"lon":139.82605121},{"name":"柴又緊急用船着場","province":"東京都","city":"葛飾区","address":"東京都葛飾区柴又7丁目19","lat":35.75861667,"lon":139.88019269},{"name":"東立石緑地公園船着場","province":"東京都","city":"葛飾区","address":"東京都葛飾区東立石4丁目","lat":35.73627764,"lon":139.84912363},{"name":"新小岩防災船着場","province":"東京都","city":"葛飾区","address":"東京都葛飾区西新小岩1丁目1","lat":35.71611838,"lon":139.85394669},{"name":"青戸六丁目広場付近護岸","province":"東京都","city":"葛飾区","address":"東京都葛飾区青戸6丁目40","lat":35.75167333,"lon":139.85904985},{"name":"東京東部漁協荒天時避難繋船場","province":"東京都","city":"葛飾区","address":"東京都葛飾区奥戸7丁目20","lat":35.73899155,"lon":139.86218069},{"name":"第五建築事務所上平井橋係留所","province":"東京都","city":"葛飾区","address":"東京都葛飾区東四つ木1丁目1","lat":35.72488194,"lon":139.84146404},{"name":"ミヨシ油脂（株）専用荷揚げ場","province":"東京都","city":"葛飾区","address":"東京都葛飾区堀切4丁目66","lat":35.74979264,"lon":139.8225506},{"name":"東部地域病院","province":"東京都","city":"葛飾区","address":"東京都葛飾区亀有5丁目14-1","lat":35.7662352,"lon":139.84445332},{"name":"東京慈恵会医科大学葛飾医療センター","province":"東京都","city":"葛飾区","address":"東京都葛飾区青戸6丁目41-2","lat":35.75182053,"lon":139.85865266},{"name":"東京都保健医療公社東部地域病院","province":"東京都","city":"葛飾区","address":"東京都葛飾区亀有5丁目14-1","lat":35.7662352,"lon":139.84445332},{"name":"東京慈恵会医科大学附属青戸病院","province":"東京都","city":"葛飾区","address":"東京都葛飾区青戸6丁目41-2","lat":35.75182053,"lon":139.85865266},{"name":"東部地域病院","province":"東京都","city":"葛飾区","address":"東京都葛飾区亀有5丁目14-1","lat":35.7662352,"lon":139.84445332},{"name":"堀切緊急用船着場","province":"東京都","city":"葛飾区","address":"東京都葛飾区堀切1丁目12","lat":35.74083039,"lon":139.82605121},{"name":"柴又緊急用船着場","province":"東京都","city":"葛飾区","address":"東京都葛飾区柴又7丁目19","lat":35.75861667,"lon":139.88019269},{"name":"東立石緑地公園船着場","province":"東京都","city":"葛飾区","address":"東京都葛飾区東立石4丁目","lat":35.73627764,"lon":139.84912363},{"name":"新小岩防災船着場","province":"東京都","city":"葛飾区","address":"東京都葛飾区西新小岩1丁目1","lat":35.71611838,"lon":139.85394669},{"name":"青戸六丁目広場付近護岸","province":"東京都","city":"葛飾区","address":"東京都葛飾区青戸6丁目40","lat":35.75167333,"lon":139.85904985},{"name":"東京東部漁協荒天時避難繋船場","province":"東京都","city":"葛飾区","address":"東京都葛飾区奥戸7丁目20","lat":35.73899155,"lon":139.86218069},{"name":"第五建築事務所上平井橋係留所","province":"東京都","city":"葛飾区","address":"東京都葛飾区東四つ木1丁目1","lat":35.72488194,"lon":139.84146404},{"name":"ミヨシ油脂（株）専用荷揚げ場","province":"東京都","city":"葛飾区","address":"東京都葛飾区堀切4丁目66","lat":35.74979264,"lon":139.8225506},{"name":"東部地域病院","province":"東京都","city":"葛飾区","address":"東京都葛飾区亀有5丁目14-1","lat":35.7662352,"lon":139.84445332},{"name":"東京慈恵会医科大学葛飾医療センター","province":"東京都","city":"葛飾区","address":"東京都葛飾区青戸6丁目41-2","lat":35.75182053,"lon":139.85865266},{"name":"東京都保健医療公社東部地域病院","province":"東京都","city":"葛飾区","address":"東京都葛飾区亀有5丁目14-1","lat":35.7662352,"lon":139.84445332},{"name":"東京慈恵会医科大学附属青戸病院","province":"東京都","city":"葛飾区","address":"東京都葛飾区青戸6丁目41-2","lat":35.75182053,"lon":139.85865266},{"name":"東部地域病院","province":"東京都","city":"葛飾区","address":"東京都葛飾区亀有5丁目14-1","lat":35.7662352,"lon":139.84445332},{"name":"堀切緊急用船着場","province":"東京都","city":"葛飾区","address":"東京都葛飾区堀切1丁目12","lat":35.74083039,"lon":139.82605121},{"name":"柴又緊急用船着場","province":"東京都","city":"葛飾区","address":"東京都葛飾区柴又7丁目19","lat":35.75861667,"lon":139.88019269},{"name":"東立石緑地公園船着場","province":"東京都","city":"葛飾区","address":"東京都葛飾区東立石4丁目","lat":35.73627764,"lon":139.84912363},{"name":"新小岩防災船着場","province":"東京都","city":"葛飾区","address":"東京都葛飾区西新小岩1丁目1","lat":35.71611838,"lon":139.85394669},{"name":"青戸六丁目広場付近護岸","province":"東京都","city":"葛飾区","address":"東京都葛飾区青戸6丁目40","lat":35.75167333,"lon":139.85904985},{"name":"東京東部漁協荒天時避難繋船場","province":"東京都","city":"葛飾区","address":"東京都葛飾区奥戸7丁目20","lat":35.73899155,"lon":139.86218069},{"name":"第五建築事務所上平井橋係留所","province":"東京都","city":"葛飾区","address":"東京都葛飾区東四つ木1丁目1","lat":35.72488194,"lon":139.84146404},{"name":"ミヨシ油脂（株）専用荷揚げ場","province":"東京都","city":"葛飾区","address":"東京都葛飾区堀切4丁目66","lat":35.74979264,"lon":139.8225506},{"name":"東部地域病院","province":"東京都","city":"葛飾区","address":"東京都葛飾区亀有5丁目14-1","lat":35.7662352,"lon":139.84445332},{"name":"東京慈恵会医科大学葛飾医療センター","province":"東京都","city":"葛飾区","address":"東京都葛飾区青戸6丁目41-2","lat":35.75182053,"lon":139.85865266},{"name":"東京都保健医療公社東部地域病院","province":"東京都","city":"葛飾区","address":"東京都葛飾区亀有5丁目14-1","lat":35.7662352,"lon":139.84445332},{"name":"東京慈恵会医科大学附属青戸病院","province":"東京都","city":"葛飾区","address":"東京都葛飾区青戸6丁目41-2","lat":35.75182053,"lon":139.85865266},{"name":"東部地域病院","province":"東京都","city":"葛飾区","address":"東京都葛飾区亀有5丁目14-1","lat":35.7662352,"lon":139.84445332},{"name":"堀切緊急用船着場","province":"東京都","city":"葛飾区","address":"東京都葛飾区堀切1丁目12","lat":35.74083039,"lon":139.82605121},{"name":"柴又緊急用船着場","province":"東京都","city":"葛飾区","address":"東京都葛飾区柴又7丁目19","lat":35.75861667,"lon":139.88019269},{"name":"東立石緑地公園船着場","province":"東京都","city":"葛飾区","address":"東京都葛飾区東立石4丁目","lat":35.73627764,"lon":139.84912363},{"name":"新小岩防災船着場","province":"東京都","city":"葛飾区","address":"東京都葛飾区西新小岩1丁目1","lat":35.71611838,"lon":139.85394669},{"name":"青戸六丁目広場付近護岸","province":"東京都","city":"葛飾区","address":"東京都葛飾区青戸6丁目40","lat":35.75167333,"lon":139.85904985},{"name":"東京東部漁協荒天時避難繋船場","province":"東京都","city":"葛飾区","address":"東京都葛飾区奥戸7丁目20","lat":35.73899155,"lon":139.86218069},{"name":"第五建築事務所上平井橋係留所","province":"東京都","city":"葛飾区","address":"東京都葛飾区東四つ木1丁目1","lat":35.72488194,"lon":139.84146404},{"name":"ミヨシ油脂（株）専用荷揚げ場","province":"東京都","city":"葛飾区","address":"東京都葛飾区堀切4丁目66","lat":35.74979264,"lon":139.8225506},{"name":"東部地域病院","province":"東京都","city":"葛飾区","address":"東京都葛飾区亀有5丁目14-1","lat":35.7662352,"lon":139.84445332},{"name":"東京慈恵会医科大学葛飾医療センター","province":"東京都","city":"葛飾区","address":"東京都葛飾区青戸6丁目41-2","lat":35.75182053,"lon":139.85865266},{"name":"東京都保健医療公社東部地域病院","province":"東京都","city":"葛飾区","address":"東京都葛飾区亀有5丁目14-1","lat":35.7662352,"lon":139.84445332},{"name":"東京慈恵会医科大学附属青戸病院","province":"東京都","city":"葛飾区","address":"東京都葛飾区青戸6丁目41-2","lat":35.75182053,"lon":139.85865266},{"name":"東部地域病院","province":"東京都","city":"葛飾区","address":"東京都葛飾区亀有5丁目14-1","lat":35.7662352,"lon":139.84445332},{"name":"堀切緊急用船着場","province":"東京都","city":"葛飾区","address":"東京都葛飾区堀切1丁目12","lat":35.74083039,"lon":139.82605121},{"name":"柴又緊急用船着場","province":"東京都","city":"葛飾区","address":"東京都葛飾区柴又7丁目19","lat":35.75861667,"lon":139.88019269},{"name":"東立石緑地公園船着場","province":"東京都","city":"葛飾区","address":"東京都葛飾区東立石4丁目","lat":35.73627764,"lon":139.84912363},{"name":"新小岩防災船着場","province":"東京都","city":"葛飾区","address":"東京都葛飾区西新小岩1丁目1","lat":35.71611838,"lon":139.85394669},{"name":"青戸六丁目広場付近護岸","province":"東京都","city":"葛飾区","address":"東京都葛飾区青戸6丁目40","lat":35.75167333,"lon":139.85904985},{"name":"東京東部漁協荒天時避難繋船場","province":"東京都","city":"葛飾区","address":"東京都葛飾区奥戸7丁目20","lat":35.73899155,"lon":139.86218069},{"name":"第五建築事務所上平井橋係留所","province":"東京都","city":"葛飾区","address":"東京都葛飾区東四つ木1丁目1","lat":35.72488194,"lon":139.84146404},{"name":"ミヨシ油脂（株）専用荷揚げ場","province":"東京都","city":"葛飾区","address":"東京都葛飾区堀切4丁目66","lat":35.74979264,"lon":139.8225506},{"name":"東部地域病院","province":"東京都","city":"葛飾区","address":"東京都葛飾区亀有5丁目14-1","lat":35.7662352,"lon":139.84445332},{"name":"東京慈恵会医科大学葛飾医療センター","province":"東京都","city":"葛飾区","address":"東京都葛飾区青戸6丁目41-2","lat":35.75182053,"lon":139.85865266},{"name":"東京都保健医療公社東部地域病院","province":"東京都","city":"葛飾区","address":"東京都葛飾区亀有5丁目14-1","lat":35.7662352,"lon":139.84445332},{"name":"東京慈恵会医科大学附属青戸病院","province":"東京都","city":"葛飾区","address":"東京都葛飾区青戸6丁目41-2","lat":35.75182053,"lon":139.85865266},{"name":"東部地域病院","province":"東京都","city":"葛飾区","address":"東京都葛飾区亀有5丁目14-1","lat":35.7662352,"lon":139.84445332},{"name":"堀切緊急用船着場","province":"東京都","city":"葛飾区","address":"東京都葛飾区堀切1丁目12","lat":35.74083039,"lon":139.82605121},{"name":"柴又緊急用船着場","province":"東京都","city":"葛飾区","address":"東京都葛飾区柴又7丁目19","lat":35.75861667,"lon":139.88019269},{"name":"東立石緑地公園船着場","province":"東京都","city":"葛飾区","address":"東京都葛飾区東立石4丁目","lat":35.73627764,"lon":139.84912363},{"name":"新小岩防災船着場","province":"東京都","city":"葛飾区","address":"東京都葛飾区西新小岩1丁目1","lat":35.71611838,"lon":139.85394669},{"name":"青戸六丁目広場付近護岸","province":"東京都","city":"葛飾区","address":"東京都葛飾区青戸6丁目40","lat":35.75167333,"lon":139.85904985},{"name":"東京東部漁協荒天時避難繋船場","province":"東京都","city":"葛飾区","address":"東京都葛飾区奥戸7丁目20","lat":35.73899155,"lon":139.86218069},{"name":"第五建築事務所上平井橋係留所","province":"東京都","city":"葛飾区","address":"東京都葛飾区東四つ木1丁目1","lat":35.72488194,"lon":139.84146404},{"name":"ミヨシ油脂（株）専用荷揚げ場","province":"東京都","city":"葛飾区","address":"東京都葛飾区堀切4丁目66","lat":35.74979264,"lon":139.8225506},{"name":"東部地域病院","province":"東京都","city":"葛飾区","address":"東京都葛飾区亀有5丁目14-1","lat":35.7662352,"lon":139.84445332},{"name":"東京慈恵会医科大学葛飾医療センター","province":"東京都","city":"葛飾区","address":"東京都葛飾区青戸6丁目41-2","lat":35.75182053,"lon":139.85865266},{"name":"東京都保健医療公社東部地域病院","province":"東京都","city":"葛飾区","address":"東京都葛飾区亀有5丁目14-1","lat":35.7662352,"lon":139.84445332},{"name":"東京慈恵会医科大学附属青戸病院","province":"東京都","city":"葛飾区","address":"東京都葛飾区青戸6丁目41-2","lat":35.75182053,"lon":139.85865266},{"name":"東部地域病院","province":"東京都","city":"葛飾区","address":"東京都葛飾区亀有5丁目14-1","lat":35.7662352,"lon":139.84445332},{"name":"堀切緊急用船着場","province":"東京都","city":"葛飾区","address":"東京都葛飾区堀切1丁目12","lat":35.74083039,"lon":139.82605121},{"name":"柴又緊急用船着場","province":"東京都","city":"葛飾区","address":"東京都葛飾区柴又7丁目19","lat":35.75861667,"lon":139.88019269},{"name":"東立石緑地公園船着場","province":"東京都","city":"葛飾区","address":"東京都葛飾区東立石4丁目","lat":35.73627764,"lon":139.84912363},{"name":"新小岩防災船着場","province":"東京都","city":"葛飾区","address":"東京都葛飾区西新小岩1丁目1","lat":35.71611838,"lon":139.85394669},{"name":"青戸六丁目広場付近護岸","province":"東京都","city":"葛飾区","address":"東京都葛飾区青戸6丁目40","lat":35.75167333,"lon":139.85904985},{"name":"東京東部漁協荒天時避難繋船場","province":"東京都","city":"葛飾区","address":"東京都葛飾区奥戸7丁目20","lat":35.73899155,"lon":139.86218069},{"name":"第五建築事務所上平井橋係留所","province":"東京都","city":"葛飾区","address":"東京都葛飾区東四つ木1丁目1","lat":35.72488194,"lon":139.84146404},{"name":"ミヨシ油脂（株）専用荷揚げ場","province":"東京都","city":"葛飾区","address":"東京都葛飾区堀切4丁目66","lat":35.74979264,"lon":139.8225506},{"name":"東部地域病院","province":"東京都","city":"葛飾区","address":"東京都葛飾区亀有5丁目14-1","lat":35.7662352,"lon":139.84445332},{"name":"東京慈恵会医科大学葛飾医療センター","province":"東京都","city":"葛飾区","address":"東京都葛飾区青戸6丁目41-2","lat":35.75182053,"lon":139.85865266},{"name":"東京都保健医療公社東部地域病院","province":"東京都","city":"葛飾区","address":"東京都葛飾区亀有5丁目14-1","lat":35.7662352,"lon":139.84445332},{"name":"東京慈恵会医科大学附属青戸病院","province":"東京都","city":"葛飾区","address":"東京都葛飾区青戸6丁目41-2","lat":35.75182053,"lon":139.85865266},{"name":"東部地域病院","province":"東京都","city":"葛飾区","address":"東京都葛飾区亀有5丁目14-1","lat":35.7662352,"lon":139.84445332},{"name":"堀切緊急用船着場","province":"東京都","city":"葛飾区","address":"東京都葛飾区堀切1丁目12","lat":35.74083039,"lon":139.82605121},{"name":"柴又緊急用船着場","province":"東京都","city":"葛飾区","address":"東京都葛飾区柴又7丁目19","lat":35.75861667,"lon":139.88019269},{"name":"東立石緑地公園船着場","province":"東京都","city":"葛飾区","address":"東京都葛飾区東立石4丁目","lat":35.73627764,"lon":139.84912363},{"name":"新小岩防災船着場","province":"東京都","city":"葛飾区","address":"東京都葛飾区西新小岩1丁目1","lat":35.71611838,"lon":139.85394669},{"name":"青戸六丁目広場付近護岸","province":"東京都","city":"葛飾区","address":"東京都葛飾区青戸6丁目40","lat":35.75167333,"lon":139.85904985},{"name":"東京東部漁協荒天時避難繋船場","province":"東京都","city":"葛飾区","address":"東京都葛飾区奥戸7丁目20","lat":35.73899155,"lon":139.86218069},{"name":"第五建築事務所上平井橋係留所","province":"東京都","city":"葛飾区","address":"東京都葛飾区東四つ木1丁目1","lat":35.72488194,"lon":139.84146404},{"name":"ミヨシ油脂（株）専用荷揚げ場","province":"東京都","city":"葛飾区","address":"東京都葛飾区堀切4丁目66","lat":35.74979264,"lon":139.8225506},{"name":"東部地域病院","province":"東京都","city":"葛飾区","address":"東京都葛飾区亀有5丁目14-1","lat":35.7662352,"lon":139.84445332},{"name":"東京慈恵会医科大学葛飾医療センター","province":"東京都","city":"葛飾区","address":"東京都葛飾区青戸6丁目41-2","lat":35.75182053,"lon":139.85865266},{"name":"東京都保健医療公社東部地域病院","province":"東京都","city":"葛飾区","address":"東京都葛飾区亀有5丁目14-1","lat":35.7662352,"lon":139.84445332},{"name":"東京慈恵会医科大学附属青戸病院","province":"東京都","city":"葛飾区","address":"東京都葛飾区青戸6丁目41-2","lat":35.75182053,"lon":139.85865266},{"name":"東部地域病院","province":"東京都","city":"葛飾区","address":"東京都葛飾区亀有5丁目14-1","lat":35.7662352,"lon":139.84445332},{"name":"堀切緊急用船着場","province":"東京都","city":"葛飾区","address":"東京都葛飾区堀切1丁目12","lat":35.74083039,"lon":139.82605121},{"name":"柴又緊急用船着場","province":"東京都","city":"葛飾区","address":"東京都葛飾区柴又7丁目19","lat":35.75861667,"lon":139.88019269},{"name":"東立石緑地公園船着場","province":"東京都","city":"葛飾区","address":"東京都葛飾区東立石4丁目","lat":35.73627764,"lon":139.84912363},{"name":"新小岩防災船着場","province":"東京都","city":"葛飾区","address":"東京都葛飾区西新小岩1丁目1","lat":35.71611838,"lon":139.85394669},{"name":"青戸六丁目広場付近護岸","province":"東京都","city":"葛飾区","address":"東京都葛飾区青戸6丁目40","lat":35.75167333,"lon":139.85904985},{"name":"東京東部漁協荒天時避難繋船場","province":"東京都","city":"葛飾区","address":"東京都葛飾区奥戸7丁目20","lat":35.73899155,"lon":139.86218069},{"name":"第五建築事務所上平井橋係留所","province":"東京都","city":"葛飾区","address":"東京都葛飾区東四つ木1丁目1","lat":35.72488194,"lon":139.84146404},{"name":"ミヨシ油脂（株）専用荷揚げ場","province":"東京都","city":"葛飾区","address":"東京都葛飾区堀切4丁目66","lat":35.74979264,"lon":139.8225506},{"name":"東部地域病院","province":"東京都","city":"葛飾区","address":"東京都葛飾区亀有5丁目14-1","lat":35.7662352,"lon":139.84445332},{"name":"東京慈恵会医科大学葛飾医療センター","province":"東京都","city":"葛飾区","address":"東京都葛飾区青戸6丁目41-2","lat":35.75182053,"lon":139.85865266},{"name":"東京都保健医療公社東部地域病院","province":"東京都","city":"葛飾区","address":"東京都葛飾区亀有5丁目14-1","lat":35.7662352,"lon":139.84445332},{"name":"東京慈恵会医科大学附属青戸病院","province":"東京都","city":"葛飾区","address":"東京都葛飾区青戸6丁目41-2","lat":35.75182053,"lon":139.85865266},{"name":"東部地域病院","province":"東京都","city":"葛飾区","address":"東京都葛飾区亀有5丁目14-1","lat":35.7662352,"lon":139.84445332},{"name":"堀切緊急用船着場","province":"東京都","city":"葛飾区","address":"東京都葛飾区堀切1丁目12","lat":35.74083039,"lon":139.82605121},{"name":"柴又緊急用船着場","province":"東京都","city":"葛飾区","address":"東京都葛飾区柴又7丁目19","lat":35.75861667,"lon":139.88019269},{"name":"東立石緑地公園船着場","province":"東京都","city":"葛飾区","address":"東京都葛飾区東立石4丁目","lat":35.73627764,"lon":139.84912363},{"name":"新小岩防災船着場","province":"東京都","city":"葛飾区","address":"東京都葛飾区西新小岩1丁目1","lat":35.71611838,"lon":139.85394669},{"name":"青戸六丁目広場付近護岸","province":"東京都","city":"葛飾区","address":"東京都葛飾区青戸6丁目40","lat":35.75167333,"lon":139.85904985},{"name":"東京東部漁協荒天時避難繋船場","province":"東京都","city":"葛飾区","address":"東京都葛飾区奥戸7丁目20","lat":35.73899155,"lon":139.86218069},{"name":"第五建築事務所上平井橋係留所","province":"東京都","city":"葛飾区","address":"東京都葛飾区東四つ木1丁目1","lat":35.72488194,"lon":139.84146404},{"name":"ミヨシ油脂（株）専用荷揚げ場","province":"東京都","city":"葛飾区","address":"東京都葛飾区堀切4丁目66","lat":35.74979264,"lon":139.8225506},{"name":"東部地域病院","province":"東京都","city":"葛飾区","address":"東京都葛飾区亀有5丁目14-1","lat":35.7662352,"lon":139.84445332},{"name":"東京慈恵会医科大学葛飾医療センター","province":"東京都","city":"葛飾区","address":"東京都葛飾区青戸6丁目41-2","lat":35.75182053,"lon":139.85865266},{"name":"東京都保健医療公社東部地域病院","province":"東京都","city":"葛飾区","address":"東京都葛飾区亀有5丁目14-1","lat":35.7662352,"lon":139.84445332},{"name":"東京慈恵会医科大学附属青戸病院","province":"東京都","city":"葛飾区","address":"東京都葛飾区青戸6丁目41-2","lat":35.75182053,"lon":139.85865266},{"name":"東部地域病院","province":"東京都","city":"葛飾区","address":"東京都葛飾区亀有5丁目14-1","lat":35.7662352,"lon":139.84445332},{"name":"堀切緊急用船着場","province":"東京都","city":"葛飾区","address":"東京都葛飾区堀切1丁目12","lat":35.74083039,"lon":139.82605121},{"name":"柴又緊急用船着場","province":"東京都","city":"葛飾区","address":"東京都葛飾区柴又7丁目19","lat":35.75861667,"lon":139.88019269},{"name":"東立石緑地公園船着場","province":"東京都","city":"葛飾区","address":"東京都葛飾区東立石4丁目","lat":35.73627764,"lon":139.84912363},{"name":"新小岩防災船着場","province":"東京都","city":"葛飾区","address":"東京都葛飾区西新小岩1丁目1","lat":35.71611838,"lon":139.85394669},{"name":"青戸六丁目広場付近護岸","province":"東京都","city":"葛飾区","address":"東京都葛飾区青戸6丁目40","lat":35.75167333,"lon":139.85904985},{"name":"東京東部漁協荒天時避難繋船場","province":"東京都","city":"葛飾区","address":"東京都葛飾区奥戸7丁目20","lat":35.73899155,"lon":139.86218069},{"name":"第五建築事務所上平井橋係留所","province":"東京都","city":"葛飾区","address":"東京都葛飾区東四つ木1丁目1","lat":35.72488194,"lon":139.84146404},{"name":"ミヨシ油脂（株）専用荷揚げ場","province":"東京都","city":"葛飾区","address":"東京都葛飾区堀切4丁目66","lat":35.74979264,"lon":139.8225506},{"name":"東部地域病院","province":"東京都","city":"葛飾区","address":"東京都葛飾区亀有5丁目14-1","lat":35.7662352,"lon":139.84445332},{"name":"東京慈恵会医科大学葛飾医療センター","province":"東京都","city":"葛飾区","address":"東京都葛飾区青戸6丁目41-2","lat":35.75182053,"lon":139.85865266},{"name":"東京都保健医療公社東部地域病院","province":"東京都","city":"葛飾区","address":"東京都葛飾区亀有5丁目14-1","lat":35.7662352,"lon":139.84445332},{"name":"東京慈恵会医科大学附属青戸病院","province":"東京都","city":"葛飾区","address":"東京都葛飾区青戸6丁目41-2","lat":35.75182053,"lon":139.85865266},{"name":"東部地域病院","province":"東京都","city":"葛飾区","address":"東京都葛飾区亀有5丁目14-1","lat":35.7662352,"lon":139.84445332},{"name":"堀切緊急用船着場","province":"東京都","city":"葛飾区","address":"東京都葛飾区堀切1丁目12","lat":35.74083039,"lon":139.82605121},{"name":"柴又緊急用船着場","province":"東京都","city":"葛飾区","address":"東京都葛飾区柴又7丁目19","lat":35.75861667,"lon":139.88019269},{"name":"東立石緑地公園船着場","province":"東京都","city":"葛飾区","address":"東京都葛飾区東立石4丁目","lat":35.73627764,"lon":139.84912363},{"name":"新小岩防災船着場","province":"東京都","city":"葛飾区","address":"東京都葛飾区西新小岩1丁目1","lat":35.71611838,"lon":139.85394669},{"name":"青戸六丁目広場付近護岸","province":"東京都","city":"葛飾区","address":"東京都葛飾区青戸6丁目40","lat":35.75167333,"lon":139.85904985},{"name":"東京東部漁協荒天時避難繋船場","province":"東京都","city":"葛飾区","address":"東京都葛飾区奥戸7丁目20","lat":35.73899155,"lon":139.86218069},{"name":"第五建築事務所上平井橋係留所","province":"東京都","city":"葛飾区","address":"東京都葛飾区東四つ木1丁目1","lat":35.72488194,"lon":139.84146404},{"name":"ミヨシ油脂（株）専用荷揚げ場","province":"東京都","city":"葛飾区","address":"東京都葛飾区堀切4丁目66","lat":35.74979264,"lon":139.8225506},{"name":"東部地域病院","province":"東京都","city":"葛飾区","address":"東京都葛飾区亀有5丁目14-1","lat":35.7662352,"lon":139.84445332},{"name":"東京慈恵会医科大学葛飾医療センター","province":"東京都","city":"葛飾区","address":"東京都葛飾区青戸6丁目41-2","lat":35.75182053,"lon":139.85865266},{"name":"東京都保健医療公社東部地域病院","province":"東京都","city":"葛飾区","address":"東京都葛飾区亀有5丁目14-1","lat":35.7662352,"lon":139.84445332},{"name":"東京慈恵会医科大学附属青戸病院","province":"東京都","city":"葛飾区","address":"東京都葛飾区青戸6丁目41-2","lat":35.75182053,"lon":139.85865266},{"name":"東部地域病院","province":"東京都","city":"葛飾区","address":"東京都葛飾区亀有5丁目14-1","lat":35.7662352,"lon":139.84445332},{"name":"堀切緊急用船着場","province":"東京都","city":"葛飾区","address":"東京都葛飾区堀切1丁目12","lat":35.74083039,"lon":139.82605121},{"name":"柴又緊急用船着場","province":"東京都","city":"葛飾区","address":"東京都葛飾区柴又7丁目19","lat":35.75861667,"lon":139.88019269},{"name":"東立石緑地公園船着場","province":"東京都","city":"葛飾区","address":"東京都葛飾区東立石4丁目","lat":35.73627764,"lon":139.84912363},{"name":"新小岩防災船着場","province":"東京都","city":"葛飾区","address":"東京都葛飾区西新小岩1丁目1","lat":35.71611838,"lon":139.85394669},{"name":"青戸六丁目広場付近護岸","province":"東京都","city":"葛飾区","address":"東京都葛飾区青戸6丁目40","lat":35.75167333,"lon":139.85904985},{"name":"東京東部漁協荒天時避難繋船場","province":"東京都","city":"葛飾区","address":"東京都葛飾区奥戸7丁目20","lat":35.73899155,"lon":139.86218069},{"name":"第五建築事務所上平井橋係留所","province":"東京都","city":"葛飾区","address":"東京都葛飾区東四つ木1丁目1","lat":35.72488194,"lon":139.84146404},{"name":"ミヨシ油脂（株）専用荷揚げ場","province":"東京都","city":"葛飾区","address":"東京都葛飾区堀切4丁目66","lat":35.74979264,"lon":139.8225506},{"name":"東部地域病院","province":"東京都","city":"葛飾区","address":"東京都葛飾区亀有5丁目14-1","lat":35.7662352,"lon":139.84445332},{"name":"東京慈恵会医科大学葛飾医療センター","province":"東京都","city":"葛飾区","address":"東京都葛飾区青戸6丁目41-2","lat":35.75182053,"lon":139.85865266},{"name":"東京都保健医療公社東部地域病院","province":"東京都","city":"葛飾区","address":"東京都葛飾区亀有5丁目14-1","lat":35.7662352,"lon":139.84445332},{"name":"東京慈恵会医科大学附属青戸病院","province":"東京都","city":"葛飾区","address":"東京都葛飾区青戸6丁目41-2","lat":35.75182053,"lon":139.85865266},{"name":"東部地域病院","province":"東京都","city":"葛飾区","address":"東京都葛飾区亀有5丁目14-1","lat":35.7662352,"lon":139.84445332},{"name":"堀切緊急用船着場","province":"東京都","city":"葛飾区","address":"東京都葛飾区堀切1丁目12","lat":35.74083039,"lon":139.82605121},{"name":"柴又緊急用船着場","province":"東京都","city":"葛飾区","address":"東京都葛飾区柴又7丁目19","lat":35.75861667,"lon":139.88019269},{"name":"東立石緑地公園船着場","province":"東京都","city":"葛飾区","address":"東京都葛飾区東立石4丁目","lat":35.73627764,"lon":139.84912363},{"name":"新小岩防災船着場","province":"東京都","city":"葛飾区","address":"東京都葛飾区西新小岩1丁目1","lat":35.71611838,"lon":139.85394669},{"name":"青戸六丁目広場付近護岸","province":"東京都","city":"葛飾区","address":"東京都葛飾区青戸6丁目40","lat":35.75167333,"lon":139.85904985},{"name":"東京東部漁協荒天時避難繋船場","province":"東京都","city":"葛飾区","address":"東京都葛飾区奥戸7丁目20","lat":35.73899155,"lon":139.86218069},{"name":"第五建築事務所上平井橋係留所","province":"東京都","city":"葛飾区","address":"東京都葛飾区東四つ木1丁目1","lat":35.72488194,"lon":139.84146404},{"name":"ミヨシ油脂（株）専用荷揚げ場","province":"東京都","city":"葛飾区","address":"東京都葛飾区堀切4丁目66","lat":35.74979264,"lon":139.8225506},{"name":"東部地域病院","province":"東京都","city":"葛飾区","address":"東京都葛飾区亀有5丁目14-1","lat":35.7662352,"lon":139.84445332},{"name":"東京慈恵会医科大学葛飾医療センター","province":"東京都","city":"葛飾区","address":"東京都葛飾区青戸6丁目41-2","lat":35.75182053,"lon":139.85865266},{"name":"東京都保健医療公社東部地域病院","province":"東京都","city":"葛飾区","address":"東京都葛飾区亀有5丁目14-1","lat":35.7662352,"lon":139.84445332},{"name":"東京慈恵会医科大学附属青戸病院","province":"東京都","city":"葛飾区","address":"東京都葛飾区青戸6丁目41-2","lat":35.75182053,"lon":139.85865266},{"name":"東部地域病院","province":"東京都","city":"葛飾区","address":"東京都葛飾区亀有5丁目14-1","lat":35.7662352,"lon":139.84445332},{"name":"堀切緊急用船着場","province":"東京都","city":"葛飾区","address":"東京都葛飾区堀切1丁目12","lat":35.74083039,"lon":139.82605121},{"name":"柴又緊急用船着場","province":"東京都","city":"葛飾区","address":"東京都葛飾区柴又7丁目19","lat":35.75861667,"lon":139.88019269},{"name":"東立石緑地公園船着場","province":"東京都","city":"葛飾区","address":"東京都葛飾区東立石4丁目","lat":35.73627764,"lon":139.84912363},{"name":"新小岩防災船着場","province":"東京都","city":"葛飾区","address":"東京都葛飾区西新小岩1丁目1","lat":35.71611838,"lon":139.85394669},{"name":"青戸六丁目広場付近護岸","province":"東京都","city":"葛飾区","address":"東京都葛飾区青戸6丁目40","lat":35.75167333,"lon":139.85904985},{"name":"東京東部漁協荒天時避難繋船場","province":"東京都","city":"葛飾区","address":"東京都葛飾区奥戸7丁目20","lat":35.73899155,"lon":139.86218069},{"name":"第五建築事務所上平井橋係留所","province":"東京都","city":"葛飾区","address":"東京都葛飾区東四つ木1丁目1","lat":35.72488194,"lon":139.84146404},{"name":"ミヨシ油脂（株）専用荷揚げ場","province":"東京都","city":"葛飾区","address":"東京都葛飾区堀切4丁目66","lat":35.74979264,"lon":139.8225506},{"name":"東部地域病院","province":"東京都","city":"葛飾区","address":"東京都葛飾区亀有5丁目14-1","lat":35.7662352,"lon":139.84445332},{"name":"東京慈恵会医科大学葛飾医療センター","province":"東京都","city":"葛飾区","address":"東京都葛飾区青戸6丁目41-2","lat":35.75182053,"lon":139.85865266},{"name":"東京都保健医療公社東部地域病院","province":"東京都","city":"葛飾区","address":"東京都葛飾区亀有5丁目14-1","lat":35.7662352,"lon":139.84445332},{"name":"東京慈恵会医科大学附属青戸病院","province":"東京都","city":"葛飾区","address":"東京都葛飾区青戸6丁目41-2","lat":35.75182053,"lon":139.85865266},{"name":"東部地域病院","province":"東京都","city":"葛飾区","address":"東京都葛飾区亀有5丁目14-1","lat":35.7662352,"lon":139.84445332},{"name":"堀切緊急用船着場","province":"東京都","city":"葛飾区","address":"東京都葛飾区堀切1丁目12","lat":35.74083039,"lon":139.82605121},{"name":"柴又緊急用船着場","province":"東京都","city":"葛飾区","address":"東京都葛飾区柴又7丁目19","lat":35.75861667,"lon":139.88019269},{"name":"東立石緑地公園船着場","province":"東京都","city":"葛飾区","address":"東京都葛飾区東立石4丁目","lat":35.73627764,"lon":139.84912363},{"name":"新小岩防災船着場","province":"東京都","city":"葛飾区","address":"東京都葛飾区西新小岩1丁目1","lat":35.71611838,"lon":139.85394669},{"name":"青戸六丁目広場付近護岸","province":"東京都","city":"葛飾区","address":"東京都葛飾区青戸6丁目40","lat":35.75167333,"lon":139.85904985},{"name":"東京東部漁協荒天時避難繋船場","province":"東京都","city":"葛飾区","address":"東京都葛飾区奥戸7丁目20","lat":35.73899155,"lon":139.86218069},{"name":"第五建築事務所上平井橋係留所","province":"東京都","city":"葛飾区","address":"東京都葛飾区東四つ木1丁目1","lat":35.72488194,"lon":139.84146404},{"name":"ミヨシ油脂（株）専用荷揚げ場","province":"東京都","city":"葛飾区","address":"東京都葛飾区堀切4丁目66","lat":35.74979264,"lon":139.8225506},{"name":"東部地域病院","province":"東京都","city":"葛飾区","address":"東京都葛飾区亀有5丁目14-1","lat":35.7662352,"lon":139.84445332},{"name":"東京慈恵会医科大学葛飾医療センター","province":"東京都","city":"葛飾区","address":"東京都葛飾区青戸6丁目41-2","lat":35.75182053,"lon":139.85865266},{"name":"東京都保健医療公社東部地域病院","province":"東京都","city":"葛飾区","address":"東京都葛飾区亀有5丁目14-1","lat":35.7662352,"lon":139.84445332},{"name":"東京慈恵会医科大学附属青戸病院","province":"東京都","city":"葛飾区","address":"東京都葛飾区青戸6丁目41-2","lat":35.75182053,"lon":139.85865266},{"name":"東部地域病院","province":"東京都","city":"葛飾区","address":"東京都葛飾区亀有5丁目14-1","lat":35.7662352,"lon":139.84445332},{"name":"東部地域病院","province":"東京都","city":"葛飾区","address":"東京都葛飾区亀有5丁目14-1","lat":35.7662352,"lon":139.84445332},{"name":"東京慈恵会医科大学葛飾医療センター","province":"東京都","city":"葛飾区","address":"東京都葛飾区青戸6丁目41-2","lat":35.75182053,"lon":139.85865266},{"name":"東京都保健医療公社東部地域病院","province":"東京都","city":"葛飾区","address":"東京都葛飾区亀有5丁目14-1","lat":35.7662352,"lon":139.84445332},{"name":"東京慈恵会医科大学附属青戸病院","province":"東京都","city":"葛飾区","address":"東京都葛飾区青戸6丁目41-2","lat":35.75182053,"lon":139.85865266},{"name":"東部地域病院","province":"東京都","city":"葛飾区","address":"東京都葛飾区亀有5丁目14-1","lat":35.7662352,"lon":139.84445332},{"name":"東部地域病院","province":"東京都","city":"葛飾区","address":"東京都葛飾区亀有5丁目14-1","lat":35.7662352,"lon":139.84445332},{"name":"東京慈恵会医科大学葛飾医療センター","province":"東京都","city":"葛飾区","address":"東京都葛飾区青戸6丁目41-2","lat":35.75182053,"lon":139.85865266},{"name":"東京都保健医療公社東部地域病院","province":"東京都","city":"葛飾区","address":"東京都葛飾区亀有5丁目14-1","lat":35.7662352,"lon":139.84445332},{"name":"東京慈恵会医科大学附属青戸病院","province":"東京都","city":"葛飾区","address":"東京都葛飾区青戸6丁目41-2","lat":35.75182053,"lon":139.85865266},{"name":"東部地域病院","province":"東京都","city":"葛飾区","address":"東京都葛飾区亀有5丁目14-1","lat":35.7662352,"lon":139.84445332},{"name":"東部地域病院","province":"東京都","city":"葛飾区","address":"東京都葛飾区亀有5丁目14-1","lat":35.7662352,"lon":139.84445332},{"name":"東京慈恵会医科大学葛飾医療センター","province":"東京都","city":"葛飾区","address":"東京都葛飾区青戸6丁目41-2","lat":35.75182053,"lon":139.85865266},{"name":"東京都保健医療公社東部地域病院","province":"東京都","city":"葛飾区","address":"東京都葛飾区亀有5丁目14-1","lat":35.7662352,"lon":139.84445332},{"name":"東京慈恵会医科大学附属青戸病院","province":"東京都","city":"葛飾区","address":"東京都葛飾区青戸6丁目41-2","lat":35.75182053,"lon":139.85865266},{"name":"東部地域病院","province":"東京都","city":"葛飾区","address":"東京都葛飾区亀有5丁目14-1","lat":35.7662352,"lon":139.84445332},{"name":"東部地域病院","province":"東京都","city":"葛飾区","address":"東京都葛飾区亀有5丁目14-1","lat":35.7662352,"lon":139.84445332},{"name":"東京慈恵会医科大学葛飾医療センター","province":"東京都","city":"葛飾区","address":"東京都葛飾区青戸6丁目41-2","lat":35.75182053,"lon":139.85865266},{"name":"東京都保健医療公社東部地域病院","province":"東京都","city":"葛飾区","address":"東京都葛飾区亀有5丁目14-1","lat":35.7662352,"lon":139.84445332},{"name":"東京慈恵会医科大学附属青戸病院","province":"東京都","city":"葛飾区","address":"東京都葛飾区青戸6丁目41-2","lat":35.75182053,"lon":139.85865266},{"name":"東部地域病院","province":"東京都","city":"葛飾区","address":"東京都葛飾区亀有5丁目14-1","lat":35.7662352,"lon":139.84445332},{"name":"東部地域病院","province":"東京都","city":"葛飾区","address":"東京都葛飾区亀有5丁目14-1","lat":35.7662352,"lon":139.84445332},{"name":"東京慈恵会医科大学葛飾医療センター","province":"東京都","city":"葛飾区","address":"東京都葛飾区青戸6丁目41-2","lat":35.75182053,"lon":139.85865266},{"name":"東京都保健医療公社東部地域病院","province":"東京都","city":"葛飾区","address":"東京都葛飾区亀有5丁目14-1","lat":35.7662352,"lon":139.84445332},{"name":"東京慈恵会医科大学附属青戸病院","province":"東京都","city":"葛飾区","address":"東京都葛飾区青戸6丁目41-2","lat":35.75182053,"lon":139.85865266},{"name":"東部地域病院","province":"東京都","city":"葛飾区","address":"東京都葛飾区亀有5丁目14-1","lat":35.7662352,"lon":139.84445332},{"name":"東部地域病院","province":"東京都","city":"葛飾区","address":"東京都葛飾区亀有5丁目14-1","lat":35.7662352,"lon":139.84445332},{"name":"東京慈恵会医科大学葛飾医療センター","province":"東京都","city":"葛飾区","address":"東京都葛飾区青戸6丁目41-2","lat":35.75182053,"lon":139.85865266},{"name":"東京都保健医療公社東部地域病院","province":"東京都","city":"葛飾区","address":"東京都葛飾区亀有5丁目14-1","lat":35.7662352,"lon":139.84445332},{"name":"東京慈恵会医科大学附属青戸病院","province":"東京都","city":"葛飾区","address":"東京都葛飾区青戸6丁目41-2","lat":35.75182053,"lon":139.85865266},{"name":"東部地域病院","province":"東京都","city":"葛飾区","address":"東京都葛飾区亀有5丁目14-1","lat":35.7662352,"lon":139.84445332},{"name":"東部地域病院","province":"東京都","city":"葛飾区","address":"東京都葛飾区亀有5丁目14-1","lat":35.7662352,"lon":139.84445332},{"name":"東京慈恵会医科大学葛飾医療センター","province":"東京都","city":"葛飾区","address":"東京都葛飾区青戸6丁目41-2","lat":35.75182053,"lon":139.85865266},{"name":"東京都保健医療公社東部地域病院","province":"東京都","city":"葛飾区","address":"東京都葛飾区亀有5丁目14-1","lat":35.7662352,"lon":139.84445332},{"name":"東京慈恵会医科大学附属青戸病院","province":"東京都","city":"葛飾区","address":"東京都葛飾区青戸6丁目41-2","lat":35.75182053,"lon":139.85865266},{"name":"東部地域病院","province":"東京都","city":"葛飾区","address":"東京都葛飾区亀有5丁目14-1","lat":35.7662352,"lon":139.84445332},{"name":"東部地域病院","province":"東京都","city":"葛飾区","address":"東京都葛飾区亀有5丁目14-1","lat":35.7662352,"lon":139.84445332},{"name":"東京慈恵会医科大学葛飾医療センター","province":"東京都","city":"葛飾区","address":"東京都葛飾区青戸6丁目41-2","lat":35.75182053,"lon":139.85865266},{"name":"東京都保健医療公社東部地域病院","province":"東京都","city":"葛飾区","address":"東京都葛飾区亀有5丁目14-1","lat":35.7662352,"lon":139.84445332},{"name":"東京慈恵会医科大学附属青戸病院","province":"東京都","city":"葛飾区","address":"東京都葛飾区青戸6丁目41-2","lat":35.75182053,"lon":139.85865266},{"name":"東部地域病院","province":"東京都","city":"葛飾区","address":"東京都葛飾区亀有5丁目14-1","lat":35.7662352,"lon":139.84445332},{"name":"東部地域病院","province":"東京都","city":"葛飾区","address":"東京都葛飾区亀有5丁目14-1","lat":35.7662352,"lon":139.84445332},{"name":"東京慈恵会医科大学葛飾医療センター","province":"東京都","city":"葛飾区","address":"東京都葛飾区青戸6丁目41-2","lat":35.75182053,"lon":139.85865266},{"name":"東京都保健医療公社東部地域病院","province":"東京都","city":"葛飾区","address":"東京都葛飾区亀有5丁目14-1","lat":35.7662352,"lon":139.84445332},{"name":"東京慈恵会医科大学附属青戸病院","province":"東京都","city":"葛飾区","address":"東京都葛飾区青戸6丁目41-2","lat":35.75182053,"lon":139.85865266},{"name":"東部地域病院","province":"東京都","city":"葛飾区","address":"東京都葛飾区亀有5丁目14-1","lat":35.7662352,"lon":139.84445332},{"name":"東部地域病院","province":"東京都","city":"葛飾区","address":"東京都葛飾区亀有5丁目14-1","lat":35.7662352,"lon":139.84445332},{"name":"東京慈恵会医科大学葛飾医療センター","province":"東京都","city":"葛飾区","address":"東京都葛飾区青戸6丁目41-2","lat":35.75182053,"lon":139.85865266},{"name":"東京都保健医療公社東部地域病院","province":"東京都","city":"葛飾区","address":"東京都葛飾区亀有5丁目14-1","lat":35.7662352,"lon":139.84445332},{"name":"東京慈恵会医科大学附属青戸病院","province":"東京都","city":"葛飾区","address":"東京都葛飾区青戸6丁目41-2","lat":35.75182053,"lon":139.85865266},{"name":"東部地域病院","province":"東京都","city":"葛飾区","address":"東京都葛飾区亀有5丁目14-1","lat":35.7662352,"lon":139.84445332},{"name":"東部地域病院","province":"東京都","city":"葛飾区","address":"東京都葛飾区亀有5丁目14-1","lat":35.7662352,"lon":139.84445332},{"name":"東京慈恵会医科大学葛飾医療センター","province":"東京都","city":"葛飾区","address":"東京都葛飾区青戸6丁目41-2","lat":35.75182053,"lon":139.85865266},{"name":"東京都保健医療公社東部地域病院","province":"東京都","city":"葛飾区","address":"東京都葛飾区亀有5丁目14-1","lat":35.7662352,"lon":139.84445332},{"name":"東京慈恵会医科大学附属青戸病院","province":"東京都","city":"葛飾区","address":"東京都葛飾区青戸6丁目41-2","lat":35.75182053,"lon":139.85865266},{"name":"東部地域病院","province":"東京都","city":"葛飾区","address":"東京都葛飾区亀有5丁目14-1","lat":35.7662352,"lon":139.84445332},{"name":"東部地域病院","province":"東京都","city":"葛飾区","address":"東京都葛飾区亀有5丁目14-1","lat":35.7662352,"lon":139.84445332},{"name":"東京慈恵会医科大学葛飾医療センター","province":"東京都","city":"葛飾区","address":"東京都葛飾区青戸6丁目41-2","lat":35.75182053,"lon":139.85865266},{"name":"東京都保健医療公社東部地域病院","province":"東京都","city":"葛飾区","address":"東京都葛飾区亀有5丁目14-1","lat":35.7662352,"lon":139.84445332},{"name":"東京慈恵会医科大学附属青戸病院","province":"東京都","city":"葛飾区","address":"東京都葛飾区青戸6丁目41-2","lat":35.75182053,"lon":139.85865266},{"name":"東部地域病院","province":"東京都","city":"葛飾区","address":"東京都葛飾区亀有5丁目14-1","lat":35.7662352,"lon":139.84445332}]}