{"keyword":"保育","data":[{"name":"小菅保育園","province":"東京都","city":"葛飾区","address":"葛飾区小菅2-19-13","lat":35.750481,"lon":139.826206},{"name":"小菅東保育園","province":"東京都","city":"葛飾区","address":"葛飾区小菅3-10-32","lat":35.755136,"lon":139.8248},{"name":"葛飾学園","province":"東京都","city":"葛飾区","address":"葛飾区西亀有2-35-3","lat":35.76138,"lon":139.834477},{"name":"そらまめ保育園　お花茶屋駅前","province":"東京都","city":"葛飾区","address":"葛飾区お花茶屋1-19-5","lat":35.748235,"lon":139.839818},{"name":"双葉保育園","province":"東京都","city":"葛飾区","address":"葛飾区東堀切1-15-16","lat":35.748837,"lon":139.83558},{"name":"東堀切保育園","province":"東京都","city":"葛飾区","address":"葛飾区東堀切2-20-8","lat":35.751507,"lon":139.83508},{"name":"宝保育園","province":"東京都","city":"葛飾区","address":"葛飾区宝町1-12-10","lat":35.742222,"lon":139.8376},{"name":"黎明保育園","province":"東京都","city":"葛飾区","address":"葛飾区堀切3-30-12","lat":35.745385,"lon":139.833172},{"name":"かつしか堀切保育園","province":"東京都","city":"葛飾区","address":"葛飾区堀切7-8-3","lat":35.754359,"lon":139.830019},{"name":"南堀切保育園","province":"東京都","city":"葛飾区","address":"葛飾区堀切1-23-3","lat":35.740131,"lon":139.829543},{"name":"堀切保育園","province":"東京都","city":"葛飾区","address":"葛飾区堀切1-9-18","lat":35.740139,"lon":139.828026},{"name":"小谷野しょうぶ保育園","province":"東京都","city":"葛飾区","address":"葛飾区堀切4-60-1","lat":35.749551,"lon":139.82627},{"name":"うぃず堀切菖蒲園駅前保育園","province":"東京都","city":"葛飾区","address":"葛飾区堀切2-56-13","lat":35.745743,"lon":139.8291},{"name":"たけのこ第２保育園","province":"東京都","city":"葛飾区","address":"葛飾区堀切8-5-7","lat":35.757486,"lon":139.832319},{"name":"四つ木なかよし保育園","province":"東京都","city":"葛飾区","address":"葛飾区四つ木5-13-16","lat":35.742099,"lon":139.840499},{"name":"四つ木保育園","province":"東京都","city":"葛飾区","address":"葛飾区四つ木3-5-6","lat":35.737703,"lon":139.830559},{"name":"ベネッセ四ツ木保育園","province":"東京都","city":"葛飾区","address":"葛飾区四つ木4-1-4","lat":35.735645,"lon":139.833217},{"name":"かつしか風の子保育園","province":"東京都","city":"葛飾区","address":"葛飾区立石8-18-7","lat":35.742119,"lon":139.853765},{"name":"梅田保育園","province":"東京都","city":"葛飾区","address":"葛飾区立石3-26-10","lat":35.741097,"lon":139.845377},{"name":"立石駅前保育園","province":"東京都","city":"葛飾区","address":"葛飾区立石4-23-17","lat":35.738494,"lon":139.848124},{"name":"本田こひつじ保育園","province":"東京都","city":"葛飾区","address":"葛飾区立石1-4-10","lat":35.736744,"lon":139.842883},{"name":"立石いろは保育園","province":"東京都","city":"葛飾区","address":"葛飾区立石2-31-17","lat":35.739539,"lon":139.842258},{"name":"東立石こひつじ保育園","province":"東京都","city":"葛飾区","address":"葛飾区東立石3-14-12","lat":35.735931,"lon":139.844977},{"name":"東立石保育園","province":"東京都","city":"葛飾区","address":"葛飾区東立石4-45-5","lat":35.736794,"lon":139.850901},{"name":"ほっぺるランド東立石","province":"東京都","city":"葛飾区","address":"葛飾区東立石2-3-10","lat":35.733475,"lon":139.84436},{"name":"こひつじ保育園","province":"東京都","city":"葛飾区","address":"葛飾区東四つ木3-6-12","lat":35.729301,"lon":139.839209},{"name":"木根川保育園","province":"東京都","city":"葛飾区","address":"葛飾区東四つ木1-18-12","lat":35.728707,"lon":139.841875},{"name":"渋江保育園","province":"東京都","city":"葛飾区","address":"葛飾区東四つ木2-15-11","lat":35.730865,"lon":139.843677},{"name":"ひまわり保育園","province":"東京都","city":"葛飾区","address":"葛飾区細田3-9-26","lat":35.745199,"lon":139.866472},{"name":"日の出保育園","province":"東京都","city":"葛飾区","address":"葛飾区細田5-24-1","lat":35.740572,"lon":139.875082},{"name":"細田保育園","province":"東京都","city":"葛飾区","address":"葛飾区細田4-19-5","lat":35.742844,"lon":139.871855},{"name":"奥戸保育園","province":"東京都","city":"葛飾区","address":"葛飾区奥戸6-24-1","lat":35.730129,"lon":139.869772},{"name":"南奥戸保育園","province":"東京都","city":"葛飾区","address":"葛飾区奥戸2-30-11","lat":35.733698,"lon":139.859895},{"name":"会野保育園","province":"東京都","city":"葛飾区","address":"葛飾区奥戸5-23-7","lat":35.730531,"lon":139.8651},{"name":"グローバルキッズ奥戸園","province":"東京都","city":"葛飾区","address":"葛飾区奥戸8-2-4","lat":35.734745,"lon":139.867422},{"name":"かみこまつ保育園","province":"東京都","city":"葛飾区","address":"葛飾区東新小岩3-14-1","lat":35.723651,"lon":139.861937},{"name":"東新小岩保育園","province":"東京都","city":"葛飾区","address":"葛飾区東新小岩4-7-13","lat":35.727832,"lon":139.861767},{"name":"二上保育園","province":"東京都","city":"葛飾区","address":"葛飾区東新小岩7-17-3","lat":35.724212,"lon":139.854524},{"name":"グローバルキッズ東新小岩園","province":"東京都","city":"葛飾区","address":"葛飾区東新小岩3-3-13","lat":35.720968,"lon":139.858602},{"name":"小松保育園","province":"東京都","city":"葛飾区","address":"葛飾区新小岩2-14-9","lat":35.715508,"lon":139.862532},{"name":"新小岩保育園","province":"東京都","city":"葛飾区","address":"葛飾区新小岩3-25-1","lat":35.713228,"lon":139.866457},{"name":"うらら保育園","province":"東京都","city":"葛飾区","address":"葛飾区西新小岩3-37-27","lat":35.722746,"lon":139.846816},{"name":"上平井保育園","province":"東京都","city":"葛飾区","address":"葛飾区西新小岩4-33-10","lat":35.718713,"lon":139.853224},{"name":"西新小岩保育園","province":"東京都","city":"葛飾区","address":"葛飾区西新小岩3-21-7","lat":35.721115,"lon":139.848586},{"name":"たつみ保育園","province":"東京都","city":"葛飾区","address":"葛飾区西新小岩2-1-3","lat":35.717354,"lon":139.851313},{"name":"ゆめの樹保育園しんこいわ","province":"東京都","city":"葛飾区","address":"葛飾区西新小岩5-30-6","lat":35.723598,"lon":139.851155},{"name":"ほっぺるランド西新小岩","province":"東京都","city":"葛飾区","address":"葛飾区西新小岩3-14-18","lat":35.720026,"lon":139.849766},{"name":"砂原保育園","province":"東京都","city":"葛飾区","address":"葛飾区西亀有4-8-19","lat":35.764708,"lon":139.839126},{"name":"西亀有保育園","province":"東京都","city":"葛飾区","address":"葛飾区西亀有3-31-9","lat":35.760953,"lon":139.840571},{"name":"にじいろ保育園西亀有","province":"東京都","city":"葛飾区","address":"葛飾区西亀有3-25-11","lat":35.763583,"lon":139.839257},{"name":"幸田保育園","province":"東京都","city":"葛飾区","address":"葛飾区西水元2-16-10","lat":35.786074,"lon":139.851336},{"name":"さかえ保育園","province":"東京都","city":"葛飾区","address":"葛飾区水元3-11-8","lat":35.781266,"lon":139.863721},{"name":"徳育保育園","province":"東京都","city":"葛飾区","address":"葛飾区水元1-26-3","lat":35.783627,"lon":139.859049},{"name":"そあ保育園","province":"東京都","city":"葛飾区","address":"葛飾区水元3-13-20","lat":35.782475,"lon":139.86461},{"name":"あおぞら水元保育園","province":"東京都","city":"葛飾区","address":"葛飾区水元1-12-14","lat":35.782264,"lon":139.854497},{"name":"こばとの森保育園","province":"東京都","city":"葛飾区","address":"葛飾区東水元1-16-2","lat":35.776195,"lon":139.869354},{"name":"新水元保育園","province":"東京都","city":"葛飾区","address":"葛飾区東水元3-5-7","lat":35.784191,"lon":139.866129},{"name":"水元保育園","province":"東京都","city":"葛飾区","address":"葛飾区南水元4-18-11","lat":35.780666,"lon":139.86601},{"name":"小合保育園","province":"東京都","city":"葛飾区","address":"葛飾区南水元3-3-11","lat":35.7768,"lon":139.863579},{"name":"花の木保育園","province":"東京都","city":"葛飾区","address":"葛飾区南水元3-7-2","lat":35.77404,"lon":139.865752},{"name":"にじいろ保育園南水元","province":"東京都","city":"葛飾区","address":"葛飾区南水元1-12-6","lat":35.776748,"lon":139.857163},{"name":"金町保育園","province":"東京都","city":"葛飾区","address":"葛飾区東金町3-36-15","lat":35.773709,"lon":139.873068},{"name":"金町ひまわり保育園","province":"東京都","city":"葛飾区","address":"葛飾区東金町1-3-1","lat":35.770907,"lon":139.865438},{"name":"東かなまち保育園","province":"東京都","city":"葛飾区","address":"葛飾区東金町2-13-10","lat":35.774964,"lon":139.868462},{"name":"亀が岡保育園","province":"東京都","city":"葛飾区","address":"葛飾区東金町1-9-7","lat":35.76954,"lon":139.865685},{"name":"半田保育園","province":"東京都","city":"葛飾区","address":"葛飾区東金町4-34-12","lat":35.776209,"lon":139.875156},{"name":"東半田保育園","province":"東京都","city":"葛飾区","address":"葛飾区東金町5-28-1","lat":35.777631,"lon":139.877515},{"name":"金町どんぐり保育園","province":"東京都","city":"葛飾区","address":"葛飾区東金町1-14-5","lat":35.771123,"lon":139.867707},{"name":"かなまち虹保育園","province":"東京都","city":"葛飾区","address":"葛飾区金町4ー20-13","lat":35.765613,"lon":139.865813},{"name":"京成金町プチ・クレイシュ","province":"東京都","city":"葛飾区","address":"葛飾区金町5-37-6","lat":35.768657,"lon":139.870171},{"name":"金町駅前さくらんぼ保育園","province":"東京都","city":"葛飾区","address":"葛飾区金町6-4-1金町木下ビル2階","lat":35.768985,"lon":139.869632},{"name":"新宿保育園","province":"東京都","city":"葛飾区","address":"葛飾区新宿4-4-16","lat":35.762819,"lon":139.859769},{"name":"山王保育園","province":"東京都","city":"葛飾区","address":"葛飾区新宿2-2-19","lat":35.760242,"lon":139.856461},{"name":"南新宿保育園","province":"東京都","city":"葛飾区","address":"葛飾区新宿1-23-4","lat":35.760481,"lon":139.860985},{"name":"トレジャーキッズにいじゅく保育園","province":"東京都","city":"葛飾区","address":"葛飾区新宿3-27-8","lat":35.759061,"lon":139.865896},{"name":"柴又学園","province":"東京都","city":"葛飾区","address":"葛飾区柴又4-5-14","lat":35.753948,"lon":139.874174},{"name":"ひかり学園","province":"東京都","city":"葛飾区","address":"葛飾区柴又6-19-1","lat":35.755653,"lon":139.879368},{"name":"北野保育園","province":"東京都","city":"葛飾区","address":"葛飾区柴又2-2-9","lat":35.757234,"lon":139.869113},{"name":"白鷺保育園","province":"東京都","city":"葛飾区","address":"葛飾区柴又3-30-9","lat":35.758728,"lon":139.874985},{"name":"まなびの森保育園新柴又","province":"東京都","city":"葛飾区","address":"葛飾区柴又5-13-3","lat":35.751543,"lon":139.88029},{"name":"鎌倉保育園","province":"東京都","city":"葛飾区","address":"葛飾区鎌倉3-39-15","lat":35.747835,"lon":139.879493},{"name":"南鎌倉保育園","province":"東京都","city":"葛飾区","address":"葛飾区鎌倉2-17-4","lat":35.744652,"lon":139.876163},{"name":"たかさご保育園","province":"東京都","city":"葛飾区","address":"葛飾区高砂5-48-4","lat":35.75257,"lon":139.869463},{"name":"きぼう保育園","province":"東京都","city":"葛飾区","address":"葛飾区高砂2-3-7","lat":35.746338,"lon":139.86535},{"name":"東中川保育園","province":"東京都","city":"葛飾区","address":"葛飾区高砂6-4-15","lat":35.753881,"lon":139.861675},{"name":"住吉保育園","province":"東京都","city":"葛飾区","address":"葛飾区高砂7-26-3","lat":35.756995,"lon":139.867121},{"name":"新高砂保育園","province":"東京都","city":"葛飾区","address":"葛飾区高砂4-1-49","lat":35.745369,"lon":139.871419},{"name":"亀有保育園","province":"東京都","city":"葛飾区","address":"葛飾区亀有3-38-9","lat":35.764199,"lon":139.850714},{"name":"さくら学園保育所","province":"東京都","city":"葛飾区","address":"葛飾区亀有1-27-2","lat":35.762333,"lon":139.846353},{"name":"亀青保育園","province":"東京都","city":"葛飾区","address":"葛飾区亀有2-32-28","lat":35.759725,"lon":139.849031},{"name":"亀有りりおっこ保育園","province":"東京都","city":"葛飾区","address":"葛飾区亀有3-16-5","lat":35.764044,"lon":139.848375},{"name":"道上保育園","province":"東京都","city":"葛飾区","address":"葛飾区亀有4-24-11","lat":35.762202,"lon":139.843209},{"name":"まなびの森保育園亀有","province":"東京都","city":"葛飾区","address":"葛飾区亀有1-12-22","lat":35.758164,"lon":139.846945},{"name":"さゆり保育園","province":"東京都","city":"葛飾区","address":"葛飾区青戸1-24-10","lat":35.741144,"lon":139.85702},{"name":"青戸福祉保育園","province":"東京都","city":"葛飾区","address":"葛飾区青戸3-13-25","lat":35.74704,"lon":139.849926},{"name":"青戸もも保育園","province":"東京都","city":"葛飾区","address":"葛飾区青戸4-23-1","lat":35.749096,"lon":139.851945},{"name":"太陽の子青戸中央保育園","province":"東京都","city":"葛飾区","address":"葛飾区青戸4-24-20","lat":35.750576,"lon":139.852406},{"name":"青戸保育園","province":"東京都","city":"葛飾区","address":"葛飾区青戸5-9-10","lat":35.751932,"lon":139.853367},{"name":"中青戸保育園","province":"東京都","city":"葛飾区","address":"葛飾区青戸3-8-8","lat":35.746588,"lon":139.848165},{"name":"キャンディパーク保育園２号","province":"東京都","city":"葛飾区","address":"葛飾区青戸1-10-10","lat":35.745085,"lon":139.856564},{"name":"こはるび保育園","province":"東京都","city":"葛飾区","address":"葛飾区青戸7-34-6","lat":35.756228,"lon":139.856919},{"name":"白鳥ふたば保育園","province":"東京都","city":"葛飾区","address":"葛飾区白鳥3-29-16","lat":35.754148,"lon":139.844587},{"name":"白鳥保育園","province":"東京都","city":"葛飾区","address":"葛飾区白鳥3-32-6","lat":35.75555,"lon":139.844095},{"name":"南白鳥保育園","province":"東京都","city":"葛飾区","address":"葛飾区白鳥3-2-1","lat":35.750848,"lon":139.842937}]}