{"keyword":"再生","data":[{"name":"(有)小宮山商店","province":"東京都","city":"葛飾区","address":"葛飾区白鳥1-10-3","lat":35.745934,"lon":139.844315},{"name":"(株)増田商店","province":"東京都","city":"葛飾区","address":"葛飾区立石2-23-17","lat":35.737736,"lon":139.841599},{"name":"(株)樽味商会","province":"東京都","city":"葛飾区","address":"葛飾区小菅2-8-17","lat":35.750664,"lon":139.82431},{"name":"(株)真田","province":"東京都","city":"葛飾区","address":"葛飾区東新小岩4-20-8","lat":35.725346,"lon":139.864441},{"name":"(株)宮永兄弟商会","province":"東京都","city":"葛飾区","address":"葛飾区四つ木5-6-13","lat":35.740955,"lon":139.838882},{"name":"(有)石橋商店","province":"東京都","city":"葛飾区","address":"葛飾区白鳥2-3-18","lat":35.749783,"lon":139.843201},{"name":"(株)山室  葛飾店","province":"東京都","city":"葛飾区","address":"葛飾区奥戸3-10-4","lat":35.734444,"lon":139.862885},{"name":"(有)丸正鉄工","province":"東京都","city":"葛飾区","address":"葛飾区南水元2-21-10","lat":35.779621,"lon":139.857758},{"name":"(株)環境整備  リサイクルセンター","province":"東京都","city":"葛飾区","address":"葛飾区宝町2-18-5","lat":35.745907,"lon":139.837112},{"name":"(株)山勝","province":"東京都","city":"葛飾区","address":"葛飾区奥戸6-20-4","lat":35.731319,"lon":139.869812},{"name":"小岩興業(株)","province":"東京都","city":"葛飾区","address":"葛飾区奥戸8-13-4","lat":35.735939,"lon":139.865829},{"name":"高嶺清掃(株)","province":"東京都","city":"葛飾区","address":"葛飾区東立石3-5-1","lat":35.734726,"lon":139.843094},{"name":"(株)赤松商店","province":"東京都","city":"葛飾区","address":"葛飾区堀切4-7-8","lat":35.745815,"lon":139.825226}]}