{"keyword":"区","data":[{"name":"葛飾区保健所（地域保健課）","province":"東京都","city":"葛飾区","address":"葛飾区青戸4-15-14","lat":35.751567,"lon":139.850589},{"name":"葛飾区保健所（生活衛生課）","province":"東京都","city":"葛飾区","address":"葛飾区青戸4-15-14","lat":35.751567,"lon":139.850589},{"name":"葛飾区保健所（健康づくり課）","province":"東京都","city":"葛飾区","address":"葛飾区青戸4-15-14","lat":35.751567,"lon":139.850589},{"name":"葛飾区保健所（保健予防課）","province":"東京都","city":"葛飾区","address":"葛飾区青戸4-15-14","lat":35.751567,"lon":139.850589},{"name":"青戸保健センター","province":"東京都","city":"葛飾区","address":"葛飾区青戸4-15-14","lat":35.751567,"lon":139.850589},{"name":"金町保健センター","province":"東京都","city":"葛飾区","address":"葛飾区金町4-18-19","lat":35.764635,"lon":139.865057},{"name":"新小岩保健センター","province":"東京都","city":"葛飾区","address":"葛飾区西新小岩4-21-12","lat":35.721687,"lon":139.852227},{"name":"水元保健センター","province":"東京都","city":"葛飾区","address":"葛飾区東水元1-7-3","lat":35.778847,"lon":139.867526},{"name":"葛飾区保健所（地域保健課）","province":"東京都","city":"葛飾区","address":"東京都葛飾区青戸4丁目15-14","lat":35.75147327,"lon":139.8505256},{"name":"葛飾区保健所（生活衛生課）","province":"東京都","city":"葛飾区","address":"東京都葛飾区青戸4丁目15-14","lat":35.75147327,"lon":139.8505256},{"name":"葛飾区保健所（健康推進課）","province":"東京都","city":"葛飾区","address":"東京都葛飾区青戸4丁目15-14","lat":35.75147327,"lon":139.8505256},{"name":"葛飾区保健所（保健予防課）","province":"東京都","city":"葛飾区","address":"東京都葛飾区青戸4丁目15-14","lat":35.75147327,"lon":139.8505256},{"name":"青戸保健センター","province":"東京都","city":"葛飾区","address":"東京都葛飾区青戸4丁目15-14","lat":35.75147327,"lon":139.8505256},{"name":"金町保健センター","province":"東京都","city":"葛飾区","address":"東京都葛飾区金町4丁目18-19","lat":35.76463548,"lon":139.86505735},{"name":"新小岩保健センター","province":"東京都","city":"葛飾区","address":"東京都葛飾区西新小岩4丁目33-2","lat":35.71900154,"lon":139.85337431},{"name":"水元保健センター","province":"東京都","city":"葛飾区","address":"東京都葛飾区東水元1丁目7-3","lat":35.77884728,"lon":139.8675263},{"name":"葛飾区保健所（地域保健課）","province":"東京都","city":"葛飾区","address":"葛飾区青戸4-15-14","lat":35.75141,"lon":139.85063},{"name":"葛飾区保健所（生活衛生課）","province":"東京都","city":"葛飾区","address":"葛飾区青戸4-15-14","lat":35.75141,"lon":139.85063},{"name":"葛飾区保健所（健康づくり課）","province":"東京都","city":"葛飾区","address":"葛飾区青戸4-15-14","lat":35.75141,"lon":139.85063},{"name":"葛飾区保健所（保健予防課）","province":"東京都","city":"葛飾区","address":"葛飾区青戸4-15-14","lat":35.75141,"lon":139.85063},{"name":"青戸保健センター","province":"東京都","city":"葛飾区","address":"葛飾区青戸4-15-14","lat":35.75141,"lon":139.85063},{"name":"金町保健センター","province":"東京都","city":"葛飾区","address":"葛飾区金町4-18-19","lat":35.76478,"lon":139.86496},{"name":"新小岩保健センター","province":"東京都","city":"葛飾区","address":"葛飾区西新小岩4-33-2","lat":35.71869,"lon":139.85342},{"name":"水元保健センター","province":"東京都","city":"葛飾区","address":"葛飾区東水元1-7-3","lat":35.77879,"lon":139.86784},{"name":"新小岩保健センター","province":"東京都","city":"葛飾区","address":"葛飾区西新小岩4-21-12","lat":35.72127,"lon":139.85213}]}