{"keyword":"収蔵","data":[{"name":"金町浄水場","province":"東京都","city":"葛飾区","address":"東京都葛飾区金町浄水場1-1","lat":35.7625165,"lon":139.878351},{"name":"水元給水所（都立水元公園内自由広場）","province":"東京都","city":"葛飾区","address":"東京都葛飾区水元公園4","lat":35.7933213,"lon":139.862382},{"name":"区立上干葉公園","province":"東京都","city":"葛飾区","address":"東京都葛飾区東堀切3-25-1","lat":35.7549733,"lon":139.839038},{"name":"区立新小岩公園","province":"東京都","city":"葛飾区","address":"東京都葛飾区西新小岩1-1-3","lat":35.7158814,"lon":139.8550625},{"name":"区立渋江東公園","province":"東京都","city":"葛飾区","address":"東京都葛飾区東四つ木2-15","lat":35.7307623,"lon":139.843497},{"name":"西新小岩","province":"東京都","city":"葛飾区","address":"東京都葛飾区西新小岩2丁目1","lat":35.71722108,"lon":139.85294947},{"name":"葛飾区","province":"東京都","city":"葛飾区","address":"東京都葛飾区立石5丁目13-1","lat":35.7429853,"lon":139.84740682},{"name":"東京慈恵会医科大学葛飾医療センター","province":"東京都","city":"葛飾区","address":"東京都葛飾区青戸6丁目41-2","lat":35.75182053,"lon":139.85865266},{"name":"東京都保健医療公社東部地域病院","province":"東京都","city":"葛飾区","address":"東京都葛飾区亀有5丁目14-1","lat":35.7662352,"lon":139.84445332},{"name":"金町浄水場","province":"東京都","city":"葛飾区","address":"東京都葛飾区金町浄水場1-1","lat":35.76233004,"lon":139.87836494},{"name":"水元給水所（都立水元公園内自由広場）","province":"東京都","city":"葛飾区","address":"東京都葛飾区水元公園4","lat":35.79240643,"lon":139.86812312},{"name":"区立上千葉公園","province":"東京都","city":"葛飾区","address":"東京都葛飾区東堀切3丁目25-1","lat":35.75497273,"lon":139.83903761},{"name":"区立新小岩公園","province":"東京都","city":"葛飾区","address":"東京都葛飾区西新小岩1丁目1-3","lat":35.71611839,"lon":139.85476607},{"name":"区立渋江東公園","province":"東京都","city":"葛飾区","address":"東京都葛飾区東四つ木2丁目15","lat":35.73076194,"lon":139.8434969},{"name":"東京慈恵会医科大学附属青戸病院","province":"東京都","city":"葛飾区","address":"東京都葛飾区青戸6丁目41-2","lat":35.75182053,"lon":139.85865266},{"name":"東部地域病院","province":"東京都","city":"葛飾区","address":"東京都葛飾区亀有5丁目14-1","lat":35.7662352,"lon":139.84445332},{"name":"葛飾区立総合スポーツセンター陸上競技場","province":"東京都","city":"葛飾区","address":"東京都葛飾区奥戸7丁目17-1","lat":35.73772504,"lon":139.86210297},{"name":"都立水元公園駐車場","province":"東京都","city":"葛飾区","address":"東京都葛飾区水元公園4","lat":35.79240643,"lon":139.86812312},{"name":"都立水元公園多目的広場","province":"東京都","city":"葛飾区","address":"東京都葛飾区東金町8丁目31","lat":35.78263806,"lon":139.88528344},{"name":"葛飾区立柴又公園（矢切の渡し）","province":"東京都","city":"葛飾区","address":"東京都葛飾区柴又7丁目","lat":35.75767798,"lon":139.87675403},{"name":"新四つ木橋地区東岸","province":"東京都","city":"葛飾区","address":"東京都葛飾区東四つ木3丁目","lat":35.73102085,"lon":139.83684505},{"name":"葛飾区立奥戸運動場","province":"東京都","city":"葛飾区","address":"東京都葛飾区高砂1丁目","lat":35.74382707,"lon":139.86149721},{"name":"葛飾区立新小岩公園","province":"東京都","city":"葛飾区","address":"東京都葛飾区西新小岩1丁目1-3","lat":35.71611839,"lon":139.85476607},{"name":"西新小岩倉庫","province":"東京都","city":"葛飾区","address":"東京都葛飾区西新小岩2丁目1","lat":35.71722108,"lon":139.85294947},{"name":"※葛飾区役所","province":"東京都","city":"葛飾区","address":"東京都葛飾区立石5丁目13-1","lat":35.7429853,"lon":139.84740682},{"name":"金町浄水場","province":"東京都","city":"葛飾区","address":"東京都葛飾区金町浄水場1-1","lat":35.7625165,"lon":139.878351},{"name":"水元給水所（都立水元公園内自由広場）","province":"東京都","city":"葛飾区","address":"東京都葛飾区水元公園4","lat":35.7933213,"lon":139.862382},{"name":"区立上干葉公園","province":"東京都","city":"葛飾区","address":"東京都葛飾区東堀切3-25-1","lat":35.7549733,"lon":139.839038},{"name":"区立新小岩公園","province":"東京都","city":"葛飾区","address":"東京都葛飾区西新小岩1-1-3","lat":35.7158814,"lon":139.8550625},{"name":"区立渋江東公園","province":"東京都","city":"葛飾区","address":"東京都葛飾区東四つ木2-15","lat":35.7307623,"lon":139.843497},{"name":"西新小岩","province":"東京都","city":"葛飾区","address":"東京都葛飾区西新小岩2丁目1","lat":35.71722108,"lon":139.85294947},{"name":"葛飾区","province":"東京都","city":"葛飾区","address":"東京都葛飾区立石5丁目13-1","lat":35.7429853,"lon":139.84740682},{"name":"東京慈恵会医科大学葛飾医療センター","province":"東京都","city":"葛飾区","address":"東京都葛飾区青戸6丁目41-2","lat":35.75182053,"lon":139.85865266},{"name":"東京都保健医療公社東部地域病院","province":"東京都","city":"葛飾区","address":"東京都葛飾区亀有5丁目14-1","lat":35.7662352,"lon":139.84445332},{"name":"金町浄水場","province":"東京都","city":"葛飾区","address":"東京都葛飾区金町浄水場1-1","lat":35.76233004,"lon":139.87836494},{"name":"水元給水所（都立水元公園内自由広場）","province":"東京都","city":"葛飾区","address":"東京都葛飾区水元公園4","lat":35.79240643,"lon":139.86812312},{"name":"区立上千葉公園","province":"東京都","city":"葛飾区","address":"東京都葛飾区東堀切3丁目25-1","lat":35.75497273,"lon":139.83903761},{"name":"区立新小岩公園","province":"東京都","city":"葛飾区","address":"東京都葛飾区西新小岩1丁目1-3","lat":35.71611839,"lon":139.85476607},{"name":"区立渋江東公園","province":"東京都","city":"葛飾区","address":"東京都葛飾区東四つ木2丁目15","lat":35.73076194,"lon":139.8434969},{"name":"東京慈恵会医科大学附属青戸病院","province":"東京都","city":"葛飾区","address":"東京都葛飾区青戸6丁目41-2","lat":35.75182053,"lon":139.85865266},{"name":"東部地域病院","province":"東京都","city":"葛飾区","address":"東京都葛飾区亀有5丁目14-1","lat":35.7662352,"lon":139.84445332},{"name":"葛飾区立総合スポーツセンター陸上競技場","province":"東京都","city":"葛飾区","address":"東京都葛飾区奥戸7丁目17-1","lat":35.73772504,"lon":139.86210297},{"name":"都立水元公園駐車場","province":"東京都","city":"葛飾区","address":"東京都葛飾区水元公園4","lat":35.79240643,"lon":139.86812312},{"name":"都立水元公園多目的広場","province":"東京都","city":"葛飾区","address":"東京都葛飾区東金町8丁目31","lat":35.78263806,"lon":139.88528344},{"name":"葛飾区立柴又公園（矢切の渡し）","province":"東京都","city":"葛飾区","address":"東京都葛飾区柴又7丁目","lat":35.75767798,"lon":139.87675403},{"name":"新四つ木橋地区東岸","province":"東京都","city":"葛飾区","address":"東京都葛飾区東四つ木3丁目","lat":35.73102085,"lon":139.83684505},{"name":"葛飾区立奥戸運動場","province":"東京都","city":"葛飾区","address":"東京都葛飾区高砂1丁目","lat":35.74382707,"lon":139.86149721},{"name":"葛飾区立新小岩公園","province":"東京都","city":"葛飾区","address":"東京都葛飾区西新小岩1丁目1-3","lat":35.71611839,"lon":139.85476607},{"name":"西新小岩倉庫","province":"東京都","city":"葛飾区","address":"東京都葛飾区西新小岩2丁目1","lat":35.71722108,"lon":139.85294947},{"name":"※葛飾区役所","province":"東京都","city":"葛飾区","address":"東京都葛飾区立石5丁目13-1","lat":35.7429853,"lon":139.84740682},{"name":"金町浄水場","province":"東京都","city":"葛飾区","address":"東京都葛飾区金町浄水場1-1","lat":35.7625165,"lon":139.878351},{"name":"水元給水所（都立水元公園内自由広場）","province":"東京都","city":"葛飾区","address":"東京都葛飾区水元公園4","lat":35.7933213,"lon":139.862382},{"name":"区立上干葉公園","province":"東京都","city":"葛飾区","address":"東京都葛飾区東堀切3-25-1","lat":35.7549733,"lon":139.839038},{"name":"区立新小岩公園","province":"東京都","city":"葛飾区","address":"東京都葛飾区西新小岩1-1-3","lat":35.7158814,"lon":139.8550625},{"name":"区立渋江東公園","province":"東京都","city":"葛飾区","address":"東京都葛飾区東四つ木2-15","lat":35.7307623,"lon":139.843497},{"name":"西新小岩","province":"東京都","city":"葛飾区","address":"東京都葛飾区西新小岩2丁目1","lat":35.71722108,"lon":139.85294947},{"name":"葛飾区","province":"東京都","city":"葛飾区","address":"東京都葛飾区立石5丁目13-1","lat":35.7429853,"lon":139.84740682},{"name":"東京慈恵会医科大学葛飾医療センター","province":"東京都","city":"葛飾区","address":"東京都葛飾区青戸6丁目41-2","lat":35.75182053,"lon":139.85865266},{"name":"東京都保健医療公社東部地域病院","province":"東京都","city":"葛飾区","address":"東京都葛飾区亀有5丁目14-1","lat":35.7662352,"lon":139.84445332},{"name":"金町浄水場","province":"東京都","city":"葛飾区","address":"東京都葛飾区金町浄水場1-1","lat":35.76233004,"lon":139.87836494},{"name":"水元給水所（都立水元公園内自由広場）","province":"東京都","city":"葛飾区","address":"東京都葛飾区水元公園4","lat":35.79240643,"lon":139.86812312},{"name":"区立上千葉公園","province":"東京都","city":"葛飾区","address":"東京都葛飾区東堀切3丁目25-1","lat":35.75497273,"lon":139.83903761},{"name":"区立新小岩公園","province":"東京都","city":"葛飾区","address":"東京都葛飾区西新小岩1丁目1-3","lat":35.71611839,"lon":139.85476607},{"name":"区立渋江東公園","province":"東京都","city":"葛飾区","address":"東京都葛飾区東四つ木2丁目15","lat":35.73076194,"lon":139.8434969},{"name":"東京慈恵会医科大学附属青戸病院","province":"東京都","city":"葛飾区","address":"東京都葛飾区青戸6丁目41-2","lat":35.75182053,"lon":139.85865266},{"name":"東部地域病院","province":"東京都","city":"葛飾区","address":"東京都葛飾区亀有5丁目14-1","lat":35.7662352,"lon":139.84445332},{"name":"葛飾区立総合スポーツセンター陸上競技場","province":"東京都","city":"葛飾区","address":"東京都葛飾区奥戸7丁目17-1","lat":35.73772504,"lon":139.86210297},{"name":"都立水元公園駐車場","province":"東京都","city":"葛飾区","address":"東京都葛飾区水元公園4","lat":35.79240643,"lon":139.86812312},{"name":"都立水元公園多目的広場","province":"東京都","city":"葛飾区","address":"東京都葛飾区東金町8丁目31","lat":35.78263806,"lon":139.88528344},{"name":"葛飾区立柴又公園（矢切の渡し）","province":"東京都","city":"葛飾区","address":"東京都葛飾区柴又7丁目","lat":35.75767798,"lon":139.87675403},{"name":"新四つ木橋地区東岸","province":"東京都","city":"葛飾区","address":"東京都葛飾区東四つ木3丁目","lat":35.73102085,"lon":139.83684505},{"name":"葛飾区立奥戸運動場","province":"東京都","city":"葛飾区","address":"東京都葛飾区高砂1丁目","lat":35.74382707,"lon":139.86149721},{"name":"葛飾区立新小岩公園","province":"東京都","city":"葛飾区","address":"東京都葛飾区西新小岩1丁目1-3","lat":35.71611839,"lon":139.85476607},{"name":"西新小岩倉庫","province":"東京都","city":"葛飾区","address":"東京都葛飾区西新小岩2丁目1","lat":35.71722108,"lon":139.85294947},{"name":"※葛飾区役所","province":"東京都","city":"葛飾区","address":"東京都葛飾区立石5丁目13-1","lat":35.7429853,"lon":139.84740682},{"name":"金町浄水場","province":"東京都","city":"葛飾区","address":"東京都葛飾区金町浄水場1-1","lat":35.7625165,"lon":139.878351},{"name":"水元給水所（都立水元公園内自由広場）","province":"東京都","city":"葛飾区","address":"東京都葛飾区水元公園4","lat":35.7933213,"lon":139.862382},{"name":"区立上干葉公園","province":"東京都","city":"葛飾区","address":"東京都葛飾区東堀切3-25-1","lat":35.7549733,"lon":139.839038},{"name":"区立新小岩公園","province":"東京都","city":"葛飾区","address":"東京都葛飾区西新小岩1-1-3","lat":35.7158814,"lon":139.8550625},{"name":"区立渋江東公園","province":"東京都","city":"葛飾区","address":"東京都葛飾区東四つ木2-15","lat":35.7307623,"lon":139.843497},{"name":"西新小岩","province":"東京都","city":"葛飾区","address":"東京都葛飾区西新小岩2丁目1","lat":35.71722108,"lon":139.85294947},{"name":"葛飾区","province":"東京都","city":"葛飾区","address":"東京都葛飾区立石5丁目13-1","lat":35.7429853,"lon":139.84740682},{"name":"東京慈恵会医科大学葛飾医療センター","province":"東京都","city":"葛飾区","address":"東京都葛飾区青戸6丁目41-2","lat":35.75182053,"lon":139.85865266},{"name":"東京都保健医療公社東部地域病院","province":"東京都","city":"葛飾区","address":"東京都葛飾区亀有5丁目14-1","lat":35.7662352,"lon":139.84445332},{"name":"東京慈恵会医科大学附属青戸病院","province":"東京都","city":"葛飾区","address":"東京都葛飾区青戸6丁目41-2","lat":35.75182053,"lon":139.85865266},{"name":"東部地域病院","province":"東京都","city":"葛飾区","address":"東京都葛飾区亀有5丁目14-1","lat":35.7662352,"lon":139.84445332},{"name":"葛飾区立総合スポーツセンター陸上競技場","province":"東京都","city":"葛飾区","address":"東京都葛飾区奥戸7丁目17-1","lat":35.73772504,"lon":139.86210297},{"name":"都立水元公園駐車場","province":"東京都","city":"葛飾区","address":"東京都葛飾区水元公園4","lat":35.79240643,"lon":139.86812312},{"name":"都立水元公園多目的広場","province":"東京都","city":"葛飾区","address":"東京都葛飾区東金町8丁目31","lat":35.78263806,"lon":139.88528344},{"name":"葛飾区立柴又公園（矢切の渡し）","province":"東京都","city":"葛飾区","address":"東京都葛飾区柴又7丁目","lat":35.75767798,"lon":139.87675403},{"name":"新四つ木橋地区東岸","province":"東京都","city":"葛飾区","address":"東京都葛飾区東四つ木3丁目","lat":35.73102085,"lon":139.83684505},{"name":"葛飾区立奥戸運動場","province":"東京都","city":"葛飾区","address":"東京都葛飾区高砂1丁目","lat":35.74382707,"lon":139.86149721},{"name":"葛飾区立新小岩公園","province":"東京都","city":"葛飾区","address":"東京都葛飾区西新小岩1丁目1-3","lat":35.71611839,"lon":139.85476607},{"name":"西新小岩倉庫","province":"東京都","city":"葛飾区","address":"東京都葛飾区西新小岩2丁目1","lat":35.71722108,"lon":139.85294947},{"name":"※葛飾区役所","province":"東京都","city":"葛飾区","address":"東京都葛飾区立石5丁目13-1","lat":35.7429853,"lon":139.84740682},{"name":"金町浄水場","province":"東京都","city":"葛飾区","address":"東京都葛飾区金町浄水場1-1","lat":35.7625165,"lon":139.878351},{"name":"水元給水所（都立水元公園内自由広場）","province":"東京都","city":"葛飾区","address":"東京都葛飾区水元公園4","lat":35.7933213,"lon":139.862382},{"name":"区立上干葉公園","province":"東京都","city":"葛飾区","address":"東京都葛飾区東堀切3-25-1","lat":35.7549733,"lon":139.839038},{"name":"区立新小岩公園","province":"東京都","city":"葛飾区","address":"東京都葛飾区西新小岩1-1-3","lat":35.7158814,"lon":139.8550625},{"name":"区立渋江東公園","province":"東京都","city":"葛飾区","address":"東京都葛飾区東四つ木2-15","lat":35.7307623,"lon":139.843497},{"name":"西新小岩","province":"東京都","city":"葛飾区","address":"東京都葛飾区西新小岩2丁目1","lat":35.71722108,"lon":139.85294947},{"name":"葛飾区","province":"東京都","city":"葛飾区","address":"東京都葛飾区立石5丁目13-1","lat":35.7429853,"lon":139.84740682},{"name":"東京慈恵会医科大学葛飾医療センター","province":"東京都","city":"葛飾区","address":"東京都葛飾区青戸6丁目41-2","lat":35.75182053,"lon":139.85865266},{"name":"東京都保健医療公社東部地域病院","province":"東京都","city":"葛飾区","address":"東京都葛飾区亀有5丁目14-1","lat":35.7662352,"lon":139.84445332},{"name":"東京慈恵会医科大学附属青戸病院","province":"東京都","city":"葛飾区","address":"東京都葛飾区青戸6丁目41-2","lat":35.75182053,"lon":139.85865266},{"name":"東部地域病院","province":"東京都","city":"葛飾区","address":"東京都葛飾区亀有5丁目14-1","lat":35.7662352,"lon":139.84445332},{"name":"西新小岩倉庫","province":"東京都","city":"葛飾区","address":"東京都葛飾区西新小岩2丁目1","lat":35.71722108,"lon":139.85294947},{"name":"※葛飾区役所","province":"東京都","city":"葛飾区","address":"東京都葛飾区立石5丁目13-1","lat":35.7429853,"lon":139.84740682},{"name":"金町浄水場","province":"東京都","city":"葛飾区","address":"東京都葛飾区金町浄水場1-1","lat":35.7625165,"lon":139.878351},{"name":"水元給水所（都立水元公園内自由広場）","province":"東京都","city":"葛飾区","address":"東京都葛飾区水元公園4","lat":35.7933213,"lon":139.862382},{"name":"区立上干葉公園","province":"東京都","city":"葛飾区","address":"東京都葛飾区東堀切3-25-1","lat":35.7549733,"lon":139.839038},{"name":"区立新小岩公園","province":"東京都","city":"葛飾区","address":"東京都葛飾区西新小岩1-1-3","lat":35.7158814,"lon":139.8550625},{"name":"区立渋江東公園","province":"東京都","city":"葛飾区","address":"東京都葛飾区東四つ木2-15","lat":35.7307623,"lon":139.843497},{"name":"西新小岩","province":"東京都","city":"葛飾区","address":"東京都葛飾区西新小岩2丁目1","lat":35.71722108,"lon":139.85294947},{"name":"葛飾区","province":"東京都","city":"葛飾区","address":"東京都葛飾区立石5丁目13-1","lat":35.7429853,"lon":139.84740682},{"name":"東京慈恵会医科大学葛飾医療センター","province":"東京都","city":"葛飾区","address":"東京都葛飾区青戸6丁目41-2","lat":35.75182053,"lon":139.85865266},{"name":"東京都保健医療公社東部地域病院","province":"東京都","city":"葛飾区","address":"東京都葛飾区亀有5丁目14-1","lat":35.7662352,"lon":139.84445332},{"name":"東京慈恵会医科大学附属青戸病院","province":"東京都","city":"葛飾区","address":"東京都葛飾区青戸6丁目41-2","lat":35.75182053,"lon":139.85865266},{"name":"東部地域病院","province":"東京都","city":"葛飾区","address":"東京都葛飾区亀有5丁目14-1","lat":35.7662352,"lon":139.84445332},{"name":"西新小岩倉庫","province":"東京都","city":"葛飾区","address":"東京都葛飾区西新小岩2丁目1","lat":35.71722108,"lon":139.85294947},{"name":"※葛飾区役所","province":"東京都","city":"葛飾区","address":"東京都葛飾区立石5丁目13-1","lat":35.7429853,"lon":139.84740682},{"name":"金町浄水場","province":"東京都","city":"葛飾区","address":"東京都葛飾区金町浄水場1-1","lat":35.7625165,"lon":139.878351},{"name":"水元給水所（都立水元公園内自由広場）","province":"東京都","city":"葛飾区","address":"東京都葛飾区水元公園4","lat":35.7933213,"lon":139.862382},{"name":"区立上干葉公園","province":"東京都","city":"葛飾区","address":"東京都葛飾区東堀切3-25-1","lat":35.7549733,"lon":139.839038},{"name":"区立新小岩公園","province":"東京都","city":"葛飾区","address":"東京都葛飾区西新小岩1-1-3","lat":35.7158814,"lon":139.8550625},{"name":"区立渋江東公園","province":"東京都","city":"葛飾区","address":"東京都葛飾区東四つ木2-15","lat":35.7307623,"lon":139.843497},{"name":"西新小岩","province":"東京都","city":"葛飾区","address":"東京都葛飾区西新小岩2丁目1","lat":35.71722108,"lon":139.85294947},{"name":"葛飾区","province":"東京都","city":"葛飾区","address":"東京都葛飾区立石5丁目13-1","lat":35.7429853,"lon":139.84740682},{"name":"東京慈恵会医科大学葛飾医療センター","province":"東京都","city":"葛飾区","address":"東京都葛飾区青戸6丁目41-2","lat":35.75182053,"lon":139.85865266},{"name":"東京都保健医療公社東部地域病院","province":"東京都","city":"葛飾区","address":"東京都葛飾区亀有5丁目14-1","lat":35.7662352,"lon":139.84445332},{"name":"東京慈恵会医科大学附属青戸病院","province":"東京都","city":"葛飾区","address":"東京都葛飾区青戸6丁目41-2","lat":35.75182053,"lon":139.85865266},{"name":"東部地域病院","province":"東京都","city":"葛飾区","address":"東京都葛飾区亀有5丁目14-1","lat":35.7662352,"lon":139.84445332},{"name":"西新小岩倉庫","province":"東京都","city":"葛飾区","address":"東京都葛飾区西新小岩2丁目1","lat":35.71722108,"lon":139.85294947},{"name":"※葛飾区役所","province":"東京都","city":"葛飾区","address":"東京都葛飾区立石5丁目13-1","lat":35.7429853,"lon":139.84740682},{"name":"金町浄水場","province":"東京都","city":"葛飾区","address":"東京都葛飾区金町浄水場1-1","lat":35.7625165,"lon":139.878351},{"name":"水元給水所（都立水元公園内自由広場）","province":"東京都","city":"葛飾区","address":"東京都葛飾区水元公園4","lat":35.7933213,"lon":139.862382},{"name":"区立上干葉公園","province":"東京都","city":"葛飾区","address":"東京都葛飾区東堀切3-25-1","lat":35.7549733,"lon":139.839038},{"name":"区立新小岩公園","province":"東京都","city":"葛飾区","address":"東京都葛飾区西新小岩1-1-3","lat":35.7158814,"lon":139.8550625},{"name":"区立渋江東公園","province":"東京都","city":"葛飾区","address":"東京都葛飾区東四つ木2-15","lat":35.7307623,"lon":139.843497},{"name":"西新小岩","province":"東京都","city":"葛飾区","address":"東京都葛飾区西新小岩2丁目1","lat":35.71722108,"lon":139.85294947},{"name":"葛飾区","province":"東京都","city":"葛飾区","address":"東京都葛飾区立石5丁目13-1","lat":35.7429853,"lon":139.84740682},{"name":"東京慈恵会医科大学葛飾医療センター","province":"東京都","city":"葛飾区","address":"東京都葛飾区青戸6丁目41-2","lat":35.75182053,"lon":139.85865266},{"name":"東京都保健医療公社東部地域病院","province":"東京都","city":"葛飾区","address":"東京都葛飾区亀有5丁目14-1","lat":35.7662352,"lon":139.84445332},{"name":"東京慈恵会医科大学附属青戸病院","province":"東京都","city":"葛飾区","address":"東京都葛飾区青戸6丁目41-2","lat":35.75182053,"lon":139.85865266},{"name":"東部地域病院","province":"東京都","city":"葛飾区","address":"東京都葛飾区亀有5丁目14-1","lat":35.7662352,"lon":139.84445332},{"name":"西新小岩倉庫","province":"東京都","city":"葛飾区","address":"東京都葛飾区西新小岩2丁目1","lat":35.71722108,"lon":139.85294947},{"name":"※葛飾区役所","province":"東京都","city":"葛飾区","address":"東京都葛飾区立石5丁目13-1","lat":35.7429853,"lon":139.84740682},{"name":"金町浄水場","province":"東京都","city":"葛飾区","address":"東京都葛飾区金町浄水場1-1","lat":35.7625165,"lon":139.878351},{"name":"水元給水所（都立水元公園内自由広場）","province":"東京都","city":"葛飾区","address":"東京都葛飾区水元公園4","lat":35.7933213,"lon":139.862382},{"name":"区立上干葉公園","province":"東京都","city":"葛飾区","address":"東京都葛飾区東堀切3-25-1","lat":35.7549733,"lon":139.839038},{"name":"区立新小岩公園","province":"東京都","city":"葛飾区","address":"東京都葛飾区西新小岩1-1-3","lat":35.7158814,"lon":139.8550625},{"name":"区立渋江東公園","province":"東京都","city":"葛飾区","address":"東京都葛飾区東四つ木2-15","lat":35.7307623,"lon":139.843497},{"name":"西新小岩","province":"東京都","city":"葛飾区","address":"東京都葛飾区西新小岩2丁目1","lat":35.71722108,"lon":139.85294947},{"name":"葛飾区","province":"東京都","city":"葛飾区","address":"東京都葛飾区立石5丁目13-1","lat":35.7429853,"lon":139.84740682},{"name":"東京慈恵会医科大学葛飾医療センター","province":"東京都","city":"葛飾区","address":"東京都葛飾区青戸6丁目41-2","lat":35.75182053,"lon":139.85865266},{"name":"東京都保健医療公社東部地域病院","province":"東京都","city":"葛飾区","address":"東京都葛飾区亀有5丁目14-1","lat":35.7662352,"lon":139.84445332},{"name":"東京慈恵会医科大学附属青戸病院","province":"東京都","city":"葛飾区","address":"東京都葛飾区青戸6丁目41-2","lat":35.75182053,"lon":139.85865266},{"name":"東部地域病院","province":"東京都","city":"葛飾区","address":"東京都葛飾区亀有5丁目14-1","lat":35.7662352,"lon":139.84445332},{"name":"西新小岩倉庫","province":"東京都","city":"葛飾区","address":"東京都葛飾区西新小岩2丁目1","lat":35.71722108,"lon":139.85294947},{"name":"※葛飾区役所","province":"東京都","city":"葛飾区","address":"東京都葛飾区立石5丁目13-1","lat":35.7429853,"lon":139.84740682},{"name":"金町浄水場","province":"東京都","city":"葛飾区","address":"東京都葛飾区金町浄水場1-1","lat":35.7625165,"lon":139.878351},{"name":"水元給水所（都立水元公園内自由広場）","province":"東京都","city":"葛飾区","address":"東京都葛飾区水元公園4","lat":35.7933213,"lon":139.862382},{"name":"区立上干葉公園","province":"東京都","city":"葛飾区","address":"東京都葛飾区東堀切3-25-1","lat":35.7549733,"lon":139.839038},{"name":"区立新小岩公園","province":"東京都","city":"葛飾区","address":"東京都葛飾区西新小岩1-1-3","lat":35.7158814,"lon":139.8550625},{"name":"区立渋江東公園","province":"東京都","city":"葛飾区","address":"東京都葛飾区東四つ木2-15","lat":35.7307623,"lon":139.843497},{"name":"西新小岩","province":"東京都","city":"葛飾区","address":"東京都葛飾区西新小岩2丁目1","lat":35.71722108,"lon":139.85294947},{"name":"葛飾区","province":"東京都","city":"葛飾区","address":"東京都葛飾区立石5丁目13-1","lat":35.7429853,"lon":139.84740682},{"name":"東京慈恵会医科大学葛飾医療センター","province":"東京都","city":"葛飾区","address":"東京都葛飾区青戸6丁目41-2","lat":35.75182053,"lon":139.85865266},{"name":"東京都保健医療公社東部地域病院","province":"東京都","city":"葛飾区","address":"東京都葛飾区亀有5丁目14-1","lat":35.7662352,"lon":139.84445332},{"name":"東京慈恵会医科大学附属青戸病院","province":"東京都","city":"葛飾区","address":"東京都葛飾区青戸6丁目41-2","lat":35.75182053,"lon":139.85865266},{"name":"東部地域病院","province":"東京都","city":"葛飾区","address":"東京都葛飾区亀有5丁目14-1","lat":35.7662352,"lon":139.84445332},{"name":"西新小岩倉庫","province":"東京都","city":"葛飾区","address":"東京都葛飾区西新小岩2丁目1","lat":35.71722108,"lon":139.85294947},{"name":"※葛飾区役所","province":"東京都","city":"葛飾区","address":"東京都葛飾区立石5丁目13-1","lat":35.7429853,"lon":139.84740682},{"name":"金町浄水場","province":"東京都","city":"葛飾区","address":"東京都葛飾区金町浄水場1-1","lat":35.7625165,"lon":139.878351},{"name":"水元給水所（都立水元公園内自由広場）","province":"東京都","city":"葛飾区","address":"東京都葛飾区水元公園4","lat":35.7933213,"lon":139.862382},{"name":"区立上干葉公園","province":"東京都","city":"葛飾区","address":"東京都葛飾区東堀切3-25-1","lat":35.7549733,"lon":139.839038},{"name":"区立新小岩公園","province":"東京都","city":"葛飾区","address":"東京都葛飾区西新小岩1-1-3","lat":35.7158814,"lon":139.8550625},{"name":"区立渋江東公園","province":"東京都","city":"葛飾区","address":"東京都葛飾区東四つ木2-15","lat":35.7307623,"lon":139.843497},{"name":"西新小岩","province":"東京都","city":"葛飾区","address":"東京都葛飾区西新小岩2丁目1","lat":35.71722108,"lon":139.85294947},{"name":"葛飾区","province":"東京都","city":"葛飾区","address":"東京都葛飾区立石5丁目13-1","lat":35.7429853,"lon":139.84740682},{"name":"西新小岩倉庫","province":"東京都","city":"葛飾区","address":"東京都葛飾区西新小岩2丁目1","lat":35.71722108,"lon":139.85294947},{"name":"※葛飾区役所","province":"東京都","city":"葛飾区","address":"東京都葛飾区立石5丁目13-1","lat":35.7429853,"lon":139.84740682},{"name":"金町浄水場","province":"東京都","city":"葛飾区","address":"東京都葛飾区金町浄水場1-1","lat":35.7625165,"lon":139.878351},{"name":"水元給水所（都立水元公園内自由広場）","province":"東京都","city":"葛飾区","address":"東京都葛飾区水元公園4","lat":35.7933213,"lon":139.862382},{"name":"区立上干葉公園","province":"東京都","city":"葛飾区","address":"東京都葛飾区東堀切3-25-1","lat":35.7549733,"lon":139.839038},{"name":"区立新小岩公園","province":"東京都","city":"葛飾区","address":"東京都葛飾区西新小岩1-1-3","lat":35.7158814,"lon":139.8550625},{"name":"区立渋江東公園","province":"東京都","city":"葛飾区","address":"東京都葛飾区東四つ木2-15","lat":35.7307623,"lon":139.843497},{"name":"西新小岩","province":"東京都","city":"葛飾区","address":"東京都葛飾区西新小岩2丁目1","lat":35.71722108,"lon":139.85294947},{"name":"葛飾区","province":"東京都","city":"葛飾区","address":"東京都葛飾区立石5丁目13-1","lat":35.7429853,"lon":139.84740682},{"name":"西新小岩倉庫","province":"東京都","city":"葛飾区","address":"東京都葛飾区西新小岩2丁目1","lat":35.71722108,"lon":139.85294947},{"name":"※葛飾区役所","province":"東京都","city":"葛飾区","address":"東京都葛飾区立石5丁目13-1","lat":35.7429853,"lon":139.84740682},{"name":"金町浄水場","province":"東京都","city":"葛飾区","address":"東京都葛飾区金町浄水場1-1","lat":35.7625165,"lon":139.878351},{"name":"水元給水所（都立水元公園内自由広場）","province":"東京都","city":"葛飾区","address":"東京都葛飾区水元公園4","lat":35.7933213,"lon":139.862382},{"name":"区立上干葉公園","province":"東京都","city":"葛飾区","address":"東京都葛飾区東堀切3-25-1","lat":35.7549733,"lon":139.839038},{"name":"区立新小岩公園","province":"東京都","city":"葛飾区","address":"東京都葛飾区西新小岩1-1-3","lat":35.7158814,"lon":139.8550625},{"name":"区立渋江東公園","province":"東京都","city":"葛飾区","address":"東京都葛飾区東四つ木2-15","lat":35.7307623,"lon":139.843497},{"name":"西新小岩","province":"東京都","city":"葛飾区","address":"東京都葛飾区西新小岩2丁目1","lat":35.71722108,"lon":139.85294947},{"name":"葛飾区","province":"東京都","city":"葛飾区","address":"東京都葛飾区立石5丁目13-1","lat":35.7429853,"lon":139.84740682},{"name":"西新小岩倉庫","province":"東京都","city":"葛飾区","address":"東京都葛飾区西新小岩2丁目1","lat":35.71722108,"lon":139.85294947},{"name":"※葛飾区役所","province":"東京都","city":"葛飾区","address":"東京都葛飾区立石5丁目13-1","lat":35.7429853,"lon":139.84740682},{"name":"金町浄水場","province":"東京都","city":"葛飾区","address":"東京都葛飾区金町浄水場1-1","lat":35.7625165,"lon":139.878351},{"name":"水元給水所（都立水元公園内自由広場）","province":"東京都","city":"葛飾区","address":"東京都葛飾区水元公園4","lat":35.7933213,"lon":139.862382},{"name":"区立上干葉公園","province":"東京都","city":"葛飾区","address":"東京都葛飾区東堀切3-25-1","lat":35.7549733,"lon":139.839038},{"name":"区立新小岩公園","province":"東京都","city":"葛飾区","address":"東京都葛飾区西新小岩1-1-3","lat":35.7158814,"lon":139.8550625},{"name":"区立渋江東公園","province":"東京都","city":"葛飾区","address":"東京都葛飾区東四つ木2-15","lat":35.7307623,"lon":139.843497},{"name":"西新小岩","province":"東京都","city":"葛飾区","address":"東京都葛飾区西新小岩2丁目1","lat":35.71722108,"lon":139.85294947},{"name":"葛飾区","province":"東京都","city":"葛飾区","address":"東京都葛飾区立石5丁目13-1","lat":35.7429853,"lon":139.84740682},{"name":"西新小岩倉庫","province":"東京都","city":"葛飾区","address":"東京都葛飾区西新小岩2丁目1","lat":35.71722108,"lon":139.85294947},{"name":"※葛飾区役所","province":"東京都","city":"葛飾区","address":"東京都葛飾区立石5丁目13-1","lat":35.7429853,"lon":139.84740682},{"name":"金町浄水場","province":"東京都","city":"葛飾区","address":"東京都葛飾区金町浄水場1-1","lat":35.7625165,"lon":139.878351},{"name":"水元給水所（都立水元公園内自由広場）","province":"東京都","city":"葛飾区","address":"東京都葛飾区水元公園4","lat":35.7933213,"lon":139.862382},{"name":"区立上干葉公園","province":"東京都","city":"葛飾区","address":"東京都葛飾区東堀切3-25-1","lat":35.7549733,"lon":139.839038},{"name":"区立新小岩公園","province":"東京都","city":"葛飾区","address":"東京都葛飾区西新小岩1-1-3","lat":35.7158814,"lon":139.8550625},{"name":"区立渋江東公園","province":"東京都","city":"葛飾区","address":"東京都葛飾区東四つ木2-15","lat":35.7307623,"lon":139.843497},{"name":"西新小岩","province":"東京都","city":"葛飾区","address":"東京都葛飾区西新小岩2丁目1","lat":35.71722108,"lon":139.85294947},{"name":"葛飾区","province":"東京都","city":"葛飾区","address":"東京都葛飾区立石5丁目13-1","lat":35.7429853,"lon":139.84740682},{"name":"西新小岩倉庫","province":"東京都","city":"葛飾区","address":"東京都葛飾区西新小岩2丁目1","lat":35.71722108,"lon":139.85294947},{"name":"※葛飾区役所","province":"東京都","city":"葛飾区","address":"東京都葛飾区立石5丁目13-1","lat":35.7429853,"lon":139.84740682},{"name":"金町浄水場","province":"東京都","city":"葛飾区","address":"東京都葛飾区金町浄水場1-1","lat":35.7625165,"lon":139.878351},{"name":"水元給水所（都立水元公園内自由広場）","province":"東京都","city":"葛飾区","address":"東京都葛飾区水元公園4","lat":35.7933213,"lon":139.862382},{"name":"区立上干葉公園","province":"東京都","city":"葛飾区","address":"東京都葛飾区東堀切3-25-1","lat":35.7549733,"lon":139.839038},{"name":"区立新小岩公園","province":"東京都","city":"葛飾区","address":"東京都葛飾区西新小岩1-1-3","lat":35.7158814,"lon":139.8550625},{"name":"区立渋江東公園","province":"東京都","city":"葛飾区","address":"東京都葛飾区東四つ木2-15","lat":35.7307623,"lon":139.843497},{"name":"西新小岩","province":"東京都","city":"葛飾区","address":"東京都葛飾区西新小岩2丁目1","lat":35.71722108,"lon":139.85294947},{"name":"葛飾区","province":"東京都","city":"葛飾区","address":"東京都葛飾区立石5丁目13-1","lat":35.7429853,"lon":139.84740682},{"name":"西新小岩倉庫","province":"東京都","city":"葛飾区","address":"東京都葛飾区西新小岩2丁目1","lat":35.71722108,"lon":139.85294947},{"name":"※葛飾区役所","province":"東京都","city":"葛飾区","address":"東京都葛飾区立石5丁目13-1","lat":35.7429853,"lon":139.84740682},{"name":"金町浄水場","province":"東京都","city":"葛飾区","address":"東京都葛飾区金町浄水場1-1","lat":35.7625165,"lon":139.878351},{"name":"水元給水所（都立水元公園内自由広場）","province":"東京都","city":"葛飾区","address":"東京都葛飾区水元公園4","lat":35.7933213,"lon":139.862382},{"name":"区立上干葉公園","province":"東京都","city":"葛飾区","address":"東京都葛飾区東堀切3-25-1","lat":35.7549733,"lon":139.839038},{"name":"区立新小岩公園","province":"東京都","city":"葛飾区","address":"東京都葛飾区西新小岩1-1-3","lat":35.7158814,"lon":139.8550625},{"name":"区立渋江東公園","province":"東京都","city":"葛飾区","address":"東京都葛飾区東四つ木2-15","lat":35.7307623,"lon":139.843497},{"name":"西新小岩","province":"東京都","city":"葛飾区","address":"東京都葛飾区西新小岩2丁目1","lat":35.71722108,"lon":139.85294947},{"name":"葛飾区","province":"東京都","city":"葛飾区","address":"東京都葛飾区立石5丁目13-1","lat":35.7429853,"lon":139.84740682},{"name":"西新小岩倉庫","province":"東京都","city":"葛飾区","address":"東京都葛飾区西新小岩2丁目1","lat":35.71722108,"lon":139.85294947},{"name":"※葛飾区役所","province":"東京都","city":"葛飾区","address":"東京都葛飾区立石5丁目13-1","lat":35.7429853,"lon":139.84740682},{"name":"金町浄水場","province":"東京都","city":"葛飾区","address":"東京都葛飾区金町浄水場1-1","lat":35.7625165,"lon":139.878351},{"name":"水元給水所（都立水元公園内自由広場）","province":"東京都","city":"葛飾区","address":"東京都葛飾区水元公園4","lat":35.7933213,"lon":139.862382},{"name":"区立上干葉公園","province":"東京都","city":"葛飾区","address":"東京都葛飾区東堀切3-25-1","lat":35.7549733,"lon":139.839038},{"name":"区立新小岩公園","province":"東京都","city":"葛飾区","address":"東京都葛飾区西新小岩1-1-3","lat":35.7158814,"lon":139.8550625},{"name":"区立渋江東公園","province":"東京都","city":"葛飾区","address":"東京都葛飾区東四つ木2-15","lat":35.7307623,"lon":139.843497},{"name":"西新小岩","province":"東京都","city":"葛飾区","address":"東京都葛飾区西新小岩2丁目1","lat":35.71722108,"lon":139.85294947},{"name":"葛飾区","province":"東京都","city":"葛飾区","address":"東京都葛飾区立石5丁目13-1","lat":35.7429853,"lon":139.84740682},{"name":"西新小岩倉庫","province":"東京都","city":"葛飾区","address":"東京都葛飾区西新小岩2丁目1","lat":35.71722108,"lon":139.85294947},{"name":"※葛飾区役所","province":"東京都","city":"葛飾区","address":"東京都葛飾区立石5丁目13-1","lat":35.7429853,"lon":139.84740682},{"name":"金町浄水場","province":"東京都","city":"葛飾区","address":"東京都葛飾区金町浄水場1-1","lat":35.7625165,"lon":139.878351},{"name":"水元給水所（都立水元公園内自由広場）","province":"東京都","city":"葛飾区","address":"東京都葛飾区水元公園4","lat":35.7933213,"lon":139.862382},{"name":"区立上干葉公園","province":"東京都","city":"葛飾区","address":"東京都葛飾区東堀切3-25-1","lat":35.7549733,"lon":139.839038},{"name":"区立新小岩公園","province":"東京都","city":"葛飾区","address":"東京都葛飾区西新小岩1-1-3","lat":35.7158814,"lon":139.8550625},{"name":"区立渋江東公園","province":"東京都","city":"葛飾区","address":"東京都葛飾区東四つ木2-15","lat":35.7307623,"lon":139.843497},{"name":"西新小岩","province":"東京都","city":"葛飾区","address":"東京都葛飾区西新小岩2丁目1","lat":35.71722108,"lon":139.85294947},{"name":"葛飾区","province":"東京都","city":"葛飾区","address":"東京都葛飾区立石5丁目13-1","lat":35.7429853,"lon":139.84740682},{"name":"西新小岩倉庫","province":"東京都","city":"葛飾区","address":"東京都葛飾区西新小岩2丁目1","lat":35.71722108,"lon":139.85294947},{"name":"※葛飾区役所","province":"東京都","city":"葛飾区","address":"東京都葛飾区立石5丁目13-1","lat":35.7429853,"lon":139.84740682},{"name":"金町浄水場","province":"東京都","city":"葛飾区","address":"東京都葛飾区金町浄水場1-1","lat":35.7625165,"lon":139.878351},{"name":"水元給水所（都立水元公園内自由広場）","province":"東京都","city":"葛飾区","address":"東京都葛飾区水元公園4","lat":35.7933213,"lon":139.862382},{"name":"区立上干葉公園","province":"東京都","city":"葛飾区","address":"東京都葛飾区東堀切3-25-1","lat":35.7549733,"lon":139.839038},{"name":"区立新小岩公園","province":"東京都","city":"葛飾区","address":"東京都葛飾区西新小岩1-1-3","lat":35.7158814,"lon":139.8550625},{"name":"区立渋江東公園","province":"東京都","city":"葛飾区","address":"東京都葛飾区東四つ木2-15","lat":35.7307623,"lon":139.843497},{"name":"西新小岩","province":"東京都","city":"葛飾区","address":"東京都葛飾区西新小岩2丁目1","lat":35.71722108,"lon":139.85294947},{"name":"葛飾区","province":"東京都","city":"葛飾区","address":"東京都葛飾区立石5丁目13-1","lat":35.7429853,"lon":139.84740682},{"name":"西新小岩倉庫","province":"東京都","city":"葛飾区","address":"東京都葛飾区西新小岩2丁目1","lat":35.71722108,"lon":139.85294947},{"name":"※葛飾区役所","province":"東京都","city":"葛飾区","address":"東京都葛飾区立石5丁目13-1","lat":35.7429853,"lon":139.84740682},{"name":"金町浄水場","province":"東京都","city":"葛飾区","address":"東京都葛飾区金町浄水場1-1","lat":35.7625165,"lon":139.878351},{"name":"水元給水所（都立水元公園内自由広場）","province":"東京都","city":"葛飾区","address":"東京都葛飾区水元公園4","lat":35.7933213,"lon":139.862382},{"name":"区立上干葉公園","province":"東京都","city":"葛飾区","address":"東京都葛飾区東堀切3-25-1","lat":35.7549733,"lon":139.839038},{"name":"区立新小岩公園","province":"東京都","city":"葛飾区","address":"東京都葛飾区西新小岩1-1-3","lat":35.7158814,"lon":139.8550625},{"name":"区立渋江東公園","province":"東京都","city":"葛飾区","address":"東京都葛飾区東四つ木2-15","lat":35.7307623,"lon":139.843497},{"name":"西新小岩","province":"東京都","city":"葛飾区","address":"東京都葛飾区西新小岩2丁目1","lat":35.71722108,"lon":139.85294947},{"name":"葛飾区","province":"東京都","city":"葛飾区","address":"東京都葛飾区立石5丁目13-1","lat":35.7429853,"lon":139.84740682},{"name":"西新小岩倉庫","province":"東京都","city":"葛飾区","address":"東京都葛飾区西新小岩2丁目1","lat":35.71722108,"lon":139.85294947},{"name":"※葛飾区役所","province":"東京都","city":"葛飾区","address":"東京都葛飾区立石5丁目13-1","lat":35.7429853,"lon":139.84740682},{"name":"金町浄水場","province":"東京都","city":"葛飾区","address":"東京都葛飾区金町浄水場1-1","lat":35.7625165,"lon":139.878351},{"name":"水元給水所（都立水元公園内自由広場）","province":"東京都","city":"葛飾区","address":"東京都葛飾区水元公園4","lat":35.7933213,"lon":139.862382},{"name":"区立上干葉公園","province":"東京都","city":"葛飾区","address":"東京都葛飾区東堀切3-25-1","lat":35.7549733,"lon":139.839038},{"name":"区立新小岩公園","province":"東京都","city":"葛飾区","address":"東京都葛飾区西新小岩1-1-3","lat":35.7158814,"lon":139.8550625},{"name":"区立渋江東公園","province":"東京都","city":"葛飾区","address":"東京都葛飾区東四つ木2-15","lat":35.7307623,"lon":139.843497},{"name":"西新小岩","province":"東京都","city":"葛飾区","address":"東京都葛飾区西新小岩2丁目1","lat":35.71722108,"lon":139.85294947},{"name":"葛飾区","province":"東京都","city":"葛飾区","address":"東京都葛飾区立石5丁目13-1","lat":35.7429853,"lon":139.84740682},{"name":"西新小岩倉庫","province":"東京都","city":"葛飾区","address":"東京都葛飾区西新小岩2丁目1","lat":35.71722108,"lon":139.85294947},{"name":"※葛飾区役所","province":"東京都","city":"葛飾区","address":"東京都葛飾区立石5丁目13-1","lat":35.7429853,"lon":139.84740682},{"name":"金町浄水場","province":"東京都","city":"葛飾区","address":"東京都葛飾区金町浄水場1-1","lat":35.7625165,"lon":139.878351},{"name":"水元給水所（都立水元公園内自由広場）","province":"東京都","city":"葛飾区","address":"東京都葛飾区水元公園4","lat":35.7933213,"lon":139.862382},{"name":"区立上干葉公園","province":"東京都","city":"葛飾区","address":"東京都葛飾区東堀切3-25-1","lat":35.7549733,"lon":139.839038},{"name":"区立新小岩公園","province":"東京都","city":"葛飾区","address":"東京都葛飾区西新小岩1-1-3","lat":35.7158814,"lon":139.8550625},{"name":"区立渋江東公園","province":"東京都","city":"葛飾区","address":"東京都葛飾区東四つ木2-15","lat":35.7307623,"lon":139.843497},{"name":"西新小岩","province":"東京都","city":"葛飾区","address":"東京都葛飾区西新小岩2丁目1","lat":35.71722108,"lon":139.85294947},{"name":"葛飾区","province":"東京都","city":"葛飾区","address":"東京都葛飾区立石5丁目13-1","lat":35.7429853,"lon":139.84740682},{"name":"西新小岩倉庫","province":"東京都","city":"葛飾区","address":"東京都葛飾区西新小岩2丁目1","lat":35.71722108,"lon":139.85294947},{"name":"※葛飾区役所","province":"東京都","city":"葛飾区","address":"東京都葛飾区立石5丁目13-1","lat":35.7429853,"lon":139.84740682},{"name":"金町浄水場","province":"東京都","city":"葛飾区","address":"東京都葛飾区金町浄水場1-1","lat":35.7625165,"lon":139.878351},{"name":"水元給水所（都立水元公園内自由広場）","province":"東京都","city":"葛飾区","address":"東京都葛飾区水元公園4","lat":35.7933213,"lon":139.862382},{"name":"区立上干葉公園","province":"東京都","city":"葛飾区","address":"東京都葛飾区東堀切3-25-1","lat":35.7549733,"lon":139.839038},{"name":"区立新小岩公園","province":"東京都","city":"葛飾区","address":"東京都葛飾区西新小岩1-1-3","lat":35.7158814,"lon":139.8550625},{"name":"区立渋江東公園","province":"東京都","city":"葛飾区","address":"東京都葛飾区東四つ木2-15","lat":35.7307623,"lon":139.843497},{"name":"西新小岩","province":"東京都","city":"葛飾区","address":"東京都葛飾区西新小岩2丁目1","lat":35.71722108,"lon":139.85294947},{"name":"葛飾区","province":"東京都","city":"葛飾区","address":"東京都葛飾区立石5丁目13-1","lat":35.7429853,"lon":139.84740682},{"name":"西新小岩倉庫","province":"東京都","city":"葛飾区","address":"東京都葛飾区西新小岩2丁目1","lat":35.71722108,"lon":139.85294947},{"name":"※葛飾区役所","province":"東京都","city":"葛飾区","address":"東京都葛飾区立石5丁目13-1","lat":35.7429853,"lon":139.84740682},{"name":"金町浄水場","province":"東京都","city":"葛飾区","address":"東京都葛飾区金町浄水場1-1","lat":35.7625165,"lon":139.878351},{"name":"水元給水所（都立水元公園内自由広場）","province":"東京都","city":"葛飾区","address":"東京都葛飾区水元公園4","lat":35.7933213,"lon":139.862382},{"name":"区立上干葉公園","province":"東京都","city":"葛飾区","address":"東京都葛飾区東堀切3-25-1","lat":35.7549733,"lon":139.839038},{"name":"区立新小岩公園","province":"東京都","city":"葛飾区","address":"東京都葛飾区西新小岩1-1-3","lat":35.7158814,"lon":139.8550625},{"name":"区立渋江東公園","province":"東京都","city":"葛飾区","address":"東京都葛飾区東四つ木2-15","lat":35.7307623,"lon":139.843497},{"name":"西新小岩","province":"東京都","city":"葛飾区","address":"東京都葛飾区西新小岩2丁目1","lat":35.71722108,"lon":139.85294947},{"name":"葛飾区","province":"東京都","city":"葛飾区","address":"東京都葛飾区立石5丁目13-1","lat":35.7429853,"lon":139.84740682},{"name":"西新小岩倉庫","province":"東京都","city":"葛飾区","address":"東京都葛飾区西新小岩2丁目1","lat":35.71722108,"lon":139.85294947},{"name":"※葛飾区役所","province":"東京都","city":"葛飾区","address":"東京都葛飾区立石5丁目13-1","lat":35.7429853,"lon":139.84740682},{"name":"金町浄水場","province":"東京都","city":"葛飾区","address":"東京都葛飾区金町浄水場1-1","lat":35.7625165,"lon":139.878351},{"name":"水元給水所（都立水元公園内自由広場）","province":"東京都","city":"葛飾区","address":"東京都葛飾区水元公園4","lat":35.7933213,"lon":139.862382},{"name":"区立上干葉公園","province":"東京都","city":"葛飾区","address":"東京都葛飾区東堀切3-25-1","lat":35.7549733,"lon":139.839038},{"name":"区立新小岩公園","province":"東京都","city":"葛飾区","address":"東京都葛飾区西新小岩1-1-3","lat":35.7158814,"lon":139.8550625},{"name":"区立渋江東公園","province":"東京都","city":"葛飾区","address":"東京都葛飾区東四つ木2-15","lat":35.7307623,"lon":139.843497},{"name":"西新小岩","province":"東京都","city":"葛飾区","address":"東京都葛飾区西新小岩2丁目1","lat":35.71722108,"lon":139.85294947},{"name":"葛飾区","province":"東京都","city":"葛飾区","address":"東京都葛飾区立石5丁目13-1","lat":35.7429853,"lon":139.84740682},{"name":"西新小岩倉庫","province":"東京都","city":"葛飾区","address":"東京都葛飾区西新小岩2丁目1","lat":35.71722108,"lon":139.85294947},{"name":"※葛飾区役所","province":"東京都","city":"葛飾区","address":"東京都葛飾区立石5丁目13-1","lat":35.7429853,"lon":139.84740682},{"name":"金町浄水場","province":"東京都","city":"葛飾区","address":"東京都葛飾区金町浄水場1-1","lat":35.7625165,"lon":139.878351},{"name":"水元給水所（都立水元公園内自由広場）","province":"東京都","city":"葛飾区","address":"東京都葛飾区水元公園4","lat":35.7933213,"lon":139.862382},{"name":"区立上干葉公園","province":"東京都","city":"葛飾区","address":"東京都葛飾区東堀切3-25-1","lat":35.7549733,"lon":139.839038},{"name":"区立新小岩公園","province":"東京都","city":"葛飾区","address":"東京都葛飾区西新小岩1-1-3","lat":35.7158814,"lon":139.8550625},{"name":"区立渋江東公園","province":"東京都","city":"葛飾区","address":"東京都葛飾区東四つ木2-15","lat":35.7307623,"lon":139.843497},{"name":"西新小岩","province":"東京都","city":"葛飾区","address":"東京都葛飾区西新小岩2丁目1","lat":35.71722108,"lon":139.85294947},{"name":"葛飾区","province":"東京都","city":"葛飾区","address":"東京都葛飾区立石5丁目13-1","lat":35.7429853,"lon":139.84740682},{"name":"西新小岩倉庫","province":"東京都","city":"葛飾区","address":"東京都葛飾区西新小岩2丁目1","lat":35.71722108,"lon":139.85294947},{"name":"※葛飾区役所","province":"東京都","city":"葛飾区","address":"東京都葛飾区立石5丁目13-1","lat":35.7429853,"lon":139.84740682},{"name":"金町浄水場","province":"東京都","city":"葛飾区","address":"東京都葛飾区金町浄水場1-1","lat":35.7625165,"lon":139.878351},{"name":"水元給水所（都立水元公園内自由広場）","province":"東京都","city":"葛飾区","address":"東京都葛飾区水元公園4","lat":35.7933213,"lon":139.862382},{"name":"区立上干葉公園","province":"東京都","city":"葛飾区","address":"東京都葛飾区東堀切3-25-1","lat":35.7549733,"lon":139.839038},{"name":"区立新小岩公園","province":"東京都","city":"葛飾区","address":"東京都葛飾区西新小岩1-1-3","lat":35.7158814,"lon":139.8550625},{"name":"区立渋江東公園","province":"東京都","city":"葛飾区","address":"東京都葛飾区東四つ木2-15","lat":35.7307623,"lon":139.843497},{"name":"西新小岩","province":"東京都","city":"葛飾区","address":"東京都葛飾区西新小岩2丁目1","lat":35.71722108,"lon":139.85294947},{"name":"葛飾区","province":"東京都","city":"葛飾区","address":"東京都葛飾区立石5丁目13-1","lat":35.7429853,"lon":139.84740682},{"name":"西新小岩倉庫","province":"東京都","city":"葛飾区","address":"東京都葛飾区西新小岩2丁目1","lat":35.71722108,"lon":139.85294947},{"name":"※葛飾区役所","province":"東京都","city":"葛飾区","address":"東京都葛飾区立石5丁目13-1","lat":35.7429853,"lon":139.84740682},{"name":"金町浄水場","province":"東京都","city":"葛飾区","address":"東京都葛飾区金町浄水場1-1","lat":35.7625165,"lon":139.878351},{"name":"水元給水所（都立水元公園内自由広場）","province":"東京都","city":"葛飾区","address":"東京都葛飾区水元公園4","lat":35.7933213,"lon":139.862382},{"name":"区立上干葉公園","province":"東京都","city":"葛飾区","address":"東京都葛飾区東堀切3-25-1","lat":35.7549733,"lon":139.839038},{"name":"区立新小岩公園","province":"東京都","city":"葛飾区","address":"東京都葛飾区西新小岩1-1-3","lat":35.7158814,"lon":139.8550625},{"name":"区立渋江東公園","province":"東京都","city":"葛飾区","address":"東京都葛飾区東四つ木2-15","lat":35.7307623,"lon":139.843497},{"name":"西新小岩","province":"東京都","city":"葛飾区","address":"東京都葛飾区西新小岩2丁目1","lat":35.71722108,"lon":139.85294947},{"name":"葛飾区","province":"東京都","city":"葛飾区","address":"東京都葛飾区立石5丁目13-1","lat":35.7429853,"lon":139.84740682},{"name":"西新小岩倉庫","province":"東京都","city":"葛飾区","address":"東京都葛飾区西新小岩2丁目1","lat":35.71722108,"lon":139.85294947},{"name":"※葛飾区役所","province":"東京都","city":"葛飾区","address":"東京都葛飾区立石5丁目13-1","lat":35.7429853,"lon":139.84740682},{"name":"金町浄水場","province":"東京都","city":"葛飾区","address":"東京都葛飾区金町浄水場1-1","lat":35.7625165,"lon":139.878351},{"name":"水元給水所（都立水元公園内自由広場）","province":"東京都","city":"葛飾区","address":"東京都葛飾区水元公園4","lat":35.7933213,"lon":139.862382},{"name":"区立上干葉公園","province":"東京都","city":"葛飾区","address":"東京都葛飾区東堀切3-25-1","lat":35.7549733,"lon":139.839038},{"name":"区立新小岩公園","province":"東京都","city":"葛飾区","address":"東京都葛飾区西新小岩1-1-3","lat":35.7158814,"lon":139.8550625},{"name":"区立渋江東公園","province":"東京都","city":"葛飾区","address":"東京都葛飾区東四つ木2-15","lat":35.7307623,"lon":139.843497},{"name":"西新小岩","province":"東京都","city":"葛飾区","address":"東京都葛飾区西新小岩2丁目1","lat":35.71722108,"lon":139.85294947},{"name":"葛飾区","province":"東京都","city":"葛飾区","address":"東京都葛飾区立石5丁目13-1","lat":35.7429853,"lon":139.84740682},{"name":"西新小岩倉庫","province":"東京都","city":"葛飾区","address":"東京都葛飾区西新小岩2丁目1","lat":35.71722108,"lon":139.85294947},{"name":"※葛飾区役所","province":"東京都","city":"葛飾区","address":"東京都葛飾区立石5丁目13-1","lat":35.7429853,"lon":139.84740682},{"name":"金町浄水場","province":"東京都","city":"葛飾区","address":"東京都葛飾区金町浄水場1-1","lat":35.7625165,"lon":139.878351},{"name":"水元給水所（都立水元公園内自由広場）","province":"東京都","city":"葛飾区","address":"東京都葛飾区水元公園4","lat":35.7933213,"lon":139.862382},{"name":"区立上干葉公園","province":"東京都","city":"葛飾区","address":"東京都葛飾区東堀切3-25-1","lat":35.7549733,"lon":139.839038},{"name":"区立新小岩公園","province":"東京都","city":"葛飾区","address":"東京都葛飾区西新小岩1-1-3","lat":35.7158814,"lon":139.8550625},{"name":"区立渋江東公園","province":"東京都","city":"葛飾区","address":"東京都葛飾区東四つ木2-15","lat":35.7307623,"lon":139.843497},{"name":"西新小岩","province":"東京都","city":"葛飾区","address":"東京都葛飾区西新小岩2丁目1","lat":35.71722108,"lon":139.85294947},{"name":"葛飾区","province":"東京都","city":"葛飾区","address":"東京都葛飾区立石5丁目13-1","lat":35.7429853,"lon":139.84740682},{"name":"西新小岩倉庫","province":"東京都","city":"葛飾区","address":"東京都葛飾区西新小岩2丁目1","lat":35.71722108,"lon":139.85294947},{"name":"※葛飾区役所","province":"東京都","city":"葛飾区","address":"東京都葛飾区立石5丁目13-1","lat":35.7429853,"lon":139.84740682},{"name":"金町浄水場","province":"東京都","city":"葛飾区","address":"東京都葛飾区金町浄水場1-1","lat":35.7625165,"lon":139.878351},{"name":"水元給水所（都立水元公園内自由広場）","province":"東京都","city":"葛飾区","address":"東京都葛飾区水元公園4","lat":35.7933213,"lon":139.862382},{"name":"区立上干葉公園","province":"東京都","city":"葛飾区","address":"東京都葛飾区東堀切3-25-1","lat":35.7549733,"lon":139.839038},{"name":"区立新小岩公園","province":"東京都","city":"葛飾区","address":"東京都葛飾区西新小岩1-1-3","lat":35.7158814,"lon":139.8550625},{"name":"区立渋江東公園","province":"東京都","city":"葛飾区","address":"東京都葛飾区東四つ木2-15","lat":35.7307623,"lon":139.843497},{"name":"西新小岩","province":"東京都","city":"葛飾区","address":"東京都葛飾区西新小岩2丁目1","lat":35.71722108,"lon":139.85294947},{"name":"葛飾区","province":"東京都","city":"葛飾区","address":"東京都葛飾区立石5丁目13-1","lat":35.7429853,"lon":139.84740682},{"name":"西新小岩倉庫","province":"東京都","city":"葛飾区","address":"東京都葛飾区西新小岩2丁目1","lat":35.71722108,"lon":139.85294947},{"name":"※葛飾区役所","province":"東京都","city":"葛飾区","address":"東京都葛飾区立石5丁目13-1","lat":35.7429853,"lon":139.84740682},{"name":"金町浄水場","province":"東京都","city":"葛飾区","address":"東京都葛飾区金町浄水場1-1","lat":35.7625165,"lon":139.878351},{"name":"水元給水所（都立水元公園内自由広場）","province":"東京都","city":"葛飾区","address":"東京都葛飾区水元公園4","lat":35.7933213,"lon":139.862382},{"name":"区立上干葉公園","province":"東京都","city":"葛飾区","address":"東京都葛飾区東堀切3-25-1","lat":35.7549733,"lon":139.839038},{"name":"区立新小岩公園","province":"東京都","city":"葛飾区","address":"東京都葛飾区西新小岩1-1-3","lat":35.7158814,"lon":139.8550625},{"name":"区立渋江東公園","province":"東京都","city":"葛飾区","address":"東京都葛飾区東四つ木2-15","lat":35.7307623,"lon":139.843497},{"name":"西新小岩","province":"東京都","city":"葛飾区","address":"東京都葛飾区西新小岩2丁目1","lat":35.71722108,"lon":139.85294947},{"name":"葛飾区","province":"東京都","city":"葛飾区","address":"東京都葛飾区立石5丁目13-1","lat":35.7429853,"lon":139.84740682},{"name":"西新小岩倉庫","province":"東京都","city":"葛飾区","address":"東京都葛飾区西新小岩2丁目1","lat":35.71722108,"lon":139.85294947},{"name":"※葛飾区役所","province":"東京都","city":"葛飾区","address":"東京都葛飾区立石5丁目13-1","lat":35.7429853,"lon":139.84740682},{"name":"金町浄水場","province":"東京都","city":"葛飾区","address":"東京都葛飾区金町浄水場1-1","lat":35.7625165,"lon":139.878351},{"name":"水元給水所（都立水元公園内自由広場）","province":"東京都","city":"葛飾区","address":"東京都葛飾区水元公園4","lat":35.7933213,"lon":139.862382},{"name":"区立上干葉公園","province":"東京都","city":"葛飾区","address":"東京都葛飾区東堀切3-25-1","lat":35.7549733,"lon":139.839038},{"name":"区立新小岩公園","province":"東京都","city":"葛飾区","address":"東京都葛飾区西新小岩1-1-3","lat":35.7158814,"lon":139.8550625},{"name":"区立渋江東公園","province":"東京都","city":"葛飾区","address":"東京都葛飾区東四つ木2-15","lat":35.7307623,"lon":139.843497},{"name":"西新小岩","province":"東京都","city":"葛飾区","address":"東京都葛飾区西新小岩2丁目1","lat":35.71722108,"lon":139.85294947},{"name":"葛飾区","province":"東京都","city":"葛飾区","address":"東京都葛飾区立石5丁目13-1","lat":35.7429853,"lon":139.84740682},{"name":"西新小岩倉庫","province":"東京都","city":"葛飾区","address":"東京都葛飾区西新小岩2丁目1","lat":35.71722108,"lon":139.85294947},{"name":"※葛飾区役所","province":"東京都","city":"葛飾区","address":"東京都葛飾区立石5丁目13-1","lat":35.7429853,"lon":139.84740682},{"name":"金町浄水場","province":"東京都","city":"葛飾区","address":"東京都葛飾区金町浄水場1-1","lat":35.7625165,"lon":139.878351},{"name":"水元給水所（都立水元公園内自由広場）","province":"東京都","city":"葛飾区","address":"東京都葛飾区水元公園4","lat":35.7933213,"lon":139.862382},{"name":"区立上干葉公園","province":"東京都","city":"葛飾区","address":"東京都葛飾区東堀切3-25-1","lat":35.7549733,"lon":139.839038},{"name":"区立新小岩公園","province":"東京都","city":"葛飾区","address":"東京都葛飾区西新小岩1-1-3","lat":35.7158814,"lon":139.8550625},{"name":"区立渋江東公園","province":"東京都","city":"葛飾区","address":"東京都葛飾区東四つ木2-15","lat":35.7307623,"lon":139.843497},{"name":"西新小岩","province":"東京都","city":"葛飾区","address":"東京都葛飾区西新小岩2丁目1","lat":35.71722108,"lon":139.85294947},{"name":"葛飾区","province":"東京都","city":"葛飾区","address":"東京都葛飾区立石5丁目13-1","lat":35.7429853,"lon":139.84740682},{"name":"西新小岩倉庫","province":"東京都","city":"葛飾区","address":"東京都葛飾区西新小岩2丁目1","lat":35.71722108,"lon":139.85294947},{"name":"※葛飾区役所","province":"東京都","city":"葛飾区","address":"東京都葛飾区立石5丁目13-1","lat":35.7429853,"lon":139.84740682},{"name":"金町浄水場","province":"東京都","city":"葛飾区","address":"東京都葛飾区金町浄水場1-1","lat":35.7625165,"lon":139.878351},{"name":"水元給水所（都立水元公園内自由広場）","province":"東京都","city":"葛飾区","address":"東京都葛飾区水元公園4","lat":35.7933213,"lon":139.862382},{"name":"区立上干葉公園","province":"東京都","city":"葛飾区","address":"東京都葛飾区東堀切3-25-1","lat":35.7549733,"lon":139.839038},{"name":"区立新小岩公園","province":"東京都","city":"葛飾区","address":"東京都葛飾区西新小岩1-1-3","lat":35.7158814,"lon":139.8550625},{"name":"区立渋江東公園","province":"東京都","city":"葛飾区","address":"東京都葛飾区東四つ木2-15","lat":35.7307623,"lon":139.843497},{"name":"西新小岩","province":"東京都","city":"葛飾区","address":"東京都葛飾区西新小岩2丁目1","lat":35.71722108,"lon":139.85294947},{"name":"葛飾区","province":"東京都","city":"葛飾区","address":"東京都葛飾区立石5丁目13-1","lat":35.7429853,"lon":139.84740682},{"name":"西新小岩倉庫","province":"東京都","city":"葛飾区","address":"東京都葛飾区西新小岩2丁目1","lat":35.71722108,"lon":139.85294947},{"name":"※葛飾区役所","province":"東京都","city":"葛飾区","address":"東京都葛飾区立石5丁目13-1","lat":35.7429853,"lon":139.84740682},{"name":"金町浄水場","province":"東京都","city":"葛飾区","address":"東京都葛飾区金町浄水場1-1","lat":35.7625165,"lon":139.878351},{"name":"水元給水所（都立水元公園内自由広場）","province":"東京都","city":"葛飾区","address":"東京都葛飾区水元公園4","lat":35.7933213,"lon":139.862382},{"name":"区立上干葉公園","province":"東京都","city":"葛飾区","address":"東京都葛飾区東堀切3-25-1","lat":35.7549733,"lon":139.839038},{"name":"区立新小岩公園","province":"東京都","city":"葛飾区","address":"東京都葛飾区西新小岩1-1-3","lat":35.7158814,"lon":139.8550625},{"name":"区立渋江東公園","province":"東京都","city":"葛飾区","address":"東京都葛飾区東四つ木2-15","lat":35.7307623,"lon":139.843497},{"name":"西新小岩","province":"東京都","city":"葛飾区","address":"東京都葛飾区西新小岩2丁目1","lat":35.71722108,"lon":139.85294947},{"name":"葛飾区","province":"東京都","city":"葛飾区","address":"東京都葛飾区立石5丁目13-1","lat":35.7429853,"lon":139.84740682},{"name":"西新小岩倉庫","province":"東京都","city":"葛飾区","address":"東京都葛飾区西新小岩2丁目1","lat":35.71722108,"lon":139.85294947},{"name":"※葛飾区役所","province":"東京都","city":"葛飾区","address":"東京都葛飾区立石5丁目13-1","lat":35.7429853,"lon":139.84740682},{"name":"金町浄水場","province":"東京都","city":"葛飾区","address":"東京都葛飾区金町浄水場1-1","lat":35.7625165,"lon":139.878351},{"name":"水元給水所（都立水元公園内自由広場）","province":"東京都","city":"葛飾区","address":"東京都葛飾区水元公園4","lat":35.7933213,"lon":139.862382},{"name":"区立上干葉公園","province":"東京都","city":"葛飾区","address":"東京都葛飾区東堀切3-25-1","lat":35.7549733,"lon":139.839038},{"name":"区立新小岩公園","province":"東京都","city":"葛飾区","address":"東京都葛飾区西新小岩1-1-3","lat":35.7158814,"lon":139.8550625},{"name":"区立渋江東公園","province":"東京都","city":"葛飾区","address":"東京都葛飾区東四つ木2-15","lat":35.7307623,"lon":139.843497},{"name":"西新小岩","province":"東京都","city":"葛飾区","address":"東京都葛飾区西新小岩2丁目1","lat":35.71722108,"lon":139.85294947},{"name":"葛飾区","province":"東京都","city":"葛飾区","address":"東京都葛飾区立石5丁目13-1","lat":35.7429853,"lon":139.84740682},{"name":"西新小岩倉庫","province":"東京都","city":"葛飾区","address":"東京都葛飾区西新小岩2丁目1","lat":35.71722108,"lon":139.85294947},{"name":"※葛飾区役所","province":"東京都","city":"葛飾区","address":"東京都葛飾区立石5丁目13-1","lat":35.7429853,"lon":139.84740682},{"name":"金町浄水場","province":"東京都","city":"葛飾区","address":"東京都葛飾区金町浄水場1-1","lat":35.7625165,"lon":139.878351},{"name":"水元給水所（都立水元公園内自由広場）","province":"東京都","city":"葛飾区","address":"東京都葛飾区水元公園4","lat":35.7933213,"lon":139.862382},{"name":"区立上干葉公園","province":"東京都","city":"葛飾区","address":"東京都葛飾区東堀切3-25-1","lat":35.7549733,"lon":139.839038},{"name":"区立新小岩公園","province":"東京都","city":"葛飾区","address":"東京都葛飾区西新小岩1-1-3","lat":35.7158814,"lon":139.8550625},{"name":"区立渋江東公園","province":"東京都","city":"葛飾区","address":"東京都葛飾区東四つ木2-15","lat":35.7307623,"lon":139.843497},{"name":"西新小岩","province":"東京都","city":"葛飾区","address":"東京都葛飾区西新小岩2丁目1","lat":35.71722108,"lon":139.85294947},{"name":"葛飾区","province":"東京都","city":"葛飾区","address":"東京都葛飾区立石5丁目13-1","lat":35.7429853,"lon":139.84740682},{"name":"西新小岩倉庫","province":"東京都","city":"葛飾区","address":"東京都葛飾区西新小岩2丁目1","lat":35.71722108,"lon":139.85294947},{"name":"※葛飾区役所","province":"東京都","city":"葛飾区","address":"東京都葛飾区立石5丁目13-1","lat":35.7429853,"lon":139.84740682},{"name":"金町浄水場","province":"東京都","city":"葛飾区","address":"東京都葛飾区金町浄水場1-1","lat":35.7625165,"lon":139.878351},{"name":"水元給水所（都立水元公園内自由広場）","province":"東京都","city":"葛飾区","address":"東京都葛飾区水元公園4","lat":35.7933213,"lon":139.862382},{"name":"区立上干葉公園","province":"東京都","city":"葛飾区","address":"東京都葛飾区東堀切3-25-1","lat":35.7549733,"lon":139.839038},{"name":"区立新小岩公園","province":"東京都","city":"葛飾区","address":"東京都葛飾区西新小岩1-1-3","lat":35.7158814,"lon":139.8550625},{"name":"区立渋江東公園","province":"東京都","city":"葛飾区","address":"東京都葛飾区東四つ木2-15","lat":35.7307623,"lon":139.843497},{"name":"西新小岩","province":"東京都","city":"葛飾区","address":"東京都葛飾区西新小岩2丁目1","lat":35.71722108,"lon":139.85294947},{"name":"葛飾区","province":"東京都","city":"葛飾区","address":"東京都葛飾区立石5丁目13-1","lat":35.7429853,"lon":139.84740682},{"name":"西新小岩倉庫","province":"東京都","city":"葛飾区","address":"東京都葛飾区西新小岩2丁目1","lat":35.71722108,"lon":139.85294947},{"name":"※葛飾区役所","province":"東京都","city":"葛飾区","address":"東京都葛飾区立石5丁目13-1","lat":35.7429853,"lon":139.84740682},{"name":"金町浄水場","province":"東京都","city":"葛飾区","address":"東京都葛飾区金町浄水場1-1","lat":35.7625165,"lon":139.878351},{"name":"水元給水所（都立水元公園内自由広場）","province":"東京都","city":"葛飾区","address":"東京都葛飾区水元公園4","lat":35.7933213,"lon":139.862382},{"name":"区立上干葉公園","province":"東京都","city":"葛飾区","address":"東京都葛飾区東堀切3-25-1","lat":35.7549733,"lon":139.839038},{"name":"区立新小岩公園","province":"東京都","city":"葛飾区","address":"東京都葛飾区西新小岩1-1-3","lat":35.7158814,"lon":139.8550625},{"name":"区立渋江東公園","province":"東京都","city":"葛飾区","address":"東京都葛飾区東四つ木2-15","lat":35.7307623,"lon":139.843497},{"name":"西新小岩","province":"東京都","city":"葛飾区","address":"東京都葛飾区西新小岩2丁目1","lat":35.71722108,"lon":139.85294947},{"name":"葛飾区","province":"東京都","city":"葛飾区","address":"東京都葛飾区立石5丁目13-1","lat":35.7429853,"lon":139.84740682},{"name":"西新小岩倉庫","province":"東京都","city":"葛飾区","address":"東京都葛飾区西新小岩2丁目1","lat":35.71722108,"lon":139.85294947},{"name":"※葛飾区役所","province":"東京都","city":"葛飾区","address":"東京都葛飾区立石5丁目13-1","lat":35.7429853,"lon":139.84740682},{"name":"金町浄水場","province":"東京都","city":"葛飾区","address":"東京都葛飾区金町浄水場1-1","lat":35.7625165,"lon":139.878351},{"name":"水元給水所（都立水元公園内自由広場）","province":"東京都","city":"葛飾区","address":"東京都葛飾区水元公園4","lat":35.7933213,"lon":139.862382},{"name":"区立上干葉公園","province":"東京都","city":"葛飾区","address":"東京都葛飾区東堀切3-25-1","lat":35.7549733,"lon":139.839038},{"name":"区立新小岩公園","province":"東京都","city":"葛飾区","address":"東京都葛飾区西新小岩1-1-3","lat":35.7158814,"lon":139.8550625},{"name":"区立渋江東公園","province":"東京都","city":"葛飾区","address":"東京都葛飾区東四つ木2-15","lat":35.7307623,"lon":139.843497},{"name":"西新小岩","province":"東京都","city":"葛飾区","address":"東京都葛飾区西新小岩2丁目1","lat":35.71722108,"lon":139.85294947},{"name":"葛飾区","province":"東京都","city":"葛飾区","address":"東京都葛飾区立石5丁目13-1","lat":35.7429853,"lon":139.84740682},{"name":"西新小岩倉庫","province":"東京都","city":"葛飾区","address":"東京都葛飾区西新小岩2丁目1","lat":35.71722108,"lon":139.85294947},{"name":"※葛飾区役所","province":"東京都","city":"葛飾区","address":"東京都葛飾区立石5丁目13-1","lat":35.7429853,"lon":139.84740682},{"name":"金町浄水場","province":"東京都","city":"葛飾区","address":"東京都葛飾区金町浄水場1-1","lat":35.7625165,"lon":139.878351},{"name":"水元給水所（都立水元公園内自由広場）","province":"東京都","city":"葛飾区","address":"東京都葛飾区水元公園4","lat":35.7933213,"lon":139.862382},{"name":"区立上干葉公園","province":"東京都","city":"葛飾区","address":"東京都葛飾区東堀切3-25-1","lat":35.7549733,"lon":139.839038},{"name":"区立新小岩公園","province":"東京都","city":"葛飾区","address":"東京都葛飾区西新小岩1-1-3","lat":35.7158814,"lon":139.8550625},{"name":"区立渋江東公園","province":"東京都","city":"葛飾区","address":"東京都葛飾区東四つ木2-15","lat":35.7307623,"lon":139.843497},{"name":"西新小岩","province":"東京都","city":"葛飾区","address":"東京都葛飾区西新小岩2丁目1","lat":35.71722108,"lon":139.85294947},{"name":"葛飾区","province":"東京都","city":"葛飾区","address":"東京都葛飾区立石5丁目13-1","lat":35.7429853,"lon":139.84740682},{"name":"西新小岩倉庫","province":"東京都","city":"葛飾区","address":"東京都葛飾区西新小岩2丁目1","lat":35.71722108,"lon":139.85294947},{"name":"※葛飾区役所","province":"東京都","city":"葛飾区","address":"東京都葛飾区立石5丁目13-1","lat":35.7429853,"lon":139.84740682},{"name":"金町浄水場","province":"東京都","city":"葛飾区","address":"東京都葛飾区金町浄水場1-1","lat":35.7625165,"lon":139.878351},{"name":"水元給水所（都立水元公園内自由広場）","province":"東京都","city":"葛飾区","address":"東京都葛飾区水元公園4","lat":35.7933213,"lon":139.862382},{"name":"区立上干葉公園","province":"東京都","city":"葛飾区","address":"東京都葛飾区東堀切3-25-1","lat":35.7549733,"lon":139.839038},{"name":"区立新小岩公園","province":"東京都","city":"葛飾区","address":"東京都葛飾区西新小岩1-1-3","lat":35.7158814,"lon":139.8550625},{"name":"区立渋江東公園","province":"東京都","city":"葛飾区","address":"東京都葛飾区東四つ木2-15","lat":35.7307623,"lon":139.843497},{"name":"西新小岩","province":"東京都","city":"葛飾区","address":"東京都葛飾区西新小岩2丁目1","lat":35.71722108,"lon":139.85294947},{"name":"葛飾区","province":"東京都","city":"葛飾区","address":"東京都葛飾区立石5丁目13-1","lat":35.7429853,"lon":139.84740682},{"name":"西新小岩倉庫","province":"東京都","city":"葛飾区","address":"東京都葛飾区西新小岩2丁目1","lat":35.71722108,"lon":139.85294947},{"name":"※葛飾区役所","province":"東京都","city":"葛飾区","address":"東京都葛飾区立石5丁目13-1","lat":35.7429853,"lon":139.84740682},{"name":"金町浄水場","province":"東京都","city":"葛飾区","address":"東京都葛飾区金町浄水場1-1","lat":35.7625165,"lon":139.878351},{"name":"水元給水所（都立水元公園内自由広場）","province":"東京都","city":"葛飾区","address":"東京都葛飾区水元公園4","lat":35.7933213,"lon":139.862382},{"name":"区立上干葉公園","province":"東京都","city":"葛飾区","address":"東京都葛飾区東堀切3-25-1","lat":35.7549733,"lon":139.839038},{"name":"区立新小岩公園","province":"東京都","city":"葛飾区","address":"東京都葛飾区西新小岩1-1-3","lat":35.7158814,"lon":139.8550625},{"name":"区立渋江東公園","province":"東京都","city":"葛飾区","address":"東京都葛飾区東四つ木2-15","lat":35.7307623,"lon":139.843497},{"name":"西新小岩","province":"東京都","city":"葛飾区","address":"東京都葛飾区西新小岩2丁目1","lat":35.71722108,"lon":139.85294947},{"name":"葛飾区","province":"東京都","city":"葛飾区","address":"東京都葛飾区立石5丁目13-1","lat":35.7429853,"lon":139.84740682},{"name":"西新小岩倉庫","province":"東京都","city":"葛飾区","address":"東京都葛飾区西新小岩2丁目1","lat":35.71722108,"lon":139.85294947},{"name":"※葛飾区役所","province":"東京都","city":"葛飾区","address":"東京都葛飾区立石5丁目13-1","lat":35.7429853,"lon":139.84740682}]}