{"keyword":"商品","data":[{"name":"東部地域病院","province":"東京都","city":"葛飾区","address":"東京都葛飾区亀有5丁目14-1","lat":35.7662352,"lon":139.84445332},{"name":"小菅児童館","province":"東京都","city":"葛飾区","address":"葛飾区小菅2-19-13","lat":35.750481,"lon":139.826206},{"name":"中道児童館","province":"東京都","city":"葛飾区","address":"葛飾区西亀有1-2-7","lat":35.756814,"lon":139.83709},{"name":"東堀切児童館","province":"東京都","city":"葛飾区","address":"葛飾区東堀切2-20-8","lat":35.751507,"lon":139.83508},{"name":"宝町児童館","province":"東京都","city":"葛飾区","address":"葛飾区宝町1-5-1","lat":35.742227,"lon":139.835272},{"name":"堀切児童館","province":"東京都","city":"葛飾区","address":"葛飾区堀切1-9-18","lat":35.740139,"lon":139.828026},{"name":"梅田児童館","province":"東京都","city":"葛飾区","address":"葛飾区立石3-26-10","lat":35.741097,"lon":139.845377},{"name":"渋江児童館","province":"東京都","city":"葛飾区","address":"葛飾区東四つ木2-15-11","lat":35.730865,"lon":139.843677},{"name":"細田児童館","province":"東京都","city":"葛飾区","address":"葛飾区細田4-19-8","lat":35.742964,"lon":139.872107},{"name":"西奥戸児童館","province":"東京都","city":"葛飾区","address":"葛飾区奥戸1-12-1","lat":35.728595,"lon":139.854054},{"name":"東奥戸児童館","province":"東京都","city":"葛飾区","address":"葛飾区奥戸4-20-11","lat":35.728829,"lon":139.867925},{"name":"南奥戸児童館","province":"東京都","city":"葛飾区","address":"葛飾区奥戸2-30-11","lat":35.733698,"lon":139.859895},{"name":"葛飾区児童会館","province":"東京都","city":"葛飾区","address":"葛飾区西新小岩4-33-2","lat":35.718721,"lon":139.853708},{"name":"西亀有児童館","province":"東京都","city":"葛飾区","address":"葛飾区西亀有4-24-1","lat":35.764838,"lon":139.84357},{"name":"幸田児童館","province":"東京都","city":"葛飾区","address":"葛飾区西水元2-16-10","lat":35.786074,"lon":139.851336},{"name":"新水元児童館","province":"東京都","city":"葛飾区","address":"葛飾区東水元3-5-7","lat":35.784191,"lon":139.866129},{"name":"花の木児童館","province":"東京都","city":"葛飾区","address":"葛飾区南水元3-7-1","lat":35.773806,"lon":139.86564},{"name":"葛飾区金町子どもセンター","province":"東京都","city":"葛飾区","address":"葛飾区東金町3-8-1","lat":35.771529,"lon":139.875482},{"name":"東金町児童館","province":"東京都","city":"葛飾区","address":"葛飾区東金町5-22-18","lat":35.779325,"lon":139.878048},{"name":"末広児童館","province":"東京都","city":"葛飾区","address":"葛飾区金町5-4-1","lat":35.765966,"lon":139.866357},{"name":"南新宿児童館","province":"東京都","city":"葛飾区","address":"葛飾区新宿1-23-4","lat":35.760481,"lon":139.860985},{"name":"柴又児童館","province":"東京都","city":"葛飾区","address":"葛飾区柴又2-4-5","lat":35.758011,"lon":139.870066},{"name":"新柴又児童館","province":"東京都","city":"葛飾区","address":"葛飾区柴又5-33-8","lat":35.753673,"lon":139.881882},{"name":"鎌倉児童館","province":"東京都","city":"葛飾区","address":"葛飾区鎌倉2-6-20","lat":35.745277,"lon":139.874471},{"name":"高砂児童館","province":"東京都","city":"葛飾区","address":"葛飾区高砂5-6-7","lat":35.751398,"lon":139.865202},{"name":"亀有児童館","province":"東京都","city":"葛飾区","address":"葛飾区亀有1-17-5","lat":35.759119,"lon":139.846028},{"name":"青戸中央児童館","province":"東京都","city":"葛飾区","address":"葛飾区青戸6-16-12","lat":35.752973,"lon":139.857092},{"name":"青戸児童館","province":"東京都","city":"葛飾区","address":"葛飾区青戸3-10-5","lat":35.746321,"lon":139.848815},{"name":"白鳥児童館","province":"東京都","city":"葛飾区","address":"葛飾区白鳥3-32-6","lat":35.75555,"lon":139.844095},{"name":"葛飾区子ども発達センター","province":"東京都","city":"葛飾区","address":"葛飾区堀切3-34-1","lat":35.744335,"lon":139.834522},{"name":"葛飾区社会福祉協議会","province":"東京都","city":"葛飾区","address":"葛飾区堀切3-34-1地域福祉・障害者センター3階","lat":35.744335,"lon":139.834522},{"name":"葛飾区子ども総合センター","province":"東京都","city":"葛飾区","address":"葛飾区青戸4-15-14健康プラザかつしか2階","lat":35.751567,"lon":139.850589},{"name":"水元公園","province":"東京都","city":"葛飾区","address":"東京都葛飾区水元公園4","lat":35.792797,"lon":139.868547},{"name":"水元公園","province":"東京都","city":"葛飾区","address":"東京都葛飾区東金町5丁目53","lat":35.779197,"lon":139.882708},{"name":"水元公園","province":"東京都","city":"葛飾区","address":"東京都葛飾区東金町8丁目7","lat":35.781537,"lon":139.88397},{"name":"水元公園","province":"東京都","city":"葛飾区","address":"東京都葛飾区東金町8丁目32","lat":35.782326,"lon":139.885783},{"name":"水元公園","province":"東京都","city":"葛飾区","address":"東京都葛飾区水元公園1","lat":35.780656,"lon":139.877585},{"name":"水元公園","province":"東京都","city":"葛飾区","address":"東京都葛飾区東水元2丁目41","lat":35.782677,"lon":139.869401},{"name":"水元公園","province":"東京都","city":"葛飾区","address":"東京都葛飾区東金町8丁目28","lat":35.782268,"lon":139.887126},{"name":"水元公園","province":"東京都","city":"葛飾区","address":"東京都葛飾区水元公園8","lat":35.793839,"lon":139.859872},{"name":"水元公園","province":"東京都","city":"葛飾区","address":"東京都葛飾区水元公園2","lat":35.782085,"lon":139.871706},{"name":"水元公園","province":"東京都","city":"葛飾区","address":"東京都葛飾区水元公園3","lat":35.784984,"lon":139.869666},{"name":"水元公園","province":"東京都","city":"葛飾区","address":"東京都葛飾区水元公園4","lat":35.788542,"lon":139.869486},{"name":"水元公園","province":"東京都","city":"葛飾区","address":"東京都葛飾区水元公園4","lat":35.79077,"lon":139.869622},{"name":"水元公園","province":"東京都","city":"葛飾区","address":"東京都葛飾区水元公園4","lat":35.790769,"lon":139.869668},{"name":"水元公園","province":"東京都","city":"葛飾区","address":"東京都葛飾区水元公園5","lat":35.791832,"lon":139.871356},{"name":"水元公園","province":"東京都","city":"葛飾区","address":"東京都葛飾区水元公園7","lat":35.795198,"lon":139.871564},{"name":"水元公園","province":"東京都","city":"葛飾区","address":"東京都葛飾区水元公園7","lat":35.79455,"lon":139.867452},{"name":"水元公園","province":"東京都","city":"葛飾区","address":"東京都葛飾区水元公園7-2","lat":35.795779,"lon":139.871166},{"name":"水元公園","province":"東京都","city":"葛飾区","address":"東京都葛飾区水元公園1-1","lat":35.780776,"lon":139.878289},{"name":"水元公園","province":"東京都","city":"葛飾区","address":"東京都葛飾区水元公園3","lat":35.785413,"lon":139.870299},{"name":"東京都水道局葛飾営業所","province":"東京都","city":"葛飾区","address":"東京都葛飾区立石8丁目17-4","lat":35.741298,"lon":139.853302},{"name":"本田消防署奥戸出張所","province":"東京都","city":"葛飾区","address":"東京都葛飾区奥戸8丁目10","lat":35.735902,"lon":139.86713},{"name":"金町消防署","province":"東京都","city":"葛飾区","address":"東京都葛飾区金町4丁目15-20","lat":35.764106,"lon":139.865272},{"name":"金町消防署亀有出張所","province":"東京都","city":"葛飾区","address":"東京都葛飾区亀有1丁目26-5","lat":35.76201,"lon":139.84627},{"name":"葛飾区総合庁舎","province":"東京都","city":"葛飾区","address":"東京都葛飾区立石5丁目13-1","lat":35.743472,"lon":139.847013},{"name":"葛飾区総合庁舎","province":"東京都","city":"葛飾区","address":"東京都葛飾区立石5丁目13-1","lat":35.743114,"lon":139.846936},{"name":"葛飾区総合庁舎","province":"東京都","city":"葛飾区","address":"東京都葛飾区立石5丁目13-1","lat":35.743277,"lon":139.847679},{"name":"高砂地区センター","province":"東京都","city":"葛飾区","address":"東京都葛飾区高砂3丁目1-39","lat":35.745937,"lon":139.868413},{"name":"道路補修課庁舎","province":"東京都","city":"葛飾区","address":"東京都葛飾区立石4丁目34-4","lat":35.741959,"lon":139.847493},{"name":"福祉事務所東庁舎","province":"東京都","city":"葛飾区","address":"東京都葛飾区金町1丁目6-24","lat":35.761954,"lon":139.865809},{"name":"西水元地区センター","province":"東京都","city":"葛飾区","address":"東京都葛飾区西水元5丁目3-1","lat":35.785326,"lon":139.854078},{"name":"柴又地区センター","province":"東京都","city":"葛飾区","address":"東京都葛飾区柴又1丁目38-2","lat":35.75572,"lon":139.872667},{"name":"青戸地区センター","province":"東京都","city":"葛飾区","address":"東京都葛飾区青戸5丁目20-6","lat":35.750125,"lon":139.854352},{"name":"亀有地区センター","province":"東京都","city":"葛飾区","address":"東京都葛飾区亀有3丁目26-1","lat":35.766558,"lon":139.848785},{"name":"勤労福祉会館立石地区センター別館","province":"東京都","city":"葛飾区","address":"東京都葛飾区立石3丁目12-1","lat":35.740048,"lon":139.843613},{"name":"立石地区センター","province":"東京都","city":"葛飾区","address":"東京都葛飾区立石4丁目23-17","lat":35.7385,"lon":139.848188},{"name":"東立石地区センター","province":"東京都","city":"葛飾区","address":"東京都葛飾区東立石2丁目15-7","lat":35.734106,"lon":139.847645},{"name":"東四つ木地区センター","province":"東京都","city":"葛飾区","address":"東京都葛飾区東四つ木1丁目20-4","lat":35.728937,"lon":139.840683},{"name":"東四つ木地区センター","province":"東京都","city":"葛飾区","address":"東京都葛飾区東四つ木1丁目20-4","lat":35.728937,"lon":139.840682},{"name":"金町地区センター","province":"東京都","city":"葛飾区","address":"東京都葛飾区東金町1丁目22-1","lat":35.769715,"lon":139.868847},{"name":"南綾瀬地区センター","province":"東京都","city":"葛飾区","address":"東京都葛飾区堀切7丁目8-22","lat":35.754028,"lon":139.829986},{"name":"堀切地区センター","province":"東京都","city":"葛飾区","address":"東京都葛飾区堀切3丁目8-5","lat":35.747223,"lon":139.828068},{"name":"堀切地区センター","province":"東京都","city":"葛飾区","address":"東京都葛飾区堀切3丁目8-5","lat":35.747225,"lon":139.828068},{"name":"四つ木地区センター","province":"東京都","city":"葛飾区","address":"東京都葛飾区宝町1丁目1-22","lat":35.740129,"lon":139.837156},{"name":"新小岩地区センター","province":"東京都","city":"葛飾区","address":"東京都葛飾区新小岩2丁目17-1","lat":35.716325,"lon":139.861765},{"name":"新小岩北地区センター","province":"東京都","city":"葛飾区","address":"東京都葛飾区東新小岩6丁目21-1","lat":35.723963,"lon":139.858762},{"name":"水元学び交流館","province":"東京都","city":"葛飾区","address":"東京都葛飾区南水元2丁目13-1","lat":35.7796,"lon":139.855638},{"name":"水元憩い交流館","province":"東京都","city":"葛飾区","address":"東京都葛飾区水元4丁目6-15","lat":35.78814,"lon":139.860628},{"name":"柴又憩い交流館","province":"東京都","city":"葛飾区","address":"東京都葛飾区柴又2丁目4-5","lat":35.758015,"lon":139.870125},{"name":"新宿憩い交流館","province":"東京都","city":"葛飾区","address":"東京都葛飾区新宿1丁目5-6","lat":35.759034,"lon":139.85897},{"name":"宝町憩い交流館","province":"東京都","city":"葛飾区","address":"東京都葛飾区宝町2丁目38-19","lat":35.7477,"lon":139.837164},{"name":"砂原憩い交流館","province":"東京都","city":"葛飾区","address":"東京都葛飾区西亀有3丁目12-1","lat":35.762525,"lon":139.838073},{"name":"東奥戸憩い交流館","province":"東京都","city":"葛飾区","address":"東京都葛飾区奥戸4丁目20-11","lat":35.728866,"lon":139.867932},{"name":"水元学び交流館","province":"東京都","city":"葛飾区","address":"東京都葛飾区南水元2丁目13-1","lat":35.7796,"lon":139.855639},{"name":"柴又学び交流館","province":"東京都","city":"葛飾区","address":"東京都葛飾区南水元2丁目13-1","lat":35.7796,"lon":139.855638},{"name":"観光文化センターＡ棟","province":"東京都","city":"葛飾区","address":"東京都葛飾区柴又6丁目22","lat":35.757216,"lon":139.880641},{"name":"亀有学び交流館","province":"東京都","city":"葛飾区","address":"東京都葛飾区南水元2丁目13-1","lat":35.7796,"lon":139.855639},{"name":"亀有学び交流館","province":"東京都","city":"葛飾区","address":"東京都葛飾区お花茶屋3丁目5-6","lat":35.756582,"lon":139.843173},{"name":"葛飾区保健所及び子ども総合センター（「健康プラザかつしか」）","province":"東京都","city":"葛飾区","address":"東京都葛飾区青戸4丁目15-14","lat":35.751482,"lon":139.850533},{"name":"葛飾区保健所及び子ども総合センター（「健康プラザかつしか」）","province":"東京都","city":"葛飾区","address":"東京都葛飾区青戸4丁目15-14","lat":35.751485,"lon":139.850533},{"name":"葛飾区保健所及び子ども総合センター（「健康プラザかつしか」）","province":"東京都","city":"葛飾区","address":"東京都葛飾区青戸4丁目15-14","lat":35.751487,"lon":139.850533},{"name":"金町保健センター","province":"東京都","city":"葛飾区","address":"東京都葛飾区金町4丁目18-19","lat":35.764674,"lon":139.865088},{"name":"鎌倉図書館","province":"東京都","city":"葛飾区","address":"東京都葛飾区鎌倉2丁目4-5","lat":35.745244,"lon":139.875337},{"name":"亀有図書館","province":"東京都","city":"葛飾区","address":"東京都葛飾区亀有1丁目17-5","lat":35.759186,"lon":139.846027},{"name":"立石図書館","province":"東京都","city":"葛飾区","address":"東京都葛飾区立石1丁目9-1","lat":35.737232,"lon":139.845692},{"name":"四つ木地区図書館","province":"東京都","city":"葛飾区","address":"東京都葛飾区四つ木4丁目8-1","lat":35.737055,"lon":139.834171},{"name":"中央図書館","province":"東京都","city":"葛飾区","address":"東京都葛飾区金町6丁目2-1","lat":35.768102,"lon":139.871165},{"name":"中央図書館","province":"東京都","city":"葛飾区","address":"東京都葛飾区金町6丁目2-1","lat":35.768106,"lon":139.87116},{"name":"お花茶屋図書館","province":"東京都","city":"葛飾区","address":"東京都葛飾区お花茶屋2丁目1-15","lat":35.751164,"lon":139.838698},{"name":"上小松図書館","province":"東京都","city":"葛飾区","address":"東京都葛飾区東新小岩3丁目12-1","lat":35.722999,"lon":139.861884},{"name":"奥戸地区図書館","province":"東京都","city":"葛飾区","address":"東京都葛飾区奥戸3丁目5-1","lat":35.731446,"lon":139.859494},{"name":"にいじゅく地区図書館","province":"東京都","city":"葛飾区","address":"東京都葛飾区新宿3丁目7-1","lat":35.761455,"lon":139.862189},{"name":"こすげ地区図書館","province":"東京都","city":"葛飾区","address":"東京都葛飾区小菅3丁目8-22","lat":35.753868,"lon":139.824976},{"name":"郷土と天文の博物館","province":"東京都","city":"葛飾区","address":"東京都葛飾区白鳥3丁目25-1","lat":35.752878,"lon":139.843387},{"name":"山本亭","province":"東京都","city":"葛飾区","address":"東京都葛飾区柴又7丁目19","lat":35.758013,"lon":139.880079},{"name":"観光文化センターB棟","province":"東京都","city":"葛飾区","address":"東京都葛飾区柴又6丁目22-19","lat":35.756687,"lon":139.880531},{"name":"かつしかｼﾝﾌｫﾆｰﾋﾙｽﾞ本館","province":"東京都","city":"葛飾区","address":"東京都葛飾区立石6丁目33-1","lat":35.74244832,"lon":139.8522684},{"name":"葛飾区科学教育センター","province":"東京都","city":"葛飾区","address":"東京都葛飾区新宿6丁目3-2","lat":35.7722,"lon":139.862198},{"name":"かつしかｼﾝﾌｫﾆｰﾋﾙｽﾞ別館","province":"東京都","city":"葛飾区","address":"東京都葛飾区立石6丁目34","lat":35.74245283,"lon":139.8529006},{"name":"白ゆり公園","province":"東京都","city":"葛飾区","address":"東京都葛飾区水元5丁目5","lat":35.79118871,"lon":139.8594292},{"name":"鎌倉公園（北側）","province":"東京都","city":"葛飾区","address":"東京都葛飾区鎌倉3丁目21","lat":35.7500218,"lon":139.8770432},{"name":"小菅東スポーツ公園(北側)","province":"東京都","city":"葛飾区","address":"東京都葛飾区小菅3丁目1-1","lat":35.753868,"lon":139.822294},{"name":"小菅東スポーツ公園(更衣室棟)","province":"東京都","city":"葛飾区","address":"東京都葛飾区小菅3丁目1-1","lat":35.752963,"lon":139.822672},{"name":"柴又公衆便所","province":"東京都","city":"葛飾区","address":"東京都葛飾区柴又7丁目7","lat":35.75821664,"lon":139.8777007},{"name":"柴又公園(河川敷上流側)","province":"東京都","city":"葛飾区","address":"東京都葛飾区柴又7丁目","lat":35.75981,"lon":139.881345},{"name":"柴又公園(河川敷駐車場側)","province":"東京都","city":"葛飾区","address":"東京都葛飾区柴又6丁目","lat":35.756944,"lon":139.881917},{"name":"白鳥わかば公園","province":"東京都","city":"葛飾区","address":"東京都葛飾区白鳥3丁目24","lat":35.752017,"lon":139.844313},{"name":"新小岩二丁目小松菜児童遊園","province":"東京都","city":"葛飾区","address":"東京都葛飾区新小岩2丁目2","lat":35.718409,"lon":139.860861},{"name":"ウイメンズパル","province":"東京都","city":"葛飾区","address":"東京都葛飾区立石5丁目27-1","lat":35.74583207,"lon":139.8462523},{"name":"水元スポーツセンター公園（東側）","province":"東京都","city":"葛飾区","address":"東京都葛飾区水元1丁目23","lat":35.781166,"lon":139.859126},{"name":"ウェルピアかつしか","province":"東京都","city":"葛飾区","address":"東京都葛飾区堀切3丁目34-1","lat":35.74445,"lon":139.83461},{"name":"にこわ新小岩","province":"東京都","city":"葛飾区","address":"東京都葛飾区西新小岩4丁目33-2","lat":35.71888,"lon":139.85357},{"name":"えきにこわ","province":"東京都","city":"葛飾区","address":"東京都葛飾区新小岩1丁目47","lat":35.716489,"lon":139.858195},{"name":"葛飾区保健所（地域保健課）","province":"東京都","city":"葛飾区","address":"東京都葛飾区青戸4丁目15-14","lat":35.75147327,"lon":139.8505256},{"name":"葛飾区保健所（生活衛生課）","province":"東京都","city":"葛飾区","address":"東京都葛飾区青戸4丁目15-14","lat":35.75147327,"lon":139.8505256},{"name":"葛飾区保健所（健康推進課）","province":"東京都","city":"葛飾区","address":"東京都葛飾区青戸4丁目15-14","lat":35.75147327,"lon":139.8505256},{"name":"葛飾区保健所（保健予防課）","province":"東京都","city":"葛飾区","address":"東京都葛飾区青戸4丁目15-14","lat":35.75147327,"lon":139.8505256},{"name":"青戸保健センター","province":"東京都","city":"葛飾区","address":"東京都葛飾区青戸4丁目15-14","lat":35.75147327,"lon":139.8505256},{"name":"金町保健センター","province":"東京都","city":"葛飾区","address":"東京都葛飾区金町4丁目18-19","lat":35.76463548,"lon":139.86505735},{"name":"新小岩保健センター","province":"東京都","city":"葛飾区","address":"東京都葛飾区西新小岩4丁目33-2","lat":35.71900154,"lon":139.85337431},{"name":"水元保健センター","province":"東京都","city":"葛飾区","address":"東京都葛飾区東水元1丁目7-3","lat":35.77884728,"lon":139.8675263},{"name":"葛飾区シニア活動支援センター","province":"東京都","city":"葛飾区","address":"葛飾区立石6-38-11","lat":35.74379,"lon":139.85437},{"name":"東京愛育苑向島学園","province":"東京都","city":"葛飾区","address":"葛飾区水元3-13-8","lat":35.7826,"lon":139.86394},{"name":"共生会希望の家","province":"東京都","city":"葛飾区","address":"葛飾区青戸4-14-15","lat":35.75149,"lon":139.84972},{"name":"小菅児童館","province":"東京都","city":"葛飾区","address":"葛飾区小菅2-19-1","lat":35.75019,"lon":139.82582},{"name":"中道児童館","province":"東京都","city":"葛飾区","address":"葛飾区西亀有1-2-7","lat":35.75663,"lon":139.83699},{"name":"東堀切児童館","province":"東京都","city":"葛飾区","address":"葛飾区東堀切2-20-8","lat":35.75078,"lon":139.8353},{"name":"宝町児童館","province":"東京都","city":"葛飾区","address":"葛飾区宝町1-5-1","lat":35.74249,"lon":139.83517},{"name":"堀切児童館","province":"東京都","city":"葛飾区","address":"葛飾区堀切1-9-18","lat":35.74015,"lon":139.82787},{"name":"梅田児童館","province":"東京都","city":"葛飾区","address":"葛飾区立石3-26-10","lat":35.74092,"lon":139.84521},{"name":"渋江児童館","province":"東京都","city":"葛飾区","address":"葛飾区東四つ木1-20-4","lat":35.72883,"lon":139.84062},{"name":"西奥戸児童館","province":"東京都","city":"葛飾区","address":"葛飾区奥戸1-12-1","lat":35.7288,"lon":139.85399},{"name":"南奥戸児童館","province":"東京都","city":"葛飾区","address":"葛飾区奥戸2-30-11","lat":35.73333,"lon":139.85912},{"name":"東奥戸児童館","province":"東京都","city":"葛飾区","address":"葛飾区奥戸4-20-11","lat":35.7284,"lon":139.86754},{"name":"西亀有児童館","province":"東京都","city":"葛飾区","address":"葛飾区西亀有4-24-1","lat":35.76512,"lon":139.84392},{"name":"幸田児童館","province":"東京都","city":"葛飾区","address":"葛飾区西水元2-16-10","lat":35.78585,"lon":139.85127},{"name":"新水元児童館","province":"東京都","city":"葛飾区","address":"葛飾区東水元3-5-7","lat":35.78404,"lon":139.86613},{"name":"花の木児童館","province":"東京都","city":"葛飾区","address":"葛飾区南水元3-7-1","lat":35.77343,"lon":139.86581},{"name":"金町子どもセンター","province":"東京都","city":"葛飾区","address":"葛飾区東金町3-8-1","lat":35.77158,"lon":139.87549},{"name":"東金町児童館","province":"東京都","city":"葛飾区","address":"葛飾区東金町5-22-18","lat":35.7794,"lon":139.87787},{"name":"末広児童館","province":"東京都","city":"葛飾区","address":"葛飾区金町5-4-1","lat":35.76581,"lon":139.86678},{"name":"南新宿児童館","province":"東京都","city":"葛飾区","address":"葛飾区新宿1-23-4","lat":35.76056,"lon":139.86095},{"name":"柴又児童館","province":"東京都","city":"葛飾区","address":"葛飾区柴又2-4-5","lat":35.75816,"lon":139.87013},{"name":"新柴又児童館","province":"東京都","city":"葛飾区","address":"葛飾区柴又5-33-8","lat":35.75348,"lon":139.88097},{"name":"鎌倉児童館","province":"東京都","city":"葛飾区","address":"葛飾区鎌倉2-6-20","lat":35.74531,"lon":139.87433},{"name":"高砂児童館","province":"東京都","city":"葛飾区","address":"葛飾区高砂5-6-7","lat":35.75124,"lon":139.86525},{"name":"亀有児童館","province":"東京都","city":"葛飾区","address":"葛飾区亀有1-17-5","lat":35.75911,"lon":139.84593},{"name":"青戸児童館","province":"東京都","city":"葛飾区","address":"葛飾区青戸3-10-5","lat":35.74647,"lon":139.8488},{"name":"青戸中央児童館","province":"東京都","city":"葛飾区","address":"葛飾区青戸6-16-12","lat":35.75296,"lon":139.85678},{"name":"白鳥児童館","province":"東京都","city":"葛飾区","address":"葛飾区西亀有1-18-6","lat":35.75841,"lon":139.83906},{"name":"葛飾区社会福祉協議会","province":"東京都","city":"葛飾区","address":"葛飾区堀切3-34-1地域福祉・障害者センター3階","lat":35.74439,"lon":139.83444},{"name":"葛飾区（西生活課）","province":"東京都","city":"葛飾区","address":"葛飾区立石5-13-1","lat":35.74316,"lon":139.84729},{"name":"葛飾区（東生活課）","province":"東京都","city":"葛飾区","address":"葛飾区金町1-6-24","lat":35.76221,"lon":139.86522},{"name":"葛飾区保健所（地域保健課）","province":"東京都","city":"葛飾区","address":"葛飾区青戸4-15-14","lat":35.75141,"lon":139.85063},{"name":"葛飾区保健所（生活衛生課）","province":"東京都","city":"葛飾区","address":"葛飾区青戸4-15-14","lat":35.75141,"lon":139.85063},{"name":"葛飾区保健所（健康づくり課）","province":"東京都","city":"葛飾区","address":"葛飾区青戸4-15-14","lat":35.75141,"lon":139.85063},{"name":"葛飾区保健所（保健予防課）","province":"東京都","city":"葛飾区","address":"葛飾区青戸4-15-14","lat":35.75141,"lon":139.85063},{"name":"青戸保健センター","province":"東京都","city":"葛飾区","address":"葛飾区青戸4-15-14","lat":35.75141,"lon":139.85063},{"name":"金町保健センター","province":"東京都","city":"葛飾区","address":"葛飾区金町4-18-19","lat":35.76478,"lon":139.86496},{"name":"新小岩保健センター","province":"東京都","city":"葛飾区","address":"葛飾区西新小岩4-33-2","lat":35.71869,"lon":139.85342},{"name":"水元保健センター","province":"東京都","city":"葛飾区","address":"葛飾区東水元1-7-3","lat":35.77879,"lon":139.86784},{"name":"葛飾区児童相談所","province":"東京都","city":"葛飾区","address":"葛飾区立石2-30-1","lat":35.7404419,"lon":139.841239},{"name":"葛飾区子ども総合センター","province":"東京都","city":"葛飾区","address":"葛飾区青戸4-15-14健康プラザかつしか2階","lat":35.75141,"lon":139.85063},{"name":"白鳥児童館","province":"東京都","city":"葛飾区","address":"葛飾区白鳥3-32-6","lat":35.75538,"lon":139.84431},{"name":"渋江児童館","province":"東京都","city":"葛飾区","address":"葛飾区東四つ木2-15-11","lat":35.7308,"lon":139.84355},{"name":"葛飾区児童会館","province":"東京都","city":"葛飾区","address":"葛飾区西新小岩4-33-10新小岩学び交流館内","lat":35.71869,"lon":139.85342},{"name":"葛飾区金町子どもセンター","province":"東京都","city":"葛飾区","address":"葛飾区東金町3-8-1","lat":35.77158,"lon":139.87549},{"name":"新小岩保健センター","province":"東京都","city":"葛飾区","address":"葛飾区西新小岩4-21-12","lat":35.72127,"lon":139.85213},{"name":"葛飾区シニア活動支援センター","province":"東京都","city":"葛飾区","address":"葛飾区立石6-38-11","lat":35.743852,"lon":139.854392},{"name":"東京愛育苑向島学園","province":"東京都","city":"葛飾区","address":"葛飾区水元3-13-8","lat":35.782555,"lon":139.863901},{"name":"共生会希望の家","province":"東京都","city":"葛飾区","address":"葛飾区青戸4-14-15","lat":35.751943,"lon":139.850242},{"name":"葛飾区児童会館","province":"東京都","city":"葛飾区","address":"葛飾区西新小岩4-33-10","lat":35.718574,"lon":139.853199},{"name":"宝町児童館","province":"東京都","city":"葛飾区","address":"葛飾区宝町1-5-1","lat":35.74249,"lon":139.83518},{"name":"梅田児童館","province":"東京都","city":"葛飾区","address":"葛飾区立石3-26-10","lat":35.74092,"lon":139.84522},{"name":"新水元児童館","province":"東京都","city":"葛飾区","address":"葛飾区東水元3-5-7","lat":35.78404,"lon":139.86614},{"name":"白鳥児童館","province":"東京都","city":"葛飾区","address":"葛飾区白鳥3-32-6","lat":35.75538,"lon":139.84432},{"name":"東京慈恵会医科大学葛飾医療センター","province":"東京都","city":"葛飾区","address":"東京都葛飾区青戸6丁目41-2","lat":35.75182053,"lon":139.85865266},{"name":"東京都保健医療公社東部地域病院","province":"東京都","city":"葛飾区","address":"東京都葛飾区亀有5丁目14-1","lat":35.7662352,"lon":139.84445332},{"name":"四ツ木斎場","province":"東京都","city":"葛飾区","address":"東京都葛飾区白鳥2丁目9-1","lat":35.74872634,"lon":139.84334309},{"name":"＊?男女平等推進センター","province":"東京都","city":"葛飾区","address":"葛飾区立石5-27-1","lat":35.745783,"lon":139.846325},{"name":"東京愛育苑ケアレジデンス","province":"東京都","city":"葛飾区","address":"葛飾区水元3-13-2","lat":35.782319,"lon":139.863493},{"name":"葛飾区（西生活課）","province":"東京都","city":"葛飾区","address":"葛飾区立石5-13-1","lat":35.742985,"lon":139.847407},{"name":"葛飾区（東生活課）","province":"東京都","city":"葛飾区","address":"葛飾区金町1-6-24","lat":35.761975,"lon":139.865796},{"name":"葛飾保健所","province":"東京都","city":"葛飾区","address":"東京都葛飾区青戸4丁目15-14","lat":35.75147327,"lon":139.8505256},{"name":"亀有警察署","province":"東京都","city":"葛飾区","address":"葛飾区新宿4-22-19","lat":35.76235,"lon":139.8622},{"name":"葛飾警察署","province":"東京都","city":"葛飾区","address":"葛飾区立石2-7-9","lat":35.73806,"lon":139.839},{"name":"第七方面訓練場","province":"東京都","city":"葛飾区","address":"葛飾区高砂1-1","lat":35.74091,"lon":139.8619},{"name":"金町消防署","province":"東京都","city":"葛飾区","address":"葛飾区金町4-15-20","lat":35.76395,"lon":139.8652},{"name":"本田消防署","province":"東京都","city":"葛飾区","address":"葛飾区東立石3-12-7","lat":35.73621,"lon":139.8443},{"name":"都立水元公園","province":"東京都","city":"葛飾区","address":"葛飾区水元公園","lat":35.78643,"lon":139.8693},{"name":"葛飾清掃工場","province":"東京都","city":"葛飾区","address":"葛飾区水元1-20-1","lat":35.78086,"lon":139.8565},{"name":"葛飾区立総合スポーツセンター陸上競技場","province":"東京都","city":"葛飾区","address":"葛飾区奥戸7-17-1","lat":35.73766,"lon":139.8621},{"name":"小菅児童館","province":"東京都","city":"葛飾区","address":"葛飾区小菅2-19-13","lat":35.750481,"lon":139.826206},{"name":"中道児童館","province":"東京都","city":"葛飾区","address":"葛飾区西亀有1-2-7","lat":35.756814,"lon":139.83709},{"name":"東堀切児童館","province":"東京都","city":"葛飾区","address":"葛飾区東堀切2-20-8","lat":35.751507,"lon":139.83508},{"name":"宝町児童館","province":"東京都","city":"葛飾区","address":"葛飾区宝町1-5-1","lat":35.742227,"lon":139.835272},{"name":"堀切児童館","province":"東京都","city":"葛飾区","address":"葛飾区堀切1-9-18","lat":35.740139,"lon":139.828026},{"name":"梅田児童館","province":"東京都","city":"葛飾区","address":"葛飾区立石3-26-10","lat":35.741097,"lon":139.845377},{"name":"渋江児童館","province":"東京都","city":"葛飾区","address":"葛飾区東四つ木2-15-11","lat":35.730865,"lon":139.843677},{"name":"細田児童館","province":"東京都","city":"葛飾区","address":"葛飾区細田4-19-8","lat":35.742964,"lon":139.872107},{"name":"西奥戸児童館","province":"東京都","city":"葛飾区","address":"葛飾区奥戸1-12-1","lat":35.728595,"lon":139.854054},{"name":"東奥戸児童館","province":"東京都","city":"葛飾区","address":"葛飾区奥戸4-20-11","lat":35.728829,"lon":139.867925},{"name":"南奥戸児童館","province":"東京都","city":"葛飾区","address":"葛飾区奥戸2-30-11","lat":35.733698,"lon":139.859895},{"name":"葛飾区児童会館","province":"東京都","city":"葛飾区","address":"葛飾区西新小岩4-33-2","lat":35.718721,"lon":139.853708},{"name":"西亀有児童館","province":"東京都","city":"葛飾区","address":"葛飾区西亀有4-24-1","lat":35.764838,"lon":139.84357},{"name":"幸田児童館","province":"東京都","city":"葛飾区","address":"葛飾区西水元2-16-10","lat":35.786074,"lon":139.851336},{"name":"新水元児童館","province":"東京都","city":"葛飾区","address":"葛飾区東水元3-5-7","lat":35.784191,"lon":139.866129},{"name":"花の木児童館","province":"東京都","city":"葛飾区","address":"葛飾区南水元3-7-1","lat":35.773806,"lon":139.86564},{"name":"葛飾区金町子どもセンター","province":"東京都","city":"葛飾区","address":"葛飾区東金町3-8-1","lat":35.771529,"lon":139.875482},{"name":"東金町児童館","province":"東京都","city":"葛飾区","address":"葛飾区東金町5-22-18","lat":35.779325,"lon":139.878048},{"name":"末広児童館","province":"東京都","city":"葛飾区","address":"葛飾区金町5-4-1","lat":35.765966,"lon":139.866357},{"name":"南新宿児童館","province":"東京都","city":"葛飾区","address":"葛飾区新宿1-23-4","lat":35.760481,"lon":139.860985},{"name":"柴又児童館","province":"東京都","city":"葛飾区","address":"葛飾区柴又2-4-5","lat":35.758011,"lon":139.870066},{"name":"新柴又児童館","province":"東京都","city":"葛飾区","address":"葛飾区柴又5-33-8","lat":35.753673,"lon":139.881882},{"name":"鎌倉児童館","province":"東京都","city":"葛飾区","address":"葛飾区鎌倉2-6-20","lat":35.745277,"lon":139.874471},{"name":"高砂児童館","province":"東京都","city":"葛飾区","address":"葛飾区高砂5-6-7","lat":35.751398,"lon":139.865202},{"name":"亀有児童館","province":"東京都","city":"葛飾区","address":"葛飾区亀有1-17-5","lat":35.759119,"lon":139.846028},{"name":"青戸中央児童館","province":"東京都","city":"葛飾区","address":"葛飾区青戸6-16-12","lat":35.752973,"lon":139.857092},{"name":"青戸児童館","province":"東京都","city":"葛飾区","address":"葛飾区青戸3-10-5","lat":35.746321,"lon":139.848815},{"name":"白鳥児童館","province":"東京都","city":"葛飾区","address":"葛飾区白鳥3-32-6","lat":35.75555,"lon":139.844095},{"name":"葛飾区子ども発達センター","province":"東京都","city":"葛飾区","address":"葛飾区堀切3-34-1","lat":35.744335,"lon":139.834522},{"name":"葛飾区子ども総合センター","province":"東京都","city":"葛飾区","address":"葛飾区青戸4-15-14健康プラザかつしか2階","lat":35.751567,"lon":139.850589},{"name":"水元公園","province":"東京都","city":"葛飾区","address":"東京都葛飾区水元公園4","lat":35.792797,"lon":139.868547},{"name":"水元公園","province":"東京都","city":"葛飾区","address":"東京都葛飾区東金町5丁目53","lat":35.779197,"lon":139.882708},{"name":"水元公園","province":"東京都","city":"葛飾区","address":"東京都葛飾区東金町8丁目7","lat":35.781537,"lon":139.88397},{"name":"水元公園","province":"東京都","city":"葛飾区","address":"東京都葛飾区東金町8丁目32","lat":35.782326,"lon":139.885783},{"name":"水元公園","province":"東京都","city":"葛飾区","address":"東京都葛飾区水元公園1","lat":35.780656,"lon":139.877585},{"name":"水元公園","province":"東京都","city":"葛飾区","address":"東京都葛飾区東水元2丁目41","lat":35.782677,"lon":139.869401},{"name":"水元公園","province":"東京都","city":"葛飾区","address":"東京都葛飾区東金町8丁目28","lat":35.782268,"lon":139.887126},{"name":"水元公園","province":"東京都","city":"葛飾区","address":"東京都葛飾区水元公園8","lat":35.793839,"lon":139.859872},{"name":"水元公園","province":"東京都","city":"葛飾区","address":"東京都葛飾区水元公園2","lat":35.782085,"lon":139.871706},{"name":"水元公園","province":"東京都","city":"葛飾区","address":"東京都葛飾区水元公園3","lat":35.784984,"lon":139.869666},{"name":"水元公園","province":"東京都","city":"葛飾区","address":"東京都葛飾区水元公園4","lat":35.788542,"lon":139.869486},{"name":"水元公園","province":"東京都","city":"葛飾区","address":"東京都葛飾区水元公園4","lat":35.79077,"lon":139.869622},{"name":"水元公園","province":"東京都","city":"葛飾区","address":"東京都葛飾区水元公園4","lat":35.790769,"lon":139.869668},{"name":"水元公園","province":"東京都","city":"葛飾区","address":"東京都葛飾区水元公園5","lat":35.791832,"lon":139.871356},{"name":"水元公園","province":"東京都","city":"葛飾区","address":"東京都葛飾区水元公園7","lat":35.795198,"lon":139.871564},{"name":"水元公園","province":"東京都","city":"葛飾区","address":"東京都葛飾区水元公園7","lat":35.79455,"lon":139.867452},{"name":"水元公園","province":"東京都","city":"葛飾区","address":"東京都葛飾区水元公園7-2","lat":35.795779,"lon":139.871166},{"name":"水元公園","province":"東京都","city":"葛飾区","address":"東京都葛飾区水元公園1-1","lat":35.780776,"lon":139.878289},{"name":"水元公園","province":"東京都","city":"葛飾区","address":"東京都葛飾区水元公園3","lat":35.785413,"lon":139.870299},{"name":"東京都水道局葛飾営業所","province":"東京都","city":"葛飾区","address":"東京都葛飾区立石8丁目17-4","lat":35.741298,"lon":139.853302},{"name":"本田消防署奥戸出張所","province":"東京都","city":"葛飾区","address":"東京都葛飾区奥戸8丁目10","lat":35.735902,"lon":139.86713},{"name":"金町消防署","province":"東京都","city":"葛飾区","address":"東京都葛飾区金町4丁目15-20","lat":35.764106,"lon":139.865272},{"name":"金町消防署亀有出張所","province":"東京都","city":"葛飾区","address":"東京都葛飾区亀有1丁目26-5","lat":35.76201,"lon":139.84627},{"name":"葛飾区総合庁舎","province":"東京都","city":"葛飾区","address":"東京都葛飾区立石5丁目13-1","lat":35.743472,"lon":139.847013},{"name":"葛飾区総合庁舎","province":"東京都","city":"葛飾区","address":"東京都葛飾区立石5丁目13-1","lat":35.743114,"lon":139.846936},{"name":"葛飾区総合庁舎","province":"東京都","city":"葛飾区","address":"東京都葛飾区立石5丁目13-1","lat":35.743277,"lon":139.847679},{"name":"高砂地区センター","province":"東京都","city":"葛飾区","address":"東京都葛飾区高砂3丁目1-39","lat":35.745937,"lon":139.868413},{"name":"道路補修課庁舎","province":"東京都","city":"葛飾区","address":"東京都葛飾区立石4丁目34-4","lat":35.741959,"lon":139.847493},{"name":"福祉事務所東庁舎","province":"東京都","city":"葛飾区","address":"東京都葛飾区金町1丁目6-24","lat":35.761954,"lon":139.865809},{"name":"西水元地区センター","province":"東京都","city":"葛飾区","address":"東京都葛飾区西水元5丁目3-1","lat":35.785326,"lon":139.854078},{"name":"柴又地区センター","province":"東京都","city":"葛飾区","address":"東京都葛飾区柴又1丁目38-2","lat":35.75572,"lon":139.872667},{"name":"青戸地区センター","province":"東京都","city":"葛飾区","address":"東京都葛飾区青戸5丁目20-6","lat":35.750125,"lon":139.854352},{"name":"亀有地区センター","province":"東京都","city":"葛飾区","address":"東京都葛飾区亀有3丁目26-1","lat":35.766558,"lon":139.848785},{"name":"勤労福祉会館立石地区センター別館","province":"東京都","city":"葛飾区","address":"東京都葛飾区立石3丁目12-1","lat":35.740048,"lon":139.843613},{"name":"立石地区センター","province":"東京都","city":"葛飾区","address":"東京都葛飾区立石4丁目23-17","lat":35.7385,"lon":139.848188},{"name":"東立石地区センター","province":"東京都","city":"葛飾区","address":"東京都葛飾区東立石2丁目15-7","lat":35.734106,"lon":139.847645},{"name":"東四つ木地区センター","province":"東京都","city":"葛飾区","address":"東京都葛飾区東四つ木1丁目20-4","lat":35.728937,"lon":139.840683},{"name":"東四つ木地区センター","province":"東京都","city":"葛飾区","address":"東京都葛飾区東四つ木1丁目20-4","lat":35.728937,"lon":139.840682},{"name":"金町地区センター","province":"東京都","city":"葛飾区","address":"東京都葛飾区東金町1丁目22-1","lat":35.769715,"lon":139.868847},{"name":"南綾瀬地区センター","province":"東京都","city":"葛飾区","address":"東京都葛飾区堀切7丁目8-22","lat":35.754028,"lon":139.829986},{"name":"堀切地区センター","province":"東京都","city":"葛飾区","address":"東京都葛飾区堀切3丁目8-5","lat":35.747223,"lon":139.828068},{"name":"堀切地区センター","province":"東京都","city":"葛飾区","address":"東京都葛飾区堀切3丁目8-5","lat":35.747225,"lon":139.828068},{"name":"四つ木地区センター","province":"東京都","city":"葛飾区","address":"東京都葛飾区宝町1丁目1-22","lat":35.740129,"lon":139.837156},{"name":"新小岩地区センター","province":"東京都","city":"葛飾区","address":"東京都葛飾区新小岩2丁目17-1","lat":35.716325,"lon":139.861765},{"name":"新小岩北地区センター","province":"東京都","city":"葛飾区","address":"東京都葛飾区東新小岩6丁目21-1","lat":35.723963,"lon":139.858762},{"name":"水元学び交流館","province":"東京都","city":"葛飾区","address":"東京都葛飾区南水元2丁目13-1","lat":35.7796,"lon":139.855638},{"name":"水元憩い交流館","province":"東京都","city":"葛飾区","address":"東京都葛飾区水元4丁目6-15","lat":35.78814,"lon":139.860628},{"name":"柴又憩い交流館","province":"東京都","city":"葛飾区","address":"東京都葛飾区柴又2丁目4-5","lat":35.758015,"lon":139.870125},{"name":"新宿憩い交流館","province":"東京都","city":"葛飾区","address":"東京都葛飾区新宿1丁目5-6","lat":35.759034,"lon":139.85897},{"name":"宝町憩い交流館","province":"東京都","city":"葛飾区","address":"東京都葛飾区宝町2丁目38-19","lat":35.7477,"lon":139.837164},{"name":"砂原憩い交流館","province":"東京都","city":"葛飾区","address":"東京都葛飾区西亀有3丁目12-1","lat":35.762525,"lon":139.838073},{"name":"東奥戸憩い交流館","province":"東京都","city":"葛飾区","address":"東京都葛飾区奥戸4丁目20-11","lat":35.728866,"lon":139.867932},{"name":"水元学び交流館","province":"東京都","city":"葛飾区","address":"東京都葛飾区南水元2丁目13-1","lat":35.7796,"lon":139.855639},{"name":"柴又学び交流館","province":"東京都","city":"葛飾区","address":"東京都葛飾区南水元2丁目13-1","lat":35.7796,"lon":139.855638},{"name":"観光文化センターＡ棟","province":"東京都","city":"葛飾区","address":"東京都葛飾区柴又6丁目22","lat":35.757216,"lon":139.880641},{"name":"亀有学び交流館","province":"東京都","city":"葛飾区","address":"東京都葛飾区南水元2丁目13-1","lat":35.7796,"lon":139.855639},{"name":"亀有学び交流館","province":"東京都","city":"葛飾区","address":"東京都葛飾区お花茶屋3丁目5-6","lat":35.756582,"lon":139.843173},{"name":"葛飾区保健所及び子ども総合センター（「健康プラザかつしか」）","province":"東京都","city":"葛飾区","address":"東京都葛飾区青戸4丁目15-14","lat":35.751482,"lon":139.850533},{"name":"葛飾区保健所及び子ども総合センター（「健康プラザかつしか」）","province":"東京都","city":"葛飾区","address":"東京都葛飾区青戸4丁目15-14","lat":35.751485,"lon":139.850533},{"name":"葛飾区保健所及び子ども総合センター（「健康プラザかつしか」）","province":"東京都","city":"葛飾区","address":"東京都葛飾区青戸4丁目15-14","lat":35.751487,"lon":139.850533},{"name":"金町保健センター","province":"東京都","city":"葛飾区","address":"東京都葛飾区金町4丁目18-19","lat":35.764674,"lon":139.865088},{"name":"鎌倉図書館","province":"東京都","city":"葛飾区","address":"東京都葛飾区鎌倉2丁目4-5","lat":35.745244,"lon":139.875337},{"name":"亀有図書館","province":"東京都","city":"葛飾区","address":"東京都葛飾区亀有1丁目17-5","lat":35.759186,"lon":139.846027},{"name":"立石図書館","province":"東京都","city":"葛飾区","address":"東京都葛飾区立石1丁目9-1","lat":35.737232,"lon":139.845692},{"name":"四つ木地区図書館","province":"東京都","city":"葛飾区","address":"東京都葛飾区四つ木4丁目8-1","lat":35.737055,"lon":139.834171},{"name":"中央図書館","province":"東京都","city":"葛飾区","address":"東京都葛飾区金町6丁目2-1","lat":35.768102,"lon":139.871165},{"name":"中央図書館","province":"東京都","city":"葛飾区","address":"東京都葛飾区金町6丁目2-1","lat":35.768106,"lon":139.87116},{"name":"お花茶屋図書館","province":"東京都","city":"葛飾区","address":"東京都葛飾区お花茶屋2丁目1-15","lat":35.751164,"lon":139.838698},{"name":"上小松図書館","province":"東京都","city":"葛飾区","address":"東京都葛飾区東新小岩3丁目12-1","lat":35.722999,"lon":139.861884},{"name":"奥戸地区図書館","province":"東京都","city":"葛飾区","address":"東京都葛飾区奥戸3丁目5-1","lat":35.731446,"lon":139.859494},{"name":"にいじゅく地区図書館","province":"東京都","city":"葛飾区","address":"東京都葛飾区新宿3丁目7-1","lat":35.761455,"lon":139.862189},{"name":"こすげ地区図書館","province":"東京都","city":"葛飾区","address":"東京都葛飾区小菅3丁目8-22","lat":35.753868,"lon":139.824976},{"name":"郷土と天文の博物館","province":"東京都","city":"葛飾区","address":"東京都葛飾区白鳥3丁目25-1","lat":35.752878,"lon":139.843387},{"name":"山本亭","province":"東京都","city":"葛飾区","address":"東京都葛飾区柴又7丁目19","lat":35.758013,"lon":139.880079},{"name":"観光文化センターB棟","province":"東京都","city":"葛飾区","address":"東京都葛飾区柴又6丁目22-19","lat":35.756687,"lon":139.880531},{"name":"かつしかｼﾝﾌｫﾆｰﾋﾙｽﾞ本館","province":"東京都","city":"葛飾区","address":"東京都葛飾区立石6丁目33-1","lat":35.74244832,"lon":139.8522684},{"name":"葛飾区科学教育センター","province":"東京都","city":"葛飾区","address":"東京都葛飾区新宿6丁目3-2","lat":35.7722,"lon":139.862198},{"name":"かつしかｼﾝﾌｫﾆｰﾋﾙｽﾞ別館","province":"東京都","city":"葛飾区","address":"東京都葛飾区立石6丁目34","lat":35.74245283,"lon":139.8529006},{"name":"白ゆり公園","province":"東京都","city":"葛飾区","address":"東京都葛飾区水元5丁目5","lat":35.79118871,"lon":139.8594292},{"name":"鎌倉公園（北側）","province":"東京都","city":"葛飾区","address":"東京都葛飾区鎌倉3丁目21","lat":35.7500218,"lon":139.8770432},{"name":"小菅東スポーツ公園(北側)","province":"東京都","city":"葛飾区","address":"東京都葛飾区小菅3丁目1-1","lat":35.753868,"lon":139.822294},{"name":"小菅東スポーツ公園(更衣室棟)","province":"東京都","city":"葛飾区","address":"東京都葛飾区小菅3丁目1-1","lat":35.752963,"lon":139.822672},{"name":"柴又公衆便所","province":"東京都","city":"葛飾区","address":"東京都葛飾区柴又7丁目7","lat":35.75821664,"lon":139.8777007},{"name":"柴又公園(河川敷上流側)","province":"東京都","city":"葛飾区","address":"東京都葛飾区柴又7丁目","lat":35.75981,"lon":139.881345},{"name":"柴又公園(河川敷駐車場側)","province":"東京都","city":"葛飾区","address":"東京都葛飾区柴又6丁目","lat":35.756944,"lon":139.881917},{"name":"白鳥わかば公園","province":"東京都","city":"葛飾区","address":"東京都葛飾区白鳥3丁目24","lat":35.752017,"lon":139.844313},{"name":"新小岩二丁目小松菜児童遊園","province":"東京都","city":"葛飾区","address":"東京都葛飾区新小岩2丁目2","lat":35.718409,"lon":139.860861},{"name":"ウイメンズパル","province":"東京都","city":"葛飾区","address":"東京都葛飾区立石5丁目27-1","lat":35.74583207,"lon":139.8462523},{"name":"水元スポーツセンター公園（東側）","province":"東京都","city":"葛飾区","address":"東京都葛飾区水元1丁目23","lat":35.781166,"lon":139.859126},{"name":"ウェルピアかつしか","province":"東京都","city":"葛飾区","address":"東京都葛飾区堀切3丁目34-1","lat":35.74445,"lon":139.83461},{"name":"にこわ新小岩","province":"東京都","city":"葛飾区","address":"東京都葛飾区西新小岩4丁目33-2","lat":35.71888,"lon":139.85357},{"name":"えきにこわ","province":"東京都","city":"葛飾区","address":"東京都葛飾区新小岩1丁目47","lat":35.716489,"lon":139.858195},{"name":"葛飾区保健所（地域保健課）","province":"東京都","city":"葛飾区","address":"東京都葛飾区青戸4丁目15-14","lat":35.75147327,"lon":139.8505256},{"name":"葛飾区保健所（生活衛生課）","province":"東京都","city":"葛飾区","address":"東京都葛飾区青戸4丁目15-14","lat":35.75147327,"lon":139.8505256},{"name":"葛飾区保健所（健康推進課）","province":"東京都","city":"葛飾区","address":"東京都葛飾区青戸4丁目15-14","lat":35.75147327,"lon":139.8505256},{"name":"葛飾区保健所（保健予防課）","province":"東京都","city":"葛飾区","address":"東京都葛飾区青戸4丁目15-14","lat":35.75147327,"lon":139.8505256},{"name":"青戸保健センター","province":"東京都","city":"葛飾区","address":"東京都葛飾区青戸4丁目15-14","lat":35.75147327,"lon":139.8505256},{"name":"金町保健センター","province":"東京都","city":"葛飾区","address":"東京都葛飾区金町4丁目18-19","lat":35.76463548,"lon":139.86505735},{"name":"新小岩保健センター","province":"東京都","city":"葛飾区","address":"東京都葛飾区西新小岩4丁目33-2","lat":35.71900154,"lon":139.85337431},{"name":"水元保健センター","province":"東京都","city":"葛飾区","address":"東京都葛飾区東水元1丁目7-3","lat":35.77884728,"lon":139.8675263},{"name":"葛飾区シニア活動支援センター","province":"東京都","city":"葛飾区","address":"葛飾区立石6-38-11","lat":35.74379,"lon":139.85437},{"name":"東京愛育苑向島学園","province":"東京都","city":"葛飾区","address":"葛飾区水元3-13-8","lat":35.7826,"lon":139.86394},{"name":"共生会希望の家","province":"東京都","city":"葛飾区","address":"葛飾区青戸4-14-15","lat":35.75149,"lon":139.84972},{"name":"小菅児童館","province":"東京都","city":"葛飾区","address":"葛飾区小菅2-19-1","lat":35.75019,"lon":139.82582},{"name":"中道児童館","province":"東京都","city":"葛飾区","address":"葛飾区西亀有1-2-7","lat":35.75663,"lon":139.83699},{"name":"東堀切児童館","province":"東京都","city":"葛飾区","address":"葛飾区東堀切2-20-8","lat":35.75078,"lon":139.8353},{"name":"宝町児童館","province":"東京都","city":"葛飾区","address":"葛飾区宝町1-5-1","lat":35.74249,"lon":139.83517},{"name":"堀切児童館","province":"東京都","city":"葛飾区","address":"葛飾区堀切1-9-18","lat":35.74015,"lon":139.82787},{"name":"梅田児童館","province":"東京都","city":"葛飾区","address":"葛飾区立石3-26-10","lat":35.74092,"lon":139.84521},{"name":"渋江児童館","province":"東京都","city":"葛飾区","address":"葛飾区東四つ木1-20-4","lat":35.72883,"lon":139.84062},{"name":"西奥戸児童館","province":"東京都","city":"葛飾区","address":"葛飾区奥戸1-12-1","lat":35.7288,"lon":139.85399},{"name":"南奥戸児童館","province":"東京都","city":"葛飾区","address":"葛飾区奥戸2-30-11","lat":35.73333,"lon":139.85912},{"name":"東奥戸児童館","province":"東京都","city":"葛飾区","address":"葛飾区奥戸4-20-11","lat":35.7284,"lon":139.86754},{"name":"西亀有児童館","province":"東京都","city":"葛飾区","address":"葛飾区西亀有4-24-1","lat":35.76512,"lon":139.84392},{"name":"幸田児童館","province":"東京都","city":"葛飾区","address":"葛飾区西水元2-16-10","lat":35.78585,"lon":139.85127},{"name":"新水元児童館","province":"東京都","city":"葛飾区","address":"葛飾区東水元3-5-7","lat":35.78404,"lon":139.86613},{"name":"花の木児童館","province":"東京都","city":"葛飾区","address":"葛飾区南水元3-7-1","lat":35.77343,"lon":139.86581},{"name":"金町子どもセンター","province":"東京都","city":"葛飾区","address":"葛飾区東金町3-8-1","lat":35.77158,"lon":139.87549},{"name":"東金町児童館","province":"東京都","city":"葛飾区","address":"葛飾区東金町5-22-18","lat":35.7794,"lon":139.87787},{"name":"末広児童館","province":"東京都","city":"葛飾区","address":"葛飾区金町5-4-1","lat":35.76581,"lon":139.86678},{"name":"南新宿児童館","province":"東京都","city":"葛飾区","address":"葛飾区新宿1-23-4","lat":35.76056,"lon":139.86095},{"name":"柴又児童館","province":"東京都","city":"葛飾区","address":"葛飾区柴又2-4-5","lat":35.75816,"lon":139.87013},{"name":"新柴又児童館","province":"東京都","city":"葛飾区","address":"葛飾区柴又5-33-8","lat":35.75348,"lon":139.88097},{"name":"鎌倉児童館","province":"東京都","city":"葛飾区","address":"葛飾区鎌倉2-6-20","lat":35.74531,"lon":139.87433},{"name":"高砂児童館","province":"東京都","city":"葛飾区","address":"葛飾区高砂5-6-7","lat":35.75124,"lon":139.86525},{"name":"亀有児童館","province":"東京都","city":"葛飾区","address":"葛飾区亀有1-17-5","lat":35.75911,"lon":139.84593},{"name":"青戸児童館","province":"東京都","city":"葛飾区","address":"葛飾区青戸3-10-5","lat":35.74647,"lon":139.8488},{"name":"青戸中央児童館","province":"東京都","city":"葛飾区","address":"葛飾区青戸6-16-12","lat":35.75296,"lon":139.85678},{"name":"白鳥児童館","province":"東京都","city":"葛飾区","address":"葛飾区西亀有1-18-6","lat":35.75841,"lon":139.83906},{"name":"葛飾区（西生活課）","province":"東京都","city":"葛飾区","address":"葛飾区立石5-13-1","lat":35.74316,"lon":139.84729},{"name":"葛飾区（東生活課）","province":"東京都","city":"葛飾区","address":"葛飾区金町1-6-24","lat":35.76221,"lon":139.86522},{"name":"葛飾区保健所（地域保健課）","province":"東京都","city":"葛飾区","address":"葛飾区青戸4-15-14","lat":35.75141,"lon":139.85063},{"name":"葛飾区保健所（生活衛生課）","province":"東京都","city":"葛飾区","address":"葛飾区青戸4-15-14","lat":35.75141,"lon":139.85063},{"name":"葛飾区保健所（健康づくり課）","province":"東京都","city":"葛飾区","address":"葛飾区青戸4-15-14","lat":35.75141,"lon":139.85063},{"name":"葛飾区保健所（保健予防課）","province":"東京都","city":"葛飾区","address":"葛飾区青戸4-15-14","lat":35.75141,"lon":139.85063},{"name":"青戸保健センター","province":"東京都","city":"葛飾区","address":"葛飾区青戸4-15-14","lat":35.75141,"lon":139.85063},{"name":"金町保健センター","province":"東京都","city":"葛飾区","address":"葛飾区金町4-18-19","lat":35.76478,"lon":139.86496},{"name":"新小岩保健センター","province":"東京都","city":"葛飾区","address":"葛飾区西新小岩4-33-2","lat":35.71869,"lon":139.85342},{"name":"水元保健センター","province":"東京都","city":"葛飾区","address":"葛飾区東水元1-7-3","lat":35.77879,"lon":139.86784},{"name":"葛飾区児童相談所","province":"東京都","city":"葛飾区","address":"葛飾区立石2-30-1","lat":35.7404419,"lon":139.841239},{"name":"葛飾区子ども総合センター","province":"東京都","city":"葛飾区","address":"葛飾区青戸4-15-14健康プラザかつしか2階","lat":35.75141,"lon":139.85063},{"name":"白鳥児童館","province":"東京都","city":"葛飾区","address":"葛飾区白鳥3-32-6","lat":35.75538,"lon":139.84431},{"name":"渋江児童館","province":"東京都","city":"葛飾区","address":"葛飾区東四つ木2-15-11","lat":35.7308,"lon":139.84355},{"name":"葛飾区児童会館","province":"東京都","city":"葛飾区","address":"葛飾区西新小岩4-33-10新小岩学び交流館内","lat":35.71869,"lon":139.85342},{"name":"葛飾区金町子どもセンター","province":"東京都","city":"葛飾区","address":"葛飾区東金町3-8-1","lat":35.77158,"lon":139.87549},{"name":"新小岩保健センター","province":"東京都","city":"葛飾区","address":"葛飾区西新小岩4-21-12","lat":35.72127,"lon":139.85213},{"name":"葛飾区シニア活動支援センター","province":"東京都","city":"葛飾区","address":"葛飾区立石6-38-11","lat":35.743852,"lon":139.854392},{"name":"東京愛育苑向島学園","province":"東京都","city":"葛飾区","address":"葛飾区水元3-13-8","lat":35.782555,"lon":139.863901},{"name":"共生会希望の家","province":"東京都","city":"葛飾区","address":"葛飾区青戸4-14-15","lat":35.751943,"lon":139.850242},{"name":"葛飾区児童会館","province":"東京都","city":"葛飾区","address":"葛飾区西新小岩4-33-10","lat":35.718574,"lon":139.853199},{"name":"宝町児童館","province":"東京都","city":"葛飾区","address":"葛飾区宝町1-5-1","lat":35.74249,"lon":139.83518},{"name":"梅田児童館","province":"東京都","city":"葛飾区","address":"葛飾区立石3-26-10","lat":35.74092,"lon":139.84522},{"name":"新水元児童館","province":"東京都","city":"葛飾区","address":"葛飾区東水元3-5-7","lat":35.78404,"lon":139.86614},{"name":"白鳥児童館","province":"東京都","city":"葛飾区","address":"葛飾区白鳥3-32-6","lat":35.75538,"lon":139.84432},{"name":"＊?男女平等推進センター","province":"東京都","city":"葛飾区","address":"葛飾区立石5-27-1","lat":35.745783,"lon":139.846325},{"name":"東京愛育苑ケアレジデンス","province":"東京都","city":"葛飾区","address":"葛飾区水元3-13-2","lat":35.782319,"lon":139.863493},{"name":"葛飾区（西生活課）","province":"東京都","city":"葛飾区","address":"葛飾区立石5-13-1","lat":35.742985,"lon":139.847407},{"name":"葛飾区（東生活課）","province":"東京都","city":"葛飾区","address":"葛飾区金町1-6-24","lat":35.761975,"lon":139.865796},{"name":"葛飾保健所","province":"東京都","city":"葛飾区","address":"東京都葛飾区青戸4丁目15-14","lat":35.75147327,"lon":139.8505256},{"name":"亀有警察署","province":"東京都","city":"葛飾区","address":"葛飾区新宿4-22-19","lat":35.76235,"lon":139.8622},{"name":"葛飾警察署","province":"東京都","city":"葛飾区","address":"葛飾区立石2-7-9","lat":35.73806,"lon":139.839},{"name":"第七方面訓練場","province":"東京都","city":"葛飾区","address":"葛飾区高砂1-1","lat":35.74091,"lon":139.8619},{"name":"金町消防署","province":"東京都","city":"葛飾区","address":"葛飾区金町4-15-20","lat":35.76395,"lon":139.8652},{"name":"本田消防署","province":"東京都","city":"葛飾区","address":"葛飾区東立石3-12-7","lat":35.73621,"lon":139.8443},{"name":"都立水元公園","province":"東京都","city":"葛飾区","address":"葛飾区水元公園","lat":35.78643,"lon":139.8693},{"name":"葛飾清掃工場","province":"東京都","city":"葛飾区","address":"葛飾区水元1-20-1","lat":35.78086,"lon":139.8565},{"name":"葛飾区立総合スポーツセンター陸上競技場","province":"東京都","city":"葛飾区","address":"葛飾区奥戸7-17-1","lat":35.73766,"lon":139.8621},{"name":"小菅児童館","province":"東京都","city":"葛飾区","address":"葛飾区小菅2-19-13","lat":35.750481,"lon":139.826206},{"name":"中道児童館","province":"東京都","city":"葛飾区","address":"葛飾区西亀有1-2-7","lat":35.756814,"lon":139.83709},{"name":"東堀切児童館","province":"東京都","city":"葛飾区","address":"葛飾区東堀切2-20-8","lat":35.751507,"lon":139.83508},{"name":"宝町児童館","province":"東京都","city":"葛飾区","address":"葛飾区宝町1-5-1","lat":35.742227,"lon":139.835272},{"name":"堀切児童館","province":"東京都","city":"葛飾区","address":"葛飾区堀切1-9-18","lat":35.740139,"lon":139.828026},{"name":"梅田児童館","province":"東京都","city":"葛飾区","address":"葛飾区立石3-26-10","lat":35.741097,"lon":139.845377},{"name":"渋江児童館","province":"東京都","city":"葛飾区","address":"葛飾区東四つ木2-15-11","lat":35.730865,"lon":139.843677},{"name":"細田児童館","province":"東京都","city":"葛飾区","address":"葛飾区細田4-19-8","lat":35.742964,"lon":139.872107},{"name":"西奥戸児童館","province":"東京都","city":"葛飾区","address":"葛飾区奥戸1-12-1","lat":35.728595,"lon":139.854054},{"name":"東奥戸児童館","province":"東京都","city":"葛飾区","address":"葛飾区奥戸4-20-11","lat":35.728829,"lon":139.867925},{"name":"南奥戸児童館","province":"東京都","city":"葛飾区","address":"葛飾区奥戸2-30-11","lat":35.733698,"lon":139.859895},{"name":"葛飾区児童会館","province":"東京都","city":"葛飾区","address":"葛飾区西新小岩4-33-2","lat":35.718721,"lon":139.853708},{"name":"西亀有児童館","province":"東京都","city":"葛飾区","address":"葛飾区西亀有4-24-1","lat":35.764838,"lon":139.84357},{"name":"幸田児童館","province":"東京都","city":"葛飾区","address":"葛飾区西水元2-16-10","lat":35.786074,"lon":139.851336},{"name":"新水元児童館","province":"東京都","city":"葛飾区","address":"葛飾区東水元3-5-7","lat":35.784191,"lon":139.866129},{"name":"花の木児童館","province":"東京都","city":"葛飾区","address":"葛飾区南水元3-7-1","lat":35.773806,"lon":139.86564},{"name":"葛飾区金町子どもセンター","province":"東京都","city":"葛飾区","address":"葛飾区東金町3-8-1","lat":35.771529,"lon":139.875482},{"name":"東金町児童館","province":"東京都","city":"葛飾区","address":"葛飾区東金町5-22-18","lat":35.779325,"lon":139.878048},{"name":"末広児童館","province":"東京都","city":"葛飾区","address":"葛飾区金町5-4-1","lat":35.765966,"lon":139.866357},{"name":"南新宿児童館","province":"東京都","city":"葛飾区","address":"葛飾区新宿1-23-4","lat":35.760481,"lon":139.860985},{"name":"柴又児童館","province":"東京都","city":"葛飾区","address":"葛飾区柴又2-4-5","lat":35.758011,"lon":139.870066},{"name":"新柴又児童館","province":"東京都","city":"葛飾区","address":"葛飾区柴又5-33-8","lat":35.753673,"lon":139.881882},{"name":"鎌倉児童館","province":"東京都","city":"葛飾区","address":"葛飾区鎌倉2-6-20","lat":35.745277,"lon":139.874471},{"name":"高砂児童館","province":"東京都","city":"葛飾区","address":"葛飾区高砂5-6-7","lat":35.751398,"lon":139.865202},{"name":"亀有児童館","province":"東京都","city":"葛飾区","address":"葛飾区亀有1-17-5","lat":35.759119,"lon":139.846028},{"name":"青戸中央児童館","province":"東京都","city":"葛飾区","address":"葛飾区青戸6-16-12","lat":35.752973,"lon":139.857092},{"name":"青戸児童館","province":"東京都","city":"葛飾区","address":"葛飾区青戸3-10-5","lat":35.746321,"lon":139.848815},{"name":"白鳥児童館","province":"東京都","city":"葛飾区","address":"葛飾区白鳥3-32-6","lat":35.75555,"lon":139.844095},{"name":"葛飾区子ども発達センター","province":"東京都","city":"葛飾区","address":"葛飾区堀切3-34-1","lat":35.744335,"lon":139.834522},{"name":"葛飾区シニア活動支援センター","province":"東京都","city":"葛飾区","address":"葛飾区立石6-38-11","lat":35.74379,"lon":139.85437},{"name":"東京愛育苑向島学園","province":"東京都","city":"葛飾区","address":"葛飾区水元3-13-8","lat":35.7826,"lon":139.86394},{"name":"共生会希望の家","province":"東京都","city":"葛飾区","address":"葛飾区青戸4-14-15","lat":35.75149,"lon":139.84972},{"name":"小菅児童館","province":"東京都","city":"葛飾区","address":"葛飾区小菅2-19-1","lat":35.75019,"lon":139.82582},{"name":"中道児童館","province":"東京都","city":"葛飾区","address":"葛飾区西亀有1-2-7","lat":35.75663,"lon":139.83699},{"name":"東堀切児童館","province":"東京都","city":"葛飾区","address":"葛飾区東堀切2-20-8","lat":35.75078,"lon":139.8353},{"name":"宝町児童館","province":"東京都","city":"葛飾区","address":"葛飾区宝町1-5-1","lat":35.74249,"lon":139.83517},{"name":"堀切児童館","province":"東京都","city":"葛飾区","address":"葛飾区堀切1-9-18","lat":35.74015,"lon":139.82787},{"name":"梅田児童館","province":"東京都","city":"葛飾区","address":"葛飾区立石3-26-10","lat":35.74092,"lon":139.84521},{"name":"渋江児童館","province":"東京都","city":"葛飾区","address":"葛飾区東四つ木1-20-4","lat":35.72883,"lon":139.84062},{"name":"西奥戸児童館","province":"東京都","city":"葛飾区","address":"葛飾区奥戸1-12-1","lat":35.7288,"lon":139.85399},{"name":"南奥戸児童館","province":"東京都","city":"葛飾区","address":"葛飾区奥戸2-30-11","lat":35.73333,"lon":139.85912},{"name":"東奥戸児童館","province":"東京都","city":"葛飾区","address":"葛飾区奥戸4-20-11","lat":35.7284,"lon":139.86754},{"name":"西亀有児童館","province":"東京都","city":"葛飾区","address":"葛飾区西亀有4-24-1","lat":35.76512,"lon":139.84392},{"name":"幸田児童館","province":"東京都","city":"葛飾区","address":"葛飾区西水元2-16-10","lat":35.78585,"lon":139.85127},{"name":"新水元児童館","province":"東京都","city":"葛飾区","address":"葛飾区東水元3-5-7","lat":35.78404,"lon":139.86613},{"name":"花の木児童館","province":"東京都","city":"葛飾区","address":"葛飾区南水元3-7-1","lat":35.77343,"lon":139.86581},{"name":"金町子どもセンター","province":"東京都","city":"葛飾区","address":"葛飾区東金町3-8-1","lat":35.77158,"lon":139.87549},{"name":"東金町児童館","province":"東京都","city":"葛飾区","address":"葛飾区東金町5-22-18","lat":35.7794,"lon":139.87787},{"name":"末広児童館","province":"東京都","city":"葛飾区","address":"葛飾区金町5-4-1","lat":35.76581,"lon":139.86678},{"name":"南新宿児童館","province":"東京都","city":"葛飾区","address":"葛飾区新宿1-23-4","lat":35.76056,"lon":139.86095},{"name":"柴又児童館","province":"東京都","city":"葛飾区","address":"葛飾区柴又2-4-5","lat":35.75816,"lon":139.87013},{"name":"新柴又児童館","province":"東京都","city":"葛飾区","address":"葛飾区柴又5-33-8","lat":35.75348,"lon":139.88097},{"name":"鎌倉児童館","province":"東京都","city":"葛飾区","address":"葛飾区鎌倉2-6-20","lat":35.74531,"lon":139.87433},{"name":"高砂児童館","province":"東京都","city":"葛飾区","address":"葛飾区高砂5-6-7","lat":35.75124,"lon":139.86525},{"name":"亀有児童館","province":"東京都","city":"葛飾区","address":"葛飾区亀有1-17-5","lat":35.75911,"lon":139.84593},{"name":"青戸児童館","province":"東京都","city":"葛飾区","address":"葛飾区青戸3-10-5","lat":35.74647,"lon":139.8488},{"name":"青戸中央児童館","province":"東京都","city":"葛飾区","address":"葛飾区青戸6-16-12","lat":35.75296,"lon":139.85678},{"name":"白鳥児童館","province":"東京都","city":"葛飾区","address":"葛飾区西亀有1-18-6","lat":35.75841,"lon":139.83906},{"name":"葛飾区（西生活課）","province":"東京都","city":"葛飾区","address":"葛飾区立石5-13-1","lat":35.74316,"lon":139.84729},{"name":"葛飾区（東生活課）","province":"東京都","city":"葛飾区","address":"葛飾区金町1-6-24","lat":35.76221,"lon":139.86522},{"name":"葛飾区児童相談所","province":"東京都","city":"葛飾区","address":"葛飾区立石2-30-1","lat":35.7404419,"lon":139.841239},{"name":"白鳥児童館","province":"東京都","city":"葛飾区","address":"葛飾区白鳥3-32-6","lat":35.75538,"lon":139.84431},{"name":"渋江児童館","province":"東京都","city":"葛飾区","address":"葛飾区東四つ木2-15-11","lat":35.7308,"lon":139.84355},{"name":"葛飾区児童会館","province":"東京都","city":"葛飾区","address":"葛飾区西新小岩4-33-10新小岩学び交流館内","lat":35.71869,"lon":139.85342},{"name":"葛飾区金町子どもセンター","province":"東京都","city":"葛飾区","address":"葛飾区東金町3-8-1","lat":35.77158,"lon":139.87549},{"name":"葛飾区シニア活動支援センター","province":"東京都","city":"葛飾区","address":"葛飾区立石6-38-11","lat":35.743852,"lon":139.854392},{"name":"東京愛育苑向島学園","province":"東京都","city":"葛飾区","address":"葛飾区水元3-13-8","lat":35.782555,"lon":139.863901},{"name":"共生会希望の家","province":"東京都","city":"葛飾区","address":"葛飾区青戸4-14-15","lat":35.751943,"lon":139.850242},{"name":"葛飾区児童会館","province":"東京都","city":"葛飾区","address":"葛飾区西新小岩4-33-10","lat":35.718574,"lon":139.853199},{"name":"宝町児童館","province":"東京都","city":"葛飾区","address":"葛飾区宝町1-5-1","lat":35.74249,"lon":139.83518},{"name":"梅田児童館","province":"東京都","city":"葛飾区","address":"葛飾区立石3-26-10","lat":35.74092,"lon":139.84522},{"name":"新水元児童館","province":"東京都","city":"葛飾区","address":"葛飾区東水元3-5-7","lat":35.78404,"lon":139.86614},{"name":"白鳥児童館","province":"東京都","city":"葛飾区","address":"葛飾区白鳥3-32-6","lat":35.75538,"lon":139.84432},{"name":"＊?男女平等推進センター","province":"東京都","city":"葛飾区","address":"葛飾区立石5-27-1","lat":35.745783,"lon":139.846325},{"name":"東京愛育苑ケアレジデンス","province":"東京都","city":"葛飾区","address":"葛飾区水元3-13-2","lat":35.782319,"lon":139.863493},{"name":"葛飾区（西生活課）","province":"東京都","city":"葛飾区","address":"葛飾区立石5-13-1","lat":35.742985,"lon":139.847407},{"name":"葛飾区（東生活課）","province":"東京都","city":"葛飾区","address":"葛飾区金町1-6-24","lat":35.761975,"lon":139.865796},{"name":"葛飾保健所","province":"東京都","city":"葛飾区","address":"東京都葛飾区青戸4丁目15-14","lat":35.75147327,"lon":139.8505256},{"name":"葛飾区子ども発達センター","province":"東京都","city":"葛飾区","address":"葛飾区堀切3-34-1","lat":35.744335,"lon":139.834522},{"name":"葛飾区シニア活動支援センター","province":"東京都","city":"葛飾区","address":"葛飾区立石6-38-11","lat":35.74379,"lon":139.85437},{"name":"東京愛育苑向島学園","province":"東京都","city":"葛飾区","address":"葛飾区水元3-13-8","lat":35.7826,"lon":139.86394},{"name":"共生会希望の家","province":"東京都","city":"葛飾区","address":"葛飾区青戸4-14-15","lat":35.75149,"lon":139.84972},{"name":"葛飾区（西生活課）","province":"東京都","city":"葛飾区","address":"葛飾区立石5-13-1","lat":35.74316,"lon":139.84729},{"name":"葛飾区（東生活課）","province":"東京都","city":"葛飾区","address":"葛飾区金町1-6-24","lat":35.76221,"lon":139.86522},{"name":"葛飾区児童相談所","province":"東京都","city":"葛飾区","address":"葛飾区立石2-30-1","lat":35.7404419,"lon":139.841239},{"name":"葛飾区シニア活動支援センター","province":"東京都","city":"葛飾区","address":"葛飾区立石6-38-11","lat":35.743852,"lon":139.854392},{"name":"東京愛育苑向島学園","province":"東京都","city":"葛飾区","address":"葛飾区水元3-13-8","lat":35.782555,"lon":139.863901},{"name":"共生会希望の家","province":"東京都","city":"葛飾区","address":"葛飾区青戸4-14-15","lat":35.751943,"lon":139.850242},{"name":"＊?男女平等推進センター","province":"東京都","city":"葛飾区","address":"葛飾区立石5-27-1","lat":35.745783,"lon":139.846325},{"name":"東京愛育苑ケアレジデンス","province":"東京都","city":"葛飾区","address":"葛飾区水元3-13-2","lat":35.782319,"lon":139.863493},{"name":"葛飾区（西生活課）","province":"東京都","city":"葛飾区","address":"葛飾区立石5-13-1","lat":35.742985,"lon":139.847407},{"name":"葛飾区（東生活課）","province":"東京都","city":"葛飾区","address":"葛飾区金町1-6-24","lat":35.761975,"lon":139.865796},{"name":"葛飾区子ども発達センター","province":"東京都","city":"葛飾区","address":"葛飾区堀切3-34-1","lat":35.744335,"lon":139.834522},{"name":"葛飾区シニア活動支援センター","province":"東京都","city":"葛飾区","address":"葛飾区立石6-38-11","lat":35.74379,"lon":139.85437},{"name":"東京愛育苑向島学園","province":"東京都","city":"葛飾区","address":"葛飾区水元3-13-8","lat":35.7826,"lon":139.86394},{"name":"共生会希望の家","province":"東京都","city":"葛飾区","address":"葛飾区青戸4-14-15","lat":35.75149,"lon":139.84972},{"name":"葛飾区（西生活課）","province":"東京都","city":"葛飾区","address":"葛飾区立石5-13-1","lat":35.74316,"lon":139.84729},{"name":"葛飾区（東生活課）","province":"東京都","city":"葛飾区","address":"葛飾区金町1-6-24","lat":35.76221,"lon":139.86522},{"name":"葛飾区児童相談所","province":"東京都","city":"葛飾区","address":"葛飾区立石2-30-1","lat":35.7404419,"lon":139.841239},{"name":"葛飾区シニア活動支援センター","province":"東京都","city":"葛飾区","address":"葛飾区立石6-38-11","lat":35.743852,"lon":139.854392},{"name":"東京愛育苑向島学園","province":"東京都","city":"葛飾区","address":"葛飾区水元3-13-8","lat":35.782555,"lon":139.863901},{"name":"共生会希望の家","province":"東京都","city":"葛飾区","address":"葛飾区青戸4-14-15","lat":35.751943,"lon":139.850242},{"name":"＊?男女平等推進センター","province":"東京都","city":"葛飾区","address":"葛飾区立石5-27-1","lat":35.745783,"lon":139.846325},{"name":"東京愛育苑ケアレジデンス","province":"東京都","city":"葛飾区","address":"葛飾区水元3-13-2","lat":35.782319,"lon":139.863493},{"name":"葛飾区（西生活課）","province":"東京都","city":"葛飾区","address":"葛飾区立石5-13-1","lat":35.742985,"lon":139.847407},{"name":"葛飾区（東生活課）","province":"東京都","city":"葛飾区","address":"葛飾区金町1-6-24","lat":35.761975,"lon":139.865796},{"name":"葛飾区子ども発達センター","province":"東京都","city":"葛飾区","address":"葛飾区堀切3-34-1","lat":35.744335,"lon":139.834522},{"name":"葛飾区シニア活動支援センター","province":"東京都","city":"葛飾区","address":"葛飾区立石6-38-11","lat":35.74379,"lon":139.85437},{"name":"東京愛育苑向島学園","province":"東京都","city":"葛飾区","address":"葛飾区水元3-13-8","lat":35.7826,"lon":139.86394},{"name":"共生会希望の家","province":"東京都","city":"葛飾区","address":"葛飾区青戸4-14-15","lat":35.75149,"lon":139.84972},{"name":"葛飾区（西生活課）","province":"東京都","city":"葛飾区","address":"葛飾区立石5-13-1","lat":35.74316,"lon":139.84729},{"name":"葛飾区（東生活課）","province":"東京都","city":"葛飾区","address":"葛飾区金町1-6-24","lat":35.76221,"lon":139.86522},{"name":"葛飾区児童相談所","province":"東京都","city":"葛飾区","address":"葛飾区立石2-30-1","lat":35.7404419,"lon":139.841239},{"name":"葛飾区シニア活動支援センター","province":"東京都","city":"葛飾区","address":"葛飾区立石6-38-11","lat":35.743852,"lon":139.854392},{"name":"東京愛育苑向島学園","province":"東京都","city":"葛飾区","address":"葛飾区水元3-13-8","lat":35.782555,"lon":139.863901},{"name":"共生会希望の家","province":"東京都","city":"葛飾区","address":"葛飾区青戸4-14-15","lat":35.751943,"lon":139.850242},{"name":"東京愛育苑ケアレジデンス","province":"東京都","city":"葛飾区","address":"葛飾区水元3-13-2","lat":35.782319,"lon":139.863493},{"name":"葛飾区（西生活課）","province":"東京都","city":"葛飾区","address":"葛飾区立石5-13-1","lat":35.742985,"lon":139.847407},{"name":"葛飾区（東生活課）","province":"東京都","city":"葛飾区","address":"葛飾区金町1-6-24","lat":35.761975,"lon":139.865796},{"name":"葛飾区子ども発達センター","province":"東京都","city":"葛飾区","address":"葛飾区堀切3-34-1","lat":35.744335,"lon":139.834522},{"name":"葛飾区シニア活動支援センター","province":"東京都","city":"葛飾区","address":"葛飾区立石6-38-11","lat":35.74379,"lon":139.85437},{"name":"東京愛育苑向島学園","province":"東京都","city":"葛飾区","address":"葛飾区水元3-13-8","lat":35.7826,"lon":139.86394},{"name":"共生会希望の家","province":"東京都","city":"葛飾区","address":"葛飾区青戸4-14-15","lat":35.75149,"lon":139.84972},{"name":"葛飾区（西生活課）","province":"東京都","city":"葛飾区","address":"葛飾区立石5-13-1","lat":35.74316,"lon":139.84729},{"name":"葛飾区（東生活課）","province":"東京都","city":"葛飾区","address":"葛飾区金町1-6-24","lat":35.76221,"lon":139.86522},{"name":"葛飾区児童相談所","province":"東京都","city":"葛飾区","address":"葛飾区立石2-30-1","lat":35.7404419,"lon":139.841239},{"name":"葛飾区シニア活動支援センター","province":"東京都","city":"葛飾区","address":"葛飾区立石6-38-11","lat":35.743852,"lon":139.854392},{"name":"東京愛育苑向島学園","province":"東京都","city":"葛飾区","address":"葛飾区水元3-13-8","lat":35.782555,"lon":139.863901},{"name":"共生会希望の家","province":"東京都","city":"葛飾区","address":"葛飾区青戸4-14-15","lat":35.751943,"lon":139.850242},{"name":"東京愛育苑ケアレジデンス","province":"東京都","city":"葛飾区","address":"葛飾区水元3-13-2","lat":35.782319,"lon":139.863493},{"name":"葛飾区（西生活課）","province":"東京都","city":"葛飾区","address":"葛飾区立石5-13-1","lat":35.742985,"lon":139.847407},{"name":"葛飾区（東生活課）","province":"東京都","city":"葛飾区","address":"葛飾区金町1-6-24","lat":35.761975,"lon":139.865796},{"name":"葛飾区シニア活動支援センター","province":"東京都","city":"葛飾区","address":"葛飾区立石6-38-11","lat":35.74379,"lon":139.85437},{"name":"東京愛育苑向島学園","province":"東京都","city":"葛飾区","address":"葛飾区水元3-13-8","lat":35.7826,"lon":139.86394},{"name":"共生会希望の家","province":"東京都","city":"葛飾区","address":"葛飾区青戸4-14-15","lat":35.75149,"lon":139.84972},{"name":"葛飾区（西生活課）","province":"東京都","city":"葛飾区","address":"葛飾区立石5-13-1","lat":35.74316,"lon":139.84729},{"name":"葛飾区（東生活課）","province":"東京都","city":"葛飾区","address":"葛飾区金町1-6-24","lat":35.76221,"lon":139.86522},{"name":"葛飾区児童相談所","province":"東京都","city":"葛飾区","address":"葛飾区立石2-30-1","lat":35.7404419,"lon":139.841239},{"name":"葛飾区シニア活動支援センター","province":"東京都","city":"葛飾区","address":"葛飾区立石6-38-11","lat":35.743852,"lon":139.854392},{"name":"東京愛育苑向島学園","province":"東京都","city":"葛飾区","address":"葛飾区水元3-13-8","lat":35.782555,"lon":139.863901},{"name":"共生会希望の家","province":"東京都","city":"葛飾区","address":"葛飾区青戸4-14-15","lat":35.751943,"lon":139.850242},{"name":"葛飾区（西生活課）","province":"東京都","city":"葛飾区","address":"葛飾区立石5-13-1","lat":35.742985,"lon":139.847407},{"name":"葛飾区（東生活課）","province":"東京都","city":"葛飾区","address":"葛飾区金町1-6-24","lat":35.761975,"lon":139.865796},{"name":"葛飾区シニア活動支援センター","province":"東京都","city":"葛飾区","address":"葛飾区立石6-38-11","lat":35.74379,"lon":139.85437},{"name":"東京愛育苑向島学園","province":"東京都","city":"葛飾区","address":"葛飾区水元3-13-8","lat":35.7826,"lon":139.86394},{"name":"共生会希望の家","province":"東京都","city":"葛飾区","address":"葛飾区青戸4-14-15","lat":35.75149,"lon":139.84972},{"name":"葛飾区（西生活課）","province":"東京都","city":"葛飾区","address":"葛飾区立石5-13-1","lat":35.74316,"lon":139.84729},{"name":"葛飾区（東生活課）","province":"東京都","city":"葛飾区","address":"葛飾区金町1-6-24","lat":35.76221,"lon":139.86522},{"name":"葛飾区児童相談所","province":"東京都","city":"葛飾区","address":"葛飾区立石2-30-1","lat":35.7404419,"lon":139.841239},{"name":"葛飾区シニア活動支援センター","province":"東京都","city":"葛飾区","address":"葛飾区立石6-38-11","lat":35.743852,"lon":139.854392},{"name":"東京愛育苑向島学園","province":"東京都","city":"葛飾区","address":"葛飾区水元3-13-8","lat":35.782555,"lon":139.863901},{"name":"共生会希望の家","province":"東京都","city":"葛飾区","address":"葛飾区青戸4-14-15","lat":35.751943,"lon":139.850242},{"name":"葛飾区（西生活課）","province":"東京都","city":"葛飾区","address":"葛飾区立石5-13-1","lat":35.742985,"lon":139.847407},{"name":"葛飾区（東生活課）","province":"東京都","city":"葛飾区","address":"葛飾区金町1-6-24","lat":35.761975,"lon":139.865796},{"name":"葛飾区シニア活動支援センター","province":"東京都","city":"葛飾区","address":"葛飾区立石6-38-11","lat":35.74379,"lon":139.85437},{"name":"東京愛育苑向島学園","province":"東京都","city":"葛飾区","address":"葛飾区水元3-13-8","lat":35.7826,"lon":139.86394},{"name":"共生会希望の家","province":"東京都","city":"葛飾区","address":"葛飾区青戸4-14-15","lat":35.75149,"lon":139.84972},{"name":"葛飾区（西生活課）","province":"東京都","city":"葛飾区","address":"葛飾区立石5-13-1","lat":35.74316,"lon":139.84729},{"name":"葛飾区（東生活課）","province":"東京都","city":"葛飾区","address":"葛飾区金町1-6-24","lat":35.76221,"lon":139.86522},{"name":"葛飾区児童相談所","province":"東京都","city":"葛飾区","address":"葛飾区立石2-30-1","lat":35.7404419,"lon":139.841239},{"name":"葛飾区シニア活動支援センター","province":"東京都","city":"葛飾区","address":"葛飾区立石6-38-11","lat":35.743852,"lon":139.854392},{"name":"東京愛育苑向島学園","province":"東京都","city":"葛飾区","address":"葛飾区水元3-13-8","lat":35.782555,"lon":139.863901},{"name":"共生会希望の家","province":"東京都","city":"葛飾区","address":"葛飾区青戸4-14-15","lat":35.751943,"lon":139.850242},{"name":"葛飾区（西生活課）","province":"東京都","city":"葛飾区","address":"葛飾区立石5-13-1","lat":35.742985,"lon":139.847407},{"name":"葛飾区（東生活課）","province":"東京都","city":"葛飾区","address":"葛飾区金町1-6-24","lat":35.761975,"lon":139.865796},{"name":"葛飾区シニア活動支援センター","province":"東京都","city":"葛飾区","address":"葛飾区立石6-38-11","lat":35.74379,"lon":139.85437},{"name":"東京愛育苑向島学園","province":"東京都","city":"葛飾区","address":"葛飾区水元3-13-8","lat":35.7826,"lon":139.86394},{"name":"共生会希望の家","province":"東京都","city":"葛飾区","address":"葛飾区青戸4-14-15","lat":35.75149,"lon":139.84972},{"name":"葛飾区（西生活課）","province":"東京都","city":"葛飾区","address":"葛飾区立石5-13-1","lat":35.74316,"lon":139.84729},{"name":"葛飾区（東生活課）","province":"東京都","city":"葛飾区","address":"葛飾区金町1-6-24","lat":35.76221,"lon":139.86522},{"name":"葛飾区児童相談所","province":"東京都","city":"葛飾区","address":"葛飾区立石2-30-1","lat":35.7404419,"lon":139.841239},{"name":"葛飾区シニア活動支援センター","province":"東京都","city":"葛飾区","address":"葛飾区立石6-38-11","lat":35.743852,"lon":139.854392},{"name":"東京愛育苑向島学園","province":"東京都","city":"葛飾区","address":"葛飾区水元3-13-8","lat":35.782555,"lon":139.863901},{"name":"共生会希望の家","province":"東京都","city":"葛飾区","address":"葛飾区青戸4-14-15","lat":35.751943,"lon":139.850242},{"name":"葛飾区（西生活課）","province":"東京都","city":"葛飾区","address":"葛飾区立石5-13-1","lat":35.742985,"lon":139.847407},{"name":"葛飾区（東生活課）","province":"東京都","city":"葛飾区","address":"葛飾区金町1-6-24","lat":35.761975,"lon":139.865796},{"name":"葛飾区シニア活動支援センター","province":"東京都","city":"葛飾区","address":"葛飾区立石6-38-11","lat":35.74379,"lon":139.85437},{"name":"東京愛育苑向島学園","province":"東京都","city":"葛飾区","address":"葛飾区水元3-13-8","lat":35.7826,"lon":139.86394},{"name":"共生会希望の家","province":"東京都","city":"葛飾区","address":"葛飾区青戸4-14-15","lat":35.75149,"lon":139.84972},{"name":"葛飾区（西生活課）","province":"東京都","city":"葛飾区","address":"葛飾区立石5-13-1","lat":35.74316,"lon":139.84729},{"name":"葛飾区（東生活課）","province":"東京都","city":"葛飾区","address":"葛飾区金町1-6-24","lat":35.76221,"lon":139.86522},{"name":"葛飾区児童相談所","province":"東京都","city":"葛飾区","address":"葛飾区立石2-30-1","lat":35.7404419,"lon":139.841239},{"name":"葛飾区シニア活動支援センター","province":"東京都","city":"葛飾区","address":"葛飾区立石6-38-11","lat":35.743852,"lon":139.854392},{"name":"東京愛育苑向島学園","province":"東京都","city":"葛飾区","address":"葛飾区水元3-13-8","lat":35.782555,"lon":139.863901},{"name":"共生会希望の家","province":"東京都","city":"葛飾区","address":"葛飾区青戸4-14-15","lat":35.751943,"lon":139.850242},{"name":"葛飾区（西生活課）","province":"東京都","city":"葛飾区","address":"葛飾区立石5-13-1","lat":35.742985,"lon":139.847407},{"name":"葛飾区（東生活課）","province":"東京都","city":"葛飾区","address":"葛飾区金町1-6-24","lat":35.761975,"lon":139.865796},{"name":"葛飾区シニア活動支援センター","province":"東京都","city":"葛飾区","address":"葛飾区立石6-38-11","lat":35.74379,"lon":139.85437},{"name":"東京愛育苑向島学園","province":"東京都","city":"葛飾区","address":"葛飾区水元3-13-8","lat":35.7826,"lon":139.86394},{"name":"共生会希望の家","province":"東京都","city":"葛飾区","address":"葛飾区青戸4-14-15","lat":35.75149,"lon":139.84972},{"name":"葛飾区（西生活課）","province":"東京都","city":"葛飾区","address":"葛飾区立石5-13-1","lat":35.74316,"lon":139.84729},{"name":"葛飾区（東生活課）","province":"東京都","city":"葛飾区","address":"葛飾区金町1-6-24","lat":35.76221,"lon":139.86522},{"name":"葛飾区児童相談所","province":"東京都","city":"葛飾区","address":"葛飾区立石2-30-1","lat":35.7404419,"lon":139.841239},{"name":"葛飾区シニア活動支援センター","province":"東京都","city":"葛飾区","address":"葛飾区立石6-38-11","lat":35.743852,"lon":139.854392},{"name":"東京愛育苑向島学園","province":"東京都","city":"葛飾区","address":"葛飾区水元3-13-8","lat":35.782555,"lon":139.863901},{"name":"共生会希望の家","province":"東京都","city":"葛飾区","address":"葛飾区青戸4-14-15","lat":35.751943,"lon":139.850242},{"name":"葛飾区（西生活課）","province":"東京都","city":"葛飾区","address":"葛飾区立石5-13-1","lat":35.742985,"lon":139.847407},{"name":"葛飾区（東生活課）","province":"東京都","city":"葛飾区","address":"葛飾区金町1-6-24","lat":35.761975,"lon":139.865796},{"name":"葛飾区シニア活動支援センター","province":"東京都","city":"葛飾区","address":"葛飾区立石6-38-11","lat":35.74379,"lon":139.85437},{"name":"東京愛育苑向島学園","province":"東京都","city":"葛飾区","address":"葛飾区水元3-13-8","lat":35.7826,"lon":139.86394},{"name":"共生会希望の家","province":"東京都","city":"葛飾区","address":"葛飾区青戸4-14-15","lat":35.75149,"lon":139.84972},{"name":"葛飾区（西生活課）","province":"東京都","city":"葛飾区","address":"葛飾区立石5-13-1","lat":35.74316,"lon":139.84729},{"name":"葛飾区（東生活課）","province":"東京都","city":"葛飾区","address":"葛飾区金町1-6-24","lat":35.76221,"lon":139.86522},{"name":"葛飾区児童相談所","province":"東京都","city":"葛飾区","address":"葛飾区立石2-30-1","lat":35.7404419,"lon":139.841239},{"name":"葛飾区シニア活動支援センター","province":"東京都","city":"葛飾区","address":"葛飾区立石6-38-11","lat":35.743852,"lon":139.854392},{"name":"東京愛育苑向島学園","province":"東京都","city":"葛飾区","address":"葛飾区水元3-13-8","lat":35.782555,"lon":139.863901},{"name":"共生会希望の家","province":"東京都","city":"葛飾区","address":"葛飾区青戸4-14-15","lat":35.751943,"lon":139.850242},{"name":"葛飾区（西生活課）","province":"東京都","city":"葛飾区","address":"葛飾区立石5-13-1","lat":35.742985,"lon":139.847407},{"name":"葛飾区（東生活課）","province":"東京都","city":"葛飾区","address":"葛飾区金町1-6-24","lat":35.761975,"lon":139.865796},{"name":"葛飾区シニア活動支援センター","province":"東京都","city":"葛飾区","address":"葛飾区立石6-38-11","lat":35.74379,"lon":139.85437},{"name":"東京愛育苑向島学園","province":"東京都","city":"葛飾区","address":"葛飾区水元3-13-8","lat":35.7826,"lon":139.86394},{"name":"共生会希望の家","province":"東京都","city":"葛飾区","address":"葛飾区青戸4-14-15","lat":35.75149,"lon":139.84972},{"name":"葛飾区（西生活課）","province":"東京都","city":"葛飾区","address":"葛飾区立石5-13-1","lat":35.74316,"lon":139.84729},{"name":"葛飾区（東生活課）","province":"東京都","city":"葛飾区","address":"葛飾区金町1-6-24","lat":35.76221,"lon":139.86522},{"name":"葛飾区児童相談所","province":"東京都","city":"葛飾区","address":"葛飾区立石2-30-1","lat":35.7404419,"lon":139.841239},{"name":"葛飾区シニア活動支援センター","province":"東京都","city":"葛飾区","address":"葛飾区立石6-38-11","lat":35.743852,"lon":139.854392},{"name":"東京愛育苑向島学園","province":"東京都","city":"葛飾区","address":"葛飾区水元3-13-8","lat":35.782555,"lon":139.863901},{"name":"共生会希望の家","province":"東京都","city":"葛飾区","address":"葛飾区青戸4-14-15","lat":35.751943,"lon":139.850242},{"name":"葛飾区（西生活課）","province":"東京都","city":"葛飾区","address":"葛飾区立石5-13-1","lat":35.742985,"lon":139.847407},{"name":"葛飾区（東生活課）","province":"東京都","city":"葛飾区","address":"葛飾区金町1-6-24","lat":35.761975,"lon":139.865796},{"name":"葛飾区シニア活動支援センター","province":"東京都","city":"葛飾区","address":"葛飾区立石6-38-11","lat":35.74379,"lon":139.85437},{"name":"東京愛育苑向島学園","province":"東京都","city":"葛飾区","address":"葛飾区水元3-13-8","lat":35.7826,"lon":139.86394},{"name":"共生会希望の家","province":"東京都","city":"葛飾区","address":"葛飾区青戸4-14-15","lat":35.75149,"lon":139.84972},{"name":"葛飾区（西生活課）","province":"東京都","city":"葛飾区","address":"葛飾区立石5-13-1","lat":35.74316,"lon":139.84729},{"name":"葛飾区（東生活課）","province":"東京都","city":"葛飾区","address":"葛飾区金町1-6-24","lat":35.76221,"lon":139.86522},{"name":"葛飾区児童相談所","province":"東京都","city":"葛飾区","address":"葛飾区立石2-30-1","lat":35.7404419,"lon":139.841239},{"name":"葛飾区シニア活動支援センター","province":"東京都","city":"葛飾区","address":"葛飾区立石6-38-11","lat":35.743852,"lon":139.854392},{"name":"東京愛育苑向島学園","province":"東京都","city":"葛飾区","address":"葛飾区水元3-13-8","lat":35.782555,"lon":139.863901},{"name":"共生会希望の家","province":"東京都","city":"葛飾区","address":"葛飾区青戸4-14-15","lat":35.751943,"lon":139.850242},{"name":"葛飾区（西生活課）","province":"東京都","city":"葛飾区","address":"葛飾区立石5-13-1","lat":35.742985,"lon":139.847407},{"name":"葛飾区（東生活課）","province":"東京都","city":"葛飾区","address":"葛飾区金町1-6-24","lat":35.761975,"lon":139.865796},{"name":"葛飾区シニア活動支援センター","province":"東京都","city":"葛飾区","address":"葛飾区立石6-38-11","lat":35.74379,"lon":139.85437},{"name":"東京愛育苑向島学園","province":"東京都","city":"葛飾区","address":"葛飾区水元3-13-8","lat":35.7826,"lon":139.86394},{"name":"共生会希望の家","province":"東京都","city":"葛飾区","address":"葛飾区青戸4-14-15","lat":35.75149,"lon":139.84972},{"name":"葛飾区（西生活課）","province":"東京都","city":"葛飾区","address":"葛飾区立石5-13-1","lat":35.74316,"lon":139.84729},{"name":"葛飾区（東生活課）","province":"東京都","city":"葛飾区","address":"葛飾区金町1-6-24","lat":35.76221,"lon":139.86522},{"name":"葛飾区児童相談所","province":"東京都","city":"葛飾区","address":"葛飾区立石2-30-1","lat":35.7404419,"lon":139.841239},{"name":"葛飾区シニア活動支援センター","province":"東京都","city":"葛飾区","address":"葛飾区立石6-38-11","lat":35.743852,"lon":139.854392},{"name":"東京愛育苑向島学園","province":"東京都","city":"葛飾区","address":"葛飾区水元3-13-8","lat":35.782555,"lon":139.863901},{"name":"共生会希望の家","province":"東京都","city":"葛飾区","address":"葛飾区青戸4-14-15","lat":35.751943,"lon":139.850242},{"name":"葛飾区（西生活課）","province":"東京都","city":"葛飾区","address":"葛飾区立石5-13-1","lat":35.742985,"lon":139.847407},{"name":"葛飾区（東生活課）","province":"東京都","city":"葛飾区","address":"葛飾区金町1-6-24","lat":35.761975,"lon":139.865796},{"name":"葛飾区シニア活動支援センター","province":"東京都","city":"葛飾区","address":"葛飾区立石6-38-11","lat":35.74379,"lon":139.85437},{"name":"東京愛育苑向島学園","province":"東京都","city":"葛飾区","address":"葛飾区水元3-13-8","lat":35.7826,"lon":139.86394},{"name":"共生会希望の家","province":"東京都","city":"葛飾区","address":"葛飾区青戸4-14-15","lat":35.75149,"lon":139.84972},{"name":"葛飾区（西生活課）","province":"東京都","city":"葛飾区","address":"葛飾区立石5-13-1","lat":35.74316,"lon":139.84729},{"name":"葛飾区（東生活課）","province":"東京都","city":"葛飾区","address":"葛飾区金町1-6-24","lat":35.76221,"lon":139.86522},{"name":"葛飾区児童相談所","province":"東京都","city":"葛飾区","address":"葛飾区立石2-30-1","lat":35.7404419,"lon":139.841239},{"name":"葛飾区シニア活動支援センター","province":"東京都","city":"葛飾区","address":"葛飾区立石6-38-11","lat":35.743852,"lon":139.854392},{"name":"東京愛育苑向島学園","province":"東京都","city":"葛飾区","address":"葛飾区水元3-13-8","lat":35.782555,"lon":139.863901},{"name":"共生会希望の家","province":"東京都","city":"葛飾区","address":"葛飾区青戸4-14-15","lat":35.751943,"lon":139.850242},{"name":"葛飾区（西生活課）","province":"東京都","city":"葛飾区","address":"葛飾区立石5-13-1","lat":35.742985,"lon":139.847407},{"name":"葛飾区（東生活課）","province":"東京都","city":"葛飾区","address":"葛飾区金町1-6-24","lat":35.761975,"lon":139.865796},{"name":"葛飾区シニア活動支援センター","province":"東京都","city":"葛飾区","address":"葛飾区立石6-38-11","lat":35.74379,"lon":139.85437},{"name":"東京愛育苑向島学園","province":"東京都","city":"葛飾区","address":"葛飾区水元3-13-8","lat":35.7826,"lon":139.86394},{"name":"共生会希望の家","province":"東京都","city":"葛飾区","address":"葛飾区青戸4-14-15","lat":35.75149,"lon":139.84972},{"name":"葛飾区（西生活課）","province":"東京都","city":"葛飾区","address":"葛飾区立石5-13-1","lat":35.74316,"lon":139.84729},{"name":"葛飾区（東生活課）","province":"東京都","city":"葛飾区","address":"葛飾区金町1-6-24","lat":35.76221,"lon":139.86522},{"name":"葛飾区児童相談所","province":"東京都","city":"葛飾区","address":"葛飾区立石2-30-1","lat":35.7404419,"lon":139.841239},{"name":"葛飾区シニア活動支援センター","province":"東京都","city":"葛飾区","address":"葛飾区立石6-38-11","lat":35.743852,"lon":139.854392},{"name":"東京愛育苑向島学園","province":"東京都","city":"葛飾区","address":"葛飾区水元3-13-8","lat":35.782555,"lon":139.863901},{"name":"共生会希望の家","province":"東京都","city":"葛飾区","address":"葛飾区青戸4-14-15","lat":35.751943,"lon":139.850242},{"name":"葛飾区（西生活課）","province":"東京都","city":"葛飾区","address":"葛飾区立石5-13-1","lat":35.742985,"lon":139.847407},{"name":"葛飾区（東生活課）","province":"東京都","city":"葛飾区","address":"葛飾区金町1-6-24","lat":35.761975,"lon":139.865796},{"name":"葛飾区シニア活動支援センター","province":"東京都","city":"葛飾区","address":"葛飾区立石6-38-11","lat":35.74379,"lon":139.85437},{"name":"東京愛育苑向島学園","province":"東京都","city":"葛飾区","address":"葛飾区水元3-13-8","lat":35.7826,"lon":139.86394},{"name":"共生会希望の家","province":"東京都","city":"葛飾区","address":"葛飾区青戸4-14-15","lat":35.75149,"lon":139.84972},{"name":"葛飾区（西生活課）","province":"東京都","city":"葛飾区","address":"葛飾区立石5-13-1","lat":35.74316,"lon":139.84729},{"name":"葛飾区（東生活課）","province":"東京都","city":"葛飾区","address":"葛飾区金町1-6-24","lat":35.76221,"lon":139.86522},{"name":"葛飾区児童相談所","province":"東京都","city":"葛飾区","address":"葛飾区立石2-30-1","lat":35.7404419,"lon":139.841239},{"name":"葛飾区シニア活動支援センター","province":"東京都","city":"葛飾区","address":"葛飾区立石6-38-11","lat":35.743852,"lon":139.854392},{"name":"東京愛育苑向島学園","province":"東京都","city":"葛飾区","address":"葛飾区水元3-13-8","lat":35.782555,"lon":139.863901},{"name":"共生会希望の家","province":"東京都","city":"葛飾区","address":"葛飾区青戸4-14-15","lat":35.751943,"lon":139.850242},{"name":"葛飾区（西生活課）","province":"東京都","city":"葛飾区","address":"葛飾区立石5-13-1","lat":35.742985,"lon":139.847407},{"name":"葛飾区（東生活課）","province":"東京都","city":"葛飾区","address":"葛飾区金町1-6-24","lat":35.761975,"lon":139.865796},{"name":"葛飾区シニア活動支援センター","province":"東京都","city":"葛飾区","address":"葛飾区立石6-38-11","lat":35.74379,"lon":139.85437},{"name":"東京愛育苑向島学園","province":"東京都","city":"葛飾区","address":"葛飾区水元3-13-8","lat":35.7826,"lon":139.86394},{"name":"共生会希望の家","province":"東京都","city":"葛飾区","address":"葛飾区青戸4-14-15","lat":35.75149,"lon":139.84972},{"name":"葛飾区（西生活課）","province":"東京都","city":"葛飾区","address":"葛飾区立石5-13-1","lat":35.74316,"lon":139.84729},{"name":"葛飾区（東生活課）","province":"東京都","city":"葛飾区","address":"葛飾区金町1-6-24","lat":35.76221,"lon":139.86522},{"name":"葛飾区児童相談所","province":"東京都","city":"葛飾区","address":"葛飾区立石2-30-1","lat":35.7404419,"lon":139.841239},{"name":"葛飾区シニア活動支援センター","province":"東京都","city":"葛飾区","address":"葛飾区立石6-38-11","lat":35.743852,"lon":139.854392},{"name":"東京愛育苑向島学園","province":"東京都","city":"葛飾区","address":"葛飾区水元3-13-8","lat":35.782555,"lon":139.863901},{"name":"共生会希望の家","province":"東京都","city":"葛飾区","address":"葛飾区青戸4-14-15","lat":35.751943,"lon":139.850242},{"name":"葛飾区（西生活課）","province":"東京都","city":"葛飾区","address":"葛飾区立石5-13-1","lat":35.742985,"lon":139.847407},{"name":"葛飾区（東生活課）","province":"東京都","city":"葛飾区","address":"葛飾区金町1-6-24","lat":35.761975,"lon":139.865796},{"name":"葛飾区シニア活動支援センター","province":"東京都","city":"葛飾区","address":"葛飾区立石6-38-11","lat":35.74379,"lon":139.85437},{"name":"東京愛育苑向島学園","province":"東京都","city":"葛飾区","address":"葛飾区水元3-13-8","lat":35.7826,"lon":139.86394},{"name":"共生会希望の家","province":"東京都","city":"葛飾区","address":"葛飾区青戸4-14-15","lat":35.75149,"lon":139.84972},{"name":"葛飾区（西生活課）","province":"東京都","city":"葛飾区","address":"葛飾区立石5-13-1","lat":35.74316,"lon":139.84729},{"name":"葛飾区（東生活課）","province":"東京都","city":"葛飾区","address":"葛飾区金町1-6-24","lat":35.76221,"lon":139.86522},{"name":"葛飾区児童相談所","province":"東京都","city":"葛飾区","address":"葛飾区立石2-30-1","lat":35.7404419,"lon":139.841239},{"name":"葛飾区シニア活動支援センター","province":"東京都","city":"葛飾区","address":"葛飾区立石6-38-11","lat":35.743852,"lon":139.854392},{"name":"東京愛育苑向島学園","province":"東京都","city":"葛飾区","address":"葛飾区水元3-13-8","lat":35.782555,"lon":139.863901},{"name":"共生会希望の家","province":"東京都","city":"葛飾区","address":"葛飾区青戸4-14-15","lat":35.751943,"lon":139.850242},{"name":"葛飾区（西生活課）","province":"東京都","city":"葛飾区","address":"葛飾区立石5-13-1","lat":35.742985,"lon":139.847407},{"name":"葛飾区（東生活課）","province":"東京都","city":"葛飾区","address":"葛飾区金町1-6-24","lat":35.761975,"lon":139.865796},{"name":"葛飾区シニア活動支援センター","province":"東京都","city":"葛飾区","address":"葛飾区立石6-38-11","lat":35.74379,"lon":139.85437},{"name":"東京愛育苑向島学園","province":"東京都","city":"葛飾区","address":"葛飾区水元3-13-8","lat":35.7826,"lon":139.86394},{"name":"共生会希望の家","province":"東京都","city":"葛飾区","address":"葛飾区青戸4-14-15","lat":35.75149,"lon":139.84972},{"name":"葛飾区（西生活課）","province":"東京都","city":"葛飾区","address":"葛飾区立石5-13-1","lat":35.74316,"lon":139.84729},{"name":"葛飾区（東生活課）","province":"東京都","city":"葛飾区","address":"葛飾区金町1-6-24","lat":35.76221,"lon":139.86522},{"name":"葛飾区児童相談所","province":"東京都","city":"葛飾区","address":"葛飾区立石2-30-1","lat":35.7404419,"lon":139.841239},{"name":"葛飾区シニア活動支援センター","province":"東京都","city":"葛飾区","address":"葛飾区立石6-38-11","lat":35.743852,"lon":139.854392},{"name":"東京愛育苑向島学園","province":"東京都","city":"葛飾区","address":"葛飾区水元3-13-8","lat":35.782555,"lon":139.863901},{"name":"共生会希望の家","province":"東京都","city":"葛飾区","address":"葛飾区青戸4-14-15","lat":35.751943,"lon":139.850242},{"name":"葛飾区（西生活課）","province":"東京都","city":"葛飾区","address":"葛飾区立石5-13-1","lat":35.742985,"lon":139.847407},{"name":"葛飾区（東生活課）","province":"東京都","city":"葛飾区","address":"葛飾区金町1-6-24","lat":35.761975,"lon":139.865796},{"name":"葛飾区シニア活動支援センター","province":"東京都","city":"葛飾区","address":"葛飾区立石6-38-11","lat":35.74379,"lon":139.85437},{"name":"東京愛育苑向島学園","province":"東京都","city":"葛飾区","address":"葛飾区水元3-13-8","lat":35.7826,"lon":139.86394},{"name":"共生会希望の家","province":"東京都","city":"葛飾区","address":"葛飾区青戸4-14-15","lat":35.75149,"lon":139.84972},{"name":"葛飾区（西生活課）","province":"東京都","city":"葛飾区","address":"葛飾区立石5-13-1","lat":35.74316,"lon":139.84729},{"name":"葛飾区（東生活課）","province":"東京都","city":"葛飾区","address":"葛飾区金町1-6-24","lat":35.76221,"lon":139.86522},{"name":"葛飾区児童相談所","province":"東京都","city":"葛飾区","address":"葛飾区立石2-30-1","lat":35.7404419,"lon":139.841239},{"name":"葛飾区シニア活動支援センター","province":"東京都","city":"葛飾区","address":"葛飾区立石6-38-11","lat":35.743852,"lon":139.854392},{"name":"東京愛育苑向島学園","province":"東京都","city":"葛飾区","address":"葛飾区水元3-13-8","lat":35.782555,"lon":139.863901},{"name":"共生会希望の家","province":"東京都","city":"葛飾区","address":"葛飾区青戸4-14-15","lat":35.751943,"lon":139.850242},{"name":"葛飾区（西生活課）","province":"東京都","city":"葛飾区","address":"葛飾区立石5-13-1","lat":35.742985,"lon":139.847407},{"name":"葛飾区（東生活課）","province":"東京都","city":"葛飾区","address":"葛飾区金町1-6-24","lat":35.761975,"lon":139.865796},{"name":"葛飾区シニア活動支援センター","province":"東京都","city":"葛飾区","address":"葛飾区立石6-38-11","lat":35.74379,"lon":139.85437},{"name":"東京愛育苑向島学園","province":"東京都","city":"葛飾区","address":"葛飾区水元3-13-8","lat":35.7826,"lon":139.86394},{"name":"共生会希望の家","province":"東京都","city":"葛飾区","address":"葛飾区青戸4-14-15","lat":35.75149,"lon":139.84972},{"name":"葛飾区（西生活課）","province":"東京都","city":"葛飾区","address":"葛飾区立石5-13-1","lat":35.74316,"lon":139.84729},{"name":"葛飾区（東生活課）","province":"東京都","city":"葛飾区","address":"葛飾区金町1-6-24","lat":35.76221,"lon":139.86522},{"name":"葛飾区児童相談所","province":"東京都","city":"葛飾区","address":"葛飾区立石2-30-1","lat":35.7404419,"lon":139.841239},{"name":"葛飾区シニア活動支援センター","province":"東京都","city":"葛飾区","address":"葛飾区立石6-38-11","lat":35.743852,"lon":139.854392},{"name":"東京愛育苑向島学園","province":"東京都","city":"葛飾区","address":"葛飾区水元3-13-8","lat":35.782555,"lon":139.863901},{"name":"共生会希望の家","province":"東京都","city":"葛飾区","address":"葛飾区青戸4-14-15","lat":35.751943,"lon":139.850242},{"name":"葛飾区（西生活課）","province":"東京都","city":"葛飾区","address":"葛飾区立石5-13-1","lat":35.742985,"lon":139.847407},{"name":"葛飾区（東生活課）","province":"東京都","city":"葛飾区","address":"葛飾区金町1-6-24","lat":35.761975,"lon":139.865796},{"name":"葛飾区シニア活動支援センター","province":"東京都","city":"葛飾区","address":"葛飾区立石6-38-11","lat":35.74379,"lon":139.85437},{"name":"東京愛育苑向島学園","province":"東京都","city":"葛飾区","address":"葛飾区水元3-13-8","lat":35.7826,"lon":139.86394},{"name":"共生会希望の家","province":"東京都","city":"葛飾区","address":"葛飾区青戸4-14-15","lat":35.75149,"lon":139.84972},{"name":"葛飾区（西生活課）","province":"東京都","city":"葛飾区","address":"葛飾区立石5-13-1","lat":35.74316,"lon":139.84729},{"name":"葛飾区（東生活課）","province":"東京都","city":"葛飾区","address":"葛飾区金町1-6-24","lat":35.76221,"lon":139.86522},{"name":"葛飾区児童相談所","province":"東京都","city":"葛飾区","address":"葛飾区立石2-30-1","lat":35.7404419,"lon":139.841239},{"name":"葛飾区シニア活動支援センター","province":"東京都","city":"葛飾区","address":"葛飾区立石6-38-11","lat":35.743852,"lon":139.854392},{"name":"東京愛育苑向島学園","province":"東京都","city":"葛飾区","address":"葛飾区水元3-13-8","lat":35.782555,"lon":139.863901},{"name":"共生会希望の家","province":"東京都","city":"葛飾区","address":"葛飾区青戸4-14-15","lat":35.751943,"lon":139.850242},{"name":"葛飾区（西生活課）","province":"東京都","city":"葛飾区","address":"葛飾区立石5-13-1","lat":35.742985,"lon":139.847407},{"name":"葛飾区（東生活課）","province":"東京都","city":"葛飾区","address":"葛飾区金町1-6-24","lat":35.761975,"lon":139.865796},{"name":"葛飾区シニア活動支援センター","province":"東京都","city":"葛飾区","address":"葛飾区立石6-38-11","lat":35.74379,"lon":139.85437},{"name":"東京愛育苑向島学園","province":"東京都","city":"葛飾区","address":"葛飾区水元3-13-8","lat":35.7826,"lon":139.86394},{"name":"共生会希望の家","province":"東京都","city":"葛飾区","address":"葛飾区青戸4-14-15","lat":35.75149,"lon":139.84972},{"name":"葛飾区（西生活課）","province":"東京都","city":"葛飾区","address":"葛飾区立石5-13-1","lat":35.74316,"lon":139.84729},{"name":"葛飾区（東生活課）","province":"東京都","city":"葛飾区","address":"葛飾区金町1-6-24","lat":35.76221,"lon":139.86522},{"name":"葛飾区児童相談所","province":"東京都","city":"葛飾区","address":"葛飾区立石2-30-1","lat":35.7404419,"lon":139.841239},{"name":"葛飾区シニア活動支援センター","province":"東京都","city":"葛飾区","address":"葛飾区立石6-38-11","lat":35.743852,"lon":139.854392},{"name":"東京愛育苑向島学園","province":"東京都","city":"葛飾区","address":"葛飾区水元3-13-8","lat":35.782555,"lon":139.863901},{"name":"共生会希望の家","province":"東京都","city":"葛飾区","address":"葛飾区青戸4-14-15","lat":35.751943,"lon":139.850242},{"name":"葛飾区（西生活課）","province":"東京都","city":"葛飾区","address":"葛飾区立石5-13-1","lat":35.742985,"lon":139.847407},{"name":"葛飾区（東生活課）","province":"東京都","city":"葛飾区","address":"葛飾区金町1-6-24","lat":35.761975,"lon":139.865796},{"name":"葛飾区シニア活動支援センター","province":"東京都","city":"葛飾区","address":"葛飾区立石6-38-11","lat":35.74379,"lon":139.85437},{"name":"東京愛育苑向島学園","province":"東京都","city":"葛飾区","address":"葛飾区水元3-13-8","lat":35.7826,"lon":139.86394},{"name":"共生会希望の家","province":"東京都","city":"葛飾区","address":"葛飾区青戸4-14-15","lat":35.75149,"lon":139.84972},{"name":"葛飾区（西生活課）","province":"東京都","city":"葛飾区","address":"葛飾区立石5-13-1","lat":35.74316,"lon":139.84729},{"name":"葛飾区（東生活課）","province":"東京都","city":"葛飾区","address":"葛飾区金町1-6-24","lat":35.76221,"lon":139.86522},{"name":"葛飾区児童相談所","province":"東京都","city":"葛飾区","address":"葛飾区立石2-30-1","lat":35.7404419,"lon":139.841239},{"name":"葛飾区シニア活動支援センター","province":"東京都","city":"葛飾区","address":"葛飾区立石6-38-11","lat":35.743852,"lon":139.854392},{"name":"東京愛育苑向島学園","province":"東京都","city":"葛飾区","address":"葛飾区水元3-13-8","lat":35.782555,"lon":139.863901},{"name":"共生会希望の家","province":"東京都","city":"葛飾区","address":"葛飾区青戸4-14-15","lat":35.751943,"lon":139.850242},{"name":"葛飾区（西生活課）","province":"東京都","city":"葛飾区","address":"葛飾区立石5-13-1","lat":35.742985,"lon":139.847407},{"name":"葛飾区（東生活課）","province":"東京都","city":"葛飾区","address":"葛飾区金町1-6-24","lat":35.761975,"lon":139.865796},{"name":"葛飾区シニア活動支援センター","province":"東京都","city":"葛飾区","address":"葛飾区立石6-38-11","lat":35.74379,"lon":139.85437},{"name":"東京愛育苑向島学園","province":"東京都","city":"葛飾区","address":"葛飾区水元3-13-8","lat":35.7826,"lon":139.86394},{"name":"共生会希望の家","province":"東京都","city":"葛飾区","address":"葛飾区青戸4-14-15","lat":35.75149,"lon":139.84972},{"name":"葛飾区（西生活課）","province":"東京都","city":"葛飾区","address":"葛飾区立石5-13-1","lat":35.74316,"lon":139.84729},{"name":"葛飾区（東生活課）","province":"東京都","city":"葛飾区","address":"葛飾区金町1-6-24","lat":35.76221,"lon":139.86522},{"name":"葛飾区児童相談所","province":"東京都","city":"葛飾区","address":"葛飾区立石2-30-1","lat":35.7404419,"lon":139.841239},{"name":"葛飾区シニア活動支援センター","province":"東京都","city":"葛飾区","address":"葛飾区立石6-38-11","lat":35.743852,"lon":139.854392},{"name":"東京愛育苑向島学園","province":"東京都","city":"葛飾区","address":"葛飾区水元3-13-8","lat":35.782555,"lon":139.863901},{"name":"共生会希望の家","province":"東京都","city":"葛飾区","address":"葛飾区青戸4-14-15","lat":35.751943,"lon":139.850242},{"name":"葛飾区（西生活課）","province":"東京都","city":"葛飾区","address":"葛飾区立石5-13-1","lat":35.742985,"lon":139.847407},{"name":"葛飾区（東生活課）","province":"東京都","city":"葛飾区","address":"葛飾区金町1-6-24","lat":35.761975,"lon":139.865796},{"name":"葛飾区シニア活動支援センター","province":"東京都","city":"葛飾区","address":"葛飾区立石6-38-11","lat":35.74379,"lon":139.85437},{"name":"東京愛育苑向島学園","province":"東京都","city":"葛飾区","address":"葛飾区水元3-13-8","lat":35.7826,"lon":139.86394},{"name":"共生会希望の家","province":"東京都","city":"葛飾区","address":"葛飾区青戸4-14-15","lat":35.75149,"lon":139.84972},{"name":"葛飾区（西生活課）","province":"東京都","city":"葛飾区","address":"葛飾区立石5-13-1","lat":35.74316,"lon":139.84729},{"name":"葛飾区（東生活課）","province":"東京都","city":"葛飾区","address":"葛飾区金町1-6-24","lat":35.76221,"lon":139.86522},{"name":"葛飾区児童相談所","province":"東京都","city":"葛飾区","address":"葛飾区立石2-30-1","lat":35.7404419,"lon":139.841239},{"name":"葛飾区シニア活動支援センター","province":"東京都","city":"葛飾区","address":"葛飾区立石6-38-11","lat":35.743852,"lon":139.854392},{"name":"東京愛育苑向島学園","province":"東京都","city":"葛飾区","address":"葛飾区水元3-13-8","lat":35.782555,"lon":139.863901},{"name":"共生会希望の家","province":"東京都","city":"葛飾区","address":"葛飾区青戸4-14-15","lat":35.751943,"lon":139.850242},{"name":"葛飾区（西生活課）","province":"東京都","city":"葛飾区","address":"葛飾区立石5-13-1","lat":35.742985,"lon":139.847407},{"name":"葛飾区（東生活課）","province":"東京都","city":"葛飾区","address":"葛飾区金町1-6-24","lat":35.761975,"lon":139.865796},{"name":"葛飾区シニア活動支援センター","province":"東京都","city":"葛飾区","address":"葛飾区立石6-38-11","lat":35.74379,"lon":139.85437},{"name":"東京愛育苑向島学園","province":"東京都","city":"葛飾区","address":"葛飾区水元3-13-8","lat":35.7826,"lon":139.86394},{"name":"共生会希望の家","province":"東京都","city":"葛飾区","address":"葛飾区青戸4-14-15","lat":35.75149,"lon":139.84972},{"name":"葛飾区（西生活課）","province":"東京都","city":"葛飾区","address":"葛飾区立石5-13-1","lat":35.74316,"lon":139.84729},{"name":"葛飾区（東生活課）","province":"東京都","city":"葛飾区","address":"葛飾区金町1-6-24","lat":35.76221,"lon":139.86522},{"name":"葛飾区児童相談所","province":"東京都","city":"葛飾区","address":"葛飾区立石2-30-1","lat":35.7404419,"lon":139.841239},{"name":"葛飾区シニア活動支援センター","province":"東京都","city":"葛飾区","address":"葛飾区立石6-38-11","lat":35.743852,"lon":139.854392},{"name":"東京愛育苑向島学園","province":"東京都","city":"葛飾区","address":"葛飾区水元3-13-8","lat":35.782555,"lon":139.863901},{"name":"共生会希望の家","province":"東京都","city":"葛飾区","address":"葛飾区青戸4-14-15","lat":35.751943,"lon":139.850242},{"name":"葛飾区（西生活課）","province":"東京都","city":"葛飾区","address":"葛飾区立石5-13-1","lat":35.742985,"lon":139.847407},{"name":"葛飾区（東生活課）","province":"東京都","city":"葛飾区","address":"葛飾区金町1-6-24","lat":35.761975,"lon":139.865796},{"name":"葛飾区シニア活動支援センター","province":"東京都","city":"葛飾区","address":"葛飾区立石6-38-11","lat":35.74379,"lon":139.85437},{"name":"東京愛育苑向島学園","province":"東京都","city":"葛飾区","address":"葛飾区水元3-13-8","lat":35.7826,"lon":139.86394},{"name":"共生会希望の家","province":"東京都","city":"葛飾区","address":"葛飾区青戸4-14-15","lat":35.75149,"lon":139.84972},{"name":"葛飾区（西生活課）","province":"東京都","city":"葛飾区","address":"葛飾区立石5-13-1","lat":35.74316,"lon":139.84729},{"name":"葛飾区（東生活課）","province":"東京都","city":"葛飾区","address":"葛飾区金町1-6-24","lat":35.76221,"lon":139.86522},{"name":"葛飾区児童相談所","province":"東京都","city":"葛飾区","address":"葛飾区立石2-30-1","lat":35.7404419,"lon":139.841239},{"name":"葛飾区シニア活動支援センター","province":"東京都","city":"葛飾区","address":"葛飾区立石6-38-11","lat":35.743852,"lon":139.854392},{"name":"東京愛育苑向島学園","province":"東京都","city":"葛飾区","address":"葛飾区水元3-13-8","lat":35.782555,"lon":139.863901},{"name":"共生会希望の家","province":"東京都","city":"葛飾区","address":"葛飾区青戸4-14-15","lat":35.751943,"lon":139.850242},{"name":"葛飾区（西生活課）","province":"東京都","city":"葛飾区","address":"葛飾区立石5-13-1","lat":35.742985,"lon":139.847407},{"name":"葛飾区（東生活課）","province":"東京都","city":"葛飾区","address":"葛飾区金町1-6-24","lat":35.761975,"lon":139.865796},{"name":"葛飾区シニア活動支援センター","province":"東京都","city":"葛飾区","address":"葛飾区立石6-38-11","lat":35.74379,"lon":139.85437},{"name":"東京愛育苑向島学園","province":"東京都","city":"葛飾区","address":"葛飾区水元3-13-8","lat":35.7826,"lon":139.86394},{"name":"共生会希望の家","province":"東京都","city":"葛飾区","address":"葛飾区青戸4-14-15","lat":35.75149,"lon":139.84972},{"name":"葛飾区（西生活課）","province":"東京都","city":"葛飾区","address":"葛飾区立石5-13-1","lat":35.74316,"lon":139.84729},{"name":"葛飾区（東生活課）","province":"東京都","city":"葛飾区","address":"葛飾区金町1-6-24","lat":35.76221,"lon":139.86522},{"name":"葛飾区児童相談所","province":"東京都","city":"葛飾区","address":"葛飾区立石2-30-1","lat":35.7404419,"lon":139.841239},{"name":"葛飾区シニア活動支援センター","province":"東京都","city":"葛飾区","address":"葛飾区立石6-38-11","lat":35.743852,"lon":139.854392},{"name":"東京愛育苑向島学園","province":"東京都","city":"葛飾区","address":"葛飾区水元3-13-8","lat":35.782555,"lon":139.863901},{"name":"共生会希望の家","province":"東京都","city":"葛飾区","address":"葛飾区青戸4-14-15","lat":35.751943,"lon":139.850242},{"name":"葛飾区（西生活課）","province":"東京都","city":"葛飾区","address":"葛飾区立石5-13-1","lat":35.742985,"lon":139.847407},{"name":"葛飾区（東生活課）","province":"東京都","city":"葛飾区","address":"葛飾区金町1-6-24","lat":35.761975,"lon":139.865796},{"name":"葛飾区シニア活動支援センター","province":"東京都","city":"葛飾区","address":"葛飾区立石6-38-11","lat":35.74379,"lon":139.85437},{"name":"東京愛育苑向島学園","province":"東京都","city":"葛飾区","address":"葛飾区水元3-13-8","lat":35.7826,"lon":139.86394},{"name":"共生会希望の家","province":"東京都","city":"葛飾区","address":"葛飾区青戸4-14-15","lat":35.75149,"lon":139.84972},{"name":"葛飾区（西生活課）","province":"東京都","city":"葛飾区","address":"葛飾区立石5-13-1","lat":35.74316,"lon":139.84729},{"name":"葛飾区（東生活課）","province":"東京都","city":"葛飾区","address":"葛飾区金町1-6-24","lat":35.76221,"lon":139.86522},{"name":"葛飾区児童相談所","province":"東京都","city":"葛飾区","address":"葛飾区立石2-30-1","lat":35.7404419,"lon":139.841239},{"name":"葛飾区シニア活動支援センター","province":"東京都","city":"葛飾区","address":"葛飾区立石6-38-11","lat":35.743852,"lon":139.854392},{"name":"東京愛育苑向島学園","province":"東京都","city":"葛飾区","address":"葛飾区水元3-13-8","lat":35.782555,"lon":139.863901},{"name":"共生会希望の家","province":"東京都","city":"葛飾区","address":"葛飾区青戸4-14-15","lat":35.751943,"lon":139.850242},{"name":"葛飾区（西生活課）","province":"東京都","city":"葛飾区","address":"葛飾区立石5-13-1","lat":35.742985,"lon":139.847407},{"name":"葛飾区（東生活課）","province":"東京都","city":"葛飾区","address":"葛飾区金町1-6-24","lat":35.761975,"lon":139.865796},{"name":"葛飾区シニア活動支援センター","province":"東京都","city":"葛飾区","address":"葛飾区立石6-38-11","lat":35.74379,"lon":139.85437},{"name":"東京愛育苑向島学園","province":"東京都","city":"葛飾区","address":"葛飾区水元3-13-8","lat":35.7826,"lon":139.86394},{"name":"共生会希望の家","province":"東京都","city":"葛飾区","address":"葛飾区青戸4-14-15","lat":35.75149,"lon":139.84972},{"name":"葛飾区（西生活課）","province":"東京都","city":"葛飾区","address":"葛飾区立石5-13-1","lat":35.74316,"lon":139.84729},{"name":"葛飾区（東生活課）","province":"東京都","city":"葛飾区","address":"葛飾区金町1-6-24","lat":35.76221,"lon":139.86522},{"name":"葛飾区児童相談所","province":"東京都","city":"葛飾区","address":"葛飾区立石2-30-1","lat":35.7404419,"lon":139.841239},{"name":"葛飾区シニア活動支援センター","province":"東京都","city":"葛飾区","address":"葛飾区立石6-38-11","lat":35.743852,"lon":139.854392},{"name":"東京愛育苑向島学園","province":"東京都","city":"葛飾区","address":"葛飾区水元3-13-8","lat":35.782555,"lon":139.863901},{"name":"共生会希望の家","province":"東京都","city":"葛飾区","address":"葛飾区青戸4-14-15","lat":35.751943,"lon":139.850242},{"name":"葛飾区（西生活課）","province":"東京都","city":"葛飾区","address":"葛飾区立石5-13-1","lat":35.742985,"lon":139.847407},{"name":"葛飾区（東生活課）","province":"東京都","city":"葛飾区","address":"葛飾区金町1-6-24","lat":35.761975,"lon":139.865796},{"name":"葛飾区シニア活動支援センター","province":"東京都","city":"葛飾区","address":"葛飾区立石6-38-11","lat":35.74379,"lon":139.85437},{"name":"東京愛育苑向島学園","province":"東京都","city":"葛飾区","address":"葛飾区水元3-13-8","lat":35.7826,"lon":139.86394},{"name":"共生会希望の家","province":"東京都","city":"葛飾区","address":"葛飾区青戸4-14-15","lat":35.75149,"lon":139.84972},{"name":"葛飾区（西生活課）","province":"東京都","city":"葛飾区","address":"葛飾区立石5-13-1","lat":35.74316,"lon":139.84729},{"name":"葛飾区（東生活課）","province":"東京都","city":"葛飾区","address":"葛飾区金町1-6-24","lat":35.76221,"lon":139.86522},{"name":"葛飾区児童相談所","province":"東京都","city":"葛飾区","address":"葛飾区立石2-30-1","lat":35.7404419,"lon":139.841239},{"name":"葛飾区シニア活動支援センター","province":"東京都","city":"葛飾区","address":"葛飾区立石6-38-11","lat":35.743852,"lon":139.854392},{"name":"東京愛育苑向島学園","province":"東京都","city":"葛飾区","address":"葛飾区水元3-13-8","lat":35.782555,"lon":139.863901},{"name":"共生会希望の家","province":"東京都","city":"葛飾区","address":"葛飾区青戸4-14-15","lat":35.751943,"lon":139.850242},{"name":"葛飾区（西生活課）","province":"東京都","city":"葛飾区","address":"葛飾区立石5-13-1","lat":35.742985,"lon":139.847407},{"name":"葛飾区（東生活課）","province":"東京都","city":"葛飾区","address":"葛飾区金町1-6-24","lat":35.761975,"lon":139.865796},{"name":"葛飾区シニア活動支援センター","province":"東京都","city":"葛飾区","address":"葛飾区立石6-38-11","lat":35.74379,"lon":139.85437},{"name":"東京愛育苑向島学園","province":"東京都","city":"葛飾区","address":"葛飾区水元3-13-8","lat":35.7826,"lon":139.86394},{"name":"共生会希望の家","province":"東京都","city":"葛飾区","address":"葛飾区青戸4-14-15","lat":35.75149,"lon":139.84972},{"name":"葛飾区（西生活課）","province":"東京都","city":"葛飾区","address":"葛飾区立石5-13-1","lat":35.74316,"lon":139.84729},{"name":"葛飾区（東生活課）","province":"東京都","city":"葛飾区","address":"葛飾区金町1-6-24","lat":35.76221,"lon":139.86522},{"name":"葛飾区児童相談所","province":"東京都","city":"葛飾区","address":"葛飾区立石2-30-1","lat":35.7404419,"lon":139.841239},{"name":"葛飾区シニア活動支援センター","province":"東京都","city":"葛飾区","address":"葛飾区立石6-38-11","lat":35.743852,"lon":139.854392},{"name":"東京愛育苑向島学園","province":"東京都","city":"葛飾区","address":"葛飾区水元3-13-8","lat":35.782555,"lon":139.863901},{"name":"共生会希望の家","province":"東京都","city":"葛飾区","address":"葛飾区青戸4-14-15","lat":35.751943,"lon":139.850242},{"name":"葛飾区（西生活課）","province":"東京都","city":"葛飾区","address":"葛飾区立石5-13-1","lat":35.742985,"lon":139.847407},{"name":"葛飾区（東生活課）","province":"東京都","city":"葛飾区","address":"葛飾区金町1-6-24","lat":35.761975,"lon":139.865796},{"name":"葛飾区シニア活動支援センター","province":"東京都","city":"葛飾区","address":"葛飾区立石6-38-11","lat":35.74379,"lon":139.85437},{"name":"東京愛育苑向島学園","province":"東京都","city":"葛飾区","address":"葛飾区水元3-13-8","lat":35.7826,"lon":139.86394},{"name":"共生会希望の家","province":"東京都","city":"葛飾区","address":"葛飾区青戸4-14-15","lat":35.75149,"lon":139.84972},{"name":"葛飾区（西生活課）","province":"東京都","city":"葛飾区","address":"葛飾区立石5-13-1","lat":35.74316,"lon":139.84729},{"name":"葛飾区（東生活課）","province":"東京都","city":"葛飾区","address":"葛飾区金町1-6-24","lat":35.76221,"lon":139.86522},{"name":"葛飾区児童相談所","province":"東京都","city":"葛飾区","address":"葛飾区立石2-30-1","lat":35.7404419,"lon":139.841239},{"name":"葛飾区シニア活動支援センター","province":"東京都","city":"葛飾区","address":"葛飾区立石6-38-11","lat":35.743852,"lon":139.854392},{"name":"東京愛育苑向島学園","province":"東京都","city":"葛飾区","address":"葛飾区水元3-13-8","lat":35.782555,"lon":139.863901},{"name":"共生会希望の家","province":"東京都","city":"葛飾区","address":"葛飾区青戸4-14-15","lat":35.751943,"lon":139.850242},{"name":"葛飾区（西生活課）","province":"東京都","city":"葛飾区","address":"葛飾区立石5-13-1","lat":35.742985,"lon":139.847407},{"name":"葛飾区（東生活課）","province":"東京都","city":"葛飾区","address":"葛飾区金町1-6-24","lat":35.761975,"lon":139.865796},{"name":"葛飾区シニア活動支援センター","province":"東京都","city":"葛飾区","address":"葛飾区立石6-38-11","lat":35.74379,"lon":139.85437},{"name":"東京愛育苑向島学園","province":"東京都","city":"葛飾区","address":"葛飾区水元3-13-8","lat":35.7826,"lon":139.86394},{"name":"共生会希望の家","province":"東京都","city":"葛飾区","address":"葛飾区青戸4-14-15","lat":35.75149,"lon":139.84972},{"name":"葛飾区（西生活課）","province":"東京都","city":"葛飾区","address":"葛飾区立石5-13-1","lat":35.74316,"lon":139.84729},{"name":"葛飾区（東生活課）","province":"東京都","city":"葛飾区","address":"葛飾区金町1-6-24","lat":35.76221,"lon":139.86522},{"name":"葛飾区児童相談所","province":"東京都","city":"葛飾区","address":"葛飾区立石2-30-1","lat":35.7404419,"lon":139.841239},{"name":"葛飾区シニア活動支援センター","province":"東京都","city":"葛飾区","address":"葛飾区立石6-38-11","lat":35.743852,"lon":139.854392},{"name":"東京愛育苑向島学園","province":"東京都","city":"葛飾区","address":"葛飾区水元3-13-8","lat":35.782555,"lon":139.863901},{"name":"共生会希望の家","province":"東京都","city":"葛飾区","address":"葛飾区青戸4-14-15","lat":35.751943,"lon":139.850242},{"name":"葛飾区（西生活課）","province":"東京都","city":"葛飾区","address":"葛飾区立石5-13-1","lat":35.742985,"lon":139.847407},{"name":"葛飾区（東生活課）","province":"東京都","city":"葛飾区","address":"葛飾区金町1-6-24","lat":35.761975,"lon":139.865796},{"name":"葛飾区シニア活動支援センター","province":"東京都","city":"葛飾区","address":"葛飾区立石6-38-11","lat":35.74379,"lon":139.85437},{"name":"東京愛育苑向島学園","province":"東京都","city":"葛飾区","address":"葛飾区水元3-13-8","lat":35.7826,"lon":139.86394},{"name":"共生会希望の家","province":"東京都","city":"葛飾区","address":"葛飾区青戸4-14-15","lat":35.75149,"lon":139.84972},{"name":"葛飾区（西生活課）","province":"東京都","city":"葛飾区","address":"葛飾区立石5-13-1","lat":35.74316,"lon":139.84729},{"name":"葛飾区（東生活課）","province":"東京都","city":"葛飾区","address":"葛飾区金町1-6-24","lat":35.76221,"lon":139.86522},{"name":"葛飾区児童相談所","province":"東京都","city":"葛飾区","address":"葛飾区立石2-30-1","lat":35.7404419,"lon":139.841239},{"name":"葛飾区シニア活動支援センター","province":"東京都","city":"葛飾区","address":"葛飾区立石6-38-11","lat":35.743852,"lon":139.854392},{"name":"東京愛育苑向島学園","province":"東京都","city":"葛飾区","address":"葛飾区水元3-13-8","lat":35.782555,"lon":139.863901},{"name":"共生会希望の家","province":"東京都","city":"葛飾区","address":"葛飾区青戸4-14-15","lat":35.751943,"lon":139.850242},{"name":"葛飾区（西生活課）","province":"東京都","city":"葛飾区","address":"葛飾区立石5-13-1","lat":35.742985,"lon":139.847407},{"name":"葛飾区（東生活課）","province":"東京都","city":"葛飾区","address":"葛飾区金町1-6-24","lat":35.761975,"lon":139.865796},{"name":"葛飾区シニア活動支援センター","province":"東京都","city":"葛飾区","address":"葛飾区立石6-38-11","lat":35.74379,"lon":139.85437},{"name":"東京愛育苑向島学園","province":"東京都","city":"葛飾区","address":"葛飾区水元3-13-8","lat":35.7826,"lon":139.86394},{"name":"共生会希望の家","province":"東京都","city":"葛飾区","address":"葛飾区青戸4-14-15","lat":35.75149,"lon":139.84972},{"name":"葛飾区（西生活課）","province":"東京都","city":"葛飾区","address":"葛飾区立石5-13-1","lat":35.74316,"lon":139.84729},{"name":"葛飾区（東生活課）","province":"東京都","city":"葛飾区","address":"葛飾区金町1-6-24","lat":35.76221,"lon":139.86522},{"name":"葛飾区児童相談所","province":"東京都","city":"葛飾区","address":"葛飾区立石2-30-1","lat":35.7404419,"lon":139.841239},{"name":"葛飾区シニア活動支援センター","province":"東京都","city":"葛飾区","address":"葛飾区立石6-38-11","lat":35.743852,"lon":139.854392},{"name":"東京愛育苑向島学園","province":"東京都","city":"葛飾区","address":"葛飾区水元3-13-8","lat":35.782555,"lon":139.863901},{"name":"共生会希望の家","province":"東京都","city":"葛飾区","address":"葛飾区青戸4-14-15","lat":35.751943,"lon":139.850242},{"name":"葛飾区（西生活課）","province":"東京都","city":"葛飾区","address":"葛飾区立石5-13-1","lat":35.742985,"lon":139.847407},{"name":"葛飾区（東生活課）","province":"東京都","city":"葛飾区","address":"葛飾区金町1-6-24","lat":35.761975,"lon":139.865796},{"name":"葛飾区シニア活動支援センター","province":"東京都","city":"葛飾区","address":"葛飾区立石6-38-11","lat":35.74379,"lon":139.85437},{"name":"東京愛育苑向島学園","province":"東京都","city":"葛飾区","address":"葛飾区水元3-13-8","lat":35.7826,"lon":139.86394},{"name":"共生会希望の家","province":"東京都","city":"葛飾区","address":"葛飾区青戸4-14-15","lat":35.75149,"lon":139.84972},{"name":"葛飾区（西生活課）","province":"東京都","city":"葛飾区","address":"葛飾区立石5-13-1","lat":35.74316,"lon":139.84729},{"name":"葛飾区（東生活課）","province":"東京都","city":"葛飾区","address":"葛飾区金町1-6-24","lat":35.76221,"lon":139.86522},{"name":"葛飾区児童相談所","province":"東京都","city":"葛飾区","address":"葛飾区立石2-30-1","lat":35.7404419,"lon":139.841239},{"name":"葛飾区シニア活動支援センター","province":"東京都","city":"葛飾区","address":"葛飾区立石6-38-11","lat":35.743852,"lon":139.854392},{"name":"東京愛育苑向島学園","province":"東京都","city":"葛飾区","address":"葛飾区水元3-13-8","lat":35.782555,"lon":139.863901},{"name":"共生会希望の家","province":"東京都","city":"葛飾区","address":"葛飾区青戸4-14-15","lat":35.751943,"lon":139.850242},{"name":"葛飾区（西生活課）","province":"東京都","city":"葛飾区","address":"葛飾区立石5-13-1","lat":35.742985,"lon":139.847407},{"name":"葛飾区（東生活課）","province":"東京都","city":"葛飾区","address":"葛飾区金町1-6-24","lat":35.761975,"lon":139.865796},{"name":"葛飾区シニア活動支援センター","province":"東京都","city":"葛飾区","address":"葛飾区立石6-38-11","lat":35.74379,"lon":139.85437},{"name":"東京愛育苑向島学園","province":"東京都","city":"葛飾区","address":"葛飾区水元3-13-8","lat":35.7826,"lon":139.86394},{"name":"共生会希望の家","province":"東京都","city":"葛飾区","address":"葛飾区青戸4-14-15","lat":35.75149,"lon":139.84972},{"name":"葛飾区（西生活課）","province":"東京都","city":"葛飾区","address":"葛飾区立石5-13-1","lat":35.74316,"lon":139.84729},{"name":"葛飾区（東生活課）","province":"東京都","city":"葛飾区","address":"葛飾区金町1-6-24","lat":35.76221,"lon":139.86522},{"name":"葛飾区児童相談所","province":"東京都","city":"葛飾区","address":"葛飾区立石2-30-1","lat":35.7404419,"lon":139.841239},{"name":"葛飾区シニア活動支援センター","province":"東京都","city":"葛飾区","address":"葛飾区立石6-38-11","lat":35.743852,"lon":139.854392},{"name":"東京愛育苑向島学園","province":"東京都","city":"葛飾区","address":"葛飾区水元3-13-8","lat":35.782555,"lon":139.863901},{"name":"共生会希望の家","province":"東京都","city":"葛飾区","address":"葛飾区青戸4-14-15","lat":35.751943,"lon":139.850242},{"name":"葛飾区（西生活課）","province":"東京都","city":"葛飾区","address":"葛飾区立石5-13-1","lat":35.742985,"lon":139.847407},{"name":"葛飾区（東生活課）","province":"東京都","city":"葛飾区","address":"葛飾区金町1-6-24","lat":35.761975,"lon":139.865796},{"name":"葛飾区シニア活動支援センター","province":"東京都","city":"葛飾区","address":"葛飾区立石6-38-11","lat":35.74379,"lon":139.85437},{"name":"東京愛育苑向島学園","province":"東京都","city":"葛飾区","address":"葛飾区水元3-13-8","lat":35.7826,"lon":139.86394},{"name":"共生会希望の家","province":"東京都","city":"葛飾区","address":"葛飾区青戸4-14-15","lat":35.75149,"lon":139.84972},{"name":"葛飾区（西生活課）","province":"東京都","city":"葛飾区","address":"葛飾区立石5-13-1","lat":35.74316,"lon":139.84729},{"name":"葛飾区（東生活課）","province":"東京都","city":"葛飾区","address":"葛飾区金町1-6-24","lat":35.76221,"lon":139.86522},{"name":"葛飾区児童相談所","province":"東京都","city":"葛飾区","address":"葛飾区立石2-30-1","lat":35.7404419,"lon":139.841239},{"name":"葛飾区シニア活動支援センター","province":"東京都","city":"葛飾区","address":"葛飾区立石6-38-11","lat":35.743852,"lon":139.854392},{"name":"東京愛育苑向島学園","province":"東京都","city":"葛飾区","address":"葛飾区水元3-13-8","lat":35.782555,"lon":139.863901},{"name":"共生会希望の家","province":"東京都","city":"葛飾区","address":"葛飾区青戸4-14-15","lat":35.751943,"lon":139.850242},{"name":"葛飾区（西生活課）","province":"東京都","city":"葛飾区","address":"葛飾区立石5-13-1","lat":35.742985,"lon":139.847407},{"name":"葛飾区（東生活課）","province":"東京都","city":"葛飾区","address":"葛飾区金町1-6-24","lat":35.761975,"lon":139.865796},{"name":"葛飾区シニア活動支援センター","province":"東京都","city":"葛飾区","address":"葛飾区立石6-38-11","lat":35.74379,"lon":139.85437},{"name":"東京愛育苑向島学園","province":"東京都","city":"葛飾区","address":"葛飾区水元3-13-8","lat":35.7826,"lon":139.86394},{"name":"共生会希望の家","province":"東京都","city":"葛飾区","address":"葛飾区青戸4-14-15","lat":35.75149,"lon":139.84972},{"name":"葛飾区（西生活課）","province":"東京都","city":"葛飾区","address":"葛飾区立石5-13-1","lat":35.74316,"lon":139.84729},{"name":"葛飾区（東生活課）","province":"東京都","city":"葛飾区","address":"葛飾区金町1-6-24","lat":35.76221,"lon":139.86522},{"name":"葛飾区児童相談所","province":"東京都","city":"葛飾区","address":"葛飾区立石2-30-1","lat":35.7404419,"lon":139.841239},{"name":"葛飾区シニア活動支援センター","province":"東京都","city":"葛飾区","address":"葛飾区立石6-38-11","lat":35.743852,"lon":139.854392},{"name":"東京愛育苑向島学園","province":"東京都","city":"葛飾区","address":"葛飾区水元3-13-8","lat":35.782555,"lon":139.863901},{"name":"共生会希望の家","province":"東京都","city":"葛飾区","address":"葛飾区青戸4-14-15","lat":35.751943,"lon":139.850242},{"name":"葛飾区（西生活課）","province":"東京都","city":"葛飾区","address":"葛飾区立石5-13-1","lat":35.742985,"lon":139.847407},{"name":"葛飾区（東生活課）","province":"東京都","city":"葛飾区","address":"葛飾区金町1-6-24","lat":35.761975,"lon":139.865796},{"name":"葛飾区シニア活動支援センター","province":"東京都","city":"葛飾区","address":"葛飾区立石6-38-11","lat":35.74379,"lon":139.85437},{"name":"東京愛育苑向島学園","province":"東京都","city":"葛飾区","address":"葛飾区水元3-13-8","lat":35.7826,"lon":139.86394},{"name":"共生会希望の家","province":"東京都","city":"葛飾区","address":"葛飾区青戸4-14-15","lat":35.75149,"lon":139.84972},{"name":"葛飾区（西生活課）","province":"東京都","city":"葛飾区","address":"葛飾区立石5-13-1","lat":35.74316,"lon":139.84729},{"name":"葛飾区（東生活課）","province":"東京都","city":"葛飾区","address":"葛飾区金町1-6-24","lat":35.76221,"lon":139.86522},{"name":"葛飾区児童相談所","province":"東京都","city":"葛飾区","address":"葛飾区立石2-30-1","lat":35.7404419,"lon":139.841239},{"name":"葛飾区シニア活動支援センター","province":"東京都","city":"葛飾区","address":"葛飾区立石6-38-11","lat":35.743852,"lon":139.854392},{"name":"東京愛育苑向島学園","province":"東京都","city":"葛飾区","address":"葛飾区水元3-13-8","lat":35.782555,"lon":139.863901},{"name":"共生会希望の家","province":"東京都","city":"葛飾区","address":"葛飾区青戸4-14-15","lat":35.751943,"lon":139.850242},{"name":"葛飾区（西生活課）","province":"東京都","city":"葛飾区","address":"葛飾区立石5-13-1","lat":35.742985,"lon":139.847407},{"name":"葛飾区（東生活課）","province":"東京都","city":"葛飾区","address":"葛飾区金町1-6-24","lat":35.761975,"lon":139.865796},{"name":"葛飾区シニア活動支援センター","province":"東京都","city":"葛飾区","address":"葛飾区立石6-38-11","lat":35.74379,"lon":139.85437},{"name":"東京愛育苑向島学園","province":"東京都","city":"葛飾区","address":"葛飾区水元3-13-8","lat":35.7826,"lon":139.86394},{"name":"共生会希望の家","province":"東京都","city":"葛飾区","address":"葛飾区青戸4-14-15","lat":35.75149,"lon":139.84972},{"name":"葛飾区（西生活課）","province":"東京都","city":"葛飾区","address":"葛飾区立石5-13-1","lat":35.74316,"lon":139.84729},{"name":"葛飾区（東生活課）","province":"東京都","city":"葛飾区","address":"葛飾区金町1-6-24","lat":35.76221,"lon":139.86522},{"name":"葛飾区児童相談所","province":"東京都","city":"葛飾区","address":"葛飾区立石2-30-1","lat":35.7404419,"lon":139.841239},{"name":"葛飾区シニア活動支援センター","province":"東京都","city":"葛飾区","address":"葛飾区立石6-38-11","lat":35.743852,"lon":139.854392},{"name":"東京愛育苑向島学園","province":"東京都","city":"葛飾区","address":"葛飾区水元3-13-8","lat":35.782555,"lon":139.863901},{"name":"共生会希望の家","province":"東京都","city":"葛飾区","address":"葛飾区青戸4-14-15","lat":35.751943,"lon":139.850242},{"name":"葛飾区（西生活課）","province":"東京都","city":"葛飾区","address":"葛飾区立石5-13-1","lat":35.742985,"lon":139.847407},{"name":"葛飾区（東生活課）","province":"東京都","city":"葛飾区","address":"葛飾区金町1-6-24","lat":35.761975,"lon":139.865796},{"name":"葛飾区シニア活動支援センター","province":"東京都","city":"葛飾区","address":"葛飾区立石6-38-11","lat":35.74379,"lon":139.85437},{"name":"東京愛育苑向島学園","province":"東京都","city":"葛飾区","address":"葛飾区水元3-13-8","lat":35.7826,"lon":139.86394},{"name":"共生会希望の家","province":"東京都","city":"葛飾区","address":"葛飾区青戸4-14-15","lat":35.75149,"lon":139.84972},{"name":"葛飾区（西生活課）","province":"東京都","city":"葛飾区","address":"葛飾区立石5-13-1","lat":35.74316,"lon":139.84729},{"name":"葛飾区（東生活課）","province":"東京都","city":"葛飾区","address":"葛飾区金町1-6-24","lat":35.76221,"lon":139.86522},{"name":"葛飾区児童相談所","province":"東京都","city":"葛飾区","address":"葛飾区立石2-30-1","lat":35.7404419,"lon":139.841239},{"name":"葛飾区シニア活動支援センター","province":"東京都","city":"葛飾区","address":"葛飾区立石6-38-11","lat":35.743852,"lon":139.854392},{"name":"東京愛育苑向島学園","province":"東京都","city":"葛飾区","address":"葛飾区水元3-13-8","lat":35.782555,"lon":139.863901},{"name":"共生会希望の家","province":"東京都","city":"葛飾区","address":"葛飾区青戸4-14-15","lat":35.751943,"lon":139.850242},{"name":"葛飾区（西生活課）","province":"東京都","city":"葛飾区","address":"葛飾区立石5-13-1","lat":35.742985,"lon":139.847407},{"name":"葛飾区（東生活課）","province":"東京都","city":"葛飾区","address":"葛飾区金町1-6-24","lat":35.761975,"lon":139.865796},{"name":"葛飾区シニア活動支援センター","province":"東京都","city":"葛飾区","address":"葛飾区立石6-38-11","lat":35.74379,"lon":139.85437},{"name":"東京愛育苑向島学園","province":"東京都","city":"葛飾区","address":"葛飾区水元3-13-8","lat":35.7826,"lon":139.86394},{"name":"共生会希望の家","province":"東京都","city":"葛飾区","address":"葛飾区青戸4-14-15","lat":35.75149,"lon":139.84972},{"name":"葛飾区（西生活課）","province":"東京都","city":"葛飾区","address":"葛飾区立石5-13-1","lat":35.74316,"lon":139.84729},{"name":"葛飾区（東生活課）","province":"東京都","city":"葛飾区","address":"葛飾区金町1-6-24","lat":35.76221,"lon":139.86522},{"name":"葛飾区児童相談所","province":"東京都","city":"葛飾区","address":"葛飾区立石2-30-1","lat":35.7404419,"lon":139.841239},{"name":"葛飾区シニア活動支援センター","province":"東京都","city":"葛飾区","address":"葛飾区立石6-38-11","lat":35.743852,"lon":139.854392},{"name":"東京愛育苑向島学園","province":"東京都","city":"葛飾区","address":"葛飾区水元3-13-8","lat":35.782555,"lon":139.863901},{"name":"共生会希望の家","province":"東京都","city":"葛飾区","address":"葛飾区青戸4-14-15","lat":35.751943,"lon":139.850242},{"name":"葛飾区（西生活課）","province":"東京都","city":"葛飾区","address":"葛飾区立石5-13-1","lat":35.742985,"lon":139.847407},{"name":"葛飾区（東生活課）","province":"東京都","city":"葛飾区","address":"葛飾区金町1-6-24","lat":35.761975,"lon":139.865796},{"name":"葛飾区シニア活動支援センター","province":"東京都","city":"葛飾区","address":"葛飾区立石6-38-11","lat":35.74379,"lon":139.85437},{"name":"東京愛育苑向島学園","province":"東京都","city":"葛飾区","address":"葛飾区水元3-13-8","lat":35.7826,"lon":139.86394},{"name":"共生会希望の家","province":"東京都","city":"葛飾区","address":"葛飾区青戸4-14-15","lat":35.75149,"lon":139.84972},{"name":"葛飾区（西生活課）","province":"東京都","city":"葛飾区","address":"葛飾区立石5-13-1","lat":35.74316,"lon":139.84729},{"name":"葛飾区（東生活課）","province":"東京都","city":"葛飾区","address":"葛飾区金町1-6-24","lat":35.76221,"lon":139.86522},{"name":"葛飾区児童相談所","province":"東京都","city":"葛飾区","address":"葛飾区立石2-30-1","lat":35.7404419,"lon":139.841239},{"name":"葛飾区シニア活動支援センター","province":"東京都","city":"葛飾区","address":"葛飾区立石6-38-11","lat":35.743852,"lon":139.854392},{"name":"東京愛育苑向島学園","province":"東京都","city":"葛飾区","address":"葛飾区水元3-13-8","lat":35.782555,"lon":139.863901},{"name":"共生会希望の家","province":"東京都","city":"葛飾区","address":"葛飾区青戸4-14-15","lat":35.751943,"lon":139.850242},{"name":"葛飾区（西生活課）","province":"東京都","city":"葛飾区","address":"葛飾区立石5-13-1","lat":35.742985,"lon":139.847407},{"name":"葛飾区（東生活課）","province":"東京都","city":"葛飾区","address":"葛飾区金町1-6-24","lat":35.761975,"lon":139.865796},{"name":"葛飾区シニア活動支援センター","province":"東京都","city":"葛飾区","address":"葛飾区立石6-38-11","lat":35.74379,"lon":139.85437},{"name":"東京愛育苑向島学園","province":"東京都","city":"葛飾区","address":"葛飾区水元3-13-8","lat":35.7826,"lon":139.86394},{"name":"共生会希望の家","province":"東京都","city":"葛飾区","address":"葛飾区青戸4-14-15","lat":35.75149,"lon":139.84972},{"name":"葛飾区（西生活課）","province":"東京都","city":"葛飾区","address":"葛飾区立石5-13-1","lat":35.74316,"lon":139.84729},{"name":"葛飾区（東生活課）","province":"東京都","city":"葛飾区","address":"葛飾区金町1-6-24","lat":35.76221,"lon":139.86522},{"name":"葛飾区児童相談所","province":"東京都","city":"葛飾区","address":"葛飾区立石2-30-1","lat":35.7404419,"lon":139.841239},{"name":"葛飾区シニア活動支援センター","province":"東京都","city":"葛飾区","address":"葛飾区立石6-38-11","lat":35.743852,"lon":139.854392},{"name":"東京愛育苑向島学園","province":"東京都","city":"葛飾区","address":"葛飾区水元3-13-8","lat":35.782555,"lon":139.863901},{"name":"共生会希望の家","province":"東京都","city":"葛飾区","address":"葛飾区青戸4-14-15","lat":35.751943,"lon":139.850242},{"name":"葛飾区（西生活課）","province":"東京都","city":"葛飾区","address":"葛飾区立石5-13-1","lat":35.742985,"lon":139.847407},{"name":"葛飾区（東生活課）","province":"東京都","city":"葛飾区","address":"葛飾区金町1-6-24","lat":35.761975,"lon":139.865796},{"name":"葛飾区シニア活動支援センター","province":"東京都","city":"葛飾区","address":"葛飾区立石6-38-11","lat":35.74379,"lon":139.85437},{"name":"東京愛育苑向島学園","province":"東京都","city":"葛飾区","address":"葛飾区水元3-13-8","lat":35.7826,"lon":139.86394},{"name":"共生会希望の家","province":"東京都","city":"葛飾区","address":"葛飾区青戸4-14-15","lat":35.75149,"lon":139.84972},{"name":"葛飾区（西生活課）","province":"東京都","city":"葛飾区","address":"葛飾区立石5-13-1","lat":35.74316,"lon":139.84729},{"name":"葛飾区（東生活課）","province":"東京都","city":"葛飾区","address":"葛飾区金町1-6-24","lat":35.76221,"lon":139.86522},{"name":"葛飾区児童相談所","province":"東京都","city":"葛飾区","address":"葛飾区立石2-30-1","lat":35.7404419,"lon":139.841239},{"name":"葛飾区シニア活動支援センター","province":"東京都","city":"葛飾区","address":"葛飾区立石6-38-11","lat":35.743852,"lon":139.854392},{"name":"東京愛育苑向島学園","province":"東京都","city":"葛飾区","address":"葛飾区水元3-13-8","lat":35.782555,"lon":139.863901},{"name":"共生会希望の家","province":"東京都","city":"葛飾区","address":"葛飾区青戸4-14-15","lat":35.751943,"lon":139.850242},{"name":"葛飾区（西生活課）","province":"東京都","city":"葛飾区","address":"葛飾区立石5-13-1","lat":35.742985,"lon":139.847407},{"name":"葛飾区（東生活課）","province":"東京都","city":"葛飾区","address":"葛飾区金町1-6-24","lat":35.761975,"lon":139.865796},{"name":"葛飾区シニア活動支援センター","province":"東京都","city":"葛飾区","address":"葛飾区立石6-38-11","lat":35.74379,"lon":139.85437},{"name":"東京愛育苑向島学園","province":"東京都","city":"葛飾区","address":"葛飾区水元3-13-8","lat":35.7826,"lon":139.86394},{"name":"共生会希望の家","province":"東京都","city":"葛飾区","address":"葛飾区青戸4-14-15","lat":35.75149,"lon":139.84972},{"name":"葛飾区（西生活課）","province":"東京都","city":"葛飾区","address":"葛飾区立石5-13-1","lat":35.74316,"lon":139.84729},{"name":"葛飾区（東生活課）","province":"東京都","city":"葛飾区","address":"葛飾区金町1-6-24","lat":35.76221,"lon":139.86522},{"name":"葛飾区児童相談所","province":"東京都","city":"葛飾区","address":"葛飾区立石2-30-1","lat":35.7404419,"lon":139.841239},{"name":"葛飾区シニア活動支援センター","province":"東京都","city":"葛飾区","address":"葛飾区立石6-38-11","lat":35.743852,"lon":139.854392},{"name":"東京愛育苑向島学園","province":"東京都","city":"葛飾区","address":"葛飾区水元3-13-8","lat":35.782555,"lon":139.863901},{"name":"共生会希望の家","province":"東京都","city":"葛飾区","address":"葛飾区青戸4-14-15","lat":35.751943,"lon":139.850242},{"name":"葛飾区（西生活課）","province":"東京都","city":"葛飾区","address":"葛飾区立石5-13-1","lat":35.742985,"lon":139.847407},{"name":"葛飾区（東生活課）","province":"東京都","city":"葛飾区","address":"葛飾区金町1-6-24","lat":35.761975,"lon":139.865796},{"name":"葛飾区シニア活動支援センター","province":"東京都","city":"葛飾区","address":"葛飾区立石6-38-11","lat":35.74379,"lon":139.85437},{"name":"東京愛育苑向島学園","province":"東京都","city":"葛飾区","address":"葛飾区水元3-13-8","lat":35.7826,"lon":139.86394},{"name":"共生会希望の家","province":"東京都","city":"葛飾区","address":"葛飾区青戸4-14-15","lat":35.75149,"lon":139.84972},{"name":"葛飾区（西生活課）","province":"東京都","city":"葛飾区","address":"葛飾区立石5-13-1","lat":35.74316,"lon":139.84729},{"name":"葛飾区（東生活課）","province":"東京都","city":"葛飾区","address":"葛飾区金町1-6-24","lat":35.76221,"lon":139.86522},{"name":"葛飾区児童相談所","province":"東京都","city":"葛飾区","address":"葛飾区立石2-30-1","lat":35.7404419,"lon":139.841239},{"name":"葛飾区シニア活動支援センター","province":"東京都","city":"葛飾区","address":"葛飾区立石6-38-11","lat":35.743852,"lon":139.854392},{"name":"東京愛育苑向島学園","province":"東京都","city":"葛飾区","address":"葛飾区水元3-13-8","lat":35.782555,"lon":139.863901},{"name":"共生会希望の家","province":"東京都","city":"葛飾区","address":"葛飾区青戸4-14-15","lat":35.751943,"lon":139.850242},{"name":"葛飾区（西生活課）","province":"東京都","city":"葛飾区","address":"葛飾区立石5-13-1","lat":35.742985,"lon":139.847407},{"name":"葛飾区（東生活課）","province":"東京都","city":"葛飾区","address":"葛飾区金町1-6-24","lat":35.761975,"lon":139.865796},{"name":"葛飾区シニア活動支援センター","province":"東京都","city":"葛飾区","address":"葛飾区立石6-38-11","lat":35.74379,"lon":139.85437},{"name":"東京愛育苑向島学園","province":"東京都","city":"葛飾区","address":"葛飾区水元3-13-8","lat":35.7826,"lon":139.86394},{"name":"共生会希望の家","province":"東京都","city":"葛飾区","address":"葛飾区青戸4-14-15","lat":35.75149,"lon":139.84972},{"name":"葛飾区（西生活課）","province":"東京都","city":"葛飾区","address":"葛飾区立石5-13-1","lat":35.74316,"lon":139.84729},{"name":"葛飾区（東生活課）","province":"東京都","city":"葛飾区","address":"葛飾区金町1-6-24","lat":35.76221,"lon":139.86522},{"name":"葛飾区児童相談所","province":"東京都","city":"葛飾区","address":"葛飾区立石2-30-1","lat":35.7404419,"lon":139.841239},{"name":"葛飾区シニア活動支援センター","province":"東京都","city":"葛飾区","address":"葛飾区立石6-38-11","lat":35.743852,"lon":139.854392},{"name":"東京愛育苑向島学園","province":"東京都","city":"葛飾区","address":"葛飾区水元3-13-8","lat":35.782555,"lon":139.863901},{"name":"共生会希望の家","province":"東京都","city":"葛飾区","address":"葛飾区青戸4-14-15","lat":35.751943,"lon":139.850242},{"name":"葛飾区（西生活課）","province":"東京都","city":"葛飾区","address":"葛飾区立石5-13-1","lat":35.742985,"lon":139.847407},{"name":"葛飾区（東生活課）","province":"東京都","city":"葛飾区","address":"葛飾区金町1-6-24","lat":35.761975,"lon":139.865796}]}