{"keyword":"宿泊","data":[{"name":"コーポ金町","province":"東京都","city":"葛飾区","address":"葛飾区東水元3-4-5","lat":35.783569,"lon":139.86596},{"name":"青戸荘","province":"東京都","city":"葛飾区","address":"葛飾区青戸8-3-8","lat":35.756184,"lon":139.849678},{"name":"金町荘","province":"東京都","city":"葛飾区","address":"葛飾区東金町5-39-7","lat":35.778655,"lon":139.880353},{"name":"立花荘","province":"東京都","city":"葛飾区","address":"葛飾区高砂2-15-3","lat":35.75006,"lon":139.865708},{"name":"第二立花荘","province":"東京都","city":"葛飾区","address":"葛飾区高砂3-28-7","lat":35.747371,"lon":139.869463},{"name":"第三立花荘","province":"東京都","city":"葛飾区","address":"葛飾区高砂3-28-8","lat":35.747402,"lon":139.86966},{"name":"あさひ　第１西水元寮","province":"東京都","city":"葛飾区","address":"葛飾区水元3-36-1","lat":35.781575,"lon":139.864568},{"name":"あさひ　第一西亀有寮","province":"東京都","city":"葛飾区","address":"葛飾区西亀有2-33-14","lat":35.759861,"lon":139.834716},{"name":"あさひ　第一西亀有寮","province":"東京都","city":"葛飾区","address":"葛飾区西亀有2-33-14","lat":35.75999,"lon":139.83453},{"name":"あさひ　第１西水元寮","province":"東京都","city":"葛飾区","address":"葛飾区水元3-36-1","lat":35.78249,"lon":139.86322},{"name":"さくら金町ハウス","province":"東京都","city":"葛飾区","address":"葛飾区東水元3-4-5","lat":35.78334,"lon":139.86632},{"name":"金町荘","province":"東京都","city":"葛飾区","address":"葛飾区東金町5-39-7","lat":35.77842,"lon":139.88025},{"name":"立花荘","province":"東京都","city":"葛飾区","address":"葛飾区高砂2-15-3","lat":35.74993,"lon":139.86583},{"name":"第二立花荘","province":"東京都","city":"葛飾区","address":"葛飾区高砂3-28-7","lat":35.74727,"lon":139.86949},{"name":"第三立花荘","province":"東京都","city":"葛飾区","address":"葛飾区高砂3-28-8","lat":35.74727,"lon":139.86949},{"name":"青戸荘","province":"東京都","city":"葛飾区","address":"葛飾区青戸8-3-8","lat":35.75608,"lon":139.85005}]}