{"keyword":"店","data":[{"name":"東部地域病院","province":"東京都","city":"葛飾区","address":"東京都葛飾区亀有5丁目14-1","lat":35.7662352,"lon":139.84445332},{"name":"葛飾赤十字産院","province":"東京都","city":"葛飾区","address":"葛飾区立石5-11-12","lat":35.742474,"lon":139.846429},{"name":"葛飾区子ども発達センター","province":"東京都","city":"葛飾区","address":"葛飾区堀切3-34-1","lat":35.744335,"lon":139.834522},{"name":"葛飾荘","province":"東京都","city":"葛飾区","address":"東京都葛飾区","lat":35.74349358,"lon":139.84722071},{"name":"コーポ金町","province":"東京都","city":"葛飾区","address":"葛飾区東水元3-4-5","lat":35.783569,"lon":139.86596},{"name":"青戸荘","province":"東京都","city":"葛飾区","address":"葛飾区青戸8-3-8","lat":35.756184,"lon":139.849678},{"name":"金町荘","province":"東京都","city":"葛飾区","address":"葛飾区東金町5-39-7","lat":35.778655,"lon":139.880353},{"name":"立花荘","province":"東京都","city":"葛飾区","address":"葛飾区高砂2-15-3","lat":35.75006,"lon":139.865708},{"name":"第二立花荘","province":"東京都","city":"葛飾区","address":"葛飾区高砂3-28-7","lat":35.747371,"lon":139.869463},{"name":"第三立花荘","province":"東京都","city":"葛飾区","address":"葛飾区高砂3-28-8","lat":35.747402,"lon":139.86966},{"name":"あさひ　第１西水元寮","province":"東京都","city":"葛飾区","address":"葛飾区水元3-36-1","lat":35.781575,"lon":139.864568},{"name":"あさひ　第一西亀有寮","province":"東京都","city":"葛飾区","address":"葛飾区西亀有2-33-14","lat":35.759861,"lon":139.834716},{"name":"葛飾区社会福祉協議会","province":"東京都","city":"葛飾区","address":"葛飾区堀切3-34-1地域福祉・障害者センター3階","lat":35.744335,"lon":139.834522},{"name":"あさひ　第一西亀有寮","province":"東京都","city":"葛飾区","address":"葛飾区西亀有2-33-14","lat":35.75999,"lon":139.83453},{"name":"あさひ　第１西水元寮","province":"東京都","city":"葛飾区","address":"葛飾区水元3-36-1","lat":35.78249,"lon":139.86322},{"name":"さくら金町ハウス","province":"東京都","city":"葛飾区","address":"葛飾区東水元3-4-5","lat":35.78334,"lon":139.86632},{"name":"金町荘","province":"東京都","city":"葛飾区","address":"葛飾区東金町5-39-7","lat":35.77842,"lon":139.88025},{"name":"立花荘","province":"東京都","city":"葛飾区","address":"葛飾区高砂2-15-3","lat":35.74993,"lon":139.86583},{"name":"第二立花荘","province":"東京都","city":"葛飾区","address":"葛飾区高砂3-28-7","lat":35.74727,"lon":139.86949},{"name":"第三立花荘","province":"東京都","city":"葛飾区","address":"葛飾区高砂3-28-8","lat":35.74727,"lon":139.86949},{"name":"青戸荘","province":"東京都","city":"葛飾区","address":"葛飾区青戸8-3-8","lat":35.75608,"lon":139.85005},{"name":"(株）伊藤葬祭","province":"東京都","city":"葛飾区","address":"東京都葛飾区新小岩1丁目48-8","lat":35.71652119,"lon":139.85929903},{"name":"(有）上平井葬儀社","province":"東京都","city":"葛飾区","address":"東京都葛飾区西新小岩3丁目39-8","lat":35.72376226,"lon":139.8467885},{"name":"（有）網代屋葬儀社奥戸支店","province":"東京都","city":"葛飾区","address":"東京都葛飾区奥戸3丁目28-11","lat":35.73451157,"lon":139.86399463},{"name":"（有）橋本葬儀社","province":"東京都","city":"葛飾区","address":"東京都葛飾区東立石4丁目46-6","lat":35.73720813,"lon":139.85044291},{"name":"（株）葵式典（島田会館）","province":"東京都","city":"葛飾区","address":"東京都葛飾区四つ木1丁目33-5","lat":35.7345953,"lon":139.8360199},{"name":"東間葬儀社","province":"東京都","city":"葛飾区","address":"東京都葛飾区四つ木2丁目3-9","lat":35.73532582,"lon":139.83486168},{"name":"（株）八木井","province":"東京都","city":"葛飾区","address":"東京都葛飾区堀切2丁目34-2","lat":35.74504354,"lon":139.82592301},{"name":"（有）登坂商店","province":"東京都","city":"葛飾区","address":"東京都葛飾区堀切2丁目35-3","lat":35.74575453,"lon":139.82591738},{"name":"稲垣屋葬儀店","province":"東京都","city":"葛飾区","address":"東京都葛飾区堀切6丁目33-4","lat":35.75318384,"lon":139.82765534},{"name":"（有）秋元商店","province":"東京都","city":"葛飾区","address":"東京都葛飾区東堀切2丁目13-8","lat":35.75377009,"lon":139.83614627},{"name":"（有）セレモニーマルヤマ","province":"東京都","city":"葛飾区","address":"東京都葛飾区青戸3丁目33-18","lat":35.74656001,"lon":139.8554865},{"name":"（有）網代屋葬儀社青戸支店","province":"東京都","city":"葛飾区","address":"東京都葛飾区青戸4丁目22-22","lat":35.74858752,"lon":139.8526561},{"name":"（有）島田富義葬祭式典","province":"東京都","city":"葛飾区","address":"東京都葛飾区亀有3丁目14-10","lat":35.7630218,"lon":139.84898083},{"name":"（有）網代屋葬儀社本店","province":"東京都","city":"葛飾区","address":"東京都葛飾区高砂5丁目35-11","lat":35.7517789,"lon":139.86808531},{"name":"（株）島村葬儀社","province":"東京都","city":"葛飾区","address":"東京都葛飾区金町6丁目1-14","lat":35.76745719,"lon":139.87160132},{"name":"（株）東京供養舎（かなまち会館）","province":"東京都","city":"葛飾区","address":"東京都葛飾区東金町4丁目37-1","lat":35.77491998,"lon":139.87306216},{"name":"東京かつしか赤十字母子医療センター","province":"東京都","city":"葛飾区","address":"葛飾区新宿3-7-1","lat":35.76144,"lon":139.86259},{"name":"あさひ　第一西水元寮","province":"東京都","city":"葛飾区","address":"葛飾区西水元3-36-1","lat":35.78827,"lon":139.85216},{"name":"第一立花ホーム","province":"東京都","city":"葛飾区","address":"葛飾区立石8-48-27","lat":35.74033,"lon":139.85907},{"name":"青戸荘（日住）","province":"東京都","city":"葛飾区","address":"葛飾区青戸8-3-8","lat":35.75608,"lon":139.85005},{"name":"葛飾区社会福祉協議会","province":"東京都","city":"葛飾区","address":"葛飾区堀切3-34-1地域福祉・障害者センター3階","lat":35.74439,"lon":139.83444},{"name":"葛飾区地域活動支援センター","province":"東京都","city":"葛飾区","address":"東京都葛飾区堀切3丁目34-1","lat":35.74433541,"lon":139.83452211},{"name":"葛飾区自立訓練事業所","province":"東京都","city":"葛飾区","address":"東京都葛飾区堀切3丁目34-1","lat":35.74433541,"lon":139.83452211},{"name":"特定非営利活動法人むうこすもす","province":"東京都","city":"葛飾区","address":"東京都葛飾区東四つ木3丁目49-10","lat":35.73083441,"lon":139.84071673},{"name":"一般社団法人ライフステップグリーンカフェ","province":"東京都","city":"葛飾区","address":"東京都葛飾区新小岩1丁目49-2","lat":35.71571294,"lon":139.85965739},{"name":"あさひ　第一西水元寮","province":"東京都","city":"葛飾区","address":"葛飾区水元3-36-1","lat":35.78249,"lon":139.86322},{"name":"あさひ第一西水元寮","province":"東京都","city":"葛飾区","address":"葛飾区水元3-36-1","lat":35.78249,"lon":139.86322},{"name":"葛飾赤十字産院","province":"東京都","city":"葛飾区","address":"葛飾区立石5-11-12","lat":35.74238,"lon":139.84628},{"name":"あさひ　第１西水元寮","province":"東京都","city":"葛飾区","address":"葛飾区水元3-36-1","lat":35.78081,"lon":139.86134},{"name":"東京愛育苑ケアレジデンス","province":"東京都","city":"葛飾区","address":"葛飾区水元3-13-2","lat":35.782319,"lon":139.863493},{"name":"東部地域病院","province":"東京都","city":"葛飾区","address":"東京都葛飾区亀有5丁目14-1","lat":35.7662352,"lon":139.84445332},{"name":"葛飾赤十字産院","province":"東京都","city":"葛飾区","address":"葛飾区立石5-11-12","lat":35.742474,"lon":139.846429},{"name":"葛飾区子ども発達センター","province":"東京都","city":"葛飾区","address":"葛飾区堀切3-34-1","lat":35.744335,"lon":139.834522},{"name":"葛飾荘","province":"東京都","city":"葛飾区","address":"東京都葛飾区","lat":35.74349358,"lon":139.84722071},{"name":"コーポ金町","province":"東京都","city":"葛飾区","address":"葛飾区東水元3-4-5","lat":35.783569,"lon":139.86596},{"name":"青戸荘","province":"東京都","city":"葛飾区","address":"葛飾区青戸8-3-8","lat":35.756184,"lon":139.849678},{"name":"金町荘","province":"東京都","city":"葛飾区","address":"葛飾区東金町5-39-7","lat":35.778655,"lon":139.880353},{"name":"立花荘","province":"東京都","city":"葛飾区","address":"葛飾区高砂2-15-3","lat":35.75006,"lon":139.865708},{"name":"第二立花荘","province":"東京都","city":"葛飾区","address":"葛飾区高砂3-28-7","lat":35.747371,"lon":139.869463},{"name":"第三立花荘","province":"東京都","city":"葛飾区","address":"葛飾区高砂3-28-8","lat":35.747402,"lon":139.86966},{"name":"あさひ　第１西水元寮","province":"東京都","city":"葛飾区","address":"葛飾区水元3-36-1","lat":35.781575,"lon":139.864568},{"name":"あさひ　第一西亀有寮","province":"東京都","city":"葛飾区","address":"葛飾区西亀有2-33-14","lat":35.759861,"lon":139.834716},{"name":"葛飾区社会福祉協議会","province":"東京都","city":"葛飾区","address":"葛飾区堀切3-34-1地域福祉・障害者センター3階","lat":35.744335,"lon":139.834522},{"name":"あさひ　第一西亀有寮","province":"東京都","city":"葛飾区","address":"葛飾区西亀有2-33-14","lat":35.75999,"lon":139.83453},{"name":"あさひ　第１西水元寮","province":"東京都","city":"葛飾区","address":"葛飾区水元3-36-1","lat":35.78249,"lon":139.86322},{"name":"さくら金町ハウス","province":"東京都","city":"葛飾区","address":"葛飾区東水元3-4-5","lat":35.78334,"lon":139.86632},{"name":"金町荘","province":"東京都","city":"葛飾区","address":"葛飾区東金町5-39-7","lat":35.77842,"lon":139.88025},{"name":"立花荘","province":"東京都","city":"葛飾区","address":"葛飾区高砂2-15-3","lat":35.74993,"lon":139.86583},{"name":"第二立花荘","province":"東京都","city":"葛飾区","address":"葛飾区高砂3-28-7","lat":35.74727,"lon":139.86949},{"name":"第三立花荘","province":"東京都","city":"葛飾区","address":"葛飾区高砂3-28-8","lat":35.74727,"lon":139.86949},{"name":"青戸荘","province":"東京都","city":"葛飾区","address":"葛飾区青戸8-3-8","lat":35.75608,"lon":139.85005},{"name":"(株）伊藤葬祭","province":"東京都","city":"葛飾区","address":"東京都葛飾区新小岩1丁目48-8","lat":35.71652119,"lon":139.85929903},{"name":"(有）上平井葬儀社","province":"東京都","city":"葛飾区","address":"東京都葛飾区西新小岩3丁目39-8","lat":35.72376226,"lon":139.8467885},{"name":"（有）網代屋葬儀社奥戸支店","province":"東京都","city":"葛飾区","address":"東京都葛飾区奥戸3丁目28-11","lat":35.73451157,"lon":139.86399463},{"name":"（有）橋本葬儀社","province":"東京都","city":"葛飾区","address":"東京都葛飾区東立石4丁目46-6","lat":35.73720813,"lon":139.85044291},{"name":"（株）葵式典（島田会館）","province":"東京都","city":"葛飾区","address":"東京都葛飾区四つ木1丁目33-5","lat":35.7345953,"lon":139.8360199},{"name":"東間葬儀社","province":"東京都","city":"葛飾区","address":"東京都葛飾区四つ木2丁目3-9","lat":35.73532582,"lon":139.83486168},{"name":"（株）八木井","province":"東京都","city":"葛飾区","address":"東京都葛飾区堀切2丁目34-2","lat":35.74504354,"lon":139.82592301},{"name":"（有）登坂商店","province":"東京都","city":"葛飾区","address":"東京都葛飾区堀切2丁目35-3","lat":35.74575453,"lon":139.82591738},{"name":"稲垣屋葬儀店","province":"東京都","city":"葛飾区","address":"東京都葛飾区堀切6丁目33-4","lat":35.75318384,"lon":139.82765534},{"name":"（有）秋元商店","province":"東京都","city":"葛飾区","address":"東京都葛飾区東堀切2丁目13-8","lat":35.75377009,"lon":139.83614627},{"name":"（有）セレモニーマルヤマ","province":"東京都","city":"葛飾区","address":"東京都葛飾区青戸3丁目33-18","lat":35.74656001,"lon":139.8554865},{"name":"（有）網代屋葬儀社青戸支店","province":"東京都","city":"葛飾区","address":"東京都葛飾区青戸4丁目22-22","lat":35.74858752,"lon":139.8526561},{"name":"（有）島田富義葬祭式典","province":"東京都","city":"葛飾区","address":"東京都葛飾区亀有3丁目14-10","lat":35.7630218,"lon":139.84898083},{"name":"（有）網代屋葬儀社本店","province":"東京都","city":"葛飾区","address":"東京都葛飾区高砂5丁目35-11","lat":35.7517789,"lon":139.86808531},{"name":"（株）島村葬儀社","province":"東京都","city":"葛飾区","address":"東京都葛飾区金町6丁目1-14","lat":35.76745719,"lon":139.87160132},{"name":"（株）東京供養舎（かなまち会館）","province":"東京都","city":"葛飾区","address":"東京都葛飾区東金町4丁目37-1","lat":35.77491998,"lon":139.87306216},{"name":"東京かつしか赤十字母子医療センター","province":"東京都","city":"葛飾区","address":"葛飾区新宿3-7-1","lat":35.76144,"lon":139.86259},{"name":"あさひ　第一西水元寮","province":"東京都","city":"葛飾区","address":"葛飾区西水元3-36-1","lat":35.78827,"lon":139.85216},{"name":"第一立花ホーム","province":"東京都","city":"葛飾区","address":"葛飾区立石8-48-27","lat":35.74033,"lon":139.85907},{"name":"青戸荘（日住）","province":"東京都","city":"葛飾区","address":"葛飾区青戸8-3-8","lat":35.75608,"lon":139.85005},{"name":"葛飾区社会福祉協議会","province":"東京都","city":"葛飾区","address":"葛飾区堀切3-34-1地域福祉・障害者センター3階","lat":35.74439,"lon":139.83444},{"name":"葛飾区地域活動支援センター","province":"東京都","city":"葛飾区","address":"東京都葛飾区堀切3丁目34-1","lat":35.74433541,"lon":139.83452211},{"name":"葛飾区自立訓練事業所","province":"東京都","city":"葛飾区","address":"東京都葛飾区堀切3丁目34-1","lat":35.74433541,"lon":139.83452211},{"name":"特定非営利活動法人むうこすもす","province":"東京都","city":"葛飾区","address":"東京都葛飾区東四つ木3丁目49-10","lat":35.73083441,"lon":139.84071673},{"name":"一般社団法人ライフステップグリーンカフェ","province":"東京都","city":"葛飾区","address":"東京都葛飾区新小岩1丁目49-2","lat":35.71571294,"lon":139.85965739},{"name":"あさひ　第一西水元寮","province":"東京都","city":"葛飾区","address":"葛飾区水元3-36-1","lat":35.78249,"lon":139.86322},{"name":"あさひ第一西水元寮","province":"東京都","city":"葛飾区","address":"葛飾区水元3-36-1","lat":35.78249,"lon":139.86322},{"name":"葛飾赤十字産院","province":"東京都","city":"葛飾区","address":"葛飾区立石5-11-12","lat":35.74238,"lon":139.84628},{"name":"あさひ　第１西水元寮","province":"東京都","city":"葛飾区","address":"葛飾区水元3-36-1","lat":35.78081,"lon":139.86134},{"name":"東京愛育苑ケアレジデンス","province":"東京都","city":"葛飾区","address":"葛飾区水元3-13-2","lat":35.782319,"lon":139.863493},{"name":"東部地域病院","province":"東京都","city":"葛飾区","address":"東京都葛飾区亀有5丁目14-1","lat":35.7662352,"lon":139.84445332},{"name":"葛飾赤十字産院","province":"東京都","city":"葛飾区","address":"葛飾区立石5-11-12","lat":35.742474,"lon":139.846429},{"name":"葛飾区子ども発達センター","province":"東京都","city":"葛飾区","address":"葛飾区堀切3-34-1","lat":35.744335,"lon":139.834522},{"name":"葛飾荘","province":"東京都","city":"葛飾区","address":"東京都葛飾区","lat":35.74349358,"lon":139.84722071},{"name":"コーポ金町","province":"東京都","city":"葛飾区","address":"葛飾区東水元3-4-5","lat":35.783569,"lon":139.86596},{"name":"青戸荘","province":"東京都","city":"葛飾区","address":"葛飾区青戸8-3-8","lat":35.756184,"lon":139.849678},{"name":"金町荘","province":"東京都","city":"葛飾区","address":"葛飾区東金町5-39-7","lat":35.778655,"lon":139.880353},{"name":"立花荘","province":"東京都","city":"葛飾区","address":"葛飾区高砂2-15-3","lat":35.75006,"lon":139.865708},{"name":"第二立花荘","province":"東京都","city":"葛飾区","address":"葛飾区高砂3-28-7","lat":35.747371,"lon":139.869463},{"name":"第三立花荘","province":"東京都","city":"葛飾区","address":"葛飾区高砂3-28-8","lat":35.747402,"lon":139.86966},{"name":"あさひ　第１西水元寮","province":"東京都","city":"葛飾区","address":"葛飾区水元3-36-1","lat":35.781575,"lon":139.864568},{"name":"あさひ　第一西亀有寮","province":"東京都","city":"葛飾区","address":"葛飾区西亀有2-33-14","lat":35.759861,"lon":139.834716},{"name":"葛飾区社会福祉協議会","province":"東京都","city":"葛飾区","address":"葛飾区堀切3-34-1地域福祉・障害者センター3階","lat":35.744335,"lon":139.834522},{"name":"あさひ　第一西亀有寮","province":"東京都","city":"葛飾区","address":"葛飾区西亀有2-33-14","lat":35.75999,"lon":139.83453},{"name":"あさひ　第１西水元寮","province":"東京都","city":"葛飾区","address":"葛飾区水元3-36-1","lat":35.78249,"lon":139.86322},{"name":"さくら金町ハウス","province":"東京都","city":"葛飾区","address":"葛飾区東水元3-4-5","lat":35.78334,"lon":139.86632},{"name":"金町荘","province":"東京都","city":"葛飾区","address":"葛飾区東金町5-39-7","lat":35.77842,"lon":139.88025},{"name":"立花荘","province":"東京都","city":"葛飾区","address":"葛飾区高砂2-15-3","lat":35.74993,"lon":139.86583},{"name":"第二立花荘","province":"東京都","city":"葛飾区","address":"葛飾区高砂3-28-7","lat":35.74727,"lon":139.86949},{"name":"第三立花荘","province":"東京都","city":"葛飾区","address":"葛飾区高砂3-28-8","lat":35.74727,"lon":139.86949},{"name":"青戸荘","province":"東京都","city":"葛飾区","address":"葛飾区青戸8-3-8","lat":35.75608,"lon":139.85005},{"name":"(株）伊藤葬祭","province":"東京都","city":"葛飾区","address":"東京都葛飾区新小岩1丁目48-8","lat":35.71652119,"lon":139.85929903},{"name":"(有）上平井葬儀社","province":"東京都","city":"葛飾区","address":"東京都葛飾区西新小岩3丁目39-8","lat":35.72376226,"lon":139.8467885},{"name":"（有）網代屋葬儀社奥戸支店","province":"東京都","city":"葛飾区","address":"東京都葛飾区奥戸3丁目28-11","lat":35.73451157,"lon":139.86399463},{"name":"（有）橋本葬儀社","province":"東京都","city":"葛飾区","address":"東京都葛飾区東立石4丁目46-6","lat":35.73720813,"lon":139.85044291},{"name":"（株）葵式典（島田会館）","province":"東京都","city":"葛飾区","address":"東京都葛飾区四つ木1丁目33-5","lat":35.7345953,"lon":139.8360199},{"name":"東間葬儀社","province":"東京都","city":"葛飾区","address":"東京都葛飾区四つ木2丁目3-9","lat":35.73532582,"lon":139.83486168},{"name":"（株）八木井","province":"東京都","city":"葛飾区","address":"東京都葛飾区堀切2丁目34-2","lat":35.74504354,"lon":139.82592301},{"name":"（有）登坂商店","province":"東京都","city":"葛飾区","address":"東京都葛飾区堀切2丁目35-3","lat":35.74575453,"lon":139.82591738},{"name":"稲垣屋葬儀店","province":"東京都","city":"葛飾区","address":"東京都葛飾区堀切6丁目33-4","lat":35.75318384,"lon":139.82765534},{"name":"（有）秋元商店","province":"東京都","city":"葛飾区","address":"東京都葛飾区東堀切2丁目13-8","lat":35.75377009,"lon":139.83614627},{"name":"（有）セレモニーマルヤマ","province":"東京都","city":"葛飾区","address":"東京都葛飾区青戸3丁目33-18","lat":35.74656001,"lon":139.8554865},{"name":"（有）網代屋葬儀社青戸支店","province":"東京都","city":"葛飾区","address":"東京都葛飾区青戸4丁目22-22","lat":35.74858752,"lon":139.8526561},{"name":"（有）島田富義葬祭式典","province":"東京都","city":"葛飾区","address":"東京都葛飾区亀有3丁目14-10","lat":35.7630218,"lon":139.84898083},{"name":"（有）網代屋葬儀社本店","province":"東京都","city":"葛飾区","address":"東京都葛飾区高砂5丁目35-11","lat":35.7517789,"lon":139.86808531},{"name":"（株）島村葬儀社","province":"東京都","city":"葛飾区","address":"東京都葛飾区金町6丁目1-14","lat":35.76745719,"lon":139.87160132},{"name":"（株）東京供養舎（かなまち会館）","province":"東京都","city":"葛飾区","address":"東京都葛飾区東金町4丁目37-1","lat":35.77491998,"lon":139.87306216},{"name":"東京かつしか赤十字母子医療センター","province":"東京都","city":"葛飾区","address":"葛飾区新宿3-7-1","lat":35.76144,"lon":139.86259},{"name":"あさひ　第一西水元寮","province":"東京都","city":"葛飾区","address":"葛飾区西水元3-36-1","lat":35.78827,"lon":139.85216},{"name":"第一立花ホーム","province":"東京都","city":"葛飾区","address":"葛飾区立石8-48-27","lat":35.74033,"lon":139.85907},{"name":"青戸荘（日住）","province":"東京都","city":"葛飾区","address":"葛飾区青戸8-3-8","lat":35.75608,"lon":139.85005},{"name":"葛飾区社会福祉協議会","province":"東京都","city":"葛飾区","address":"葛飾区堀切3-34-1地域福祉・障害者センター3階","lat":35.74439,"lon":139.83444},{"name":"葛飾区地域活動支援センター","province":"東京都","city":"葛飾区","address":"東京都葛飾区堀切3丁目34-1","lat":35.74433541,"lon":139.83452211},{"name":"葛飾区自立訓練事業所","province":"東京都","city":"葛飾区","address":"東京都葛飾区堀切3丁目34-1","lat":35.74433541,"lon":139.83452211},{"name":"特定非営利活動法人むうこすもす","province":"東京都","city":"葛飾区","address":"東京都葛飾区東四つ木3丁目49-10","lat":35.73083441,"lon":139.84071673},{"name":"一般社団法人ライフステップグリーンカフェ","province":"東京都","city":"葛飾区","address":"東京都葛飾区新小岩1丁目49-2","lat":35.71571294,"lon":139.85965739},{"name":"あさひ　第一西水元寮","province":"東京都","city":"葛飾区","address":"葛飾区水元3-36-1","lat":35.78249,"lon":139.86322},{"name":"あさひ第一西水元寮","province":"東京都","city":"葛飾区","address":"葛飾区水元3-36-1","lat":35.78249,"lon":139.86322},{"name":"葛飾赤十字産院","province":"東京都","city":"葛飾区","address":"葛飾区立石5-11-12","lat":35.74238,"lon":139.84628},{"name":"あさひ　第１西水元寮","province":"東京都","city":"葛飾区","address":"葛飾区水元3-36-1","lat":35.78081,"lon":139.86134},{"name":"東京愛育苑ケアレジデンス","province":"東京都","city":"葛飾区","address":"葛飾区水元3-13-2","lat":35.782319,"lon":139.863493},{"name":"東部地域病院","province":"東京都","city":"葛飾区","address":"東京都葛飾区亀有5丁目14-1","lat":35.7662352,"lon":139.84445332},{"name":"葛飾赤十字産院","province":"東京都","city":"葛飾区","address":"葛飾区立石5-11-12","lat":35.742474,"lon":139.846429},{"name":"葛飾区子ども発達センター","province":"東京都","city":"葛飾区","address":"葛飾区堀切3-34-1","lat":35.744335,"lon":139.834522},{"name":"葛飾荘","province":"東京都","city":"葛飾区","address":"東京都葛飾区","lat":35.74349358,"lon":139.84722071},{"name":"コーポ金町","province":"東京都","city":"葛飾区","address":"葛飾区東水元3-4-5","lat":35.783569,"lon":139.86596},{"name":"青戸荘","province":"東京都","city":"葛飾区","address":"葛飾区青戸8-3-8","lat":35.756184,"lon":139.849678},{"name":"金町荘","province":"東京都","city":"葛飾区","address":"葛飾区東金町5-39-7","lat":35.778655,"lon":139.880353},{"name":"立花荘","province":"東京都","city":"葛飾区","address":"葛飾区高砂2-15-3","lat":35.75006,"lon":139.865708},{"name":"第二立花荘","province":"東京都","city":"葛飾区","address":"葛飾区高砂3-28-7","lat":35.747371,"lon":139.869463},{"name":"第三立花荘","province":"東京都","city":"葛飾区","address":"葛飾区高砂3-28-8","lat":35.747402,"lon":139.86966},{"name":"あさひ　第１西水元寮","province":"東京都","city":"葛飾区","address":"葛飾区水元3-36-1","lat":35.781575,"lon":139.864568},{"name":"あさひ　第一西亀有寮","province":"東京都","city":"葛飾区","address":"葛飾区西亀有2-33-14","lat":35.759861,"lon":139.834716},{"name":"葛飾区社会福祉協議会","province":"東京都","city":"葛飾区","address":"葛飾区堀切3-34-1地域福祉・障害者センター3階","lat":35.744335,"lon":139.834522},{"name":"あさひ　第一西亀有寮","province":"東京都","city":"葛飾区","address":"葛飾区西亀有2-33-14","lat":35.75999,"lon":139.83453},{"name":"あさひ　第１西水元寮","province":"東京都","city":"葛飾区","address":"葛飾区水元3-36-1","lat":35.78249,"lon":139.86322},{"name":"さくら金町ハウス","province":"東京都","city":"葛飾区","address":"葛飾区東水元3-4-5","lat":35.78334,"lon":139.86632},{"name":"金町荘","province":"東京都","city":"葛飾区","address":"葛飾区東金町5-39-7","lat":35.77842,"lon":139.88025},{"name":"立花荘","province":"東京都","city":"葛飾区","address":"葛飾区高砂2-15-3","lat":35.74993,"lon":139.86583},{"name":"第二立花荘","province":"東京都","city":"葛飾区","address":"葛飾区高砂3-28-7","lat":35.74727,"lon":139.86949},{"name":"第三立花荘","province":"東京都","city":"葛飾区","address":"葛飾区高砂3-28-8","lat":35.74727,"lon":139.86949},{"name":"青戸荘","province":"東京都","city":"葛飾区","address":"葛飾区青戸8-3-8","lat":35.75608,"lon":139.85005},{"name":"(株）伊藤葬祭","province":"東京都","city":"葛飾区","address":"東京都葛飾区新小岩1丁目48-8","lat":35.71652119,"lon":139.85929903},{"name":"(有）上平井葬儀社","province":"東京都","city":"葛飾区","address":"東京都葛飾区西新小岩3丁目39-8","lat":35.72376226,"lon":139.8467885},{"name":"（有）網代屋葬儀社奥戸支店","province":"東京都","city":"葛飾区","address":"東京都葛飾区奥戸3丁目28-11","lat":35.73451157,"lon":139.86399463},{"name":"（有）橋本葬儀社","province":"東京都","city":"葛飾区","address":"東京都葛飾区東立石4丁目46-6","lat":35.73720813,"lon":139.85044291},{"name":"（株）葵式典（島田会館）","province":"東京都","city":"葛飾区","address":"東京都葛飾区四つ木1丁目33-5","lat":35.7345953,"lon":139.8360199},{"name":"東間葬儀社","province":"東京都","city":"葛飾区","address":"東京都葛飾区四つ木2丁目3-9","lat":35.73532582,"lon":139.83486168},{"name":"（株）八木井","province":"東京都","city":"葛飾区","address":"東京都葛飾区堀切2丁目34-2","lat":35.74504354,"lon":139.82592301},{"name":"（有）登坂商店","province":"東京都","city":"葛飾区","address":"東京都葛飾区堀切2丁目35-3","lat":35.74575453,"lon":139.82591738},{"name":"稲垣屋葬儀店","province":"東京都","city":"葛飾区","address":"東京都葛飾区堀切6丁目33-4","lat":35.75318384,"lon":139.82765534},{"name":"（有）秋元商店","province":"東京都","city":"葛飾区","address":"東京都葛飾区東堀切2丁目13-8","lat":35.75377009,"lon":139.83614627},{"name":"（有）セレモニーマルヤマ","province":"東京都","city":"葛飾区","address":"東京都葛飾区青戸3丁目33-18","lat":35.74656001,"lon":139.8554865},{"name":"（有）網代屋葬儀社青戸支店","province":"東京都","city":"葛飾区","address":"東京都葛飾区青戸4丁目22-22","lat":35.74858752,"lon":139.8526561},{"name":"（有）島田富義葬祭式典","province":"東京都","city":"葛飾区","address":"東京都葛飾区亀有3丁目14-10","lat":35.7630218,"lon":139.84898083},{"name":"（有）網代屋葬儀社本店","province":"東京都","city":"葛飾区","address":"東京都葛飾区高砂5丁目35-11","lat":35.7517789,"lon":139.86808531},{"name":"（株）島村葬儀社","province":"東京都","city":"葛飾区","address":"東京都葛飾区金町6丁目1-14","lat":35.76745719,"lon":139.87160132},{"name":"（株）東京供養舎（かなまち会館）","province":"東京都","city":"葛飾区","address":"東京都葛飾区東金町4丁目37-1","lat":35.77491998,"lon":139.87306216},{"name":"東京かつしか赤十字母子医療センター","province":"東京都","city":"葛飾区","address":"葛飾区新宿3-7-1","lat":35.76144,"lon":139.86259},{"name":"あさひ　第一西水元寮","province":"東京都","city":"葛飾区","address":"葛飾区西水元3-36-1","lat":35.78827,"lon":139.85216},{"name":"第一立花ホーム","province":"東京都","city":"葛飾区","address":"葛飾区立石8-48-27","lat":35.74033,"lon":139.85907},{"name":"青戸荘（日住）","province":"東京都","city":"葛飾区","address":"葛飾区青戸8-3-8","lat":35.75608,"lon":139.85005},{"name":"葛飾区社会福祉協議会","province":"東京都","city":"葛飾区","address":"葛飾区堀切3-34-1地域福祉・障害者センター3階","lat":35.74439,"lon":139.83444},{"name":"葛飾区地域活動支援センター","province":"東京都","city":"葛飾区","address":"東京都葛飾区堀切3丁目34-1","lat":35.74433541,"lon":139.83452211},{"name":"葛飾区自立訓練事業所","province":"東京都","city":"葛飾区","address":"東京都葛飾区堀切3丁目34-1","lat":35.74433541,"lon":139.83452211},{"name":"特定非営利活動法人むうこすもす","province":"東京都","city":"葛飾区","address":"東京都葛飾区東四つ木3丁目49-10","lat":35.73083441,"lon":139.84071673},{"name":"一般社団法人ライフステップグリーンカフェ","province":"東京都","city":"葛飾区","address":"東京都葛飾区新小岩1丁目49-2","lat":35.71571294,"lon":139.85965739},{"name":"あさひ　第一西水元寮","province":"東京都","city":"葛飾区","address":"葛飾区水元3-36-1","lat":35.78249,"lon":139.86322},{"name":"あさひ第一西水元寮","province":"東京都","city":"葛飾区","address":"葛飾区水元3-36-1","lat":35.78249,"lon":139.86322},{"name":"葛飾赤十字産院","province":"東京都","city":"葛飾区","address":"葛飾区立石5-11-12","lat":35.74238,"lon":139.84628},{"name":"あさひ　第１西水元寮","province":"東京都","city":"葛飾区","address":"葛飾区水元3-36-1","lat":35.78081,"lon":139.86134},{"name":"東京愛育苑ケアレジデンス","province":"東京都","city":"葛飾区","address":"葛飾区水元3-13-2","lat":35.782319,"lon":139.863493},{"name":"東部地域病院","province":"東京都","city":"葛飾区","address":"東京都葛飾区亀有5丁目14-1","lat":35.7662352,"lon":139.84445332},{"name":"葛飾赤十字産院","province":"東京都","city":"葛飾区","address":"葛飾区立石5-11-12","lat":35.742474,"lon":139.846429},{"name":"葛飾区子ども発達センター","province":"東京都","city":"葛飾区","address":"葛飾区堀切3-34-1","lat":35.744335,"lon":139.834522},{"name":"葛飾荘","province":"東京都","city":"葛飾区","address":"東京都葛飾区","lat":35.74349358,"lon":139.84722071},{"name":"コーポ金町","province":"東京都","city":"葛飾区","address":"葛飾区東水元3-4-5","lat":35.783569,"lon":139.86596},{"name":"青戸荘","province":"東京都","city":"葛飾区","address":"葛飾区青戸8-3-8","lat":35.756184,"lon":139.849678},{"name":"金町荘","province":"東京都","city":"葛飾区","address":"葛飾区東金町5-39-7","lat":35.778655,"lon":139.880353},{"name":"立花荘","province":"東京都","city":"葛飾区","address":"葛飾区高砂2-15-3","lat":35.75006,"lon":139.865708},{"name":"第二立花荘","province":"東京都","city":"葛飾区","address":"葛飾区高砂3-28-7","lat":35.747371,"lon":139.869463},{"name":"第三立花荘","province":"東京都","city":"葛飾区","address":"葛飾区高砂3-28-8","lat":35.747402,"lon":139.86966},{"name":"あさひ　第１西水元寮","province":"東京都","city":"葛飾区","address":"葛飾区水元3-36-1","lat":35.781575,"lon":139.864568},{"name":"あさひ　第一西亀有寮","province":"東京都","city":"葛飾区","address":"葛飾区西亀有2-33-14","lat":35.759861,"lon":139.834716},{"name":"葛飾区社会福祉協議会","province":"東京都","city":"葛飾区","address":"葛飾区堀切3-34-1地域福祉・障害者センター3階","lat":35.744335,"lon":139.834522},{"name":"あさひ　第一西亀有寮","province":"東京都","city":"葛飾区","address":"葛飾区西亀有2-33-14","lat":35.75999,"lon":139.83453},{"name":"あさひ　第１西水元寮","province":"東京都","city":"葛飾区","address":"葛飾区水元3-36-1","lat":35.78249,"lon":139.86322},{"name":"さくら金町ハウス","province":"東京都","city":"葛飾区","address":"葛飾区東水元3-4-5","lat":35.78334,"lon":139.86632},{"name":"金町荘","province":"東京都","city":"葛飾区","address":"葛飾区東金町5-39-7","lat":35.77842,"lon":139.88025},{"name":"立花荘","province":"東京都","city":"葛飾区","address":"葛飾区高砂2-15-3","lat":35.74993,"lon":139.86583},{"name":"第二立花荘","province":"東京都","city":"葛飾区","address":"葛飾区高砂3-28-7","lat":35.74727,"lon":139.86949},{"name":"第三立花荘","province":"東京都","city":"葛飾区","address":"葛飾区高砂3-28-8","lat":35.74727,"lon":139.86949},{"name":"青戸荘","province":"東京都","city":"葛飾区","address":"葛飾区青戸8-3-8","lat":35.75608,"lon":139.85005},{"name":"(株）伊藤葬祭","province":"東京都","city":"葛飾区","address":"東京都葛飾区新小岩1丁目48-8","lat":35.71652119,"lon":139.85929903},{"name":"(有）上平井葬儀社","province":"東京都","city":"葛飾区","address":"東京都葛飾区西新小岩3丁目39-8","lat":35.72376226,"lon":139.8467885},{"name":"（有）網代屋葬儀社奥戸支店","province":"東京都","city":"葛飾区","address":"東京都葛飾区奥戸3丁目28-11","lat":35.73451157,"lon":139.86399463},{"name":"（有）橋本葬儀社","province":"東京都","city":"葛飾区","address":"東京都葛飾区東立石4丁目46-6","lat":35.73720813,"lon":139.85044291},{"name":"（株）葵式典（島田会館）","province":"東京都","city":"葛飾区","address":"東京都葛飾区四つ木1丁目33-5","lat":35.7345953,"lon":139.8360199},{"name":"東間葬儀社","province":"東京都","city":"葛飾区","address":"東京都葛飾区四つ木2丁目3-9","lat":35.73532582,"lon":139.83486168},{"name":"（株）八木井","province":"東京都","city":"葛飾区","address":"東京都葛飾区堀切2丁目34-2","lat":35.74504354,"lon":139.82592301},{"name":"（有）登坂商店","province":"東京都","city":"葛飾区","address":"東京都葛飾区堀切2丁目35-3","lat":35.74575453,"lon":139.82591738},{"name":"稲垣屋葬儀店","province":"東京都","city":"葛飾区","address":"東京都葛飾区堀切6丁目33-4","lat":35.75318384,"lon":139.82765534},{"name":"（有）秋元商店","province":"東京都","city":"葛飾区","address":"東京都葛飾区東堀切2丁目13-8","lat":35.75377009,"lon":139.83614627},{"name":"（有）セレモニーマルヤマ","province":"東京都","city":"葛飾区","address":"東京都葛飾区青戸3丁目33-18","lat":35.74656001,"lon":139.8554865},{"name":"（有）網代屋葬儀社青戸支店","province":"東京都","city":"葛飾区","address":"東京都葛飾区青戸4丁目22-22","lat":35.74858752,"lon":139.8526561},{"name":"（有）島田富義葬祭式典","province":"東京都","city":"葛飾区","address":"東京都葛飾区亀有3丁目14-10","lat":35.7630218,"lon":139.84898083},{"name":"（有）網代屋葬儀社本店","province":"東京都","city":"葛飾区","address":"東京都葛飾区高砂5丁目35-11","lat":35.7517789,"lon":139.86808531},{"name":"（株）島村葬儀社","province":"東京都","city":"葛飾区","address":"東京都葛飾区金町6丁目1-14","lat":35.76745719,"lon":139.87160132},{"name":"（株）東京供養舎（かなまち会館）","province":"東京都","city":"葛飾区","address":"東京都葛飾区東金町4丁目37-1","lat":35.77491998,"lon":139.87306216},{"name":"東京かつしか赤十字母子医療センター","province":"東京都","city":"葛飾区","address":"葛飾区新宿3-7-1","lat":35.76144,"lon":139.86259},{"name":"あさひ　第一西水元寮","province":"東京都","city":"葛飾区","address":"葛飾区西水元3-36-1","lat":35.78827,"lon":139.85216},{"name":"第一立花ホーム","province":"東京都","city":"葛飾区","address":"葛飾区立石8-48-27","lat":35.74033,"lon":139.85907},{"name":"青戸荘（日住）","province":"東京都","city":"葛飾区","address":"葛飾区青戸8-3-8","lat":35.75608,"lon":139.85005},{"name":"葛飾区社会福祉協議会","province":"東京都","city":"葛飾区","address":"葛飾区堀切3-34-1地域福祉・障害者センター3階","lat":35.74439,"lon":139.83444},{"name":"葛飾区地域活動支援センター","province":"東京都","city":"葛飾区","address":"東京都葛飾区堀切3丁目34-1","lat":35.74433541,"lon":139.83452211},{"name":"葛飾区自立訓練事業所","province":"東京都","city":"葛飾区","address":"東京都葛飾区堀切3丁目34-1","lat":35.74433541,"lon":139.83452211},{"name":"特定非営利活動法人むうこすもす","province":"東京都","city":"葛飾区","address":"東京都葛飾区東四つ木3丁目49-10","lat":35.73083441,"lon":139.84071673},{"name":"一般社団法人ライフステップグリーンカフェ","province":"東京都","city":"葛飾区","address":"東京都葛飾区新小岩1丁目49-2","lat":35.71571294,"lon":139.85965739},{"name":"あさひ　第一西水元寮","province":"東京都","city":"葛飾区","address":"葛飾区水元3-36-1","lat":35.78249,"lon":139.86322},{"name":"あさひ第一西水元寮","province":"東京都","city":"葛飾区","address":"葛飾区水元3-36-1","lat":35.78249,"lon":139.86322},{"name":"葛飾赤十字産院","province":"東京都","city":"葛飾区","address":"葛飾区立石5-11-12","lat":35.74238,"lon":139.84628},{"name":"あさひ　第１西水元寮","province":"東京都","city":"葛飾区","address":"葛飾区水元3-36-1","lat":35.78081,"lon":139.86134},{"name":"東京愛育苑ケアレジデンス","province":"東京都","city":"葛飾区","address":"葛飾区水元3-13-2","lat":35.782319,"lon":139.863493},{"name":"葛飾赤十字産院","province":"東京都","city":"葛飾区","address":"葛飾区立石5-11-12","lat":35.742474,"lon":139.846429},{"name":"葛飾区子ども発達センター","province":"東京都","city":"葛飾区","address":"葛飾区堀切3-34-1","lat":35.744335,"lon":139.834522},{"name":"葛飾荘","province":"東京都","city":"葛飾区","address":"東京都葛飾区","lat":35.74349358,"lon":139.84722071},{"name":"コーポ金町","province":"東京都","city":"葛飾区","address":"葛飾区東水元3-4-5","lat":35.783569,"lon":139.86596},{"name":"青戸荘","province":"東京都","city":"葛飾区","address":"葛飾区青戸8-3-8","lat":35.756184,"lon":139.849678},{"name":"金町荘","province":"東京都","city":"葛飾区","address":"葛飾区東金町5-39-7","lat":35.778655,"lon":139.880353},{"name":"立花荘","province":"東京都","city":"葛飾区","address":"葛飾区高砂2-15-3","lat":35.75006,"lon":139.865708},{"name":"第二立花荘","province":"東京都","city":"葛飾区","address":"葛飾区高砂3-28-7","lat":35.747371,"lon":139.869463},{"name":"第三立花荘","province":"東京都","city":"葛飾区","address":"葛飾区高砂3-28-8","lat":35.747402,"lon":139.86966},{"name":"あさひ　第１西水元寮","province":"東京都","city":"葛飾区","address":"葛飾区水元3-36-1","lat":35.781575,"lon":139.864568},{"name":"あさひ　第一西亀有寮","province":"東京都","city":"葛飾区","address":"葛飾区西亀有2-33-14","lat":35.759861,"lon":139.834716},{"name":"葛飾区社会福祉協議会","province":"東京都","city":"葛飾区","address":"葛飾区堀切3-34-1地域福祉・障害者センター3階","lat":35.744335,"lon":139.834522},{"name":"あさひ　第一西亀有寮","province":"東京都","city":"葛飾区","address":"葛飾区西亀有2-33-14","lat":35.75999,"lon":139.83453},{"name":"あさひ　第１西水元寮","province":"東京都","city":"葛飾区","address":"葛飾区水元3-36-1","lat":35.78249,"lon":139.86322},{"name":"さくら金町ハウス","province":"東京都","city":"葛飾区","address":"葛飾区東水元3-4-5","lat":35.78334,"lon":139.86632},{"name":"金町荘","province":"東京都","city":"葛飾区","address":"葛飾区東金町5-39-7","lat":35.77842,"lon":139.88025},{"name":"立花荘","province":"東京都","city":"葛飾区","address":"葛飾区高砂2-15-3","lat":35.74993,"lon":139.86583},{"name":"第二立花荘","province":"東京都","city":"葛飾区","address":"葛飾区高砂3-28-7","lat":35.74727,"lon":139.86949},{"name":"第三立花荘","province":"東京都","city":"葛飾区","address":"葛飾区高砂3-28-8","lat":35.74727,"lon":139.86949},{"name":"青戸荘","province":"東京都","city":"葛飾区","address":"葛飾区青戸8-3-8","lat":35.75608,"lon":139.85005},{"name":"東京かつしか赤十字母子医療センター","province":"東京都","city":"葛飾区","address":"葛飾区新宿3-7-1","lat":35.76144,"lon":139.86259},{"name":"あさひ　第一西水元寮","province":"東京都","city":"葛飾区","address":"葛飾区西水元3-36-1","lat":35.78827,"lon":139.85216},{"name":"第一立花ホーム","province":"東京都","city":"葛飾区","address":"葛飾区立石8-48-27","lat":35.74033,"lon":139.85907},{"name":"青戸荘（日住）","province":"東京都","city":"葛飾区","address":"葛飾区青戸8-3-8","lat":35.75608,"lon":139.85005},{"name":"葛飾区社会福祉協議会","province":"東京都","city":"葛飾区","address":"葛飾区堀切3-34-1地域福祉・障害者センター3階","lat":35.74439,"lon":139.83444},{"name":"葛飾区地域活動支援センター","province":"東京都","city":"葛飾区","address":"東京都葛飾区堀切3丁目34-1","lat":35.74433541,"lon":139.83452211},{"name":"葛飾区自立訓練事業所","province":"東京都","city":"葛飾区","address":"東京都葛飾区堀切3丁目34-1","lat":35.74433541,"lon":139.83452211},{"name":"特定非営利活動法人むうこすもす","province":"東京都","city":"葛飾区","address":"東京都葛飾区東四つ木3丁目49-10","lat":35.73083441,"lon":139.84071673},{"name":"一般社団法人ライフステップグリーンカフェ","province":"東京都","city":"葛飾区","address":"東京都葛飾区新小岩1丁目49-2","lat":35.71571294,"lon":139.85965739},{"name":"あさひ　第一西水元寮","province":"東京都","city":"葛飾区","address":"葛飾区水元3-36-1","lat":35.78249,"lon":139.86322},{"name":"あさひ第一西水元寮","province":"東京都","city":"葛飾区","address":"葛飾区水元3-36-1","lat":35.78249,"lon":139.86322},{"name":"葛飾赤十字産院","province":"東京都","city":"葛飾区","address":"葛飾区立石5-11-12","lat":35.74238,"lon":139.84628},{"name":"あさひ　第１西水元寮","province":"東京都","city":"葛飾区","address":"葛飾区水元3-36-1","lat":35.78081,"lon":139.86134},{"name":"東京愛育苑ケアレジデンス","province":"東京都","city":"葛飾区","address":"葛飾区水元3-13-2","lat":35.782319,"lon":139.863493},{"name":"葛飾赤十字産院","province":"東京都","city":"葛飾区","address":"葛飾区立石5-11-12","lat":35.742474,"lon":139.846429},{"name":"葛飾区子ども発達センター","province":"東京都","city":"葛飾区","address":"葛飾区堀切3-34-1","lat":35.744335,"lon":139.834522},{"name":"葛飾荘","province":"東京都","city":"葛飾区","address":"東京都葛飾区","lat":35.74349358,"lon":139.84722071},{"name":"コーポ金町","province":"東京都","city":"葛飾区","address":"葛飾区東水元3-4-5","lat":35.783569,"lon":139.86596},{"name":"青戸荘","province":"東京都","city":"葛飾区","address":"葛飾区青戸8-3-8","lat":35.756184,"lon":139.849678},{"name":"金町荘","province":"東京都","city":"葛飾区","address":"葛飾区東金町5-39-7","lat":35.778655,"lon":139.880353},{"name":"立花荘","province":"東京都","city":"葛飾区","address":"葛飾区高砂2-15-3","lat":35.75006,"lon":139.865708},{"name":"第二立花荘","province":"東京都","city":"葛飾区","address":"葛飾区高砂3-28-7","lat":35.747371,"lon":139.869463},{"name":"第三立花荘","province":"東京都","city":"葛飾区","address":"葛飾区高砂3-28-8","lat":35.747402,"lon":139.86966},{"name":"あさひ　第１西水元寮","province":"東京都","city":"葛飾区","address":"葛飾区水元3-36-1","lat":35.781575,"lon":139.864568},{"name":"あさひ　第一西亀有寮","province":"東京都","city":"葛飾区","address":"葛飾区西亀有2-33-14","lat":35.759861,"lon":139.834716},{"name":"葛飾区社会福祉協議会","province":"東京都","city":"葛飾区","address":"葛飾区堀切3-34-1地域福祉・障害者センター3階","lat":35.744335,"lon":139.834522},{"name":"あさひ　第一西亀有寮","province":"東京都","city":"葛飾区","address":"葛飾区西亀有2-33-14","lat":35.75999,"lon":139.83453},{"name":"あさひ　第１西水元寮","province":"東京都","city":"葛飾区","address":"葛飾区水元3-36-1","lat":35.78249,"lon":139.86322},{"name":"さくら金町ハウス","province":"東京都","city":"葛飾区","address":"葛飾区東水元3-4-5","lat":35.78334,"lon":139.86632},{"name":"金町荘","province":"東京都","city":"葛飾区","address":"葛飾区東金町5-39-7","lat":35.77842,"lon":139.88025},{"name":"立花荘","province":"東京都","city":"葛飾区","address":"葛飾区高砂2-15-3","lat":35.74993,"lon":139.86583},{"name":"第二立花荘","province":"東京都","city":"葛飾区","address":"葛飾区高砂3-28-7","lat":35.74727,"lon":139.86949},{"name":"第三立花荘","province":"東京都","city":"葛飾区","address":"葛飾区高砂3-28-8","lat":35.74727,"lon":139.86949},{"name":"青戸荘","province":"東京都","city":"葛飾区","address":"葛飾区青戸8-3-8","lat":35.75608,"lon":139.85005},{"name":"東京かつしか赤十字母子医療センター","province":"東京都","city":"葛飾区","address":"葛飾区新宿3-7-1","lat":35.76144,"lon":139.86259},{"name":"あさひ　第一西水元寮","province":"東京都","city":"葛飾区","address":"葛飾区西水元3-36-1","lat":35.78827,"lon":139.85216},{"name":"第一立花ホーム","province":"東京都","city":"葛飾区","address":"葛飾区立石8-48-27","lat":35.74033,"lon":139.85907},{"name":"青戸荘（日住）","province":"東京都","city":"葛飾区","address":"葛飾区青戸8-3-8","lat":35.75608,"lon":139.85005},{"name":"葛飾区社会福祉協議会","province":"東京都","city":"葛飾区","address":"葛飾区堀切3-34-1地域福祉・障害者センター3階","lat":35.74439,"lon":139.83444},{"name":"葛飾区地域活動支援センター","province":"東京都","city":"葛飾区","address":"東京都葛飾区堀切3丁目34-1","lat":35.74433541,"lon":139.83452211},{"name":"葛飾区自立訓練事業所","province":"東京都","city":"葛飾区","address":"東京都葛飾区堀切3丁目34-1","lat":35.74433541,"lon":139.83452211},{"name":"特定非営利活動法人むうこすもす","province":"東京都","city":"葛飾区","address":"東京都葛飾区東四つ木3丁目49-10","lat":35.73083441,"lon":139.84071673},{"name":"一般社団法人ライフステップグリーンカフェ","province":"東京都","city":"葛飾区","address":"東京都葛飾区新小岩1丁目49-2","lat":35.71571294,"lon":139.85965739},{"name":"あさひ　第一西水元寮","province":"東京都","city":"葛飾区","address":"葛飾区水元3-36-1","lat":35.78249,"lon":139.86322},{"name":"あさひ第一西水元寮","province":"東京都","city":"葛飾区","address":"葛飾区水元3-36-1","lat":35.78249,"lon":139.86322},{"name":"葛飾赤十字産院","province":"東京都","city":"葛飾区","address":"葛飾区立石5-11-12","lat":35.74238,"lon":139.84628},{"name":"あさひ　第１西水元寮","province":"東京都","city":"葛飾区","address":"葛飾区水元3-36-1","lat":35.78081,"lon":139.86134},{"name":"東京愛育苑ケアレジデンス","province":"東京都","city":"葛飾区","address":"葛飾区水元3-13-2","lat":35.782319,"lon":139.863493},{"name":"葛飾赤十字産院","province":"東京都","city":"葛飾区","address":"葛飾区立石5-11-12","lat":35.742474,"lon":139.846429},{"name":"葛飾区子ども発達センター","province":"東京都","city":"葛飾区","address":"葛飾区堀切3-34-1","lat":35.744335,"lon":139.834522},{"name":"葛飾荘","province":"東京都","city":"葛飾区","address":"東京都葛飾区","lat":35.74349358,"lon":139.84722071},{"name":"コーポ金町","province":"東京都","city":"葛飾区","address":"葛飾区東水元3-4-5","lat":35.783569,"lon":139.86596},{"name":"青戸荘","province":"東京都","city":"葛飾区","address":"葛飾区青戸8-3-8","lat":35.756184,"lon":139.849678},{"name":"金町荘","province":"東京都","city":"葛飾区","address":"葛飾区東金町5-39-7","lat":35.778655,"lon":139.880353},{"name":"立花荘","province":"東京都","city":"葛飾区","address":"葛飾区高砂2-15-3","lat":35.75006,"lon":139.865708},{"name":"第二立花荘","province":"東京都","city":"葛飾区","address":"葛飾区高砂3-28-7","lat":35.747371,"lon":139.869463},{"name":"第三立花荘","province":"東京都","city":"葛飾区","address":"葛飾区高砂3-28-8","lat":35.747402,"lon":139.86966},{"name":"あさひ　第１西水元寮","province":"東京都","city":"葛飾区","address":"葛飾区水元3-36-1","lat":35.781575,"lon":139.864568},{"name":"あさひ　第一西亀有寮","province":"東京都","city":"葛飾区","address":"葛飾区西亀有2-33-14","lat":35.759861,"lon":139.834716},{"name":"葛飾区社会福祉協議会","province":"東京都","city":"葛飾区","address":"葛飾区堀切3-34-1地域福祉・障害者センター3階","lat":35.744335,"lon":139.834522},{"name":"あさひ　第一西亀有寮","province":"東京都","city":"葛飾区","address":"葛飾区西亀有2-33-14","lat":35.75999,"lon":139.83453},{"name":"あさひ　第１西水元寮","province":"東京都","city":"葛飾区","address":"葛飾区水元3-36-1","lat":35.78249,"lon":139.86322},{"name":"さくら金町ハウス","province":"東京都","city":"葛飾区","address":"葛飾区東水元3-4-5","lat":35.78334,"lon":139.86632},{"name":"金町荘","province":"東京都","city":"葛飾区","address":"葛飾区東金町5-39-7","lat":35.77842,"lon":139.88025},{"name":"立花荘","province":"東京都","city":"葛飾区","address":"葛飾区高砂2-15-3","lat":35.74993,"lon":139.86583},{"name":"第二立花荘","province":"東京都","city":"葛飾区","address":"葛飾区高砂3-28-7","lat":35.74727,"lon":139.86949},{"name":"第三立花荘","province":"東京都","city":"葛飾区","address":"葛飾区高砂3-28-8","lat":35.74727,"lon":139.86949},{"name":"青戸荘","province":"東京都","city":"葛飾区","address":"葛飾区青戸8-3-8","lat":35.75608,"lon":139.85005},{"name":"東京かつしか赤十字母子医療センター","province":"東京都","city":"葛飾区","address":"葛飾区新宿3-7-1","lat":35.76144,"lon":139.86259},{"name":"あさひ　第一西水元寮","province":"東京都","city":"葛飾区","address":"葛飾区西水元3-36-1","lat":35.78827,"lon":139.85216},{"name":"第一立花ホーム","province":"東京都","city":"葛飾区","address":"葛飾区立石8-48-27","lat":35.74033,"lon":139.85907},{"name":"青戸荘（日住）","province":"東京都","city":"葛飾区","address":"葛飾区青戸8-3-8","lat":35.75608,"lon":139.85005},{"name":"葛飾区社会福祉協議会","province":"東京都","city":"葛飾区","address":"葛飾区堀切3-34-1地域福祉・障害者センター3階","lat":35.74439,"lon":139.83444},{"name":"葛飾区地域活動支援センター","province":"東京都","city":"葛飾区","address":"東京都葛飾区堀切3丁目34-1","lat":35.74433541,"lon":139.83452211},{"name":"葛飾区自立訓練事業所","province":"東京都","city":"葛飾区","address":"東京都葛飾区堀切3丁目34-1","lat":35.74433541,"lon":139.83452211},{"name":"特定非営利活動法人むうこすもす","province":"東京都","city":"葛飾区","address":"東京都葛飾区東四つ木3丁目49-10","lat":35.73083441,"lon":139.84071673},{"name":"一般社団法人ライフステップグリーンカフェ","province":"東京都","city":"葛飾区","address":"東京都葛飾区新小岩1丁目49-2","lat":35.71571294,"lon":139.85965739},{"name":"あさひ　第一西水元寮","province":"東京都","city":"葛飾区","address":"葛飾区水元3-36-1","lat":35.78249,"lon":139.86322},{"name":"あさひ第一西水元寮","province":"東京都","city":"葛飾区","address":"葛飾区水元3-36-1","lat":35.78249,"lon":139.86322},{"name":"葛飾赤十字産院","province":"東京都","city":"葛飾区","address":"葛飾区立石5-11-12","lat":35.74238,"lon":139.84628},{"name":"あさひ　第１西水元寮","province":"東京都","city":"葛飾区","address":"葛飾区水元3-36-1","lat":35.78081,"lon":139.86134},{"name":"東京愛育苑ケアレジデンス","province":"東京都","city":"葛飾区","address":"葛飾区水元3-13-2","lat":35.782319,"lon":139.863493},{"name":"葛飾赤十字産院","province":"東京都","city":"葛飾区","address":"葛飾区立石5-11-12","lat":35.742474,"lon":139.846429},{"name":"葛飾区子ども発達センター","province":"東京都","city":"葛飾区","address":"葛飾区堀切3-34-1","lat":35.744335,"lon":139.834522},{"name":"葛飾荘","province":"東京都","city":"葛飾区","address":"東京都葛飾区","lat":35.74349358,"lon":139.84722071},{"name":"コーポ金町","province":"東京都","city":"葛飾区","address":"葛飾区東水元3-4-5","lat":35.783569,"lon":139.86596},{"name":"青戸荘","province":"東京都","city":"葛飾区","address":"葛飾区青戸8-3-8","lat":35.756184,"lon":139.849678},{"name":"金町荘","province":"東京都","city":"葛飾区","address":"葛飾区東金町5-39-7","lat":35.778655,"lon":139.880353},{"name":"立花荘","province":"東京都","city":"葛飾区","address":"葛飾区高砂2-15-3","lat":35.75006,"lon":139.865708},{"name":"第二立花荘","province":"東京都","city":"葛飾区","address":"葛飾区高砂3-28-7","lat":35.747371,"lon":139.869463},{"name":"第三立花荘","province":"東京都","city":"葛飾区","address":"葛飾区高砂3-28-8","lat":35.747402,"lon":139.86966},{"name":"あさひ　第１西水元寮","province":"東京都","city":"葛飾区","address":"葛飾区水元3-36-1","lat":35.781575,"lon":139.864568},{"name":"あさひ　第一西亀有寮","province":"東京都","city":"葛飾区","address":"葛飾区西亀有2-33-14","lat":35.759861,"lon":139.834716},{"name":"葛飾区社会福祉協議会","province":"東京都","city":"葛飾区","address":"葛飾区堀切3-34-1地域福祉・障害者センター3階","lat":35.744335,"lon":139.834522},{"name":"あさひ　第一西亀有寮","province":"東京都","city":"葛飾区","address":"葛飾区西亀有2-33-14","lat":35.75999,"lon":139.83453},{"name":"あさひ　第１西水元寮","province":"東京都","city":"葛飾区","address":"葛飾区水元3-36-1","lat":35.78249,"lon":139.86322},{"name":"さくら金町ハウス","province":"東京都","city":"葛飾区","address":"葛飾区東水元3-4-5","lat":35.78334,"lon":139.86632},{"name":"金町荘","province":"東京都","city":"葛飾区","address":"葛飾区東金町5-39-7","lat":35.77842,"lon":139.88025},{"name":"立花荘","province":"東京都","city":"葛飾区","address":"葛飾区高砂2-15-3","lat":35.74993,"lon":139.86583},{"name":"第二立花荘","province":"東京都","city":"葛飾区","address":"葛飾区高砂3-28-7","lat":35.74727,"lon":139.86949},{"name":"第三立花荘","province":"東京都","city":"葛飾区","address":"葛飾区高砂3-28-8","lat":35.74727,"lon":139.86949},{"name":"青戸荘","province":"東京都","city":"葛飾区","address":"葛飾区青戸8-3-8","lat":35.75608,"lon":139.85005},{"name":"東京かつしか赤十字母子医療センター","province":"東京都","city":"葛飾区","address":"葛飾区新宿3-7-1","lat":35.76144,"lon":139.86259},{"name":"あさひ　第一西水元寮","province":"東京都","city":"葛飾区","address":"葛飾区西水元3-36-1","lat":35.78827,"lon":139.85216},{"name":"第一立花ホーム","province":"東京都","city":"葛飾区","address":"葛飾区立石8-48-27","lat":35.74033,"lon":139.85907},{"name":"青戸荘（日住）","province":"東京都","city":"葛飾区","address":"葛飾区青戸8-3-8","lat":35.75608,"lon":139.85005},{"name":"葛飾区社会福祉協議会","province":"東京都","city":"葛飾区","address":"葛飾区堀切3-34-1地域福祉・障害者センター3階","lat":35.74439,"lon":139.83444},{"name":"葛飾区地域活動支援センター","province":"東京都","city":"葛飾区","address":"東京都葛飾区堀切3丁目34-1","lat":35.74433541,"lon":139.83452211},{"name":"葛飾区自立訓練事業所","province":"東京都","city":"葛飾区","address":"東京都葛飾区堀切3丁目34-1","lat":35.74433541,"lon":139.83452211},{"name":"特定非営利活動法人むうこすもす","province":"東京都","city":"葛飾区","address":"東京都葛飾区東四つ木3丁目49-10","lat":35.73083441,"lon":139.84071673},{"name":"一般社団法人ライフステップグリーンカフェ","province":"東京都","city":"葛飾区","address":"東京都葛飾区新小岩1丁目49-2","lat":35.71571294,"lon":139.85965739},{"name":"あさひ　第一西水元寮","province":"東京都","city":"葛飾区","address":"葛飾区水元3-36-1","lat":35.78249,"lon":139.86322},{"name":"あさひ第一西水元寮","province":"東京都","city":"葛飾区","address":"葛飾区水元3-36-1","lat":35.78249,"lon":139.86322},{"name":"葛飾赤十字産院","province":"東京都","city":"葛飾区","address":"葛飾区立石5-11-12","lat":35.74238,"lon":139.84628},{"name":"あさひ　第１西水元寮","province":"東京都","city":"葛飾区","address":"葛飾区水元3-36-1","lat":35.78081,"lon":139.86134},{"name":"東京愛育苑ケアレジデンス","province":"東京都","city":"葛飾区","address":"葛飾区水元3-13-2","lat":35.782319,"lon":139.863493},{"name":"葛飾赤十字産院","province":"東京都","city":"葛飾区","address":"葛飾区立石5-11-12","lat":35.742474,"lon":139.846429},{"name":"葛飾区子ども発達センター","province":"東京都","city":"葛飾区","address":"葛飾区堀切3-34-1","lat":35.744335,"lon":139.834522},{"name":"葛飾荘","province":"東京都","city":"葛飾区","address":"東京都葛飾区","lat":35.74349358,"lon":139.84722071},{"name":"コーポ金町","province":"東京都","city":"葛飾区","address":"葛飾区東水元3-4-5","lat":35.783569,"lon":139.86596},{"name":"青戸荘","province":"東京都","city":"葛飾区","address":"葛飾区青戸8-3-8","lat":35.756184,"lon":139.849678},{"name":"金町荘","province":"東京都","city":"葛飾区","address":"葛飾区東金町5-39-7","lat":35.778655,"lon":139.880353},{"name":"立花荘","province":"東京都","city":"葛飾区","address":"葛飾区高砂2-15-3","lat":35.75006,"lon":139.865708},{"name":"第二立花荘","province":"東京都","city":"葛飾区","address":"葛飾区高砂3-28-7","lat":35.747371,"lon":139.869463},{"name":"第三立花荘","province":"東京都","city":"葛飾区","address":"葛飾区高砂3-28-8","lat":35.747402,"lon":139.86966},{"name":"あさひ　第１西水元寮","province":"東京都","city":"葛飾区","address":"葛飾区水元3-36-1","lat":35.781575,"lon":139.864568},{"name":"あさひ　第一西亀有寮","province":"東京都","city":"葛飾区","address":"葛飾区西亀有2-33-14","lat":35.759861,"lon":139.834716},{"name":"葛飾区社会福祉協議会","province":"東京都","city":"葛飾区","address":"葛飾区堀切3-34-1地域福祉・障害者センター3階","lat":35.744335,"lon":139.834522},{"name":"あさひ　第一西亀有寮","province":"東京都","city":"葛飾区","address":"葛飾区西亀有2-33-14","lat":35.75999,"lon":139.83453},{"name":"あさひ　第１西水元寮","province":"東京都","city":"葛飾区","address":"葛飾区水元3-36-1","lat":35.78249,"lon":139.86322},{"name":"さくら金町ハウス","province":"東京都","city":"葛飾区","address":"葛飾区東水元3-4-5","lat":35.78334,"lon":139.86632},{"name":"金町荘","province":"東京都","city":"葛飾区","address":"葛飾区東金町5-39-7","lat":35.77842,"lon":139.88025},{"name":"立花荘","province":"東京都","city":"葛飾区","address":"葛飾区高砂2-15-3","lat":35.74993,"lon":139.86583},{"name":"第二立花荘","province":"東京都","city":"葛飾区","address":"葛飾区高砂3-28-7","lat":35.74727,"lon":139.86949},{"name":"第三立花荘","province":"東京都","city":"葛飾区","address":"葛飾区高砂3-28-8","lat":35.74727,"lon":139.86949},{"name":"青戸荘","province":"東京都","city":"葛飾区","address":"葛飾区青戸8-3-8","lat":35.75608,"lon":139.85005},{"name":"東京かつしか赤十字母子医療センター","province":"東京都","city":"葛飾区","address":"葛飾区新宿3-7-1","lat":35.76144,"lon":139.86259},{"name":"あさひ　第一西水元寮","province":"東京都","city":"葛飾区","address":"葛飾区西水元3-36-1","lat":35.78827,"lon":139.85216},{"name":"第一立花ホーム","province":"東京都","city":"葛飾区","address":"葛飾区立石8-48-27","lat":35.74033,"lon":139.85907},{"name":"青戸荘（日住）","province":"東京都","city":"葛飾区","address":"葛飾区青戸8-3-8","lat":35.75608,"lon":139.85005},{"name":"葛飾区社会福祉協議会","province":"東京都","city":"葛飾区","address":"葛飾区堀切3-34-1地域福祉・障害者センター3階","lat":35.74439,"lon":139.83444},{"name":"葛飾区地域活動支援センター","province":"東京都","city":"葛飾区","address":"東京都葛飾区堀切3丁目34-1","lat":35.74433541,"lon":139.83452211},{"name":"葛飾区自立訓練事業所","province":"東京都","city":"葛飾区","address":"東京都葛飾区堀切3丁目34-1","lat":35.74433541,"lon":139.83452211},{"name":"特定非営利活動法人むうこすもす","province":"東京都","city":"葛飾区","address":"東京都葛飾区東四つ木3丁目49-10","lat":35.73083441,"lon":139.84071673},{"name":"一般社団法人ライフステップグリーンカフェ","province":"東京都","city":"葛飾区","address":"東京都葛飾区新小岩1丁目49-2","lat":35.71571294,"lon":139.85965739},{"name":"あさひ　第一西水元寮","province":"東京都","city":"葛飾区","address":"葛飾区水元3-36-1","lat":35.78249,"lon":139.86322},{"name":"あさひ第一西水元寮","province":"東京都","city":"葛飾区","address":"葛飾区水元3-36-1","lat":35.78249,"lon":139.86322},{"name":"葛飾赤十字産院","province":"東京都","city":"葛飾区","address":"葛飾区立石5-11-12","lat":35.74238,"lon":139.84628},{"name":"あさひ　第１西水元寮","province":"東京都","city":"葛飾区","address":"葛飾区水元3-36-1","lat":35.78081,"lon":139.86134},{"name":"東京愛育苑ケアレジデンス","province":"東京都","city":"葛飾区","address":"葛飾区水元3-13-2","lat":35.782319,"lon":139.863493},{"name":"葛飾赤十字産院","province":"東京都","city":"葛飾区","address":"葛飾区立石5-11-12","lat":35.742474,"lon":139.846429},{"name":"葛飾区子ども発達センター","province":"東京都","city":"葛飾区","address":"葛飾区堀切3-34-1","lat":35.744335,"lon":139.834522},{"name":"葛飾荘","province":"東京都","city":"葛飾区","address":"東京都葛飾区","lat":35.74349358,"lon":139.84722071},{"name":"コーポ金町","province":"東京都","city":"葛飾区","address":"葛飾区東水元3-4-5","lat":35.783569,"lon":139.86596},{"name":"青戸荘","province":"東京都","city":"葛飾区","address":"葛飾区青戸8-3-8","lat":35.756184,"lon":139.849678},{"name":"金町荘","province":"東京都","city":"葛飾区","address":"葛飾区東金町5-39-7","lat":35.778655,"lon":139.880353},{"name":"立花荘","province":"東京都","city":"葛飾区","address":"葛飾区高砂2-15-3","lat":35.75006,"lon":139.865708},{"name":"第二立花荘","province":"東京都","city":"葛飾区","address":"葛飾区高砂3-28-7","lat":35.747371,"lon":139.869463},{"name":"第三立花荘","province":"東京都","city":"葛飾区","address":"葛飾区高砂3-28-8","lat":35.747402,"lon":139.86966},{"name":"あさひ　第１西水元寮","province":"東京都","city":"葛飾区","address":"葛飾区水元3-36-1","lat":35.781575,"lon":139.864568},{"name":"あさひ　第一西亀有寮","province":"東京都","city":"葛飾区","address":"葛飾区西亀有2-33-14","lat":35.759861,"lon":139.834716},{"name":"葛飾区社会福祉協議会","province":"東京都","city":"葛飾区","address":"葛飾区堀切3-34-1地域福祉・障害者センター3階","lat":35.744335,"lon":139.834522},{"name":"あさひ　第一西亀有寮","province":"東京都","city":"葛飾区","address":"葛飾区西亀有2-33-14","lat":35.75999,"lon":139.83453},{"name":"あさひ　第１西水元寮","province":"東京都","city":"葛飾区","address":"葛飾区水元3-36-1","lat":35.78249,"lon":139.86322},{"name":"さくら金町ハウス","province":"東京都","city":"葛飾区","address":"葛飾区東水元3-4-5","lat":35.78334,"lon":139.86632},{"name":"金町荘","province":"東京都","city":"葛飾区","address":"葛飾区東金町5-39-7","lat":35.77842,"lon":139.88025},{"name":"立花荘","province":"東京都","city":"葛飾区","address":"葛飾区高砂2-15-3","lat":35.74993,"lon":139.86583},{"name":"第二立花荘","province":"東京都","city":"葛飾区","address":"葛飾区高砂3-28-7","lat":35.74727,"lon":139.86949},{"name":"第三立花荘","province":"東京都","city":"葛飾区","address":"葛飾区高砂3-28-8","lat":35.74727,"lon":139.86949},{"name":"青戸荘","province":"東京都","city":"葛飾区","address":"葛飾区青戸8-3-8","lat":35.75608,"lon":139.85005},{"name":"東京かつしか赤十字母子医療センター","province":"東京都","city":"葛飾区","address":"葛飾区新宿3-7-1","lat":35.76144,"lon":139.86259},{"name":"あさひ　第一西水元寮","province":"東京都","city":"葛飾区","address":"葛飾区西水元3-36-1","lat":35.78827,"lon":139.85216},{"name":"第一立花ホーム","province":"東京都","city":"葛飾区","address":"葛飾区立石8-48-27","lat":35.74033,"lon":139.85907},{"name":"青戸荘（日住）","province":"東京都","city":"葛飾区","address":"葛飾区青戸8-3-8","lat":35.75608,"lon":139.85005},{"name":"葛飾区社会福祉協議会","province":"東京都","city":"葛飾区","address":"葛飾区堀切3-34-1地域福祉・障害者センター3階","lat":35.74439,"lon":139.83444},{"name":"葛飾区地域活動支援センター","province":"東京都","city":"葛飾区","address":"東京都葛飾区堀切3丁目34-1","lat":35.74433541,"lon":139.83452211},{"name":"葛飾区自立訓練事業所","province":"東京都","city":"葛飾区","address":"東京都葛飾区堀切3丁目34-1","lat":35.74433541,"lon":139.83452211},{"name":"特定非営利活動法人むうこすもす","province":"東京都","city":"葛飾区","address":"東京都葛飾区東四つ木3丁目49-10","lat":35.73083441,"lon":139.84071673},{"name":"一般社団法人ライフステップグリーンカフェ","province":"東京都","city":"葛飾区","address":"東京都葛飾区新小岩1丁目49-2","lat":35.71571294,"lon":139.85965739},{"name":"あさひ　第一西水元寮","province":"東京都","city":"葛飾区","address":"葛飾区水元3-36-1","lat":35.78249,"lon":139.86322},{"name":"あさひ第一西水元寮","province":"東京都","city":"葛飾区","address":"葛飾区水元3-36-1","lat":35.78249,"lon":139.86322},{"name":"葛飾赤十字産院","province":"東京都","city":"葛飾区","address":"葛飾区立石5-11-12","lat":35.74238,"lon":139.84628},{"name":"あさひ　第１西水元寮","province":"東京都","city":"葛飾区","address":"葛飾区水元3-36-1","lat":35.78081,"lon":139.86134},{"name":"東京愛育苑ケアレジデンス","province":"東京都","city":"葛飾区","address":"葛飾区水元3-13-2","lat":35.782319,"lon":139.863493},{"name":"葛飾赤十字産院","province":"東京都","city":"葛飾区","address":"葛飾区立石5-11-12","lat":35.742474,"lon":139.846429},{"name":"葛飾区子ども発達センター","province":"東京都","city":"葛飾区","address":"葛飾区堀切3-34-1","lat":35.744335,"lon":139.834522},{"name":"葛飾荘","province":"東京都","city":"葛飾区","address":"東京都葛飾区","lat":35.74349358,"lon":139.84722071},{"name":"コーポ金町","province":"東京都","city":"葛飾区","address":"葛飾区東水元3-4-5","lat":35.783569,"lon":139.86596},{"name":"青戸荘","province":"東京都","city":"葛飾区","address":"葛飾区青戸8-3-8","lat":35.756184,"lon":139.849678},{"name":"金町荘","province":"東京都","city":"葛飾区","address":"葛飾区東金町5-39-7","lat":35.778655,"lon":139.880353},{"name":"立花荘","province":"東京都","city":"葛飾区","address":"葛飾区高砂2-15-3","lat":35.75006,"lon":139.865708},{"name":"第二立花荘","province":"東京都","city":"葛飾区","address":"葛飾区高砂3-28-7","lat":35.747371,"lon":139.869463},{"name":"第三立花荘","province":"東京都","city":"葛飾区","address":"葛飾区高砂3-28-8","lat":35.747402,"lon":139.86966},{"name":"あさひ　第１西水元寮","province":"東京都","city":"葛飾区","address":"葛飾区水元3-36-1","lat":35.781575,"lon":139.864568},{"name":"あさひ　第一西亀有寮","province":"東京都","city":"葛飾区","address":"葛飾区西亀有2-33-14","lat":35.759861,"lon":139.834716},{"name":"葛飾区社会福祉協議会","province":"東京都","city":"葛飾区","address":"葛飾区堀切3-34-1地域福祉・障害者センター3階","lat":35.744335,"lon":139.834522},{"name":"あさひ　第一西亀有寮","province":"東京都","city":"葛飾区","address":"葛飾区西亀有2-33-14","lat":35.75999,"lon":139.83453},{"name":"あさひ　第１西水元寮","province":"東京都","city":"葛飾区","address":"葛飾区水元3-36-1","lat":35.78249,"lon":139.86322},{"name":"さくら金町ハウス","province":"東京都","city":"葛飾区","address":"葛飾区東水元3-4-5","lat":35.78334,"lon":139.86632},{"name":"金町荘","province":"東京都","city":"葛飾区","address":"葛飾区東金町5-39-7","lat":35.77842,"lon":139.88025},{"name":"立花荘","province":"東京都","city":"葛飾区","address":"葛飾区高砂2-15-3","lat":35.74993,"lon":139.86583},{"name":"第二立花荘","province":"東京都","city":"葛飾区","address":"葛飾区高砂3-28-7","lat":35.74727,"lon":139.86949},{"name":"第三立花荘","province":"東京都","city":"葛飾区","address":"葛飾区高砂3-28-8","lat":35.74727,"lon":139.86949},{"name":"青戸荘","province":"東京都","city":"葛飾区","address":"葛飾区青戸8-3-8","lat":35.75608,"lon":139.85005},{"name":"東京かつしか赤十字母子医療センター","province":"東京都","city":"葛飾区","address":"葛飾区新宿3-7-1","lat":35.76144,"lon":139.86259},{"name":"あさひ　第一西水元寮","province":"東京都","city":"葛飾区","address":"葛飾区西水元3-36-1","lat":35.78827,"lon":139.85216},{"name":"第一立花ホーム","province":"東京都","city":"葛飾区","address":"葛飾区立石8-48-27","lat":35.74033,"lon":139.85907},{"name":"青戸荘（日住）","province":"東京都","city":"葛飾区","address":"葛飾区青戸8-3-8","lat":35.75608,"lon":139.85005},{"name":"葛飾区社会福祉協議会","province":"東京都","city":"葛飾区","address":"葛飾区堀切3-34-1地域福祉・障害者センター3階","lat":35.74439,"lon":139.83444},{"name":"葛飾区地域活動支援センター","province":"東京都","city":"葛飾区","address":"東京都葛飾区堀切3丁目34-1","lat":35.74433541,"lon":139.83452211},{"name":"葛飾区自立訓練事業所","province":"東京都","city":"葛飾区","address":"東京都葛飾区堀切3丁目34-1","lat":35.74433541,"lon":139.83452211},{"name":"特定非営利活動法人むうこすもす","province":"東京都","city":"葛飾区","address":"東京都葛飾区東四つ木3丁目49-10","lat":35.73083441,"lon":139.84071673},{"name":"一般社団法人ライフステップグリーンカフェ","province":"東京都","city":"葛飾区","address":"東京都葛飾区新小岩1丁目49-2","lat":35.71571294,"lon":139.85965739},{"name":"あさひ　第一西水元寮","province":"東京都","city":"葛飾区","address":"葛飾区水元3-36-1","lat":35.78249,"lon":139.86322},{"name":"あさひ第一西水元寮","province":"東京都","city":"葛飾区","address":"葛飾区水元3-36-1","lat":35.78249,"lon":139.86322},{"name":"葛飾赤十字産院","province":"東京都","city":"葛飾区","address":"葛飾区立石5-11-12","lat":35.74238,"lon":139.84628},{"name":"あさひ　第１西水元寮","province":"東京都","city":"葛飾区","address":"葛飾区水元3-36-1","lat":35.78081,"lon":139.86134},{"name":"東京愛育苑ケアレジデンス","province":"東京都","city":"葛飾区","address":"葛飾区水元3-13-2","lat":35.782319,"lon":139.863493},{"name":"葛飾赤十字産院","province":"東京都","city":"葛飾区","address":"葛飾区立石5-11-12","lat":35.742474,"lon":139.846429},{"name":"葛飾区子ども発達センター","province":"東京都","city":"葛飾区","address":"葛飾区堀切3-34-1","lat":35.744335,"lon":139.834522},{"name":"葛飾荘","province":"東京都","city":"葛飾区","address":"東京都葛飾区","lat":35.74349358,"lon":139.84722071},{"name":"コーポ金町","province":"東京都","city":"葛飾区","address":"葛飾区東水元3-4-5","lat":35.783569,"lon":139.86596},{"name":"青戸荘","province":"東京都","city":"葛飾区","address":"葛飾区青戸8-3-8","lat":35.756184,"lon":139.849678},{"name":"金町荘","province":"東京都","city":"葛飾区","address":"葛飾区東金町5-39-7","lat":35.778655,"lon":139.880353},{"name":"立花荘","province":"東京都","city":"葛飾区","address":"葛飾区高砂2-15-3","lat":35.75006,"lon":139.865708},{"name":"第二立花荘","province":"東京都","city":"葛飾区","address":"葛飾区高砂3-28-7","lat":35.747371,"lon":139.869463},{"name":"第三立花荘","province":"東京都","city":"葛飾区","address":"葛飾区高砂3-28-8","lat":35.747402,"lon":139.86966},{"name":"あさひ　第１西水元寮","province":"東京都","city":"葛飾区","address":"葛飾区水元3-36-1","lat":35.781575,"lon":139.864568},{"name":"あさひ　第一西亀有寮","province":"東京都","city":"葛飾区","address":"葛飾区西亀有2-33-14","lat":35.759861,"lon":139.834716},{"name":"葛飾区社会福祉協議会","province":"東京都","city":"葛飾区","address":"葛飾区堀切3-34-1地域福祉・障害者センター3階","lat":35.744335,"lon":139.834522},{"name":"あさひ　第一西亀有寮","province":"東京都","city":"葛飾区","address":"葛飾区西亀有2-33-14","lat":35.75999,"lon":139.83453},{"name":"あさひ　第１西水元寮","province":"東京都","city":"葛飾区","address":"葛飾区水元3-36-1","lat":35.78249,"lon":139.86322},{"name":"さくら金町ハウス","province":"東京都","city":"葛飾区","address":"葛飾区東水元3-4-5","lat":35.78334,"lon":139.86632},{"name":"金町荘","province":"東京都","city":"葛飾区","address":"葛飾区東金町5-39-7","lat":35.77842,"lon":139.88025},{"name":"立花荘","province":"東京都","city":"葛飾区","address":"葛飾区高砂2-15-3","lat":35.74993,"lon":139.86583},{"name":"第二立花荘","province":"東京都","city":"葛飾区","address":"葛飾区高砂3-28-7","lat":35.74727,"lon":139.86949},{"name":"第三立花荘","province":"東京都","city":"葛飾区","address":"葛飾区高砂3-28-8","lat":35.74727,"lon":139.86949},{"name":"青戸荘","province":"東京都","city":"葛飾区","address":"葛飾区青戸8-3-8","lat":35.75608,"lon":139.85005},{"name":"東京かつしか赤十字母子医療センター","province":"東京都","city":"葛飾区","address":"葛飾区新宿3-7-1","lat":35.76144,"lon":139.86259},{"name":"あさひ　第一西水元寮","province":"東京都","city":"葛飾区","address":"葛飾区西水元3-36-1","lat":35.78827,"lon":139.85216},{"name":"第一立花ホーム","province":"東京都","city":"葛飾区","address":"葛飾区立石8-48-27","lat":35.74033,"lon":139.85907},{"name":"青戸荘（日住）","province":"東京都","city":"葛飾区","address":"葛飾区青戸8-3-8","lat":35.75608,"lon":139.85005},{"name":"葛飾区社会福祉協議会","province":"東京都","city":"葛飾区","address":"葛飾区堀切3-34-1地域福祉・障害者センター3階","lat":35.74439,"lon":139.83444},{"name":"葛飾区地域活動支援センター","province":"東京都","city":"葛飾区","address":"東京都葛飾区堀切3丁目34-1","lat":35.74433541,"lon":139.83452211},{"name":"葛飾区自立訓練事業所","province":"東京都","city":"葛飾区","address":"東京都葛飾区堀切3丁目34-1","lat":35.74433541,"lon":139.83452211},{"name":"特定非営利活動法人むうこすもす","province":"東京都","city":"葛飾区","address":"東京都葛飾区東四つ木3丁目49-10","lat":35.73083441,"lon":139.84071673},{"name":"一般社団法人ライフステップグリーンカフェ","province":"東京都","city":"葛飾区","address":"東京都葛飾区新小岩1丁目49-2","lat":35.71571294,"lon":139.85965739},{"name":"あさひ　第一西水元寮","province":"東京都","city":"葛飾区","address":"葛飾区水元3-36-1","lat":35.78249,"lon":139.86322},{"name":"あさひ第一西水元寮","province":"東京都","city":"葛飾区","address":"葛飾区水元3-36-1","lat":35.78249,"lon":139.86322},{"name":"葛飾赤十字産院","province":"東京都","city":"葛飾区","address":"葛飾区立石5-11-12","lat":35.74238,"lon":139.84628},{"name":"あさひ　第１西水元寮","province":"東京都","city":"葛飾区","address":"葛飾区水元3-36-1","lat":35.78081,"lon":139.86134},{"name":"東京愛育苑ケアレジデンス","province":"東京都","city":"葛飾区","address":"葛飾区水元3-13-2","lat":35.782319,"lon":139.863493},{"name":"葛飾赤十字産院","province":"東京都","city":"葛飾区","address":"葛飾区立石5-11-12","lat":35.742474,"lon":139.846429},{"name":"葛飾区子ども発達センター","province":"東京都","city":"葛飾区","address":"葛飾区堀切3-34-1","lat":35.744335,"lon":139.834522},{"name":"葛飾荘","province":"東京都","city":"葛飾区","address":"東京都葛飾区","lat":35.74349358,"lon":139.84722071},{"name":"コーポ金町","province":"東京都","city":"葛飾区","address":"葛飾区東水元3-4-5","lat":35.783569,"lon":139.86596},{"name":"青戸荘","province":"東京都","city":"葛飾区","address":"葛飾区青戸8-3-8","lat":35.756184,"lon":139.849678},{"name":"金町荘","province":"東京都","city":"葛飾区","address":"葛飾区東金町5-39-7","lat":35.778655,"lon":139.880353},{"name":"立花荘","province":"東京都","city":"葛飾区","address":"葛飾区高砂2-15-3","lat":35.75006,"lon":139.865708},{"name":"第二立花荘","province":"東京都","city":"葛飾区","address":"葛飾区高砂3-28-7","lat":35.747371,"lon":139.869463},{"name":"第三立花荘","province":"東京都","city":"葛飾区","address":"葛飾区高砂3-28-8","lat":35.747402,"lon":139.86966},{"name":"あさひ　第１西水元寮","province":"東京都","city":"葛飾区","address":"葛飾区水元3-36-1","lat":35.781575,"lon":139.864568},{"name":"あさひ　第一西亀有寮","province":"東京都","city":"葛飾区","address":"葛飾区西亀有2-33-14","lat":35.759861,"lon":139.834716},{"name":"葛飾区社会福祉協議会","province":"東京都","city":"葛飾区","address":"葛飾区堀切3-34-1地域福祉・障害者センター3階","lat":35.744335,"lon":139.834522},{"name":"あさひ　第一西亀有寮","province":"東京都","city":"葛飾区","address":"葛飾区西亀有2-33-14","lat":35.75999,"lon":139.83453},{"name":"あさひ　第１西水元寮","province":"東京都","city":"葛飾区","address":"葛飾区水元3-36-1","lat":35.78249,"lon":139.86322},{"name":"さくら金町ハウス","province":"東京都","city":"葛飾区","address":"葛飾区東水元3-4-5","lat":35.78334,"lon":139.86632},{"name":"金町荘","province":"東京都","city":"葛飾区","address":"葛飾区東金町5-39-7","lat":35.77842,"lon":139.88025},{"name":"立花荘","province":"東京都","city":"葛飾区","address":"葛飾区高砂2-15-3","lat":35.74993,"lon":139.86583},{"name":"第二立花荘","province":"東京都","city":"葛飾区","address":"葛飾区高砂3-28-7","lat":35.74727,"lon":139.86949},{"name":"第三立花荘","province":"東京都","city":"葛飾区","address":"葛飾区高砂3-28-8","lat":35.74727,"lon":139.86949},{"name":"青戸荘","province":"東京都","city":"葛飾区","address":"葛飾区青戸8-3-8","lat":35.75608,"lon":139.85005},{"name":"東京かつしか赤十字母子医療センター","province":"東京都","city":"葛飾区","address":"葛飾区新宿3-7-1","lat":35.76144,"lon":139.86259},{"name":"あさひ　第一西水元寮","province":"東京都","city":"葛飾区","address":"葛飾区西水元3-36-1","lat":35.78827,"lon":139.85216},{"name":"第一立花ホーム","province":"東京都","city":"葛飾区","address":"葛飾区立石8-48-27","lat":35.74033,"lon":139.85907},{"name":"青戸荘（日住）","province":"東京都","city":"葛飾区","address":"葛飾区青戸8-3-8","lat":35.75608,"lon":139.85005},{"name":"葛飾区社会福祉協議会","province":"東京都","city":"葛飾区","address":"葛飾区堀切3-34-1地域福祉・障害者センター3階","lat":35.74439,"lon":139.83444},{"name":"葛飾区地域活動支援センター","province":"東京都","city":"葛飾区","address":"東京都葛飾区堀切3丁目34-1","lat":35.74433541,"lon":139.83452211},{"name":"葛飾区自立訓練事業所","province":"東京都","city":"葛飾区","address":"東京都葛飾区堀切3丁目34-1","lat":35.74433541,"lon":139.83452211},{"name":"特定非営利活動法人むうこすもす","province":"東京都","city":"葛飾区","address":"東京都葛飾区東四つ木3丁目49-10","lat":35.73083441,"lon":139.84071673},{"name":"一般社団法人ライフステップグリーンカフェ","province":"東京都","city":"葛飾区","address":"東京都葛飾区新小岩1丁目49-2","lat":35.71571294,"lon":139.85965739},{"name":"あさひ　第一西水元寮","province":"東京都","city":"葛飾区","address":"葛飾区水元3-36-1","lat":35.78249,"lon":139.86322},{"name":"あさひ第一西水元寮","province":"東京都","city":"葛飾区","address":"葛飾区水元3-36-1","lat":35.78249,"lon":139.86322},{"name":"葛飾赤十字産院","province":"東京都","city":"葛飾区","address":"葛飾区立石5-11-12","lat":35.74238,"lon":139.84628},{"name":"あさひ　第１西水元寮","province":"東京都","city":"葛飾区","address":"葛飾区水元3-36-1","lat":35.78081,"lon":139.86134},{"name":"東京愛育苑ケアレジデンス","province":"東京都","city":"葛飾区","address":"葛飾区水元3-13-2","lat":35.782319,"lon":139.863493},{"name":"葛飾赤十字産院","province":"東京都","city":"葛飾区","address":"葛飾区立石5-11-12","lat":35.742474,"lon":139.846429},{"name":"葛飾区子ども発達センター","province":"東京都","city":"葛飾区","address":"葛飾区堀切3-34-1","lat":35.744335,"lon":139.834522},{"name":"葛飾荘","province":"東京都","city":"葛飾区","address":"東京都葛飾区","lat":35.74349358,"lon":139.84722071},{"name":"コーポ金町","province":"東京都","city":"葛飾区","address":"葛飾区東水元3-4-5","lat":35.783569,"lon":139.86596},{"name":"青戸荘","province":"東京都","city":"葛飾区","address":"葛飾区青戸8-3-8","lat":35.756184,"lon":139.849678},{"name":"金町荘","province":"東京都","city":"葛飾区","address":"葛飾区東金町5-39-7","lat":35.778655,"lon":139.880353},{"name":"立花荘","province":"東京都","city":"葛飾区","address":"葛飾区高砂2-15-3","lat":35.75006,"lon":139.865708},{"name":"第二立花荘","province":"東京都","city":"葛飾区","address":"葛飾区高砂3-28-7","lat":35.747371,"lon":139.869463},{"name":"第三立花荘","province":"東京都","city":"葛飾区","address":"葛飾区高砂3-28-8","lat":35.747402,"lon":139.86966},{"name":"あさひ　第１西水元寮","province":"東京都","city":"葛飾区","address":"葛飾区水元3-36-1","lat":35.781575,"lon":139.864568},{"name":"あさひ　第一西亀有寮","province":"東京都","city":"葛飾区","address":"葛飾区西亀有2-33-14","lat":35.759861,"lon":139.834716},{"name":"葛飾区社会福祉協議会","province":"東京都","city":"葛飾区","address":"葛飾区堀切3-34-1地域福祉・障害者センター3階","lat":35.744335,"lon":139.834522},{"name":"あさひ　第一西亀有寮","province":"東京都","city":"葛飾区","address":"葛飾区西亀有2-33-14","lat":35.75999,"lon":139.83453},{"name":"あさひ　第１西水元寮","province":"東京都","city":"葛飾区","address":"葛飾区水元3-36-1","lat":35.78249,"lon":139.86322},{"name":"さくら金町ハウス","province":"東京都","city":"葛飾区","address":"葛飾区東水元3-4-5","lat":35.78334,"lon":139.86632},{"name":"金町荘","province":"東京都","city":"葛飾区","address":"葛飾区東金町5-39-7","lat":35.77842,"lon":139.88025},{"name":"立花荘","province":"東京都","city":"葛飾区","address":"葛飾区高砂2-15-3","lat":35.74993,"lon":139.86583},{"name":"第二立花荘","province":"東京都","city":"葛飾区","address":"葛飾区高砂3-28-7","lat":35.74727,"lon":139.86949},{"name":"第三立花荘","province":"東京都","city":"葛飾区","address":"葛飾区高砂3-28-8","lat":35.74727,"lon":139.86949},{"name":"青戸荘","province":"東京都","city":"葛飾区","address":"葛飾区青戸8-3-8","lat":35.75608,"lon":139.85005},{"name":"東京かつしか赤十字母子医療センター","province":"東京都","city":"葛飾区","address":"葛飾区新宿3-7-1","lat":35.76144,"lon":139.86259},{"name":"あさひ　第一西水元寮","province":"東京都","city":"葛飾区","address":"葛飾区西水元3-36-1","lat":35.78827,"lon":139.85216},{"name":"第一立花ホーム","province":"東京都","city":"葛飾区","address":"葛飾区立石8-48-27","lat":35.74033,"lon":139.85907},{"name":"青戸荘（日住）","province":"東京都","city":"葛飾区","address":"葛飾区青戸8-3-8","lat":35.75608,"lon":139.85005},{"name":"葛飾区社会福祉協議会","province":"東京都","city":"葛飾区","address":"葛飾区堀切3-34-1地域福祉・障害者センター3階","lat":35.74439,"lon":139.83444},{"name":"葛飾区地域活動支援センター","province":"東京都","city":"葛飾区","address":"東京都葛飾区堀切3丁目34-1","lat":35.74433541,"lon":139.83452211},{"name":"葛飾区自立訓練事業所","province":"東京都","city":"葛飾区","address":"東京都葛飾区堀切3丁目34-1","lat":35.74433541,"lon":139.83452211},{"name":"特定非営利活動法人むうこすもす","province":"東京都","city":"葛飾区","address":"東京都葛飾区東四つ木3丁目49-10","lat":35.73083441,"lon":139.84071673},{"name":"一般社団法人ライフステップグリーンカフェ","province":"東京都","city":"葛飾区","address":"東京都葛飾区新小岩1丁目49-2","lat":35.71571294,"lon":139.85965739},{"name":"あさひ　第一西水元寮","province":"東京都","city":"葛飾区","address":"葛飾区水元3-36-1","lat":35.78249,"lon":139.86322},{"name":"あさひ第一西水元寮","province":"東京都","city":"葛飾区","address":"葛飾区水元3-36-1","lat":35.78249,"lon":139.86322},{"name":"葛飾赤十字産院","province":"東京都","city":"葛飾区","address":"葛飾区立石5-11-12","lat":35.74238,"lon":139.84628},{"name":"あさひ　第１西水元寮","province":"東京都","city":"葛飾区","address":"葛飾区水元3-36-1","lat":35.78081,"lon":139.86134},{"name":"東京愛育苑ケアレジデンス","province":"東京都","city":"葛飾区","address":"葛飾区水元3-13-2","lat":35.782319,"lon":139.863493},{"name":"葛飾赤十字産院","province":"東京都","city":"葛飾区","address":"葛飾区立石5-11-12","lat":35.742474,"lon":139.846429},{"name":"葛飾区子ども発達センター","province":"東京都","city":"葛飾区","address":"葛飾区堀切3-34-1","lat":35.744335,"lon":139.834522},{"name":"葛飾荘","province":"東京都","city":"葛飾区","address":"東京都葛飾区","lat":35.74349358,"lon":139.84722071},{"name":"コーポ金町","province":"東京都","city":"葛飾区","address":"葛飾区東水元3-4-5","lat":35.783569,"lon":139.86596},{"name":"青戸荘","province":"東京都","city":"葛飾区","address":"葛飾区青戸8-3-8","lat":35.756184,"lon":139.849678},{"name":"金町荘","province":"東京都","city":"葛飾区","address":"葛飾区東金町5-39-7","lat":35.778655,"lon":139.880353},{"name":"立花荘","province":"東京都","city":"葛飾区","address":"葛飾区高砂2-15-3","lat":35.75006,"lon":139.865708},{"name":"第二立花荘","province":"東京都","city":"葛飾区","address":"葛飾区高砂3-28-7","lat":35.747371,"lon":139.869463},{"name":"第三立花荘","province":"東京都","city":"葛飾区","address":"葛飾区高砂3-28-8","lat":35.747402,"lon":139.86966},{"name":"あさひ　第１西水元寮","province":"東京都","city":"葛飾区","address":"葛飾区水元3-36-1","lat":35.781575,"lon":139.864568},{"name":"あさひ　第一西亀有寮","province":"東京都","city":"葛飾区","address":"葛飾区西亀有2-33-14","lat":35.759861,"lon":139.834716},{"name":"葛飾区社会福祉協議会","province":"東京都","city":"葛飾区","address":"葛飾区堀切3-34-1地域福祉・障害者センター3階","lat":35.744335,"lon":139.834522},{"name":"あさひ　第一西亀有寮","province":"東京都","city":"葛飾区","address":"葛飾区西亀有2-33-14","lat":35.75999,"lon":139.83453},{"name":"あさひ　第１西水元寮","province":"東京都","city":"葛飾区","address":"葛飾区水元3-36-1","lat":35.78249,"lon":139.86322},{"name":"さくら金町ハウス","province":"東京都","city":"葛飾区","address":"葛飾区東水元3-4-5","lat":35.78334,"lon":139.86632},{"name":"金町荘","province":"東京都","city":"葛飾区","address":"葛飾区東金町5-39-7","lat":35.77842,"lon":139.88025},{"name":"立花荘","province":"東京都","city":"葛飾区","address":"葛飾区高砂2-15-3","lat":35.74993,"lon":139.86583},{"name":"第二立花荘","province":"東京都","city":"葛飾区","address":"葛飾区高砂3-28-7","lat":35.74727,"lon":139.86949},{"name":"第三立花荘","province":"東京都","city":"葛飾区","address":"葛飾区高砂3-28-8","lat":35.74727,"lon":139.86949},{"name":"青戸荘","province":"東京都","city":"葛飾区","address":"葛飾区青戸8-3-8","lat":35.75608,"lon":139.85005},{"name":"東京かつしか赤十字母子医療センター","province":"東京都","city":"葛飾区","address":"葛飾区新宿3-7-1","lat":35.76144,"lon":139.86259},{"name":"あさひ　第一西水元寮","province":"東京都","city":"葛飾区","address":"葛飾区西水元3-36-1","lat":35.78827,"lon":139.85216},{"name":"第一立花ホーム","province":"東京都","city":"葛飾区","address":"葛飾区立石8-48-27","lat":35.74033,"lon":139.85907},{"name":"青戸荘（日住）","province":"東京都","city":"葛飾区","address":"葛飾区青戸8-3-8","lat":35.75608,"lon":139.85005},{"name":"葛飾区社会福祉協議会","province":"東京都","city":"葛飾区","address":"葛飾区堀切3-34-1地域福祉・障害者センター3階","lat":35.74439,"lon":139.83444},{"name":"葛飾区地域活動支援センター","province":"東京都","city":"葛飾区","address":"東京都葛飾区堀切3丁目34-1","lat":35.74433541,"lon":139.83452211},{"name":"葛飾区自立訓練事業所","province":"東京都","city":"葛飾区","address":"東京都葛飾区堀切3丁目34-1","lat":35.74433541,"lon":139.83452211},{"name":"特定非営利活動法人むうこすもす","province":"東京都","city":"葛飾区","address":"東京都葛飾区東四つ木3丁目49-10","lat":35.73083441,"lon":139.84071673},{"name":"一般社団法人ライフステップグリーンカフェ","province":"東京都","city":"葛飾区","address":"東京都葛飾区新小岩1丁目49-2","lat":35.71571294,"lon":139.85965739},{"name":"あさひ　第一西水元寮","province":"東京都","city":"葛飾区","address":"葛飾区水元3-36-1","lat":35.78249,"lon":139.86322},{"name":"あさひ第一西水元寮","province":"東京都","city":"葛飾区","address":"葛飾区水元3-36-1","lat":35.78249,"lon":139.86322},{"name":"葛飾赤十字産院","province":"東京都","city":"葛飾区","address":"葛飾区立石5-11-12","lat":35.74238,"lon":139.84628},{"name":"あさひ　第１西水元寮","province":"東京都","city":"葛飾区","address":"葛飾区水元3-36-1","lat":35.78081,"lon":139.86134},{"name":"東京愛育苑ケアレジデンス","province":"東京都","city":"葛飾区","address":"葛飾区水元3-13-2","lat":35.782319,"lon":139.863493},{"name":"葛飾赤十字産院","province":"東京都","city":"葛飾区","address":"葛飾区立石5-11-12","lat":35.742474,"lon":139.846429},{"name":"葛飾区子ども発達センター","province":"東京都","city":"葛飾区","address":"葛飾区堀切3-34-1","lat":35.744335,"lon":139.834522},{"name":"葛飾荘","province":"東京都","city":"葛飾区","address":"東京都葛飾区","lat":35.74349358,"lon":139.84722071},{"name":"コーポ金町","province":"東京都","city":"葛飾区","address":"葛飾区東水元3-4-5","lat":35.783569,"lon":139.86596},{"name":"青戸荘","province":"東京都","city":"葛飾区","address":"葛飾区青戸8-3-8","lat":35.756184,"lon":139.849678},{"name":"金町荘","province":"東京都","city":"葛飾区","address":"葛飾区東金町5-39-7","lat":35.778655,"lon":139.880353},{"name":"立花荘","province":"東京都","city":"葛飾区","address":"葛飾区高砂2-15-3","lat":35.75006,"lon":139.865708},{"name":"第二立花荘","province":"東京都","city":"葛飾区","address":"葛飾区高砂3-28-7","lat":35.747371,"lon":139.869463},{"name":"第三立花荘","province":"東京都","city":"葛飾区","address":"葛飾区高砂3-28-8","lat":35.747402,"lon":139.86966},{"name":"あさひ　第１西水元寮","province":"東京都","city":"葛飾区","address":"葛飾区水元3-36-1","lat":35.781575,"lon":139.864568},{"name":"あさひ　第一西亀有寮","province":"東京都","city":"葛飾区","address":"葛飾区西亀有2-33-14","lat":35.759861,"lon":139.834716},{"name":"葛飾区社会福祉協議会","province":"東京都","city":"葛飾区","address":"葛飾区堀切3-34-1地域福祉・障害者センター3階","lat":35.744335,"lon":139.834522},{"name":"あさひ　第一西亀有寮","province":"東京都","city":"葛飾区","address":"葛飾区西亀有2-33-14","lat":35.75999,"lon":139.83453},{"name":"あさひ　第１西水元寮","province":"東京都","city":"葛飾区","address":"葛飾区水元3-36-1","lat":35.78249,"lon":139.86322},{"name":"さくら金町ハウス","province":"東京都","city":"葛飾区","address":"葛飾区東水元3-4-5","lat":35.78334,"lon":139.86632},{"name":"金町荘","province":"東京都","city":"葛飾区","address":"葛飾区東金町5-39-7","lat":35.77842,"lon":139.88025},{"name":"立花荘","province":"東京都","city":"葛飾区","address":"葛飾区高砂2-15-3","lat":35.74993,"lon":139.86583},{"name":"第二立花荘","province":"東京都","city":"葛飾区","address":"葛飾区高砂3-28-7","lat":35.74727,"lon":139.86949},{"name":"第三立花荘","province":"東京都","city":"葛飾区","address":"葛飾区高砂3-28-8","lat":35.74727,"lon":139.86949},{"name":"青戸荘","province":"東京都","city":"葛飾区","address":"葛飾区青戸8-3-8","lat":35.75608,"lon":139.85005},{"name":"東京かつしか赤十字母子医療センター","province":"東京都","city":"葛飾区","address":"葛飾区新宿3-7-1","lat":35.76144,"lon":139.86259},{"name":"あさひ　第一西水元寮","province":"東京都","city":"葛飾区","address":"葛飾区西水元3-36-1","lat":35.78827,"lon":139.85216},{"name":"第一立花ホーム","province":"東京都","city":"葛飾区","address":"葛飾区立石8-48-27","lat":35.74033,"lon":139.85907},{"name":"青戸荘（日住）","province":"東京都","city":"葛飾区","address":"葛飾区青戸8-3-8","lat":35.75608,"lon":139.85005},{"name":"葛飾区社会福祉協議会","province":"東京都","city":"葛飾区","address":"葛飾区堀切3-34-1地域福祉・障害者センター3階","lat":35.74439,"lon":139.83444},{"name":"葛飾区地域活動支援センター","province":"東京都","city":"葛飾区","address":"東京都葛飾区堀切3丁目34-1","lat":35.74433541,"lon":139.83452211},{"name":"葛飾区自立訓練事業所","province":"東京都","city":"葛飾区","address":"東京都葛飾区堀切3丁目34-1","lat":35.74433541,"lon":139.83452211},{"name":"特定非営利活動法人むうこすもす","province":"東京都","city":"葛飾区","address":"東京都葛飾区東四つ木3丁目49-10","lat":35.73083441,"lon":139.84071673},{"name":"一般社団法人ライフステップグリーンカフェ","province":"東京都","city":"葛飾区","address":"東京都葛飾区新小岩1丁目49-2","lat":35.71571294,"lon":139.85965739},{"name":"あさひ　第一西水元寮","province":"東京都","city":"葛飾区","address":"葛飾区水元3-36-1","lat":35.78249,"lon":139.86322},{"name":"あさひ第一西水元寮","province":"東京都","city":"葛飾区","address":"葛飾区水元3-36-1","lat":35.78249,"lon":139.86322},{"name":"葛飾赤十字産院","province":"東京都","city":"葛飾区","address":"葛飾区立石5-11-12","lat":35.74238,"lon":139.84628},{"name":"あさひ　第１西水元寮","province":"東京都","city":"葛飾区","address":"葛飾区水元3-36-1","lat":35.78081,"lon":139.86134},{"name":"東京愛育苑ケアレジデンス","province":"東京都","city":"葛飾区","address":"葛飾区水元3-13-2","lat":35.782319,"lon":139.863493},{"name":"葛飾赤十字産院","province":"東京都","city":"葛飾区","address":"葛飾区立石5-11-12","lat":35.742474,"lon":139.846429},{"name":"葛飾区子ども発達センター","province":"東京都","city":"葛飾区","address":"葛飾区堀切3-34-1","lat":35.744335,"lon":139.834522},{"name":"葛飾荘","province":"東京都","city":"葛飾区","address":"東京都葛飾区","lat":35.74349358,"lon":139.84722071},{"name":"コーポ金町","province":"東京都","city":"葛飾区","address":"葛飾区東水元3-4-5","lat":35.783569,"lon":139.86596},{"name":"青戸荘","province":"東京都","city":"葛飾区","address":"葛飾区青戸8-3-8","lat":35.756184,"lon":139.849678},{"name":"金町荘","province":"東京都","city":"葛飾区","address":"葛飾区東金町5-39-7","lat":35.778655,"lon":139.880353},{"name":"立花荘","province":"東京都","city":"葛飾区","address":"葛飾区高砂2-15-3","lat":35.75006,"lon":139.865708},{"name":"第二立花荘","province":"東京都","city":"葛飾区","address":"葛飾区高砂3-28-7","lat":35.747371,"lon":139.869463},{"name":"第三立花荘","province":"東京都","city":"葛飾区","address":"葛飾区高砂3-28-8","lat":35.747402,"lon":139.86966},{"name":"あさひ　第１西水元寮","province":"東京都","city":"葛飾区","address":"葛飾区水元3-36-1","lat":35.781575,"lon":139.864568},{"name":"あさひ　第一西亀有寮","province":"東京都","city":"葛飾区","address":"葛飾区西亀有2-33-14","lat":35.759861,"lon":139.834716},{"name":"葛飾区社会福祉協議会","province":"東京都","city":"葛飾区","address":"葛飾区堀切3-34-1地域福祉・障害者センター3階","lat":35.744335,"lon":139.834522},{"name":"あさひ　第一西亀有寮","province":"東京都","city":"葛飾区","address":"葛飾区西亀有2-33-14","lat":35.75999,"lon":139.83453},{"name":"あさひ　第１西水元寮","province":"東京都","city":"葛飾区","address":"葛飾区水元3-36-1","lat":35.78249,"lon":139.86322},{"name":"さくら金町ハウス","province":"東京都","city":"葛飾区","address":"葛飾区東水元3-4-5","lat":35.78334,"lon":139.86632},{"name":"金町荘","province":"東京都","city":"葛飾区","address":"葛飾区東金町5-39-7","lat":35.77842,"lon":139.88025},{"name":"立花荘","province":"東京都","city":"葛飾区","address":"葛飾区高砂2-15-3","lat":35.74993,"lon":139.86583},{"name":"第二立花荘","province":"東京都","city":"葛飾区","address":"葛飾区高砂3-28-7","lat":35.74727,"lon":139.86949},{"name":"第三立花荘","province":"東京都","city":"葛飾区","address":"葛飾区高砂3-28-8","lat":35.74727,"lon":139.86949},{"name":"青戸荘","province":"東京都","city":"葛飾区","address":"葛飾区青戸8-3-8","lat":35.75608,"lon":139.85005},{"name":"東京かつしか赤十字母子医療センター","province":"東京都","city":"葛飾区","address":"葛飾区新宿3-7-1","lat":35.76144,"lon":139.86259},{"name":"あさひ　第一西水元寮","province":"東京都","city":"葛飾区","address":"葛飾区西水元3-36-1","lat":35.78827,"lon":139.85216},{"name":"第一立花ホーム","province":"東京都","city":"葛飾区","address":"葛飾区立石8-48-27","lat":35.74033,"lon":139.85907},{"name":"青戸荘（日住）","province":"東京都","city":"葛飾区","address":"葛飾区青戸8-3-8","lat":35.75608,"lon":139.85005},{"name":"葛飾区社会福祉協議会","province":"東京都","city":"葛飾区","address":"葛飾区堀切3-34-1地域福祉・障害者センター3階","lat":35.74439,"lon":139.83444},{"name":"葛飾区地域活動支援センター","province":"東京都","city":"葛飾区","address":"東京都葛飾区堀切3丁目34-1","lat":35.74433541,"lon":139.83452211},{"name":"葛飾区自立訓練事業所","province":"東京都","city":"葛飾区","address":"東京都葛飾区堀切3丁目34-1","lat":35.74433541,"lon":139.83452211},{"name":"特定非営利活動法人むうこすもす","province":"東京都","city":"葛飾区","address":"東京都葛飾区東四つ木3丁目49-10","lat":35.73083441,"lon":139.84071673},{"name":"一般社団法人ライフステップグリーンカフェ","province":"東京都","city":"葛飾区","address":"東京都葛飾区新小岩1丁目49-2","lat":35.71571294,"lon":139.85965739},{"name":"あさひ　第一西水元寮","province":"東京都","city":"葛飾区","address":"葛飾区水元3-36-1","lat":35.78249,"lon":139.86322},{"name":"あさひ第一西水元寮","province":"東京都","city":"葛飾区","address":"葛飾区水元3-36-1","lat":35.78249,"lon":139.86322},{"name":"葛飾赤十字産院","province":"東京都","city":"葛飾区","address":"葛飾区立石5-11-12","lat":35.74238,"lon":139.84628},{"name":"あさひ　第１西水元寮","province":"東京都","city":"葛飾区","address":"葛飾区水元3-36-1","lat":35.78081,"lon":139.86134},{"name":"東京愛育苑ケアレジデンス","province":"東京都","city":"葛飾区","address":"葛飾区水元3-13-2","lat":35.782319,"lon":139.863493},{"name":"葛飾赤十字産院","province":"東京都","city":"葛飾区","address":"葛飾区立石5-11-12","lat":35.742474,"lon":139.846429},{"name":"葛飾区子ども発達センター","province":"東京都","city":"葛飾区","address":"葛飾区堀切3-34-1","lat":35.744335,"lon":139.834522},{"name":"葛飾荘","province":"東京都","city":"葛飾区","address":"東京都葛飾区","lat":35.74349358,"lon":139.84722071},{"name":"コーポ金町","province":"東京都","city":"葛飾区","address":"葛飾区東水元3-4-5","lat":35.783569,"lon":139.86596},{"name":"青戸荘","province":"東京都","city":"葛飾区","address":"葛飾区青戸8-3-8","lat":35.756184,"lon":139.849678},{"name":"金町荘","province":"東京都","city":"葛飾区","address":"葛飾区東金町5-39-7","lat":35.778655,"lon":139.880353},{"name":"立花荘","province":"東京都","city":"葛飾区","address":"葛飾区高砂2-15-3","lat":35.75006,"lon":139.865708},{"name":"第二立花荘","province":"東京都","city":"葛飾区","address":"葛飾区高砂3-28-7","lat":35.747371,"lon":139.869463},{"name":"第三立花荘","province":"東京都","city":"葛飾区","address":"葛飾区高砂3-28-8","lat":35.747402,"lon":139.86966},{"name":"あさひ　第１西水元寮","province":"東京都","city":"葛飾区","address":"葛飾区水元3-36-1","lat":35.781575,"lon":139.864568},{"name":"あさひ　第一西亀有寮","province":"東京都","city":"葛飾区","address":"葛飾区西亀有2-33-14","lat":35.759861,"lon":139.834716},{"name":"葛飾区社会福祉協議会","province":"東京都","city":"葛飾区","address":"葛飾区堀切3-34-1地域福祉・障害者センター3階","lat":35.744335,"lon":139.834522},{"name":"あさひ　第一西亀有寮","province":"東京都","city":"葛飾区","address":"葛飾区西亀有2-33-14","lat":35.75999,"lon":139.83453},{"name":"あさひ　第１西水元寮","province":"東京都","city":"葛飾区","address":"葛飾区水元3-36-1","lat":35.78249,"lon":139.86322},{"name":"さくら金町ハウス","province":"東京都","city":"葛飾区","address":"葛飾区東水元3-4-5","lat":35.78334,"lon":139.86632},{"name":"金町荘","province":"東京都","city":"葛飾区","address":"葛飾区東金町5-39-7","lat":35.77842,"lon":139.88025},{"name":"立花荘","province":"東京都","city":"葛飾区","address":"葛飾区高砂2-15-3","lat":35.74993,"lon":139.86583},{"name":"第二立花荘","province":"東京都","city":"葛飾区","address":"葛飾区高砂3-28-7","lat":35.74727,"lon":139.86949},{"name":"第三立花荘","province":"東京都","city":"葛飾区","address":"葛飾区高砂3-28-8","lat":35.74727,"lon":139.86949},{"name":"青戸荘","province":"東京都","city":"葛飾区","address":"葛飾区青戸8-3-8","lat":35.75608,"lon":139.85005},{"name":"東京かつしか赤十字母子医療センター","province":"東京都","city":"葛飾区","address":"葛飾区新宿3-7-1","lat":35.76144,"lon":139.86259},{"name":"あさひ　第一西水元寮","province":"東京都","city":"葛飾区","address":"葛飾区西水元3-36-1","lat":35.78827,"lon":139.85216},{"name":"第一立花ホーム","province":"東京都","city":"葛飾区","address":"葛飾区立石8-48-27","lat":35.74033,"lon":139.85907},{"name":"青戸荘（日住）","province":"東京都","city":"葛飾区","address":"葛飾区青戸8-3-8","lat":35.75608,"lon":139.85005},{"name":"葛飾区社会福祉協議会","province":"東京都","city":"葛飾区","address":"葛飾区堀切3-34-1地域福祉・障害者センター3階","lat":35.74439,"lon":139.83444},{"name":"葛飾区地域活動支援センター","province":"東京都","city":"葛飾区","address":"東京都葛飾区堀切3丁目34-1","lat":35.74433541,"lon":139.83452211},{"name":"葛飾区自立訓練事業所","province":"東京都","city":"葛飾区","address":"東京都葛飾区堀切3丁目34-1","lat":35.74433541,"lon":139.83452211},{"name":"特定非営利活動法人むうこすもす","province":"東京都","city":"葛飾区","address":"東京都葛飾区東四つ木3丁目49-10","lat":35.73083441,"lon":139.84071673},{"name":"一般社団法人ライフステップグリーンカフェ","province":"東京都","city":"葛飾区","address":"東京都葛飾区新小岩1丁目49-2","lat":35.71571294,"lon":139.85965739},{"name":"あさひ　第一西水元寮","province":"東京都","city":"葛飾区","address":"葛飾区水元3-36-1","lat":35.78249,"lon":139.86322},{"name":"あさひ第一西水元寮","province":"東京都","city":"葛飾区","address":"葛飾区水元3-36-1","lat":35.78249,"lon":139.86322},{"name":"葛飾赤十字産院","province":"東京都","city":"葛飾区","address":"葛飾区立石5-11-12","lat":35.74238,"lon":139.84628},{"name":"あさひ　第１西水元寮","province":"東京都","city":"葛飾区","address":"葛飾区水元3-36-1","lat":35.78081,"lon":139.86134},{"name":"東京愛育苑ケアレジデンス","province":"東京都","city":"葛飾区","address":"葛飾区水元3-13-2","lat":35.782319,"lon":139.863493},{"name":"葛飾赤十字産院","province":"東京都","city":"葛飾区","address":"葛飾区立石5-11-12","lat":35.742474,"lon":139.846429},{"name":"葛飾区子ども発達センター","province":"東京都","city":"葛飾区","address":"葛飾区堀切3-34-1","lat":35.744335,"lon":139.834522},{"name":"葛飾荘","province":"東京都","city":"葛飾区","address":"東京都葛飾区","lat":35.74349358,"lon":139.84722071},{"name":"コーポ金町","province":"東京都","city":"葛飾区","address":"葛飾区東水元3-4-5","lat":35.783569,"lon":139.86596},{"name":"青戸荘","province":"東京都","city":"葛飾区","address":"葛飾区青戸8-3-8","lat":35.756184,"lon":139.849678},{"name":"金町荘","province":"東京都","city":"葛飾区","address":"葛飾区東金町5-39-7","lat":35.778655,"lon":139.880353},{"name":"立花荘","province":"東京都","city":"葛飾区","address":"葛飾区高砂2-15-3","lat":35.75006,"lon":139.865708},{"name":"第二立花荘","province":"東京都","city":"葛飾区","address":"葛飾区高砂3-28-7","lat":35.747371,"lon":139.869463},{"name":"第三立花荘","province":"東京都","city":"葛飾区","address":"葛飾区高砂3-28-8","lat":35.747402,"lon":139.86966},{"name":"あさひ　第１西水元寮","province":"東京都","city":"葛飾区","address":"葛飾区水元3-36-1","lat":35.781575,"lon":139.864568},{"name":"あさひ　第一西亀有寮","province":"東京都","city":"葛飾区","address":"葛飾区西亀有2-33-14","lat":35.759861,"lon":139.834716},{"name":"葛飾区社会福祉協議会","province":"東京都","city":"葛飾区","address":"葛飾区堀切3-34-1地域福祉・障害者センター3階","lat":35.744335,"lon":139.834522},{"name":"あさひ　第一西亀有寮","province":"東京都","city":"葛飾区","address":"葛飾区西亀有2-33-14","lat":35.75999,"lon":139.83453},{"name":"あさひ　第１西水元寮","province":"東京都","city":"葛飾区","address":"葛飾区水元3-36-1","lat":35.78249,"lon":139.86322},{"name":"さくら金町ハウス","province":"東京都","city":"葛飾区","address":"葛飾区東水元3-4-5","lat":35.78334,"lon":139.86632},{"name":"金町荘","province":"東京都","city":"葛飾区","address":"葛飾区東金町5-39-7","lat":35.77842,"lon":139.88025},{"name":"立花荘","province":"東京都","city":"葛飾区","address":"葛飾区高砂2-15-3","lat":35.74993,"lon":139.86583},{"name":"第二立花荘","province":"東京都","city":"葛飾区","address":"葛飾区高砂3-28-7","lat":35.74727,"lon":139.86949},{"name":"第三立花荘","province":"東京都","city":"葛飾区","address":"葛飾区高砂3-28-8","lat":35.74727,"lon":139.86949},{"name":"青戸荘","province":"東京都","city":"葛飾区","address":"葛飾区青戸8-3-8","lat":35.75608,"lon":139.85005},{"name":"東京かつしか赤十字母子医療センター","province":"東京都","city":"葛飾区","address":"葛飾区新宿3-7-1","lat":35.76144,"lon":139.86259},{"name":"あさひ　第一西水元寮","province":"東京都","city":"葛飾区","address":"葛飾区西水元3-36-1","lat":35.78827,"lon":139.85216},{"name":"第一立花ホーム","province":"東京都","city":"葛飾区","address":"葛飾区立石8-48-27","lat":35.74033,"lon":139.85907},{"name":"青戸荘（日住）","province":"東京都","city":"葛飾区","address":"葛飾区青戸8-3-8","lat":35.75608,"lon":139.85005},{"name":"葛飾区社会福祉協議会","province":"東京都","city":"葛飾区","address":"葛飾区堀切3-34-1地域福祉・障害者センター3階","lat":35.74439,"lon":139.83444},{"name":"葛飾区地域活動支援センター","province":"東京都","city":"葛飾区","address":"東京都葛飾区堀切3丁目34-1","lat":35.74433541,"lon":139.83452211},{"name":"葛飾区自立訓練事業所","province":"東京都","city":"葛飾区","address":"東京都葛飾区堀切3丁目34-1","lat":35.74433541,"lon":139.83452211},{"name":"特定非営利活動法人むうこすもす","province":"東京都","city":"葛飾区","address":"東京都葛飾区東四つ木3丁目49-10","lat":35.73083441,"lon":139.84071673},{"name":"一般社団法人ライフステップグリーンカフェ","province":"東京都","city":"葛飾区","address":"東京都葛飾区新小岩1丁目49-2","lat":35.71571294,"lon":139.85965739},{"name":"あさひ　第一西水元寮","province":"東京都","city":"葛飾区","address":"葛飾区水元3-36-1","lat":35.78249,"lon":139.86322},{"name":"あさひ第一西水元寮","province":"東京都","city":"葛飾区","address":"葛飾区水元3-36-1","lat":35.78249,"lon":139.86322},{"name":"葛飾赤十字産院","province":"東京都","city":"葛飾区","address":"葛飾区立石5-11-12","lat":35.74238,"lon":139.84628},{"name":"あさひ　第１西水元寮","province":"東京都","city":"葛飾区","address":"葛飾区水元3-36-1","lat":35.78081,"lon":139.86134},{"name":"東京愛育苑ケアレジデンス","province":"東京都","city":"葛飾区","address":"葛飾区水元3-13-2","lat":35.782319,"lon":139.863493},{"name":"葛飾赤十字産院","province":"東京都","city":"葛飾区","address":"葛飾区立石5-11-12","lat":35.742474,"lon":139.846429},{"name":"葛飾区子ども発達センター","province":"東京都","city":"葛飾区","address":"葛飾区堀切3-34-1","lat":35.744335,"lon":139.834522},{"name":"葛飾荘","province":"東京都","city":"葛飾区","address":"東京都葛飾区","lat":35.74349358,"lon":139.84722071},{"name":"コーポ金町","province":"東京都","city":"葛飾区","address":"葛飾区東水元3-4-5","lat":35.783569,"lon":139.86596},{"name":"青戸荘","province":"東京都","city":"葛飾区","address":"葛飾区青戸8-3-8","lat":35.756184,"lon":139.849678},{"name":"金町荘","province":"東京都","city":"葛飾区","address":"葛飾区東金町5-39-7","lat":35.778655,"lon":139.880353},{"name":"立花荘","province":"東京都","city":"葛飾区","address":"葛飾区高砂2-15-3","lat":35.75006,"lon":139.865708},{"name":"第二立花荘","province":"東京都","city":"葛飾区","address":"葛飾区高砂3-28-7","lat":35.747371,"lon":139.869463},{"name":"第三立花荘","province":"東京都","city":"葛飾区","address":"葛飾区高砂3-28-8","lat":35.747402,"lon":139.86966},{"name":"あさひ　第１西水元寮","province":"東京都","city":"葛飾区","address":"葛飾区水元3-36-1","lat":35.781575,"lon":139.864568},{"name":"あさひ　第一西亀有寮","province":"東京都","city":"葛飾区","address":"葛飾区西亀有2-33-14","lat":35.759861,"lon":139.834716},{"name":"葛飾区社会福祉協議会","province":"東京都","city":"葛飾区","address":"葛飾区堀切3-34-1地域福祉・障害者センター3階","lat":35.744335,"lon":139.834522},{"name":"あさひ　第一西亀有寮","province":"東京都","city":"葛飾区","address":"葛飾区西亀有2-33-14","lat":35.75999,"lon":139.83453},{"name":"あさひ　第１西水元寮","province":"東京都","city":"葛飾区","address":"葛飾区水元3-36-1","lat":35.78249,"lon":139.86322},{"name":"さくら金町ハウス","province":"東京都","city":"葛飾区","address":"葛飾区東水元3-4-5","lat":35.78334,"lon":139.86632},{"name":"金町荘","province":"東京都","city":"葛飾区","address":"葛飾区東金町5-39-7","lat":35.77842,"lon":139.88025},{"name":"立花荘","province":"東京都","city":"葛飾区","address":"葛飾区高砂2-15-3","lat":35.74993,"lon":139.86583},{"name":"第二立花荘","province":"東京都","city":"葛飾区","address":"葛飾区高砂3-28-7","lat":35.74727,"lon":139.86949},{"name":"第三立花荘","province":"東京都","city":"葛飾区","address":"葛飾区高砂3-28-8","lat":35.74727,"lon":139.86949},{"name":"青戸荘","province":"東京都","city":"葛飾区","address":"葛飾区青戸8-3-8","lat":35.75608,"lon":139.85005},{"name":"東京かつしか赤十字母子医療センター","province":"東京都","city":"葛飾区","address":"葛飾区新宿3-7-1","lat":35.76144,"lon":139.86259},{"name":"あさひ　第一西水元寮","province":"東京都","city":"葛飾区","address":"葛飾区西水元3-36-1","lat":35.78827,"lon":139.85216},{"name":"第一立花ホーム","province":"東京都","city":"葛飾区","address":"葛飾区立石8-48-27","lat":35.74033,"lon":139.85907},{"name":"青戸荘（日住）","province":"東京都","city":"葛飾区","address":"葛飾区青戸8-3-8","lat":35.75608,"lon":139.85005},{"name":"葛飾区社会福祉協議会","province":"東京都","city":"葛飾区","address":"葛飾区堀切3-34-1地域福祉・障害者センター3階","lat":35.74439,"lon":139.83444},{"name":"葛飾区地域活動支援センター","province":"東京都","city":"葛飾区","address":"東京都葛飾区堀切3丁目34-1","lat":35.74433541,"lon":139.83452211},{"name":"葛飾区自立訓練事業所","province":"東京都","city":"葛飾区","address":"東京都葛飾区堀切3丁目34-1","lat":35.74433541,"lon":139.83452211},{"name":"特定非営利活動法人むうこすもす","province":"東京都","city":"葛飾区","address":"東京都葛飾区東四つ木3丁目49-10","lat":35.73083441,"lon":139.84071673},{"name":"一般社団法人ライフステップグリーンカフェ","province":"東京都","city":"葛飾区","address":"東京都葛飾区新小岩1丁目49-2","lat":35.71571294,"lon":139.85965739},{"name":"あさひ　第一西水元寮","province":"東京都","city":"葛飾区","address":"葛飾区水元3-36-1","lat":35.78249,"lon":139.86322},{"name":"あさひ第一西水元寮","province":"東京都","city":"葛飾区","address":"葛飾区水元3-36-1","lat":35.78249,"lon":139.86322},{"name":"葛飾赤十字産院","province":"東京都","city":"葛飾区","address":"葛飾区立石5-11-12","lat":35.74238,"lon":139.84628},{"name":"あさひ　第１西水元寮","province":"東京都","city":"葛飾区","address":"葛飾区水元3-36-1","lat":35.78081,"lon":139.86134},{"name":"東京愛育苑ケアレジデンス","province":"東京都","city":"葛飾区","address":"葛飾区水元3-13-2","lat":35.782319,"lon":139.863493},{"name":"葛飾赤十字産院","province":"東京都","city":"葛飾区","address":"葛飾区立石5-11-12","lat":35.742474,"lon":139.846429},{"name":"葛飾区子ども発達センター","province":"東京都","city":"葛飾区","address":"葛飾区堀切3-34-1","lat":35.744335,"lon":139.834522},{"name":"葛飾荘","province":"東京都","city":"葛飾区","address":"東京都葛飾区","lat":35.74349358,"lon":139.84722071},{"name":"コーポ金町","province":"東京都","city":"葛飾区","address":"葛飾区東水元3-4-5","lat":35.783569,"lon":139.86596},{"name":"青戸荘","province":"東京都","city":"葛飾区","address":"葛飾区青戸8-3-8","lat":35.756184,"lon":139.849678},{"name":"金町荘","province":"東京都","city":"葛飾区","address":"葛飾区東金町5-39-7","lat":35.778655,"lon":139.880353},{"name":"立花荘","province":"東京都","city":"葛飾区","address":"葛飾区高砂2-15-3","lat":35.75006,"lon":139.865708},{"name":"第二立花荘","province":"東京都","city":"葛飾区","address":"葛飾区高砂3-28-7","lat":35.747371,"lon":139.869463},{"name":"第三立花荘","province":"東京都","city":"葛飾区","address":"葛飾区高砂3-28-8","lat":35.747402,"lon":139.86966},{"name":"あさひ　第１西水元寮","province":"東京都","city":"葛飾区","address":"葛飾区水元3-36-1","lat":35.781575,"lon":139.864568},{"name":"あさひ　第一西亀有寮","province":"東京都","city":"葛飾区","address":"葛飾区西亀有2-33-14","lat":35.759861,"lon":139.834716},{"name":"葛飾区社会福祉協議会","province":"東京都","city":"葛飾区","address":"葛飾区堀切3-34-1地域福祉・障害者センター3階","lat":35.744335,"lon":139.834522},{"name":"あさひ　第一西亀有寮","province":"東京都","city":"葛飾区","address":"葛飾区西亀有2-33-14","lat":35.75999,"lon":139.83453},{"name":"あさひ　第１西水元寮","province":"東京都","city":"葛飾区","address":"葛飾区水元3-36-1","lat":35.78249,"lon":139.86322},{"name":"さくら金町ハウス","province":"東京都","city":"葛飾区","address":"葛飾区東水元3-4-5","lat":35.78334,"lon":139.86632},{"name":"金町荘","province":"東京都","city":"葛飾区","address":"葛飾区東金町5-39-7","lat":35.77842,"lon":139.88025},{"name":"立花荘","province":"東京都","city":"葛飾区","address":"葛飾区高砂2-15-3","lat":35.74993,"lon":139.86583},{"name":"第二立花荘","province":"東京都","city":"葛飾区","address":"葛飾区高砂3-28-7","lat":35.74727,"lon":139.86949},{"name":"第三立花荘","province":"東京都","city":"葛飾区","address":"葛飾区高砂3-28-8","lat":35.74727,"lon":139.86949},{"name":"青戸荘","province":"東京都","city":"葛飾区","address":"葛飾区青戸8-3-8","lat":35.75608,"lon":139.85005},{"name":"東京かつしか赤十字母子医療センター","province":"東京都","city":"葛飾区","address":"葛飾区新宿3-7-1","lat":35.76144,"lon":139.86259},{"name":"あさひ　第一西水元寮","province":"東京都","city":"葛飾区","address":"葛飾区西水元3-36-1","lat":35.78827,"lon":139.85216},{"name":"第一立花ホーム","province":"東京都","city":"葛飾区","address":"葛飾区立石8-48-27","lat":35.74033,"lon":139.85907},{"name":"青戸荘（日住）","province":"東京都","city":"葛飾区","address":"葛飾区青戸8-3-8","lat":35.75608,"lon":139.85005},{"name":"葛飾区社会福祉協議会","province":"東京都","city":"葛飾区","address":"葛飾区堀切3-34-1地域福祉・障害者センター3階","lat":35.74439,"lon":139.83444},{"name":"葛飾区地域活動支援センター","province":"東京都","city":"葛飾区","address":"東京都葛飾区堀切3丁目34-1","lat":35.74433541,"lon":139.83452211},{"name":"葛飾区自立訓練事業所","province":"東京都","city":"葛飾区","address":"東京都葛飾区堀切3丁目34-1","lat":35.74433541,"lon":139.83452211},{"name":"特定非営利活動法人むうこすもす","province":"東京都","city":"葛飾区","address":"東京都葛飾区東四つ木3丁目49-10","lat":35.73083441,"lon":139.84071673},{"name":"一般社団法人ライフステップグリーンカフェ","province":"東京都","city":"葛飾区","address":"東京都葛飾区新小岩1丁目49-2","lat":35.71571294,"lon":139.85965739},{"name":"あさひ　第一西水元寮","province":"東京都","city":"葛飾区","address":"葛飾区水元3-36-1","lat":35.78249,"lon":139.86322},{"name":"あさひ第一西水元寮","province":"東京都","city":"葛飾区","address":"葛飾区水元3-36-1","lat":35.78249,"lon":139.86322},{"name":"葛飾赤十字産院","province":"東京都","city":"葛飾区","address":"葛飾区立石5-11-12","lat":35.74238,"lon":139.84628},{"name":"あさひ　第１西水元寮","province":"東京都","city":"葛飾区","address":"葛飾区水元3-36-1","lat":35.78081,"lon":139.86134},{"name":"東京愛育苑ケアレジデンス","province":"東京都","city":"葛飾区","address":"葛飾区水元3-13-2","lat":35.782319,"lon":139.863493},{"name":"葛飾赤十字産院","province":"東京都","city":"葛飾区","address":"葛飾区立石5-11-12","lat":35.742474,"lon":139.846429},{"name":"葛飾区子ども発達センター","province":"東京都","city":"葛飾区","address":"葛飾区堀切3-34-1","lat":35.744335,"lon":139.834522},{"name":"葛飾荘","province":"東京都","city":"葛飾区","address":"東京都葛飾区","lat":35.74349358,"lon":139.84722071},{"name":"コーポ金町","province":"東京都","city":"葛飾区","address":"葛飾区東水元3-4-5","lat":35.783569,"lon":139.86596},{"name":"青戸荘","province":"東京都","city":"葛飾区","address":"葛飾区青戸8-3-8","lat":35.756184,"lon":139.849678},{"name":"金町荘","province":"東京都","city":"葛飾区","address":"葛飾区東金町5-39-7","lat":35.778655,"lon":139.880353},{"name":"立花荘","province":"東京都","city":"葛飾区","address":"葛飾区高砂2-15-3","lat":35.75006,"lon":139.865708},{"name":"第二立花荘","province":"東京都","city":"葛飾区","address":"葛飾区高砂3-28-7","lat":35.747371,"lon":139.869463},{"name":"第三立花荘","province":"東京都","city":"葛飾区","address":"葛飾区高砂3-28-8","lat":35.747402,"lon":139.86966},{"name":"あさひ　第１西水元寮","province":"東京都","city":"葛飾区","address":"葛飾区水元3-36-1","lat":35.781575,"lon":139.864568},{"name":"あさひ　第一西亀有寮","province":"東京都","city":"葛飾区","address":"葛飾区西亀有2-33-14","lat":35.759861,"lon":139.834716},{"name":"葛飾区社会福祉協議会","province":"東京都","city":"葛飾区","address":"葛飾区堀切3-34-1地域福祉・障害者センター3階","lat":35.744335,"lon":139.834522},{"name":"あさひ　第一西亀有寮","province":"東京都","city":"葛飾区","address":"葛飾区西亀有2-33-14","lat":35.75999,"lon":139.83453},{"name":"あさひ　第１西水元寮","province":"東京都","city":"葛飾区","address":"葛飾区水元3-36-1","lat":35.78249,"lon":139.86322},{"name":"さくら金町ハウス","province":"東京都","city":"葛飾区","address":"葛飾区東水元3-4-5","lat":35.78334,"lon":139.86632},{"name":"金町荘","province":"東京都","city":"葛飾区","address":"葛飾区東金町5-39-7","lat":35.77842,"lon":139.88025},{"name":"立花荘","province":"東京都","city":"葛飾区","address":"葛飾区高砂2-15-3","lat":35.74993,"lon":139.86583},{"name":"第二立花荘","province":"東京都","city":"葛飾区","address":"葛飾区高砂3-28-7","lat":35.74727,"lon":139.86949},{"name":"第三立花荘","province":"東京都","city":"葛飾区","address":"葛飾区高砂3-28-8","lat":35.74727,"lon":139.86949},{"name":"青戸荘","province":"東京都","city":"葛飾区","address":"葛飾区青戸8-3-8","lat":35.75608,"lon":139.85005},{"name":"東京かつしか赤十字母子医療センター","province":"東京都","city":"葛飾区","address":"葛飾区新宿3-7-1","lat":35.76144,"lon":139.86259},{"name":"あさひ　第一西水元寮","province":"東京都","city":"葛飾区","address":"葛飾区西水元3-36-1","lat":35.78827,"lon":139.85216},{"name":"第一立花ホーム","province":"東京都","city":"葛飾区","address":"葛飾区立石8-48-27","lat":35.74033,"lon":139.85907},{"name":"青戸荘（日住）","province":"東京都","city":"葛飾区","address":"葛飾区青戸8-3-8","lat":35.75608,"lon":139.85005},{"name":"葛飾区社会福祉協議会","province":"東京都","city":"葛飾区","address":"葛飾区堀切3-34-1地域福祉・障害者センター3階","lat":35.74439,"lon":139.83444},{"name":"葛飾区地域活動支援センター","province":"東京都","city":"葛飾区","address":"東京都葛飾区堀切3丁目34-1","lat":35.74433541,"lon":139.83452211},{"name":"葛飾区自立訓練事業所","province":"東京都","city":"葛飾区","address":"東京都葛飾区堀切3丁目34-1","lat":35.74433541,"lon":139.83452211},{"name":"特定非営利活動法人むうこすもす","province":"東京都","city":"葛飾区","address":"東京都葛飾区東四つ木3丁目49-10","lat":35.73083441,"lon":139.84071673},{"name":"一般社団法人ライフステップグリーンカフェ","province":"東京都","city":"葛飾区","address":"東京都葛飾区新小岩1丁目49-2","lat":35.71571294,"lon":139.85965739},{"name":"あさひ　第一西水元寮","province":"東京都","city":"葛飾区","address":"葛飾区水元3-36-1","lat":35.78249,"lon":139.86322},{"name":"あさひ第一西水元寮","province":"東京都","city":"葛飾区","address":"葛飾区水元3-36-1","lat":35.78249,"lon":139.86322},{"name":"葛飾赤十字産院","province":"東京都","city":"葛飾区","address":"葛飾区立石5-11-12","lat":35.74238,"lon":139.84628},{"name":"あさひ　第１西水元寮","province":"東京都","city":"葛飾区","address":"葛飾区水元3-36-1","lat":35.78081,"lon":139.86134},{"name":"東京愛育苑ケアレジデンス","province":"東京都","city":"葛飾区","address":"葛飾区水元3-13-2","lat":35.782319,"lon":139.863493},{"name":"葛飾赤十字産院","province":"東京都","city":"葛飾区","address":"葛飾区立石5-11-12","lat":35.742474,"lon":139.846429},{"name":"葛飾区子ども発達センター","province":"東京都","city":"葛飾区","address":"葛飾区堀切3-34-1","lat":35.744335,"lon":139.834522},{"name":"葛飾荘","province":"東京都","city":"葛飾区","address":"東京都葛飾区","lat":35.74349358,"lon":139.84722071},{"name":"コーポ金町","province":"東京都","city":"葛飾区","address":"葛飾区東水元3-4-5","lat":35.783569,"lon":139.86596},{"name":"青戸荘","province":"東京都","city":"葛飾区","address":"葛飾区青戸8-3-8","lat":35.756184,"lon":139.849678},{"name":"金町荘","province":"東京都","city":"葛飾区","address":"葛飾区東金町5-39-7","lat":35.778655,"lon":139.880353},{"name":"立花荘","province":"東京都","city":"葛飾区","address":"葛飾区高砂2-15-3","lat":35.75006,"lon":139.865708},{"name":"第二立花荘","province":"東京都","city":"葛飾区","address":"葛飾区高砂3-28-7","lat":35.747371,"lon":139.869463},{"name":"第三立花荘","province":"東京都","city":"葛飾区","address":"葛飾区高砂3-28-8","lat":35.747402,"lon":139.86966},{"name":"あさひ　第１西水元寮","province":"東京都","city":"葛飾区","address":"葛飾区水元3-36-1","lat":35.781575,"lon":139.864568},{"name":"あさひ　第一西亀有寮","province":"東京都","city":"葛飾区","address":"葛飾区西亀有2-33-14","lat":35.759861,"lon":139.834716},{"name":"葛飾区社会福祉協議会","province":"東京都","city":"葛飾区","address":"葛飾区堀切3-34-1地域福祉・障害者センター3階","lat":35.744335,"lon":139.834522},{"name":"あさひ　第一西亀有寮","province":"東京都","city":"葛飾区","address":"葛飾区西亀有2-33-14","lat":35.75999,"lon":139.83453},{"name":"あさひ　第１西水元寮","province":"東京都","city":"葛飾区","address":"葛飾区水元3-36-1","lat":35.78249,"lon":139.86322},{"name":"さくら金町ハウス","province":"東京都","city":"葛飾区","address":"葛飾区東水元3-4-5","lat":35.78334,"lon":139.86632},{"name":"金町荘","province":"東京都","city":"葛飾区","address":"葛飾区東金町5-39-7","lat":35.77842,"lon":139.88025},{"name":"立花荘","province":"東京都","city":"葛飾区","address":"葛飾区高砂2-15-3","lat":35.74993,"lon":139.86583},{"name":"第二立花荘","province":"東京都","city":"葛飾区","address":"葛飾区高砂3-28-7","lat":35.74727,"lon":139.86949},{"name":"第三立花荘","province":"東京都","city":"葛飾区","address":"葛飾区高砂3-28-8","lat":35.74727,"lon":139.86949},{"name":"青戸荘","province":"東京都","city":"葛飾区","address":"葛飾区青戸8-3-8","lat":35.75608,"lon":139.85005},{"name":"東京かつしか赤十字母子医療センター","province":"東京都","city":"葛飾区","address":"葛飾区新宿3-7-1","lat":35.76144,"lon":139.86259},{"name":"あさひ　第一西水元寮","province":"東京都","city":"葛飾区","address":"葛飾区西水元3-36-1","lat":35.78827,"lon":139.85216},{"name":"第一立花ホーム","province":"東京都","city":"葛飾区","address":"葛飾区立石8-48-27","lat":35.74033,"lon":139.85907},{"name":"青戸荘（日住）","province":"東京都","city":"葛飾区","address":"葛飾区青戸8-3-8","lat":35.75608,"lon":139.85005},{"name":"葛飾区社会福祉協議会","province":"東京都","city":"葛飾区","address":"葛飾区堀切3-34-1地域福祉・障害者センター3階","lat":35.74439,"lon":139.83444},{"name":"葛飾区地域活動支援センター","province":"東京都","city":"葛飾区","address":"東京都葛飾区堀切3丁目34-1","lat":35.74433541,"lon":139.83452211},{"name":"葛飾区自立訓練事業所","province":"東京都","city":"葛飾区","address":"東京都葛飾区堀切3丁目34-1","lat":35.74433541,"lon":139.83452211},{"name":"特定非営利活動法人むうこすもす","province":"東京都","city":"葛飾区","address":"東京都葛飾区東四つ木3丁目49-10","lat":35.73083441,"lon":139.84071673},{"name":"一般社団法人ライフステップグリーンカフェ","province":"東京都","city":"葛飾区","address":"東京都葛飾区新小岩1丁目49-2","lat":35.71571294,"lon":139.85965739},{"name":"あさひ　第一西水元寮","province":"東京都","city":"葛飾区","address":"葛飾区水元3-36-1","lat":35.78249,"lon":139.86322},{"name":"あさひ第一西水元寮","province":"東京都","city":"葛飾区","address":"葛飾区水元3-36-1","lat":35.78249,"lon":139.86322},{"name":"葛飾赤十字産院","province":"東京都","city":"葛飾区","address":"葛飾区立石5-11-12","lat":35.74238,"lon":139.84628},{"name":"あさひ　第１西水元寮","province":"東京都","city":"葛飾区","address":"葛飾区水元3-36-1","lat":35.78081,"lon":139.86134},{"name":"東京愛育苑ケアレジデンス","province":"東京都","city":"葛飾区","address":"葛飾区水元3-13-2","lat":35.782319,"lon":139.863493},{"name":"葛飾赤十字産院","province":"東京都","city":"葛飾区","address":"葛飾区立石5-11-12","lat":35.742474,"lon":139.846429},{"name":"葛飾区子ども発達センター","province":"東京都","city":"葛飾区","address":"葛飾区堀切3-34-1","lat":35.744335,"lon":139.834522},{"name":"葛飾荘","province":"東京都","city":"葛飾区","address":"東京都葛飾区","lat":35.74349358,"lon":139.84722071},{"name":"コーポ金町","province":"東京都","city":"葛飾区","address":"葛飾区東水元3-4-5","lat":35.783569,"lon":139.86596},{"name":"青戸荘","province":"東京都","city":"葛飾区","address":"葛飾区青戸8-3-8","lat":35.756184,"lon":139.849678},{"name":"金町荘","province":"東京都","city":"葛飾区","address":"葛飾区東金町5-39-7","lat":35.778655,"lon":139.880353},{"name":"立花荘","province":"東京都","city":"葛飾区","address":"葛飾区高砂2-15-3","lat":35.75006,"lon":139.865708},{"name":"第二立花荘","province":"東京都","city":"葛飾区","address":"葛飾区高砂3-28-7","lat":35.747371,"lon":139.869463},{"name":"第三立花荘","province":"東京都","city":"葛飾区","address":"葛飾区高砂3-28-8","lat":35.747402,"lon":139.86966},{"name":"あさひ　第１西水元寮","province":"東京都","city":"葛飾区","address":"葛飾区水元3-36-1","lat":35.781575,"lon":139.864568},{"name":"あさひ　第一西亀有寮","province":"東京都","city":"葛飾区","address":"葛飾区西亀有2-33-14","lat":35.759861,"lon":139.834716},{"name":"葛飾区社会福祉協議会","province":"東京都","city":"葛飾区","address":"葛飾区堀切3-34-1地域福祉・障害者センター3階","lat":35.744335,"lon":139.834522},{"name":"あさひ　第一西亀有寮","province":"東京都","city":"葛飾区","address":"葛飾区西亀有2-33-14","lat":35.75999,"lon":139.83453},{"name":"あさひ　第１西水元寮","province":"東京都","city":"葛飾区","address":"葛飾区水元3-36-1","lat":35.78249,"lon":139.86322},{"name":"さくら金町ハウス","province":"東京都","city":"葛飾区","address":"葛飾区東水元3-4-5","lat":35.78334,"lon":139.86632},{"name":"金町荘","province":"東京都","city":"葛飾区","address":"葛飾区東金町5-39-7","lat":35.77842,"lon":139.88025},{"name":"立花荘","province":"東京都","city":"葛飾区","address":"葛飾区高砂2-15-3","lat":35.74993,"lon":139.86583},{"name":"第二立花荘","province":"東京都","city":"葛飾区","address":"葛飾区高砂3-28-7","lat":35.74727,"lon":139.86949},{"name":"第三立花荘","province":"東京都","city":"葛飾区","address":"葛飾区高砂3-28-8","lat":35.74727,"lon":139.86949},{"name":"青戸荘","province":"東京都","city":"葛飾区","address":"葛飾区青戸8-3-8","lat":35.75608,"lon":139.85005},{"name":"東京かつしか赤十字母子医療センター","province":"東京都","city":"葛飾区","address":"葛飾区新宿3-7-1","lat":35.76144,"lon":139.86259},{"name":"あさひ　第一西水元寮","province":"東京都","city":"葛飾区","address":"葛飾区西水元3-36-1","lat":35.78827,"lon":139.85216},{"name":"第一立花ホーム","province":"東京都","city":"葛飾区","address":"葛飾区立石8-48-27","lat":35.74033,"lon":139.85907},{"name":"青戸荘（日住）","province":"東京都","city":"葛飾区","address":"葛飾区青戸8-3-8","lat":35.75608,"lon":139.85005},{"name":"葛飾区社会福祉協議会","province":"東京都","city":"葛飾区","address":"葛飾区堀切3-34-1地域福祉・障害者センター3階","lat":35.74439,"lon":139.83444},{"name":"葛飾区地域活動支援センター","province":"東京都","city":"葛飾区","address":"東京都葛飾区堀切3丁目34-1","lat":35.74433541,"lon":139.83452211},{"name":"葛飾区自立訓練事業所","province":"東京都","city":"葛飾区","address":"東京都葛飾区堀切3丁目34-1","lat":35.74433541,"lon":139.83452211},{"name":"特定非営利活動法人むうこすもす","province":"東京都","city":"葛飾区","address":"東京都葛飾区東四つ木3丁目49-10","lat":35.73083441,"lon":139.84071673},{"name":"一般社団法人ライフステップグリーンカフェ","province":"東京都","city":"葛飾区","address":"東京都葛飾区新小岩1丁目49-2","lat":35.71571294,"lon":139.85965739},{"name":"あさひ　第一西水元寮","province":"東京都","city":"葛飾区","address":"葛飾区水元3-36-1","lat":35.78249,"lon":139.86322},{"name":"あさひ第一西水元寮","province":"東京都","city":"葛飾区","address":"葛飾区水元3-36-1","lat":35.78249,"lon":139.86322},{"name":"葛飾赤十字産院","province":"東京都","city":"葛飾区","address":"葛飾区立石5-11-12","lat":35.74238,"lon":139.84628},{"name":"あさひ　第１西水元寮","province":"東京都","city":"葛飾区","address":"葛飾区水元3-36-1","lat":35.78081,"lon":139.86134},{"name":"東京愛育苑ケアレジデンス","province":"東京都","city":"葛飾区","address":"葛飾区水元3-13-2","lat":35.782319,"lon":139.863493},{"name":"葛飾赤十字産院","province":"東京都","city":"葛飾区","address":"葛飾区立石5-11-12","lat":35.742474,"lon":139.846429},{"name":"葛飾区子ども発達センター","province":"東京都","city":"葛飾区","address":"葛飾区堀切3-34-1","lat":35.744335,"lon":139.834522},{"name":"葛飾荘","province":"東京都","city":"葛飾区","address":"東京都葛飾区","lat":35.74349358,"lon":139.84722071},{"name":"コーポ金町","province":"東京都","city":"葛飾区","address":"葛飾区東水元3-4-5","lat":35.783569,"lon":139.86596},{"name":"青戸荘","province":"東京都","city":"葛飾区","address":"葛飾区青戸8-3-8","lat":35.756184,"lon":139.849678},{"name":"金町荘","province":"東京都","city":"葛飾区","address":"葛飾区東金町5-39-7","lat":35.778655,"lon":139.880353},{"name":"立花荘","province":"東京都","city":"葛飾区","address":"葛飾区高砂2-15-3","lat":35.75006,"lon":139.865708},{"name":"第二立花荘","province":"東京都","city":"葛飾区","address":"葛飾区高砂3-28-7","lat":35.747371,"lon":139.869463},{"name":"第三立花荘","province":"東京都","city":"葛飾区","address":"葛飾区高砂3-28-8","lat":35.747402,"lon":139.86966},{"name":"あさひ　第１西水元寮","province":"東京都","city":"葛飾区","address":"葛飾区水元3-36-1","lat":35.781575,"lon":139.864568},{"name":"あさひ　第一西亀有寮","province":"東京都","city":"葛飾区","address":"葛飾区西亀有2-33-14","lat":35.759861,"lon":139.834716},{"name":"葛飾区社会福祉協議会","province":"東京都","city":"葛飾区","address":"葛飾区堀切3-34-1地域福祉・障害者センター3階","lat":35.744335,"lon":139.834522},{"name":"あさひ　第一西亀有寮","province":"東京都","city":"葛飾区","address":"葛飾区西亀有2-33-14","lat":35.75999,"lon":139.83453},{"name":"あさひ　第１西水元寮","province":"東京都","city":"葛飾区","address":"葛飾区水元3-36-1","lat":35.78249,"lon":139.86322},{"name":"さくら金町ハウス","province":"東京都","city":"葛飾区","address":"葛飾区東水元3-4-5","lat":35.78334,"lon":139.86632},{"name":"金町荘","province":"東京都","city":"葛飾区","address":"葛飾区東金町5-39-7","lat":35.77842,"lon":139.88025},{"name":"立花荘","province":"東京都","city":"葛飾区","address":"葛飾区高砂2-15-3","lat":35.74993,"lon":139.86583},{"name":"第二立花荘","province":"東京都","city":"葛飾区","address":"葛飾区高砂3-28-7","lat":35.74727,"lon":139.86949},{"name":"第三立花荘","province":"東京都","city":"葛飾区","address":"葛飾区高砂3-28-8","lat":35.74727,"lon":139.86949},{"name":"青戸荘","province":"東京都","city":"葛飾区","address":"葛飾区青戸8-3-8","lat":35.75608,"lon":139.85005},{"name":"東京かつしか赤十字母子医療センター","province":"東京都","city":"葛飾区","address":"葛飾区新宿3-7-1","lat":35.76144,"lon":139.86259},{"name":"あさひ　第一西水元寮","province":"東京都","city":"葛飾区","address":"葛飾区西水元3-36-1","lat":35.78827,"lon":139.85216},{"name":"第一立花ホーム","province":"東京都","city":"葛飾区","address":"葛飾区立石8-48-27","lat":35.74033,"lon":139.85907},{"name":"青戸荘（日住）","province":"東京都","city":"葛飾区","address":"葛飾区青戸8-3-8","lat":35.75608,"lon":139.85005},{"name":"葛飾区社会福祉協議会","province":"東京都","city":"葛飾区","address":"葛飾区堀切3-34-1地域福祉・障害者センター3階","lat":35.74439,"lon":139.83444},{"name":"葛飾区地域活動支援センター","province":"東京都","city":"葛飾区","address":"東京都葛飾区堀切3丁目34-1","lat":35.74433541,"lon":139.83452211},{"name":"葛飾区自立訓練事業所","province":"東京都","city":"葛飾区","address":"東京都葛飾区堀切3丁目34-1","lat":35.74433541,"lon":139.83452211},{"name":"特定非営利活動法人むうこすもす","province":"東京都","city":"葛飾区","address":"東京都葛飾区東四つ木3丁目49-10","lat":35.73083441,"lon":139.84071673},{"name":"一般社団法人ライフステップグリーンカフェ","province":"東京都","city":"葛飾区","address":"東京都葛飾区新小岩1丁目49-2","lat":35.71571294,"lon":139.85965739},{"name":"あさひ　第一西水元寮","province":"東京都","city":"葛飾区","address":"葛飾区水元3-36-1","lat":35.78249,"lon":139.86322},{"name":"あさひ第一西水元寮","province":"東京都","city":"葛飾区","address":"葛飾区水元3-36-1","lat":35.78249,"lon":139.86322},{"name":"葛飾赤十字産院","province":"東京都","city":"葛飾区","address":"葛飾区立石5-11-12","lat":35.74238,"lon":139.84628},{"name":"あさひ　第１西水元寮","province":"東京都","city":"葛飾区","address":"葛飾区水元3-36-1","lat":35.78081,"lon":139.86134},{"name":"東京愛育苑ケアレジデンス","province":"東京都","city":"葛飾区","address":"葛飾区水元3-13-2","lat":35.782319,"lon":139.863493},{"name":"葛飾赤十字産院","province":"東京都","city":"葛飾区","address":"葛飾区立石5-11-12","lat":35.742474,"lon":139.846429},{"name":"葛飾区子ども発達センター","province":"東京都","city":"葛飾区","address":"葛飾区堀切3-34-1","lat":35.744335,"lon":139.834522},{"name":"葛飾荘","province":"東京都","city":"葛飾区","address":"東京都葛飾区","lat":35.74349358,"lon":139.84722071},{"name":"コーポ金町","province":"東京都","city":"葛飾区","address":"葛飾区東水元3-4-5","lat":35.783569,"lon":139.86596},{"name":"青戸荘","province":"東京都","city":"葛飾区","address":"葛飾区青戸8-3-8","lat":35.756184,"lon":139.849678},{"name":"金町荘","province":"東京都","city":"葛飾区","address":"葛飾区東金町5-39-7","lat":35.778655,"lon":139.880353},{"name":"立花荘","province":"東京都","city":"葛飾区","address":"葛飾区高砂2-15-3","lat":35.75006,"lon":139.865708},{"name":"第二立花荘","province":"東京都","city":"葛飾区","address":"葛飾区高砂3-28-7","lat":35.747371,"lon":139.869463},{"name":"第三立花荘","province":"東京都","city":"葛飾区","address":"葛飾区高砂3-28-8","lat":35.747402,"lon":139.86966},{"name":"あさひ　第１西水元寮","province":"東京都","city":"葛飾区","address":"葛飾区水元3-36-1","lat":35.781575,"lon":139.864568},{"name":"あさひ　第一西亀有寮","province":"東京都","city":"葛飾区","address":"葛飾区西亀有2-33-14","lat":35.759861,"lon":139.834716},{"name":"葛飾区社会福祉協議会","province":"東京都","city":"葛飾区","address":"葛飾区堀切3-34-1地域福祉・障害者センター3階","lat":35.744335,"lon":139.834522},{"name":"あさひ　第一西亀有寮","province":"東京都","city":"葛飾区","address":"葛飾区西亀有2-33-14","lat":35.75999,"lon":139.83453},{"name":"あさひ　第１西水元寮","province":"東京都","city":"葛飾区","address":"葛飾区水元3-36-1","lat":35.78249,"lon":139.86322},{"name":"さくら金町ハウス","province":"東京都","city":"葛飾区","address":"葛飾区東水元3-4-5","lat":35.78334,"lon":139.86632},{"name":"金町荘","province":"東京都","city":"葛飾区","address":"葛飾区東金町5-39-7","lat":35.77842,"lon":139.88025},{"name":"立花荘","province":"東京都","city":"葛飾区","address":"葛飾区高砂2-15-3","lat":35.74993,"lon":139.86583},{"name":"第二立花荘","province":"東京都","city":"葛飾区","address":"葛飾区高砂3-28-7","lat":35.74727,"lon":139.86949},{"name":"第三立花荘","province":"東京都","city":"葛飾区","address":"葛飾区高砂3-28-8","lat":35.74727,"lon":139.86949},{"name":"青戸荘","province":"東京都","city":"葛飾区","address":"葛飾区青戸8-3-8","lat":35.75608,"lon":139.85005},{"name":"東京かつしか赤十字母子医療センター","province":"東京都","city":"葛飾区","address":"葛飾区新宿3-7-1","lat":35.76144,"lon":139.86259},{"name":"あさひ　第一西水元寮","province":"東京都","city":"葛飾区","address":"葛飾区西水元3-36-1","lat":35.78827,"lon":139.85216},{"name":"第一立花ホーム","province":"東京都","city":"葛飾区","address":"葛飾区立石8-48-27","lat":35.74033,"lon":139.85907},{"name":"青戸荘（日住）","province":"東京都","city":"葛飾区","address":"葛飾区青戸8-3-8","lat":35.75608,"lon":139.85005},{"name":"葛飾区社会福祉協議会","province":"東京都","city":"葛飾区","address":"葛飾区堀切3-34-1地域福祉・障害者センター3階","lat":35.74439,"lon":139.83444},{"name":"葛飾区地域活動支援センター","province":"東京都","city":"葛飾区","address":"東京都葛飾区堀切3丁目34-1","lat":35.74433541,"lon":139.83452211},{"name":"葛飾区自立訓練事業所","province":"東京都","city":"葛飾区","address":"東京都葛飾区堀切3丁目34-1","lat":35.74433541,"lon":139.83452211},{"name":"特定非営利活動法人むうこすもす","province":"東京都","city":"葛飾区","address":"東京都葛飾区東四つ木3丁目49-10","lat":35.73083441,"lon":139.84071673},{"name":"一般社団法人ライフステップグリーンカフェ","province":"東京都","city":"葛飾区","address":"東京都葛飾区新小岩1丁目49-2","lat":35.71571294,"lon":139.85965739},{"name":"あさひ　第一西水元寮","province":"東京都","city":"葛飾区","address":"葛飾区水元3-36-1","lat":35.78249,"lon":139.86322},{"name":"あさひ第一西水元寮","province":"東京都","city":"葛飾区","address":"葛飾区水元3-36-1","lat":35.78249,"lon":139.86322},{"name":"葛飾赤十字産院","province":"東京都","city":"葛飾区","address":"葛飾区立石5-11-12","lat":35.74238,"lon":139.84628},{"name":"あさひ　第１西水元寮","province":"東京都","city":"葛飾区","address":"葛飾区水元3-36-1","lat":35.78081,"lon":139.86134},{"name":"東京愛育苑ケアレジデンス","province":"東京都","city":"葛飾区","address":"葛飾区水元3-13-2","lat":35.782319,"lon":139.863493},{"name":"葛飾赤十字産院","province":"東京都","city":"葛飾区","address":"葛飾区立石5-11-12","lat":35.742474,"lon":139.846429},{"name":"葛飾区子ども発達センター","province":"東京都","city":"葛飾区","address":"葛飾区堀切3-34-1","lat":35.744335,"lon":139.834522},{"name":"葛飾荘","province":"東京都","city":"葛飾区","address":"東京都葛飾区","lat":35.74349358,"lon":139.84722071},{"name":"コーポ金町","province":"東京都","city":"葛飾区","address":"葛飾区東水元3-4-5","lat":35.783569,"lon":139.86596},{"name":"青戸荘","province":"東京都","city":"葛飾区","address":"葛飾区青戸8-3-8","lat":35.756184,"lon":139.849678},{"name":"金町荘","province":"東京都","city":"葛飾区","address":"葛飾区東金町5-39-7","lat":35.778655,"lon":139.880353},{"name":"立花荘","province":"東京都","city":"葛飾区","address":"葛飾区高砂2-15-3","lat":35.75006,"lon":139.865708},{"name":"第二立花荘","province":"東京都","city":"葛飾区","address":"葛飾区高砂3-28-7","lat":35.747371,"lon":139.869463},{"name":"第三立花荘","province":"東京都","city":"葛飾区","address":"葛飾区高砂3-28-8","lat":35.747402,"lon":139.86966},{"name":"あさひ　第１西水元寮","province":"東京都","city":"葛飾区","address":"葛飾区水元3-36-1","lat":35.781575,"lon":139.864568},{"name":"あさひ　第一西亀有寮","province":"東京都","city":"葛飾区","address":"葛飾区西亀有2-33-14","lat":35.759861,"lon":139.834716},{"name":"葛飾区社会福祉協議会","province":"東京都","city":"葛飾区","address":"葛飾区堀切3-34-1地域福祉・障害者センター3階","lat":35.744335,"lon":139.834522},{"name":"あさひ　第一西亀有寮","province":"東京都","city":"葛飾区","address":"葛飾区西亀有2-33-14","lat":35.75999,"lon":139.83453},{"name":"あさひ　第１西水元寮","province":"東京都","city":"葛飾区","address":"葛飾区水元3-36-1","lat":35.78249,"lon":139.86322},{"name":"さくら金町ハウス","province":"東京都","city":"葛飾区","address":"葛飾区東水元3-4-5","lat":35.78334,"lon":139.86632},{"name":"金町荘","province":"東京都","city":"葛飾区","address":"葛飾区東金町5-39-7","lat":35.77842,"lon":139.88025},{"name":"立花荘","province":"東京都","city":"葛飾区","address":"葛飾区高砂2-15-3","lat":35.74993,"lon":139.86583},{"name":"第二立花荘","province":"東京都","city":"葛飾区","address":"葛飾区高砂3-28-7","lat":35.74727,"lon":139.86949},{"name":"第三立花荘","province":"東京都","city":"葛飾区","address":"葛飾区高砂3-28-8","lat":35.74727,"lon":139.86949},{"name":"青戸荘","province":"東京都","city":"葛飾区","address":"葛飾区青戸8-3-8","lat":35.75608,"lon":139.85005},{"name":"東京かつしか赤十字母子医療センター","province":"東京都","city":"葛飾区","address":"葛飾区新宿3-7-1","lat":35.76144,"lon":139.86259},{"name":"あさひ　第一西水元寮","province":"東京都","city":"葛飾区","address":"葛飾区西水元3-36-1","lat":35.78827,"lon":139.85216},{"name":"第一立花ホーム","province":"東京都","city":"葛飾区","address":"葛飾区立石8-48-27","lat":35.74033,"lon":139.85907},{"name":"青戸荘（日住）","province":"東京都","city":"葛飾区","address":"葛飾区青戸8-3-8","lat":35.75608,"lon":139.85005},{"name":"葛飾区社会福祉協議会","province":"東京都","city":"葛飾区","address":"葛飾区堀切3-34-1地域福祉・障害者センター3階","lat":35.74439,"lon":139.83444},{"name":"葛飾区地域活動支援センター","province":"東京都","city":"葛飾区","address":"東京都葛飾区堀切3丁目34-1","lat":35.74433541,"lon":139.83452211},{"name":"葛飾区自立訓練事業所","province":"東京都","city":"葛飾区","address":"東京都葛飾区堀切3丁目34-1","lat":35.74433541,"lon":139.83452211},{"name":"特定非営利活動法人むうこすもす","province":"東京都","city":"葛飾区","address":"東京都葛飾区東四つ木3丁目49-10","lat":35.73083441,"lon":139.84071673},{"name":"一般社団法人ライフステップグリーンカフェ","province":"東京都","city":"葛飾区","address":"東京都葛飾区新小岩1丁目49-2","lat":35.71571294,"lon":139.85965739},{"name":"あさひ　第一西水元寮","province":"東京都","city":"葛飾区","address":"葛飾区水元3-36-1","lat":35.78249,"lon":139.86322},{"name":"あさひ第一西水元寮","province":"東京都","city":"葛飾区","address":"葛飾区水元3-36-1","lat":35.78249,"lon":139.86322},{"name":"葛飾赤十字産院","province":"東京都","city":"葛飾区","address":"葛飾区立石5-11-12","lat":35.74238,"lon":139.84628},{"name":"あさひ　第１西水元寮","province":"東京都","city":"葛飾区","address":"葛飾区水元3-36-1","lat":35.78081,"lon":139.86134},{"name":"東京愛育苑ケアレジデンス","province":"東京都","city":"葛飾区","address":"葛飾区水元3-13-2","lat":35.782319,"lon":139.863493},{"name":"葛飾赤十字産院","province":"東京都","city":"葛飾区","address":"葛飾区立石5-11-12","lat":35.742474,"lon":139.846429},{"name":"葛飾区子ども発達センター","province":"東京都","city":"葛飾区","address":"葛飾区堀切3-34-1","lat":35.744335,"lon":139.834522},{"name":"葛飾荘","province":"東京都","city":"葛飾区","address":"東京都葛飾区","lat":35.74349358,"lon":139.84722071},{"name":"コーポ金町","province":"東京都","city":"葛飾区","address":"葛飾区東水元3-4-5","lat":35.783569,"lon":139.86596},{"name":"青戸荘","province":"東京都","city":"葛飾区","address":"葛飾区青戸8-3-8","lat":35.756184,"lon":139.849678},{"name":"金町荘","province":"東京都","city":"葛飾区","address":"葛飾区東金町5-39-7","lat":35.778655,"lon":139.880353},{"name":"立花荘","province":"東京都","city":"葛飾区","address":"葛飾区高砂2-15-3","lat":35.75006,"lon":139.865708},{"name":"第二立花荘","province":"東京都","city":"葛飾区","address":"葛飾区高砂3-28-7","lat":35.747371,"lon":139.869463},{"name":"第三立花荘","province":"東京都","city":"葛飾区","address":"葛飾区高砂3-28-8","lat":35.747402,"lon":139.86966},{"name":"あさひ　第１西水元寮","province":"東京都","city":"葛飾区","address":"葛飾区水元3-36-1","lat":35.781575,"lon":139.864568},{"name":"あさひ　第一西亀有寮","province":"東京都","city":"葛飾区","address":"葛飾区西亀有2-33-14","lat":35.759861,"lon":139.834716},{"name":"葛飾区社会福祉協議会","province":"東京都","city":"葛飾区","address":"葛飾区堀切3-34-1地域福祉・障害者センター3階","lat":35.744335,"lon":139.834522},{"name":"あさひ　第一西亀有寮","province":"東京都","city":"葛飾区","address":"葛飾区西亀有2-33-14","lat":35.75999,"lon":139.83453},{"name":"あさひ　第１西水元寮","province":"東京都","city":"葛飾区","address":"葛飾区水元3-36-1","lat":35.78249,"lon":139.86322},{"name":"さくら金町ハウス","province":"東京都","city":"葛飾区","address":"葛飾区東水元3-4-5","lat":35.78334,"lon":139.86632},{"name":"金町荘","province":"東京都","city":"葛飾区","address":"葛飾区東金町5-39-7","lat":35.77842,"lon":139.88025},{"name":"立花荘","province":"東京都","city":"葛飾区","address":"葛飾区高砂2-15-3","lat":35.74993,"lon":139.86583},{"name":"第二立花荘","province":"東京都","city":"葛飾区","address":"葛飾区高砂3-28-7","lat":35.74727,"lon":139.86949},{"name":"第三立花荘","province":"東京都","city":"葛飾区","address":"葛飾区高砂3-28-8","lat":35.74727,"lon":139.86949},{"name":"青戸荘","province":"東京都","city":"葛飾区","address":"葛飾区青戸8-3-8","lat":35.75608,"lon":139.85005},{"name":"東京かつしか赤十字母子医療センター","province":"東京都","city":"葛飾区","address":"葛飾区新宿3-7-1","lat":35.76144,"lon":139.86259},{"name":"あさひ　第一西水元寮","province":"東京都","city":"葛飾区","address":"葛飾区西水元3-36-1","lat":35.78827,"lon":139.85216},{"name":"第一立花ホーム","province":"東京都","city":"葛飾区","address":"葛飾区立石8-48-27","lat":35.74033,"lon":139.85907},{"name":"青戸荘（日住）","province":"東京都","city":"葛飾区","address":"葛飾区青戸8-3-8","lat":35.75608,"lon":139.85005},{"name":"葛飾区社会福祉協議会","province":"東京都","city":"葛飾区","address":"葛飾区堀切3-34-1地域福祉・障害者センター3階","lat":35.74439,"lon":139.83444},{"name":"あさひ　第一西水元寮","province":"東京都","city":"葛飾区","address":"葛飾区水元3-36-1","lat":35.78249,"lon":139.86322},{"name":"あさひ第一西水元寮","province":"東京都","city":"葛飾区","address":"葛飾区水元3-36-1","lat":35.78249,"lon":139.86322},{"name":"葛飾赤十字産院","province":"東京都","city":"葛飾区","address":"葛飾区立石5-11-12","lat":35.74238,"lon":139.84628},{"name":"あさひ　第１西水元寮","province":"東京都","city":"葛飾区","address":"葛飾区水元3-36-1","lat":35.78081,"lon":139.86134},{"name":"東京愛育苑ケアレジデンス","province":"東京都","city":"葛飾区","address":"葛飾区水元3-13-2","lat":35.782319,"lon":139.863493},{"name":"葛飾赤十字産院","province":"東京都","city":"葛飾区","address":"葛飾区立石5-11-12","lat":35.742474,"lon":139.846429},{"name":"葛飾区子ども発達センター","province":"東京都","city":"葛飾区","address":"葛飾区堀切3-34-1","lat":35.744335,"lon":139.834522},{"name":"葛飾荘","province":"東京都","city":"葛飾区","address":"東京都葛飾区","lat":35.74349358,"lon":139.84722071},{"name":"コーポ金町","province":"東京都","city":"葛飾区","address":"葛飾区東水元3-4-5","lat":35.783569,"lon":139.86596},{"name":"青戸荘","province":"東京都","city":"葛飾区","address":"葛飾区青戸8-3-8","lat":35.756184,"lon":139.849678},{"name":"金町荘","province":"東京都","city":"葛飾区","address":"葛飾区東金町5-39-7","lat":35.778655,"lon":139.880353},{"name":"立花荘","province":"東京都","city":"葛飾区","address":"葛飾区高砂2-15-3","lat":35.75006,"lon":139.865708},{"name":"第二立花荘","province":"東京都","city":"葛飾区","address":"葛飾区高砂3-28-7","lat":35.747371,"lon":139.869463},{"name":"第三立花荘","province":"東京都","city":"葛飾区","address":"葛飾区高砂3-28-8","lat":35.747402,"lon":139.86966},{"name":"あさひ　第１西水元寮","province":"東京都","city":"葛飾区","address":"葛飾区水元3-36-1","lat":35.781575,"lon":139.864568},{"name":"あさひ　第一西亀有寮","province":"東京都","city":"葛飾区","address":"葛飾区西亀有2-33-14","lat":35.759861,"lon":139.834716},{"name":"葛飾区社会福祉協議会","province":"東京都","city":"葛飾区","address":"葛飾区堀切3-34-1地域福祉・障害者センター3階","lat":35.744335,"lon":139.834522},{"name":"あさひ　第一西亀有寮","province":"東京都","city":"葛飾区","address":"葛飾区西亀有2-33-14","lat":35.75999,"lon":139.83453},{"name":"あさひ　第１西水元寮","province":"東京都","city":"葛飾区","address":"葛飾区水元3-36-1","lat":35.78249,"lon":139.86322},{"name":"さくら金町ハウス","province":"東京都","city":"葛飾区","address":"葛飾区東水元3-4-5","lat":35.78334,"lon":139.86632},{"name":"金町荘","province":"東京都","city":"葛飾区","address":"葛飾区東金町5-39-7","lat":35.77842,"lon":139.88025},{"name":"立花荘","province":"東京都","city":"葛飾区","address":"葛飾区高砂2-15-3","lat":35.74993,"lon":139.86583},{"name":"第二立花荘","province":"東京都","city":"葛飾区","address":"葛飾区高砂3-28-7","lat":35.74727,"lon":139.86949},{"name":"第三立花荘","province":"東京都","city":"葛飾区","address":"葛飾区高砂3-28-8","lat":35.74727,"lon":139.86949},{"name":"青戸荘","province":"東京都","city":"葛飾区","address":"葛飾区青戸8-3-8","lat":35.75608,"lon":139.85005},{"name":"東京かつしか赤十字母子医療センター","province":"東京都","city":"葛飾区","address":"葛飾区新宿3-7-1","lat":35.76144,"lon":139.86259},{"name":"あさひ　第一西水元寮","province":"東京都","city":"葛飾区","address":"葛飾区西水元3-36-1","lat":35.78827,"lon":139.85216},{"name":"第一立花ホーム","province":"東京都","city":"葛飾区","address":"葛飾区立石8-48-27","lat":35.74033,"lon":139.85907},{"name":"青戸荘（日住）","province":"東京都","city":"葛飾区","address":"葛飾区青戸8-3-8","lat":35.75608,"lon":139.85005},{"name":"葛飾区社会福祉協議会","province":"東京都","city":"葛飾区","address":"葛飾区堀切3-34-1地域福祉・障害者センター3階","lat":35.74439,"lon":139.83444},{"name":"あさひ　第一西水元寮","province":"東京都","city":"葛飾区","address":"葛飾区水元3-36-1","lat":35.78249,"lon":139.86322},{"name":"あさひ第一西水元寮","province":"東京都","city":"葛飾区","address":"葛飾区水元3-36-1","lat":35.78249,"lon":139.86322},{"name":"葛飾赤十字産院","province":"東京都","city":"葛飾区","address":"葛飾区立石5-11-12","lat":35.74238,"lon":139.84628},{"name":"あさひ　第１西水元寮","province":"東京都","city":"葛飾区","address":"葛飾区水元3-36-1","lat":35.78081,"lon":139.86134},{"name":"東京愛育苑ケアレジデンス","province":"東京都","city":"葛飾区","address":"葛飾区水元3-13-2","lat":35.782319,"lon":139.863493},{"name":"葛飾赤十字産院","province":"東京都","city":"葛飾区","address":"葛飾区立石5-11-12","lat":35.742474,"lon":139.846429},{"name":"葛飾区子ども発達センター","province":"東京都","city":"葛飾区","address":"葛飾区堀切3-34-1","lat":35.744335,"lon":139.834522},{"name":"葛飾荘","province":"東京都","city":"葛飾区","address":"東京都葛飾区","lat":35.74349358,"lon":139.84722071},{"name":"コーポ金町","province":"東京都","city":"葛飾区","address":"葛飾区東水元3-4-5","lat":35.783569,"lon":139.86596},{"name":"青戸荘","province":"東京都","city":"葛飾区","address":"葛飾区青戸8-3-8","lat":35.756184,"lon":139.849678},{"name":"金町荘","province":"東京都","city":"葛飾区","address":"葛飾区東金町5-39-7","lat":35.778655,"lon":139.880353},{"name":"立花荘","province":"東京都","city":"葛飾区","address":"葛飾区高砂2-15-3","lat":35.75006,"lon":139.865708},{"name":"第二立花荘","province":"東京都","city":"葛飾区","address":"葛飾区高砂3-28-7","lat":35.747371,"lon":139.869463},{"name":"第三立花荘","province":"東京都","city":"葛飾区","address":"葛飾区高砂3-28-8","lat":35.747402,"lon":139.86966},{"name":"あさひ　第１西水元寮","province":"東京都","city":"葛飾区","address":"葛飾区水元3-36-1","lat":35.781575,"lon":139.864568},{"name":"あさひ　第一西亀有寮","province":"東京都","city":"葛飾区","address":"葛飾区西亀有2-33-14","lat":35.759861,"lon":139.834716},{"name":"葛飾区社会福祉協議会","province":"東京都","city":"葛飾区","address":"葛飾区堀切3-34-1地域福祉・障害者センター3階","lat":35.744335,"lon":139.834522},{"name":"あさひ　第一西亀有寮","province":"東京都","city":"葛飾区","address":"葛飾区西亀有2-33-14","lat":35.75999,"lon":139.83453},{"name":"あさひ　第１西水元寮","province":"東京都","city":"葛飾区","address":"葛飾区水元3-36-1","lat":35.78249,"lon":139.86322},{"name":"さくら金町ハウス","province":"東京都","city":"葛飾区","address":"葛飾区東水元3-4-5","lat":35.78334,"lon":139.86632},{"name":"金町荘","province":"東京都","city":"葛飾区","address":"葛飾区東金町5-39-7","lat":35.77842,"lon":139.88025},{"name":"立花荘","province":"東京都","city":"葛飾区","address":"葛飾区高砂2-15-3","lat":35.74993,"lon":139.86583},{"name":"第二立花荘","province":"東京都","city":"葛飾区","address":"葛飾区高砂3-28-7","lat":35.74727,"lon":139.86949},{"name":"第三立花荘","province":"東京都","city":"葛飾区","address":"葛飾区高砂3-28-8","lat":35.74727,"lon":139.86949},{"name":"青戸荘","province":"東京都","city":"葛飾区","address":"葛飾区青戸8-3-8","lat":35.75608,"lon":139.85005},{"name":"東京かつしか赤十字母子医療センター","province":"東京都","city":"葛飾区","address":"葛飾区新宿3-7-1","lat":35.76144,"lon":139.86259},{"name":"あさひ　第一西水元寮","province":"東京都","city":"葛飾区","address":"葛飾区西水元3-36-1","lat":35.78827,"lon":139.85216},{"name":"第一立花ホーム","province":"東京都","city":"葛飾区","address":"葛飾区立石8-48-27","lat":35.74033,"lon":139.85907},{"name":"青戸荘（日住）","province":"東京都","city":"葛飾区","address":"葛飾区青戸8-3-8","lat":35.75608,"lon":139.85005},{"name":"葛飾区社会福祉協議会","province":"東京都","city":"葛飾区","address":"葛飾区堀切3-34-1地域福祉・障害者センター3階","lat":35.74439,"lon":139.83444},{"name":"あさひ　第一西水元寮","province":"東京都","city":"葛飾区","address":"葛飾区水元3-36-1","lat":35.78249,"lon":139.86322},{"name":"あさひ第一西水元寮","province":"東京都","city":"葛飾区","address":"葛飾区水元3-36-1","lat":35.78249,"lon":139.86322},{"name":"葛飾赤十字産院","province":"東京都","city":"葛飾区","address":"葛飾区立石5-11-12","lat":35.74238,"lon":139.84628},{"name":"あさひ　第１西水元寮","province":"東京都","city":"葛飾区","address":"葛飾区水元3-36-1","lat":35.78081,"lon":139.86134},{"name":"東京愛育苑ケアレジデンス","province":"東京都","city":"葛飾区","address":"葛飾区水元3-13-2","lat":35.782319,"lon":139.863493},{"name":"葛飾赤十字産院","province":"東京都","city":"葛飾区","address":"葛飾区立石5-11-12","lat":35.742474,"lon":139.846429},{"name":"葛飾区子ども発達センター","province":"東京都","city":"葛飾区","address":"葛飾区堀切3-34-1","lat":35.744335,"lon":139.834522},{"name":"葛飾荘","province":"東京都","city":"葛飾区","address":"東京都葛飾区","lat":35.74349358,"lon":139.84722071},{"name":"コーポ金町","province":"東京都","city":"葛飾区","address":"葛飾区東水元3-4-5","lat":35.783569,"lon":139.86596},{"name":"青戸荘","province":"東京都","city":"葛飾区","address":"葛飾区青戸8-3-8","lat":35.756184,"lon":139.849678},{"name":"金町荘","province":"東京都","city":"葛飾区","address":"葛飾区東金町5-39-7","lat":35.778655,"lon":139.880353},{"name":"立花荘","province":"東京都","city":"葛飾区","address":"葛飾区高砂2-15-3","lat":35.75006,"lon":139.865708},{"name":"第二立花荘","province":"東京都","city":"葛飾区","address":"葛飾区高砂3-28-7","lat":35.747371,"lon":139.869463},{"name":"第三立花荘","province":"東京都","city":"葛飾区","address":"葛飾区高砂3-28-8","lat":35.747402,"lon":139.86966},{"name":"あさひ　第１西水元寮","province":"東京都","city":"葛飾区","address":"葛飾区水元3-36-1","lat":35.781575,"lon":139.864568},{"name":"あさひ　第一西亀有寮","province":"東京都","city":"葛飾区","address":"葛飾区西亀有2-33-14","lat":35.759861,"lon":139.834716},{"name":"葛飾区社会福祉協議会","province":"東京都","city":"葛飾区","address":"葛飾区堀切3-34-1地域福祉・障害者センター3階","lat":35.744335,"lon":139.834522},{"name":"あさひ　第一西亀有寮","province":"東京都","city":"葛飾区","address":"葛飾区西亀有2-33-14","lat":35.75999,"lon":139.83453},{"name":"あさひ　第１西水元寮","province":"東京都","city":"葛飾区","address":"葛飾区水元3-36-1","lat":35.78249,"lon":139.86322},{"name":"さくら金町ハウス","province":"東京都","city":"葛飾区","address":"葛飾区東水元3-4-5","lat":35.78334,"lon":139.86632},{"name":"金町荘","province":"東京都","city":"葛飾区","address":"葛飾区東金町5-39-7","lat":35.77842,"lon":139.88025},{"name":"立花荘","province":"東京都","city":"葛飾区","address":"葛飾区高砂2-15-3","lat":35.74993,"lon":139.86583},{"name":"第二立花荘","province":"東京都","city":"葛飾区","address":"葛飾区高砂3-28-7","lat":35.74727,"lon":139.86949},{"name":"第三立花荘","province":"東京都","city":"葛飾区","address":"葛飾区高砂3-28-8","lat":35.74727,"lon":139.86949},{"name":"青戸荘","province":"東京都","city":"葛飾区","address":"葛飾区青戸8-3-8","lat":35.75608,"lon":139.85005},{"name":"東京かつしか赤十字母子医療センター","province":"東京都","city":"葛飾区","address":"葛飾区新宿3-7-1","lat":35.76144,"lon":139.86259},{"name":"あさひ　第一西水元寮","province":"東京都","city":"葛飾区","address":"葛飾区西水元3-36-1","lat":35.78827,"lon":139.85216},{"name":"第一立花ホーム","province":"東京都","city":"葛飾区","address":"葛飾区立石8-48-27","lat":35.74033,"lon":139.85907},{"name":"青戸荘（日住）","province":"東京都","city":"葛飾区","address":"葛飾区青戸8-3-8","lat":35.75608,"lon":139.85005},{"name":"葛飾区社会福祉協議会","province":"東京都","city":"葛飾区","address":"葛飾区堀切3-34-1地域福祉・障害者センター3階","lat":35.74439,"lon":139.83444},{"name":"あさひ　第一西水元寮","province":"東京都","city":"葛飾区","address":"葛飾区水元3-36-1","lat":35.78249,"lon":139.86322},{"name":"あさひ第一西水元寮","province":"東京都","city":"葛飾区","address":"葛飾区水元3-36-1","lat":35.78249,"lon":139.86322},{"name":"葛飾赤十字産院","province":"東京都","city":"葛飾区","address":"葛飾区立石5-11-12","lat":35.74238,"lon":139.84628},{"name":"あさひ　第１西水元寮","province":"東京都","city":"葛飾区","address":"葛飾区水元3-36-1","lat":35.78081,"lon":139.86134},{"name":"東京愛育苑ケアレジデンス","province":"東京都","city":"葛飾区","address":"葛飾区水元3-13-2","lat":35.782319,"lon":139.863493},{"name":"葛飾赤十字産院","province":"東京都","city":"葛飾区","address":"葛飾区立石5-11-12","lat":35.742474,"lon":139.846429},{"name":"葛飾区子ども発達センター","province":"東京都","city":"葛飾区","address":"葛飾区堀切3-34-1","lat":35.744335,"lon":139.834522},{"name":"葛飾荘","province":"東京都","city":"葛飾区","address":"東京都葛飾区","lat":35.74349358,"lon":139.84722071},{"name":"コーポ金町","province":"東京都","city":"葛飾区","address":"葛飾区東水元3-4-5","lat":35.783569,"lon":139.86596},{"name":"青戸荘","province":"東京都","city":"葛飾区","address":"葛飾区青戸8-3-8","lat":35.756184,"lon":139.849678},{"name":"金町荘","province":"東京都","city":"葛飾区","address":"葛飾区東金町5-39-7","lat":35.778655,"lon":139.880353},{"name":"立花荘","province":"東京都","city":"葛飾区","address":"葛飾区高砂2-15-3","lat":35.75006,"lon":139.865708},{"name":"第二立花荘","province":"東京都","city":"葛飾区","address":"葛飾区高砂3-28-7","lat":35.747371,"lon":139.869463},{"name":"第三立花荘","province":"東京都","city":"葛飾区","address":"葛飾区高砂3-28-8","lat":35.747402,"lon":139.86966},{"name":"あさひ　第１西水元寮","province":"東京都","city":"葛飾区","address":"葛飾区水元3-36-1","lat":35.781575,"lon":139.864568},{"name":"あさひ　第一西亀有寮","province":"東京都","city":"葛飾区","address":"葛飾区西亀有2-33-14","lat":35.759861,"lon":139.834716},{"name":"葛飾区社会福祉協議会","province":"東京都","city":"葛飾区","address":"葛飾区堀切3-34-1地域福祉・障害者センター3階","lat":35.744335,"lon":139.834522},{"name":"あさひ　第一西亀有寮","province":"東京都","city":"葛飾区","address":"葛飾区西亀有2-33-14","lat":35.75999,"lon":139.83453},{"name":"あさひ　第１西水元寮","province":"東京都","city":"葛飾区","address":"葛飾区水元3-36-1","lat":35.78249,"lon":139.86322},{"name":"さくら金町ハウス","province":"東京都","city":"葛飾区","address":"葛飾区東水元3-4-5","lat":35.78334,"lon":139.86632},{"name":"金町荘","province":"東京都","city":"葛飾区","address":"葛飾区東金町5-39-7","lat":35.77842,"lon":139.88025},{"name":"立花荘","province":"東京都","city":"葛飾区","address":"葛飾区高砂2-15-3","lat":35.74993,"lon":139.86583},{"name":"第二立花荘","province":"東京都","city":"葛飾区","address":"葛飾区高砂3-28-7","lat":35.74727,"lon":139.86949},{"name":"第三立花荘","province":"東京都","city":"葛飾区","address":"葛飾区高砂3-28-8","lat":35.74727,"lon":139.86949},{"name":"青戸荘","province":"東京都","city":"葛飾区","address":"葛飾区青戸8-3-8","lat":35.75608,"lon":139.85005},{"name":"東京かつしか赤十字母子医療センター","province":"東京都","city":"葛飾区","address":"葛飾区新宿3-7-1","lat":35.76144,"lon":139.86259},{"name":"あさひ　第一西水元寮","province":"東京都","city":"葛飾区","address":"葛飾区西水元3-36-1","lat":35.78827,"lon":139.85216},{"name":"第一立花ホーム","province":"東京都","city":"葛飾区","address":"葛飾区立石8-48-27","lat":35.74033,"lon":139.85907},{"name":"青戸荘（日住）","province":"東京都","city":"葛飾区","address":"葛飾区青戸8-3-8","lat":35.75608,"lon":139.85005},{"name":"葛飾区社会福祉協議会","province":"東京都","city":"葛飾区","address":"葛飾区堀切3-34-1地域福祉・障害者センター3階","lat":35.74439,"lon":139.83444},{"name":"あさひ　第一西水元寮","province":"東京都","city":"葛飾区","address":"葛飾区水元3-36-1","lat":35.78249,"lon":139.86322},{"name":"あさひ第一西水元寮","province":"東京都","city":"葛飾区","address":"葛飾区水元3-36-1","lat":35.78249,"lon":139.86322},{"name":"葛飾赤十字産院","province":"東京都","city":"葛飾区","address":"葛飾区立石5-11-12","lat":35.74238,"lon":139.84628},{"name":"あさひ　第１西水元寮","province":"東京都","city":"葛飾区","address":"葛飾区水元3-36-1","lat":35.78081,"lon":139.86134},{"name":"東京愛育苑ケアレジデンス","province":"東京都","city":"葛飾区","address":"葛飾区水元3-13-2","lat":35.782319,"lon":139.863493},{"name":"葛飾赤十字産院","province":"東京都","city":"葛飾区","address":"葛飾区立石5-11-12","lat":35.742474,"lon":139.846429},{"name":"葛飾区子ども発達センター","province":"東京都","city":"葛飾区","address":"葛飾区堀切3-34-1","lat":35.744335,"lon":139.834522},{"name":"葛飾荘","province":"東京都","city":"葛飾区","address":"東京都葛飾区","lat":35.74349358,"lon":139.84722071},{"name":"コーポ金町","province":"東京都","city":"葛飾区","address":"葛飾区東水元3-4-5","lat":35.783569,"lon":139.86596},{"name":"青戸荘","province":"東京都","city":"葛飾区","address":"葛飾区青戸8-3-8","lat":35.756184,"lon":139.849678},{"name":"金町荘","province":"東京都","city":"葛飾区","address":"葛飾区東金町5-39-7","lat":35.778655,"lon":139.880353},{"name":"立花荘","province":"東京都","city":"葛飾区","address":"葛飾区高砂2-15-3","lat":35.75006,"lon":139.865708},{"name":"第二立花荘","province":"東京都","city":"葛飾区","address":"葛飾区高砂3-28-7","lat":35.747371,"lon":139.869463},{"name":"第三立花荘","province":"東京都","city":"葛飾区","address":"葛飾区高砂3-28-8","lat":35.747402,"lon":139.86966},{"name":"あさひ　第１西水元寮","province":"東京都","city":"葛飾区","address":"葛飾区水元3-36-1","lat":35.781575,"lon":139.864568},{"name":"あさひ　第一西亀有寮","province":"東京都","city":"葛飾区","address":"葛飾区西亀有2-33-14","lat":35.759861,"lon":139.834716},{"name":"葛飾区社会福祉協議会","province":"東京都","city":"葛飾区","address":"葛飾区堀切3-34-1地域福祉・障害者センター3階","lat":35.744335,"lon":139.834522},{"name":"あさひ　第一西亀有寮","province":"東京都","city":"葛飾区","address":"葛飾区西亀有2-33-14","lat":35.75999,"lon":139.83453},{"name":"あさひ　第１西水元寮","province":"東京都","city":"葛飾区","address":"葛飾区水元3-36-1","lat":35.78249,"lon":139.86322},{"name":"さくら金町ハウス","province":"東京都","city":"葛飾区","address":"葛飾区東水元3-4-5","lat":35.78334,"lon":139.86632},{"name":"金町荘","province":"東京都","city":"葛飾区","address":"葛飾区東金町5-39-7","lat":35.77842,"lon":139.88025},{"name":"立花荘","province":"東京都","city":"葛飾区","address":"葛飾区高砂2-15-3","lat":35.74993,"lon":139.86583},{"name":"第二立花荘","province":"東京都","city":"葛飾区","address":"葛飾区高砂3-28-7","lat":35.74727,"lon":139.86949},{"name":"第三立花荘","province":"東京都","city":"葛飾区","address":"葛飾区高砂3-28-8","lat":35.74727,"lon":139.86949},{"name":"青戸荘","province":"東京都","city":"葛飾区","address":"葛飾区青戸8-3-8","lat":35.75608,"lon":139.85005},{"name":"東京かつしか赤十字母子医療センター","province":"東京都","city":"葛飾区","address":"葛飾区新宿3-7-1","lat":35.76144,"lon":139.86259},{"name":"あさひ　第一西水元寮","province":"東京都","city":"葛飾区","address":"葛飾区西水元3-36-1","lat":35.78827,"lon":139.85216},{"name":"第一立花ホーム","province":"東京都","city":"葛飾区","address":"葛飾区立石8-48-27","lat":35.74033,"lon":139.85907},{"name":"青戸荘（日住）","province":"東京都","city":"葛飾区","address":"葛飾区青戸8-3-8","lat":35.75608,"lon":139.85005},{"name":"葛飾区社会福祉協議会","province":"東京都","city":"葛飾区","address":"葛飾区堀切3-34-1地域福祉・障害者センター3階","lat":35.74439,"lon":139.83444},{"name":"あさひ　第一西水元寮","province":"東京都","city":"葛飾区","address":"葛飾区水元3-36-1","lat":35.78249,"lon":139.86322},{"name":"あさひ第一西水元寮","province":"東京都","city":"葛飾区","address":"葛飾区水元3-36-1","lat":35.78249,"lon":139.86322},{"name":"葛飾赤十字産院","province":"東京都","city":"葛飾区","address":"葛飾区立石5-11-12","lat":35.74238,"lon":139.84628},{"name":"あさひ　第１西水元寮","province":"東京都","city":"葛飾区","address":"葛飾区水元3-36-1","lat":35.78081,"lon":139.86134},{"name":"東京愛育苑ケアレジデンス","province":"東京都","city":"葛飾区","address":"葛飾区水元3-13-2","lat":35.782319,"lon":139.863493},{"name":"葛飾赤十字産院","province":"東京都","city":"葛飾区","address":"葛飾区立石5-11-12","lat":35.742474,"lon":139.846429},{"name":"葛飾区子ども発達センター","province":"東京都","city":"葛飾区","address":"葛飾区堀切3-34-1","lat":35.744335,"lon":139.834522},{"name":"葛飾荘","province":"東京都","city":"葛飾区","address":"東京都葛飾区","lat":35.74349358,"lon":139.84722071},{"name":"コーポ金町","province":"東京都","city":"葛飾区","address":"葛飾区東水元3-4-5","lat":35.783569,"lon":139.86596},{"name":"青戸荘","province":"東京都","city":"葛飾区","address":"葛飾区青戸8-3-8","lat":35.756184,"lon":139.849678},{"name":"金町荘","province":"東京都","city":"葛飾区","address":"葛飾区東金町5-39-7","lat":35.778655,"lon":139.880353},{"name":"立花荘","province":"東京都","city":"葛飾区","address":"葛飾区高砂2-15-3","lat":35.75006,"lon":139.865708},{"name":"第二立花荘","province":"東京都","city":"葛飾区","address":"葛飾区高砂3-28-7","lat":35.747371,"lon":139.869463},{"name":"第三立花荘","province":"東京都","city":"葛飾区","address":"葛飾区高砂3-28-8","lat":35.747402,"lon":139.86966},{"name":"あさひ　第１西水元寮","province":"東京都","city":"葛飾区","address":"葛飾区水元3-36-1","lat":35.781575,"lon":139.864568},{"name":"あさひ　第一西亀有寮","province":"東京都","city":"葛飾区","address":"葛飾区西亀有2-33-14","lat":35.759861,"lon":139.834716},{"name":"葛飾区社会福祉協議会","province":"東京都","city":"葛飾区","address":"葛飾区堀切3-34-1地域福祉・障害者センター3階","lat":35.744335,"lon":139.834522},{"name":"あさひ　第一西亀有寮","province":"東京都","city":"葛飾区","address":"葛飾区西亀有2-33-14","lat":35.75999,"lon":139.83453},{"name":"あさひ　第１西水元寮","province":"東京都","city":"葛飾区","address":"葛飾区水元3-36-1","lat":35.78249,"lon":139.86322},{"name":"さくら金町ハウス","province":"東京都","city":"葛飾区","address":"葛飾区東水元3-4-5","lat":35.78334,"lon":139.86632},{"name":"金町荘","province":"東京都","city":"葛飾区","address":"葛飾区東金町5-39-7","lat":35.77842,"lon":139.88025},{"name":"立花荘","province":"東京都","city":"葛飾区","address":"葛飾区高砂2-15-3","lat":35.74993,"lon":139.86583},{"name":"第二立花荘","province":"東京都","city":"葛飾区","address":"葛飾区高砂3-28-7","lat":35.74727,"lon":139.86949},{"name":"第三立花荘","province":"東京都","city":"葛飾区","address":"葛飾区高砂3-28-8","lat":35.74727,"lon":139.86949},{"name":"青戸荘","province":"東京都","city":"葛飾区","address":"葛飾区青戸8-3-8","lat":35.75608,"lon":139.85005},{"name":"東京かつしか赤十字母子医療センター","province":"東京都","city":"葛飾区","address":"葛飾区新宿3-7-1","lat":35.76144,"lon":139.86259},{"name":"あさひ　第一西水元寮","province":"東京都","city":"葛飾区","address":"葛飾区西水元3-36-1","lat":35.78827,"lon":139.85216},{"name":"第一立花ホーム","province":"東京都","city":"葛飾区","address":"葛飾区立石8-48-27","lat":35.74033,"lon":139.85907},{"name":"青戸荘（日住）","province":"東京都","city":"葛飾区","address":"葛飾区青戸8-3-8","lat":35.75608,"lon":139.85005},{"name":"葛飾区社会福祉協議会","province":"東京都","city":"葛飾区","address":"葛飾区堀切3-34-1地域福祉・障害者センター3階","lat":35.74439,"lon":139.83444},{"name":"あさひ　第一西水元寮","province":"東京都","city":"葛飾区","address":"葛飾区水元3-36-1","lat":35.78249,"lon":139.86322},{"name":"あさひ第一西水元寮","province":"東京都","city":"葛飾区","address":"葛飾区水元3-36-1","lat":35.78249,"lon":139.86322},{"name":"葛飾赤十字産院","province":"東京都","city":"葛飾区","address":"葛飾区立石5-11-12","lat":35.74238,"lon":139.84628},{"name":"あさひ　第１西水元寮","province":"東京都","city":"葛飾区","address":"葛飾区水元3-36-1","lat":35.78081,"lon":139.86134},{"name":"東京愛育苑ケアレジデンス","province":"東京都","city":"葛飾区","address":"葛飾区水元3-13-2","lat":35.782319,"lon":139.863493},{"name":"葛飾赤十字産院","province":"東京都","city":"葛飾区","address":"葛飾区立石5-11-12","lat":35.742474,"lon":139.846429},{"name":"葛飾区子ども発達センター","province":"東京都","city":"葛飾区","address":"葛飾区堀切3-34-1","lat":35.744335,"lon":139.834522},{"name":"葛飾荘","province":"東京都","city":"葛飾区","address":"東京都葛飾区","lat":35.74349358,"lon":139.84722071},{"name":"コーポ金町","province":"東京都","city":"葛飾区","address":"葛飾区東水元3-4-5","lat":35.783569,"lon":139.86596},{"name":"青戸荘","province":"東京都","city":"葛飾区","address":"葛飾区青戸8-3-8","lat":35.756184,"lon":139.849678},{"name":"金町荘","province":"東京都","city":"葛飾区","address":"葛飾区東金町5-39-7","lat":35.778655,"lon":139.880353},{"name":"立花荘","province":"東京都","city":"葛飾区","address":"葛飾区高砂2-15-3","lat":35.75006,"lon":139.865708},{"name":"第二立花荘","province":"東京都","city":"葛飾区","address":"葛飾区高砂3-28-7","lat":35.747371,"lon":139.869463},{"name":"第三立花荘","province":"東京都","city":"葛飾区","address":"葛飾区高砂3-28-8","lat":35.747402,"lon":139.86966},{"name":"あさひ　第１西水元寮","province":"東京都","city":"葛飾区","address":"葛飾区水元3-36-1","lat":35.781575,"lon":139.864568},{"name":"あさひ　第一西亀有寮","province":"東京都","city":"葛飾区","address":"葛飾区西亀有2-33-14","lat":35.759861,"lon":139.834716},{"name":"葛飾区社会福祉協議会","province":"東京都","city":"葛飾区","address":"葛飾区堀切3-34-1地域福祉・障害者センター3階","lat":35.744335,"lon":139.834522},{"name":"あさひ　第一西亀有寮","province":"東京都","city":"葛飾区","address":"葛飾区西亀有2-33-14","lat":35.75999,"lon":139.83453},{"name":"あさひ　第１西水元寮","province":"東京都","city":"葛飾区","address":"葛飾区水元3-36-1","lat":35.78249,"lon":139.86322},{"name":"さくら金町ハウス","province":"東京都","city":"葛飾区","address":"葛飾区東水元3-4-5","lat":35.78334,"lon":139.86632},{"name":"金町荘","province":"東京都","city":"葛飾区","address":"葛飾区東金町5-39-7","lat":35.77842,"lon":139.88025},{"name":"立花荘","province":"東京都","city":"葛飾区","address":"葛飾区高砂2-15-3","lat":35.74993,"lon":139.86583},{"name":"第二立花荘","province":"東京都","city":"葛飾区","address":"葛飾区高砂3-28-7","lat":35.74727,"lon":139.86949},{"name":"第三立花荘","province":"東京都","city":"葛飾区","address":"葛飾区高砂3-28-8","lat":35.74727,"lon":139.86949},{"name":"青戸荘","province":"東京都","city":"葛飾区","address":"葛飾区青戸8-3-8","lat":35.75608,"lon":139.85005},{"name":"東京かつしか赤十字母子医療センター","province":"東京都","city":"葛飾区","address":"葛飾区新宿3-7-1","lat":35.76144,"lon":139.86259},{"name":"あさひ　第一西水元寮","province":"東京都","city":"葛飾区","address":"葛飾区西水元3-36-1","lat":35.78827,"lon":139.85216},{"name":"第一立花ホーム","province":"東京都","city":"葛飾区","address":"葛飾区立石8-48-27","lat":35.74033,"lon":139.85907},{"name":"青戸荘（日住）","province":"東京都","city":"葛飾区","address":"葛飾区青戸8-3-8","lat":35.75608,"lon":139.85005},{"name":"葛飾区社会福祉協議会","province":"東京都","city":"葛飾区","address":"葛飾区堀切3-34-1地域福祉・障害者センター3階","lat":35.74439,"lon":139.83444},{"name":"あさひ　第一西水元寮","province":"東京都","city":"葛飾区","address":"葛飾区水元3-36-1","lat":35.78249,"lon":139.86322},{"name":"あさひ第一西水元寮","province":"東京都","city":"葛飾区","address":"葛飾区水元3-36-1","lat":35.78249,"lon":139.86322},{"name":"葛飾赤十字産院","province":"東京都","city":"葛飾区","address":"葛飾区立石5-11-12","lat":35.74238,"lon":139.84628},{"name":"あさひ　第１西水元寮","province":"東京都","city":"葛飾区","address":"葛飾区水元3-36-1","lat":35.78081,"lon":139.86134},{"name":"東京愛育苑ケアレジデンス","province":"東京都","city":"葛飾区","address":"葛飾区水元3-13-2","lat":35.782319,"lon":139.863493},{"name":"葛飾赤十字産院","province":"東京都","city":"葛飾区","address":"葛飾区立石5-11-12","lat":35.742474,"lon":139.846429},{"name":"葛飾区子ども発達センター","province":"東京都","city":"葛飾区","address":"葛飾区堀切3-34-1","lat":35.744335,"lon":139.834522},{"name":"葛飾荘","province":"東京都","city":"葛飾区","address":"東京都葛飾区","lat":35.74349358,"lon":139.84722071},{"name":"コーポ金町","province":"東京都","city":"葛飾区","address":"葛飾区東水元3-4-5","lat":35.783569,"lon":139.86596},{"name":"青戸荘","province":"東京都","city":"葛飾区","address":"葛飾区青戸8-3-8","lat":35.756184,"lon":139.849678},{"name":"金町荘","province":"東京都","city":"葛飾区","address":"葛飾区東金町5-39-7","lat":35.778655,"lon":139.880353},{"name":"立花荘","province":"東京都","city":"葛飾区","address":"葛飾区高砂2-15-3","lat":35.75006,"lon":139.865708},{"name":"第二立花荘","province":"東京都","city":"葛飾区","address":"葛飾区高砂3-28-7","lat":35.747371,"lon":139.869463},{"name":"第三立花荘","province":"東京都","city":"葛飾区","address":"葛飾区高砂3-28-8","lat":35.747402,"lon":139.86966},{"name":"あさひ　第１西水元寮","province":"東京都","city":"葛飾区","address":"葛飾区水元3-36-1","lat":35.781575,"lon":139.864568},{"name":"あさひ　第一西亀有寮","province":"東京都","city":"葛飾区","address":"葛飾区西亀有2-33-14","lat":35.759861,"lon":139.834716},{"name":"葛飾区社会福祉協議会","province":"東京都","city":"葛飾区","address":"葛飾区堀切3-34-1地域福祉・障害者センター3階","lat":35.744335,"lon":139.834522},{"name":"あさひ　第一西亀有寮","province":"東京都","city":"葛飾区","address":"葛飾区西亀有2-33-14","lat":35.75999,"lon":139.83453},{"name":"あさひ　第１西水元寮","province":"東京都","city":"葛飾区","address":"葛飾区水元3-36-1","lat":35.78249,"lon":139.86322},{"name":"さくら金町ハウス","province":"東京都","city":"葛飾区","address":"葛飾区東水元3-4-5","lat":35.78334,"lon":139.86632},{"name":"金町荘","province":"東京都","city":"葛飾区","address":"葛飾区東金町5-39-7","lat":35.77842,"lon":139.88025},{"name":"立花荘","province":"東京都","city":"葛飾区","address":"葛飾区高砂2-15-3","lat":35.74993,"lon":139.86583},{"name":"第二立花荘","province":"東京都","city":"葛飾区","address":"葛飾区高砂3-28-7","lat":35.74727,"lon":139.86949},{"name":"第三立花荘","province":"東京都","city":"葛飾区","address":"葛飾区高砂3-28-8","lat":35.74727,"lon":139.86949},{"name":"青戸荘","province":"東京都","city":"葛飾区","address":"葛飾区青戸8-3-8","lat":35.75608,"lon":139.85005},{"name":"東京かつしか赤十字母子医療センター","province":"東京都","city":"葛飾区","address":"葛飾区新宿3-7-1","lat":35.76144,"lon":139.86259},{"name":"あさひ　第一西水元寮","province":"東京都","city":"葛飾区","address":"葛飾区西水元3-36-1","lat":35.78827,"lon":139.85216},{"name":"第一立花ホーム","province":"東京都","city":"葛飾区","address":"葛飾区立石8-48-27","lat":35.74033,"lon":139.85907},{"name":"青戸荘（日住）","province":"東京都","city":"葛飾区","address":"葛飾区青戸8-3-8","lat":35.75608,"lon":139.85005},{"name":"葛飾区社会福祉協議会","province":"東京都","city":"葛飾区","address":"葛飾区堀切3-34-1地域福祉・障害者センター3階","lat":35.74439,"lon":139.83444},{"name":"あさひ　第一西水元寮","province":"東京都","city":"葛飾区","address":"葛飾区水元3-36-1","lat":35.78249,"lon":139.86322},{"name":"あさひ第一西水元寮","province":"東京都","city":"葛飾区","address":"葛飾区水元3-36-1","lat":35.78249,"lon":139.86322},{"name":"葛飾赤十字産院","province":"東京都","city":"葛飾区","address":"葛飾区立石5-11-12","lat":35.74238,"lon":139.84628},{"name":"あさひ　第１西水元寮","province":"東京都","city":"葛飾区","address":"葛飾区水元3-36-1","lat":35.78081,"lon":139.86134},{"name":"東京愛育苑ケアレジデンス","province":"東京都","city":"葛飾区","address":"葛飾区水元3-13-2","lat":35.782319,"lon":139.863493},{"name":"葛飾赤十字産院","province":"東京都","city":"葛飾区","address":"葛飾区立石5-11-12","lat":35.742474,"lon":139.846429},{"name":"葛飾区子ども発達センター","province":"東京都","city":"葛飾区","address":"葛飾区堀切3-34-1","lat":35.744335,"lon":139.834522},{"name":"葛飾荘","province":"東京都","city":"葛飾区","address":"東京都葛飾区","lat":35.74349358,"lon":139.84722071},{"name":"コーポ金町","province":"東京都","city":"葛飾区","address":"葛飾区東水元3-4-5","lat":35.783569,"lon":139.86596},{"name":"青戸荘","province":"東京都","city":"葛飾区","address":"葛飾区青戸8-3-8","lat":35.756184,"lon":139.849678},{"name":"金町荘","province":"東京都","city":"葛飾区","address":"葛飾区東金町5-39-7","lat":35.778655,"lon":139.880353},{"name":"立花荘","province":"東京都","city":"葛飾区","address":"葛飾区高砂2-15-3","lat":35.75006,"lon":139.865708},{"name":"第二立花荘","province":"東京都","city":"葛飾区","address":"葛飾区高砂3-28-7","lat":35.747371,"lon":139.869463},{"name":"第三立花荘","province":"東京都","city":"葛飾区","address":"葛飾区高砂3-28-8","lat":35.747402,"lon":139.86966},{"name":"あさひ　第１西水元寮","province":"東京都","city":"葛飾区","address":"葛飾区水元3-36-1","lat":35.781575,"lon":139.864568},{"name":"あさひ　第一西亀有寮","province":"東京都","city":"葛飾区","address":"葛飾区西亀有2-33-14","lat":35.759861,"lon":139.834716},{"name":"葛飾区社会福祉協議会","province":"東京都","city":"葛飾区","address":"葛飾区堀切3-34-1地域福祉・障害者センター3階","lat":35.744335,"lon":139.834522},{"name":"あさひ　第一西亀有寮","province":"東京都","city":"葛飾区","address":"葛飾区西亀有2-33-14","lat":35.75999,"lon":139.83453},{"name":"あさひ　第１西水元寮","province":"東京都","city":"葛飾区","address":"葛飾区水元3-36-1","lat":35.78249,"lon":139.86322},{"name":"さくら金町ハウス","province":"東京都","city":"葛飾区","address":"葛飾区東水元3-4-5","lat":35.78334,"lon":139.86632},{"name":"金町荘","province":"東京都","city":"葛飾区","address":"葛飾区東金町5-39-7","lat":35.77842,"lon":139.88025},{"name":"立花荘","province":"東京都","city":"葛飾区","address":"葛飾区高砂2-15-3","lat":35.74993,"lon":139.86583},{"name":"第二立花荘","province":"東京都","city":"葛飾区","address":"葛飾区高砂3-28-7","lat":35.74727,"lon":139.86949},{"name":"第三立花荘","province":"東京都","city":"葛飾区","address":"葛飾区高砂3-28-8","lat":35.74727,"lon":139.86949},{"name":"青戸荘","province":"東京都","city":"葛飾区","address":"葛飾区青戸8-3-8","lat":35.75608,"lon":139.85005},{"name":"東京かつしか赤十字母子医療センター","province":"東京都","city":"葛飾区","address":"葛飾区新宿3-7-1","lat":35.76144,"lon":139.86259},{"name":"あさひ　第一西水元寮","province":"東京都","city":"葛飾区","address":"葛飾区西水元3-36-1","lat":35.78827,"lon":139.85216},{"name":"第一立花ホーム","province":"東京都","city":"葛飾区","address":"葛飾区立石8-48-27","lat":35.74033,"lon":139.85907},{"name":"青戸荘（日住）","province":"東京都","city":"葛飾区","address":"葛飾区青戸8-3-8","lat":35.75608,"lon":139.85005},{"name":"葛飾区社会福祉協議会","province":"東京都","city":"葛飾区","address":"葛飾区堀切3-34-1地域福祉・障害者センター3階","lat":35.74439,"lon":139.83444},{"name":"あさひ　第一西水元寮","province":"東京都","city":"葛飾区","address":"葛飾区水元3-36-1","lat":35.78249,"lon":139.86322},{"name":"あさひ第一西水元寮","province":"東京都","city":"葛飾区","address":"葛飾区水元3-36-1","lat":35.78249,"lon":139.86322},{"name":"葛飾赤十字産院","province":"東京都","city":"葛飾区","address":"葛飾区立石5-11-12","lat":35.74238,"lon":139.84628},{"name":"あさひ　第１西水元寮","province":"東京都","city":"葛飾区","address":"葛飾区水元3-36-1","lat":35.78081,"lon":139.86134},{"name":"東京愛育苑ケアレジデンス","province":"東京都","city":"葛飾区","address":"葛飾区水元3-13-2","lat":35.782319,"lon":139.863493},{"name":"葛飾赤十字産院","province":"東京都","city":"葛飾区","address":"葛飾区立石5-11-12","lat":35.742474,"lon":139.846429},{"name":"葛飾区子ども発達センター","province":"東京都","city":"葛飾区","address":"葛飾区堀切3-34-1","lat":35.744335,"lon":139.834522},{"name":"葛飾荘","province":"東京都","city":"葛飾区","address":"東京都葛飾区","lat":35.74349358,"lon":139.84722071},{"name":"コーポ金町","province":"東京都","city":"葛飾区","address":"葛飾区東水元3-4-5","lat":35.783569,"lon":139.86596},{"name":"青戸荘","province":"東京都","city":"葛飾区","address":"葛飾区青戸8-3-8","lat":35.756184,"lon":139.849678},{"name":"金町荘","province":"東京都","city":"葛飾区","address":"葛飾区東金町5-39-7","lat":35.778655,"lon":139.880353},{"name":"立花荘","province":"東京都","city":"葛飾区","address":"葛飾区高砂2-15-3","lat":35.75006,"lon":139.865708},{"name":"第二立花荘","province":"東京都","city":"葛飾区","address":"葛飾区高砂3-28-7","lat":35.747371,"lon":139.869463},{"name":"第三立花荘","province":"東京都","city":"葛飾区","address":"葛飾区高砂3-28-8","lat":35.747402,"lon":139.86966},{"name":"あさひ　第１西水元寮","province":"東京都","city":"葛飾区","address":"葛飾区水元3-36-1","lat":35.781575,"lon":139.864568},{"name":"あさひ　第一西亀有寮","province":"東京都","city":"葛飾区","address":"葛飾区西亀有2-33-14","lat":35.759861,"lon":139.834716},{"name":"葛飾区社会福祉協議会","province":"東京都","city":"葛飾区","address":"葛飾区堀切3-34-1地域福祉・障害者センター3階","lat":35.744335,"lon":139.834522},{"name":"あさひ　第一西亀有寮","province":"東京都","city":"葛飾区","address":"葛飾区西亀有2-33-14","lat":35.75999,"lon":139.83453},{"name":"あさひ　第１西水元寮","province":"東京都","city":"葛飾区","address":"葛飾区水元3-36-1","lat":35.78249,"lon":139.86322},{"name":"さくら金町ハウス","province":"東京都","city":"葛飾区","address":"葛飾区東水元3-4-5","lat":35.78334,"lon":139.86632},{"name":"金町荘","province":"東京都","city":"葛飾区","address":"葛飾区東金町5-39-7","lat":35.77842,"lon":139.88025},{"name":"立花荘","province":"東京都","city":"葛飾区","address":"葛飾区高砂2-15-3","lat":35.74993,"lon":139.86583},{"name":"第二立花荘","province":"東京都","city":"葛飾区","address":"葛飾区高砂3-28-7","lat":35.74727,"lon":139.86949},{"name":"第三立花荘","province":"東京都","city":"葛飾区","address":"葛飾区高砂3-28-8","lat":35.74727,"lon":139.86949},{"name":"青戸荘","province":"東京都","city":"葛飾区","address":"葛飾区青戸8-3-8","lat":35.75608,"lon":139.85005},{"name":"東京かつしか赤十字母子医療センター","province":"東京都","city":"葛飾区","address":"葛飾区新宿3-7-1","lat":35.76144,"lon":139.86259},{"name":"あさひ　第一西水元寮","province":"東京都","city":"葛飾区","address":"葛飾区西水元3-36-1","lat":35.78827,"lon":139.85216},{"name":"第一立花ホーム","province":"東京都","city":"葛飾区","address":"葛飾区立石8-48-27","lat":35.74033,"lon":139.85907},{"name":"青戸荘（日住）","province":"東京都","city":"葛飾区","address":"葛飾区青戸8-3-8","lat":35.75608,"lon":139.85005},{"name":"葛飾区社会福祉協議会","province":"東京都","city":"葛飾区","address":"葛飾区堀切3-34-1地域福祉・障害者センター3階","lat":35.74439,"lon":139.83444},{"name":"あさひ　第一西水元寮","province":"東京都","city":"葛飾区","address":"葛飾区水元3-36-1","lat":35.78249,"lon":139.86322},{"name":"あさひ第一西水元寮","province":"東京都","city":"葛飾区","address":"葛飾区水元3-36-1","lat":35.78249,"lon":139.86322},{"name":"葛飾赤十字産院","province":"東京都","city":"葛飾区","address":"葛飾区立石5-11-12","lat":35.74238,"lon":139.84628},{"name":"あさひ　第１西水元寮","province":"東京都","city":"葛飾区","address":"葛飾区水元3-36-1","lat":35.78081,"lon":139.86134},{"name":"東京愛育苑ケアレジデンス","province":"東京都","city":"葛飾区","address":"葛飾区水元3-13-2","lat":35.782319,"lon":139.863493},{"name":"葛飾赤十字産院","province":"東京都","city":"葛飾区","address":"葛飾区立石5-11-12","lat":35.742474,"lon":139.846429},{"name":"葛飾区子ども発達センター","province":"東京都","city":"葛飾区","address":"葛飾区堀切3-34-1","lat":35.744335,"lon":139.834522},{"name":"葛飾荘","province":"東京都","city":"葛飾区","address":"東京都葛飾区","lat":35.74349358,"lon":139.84722071},{"name":"コーポ金町","province":"東京都","city":"葛飾区","address":"葛飾区東水元3-4-5","lat":35.783569,"lon":139.86596},{"name":"青戸荘","province":"東京都","city":"葛飾区","address":"葛飾区青戸8-3-8","lat":35.756184,"lon":139.849678},{"name":"金町荘","province":"東京都","city":"葛飾区","address":"葛飾区東金町5-39-7","lat":35.778655,"lon":139.880353},{"name":"立花荘","province":"東京都","city":"葛飾区","address":"葛飾区高砂2-15-3","lat":35.75006,"lon":139.865708},{"name":"第二立花荘","province":"東京都","city":"葛飾区","address":"葛飾区高砂3-28-7","lat":35.747371,"lon":139.869463},{"name":"第三立花荘","province":"東京都","city":"葛飾区","address":"葛飾区高砂3-28-8","lat":35.747402,"lon":139.86966},{"name":"あさひ　第１西水元寮","province":"東京都","city":"葛飾区","address":"葛飾区水元3-36-1","lat":35.781575,"lon":139.864568},{"name":"あさひ　第一西亀有寮","province":"東京都","city":"葛飾区","address":"葛飾区西亀有2-33-14","lat":35.759861,"lon":139.834716},{"name":"葛飾区社会福祉協議会","province":"東京都","city":"葛飾区","address":"葛飾区堀切3-34-1地域福祉・障害者センター3階","lat":35.744335,"lon":139.834522},{"name":"あさひ　第一西亀有寮","province":"東京都","city":"葛飾区","address":"葛飾区西亀有2-33-14","lat":35.75999,"lon":139.83453},{"name":"あさひ　第１西水元寮","province":"東京都","city":"葛飾区","address":"葛飾区水元3-36-1","lat":35.78249,"lon":139.86322},{"name":"さくら金町ハウス","province":"東京都","city":"葛飾区","address":"葛飾区東水元3-4-5","lat":35.78334,"lon":139.86632},{"name":"金町荘","province":"東京都","city":"葛飾区","address":"葛飾区東金町5-39-7","lat":35.77842,"lon":139.88025},{"name":"立花荘","province":"東京都","city":"葛飾区","address":"葛飾区高砂2-15-3","lat":35.74993,"lon":139.86583},{"name":"第二立花荘","province":"東京都","city":"葛飾区","address":"葛飾区高砂3-28-7","lat":35.74727,"lon":139.86949},{"name":"第三立花荘","province":"東京都","city":"葛飾区","address":"葛飾区高砂3-28-8","lat":35.74727,"lon":139.86949},{"name":"青戸荘","province":"東京都","city":"葛飾区","address":"葛飾区青戸8-3-8","lat":35.75608,"lon":139.85005},{"name":"東京かつしか赤十字母子医療センター","province":"東京都","city":"葛飾区","address":"葛飾区新宿3-7-1","lat":35.76144,"lon":139.86259},{"name":"あさひ　第一西水元寮","province":"東京都","city":"葛飾区","address":"葛飾区西水元3-36-1","lat":35.78827,"lon":139.85216},{"name":"第一立花ホーム","province":"東京都","city":"葛飾区","address":"葛飾区立石8-48-27","lat":35.74033,"lon":139.85907},{"name":"青戸荘（日住）","province":"東京都","city":"葛飾区","address":"葛飾区青戸8-3-8","lat":35.75608,"lon":139.85005},{"name":"葛飾区社会福祉協議会","province":"東京都","city":"葛飾区","address":"葛飾区堀切3-34-1地域福祉・障害者センター3階","lat":35.74439,"lon":139.83444},{"name":"あさひ　第一西水元寮","province":"東京都","city":"葛飾区","address":"葛飾区水元3-36-1","lat":35.78249,"lon":139.86322},{"name":"あさひ第一西水元寮","province":"東京都","city":"葛飾区","address":"葛飾区水元3-36-1","lat":35.78249,"lon":139.86322},{"name":"葛飾赤十字産院","province":"東京都","city":"葛飾区","address":"葛飾区立石5-11-12","lat":35.74238,"lon":139.84628},{"name":"あさひ　第１西水元寮","province":"東京都","city":"葛飾区","address":"葛飾区水元3-36-1","lat":35.78081,"lon":139.86134},{"name":"東京愛育苑ケアレジデンス","province":"東京都","city":"葛飾区","address":"葛飾区水元3-13-2","lat":35.782319,"lon":139.863493},{"name":"葛飾赤十字産院","province":"東京都","city":"葛飾区","address":"葛飾区立石5-11-12","lat":35.742474,"lon":139.846429},{"name":"葛飾区子ども発達センター","province":"東京都","city":"葛飾区","address":"葛飾区堀切3-34-1","lat":35.744335,"lon":139.834522},{"name":"葛飾荘","province":"東京都","city":"葛飾区","address":"東京都葛飾区","lat":35.74349358,"lon":139.84722071},{"name":"コーポ金町","province":"東京都","city":"葛飾区","address":"葛飾区東水元3-4-5","lat":35.783569,"lon":139.86596},{"name":"青戸荘","province":"東京都","city":"葛飾区","address":"葛飾区青戸8-3-8","lat":35.756184,"lon":139.849678},{"name":"金町荘","province":"東京都","city":"葛飾区","address":"葛飾区東金町5-39-7","lat":35.778655,"lon":139.880353},{"name":"立花荘","province":"東京都","city":"葛飾区","address":"葛飾区高砂2-15-3","lat":35.75006,"lon":139.865708},{"name":"第二立花荘","province":"東京都","city":"葛飾区","address":"葛飾区高砂3-28-7","lat":35.747371,"lon":139.869463},{"name":"第三立花荘","province":"東京都","city":"葛飾区","address":"葛飾区高砂3-28-8","lat":35.747402,"lon":139.86966},{"name":"あさひ　第１西水元寮","province":"東京都","city":"葛飾区","address":"葛飾区水元3-36-1","lat":35.781575,"lon":139.864568},{"name":"あさひ　第一西亀有寮","province":"東京都","city":"葛飾区","address":"葛飾区西亀有2-33-14","lat":35.759861,"lon":139.834716},{"name":"葛飾区社会福祉協議会","province":"東京都","city":"葛飾区","address":"葛飾区堀切3-34-1地域福祉・障害者センター3階","lat":35.744335,"lon":139.834522},{"name":"あさひ　第一西亀有寮","province":"東京都","city":"葛飾区","address":"葛飾区西亀有2-33-14","lat":35.75999,"lon":139.83453},{"name":"あさひ　第１西水元寮","province":"東京都","city":"葛飾区","address":"葛飾区水元3-36-1","lat":35.78249,"lon":139.86322},{"name":"さくら金町ハウス","province":"東京都","city":"葛飾区","address":"葛飾区東水元3-4-5","lat":35.78334,"lon":139.86632},{"name":"金町荘","province":"東京都","city":"葛飾区","address":"葛飾区東金町5-39-7","lat":35.77842,"lon":139.88025},{"name":"立花荘","province":"東京都","city":"葛飾区","address":"葛飾区高砂2-15-3","lat":35.74993,"lon":139.86583},{"name":"第二立花荘","province":"東京都","city":"葛飾区","address":"葛飾区高砂3-28-7","lat":35.74727,"lon":139.86949},{"name":"第三立花荘","province":"東京都","city":"葛飾区","address":"葛飾区高砂3-28-8","lat":35.74727,"lon":139.86949},{"name":"青戸荘","province":"東京都","city":"葛飾区","address":"葛飾区青戸8-3-8","lat":35.75608,"lon":139.85005},{"name":"東京かつしか赤十字母子医療センター","province":"東京都","city":"葛飾区","address":"葛飾区新宿3-7-1","lat":35.76144,"lon":139.86259},{"name":"あさひ　第一西水元寮","province":"東京都","city":"葛飾区","address":"葛飾区西水元3-36-1","lat":35.78827,"lon":139.85216},{"name":"第一立花ホーム","province":"東京都","city":"葛飾区","address":"葛飾区立石8-48-27","lat":35.74033,"lon":139.85907},{"name":"青戸荘（日住）","province":"東京都","city":"葛飾区","address":"葛飾区青戸8-3-8","lat":35.75608,"lon":139.85005},{"name":"葛飾区社会福祉協議会","province":"東京都","city":"葛飾区","address":"葛飾区堀切3-34-1地域福祉・障害者センター3階","lat":35.74439,"lon":139.83444},{"name":"あさひ　第一西水元寮","province":"東京都","city":"葛飾区","address":"葛飾区水元3-36-1","lat":35.78249,"lon":139.86322},{"name":"あさひ第一西水元寮","province":"東京都","city":"葛飾区","address":"葛飾区水元3-36-1","lat":35.78249,"lon":139.86322},{"name":"葛飾赤十字産院","province":"東京都","city":"葛飾区","address":"葛飾区立石5-11-12","lat":35.74238,"lon":139.84628},{"name":"あさひ　第１西水元寮","province":"東京都","city":"葛飾区","address":"葛飾区水元3-36-1","lat":35.78081,"lon":139.86134},{"name":"東京愛育苑ケアレジデンス","province":"東京都","city":"葛飾区","address":"葛飾区水元3-13-2","lat":35.782319,"lon":139.863493},{"name":"葛飾赤十字産院","province":"東京都","city":"葛飾区","address":"葛飾区立石5-11-12","lat":35.742474,"lon":139.846429},{"name":"葛飾区子ども発達センター","province":"東京都","city":"葛飾区","address":"葛飾区堀切3-34-1","lat":35.744335,"lon":139.834522},{"name":"葛飾荘","province":"東京都","city":"葛飾区","address":"東京都葛飾区","lat":35.74349358,"lon":139.84722071},{"name":"コーポ金町","province":"東京都","city":"葛飾区","address":"葛飾区東水元3-4-5","lat":35.783569,"lon":139.86596},{"name":"青戸荘","province":"東京都","city":"葛飾区","address":"葛飾区青戸8-3-8","lat":35.756184,"lon":139.849678},{"name":"金町荘","province":"東京都","city":"葛飾区","address":"葛飾区東金町5-39-7","lat":35.778655,"lon":139.880353},{"name":"立花荘","province":"東京都","city":"葛飾区","address":"葛飾区高砂2-15-3","lat":35.75006,"lon":139.865708},{"name":"第二立花荘","province":"東京都","city":"葛飾区","address":"葛飾区高砂3-28-7","lat":35.747371,"lon":139.869463},{"name":"第三立花荘","province":"東京都","city":"葛飾区","address":"葛飾区高砂3-28-8","lat":35.747402,"lon":139.86966},{"name":"あさひ　第１西水元寮","province":"東京都","city":"葛飾区","address":"葛飾区水元3-36-1","lat":35.781575,"lon":139.864568},{"name":"あさひ　第一西亀有寮","province":"東京都","city":"葛飾区","address":"葛飾区西亀有2-33-14","lat":35.759861,"lon":139.834716},{"name":"葛飾区社会福祉協議会","province":"東京都","city":"葛飾区","address":"葛飾区堀切3-34-1地域福祉・障害者センター3階","lat":35.744335,"lon":139.834522},{"name":"あさひ　第一西亀有寮","province":"東京都","city":"葛飾区","address":"葛飾区西亀有2-33-14","lat":35.75999,"lon":139.83453},{"name":"あさひ　第１西水元寮","province":"東京都","city":"葛飾区","address":"葛飾区水元3-36-1","lat":35.78249,"lon":139.86322},{"name":"さくら金町ハウス","province":"東京都","city":"葛飾区","address":"葛飾区東水元3-4-5","lat":35.78334,"lon":139.86632},{"name":"金町荘","province":"東京都","city":"葛飾区","address":"葛飾区東金町5-39-7","lat":35.77842,"lon":139.88025},{"name":"立花荘","province":"東京都","city":"葛飾区","address":"葛飾区高砂2-15-3","lat":35.74993,"lon":139.86583},{"name":"第二立花荘","province":"東京都","city":"葛飾区","address":"葛飾区高砂3-28-7","lat":35.74727,"lon":139.86949},{"name":"第三立花荘","province":"東京都","city":"葛飾区","address":"葛飾区高砂3-28-8","lat":35.74727,"lon":139.86949},{"name":"青戸荘","province":"東京都","city":"葛飾区","address":"葛飾区青戸8-3-8","lat":35.75608,"lon":139.85005},{"name":"東京かつしか赤十字母子医療センター","province":"東京都","city":"葛飾区","address":"葛飾区新宿3-7-1","lat":35.76144,"lon":139.86259},{"name":"あさひ　第一西水元寮","province":"東京都","city":"葛飾区","address":"葛飾区西水元3-36-1","lat":35.78827,"lon":139.85216},{"name":"第一立花ホーム","province":"東京都","city":"葛飾区","address":"葛飾区立石8-48-27","lat":35.74033,"lon":139.85907},{"name":"青戸荘（日住）","province":"東京都","city":"葛飾区","address":"葛飾区青戸8-3-8","lat":35.75608,"lon":139.85005},{"name":"葛飾区社会福祉協議会","province":"東京都","city":"葛飾区","address":"葛飾区堀切3-34-1地域福祉・障害者センター3階","lat":35.74439,"lon":139.83444},{"name":"あさひ　第一西水元寮","province":"東京都","city":"葛飾区","address":"葛飾区水元3-36-1","lat":35.78249,"lon":139.86322},{"name":"あさひ第一西水元寮","province":"東京都","city":"葛飾区","address":"葛飾区水元3-36-1","lat":35.78249,"lon":139.86322},{"name":"葛飾赤十字産院","province":"東京都","city":"葛飾区","address":"葛飾区立石5-11-12","lat":35.74238,"lon":139.84628},{"name":"あさひ　第１西水元寮","province":"東京都","city":"葛飾区","address":"葛飾区水元3-36-1","lat":35.78081,"lon":139.86134},{"name":"東京愛育苑ケアレジデンス","province":"東京都","city":"葛飾区","address":"葛飾区水元3-13-2","lat":35.782319,"lon":139.863493},{"name":"葛飾赤十字産院","province":"東京都","city":"葛飾区","address":"葛飾区立石5-11-12","lat":35.742474,"lon":139.846429},{"name":"葛飾区子ども発達センター","province":"東京都","city":"葛飾区","address":"葛飾区堀切3-34-1","lat":35.744335,"lon":139.834522},{"name":"葛飾荘","province":"東京都","city":"葛飾区","address":"東京都葛飾区","lat":35.74349358,"lon":139.84722071},{"name":"コーポ金町","province":"東京都","city":"葛飾区","address":"葛飾区東水元3-4-5","lat":35.783569,"lon":139.86596},{"name":"青戸荘","province":"東京都","city":"葛飾区","address":"葛飾区青戸8-3-8","lat":35.756184,"lon":139.849678},{"name":"金町荘","province":"東京都","city":"葛飾区","address":"葛飾区東金町5-39-7","lat":35.778655,"lon":139.880353},{"name":"立花荘","province":"東京都","city":"葛飾区","address":"葛飾区高砂2-15-3","lat":35.75006,"lon":139.865708},{"name":"第二立花荘","province":"東京都","city":"葛飾区","address":"葛飾区高砂3-28-7","lat":35.747371,"lon":139.869463},{"name":"第三立花荘","province":"東京都","city":"葛飾区","address":"葛飾区高砂3-28-8","lat":35.747402,"lon":139.86966},{"name":"あさひ　第１西水元寮","province":"東京都","city":"葛飾区","address":"葛飾区水元3-36-1","lat":35.781575,"lon":139.864568},{"name":"あさひ　第一西亀有寮","province":"東京都","city":"葛飾区","address":"葛飾区西亀有2-33-14","lat":35.759861,"lon":139.834716},{"name":"葛飾区社会福祉協議会","province":"東京都","city":"葛飾区","address":"葛飾区堀切3-34-1地域福祉・障害者センター3階","lat":35.744335,"lon":139.834522},{"name":"あさひ　第一西亀有寮","province":"東京都","city":"葛飾区","address":"葛飾区西亀有2-33-14","lat":35.75999,"lon":139.83453},{"name":"あさひ　第１西水元寮","province":"東京都","city":"葛飾区","address":"葛飾区水元3-36-1","lat":35.78249,"lon":139.86322},{"name":"さくら金町ハウス","province":"東京都","city":"葛飾区","address":"葛飾区東水元3-4-5","lat":35.78334,"lon":139.86632},{"name":"金町荘","province":"東京都","city":"葛飾区","address":"葛飾区東金町5-39-7","lat":35.77842,"lon":139.88025},{"name":"立花荘","province":"東京都","city":"葛飾区","address":"葛飾区高砂2-15-3","lat":35.74993,"lon":139.86583},{"name":"第二立花荘","province":"東京都","city":"葛飾区","address":"葛飾区高砂3-28-7","lat":35.74727,"lon":139.86949},{"name":"第三立花荘","province":"東京都","city":"葛飾区","address":"葛飾区高砂3-28-8","lat":35.74727,"lon":139.86949},{"name":"青戸荘","province":"東京都","city":"葛飾区","address":"葛飾区青戸8-3-8","lat":35.75608,"lon":139.85005},{"name":"東京かつしか赤十字母子医療センター","province":"東京都","city":"葛飾区","address":"葛飾区新宿3-7-1","lat":35.76144,"lon":139.86259},{"name":"あさひ　第一西水元寮","province":"東京都","city":"葛飾区","address":"葛飾区西水元3-36-1","lat":35.78827,"lon":139.85216},{"name":"第一立花ホーム","province":"東京都","city":"葛飾区","address":"葛飾区立石8-48-27","lat":35.74033,"lon":139.85907},{"name":"青戸荘（日住）","province":"東京都","city":"葛飾区","address":"葛飾区青戸8-3-8","lat":35.75608,"lon":139.85005},{"name":"葛飾区社会福祉協議会","province":"東京都","city":"葛飾区","address":"葛飾区堀切3-34-1地域福祉・障害者センター3階","lat":35.74439,"lon":139.83444},{"name":"あさひ　第一西水元寮","province":"東京都","city":"葛飾区","address":"葛飾区水元3-36-1","lat":35.78249,"lon":139.86322},{"name":"あさひ第一西水元寮","province":"東京都","city":"葛飾区","address":"葛飾区水元3-36-1","lat":35.78249,"lon":139.86322},{"name":"葛飾赤十字産院","province":"東京都","city":"葛飾区","address":"葛飾区立石5-11-12","lat":35.74238,"lon":139.84628},{"name":"あさひ　第１西水元寮","province":"東京都","city":"葛飾区","address":"葛飾区水元3-36-1","lat":35.78081,"lon":139.86134},{"name":"東京愛育苑ケアレジデンス","province":"東京都","city":"葛飾区","address":"葛飾区水元3-13-2","lat":35.782319,"lon":139.863493},{"name":"葛飾赤十字産院","province":"東京都","city":"葛飾区","address":"葛飾区立石5-11-12","lat":35.742474,"lon":139.846429},{"name":"葛飾区子ども発達センター","province":"東京都","city":"葛飾区","address":"葛飾区堀切3-34-1","lat":35.744335,"lon":139.834522},{"name":"葛飾荘","province":"東京都","city":"葛飾区","address":"東京都葛飾区","lat":35.74349358,"lon":139.84722071},{"name":"コーポ金町","province":"東京都","city":"葛飾区","address":"葛飾区東水元3-4-5","lat":35.783569,"lon":139.86596},{"name":"青戸荘","province":"東京都","city":"葛飾区","address":"葛飾区青戸8-3-8","lat":35.756184,"lon":139.849678},{"name":"金町荘","province":"東京都","city":"葛飾区","address":"葛飾区東金町5-39-7","lat":35.778655,"lon":139.880353},{"name":"立花荘","province":"東京都","city":"葛飾区","address":"葛飾区高砂2-15-3","lat":35.75006,"lon":139.865708},{"name":"第二立花荘","province":"東京都","city":"葛飾区","address":"葛飾区高砂3-28-7","lat":35.747371,"lon":139.869463},{"name":"第三立花荘","province":"東京都","city":"葛飾区","address":"葛飾区高砂3-28-8","lat":35.747402,"lon":139.86966},{"name":"あさひ　第１西水元寮","province":"東京都","city":"葛飾区","address":"葛飾区水元3-36-1","lat":35.781575,"lon":139.864568},{"name":"あさひ　第一西亀有寮","province":"東京都","city":"葛飾区","address":"葛飾区西亀有2-33-14","lat":35.759861,"lon":139.834716},{"name":"葛飾区社会福祉協議会","province":"東京都","city":"葛飾区","address":"葛飾区堀切3-34-1地域福祉・障害者センター3階","lat":35.744335,"lon":139.834522},{"name":"あさひ　第一西亀有寮","province":"東京都","city":"葛飾区","address":"葛飾区西亀有2-33-14","lat":35.75999,"lon":139.83453},{"name":"あさひ　第１西水元寮","province":"東京都","city":"葛飾区","address":"葛飾区水元3-36-1","lat":35.78249,"lon":139.86322},{"name":"さくら金町ハウス","province":"東京都","city":"葛飾区","address":"葛飾区東水元3-4-5","lat":35.78334,"lon":139.86632},{"name":"金町荘","province":"東京都","city":"葛飾区","address":"葛飾区東金町5-39-7","lat":35.77842,"lon":139.88025},{"name":"立花荘","province":"東京都","city":"葛飾区","address":"葛飾区高砂2-15-3","lat":35.74993,"lon":139.86583},{"name":"第二立花荘","province":"東京都","city":"葛飾区","address":"葛飾区高砂3-28-7","lat":35.74727,"lon":139.86949},{"name":"第三立花荘","province":"東京都","city":"葛飾区","address":"葛飾区高砂3-28-8","lat":35.74727,"lon":139.86949},{"name":"青戸荘","province":"東京都","city":"葛飾区","address":"葛飾区青戸8-3-8","lat":35.75608,"lon":139.85005},{"name":"東京かつしか赤十字母子医療センター","province":"東京都","city":"葛飾区","address":"葛飾区新宿3-7-1","lat":35.76144,"lon":139.86259},{"name":"あさひ　第一西水元寮","province":"東京都","city":"葛飾区","address":"葛飾区西水元3-36-1","lat":35.78827,"lon":139.85216},{"name":"第一立花ホーム","province":"東京都","city":"葛飾区","address":"葛飾区立石8-48-27","lat":35.74033,"lon":139.85907},{"name":"青戸荘（日住）","province":"東京都","city":"葛飾区","address":"葛飾区青戸8-3-8","lat":35.75608,"lon":139.85005},{"name":"葛飾区社会福祉協議会","province":"東京都","city":"葛飾区","address":"葛飾区堀切3-34-1地域福祉・障害者センター3階","lat":35.74439,"lon":139.83444},{"name":"あさひ　第一西水元寮","province":"東京都","city":"葛飾区","address":"葛飾区水元3-36-1","lat":35.78249,"lon":139.86322},{"name":"あさひ第一西水元寮","province":"東京都","city":"葛飾区","address":"葛飾区水元3-36-1","lat":35.78249,"lon":139.86322},{"name":"葛飾赤十字産院","province":"東京都","city":"葛飾区","address":"葛飾区立石5-11-12","lat":35.74238,"lon":139.84628},{"name":"あさひ　第１西水元寮","province":"東京都","city":"葛飾区","address":"葛飾区水元3-36-1","lat":35.78081,"lon":139.86134},{"name":"東京愛育苑ケアレジデンス","province":"東京都","city":"葛飾区","address":"葛飾区水元3-13-2","lat":35.782319,"lon":139.863493},{"name":"葛飾赤十字産院","province":"東京都","city":"葛飾区","address":"葛飾区立石5-11-12","lat":35.742474,"lon":139.846429},{"name":"葛飾区子ども発達センター","province":"東京都","city":"葛飾区","address":"葛飾区堀切3-34-1","lat":35.744335,"lon":139.834522},{"name":"葛飾荘","province":"東京都","city":"葛飾区","address":"東京都葛飾区","lat":35.74349358,"lon":139.84722071},{"name":"コーポ金町","province":"東京都","city":"葛飾区","address":"葛飾区東水元3-4-5","lat":35.783569,"lon":139.86596},{"name":"青戸荘","province":"東京都","city":"葛飾区","address":"葛飾区青戸8-3-8","lat":35.756184,"lon":139.849678},{"name":"金町荘","province":"東京都","city":"葛飾区","address":"葛飾区東金町5-39-7","lat":35.778655,"lon":139.880353},{"name":"立花荘","province":"東京都","city":"葛飾区","address":"葛飾区高砂2-15-3","lat":35.75006,"lon":139.865708},{"name":"第二立花荘","province":"東京都","city":"葛飾区","address":"葛飾区高砂3-28-7","lat":35.747371,"lon":139.869463},{"name":"第三立花荘","province":"東京都","city":"葛飾区","address":"葛飾区高砂3-28-8","lat":35.747402,"lon":139.86966},{"name":"あさひ　第１西水元寮","province":"東京都","city":"葛飾区","address":"葛飾区水元3-36-1","lat":35.781575,"lon":139.864568},{"name":"あさひ　第一西亀有寮","province":"東京都","city":"葛飾区","address":"葛飾区西亀有2-33-14","lat":35.759861,"lon":139.834716},{"name":"葛飾区社会福祉協議会","province":"東京都","city":"葛飾区","address":"葛飾区堀切3-34-1地域福祉・障害者センター3階","lat":35.744335,"lon":139.834522},{"name":"あさひ　第一西亀有寮","province":"東京都","city":"葛飾区","address":"葛飾区西亀有2-33-14","lat":35.75999,"lon":139.83453},{"name":"あさひ　第１西水元寮","province":"東京都","city":"葛飾区","address":"葛飾区水元3-36-1","lat":35.78249,"lon":139.86322},{"name":"さくら金町ハウス","province":"東京都","city":"葛飾区","address":"葛飾区東水元3-4-5","lat":35.78334,"lon":139.86632},{"name":"金町荘","province":"東京都","city":"葛飾区","address":"葛飾区東金町5-39-7","lat":35.77842,"lon":139.88025},{"name":"立花荘","province":"東京都","city":"葛飾区","address":"葛飾区高砂2-15-3","lat":35.74993,"lon":139.86583},{"name":"第二立花荘","province":"東京都","city":"葛飾区","address":"葛飾区高砂3-28-7","lat":35.74727,"lon":139.86949},{"name":"第三立花荘","province":"東京都","city":"葛飾区","address":"葛飾区高砂3-28-8","lat":35.74727,"lon":139.86949},{"name":"青戸荘","province":"東京都","city":"葛飾区","address":"葛飾区青戸8-3-8","lat":35.75608,"lon":139.85005},{"name":"東京かつしか赤十字母子医療センター","province":"東京都","city":"葛飾区","address":"葛飾区新宿3-7-1","lat":35.76144,"lon":139.86259},{"name":"あさひ　第一西水元寮","province":"東京都","city":"葛飾区","address":"葛飾区西水元3-36-1","lat":35.78827,"lon":139.85216},{"name":"第一立花ホーム","province":"東京都","city":"葛飾区","address":"葛飾区立石8-48-27","lat":35.74033,"lon":139.85907},{"name":"青戸荘（日住）","province":"東京都","city":"葛飾区","address":"葛飾区青戸8-3-8","lat":35.75608,"lon":139.85005},{"name":"葛飾区社会福祉協議会","province":"東京都","city":"葛飾区","address":"葛飾区堀切3-34-1地域福祉・障害者センター3階","lat":35.74439,"lon":139.83444},{"name":"あさひ　第一西水元寮","province":"東京都","city":"葛飾区","address":"葛飾区水元3-36-1","lat":35.78249,"lon":139.86322},{"name":"あさひ第一西水元寮","province":"東京都","city":"葛飾区","address":"葛飾区水元3-36-1","lat":35.78249,"lon":139.86322},{"name":"葛飾赤十字産院","province":"東京都","city":"葛飾区","address":"葛飾区立石5-11-12","lat":35.74238,"lon":139.84628},{"name":"あさひ　第１西水元寮","province":"東京都","city":"葛飾区","address":"葛飾区水元3-36-1","lat":35.78081,"lon":139.86134},{"name":"東京愛育苑ケアレジデンス","province":"東京都","city":"葛飾区","address":"葛飾区水元3-13-2","lat":35.782319,"lon":139.863493},{"name":"葛飾赤十字産院","province":"東京都","city":"葛飾区","address":"葛飾区立石5-11-12","lat":35.742474,"lon":139.846429},{"name":"葛飾区子ども発達センター","province":"東京都","city":"葛飾区","address":"葛飾区堀切3-34-1","lat":35.744335,"lon":139.834522},{"name":"葛飾荘","province":"東京都","city":"葛飾区","address":"東京都葛飾区","lat":35.74349358,"lon":139.84722071},{"name":"コーポ金町","province":"東京都","city":"葛飾区","address":"葛飾区東水元3-4-5","lat":35.783569,"lon":139.86596},{"name":"青戸荘","province":"東京都","city":"葛飾区","address":"葛飾区青戸8-3-8","lat":35.756184,"lon":139.849678},{"name":"金町荘","province":"東京都","city":"葛飾区","address":"葛飾区東金町5-39-7","lat":35.778655,"lon":139.880353},{"name":"立花荘","province":"東京都","city":"葛飾区","address":"葛飾区高砂2-15-3","lat":35.75006,"lon":139.865708},{"name":"第二立花荘","province":"東京都","city":"葛飾区","address":"葛飾区高砂3-28-7","lat":35.747371,"lon":139.869463},{"name":"第三立花荘","province":"東京都","city":"葛飾区","address":"葛飾区高砂3-28-8","lat":35.747402,"lon":139.86966},{"name":"あさひ　第１西水元寮","province":"東京都","city":"葛飾区","address":"葛飾区水元3-36-1","lat":35.781575,"lon":139.864568},{"name":"あさひ　第一西亀有寮","province":"東京都","city":"葛飾区","address":"葛飾区西亀有2-33-14","lat":35.759861,"lon":139.834716},{"name":"葛飾区社会福祉協議会","province":"東京都","city":"葛飾区","address":"葛飾区堀切3-34-1地域福祉・障害者センター3階","lat":35.744335,"lon":139.834522},{"name":"あさひ　第一西亀有寮","province":"東京都","city":"葛飾区","address":"葛飾区西亀有2-33-14","lat":35.75999,"lon":139.83453},{"name":"あさひ　第１西水元寮","province":"東京都","city":"葛飾区","address":"葛飾区水元3-36-1","lat":35.78249,"lon":139.86322},{"name":"さくら金町ハウス","province":"東京都","city":"葛飾区","address":"葛飾区東水元3-4-5","lat":35.78334,"lon":139.86632},{"name":"金町荘","province":"東京都","city":"葛飾区","address":"葛飾区東金町5-39-7","lat":35.77842,"lon":139.88025},{"name":"立花荘","province":"東京都","city":"葛飾区","address":"葛飾区高砂2-15-3","lat":35.74993,"lon":139.86583},{"name":"第二立花荘","province":"東京都","city":"葛飾区","address":"葛飾区高砂3-28-7","lat":35.74727,"lon":139.86949},{"name":"第三立花荘","province":"東京都","city":"葛飾区","address":"葛飾区高砂3-28-8","lat":35.74727,"lon":139.86949},{"name":"青戸荘","province":"東京都","city":"葛飾区","address":"葛飾区青戸8-3-8","lat":35.75608,"lon":139.85005},{"name":"東京かつしか赤十字母子医療センター","province":"東京都","city":"葛飾区","address":"葛飾区新宿3-7-1","lat":35.76144,"lon":139.86259},{"name":"あさひ　第一西水元寮","province":"東京都","city":"葛飾区","address":"葛飾区西水元3-36-1","lat":35.78827,"lon":139.85216},{"name":"第一立花ホーム","province":"東京都","city":"葛飾区","address":"葛飾区立石8-48-27","lat":35.74033,"lon":139.85907},{"name":"青戸荘（日住）","province":"東京都","city":"葛飾区","address":"葛飾区青戸8-3-8","lat":35.75608,"lon":139.85005},{"name":"葛飾区社会福祉協議会","province":"東京都","city":"葛飾区","address":"葛飾区堀切3-34-1地域福祉・障害者センター3階","lat":35.74439,"lon":139.83444},{"name":"あさひ　第一西水元寮","province":"東京都","city":"葛飾区","address":"葛飾区水元3-36-1","lat":35.78249,"lon":139.86322},{"name":"あさひ第一西水元寮","province":"東京都","city":"葛飾区","address":"葛飾区水元3-36-1","lat":35.78249,"lon":139.86322},{"name":"葛飾赤十字産院","province":"東京都","city":"葛飾区","address":"葛飾区立石5-11-12","lat":35.74238,"lon":139.84628},{"name":"あさひ　第１西水元寮","province":"東京都","city":"葛飾区","address":"葛飾区水元3-36-1","lat":35.78081,"lon":139.86134},{"name":"東京愛育苑ケアレジデンス","province":"東京都","city":"葛飾区","address":"葛飾区水元3-13-2","lat":35.782319,"lon":139.863493},{"name":"葛飾赤十字産院","province":"東京都","city":"葛飾区","address":"葛飾区立石5-11-12","lat":35.742474,"lon":139.846429},{"name":"葛飾区子ども発達センター","province":"東京都","city":"葛飾区","address":"葛飾区堀切3-34-1","lat":35.744335,"lon":139.834522},{"name":"葛飾荘","province":"東京都","city":"葛飾区","address":"東京都葛飾区","lat":35.74349358,"lon":139.84722071},{"name":"コーポ金町","province":"東京都","city":"葛飾区","address":"葛飾区東水元3-4-5","lat":35.783569,"lon":139.86596},{"name":"青戸荘","province":"東京都","city":"葛飾区","address":"葛飾区青戸8-3-8","lat":35.756184,"lon":139.849678},{"name":"金町荘","province":"東京都","city":"葛飾区","address":"葛飾区東金町5-39-7","lat":35.778655,"lon":139.880353},{"name":"立花荘","province":"東京都","city":"葛飾区","address":"葛飾区高砂2-15-3","lat":35.75006,"lon":139.865708},{"name":"第二立花荘","province":"東京都","city":"葛飾区","address":"葛飾区高砂3-28-7","lat":35.747371,"lon":139.869463},{"name":"第三立花荘","province":"東京都","city":"葛飾区","address":"葛飾区高砂3-28-8","lat":35.747402,"lon":139.86966},{"name":"あさひ　第１西水元寮","province":"東京都","city":"葛飾区","address":"葛飾区水元3-36-1","lat":35.781575,"lon":139.864568},{"name":"あさひ　第一西亀有寮","province":"東京都","city":"葛飾区","address":"葛飾区西亀有2-33-14","lat":35.759861,"lon":139.834716},{"name":"葛飾区社会福祉協議会","province":"東京都","city":"葛飾区","address":"葛飾区堀切3-34-1地域福祉・障害者センター3階","lat":35.744335,"lon":139.834522},{"name":"あさひ　第一西亀有寮","province":"東京都","city":"葛飾区","address":"葛飾区西亀有2-33-14","lat":35.75999,"lon":139.83453},{"name":"あさひ　第１西水元寮","province":"東京都","city":"葛飾区","address":"葛飾区水元3-36-1","lat":35.78249,"lon":139.86322},{"name":"さくら金町ハウス","province":"東京都","city":"葛飾区","address":"葛飾区東水元3-4-5","lat":35.78334,"lon":139.86632},{"name":"金町荘","province":"東京都","city":"葛飾区","address":"葛飾区東金町5-39-7","lat":35.77842,"lon":139.88025},{"name":"立花荘","province":"東京都","city":"葛飾区","address":"葛飾区高砂2-15-3","lat":35.74993,"lon":139.86583},{"name":"第二立花荘","province":"東京都","city":"葛飾区","address":"葛飾区高砂3-28-7","lat":35.74727,"lon":139.86949},{"name":"第三立花荘","province":"東京都","city":"葛飾区","address":"葛飾区高砂3-28-8","lat":35.74727,"lon":139.86949},{"name":"青戸荘","province":"東京都","city":"葛飾区","address":"葛飾区青戸8-3-8","lat":35.75608,"lon":139.85005},{"name":"東京かつしか赤十字母子医療センター","province":"東京都","city":"葛飾区","address":"葛飾区新宿3-7-1","lat":35.76144,"lon":139.86259},{"name":"あさひ　第一西水元寮","province":"東京都","city":"葛飾区","address":"葛飾区西水元3-36-1","lat":35.78827,"lon":139.85216},{"name":"第一立花ホーム","province":"東京都","city":"葛飾区","address":"葛飾区立石8-48-27","lat":35.74033,"lon":139.85907},{"name":"青戸荘（日住）","province":"東京都","city":"葛飾区","address":"葛飾区青戸8-3-8","lat":35.75608,"lon":139.85005},{"name":"葛飾区社会福祉協議会","province":"東京都","city":"葛飾区","address":"葛飾区堀切3-34-1地域福祉・障害者センター3階","lat":35.74439,"lon":139.83444},{"name":"あさひ　第一西水元寮","province":"東京都","city":"葛飾区","address":"葛飾区水元3-36-1","lat":35.78249,"lon":139.86322},{"name":"あさひ第一西水元寮","province":"東京都","city":"葛飾区","address":"葛飾区水元3-36-1","lat":35.78249,"lon":139.86322},{"name":"葛飾赤十字産院","province":"東京都","city":"葛飾区","address":"葛飾区立石5-11-12","lat":35.74238,"lon":139.84628},{"name":"あさひ　第１西水元寮","province":"東京都","city":"葛飾区","address":"葛飾区水元3-36-1","lat":35.78081,"lon":139.86134},{"name":"東京愛育苑ケアレジデンス","province":"東京都","city":"葛飾区","address":"葛飾区水元3-13-2","lat":35.782319,"lon":139.863493},{"name":"葛飾赤十字産院","province":"東京都","city":"葛飾区","address":"葛飾区立石5-11-12","lat":35.742474,"lon":139.846429},{"name":"葛飾区子ども発達センター","province":"東京都","city":"葛飾区","address":"葛飾区堀切3-34-1","lat":35.744335,"lon":139.834522},{"name":"葛飾荘","province":"東京都","city":"葛飾区","address":"東京都葛飾区","lat":35.74349358,"lon":139.84722071},{"name":"コーポ金町","province":"東京都","city":"葛飾区","address":"葛飾区東水元3-4-5","lat":35.783569,"lon":139.86596},{"name":"青戸荘","province":"東京都","city":"葛飾区","address":"葛飾区青戸8-3-8","lat":35.756184,"lon":139.849678},{"name":"金町荘","province":"東京都","city":"葛飾区","address":"葛飾区東金町5-39-7","lat":35.778655,"lon":139.880353},{"name":"立花荘","province":"東京都","city":"葛飾区","address":"葛飾区高砂2-15-3","lat":35.75006,"lon":139.865708},{"name":"第二立花荘","province":"東京都","city":"葛飾区","address":"葛飾区高砂3-28-7","lat":35.747371,"lon":139.869463},{"name":"第三立花荘","province":"東京都","city":"葛飾区","address":"葛飾区高砂3-28-8","lat":35.747402,"lon":139.86966},{"name":"あさひ　第１西水元寮","province":"東京都","city":"葛飾区","address":"葛飾区水元3-36-1","lat":35.781575,"lon":139.864568},{"name":"あさひ　第一西亀有寮","province":"東京都","city":"葛飾区","address":"葛飾区西亀有2-33-14","lat":35.759861,"lon":139.834716},{"name":"葛飾区社会福祉協議会","province":"東京都","city":"葛飾区","address":"葛飾区堀切3-34-1地域福祉・障害者センター3階","lat":35.744335,"lon":139.834522},{"name":"あさひ　第一西亀有寮","province":"東京都","city":"葛飾区","address":"葛飾区西亀有2-33-14","lat":35.75999,"lon":139.83453},{"name":"あさひ　第１西水元寮","province":"東京都","city":"葛飾区","address":"葛飾区水元3-36-1","lat":35.78249,"lon":139.86322},{"name":"さくら金町ハウス","province":"東京都","city":"葛飾区","address":"葛飾区東水元3-4-5","lat":35.78334,"lon":139.86632},{"name":"金町荘","province":"東京都","city":"葛飾区","address":"葛飾区東金町5-39-7","lat":35.77842,"lon":139.88025},{"name":"立花荘","province":"東京都","city":"葛飾区","address":"葛飾区高砂2-15-3","lat":35.74993,"lon":139.86583},{"name":"第二立花荘","province":"東京都","city":"葛飾区","address":"葛飾区高砂3-28-7","lat":35.74727,"lon":139.86949},{"name":"第三立花荘","province":"東京都","city":"葛飾区","address":"葛飾区高砂3-28-8","lat":35.74727,"lon":139.86949},{"name":"青戸荘","province":"東京都","city":"葛飾区","address":"葛飾区青戸8-3-8","lat":35.75608,"lon":139.85005},{"name":"東京かつしか赤十字母子医療センター","province":"東京都","city":"葛飾区","address":"葛飾区新宿3-7-1","lat":35.76144,"lon":139.86259},{"name":"あさひ　第一西水元寮","province":"東京都","city":"葛飾区","address":"葛飾区西水元3-36-1","lat":35.78827,"lon":139.85216},{"name":"第一立花ホーム","province":"東京都","city":"葛飾区","address":"葛飾区立石8-48-27","lat":35.74033,"lon":139.85907},{"name":"青戸荘（日住）","province":"東京都","city":"葛飾区","address":"葛飾区青戸8-3-8","lat":35.75608,"lon":139.85005},{"name":"葛飾区社会福祉協議会","province":"東京都","city":"葛飾区","address":"葛飾区堀切3-34-1地域福祉・障害者センター3階","lat":35.74439,"lon":139.83444},{"name":"あさひ　第一西水元寮","province":"東京都","city":"葛飾区","address":"葛飾区水元3-36-1","lat":35.78249,"lon":139.86322},{"name":"あさひ第一西水元寮","province":"東京都","city":"葛飾区","address":"葛飾区水元3-36-1","lat":35.78249,"lon":139.86322},{"name":"葛飾赤十字産院","province":"東京都","city":"葛飾区","address":"葛飾区立石5-11-12","lat":35.74238,"lon":139.84628},{"name":"あさひ　第１西水元寮","province":"東京都","city":"葛飾区","address":"葛飾区水元3-36-1","lat":35.78081,"lon":139.86134},{"name":"東京愛育苑ケアレジデンス","province":"東京都","city":"葛飾区","address":"葛飾区水元3-13-2","lat":35.782319,"lon":139.863493}]}