{"keyword":"戸数","data":[{"name":"東部地域病院","province":"東京都","city":"葛飾区","address":"東京都葛飾区亀有5丁目14-1","lat":35.7662352,"lon":139.84445332},{"name":"葛飾区社会福祉協議会","province":"東京都","city":"葛飾区","address":"葛飾区堀切3-34-1地域福祉・障害者センター3階","lat":35.744335,"lon":139.834522},{"name":"葛飾区","province":"東京都","city":"葛飾区","address":"葛飾区立石5-13-1","lat":35.7429858,"lon":139.8474075},{"name":"(株）伊藤葬祭","province":"東京都","city":"葛飾区","address":"東京都葛飾区新小岩1丁目48-8","lat":35.71652119,"lon":139.85929903},{"name":"(有）上平井葬儀社","province":"東京都","city":"葛飾区","address":"東京都葛飾区西新小岩3丁目39-8","lat":35.72376226,"lon":139.8467885},{"name":"（有）網代屋葬儀社奥戸支店","province":"東京都","city":"葛飾区","address":"東京都葛飾区奥戸3丁目28-11","lat":35.73451157,"lon":139.86399463},{"name":"（有）橋本葬儀社","province":"東京都","city":"葛飾区","address":"東京都葛飾区東立石4丁目46-6","lat":35.73720813,"lon":139.85044291},{"name":"（株）葵式典（島田会館）","province":"東京都","city":"葛飾区","address":"東京都葛飾区四つ木1丁目33-5","lat":35.7345953,"lon":139.8360199},{"name":"東間葬儀社","province":"東京都","city":"葛飾区","address":"東京都葛飾区四つ木2丁目3-9","lat":35.73532582,"lon":139.83486168},{"name":"（株）八木井","province":"東京都","city":"葛飾区","address":"東京都葛飾区堀切2丁目34-2","lat":35.74504354,"lon":139.82592301},{"name":"（有）登坂商店","province":"東京都","city":"葛飾区","address":"東京都葛飾区堀切2丁目35-3","lat":35.74575453,"lon":139.82591738},{"name":"稲垣屋葬儀店","province":"東京都","city":"葛飾区","address":"東京都葛飾区堀切6丁目33-4","lat":35.75318384,"lon":139.82765534},{"name":"（有）秋元商店","province":"東京都","city":"葛飾区","address":"東京都葛飾区東堀切2丁目13-8","lat":35.75377009,"lon":139.83614627},{"name":"（有）セレモニーマルヤマ","province":"東京都","city":"葛飾区","address":"東京都葛飾区青戸3丁目33-18","lat":35.74656001,"lon":139.8554865},{"name":"（有）網代屋葬儀社青戸支店","province":"東京都","city":"葛飾区","address":"東京都葛飾区青戸4丁目22-22","lat":35.74858752,"lon":139.8526561},{"name":"（有）島田富義葬祭式典","province":"東京都","city":"葛飾区","address":"東京都葛飾区亀有3丁目14-10","lat":35.7630218,"lon":139.84898083},{"name":"（有）網代屋葬儀社本店","province":"東京都","city":"葛飾区","address":"東京都葛飾区高砂5丁目35-11","lat":35.7517789,"lon":139.86808531},{"name":"（株）島村葬儀社","province":"東京都","city":"葛飾区","address":"東京都葛飾区金町6丁目1-14","lat":35.76745719,"lon":139.87160132},{"name":"（株）東京供養舎（かなまち会館）","province":"東京都","city":"葛飾区","address":"東京都葛飾区東金町4丁目37-1","lat":35.77491998,"lon":139.87306216},{"name":"葛飾区社会福祉協議会","province":"東京都","city":"葛飾区","address":"葛飾区堀切3-34-1地域福祉・障害者センター3階","lat":35.74439,"lon":139.83444},{"name":"東京慈恵会医科大学葛飾医療センター","province":"東京都","city":"葛飾区","address":"東京都葛飾区青戸6丁目41-2","lat":35.75182053,"lon":139.85865266},{"name":"東京都保健医療公社東部地域病院","province":"東京都","city":"葛飾区","address":"東京都葛飾区亀有5丁目14-1","lat":35.7662352,"lon":139.84445332},{"name":"四ツ木斎場","province":"東京都","city":"葛飾区","address":"東京都葛飾区白鳥2丁目9-1","lat":35.74872634,"lon":139.84334309},{"name":"金町浄水場","province":"東京都","city":"葛飾区","address":"東京都葛飾区金町浄水場1-1","lat":35.76233004,"lon":139.87836494},{"name":"水元給水所（都立水元公園内自由広場）","province":"東京都","city":"葛飾区","address":"東京都葛飾区水元公園4","lat":35.79240643,"lon":139.86812312},{"name":"区立上千葉公園","province":"東京都","city":"葛飾区","address":"東京都葛飾区東堀切3丁目25-1","lat":35.75497273,"lon":139.83903761},{"name":"区立新小岩公園","province":"東京都","city":"葛飾区","address":"東京都葛飾区西新小岩1丁目1-3","lat":35.71611839,"lon":139.85476607},{"name":"区立渋江東公園","province":"東京都","city":"葛飾区","address":"東京都葛飾区東四つ木2丁目15","lat":35.73076194,"lon":139.8434969},{"name":"葛飾区立総合スポーツセンター陸上競技場","province":"東京都","city":"葛飾区","address":"東京都葛飾区奥戸7丁目17-1","lat":35.73772504,"lon":139.86210297},{"name":"都立水元公園駐車場","province":"東京都","city":"葛飾区","address":"東京都葛飾区水元公園4","lat":35.79240643,"lon":139.86812312},{"name":"都立水元公園多目的広場","province":"東京都","city":"葛飾区","address":"東京都葛飾区東金町8丁目31","lat":35.78263806,"lon":139.88528344},{"name":"葛飾区立柴又公園（矢切の渡し）","province":"東京都","city":"葛飾区","address":"東京都葛飾区柴又7丁目","lat":35.75767798,"lon":139.87675403},{"name":"新四つ木橋地区東岸","province":"東京都","city":"葛飾区","address":"東京都葛飾区東四つ木3丁目","lat":35.73102085,"lon":139.83684505},{"name":"葛飾区立奥戸運動場","province":"東京都","city":"葛飾区","address":"東京都葛飾区高砂1丁目","lat":35.74382707,"lon":139.86149721},{"name":"葛飾区立新小岩公園","province":"東京都","city":"葛飾区","address":"東京都葛飾区西新小岩1丁目1-3","lat":35.71611839,"lon":139.85476607},{"name":"葛飾区選挙管理委員会","province":"東京都","city":"葛飾区","address":"葛飾区立石5-13-1","lat":35.743181,"lon":139.847312},{"name":"帝釈天参道","province":"東京都","city":"葛飾区","address":"東京都葛飾区柴又4-9","lat":35.757193,"lon":139.875873},{"name":"寅さん記念館","province":"東京都","city":"葛飾区","address":"東京都葛飾区柴又6-22-19","lat":35.757411,"lon":139.880486},{"name":"山田洋次ミュージアム","province":"東京都","city":"葛飾区","address":"東京都葛飾区柴又6-22-19","lat":35.75667,"lon":139.880508},{"name":"山本亭","province":"東京都","city":"葛飾区","address":"東京都葛飾区柴又7-19-32","lat":35.758044,"lon":139.880102},{"name":"両津勘吉像","province":"東京都","city":"葛飾区","address":"東京都葛飾区亀有5-33","lat":35.766919,"lon":139.847897},{"name":"薔薇と麗子像","province":"東京都","city":"葛飾区","address":"東京都葛飾区亀有5-34-1","lat":35.767045,"lon":139.848177},{"name":"両津勘吉祭り姿像","province":"東京都","city":"葛飾区","address":"東京都葛飾区亀有3-25-1","lat":35.766167,"lon":139.847466},{"name":"ようこそ亀有へ両さん像","province":"東京都","city":"葛飾区","address":"東京都葛飾区亀有3-26","lat":35.766036,"lon":139.847839},{"name":"ようこそこち亀の街へ！両津・中川・麗子がお出迎え像","province":"東京都","city":"葛飾区","address":"東京都葛飾区亀有3-26","lat":35.766512,"lon":139.848042},{"name":"中川像","province":"東京都","city":"葛飾区","address":"東京都葛飾区亀有3-29","lat":35.766014,"lon":139.848533},{"name":"少年よ、あの星を目指せ！両さん像","province":"東京都","city":"葛飾区","address":"東京都葛飾区亀有3-42-24","lat":35.765548,"lon":139.851006},{"name":"ワハハ両さん像","province":"東京都","city":"葛飾区","address":"東京都葛飾区亀有2-63-7","lat":35.762992,"lon":139.850629},{"name":"本田像","province":"東京都","city":"葛飾区","address":"東京都葛飾区亀有3-13-1","lat":35.762914,"lon":139.847796},{"name":"少年両さん像","province":"東京都","city":"葛飾区","address":"東京都葛飾区亀有3-15","lat":35.76411,"lon":139.848788},{"name":"サンバ両さん像","province":"東京都","city":"葛飾区","address":"東京都葛飾区亀有3-18-4","lat":35.764786,"lon":139.847842},{"name":"敬礼両さん像","province":"東京都","city":"葛飾区","address":"東京都葛飾区亀有5-14","lat":35.767554,"lon":139.845388},{"name":"ダブルピース両さん像","province":"東京都","city":"葛飾区","address":"東京都葛飾区亀有5-36-1","lat":35.767642,"lon":139.848496},{"name":"ひとやすみ両さん像","province":"東京都","city":"葛飾区","address":"東京都葛飾区亀有5-36-1","lat":35.767795,"lon":139.848677},{"name":"麗子像","province":"東京都","city":"葛飾区","address":"東京都葛飾区亀有3-26-1","lat":35.766683,"lon":139.84845},{"name":"まちの台所、絵本劇場、図書サービスカウンターほか","province":"東京都","city":"葛飾区","address":"東京都葛飾区亀有3-26-1","lat":35.766683,"lon":139.84845},{"name":"新小岩駅北口","province":"東京都","city":"葛飾区","address":"東京都葛飾区西新小岩1-2","lat":35.717394,"lon":139.85783},{"name":"新小岩駅南口","province":"東京都","city":"葛飾区","address":"東京都葛飾区新小岩1-47","lat":35.7165,"lon":139.858734},{"name":"新小岩駅東北広場","province":"東京都","city":"葛飾区","address":"東京都葛飾区東新小岩1-18","lat":35.718695,"lon":139.8593},{"name":"スカイデッキたつみ","province":"東京都","city":"葛飾区","address":"東京都葛飾区東新小岩1-18","lat":35.718223,"lon":139.859113},{"name":"石崎了像","province":"東京都","city":"葛飾区","address":"東京都葛飾区東四つ木4-15-10","lat":35.732455,"lon":139.835797},{"name":"日向小次郎像","province":"東京都","city":"葛飾区","address":"東京都葛飾区四つ木1-16-24","lat":35.733356,"lon":139.836118},{"name":"大空翼像","province":"東京都","city":"葛飾区","address":"東京都葛飾区四つ木1-22-3","lat":35.734056,"lon":139.834082},{"name":"ロベルト本郷と大空翼像","province":"東京都","city":"葛飾区","address":"東京都葛飾区四つ木2-3-3","lat":35.736242,"lon":139.83532},{"name":"中沢早苗像","province":"東京都","city":"葛飾区","address":"東京都葛飾区四つ木2-28-1","lat":35.735829,"lon":139.839385},{"name":"岬太郎像","province":"東京都","city":"葛飾区","address":"東京都葛飾区東立石3-3-1","lat":35.735412,"lon":139.842984},{"name":"若林源三像","province":"東京都","city":"葛飾区","address":"東京都葛飾区立石4-28-14","lat":35.739902,"lon":139.848728},{"name":"大空翼像（ヒールリフト）","province":"東京都","city":"葛飾区","address":"東京都葛飾区立石1-21-6","lat":35.737792,"lon":139.849803},{"name":"大空翼像（ツインシュート）","province":"東京都","city":"葛飾区","address":"東京都葛飾区立石6-4-1","lat":35.744681,"lon":139.84749},{"name":"堀切菖蒲園","province":"東京都","city":"葛飾区","address":"東京都葛飾区堀切2-19-1","lat":35.742426,"lon":139.826113},{"name":"産業技術研究センター城東支所","province":"東京都","city":"葛飾区","address":"東京都葛飾区青戸7丁目2-5","lat":35.75314809,"lon":139.85219761},{"name":"南葛飾高等学校","province":"東京都","city":"葛飾区","address":"東京都葛飾区立石6丁目4-1","lat":35.74460459,"lon":139.84813447},{"name":"葛飾野高等学校","province":"東京都","city":"葛飾区","address":"東京都葛飾区亀有1丁目7-1","lat":35.7557838,"lon":139.84568418},{"name":"農産高等学校","province":"東京都","city":"葛飾区","address":"東京都葛飾区西亀有1丁目28-1","lat":35.7591722,"lon":139.84153162},{"name":"葛飾商業高等学校","province":"東京都","city":"葛飾区","address":"東京都葛飾区新宿3丁目14-1","lat":35.75721985,"lon":139.86483258},{"name":"葛飾総合高等学校","province":"東京都","city":"葛飾区","address":"東京都葛飾区南水元4丁目21-1","lat":35.77796689,"lon":139.86473761},{"name":"東部地域病院","province":"東京都","city":"葛飾区","address":"東京都葛飾区亀有5丁目14-1","lat":35.7662352,"lon":139.84445332},{"name":"葛飾区社会福祉協議会","province":"東京都","city":"葛飾区","address":"葛飾区堀切3-34-1地域福祉・障害者センター3階","lat":35.744335,"lon":139.834522},{"name":"葛飾区社会福祉協議会","province":"東京都","city":"葛飾区","address":"葛飾区堀切3-34-1地域福祉・障害者センター3階","lat":35.74439,"lon":139.83444},{"name":"東京慈恵会医科大学葛飾医療センター","province":"東京都","city":"葛飾区","address":"東京都葛飾区青戸6丁目41-2","lat":35.75182053,"lon":139.85865266},{"name":"東京都保健医療公社東部地域病院","province":"東京都","city":"葛飾区","address":"東京都葛飾区亀有5丁目14-1","lat":35.7662352,"lon":139.84445332},{"name":"四ツ木斎場","province":"東京都","city":"葛飾区","address":"東京都葛飾区白鳥2丁目9-1","lat":35.74872634,"lon":139.84334309},{"name":"金町浄水場","province":"東京都","city":"葛飾区","address":"東京都葛飾区金町浄水場1-1","lat":35.76233004,"lon":139.87836494},{"name":"水元給水所（都立水元公園内自由広場）","province":"東京都","city":"葛飾区","address":"東京都葛飾区水元公園4","lat":35.79240643,"lon":139.86812312},{"name":"区立上千葉公園","province":"東京都","city":"葛飾区","address":"東京都葛飾区東堀切3丁目25-1","lat":35.75497273,"lon":139.83903761},{"name":"区立新小岩公園","province":"東京都","city":"葛飾区","address":"東京都葛飾区西新小岩1丁目1-3","lat":35.71611839,"lon":139.85476607},{"name":"区立渋江東公園","province":"東京都","city":"葛飾区","address":"東京都葛飾区東四つ木2丁目15","lat":35.73076194,"lon":139.8434969},{"name":"葛飾区立総合スポーツセンター陸上競技場","province":"東京都","city":"葛飾区","address":"東京都葛飾区奥戸7丁目17-1","lat":35.73772504,"lon":139.86210297},{"name":"都立水元公園駐車場","province":"東京都","city":"葛飾区","address":"東京都葛飾区水元公園4","lat":35.79240643,"lon":139.86812312},{"name":"都立水元公園多目的広場","province":"東京都","city":"葛飾区","address":"東京都葛飾区東金町8丁目31","lat":35.78263806,"lon":139.88528344},{"name":"葛飾区立柴又公園（矢切の渡し）","province":"東京都","city":"葛飾区","address":"東京都葛飾区柴又7丁目","lat":35.75767798,"lon":139.87675403},{"name":"新四つ木橋地区東岸","province":"東京都","city":"葛飾区","address":"東京都葛飾区東四つ木3丁目","lat":35.73102085,"lon":139.83684505},{"name":"葛飾区立奥戸運動場","province":"東京都","city":"葛飾区","address":"東京都葛飾区高砂1丁目","lat":35.74382707,"lon":139.86149721},{"name":"葛飾区立新小岩公園","province":"東京都","city":"葛飾区","address":"東京都葛飾区西新小岩1丁目1-3","lat":35.71611839,"lon":139.85476607},{"name":"帝釈天参道","province":"東京都","city":"葛飾区","address":"東京都葛飾区柴又4-9","lat":35.757193,"lon":139.875873},{"name":"寅さん記念館","province":"東京都","city":"葛飾区","address":"東京都葛飾区柴又6-22-19","lat":35.757411,"lon":139.880486},{"name":"山田洋次ミュージアム","province":"東京都","city":"葛飾区","address":"東京都葛飾区柴又6-22-19","lat":35.75667,"lon":139.880508},{"name":"山本亭","province":"東京都","city":"葛飾区","address":"東京都葛飾区柴又7-19-32","lat":35.758044,"lon":139.880102},{"name":"両津勘吉像","province":"東京都","city":"葛飾区","address":"東京都葛飾区亀有5-33","lat":35.766919,"lon":139.847897},{"name":"薔薇と麗子像","province":"東京都","city":"葛飾区","address":"東京都葛飾区亀有5-34-1","lat":35.767045,"lon":139.848177},{"name":"両津勘吉祭り姿像","province":"東京都","city":"葛飾区","address":"東京都葛飾区亀有3-25-1","lat":35.766167,"lon":139.847466},{"name":"ようこそ亀有へ両さん像","province":"東京都","city":"葛飾区","address":"東京都葛飾区亀有3-26","lat":35.766036,"lon":139.847839},{"name":"ようこそこち亀の街へ！両津・中川・麗子がお出迎え像","province":"東京都","city":"葛飾区","address":"東京都葛飾区亀有3-26","lat":35.766512,"lon":139.848042},{"name":"中川像","province":"東京都","city":"葛飾区","address":"東京都葛飾区亀有3-29","lat":35.766014,"lon":139.848533},{"name":"少年よ、あの星を目指せ！両さん像","province":"東京都","city":"葛飾区","address":"東京都葛飾区亀有3-42-24","lat":35.765548,"lon":139.851006},{"name":"ワハハ両さん像","province":"東京都","city":"葛飾区","address":"東京都葛飾区亀有2-63-7","lat":35.762992,"lon":139.850629},{"name":"本田像","province":"東京都","city":"葛飾区","address":"東京都葛飾区亀有3-13-1","lat":35.762914,"lon":139.847796},{"name":"少年両さん像","province":"東京都","city":"葛飾区","address":"東京都葛飾区亀有3-15","lat":35.76411,"lon":139.848788},{"name":"サンバ両さん像","province":"東京都","city":"葛飾区","address":"東京都葛飾区亀有3-18-4","lat":35.764786,"lon":139.847842},{"name":"敬礼両さん像","province":"東京都","city":"葛飾区","address":"東京都葛飾区亀有5-14","lat":35.767554,"lon":139.845388},{"name":"ダブルピース両さん像","province":"東京都","city":"葛飾区","address":"東京都葛飾区亀有5-36-1","lat":35.767642,"lon":139.848496},{"name":"ひとやすみ両さん像","province":"東京都","city":"葛飾区","address":"東京都葛飾区亀有5-36-1","lat":35.767795,"lon":139.848677},{"name":"麗子像","province":"東京都","city":"葛飾区","address":"東京都葛飾区亀有3-26-1","lat":35.766683,"lon":139.84845},{"name":"まちの台所、絵本劇場、図書サービスカウンターほか","province":"東京都","city":"葛飾区","address":"東京都葛飾区亀有3-26-1","lat":35.766683,"lon":139.84845},{"name":"新小岩駅北口","province":"東京都","city":"葛飾区","address":"東京都葛飾区西新小岩1-2","lat":35.717394,"lon":139.85783},{"name":"新小岩駅南口","province":"東京都","city":"葛飾区","address":"東京都葛飾区新小岩1-47","lat":35.7165,"lon":139.858734},{"name":"新小岩駅東北広場","province":"東京都","city":"葛飾区","address":"東京都葛飾区東新小岩1-18","lat":35.718695,"lon":139.8593},{"name":"スカイデッキたつみ","province":"東京都","city":"葛飾区","address":"東京都葛飾区東新小岩1-18","lat":35.718223,"lon":139.859113},{"name":"石崎了像","province":"東京都","city":"葛飾区","address":"東京都葛飾区東四つ木4-15-10","lat":35.732455,"lon":139.835797},{"name":"日向小次郎像","province":"東京都","city":"葛飾区","address":"東京都葛飾区四つ木1-16-24","lat":35.733356,"lon":139.836118},{"name":"大空翼像","province":"東京都","city":"葛飾区","address":"東京都葛飾区四つ木1-22-3","lat":35.734056,"lon":139.834082},{"name":"ロベルト本郷と大空翼像","province":"東京都","city":"葛飾区","address":"東京都葛飾区四つ木2-3-3","lat":35.736242,"lon":139.83532},{"name":"中沢早苗像","province":"東京都","city":"葛飾区","address":"東京都葛飾区四つ木2-28-1","lat":35.735829,"lon":139.839385},{"name":"岬太郎像","province":"東京都","city":"葛飾区","address":"東京都葛飾区東立石3-3-1","lat":35.735412,"lon":139.842984},{"name":"若林源三像","province":"東京都","city":"葛飾区","address":"東京都葛飾区立石4-28-14","lat":35.739902,"lon":139.848728},{"name":"大空翼像（ヒールリフト）","province":"東京都","city":"葛飾区","address":"東京都葛飾区立石1-21-6","lat":35.737792,"lon":139.849803},{"name":"大空翼像（ツインシュート）","province":"東京都","city":"葛飾区","address":"東京都葛飾区立石6-4-1","lat":35.744681,"lon":139.84749},{"name":"堀切菖蒲園","province":"東京都","city":"葛飾区","address":"東京都葛飾区堀切2-19-1","lat":35.742426,"lon":139.826113},{"name":"産業技術研究センター城東支所","province":"東京都","city":"葛飾区","address":"東京都葛飾区青戸7丁目2-5","lat":35.75314809,"lon":139.85219761},{"name":"南葛飾高等学校","province":"東京都","city":"葛飾区","address":"東京都葛飾区立石6丁目4-1","lat":35.74460459,"lon":139.84813447},{"name":"葛飾野高等学校","province":"東京都","city":"葛飾区","address":"東京都葛飾区亀有1丁目7-1","lat":35.7557838,"lon":139.84568418},{"name":"農産高等学校","province":"東京都","city":"葛飾区","address":"東京都葛飾区西亀有1丁目28-1","lat":35.7591722,"lon":139.84153162},{"name":"葛飾商業高等学校","province":"東京都","city":"葛飾区","address":"東京都葛飾区新宿3丁目14-1","lat":35.75721985,"lon":139.86483258},{"name":"葛飾総合高等学校","province":"東京都","city":"葛飾区","address":"東京都葛飾区南水元4丁目21-1","lat":35.77796689,"lon":139.86473761},{"name":"東部地域病院","province":"東京都","city":"葛飾区","address":"東京都葛飾区亀有5丁目14-1","lat":35.7662352,"lon":139.84445332},{"name":"東京慈恵会医科大学葛飾医療センター","province":"東京都","city":"葛飾区","address":"東京都葛飾区青戸6丁目41-2","lat":35.75182053,"lon":139.85865266},{"name":"東京都保健医療公社東部地域病院","province":"東京都","city":"葛飾区","address":"東京都葛飾区亀有5丁目14-1","lat":35.7662352,"lon":139.84445332},{"name":"帝釈天参道","province":"東京都","city":"葛飾区","address":"東京都葛飾区柴又4-9","lat":35.757193,"lon":139.875873},{"name":"寅さん記念館","province":"東京都","city":"葛飾区","address":"東京都葛飾区柴又6-22-19","lat":35.757411,"lon":139.880486},{"name":"山田洋次ミュージアム","province":"東京都","city":"葛飾区","address":"東京都葛飾区柴又6-22-19","lat":35.75667,"lon":139.880508},{"name":"山本亭","province":"東京都","city":"葛飾区","address":"東京都葛飾区柴又7-19-32","lat":35.758044,"lon":139.880102},{"name":"両津勘吉像","province":"東京都","city":"葛飾区","address":"東京都葛飾区亀有5-33","lat":35.766919,"lon":139.847897},{"name":"薔薇と麗子像","province":"東京都","city":"葛飾区","address":"東京都葛飾区亀有5-34-1","lat":35.767045,"lon":139.848177},{"name":"両津勘吉祭り姿像","province":"東京都","city":"葛飾区","address":"東京都葛飾区亀有3-25-1","lat":35.766167,"lon":139.847466},{"name":"ようこそ亀有へ両さん像","province":"東京都","city":"葛飾区","address":"東京都葛飾区亀有3-26","lat":35.766036,"lon":139.847839},{"name":"ようこそこち亀の街へ！両津・中川・麗子がお出迎え像","province":"東京都","city":"葛飾区","address":"東京都葛飾区亀有3-26","lat":35.766512,"lon":139.848042},{"name":"中川像","province":"東京都","city":"葛飾区","address":"東京都葛飾区亀有3-29","lat":35.766014,"lon":139.848533},{"name":"少年よ、あの星を目指せ！両さん像","province":"東京都","city":"葛飾区","address":"東京都葛飾区亀有3-42-24","lat":35.765548,"lon":139.851006},{"name":"ワハハ両さん像","province":"東京都","city":"葛飾区","address":"東京都葛飾区亀有2-63-7","lat":35.762992,"lon":139.850629},{"name":"本田像","province":"東京都","city":"葛飾区","address":"東京都葛飾区亀有3-13-1","lat":35.762914,"lon":139.847796},{"name":"少年両さん像","province":"東京都","city":"葛飾区","address":"東京都葛飾区亀有3-15","lat":35.76411,"lon":139.848788},{"name":"サンバ両さん像","province":"東京都","city":"葛飾区","address":"東京都葛飾区亀有3-18-4","lat":35.764786,"lon":139.847842},{"name":"敬礼両さん像","province":"東京都","city":"葛飾区","address":"東京都葛飾区亀有5-14","lat":35.767554,"lon":139.845388},{"name":"ダブルピース両さん像","province":"東京都","city":"葛飾区","address":"東京都葛飾区亀有5-36-1","lat":35.767642,"lon":139.848496},{"name":"ひとやすみ両さん像","province":"東京都","city":"葛飾区","address":"東京都葛飾区亀有5-36-1","lat":35.767795,"lon":139.848677},{"name":"麗子像","province":"東京都","city":"葛飾区","address":"東京都葛飾区亀有3-26-1","lat":35.766683,"lon":139.84845},{"name":"まちの台所、絵本劇場、図書サービスカウンターほか","province":"東京都","city":"葛飾区","address":"東京都葛飾区亀有3-26-1","lat":35.766683,"lon":139.84845},{"name":"新小岩駅北口","province":"東京都","city":"葛飾区","address":"東京都葛飾区西新小岩1-2","lat":35.717394,"lon":139.85783},{"name":"新小岩駅南口","province":"東京都","city":"葛飾区","address":"東京都葛飾区新小岩1-47","lat":35.7165,"lon":139.858734},{"name":"新小岩駅東北広場","province":"東京都","city":"葛飾区","address":"東京都葛飾区東新小岩1-18","lat":35.718695,"lon":139.8593},{"name":"スカイデッキたつみ","province":"東京都","city":"葛飾区","address":"東京都葛飾区東新小岩1-18","lat":35.718223,"lon":139.859113},{"name":"石崎了像","province":"東京都","city":"葛飾区","address":"東京都葛飾区東四つ木4-15-10","lat":35.732455,"lon":139.835797},{"name":"日向小次郎像","province":"東京都","city":"葛飾区","address":"東京都葛飾区四つ木1-16-24","lat":35.733356,"lon":139.836118},{"name":"大空翼像","province":"東京都","city":"葛飾区","address":"東京都葛飾区四つ木1-22-3","lat":35.734056,"lon":139.834082},{"name":"ロベルト本郷と大空翼像","province":"東京都","city":"葛飾区","address":"東京都葛飾区四つ木2-3-3","lat":35.736242,"lon":139.83532},{"name":"中沢早苗像","province":"東京都","city":"葛飾区","address":"東京都葛飾区四つ木2-28-1","lat":35.735829,"lon":139.839385},{"name":"岬太郎像","province":"東京都","city":"葛飾区","address":"東京都葛飾区東立石3-3-1","lat":35.735412,"lon":139.842984},{"name":"若林源三像","province":"東京都","city":"葛飾区","address":"東京都葛飾区立石4-28-14","lat":35.739902,"lon":139.848728},{"name":"大空翼像（ヒールリフト）","province":"東京都","city":"葛飾区","address":"東京都葛飾区立石1-21-6","lat":35.737792,"lon":139.849803},{"name":"大空翼像（ツインシュート）","province":"東京都","city":"葛飾区","address":"東京都葛飾区立石6-4-1","lat":35.744681,"lon":139.84749},{"name":"堀切菖蒲園","province":"東京都","city":"葛飾区","address":"東京都葛飾区堀切2-19-1","lat":35.742426,"lon":139.826113},{"name":"産業技術研究センター城東支所","province":"東京都","city":"葛飾区","address":"東京都葛飾区青戸7丁目2-5","lat":35.75314809,"lon":139.85219761},{"name":"南葛飾高等学校","province":"東京都","city":"葛飾区","address":"東京都葛飾区立石6丁目4-1","lat":35.74460459,"lon":139.84813447},{"name":"葛飾野高等学校","province":"東京都","city":"葛飾区","address":"東京都葛飾区亀有1丁目7-1","lat":35.7557838,"lon":139.84568418},{"name":"農産高等学校","province":"東京都","city":"葛飾区","address":"東京都葛飾区西亀有1丁目28-1","lat":35.7591722,"lon":139.84153162},{"name":"葛飾商業高等学校","province":"東京都","city":"葛飾区","address":"東京都葛飾区新宿3丁目14-1","lat":35.75721985,"lon":139.86483258},{"name":"葛飾総合高等学校","province":"東京都","city":"葛飾区","address":"東京都葛飾区南水元4丁目21-1","lat":35.77796689,"lon":139.86473761},{"name":"東部地域病院","province":"東京都","city":"葛飾区","address":"東京都葛飾区亀有5丁目14-1","lat":35.7662352,"lon":139.84445332},{"name":"東京慈恵会医科大学葛飾医療センター","province":"東京都","city":"葛飾区","address":"東京都葛飾区青戸6丁目41-2","lat":35.75182053,"lon":139.85865266},{"name":"東京都保健医療公社東部地域病院","province":"東京都","city":"葛飾区","address":"東京都葛飾区亀有5丁目14-1","lat":35.7662352,"lon":139.84445332},{"name":"帝釈天参道","province":"東京都","city":"葛飾区","address":"東京都葛飾区柴又4-9","lat":35.757193,"lon":139.875873},{"name":"寅さん記念館","province":"東京都","city":"葛飾区","address":"東京都葛飾区柴又6-22-19","lat":35.757411,"lon":139.880486},{"name":"山田洋次ミュージアム","province":"東京都","city":"葛飾区","address":"東京都葛飾区柴又6-22-19","lat":35.75667,"lon":139.880508},{"name":"山本亭","province":"東京都","city":"葛飾区","address":"東京都葛飾区柴又7-19-32","lat":35.758044,"lon":139.880102},{"name":"両津勘吉像","province":"東京都","city":"葛飾区","address":"東京都葛飾区亀有5-33","lat":35.766919,"lon":139.847897},{"name":"薔薇と麗子像","province":"東京都","city":"葛飾区","address":"東京都葛飾区亀有5-34-1","lat":35.767045,"lon":139.848177},{"name":"両津勘吉祭り姿像","province":"東京都","city":"葛飾区","address":"東京都葛飾区亀有3-25-1","lat":35.766167,"lon":139.847466},{"name":"ようこそ亀有へ両さん像","province":"東京都","city":"葛飾区","address":"東京都葛飾区亀有3-26","lat":35.766036,"lon":139.847839},{"name":"ようこそこち亀の街へ！両津・中川・麗子がお出迎え像","province":"東京都","city":"葛飾区","address":"東京都葛飾区亀有3-26","lat":35.766512,"lon":139.848042},{"name":"中川像","province":"東京都","city":"葛飾区","address":"東京都葛飾区亀有3-29","lat":35.766014,"lon":139.848533},{"name":"少年よ、あの星を目指せ！両さん像","province":"東京都","city":"葛飾区","address":"東京都葛飾区亀有3-42-24","lat":35.765548,"lon":139.851006},{"name":"ワハハ両さん像","province":"東京都","city":"葛飾区","address":"東京都葛飾区亀有2-63-7","lat":35.762992,"lon":139.850629},{"name":"本田像","province":"東京都","city":"葛飾区","address":"東京都葛飾区亀有3-13-1","lat":35.762914,"lon":139.847796},{"name":"少年両さん像","province":"東京都","city":"葛飾区","address":"東京都葛飾区亀有3-15","lat":35.76411,"lon":139.848788},{"name":"サンバ両さん像","province":"東京都","city":"葛飾区","address":"東京都葛飾区亀有3-18-4","lat":35.764786,"lon":139.847842},{"name":"敬礼両さん像","province":"東京都","city":"葛飾区","address":"東京都葛飾区亀有5-14","lat":35.767554,"lon":139.845388},{"name":"ダブルピース両さん像","province":"東京都","city":"葛飾区","address":"東京都葛飾区亀有5-36-1","lat":35.767642,"lon":139.848496},{"name":"ひとやすみ両さん像","province":"東京都","city":"葛飾区","address":"東京都葛飾区亀有5-36-1","lat":35.767795,"lon":139.848677},{"name":"麗子像","province":"東京都","city":"葛飾区","address":"東京都葛飾区亀有3-26-1","lat":35.766683,"lon":139.84845},{"name":"まちの台所、絵本劇場、図書サービスカウンターほか","province":"東京都","city":"葛飾区","address":"東京都葛飾区亀有3-26-1","lat":35.766683,"lon":139.84845},{"name":"新小岩駅北口","province":"東京都","city":"葛飾区","address":"東京都葛飾区西新小岩1-2","lat":35.717394,"lon":139.85783},{"name":"新小岩駅南口","province":"東京都","city":"葛飾区","address":"東京都葛飾区新小岩1-47","lat":35.7165,"lon":139.858734},{"name":"新小岩駅東北広場","province":"東京都","city":"葛飾区","address":"東京都葛飾区東新小岩1-18","lat":35.718695,"lon":139.8593},{"name":"スカイデッキたつみ","province":"東京都","city":"葛飾区","address":"東京都葛飾区東新小岩1-18","lat":35.718223,"lon":139.859113},{"name":"石崎了像","province":"東京都","city":"葛飾区","address":"東京都葛飾区東四つ木4-15-10","lat":35.732455,"lon":139.835797},{"name":"日向小次郎像","province":"東京都","city":"葛飾区","address":"東京都葛飾区四つ木1-16-24","lat":35.733356,"lon":139.836118},{"name":"大空翼像","province":"東京都","city":"葛飾区","address":"東京都葛飾区四つ木1-22-3","lat":35.734056,"lon":139.834082},{"name":"ロベルト本郷と大空翼像","province":"東京都","city":"葛飾区","address":"東京都葛飾区四つ木2-3-3","lat":35.736242,"lon":139.83532},{"name":"中沢早苗像","province":"東京都","city":"葛飾区","address":"東京都葛飾区四つ木2-28-1","lat":35.735829,"lon":139.839385},{"name":"岬太郎像","province":"東京都","city":"葛飾区","address":"東京都葛飾区東立石3-3-1","lat":35.735412,"lon":139.842984},{"name":"若林源三像","province":"東京都","city":"葛飾区","address":"東京都葛飾区立石4-28-14","lat":35.739902,"lon":139.848728},{"name":"大空翼像（ヒールリフト）","province":"東京都","city":"葛飾区","address":"東京都葛飾区立石1-21-6","lat":35.737792,"lon":139.849803},{"name":"大空翼像（ツインシュート）","province":"東京都","city":"葛飾区","address":"東京都葛飾区立石6-4-1","lat":35.744681,"lon":139.84749},{"name":"堀切菖蒲園","province":"東京都","city":"葛飾区","address":"東京都葛飾区堀切2-19-1","lat":35.742426,"lon":139.826113},{"name":"産業技術研究センター城東支所","province":"東京都","city":"葛飾区","address":"東京都葛飾区青戸7丁目2-5","lat":35.75314809,"lon":139.85219761},{"name":"南葛飾高等学校","province":"東京都","city":"葛飾区","address":"東京都葛飾区立石6丁目4-1","lat":35.74460459,"lon":139.84813447},{"name":"葛飾野高等学校","province":"東京都","city":"葛飾区","address":"東京都葛飾区亀有1丁目7-1","lat":35.7557838,"lon":139.84568418},{"name":"農産高等学校","province":"東京都","city":"葛飾区","address":"東京都葛飾区西亀有1丁目28-1","lat":35.7591722,"lon":139.84153162},{"name":"葛飾商業高等学校","province":"東京都","city":"葛飾区","address":"東京都葛飾区新宿3丁目14-1","lat":35.75721985,"lon":139.86483258},{"name":"葛飾総合高等学校","province":"東京都","city":"葛飾区","address":"東京都葛飾区南水元4丁目21-1","lat":35.77796689,"lon":139.86473761},{"name":"東部地域病院","province":"東京都","city":"葛飾区","address":"東京都葛飾区亀有5丁目14-1","lat":35.7662352,"lon":139.84445332},{"name":"帝釈天参道","province":"東京都","city":"葛飾区","address":"東京都葛飾区柴又4-9","lat":35.757193,"lon":139.875873},{"name":"寅さん記念館","province":"東京都","city":"葛飾区","address":"東京都葛飾区柴又6-22-19","lat":35.757411,"lon":139.880486},{"name":"山田洋次ミュージアム","province":"東京都","city":"葛飾区","address":"東京都葛飾区柴又6-22-19","lat":35.75667,"lon":139.880508},{"name":"山本亭","province":"東京都","city":"葛飾区","address":"東京都葛飾区柴又7-19-32","lat":35.758044,"lon":139.880102},{"name":"両津勘吉像","province":"東京都","city":"葛飾区","address":"東京都葛飾区亀有5-33","lat":35.766919,"lon":139.847897},{"name":"薔薇と麗子像","province":"東京都","city":"葛飾区","address":"東京都葛飾区亀有5-34-1","lat":35.767045,"lon":139.848177},{"name":"両津勘吉祭り姿像","province":"東京都","city":"葛飾区","address":"東京都葛飾区亀有3-25-1","lat":35.766167,"lon":139.847466},{"name":"ようこそ亀有へ両さん像","province":"東京都","city":"葛飾区","address":"東京都葛飾区亀有3-26","lat":35.766036,"lon":139.847839},{"name":"ようこそこち亀の街へ！両津・中川・麗子がお出迎え像","province":"東京都","city":"葛飾区","address":"東京都葛飾区亀有3-26","lat":35.766512,"lon":139.848042},{"name":"中川像","province":"東京都","city":"葛飾区","address":"東京都葛飾区亀有3-29","lat":35.766014,"lon":139.848533},{"name":"少年よ、あの星を目指せ！両さん像","province":"東京都","city":"葛飾区","address":"東京都葛飾区亀有3-42-24","lat":35.765548,"lon":139.851006},{"name":"ワハハ両さん像","province":"東京都","city":"葛飾区","address":"東京都葛飾区亀有2-63-7","lat":35.762992,"lon":139.850629},{"name":"本田像","province":"東京都","city":"葛飾区","address":"東京都葛飾区亀有3-13-1","lat":35.762914,"lon":139.847796},{"name":"少年両さん像","province":"東京都","city":"葛飾区","address":"東京都葛飾区亀有3-15","lat":35.76411,"lon":139.848788},{"name":"サンバ両さん像","province":"東京都","city":"葛飾区","address":"東京都葛飾区亀有3-18-4","lat":35.764786,"lon":139.847842},{"name":"敬礼両さん像","province":"東京都","city":"葛飾区","address":"東京都葛飾区亀有5-14","lat":35.767554,"lon":139.845388},{"name":"ダブルピース両さん像","province":"東京都","city":"葛飾区","address":"東京都葛飾区亀有5-36-1","lat":35.767642,"lon":139.848496},{"name":"ひとやすみ両さん像","province":"東京都","city":"葛飾区","address":"東京都葛飾区亀有5-36-1","lat":35.767795,"lon":139.848677},{"name":"麗子像","province":"東京都","city":"葛飾区","address":"東京都葛飾区亀有3-26-1","lat":35.766683,"lon":139.84845},{"name":"まちの台所、絵本劇場、図書サービスカウンターほか","province":"東京都","city":"葛飾区","address":"東京都葛飾区亀有3-26-1","lat":35.766683,"lon":139.84845},{"name":"新小岩駅北口","province":"東京都","city":"葛飾区","address":"東京都葛飾区西新小岩1-2","lat":35.717394,"lon":139.85783},{"name":"新小岩駅南口","province":"東京都","city":"葛飾区","address":"東京都葛飾区新小岩1-47","lat":35.7165,"lon":139.858734},{"name":"新小岩駅東北広場","province":"東京都","city":"葛飾区","address":"東京都葛飾区東新小岩1-18","lat":35.718695,"lon":139.8593},{"name":"スカイデッキたつみ","province":"東京都","city":"葛飾区","address":"東京都葛飾区東新小岩1-18","lat":35.718223,"lon":139.859113},{"name":"石崎了像","province":"東京都","city":"葛飾区","address":"東京都葛飾区東四つ木4-15-10","lat":35.732455,"lon":139.835797},{"name":"日向小次郎像","province":"東京都","city":"葛飾区","address":"東京都葛飾区四つ木1-16-24","lat":35.733356,"lon":139.836118},{"name":"大空翼像","province":"東京都","city":"葛飾区","address":"東京都葛飾区四つ木1-22-3","lat":35.734056,"lon":139.834082},{"name":"ロベルト本郷と大空翼像","province":"東京都","city":"葛飾区","address":"東京都葛飾区四つ木2-3-3","lat":35.736242,"lon":139.83532},{"name":"中沢早苗像","province":"東京都","city":"葛飾区","address":"東京都葛飾区四つ木2-28-1","lat":35.735829,"lon":139.839385},{"name":"岬太郎像","province":"東京都","city":"葛飾区","address":"東京都葛飾区東立石3-3-1","lat":35.735412,"lon":139.842984},{"name":"若林源三像","province":"東京都","city":"葛飾区","address":"東京都葛飾区立石4-28-14","lat":35.739902,"lon":139.848728},{"name":"大空翼像（ヒールリフト）","province":"東京都","city":"葛飾区","address":"東京都葛飾区立石1-21-6","lat":35.737792,"lon":139.849803},{"name":"大空翼像（ツインシュート）","province":"東京都","city":"葛飾区","address":"東京都葛飾区立石6-4-1","lat":35.744681,"lon":139.84749},{"name":"堀切菖蒲園","province":"東京都","city":"葛飾区","address":"東京都葛飾区堀切2-19-1","lat":35.742426,"lon":139.826113},{"name":"東部地域病院","province":"東京都","city":"葛飾区","address":"東京都葛飾区亀有5丁目14-1","lat":35.7662352,"lon":139.84445332},{"name":"帝釈天参道","province":"東京都","city":"葛飾区","address":"東京都葛飾区柴又4-9","lat":35.757193,"lon":139.875873},{"name":"寅さん記念館","province":"東京都","city":"葛飾区","address":"東京都葛飾区柴又6-22-19","lat":35.757411,"lon":139.880486},{"name":"山田洋次ミュージアム","province":"東京都","city":"葛飾区","address":"東京都葛飾区柴又6-22-19","lat":35.75667,"lon":139.880508},{"name":"山本亭","province":"東京都","city":"葛飾区","address":"東京都葛飾区柴又7-19-32","lat":35.758044,"lon":139.880102},{"name":"両津勘吉像","province":"東京都","city":"葛飾区","address":"東京都葛飾区亀有5-33","lat":35.766919,"lon":139.847897},{"name":"薔薇と麗子像","province":"東京都","city":"葛飾区","address":"東京都葛飾区亀有5-34-1","lat":35.767045,"lon":139.848177},{"name":"両津勘吉祭り姿像","province":"東京都","city":"葛飾区","address":"東京都葛飾区亀有3-25-1","lat":35.766167,"lon":139.847466},{"name":"ようこそ亀有へ両さん像","province":"東京都","city":"葛飾区","address":"東京都葛飾区亀有3-26","lat":35.766036,"lon":139.847839},{"name":"ようこそこち亀の街へ！両津・中川・麗子がお出迎え像","province":"東京都","city":"葛飾区","address":"東京都葛飾区亀有3-26","lat":35.766512,"lon":139.848042},{"name":"中川像","province":"東京都","city":"葛飾区","address":"東京都葛飾区亀有3-29","lat":35.766014,"lon":139.848533},{"name":"少年よ、あの星を目指せ！両さん像","province":"東京都","city":"葛飾区","address":"東京都葛飾区亀有3-42-24","lat":35.765548,"lon":139.851006},{"name":"ワハハ両さん像","province":"東京都","city":"葛飾区","address":"東京都葛飾区亀有2-63-7","lat":35.762992,"lon":139.850629},{"name":"本田像","province":"東京都","city":"葛飾区","address":"東京都葛飾区亀有3-13-1","lat":35.762914,"lon":139.847796},{"name":"少年両さん像","province":"東京都","city":"葛飾区","address":"東京都葛飾区亀有3-15","lat":35.76411,"lon":139.848788},{"name":"サンバ両さん像","province":"東京都","city":"葛飾区","address":"東京都葛飾区亀有3-18-4","lat":35.764786,"lon":139.847842},{"name":"敬礼両さん像","province":"東京都","city":"葛飾区","address":"東京都葛飾区亀有5-14","lat":35.767554,"lon":139.845388},{"name":"ダブルピース両さん像","province":"東京都","city":"葛飾区","address":"東京都葛飾区亀有5-36-1","lat":35.767642,"lon":139.848496},{"name":"ひとやすみ両さん像","province":"東京都","city":"葛飾区","address":"東京都葛飾区亀有5-36-1","lat":35.767795,"lon":139.848677},{"name":"麗子像","province":"東京都","city":"葛飾区","address":"東京都葛飾区亀有3-26-1","lat":35.766683,"lon":139.84845},{"name":"まちの台所、絵本劇場、図書サービスカウンターほか","province":"東京都","city":"葛飾区","address":"東京都葛飾区亀有3-26-1","lat":35.766683,"lon":139.84845},{"name":"新小岩駅北口","province":"東京都","city":"葛飾区","address":"東京都葛飾区西新小岩1-2","lat":35.717394,"lon":139.85783},{"name":"新小岩駅南口","province":"東京都","city":"葛飾区","address":"東京都葛飾区新小岩1-47","lat":35.7165,"lon":139.858734},{"name":"新小岩駅東北広場","province":"東京都","city":"葛飾区","address":"東京都葛飾区東新小岩1-18","lat":35.718695,"lon":139.8593},{"name":"スカイデッキたつみ","province":"東京都","city":"葛飾区","address":"東京都葛飾区東新小岩1-18","lat":35.718223,"lon":139.859113},{"name":"石崎了像","province":"東京都","city":"葛飾区","address":"東京都葛飾区東四つ木4-15-10","lat":35.732455,"lon":139.835797},{"name":"日向小次郎像","province":"東京都","city":"葛飾区","address":"東京都葛飾区四つ木1-16-24","lat":35.733356,"lon":139.836118},{"name":"大空翼像","province":"東京都","city":"葛飾区","address":"東京都葛飾区四つ木1-22-3","lat":35.734056,"lon":139.834082},{"name":"ロベルト本郷と大空翼像","province":"東京都","city":"葛飾区","address":"東京都葛飾区四つ木2-3-3","lat":35.736242,"lon":139.83532},{"name":"中沢早苗像","province":"東京都","city":"葛飾区","address":"東京都葛飾区四つ木2-28-1","lat":35.735829,"lon":139.839385},{"name":"岬太郎像","province":"東京都","city":"葛飾区","address":"東京都葛飾区東立石3-3-1","lat":35.735412,"lon":139.842984},{"name":"若林源三像","province":"東京都","city":"葛飾区","address":"東京都葛飾区立石4-28-14","lat":35.739902,"lon":139.848728},{"name":"大空翼像（ヒールリフト）","province":"東京都","city":"葛飾区","address":"東京都葛飾区立石1-21-6","lat":35.737792,"lon":139.849803},{"name":"大空翼像（ツインシュート）","province":"東京都","city":"葛飾区","address":"東京都葛飾区立石6-4-1","lat":35.744681,"lon":139.84749},{"name":"堀切菖蒲園","province":"東京都","city":"葛飾区","address":"東京都葛飾区堀切2-19-1","lat":35.742426,"lon":139.826113},{"name":"帝釈天参道","province":"東京都","city":"葛飾区","address":"東京都葛飾区柴又4-9","lat":35.757193,"lon":139.875873},{"name":"寅さん記念館","province":"東京都","city":"葛飾区","address":"東京都葛飾区柴又6-22-19","lat":35.757411,"lon":139.880486},{"name":"山田洋次ミュージアム","province":"東京都","city":"葛飾区","address":"東京都葛飾区柴又6-22-19","lat":35.75667,"lon":139.880508},{"name":"山本亭","province":"東京都","city":"葛飾区","address":"東京都葛飾区柴又7-19-32","lat":35.758044,"lon":139.880102},{"name":"両津勘吉像","province":"東京都","city":"葛飾区","address":"東京都葛飾区亀有5-33","lat":35.766919,"lon":139.847897},{"name":"薔薇と麗子像","province":"東京都","city":"葛飾区","address":"東京都葛飾区亀有5-34-1","lat":35.767045,"lon":139.848177},{"name":"両津勘吉祭り姿像","province":"東京都","city":"葛飾区","address":"東京都葛飾区亀有3-25-1","lat":35.766167,"lon":139.847466},{"name":"ようこそ亀有へ両さん像","province":"東京都","city":"葛飾区","address":"東京都葛飾区亀有3-26","lat":35.766036,"lon":139.847839},{"name":"ようこそこち亀の街へ！両津・中川・麗子がお出迎え像","province":"東京都","city":"葛飾区","address":"東京都葛飾区亀有3-26","lat":35.766512,"lon":139.848042},{"name":"中川像","province":"東京都","city":"葛飾区","address":"東京都葛飾区亀有3-29","lat":35.766014,"lon":139.848533},{"name":"少年よ、あの星を目指せ！両さん像","province":"東京都","city":"葛飾区","address":"東京都葛飾区亀有3-42-24","lat":35.765548,"lon":139.851006},{"name":"ワハハ両さん像","province":"東京都","city":"葛飾区","address":"東京都葛飾区亀有2-63-7","lat":35.762992,"lon":139.850629},{"name":"本田像","province":"東京都","city":"葛飾区","address":"東京都葛飾区亀有3-13-1","lat":35.762914,"lon":139.847796},{"name":"少年両さん像","province":"東京都","city":"葛飾区","address":"東京都葛飾区亀有3-15","lat":35.76411,"lon":139.848788},{"name":"サンバ両さん像","province":"東京都","city":"葛飾区","address":"東京都葛飾区亀有3-18-4","lat":35.764786,"lon":139.847842},{"name":"敬礼両さん像","province":"東京都","city":"葛飾区","address":"東京都葛飾区亀有5-14","lat":35.767554,"lon":139.845388},{"name":"ダブルピース両さん像","province":"東京都","city":"葛飾区","address":"東京都葛飾区亀有5-36-1","lat":35.767642,"lon":139.848496},{"name":"ひとやすみ両さん像","province":"東京都","city":"葛飾区","address":"東京都葛飾区亀有5-36-1","lat":35.767795,"lon":139.848677},{"name":"麗子像","province":"東京都","city":"葛飾区","address":"東京都葛飾区亀有3-26-1","lat":35.766683,"lon":139.84845},{"name":"まちの台所、絵本劇場、図書サービスカウンターほか","province":"東京都","city":"葛飾区","address":"東京都葛飾区亀有3-26-1","lat":35.766683,"lon":139.84845},{"name":"新小岩駅北口","province":"東京都","city":"葛飾区","address":"東京都葛飾区西新小岩1-2","lat":35.717394,"lon":139.85783},{"name":"新小岩駅南口","province":"東京都","city":"葛飾区","address":"東京都葛飾区新小岩1-47","lat":35.7165,"lon":139.858734},{"name":"新小岩駅東北広場","province":"東京都","city":"葛飾区","address":"東京都葛飾区東新小岩1-18","lat":35.718695,"lon":139.8593},{"name":"スカイデッキたつみ","province":"東京都","city":"葛飾区","address":"東京都葛飾区東新小岩1-18","lat":35.718223,"lon":139.859113},{"name":"石崎了像","province":"東京都","city":"葛飾区","address":"東京都葛飾区東四つ木4-15-10","lat":35.732455,"lon":139.835797},{"name":"日向小次郎像","province":"東京都","city":"葛飾区","address":"東京都葛飾区四つ木1-16-24","lat":35.733356,"lon":139.836118},{"name":"大空翼像","province":"東京都","city":"葛飾区","address":"東京都葛飾区四つ木1-22-3","lat":35.734056,"lon":139.834082},{"name":"ロベルト本郷と大空翼像","province":"東京都","city":"葛飾区","address":"東京都葛飾区四つ木2-3-3","lat":35.736242,"lon":139.83532},{"name":"中沢早苗像","province":"東京都","city":"葛飾区","address":"東京都葛飾区四つ木2-28-1","lat":35.735829,"lon":139.839385},{"name":"岬太郎像","province":"東京都","city":"葛飾区","address":"東京都葛飾区東立石3-3-1","lat":35.735412,"lon":139.842984},{"name":"若林源三像","province":"東京都","city":"葛飾区","address":"東京都葛飾区立石4-28-14","lat":35.739902,"lon":139.848728},{"name":"大空翼像（ヒールリフト）","province":"東京都","city":"葛飾区","address":"東京都葛飾区立石1-21-6","lat":35.737792,"lon":139.849803},{"name":"大空翼像（ツインシュート）","province":"東京都","city":"葛飾区","address":"東京都葛飾区立石6-4-1","lat":35.744681,"lon":139.84749},{"name":"堀切菖蒲園","province":"東京都","city":"葛飾区","address":"東京都葛飾区堀切2-19-1","lat":35.742426,"lon":139.826113},{"name":"帝釈天参道","province":"東京都","city":"葛飾区","address":"東京都葛飾区柴又4-9","lat":35.757193,"lon":139.875873},{"name":"寅さん記念館","province":"東京都","city":"葛飾区","address":"東京都葛飾区柴又6-22-19","lat":35.757411,"lon":139.880486},{"name":"山田洋次ミュージアム","province":"東京都","city":"葛飾区","address":"東京都葛飾区柴又6-22-19","lat":35.75667,"lon":139.880508},{"name":"山本亭","province":"東京都","city":"葛飾区","address":"東京都葛飾区柴又7-19-32","lat":35.758044,"lon":139.880102},{"name":"両津勘吉像","province":"東京都","city":"葛飾区","address":"東京都葛飾区亀有5-33","lat":35.766919,"lon":139.847897},{"name":"薔薇と麗子像","province":"東京都","city":"葛飾区","address":"東京都葛飾区亀有5-34-1","lat":35.767045,"lon":139.848177},{"name":"両津勘吉祭り姿像","province":"東京都","city":"葛飾区","address":"東京都葛飾区亀有3-25-1","lat":35.766167,"lon":139.847466},{"name":"ようこそ亀有へ両さん像","province":"東京都","city":"葛飾区","address":"東京都葛飾区亀有3-26","lat":35.766036,"lon":139.847839},{"name":"ようこそこち亀の街へ！両津・中川・麗子がお出迎え像","province":"東京都","city":"葛飾区","address":"東京都葛飾区亀有3-26","lat":35.766512,"lon":139.848042},{"name":"中川像","province":"東京都","city":"葛飾区","address":"東京都葛飾区亀有3-29","lat":35.766014,"lon":139.848533},{"name":"少年よ、あの星を目指せ！両さん像","province":"東京都","city":"葛飾区","address":"東京都葛飾区亀有3-42-24","lat":35.765548,"lon":139.851006},{"name":"ワハハ両さん像","province":"東京都","city":"葛飾区","address":"東京都葛飾区亀有2-63-7","lat":35.762992,"lon":139.850629},{"name":"本田像","province":"東京都","city":"葛飾区","address":"東京都葛飾区亀有3-13-1","lat":35.762914,"lon":139.847796},{"name":"少年両さん像","province":"東京都","city":"葛飾区","address":"東京都葛飾区亀有3-15","lat":35.76411,"lon":139.848788},{"name":"サンバ両さん像","province":"東京都","city":"葛飾区","address":"東京都葛飾区亀有3-18-4","lat":35.764786,"lon":139.847842},{"name":"敬礼両さん像","province":"東京都","city":"葛飾区","address":"東京都葛飾区亀有5-14","lat":35.767554,"lon":139.845388},{"name":"ダブルピース両さん像","province":"東京都","city":"葛飾区","address":"東京都葛飾区亀有5-36-1","lat":35.767642,"lon":139.848496},{"name":"ひとやすみ両さん像","province":"東京都","city":"葛飾区","address":"東京都葛飾区亀有5-36-1","lat":35.767795,"lon":139.848677},{"name":"麗子像","province":"東京都","city":"葛飾区","address":"東京都葛飾区亀有3-26-1","lat":35.766683,"lon":139.84845},{"name":"まちの台所、絵本劇場、図書サービスカウンターほか","province":"東京都","city":"葛飾区","address":"東京都葛飾区亀有3-26-1","lat":35.766683,"lon":139.84845},{"name":"新小岩駅北口","province":"東京都","city":"葛飾区","address":"東京都葛飾区西新小岩1-2","lat":35.717394,"lon":139.85783},{"name":"新小岩駅南口","province":"東京都","city":"葛飾区","address":"東京都葛飾区新小岩1-47","lat":35.7165,"lon":139.858734},{"name":"新小岩駅東北広場","province":"東京都","city":"葛飾区","address":"東京都葛飾区東新小岩1-18","lat":35.718695,"lon":139.8593},{"name":"スカイデッキたつみ","province":"東京都","city":"葛飾区","address":"東京都葛飾区東新小岩1-18","lat":35.718223,"lon":139.859113},{"name":"石崎了像","province":"東京都","city":"葛飾区","address":"東京都葛飾区東四つ木4-15-10","lat":35.732455,"lon":139.835797},{"name":"日向小次郎像","province":"東京都","city":"葛飾区","address":"東京都葛飾区四つ木1-16-24","lat":35.733356,"lon":139.836118},{"name":"大空翼像","province":"東京都","city":"葛飾区","address":"東京都葛飾区四つ木1-22-3","lat":35.734056,"lon":139.834082},{"name":"ロベルト本郷と大空翼像","province":"東京都","city":"葛飾区","address":"東京都葛飾区四つ木2-3-3","lat":35.736242,"lon":139.83532},{"name":"中沢早苗像","province":"東京都","city":"葛飾区","address":"東京都葛飾区四つ木2-28-1","lat":35.735829,"lon":139.839385},{"name":"岬太郎像","province":"東京都","city":"葛飾区","address":"東京都葛飾区東立石3-3-1","lat":35.735412,"lon":139.842984},{"name":"若林源三像","province":"東京都","city":"葛飾区","address":"東京都葛飾区立石4-28-14","lat":35.739902,"lon":139.848728},{"name":"大空翼像（ヒールリフト）","province":"東京都","city":"葛飾区","address":"東京都葛飾区立石1-21-6","lat":35.737792,"lon":139.849803},{"name":"大空翼像（ツインシュート）","province":"東京都","city":"葛飾区","address":"東京都葛飾区立石6-4-1","lat":35.744681,"lon":139.84749},{"name":"堀切菖蒲園","province":"東京都","city":"葛飾区","address":"東京都葛飾区堀切2-19-1","lat":35.742426,"lon":139.826113}]}