{"keyword":"支払","data":[{"name":"東部地域病院","province":"東京都","city":"葛飾区","address":"東京都葛飾区亀有5丁目14-1","lat":35.7662352,"lon":139.84445332},{"name":"水元公園","province":"東京都","city":"葛飾区","address":"東京都葛飾区水元公園4","lat":35.792797,"lon":139.868547},{"name":"水元公園","province":"東京都","city":"葛飾区","address":"東京都葛飾区東金町5丁目53","lat":35.779197,"lon":139.882708},{"name":"水元公園","province":"東京都","city":"葛飾区","address":"東京都葛飾区東金町8丁目7","lat":35.781537,"lon":139.88397},{"name":"水元公園","province":"東京都","city":"葛飾区","address":"東京都葛飾区東金町8丁目32","lat":35.782326,"lon":139.885783},{"name":"水元公園","province":"東京都","city":"葛飾区","address":"東京都葛飾区水元公園1","lat":35.780656,"lon":139.877585},{"name":"水元公園","province":"東京都","city":"葛飾区","address":"東京都葛飾区東水元2丁目41","lat":35.782677,"lon":139.869401},{"name":"水元公園","province":"東京都","city":"葛飾区","address":"東京都葛飾区東金町8丁目28","lat":35.782268,"lon":139.887126},{"name":"水元公園","province":"東京都","city":"葛飾区","address":"東京都葛飾区水元公園8","lat":35.793839,"lon":139.859872},{"name":"水元公園","province":"東京都","city":"葛飾区","address":"東京都葛飾区水元公園2","lat":35.782085,"lon":139.871706},{"name":"水元公園","province":"東京都","city":"葛飾区","address":"東京都葛飾区水元公園3","lat":35.784984,"lon":139.869666},{"name":"水元公園","province":"東京都","city":"葛飾区","address":"東京都葛飾区水元公園4","lat":35.788542,"lon":139.869486},{"name":"水元公園","province":"東京都","city":"葛飾区","address":"東京都葛飾区水元公園4","lat":35.79077,"lon":139.869622},{"name":"水元公園","province":"東京都","city":"葛飾区","address":"東京都葛飾区水元公園4","lat":35.790769,"lon":139.869668},{"name":"水元公園","province":"東京都","city":"葛飾区","address":"東京都葛飾区水元公園5","lat":35.791832,"lon":139.871356},{"name":"水元公園","province":"東京都","city":"葛飾区","address":"東京都葛飾区水元公園7","lat":35.795198,"lon":139.871564},{"name":"水元公園","province":"東京都","city":"葛飾区","address":"東京都葛飾区水元公園7","lat":35.79455,"lon":139.867452},{"name":"水元公園","province":"東京都","city":"葛飾区","address":"東京都葛飾区水元公園7-2","lat":35.795779,"lon":139.871166},{"name":"水元公園","province":"東京都","city":"葛飾区","address":"東京都葛飾区水元公園1-1","lat":35.780776,"lon":139.878289},{"name":"水元公園","province":"東京都","city":"葛飾区","address":"東京都葛飾区水元公園3","lat":35.785413,"lon":139.870299},{"name":"東京都水道局葛飾営業所","province":"東京都","city":"葛飾区","address":"東京都葛飾区立石8丁目17-4","lat":35.741298,"lon":139.853302},{"name":"本田消防署奥戸出張所","province":"東京都","city":"葛飾区","address":"東京都葛飾区奥戸8丁目10","lat":35.735902,"lon":139.86713},{"name":"金町消防署","province":"東京都","city":"葛飾区","address":"東京都葛飾区金町4丁目15-20","lat":35.764106,"lon":139.865272},{"name":"金町消防署亀有出張所","province":"東京都","city":"葛飾区","address":"東京都葛飾区亀有1丁目26-5","lat":35.76201,"lon":139.84627},{"name":"葛飾区総合庁舎","province":"東京都","city":"葛飾区","address":"東京都葛飾区立石5丁目13-1","lat":35.743472,"lon":139.847013},{"name":"葛飾区総合庁舎","province":"東京都","city":"葛飾区","address":"東京都葛飾区立石5丁目13-1","lat":35.743114,"lon":139.846936},{"name":"葛飾区総合庁舎","province":"東京都","city":"葛飾区","address":"東京都葛飾区立石5丁目13-1","lat":35.743277,"lon":139.847679},{"name":"高砂地区センター","province":"東京都","city":"葛飾区","address":"東京都葛飾区高砂3丁目1-39","lat":35.745937,"lon":139.868413},{"name":"道路補修課庁舎","province":"東京都","city":"葛飾区","address":"東京都葛飾区立石4丁目34-4","lat":35.741959,"lon":139.847493},{"name":"福祉事務所東庁舎","province":"東京都","city":"葛飾区","address":"東京都葛飾区金町1丁目6-24","lat":35.761954,"lon":139.865809},{"name":"西水元地区センター","province":"東京都","city":"葛飾区","address":"東京都葛飾区西水元5丁目3-1","lat":35.785326,"lon":139.854078},{"name":"柴又地区センター","province":"東京都","city":"葛飾区","address":"東京都葛飾区柴又1丁目38-2","lat":35.75572,"lon":139.872667},{"name":"青戸地区センター","province":"東京都","city":"葛飾区","address":"東京都葛飾区青戸5丁目20-6","lat":35.750125,"lon":139.854352},{"name":"亀有地区センター","province":"東京都","city":"葛飾区","address":"東京都葛飾区亀有3丁目26-1","lat":35.766558,"lon":139.848785},{"name":"勤労福祉会館立石地区センター別館","province":"東京都","city":"葛飾区","address":"東京都葛飾区立石3丁目12-1","lat":35.740048,"lon":139.843613},{"name":"立石地区センター","province":"東京都","city":"葛飾区","address":"東京都葛飾区立石4丁目23-17","lat":35.7385,"lon":139.848188},{"name":"東立石地区センター","province":"東京都","city":"葛飾区","address":"東京都葛飾区東立石2丁目15-7","lat":35.734106,"lon":139.847645},{"name":"東四つ木地区センター","province":"東京都","city":"葛飾区","address":"東京都葛飾区東四つ木1丁目20-4","lat":35.728937,"lon":139.840683},{"name":"東四つ木地区センター","province":"東京都","city":"葛飾区","address":"東京都葛飾区東四つ木1丁目20-4","lat":35.728937,"lon":139.840682},{"name":"金町地区センター","province":"東京都","city":"葛飾区","address":"東京都葛飾区東金町1丁目22-1","lat":35.769715,"lon":139.868847},{"name":"南綾瀬地区センター","province":"東京都","city":"葛飾区","address":"東京都葛飾区堀切7丁目8-22","lat":35.754028,"lon":139.829986},{"name":"堀切地区センター","province":"東京都","city":"葛飾区","address":"東京都葛飾区堀切3丁目8-5","lat":35.747223,"lon":139.828068},{"name":"堀切地区センター","province":"東京都","city":"葛飾区","address":"東京都葛飾区堀切3丁目8-5","lat":35.747225,"lon":139.828068},{"name":"四つ木地区センター","province":"東京都","city":"葛飾区","address":"東京都葛飾区宝町1丁目1-22","lat":35.740129,"lon":139.837156},{"name":"新小岩地区センター","province":"東京都","city":"葛飾区","address":"東京都葛飾区新小岩2丁目17-1","lat":35.716325,"lon":139.861765},{"name":"新小岩北地区センター","province":"東京都","city":"葛飾区","address":"東京都葛飾区東新小岩6丁目21-1","lat":35.723963,"lon":139.858762},{"name":"水元学び交流館","province":"東京都","city":"葛飾区","address":"東京都葛飾区南水元2丁目13-1","lat":35.7796,"lon":139.855638},{"name":"水元憩い交流館","province":"東京都","city":"葛飾区","address":"東京都葛飾区水元4丁目6-15","lat":35.78814,"lon":139.860628},{"name":"柴又憩い交流館","province":"東京都","city":"葛飾区","address":"東京都葛飾区柴又2丁目4-5","lat":35.758015,"lon":139.870125},{"name":"新宿憩い交流館","province":"東京都","city":"葛飾区","address":"東京都葛飾区新宿1丁目5-6","lat":35.759034,"lon":139.85897},{"name":"宝町憩い交流館","province":"東京都","city":"葛飾区","address":"東京都葛飾区宝町2丁目38-19","lat":35.7477,"lon":139.837164},{"name":"砂原憩い交流館","province":"東京都","city":"葛飾区","address":"東京都葛飾区西亀有3丁目12-1","lat":35.762525,"lon":139.838073},{"name":"東奥戸憩い交流館","province":"東京都","city":"葛飾区","address":"東京都葛飾区奥戸4丁目20-11","lat":35.728866,"lon":139.867932},{"name":"水元学び交流館","province":"東京都","city":"葛飾区","address":"東京都葛飾区南水元2丁目13-1","lat":35.7796,"lon":139.855639},{"name":"柴又学び交流館","province":"東京都","city":"葛飾区","address":"東京都葛飾区南水元2丁目13-1","lat":35.7796,"lon":139.855638},{"name":"観光文化センターＡ棟","province":"東京都","city":"葛飾区","address":"東京都葛飾区柴又6丁目22","lat":35.757216,"lon":139.880641},{"name":"亀有学び交流館","province":"東京都","city":"葛飾区","address":"東京都葛飾区南水元2丁目13-1","lat":35.7796,"lon":139.855639},{"name":"亀有学び交流館","province":"東京都","city":"葛飾区","address":"東京都葛飾区お花茶屋3丁目5-6","lat":35.756582,"lon":139.843173},{"name":"葛飾区保健所及び子ども総合センター（「健康プラザかつしか」）","province":"東京都","city":"葛飾区","address":"東京都葛飾区青戸4丁目15-14","lat":35.751482,"lon":139.850533},{"name":"葛飾区保健所及び子ども総合センター（「健康プラザかつしか」）","province":"東京都","city":"葛飾区","address":"東京都葛飾区青戸4丁目15-14","lat":35.751485,"lon":139.850533},{"name":"葛飾区保健所及び子ども総合センター（「健康プラザかつしか」）","province":"東京都","city":"葛飾区","address":"東京都葛飾区青戸4丁目15-14","lat":35.751487,"lon":139.850533},{"name":"金町保健センター","province":"東京都","city":"葛飾区","address":"東京都葛飾区金町4丁目18-19","lat":35.764674,"lon":139.865088},{"name":"鎌倉図書館","province":"東京都","city":"葛飾区","address":"東京都葛飾区鎌倉2丁目4-5","lat":35.745244,"lon":139.875337},{"name":"亀有図書館","province":"東京都","city":"葛飾区","address":"東京都葛飾区亀有1丁目17-5","lat":35.759186,"lon":139.846027},{"name":"立石図書館","province":"東京都","city":"葛飾区","address":"東京都葛飾区立石1丁目9-1","lat":35.737232,"lon":139.845692},{"name":"四つ木地区図書館","province":"東京都","city":"葛飾区","address":"東京都葛飾区四つ木4丁目8-1","lat":35.737055,"lon":139.834171},{"name":"中央図書館","province":"東京都","city":"葛飾区","address":"東京都葛飾区金町6丁目2-1","lat":35.768102,"lon":139.871165},{"name":"中央図書館","province":"東京都","city":"葛飾区","address":"東京都葛飾区金町6丁目2-1","lat":35.768106,"lon":139.87116},{"name":"お花茶屋図書館","province":"東京都","city":"葛飾区","address":"東京都葛飾区お花茶屋2丁目1-15","lat":35.751164,"lon":139.838698},{"name":"上小松図書館","province":"東京都","city":"葛飾区","address":"東京都葛飾区東新小岩3丁目12-1","lat":35.722999,"lon":139.861884},{"name":"奥戸地区図書館","province":"東京都","city":"葛飾区","address":"東京都葛飾区奥戸3丁目5-1","lat":35.731446,"lon":139.859494},{"name":"にいじゅく地区図書館","province":"東京都","city":"葛飾区","address":"東京都葛飾区新宿3丁目7-1","lat":35.761455,"lon":139.862189},{"name":"こすげ地区図書館","province":"東京都","city":"葛飾区","address":"東京都葛飾区小菅3丁目8-22","lat":35.753868,"lon":139.824976},{"name":"郷土と天文の博物館","province":"東京都","city":"葛飾区","address":"東京都葛飾区白鳥3丁目25-1","lat":35.752878,"lon":139.843387},{"name":"山本亭","province":"東京都","city":"葛飾区","address":"東京都葛飾区柴又7丁目19","lat":35.758013,"lon":139.880079},{"name":"観光文化センターB棟","province":"東京都","city":"葛飾区","address":"東京都葛飾区柴又6丁目22-19","lat":35.756687,"lon":139.880531},{"name":"かつしかｼﾝﾌｫﾆｰﾋﾙｽﾞ本館","province":"東京都","city":"葛飾区","address":"東京都葛飾区立石6丁目33-1","lat":35.74244832,"lon":139.8522684},{"name":"葛飾区科学教育センター","province":"東京都","city":"葛飾区","address":"東京都葛飾区新宿6丁目3-2","lat":35.7722,"lon":139.862198},{"name":"かつしかｼﾝﾌｫﾆｰﾋﾙｽﾞ別館","province":"東京都","city":"葛飾区","address":"東京都葛飾区立石6丁目34","lat":35.74245283,"lon":139.8529006},{"name":"白ゆり公園","province":"東京都","city":"葛飾区","address":"東京都葛飾区水元5丁目5","lat":35.79118871,"lon":139.8594292},{"name":"鎌倉公園（北側）","province":"東京都","city":"葛飾区","address":"東京都葛飾区鎌倉3丁目21","lat":35.7500218,"lon":139.8770432},{"name":"小菅東スポーツ公園(北側)","province":"東京都","city":"葛飾区","address":"東京都葛飾区小菅3丁目1-1","lat":35.753868,"lon":139.822294},{"name":"小菅東スポーツ公園(更衣室棟)","province":"東京都","city":"葛飾区","address":"東京都葛飾区小菅3丁目1-1","lat":35.752963,"lon":139.822672},{"name":"柴又公衆便所","province":"東京都","city":"葛飾区","address":"東京都葛飾区柴又7丁目7","lat":35.75821664,"lon":139.8777007},{"name":"柴又公園(河川敷上流側)","province":"東京都","city":"葛飾区","address":"東京都葛飾区柴又7丁目","lat":35.75981,"lon":139.881345},{"name":"柴又公園(河川敷駐車場側)","province":"東京都","city":"葛飾区","address":"東京都葛飾区柴又6丁目","lat":35.756944,"lon":139.881917},{"name":"白鳥わかば公園","province":"東京都","city":"葛飾区","address":"東京都葛飾区白鳥3丁目24","lat":35.752017,"lon":139.844313},{"name":"新小岩二丁目小松菜児童遊園","province":"東京都","city":"葛飾区","address":"東京都葛飾区新小岩2丁目2","lat":35.718409,"lon":139.860861},{"name":"ウイメンズパル","province":"東京都","city":"葛飾区","address":"東京都葛飾区立石5丁目27-1","lat":35.74583207,"lon":139.8462523},{"name":"水元スポーツセンター公園（東側）","province":"東京都","city":"葛飾区","address":"東京都葛飾区水元1丁目23","lat":35.781166,"lon":139.859126},{"name":"ウェルピアかつしか","province":"東京都","city":"葛飾区","address":"東京都葛飾区堀切3丁目34-1","lat":35.74445,"lon":139.83461},{"name":"にこわ新小岩","province":"東京都","city":"葛飾区","address":"東京都葛飾区西新小岩4丁目33-2","lat":35.71888,"lon":139.85357},{"name":"えきにこわ","province":"東京都","city":"葛飾区","address":"東京都葛飾区新小岩1丁目47","lat":35.716489,"lon":139.858195},{"name":"(株）伊藤葬祭","province":"東京都","city":"葛飾区","address":"東京都葛飾区新小岩1丁目48-8","lat":35.71652119,"lon":139.85929903},{"name":"(有）上平井葬儀社","province":"東京都","city":"葛飾区","address":"東京都葛飾区西新小岩3丁目39-8","lat":35.72376226,"lon":139.8467885},{"name":"（有）網代屋葬儀社奥戸支店","province":"東京都","city":"葛飾区","address":"東京都葛飾区奥戸3丁目28-11","lat":35.73451157,"lon":139.86399463},{"name":"（有）橋本葬儀社","province":"東京都","city":"葛飾区","address":"東京都葛飾区東立石4丁目46-6","lat":35.73720813,"lon":139.85044291},{"name":"（株）葵式典（島田会館）","province":"東京都","city":"葛飾区","address":"東京都葛飾区四つ木1丁目33-5","lat":35.7345953,"lon":139.8360199},{"name":"東間葬儀社","province":"東京都","city":"葛飾区","address":"東京都葛飾区四つ木2丁目3-9","lat":35.73532582,"lon":139.83486168},{"name":"（株）八木井","province":"東京都","city":"葛飾区","address":"東京都葛飾区堀切2丁目34-2","lat":35.74504354,"lon":139.82592301},{"name":"（有）登坂商店","province":"東京都","city":"葛飾区","address":"東京都葛飾区堀切2丁目35-3","lat":35.74575453,"lon":139.82591738},{"name":"稲垣屋葬儀店","province":"東京都","city":"葛飾区","address":"東京都葛飾区堀切6丁目33-4","lat":35.75318384,"lon":139.82765534},{"name":"（有）秋元商店","province":"東京都","city":"葛飾区","address":"東京都葛飾区東堀切2丁目13-8","lat":35.75377009,"lon":139.83614627},{"name":"（有）セレモニーマルヤマ","province":"東京都","city":"葛飾区","address":"東京都葛飾区青戸3丁目33-18","lat":35.74656001,"lon":139.8554865},{"name":"（有）網代屋葬儀社青戸支店","province":"東京都","city":"葛飾区","address":"東京都葛飾区青戸4丁目22-22","lat":35.74858752,"lon":139.8526561},{"name":"（有）島田富義葬祭式典","province":"東京都","city":"葛飾区","address":"東京都葛飾区亀有3丁目14-10","lat":35.7630218,"lon":139.84898083},{"name":"（有）網代屋葬儀社本店","province":"東京都","city":"葛飾区","address":"東京都葛飾区高砂5丁目35-11","lat":35.7517789,"lon":139.86808531},{"name":"（株）島村葬儀社","province":"東京都","city":"葛飾区","address":"東京都葛飾区金町6丁目1-14","lat":35.76745719,"lon":139.87160132},{"name":"（株）東京供養舎（かなまち会館）","province":"東京都","city":"葛飾区","address":"東京都葛飾区東金町4丁目37-1","lat":35.77491998,"lon":139.87306216},{"name":"＊?葛飾区科学教育センター「未来わくわく館」","province":"東京都","city":"葛飾区","address":"葛飾区新宿6-3-2","lat":35.772061,"lon":139.861946},{"name":"＊?葛飾区教育資料館","province":"東京都","city":"葛飾区","address":"葛飾区水元4-21-1","lat":35.787279,"lon":139.86425},{"name":"東部第二下水道事務所","province":"東京都","city":"葛飾区","address":"東京都葛飾区小菅1丁目2-1","lat":35.75266153,"lon":139.81892566},{"name":"東部地域病院","province":"東京都","city":"葛飾区","address":"東京都葛飾区亀有5丁目14-1","lat":35.7662352,"lon":139.84445332},{"name":"水元公園","province":"東京都","city":"葛飾区","address":"東京都葛飾区水元公園4","lat":35.792797,"lon":139.868547},{"name":"水元公園","province":"東京都","city":"葛飾区","address":"東京都葛飾区東金町5丁目53","lat":35.779197,"lon":139.882708},{"name":"水元公園","province":"東京都","city":"葛飾区","address":"東京都葛飾区東金町8丁目7","lat":35.781537,"lon":139.88397},{"name":"水元公園","province":"東京都","city":"葛飾区","address":"東京都葛飾区東金町8丁目32","lat":35.782326,"lon":139.885783},{"name":"水元公園","province":"東京都","city":"葛飾区","address":"東京都葛飾区水元公園1","lat":35.780656,"lon":139.877585},{"name":"水元公園","province":"東京都","city":"葛飾区","address":"東京都葛飾区東水元2丁目41","lat":35.782677,"lon":139.869401},{"name":"水元公園","province":"東京都","city":"葛飾区","address":"東京都葛飾区東金町8丁目28","lat":35.782268,"lon":139.887126},{"name":"水元公園","province":"東京都","city":"葛飾区","address":"東京都葛飾区水元公園8","lat":35.793839,"lon":139.859872},{"name":"水元公園","province":"東京都","city":"葛飾区","address":"東京都葛飾区水元公園2","lat":35.782085,"lon":139.871706},{"name":"水元公園","province":"東京都","city":"葛飾区","address":"東京都葛飾区水元公園3","lat":35.784984,"lon":139.869666},{"name":"水元公園","province":"東京都","city":"葛飾区","address":"東京都葛飾区水元公園4","lat":35.788542,"lon":139.869486},{"name":"水元公園","province":"東京都","city":"葛飾区","address":"東京都葛飾区水元公園4","lat":35.79077,"lon":139.869622},{"name":"水元公園","province":"東京都","city":"葛飾区","address":"東京都葛飾区水元公園4","lat":35.790769,"lon":139.869668},{"name":"水元公園","province":"東京都","city":"葛飾区","address":"東京都葛飾区水元公園5","lat":35.791832,"lon":139.871356},{"name":"水元公園","province":"東京都","city":"葛飾区","address":"東京都葛飾区水元公園7","lat":35.795198,"lon":139.871564},{"name":"水元公園","province":"東京都","city":"葛飾区","address":"東京都葛飾区水元公園7","lat":35.79455,"lon":139.867452},{"name":"水元公園","province":"東京都","city":"葛飾区","address":"東京都葛飾区水元公園7-2","lat":35.795779,"lon":139.871166},{"name":"水元公園","province":"東京都","city":"葛飾区","address":"東京都葛飾区水元公園1-1","lat":35.780776,"lon":139.878289},{"name":"水元公園","province":"東京都","city":"葛飾区","address":"東京都葛飾区水元公園3","lat":35.785413,"lon":139.870299},{"name":"東京都水道局葛飾営業所","province":"東京都","city":"葛飾区","address":"東京都葛飾区立石8丁目17-4","lat":35.741298,"lon":139.853302},{"name":"本田消防署奥戸出張所","province":"東京都","city":"葛飾区","address":"東京都葛飾区奥戸8丁目10","lat":35.735902,"lon":139.86713},{"name":"金町消防署","province":"東京都","city":"葛飾区","address":"東京都葛飾区金町4丁目15-20","lat":35.764106,"lon":139.865272},{"name":"金町消防署亀有出張所","province":"東京都","city":"葛飾区","address":"東京都葛飾区亀有1丁目26-5","lat":35.76201,"lon":139.84627},{"name":"葛飾区総合庁舎","province":"東京都","city":"葛飾区","address":"東京都葛飾区立石5丁目13-1","lat":35.743472,"lon":139.847013},{"name":"葛飾区総合庁舎","province":"東京都","city":"葛飾区","address":"東京都葛飾区立石5丁目13-1","lat":35.743114,"lon":139.846936},{"name":"葛飾区総合庁舎","province":"東京都","city":"葛飾区","address":"東京都葛飾区立石5丁目13-1","lat":35.743277,"lon":139.847679},{"name":"高砂地区センター","province":"東京都","city":"葛飾区","address":"東京都葛飾区高砂3丁目1-39","lat":35.745937,"lon":139.868413},{"name":"道路補修課庁舎","province":"東京都","city":"葛飾区","address":"東京都葛飾区立石4丁目34-4","lat":35.741959,"lon":139.847493},{"name":"福祉事務所東庁舎","province":"東京都","city":"葛飾区","address":"東京都葛飾区金町1丁目6-24","lat":35.761954,"lon":139.865809},{"name":"西水元地区センター","province":"東京都","city":"葛飾区","address":"東京都葛飾区西水元5丁目3-1","lat":35.785326,"lon":139.854078},{"name":"柴又地区センター","province":"東京都","city":"葛飾区","address":"東京都葛飾区柴又1丁目38-2","lat":35.75572,"lon":139.872667},{"name":"青戸地区センター","province":"東京都","city":"葛飾区","address":"東京都葛飾区青戸5丁目20-6","lat":35.750125,"lon":139.854352},{"name":"亀有地区センター","province":"東京都","city":"葛飾区","address":"東京都葛飾区亀有3丁目26-1","lat":35.766558,"lon":139.848785},{"name":"勤労福祉会館立石地区センター別館","province":"東京都","city":"葛飾区","address":"東京都葛飾区立石3丁目12-1","lat":35.740048,"lon":139.843613},{"name":"立石地区センター","province":"東京都","city":"葛飾区","address":"東京都葛飾区立石4丁目23-17","lat":35.7385,"lon":139.848188},{"name":"東立石地区センター","province":"東京都","city":"葛飾区","address":"東京都葛飾区東立石2丁目15-7","lat":35.734106,"lon":139.847645},{"name":"東四つ木地区センター","province":"東京都","city":"葛飾区","address":"東京都葛飾区東四つ木1丁目20-4","lat":35.728937,"lon":139.840683},{"name":"東四つ木地区センター","province":"東京都","city":"葛飾区","address":"東京都葛飾区東四つ木1丁目20-4","lat":35.728937,"lon":139.840682},{"name":"金町地区センター","province":"東京都","city":"葛飾区","address":"東京都葛飾区東金町1丁目22-1","lat":35.769715,"lon":139.868847},{"name":"南綾瀬地区センター","province":"東京都","city":"葛飾区","address":"東京都葛飾区堀切7丁目8-22","lat":35.754028,"lon":139.829986},{"name":"堀切地区センター","province":"東京都","city":"葛飾区","address":"東京都葛飾区堀切3丁目8-5","lat":35.747223,"lon":139.828068},{"name":"堀切地区センター","province":"東京都","city":"葛飾区","address":"東京都葛飾区堀切3丁目8-5","lat":35.747225,"lon":139.828068},{"name":"四つ木地区センター","province":"東京都","city":"葛飾区","address":"東京都葛飾区宝町1丁目1-22","lat":35.740129,"lon":139.837156},{"name":"新小岩地区センター","province":"東京都","city":"葛飾区","address":"東京都葛飾区新小岩2丁目17-1","lat":35.716325,"lon":139.861765},{"name":"新小岩北地区センター","province":"東京都","city":"葛飾区","address":"東京都葛飾区東新小岩6丁目21-1","lat":35.723963,"lon":139.858762},{"name":"水元学び交流館","province":"東京都","city":"葛飾区","address":"東京都葛飾区南水元2丁目13-1","lat":35.7796,"lon":139.855638},{"name":"水元憩い交流館","province":"東京都","city":"葛飾区","address":"東京都葛飾区水元4丁目6-15","lat":35.78814,"lon":139.860628},{"name":"柴又憩い交流館","province":"東京都","city":"葛飾区","address":"東京都葛飾区柴又2丁目4-5","lat":35.758015,"lon":139.870125},{"name":"新宿憩い交流館","province":"東京都","city":"葛飾区","address":"東京都葛飾区新宿1丁目5-6","lat":35.759034,"lon":139.85897},{"name":"宝町憩い交流館","province":"東京都","city":"葛飾区","address":"東京都葛飾区宝町2丁目38-19","lat":35.7477,"lon":139.837164},{"name":"砂原憩い交流館","province":"東京都","city":"葛飾区","address":"東京都葛飾区西亀有3丁目12-1","lat":35.762525,"lon":139.838073},{"name":"東奥戸憩い交流館","province":"東京都","city":"葛飾区","address":"東京都葛飾区奥戸4丁目20-11","lat":35.728866,"lon":139.867932},{"name":"水元学び交流館","province":"東京都","city":"葛飾区","address":"東京都葛飾区南水元2丁目13-1","lat":35.7796,"lon":139.855639},{"name":"柴又学び交流館","province":"東京都","city":"葛飾区","address":"東京都葛飾区南水元2丁目13-1","lat":35.7796,"lon":139.855638},{"name":"観光文化センターＡ棟","province":"東京都","city":"葛飾区","address":"東京都葛飾区柴又6丁目22","lat":35.757216,"lon":139.880641},{"name":"亀有学び交流館","province":"東京都","city":"葛飾区","address":"東京都葛飾区南水元2丁目13-1","lat":35.7796,"lon":139.855639},{"name":"亀有学び交流館","province":"東京都","city":"葛飾区","address":"東京都葛飾区お花茶屋3丁目5-6","lat":35.756582,"lon":139.843173},{"name":"葛飾区保健所及び子ども総合センター（「健康プラザかつしか」）","province":"東京都","city":"葛飾区","address":"東京都葛飾区青戸4丁目15-14","lat":35.751482,"lon":139.850533},{"name":"葛飾区保健所及び子ども総合センター（「健康プラザかつしか」）","province":"東京都","city":"葛飾区","address":"東京都葛飾区青戸4丁目15-14","lat":35.751485,"lon":139.850533},{"name":"葛飾区保健所及び子ども総合センター（「健康プラザかつしか」）","province":"東京都","city":"葛飾区","address":"東京都葛飾区青戸4丁目15-14","lat":35.751487,"lon":139.850533},{"name":"金町保健センター","province":"東京都","city":"葛飾区","address":"東京都葛飾区金町4丁目18-19","lat":35.764674,"lon":139.865088},{"name":"鎌倉図書館","province":"東京都","city":"葛飾区","address":"東京都葛飾区鎌倉2丁目4-5","lat":35.745244,"lon":139.875337},{"name":"亀有図書館","province":"東京都","city":"葛飾区","address":"東京都葛飾区亀有1丁目17-5","lat":35.759186,"lon":139.846027},{"name":"立石図書館","province":"東京都","city":"葛飾区","address":"東京都葛飾区立石1丁目9-1","lat":35.737232,"lon":139.845692},{"name":"四つ木地区図書館","province":"東京都","city":"葛飾区","address":"東京都葛飾区四つ木4丁目8-1","lat":35.737055,"lon":139.834171},{"name":"中央図書館","province":"東京都","city":"葛飾区","address":"東京都葛飾区金町6丁目2-1","lat":35.768102,"lon":139.871165},{"name":"中央図書館","province":"東京都","city":"葛飾区","address":"東京都葛飾区金町6丁目2-1","lat":35.768106,"lon":139.87116},{"name":"お花茶屋図書館","province":"東京都","city":"葛飾区","address":"東京都葛飾区お花茶屋2丁目1-15","lat":35.751164,"lon":139.838698},{"name":"上小松図書館","province":"東京都","city":"葛飾区","address":"東京都葛飾区東新小岩3丁目12-1","lat":35.722999,"lon":139.861884},{"name":"奥戸地区図書館","province":"東京都","city":"葛飾区","address":"東京都葛飾区奥戸3丁目5-1","lat":35.731446,"lon":139.859494},{"name":"にいじゅく地区図書館","province":"東京都","city":"葛飾区","address":"東京都葛飾区新宿3丁目7-1","lat":35.761455,"lon":139.862189},{"name":"こすげ地区図書館","province":"東京都","city":"葛飾区","address":"東京都葛飾区小菅3丁目8-22","lat":35.753868,"lon":139.824976},{"name":"郷土と天文の博物館","province":"東京都","city":"葛飾区","address":"東京都葛飾区白鳥3丁目25-1","lat":35.752878,"lon":139.843387},{"name":"山本亭","province":"東京都","city":"葛飾区","address":"東京都葛飾区柴又7丁目19","lat":35.758013,"lon":139.880079},{"name":"観光文化センターB棟","province":"東京都","city":"葛飾区","address":"東京都葛飾区柴又6丁目22-19","lat":35.756687,"lon":139.880531},{"name":"かつしかｼﾝﾌｫﾆｰﾋﾙｽﾞ本館","province":"東京都","city":"葛飾区","address":"東京都葛飾区立石6丁目33-1","lat":35.74244832,"lon":139.8522684},{"name":"葛飾区科学教育センター","province":"東京都","city":"葛飾区","address":"東京都葛飾区新宿6丁目3-2","lat":35.7722,"lon":139.862198},{"name":"かつしかｼﾝﾌｫﾆｰﾋﾙｽﾞ別館","province":"東京都","city":"葛飾区","address":"東京都葛飾区立石6丁目34","lat":35.74245283,"lon":139.8529006},{"name":"白ゆり公園","province":"東京都","city":"葛飾区","address":"東京都葛飾区水元5丁目5","lat":35.79118871,"lon":139.8594292},{"name":"鎌倉公園（北側）","province":"東京都","city":"葛飾区","address":"東京都葛飾区鎌倉3丁目21","lat":35.7500218,"lon":139.8770432},{"name":"小菅東スポーツ公園(北側)","province":"東京都","city":"葛飾区","address":"東京都葛飾区小菅3丁目1-1","lat":35.753868,"lon":139.822294},{"name":"小菅東スポーツ公園(更衣室棟)","province":"東京都","city":"葛飾区","address":"東京都葛飾区小菅3丁目1-1","lat":35.752963,"lon":139.822672},{"name":"柴又公衆便所","province":"東京都","city":"葛飾区","address":"東京都葛飾区柴又7丁目7","lat":35.75821664,"lon":139.8777007},{"name":"柴又公園(河川敷上流側)","province":"東京都","city":"葛飾区","address":"東京都葛飾区柴又7丁目","lat":35.75981,"lon":139.881345},{"name":"柴又公園(河川敷駐車場側)","province":"東京都","city":"葛飾区","address":"東京都葛飾区柴又6丁目","lat":35.756944,"lon":139.881917},{"name":"白鳥わかば公園","province":"東京都","city":"葛飾区","address":"東京都葛飾区白鳥3丁目24","lat":35.752017,"lon":139.844313},{"name":"新小岩二丁目小松菜児童遊園","province":"東京都","city":"葛飾区","address":"東京都葛飾区新小岩2丁目2","lat":35.718409,"lon":139.860861},{"name":"ウイメンズパル","province":"東京都","city":"葛飾区","address":"東京都葛飾区立石5丁目27-1","lat":35.74583207,"lon":139.8462523},{"name":"水元スポーツセンター公園（東側）","province":"東京都","city":"葛飾区","address":"東京都葛飾区水元1丁目23","lat":35.781166,"lon":139.859126},{"name":"ウェルピアかつしか","province":"東京都","city":"葛飾区","address":"東京都葛飾区堀切3丁目34-1","lat":35.74445,"lon":139.83461},{"name":"にこわ新小岩","province":"東京都","city":"葛飾区","address":"東京都葛飾区西新小岩4丁目33-2","lat":35.71888,"lon":139.85357},{"name":"えきにこわ","province":"東京都","city":"葛飾区","address":"東京都葛飾区新小岩1丁目47","lat":35.716489,"lon":139.858195},{"name":"＊?葛飾区科学教育センター「未来わくわく館」","province":"東京都","city":"葛飾区","address":"葛飾区新宿6-3-2","lat":35.772061,"lon":139.861946},{"name":"＊?葛飾区教育資料館","province":"東京都","city":"葛飾区","address":"葛飾区水元4-21-1","lat":35.787279,"lon":139.86425},{"name":"東部第二下水道事務所","province":"東京都","city":"葛飾区","address":"東京都葛飾区小菅1丁目2-1","lat":35.75266153,"lon":139.81892566},{"name":"水元公園","province":"東京都","city":"葛飾区","address":"東京都葛飾区水元公園4","lat":35.792797,"lon":139.868547},{"name":"水元公園","province":"東京都","city":"葛飾区","address":"東京都葛飾区東金町5丁目53","lat":35.779197,"lon":139.882708},{"name":"水元公園","province":"東京都","city":"葛飾区","address":"東京都葛飾区東金町8丁目7","lat":35.781537,"lon":139.88397},{"name":"水元公園","province":"東京都","city":"葛飾区","address":"東京都葛飾区東金町8丁目32","lat":35.782326,"lon":139.885783},{"name":"水元公園","province":"東京都","city":"葛飾区","address":"東京都葛飾区水元公園1","lat":35.780656,"lon":139.877585},{"name":"水元公園","province":"東京都","city":"葛飾区","address":"東京都葛飾区東水元2丁目41","lat":35.782677,"lon":139.869401},{"name":"水元公園","province":"東京都","city":"葛飾区","address":"東京都葛飾区東金町8丁目28","lat":35.782268,"lon":139.887126},{"name":"水元公園","province":"東京都","city":"葛飾区","address":"東京都葛飾区水元公園8","lat":35.793839,"lon":139.859872},{"name":"水元公園","province":"東京都","city":"葛飾区","address":"東京都葛飾区水元公園2","lat":35.782085,"lon":139.871706},{"name":"水元公園","province":"東京都","city":"葛飾区","address":"東京都葛飾区水元公園3","lat":35.784984,"lon":139.869666},{"name":"水元公園","province":"東京都","city":"葛飾区","address":"東京都葛飾区水元公園4","lat":35.788542,"lon":139.869486},{"name":"水元公園","province":"東京都","city":"葛飾区","address":"東京都葛飾区水元公園4","lat":35.79077,"lon":139.869622},{"name":"水元公園","province":"東京都","city":"葛飾区","address":"東京都葛飾区水元公園4","lat":35.790769,"lon":139.869668},{"name":"水元公園","province":"東京都","city":"葛飾区","address":"東京都葛飾区水元公園5","lat":35.791832,"lon":139.871356},{"name":"水元公園","province":"東京都","city":"葛飾区","address":"東京都葛飾区水元公園7","lat":35.795198,"lon":139.871564},{"name":"水元公園","province":"東京都","city":"葛飾区","address":"東京都葛飾区水元公園7","lat":35.79455,"lon":139.867452},{"name":"水元公園","province":"東京都","city":"葛飾区","address":"東京都葛飾区水元公園7-2","lat":35.795779,"lon":139.871166},{"name":"水元公園","province":"東京都","city":"葛飾区","address":"東京都葛飾区水元公園1-1","lat":35.780776,"lon":139.878289},{"name":"水元公園","province":"東京都","city":"葛飾区","address":"東京都葛飾区水元公園3","lat":35.785413,"lon":139.870299},{"name":"東京都水道局葛飾営業所","province":"東京都","city":"葛飾区","address":"東京都葛飾区立石8丁目17-4","lat":35.741298,"lon":139.853302},{"name":"本田消防署奥戸出張所","province":"東京都","city":"葛飾区","address":"東京都葛飾区奥戸8丁目10","lat":35.735902,"lon":139.86713},{"name":"金町消防署","province":"東京都","city":"葛飾区","address":"東京都葛飾区金町4丁目15-20","lat":35.764106,"lon":139.865272},{"name":"金町消防署亀有出張所","province":"東京都","city":"葛飾区","address":"東京都葛飾区亀有1丁目26-5","lat":35.76201,"lon":139.84627},{"name":"葛飾区総合庁舎","province":"東京都","city":"葛飾区","address":"東京都葛飾区立石5丁目13-1","lat":35.743472,"lon":139.847013},{"name":"葛飾区総合庁舎","province":"東京都","city":"葛飾区","address":"東京都葛飾区立石5丁目13-1","lat":35.743114,"lon":139.846936},{"name":"葛飾区総合庁舎","province":"東京都","city":"葛飾区","address":"東京都葛飾区立石5丁目13-1","lat":35.743277,"lon":139.847679},{"name":"高砂地区センター","province":"東京都","city":"葛飾区","address":"東京都葛飾区高砂3丁目1-39","lat":35.745937,"lon":139.868413},{"name":"道路補修課庁舎","province":"東京都","city":"葛飾区","address":"東京都葛飾区立石4丁目34-4","lat":35.741959,"lon":139.847493},{"name":"福祉事務所東庁舎","province":"東京都","city":"葛飾区","address":"東京都葛飾区金町1丁目6-24","lat":35.761954,"lon":139.865809},{"name":"西水元地区センター","province":"東京都","city":"葛飾区","address":"東京都葛飾区西水元5丁目3-1","lat":35.785326,"lon":139.854078},{"name":"柴又地区センター","province":"東京都","city":"葛飾区","address":"東京都葛飾区柴又1丁目38-2","lat":35.75572,"lon":139.872667},{"name":"青戸地区センター","province":"東京都","city":"葛飾区","address":"東京都葛飾区青戸5丁目20-6","lat":35.750125,"lon":139.854352},{"name":"亀有地区センター","province":"東京都","city":"葛飾区","address":"東京都葛飾区亀有3丁目26-1","lat":35.766558,"lon":139.848785},{"name":"勤労福祉会館立石地区センター別館","province":"東京都","city":"葛飾区","address":"東京都葛飾区立石3丁目12-1","lat":35.740048,"lon":139.843613},{"name":"立石地区センター","province":"東京都","city":"葛飾区","address":"東京都葛飾区立石4丁目23-17","lat":35.7385,"lon":139.848188},{"name":"東立石地区センター","province":"東京都","city":"葛飾区","address":"東京都葛飾区東立石2丁目15-7","lat":35.734106,"lon":139.847645},{"name":"東四つ木地区センター","province":"東京都","city":"葛飾区","address":"東京都葛飾区東四つ木1丁目20-4","lat":35.728937,"lon":139.840683},{"name":"東四つ木地区センター","province":"東京都","city":"葛飾区","address":"東京都葛飾区東四つ木1丁目20-4","lat":35.728937,"lon":139.840682},{"name":"金町地区センター","province":"東京都","city":"葛飾区","address":"東京都葛飾区東金町1丁目22-1","lat":35.769715,"lon":139.868847},{"name":"南綾瀬地区センター","province":"東京都","city":"葛飾区","address":"東京都葛飾区堀切7丁目8-22","lat":35.754028,"lon":139.829986},{"name":"堀切地区センター","province":"東京都","city":"葛飾区","address":"東京都葛飾区堀切3丁目8-5","lat":35.747223,"lon":139.828068},{"name":"堀切地区センター","province":"東京都","city":"葛飾区","address":"東京都葛飾区堀切3丁目8-5","lat":35.747225,"lon":139.828068},{"name":"四つ木地区センター","province":"東京都","city":"葛飾区","address":"東京都葛飾区宝町1丁目1-22","lat":35.740129,"lon":139.837156},{"name":"新小岩地区センター","province":"東京都","city":"葛飾区","address":"東京都葛飾区新小岩2丁目17-1","lat":35.716325,"lon":139.861765},{"name":"新小岩北地区センター","province":"東京都","city":"葛飾区","address":"東京都葛飾区東新小岩6丁目21-1","lat":35.723963,"lon":139.858762},{"name":"水元学び交流館","province":"東京都","city":"葛飾区","address":"東京都葛飾区南水元2丁目13-1","lat":35.7796,"lon":139.855638},{"name":"水元憩い交流館","province":"東京都","city":"葛飾区","address":"東京都葛飾区水元4丁目6-15","lat":35.78814,"lon":139.860628},{"name":"柴又憩い交流館","province":"東京都","city":"葛飾区","address":"東京都葛飾区柴又2丁目4-5","lat":35.758015,"lon":139.870125},{"name":"新宿憩い交流館","province":"東京都","city":"葛飾区","address":"東京都葛飾区新宿1丁目5-6","lat":35.759034,"lon":139.85897},{"name":"宝町憩い交流館","province":"東京都","city":"葛飾区","address":"東京都葛飾区宝町2丁目38-19","lat":35.7477,"lon":139.837164},{"name":"砂原憩い交流館","province":"東京都","city":"葛飾区","address":"東京都葛飾区西亀有3丁目12-1","lat":35.762525,"lon":139.838073},{"name":"東奥戸憩い交流館","province":"東京都","city":"葛飾区","address":"東京都葛飾区奥戸4丁目20-11","lat":35.728866,"lon":139.867932},{"name":"水元学び交流館","province":"東京都","city":"葛飾区","address":"東京都葛飾区南水元2丁目13-1","lat":35.7796,"lon":139.855639},{"name":"柴又学び交流館","province":"東京都","city":"葛飾区","address":"東京都葛飾区南水元2丁目13-1","lat":35.7796,"lon":139.855638},{"name":"観光文化センターＡ棟","province":"東京都","city":"葛飾区","address":"東京都葛飾区柴又6丁目22","lat":35.757216,"lon":139.880641},{"name":"亀有学び交流館","province":"東京都","city":"葛飾区","address":"東京都葛飾区南水元2丁目13-1","lat":35.7796,"lon":139.855639},{"name":"亀有学び交流館","province":"東京都","city":"葛飾区","address":"東京都葛飾区お花茶屋3丁目5-6","lat":35.756582,"lon":139.843173},{"name":"葛飾区保健所及び子ども総合センター（「健康プラザかつしか」）","province":"東京都","city":"葛飾区","address":"東京都葛飾区青戸4丁目15-14","lat":35.751482,"lon":139.850533},{"name":"葛飾区保健所及び子ども総合センター（「健康プラザかつしか」）","province":"東京都","city":"葛飾区","address":"東京都葛飾区青戸4丁目15-14","lat":35.751485,"lon":139.850533},{"name":"葛飾区保健所及び子ども総合センター（「健康プラザかつしか」）","province":"東京都","city":"葛飾区","address":"東京都葛飾区青戸4丁目15-14","lat":35.751487,"lon":139.850533},{"name":"金町保健センター","province":"東京都","city":"葛飾区","address":"東京都葛飾区金町4丁目18-19","lat":35.764674,"lon":139.865088},{"name":"鎌倉図書館","province":"東京都","city":"葛飾区","address":"東京都葛飾区鎌倉2丁目4-5","lat":35.745244,"lon":139.875337},{"name":"亀有図書館","province":"東京都","city":"葛飾区","address":"東京都葛飾区亀有1丁目17-5","lat":35.759186,"lon":139.846027},{"name":"立石図書館","province":"東京都","city":"葛飾区","address":"東京都葛飾区立石1丁目9-1","lat":35.737232,"lon":139.845692},{"name":"四つ木地区図書館","province":"東京都","city":"葛飾区","address":"東京都葛飾区四つ木4丁目8-1","lat":35.737055,"lon":139.834171},{"name":"中央図書館","province":"東京都","city":"葛飾区","address":"東京都葛飾区金町6丁目2-1","lat":35.768102,"lon":139.871165},{"name":"中央図書館","province":"東京都","city":"葛飾区","address":"東京都葛飾区金町6丁目2-1","lat":35.768106,"lon":139.87116},{"name":"お花茶屋図書館","province":"東京都","city":"葛飾区","address":"東京都葛飾区お花茶屋2丁目1-15","lat":35.751164,"lon":139.838698},{"name":"上小松図書館","province":"東京都","city":"葛飾区","address":"東京都葛飾区東新小岩3丁目12-1","lat":35.722999,"lon":139.861884},{"name":"奥戸地区図書館","province":"東京都","city":"葛飾区","address":"東京都葛飾区奥戸3丁目5-1","lat":35.731446,"lon":139.859494},{"name":"にいじゅく地区図書館","province":"東京都","city":"葛飾区","address":"東京都葛飾区新宿3丁目7-1","lat":35.761455,"lon":139.862189},{"name":"こすげ地区図書館","province":"東京都","city":"葛飾区","address":"東京都葛飾区小菅3丁目8-22","lat":35.753868,"lon":139.824976},{"name":"郷土と天文の博物館","province":"東京都","city":"葛飾区","address":"東京都葛飾区白鳥3丁目25-1","lat":35.752878,"lon":139.843387},{"name":"山本亭","province":"東京都","city":"葛飾区","address":"東京都葛飾区柴又7丁目19","lat":35.758013,"lon":139.880079},{"name":"観光文化センターB棟","province":"東京都","city":"葛飾区","address":"東京都葛飾区柴又6丁目22-19","lat":35.756687,"lon":139.880531},{"name":"かつしかｼﾝﾌｫﾆｰﾋﾙｽﾞ本館","province":"東京都","city":"葛飾区","address":"東京都葛飾区立石6丁目33-1","lat":35.74244832,"lon":139.8522684},{"name":"葛飾区科学教育センター","province":"東京都","city":"葛飾区","address":"東京都葛飾区新宿6丁目3-2","lat":35.7722,"lon":139.862198},{"name":"かつしかｼﾝﾌｫﾆｰﾋﾙｽﾞ別館","province":"東京都","city":"葛飾区","address":"東京都葛飾区立石6丁目34","lat":35.74245283,"lon":139.8529006},{"name":"白ゆり公園","province":"東京都","city":"葛飾区","address":"東京都葛飾区水元5丁目5","lat":35.79118871,"lon":139.8594292},{"name":"鎌倉公園（北側）","province":"東京都","city":"葛飾区","address":"東京都葛飾区鎌倉3丁目21","lat":35.7500218,"lon":139.8770432},{"name":"小菅東スポーツ公園(北側)","province":"東京都","city":"葛飾区","address":"東京都葛飾区小菅3丁目1-1","lat":35.753868,"lon":139.822294},{"name":"小菅東スポーツ公園(更衣室棟)","province":"東京都","city":"葛飾区","address":"東京都葛飾区小菅3丁目1-1","lat":35.752963,"lon":139.822672},{"name":"柴又公衆便所","province":"東京都","city":"葛飾区","address":"東京都葛飾区柴又7丁目7","lat":35.75821664,"lon":139.8777007},{"name":"柴又公園(河川敷上流側)","province":"東京都","city":"葛飾区","address":"東京都葛飾区柴又7丁目","lat":35.75981,"lon":139.881345},{"name":"柴又公園(河川敷駐車場側)","province":"東京都","city":"葛飾区","address":"東京都葛飾区柴又6丁目","lat":35.756944,"lon":139.881917},{"name":"白鳥わかば公園","province":"東京都","city":"葛飾区","address":"東京都葛飾区白鳥3丁目24","lat":35.752017,"lon":139.844313},{"name":"新小岩二丁目小松菜児童遊園","province":"東京都","city":"葛飾区","address":"東京都葛飾区新小岩2丁目2","lat":35.718409,"lon":139.860861},{"name":"ウイメンズパル","province":"東京都","city":"葛飾区","address":"東京都葛飾区立石5丁目27-1","lat":35.74583207,"lon":139.8462523},{"name":"水元スポーツセンター公園（東側）","province":"東京都","city":"葛飾区","address":"東京都葛飾区水元1丁目23","lat":35.781166,"lon":139.859126},{"name":"ウェルピアかつしか","province":"東京都","city":"葛飾区","address":"東京都葛飾区堀切3丁目34-1","lat":35.74445,"lon":139.83461},{"name":"にこわ新小岩","province":"東京都","city":"葛飾区","address":"東京都葛飾区西新小岩4丁目33-2","lat":35.71888,"lon":139.85357},{"name":"えきにこわ","province":"東京都","city":"葛飾区","address":"東京都葛飾区新小岩1丁目47","lat":35.716489,"lon":139.858195},{"name":"＊?葛飾区科学教育センター「未来わくわく館」","province":"東京都","city":"葛飾区","address":"葛飾区新宿6-3-2","lat":35.772061,"lon":139.861946},{"name":"＊?葛飾区教育資料館","province":"東京都","city":"葛飾区","address":"葛飾区水元4-21-1","lat":35.787279,"lon":139.86425},{"name":"東部第二下水道事務所","province":"東京都","city":"葛飾区","address":"東京都葛飾区小菅1丁目2-1","lat":35.75266153,"lon":139.81892566},{"name":"＊?葛飾区科学教育センター「未来わくわく館」","province":"東京都","city":"葛飾区","address":"葛飾区新宿6-3-2","lat":35.772061,"lon":139.861946},{"name":"＊?葛飾区教育資料館","province":"東京都","city":"葛飾区","address":"葛飾区水元4-21-1","lat":35.787279,"lon":139.86425},{"name":"東部第二下水道事務所","province":"東京都","city":"葛飾区","address":"東京都葛飾区小菅1丁目2-1","lat":35.75266153,"lon":139.81892566},{"name":"＊?葛飾区科学教育センター「未来わくわく館」","province":"東京都","city":"葛飾区","address":"葛飾区新宿6-3-2","lat":35.772061,"lon":139.861946},{"name":"＊?葛飾区教育資料館","province":"東京都","city":"葛飾区","address":"葛飾区水元4-21-1","lat":35.787279,"lon":139.86425},{"name":"東部第二下水道事務所","province":"東京都","city":"葛飾区","address":"東京都葛飾区小菅1丁目2-1","lat":35.75266153,"lon":139.81892566},{"name":"＊?葛飾区科学教育センター「未来わくわく館」","province":"東京都","city":"葛飾区","address":"葛飾区新宿6-3-2","lat":35.772061,"lon":139.861946},{"name":"＊?葛飾区教育資料館","province":"東京都","city":"葛飾区","address":"葛飾区水元4-21-1","lat":35.787279,"lon":139.86425},{"name":"東部第二下水道事務所","province":"東京都","city":"葛飾区","address":"東京都葛飾区小菅1丁目2-1","lat":35.75266153,"lon":139.81892566},{"name":"＊?葛飾区科学教育センター「未来わくわく館」","province":"東京都","city":"葛飾区","address":"葛飾区新宿6-3-2","lat":35.772061,"lon":139.861946},{"name":"＊?葛飾区教育資料館","province":"東京都","city":"葛飾区","address":"葛飾区水元4-21-1","lat":35.787279,"lon":139.86425},{"name":"東部第二下水道事務所","province":"東京都","city":"葛飾区","address":"東京都葛飾区小菅1丁目2-1","lat":35.75266153,"lon":139.81892566},{"name":"＊?葛飾区科学教育センター「未来わくわく館」","province":"東京都","city":"葛飾区","address":"葛飾区新宿6-3-2","lat":35.772061,"lon":139.861946},{"name":"＊?葛飾区教育資料館","province":"東京都","city":"葛飾区","address":"葛飾区水元4-21-1","lat":35.787279,"lon":139.86425},{"name":"東部第二下水道事務所","province":"東京都","city":"葛飾区","address":"東京都葛飾区小菅1丁目2-1","lat":35.75266153,"lon":139.81892566},{"name":"＊?葛飾区科学教育センター「未来わくわく館」","province":"東京都","city":"葛飾区","address":"葛飾区新宿6-3-2","lat":35.772061,"lon":139.861946},{"name":"＊?葛飾区教育資料館","province":"東京都","city":"葛飾区","address":"葛飾区水元4-21-1","lat":35.787279,"lon":139.86425},{"name":"東部第二下水道事務所","province":"東京都","city":"葛飾区","address":"東京都葛飾区小菅1丁目2-1","lat":35.75266153,"lon":139.81892566},{"name":"＊?葛飾区科学教育センター「未来わくわく館」","province":"東京都","city":"葛飾区","address":"葛飾区新宿6-3-2","lat":35.772061,"lon":139.861946},{"name":"＊?葛飾区教育資料館","province":"東京都","city":"葛飾区","address":"葛飾区水元4-21-1","lat":35.787279,"lon":139.86425},{"name":"東部第二下水道事務所","province":"東京都","city":"葛飾区","address":"東京都葛飾区小菅1丁目2-1","lat":35.75266153,"lon":139.81892566},{"name":"＊?葛飾区科学教育センター「未来わくわく館」","province":"東京都","city":"葛飾区","address":"葛飾区新宿6-3-2","lat":35.772061,"lon":139.861946},{"name":"＊?葛飾区教育資料館","province":"東京都","city":"葛飾区","address":"葛飾区水元4-21-1","lat":35.787279,"lon":139.86425},{"name":"東部第二下水道事務所","province":"東京都","city":"葛飾区","address":"東京都葛飾区小菅1丁目2-1","lat":35.75266153,"lon":139.81892566},{"name":"＊?葛飾区科学教育センター「未来わくわく館」","province":"東京都","city":"葛飾区","address":"葛飾区新宿6-3-2","lat":35.772061,"lon":139.861946},{"name":"＊?葛飾区教育資料館","province":"東京都","city":"葛飾区","address":"葛飾区水元4-21-1","lat":35.787279,"lon":139.86425},{"name":"東部第二下水道事務所","province":"東京都","city":"葛飾区","address":"東京都葛飾区小菅1丁目2-1","lat":35.75266153,"lon":139.81892566},{"name":"＊?葛飾区科学教育センター「未来わくわく館」","province":"東京都","city":"葛飾区","address":"葛飾区新宿6-3-2","lat":35.772061,"lon":139.861946},{"name":"＊?葛飾区教育資料館","province":"東京都","city":"葛飾区","address":"葛飾区水元4-21-1","lat":35.787279,"lon":139.86425},{"name":"東部第二下水道事務所","province":"東京都","city":"葛飾区","address":"東京都葛飾区小菅1丁目2-1","lat":35.75266153,"lon":139.81892566},{"name":"＊?葛飾区科学教育センター「未来わくわく館」","province":"東京都","city":"葛飾区","address":"葛飾区新宿6-3-2","lat":35.772061,"lon":139.861946},{"name":"＊?葛飾区教育資料館","province":"東京都","city":"葛飾区","address":"葛飾区水元4-21-1","lat":35.787279,"lon":139.86425},{"name":"東部第二下水道事務所","province":"東京都","city":"葛飾区","address":"東京都葛飾区小菅1丁目2-1","lat":35.75266153,"lon":139.81892566},{"name":"＊?葛飾区科学教育センター「未来わくわく館」","province":"東京都","city":"葛飾区","address":"葛飾区新宿6-3-2","lat":35.772061,"lon":139.861946},{"name":"＊?葛飾区教育資料館","province":"東京都","city":"葛飾区","address":"葛飾区水元4-21-1","lat":35.787279,"lon":139.86425},{"name":"東部第二下水道事務所","province":"東京都","city":"葛飾区","address":"東京都葛飾区小菅1丁目2-1","lat":35.75266153,"lon":139.81892566},{"name":"＊?葛飾区科学教育センター「未来わくわく館」","province":"東京都","city":"葛飾区","address":"葛飾区新宿6-3-2","lat":35.772061,"lon":139.861946},{"name":"＊?葛飾区教育資料館","province":"東京都","city":"葛飾区","address":"葛飾区水元4-21-1","lat":35.787279,"lon":139.86425},{"name":"東部第二下水道事務所","province":"東京都","city":"葛飾区","address":"東京都葛飾区小菅1丁目2-1","lat":35.75266153,"lon":139.81892566},{"name":"＊?葛飾区科学教育センター「未来わくわく館」","province":"東京都","city":"葛飾区","address":"葛飾区新宿6-3-2","lat":35.772061,"lon":139.861946},{"name":"＊?葛飾区教育資料館","province":"東京都","city":"葛飾区","address":"葛飾区水元4-21-1","lat":35.787279,"lon":139.86425},{"name":"東部第二下水道事務所","province":"東京都","city":"葛飾区","address":"東京都葛飾区小菅1丁目2-1","lat":35.75266153,"lon":139.81892566},{"name":"＊?葛飾区科学教育センター「未来わくわく館」","province":"東京都","city":"葛飾区","address":"葛飾区新宿6-3-2","lat":35.772061,"lon":139.861946},{"name":"＊?葛飾区教育資料館","province":"東京都","city":"葛飾区","address":"葛飾区水元4-21-1","lat":35.787279,"lon":139.86425},{"name":"東部第二下水道事務所","province":"東京都","city":"葛飾区","address":"東京都葛飾区小菅1丁目2-1","lat":35.75266153,"lon":139.81892566},{"name":"＊?葛飾区科学教育センター「未来わくわく館」","province":"東京都","city":"葛飾区","address":"葛飾区新宿6-3-2","lat":35.772061,"lon":139.861946},{"name":"＊?葛飾区教育資料館","province":"東京都","city":"葛飾区","address":"葛飾区水元4-21-1","lat":35.787279,"lon":139.86425},{"name":"東部第二下水道事務所","province":"東京都","city":"葛飾区","address":"東京都葛飾区小菅1丁目2-1","lat":35.75266153,"lon":139.81892566},{"name":"＊?葛飾区科学教育センター「未来わくわく館」","province":"東京都","city":"葛飾区","address":"葛飾区新宿6-3-2","lat":35.772061,"lon":139.861946},{"name":"＊?葛飾区教育資料館","province":"東京都","city":"葛飾区","address":"葛飾区水元4-21-1","lat":35.787279,"lon":139.86425},{"name":"東部第二下水道事務所","province":"東京都","city":"葛飾区","address":"東京都葛飾区小菅1丁目2-1","lat":35.75266153,"lon":139.81892566},{"name":"＊?葛飾区科学教育センター「未来わくわく館」","province":"東京都","city":"葛飾区","address":"葛飾区新宿6-3-2","lat":35.772061,"lon":139.861946},{"name":"＊?葛飾区教育資料館","province":"東京都","city":"葛飾区","address":"葛飾区水元4-21-1","lat":35.787279,"lon":139.86425},{"name":"東部第二下水道事務所","province":"東京都","city":"葛飾区","address":"東京都葛飾区小菅1丁目2-1","lat":35.75266153,"lon":139.81892566},{"name":"＊?葛飾区科学教育センター「未来わくわく館」","province":"東京都","city":"葛飾区","address":"葛飾区新宿6-3-2","lat":35.772061,"lon":139.861946},{"name":"＊?葛飾区教育資料館","province":"東京都","city":"葛飾区","address":"葛飾区水元4-21-1","lat":35.787279,"lon":139.86425},{"name":"東部第二下水道事務所","province":"東京都","city":"葛飾区","address":"東京都葛飾区小菅1丁目2-1","lat":35.75266153,"lon":139.81892566},{"name":"＊?葛飾区科学教育センター「未来わくわく館」","province":"東京都","city":"葛飾区","address":"葛飾区新宿6-3-2","lat":35.772061,"lon":139.861946},{"name":"＊?葛飾区教育資料館","province":"東京都","city":"葛飾区","address":"葛飾区水元4-21-1","lat":35.787279,"lon":139.86425},{"name":"東部第二下水道事務所","province":"東京都","city":"葛飾区","address":"東京都葛飾区小菅1丁目2-1","lat":35.75266153,"lon":139.81892566},{"name":"＊?葛飾区科学教育センター「未来わくわく館」","province":"東京都","city":"葛飾区","address":"葛飾区新宿6-3-2","lat":35.772061,"lon":139.861946},{"name":"＊?葛飾区教育資料館","province":"東京都","city":"葛飾区","address":"葛飾区水元4-21-1","lat":35.787279,"lon":139.86425},{"name":"東部第二下水道事務所","province":"東京都","city":"葛飾区","address":"東京都葛飾区小菅1丁目2-1","lat":35.75266153,"lon":139.81892566},{"name":"＊?葛飾区科学教育センター「未来わくわく館」","province":"東京都","city":"葛飾区","address":"葛飾区新宿6-3-2","lat":35.772061,"lon":139.861946},{"name":"＊?葛飾区教育資料館","province":"東京都","city":"葛飾区","address":"葛飾区水元4-21-1","lat":35.787279,"lon":139.86425},{"name":"東部第二下水道事務所","province":"東京都","city":"葛飾区","address":"東京都葛飾区小菅1丁目2-1","lat":35.75266153,"lon":139.81892566},{"name":"＊?葛飾区科学教育センター「未来わくわく館」","province":"東京都","city":"葛飾区","address":"葛飾区新宿6-3-2","lat":35.772061,"lon":139.861946},{"name":"＊?葛飾区教育資料館","province":"東京都","city":"葛飾区","address":"葛飾区水元4-21-1","lat":35.787279,"lon":139.86425},{"name":"東部第二下水道事務所","province":"東京都","city":"葛飾区","address":"東京都葛飾区小菅1丁目2-1","lat":35.75266153,"lon":139.81892566},{"name":"＊?葛飾区科学教育センター「未来わくわく館」","province":"東京都","city":"葛飾区","address":"葛飾区新宿6-3-2","lat":35.772061,"lon":139.861946},{"name":"＊?葛飾区教育資料館","province":"東京都","city":"葛飾区","address":"葛飾区水元4-21-1","lat":35.787279,"lon":139.86425},{"name":"東部第二下水道事務所","province":"東京都","city":"葛飾区","address":"東京都葛飾区小菅1丁目2-1","lat":35.75266153,"lon":139.81892566},{"name":"＊?葛飾区科学教育センター「未来わくわく館」","province":"東京都","city":"葛飾区","address":"葛飾区新宿6-3-2","lat":35.772061,"lon":139.861946},{"name":"＊?葛飾区教育資料館","province":"東京都","city":"葛飾区","address":"葛飾区水元4-21-1","lat":35.787279,"lon":139.86425},{"name":"東部第二下水道事務所","province":"東京都","city":"葛飾区","address":"東京都葛飾区小菅1丁目2-1","lat":35.75266153,"lon":139.81892566},{"name":"＊?葛飾区科学教育センター「未来わくわく館」","province":"東京都","city":"葛飾区","address":"葛飾区新宿6-3-2","lat":35.772061,"lon":139.861946},{"name":"＊?葛飾区教育資料館","province":"東京都","city":"葛飾区","address":"葛飾区水元4-21-1","lat":35.787279,"lon":139.86425},{"name":"東部第二下水道事務所","province":"東京都","city":"葛飾区","address":"東京都葛飾区小菅1丁目2-1","lat":35.75266153,"lon":139.81892566},{"name":"＊?葛飾区科学教育センター「未来わくわく館」","province":"東京都","city":"葛飾区","address":"葛飾区新宿6-3-2","lat":35.772061,"lon":139.861946},{"name":"＊?葛飾区教育資料館","province":"東京都","city":"葛飾区","address":"葛飾区水元4-21-1","lat":35.787279,"lon":139.86425},{"name":"東部第二下水道事務所","province":"東京都","city":"葛飾区","address":"東京都葛飾区小菅1丁目2-1","lat":35.75266153,"lon":139.81892566},{"name":"＊?葛飾区科学教育センター「未来わくわく館」","province":"東京都","city":"葛飾区","address":"葛飾区新宿6-3-2","lat":35.772061,"lon":139.861946},{"name":"＊?葛飾区教育資料館","province":"東京都","city":"葛飾区","address":"葛飾区水元4-21-1","lat":35.787279,"lon":139.86425},{"name":"東部第二下水道事務所","province":"東京都","city":"葛飾区","address":"東京都葛飾区小菅1丁目2-1","lat":35.75266153,"lon":139.81892566},{"name":"＊?葛飾区科学教育センター「未来わくわく館」","province":"東京都","city":"葛飾区","address":"葛飾区新宿6-3-2","lat":35.772061,"lon":139.861946},{"name":"＊?葛飾区教育資料館","province":"東京都","city":"葛飾区","address":"葛飾区水元4-21-1","lat":35.787279,"lon":139.86425},{"name":"東部第二下水道事務所","province":"東京都","city":"葛飾区","address":"東京都葛飾区小菅1丁目2-1","lat":35.75266153,"lon":139.81892566},{"name":"＊?葛飾区科学教育センター「未来わくわく館」","province":"東京都","city":"葛飾区","address":"葛飾区新宿6-3-2","lat":35.772061,"lon":139.861946},{"name":"＊?葛飾区教育資料館","province":"東京都","city":"葛飾区","address":"葛飾区水元4-21-1","lat":35.787279,"lon":139.86425},{"name":"東部第二下水道事務所","province":"東京都","city":"葛飾区","address":"東京都葛飾区小菅1丁目2-1","lat":35.75266153,"lon":139.81892566},{"name":"＊?葛飾区科学教育センター「未来わくわく館」","province":"東京都","city":"葛飾区","address":"葛飾区新宿6-3-2","lat":35.772061,"lon":139.861946},{"name":"＊?葛飾区教育資料館","province":"東京都","city":"葛飾区","address":"葛飾区水元4-21-1","lat":35.787279,"lon":139.86425},{"name":"東部第二下水道事務所","province":"東京都","city":"葛飾区","address":"東京都葛飾区小菅1丁目2-1","lat":35.75266153,"lon":139.81892566},{"name":"＊?葛飾区科学教育センター「未来わくわく館」","province":"東京都","city":"葛飾区","address":"葛飾区新宿6-3-2","lat":35.772061,"lon":139.861946},{"name":"＊?葛飾区教育資料館","province":"東京都","city":"葛飾区","address":"葛飾区水元4-21-1","lat":35.787279,"lon":139.86425},{"name":"東部第二下水道事務所","province":"東京都","city":"葛飾区","address":"東京都葛飾区小菅1丁目2-1","lat":35.75266153,"lon":139.81892566},{"name":"＊?葛飾区科学教育センター「未来わくわく館」","province":"東京都","city":"葛飾区","address":"葛飾区新宿6-3-2","lat":35.772061,"lon":139.861946},{"name":"＊?葛飾区教育資料館","province":"東京都","city":"葛飾区","address":"葛飾区水元4-21-1","lat":35.787279,"lon":139.86425},{"name":"東部第二下水道事務所","province":"東京都","city":"葛飾区","address":"東京都葛飾区小菅1丁目2-1","lat":35.75266153,"lon":139.81892566},{"name":"＊?葛飾区科学教育センター「未来わくわく館」","province":"東京都","city":"葛飾区","address":"葛飾区新宿6-3-2","lat":35.772061,"lon":139.861946},{"name":"＊?葛飾区教育資料館","province":"東京都","city":"葛飾区","address":"葛飾区水元4-21-1","lat":35.787279,"lon":139.86425},{"name":"東部第二下水道事務所","province":"東京都","city":"葛飾区","address":"東京都葛飾区小菅1丁目2-1","lat":35.75266153,"lon":139.81892566},{"name":"＊?葛飾区科学教育センター「未来わくわく館」","province":"東京都","city":"葛飾区","address":"葛飾区新宿6-3-2","lat":35.772061,"lon":139.861946},{"name":"＊?葛飾区教育資料館","province":"東京都","city":"葛飾区","address":"葛飾区水元4-21-1","lat":35.787279,"lon":139.86425},{"name":"東部第二下水道事務所","province":"東京都","city":"葛飾区","address":"東京都葛飾区小菅1丁目2-1","lat":35.75266153,"lon":139.81892566},{"name":"＊?葛飾区科学教育センター「未来わくわく館」","province":"東京都","city":"葛飾区","address":"葛飾区新宿6-3-2","lat":35.772061,"lon":139.861946},{"name":"＊?葛飾区教育資料館","province":"東京都","city":"葛飾区","address":"葛飾区水元4-21-1","lat":35.787279,"lon":139.86425},{"name":"東部第二下水道事務所","province":"東京都","city":"葛飾区","address":"東京都葛飾区小菅1丁目2-1","lat":35.75266153,"lon":139.81892566},{"name":"＊?葛飾区科学教育センター「未来わくわく館」","province":"東京都","city":"葛飾区","address":"葛飾区新宿6-3-2","lat":35.772061,"lon":139.861946},{"name":"＊?葛飾区教育資料館","province":"東京都","city":"葛飾区","address":"葛飾区水元4-21-1","lat":35.787279,"lon":139.86425},{"name":"東部第二下水道事務所","province":"東京都","city":"葛飾区","address":"東京都葛飾区小菅1丁目2-1","lat":35.75266153,"lon":139.81892566},{"name":"＊?葛飾区科学教育センター「未来わくわく館」","province":"東京都","city":"葛飾区","address":"葛飾区新宿6-3-2","lat":35.772061,"lon":139.861946},{"name":"＊?葛飾区教育資料館","province":"東京都","city":"葛飾区","address":"葛飾区水元4-21-1","lat":35.787279,"lon":139.86425},{"name":"東部第二下水道事務所","province":"東京都","city":"葛飾区","address":"東京都葛飾区小菅1丁目2-1","lat":35.75266153,"lon":139.81892566},{"name":"＊?葛飾区科学教育センター「未来わくわく館」","province":"東京都","city":"葛飾区","address":"葛飾区新宿6-3-2","lat":35.772061,"lon":139.861946},{"name":"＊?葛飾区教育資料館","province":"東京都","city":"葛飾区","address":"葛飾区水元4-21-1","lat":35.787279,"lon":139.86425},{"name":"東部第二下水道事務所","province":"東京都","city":"葛飾区","address":"東京都葛飾区小菅1丁目2-1","lat":35.75266153,"lon":139.81892566},{"name":"＊?葛飾区科学教育センター「未来わくわく館」","province":"東京都","city":"葛飾区","address":"葛飾区新宿6-3-2","lat":35.772061,"lon":139.861946},{"name":"＊?葛飾区教育資料館","province":"東京都","city":"葛飾区","address":"葛飾区水元4-21-1","lat":35.787279,"lon":139.86425},{"name":"東部第二下水道事務所","province":"東京都","city":"葛飾区","address":"東京都葛飾区小菅1丁目2-1","lat":35.75266153,"lon":139.81892566}]}