{"keyword":"放課後","data":[{"name":"放課後等デイサービス　キッズパーク","province":"東京都","city":"葛飾区","address":"葛飾区小菅4-10-6下井ビル2階","lat":35.761924,"lon":139.825061},{"name":"アポロキッズクラブお花茶屋","province":"東京都","city":"葛飾区","address":"葛飾区お花茶屋2-4-18","lat":35.751745,"lon":139.839849},{"name":"アポロキッズクラブ東堀切","province":"東京都","city":"葛飾区","address":"葛飾区東堀切3-7-3","lat":35.7561,"lon":139.836146},{"name":"放課後等デイサービスつぼみ","province":"東京都","city":"葛飾区","address":"葛飾区堀切7-23-4-1階","lat":35.75602,"lon":139.832113},{"name":"縁ジェルキッズ","province":"東京都","city":"葛飾区","address":"葛飾区堀切5-50-9吉田ビル1階","lat":35.751084,"lon":139.828494},{"name":"ゆりのねこどもDayさぽーとⅡ","province":"東京都","city":"葛飾区","address":"葛飾区四つ木1-29-151F","lat":35.734529,"lon":139.834856},{"name":"児童デイサービス　にじいろ立石","province":"東京都","city":"葛飾区","address":"葛飾区立石8-53-4","lat":35.738689,"lon":139.858067},{"name":"広伸会　奥戸教室","province":"東京都","city":"葛飾区","address":"葛飾区奥戸1-18-181階","lat":35.729184,"lon":139.856585},{"name":"広伸会　東新小岩教室","province":"東京都","city":"葛飾区","address":"葛飾区東新小岩5-18-11階","lat":35.72331,"lon":139.857049},{"name":"広伸会　西新小岩教室","province":"東京都","city":"葛飾区","address":"葛飾区西新小岩4-29-81階","lat":35.720688,"lon":139.85306},{"name":"児童デイサービス「優」","province":"東京都","city":"葛飾区","address":"葛飾区西水元1-18-1","lat":35.7806,"lon":139.851652},{"name":"かつしか風の子クラブ","province":"東京都","city":"葛飾区","address":"葛飾区西水元5-11-3","lat":35.78446,"lon":139.854533},{"name":"スマートキッズプラス水元","province":"東京都","city":"葛飾区","address":"葛飾区水元4-6-19プリンス2階","lat":35.787874,"lon":139.860271},{"name":"児童発達支援・放課後等デイサービス　つばさクラブ東水元","province":"東京都","city":"葛飾区","address":"葛飾区東水元5-24-1","lat":35.792273,"lon":139.864376},{"name":"児童デイサービス　あい","province":"東京都","city":"葛飾区","address":"葛飾区南水元2-5-8","lat":35.779328,"lon":139.852644},{"name":"あしたも笑顔　金町","province":"東京都","city":"葛飾区","address":"葛飾区東金町2-11-61階","lat":35.776009,"lon":139.867082},{"name":"このこのリーフ葛飾","province":"東京都","city":"葛飾区","address":"葛飾区東金町1-40-4金町北口ビル2階","lat":35.770673,"lon":139.872335},{"name":"ぷれゾンクラブ金町","province":"東京都","city":"葛飾区","address":"葛飾区東金町3-41-18","lat":35.77517,"lon":139.87234},{"name":"児童発達支援・放課後等デイサービス　もなか","province":"東京都","city":"葛飾区","address":"葛飾区新宿二丁目12番25号","lat":35.761836,"lon":139.856783},{"name":"児童デイサービス　にじいろ柴又","province":"東京都","city":"葛飾区","address":"葛飾区柴又7-14-4","lat":35.759842,"lon":139.879159},{"name":"のぞみ発達支援室たかさご","province":"東京都","city":"葛飾区","address":"葛飾区高砂7-26-3","lat":35.756995,"lon":139.867121},{"name":"児童発達支援・放課後等デイサービス　つばさクラブ高砂","province":"東京都","city":"葛飾区","address":"葛飾区高砂8-28-12","lat":35.752754,"lon":139.870768},{"name":"ハッピーテラス葛飾高砂","province":"東京都","city":"葛飾区","address":"葛飾区高砂3-11-14ステーションハイツ高砂106号","lat":35.750426,"lon":139.867633},{"name":"スマートキッズプラス亀有","province":"東京都","city":"葛飾区","address":"葛飾区亀有3-13-2亀有鞠子ビル2階","lat":35.763133,"lon":139.847781},{"name":"ＬＤサポート・療育　ソラアルＳＳＥ","province":"東京都","city":"葛飾区","address":"葛飾区亀有五丁目34番10-201号","lat":35.767505,"lon":139.848792},{"name":"のぞみ学園かめあり","province":"東京都","city":"葛飾区","address":"葛飾区亀有2-22-11","lat":35.760067,"lon":139.852535},{"name":"広伸会　亀有教室","province":"東京都","city":"葛飾区","address":"葛飾区亀有2-73-10Yビル1階","lat":35.76195,"lon":139.852536},{"name":"放課後等デイサービス　ゆめ","province":"東京都","city":"葛飾区","address":"葛飾区青戸一丁目9番23号ジュネパレス葛飾第11階","lat":35.744407,"lon":139.855712},{"name":"児童デイ　お花ちゃや","province":"東京都","city":"葛飾区","address":"葛飾区白鳥3-15-121階","lat":35.75239,"lon":139.843718},{"name":"アポロキッズクラブ","province":"東京都","city":"葛飾区","address":"葛飾区白鳥三丁目31番9号","lat":35.754709,"lon":139.843754},{"name":"広伸会　白鳥教室","province":"東京都","city":"葛飾区","address":"葛飾区白鳥3-6-121階","lat":35.750032,"lon":139.846121}]}