{"keyword":"朝","data":[{"name":"(株）伊藤葬祭","province":"東京都","city":"葛飾区","address":"東京都葛飾区新小岩1丁目48-8","lat":35.71652119,"lon":139.85929903},{"name":"(有）上平井葬儀社","province":"東京都","city":"葛飾区","address":"東京都葛飾区西新小岩3丁目39-8","lat":35.72376226,"lon":139.8467885},{"name":"（有）網代屋葬儀社奥戸支店","province":"東京都","city":"葛飾区","address":"東京都葛飾区奥戸3丁目28-11","lat":35.73451157,"lon":139.86399463},{"name":"（有）橋本葬儀社","province":"東京都","city":"葛飾区","address":"東京都葛飾区東立石4丁目46-6","lat":35.73720813,"lon":139.85044291},{"name":"（株）葵式典（島田会館）","province":"東京都","city":"葛飾区","address":"東京都葛飾区四つ木1丁目33-5","lat":35.7345953,"lon":139.8360199},{"name":"東間葬儀社","province":"東京都","city":"葛飾区","address":"東京都葛飾区四つ木2丁目3-9","lat":35.73532582,"lon":139.83486168},{"name":"（株）八木井","province":"東京都","city":"葛飾区","address":"東京都葛飾区堀切2丁目34-2","lat":35.74504354,"lon":139.82592301},{"name":"（有）登坂商店","province":"東京都","city":"葛飾区","address":"東京都葛飾区堀切2丁目35-3","lat":35.74575453,"lon":139.82591738},{"name":"稲垣屋葬儀店","province":"東京都","city":"葛飾区","address":"東京都葛飾区堀切6丁目33-4","lat":35.75318384,"lon":139.82765534},{"name":"（有）秋元商店","province":"東京都","city":"葛飾区","address":"東京都葛飾区東堀切2丁目13-8","lat":35.75377009,"lon":139.83614627},{"name":"（有）セレモニーマルヤマ","province":"東京都","city":"葛飾区","address":"東京都葛飾区青戸3丁目33-18","lat":35.74656001,"lon":139.8554865},{"name":"（有）網代屋葬儀社青戸支店","province":"東京都","city":"葛飾区","address":"東京都葛飾区青戸4丁目22-22","lat":35.74858752,"lon":139.8526561},{"name":"（有）島田富義葬祭式典","province":"東京都","city":"葛飾区","address":"東京都葛飾区亀有3丁目14-10","lat":35.7630218,"lon":139.84898083},{"name":"（有）網代屋葬儀社本店","province":"東京都","city":"葛飾区","address":"東京都葛飾区高砂5丁目35-11","lat":35.7517789,"lon":139.86808531},{"name":"（株）島村葬儀社","province":"東京都","city":"葛飾区","address":"東京都葛飾区金町6丁目1-14","lat":35.76745719,"lon":139.87160132},{"name":"（株）東京供養舎（かなまち会館）","province":"東京都","city":"葛飾区","address":"東京都葛飾区東金町4丁目37-1","lat":35.77491998,"lon":139.87306216},{"name":"立石みんな子ども食堂","province":"東京都","city":"葛飾区","address":"東京都葛飾区立石1丁目21-12","lat":35.73770808,"lon":139.85014569},{"name":"たていしこども食堂実行委員会","province":"東京都","city":"葛飾区","address":"東京都葛飾区立石1丁目21-12","lat":35.73770808,"lon":139.85014569},{"name":"えまいまキッチン","province":"東京都","city":"葛飾区","address":"東京都葛飾区亀有3丁目32-3","lat":35.76494653,"lon":139.84890299},{"name":"青空っ子こども食堂","province":"東京都","city":"葛飾区","address":"東京都葛飾区お花茶屋3丁目5-6","lat":35.75648368,"lon":139.84306772},{"name":"こども食堂　トコ","province":"東京都","city":"葛飾区","address":"東京都葛飾区東水元2-35-16","lat":35.7807536,"lon":139.868906},{"name":"ほっこり食堂","province":"東京都","city":"葛飾区","address":"東京都葛飾区立石8丁目51-7","lat":35.73898869,"lon":139.85940314},{"name":"マミー子ども食堂","province":"東京都","city":"葛飾区","address":"東京都葛飾区東金町4丁目7-7","lat":35.77312574,"lon":139.87489821},{"name":"大道中学校前","province":"東京都","city":"葛飾区","address":"東京都葛飾区立石5丁目3-8","lat":35.74409914,"lon":139.84374051},{"name":"小菅三丁目","province":"東京都","city":"葛飾区","address":"東京都葛飾区小菅4丁目22-20","lat":35.75687226,"lon":139.82796347},{"name":"小菅二丁目","province":"東京都","city":"葛飾区","address":"東京都葛飾区小菅3丁目14-17","lat":35.75388095,"lon":139.82711924},{"name":"金町三丁目","province":"東京都","city":"葛飾区","address":"東京都葛飾区金町6丁目1-18","lat":35.7671739,"lon":139.87115135},{"name":"亀有四丁目","province":"東京都","city":"葛飾区","address":"東京都葛飾区西亀有3丁目43-10","lat":35.76287171,"lon":139.84142314},{"name":"金町駅北口第二","province":"東京都","city":"葛飾区","address":"東京都葛飾区東金町1丁目45-2","lat":35.76986517,"lon":139.87100686},{"name":"帝釈天参道","province":"東京都","city":"葛飾区","address":"東京都葛飾区柴又7丁目3-7","lat":35.75760856,"lon":139.87611796},{"name":"帝釈天参道第二","province":"東京都","city":"葛飾区","address":"東京都葛飾区柴又7丁目1-10","lat":35.75691699,"lon":139.8764124},{"name":"東金町二丁目","province":"東京都","city":"葛飾区","address":"東京都葛飾区東金町2丁目3-13","lat":35.77092341,"lon":139.8670182},{"name":"葛飾盲学校東","province":"東京都","city":"葛飾区","address":"東京都葛飾区堀切7丁目27-5","lat":35.75620851,"lon":139.82978835},{"name":"ふれあい動物広場前","province":"東京都","city":"葛飾区","address":"東京都葛飾区西亀有1丁目27","lat":35.75759463,"lon":139.84162336},{"name":"曳舟川親水公園","province":"東京都","city":"葛飾区","address":"東京都葛飾区お花茶屋3丁目7-13","lat":35.75480612,"lon":139.84318167},{"name":"亀有駅前第一","province":"東京都","city":"葛飾区","address":"東京都葛飾区亀有3丁目26-1","lat":35.76658519,"lon":139.84842798},{"name":"お花茶屋公園東","province":"東京都","city":"葛飾区","address":"東京都葛飾区お花茶屋1丁目21-14","lat":35.74905131,"lon":139.84131828},{"name":"亀有二丁目西第二","province":"東京都","city":"葛飾区","address":"東京都葛飾区亀有2丁目62-5","lat":35.76283016,"lon":139.84977244},{"name":"金町駅南口交番南","province":"東京都","city":"葛飾区","address":"東京都葛飾区金町6丁目4-2","lat":35.76912359,"lon":139.87244845},{"name":"本田小学校前","province":"東京都","city":"葛飾区","address":"東京都葛飾区立石1丁目8-20","lat":35.73662209,"lon":139.84545455},{"name":"京成立石駅前","province":"東京都","city":"葛飾区","address":"東京都葛飾区立石1丁目21-1","lat":35.7374081,"lon":139.84960686},{"name":"上平井消防出張所前","province":"東京都","city":"葛飾区","address":"東京都葛飾区東新小岩7丁目1-1","lat":35.72344011,"lon":139.85292685},{"name":"新小岩駅前","province":"東京都","city":"葛飾区","address":"東京都葛飾区新小岩1丁目46-9","lat":35.71696561,"lon":139.85901013},{"name":"堀切五丁目","province":"東京都","city":"葛飾区","address":"東京都葛飾区堀切5丁目5-3","lat":35.74897622,"lon":139.8277002},{"name":"巽橋","province":"東京都","city":"葛飾区","address":"東京都葛飾区西新小岩4丁目42-16","lat":35.71929321,"lon":139.85652403},{"name":"シンフォニーヒルズ前","province":"東京都","city":"葛飾区","address":"東京都葛飾区立石6丁目33-1","lat":35.74245764,"lon":139.85221197},{"name":"立石一丁目","province":"東京都","city":"葛飾区","address":"東京都葛飾区立石1丁目11-7","lat":35.73688031,"lon":139.84686545},{"name":"立石駅前第二","province":"東京都","city":"葛飾区","address":"東京都葛飾区東立石4丁目46-6","lat":35.73720813,"lon":139.85044291},{"name":"青砥駅北口","province":"東京都","city":"葛飾区","address":"東京都葛飾区青戸3丁目31-8","lat":35.74579342,"lon":139.85460883},{"name":"堀切菖蒲園駅前","province":"東京都","city":"葛飾区","address":"東京都葛飾区堀切4丁目9-10","lat":35.74698488,"lon":139.82665328},{"name":"葛飾区役所前","province":"東京都","city":"葛飾区","address":"東京都葛飾区立石5丁目12-6","lat":35.74226037,"lon":139.84756795},{"name":"東新小岩三丁目","province":"東京都","city":"葛飾区","address":"東京都葛飾区東新小岩3丁目4-21","lat":35.721057,"lon":139.8588626},{"name":"葛飾税務署前","province":"東京都","city":"葛飾区","address":"東京都葛飾区立石7丁目11-11","lat":35.7423354,"lon":139.8499844},{"name":"新小岩一丁目","province":"東京都","city":"葛飾区","address":"東京都葛飾区新小岩1丁目50-8","lat":35.71575743,"lon":139.86033786},{"name":"西新小岩四丁目","province":"東京都","city":"葛飾区","address":"東京都葛飾区東新小岩5丁目12-1","lat":35.7211903,"lon":139.85524623},{"name":"渋江公園前","province":"東京都","city":"葛飾区","address":"東京都葛飾区立石1丁目6","lat":35.73668888,"lon":139.84359091},{"name":"堀切駅ガード下","province":"東京都","city":"葛飾区","address":"東京都葛飾区堀切4丁目52-5","lat":35.74787639,"lon":139.82665597},{"name":"小松中学校前","province":"東京都","city":"葛飾区","address":"東京都葛飾区新小岩4丁目30-1","lat":35.72039624,"lon":139.86414821},{"name":"立石七丁目","province":"東京都","city":"葛飾区","address":"東京都葛飾区立石7丁目4-9","lat":35.74061056,"lon":139.84961505},{"name":"新小岩駅前第二","province":"東京都","city":"葛飾区","address":"東京都葛飾区新小岩1丁目47-1","lat":35.71660451,"lon":139.85866297},{"name":"新小岩駅前第三","province":"東京都","city":"葛飾区","address":"東京都葛飾区新小岩1丁目45-1","lat":35.71660173,"lon":139.85776858},{"name":"新小岩駅北口","province":"東京都","city":"葛飾区","address":"東京都葛飾区西新小岩1丁目9-8","lat":35.7180933,"lon":139.85785457},{"name":"新小岩ＪＲ官舎前","province":"東京都","city":"葛飾区","address":"東京都葛飾区新小岩2丁目2-26","lat":35.71761568,"lon":139.86079321},{"name":"立石駅前第三","province":"東京都","city":"葛飾区","address":"東京都葛飾区東立石3丁目37-6","lat":35.73672201,"lon":139.84771539},{"name":"生活会館前","province":"東京都","city":"葛飾区","address":"東京都葛飾区立石6丁目33-1","lat":35.74245764,"lon":139.85221197},{"name":"西町停留所前","province":"東京都","city":"葛飾区","address":"東京都葛飾区立石7丁目2-9","lat":35.73936902,"lon":139.84973733},{"name":"松上小学校前","province":"東京都","city":"葛飾区","address":"東京都葛飾区西新小岩4丁目33-10","lat":35.71879599,"lon":139.85336877},{"name":"葛飾勤労福祉会館前","province":"東京都","city":"葛飾区","address":"東京都葛飾区立石3丁目13-4","lat":35.73948022,"lon":139.843588},{"name":"立石駅南","province":"東京都","city":"葛飾区","address":"東京都葛飾区東立石4丁目54-6","lat":35.73688313,"lon":139.8487014},{"name":"大道橋","province":"東京都","city":"葛飾区","address":"東京都葛飾区東立石3丁目24-11","lat":35.73650815,"lon":139.84636277},{"name":"新小岩東北広場入口","province":"東京都","city":"葛飾区","address":"東京都葛飾区東新小岩1丁目14-11","lat":35.72107373,"lon":139.86015413},{"name":"金町浄水場","province":"東京都","city":"葛飾区","address":"東京都葛飾区金町浄水場1-1","lat":35.76233004,"lon":139.87836494},{"name":"水元給水所（都立水元公園内自由広場）","province":"東京都","city":"葛飾区","address":"東京都葛飾区水元公園4","lat":35.79240643,"lon":139.86812312},{"name":"区立上千葉公園","province":"東京都","city":"葛飾区","address":"東京都葛飾区東堀切3丁目25-1","lat":35.75497273,"lon":139.83903761},{"name":"区立新小岩公園","province":"東京都","city":"葛飾区","address":"東京都葛飾区西新小岩1丁目1-3","lat":35.71611839,"lon":139.85476607},{"name":"区立渋江東公園","province":"東京都","city":"葛飾区","address":"東京都葛飾区東四つ木2丁目15","lat":35.73076194,"lon":139.8434969},{"name":"(株）伊藤葬祭","province":"東京都","city":"葛飾区","address":"東京都葛飾区新小岩1丁目48-8","lat":35.71652119,"lon":139.85929903},{"name":"(有）上平井葬儀社","province":"東京都","city":"葛飾区","address":"東京都葛飾区西新小岩3丁目39-8","lat":35.72376226,"lon":139.8467885},{"name":"（有）網代屋葬儀社奥戸支店","province":"東京都","city":"葛飾区","address":"東京都葛飾区奥戸3丁目28-11","lat":35.73451157,"lon":139.86399463},{"name":"（有）橋本葬儀社","province":"東京都","city":"葛飾区","address":"東京都葛飾区東立石4丁目46-6","lat":35.73720813,"lon":139.85044291},{"name":"（株）葵式典（島田会館）","province":"東京都","city":"葛飾区","address":"東京都葛飾区四つ木1丁目33-5","lat":35.7345953,"lon":139.8360199},{"name":"東間葬儀社","province":"東京都","city":"葛飾区","address":"東京都葛飾区四つ木2丁目3-9","lat":35.73532582,"lon":139.83486168},{"name":"（株）八木井","province":"東京都","city":"葛飾区","address":"東京都葛飾区堀切2丁目34-2","lat":35.74504354,"lon":139.82592301},{"name":"（有）登坂商店","province":"東京都","city":"葛飾区","address":"東京都葛飾区堀切2丁目35-3","lat":35.74575453,"lon":139.82591738},{"name":"稲垣屋葬儀店","province":"東京都","city":"葛飾区","address":"東京都葛飾区堀切6丁目33-4","lat":35.75318384,"lon":139.82765534},{"name":"（有）秋元商店","province":"東京都","city":"葛飾区","address":"東京都葛飾区東堀切2丁目13-8","lat":35.75377009,"lon":139.83614627},{"name":"（有）セレモニーマルヤマ","province":"東京都","city":"葛飾区","address":"東京都葛飾区青戸3丁目33-18","lat":35.74656001,"lon":139.8554865},{"name":"（有）網代屋葬儀社青戸支店","province":"東京都","city":"葛飾区","address":"東京都葛飾区青戸4丁目22-22","lat":35.74858752,"lon":139.8526561},{"name":"（有）島田富義葬祭式典","province":"東京都","city":"葛飾区","address":"東京都葛飾区亀有3丁目14-10","lat":35.7630218,"lon":139.84898083},{"name":"（有）網代屋葬儀社本店","province":"東京都","city":"葛飾区","address":"東京都葛飾区高砂5丁目35-11","lat":35.7517789,"lon":139.86808531},{"name":"（株）島村葬儀社","province":"東京都","city":"葛飾区","address":"東京都葛飾区金町6丁目1-14","lat":35.76745719,"lon":139.87160132},{"name":"（株）東京供養舎（かなまち会館）","province":"東京都","city":"葛飾区","address":"東京都葛飾区東金町4丁目37-1","lat":35.77491998,"lon":139.87306216},{"name":"立石みんな子ども食堂","province":"東京都","city":"葛飾区","address":"東京都葛飾区立石1丁目21-12","lat":35.73770808,"lon":139.85014569},{"name":"たていしこども食堂実行委員会","province":"東京都","city":"葛飾区","address":"東京都葛飾区立石1丁目21-12","lat":35.73770808,"lon":139.85014569},{"name":"えまいまキッチン","province":"東京都","city":"葛飾区","address":"東京都葛飾区亀有3丁目32-3","lat":35.76494653,"lon":139.84890299},{"name":"青空っ子こども食堂","province":"東京都","city":"葛飾区","address":"東京都葛飾区お花茶屋3丁目5-6","lat":35.75648368,"lon":139.84306772},{"name":"こども食堂　トコ","province":"東京都","city":"葛飾区","address":"東京都葛飾区東水元2-35-16","lat":35.7807536,"lon":139.868906},{"name":"ほっこり食堂","province":"東京都","city":"葛飾区","address":"東京都葛飾区立石8丁目51-7","lat":35.73898869,"lon":139.85940314},{"name":"マミー子ども食堂","province":"東京都","city":"葛飾区","address":"東京都葛飾区東金町4丁目7-7","lat":35.77312574,"lon":139.87489821},{"name":"大道中学校前","province":"東京都","city":"葛飾区","address":"東京都葛飾区立石5丁目3-8","lat":35.74409914,"lon":139.84374051},{"name":"小菅三丁目","province":"東京都","city":"葛飾区","address":"東京都葛飾区小菅4丁目22-20","lat":35.75687226,"lon":139.82796347},{"name":"小菅二丁目","province":"東京都","city":"葛飾区","address":"東京都葛飾区小菅3丁目14-17","lat":35.75388095,"lon":139.82711924},{"name":"金町三丁目","province":"東京都","city":"葛飾区","address":"東京都葛飾区金町6丁目1-18","lat":35.7671739,"lon":139.87115135},{"name":"亀有四丁目","province":"東京都","city":"葛飾区","address":"東京都葛飾区西亀有3丁目43-10","lat":35.76287171,"lon":139.84142314},{"name":"金町駅北口第二","province":"東京都","city":"葛飾区","address":"東京都葛飾区東金町1丁目45-2","lat":35.76986517,"lon":139.87100686},{"name":"帝釈天参道","province":"東京都","city":"葛飾区","address":"東京都葛飾区柴又7丁目3-7","lat":35.75760856,"lon":139.87611796},{"name":"帝釈天参道第二","province":"東京都","city":"葛飾区","address":"東京都葛飾区柴又7丁目1-10","lat":35.75691699,"lon":139.8764124},{"name":"東金町二丁目","province":"東京都","city":"葛飾区","address":"東京都葛飾区東金町2丁目3-13","lat":35.77092341,"lon":139.8670182},{"name":"葛飾盲学校東","province":"東京都","city":"葛飾区","address":"東京都葛飾区堀切7丁目27-5","lat":35.75620851,"lon":139.82978835},{"name":"ふれあい動物広場前","province":"東京都","city":"葛飾区","address":"東京都葛飾区西亀有1丁目27","lat":35.75759463,"lon":139.84162336},{"name":"曳舟川親水公園","province":"東京都","city":"葛飾区","address":"東京都葛飾区お花茶屋3丁目7-13","lat":35.75480612,"lon":139.84318167},{"name":"亀有駅前第一","province":"東京都","city":"葛飾区","address":"東京都葛飾区亀有3丁目26-1","lat":35.76658519,"lon":139.84842798},{"name":"お花茶屋公園東","province":"東京都","city":"葛飾区","address":"東京都葛飾区お花茶屋1丁目21-14","lat":35.74905131,"lon":139.84131828},{"name":"亀有二丁目西第二","province":"東京都","city":"葛飾区","address":"東京都葛飾区亀有2丁目62-5","lat":35.76283016,"lon":139.84977244},{"name":"金町駅南口交番南","province":"東京都","city":"葛飾区","address":"東京都葛飾区金町6丁目4-2","lat":35.76912359,"lon":139.87244845},{"name":"本田小学校前","province":"東京都","city":"葛飾区","address":"東京都葛飾区立石1丁目8-20","lat":35.73662209,"lon":139.84545455},{"name":"京成立石駅前","province":"東京都","city":"葛飾区","address":"東京都葛飾区立石1丁目21-1","lat":35.7374081,"lon":139.84960686},{"name":"上平井消防出張所前","province":"東京都","city":"葛飾区","address":"東京都葛飾区東新小岩7丁目1-1","lat":35.72344011,"lon":139.85292685},{"name":"新小岩駅前","province":"東京都","city":"葛飾区","address":"東京都葛飾区新小岩1丁目46-9","lat":35.71696561,"lon":139.85901013},{"name":"堀切五丁目","province":"東京都","city":"葛飾区","address":"東京都葛飾区堀切5丁目5-3","lat":35.74897622,"lon":139.8277002},{"name":"巽橋","province":"東京都","city":"葛飾区","address":"東京都葛飾区西新小岩4丁目42-16","lat":35.71929321,"lon":139.85652403},{"name":"シンフォニーヒルズ前","province":"東京都","city":"葛飾区","address":"東京都葛飾区立石6丁目33-1","lat":35.74245764,"lon":139.85221197},{"name":"立石一丁目","province":"東京都","city":"葛飾区","address":"東京都葛飾区立石1丁目11-7","lat":35.73688031,"lon":139.84686545},{"name":"立石駅前第二","province":"東京都","city":"葛飾区","address":"東京都葛飾区東立石4丁目46-6","lat":35.73720813,"lon":139.85044291},{"name":"青砥駅北口","province":"東京都","city":"葛飾区","address":"東京都葛飾区青戸3丁目31-8","lat":35.74579342,"lon":139.85460883},{"name":"堀切菖蒲園駅前","province":"東京都","city":"葛飾区","address":"東京都葛飾区堀切4丁目9-10","lat":35.74698488,"lon":139.82665328},{"name":"葛飾区役所前","province":"東京都","city":"葛飾区","address":"東京都葛飾区立石5丁目12-6","lat":35.74226037,"lon":139.84756795},{"name":"東新小岩三丁目","province":"東京都","city":"葛飾区","address":"東京都葛飾区東新小岩3丁目4-21","lat":35.721057,"lon":139.8588626},{"name":"葛飾税務署前","province":"東京都","city":"葛飾区","address":"東京都葛飾区立石7丁目11-11","lat":35.7423354,"lon":139.8499844},{"name":"新小岩一丁目","province":"東京都","city":"葛飾区","address":"東京都葛飾区新小岩1丁目50-8","lat":35.71575743,"lon":139.86033786},{"name":"西新小岩四丁目","province":"東京都","city":"葛飾区","address":"東京都葛飾区東新小岩5丁目12-1","lat":35.7211903,"lon":139.85524623},{"name":"渋江公園前","province":"東京都","city":"葛飾区","address":"東京都葛飾区立石1丁目6","lat":35.73668888,"lon":139.84359091},{"name":"堀切駅ガード下","province":"東京都","city":"葛飾区","address":"東京都葛飾区堀切4丁目52-5","lat":35.74787639,"lon":139.82665597},{"name":"小松中学校前","province":"東京都","city":"葛飾区","address":"東京都葛飾区新小岩4丁目30-1","lat":35.72039624,"lon":139.86414821},{"name":"立石七丁目","province":"東京都","city":"葛飾区","address":"東京都葛飾区立石7丁目4-9","lat":35.74061056,"lon":139.84961505},{"name":"新小岩駅前第二","province":"東京都","city":"葛飾区","address":"東京都葛飾区新小岩1丁目47-1","lat":35.71660451,"lon":139.85866297},{"name":"新小岩駅前第三","province":"東京都","city":"葛飾区","address":"東京都葛飾区新小岩1丁目45-1","lat":35.71660173,"lon":139.85776858},{"name":"新小岩駅北口","province":"東京都","city":"葛飾区","address":"東京都葛飾区西新小岩1丁目9-8","lat":35.7180933,"lon":139.85785457},{"name":"新小岩ＪＲ官舎前","province":"東京都","city":"葛飾区","address":"東京都葛飾区新小岩2丁目2-26","lat":35.71761568,"lon":139.86079321},{"name":"立石駅前第三","province":"東京都","city":"葛飾区","address":"東京都葛飾区東立石3丁目37-6","lat":35.73672201,"lon":139.84771539},{"name":"生活会館前","province":"東京都","city":"葛飾区","address":"東京都葛飾区立石6丁目33-1","lat":35.74245764,"lon":139.85221197},{"name":"西町停留所前","province":"東京都","city":"葛飾区","address":"東京都葛飾区立石7丁目2-9","lat":35.73936902,"lon":139.84973733},{"name":"松上小学校前","province":"東京都","city":"葛飾区","address":"東京都葛飾区西新小岩4丁目33-10","lat":35.71879599,"lon":139.85336877},{"name":"葛飾勤労福祉会館前","province":"東京都","city":"葛飾区","address":"東京都葛飾区立石3丁目13-4","lat":35.73948022,"lon":139.843588},{"name":"立石駅南","province":"東京都","city":"葛飾区","address":"東京都葛飾区東立石4丁目54-6","lat":35.73688313,"lon":139.8487014},{"name":"大道橋","province":"東京都","city":"葛飾区","address":"東京都葛飾区東立石3丁目24-11","lat":35.73650815,"lon":139.84636277},{"name":"新小岩東北広場入口","province":"東京都","city":"葛飾区","address":"東京都葛飾区東新小岩1丁目14-11","lat":35.72107373,"lon":139.86015413},{"name":"金町浄水場","province":"東京都","city":"葛飾区","address":"東京都葛飾区金町浄水場1-1","lat":35.76233004,"lon":139.87836494},{"name":"水元給水所（都立水元公園内自由広場）","province":"東京都","city":"葛飾区","address":"東京都葛飾区水元公園4","lat":35.79240643,"lon":139.86812312},{"name":"区立上千葉公園","province":"東京都","city":"葛飾区","address":"東京都葛飾区東堀切3丁目25-1","lat":35.75497273,"lon":139.83903761},{"name":"区立新小岩公園","province":"東京都","city":"葛飾区","address":"東京都葛飾区西新小岩1丁目1-3","lat":35.71611839,"lon":139.85476607},{"name":"区立渋江東公園","province":"東京都","city":"葛飾区","address":"東京都葛飾区東四つ木2丁目15","lat":35.73076194,"lon":139.8434969},{"name":"(株）伊藤葬祭","province":"東京都","city":"葛飾区","address":"東京都葛飾区新小岩1丁目48-8","lat":35.71652119,"lon":139.85929903},{"name":"(有）上平井葬儀社","province":"東京都","city":"葛飾区","address":"東京都葛飾区西新小岩3丁目39-8","lat":35.72376226,"lon":139.8467885},{"name":"（有）網代屋葬儀社奥戸支店","province":"東京都","city":"葛飾区","address":"東京都葛飾区奥戸3丁目28-11","lat":35.73451157,"lon":139.86399463},{"name":"（有）橋本葬儀社","province":"東京都","city":"葛飾区","address":"東京都葛飾区東立石4丁目46-6","lat":35.73720813,"lon":139.85044291},{"name":"（株）葵式典（島田会館）","province":"東京都","city":"葛飾区","address":"東京都葛飾区四つ木1丁目33-5","lat":35.7345953,"lon":139.8360199},{"name":"東間葬儀社","province":"東京都","city":"葛飾区","address":"東京都葛飾区四つ木2丁目3-9","lat":35.73532582,"lon":139.83486168},{"name":"（株）八木井","province":"東京都","city":"葛飾区","address":"東京都葛飾区堀切2丁目34-2","lat":35.74504354,"lon":139.82592301},{"name":"（有）登坂商店","province":"東京都","city":"葛飾区","address":"東京都葛飾区堀切2丁目35-3","lat":35.74575453,"lon":139.82591738},{"name":"稲垣屋葬儀店","province":"東京都","city":"葛飾区","address":"東京都葛飾区堀切6丁目33-4","lat":35.75318384,"lon":139.82765534},{"name":"（有）秋元商店","province":"東京都","city":"葛飾区","address":"東京都葛飾区東堀切2丁目13-8","lat":35.75377009,"lon":139.83614627},{"name":"（有）セレモニーマルヤマ","province":"東京都","city":"葛飾区","address":"東京都葛飾区青戸3丁目33-18","lat":35.74656001,"lon":139.8554865},{"name":"（有）網代屋葬儀社青戸支店","province":"東京都","city":"葛飾区","address":"東京都葛飾区青戸4丁目22-22","lat":35.74858752,"lon":139.8526561},{"name":"（有）島田富義葬祭式典","province":"東京都","city":"葛飾区","address":"東京都葛飾区亀有3丁目14-10","lat":35.7630218,"lon":139.84898083},{"name":"（有）網代屋葬儀社本店","province":"東京都","city":"葛飾区","address":"東京都葛飾区高砂5丁目35-11","lat":35.7517789,"lon":139.86808531},{"name":"（株）島村葬儀社","province":"東京都","city":"葛飾区","address":"東京都葛飾区金町6丁目1-14","lat":35.76745719,"lon":139.87160132},{"name":"（株）東京供養舎（かなまち会館）","province":"東京都","city":"葛飾区","address":"東京都葛飾区東金町4丁目37-1","lat":35.77491998,"lon":139.87306216},{"name":"立石みんな子ども食堂","province":"東京都","city":"葛飾区","address":"東京都葛飾区立石1丁目21-12","lat":35.73770808,"lon":139.85014569},{"name":"たていしこども食堂実行委員会","province":"東京都","city":"葛飾区","address":"東京都葛飾区立石1丁目21-12","lat":35.73770808,"lon":139.85014569},{"name":"えまいまキッチン","province":"東京都","city":"葛飾区","address":"東京都葛飾区亀有3丁目32-3","lat":35.76494653,"lon":139.84890299},{"name":"青空っ子こども食堂","province":"東京都","city":"葛飾区","address":"東京都葛飾区お花茶屋3丁目5-6","lat":35.75648368,"lon":139.84306772},{"name":"こども食堂　トコ","province":"東京都","city":"葛飾区","address":"東京都葛飾区東水元2-35-16","lat":35.7807536,"lon":139.868906},{"name":"ほっこり食堂","province":"東京都","city":"葛飾区","address":"東京都葛飾区立石8丁目51-7","lat":35.73898869,"lon":139.85940314},{"name":"マミー子ども食堂","province":"東京都","city":"葛飾区","address":"東京都葛飾区東金町4丁目7-7","lat":35.77312574,"lon":139.87489821},{"name":"大道中学校前","province":"東京都","city":"葛飾区","address":"東京都葛飾区立石5丁目3-8","lat":35.74409914,"lon":139.84374051},{"name":"小菅三丁目","province":"東京都","city":"葛飾区","address":"東京都葛飾区小菅4丁目22-20","lat":35.75687226,"lon":139.82796347},{"name":"小菅二丁目","province":"東京都","city":"葛飾区","address":"東京都葛飾区小菅3丁目14-17","lat":35.75388095,"lon":139.82711924},{"name":"金町三丁目","province":"東京都","city":"葛飾区","address":"東京都葛飾区金町6丁目1-18","lat":35.7671739,"lon":139.87115135},{"name":"亀有四丁目","province":"東京都","city":"葛飾区","address":"東京都葛飾区西亀有3丁目43-10","lat":35.76287171,"lon":139.84142314},{"name":"金町駅北口第二","province":"東京都","city":"葛飾区","address":"東京都葛飾区東金町1丁目45-2","lat":35.76986517,"lon":139.87100686},{"name":"帝釈天参道","province":"東京都","city":"葛飾区","address":"東京都葛飾区柴又7丁目3-7","lat":35.75760856,"lon":139.87611796},{"name":"帝釈天参道第二","province":"東京都","city":"葛飾区","address":"東京都葛飾区柴又7丁目1-10","lat":35.75691699,"lon":139.8764124},{"name":"東金町二丁目","province":"東京都","city":"葛飾区","address":"東京都葛飾区東金町2丁目3-13","lat":35.77092341,"lon":139.8670182},{"name":"葛飾盲学校東","province":"東京都","city":"葛飾区","address":"東京都葛飾区堀切7丁目27-5","lat":35.75620851,"lon":139.82978835},{"name":"ふれあい動物広場前","province":"東京都","city":"葛飾区","address":"東京都葛飾区西亀有1丁目27","lat":35.75759463,"lon":139.84162336},{"name":"曳舟川親水公園","province":"東京都","city":"葛飾区","address":"東京都葛飾区お花茶屋3丁目7-13","lat":35.75480612,"lon":139.84318167},{"name":"亀有駅前第一","province":"東京都","city":"葛飾区","address":"東京都葛飾区亀有3丁目26-1","lat":35.76658519,"lon":139.84842798},{"name":"お花茶屋公園東","province":"東京都","city":"葛飾区","address":"東京都葛飾区お花茶屋1丁目21-14","lat":35.74905131,"lon":139.84131828},{"name":"亀有二丁目西第二","province":"東京都","city":"葛飾区","address":"東京都葛飾区亀有2丁目62-5","lat":35.76283016,"lon":139.84977244},{"name":"金町駅南口交番南","province":"東京都","city":"葛飾区","address":"東京都葛飾区金町6丁目4-2","lat":35.76912359,"lon":139.87244845},{"name":"本田小学校前","province":"東京都","city":"葛飾区","address":"東京都葛飾区立石1丁目8-20","lat":35.73662209,"lon":139.84545455},{"name":"京成立石駅前","province":"東京都","city":"葛飾区","address":"東京都葛飾区立石1丁目21-1","lat":35.7374081,"lon":139.84960686},{"name":"上平井消防出張所前","province":"東京都","city":"葛飾区","address":"東京都葛飾区東新小岩7丁目1-1","lat":35.72344011,"lon":139.85292685},{"name":"新小岩駅前","province":"東京都","city":"葛飾区","address":"東京都葛飾区新小岩1丁目46-9","lat":35.71696561,"lon":139.85901013},{"name":"堀切五丁目","province":"東京都","city":"葛飾区","address":"東京都葛飾区堀切5丁目5-3","lat":35.74897622,"lon":139.8277002},{"name":"巽橋","province":"東京都","city":"葛飾区","address":"東京都葛飾区西新小岩4丁目42-16","lat":35.71929321,"lon":139.85652403},{"name":"シンフォニーヒルズ前","province":"東京都","city":"葛飾区","address":"東京都葛飾区立石6丁目33-1","lat":35.74245764,"lon":139.85221197},{"name":"立石一丁目","province":"東京都","city":"葛飾区","address":"東京都葛飾区立石1丁目11-7","lat":35.73688031,"lon":139.84686545},{"name":"立石駅前第二","province":"東京都","city":"葛飾区","address":"東京都葛飾区東立石4丁目46-6","lat":35.73720813,"lon":139.85044291},{"name":"青砥駅北口","province":"東京都","city":"葛飾区","address":"東京都葛飾区青戸3丁目31-8","lat":35.74579342,"lon":139.85460883},{"name":"堀切菖蒲園駅前","province":"東京都","city":"葛飾区","address":"東京都葛飾区堀切4丁目9-10","lat":35.74698488,"lon":139.82665328},{"name":"葛飾区役所前","province":"東京都","city":"葛飾区","address":"東京都葛飾区立石5丁目12-6","lat":35.74226037,"lon":139.84756795},{"name":"東新小岩三丁目","province":"東京都","city":"葛飾区","address":"東京都葛飾区東新小岩3丁目4-21","lat":35.721057,"lon":139.8588626},{"name":"葛飾税務署前","province":"東京都","city":"葛飾区","address":"東京都葛飾区立石7丁目11-11","lat":35.7423354,"lon":139.8499844},{"name":"新小岩一丁目","province":"東京都","city":"葛飾区","address":"東京都葛飾区新小岩1丁目50-8","lat":35.71575743,"lon":139.86033786},{"name":"西新小岩四丁目","province":"東京都","city":"葛飾区","address":"東京都葛飾区東新小岩5丁目12-1","lat":35.7211903,"lon":139.85524623},{"name":"渋江公園前","province":"東京都","city":"葛飾区","address":"東京都葛飾区立石1丁目6","lat":35.73668888,"lon":139.84359091},{"name":"堀切駅ガード下","province":"東京都","city":"葛飾区","address":"東京都葛飾区堀切4丁目52-5","lat":35.74787639,"lon":139.82665597},{"name":"小松中学校前","province":"東京都","city":"葛飾区","address":"東京都葛飾区新小岩4丁目30-1","lat":35.72039624,"lon":139.86414821},{"name":"立石七丁目","province":"東京都","city":"葛飾区","address":"東京都葛飾区立石7丁目4-9","lat":35.74061056,"lon":139.84961505},{"name":"新小岩駅前第二","province":"東京都","city":"葛飾区","address":"東京都葛飾区新小岩1丁目47-1","lat":35.71660451,"lon":139.85866297},{"name":"新小岩駅前第三","province":"東京都","city":"葛飾区","address":"東京都葛飾区新小岩1丁目45-1","lat":35.71660173,"lon":139.85776858},{"name":"新小岩駅北口","province":"東京都","city":"葛飾区","address":"東京都葛飾区西新小岩1丁目9-8","lat":35.7180933,"lon":139.85785457},{"name":"新小岩ＪＲ官舎前","province":"東京都","city":"葛飾区","address":"東京都葛飾区新小岩2丁目2-26","lat":35.71761568,"lon":139.86079321},{"name":"立石駅前第三","province":"東京都","city":"葛飾区","address":"東京都葛飾区東立石3丁目37-6","lat":35.73672201,"lon":139.84771539},{"name":"生活会館前","province":"東京都","city":"葛飾区","address":"東京都葛飾区立石6丁目33-1","lat":35.74245764,"lon":139.85221197},{"name":"西町停留所前","province":"東京都","city":"葛飾区","address":"東京都葛飾区立石7丁目2-9","lat":35.73936902,"lon":139.84973733},{"name":"松上小学校前","province":"東京都","city":"葛飾区","address":"東京都葛飾区西新小岩4丁目33-10","lat":35.71879599,"lon":139.85336877},{"name":"葛飾勤労福祉会館前","province":"東京都","city":"葛飾区","address":"東京都葛飾区立石3丁目13-4","lat":35.73948022,"lon":139.843588},{"name":"立石駅南","province":"東京都","city":"葛飾区","address":"東京都葛飾区東立石4丁目54-6","lat":35.73688313,"lon":139.8487014},{"name":"大道橋","province":"東京都","city":"葛飾区","address":"東京都葛飾区東立石3丁目24-11","lat":35.73650815,"lon":139.84636277},{"name":"新小岩東北広場入口","province":"東京都","city":"葛飾区","address":"東京都葛飾区東新小岩1丁目14-11","lat":35.72107373,"lon":139.86015413},{"name":"金町浄水場","province":"東京都","city":"葛飾区","address":"東京都葛飾区金町浄水場1-1","lat":35.76233004,"lon":139.87836494},{"name":"水元給水所（都立水元公園内自由広場）","province":"東京都","city":"葛飾区","address":"東京都葛飾区水元公園4","lat":35.79240643,"lon":139.86812312},{"name":"区立上千葉公園","province":"東京都","city":"葛飾区","address":"東京都葛飾区東堀切3丁目25-1","lat":35.75497273,"lon":139.83903761},{"name":"区立新小岩公園","province":"東京都","city":"葛飾区","address":"東京都葛飾区西新小岩1丁目1-3","lat":35.71611839,"lon":139.85476607},{"name":"区立渋江東公園","province":"東京都","city":"葛飾区","address":"東京都葛飾区東四つ木2丁目15","lat":35.73076194,"lon":139.8434969},{"name":"(株）伊藤葬祭","province":"東京都","city":"葛飾区","address":"東京都葛飾区新小岩1丁目48-8","lat":35.71652119,"lon":139.85929903},{"name":"(有）上平井葬儀社","province":"東京都","city":"葛飾区","address":"東京都葛飾区西新小岩3丁目39-8","lat":35.72376226,"lon":139.8467885},{"name":"（有）網代屋葬儀社奥戸支店","province":"東京都","city":"葛飾区","address":"東京都葛飾区奥戸3丁目28-11","lat":35.73451157,"lon":139.86399463},{"name":"（有）橋本葬儀社","province":"東京都","city":"葛飾区","address":"東京都葛飾区東立石4丁目46-6","lat":35.73720813,"lon":139.85044291},{"name":"（株）葵式典（島田会館）","province":"東京都","city":"葛飾区","address":"東京都葛飾区四つ木1丁目33-5","lat":35.7345953,"lon":139.8360199},{"name":"東間葬儀社","province":"東京都","city":"葛飾区","address":"東京都葛飾区四つ木2丁目3-9","lat":35.73532582,"lon":139.83486168},{"name":"（株）八木井","province":"東京都","city":"葛飾区","address":"東京都葛飾区堀切2丁目34-2","lat":35.74504354,"lon":139.82592301},{"name":"（有）登坂商店","province":"東京都","city":"葛飾区","address":"東京都葛飾区堀切2丁目35-3","lat":35.74575453,"lon":139.82591738},{"name":"稲垣屋葬儀店","province":"東京都","city":"葛飾区","address":"東京都葛飾区堀切6丁目33-4","lat":35.75318384,"lon":139.82765534},{"name":"（有）秋元商店","province":"東京都","city":"葛飾区","address":"東京都葛飾区東堀切2丁目13-8","lat":35.75377009,"lon":139.83614627},{"name":"（有）セレモニーマルヤマ","province":"東京都","city":"葛飾区","address":"東京都葛飾区青戸3丁目33-18","lat":35.74656001,"lon":139.8554865},{"name":"（有）網代屋葬儀社青戸支店","province":"東京都","city":"葛飾区","address":"東京都葛飾区青戸4丁目22-22","lat":35.74858752,"lon":139.8526561},{"name":"（有）島田富義葬祭式典","province":"東京都","city":"葛飾区","address":"東京都葛飾区亀有3丁目14-10","lat":35.7630218,"lon":139.84898083},{"name":"（有）網代屋葬儀社本店","province":"東京都","city":"葛飾区","address":"東京都葛飾区高砂5丁目35-11","lat":35.7517789,"lon":139.86808531},{"name":"（株）島村葬儀社","province":"東京都","city":"葛飾区","address":"東京都葛飾区金町6丁目1-14","lat":35.76745719,"lon":139.87160132},{"name":"（株）東京供養舎（かなまち会館）","province":"東京都","city":"葛飾区","address":"東京都葛飾区東金町4丁目37-1","lat":35.77491998,"lon":139.87306216},{"name":"立石みんな子ども食堂","province":"東京都","city":"葛飾区","address":"東京都葛飾区立石1丁目21-12","lat":35.73770808,"lon":139.85014569},{"name":"たていしこども食堂実行委員会","province":"東京都","city":"葛飾区","address":"東京都葛飾区立石1丁目21-12","lat":35.73770808,"lon":139.85014569},{"name":"えまいまキッチン","province":"東京都","city":"葛飾区","address":"東京都葛飾区亀有3丁目32-3","lat":35.76494653,"lon":139.84890299},{"name":"青空っ子こども食堂","province":"東京都","city":"葛飾区","address":"東京都葛飾区お花茶屋3丁目5-6","lat":35.75648368,"lon":139.84306772},{"name":"こども食堂　トコ","province":"東京都","city":"葛飾区","address":"東京都葛飾区東水元2-35-16","lat":35.7807536,"lon":139.868906},{"name":"ほっこり食堂","province":"東京都","city":"葛飾区","address":"東京都葛飾区立石8丁目51-7","lat":35.73898869,"lon":139.85940314},{"name":"マミー子ども食堂","province":"東京都","city":"葛飾区","address":"東京都葛飾区東金町4丁目7-7","lat":35.77312574,"lon":139.87489821},{"name":"大道中学校前","province":"東京都","city":"葛飾区","address":"東京都葛飾区立石5丁目3-8","lat":35.74409914,"lon":139.84374051},{"name":"小菅三丁目","province":"東京都","city":"葛飾区","address":"東京都葛飾区小菅4丁目22-20","lat":35.75687226,"lon":139.82796347},{"name":"小菅二丁目","province":"東京都","city":"葛飾区","address":"東京都葛飾区小菅3丁目14-17","lat":35.75388095,"lon":139.82711924},{"name":"金町三丁目","province":"東京都","city":"葛飾区","address":"東京都葛飾区金町6丁目1-18","lat":35.7671739,"lon":139.87115135},{"name":"亀有四丁目","province":"東京都","city":"葛飾区","address":"東京都葛飾区西亀有3丁目43-10","lat":35.76287171,"lon":139.84142314},{"name":"金町駅北口第二","province":"東京都","city":"葛飾区","address":"東京都葛飾区東金町1丁目45-2","lat":35.76986517,"lon":139.87100686},{"name":"帝釈天参道","province":"東京都","city":"葛飾区","address":"東京都葛飾区柴又7丁目3-7","lat":35.75760856,"lon":139.87611796},{"name":"帝釈天参道第二","province":"東京都","city":"葛飾区","address":"東京都葛飾区柴又7丁目1-10","lat":35.75691699,"lon":139.8764124},{"name":"東金町二丁目","province":"東京都","city":"葛飾区","address":"東京都葛飾区東金町2丁目3-13","lat":35.77092341,"lon":139.8670182},{"name":"葛飾盲学校東","province":"東京都","city":"葛飾区","address":"東京都葛飾区堀切7丁目27-5","lat":35.75620851,"lon":139.82978835},{"name":"ふれあい動物広場前","province":"東京都","city":"葛飾区","address":"東京都葛飾区西亀有1丁目27","lat":35.75759463,"lon":139.84162336},{"name":"曳舟川親水公園","province":"東京都","city":"葛飾区","address":"東京都葛飾区お花茶屋3丁目7-13","lat":35.75480612,"lon":139.84318167},{"name":"亀有駅前第一","province":"東京都","city":"葛飾区","address":"東京都葛飾区亀有3丁目26-1","lat":35.76658519,"lon":139.84842798},{"name":"お花茶屋公園東","province":"東京都","city":"葛飾区","address":"東京都葛飾区お花茶屋1丁目21-14","lat":35.74905131,"lon":139.84131828},{"name":"亀有二丁目西第二","province":"東京都","city":"葛飾区","address":"東京都葛飾区亀有2丁目62-5","lat":35.76283016,"lon":139.84977244},{"name":"金町駅南口交番南","province":"東京都","city":"葛飾区","address":"東京都葛飾区金町6丁目4-2","lat":35.76912359,"lon":139.87244845},{"name":"本田小学校前","province":"東京都","city":"葛飾区","address":"東京都葛飾区立石1丁目8-20","lat":35.73662209,"lon":139.84545455},{"name":"京成立石駅前","province":"東京都","city":"葛飾区","address":"東京都葛飾区立石1丁目21-1","lat":35.7374081,"lon":139.84960686},{"name":"上平井消防出張所前","province":"東京都","city":"葛飾区","address":"東京都葛飾区東新小岩7丁目1-1","lat":35.72344011,"lon":139.85292685},{"name":"新小岩駅前","province":"東京都","city":"葛飾区","address":"東京都葛飾区新小岩1丁目46-9","lat":35.71696561,"lon":139.85901013},{"name":"堀切五丁目","province":"東京都","city":"葛飾区","address":"東京都葛飾区堀切5丁目5-3","lat":35.74897622,"lon":139.8277002},{"name":"巽橋","province":"東京都","city":"葛飾区","address":"東京都葛飾区西新小岩4丁目42-16","lat":35.71929321,"lon":139.85652403},{"name":"シンフォニーヒルズ前","province":"東京都","city":"葛飾区","address":"東京都葛飾区立石6丁目33-1","lat":35.74245764,"lon":139.85221197},{"name":"立石一丁目","province":"東京都","city":"葛飾区","address":"東京都葛飾区立石1丁目11-7","lat":35.73688031,"lon":139.84686545},{"name":"立石駅前第二","province":"東京都","city":"葛飾区","address":"東京都葛飾区東立石4丁目46-6","lat":35.73720813,"lon":139.85044291},{"name":"青砥駅北口","province":"東京都","city":"葛飾区","address":"東京都葛飾区青戸3丁目31-8","lat":35.74579342,"lon":139.85460883},{"name":"堀切菖蒲園駅前","province":"東京都","city":"葛飾区","address":"東京都葛飾区堀切4丁目9-10","lat":35.74698488,"lon":139.82665328},{"name":"葛飾区役所前","province":"東京都","city":"葛飾区","address":"東京都葛飾区立石5丁目12-6","lat":35.74226037,"lon":139.84756795},{"name":"東新小岩三丁目","province":"東京都","city":"葛飾区","address":"東京都葛飾区東新小岩3丁目4-21","lat":35.721057,"lon":139.8588626},{"name":"葛飾税務署前","province":"東京都","city":"葛飾区","address":"東京都葛飾区立石7丁目11-11","lat":35.7423354,"lon":139.8499844},{"name":"新小岩一丁目","province":"東京都","city":"葛飾区","address":"東京都葛飾区新小岩1丁目50-8","lat":35.71575743,"lon":139.86033786},{"name":"西新小岩四丁目","province":"東京都","city":"葛飾区","address":"東京都葛飾区東新小岩5丁目12-1","lat":35.7211903,"lon":139.85524623},{"name":"渋江公園前","province":"東京都","city":"葛飾区","address":"東京都葛飾区立石1丁目6","lat":35.73668888,"lon":139.84359091},{"name":"堀切駅ガード下","province":"東京都","city":"葛飾区","address":"東京都葛飾区堀切4丁目52-5","lat":35.74787639,"lon":139.82665597},{"name":"小松中学校前","province":"東京都","city":"葛飾区","address":"東京都葛飾区新小岩4丁目30-1","lat":35.72039624,"lon":139.86414821},{"name":"立石七丁目","province":"東京都","city":"葛飾区","address":"東京都葛飾区立石7丁目4-9","lat":35.74061056,"lon":139.84961505},{"name":"新小岩駅前第二","province":"東京都","city":"葛飾区","address":"東京都葛飾区新小岩1丁目47-1","lat":35.71660451,"lon":139.85866297},{"name":"新小岩駅前第三","province":"東京都","city":"葛飾区","address":"東京都葛飾区新小岩1丁目45-1","lat":35.71660173,"lon":139.85776858},{"name":"新小岩駅北口","province":"東京都","city":"葛飾区","address":"東京都葛飾区西新小岩1丁目9-8","lat":35.7180933,"lon":139.85785457},{"name":"新小岩ＪＲ官舎前","province":"東京都","city":"葛飾区","address":"東京都葛飾区新小岩2丁目2-26","lat":35.71761568,"lon":139.86079321},{"name":"立石駅前第三","province":"東京都","city":"葛飾区","address":"東京都葛飾区東立石3丁目37-6","lat":35.73672201,"lon":139.84771539},{"name":"生活会館前","province":"東京都","city":"葛飾区","address":"東京都葛飾区立石6丁目33-1","lat":35.74245764,"lon":139.85221197},{"name":"西町停留所前","province":"東京都","city":"葛飾区","address":"東京都葛飾区立石7丁目2-9","lat":35.73936902,"lon":139.84973733},{"name":"松上小学校前","province":"東京都","city":"葛飾区","address":"東京都葛飾区西新小岩4丁目33-10","lat":35.71879599,"lon":139.85336877},{"name":"葛飾勤労福祉会館前","province":"東京都","city":"葛飾区","address":"東京都葛飾区立石3丁目13-4","lat":35.73948022,"lon":139.843588},{"name":"立石駅南","province":"東京都","city":"葛飾区","address":"東京都葛飾区東立石4丁目54-6","lat":35.73688313,"lon":139.8487014},{"name":"大道橋","province":"東京都","city":"葛飾区","address":"東京都葛飾区東立石3丁目24-11","lat":35.73650815,"lon":139.84636277},{"name":"新小岩東北広場入口","province":"東京都","city":"葛飾区","address":"東京都葛飾区東新小岩1丁目14-11","lat":35.72107373,"lon":139.86015413},{"name":"金町浄水場","province":"東京都","city":"葛飾区","address":"東京都葛飾区金町浄水場1-1","lat":35.76233004,"lon":139.87836494},{"name":"水元給水所（都立水元公園内自由広場）","province":"東京都","city":"葛飾区","address":"東京都葛飾区水元公園4","lat":35.79240643,"lon":139.86812312},{"name":"区立上千葉公園","province":"東京都","city":"葛飾区","address":"東京都葛飾区東堀切3丁目25-1","lat":35.75497273,"lon":139.83903761},{"name":"区立新小岩公園","province":"東京都","city":"葛飾区","address":"東京都葛飾区西新小岩1丁目1-3","lat":35.71611839,"lon":139.85476607},{"name":"区立渋江東公園","province":"東京都","city":"葛飾区","address":"東京都葛飾区東四つ木2丁目15","lat":35.73076194,"lon":139.8434969},{"name":"(株）伊藤葬祭","province":"東京都","city":"葛飾区","address":"東京都葛飾区新小岩1丁目48-8","lat":35.71652119,"lon":139.85929903},{"name":"(有）上平井葬儀社","province":"東京都","city":"葛飾区","address":"東京都葛飾区西新小岩3丁目39-8","lat":35.72376226,"lon":139.8467885},{"name":"（有）網代屋葬儀社奥戸支店","province":"東京都","city":"葛飾区","address":"東京都葛飾区奥戸3丁目28-11","lat":35.73451157,"lon":139.86399463},{"name":"（有）橋本葬儀社","province":"東京都","city":"葛飾区","address":"東京都葛飾区東立石4丁目46-6","lat":35.73720813,"lon":139.85044291},{"name":"（株）葵式典（島田会館）","province":"東京都","city":"葛飾区","address":"東京都葛飾区四つ木1丁目33-5","lat":35.7345953,"lon":139.8360199},{"name":"東間葬儀社","province":"東京都","city":"葛飾区","address":"東京都葛飾区四つ木2丁目3-9","lat":35.73532582,"lon":139.83486168},{"name":"（株）八木井","province":"東京都","city":"葛飾区","address":"東京都葛飾区堀切2丁目34-2","lat":35.74504354,"lon":139.82592301},{"name":"（有）登坂商店","province":"東京都","city":"葛飾区","address":"東京都葛飾区堀切2丁目35-3","lat":35.74575453,"lon":139.82591738},{"name":"稲垣屋葬儀店","province":"東京都","city":"葛飾区","address":"東京都葛飾区堀切6丁目33-4","lat":35.75318384,"lon":139.82765534},{"name":"（有）秋元商店","province":"東京都","city":"葛飾区","address":"東京都葛飾区東堀切2丁目13-8","lat":35.75377009,"lon":139.83614627},{"name":"（有）セレモニーマルヤマ","province":"東京都","city":"葛飾区","address":"東京都葛飾区青戸3丁目33-18","lat":35.74656001,"lon":139.8554865},{"name":"（有）網代屋葬儀社青戸支店","province":"東京都","city":"葛飾区","address":"東京都葛飾区青戸4丁目22-22","lat":35.74858752,"lon":139.8526561},{"name":"（有）島田富義葬祭式典","province":"東京都","city":"葛飾区","address":"東京都葛飾区亀有3丁目14-10","lat":35.7630218,"lon":139.84898083},{"name":"（有）網代屋葬儀社本店","province":"東京都","city":"葛飾区","address":"東京都葛飾区高砂5丁目35-11","lat":35.7517789,"lon":139.86808531},{"name":"（株）島村葬儀社","province":"東京都","city":"葛飾区","address":"東京都葛飾区金町6丁目1-14","lat":35.76745719,"lon":139.87160132},{"name":"（株）東京供養舎（かなまち会館）","province":"東京都","city":"葛飾区","address":"東京都葛飾区東金町4丁目37-1","lat":35.77491998,"lon":139.87306216},{"name":"立石みんな子ども食堂","province":"東京都","city":"葛飾区","address":"東京都葛飾区立石1丁目21-12","lat":35.73770808,"lon":139.85014569},{"name":"たていしこども食堂実行委員会","province":"東京都","city":"葛飾区","address":"東京都葛飾区立石1丁目21-12","lat":35.73770808,"lon":139.85014569},{"name":"えまいまキッチン","province":"東京都","city":"葛飾区","address":"東京都葛飾区亀有3丁目32-3","lat":35.76494653,"lon":139.84890299},{"name":"青空っ子こども食堂","province":"東京都","city":"葛飾区","address":"東京都葛飾区お花茶屋3丁目5-6","lat":35.75648368,"lon":139.84306772},{"name":"こども食堂　トコ","province":"東京都","city":"葛飾区","address":"東京都葛飾区東水元2-35-16","lat":35.7807536,"lon":139.868906},{"name":"ほっこり食堂","province":"東京都","city":"葛飾区","address":"東京都葛飾区立石8丁目51-7","lat":35.73898869,"lon":139.85940314},{"name":"マミー子ども食堂","province":"東京都","city":"葛飾区","address":"東京都葛飾区東金町4丁目7-7","lat":35.77312574,"lon":139.87489821},{"name":"大道中学校前","province":"東京都","city":"葛飾区","address":"東京都葛飾区立石5丁目3-8","lat":35.74409914,"lon":139.84374051},{"name":"小菅三丁目","province":"東京都","city":"葛飾区","address":"東京都葛飾区小菅4丁目22-20","lat":35.75687226,"lon":139.82796347},{"name":"小菅二丁目","province":"東京都","city":"葛飾区","address":"東京都葛飾区小菅3丁目14-17","lat":35.75388095,"lon":139.82711924},{"name":"金町三丁目","province":"東京都","city":"葛飾区","address":"東京都葛飾区金町6丁目1-18","lat":35.7671739,"lon":139.87115135},{"name":"亀有四丁目","province":"東京都","city":"葛飾区","address":"東京都葛飾区西亀有3丁目43-10","lat":35.76287171,"lon":139.84142314},{"name":"金町駅北口第二","province":"東京都","city":"葛飾区","address":"東京都葛飾区東金町1丁目45-2","lat":35.76986517,"lon":139.87100686},{"name":"帝釈天参道","province":"東京都","city":"葛飾区","address":"東京都葛飾区柴又7丁目3-7","lat":35.75760856,"lon":139.87611796},{"name":"帝釈天参道第二","province":"東京都","city":"葛飾区","address":"東京都葛飾区柴又7丁目1-10","lat":35.75691699,"lon":139.8764124},{"name":"東金町二丁目","province":"東京都","city":"葛飾区","address":"東京都葛飾区東金町2丁目3-13","lat":35.77092341,"lon":139.8670182},{"name":"葛飾盲学校東","province":"東京都","city":"葛飾区","address":"東京都葛飾区堀切7丁目27-5","lat":35.75620851,"lon":139.82978835},{"name":"ふれあい動物広場前","province":"東京都","city":"葛飾区","address":"東京都葛飾区西亀有1丁目27","lat":35.75759463,"lon":139.84162336},{"name":"曳舟川親水公園","province":"東京都","city":"葛飾区","address":"東京都葛飾区お花茶屋3丁目7-13","lat":35.75480612,"lon":139.84318167},{"name":"亀有駅前第一","province":"東京都","city":"葛飾区","address":"東京都葛飾区亀有3丁目26-1","lat":35.76658519,"lon":139.84842798},{"name":"お花茶屋公園東","province":"東京都","city":"葛飾区","address":"東京都葛飾区お花茶屋1丁目21-14","lat":35.74905131,"lon":139.84131828},{"name":"亀有二丁目西第二","province":"東京都","city":"葛飾区","address":"東京都葛飾区亀有2丁目62-5","lat":35.76283016,"lon":139.84977244},{"name":"金町駅南口交番南","province":"東京都","city":"葛飾区","address":"東京都葛飾区金町6丁目4-2","lat":35.76912359,"lon":139.87244845},{"name":"本田小学校前","province":"東京都","city":"葛飾区","address":"東京都葛飾区立石1丁目8-20","lat":35.73662209,"lon":139.84545455},{"name":"京成立石駅前","province":"東京都","city":"葛飾区","address":"東京都葛飾区立石1丁目21-1","lat":35.7374081,"lon":139.84960686},{"name":"上平井消防出張所前","province":"東京都","city":"葛飾区","address":"東京都葛飾区東新小岩7丁目1-1","lat":35.72344011,"lon":139.85292685},{"name":"新小岩駅前","province":"東京都","city":"葛飾区","address":"東京都葛飾区新小岩1丁目46-9","lat":35.71696561,"lon":139.85901013},{"name":"堀切五丁目","province":"東京都","city":"葛飾区","address":"東京都葛飾区堀切5丁目5-3","lat":35.74897622,"lon":139.8277002},{"name":"巽橋","province":"東京都","city":"葛飾区","address":"東京都葛飾区西新小岩4丁目42-16","lat":35.71929321,"lon":139.85652403},{"name":"シンフォニーヒルズ前","province":"東京都","city":"葛飾区","address":"東京都葛飾区立石6丁目33-1","lat":35.74245764,"lon":139.85221197},{"name":"立石一丁目","province":"東京都","city":"葛飾区","address":"東京都葛飾区立石1丁目11-7","lat":35.73688031,"lon":139.84686545},{"name":"立石駅前第二","province":"東京都","city":"葛飾区","address":"東京都葛飾区東立石4丁目46-6","lat":35.73720813,"lon":139.85044291},{"name":"青砥駅北口","province":"東京都","city":"葛飾区","address":"東京都葛飾区青戸3丁目31-8","lat":35.74579342,"lon":139.85460883},{"name":"堀切菖蒲園駅前","province":"東京都","city":"葛飾区","address":"東京都葛飾区堀切4丁目9-10","lat":35.74698488,"lon":139.82665328},{"name":"葛飾区役所前","province":"東京都","city":"葛飾区","address":"東京都葛飾区立石5丁目12-6","lat":35.74226037,"lon":139.84756795},{"name":"東新小岩三丁目","province":"東京都","city":"葛飾区","address":"東京都葛飾区東新小岩3丁目4-21","lat":35.721057,"lon":139.8588626},{"name":"葛飾税務署前","province":"東京都","city":"葛飾区","address":"東京都葛飾区立石7丁目11-11","lat":35.7423354,"lon":139.8499844},{"name":"新小岩一丁目","province":"東京都","city":"葛飾区","address":"東京都葛飾区新小岩1丁目50-8","lat":35.71575743,"lon":139.86033786},{"name":"西新小岩四丁目","province":"東京都","city":"葛飾区","address":"東京都葛飾区東新小岩5丁目12-1","lat":35.7211903,"lon":139.85524623},{"name":"渋江公園前","province":"東京都","city":"葛飾区","address":"東京都葛飾区立石1丁目6","lat":35.73668888,"lon":139.84359091},{"name":"堀切駅ガード下","province":"東京都","city":"葛飾区","address":"東京都葛飾区堀切4丁目52-5","lat":35.74787639,"lon":139.82665597},{"name":"小松中学校前","province":"東京都","city":"葛飾区","address":"東京都葛飾区新小岩4丁目30-1","lat":35.72039624,"lon":139.86414821},{"name":"立石七丁目","province":"東京都","city":"葛飾区","address":"東京都葛飾区立石7丁目4-9","lat":35.74061056,"lon":139.84961505},{"name":"新小岩駅前第二","province":"東京都","city":"葛飾区","address":"東京都葛飾区新小岩1丁目47-1","lat":35.71660451,"lon":139.85866297},{"name":"新小岩駅前第三","province":"東京都","city":"葛飾区","address":"東京都葛飾区新小岩1丁目45-1","lat":35.71660173,"lon":139.85776858},{"name":"新小岩駅北口","province":"東京都","city":"葛飾区","address":"東京都葛飾区西新小岩1丁目9-8","lat":35.7180933,"lon":139.85785457},{"name":"新小岩ＪＲ官舎前","province":"東京都","city":"葛飾区","address":"東京都葛飾区新小岩2丁目2-26","lat":35.71761568,"lon":139.86079321},{"name":"立石駅前第三","province":"東京都","city":"葛飾区","address":"東京都葛飾区東立石3丁目37-6","lat":35.73672201,"lon":139.84771539},{"name":"生活会館前","province":"東京都","city":"葛飾区","address":"東京都葛飾区立石6丁目33-1","lat":35.74245764,"lon":139.85221197},{"name":"西町停留所前","province":"東京都","city":"葛飾区","address":"東京都葛飾区立石7丁目2-9","lat":35.73936902,"lon":139.84973733},{"name":"松上小学校前","province":"東京都","city":"葛飾区","address":"東京都葛飾区西新小岩4丁目33-10","lat":35.71879599,"lon":139.85336877},{"name":"葛飾勤労福祉会館前","province":"東京都","city":"葛飾区","address":"東京都葛飾区立石3丁目13-4","lat":35.73948022,"lon":139.843588},{"name":"立石駅南","province":"東京都","city":"葛飾区","address":"東京都葛飾区東立石4丁目54-6","lat":35.73688313,"lon":139.8487014},{"name":"大道橋","province":"東京都","city":"葛飾区","address":"東京都葛飾区東立石3丁目24-11","lat":35.73650815,"lon":139.84636277},{"name":"新小岩東北広場入口","province":"東京都","city":"葛飾区","address":"東京都葛飾区東新小岩1丁目14-11","lat":35.72107373,"lon":139.86015413},{"name":"金町浄水場","province":"東京都","city":"葛飾区","address":"東京都葛飾区金町浄水場1-1","lat":35.76233004,"lon":139.87836494},{"name":"水元給水所（都立水元公園内自由広場）","province":"東京都","city":"葛飾区","address":"東京都葛飾区水元公園4","lat":35.79240643,"lon":139.86812312},{"name":"区立上千葉公園","province":"東京都","city":"葛飾区","address":"東京都葛飾区東堀切3丁目25-1","lat":35.75497273,"lon":139.83903761},{"name":"区立新小岩公園","province":"東京都","city":"葛飾区","address":"東京都葛飾区西新小岩1丁目1-3","lat":35.71611839,"lon":139.85476607},{"name":"区立渋江東公園","province":"東京都","city":"葛飾区","address":"東京都葛飾区東四つ木2丁目15","lat":35.73076194,"lon":139.8434969},{"name":"(株）伊藤葬祭","province":"東京都","city":"葛飾区","address":"東京都葛飾区新小岩1丁目48-8","lat":35.71652119,"lon":139.85929903},{"name":"(有）上平井葬儀社","province":"東京都","city":"葛飾区","address":"東京都葛飾区西新小岩3丁目39-8","lat":35.72376226,"lon":139.8467885},{"name":"（有）網代屋葬儀社奥戸支店","province":"東京都","city":"葛飾区","address":"東京都葛飾区奥戸3丁目28-11","lat":35.73451157,"lon":139.86399463},{"name":"（有）橋本葬儀社","province":"東京都","city":"葛飾区","address":"東京都葛飾区東立石4丁目46-6","lat":35.73720813,"lon":139.85044291},{"name":"（株）葵式典（島田会館）","province":"東京都","city":"葛飾区","address":"東京都葛飾区四つ木1丁目33-5","lat":35.7345953,"lon":139.8360199},{"name":"東間葬儀社","province":"東京都","city":"葛飾区","address":"東京都葛飾区四つ木2丁目3-9","lat":35.73532582,"lon":139.83486168},{"name":"（株）八木井","province":"東京都","city":"葛飾区","address":"東京都葛飾区堀切2丁目34-2","lat":35.74504354,"lon":139.82592301},{"name":"（有）登坂商店","province":"東京都","city":"葛飾区","address":"東京都葛飾区堀切2丁目35-3","lat":35.74575453,"lon":139.82591738},{"name":"稲垣屋葬儀店","province":"東京都","city":"葛飾区","address":"東京都葛飾区堀切6丁目33-4","lat":35.75318384,"lon":139.82765534},{"name":"（有）秋元商店","province":"東京都","city":"葛飾区","address":"東京都葛飾区東堀切2丁目13-8","lat":35.75377009,"lon":139.83614627},{"name":"（有）セレモニーマルヤマ","province":"東京都","city":"葛飾区","address":"東京都葛飾区青戸3丁目33-18","lat":35.74656001,"lon":139.8554865},{"name":"（有）網代屋葬儀社青戸支店","province":"東京都","city":"葛飾区","address":"東京都葛飾区青戸4丁目22-22","lat":35.74858752,"lon":139.8526561},{"name":"（有）島田富義葬祭式典","province":"東京都","city":"葛飾区","address":"東京都葛飾区亀有3丁目14-10","lat":35.7630218,"lon":139.84898083},{"name":"（有）網代屋葬儀社本店","province":"東京都","city":"葛飾区","address":"東京都葛飾区高砂5丁目35-11","lat":35.7517789,"lon":139.86808531},{"name":"（株）島村葬儀社","province":"東京都","city":"葛飾区","address":"東京都葛飾区金町6丁目1-14","lat":35.76745719,"lon":139.87160132},{"name":"（株）東京供養舎（かなまち会館）","province":"東京都","city":"葛飾区","address":"東京都葛飾区東金町4丁目37-1","lat":35.77491998,"lon":139.87306216},{"name":"立石みんな子ども食堂","province":"東京都","city":"葛飾区","address":"東京都葛飾区立石1丁目21-12","lat":35.73770808,"lon":139.85014569},{"name":"たていしこども食堂実行委員会","province":"東京都","city":"葛飾区","address":"東京都葛飾区立石1丁目21-12","lat":35.73770808,"lon":139.85014569},{"name":"えまいまキッチン","province":"東京都","city":"葛飾区","address":"東京都葛飾区亀有3丁目32-3","lat":35.76494653,"lon":139.84890299},{"name":"青空っ子こども食堂","province":"東京都","city":"葛飾区","address":"東京都葛飾区お花茶屋3丁目5-6","lat":35.75648368,"lon":139.84306772},{"name":"こども食堂　トコ","province":"東京都","city":"葛飾区","address":"東京都葛飾区東水元2-35-16","lat":35.7807536,"lon":139.868906},{"name":"ほっこり食堂","province":"東京都","city":"葛飾区","address":"東京都葛飾区立石8丁目51-7","lat":35.73898869,"lon":139.85940314},{"name":"マミー子ども食堂","province":"東京都","city":"葛飾区","address":"東京都葛飾区東金町4丁目7-7","lat":35.77312574,"lon":139.87489821},{"name":"大道中学校前","province":"東京都","city":"葛飾区","address":"東京都葛飾区立石5丁目3-8","lat":35.74409914,"lon":139.84374051},{"name":"小菅三丁目","province":"東京都","city":"葛飾区","address":"東京都葛飾区小菅4丁目22-20","lat":35.75687226,"lon":139.82796347},{"name":"小菅二丁目","province":"東京都","city":"葛飾区","address":"東京都葛飾区小菅3丁目14-17","lat":35.75388095,"lon":139.82711924},{"name":"金町三丁目","province":"東京都","city":"葛飾区","address":"東京都葛飾区金町6丁目1-18","lat":35.7671739,"lon":139.87115135},{"name":"亀有四丁目","province":"東京都","city":"葛飾区","address":"東京都葛飾区西亀有3丁目43-10","lat":35.76287171,"lon":139.84142314},{"name":"金町駅北口第二","province":"東京都","city":"葛飾区","address":"東京都葛飾区東金町1丁目45-2","lat":35.76986517,"lon":139.87100686},{"name":"帝釈天参道","province":"東京都","city":"葛飾区","address":"東京都葛飾区柴又7丁目3-7","lat":35.75760856,"lon":139.87611796},{"name":"帝釈天参道第二","province":"東京都","city":"葛飾区","address":"東京都葛飾区柴又7丁目1-10","lat":35.75691699,"lon":139.8764124},{"name":"東金町二丁目","province":"東京都","city":"葛飾区","address":"東京都葛飾区東金町2丁目3-13","lat":35.77092341,"lon":139.8670182},{"name":"葛飾盲学校東","province":"東京都","city":"葛飾区","address":"東京都葛飾区堀切7丁目27-5","lat":35.75620851,"lon":139.82978835},{"name":"ふれあい動物広場前","province":"東京都","city":"葛飾区","address":"東京都葛飾区西亀有1丁目27","lat":35.75759463,"lon":139.84162336},{"name":"曳舟川親水公園","province":"東京都","city":"葛飾区","address":"東京都葛飾区お花茶屋3丁目7-13","lat":35.75480612,"lon":139.84318167},{"name":"亀有駅前第一","province":"東京都","city":"葛飾区","address":"東京都葛飾区亀有3丁目26-1","lat":35.76658519,"lon":139.84842798},{"name":"お花茶屋公園東","province":"東京都","city":"葛飾区","address":"東京都葛飾区お花茶屋1丁目21-14","lat":35.74905131,"lon":139.84131828},{"name":"亀有二丁目西第二","province":"東京都","city":"葛飾区","address":"東京都葛飾区亀有2丁目62-5","lat":35.76283016,"lon":139.84977244},{"name":"金町駅南口交番南","province":"東京都","city":"葛飾区","address":"東京都葛飾区金町6丁目4-2","lat":35.76912359,"lon":139.87244845},{"name":"本田小学校前","province":"東京都","city":"葛飾区","address":"東京都葛飾区立石1丁目8-20","lat":35.73662209,"lon":139.84545455},{"name":"京成立石駅前","province":"東京都","city":"葛飾区","address":"東京都葛飾区立石1丁目21-1","lat":35.7374081,"lon":139.84960686},{"name":"上平井消防出張所前","province":"東京都","city":"葛飾区","address":"東京都葛飾区東新小岩7丁目1-1","lat":35.72344011,"lon":139.85292685},{"name":"新小岩駅前","province":"東京都","city":"葛飾区","address":"東京都葛飾区新小岩1丁目46-9","lat":35.71696561,"lon":139.85901013},{"name":"堀切五丁目","province":"東京都","city":"葛飾区","address":"東京都葛飾区堀切5丁目5-3","lat":35.74897622,"lon":139.8277002},{"name":"巽橋","province":"東京都","city":"葛飾区","address":"東京都葛飾区西新小岩4丁目42-16","lat":35.71929321,"lon":139.85652403},{"name":"シンフォニーヒルズ前","province":"東京都","city":"葛飾区","address":"東京都葛飾区立石6丁目33-1","lat":35.74245764,"lon":139.85221197},{"name":"立石一丁目","province":"東京都","city":"葛飾区","address":"東京都葛飾区立石1丁目11-7","lat":35.73688031,"lon":139.84686545},{"name":"立石駅前第二","province":"東京都","city":"葛飾区","address":"東京都葛飾区東立石4丁目46-6","lat":35.73720813,"lon":139.85044291},{"name":"青砥駅北口","province":"東京都","city":"葛飾区","address":"東京都葛飾区青戸3丁目31-8","lat":35.74579342,"lon":139.85460883},{"name":"堀切菖蒲園駅前","province":"東京都","city":"葛飾区","address":"東京都葛飾区堀切4丁目9-10","lat":35.74698488,"lon":139.82665328},{"name":"葛飾区役所前","province":"東京都","city":"葛飾区","address":"東京都葛飾区立石5丁目12-6","lat":35.74226037,"lon":139.84756795},{"name":"東新小岩三丁目","province":"東京都","city":"葛飾区","address":"東京都葛飾区東新小岩3丁目4-21","lat":35.721057,"lon":139.8588626},{"name":"葛飾税務署前","province":"東京都","city":"葛飾区","address":"東京都葛飾区立石7丁目11-11","lat":35.7423354,"lon":139.8499844},{"name":"新小岩一丁目","province":"東京都","city":"葛飾区","address":"東京都葛飾区新小岩1丁目50-8","lat":35.71575743,"lon":139.86033786},{"name":"西新小岩四丁目","province":"東京都","city":"葛飾区","address":"東京都葛飾区東新小岩5丁目12-1","lat":35.7211903,"lon":139.85524623},{"name":"渋江公園前","province":"東京都","city":"葛飾区","address":"東京都葛飾区立石1丁目6","lat":35.73668888,"lon":139.84359091},{"name":"堀切駅ガード下","province":"東京都","city":"葛飾区","address":"東京都葛飾区堀切4丁目52-5","lat":35.74787639,"lon":139.82665597},{"name":"小松中学校前","province":"東京都","city":"葛飾区","address":"東京都葛飾区新小岩4丁目30-1","lat":35.72039624,"lon":139.86414821},{"name":"立石七丁目","province":"東京都","city":"葛飾区","address":"東京都葛飾区立石7丁目4-9","lat":35.74061056,"lon":139.84961505},{"name":"新小岩駅前第二","province":"東京都","city":"葛飾区","address":"東京都葛飾区新小岩1丁目47-1","lat":35.71660451,"lon":139.85866297},{"name":"新小岩駅前第三","province":"東京都","city":"葛飾区","address":"東京都葛飾区新小岩1丁目45-1","lat":35.71660173,"lon":139.85776858},{"name":"新小岩駅北口","province":"東京都","city":"葛飾区","address":"東京都葛飾区西新小岩1丁目9-8","lat":35.7180933,"lon":139.85785457},{"name":"新小岩ＪＲ官舎前","province":"東京都","city":"葛飾区","address":"東京都葛飾区新小岩2丁目2-26","lat":35.71761568,"lon":139.86079321},{"name":"立石駅前第三","province":"東京都","city":"葛飾区","address":"東京都葛飾区東立石3丁目37-6","lat":35.73672201,"lon":139.84771539},{"name":"生活会館前","province":"東京都","city":"葛飾区","address":"東京都葛飾区立石6丁目33-1","lat":35.74245764,"lon":139.85221197},{"name":"西町停留所前","province":"東京都","city":"葛飾区","address":"東京都葛飾区立石7丁目2-9","lat":35.73936902,"lon":139.84973733},{"name":"松上小学校前","province":"東京都","city":"葛飾区","address":"東京都葛飾区西新小岩4丁目33-10","lat":35.71879599,"lon":139.85336877},{"name":"葛飾勤労福祉会館前","province":"東京都","city":"葛飾区","address":"東京都葛飾区立石3丁目13-4","lat":35.73948022,"lon":139.843588},{"name":"立石駅南","province":"東京都","city":"葛飾区","address":"東京都葛飾区東立石4丁目54-6","lat":35.73688313,"lon":139.8487014},{"name":"大道橋","province":"東京都","city":"葛飾区","address":"東京都葛飾区東立石3丁目24-11","lat":35.73650815,"lon":139.84636277},{"name":"新小岩東北広場入口","province":"東京都","city":"葛飾区","address":"東京都葛飾区東新小岩1丁目14-11","lat":35.72107373,"lon":139.86015413},{"name":"金町浄水場","province":"東京都","city":"葛飾区","address":"東京都葛飾区金町浄水場1-1","lat":35.76233004,"lon":139.87836494},{"name":"水元給水所（都立水元公園内自由広場）","province":"東京都","city":"葛飾区","address":"東京都葛飾区水元公園4","lat":35.79240643,"lon":139.86812312},{"name":"区立上千葉公園","province":"東京都","city":"葛飾区","address":"東京都葛飾区東堀切3丁目25-1","lat":35.75497273,"lon":139.83903761},{"name":"区立新小岩公園","province":"東京都","city":"葛飾区","address":"東京都葛飾区西新小岩1丁目1-3","lat":35.71611839,"lon":139.85476607},{"name":"区立渋江東公園","province":"東京都","city":"葛飾区","address":"東京都葛飾区東四つ木2丁目15","lat":35.73076194,"lon":139.8434969},{"name":"(株）伊藤葬祭","province":"東京都","city":"葛飾区","address":"東京都葛飾区新小岩1丁目48-8","lat":35.71652119,"lon":139.85929903},{"name":"(有）上平井葬儀社","province":"東京都","city":"葛飾区","address":"東京都葛飾区西新小岩3丁目39-8","lat":35.72376226,"lon":139.8467885},{"name":"（有）網代屋葬儀社奥戸支店","province":"東京都","city":"葛飾区","address":"東京都葛飾区奥戸3丁目28-11","lat":35.73451157,"lon":139.86399463},{"name":"（有）橋本葬儀社","province":"東京都","city":"葛飾区","address":"東京都葛飾区東立石4丁目46-6","lat":35.73720813,"lon":139.85044291},{"name":"（株）葵式典（島田会館）","province":"東京都","city":"葛飾区","address":"東京都葛飾区四つ木1丁目33-5","lat":35.7345953,"lon":139.8360199},{"name":"東間葬儀社","province":"東京都","city":"葛飾区","address":"東京都葛飾区四つ木2丁目3-9","lat":35.73532582,"lon":139.83486168},{"name":"（株）八木井","province":"東京都","city":"葛飾区","address":"東京都葛飾区堀切2丁目34-2","lat":35.74504354,"lon":139.82592301},{"name":"（有）登坂商店","province":"東京都","city":"葛飾区","address":"東京都葛飾区堀切2丁目35-3","lat":35.74575453,"lon":139.82591738},{"name":"稲垣屋葬儀店","province":"東京都","city":"葛飾区","address":"東京都葛飾区堀切6丁目33-4","lat":35.75318384,"lon":139.82765534},{"name":"（有）秋元商店","province":"東京都","city":"葛飾区","address":"東京都葛飾区東堀切2丁目13-8","lat":35.75377009,"lon":139.83614627},{"name":"（有）セレモニーマルヤマ","province":"東京都","city":"葛飾区","address":"東京都葛飾区青戸3丁目33-18","lat":35.74656001,"lon":139.8554865},{"name":"（有）網代屋葬儀社青戸支店","province":"東京都","city":"葛飾区","address":"東京都葛飾区青戸4丁目22-22","lat":35.74858752,"lon":139.8526561},{"name":"（有）島田富義葬祭式典","province":"東京都","city":"葛飾区","address":"東京都葛飾区亀有3丁目14-10","lat":35.7630218,"lon":139.84898083},{"name":"（有）網代屋葬儀社本店","province":"東京都","city":"葛飾区","address":"東京都葛飾区高砂5丁目35-11","lat":35.7517789,"lon":139.86808531},{"name":"（株）島村葬儀社","province":"東京都","city":"葛飾区","address":"東京都葛飾区金町6丁目1-14","lat":35.76745719,"lon":139.87160132},{"name":"（株）東京供養舎（かなまち会館）","province":"東京都","city":"葛飾区","address":"東京都葛飾区東金町4丁目37-1","lat":35.77491998,"lon":139.87306216},{"name":"立石みんな子ども食堂","province":"東京都","city":"葛飾区","address":"東京都葛飾区立石1丁目21-12","lat":35.73770808,"lon":139.85014569},{"name":"たていしこども食堂実行委員会","province":"東京都","city":"葛飾区","address":"東京都葛飾区立石1丁目21-12","lat":35.73770808,"lon":139.85014569},{"name":"えまいまキッチン","province":"東京都","city":"葛飾区","address":"東京都葛飾区亀有3丁目32-3","lat":35.76494653,"lon":139.84890299},{"name":"青空っ子こども食堂","province":"東京都","city":"葛飾区","address":"東京都葛飾区お花茶屋3丁目5-6","lat":35.75648368,"lon":139.84306772},{"name":"こども食堂　トコ","province":"東京都","city":"葛飾区","address":"東京都葛飾区東水元2-35-16","lat":35.7807536,"lon":139.868906},{"name":"ほっこり食堂","province":"東京都","city":"葛飾区","address":"東京都葛飾区立石8丁目51-7","lat":35.73898869,"lon":139.85940314},{"name":"マミー子ども食堂","province":"東京都","city":"葛飾区","address":"東京都葛飾区東金町4丁目7-7","lat":35.77312574,"lon":139.87489821},{"name":"大道中学校前","province":"東京都","city":"葛飾区","address":"東京都葛飾区立石5丁目3-8","lat":35.74409914,"lon":139.84374051},{"name":"小菅三丁目","province":"東京都","city":"葛飾区","address":"東京都葛飾区小菅4丁目22-20","lat":35.75687226,"lon":139.82796347},{"name":"小菅二丁目","province":"東京都","city":"葛飾区","address":"東京都葛飾区小菅3丁目14-17","lat":35.75388095,"lon":139.82711924},{"name":"金町三丁目","province":"東京都","city":"葛飾区","address":"東京都葛飾区金町6丁目1-18","lat":35.7671739,"lon":139.87115135},{"name":"亀有四丁目","province":"東京都","city":"葛飾区","address":"東京都葛飾区西亀有3丁目43-10","lat":35.76287171,"lon":139.84142314},{"name":"金町駅北口第二","province":"東京都","city":"葛飾区","address":"東京都葛飾区東金町1丁目45-2","lat":35.76986517,"lon":139.87100686},{"name":"帝釈天参道","province":"東京都","city":"葛飾区","address":"東京都葛飾区柴又7丁目3-7","lat":35.75760856,"lon":139.87611796},{"name":"帝釈天参道第二","province":"東京都","city":"葛飾区","address":"東京都葛飾区柴又7丁目1-10","lat":35.75691699,"lon":139.8764124},{"name":"東金町二丁目","province":"東京都","city":"葛飾区","address":"東京都葛飾区東金町2丁目3-13","lat":35.77092341,"lon":139.8670182},{"name":"葛飾盲学校東","province":"東京都","city":"葛飾区","address":"東京都葛飾区堀切7丁目27-5","lat":35.75620851,"lon":139.82978835},{"name":"ふれあい動物広場前","province":"東京都","city":"葛飾区","address":"東京都葛飾区西亀有1丁目27","lat":35.75759463,"lon":139.84162336},{"name":"曳舟川親水公園","province":"東京都","city":"葛飾区","address":"東京都葛飾区お花茶屋3丁目7-13","lat":35.75480612,"lon":139.84318167},{"name":"亀有駅前第一","province":"東京都","city":"葛飾区","address":"東京都葛飾区亀有3丁目26-1","lat":35.76658519,"lon":139.84842798},{"name":"お花茶屋公園東","province":"東京都","city":"葛飾区","address":"東京都葛飾区お花茶屋1丁目21-14","lat":35.74905131,"lon":139.84131828},{"name":"亀有二丁目西第二","province":"東京都","city":"葛飾区","address":"東京都葛飾区亀有2丁目62-5","lat":35.76283016,"lon":139.84977244},{"name":"金町駅南口交番南","province":"東京都","city":"葛飾区","address":"東京都葛飾区金町6丁目4-2","lat":35.76912359,"lon":139.87244845},{"name":"本田小学校前","province":"東京都","city":"葛飾区","address":"東京都葛飾区立石1丁目8-20","lat":35.73662209,"lon":139.84545455},{"name":"京成立石駅前","province":"東京都","city":"葛飾区","address":"東京都葛飾区立石1丁目21-1","lat":35.7374081,"lon":139.84960686},{"name":"上平井消防出張所前","province":"東京都","city":"葛飾区","address":"東京都葛飾区東新小岩7丁目1-1","lat":35.72344011,"lon":139.85292685},{"name":"新小岩駅前","province":"東京都","city":"葛飾区","address":"東京都葛飾区新小岩1丁目46-9","lat":35.71696561,"lon":139.85901013},{"name":"堀切五丁目","province":"東京都","city":"葛飾区","address":"東京都葛飾区堀切5丁目5-3","lat":35.74897622,"lon":139.8277002},{"name":"巽橋","province":"東京都","city":"葛飾区","address":"東京都葛飾区西新小岩4丁目42-16","lat":35.71929321,"lon":139.85652403},{"name":"シンフォニーヒルズ前","province":"東京都","city":"葛飾区","address":"東京都葛飾区立石6丁目33-1","lat":35.74245764,"lon":139.85221197},{"name":"立石一丁目","province":"東京都","city":"葛飾区","address":"東京都葛飾区立石1丁目11-7","lat":35.73688031,"lon":139.84686545},{"name":"立石駅前第二","province":"東京都","city":"葛飾区","address":"東京都葛飾区東立石4丁目46-6","lat":35.73720813,"lon":139.85044291},{"name":"青砥駅北口","province":"東京都","city":"葛飾区","address":"東京都葛飾区青戸3丁目31-8","lat":35.74579342,"lon":139.85460883},{"name":"堀切菖蒲園駅前","province":"東京都","city":"葛飾区","address":"東京都葛飾区堀切4丁目9-10","lat":35.74698488,"lon":139.82665328},{"name":"葛飾区役所前","province":"東京都","city":"葛飾区","address":"東京都葛飾区立石5丁目12-6","lat":35.74226037,"lon":139.84756795},{"name":"東新小岩三丁目","province":"東京都","city":"葛飾区","address":"東京都葛飾区東新小岩3丁目4-21","lat":35.721057,"lon":139.8588626},{"name":"葛飾税務署前","province":"東京都","city":"葛飾区","address":"東京都葛飾区立石7丁目11-11","lat":35.7423354,"lon":139.8499844},{"name":"新小岩一丁目","province":"東京都","city":"葛飾区","address":"東京都葛飾区新小岩1丁目50-8","lat":35.71575743,"lon":139.86033786},{"name":"西新小岩四丁目","province":"東京都","city":"葛飾区","address":"東京都葛飾区東新小岩5丁目12-1","lat":35.7211903,"lon":139.85524623},{"name":"渋江公園前","province":"東京都","city":"葛飾区","address":"東京都葛飾区立石1丁目6","lat":35.73668888,"lon":139.84359091},{"name":"堀切駅ガード下","province":"東京都","city":"葛飾区","address":"東京都葛飾区堀切4丁目52-5","lat":35.74787639,"lon":139.82665597},{"name":"小松中学校前","province":"東京都","city":"葛飾区","address":"東京都葛飾区新小岩4丁目30-1","lat":35.72039624,"lon":139.86414821},{"name":"立石七丁目","province":"東京都","city":"葛飾区","address":"東京都葛飾区立石7丁目4-9","lat":35.74061056,"lon":139.84961505},{"name":"新小岩駅前第二","province":"東京都","city":"葛飾区","address":"東京都葛飾区新小岩1丁目47-1","lat":35.71660451,"lon":139.85866297},{"name":"新小岩駅前第三","province":"東京都","city":"葛飾区","address":"東京都葛飾区新小岩1丁目45-1","lat":35.71660173,"lon":139.85776858},{"name":"新小岩駅北口","province":"東京都","city":"葛飾区","address":"東京都葛飾区西新小岩1丁目9-8","lat":35.7180933,"lon":139.85785457},{"name":"新小岩ＪＲ官舎前","province":"東京都","city":"葛飾区","address":"東京都葛飾区新小岩2丁目2-26","lat":35.71761568,"lon":139.86079321},{"name":"立石駅前第三","province":"東京都","city":"葛飾区","address":"東京都葛飾区東立石3丁目37-6","lat":35.73672201,"lon":139.84771539},{"name":"生活会館前","province":"東京都","city":"葛飾区","address":"東京都葛飾区立石6丁目33-1","lat":35.74245764,"lon":139.85221197},{"name":"西町停留所前","province":"東京都","city":"葛飾区","address":"東京都葛飾区立石7丁目2-9","lat":35.73936902,"lon":139.84973733},{"name":"松上小学校前","province":"東京都","city":"葛飾区","address":"東京都葛飾区西新小岩4丁目33-10","lat":35.71879599,"lon":139.85336877},{"name":"葛飾勤労福祉会館前","province":"東京都","city":"葛飾区","address":"東京都葛飾区立石3丁目13-4","lat":35.73948022,"lon":139.843588},{"name":"立石駅南","province":"東京都","city":"葛飾区","address":"東京都葛飾区東立石4丁目54-6","lat":35.73688313,"lon":139.8487014},{"name":"大道橋","province":"東京都","city":"葛飾区","address":"東京都葛飾区東立石3丁目24-11","lat":35.73650815,"lon":139.84636277},{"name":"新小岩東北広場入口","province":"東京都","city":"葛飾区","address":"東京都葛飾区東新小岩1丁目14-11","lat":35.72107373,"lon":139.86015413},{"name":"金町浄水場","province":"東京都","city":"葛飾区","address":"東京都葛飾区金町浄水場1-1","lat":35.76233004,"lon":139.87836494},{"name":"水元給水所（都立水元公園内自由広場）","province":"東京都","city":"葛飾区","address":"東京都葛飾区水元公園4","lat":35.79240643,"lon":139.86812312},{"name":"区立上千葉公園","province":"東京都","city":"葛飾区","address":"東京都葛飾区東堀切3丁目25-1","lat":35.75497273,"lon":139.83903761},{"name":"区立新小岩公園","province":"東京都","city":"葛飾区","address":"東京都葛飾区西新小岩1丁目1-3","lat":35.71611839,"lon":139.85476607},{"name":"区立渋江東公園","province":"東京都","city":"葛飾区","address":"東京都葛飾区東四つ木2丁目15","lat":35.73076194,"lon":139.8434969},{"name":"(株）伊藤葬祭","province":"東京都","city":"葛飾区","address":"東京都葛飾区新小岩1丁目48-8","lat":35.71652119,"lon":139.85929903},{"name":"(有）上平井葬儀社","province":"東京都","city":"葛飾区","address":"東京都葛飾区西新小岩3丁目39-8","lat":35.72376226,"lon":139.8467885},{"name":"（有）網代屋葬儀社奥戸支店","province":"東京都","city":"葛飾区","address":"東京都葛飾区奥戸3丁目28-11","lat":35.73451157,"lon":139.86399463},{"name":"（有）橋本葬儀社","province":"東京都","city":"葛飾区","address":"東京都葛飾区東立石4丁目46-6","lat":35.73720813,"lon":139.85044291},{"name":"（株）葵式典（島田会館）","province":"東京都","city":"葛飾区","address":"東京都葛飾区四つ木1丁目33-5","lat":35.7345953,"lon":139.8360199},{"name":"東間葬儀社","province":"東京都","city":"葛飾区","address":"東京都葛飾区四つ木2丁目3-9","lat":35.73532582,"lon":139.83486168},{"name":"（株）八木井","province":"東京都","city":"葛飾区","address":"東京都葛飾区堀切2丁目34-2","lat":35.74504354,"lon":139.82592301},{"name":"（有）登坂商店","province":"東京都","city":"葛飾区","address":"東京都葛飾区堀切2丁目35-3","lat":35.74575453,"lon":139.82591738},{"name":"稲垣屋葬儀店","province":"東京都","city":"葛飾区","address":"東京都葛飾区堀切6丁目33-4","lat":35.75318384,"lon":139.82765534},{"name":"（有）秋元商店","province":"東京都","city":"葛飾区","address":"東京都葛飾区東堀切2丁目13-8","lat":35.75377009,"lon":139.83614627},{"name":"（有）セレモニーマルヤマ","province":"東京都","city":"葛飾区","address":"東京都葛飾区青戸3丁目33-18","lat":35.74656001,"lon":139.8554865},{"name":"（有）網代屋葬儀社青戸支店","province":"東京都","city":"葛飾区","address":"東京都葛飾区青戸4丁目22-22","lat":35.74858752,"lon":139.8526561},{"name":"（有）島田富義葬祭式典","province":"東京都","city":"葛飾区","address":"東京都葛飾区亀有3丁目14-10","lat":35.7630218,"lon":139.84898083},{"name":"（有）網代屋葬儀社本店","province":"東京都","city":"葛飾区","address":"東京都葛飾区高砂5丁目35-11","lat":35.7517789,"lon":139.86808531},{"name":"（株）島村葬儀社","province":"東京都","city":"葛飾区","address":"東京都葛飾区金町6丁目1-14","lat":35.76745719,"lon":139.87160132},{"name":"（株）東京供養舎（かなまち会館）","province":"東京都","city":"葛飾区","address":"東京都葛飾区東金町4丁目37-1","lat":35.77491998,"lon":139.87306216},{"name":"立石みんな子ども食堂","province":"東京都","city":"葛飾区","address":"東京都葛飾区立石1丁目21-12","lat":35.73770808,"lon":139.85014569},{"name":"たていしこども食堂実行委員会","province":"東京都","city":"葛飾区","address":"東京都葛飾区立石1丁目21-12","lat":35.73770808,"lon":139.85014569},{"name":"えまいまキッチン","province":"東京都","city":"葛飾区","address":"東京都葛飾区亀有3丁目32-3","lat":35.76494653,"lon":139.84890299},{"name":"青空っ子こども食堂","province":"東京都","city":"葛飾区","address":"東京都葛飾区お花茶屋3丁目5-6","lat":35.75648368,"lon":139.84306772},{"name":"こども食堂　トコ","province":"東京都","city":"葛飾区","address":"東京都葛飾区東水元2-35-16","lat":35.7807536,"lon":139.868906},{"name":"ほっこり食堂","province":"東京都","city":"葛飾区","address":"東京都葛飾区立石8丁目51-7","lat":35.73898869,"lon":139.85940314},{"name":"マミー子ども食堂","province":"東京都","city":"葛飾区","address":"東京都葛飾区東金町4丁目7-7","lat":35.77312574,"lon":139.87489821},{"name":"大道中学校前","province":"東京都","city":"葛飾区","address":"東京都葛飾区立石5丁目3-8","lat":35.74409914,"lon":139.84374051},{"name":"小菅三丁目","province":"東京都","city":"葛飾区","address":"東京都葛飾区小菅4丁目22-20","lat":35.75687226,"lon":139.82796347},{"name":"小菅二丁目","province":"東京都","city":"葛飾区","address":"東京都葛飾区小菅3丁目14-17","lat":35.75388095,"lon":139.82711924},{"name":"金町三丁目","province":"東京都","city":"葛飾区","address":"東京都葛飾区金町6丁目1-18","lat":35.7671739,"lon":139.87115135},{"name":"亀有四丁目","province":"東京都","city":"葛飾区","address":"東京都葛飾区西亀有3丁目43-10","lat":35.76287171,"lon":139.84142314},{"name":"金町駅北口第二","province":"東京都","city":"葛飾区","address":"東京都葛飾区東金町1丁目45-2","lat":35.76986517,"lon":139.87100686},{"name":"帝釈天参道","province":"東京都","city":"葛飾区","address":"東京都葛飾区柴又7丁目3-7","lat":35.75760856,"lon":139.87611796},{"name":"帝釈天参道第二","province":"東京都","city":"葛飾区","address":"東京都葛飾区柴又7丁目1-10","lat":35.75691699,"lon":139.8764124},{"name":"東金町二丁目","province":"東京都","city":"葛飾区","address":"東京都葛飾区東金町2丁目3-13","lat":35.77092341,"lon":139.8670182},{"name":"葛飾盲学校東","province":"東京都","city":"葛飾区","address":"東京都葛飾区堀切7丁目27-5","lat":35.75620851,"lon":139.82978835},{"name":"ふれあい動物広場前","province":"東京都","city":"葛飾区","address":"東京都葛飾区西亀有1丁目27","lat":35.75759463,"lon":139.84162336},{"name":"曳舟川親水公園","province":"東京都","city":"葛飾区","address":"東京都葛飾区お花茶屋3丁目7-13","lat":35.75480612,"lon":139.84318167},{"name":"亀有駅前第一","province":"東京都","city":"葛飾区","address":"東京都葛飾区亀有3丁目26-1","lat":35.76658519,"lon":139.84842798},{"name":"お花茶屋公園東","province":"東京都","city":"葛飾区","address":"東京都葛飾区お花茶屋1丁目21-14","lat":35.74905131,"lon":139.84131828},{"name":"亀有二丁目西第二","province":"東京都","city":"葛飾区","address":"東京都葛飾区亀有2丁目62-5","lat":35.76283016,"lon":139.84977244},{"name":"金町駅南口交番南","province":"東京都","city":"葛飾区","address":"東京都葛飾区金町6丁目4-2","lat":35.76912359,"lon":139.87244845},{"name":"本田小学校前","province":"東京都","city":"葛飾区","address":"東京都葛飾区立石1丁目8-20","lat":35.73662209,"lon":139.84545455},{"name":"京成立石駅前","province":"東京都","city":"葛飾区","address":"東京都葛飾区立石1丁目21-1","lat":35.7374081,"lon":139.84960686},{"name":"上平井消防出張所前","province":"東京都","city":"葛飾区","address":"東京都葛飾区東新小岩7丁目1-1","lat":35.72344011,"lon":139.85292685},{"name":"新小岩駅前","province":"東京都","city":"葛飾区","address":"東京都葛飾区新小岩1丁目46-9","lat":35.71696561,"lon":139.85901013},{"name":"堀切五丁目","province":"東京都","city":"葛飾区","address":"東京都葛飾区堀切5丁目5-3","lat":35.74897622,"lon":139.8277002},{"name":"巽橋","province":"東京都","city":"葛飾区","address":"東京都葛飾区西新小岩4丁目42-16","lat":35.71929321,"lon":139.85652403},{"name":"シンフォニーヒルズ前","province":"東京都","city":"葛飾区","address":"東京都葛飾区立石6丁目33-1","lat":35.74245764,"lon":139.85221197},{"name":"立石一丁目","province":"東京都","city":"葛飾区","address":"東京都葛飾区立石1丁目11-7","lat":35.73688031,"lon":139.84686545},{"name":"立石駅前第二","province":"東京都","city":"葛飾区","address":"東京都葛飾区東立石4丁目46-6","lat":35.73720813,"lon":139.85044291},{"name":"青砥駅北口","province":"東京都","city":"葛飾区","address":"東京都葛飾区青戸3丁目31-8","lat":35.74579342,"lon":139.85460883},{"name":"堀切菖蒲園駅前","province":"東京都","city":"葛飾区","address":"東京都葛飾区堀切4丁目9-10","lat":35.74698488,"lon":139.82665328},{"name":"葛飾区役所前","province":"東京都","city":"葛飾区","address":"東京都葛飾区立石5丁目12-6","lat":35.74226037,"lon":139.84756795},{"name":"東新小岩三丁目","province":"東京都","city":"葛飾区","address":"東京都葛飾区東新小岩3丁目4-21","lat":35.721057,"lon":139.8588626},{"name":"葛飾税務署前","province":"東京都","city":"葛飾区","address":"東京都葛飾区立石7丁目11-11","lat":35.7423354,"lon":139.8499844},{"name":"新小岩一丁目","province":"東京都","city":"葛飾区","address":"東京都葛飾区新小岩1丁目50-8","lat":35.71575743,"lon":139.86033786},{"name":"西新小岩四丁目","province":"東京都","city":"葛飾区","address":"東京都葛飾区東新小岩5丁目12-1","lat":35.7211903,"lon":139.85524623},{"name":"渋江公園前","province":"東京都","city":"葛飾区","address":"東京都葛飾区立石1丁目6","lat":35.73668888,"lon":139.84359091},{"name":"堀切駅ガード下","province":"東京都","city":"葛飾区","address":"東京都葛飾区堀切4丁目52-5","lat":35.74787639,"lon":139.82665597},{"name":"小松中学校前","province":"東京都","city":"葛飾区","address":"東京都葛飾区新小岩4丁目30-1","lat":35.72039624,"lon":139.86414821},{"name":"立石七丁目","province":"東京都","city":"葛飾区","address":"東京都葛飾区立石7丁目4-9","lat":35.74061056,"lon":139.84961505},{"name":"新小岩駅前第二","province":"東京都","city":"葛飾区","address":"東京都葛飾区新小岩1丁目47-1","lat":35.71660451,"lon":139.85866297},{"name":"新小岩駅前第三","province":"東京都","city":"葛飾区","address":"東京都葛飾区新小岩1丁目45-1","lat":35.71660173,"lon":139.85776858},{"name":"新小岩駅北口","province":"東京都","city":"葛飾区","address":"東京都葛飾区西新小岩1丁目9-8","lat":35.7180933,"lon":139.85785457},{"name":"新小岩ＪＲ官舎前","province":"東京都","city":"葛飾区","address":"東京都葛飾区新小岩2丁目2-26","lat":35.71761568,"lon":139.86079321},{"name":"立石駅前第三","province":"東京都","city":"葛飾区","address":"東京都葛飾区東立石3丁目37-6","lat":35.73672201,"lon":139.84771539},{"name":"生活会館前","province":"東京都","city":"葛飾区","address":"東京都葛飾区立石6丁目33-1","lat":35.74245764,"lon":139.85221197},{"name":"西町停留所前","province":"東京都","city":"葛飾区","address":"東京都葛飾区立石7丁目2-9","lat":35.73936902,"lon":139.84973733},{"name":"松上小学校前","province":"東京都","city":"葛飾区","address":"東京都葛飾区西新小岩4丁目33-10","lat":35.71879599,"lon":139.85336877},{"name":"葛飾勤労福祉会館前","province":"東京都","city":"葛飾区","address":"東京都葛飾区立石3丁目13-4","lat":35.73948022,"lon":139.843588},{"name":"立石駅南","province":"東京都","city":"葛飾区","address":"東京都葛飾区東立石4丁目54-6","lat":35.73688313,"lon":139.8487014},{"name":"大道橋","province":"東京都","city":"葛飾区","address":"東京都葛飾区東立石3丁目24-11","lat":35.73650815,"lon":139.84636277},{"name":"新小岩東北広場入口","province":"東京都","city":"葛飾区","address":"東京都葛飾区東新小岩1丁目14-11","lat":35.72107373,"lon":139.86015413},{"name":"金町浄水場","province":"東京都","city":"葛飾区","address":"東京都葛飾区金町浄水場1-1","lat":35.76233004,"lon":139.87836494},{"name":"水元給水所（都立水元公園内自由広場）","province":"東京都","city":"葛飾区","address":"東京都葛飾区水元公園4","lat":35.79240643,"lon":139.86812312},{"name":"区立上千葉公園","province":"東京都","city":"葛飾区","address":"東京都葛飾区東堀切3丁目25-1","lat":35.75497273,"lon":139.83903761},{"name":"区立新小岩公園","province":"東京都","city":"葛飾区","address":"東京都葛飾区西新小岩1丁目1-3","lat":35.71611839,"lon":139.85476607},{"name":"区立渋江東公園","province":"東京都","city":"葛飾区","address":"東京都葛飾区東四つ木2丁目15","lat":35.73076194,"lon":139.8434969},{"name":"(株）伊藤葬祭","province":"東京都","city":"葛飾区","address":"東京都葛飾区新小岩1丁目48-8","lat":35.71652119,"lon":139.85929903},{"name":"(有）上平井葬儀社","province":"東京都","city":"葛飾区","address":"東京都葛飾区西新小岩3丁目39-8","lat":35.72376226,"lon":139.8467885},{"name":"（有）網代屋葬儀社奥戸支店","province":"東京都","city":"葛飾区","address":"東京都葛飾区奥戸3丁目28-11","lat":35.73451157,"lon":139.86399463},{"name":"（有）橋本葬儀社","province":"東京都","city":"葛飾区","address":"東京都葛飾区東立石4丁目46-6","lat":35.73720813,"lon":139.85044291},{"name":"（株）葵式典（島田会館）","province":"東京都","city":"葛飾区","address":"東京都葛飾区四つ木1丁目33-5","lat":35.7345953,"lon":139.8360199},{"name":"東間葬儀社","province":"東京都","city":"葛飾区","address":"東京都葛飾区四つ木2丁目3-9","lat":35.73532582,"lon":139.83486168},{"name":"（株）八木井","province":"東京都","city":"葛飾区","address":"東京都葛飾区堀切2丁目34-2","lat":35.74504354,"lon":139.82592301},{"name":"（有）登坂商店","province":"東京都","city":"葛飾区","address":"東京都葛飾区堀切2丁目35-3","lat":35.74575453,"lon":139.82591738},{"name":"稲垣屋葬儀店","province":"東京都","city":"葛飾区","address":"東京都葛飾区堀切6丁目33-4","lat":35.75318384,"lon":139.82765534},{"name":"（有）秋元商店","province":"東京都","city":"葛飾区","address":"東京都葛飾区東堀切2丁目13-8","lat":35.75377009,"lon":139.83614627},{"name":"（有）セレモニーマルヤマ","province":"東京都","city":"葛飾区","address":"東京都葛飾区青戸3丁目33-18","lat":35.74656001,"lon":139.8554865},{"name":"（有）網代屋葬儀社青戸支店","province":"東京都","city":"葛飾区","address":"東京都葛飾区青戸4丁目22-22","lat":35.74858752,"lon":139.8526561},{"name":"（有）島田富義葬祭式典","province":"東京都","city":"葛飾区","address":"東京都葛飾区亀有3丁目14-10","lat":35.7630218,"lon":139.84898083},{"name":"（有）網代屋葬儀社本店","province":"東京都","city":"葛飾区","address":"東京都葛飾区高砂5丁目35-11","lat":35.7517789,"lon":139.86808531},{"name":"（株）島村葬儀社","province":"東京都","city":"葛飾区","address":"東京都葛飾区金町6丁目1-14","lat":35.76745719,"lon":139.87160132},{"name":"（株）東京供養舎（かなまち会館）","province":"東京都","city":"葛飾区","address":"東京都葛飾区東金町4丁目37-1","lat":35.77491998,"lon":139.87306216},{"name":"立石みんな子ども食堂","province":"東京都","city":"葛飾区","address":"東京都葛飾区立石1丁目21-12","lat":35.73770808,"lon":139.85014569},{"name":"たていしこども食堂実行委員会","province":"東京都","city":"葛飾区","address":"東京都葛飾区立石1丁目21-12","lat":35.73770808,"lon":139.85014569},{"name":"えまいまキッチン","province":"東京都","city":"葛飾区","address":"東京都葛飾区亀有3丁目32-3","lat":35.76494653,"lon":139.84890299},{"name":"青空っ子こども食堂","province":"東京都","city":"葛飾区","address":"東京都葛飾区お花茶屋3丁目5-6","lat":35.75648368,"lon":139.84306772},{"name":"こども食堂　トコ","province":"東京都","city":"葛飾区","address":"東京都葛飾区東水元2-35-16","lat":35.7807536,"lon":139.868906},{"name":"ほっこり食堂","province":"東京都","city":"葛飾区","address":"東京都葛飾区立石8丁目51-7","lat":35.73898869,"lon":139.85940314},{"name":"マミー子ども食堂","province":"東京都","city":"葛飾区","address":"東京都葛飾区東金町4丁目7-7","lat":35.77312574,"lon":139.87489821},{"name":"大道中学校前","province":"東京都","city":"葛飾区","address":"東京都葛飾区立石5丁目3-8","lat":35.74409914,"lon":139.84374051},{"name":"小菅三丁目","province":"東京都","city":"葛飾区","address":"東京都葛飾区小菅4丁目22-20","lat":35.75687226,"lon":139.82796347},{"name":"小菅二丁目","province":"東京都","city":"葛飾区","address":"東京都葛飾区小菅3丁目14-17","lat":35.75388095,"lon":139.82711924},{"name":"金町三丁目","province":"東京都","city":"葛飾区","address":"東京都葛飾区金町6丁目1-18","lat":35.7671739,"lon":139.87115135},{"name":"亀有四丁目","province":"東京都","city":"葛飾区","address":"東京都葛飾区西亀有3丁目43-10","lat":35.76287171,"lon":139.84142314},{"name":"金町駅北口第二","province":"東京都","city":"葛飾区","address":"東京都葛飾区東金町1丁目45-2","lat":35.76986517,"lon":139.87100686},{"name":"帝釈天参道","province":"東京都","city":"葛飾区","address":"東京都葛飾区柴又7丁目3-7","lat":35.75760856,"lon":139.87611796},{"name":"帝釈天参道第二","province":"東京都","city":"葛飾区","address":"東京都葛飾区柴又7丁目1-10","lat":35.75691699,"lon":139.8764124},{"name":"東金町二丁目","province":"東京都","city":"葛飾区","address":"東京都葛飾区東金町2丁目3-13","lat":35.77092341,"lon":139.8670182},{"name":"葛飾盲学校東","province":"東京都","city":"葛飾区","address":"東京都葛飾区堀切7丁目27-5","lat":35.75620851,"lon":139.82978835},{"name":"ふれあい動物広場前","province":"東京都","city":"葛飾区","address":"東京都葛飾区西亀有1丁目27","lat":35.75759463,"lon":139.84162336},{"name":"曳舟川親水公園","province":"東京都","city":"葛飾区","address":"東京都葛飾区お花茶屋3丁目7-13","lat":35.75480612,"lon":139.84318167},{"name":"亀有駅前第一","province":"東京都","city":"葛飾区","address":"東京都葛飾区亀有3丁目26-1","lat":35.76658519,"lon":139.84842798},{"name":"お花茶屋公園東","province":"東京都","city":"葛飾区","address":"東京都葛飾区お花茶屋1丁目21-14","lat":35.74905131,"lon":139.84131828},{"name":"亀有二丁目西第二","province":"東京都","city":"葛飾区","address":"東京都葛飾区亀有2丁目62-5","lat":35.76283016,"lon":139.84977244},{"name":"金町駅南口交番南","province":"東京都","city":"葛飾区","address":"東京都葛飾区金町6丁目4-2","lat":35.76912359,"lon":139.87244845},{"name":"本田小学校前","province":"東京都","city":"葛飾区","address":"東京都葛飾区立石1丁目8-20","lat":35.73662209,"lon":139.84545455},{"name":"京成立石駅前","province":"東京都","city":"葛飾区","address":"東京都葛飾区立石1丁目21-1","lat":35.7374081,"lon":139.84960686},{"name":"上平井消防出張所前","province":"東京都","city":"葛飾区","address":"東京都葛飾区東新小岩7丁目1-1","lat":35.72344011,"lon":139.85292685},{"name":"新小岩駅前","province":"東京都","city":"葛飾区","address":"東京都葛飾区新小岩1丁目46-9","lat":35.71696561,"lon":139.85901013},{"name":"堀切五丁目","province":"東京都","city":"葛飾区","address":"東京都葛飾区堀切5丁目5-3","lat":35.74897622,"lon":139.8277002},{"name":"巽橋","province":"東京都","city":"葛飾区","address":"東京都葛飾区西新小岩4丁目42-16","lat":35.71929321,"lon":139.85652403},{"name":"シンフォニーヒルズ前","province":"東京都","city":"葛飾区","address":"東京都葛飾区立石6丁目33-1","lat":35.74245764,"lon":139.85221197},{"name":"立石一丁目","province":"東京都","city":"葛飾区","address":"東京都葛飾区立石1丁目11-7","lat":35.73688031,"lon":139.84686545},{"name":"立石駅前第二","province":"東京都","city":"葛飾区","address":"東京都葛飾区東立石4丁目46-6","lat":35.73720813,"lon":139.85044291},{"name":"青砥駅北口","province":"東京都","city":"葛飾区","address":"東京都葛飾区青戸3丁目31-8","lat":35.74579342,"lon":139.85460883},{"name":"堀切菖蒲園駅前","province":"東京都","city":"葛飾区","address":"東京都葛飾区堀切4丁目9-10","lat":35.74698488,"lon":139.82665328},{"name":"葛飾区役所前","province":"東京都","city":"葛飾区","address":"東京都葛飾区立石5丁目12-6","lat":35.74226037,"lon":139.84756795},{"name":"東新小岩三丁目","province":"東京都","city":"葛飾区","address":"東京都葛飾区東新小岩3丁目4-21","lat":35.721057,"lon":139.8588626},{"name":"葛飾税務署前","province":"東京都","city":"葛飾区","address":"東京都葛飾区立石7丁目11-11","lat":35.7423354,"lon":139.8499844},{"name":"新小岩一丁目","province":"東京都","city":"葛飾区","address":"東京都葛飾区新小岩1丁目50-8","lat":35.71575743,"lon":139.86033786},{"name":"西新小岩四丁目","province":"東京都","city":"葛飾区","address":"東京都葛飾区東新小岩5丁目12-1","lat":35.7211903,"lon":139.85524623},{"name":"渋江公園前","province":"東京都","city":"葛飾区","address":"東京都葛飾区立石1丁目6","lat":35.73668888,"lon":139.84359091},{"name":"堀切駅ガード下","province":"東京都","city":"葛飾区","address":"東京都葛飾区堀切4丁目52-5","lat":35.74787639,"lon":139.82665597},{"name":"小松中学校前","province":"東京都","city":"葛飾区","address":"東京都葛飾区新小岩4丁目30-1","lat":35.72039624,"lon":139.86414821},{"name":"立石七丁目","province":"東京都","city":"葛飾区","address":"東京都葛飾区立石7丁目4-9","lat":35.74061056,"lon":139.84961505},{"name":"新小岩駅前第二","province":"東京都","city":"葛飾区","address":"東京都葛飾区新小岩1丁目47-1","lat":35.71660451,"lon":139.85866297},{"name":"新小岩駅前第三","province":"東京都","city":"葛飾区","address":"東京都葛飾区新小岩1丁目45-1","lat":35.71660173,"lon":139.85776858},{"name":"新小岩駅北口","province":"東京都","city":"葛飾区","address":"東京都葛飾区西新小岩1丁目9-8","lat":35.7180933,"lon":139.85785457},{"name":"新小岩ＪＲ官舎前","province":"東京都","city":"葛飾区","address":"東京都葛飾区新小岩2丁目2-26","lat":35.71761568,"lon":139.86079321},{"name":"立石駅前第三","province":"東京都","city":"葛飾区","address":"東京都葛飾区東立石3丁目37-6","lat":35.73672201,"lon":139.84771539},{"name":"生活会館前","province":"東京都","city":"葛飾区","address":"東京都葛飾区立石6丁目33-1","lat":35.74245764,"lon":139.85221197},{"name":"西町停留所前","province":"東京都","city":"葛飾区","address":"東京都葛飾区立石7丁目2-9","lat":35.73936902,"lon":139.84973733},{"name":"松上小学校前","province":"東京都","city":"葛飾区","address":"東京都葛飾区西新小岩4丁目33-10","lat":35.71879599,"lon":139.85336877},{"name":"葛飾勤労福祉会館前","province":"東京都","city":"葛飾区","address":"東京都葛飾区立石3丁目13-4","lat":35.73948022,"lon":139.843588},{"name":"立石駅南","province":"東京都","city":"葛飾区","address":"東京都葛飾区東立石4丁目54-6","lat":35.73688313,"lon":139.8487014},{"name":"大道橋","province":"東京都","city":"葛飾区","address":"東京都葛飾区東立石3丁目24-11","lat":35.73650815,"lon":139.84636277},{"name":"新小岩東北広場入口","province":"東京都","city":"葛飾区","address":"東京都葛飾区東新小岩1丁目14-11","lat":35.72107373,"lon":139.86015413},{"name":"金町浄水場","province":"東京都","city":"葛飾区","address":"東京都葛飾区金町浄水場1-1","lat":35.76233004,"lon":139.87836494},{"name":"水元給水所（都立水元公園内自由広場）","province":"東京都","city":"葛飾区","address":"東京都葛飾区水元公園4","lat":35.79240643,"lon":139.86812312},{"name":"区立上千葉公園","province":"東京都","city":"葛飾区","address":"東京都葛飾区東堀切3丁目25-1","lat":35.75497273,"lon":139.83903761},{"name":"区立新小岩公園","province":"東京都","city":"葛飾区","address":"東京都葛飾区西新小岩1丁目1-3","lat":35.71611839,"lon":139.85476607},{"name":"区立渋江東公園","province":"東京都","city":"葛飾区","address":"東京都葛飾区東四つ木2丁目15","lat":35.73076194,"lon":139.8434969},{"name":"(株）伊藤葬祭","province":"東京都","city":"葛飾区","address":"東京都葛飾区新小岩1丁目48-8","lat":35.71652119,"lon":139.85929903},{"name":"(有）上平井葬儀社","province":"東京都","city":"葛飾区","address":"東京都葛飾区西新小岩3丁目39-8","lat":35.72376226,"lon":139.8467885},{"name":"（有）網代屋葬儀社奥戸支店","province":"東京都","city":"葛飾区","address":"東京都葛飾区奥戸3丁目28-11","lat":35.73451157,"lon":139.86399463},{"name":"（有）橋本葬儀社","province":"東京都","city":"葛飾区","address":"東京都葛飾区東立石4丁目46-6","lat":35.73720813,"lon":139.85044291},{"name":"（株）葵式典（島田会館）","province":"東京都","city":"葛飾区","address":"東京都葛飾区四つ木1丁目33-5","lat":35.7345953,"lon":139.8360199},{"name":"東間葬儀社","province":"東京都","city":"葛飾区","address":"東京都葛飾区四つ木2丁目3-9","lat":35.73532582,"lon":139.83486168},{"name":"（株）八木井","province":"東京都","city":"葛飾区","address":"東京都葛飾区堀切2丁目34-2","lat":35.74504354,"lon":139.82592301},{"name":"（有）登坂商店","province":"東京都","city":"葛飾区","address":"東京都葛飾区堀切2丁目35-3","lat":35.74575453,"lon":139.82591738},{"name":"稲垣屋葬儀店","province":"東京都","city":"葛飾区","address":"東京都葛飾区堀切6丁目33-4","lat":35.75318384,"lon":139.82765534},{"name":"（有）秋元商店","province":"東京都","city":"葛飾区","address":"東京都葛飾区東堀切2丁目13-8","lat":35.75377009,"lon":139.83614627},{"name":"（有）セレモニーマルヤマ","province":"東京都","city":"葛飾区","address":"東京都葛飾区青戸3丁目33-18","lat":35.74656001,"lon":139.8554865},{"name":"（有）網代屋葬儀社青戸支店","province":"東京都","city":"葛飾区","address":"東京都葛飾区青戸4丁目22-22","lat":35.74858752,"lon":139.8526561},{"name":"（有）島田富義葬祭式典","province":"東京都","city":"葛飾区","address":"東京都葛飾区亀有3丁目14-10","lat":35.7630218,"lon":139.84898083},{"name":"（有）網代屋葬儀社本店","province":"東京都","city":"葛飾区","address":"東京都葛飾区高砂5丁目35-11","lat":35.7517789,"lon":139.86808531},{"name":"（株）島村葬儀社","province":"東京都","city":"葛飾区","address":"東京都葛飾区金町6丁目1-14","lat":35.76745719,"lon":139.87160132},{"name":"（株）東京供養舎（かなまち会館）","province":"東京都","city":"葛飾区","address":"東京都葛飾区東金町4丁目37-1","lat":35.77491998,"lon":139.87306216},{"name":"立石みんな子ども食堂","province":"東京都","city":"葛飾区","address":"東京都葛飾区立石1丁目21-12","lat":35.73770808,"lon":139.85014569},{"name":"たていしこども食堂実行委員会","province":"東京都","city":"葛飾区","address":"東京都葛飾区立石1丁目21-12","lat":35.73770808,"lon":139.85014569},{"name":"えまいまキッチン","province":"東京都","city":"葛飾区","address":"東京都葛飾区亀有3丁目32-3","lat":35.76494653,"lon":139.84890299},{"name":"青空っ子こども食堂","province":"東京都","city":"葛飾区","address":"東京都葛飾区お花茶屋3丁目5-6","lat":35.75648368,"lon":139.84306772},{"name":"こども食堂　トコ","province":"東京都","city":"葛飾区","address":"東京都葛飾区東水元2-35-16","lat":35.7807536,"lon":139.868906},{"name":"ほっこり食堂","province":"東京都","city":"葛飾区","address":"東京都葛飾区立石8丁目51-7","lat":35.73898869,"lon":139.85940314},{"name":"マミー子ども食堂","province":"東京都","city":"葛飾区","address":"東京都葛飾区東金町4丁目7-7","lat":35.77312574,"lon":139.87489821},{"name":"(株）伊藤葬祭","province":"東京都","city":"葛飾区","address":"東京都葛飾区新小岩1丁目48-8","lat":35.71652119,"lon":139.85929903},{"name":"(有）上平井葬儀社","province":"東京都","city":"葛飾区","address":"東京都葛飾区西新小岩3丁目39-8","lat":35.72376226,"lon":139.8467885},{"name":"（有）網代屋葬儀社奥戸支店","province":"東京都","city":"葛飾区","address":"東京都葛飾区奥戸3丁目28-11","lat":35.73451157,"lon":139.86399463},{"name":"（有）橋本葬儀社","province":"東京都","city":"葛飾区","address":"東京都葛飾区東立石4丁目46-6","lat":35.73720813,"lon":139.85044291},{"name":"（株）葵式典（島田会館）","province":"東京都","city":"葛飾区","address":"東京都葛飾区四つ木1丁目33-5","lat":35.7345953,"lon":139.8360199},{"name":"東間葬儀社","province":"東京都","city":"葛飾区","address":"東京都葛飾区四つ木2丁目3-9","lat":35.73532582,"lon":139.83486168},{"name":"（株）八木井","province":"東京都","city":"葛飾区","address":"東京都葛飾区堀切2丁目34-2","lat":35.74504354,"lon":139.82592301},{"name":"（有）登坂商店","province":"東京都","city":"葛飾区","address":"東京都葛飾区堀切2丁目35-3","lat":35.74575453,"lon":139.82591738},{"name":"稲垣屋葬儀店","province":"東京都","city":"葛飾区","address":"東京都葛飾区堀切6丁目33-4","lat":35.75318384,"lon":139.82765534},{"name":"（有）秋元商店","province":"東京都","city":"葛飾区","address":"東京都葛飾区東堀切2丁目13-8","lat":35.75377009,"lon":139.83614627},{"name":"（有）セレモニーマルヤマ","province":"東京都","city":"葛飾区","address":"東京都葛飾区青戸3丁目33-18","lat":35.74656001,"lon":139.8554865},{"name":"（有）網代屋葬儀社青戸支店","province":"東京都","city":"葛飾区","address":"東京都葛飾区青戸4丁目22-22","lat":35.74858752,"lon":139.8526561},{"name":"（有）島田富義葬祭式典","province":"東京都","city":"葛飾区","address":"東京都葛飾区亀有3丁目14-10","lat":35.7630218,"lon":139.84898083},{"name":"（有）網代屋葬儀社本店","province":"東京都","city":"葛飾区","address":"東京都葛飾区高砂5丁目35-11","lat":35.7517789,"lon":139.86808531},{"name":"（株）島村葬儀社","province":"東京都","city":"葛飾区","address":"東京都葛飾区金町6丁目1-14","lat":35.76745719,"lon":139.87160132},{"name":"（株）東京供養舎（かなまち会館）","province":"東京都","city":"葛飾区","address":"東京都葛飾区東金町4丁目37-1","lat":35.77491998,"lon":139.87306216},{"name":"立石みんな子ども食堂","province":"東京都","city":"葛飾区","address":"東京都葛飾区立石1丁目21-12","lat":35.73770808,"lon":139.85014569},{"name":"たていしこども食堂実行委員会","province":"東京都","city":"葛飾区","address":"東京都葛飾区立石1丁目21-12","lat":35.73770808,"lon":139.85014569},{"name":"えまいまキッチン","province":"東京都","city":"葛飾区","address":"東京都葛飾区亀有3丁目32-3","lat":35.76494653,"lon":139.84890299},{"name":"青空っ子こども食堂","province":"東京都","city":"葛飾区","address":"東京都葛飾区お花茶屋3丁目5-6","lat":35.75648368,"lon":139.84306772},{"name":"こども食堂　トコ","province":"東京都","city":"葛飾区","address":"東京都葛飾区東水元2-35-16","lat":35.7807536,"lon":139.868906},{"name":"ほっこり食堂","province":"東京都","city":"葛飾区","address":"東京都葛飾区立石8丁目51-7","lat":35.73898869,"lon":139.85940314},{"name":"マミー子ども食堂","province":"東京都","city":"葛飾区","address":"東京都葛飾区東金町4丁目7-7","lat":35.77312574,"lon":139.87489821},{"name":"(株）伊藤葬祭","province":"東京都","city":"葛飾区","address":"東京都葛飾区新小岩1丁目48-8","lat":35.71652119,"lon":139.85929903},{"name":"(有）上平井葬儀社","province":"東京都","city":"葛飾区","address":"東京都葛飾区西新小岩3丁目39-8","lat":35.72376226,"lon":139.8467885},{"name":"（有）網代屋葬儀社奥戸支店","province":"東京都","city":"葛飾区","address":"東京都葛飾区奥戸3丁目28-11","lat":35.73451157,"lon":139.86399463},{"name":"（有）橋本葬儀社","province":"東京都","city":"葛飾区","address":"東京都葛飾区東立石4丁目46-6","lat":35.73720813,"lon":139.85044291},{"name":"（株）葵式典（島田会館）","province":"東京都","city":"葛飾区","address":"東京都葛飾区四つ木1丁目33-5","lat":35.7345953,"lon":139.8360199},{"name":"東間葬儀社","province":"東京都","city":"葛飾区","address":"東京都葛飾区四つ木2丁目3-9","lat":35.73532582,"lon":139.83486168},{"name":"（株）八木井","province":"東京都","city":"葛飾区","address":"東京都葛飾区堀切2丁目34-2","lat":35.74504354,"lon":139.82592301},{"name":"（有）登坂商店","province":"東京都","city":"葛飾区","address":"東京都葛飾区堀切2丁目35-3","lat":35.74575453,"lon":139.82591738},{"name":"稲垣屋葬儀店","province":"東京都","city":"葛飾区","address":"東京都葛飾区堀切6丁目33-4","lat":35.75318384,"lon":139.82765534},{"name":"（有）秋元商店","province":"東京都","city":"葛飾区","address":"東京都葛飾区東堀切2丁目13-8","lat":35.75377009,"lon":139.83614627},{"name":"（有）セレモニーマルヤマ","province":"東京都","city":"葛飾区","address":"東京都葛飾区青戸3丁目33-18","lat":35.74656001,"lon":139.8554865},{"name":"（有）網代屋葬儀社青戸支店","province":"東京都","city":"葛飾区","address":"東京都葛飾区青戸4丁目22-22","lat":35.74858752,"lon":139.8526561},{"name":"（有）島田富義葬祭式典","province":"東京都","city":"葛飾区","address":"東京都葛飾区亀有3丁目14-10","lat":35.7630218,"lon":139.84898083},{"name":"（有）網代屋葬儀社本店","province":"東京都","city":"葛飾区","address":"東京都葛飾区高砂5丁目35-11","lat":35.7517789,"lon":139.86808531},{"name":"（株）島村葬儀社","province":"東京都","city":"葛飾区","address":"東京都葛飾区金町6丁目1-14","lat":35.76745719,"lon":139.87160132},{"name":"（株）東京供養舎（かなまち会館）","province":"東京都","city":"葛飾区","address":"東京都葛飾区東金町4丁目37-1","lat":35.77491998,"lon":139.87306216},{"name":"立石みんな子ども食堂","province":"東京都","city":"葛飾区","address":"東京都葛飾区立石1丁目21-12","lat":35.73770808,"lon":139.85014569},{"name":"たていしこども食堂実行委員会","province":"東京都","city":"葛飾区","address":"東京都葛飾区立石1丁目21-12","lat":35.73770808,"lon":139.85014569},{"name":"えまいまキッチン","province":"東京都","city":"葛飾区","address":"東京都葛飾区亀有3丁目32-3","lat":35.76494653,"lon":139.84890299},{"name":"青空っ子こども食堂","province":"東京都","city":"葛飾区","address":"東京都葛飾区お花茶屋3丁目5-6","lat":35.75648368,"lon":139.84306772},{"name":"こども食堂　トコ","province":"東京都","city":"葛飾区","address":"東京都葛飾区東水元2-35-16","lat":35.7807536,"lon":139.868906},{"name":"ほっこり食堂","province":"東京都","city":"葛飾区","address":"東京都葛飾区立石8丁目51-7","lat":35.73898869,"lon":139.85940314},{"name":"マミー子ども食堂","province":"東京都","city":"葛飾区","address":"東京都葛飾区東金町4丁目7-7","lat":35.77312574,"lon":139.87489821},{"name":"(株）伊藤葬祭","province":"東京都","city":"葛飾区","address":"東京都葛飾区新小岩1丁目48-8","lat":35.71652119,"lon":139.85929903},{"name":"(有）上平井葬儀社","province":"東京都","city":"葛飾区","address":"東京都葛飾区西新小岩3丁目39-8","lat":35.72376226,"lon":139.8467885},{"name":"（有）網代屋葬儀社奥戸支店","province":"東京都","city":"葛飾区","address":"東京都葛飾区奥戸3丁目28-11","lat":35.73451157,"lon":139.86399463},{"name":"（有）橋本葬儀社","province":"東京都","city":"葛飾区","address":"東京都葛飾区東立石4丁目46-6","lat":35.73720813,"lon":139.85044291},{"name":"（株）葵式典（島田会館）","province":"東京都","city":"葛飾区","address":"東京都葛飾区四つ木1丁目33-5","lat":35.7345953,"lon":139.8360199},{"name":"東間葬儀社","province":"東京都","city":"葛飾区","address":"東京都葛飾区四つ木2丁目3-9","lat":35.73532582,"lon":139.83486168},{"name":"（株）八木井","province":"東京都","city":"葛飾区","address":"東京都葛飾区堀切2丁目34-2","lat":35.74504354,"lon":139.82592301},{"name":"（有）登坂商店","province":"東京都","city":"葛飾区","address":"東京都葛飾区堀切2丁目35-3","lat":35.74575453,"lon":139.82591738},{"name":"稲垣屋葬儀店","province":"東京都","city":"葛飾区","address":"東京都葛飾区堀切6丁目33-4","lat":35.75318384,"lon":139.82765534},{"name":"（有）秋元商店","province":"東京都","city":"葛飾区","address":"東京都葛飾区東堀切2丁目13-8","lat":35.75377009,"lon":139.83614627},{"name":"（有）セレモニーマルヤマ","province":"東京都","city":"葛飾区","address":"東京都葛飾区青戸3丁目33-18","lat":35.74656001,"lon":139.8554865},{"name":"（有）網代屋葬儀社青戸支店","province":"東京都","city":"葛飾区","address":"東京都葛飾区青戸4丁目22-22","lat":35.74858752,"lon":139.8526561},{"name":"（有）島田富義葬祭式典","province":"東京都","city":"葛飾区","address":"東京都葛飾区亀有3丁目14-10","lat":35.7630218,"lon":139.84898083},{"name":"（有）網代屋葬儀社本店","province":"東京都","city":"葛飾区","address":"東京都葛飾区高砂5丁目35-11","lat":35.7517789,"lon":139.86808531},{"name":"（株）島村葬儀社","province":"東京都","city":"葛飾区","address":"東京都葛飾区金町6丁目1-14","lat":35.76745719,"lon":139.87160132},{"name":"（株）東京供養舎（かなまち会館）","province":"東京都","city":"葛飾区","address":"東京都葛飾区東金町4丁目37-1","lat":35.77491998,"lon":139.87306216},{"name":"立石みんな子ども食堂","province":"東京都","city":"葛飾区","address":"東京都葛飾区立石1丁目21-12","lat":35.73770808,"lon":139.85014569},{"name":"たていしこども食堂実行委員会","province":"東京都","city":"葛飾区","address":"東京都葛飾区立石1丁目21-12","lat":35.73770808,"lon":139.85014569},{"name":"えまいまキッチン","province":"東京都","city":"葛飾区","address":"東京都葛飾区亀有3丁目32-3","lat":35.76494653,"lon":139.84890299},{"name":"青空っ子こども食堂","province":"東京都","city":"葛飾区","address":"東京都葛飾区お花茶屋3丁目5-6","lat":35.75648368,"lon":139.84306772},{"name":"こども食堂　トコ","province":"東京都","city":"葛飾区","address":"東京都葛飾区東水元2-35-16","lat":35.7807536,"lon":139.868906},{"name":"ほっこり食堂","province":"東京都","city":"葛飾区","address":"東京都葛飾区立石8丁目51-7","lat":35.73898869,"lon":139.85940314},{"name":"マミー子ども食堂","province":"東京都","city":"葛飾区","address":"東京都葛飾区東金町4丁目7-7","lat":35.77312574,"lon":139.87489821},{"name":"(株）伊藤葬祭","province":"東京都","city":"葛飾区","address":"東京都葛飾区新小岩1丁目48-8","lat":35.71652119,"lon":139.85929903},{"name":"(有）上平井葬儀社","province":"東京都","city":"葛飾区","address":"東京都葛飾区西新小岩3丁目39-8","lat":35.72376226,"lon":139.8467885},{"name":"（有）網代屋葬儀社奥戸支店","province":"東京都","city":"葛飾区","address":"東京都葛飾区奥戸3丁目28-11","lat":35.73451157,"lon":139.86399463},{"name":"（有）橋本葬儀社","province":"東京都","city":"葛飾区","address":"東京都葛飾区東立石4丁目46-6","lat":35.73720813,"lon":139.85044291},{"name":"（株）葵式典（島田会館）","province":"東京都","city":"葛飾区","address":"東京都葛飾区四つ木1丁目33-5","lat":35.7345953,"lon":139.8360199},{"name":"東間葬儀社","province":"東京都","city":"葛飾区","address":"東京都葛飾区四つ木2丁目3-9","lat":35.73532582,"lon":139.83486168},{"name":"（株）八木井","province":"東京都","city":"葛飾区","address":"東京都葛飾区堀切2丁目34-2","lat":35.74504354,"lon":139.82592301},{"name":"（有）登坂商店","province":"東京都","city":"葛飾区","address":"東京都葛飾区堀切2丁目35-3","lat":35.74575453,"lon":139.82591738},{"name":"稲垣屋葬儀店","province":"東京都","city":"葛飾区","address":"東京都葛飾区堀切6丁目33-4","lat":35.75318384,"lon":139.82765534},{"name":"（有）秋元商店","province":"東京都","city":"葛飾区","address":"東京都葛飾区東堀切2丁目13-8","lat":35.75377009,"lon":139.83614627},{"name":"（有）セレモニーマルヤマ","province":"東京都","city":"葛飾区","address":"東京都葛飾区青戸3丁目33-18","lat":35.74656001,"lon":139.8554865},{"name":"（有）網代屋葬儀社青戸支店","province":"東京都","city":"葛飾区","address":"東京都葛飾区青戸4丁目22-22","lat":35.74858752,"lon":139.8526561},{"name":"（有）島田富義葬祭式典","province":"東京都","city":"葛飾区","address":"東京都葛飾区亀有3丁目14-10","lat":35.7630218,"lon":139.84898083},{"name":"（有）網代屋葬儀社本店","province":"東京都","city":"葛飾区","address":"東京都葛飾区高砂5丁目35-11","lat":35.7517789,"lon":139.86808531},{"name":"（株）島村葬儀社","province":"東京都","city":"葛飾区","address":"東京都葛飾区金町6丁目1-14","lat":35.76745719,"lon":139.87160132},{"name":"（株）東京供養舎（かなまち会館）","province":"東京都","city":"葛飾区","address":"東京都葛飾区東金町4丁目37-1","lat":35.77491998,"lon":139.87306216},{"name":"立石みんな子ども食堂","province":"東京都","city":"葛飾区","address":"東京都葛飾区立石1丁目21-12","lat":35.73770808,"lon":139.85014569},{"name":"たていしこども食堂実行委員会","province":"東京都","city":"葛飾区","address":"東京都葛飾区立石1丁目21-12","lat":35.73770808,"lon":139.85014569},{"name":"えまいまキッチン","province":"東京都","city":"葛飾区","address":"東京都葛飾区亀有3丁目32-3","lat":35.76494653,"lon":139.84890299},{"name":"青空っ子こども食堂","province":"東京都","city":"葛飾区","address":"東京都葛飾区お花茶屋3丁目5-6","lat":35.75648368,"lon":139.84306772},{"name":"こども食堂　トコ","province":"東京都","city":"葛飾区","address":"東京都葛飾区東水元2-35-16","lat":35.7807536,"lon":139.868906},{"name":"ほっこり食堂","province":"東京都","city":"葛飾区","address":"東京都葛飾区立石8丁目51-7","lat":35.73898869,"lon":139.85940314},{"name":"マミー子ども食堂","province":"東京都","city":"葛飾区","address":"東京都葛飾区東金町4丁目7-7","lat":35.77312574,"lon":139.87489821},{"name":"(株）伊藤葬祭","province":"東京都","city":"葛飾区","address":"東京都葛飾区新小岩1丁目48-8","lat":35.71652119,"lon":139.85929903},{"name":"(有）上平井葬儀社","province":"東京都","city":"葛飾区","address":"東京都葛飾区西新小岩3丁目39-8","lat":35.72376226,"lon":139.8467885},{"name":"（有）網代屋葬儀社奥戸支店","province":"東京都","city":"葛飾区","address":"東京都葛飾区奥戸3丁目28-11","lat":35.73451157,"lon":139.86399463},{"name":"（有）橋本葬儀社","province":"東京都","city":"葛飾区","address":"東京都葛飾区東立石4丁目46-6","lat":35.73720813,"lon":139.85044291},{"name":"（株）葵式典（島田会館）","province":"東京都","city":"葛飾区","address":"東京都葛飾区四つ木1丁目33-5","lat":35.7345953,"lon":139.8360199},{"name":"東間葬儀社","province":"東京都","city":"葛飾区","address":"東京都葛飾区四つ木2丁目3-9","lat":35.73532582,"lon":139.83486168},{"name":"（株）八木井","province":"東京都","city":"葛飾区","address":"東京都葛飾区堀切2丁目34-2","lat":35.74504354,"lon":139.82592301},{"name":"（有）登坂商店","province":"東京都","city":"葛飾区","address":"東京都葛飾区堀切2丁目35-3","lat":35.74575453,"lon":139.82591738},{"name":"稲垣屋葬儀店","province":"東京都","city":"葛飾区","address":"東京都葛飾区堀切6丁目33-4","lat":35.75318384,"lon":139.82765534},{"name":"（有）秋元商店","province":"東京都","city":"葛飾区","address":"東京都葛飾区東堀切2丁目13-8","lat":35.75377009,"lon":139.83614627},{"name":"（有）セレモニーマルヤマ","province":"東京都","city":"葛飾区","address":"東京都葛飾区青戸3丁目33-18","lat":35.74656001,"lon":139.8554865},{"name":"（有）網代屋葬儀社青戸支店","province":"東京都","city":"葛飾区","address":"東京都葛飾区青戸4丁目22-22","lat":35.74858752,"lon":139.8526561},{"name":"（有）島田富義葬祭式典","province":"東京都","city":"葛飾区","address":"東京都葛飾区亀有3丁目14-10","lat":35.7630218,"lon":139.84898083},{"name":"（有）網代屋葬儀社本店","province":"東京都","city":"葛飾区","address":"東京都葛飾区高砂5丁目35-11","lat":35.7517789,"lon":139.86808531},{"name":"（株）島村葬儀社","province":"東京都","city":"葛飾区","address":"東京都葛飾区金町6丁目1-14","lat":35.76745719,"lon":139.87160132},{"name":"（株）東京供養舎（かなまち会館）","province":"東京都","city":"葛飾区","address":"東京都葛飾区東金町4丁目37-1","lat":35.77491998,"lon":139.87306216},{"name":"立石みんな子ども食堂","province":"東京都","city":"葛飾区","address":"東京都葛飾区立石1丁目21-12","lat":35.73770808,"lon":139.85014569},{"name":"たていしこども食堂実行委員会","province":"東京都","city":"葛飾区","address":"東京都葛飾区立石1丁目21-12","lat":35.73770808,"lon":139.85014569},{"name":"えまいまキッチン","province":"東京都","city":"葛飾区","address":"東京都葛飾区亀有3丁目32-3","lat":35.76494653,"lon":139.84890299},{"name":"青空っ子こども食堂","province":"東京都","city":"葛飾区","address":"東京都葛飾区お花茶屋3丁目5-6","lat":35.75648368,"lon":139.84306772},{"name":"こども食堂　トコ","province":"東京都","city":"葛飾区","address":"東京都葛飾区東水元2-35-16","lat":35.7807536,"lon":139.868906},{"name":"ほっこり食堂","province":"東京都","city":"葛飾区","address":"東京都葛飾区立石8丁目51-7","lat":35.73898869,"lon":139.85940314},{"name":"マミー子ども食堂","province":"東京都","city":"葛飾区","address":"東京都葛飾区東金町4丁目7-7","lat":35.77312574,"lon":139.87489821},{"name":"(株）伊藤葬祭","province":"東京都","city":"葛飾区","address":"東京都葛飾区新小岩1丁目48-8","lat":35.71652119,"lon":139.85929903},{"name":"(有）上平井葬儀社","province":"東京都","city":"葛飾区","address":"東京都葛飾区西新小岩3丁目39-8","lat":35.72376226,"lon":139.8467885},{"name":"（有）網代屋葬儀社奥戸支店","province":"東京都","city":"葛飾区","address":"東京都葛飾区奥戸3丁目28-11","lat":35.73451157,"lon":139.86399463},{"name":"（有）橋本葬儀社","province":"東京都","city":"葛飾区","address":"東京都葛飾区東立石4丁目46-6","lat":35.73720813,"lon":139.85044291},{"name":"（株）葵式典（島田会館）","province":"東京都","city":"葛飾区","address":"東京都葛飾区四つ木1丁目33-5","lat":35.7345953,"lon":139.8360199},{"name":"東間葬儀社","province":"東京都","city":"葛飾区","address":"東京都葛飾区四つ木2丁目3-9","lat":35.73532582,"lon":139.83486168},{"name":"（株）八木井","province":"東京都","city":"葛飾区","address":"東京都葛飾区堀切2丁目34-2","lat":35.74504354,"lon":139.82592301},{"name":"（有）登坂商店","province":"東京都","city":"葛飾区","address":"東京都葛飾区堀切2丁目35-3","lat":35.74575453,"lon":139.82591738},{"name":"稲垣屋葬儀店","province":"東京都","city":"葛飾区","address":"東京都葛飾区堀切6丁目33-4","lat":35.75318384,"lon":139.82765534},{"name":"（有）秋元商店","province":"東京都","city":"葛飾区","address":"東京都葛飾区東堀切2丁目13-8","lat":35.75377009,"lon":139.83614627},{"name":"（有）セレモニーマルヤマ","province":"東京都","city":"葛飾区","address":"東京都葛飾区青戸3丁目33-18","lat":35.74656001,"lon":139.8554865},{"name":"（有）網代屋葬儀社青戸支店","province":"東京都","city":"葛飾区","address":"東京都葛飾区青戸4丁目22-22","lat":35.74858752,"lon":139.8526561},{"name":"（有）島田富義葬祭式典","province":"東京都","city":"葛飾区","address":"東京都葛飾区亀有3丁目14-10","lat":35.7630218,"lon":139.84898083},{"name":"（有）網代屋葬儀社本店","province":"東京都","city":"葛飾区","address":"東京都葛飾区高砂5丁目35-11","lat":35.7517789,"lon":139.86808531},{"name":"（株）島村葬儀社","province":"東京都","city":"葛飾区","address":"東京都葛飾区金町6丁目1-14","lat":35.76745719,"lon":139.87160132},{"name":"（株）東京供養舎（かなまち会館）","province":"東京都","city":"葛飾区","address":"東京都葛飾区東金町4丁目37-1","lat":35.77491998,"lon":139.87306216},{"name":"立石みんな子ども食堂","province":"東京都","city":"葛飾区","address":"東京都葛飾区立石1丁目21-12","lat":35.73770808,"lon":139.85014569},{"name":"たていしこども食堂実行委員会","province":"東京都","city":"葛飾区","address":"東京都葛飾区立石1丁目21-12","lat":35.73770808,"lon":139.85014569},{"name":"えまいまキッチン","province":"東京都","city":"葛飾区","address":"東京都葛飾区亀有3丁目32-3","lat":35.76494653,"lon":139.84890299},{"name":"青空っ子こども食堂","province":"東京都","city":"葛飾区","address":"東京都葛飾区お花茶屋3丁目5-6","lat":35.75648368,"lon":139.84306772},{"name":"こども食堂　トコ","province":"東京都","city":"葛飾区","address":"東京都葛飾区東水元2-35-16","lat":35.7807536,"lon":139.868906},{"name":"ほっこり食堂","province":"東京都","city":"葛飾区","address":"東京都葛飾区立石8丁目51-7","lat":35.73898869,"lon":139.85940314},{"name":"マミー子ども食堂","province":"東京都","city":"葛飾区","address":"東京都葛飾区東金町4丁目7-7","lat":35.77312574,"lon":139.87489821},{"name":"(株）伊藤葬祭","province":"東京都","city":"葛飾区","address":"東京都葛飾区新小岩1丁目48-8","lat":35.71652119,"lon":139.85929903},{"name":"(有）上平井葬儀社","province":"東京都","city":"葛飾区","address":"東京都葛飾区西新小岩3丁目39-8","lat":35.72376226,"lon":139.8467885},{"name":"（有）網代屋葬儀社奥戸支店","province":"東京都","city":"葛飾区","address":"東京都葛飾区奥戸3丁目28-11","lat":35.73451157,"lon":139.86399463},{"name":"（有）橋本葬儀社","province":"東京都","city":"葛飾区","address":"東京都葛飾区東立石4丁目46-6","lat":35.73720813,"lon":139.85044291},{"name":"（株）葵式典（島田会館）","province":"東京都","city":"葛飾区","address":"東京都葛飾区四つ木1丁目33-5","lat":35.7345953,"lon":139.8360199},{"name":"東間葬儀社","province":"東京都","city":"葛飾区","address":"東京都葛飾区四つ木2丁目3-9","lat":35.73532582,"lon":139.83486168},{"name":"（株）八木井","province":"東京都","city":"葛飾区","address":"東京都葛飾区堀切2丁目34-2","lat":35.74504354,"lon":139.82592301},{"name":"（有）登坂商店","province":"東京都","city":"葛飾区","address":"東京都葛飾区堀切2丁目35-3","lat":35.74575453,"lon":139.82591738},{"name":"稲垣屋葬儀店","province":"東京都","city":"葛飾区","address":"東京都葛飾区堀切6丁目33-4","lat":35.75318384,"lon":139.82765534},{"name":"（有）秋元商店","province":"東京都","city":"葛飾区","address":"東京都葛飾区東堀切2丁目13-8","lat":35.75377009,"lon":139.83614627},{"name":"（有）セレモニーマルヤマ","province":"東京都","city":"葛飾区","address":"東京都葛飾区青戸3丁目33-18","lat":35.74656001,"lon":139.8554865},{"name":"（有）網代屋葬儀社青戸支店","province":"東京都","city":"葛飾区","address":"東京都葛飾区青戸4丁目22-22","lat":35.74858752,"lon":139.8526561},{"name":"（有）島田富義葬祭式典","province":"東京都","city":"葛飾区","address":"東京都葛飾区亀有3丁目14-10","lat":35.7630218,"lon":139.84898083},{"name":"（有）網代屋葬儀社本店","province":"東京都","city":"葛飾区","address":"東京都葛飾区高砂5丁目35-11","lat":35.7517789,"lon":139.86808531},{"name":"（株）島村葬儀社","province":"東京都","city":"葛飾区","address":"東京都葛飾区金町6丁目1-14","lat":35.76745719,"lon":139.87160132},{"name":"（株）東京供養舎（かなまち会館）","province":"東京都","city":"葛飾区","address":"東京都葛飾区東金町4丁目37-1","lat":35.77491998,"lon":139.87306216},{"name":"立石みんな子ども食堂","province":"東京都","city":"葛飾区","address":"東京都葛飾区立石1丁目21-12","lat":35.73770808,"lon":139.85014569},{"name":"たていしこども食堂実行委員会","province":"東京都","city":"葛飾区","address":"東京都葛飾区立石1丁目21-12","lat":35.73770808,"lon":139.85014569},{"name":"えまいまキッチン","province":"東京都","city":"葛飾区","address":"東京都葛飾区亀有3丁目32-3","lat":35.76494653,"lon":139.84890299},{"name":"青空っ子こども食堂","province":"東京都","city":"葛飾区","address":"東京都葛飾区お花茶屋3丁目5-6","lat":35.75648368,"lon":139.84306772},{"name":"こども食堂　トコ","province":"東京都","city":"葛飾区","address":"東京都葛飾区東水元2-35-16","lat":35.7807536,"lon":139.868906},{"name":"ほっこり食堂","province":"東京都","city":"葛飾区","address":"東京都葛飾区立石8丁目51-7","lat":35.73898869,"lon":139.85940314},{"name":"マミー子ども食堂","province":"東京都","city":"葛飾区","address":"東京都葛飾区東金町4丁目7-7","lat":35.77312574,"lon":139.87489821},{"name":"(株）伊藤葬祭","province":"東京都","city":"葛飾区","address":"東京都葛飾区新小岩1丁目48-8","lat":35.71652119,"lon":139.85929903},{"name":"(有）上平井葬儀社","province":"東京都","city":"葛飾区","address":"東京都葛飾区西新小岩3丁目39-8","lat":35.72376226,"lon":139.8467885},{"name":"（有）網代屋葬儀社奥戸支店","province":"東京都","city":"葛飾区","address":"東京都葛飾区奥戸3丁目28-11","lat":35.73451157,"lon":139.86399463},{"name":"（有）橋本葬儀社","province":"東京都","city":"葛飾区","address":"東京都葛飾区東立石4丁目46-6","lat":35.73720813,"lon":139.85044291},{"name":"（株）葵式典（島田会館）","province":"東京都","city":"葛飾区","address":"東京都葛飾区四つ木1丁目33-5","lat":35.7345953,"lon":139.8360199},{"name":"東間葬儀社","province":"東京都","city":"葛飾区","address":"東京都葛飾区四つ木2丁目3-9","lat":35.73532582,"lon":139.83486168},{"name":"（株）八木井","province":"東京都","city":"葛飾区","address":"東京都葛飾区堀切2丁目34-2","lat":35.74504354,"lon":139.82592301},{"name":"（有）登坂商店","province":"東京都","city":"葛飾区","address":"東京都葛飾区堀切2丁目35-3","lat":35.74575453,"lon":139.82591738},{"name":"稲垣屋葬儀店","province":"東京都","city":"葛飾区","address":"東京都葛飾区堀切6丁目33-4","lat":35.75318384,"lon":139.82765534},{"name":"（有）秋元商店","province":"東京都","city":"葛飾区","address":"東京都葛飾区東堀切2丁目13-8","lat":35.75377009,"lon":139.83614627},{"name":"（有）セレモニーマルヤマ","province":"東京都","city":"葛飾区","address":"東京都葛飾区青戸3丁目33-18","lat":35.74656001,"lon":139.8554865},{"name":"（有）網代屋葬儀社青戸支店","province":"東京都","city":"葛飾区","address":"東京都葛飾区青戸4丁目22-22","lat":35.74858752,"lon":139.8526561},{"name":"（有）島田富義葬祭式典","province":"東京都","city":"葛飾区","address":"東京都葛飾区亀有3丁目14-10","lat":35.7630218,"lon":139.84898083},{"name":"（有）網代屋葬儀社本店","province":"東京都","city":"葛飾区","address":"東京都葛飾区高砂5丁目35-11","lat":35.7517789,"lon":139.86808531},{"name":"（株）島村葬儀社","province":"東京都","city":"葛飾区","address":"東京都葛飾区金町6丁目1-14","lat":35.76745719,"lon":139.87160132},{"name":"（株）東京供養舎（かなまち会館）","province":"東京都","city":"葛飾区","address":"東京都葛飾区東金町4丁目37-1","lat":35.77491998,"lon":139.87306216},{"name":"立石みんな子ども食堂","province":"東京都","city":"葛飾区","address":"東京都葛飾区立石1丁目21-12","lat":35.73770808,"lon":139.85014569},{"name":"たていしこども食堂実行委員会","province":"東京都","city":"葛飾区","address":"東京都葛飾区立石1丁目21-12","lat":35.73770808,"lon":139.85014569},{"name":"えまいまキッチン","province":"東京都","city":"葛飾区","address":"東京都葛飾区亀有3丁目32-3","lat":35.76494653,"lon":139.84890299},{"name":"青空っ子こども食堂","province":"東京都","city":"葛飾区","address":"東京都葛飾区お花茶屋3丁目5-6","lat":35.75648368,"lon":139.84306772},{"name":"こども食堂　トコ","province":"東京都","city":"葛飾区","address":"東京都葛飾区東水元2-35-16","lat":35.7807536,"lon":139.868906},{"name":"ほっこり食堂","province":"東京都","city":"葛飾区","address":"東京都葛飾区立石8丁目51-7","lat":35.73898869,"lon":139.85940314},{"name":"マミー子ども食堂","province":"東京都","city":"葛飾区","address":"東京都葛飾区東金町4丁目7-7","lat":35.77312574,"lon":139.87489821},{"name":"(株）伊藤葬祭","province":"東京都","city":"葛飾区","address":"東京都葛飾区新小岩1丁目48-8","lat":35.71652119,"lon":139.85929903},{"name":"(有）上平井葬儀社","province":"東京都","city":"葛飾区","address":"東京都葛飾区西新小岩3丁目39-8","lat":35.72376226,"lon":139.8467885},{"name":"（有）網代屋葬儀社奥戸支店","province":"東京都","city":"葛飾区","address":"東京都葛飾区奥戸3丁目28-11","lat":35.73451157,"lon":139.86399463},{"name":"（有）橋本葬儀社","province":"東京都","city":"葛飾区","address":"東京都葛飾区東立石4丁目46-6","lat":35.73720813,"lon":139.85044291},{"name":"（株）葵式典（島田会館）","province":"東京都","city":"葛飾区","address":"東京都葛飾区四つ木1丁目33-5","lat":35.7345953,"lon":139.8360199},{"name":"東間葬儀社","province":"東京都","city":"葛飾区","address":"東京都葛飾区四つ木2丁目3-9","lat":35.73532582,"lon":139.83486168},{"name":"（株）八木井","province":"東京都","city":"葛飾区","address":"東京都葛飾区堀切2丁目34-2","lat":35.74504354,"lon":139.82592301},{"name":"（有）登坂商店","province":"東京都","city":"葛飾区","address":"東京都葛飾区堀切2丁目35-3","lat":35.74575453,"lon":139.82591738},{"name":"稲垣屋葬儀店","province":"東京都","city":"葛飾区","address":"東京都葛飾区堀切6丁目33-4","lat":35.75318384,"lon":139.82765534},{"name":"（有）秋元商店","province":"東京都","city":"葛飾区","address":"東京都葛飾区東堀切2丁目13-8","lat":35.75377009,"lon":139.83614627},{"name":"（有）セレモニーマルヤマ","province":"東京都","city":"葛飾区","address":"東京都葛飾区青戸3丁目33-18","lat":35.74656001,"lon":139.8554865},{"name":"（有）網代屋葬儀社青戸支店","province":"東京都","city":"葛飾区","address":"東京都葛飾区青戸4丁目22-22","lat":35.74858752,"lon":139.8526561},{"name":"（有）島田富義葬祭式典","province":"東京都","city":"葛飾区","address":"東京都葛飾区亀有3丁目14-10","lat":35.7630218,"lon":139.84898083},{"name":"（有）網代屋葬儀社本店","province":"東京都","city":"葛飾区","address":"東京都葛飾区高砂5丁目35-11","lat":35.7517789,"lon":139.86808531},{"name":"（株）島村葬儀社","province":"東京都","city":"葛飾区","address":"東京都葛飾区金町6丁目1-14","lat":35.76745719,"lon":139.87160132},{"name":"（株）東京供養舎（かなまち会館）","province":"東京都","city":"葛飾区","address":"東京都葛飾区東金町4丁目37-1","lat":35.77491998,"lon":139.87306216},{"name":"立石みんな子ども食堂","province":"東京都","city":"葛飾区","address":"東京都葛飾区立石1丁目21-12","lat":35.73770808,"lon":139.85014569},{"name":"たていしこども食堂実行委員会","province":"東京都","city":"葛飾区","address":"東京都葛飾区立石1丁目21-12","lat":35.73770808,"lon":139.85014569},{"name":"えまいまキッチン","province":"東京都","city":"葛飾区","address":"東京都葛飾区亀有3丁目32-3","lat":35.76494653,"lon":139.84890299},{"name":"青空っ子こども食堂","province":"東京都","city":"葛飾区","address":"東京都葛飾区お花茶屋3丁目5-6","lat":35.75648368,"lon":139.84306772},{"name":"こども食堂　トコ","province":"東京都","city":"葛飾区","address":"東京都葛飾区東水元2-35-16","lat":35.7807536,"lon":139.868906},{"name":"ほっこり食堂","province":"東京都","city":"葛飾区","address":"東京都葛飾区立石8丁目51-7","lat":35.73898869,"lon":139.85940314},{"name":"マミー子ども食堂","province":"東京都","city":"葛飾区","address":"東京都葛飾区東金町4丁目7-7","lat":35.77312574,"lon":139.87489821},{"name":"(株）伊藤葬祭","province":"東京都","city":"葛飾区","address":"東京都葛飾区新小岩1丁目48-8","lat":35.71652119,"lon":139.85929903},{"name":"(有）上平井葬儀社","province":"東京都","city":"葛飾区","address":"東京都葛飾区西新小岩3丁目39-8","lat":35.72376226,"lon":139.8467885},{"name":"（有）網代屋葬儀社奥戸支店","province":"東京都","city":"葛飾区","address":"東京都葛飾区奥戸3丁目28-11","lat":35.73451157,"lon":139.86399463},{"name":"（有）橋本葬儀社","province":"東京都","city":"葛飾区","address":"東京都葛飾区東立石4丁目46-6","lat":35.73720813,"lon":139.85044291},{"name":"（株）葵式典（島田会館）","province":"東京都","city":"葛飾区","address":"東京都葛飾区四つ木1丁目33-5","lat":35.7345953,"lon":139.8360199},{"name":"東間葬儀社","province":"東京都","city":"葛飾区","address":"東京都葛飾区四つ木2丁目3-9","lat":35.73532582,"lon":139.83486168},{"name":"（株）八木井","province":"東京都","city":"葛飾区","address":"東京都葛飾区堀切2丁目34-2","lat":35.74504354,"lon":139.82592301},{"name":"（有）登坂商店","province":"東京都","city":"葛飾区","address":"東京都葛飾区堀切2丁目35-3","lat":35.74575453,"lon":139.82591738},{"name":"稲垣屋葬儀店","province":"東京都","city":"葛飾区","address":"東京都葛飾区堀切6丁目33-4","lat":35.75318384,"lon":139.82765534},{"name":"（有）秋元商店","province":"東京都","city":"葛飾区","address":"東京都葛飾区東堀切2丁目13-8","lat":35.75377009,"lon":139.83614627},{"name":"（有）セレモニーマルヤマ","province":"東京都","city":"葛飾区","address":"東京都葛飾区青戸3丁目33-18","lat":35.74656001,"lon":139.8554865},{"name":"（有）網代屋葬儀社青戸支店","province":"東京都","city":"葛飾区","address":"東京都葛飾区青戸4丁目22-22","lat":35.74858752,"lon":139.8526561},{"name":"（有）島田富義葬祭式典","province":"東京都","city":"葛飾区","address":"東京都葛飾区亀有3丁目14-10","lat":35.7630218,"lon":139.84898083},{"name":"（有）網代屋葬儀社本店","province":"東京都","city":"葛飾区","address":"東京都葛飾区高砂5丁目35-11","lat":35.7517789,"lon":139.86808531},{"name":"（株）島村葬儀社","province":"東京都","city":"葛飾区","address":"東京都葛飾区金町6丁目1-14","lat":35.76745719,"lon":139.87160132},{"name":"（株）東京供養舎（かなまち会館）","province":"東京都","city":"葛飾区","address":"東京都葛飾区東金町4丁目37-1","lat":35.77491998,"lon":139.87306216},{"name":"立石みんな子ども食堂","province":"東京都","city":"葛飾区","address":"東京都葛飾区立石1丁目21-12","lat":35.73770808,"lon":139.85014569},{"name":"たていしこども食堂実行委員会","province":"東京都","city":"葛飾区","address":"東京都葛飾区立石1丁目21-12","lat":35.73770808,"lon":139.85014569},{"name":"えまいまキッチン","province":"東京都","city":"葛飾区","address":"東京都葛飾区亀有3丁目32-3","lat":35.76494653,"lon":139.84890299},{"name":"青空っ子こども食堂","province":"東京都","city":"葛飾区","address":"東京都葛飾区お花茶屋3丁目5-6","lat":35.75648368,"lon":139.84306772},{"name":"こども食堂　トコ","province":"東京都","city":"葛飾区","address":"東京都葛飾区東水元2-35-16","lat":35.7807536,"lon":139.868906},{"name":"ほっこり食堂","province":"東京都","city":"葛飾区","address":"東京都葛飾区立石8丁目51-7","lat":35.73898869,"lon":139.85940314},{"name":"マミー子ども食堂","province":"東京都","city":"葛飾区","address":"東京都葛飾区東金町4丁目7-7","lat":35.77312574,"lon":139.87489821},{"name":"(株）伊藤葬祭","province":"東京都","city":"葛飾区","address":"東京都葛飾区新小岩1丁目48-8","lat":35.71652119,"lon":139.85929903},{"name":"(有）上平井葬儀社","province":"東京都","city":"葛飾区","address":"東京都葛飾区西新小岩3丁目39-8","lat":35.72376226,"lon":139.8467885},{"name":"（有）網代屋葬儀社奥戸支店","province":"東京都","city":"葛飾区","address":"東京都葛飾区奥戸3丁目28-11","lat":35.73451157,"lon":139.86399463},{"name":"（有）橋本葬儀社","province":"東京都","city":"葛飾区","address":"東京都葛飾区東立石4丁目46-6","lat":35.73720813,"lon":139.85044291},{"name":"（株）葵式典（島田会館）","province":"東京都","city":"葛飾区","address":"東京都葛飾区四つ木1丁目33-5","lat":35.7345953,"lon":139.8360199},{"name":"東間葬儀社","province":"東京都","city":"葛飾区","address":"東京都葛飾区四つ木2丁目3-9","lat":35.73532582,"lon":139.83486168},{"name":"（株）八木井","province":"東京都","city":"葛飾区","address":"東京都葛飾区堀切2丁目34-2","lat":35.74504354,"lon":139.82592301},{"name":"（有）登坂商店","province":"東京都","city":"葛飾区","address":"東京都葛飾区堀切2丁目35-3","lat":35.74575453,"lon":139.82591738},{"name":"稲垣屋葬儀店","province":"東京都","city":"葛飾区","address":"東京都葛飾区堀切6丁目33-4","lat":35.75318384,"lon":139.82765534},{"name":"（有）秋元商店","province":"東京都","city":"葛飾区","address":"東京都葛飾区東堀切2丁目13-8","lat":35.75377009,"lon":139.83614627},{"name":"（有）セレモニーマルヤマ","province":"東京都","city":"葛飾区","address":"東京都葛飾区青戸3丁目33-18","lat":35.74656001,"lon":139.8554865},{"name":"（有）網代屋葬儀社青戸支店","province":"東京都","city":"葛飾区","address":"東京都葛飾区青戸4丁目22-22","lat":35.74858752,"lon":139.8526561},{"name":"（有）島田富義葬祭式典","province":"東京都","city":"葛飾区","address":"東京都葛飾区亀有3丁目14-10","lat":35.7630218,"lon":139.84898083},{"name":"（有）網代屋葬儀社本店","province":"東京都","city":"葛飾区","address":"東京都葛飾区高砂5丁目35-11","lat":35.7517789,"lon":139.86808531},{"name":"（株）島村葬儀社","province":"東京都","city":"葛飾区","address":"東京都葛飾区金町6丁目1-14","lat":35.76745719,"lon":139.87160132},{"name":"（株）東京供養舎（かなまち会館）","province":"東京都","city":"葛飾区","address":"東京都葛飾区東金町4丁目37-1","lat":35.77491998,"lon":139.87306216},{"name":"立石みんな子ども食堂","province":"東京都","city":"葛飾区","address":"東京都葛飾区立石1丁目21-12","lat":35.73770808,"lon":139.85014569},{"name":"たていしこども食堂実行委員会","province":"東京都","city":"葛飾区","address":"東京都葛飾区立石1丁目21-12","lat":35.73770808,"lon":139.85014569},{"name":"えまいまキッチン","province":"東京都","city":"葛飾区","address":"東京都葛飾区亀有3丁目32-3","lat":35.76494653,"lon":139.84890299},{"name":"青空っ子こども食堂","province":"東京都","city":"葛飾区","address":"東京都葛飾区お花茶屋3丁目5-6","lat":35.75648368,"lon":139.84306772},{"name":"こども食堂　トコ","province":"東京都","city":"葛飾区","address":"東京都葛飾区東水元2-35-16","lat":35.7807536,"lon":139.868906},{"name":"ほっこり食堂","province":"東京都","city":"葛飾区","address":"東京都葛飾区立石8丁目51-7","lat":35.73898869,"lon":139.85940314},{"name":"マミー子ども食堂","province":"東京都","city":"葛飾区","address":"東京都葛飾区東金町4丁目7-7","lat":35.77312574,"lon":139.87489821},{"name":"(株）伊藤葬祭","province":"東京都","city":"葛飾区","address":"東京都葛飾区新小岩1丁目48-8","lat":35.71652119,"lon":139.85929903},{"name":"(有）上平井葬儀社","province":"東京都","city":"葛飾区","address":"東京都葛飾区西新小岩3丁目39-8","lat":35.72376226,"lon":139.8467885},{"name":"（有）網代屋葬儀社奥戸支店","province":"東京都","city":"葛飾区","address":"東京都葛飾区奥戸3丁目28-11","lat":35.73451157,"lon":139.86399463},{"name":"（有）橋本葬儀社","province":"東京都","city":"葛飾区","address":"東京都葛飾区東立石4丁目46-6","lat":35.73720813,"lon":139.85044291},{"name":"（株）葵式典（島田会館）","province":"東京都","city":"葛飾区","address":"東京都葛飾区四つ木1丁目33-5","lat":35.7345953,"lon":139.8360199},{"name":"東間葬儀社","province":"東京都","city":"葛飾区","address":"東京都葛飾区四つ木2丁目3-9","lat":35.73532582,"lon":139.83486168},{"name":"（株）八木井","province":"東京都","city":"葛飾区","address":"東京都葛飾区堀切2丁目34-2","lat":35.74504354,"lon":139.82592301},{"name":"（有）登坂商店","province":"東京都","city":"葛飾区","address":"東京都葛飾区堀切2丁目35-3","lat":35.74575453,"lon":139.82591738},{"name":"稲垣屋葬儀店","province":"東京都","city":"葛飾区","address":"東京都葛飾区堀切6丁目33-4","lat":35.75318384,"lon":139.82765534},{"name":"（有）秋元商店","province":"東京都","city":"葛飾区","address":"東京都葛飾区東堀切2丁目13-8","lat":35.75377009,"lon":139.83614627},{"name":"（有）セレモニーマルヤマ","province":"東京都","city":"葛飾区","address":"東京都葛飾区青戸3丁目33-18","lat":35.74656001,"lon":139.8554865},{"name":"（有）網代屋葬儀社青戸支店","province":"東京都","city":"葛飾区","address":"東京都葛飾区青戸4丁目22-22","lat":35.74858752,"lon":139.8526561},{"name":"（有）島田富義葬祭式典","province":"東京都","city":"葛飾区","address":"東京都葛飾区亀有3丁目14-10","lat":35.7630218,"lon":139.84898083},{"name":"（有）網代屋葬儀社本店","province":"東京都","city":"葛飾区","address":"東京都葛飾区高砂5丁目35-11","lat":35.7517789,"lon":139.86808531},{"name":"（株）島村葬儀社","province":"東京都","city":"葛飾区","address":"東京都葛飾区金町6丁目1-14","lat":35.76745719,"lon":139.87160132},{"name":"（株）東京供養舎（かなまち会館）","province":"東京都","city":"葛飾区","address":"東京都葛飾区東金町4丁目37-1","lat":35.77491998,"lon":139.87306216},{"name":"立石みんな子ども食堂","province":"東京都","city":"葛飾区","address":"東京都葛飾区立石1丁目21-12","lat":35.73770808,"lon":139.85014569},{"name":"たていしこども食堂実行委員会","province":"東京都","city":"葛飾区","address":"東京都葛飾区立石1丁目21-12","lat":35.73770808,"lon":139.85014569},{"name":"えまいまキッチン","province":"東京都","city":"葛飾区","address":"東京都葛飾区亀有3丁目32-3","lat":35.76494653,"lon":139.84890299},{"name":"青空っ子こども食堂","province":"東京都","city":"葛飾区","address":"東京都葛飾区お花茶屋3丁目5-6","lat":35.75648368,"lon":139.84306772},{"name":"こども食堂　トコ","province":"東京都","city":"葛飾区","address":"東京都葛飾区東水元2-35-16","lat":35.7807536,"lon":139.868906},{"name":"ほっこり食堂","province":"東京都","city":"葛飾区","address":"東京都葛飾区立石8丁目51-7","lat":35.73898869,"lon":139.85940314},{"name":"マミー子ども食堂","province":"東京都","city":"葛飾区","address":"東京都葛飾区東金町4丁目7-7","lat":35.77312574,"lon":139.87489821},{"name":"(株）伊藤葬祭","province":"東京都","city":"葛飾区","address":"東京都葛飾区新小岩1丁目48-8","lat":35.71652119,"lon":139.85929903},{"name":"(有）上平井葬儀社","province":"東京都","city":"葛飾区","address":"東京都葛飾区西新小岩3丁目39-8","lat":35.72376226,"lon":139.8467885},{"name":"（有）網代屋葬儀社奥戸支店","province":"東京都","city":"葛飾区","address":"東京都葛飾区奥戸3丁目28-11","lat":35.73451157,"lon":139.86399463},{"name":"（有）橋本葬儀社","province":"東京都","city":"葛飾区","address":"東京都葛飾区東立石4丁目46-6","lat":35.73720813,"lon":139.85044291},{"name":"（株）葵式典（島田会館）","province":"東京都","city":"葛飾区","address":"東京都葛飾区四つ木1丁目33-5","lat":35.7345953,"lon":139.8360199},{"name":"東間葬儀社","province":"東京都","city":"葛飾区","address":"東京都葛飾区四つ木2丁目3-9","lat":35.73532582,"lon":139.83486168},{"name":"（株）八木井","province":"東京都","city":"葛飾区","address":"東京都葛飾区堀切2丁目34-2","lat":35.74504354,"lon":139.82592301},{"name":"（有）登坂商店","province":"東京都","city":"葛飾区","address":"東京都葛飾区堀切2丁目35-3","lat":35.74575453,"lon":139.82591738},{"name":"稲垣屋葬儀店","province":"東京都","city":"葛飾区","address":"東京都葛飾区堀切6丁目33-4","lat":35.75318384,"lon":139.82765534},{"name":"（有）秋元商店","province":"東京都","city":"葛飾区","address":"東京都葛飾区東堀切2丁目13-8","lat":35.75377009,"lon":139.83614627},{"name":"（有）セレモニーマルヤマ","province":"東京都","city":"葛飾区","address":"東京都葛飾区青戸3丁目33-18","lat":35.74656001,"lon":139.8554865},{"name":"（有）網代屋葬儀社青戸支店","province":"東京都","city":"葛飾区","address":"東京都葛飾区青戸4丁目22-22","lat":35.74858752,"lon":139.8526561},{"name":"（有）島田富義葬祭式典","province":"東京都","city":"葛飾区","address":"東京都葛飾区亀有3丁目14-10","lat":35.7630218,"lon":139.84898083},{"name":"（有）網代屋葬儀社本店","province":"東京都","city":"葛飾区","address":"東京都葛飾区高砂5丁目35-11","lat":35.7517789,"lon":139.86808531},{"name":"（株）島村葬儀社","province":"東京都","city":"葛飾区","address":"東京都葛飾区金町6丁目1-14","lat":35.76745719,"lon":139.87160132},{"name":"（株）東京供養舎（かなまち会館）","province":"東京都","city":"葛飾区","address":"東京都葛飾区東金町4丁目37-1","lat":35.77491998,"lon":139.87306216},{"name":"立石みんな子ども食堂","province":"東京都","city":"葛飾区","address":"東京都葛飾区立石1丁目21-12","lat":35.73770808,"lon":139.85014569},{"name":"たていしこども食堂実行委員会","province":"東京都","city":"葛飾区","address":"東京都葛飾区立石1丁目21-12","lat":35.73770808,"lon":139.85014569},{"name":"えまいまキッチン","province":"東京都","city":"葛飾区","address":"東京都葛飾区亀有3丁目32-3","lat":35.76494653,"lon":139.84890299},{"name":"青空っ子こども食堂","province":"東京都","city":"葛飾区","address":"東京都葛飾区お花茶屋3丁目5-6","lat":35.75648368,"lon":139.84306772},{"name":"こども食堂　トコ","province":"東京都","city":"葛飾区","address":"東京都葛飾区東水元2-35-16","lat":35.7807536,"lon":139.868906},{"name":"ほっこり食堂","province":"東京都","city":"葛飾区","address":"東京都葛飾区立石8丁目51-7","lat":35.73898869,"lon":139.85940314},{"name":"マミー子ども食堂","province":"東京都","city":"葛飾区","address":"東京都葛飾区東金町4丁目7-7","lat":35.77312574,"lon":139.87489821},{"name":"(株）伊藤葬祭","province":"東京都","city":"葛飾区","address":"東京都葛飾区新小岩1丁目48-8","lat":35.71652119,"lon":139.85929903},{"name":"(有）上平井葬儀社","province":"東京都","city":"葛飾区","address":"東京都葛飾区西新小岩3丁目39-8","lat":35.72376226,"lon":139.8467885},{"name":"（有）網代屋葬儀社奥戸支店","province":"東京都","city":"葛飾区","address":"東京都葛飾区奥戸3丁目28-11","lat":35.73451157,"lon":139.86399463},{"name":"（有）橋本葬儀社","province":"東京都","city":"葛飾区","address":"東京都葛飾区東立石4丁目46-6","lat":35.73720813,"lon":139.85044291},{"name":"（株）葵式典（島田会館）","province":"東京都","city":"葛飾区","address":"東京都葛飾区四つ木1丁目33-5","lat":35.7345953,"lon":139.8360199},{"name":"東間葬儀社","province":"東京都","city":"葛飾区","address":"東京都葛飾区四つ木2丁目3-9","lat":35.73532582,"lon":139.83486168},{"name":"（株）八木井","province":"東京都","city":"葛飾区","address":"東京都葛飾区堀切2丁目34-2","lat":35.74504354,"lon":139.82592301},{"name":"（有）登坂商店","province":"東京都","city":"葛飾区","address":"東京都葛飾区堀切2丁目35-3","lat":35.74575453,"lon":139.82591738},{"name":"稲垣屋葬儀店","province":"東京都","city":"葛飾区","address":"東京都葛飾区堀切6丁目33-4","lat":35.75318384,"lon":139.82765534},{"name":"（有）秋元商店","province":"東京都","city":"葛飾区","address":"東京都葛飾区東堀切2丁目13-8","lat":35.75377009,"lon":139.83614627},{"name":"（有）セレモニーマルヤマ","province":"東京都","city":"葛飾区","address":"東京都葛飾区青戸3丁目33-18","lat":35.74656001,"lon":139.8554865},{"name":"（有）網代屋葬儀社青戸支店","province":"東京都","city":"葛飾区","address":"東京都葛飾区青戸4丁目22-22","lat":35.74858752,"lon":139.8526561},{"name":"（有）島田富義葬祭式典","province":"東京都","city":"葛飾区","address":"東京都葛飾区亀有3丁目14-10","lat":35.7630218,"lon":139.84898083},{"name":"（有）網代屋葬儀社本店","province":"東京都","city":"葛飾区","address":"東京都葛飾区高砂5丁目35-11","lat":35.7517789,"lon":139.86808531},{"name":"（株）島村葬儀社","province":"東京都","city":"葛飾区","address":"東京都葛飾区金町6丁目1-14","lat":35.76745719,"lon":139.87160132},{"name":"（株）東京供養舎（かなまち会館）","province":"東京都","city":"葛飾区","address":"東京都葛飾区東金町4丁目37-1","lat":35.77491998,"lon":139.87306216},{"name":"立石みんな子ども食堂","province":"東京都","city":"葛飾区","address":"東京都葛飾区立石1丁目21-12","lat":35.73770808,"lon":139.85014569},{"name":"たていしこども食堂実行委員会","province":"東京都","city":"葛飾区","address":"東京都葛飾区立石1丁目21-12","lat":35.73770808,"lon":139.85014569},{"name":"えまいまキッチン","province":"東京都","city":"葛飾区","address":"東京都葛飾区亀有3丁目32-3","lat":35.76494653,"lon":139.84890299},{"name":"青空っ子こども食堂","province":"東京都","city":"葛飾区","address":"東京都葛飾区お花茶屋3丁目5-6","lat":35.75648368,"lon":139.84306772},{"name":"こども食堂　トコ","province":"東京都","city":"葛飾区","address":"東京都葛飾区東水元2-35-16","lat":35.7807536,"lon":139.868906},{"name":"ほっこり食堂","province":"東京都","city":"葛飾区","address":"東京都葛飾区立石8丁目51-7","lat":35.73898869,"lon":139.85940314},{"name":"マミー子ども食堂","province":"東京都","city":"葛飾区","address":"東京都葛飾区東金町4丁目7-7","lat":35.77312574,"lon":139.87489821},{"name":"(株）伊藤葬祭","province":"東京都","city":"葛飾区","address":"東京都葛飾区新小岩1丁目48-8","lat":35.71652119,"lon":139.85929903},{"name":"(有）上平井葬儀社","province":"東京都","city":"葛飾区","address":"東京都葛飾区西新小岩3丁目39-8","lat":35.72376226,"lon":139.8467885},{"name":"（有）網代屋葬儀社奥戸支店","province":"東京都","city":"葛飾区","address":"東京都葛飾区奥戸3丁目28-11","lat":35.73451157,"lon":139.86399463},{"name":"（有）橋本葬儀社","province":"東京都","city":"葛飾区","address":"東京都葛飾区東立石4丁目46-6","lat":35.73720813,"lon":139.85044291},{"name":"（株）葵式典（島田会館）","province":"東京都","city":"葛飾区","address":"東京都葛飾区四つ木1丁目33-5","lat":35.7345953,"lon":139.8360199},{"name":"東間葬儀社","province":"東京都","city":"葛飾区","address":"東京都葛飾区四つ木2丁目3-9","lat":35.73532582,"lon":139.83486168},{"name":"（株）八木井","province":"東京都","city":"葛飾区","address":"東京都葛飾区堀切2丁目34-2","lat":35.74504354,"lon":139.82592301},{"name":"（有）登坂商店","province":"東京都","city":"葛飾区","address":"東京都葛飾区堀切2丁目35-3","lat":35.74575453,"lon":139.82591738},{"name":"稲垣屋葬儀店","province":"東京都","city":"葛飾区","address":"東京都葛飾区堀切6丁目33-4","lat":35.75318384,"lon":139.82765534},{"name":"（有）秋元商店","province":"東京都","city":"葛飾区","address":"東京都葛飾区東堀切2丁目13-8","lat":35.75377009,"lon":139.83614627},{"name":"（有）セレモニーマルヤマ","province":"東京都","city":"葛飾区","address":"東京都葛飾区青戸3丁目33-18","lat":35.74656001,"lon":139.8554865},{"name":"（有）網代屋葬儀社青戸支店","province":"東京都","city":"葛飾区","address":"東京都葛飾区青戸4丁目22-22","lat":35.74858752,"lon":139.8526561},{"name":"（有）島田富義葬祭式典","province":"東京都","city":"葛飾区","address":"東京都葛飾区亀有3丁目14-10","lat":35.7630218,"lon":139.84898083},{"name":"（有）網代屋葬儀社本店","province":"東京都","city":"葛飾区","address":"東京都葛飾区高砂5丁目35-11","lat":35.7517789,"lon":139.86808531},{"name":"（株）島村葬儀社","province":"東京都","city":"葛飾区","address":"東京都葛飾区金町6丁目1-14","lat":35.76745719,"lon":139.87160132},{"name":"（株）東京供養舎（かなまち会館）","province":"東京都","city":"葛飾区","address":"東京都葛飾区東金町4丁目37-1","lat":35.77491998,"lon":139.87306216},{"name":"立石みんな子ども食堂","province":"東京都","city":"葛飾区","address":"東京都葛飾区立石1丁目21-12","lat":35.73770808,"lon":139.85014569},{"name":"たていしこども食堂実行委員会","province":"東京都","city":"葛飾区","address":"東京都葛飾区立石1丁目21-12","lat":35.73770808,"lon":139.85014569},{"name":"えまいまキッチン","province":"東京都","city":"葛飾区","address":"東京都葛飾区亀有3丁目32-3","lat":35.76494653,"lon":139.84890299},{"name":"青空っ子こども食堂","province":"東京都","city":"葛飾区","address":"東京都葛飾区お花茶屋3丁目5-6","lat":35.75648368,"lon":139.84306772},{"name":"こども食堂　トコ","province":"東京都","city":"葛飾区","address":"東京都葛飾区東水元2-35-16","lat":35.7807536,"lon":139.868906},{"name":"ほっこり食堂","province":"東京都","city":"葛飾区","address":"東京都葛飾区立石8丁目51-7","lat":35.73898869,"lon":139.85940314},{"name":"マミー子ども食堂","province":"東京都","city":"葛飾区","address":"東京都葛飾区東金町4丁目7-7","lat":35.77312574,"lon":139.87489821},{"name":"(株）伊藤葬祭","province":"東京都","city":"葛飾区","address":"東京都葛飾区新小岩1丁目48-8","lat":35.71652119,"lon":139.85929903},{"name":"(有）上平井葬儀社","province":"東京都","city":"葛飾区","address":"東京都葛飾区西新小岩3丁目39-8","lat":35.72376226,"lon":139.8467885},{"name":"（有）網代屋葬儀社奥戸支店","province":"東京都","city":"葛飾区","address":"東京都葛飾区奥戸3丁目28-11","lat":35.73451157,"lon":139.86399463},{"name":"（有）橋本葬儀社","province":"東京都","city":"葛飾区","address":"東京都葛飾区東立石4丁目46-6","lat":35.73720813,"lon":139.85044291},{"name":"（株）葵式典（島田会館）","province":"東京都","city":"葛飾区","address":"東京都葛飾区四つ木1丁目33-5","lat":35.7345953,"lon":139.8360199},{"name":"東間葬儀社","province":"東京都","city":"葛飾区","address":"東京都葛飾区四つ木2丁目3-9","lat":35.73532582,"lon":139.83486168},{"name":"（株）八木井","province":"東京都","city":"葛飾区","address":"東京都葛飾区堀切2丁目34-2","lat":35.74504354,"lon":139.82592301},{"name":"（有）登坂商店","province":"東京都","city":"葛飾区","address":"東京都葛飾区堀切2丁目35-3","lat":35.74575453,"lon":139.82591738},{"name":"稲垣屋葬儀店","province":"東京都","city":"葛飾区","address":"東京都葛飾区堀切6丁目33-4","lat":35.75318384,"lon":139.82765534},{"name":"（有）秋元商店","province":"東京都","city":"葛飾区","address":"東京都葛飾区東堀切2丁目13-8","lat":35.75377009,"lon":139.83614627},{"name":"（有）セレモニーマルヤマ","province":"東京都","city":"葛飾区","address":"東京都葛飾区青戸3丁目33-18","lat":35.74656001,"lon":139.8554865},{"name":"（有）網代屋葬儀社青戸支店","province":"東京都","city":"葛飾区","address":"東京都葛飾区青戸4丁目22-22","lat":35.74858752,"lon":139.8526561},{"name":"（有）島田富義葬祭式典","province":"東京都","city":"葛飾区","address":"東京都葛飾区亀有3丁目14-10","lat":35.7630218,"lon":139.84898083},{"name":"（有）網代屋葬儀社本店","province":"東京都","city":"葛飾区","address":"東京都葛飾区高砂5丁目35-11","lat":35.7517789,"lon":139.86808531},{"name":"（株）島村葬儀社","province":"東京都","city":"葛飾区","address":"東京都葛飾区金町6丁目1-14","lat":35.76745719,"lon":139.87160132},{"name":"（株）東京供養舎（かなまち会館）","province":"東京都","city":"葛飾区","address":"東京都葛飾区東金町4丁目37-1","lat":35.77491998,"lon":139.87306216},{"name":"立石みんな子ども食堂","province":"東京都","city":"葛飾区","address":"東京都葛飾区立石1丁目21-12","lat":35.73770808,"lon":139.85014569},{"name":"たていしこども食堂実行委員会","province":"東京都","city":"葛飾区","address":"東京都葛飾区立石1丁目21-12","lat":35.73770808,"lon":139.85014569},{"name":"えまいまキッチン","province":"東京都","city":"葛飾区","address":"東京都葛飾区亀有3丁目32-3","lat":35.76494653,"lon":139.84890299},{"name":"青空っ子こども食堂","province":"東京都","city":"葛飾区","address":"東京都葛飾区お花茶屋3丁目5-6","lat":35.75648368,"lon":139.84306772},{"name":"こども食堂　トコ","province":"東京都","city":"葛飾区","address":"東京都葛飾区東水元2-35-16","lat":35.7807536,"lon":139.868906},{"name":"ほっこり食堂","province":"東京都","city":"葛飾区","address":"東京都葛飾区立石8丁目51-7","lat":35.73898869,"lon":139.85940314},{"name":"マミー子ども食堂","province":"東京都","city":"葛飾区","address":"東京都葛飾区東金町4丁目7-7","lat":35.77312574,"lon":139.87489821},{"name":"(株）伊藤葬祭","province":"東京都","city":"葛飾区","address":"東京都葛飾区新小岩1丁目48-8","lat":35.71652119,"lon":139.85929903},{"name":"(有）上平井葬儀社","province":"東京都","city":"葛飾区","address":"東京都葛飾区西新小岩3丁目39-8","lat":35.72376226,"lon":139.8467885},{"name":"（有）網代屋葬儀社奥戸支店","province":"東京都","city":"葛飾区","address":"東京都葛飾区奥戸3丁目28-11","lat":35.73451157,"lon":139.86399463},{"name":"（有）橋本葬儀社","province":"東京都","city":"葛飾区","address":"東京都葛飾区東立石4丁目46-6","lat":35.73720813,"lon":139.85044291},{"name":"（株）葵式典（島田会館）","province":"東京都","city":"葛飾区","address":"東京都葛飾区四つ木1丁目33-5","lat":35.7345953,"lon":139.8360199},{"name":"東間葬儀社","province":"東京都","city":"葛飾区","address":"東京都葛飾区四つ木2丁目3-9","lat":35.73532582,"lon":139.83486168},{"name":"（株）八木井","province":"東京都","city":"葛飾区","address":"東京都葛飾区堀切2丁目34-2","lat":35.74504354,"lon":139.82592301},{"name":"（有）登坂商店","province":"東京都","city":"葛飾区","address":"東京都葛飾区堀切2丁目35-3","lat":35.74575453,"lon":139.82591738},{"name":"稲垣屋葬儀店","province":"東京都","city":"葛飾区","address":"東京都葛飾区堀切6丁目33-4","lat":35.75318384,"lon":139.82765534},{"name":"（有）秋元商店","province":"東京都","city":"葛飾区","address":"東京都葛飾区東堀切2丁目13-8","lat":35.75377009,"lon":139.83614627},{"name":"（有）セレモニーマルヤマ","province":"東京都","city":"葛飾区","address":"東京都葛飾区青戸3丁目33-18","lat":35.74656001,"lon":139.8554865},{"name":"（有）網代屋葬儀社青戸支店","province":"東京都","city":"葛飾区","address":"東京都葛飾区青戸4丁目22-22","lat":35.74858752,"lon":139.8526561},{"name":"（有）島田富義葬祭式典","province":"東京都","city":"葛飾区","address":"東京都葛飾区亀有3丁目14-10","lat":35.7630218,"lon":139.84898083},{"name":"（有）網代屋葬儀社本店","province":"東京都","city":"葛飾区","address":"東京都葛飾区高砂5丁目35-11","lat":35.7517789,"lon":139.86808531},{"name":"（株）島村葬儀社","province":"東京都","city":"葛飾区","address":"東京都葛飾区金町6丁目1-14","lat":35.76745719,"lon":139.87160132},{"name":"（株）東京供養舎（かなまち会館）","province":"東京都","city":"葛飾区","address":"東京都葛飾区東金町4丁目37-1","lat":35.77491998,"lon":139.87306216},{"name":"立石みんな子ども食堂","province":"東京都","city":"葛飾区","address":"東京都葛飾区立石1丁目21-12","lat":35.73770808,"lon":139.85014569},{"name":"たていしこども食堂実行委員会","province":"東京都","city":"葛飾区","address":"東京都葛飾区立石1丁目21-12","lat":35.73770808,"lon":139.85014569},{"name":"えまいまキッチン","province":"東京都","city":"葛飾区","address":"東京都葛飾区亀有3丁目32-3","lat":35.76494653,"lon":139.84890299},{"name":"青空っ子こども食堂","province":"東京都","city":"葛飾区","address":"東京都葛飾区お花茶屋3丁目5-6","lat":35.75648368,"lon":139.84306772},{"name":"こども食堂　トコ","province":"東京都","city":"葛飾区","address":"東京都葛飾区東水元2-35-16","lat":35.7807536,"lon":139.868906},{"name":"ほっこり食堂","province":"東京都","city":"葛飾区","address":"東京都葛飾区立石8丁目51-7","lat":35.73898869,"lon":139.85940314},{"name":"マミー子ども食堂","province":"東京都","city":"葛飾区","address":"東京都葛飾区東金町4丁目7-7","lat":35.77312574,"lon":139.87489821},{"name":"(株）伊藤葬祭","province":"東京都","city":"葛飾区","address":"東京都葛飾区新小岩1丁目48-8","lat":35.71652119,"lon":139.85929903},{"name":"(有）上平井葬儀社","province":"東京都","city":"葛飾区","address":"東京都葛飾区西新小岩3丁目39-8","lat":35.72376226,"lon":139.8467885},{"name":"（有）網代屋葬儀社奥戸支店","province":"東京都","city":"葛飾区","address":"東京都葛飾区奥戸3丁目28-11","lat":35.73451157,"lon":139.86399463},{"name":"（有）橋本葬儀社","province":"東京都","city":"葛飾区","address":"東京都葛飾区東立石4丁目46-6","lat":35.73720813,"lon":139.85044291},{"name":"（株）葵式典（島田会館）","province":"東京都","city":"葛飾区","address":"東京都葛飾区四つ木1丁目33-5","lat":35.7345953,"lon":139.8360199},{"name":"東間葬儀社","province":"東京都","city":"葛飾区","address":"東京都葛飾区四つ木2丁目3-9","lat":35.73532582,"lon":139.83486168},{"name":"（株）八木井","province":"東京都","city":"葛飾区","address":"東京都葛飾区堀切2丁目34-2","lat":35.74504354,"lon":139.82592301},{"name":"（有）登坂商店","province":"東京都","city":"葛飾区","address":"東京都葛飾区堀切2丁目35-3","lat":35.74575453,"lon":139.82591738},{"name":"稲垣屋葬儀店","province":"東京都","city":"葛飾区","address":"東京都葛飾区堀切6丁目33-4","lat":35.75318384,"lon":139.82765534},{"name":"（有）秋元商店","province":"東京都","city":"葛飾区","address":"東京都葛飾区東堀切2丁目13-8","lat":35.75377009,"lon":139.83614627},{"name":"（有）セレモニーマルヤマ","province":"東京都","city":"葛飾区","address":"東京都葛飾区青戸3丁目33-18","lat":35.74656001,"lon":139.8554865},{"name":"（有）網代屋葬儀社青戸支店","province":"東京都","city":"葛飾区","address":"東京都葛飾区青戸4丁目22-22","lat":35.74858752,"lon":139.8526561},{"name":"（有）島田富義葬祭式典","province":"東京都","city":"葛飾区","address":"東京都葛飾区亀有3丁目14-10","lat":35.7630218,"lon":139.84898083},{"name":"（有）網代屋葬儀社本店","province":"東京都","city":"葛飾区","address":"東京都葛飾区高砂5丁目35-11","lat":35.7517789,"lon":139.86808531},{"name":"（株）島村葬儀社","province":"東京都","city":"葛飾区","address":"東京都葛飾区金町6丁目1-14","lat":35.76745719,"lon":139.87160132},{"name":"（株）東京供養舎（かなまち会館）","province":"東京都","city":"葛飾区","address":"東京都葛飾区東金町4丁目37-1","lat":35.77491998,"lon":139.87306216},{"name":"立石みんな子ども食堂","province":"東京都","city":"葛飾区","address":"東京都葛飾区立石1丁目21-12","lat":35.73770808,"lon":139.85014569},{"name":"たていしこども食堂実行委員会","province":"東京都","city":"葛飾区","address":"東京都葛飾区立石1丁目21-12","lat":35.73770808,"lon":139.85014569},{"name":"えまいまキッチン","province":"東京都","city":"葛飾区","address":"東京都葛飾区亀有3丁目32-3","lat":35.76494653,"lon":139.84890299},{"name":"青空っ子こども食堂","province":"東京都","city":"葛飾区","address":"東京都葛飾区お花茶屋3丁目5-6","lat":35.75648368,"lon":139.84306772},{"name":"こども食堂　トコ","province":"東京都","city":"葛飾区","address":"東京都葛飾区東水元2-35-16","lat":35.7807536,"lon":139.868906},{"name":"ほっこり食堂","province":"東京都","city":"葛飾区","address":"東京都葛飾区立石8丁目51-7","lat":35.73898869,"lon":139.85940314},{"name":"マミー子ども食堂","province":"東京都","city":"葛飾区","address":"東京都葛飾区東金町4丁目7-7","lat":35.77312574,"lon":139.87489821},{"name":"(株）伊藤葬祭","province":"東京都","city":"葛飾区","address":"東京都葛飾区新小岩1丁目48-8","lat":35.71652119,"lon":139.85929903},{"name":"(有）上平井葬儀社","province":"東京都","city":"葛飾区","address":"東京都葛飾区西新小岩3丁目39-8","lat":35.72376226,"lon":139.8467885},{"name":"（有）網代屋葬儀社奥戸支店","province":"東京都","city":"葛飾区","address":"東京都葛飾区奥戸3丁目28-11","lat":35.73451157,"lon":139.86399463},{"name":"（有）橋本葬儀社","province":"東京都","city":"葛飾区","address":"東京都葛飾区東立石4丁目46-6","lat":35.73720813,"lon":139.85044291},{"name":"（株）葵式典（島田会館）","province":"東京都","city":"葛飾区","address":"東京都葛飾区四つ木1丁目33-5","lat":35.7345953,"lon":139.8360199},{"name":"東間葬儀社","province":"東京都","city":"葛飾区","address":"東京都葛飾区四つ木2丁目3-9","lat":35.73532582,"lon":139.83486168},{"name":"（株）八木井","province":"東京都","city":"葛飾区","address":"東京都葛飾区堀切2丁目34-2","lat":35.74504354,"lon":139.82592301},{"name":"（有）登坂商店","province":"東京都","city":"葛飾区","address":"東京都葛飾区堀切2丁目35-3","lat":35.74575453,"lon":139.82591738},{"name":"稲垣屋葬儀店","province":"東京都","city":"葛飾区","address":"東京都葛飾区堀切6丁目33-4","lat":35.75318384,"lon":139.82765534},{"name":"（有）秋元商店","province":"東京都","city":"葛飾区","address":"東京都葛飾区東堀切2丁目13-8","lat":35.75377009,"lon":139.83614627},{"name":"（有）セレモニーマルヤマ","province":"東京都","city":"葛飾区","address":"東京都葛飾区青戸3丁目33-18","lat":35.74656001,"lon":139.8554865},{"name":"（有）網代屋葬儀社青戸支店","province":"東京都","city":"葛飾区","address":"東京都葛飾区青戸4丁目22-22","lat":35.74858752,"lon":139.8526561},{"name":"（有）島田富義葬祭式典","province":"東京都","city":"葛飾区","address":"東京都葛飾区亀有3丁目14-10","lat":35.7630218,"lon":139.84898083},{"name":"（有）網代屋葬儀社本店","province":"東京都","city":"葛飾区","address":"東京都葛飾区高砂5丁目35-11","lat":35.7517789,"lon":139.86808531},{"name":"（株）島村葬儀社","province":"東京都","city":"葛飾区","address":"東京都葛飾区金町6丁目1-14","lat":35.76745719,"lon":139.87160132},{"name":"（株）東京供養舎（かなまち会館）","province":"東京都","city":"葛飾区","address":"東京都葛飾区東金町4丁目37-1","lat":35.77491998,"lon":139.87306216},{"name":"立石みんな子ども食堂","province":"東京都","city":"葛飾区","address":"東京都葛飾区立石1丁目21-12","lat":35.73770808,"lon":139.85014569},{"name":"たていしこども食堂実行委員会","province":"東京都","city":"葛飾区","address":"東京都葛飾区立石1丁目21-12","lat":35.73770808,"lon":139.85014569},{"name":"えまいまキッチン","province":"東京都","city":"葛飾区","address":"東京都葛飾区亀有3丁目32-3","lat":35.76494653,"lon":139.84890299},{"name":"青空っ子こども食堂","province":"東京都","city":"葛飾区","address":"東京都葛飾区お花茶屋3丁目5-6","lat":35.75648368,"lon":139.84306772},{"name":"こども食堂　トコ","province":"東京都","city":"葛飾区","address":"東京都葛飾区東水元2-35-16","lat":35.7807536,"lon":139.868906},{"name":"ほっこり食堂","province":"東京都","city":"葛飾区","address":"東京都葛飾区立石8丁目51-7","lat":35.73898869,"lon":139.85940314},{"name":"マミー子ども食堂","province":"東京都","city":"葛飾区","address":"東京都葛飾区東金町4丁目7-7","lat":35.77312574,"lon":139.87489821},{"name":"(株）伊藤葬祭","province":"東京都","city":"葛飾区","address":"東京都葛飾区新小岩1丁目48-8","lat":35.71652119,"lon":139.85929903},{"name":"(有）上平井葬儀社","province":"東京都","city":"葛飾区","address":"東京都葛飾区西新小岩3丁目39-8","lat":35.72376226,"lon":139.8467885},{"name":"（有）網代屋葬儀社奥戸支店","province":"東京都","city":"葛飾区","address":"東京都葛飾区奥戸3丁目28-11","lat":35.73451157,"lon":139.86399463},{"name":"（有）橋本葬儀社","province":"東京都","city":"葛飾区","address":"東京都葛飾区東立石4丁目46-6","lat":35.73720813,"lon":139.85044291},{"name":"（株）葵式典（島田会館）","province":"東京都","city":"葛飾区","address":"東京都葛飾区四つ木1丁目33-5","lat":35.7345953,"lon":139.8360199},{"name":"東間葬儀社","province":"東京都","city":"葛飾区","address":"東京都葛飾区四つ木2丁目3-9","lat":35.73532582,"lon":139.83486168},{"name":"（株）八木井","province":"東京都","city":"葛飾区","address":"東京都葛飾区堀切2丁目34-2","lat":35.74504354,"lon":139.82592301},{"name":"（有）登坂商店","province":"東京都","city":"葛飾区","address":"東京都葛飾区堀切2丁目35-3","lat":35.74575453,"lon":139.82591738},{"name":"稲垣屋葬儀店","province":"東京都","city":"葛飾区","address":"東京都葛飾区堀切6丁目33-4","lat":35.75318384,"lon":139.82765534},{"name":"（有）秋元商店","province":"東京都","city":"葛飾区","address":"東京都葛飾区東堀切2丁目13-8","lat":35.75377009,"lon":139.83614627},{"name":"（有）セレモニーマルヤマ","province":"東京都","city":"葛飾区","address":"東京都葛飾区青戸3丁目33-18","lat":35.74656001,"lon":139.8554865},{"name":"（有）網代屋葬儀社青戸支店","province":"東京都","city":"葛飾区","address":"東京都葛飾区青戸4丁目22-22","lat":35.74858752,"lon":139.8526561},{"name":"（有）島田富義葬祭式典","province":"東京都","city":"葛飾区","address":"東京都葛飾区亀有3丁目14-10","lat":35.7630218,"lon":139.84898083},{"name":"（有）網代屋葬儀社本店","province":"東京都","city":"葛飾区","address":"東京都葛飾区高砂5丁目35-11","lat":35.7517789,"lon":139.86808531},{"name":"（株）島村葬儀社","province":"東京都","city":"葛飾区","address":"東京都葛飾区金町6丁目1-14","lat":35.76745719,"lon":139.87160132},{"name":"（株）東京供養舎（かなまち会館）","province":"東京都","city":"葛飾区","address":"東京都葛飾区東金町4丁目37-1","lat":35.77491998,"lon":139.87306216},{"name":"立石みんな子ども食堂","province":"東京都","city":"葛飾区","address":"東京都葛飾区立石1丁目21-12","lat":35.73770808,"lon":139.85014569},{"name":"たていしこども食堂実行委員会","province":"東京都","city":"葛飾区","address":"東京都葛飾区立石1丁目21-12","lat":35.73770808,"lon":139.85014569},{"name":"えまいまキッチン","province":"東京都","city":"葛飾区","address":"東京都葛飾区亀有3丁目32-3","lat":35.76494653,"lon":139.84890299},{"name":"青空っ子こども食堂","province":"東京都","city":"葛飾区","address":"東京都葛飾区お花茶屋3丁目5-6","lat":35.75648368,"lon":139.84306772},{"name":"こども食堂　トコ","province":"東京都","city":"葛飾区","address":"東京都葛飾区東水元2-35-16","lat":35.7807536,"lon":139.868906},{"name":"ほっこり食堂","province":"東京都","city":"葛飾区","address":"東京都葛飾区立石8丁目51-7","lat":35.73898869,"lon":139.85940314},{"name":"マミー子ども食堂","province":"東京都","city":"葛飾区","address":"東京都葛飾区東金町4丁目7-7","lat":35.77312574,"lon":139.87489821},{"name":"(株）伊藤葬祭","province":"東京都","city":"葛飾区","address":"東京都葛飾区新小岩1丁目48-8","lat":35.71652119,"lon":139.85929903},{"name":"(有）上平井葬儀社","province":"東京都","city":"葛飾区","address":"東京都葛飾区西新小岩3丁目39-8","lat":35.72376226,"lon":139.8467885},{"name":"（有）網代屋葬儀社奥戸支店","province":"東京都","city":"葛飾区","address":"東京都葛飾区奥戸3丁目28-11","lat":35.73451157,"lon":139.86399463},{"name":"（有）橋本葬儀社","province":"東京都","city":"葛飾区","address":"東京都葛飾区東立石4丁目46-6","lat":35.73720813,"lon":139.85044291},{"name":"（株）葵式典（島田会館）","province":"東京都","city":"葛飾区","address":"東京都葛飾区四つ木1丁目33-5","lat":35.7345953,"lon":139.8360199},{"name":"東間葬儀社","province":"東京都","city":"葛飾区","address":"東京都葛飾区四つ木2丁目3-9","lat":35.73532582,"lon":139.83486168},{"name":"（株）八木井","province":"東京都","city":"葛飾区","address":"東京都葛飾区堀切2丁目34-2","lat":35.74504354,"lon":139.82592301},{"name":"（有）登坂商店","province":"東京都","city":"葛飾区","address":"東京都葛飾区堀切2丁目35-3","lat":35.74575453,"lon":139.82591738},{"name":"稲垣屋葬儀店","province":"東京都","city":"葛飾区","address":"東京都葛飾区堀切6丁目33-4","lat":35.75318384,"lon":139.82765534},{"name":"（有）秋元商店","province":"東京都","city":"葛飾区","address":"東京都葛飾区東堀切2丁目13-8","lat":35.75377009,"lon":139.83614627},{"name":"（有）セレモニーマルヤマ","province":"東京都","city":"葛飾区","address":"東京都葛飾区青戸3丁目33-18","lat":35.74656001,"lon":139.8554865},{"name":"（有）網代屋葬儀社青戸支店","province":"東京都","city":"葛飾区","address":"東京都葛飾区青戸4丁目22-22","lat":35.74858752,"lon":139.8526561},{"name":"（有）島田富義葬祭式典","province":"東京都","city":"葛飾区","address":"東京都葛飾区亀有3丁目14-10","lat":35.7630218,"lon":139.84898083},{"name":"（有）網代屋葬儀社本店","province":"東京都","city":"葛飾区","address":"東京都葛飾区高砂5丁目35-11","lat":35.7517789,"lon":139.86808531},{"name":"（株）島村葬儀社","province":"東京都","city":"葛飾区","address":"東京都葛飾区金町6丁目1-14","lat":35.76745719,"lon":139.87160132},{"name":"（株）東京供養舎（かなまち会館）","province":"東京都","city":"葛飾区","address":"東京都葛飾区東金町4丁目37-1","lat":35.77491998,"lon":139.87306216},{"name":"立石みんな子ども食堂","province":"東京都","city":"葛飾区","address":"東京都葛飾区立石1丁目21-12","lat":35.73770808,"lon":139.85014569},{"name":"たていしこども食堂実行委員会","province":"東京都","city":"葛飾区","address":"東京都葛飾区立石1丁目21-12","lat":35.73770808,"lon":139.85014569},{"name":"えまいまキッチン","province":"東京都","city":"葛飾区","address":"東京都葛飾区亀有3丁目32-3","lat":35.76494653,"lon":139.84890299},{"name":"青空っ子こども食堂","province":"東京都","city":"葛飾区","address":"東京都葛飾区お花茶屋3丁目5-6","lat":35.75648368,"lon":139.84306772},{"name":"こども食堂　トコ","province":"東京都","city":"葛飾区","address":"東京都葛飾区東水元2-35-16","lat":35.7807536,"lon":139.868906},{"name":"ほっこり食堂","province":"東京都","city":"葛飾区","address":"東京都葛飾区立石8丁目51-7","lat":35.73898869,"lon":139.85940314},{"name":"マミー子ども食堂","province":"東京都","city":"葛飾区","address":"東京都葛飾区東金町4丁目7-7","lat":35.77312574,"lon":139.87489821},{"name":"(株）伊藤葬祭","province":"東京都","city":"葛飾区","address":"東京都葛飾区新小岩1丁目48-8","lat":35.71652119,"lon":139.85929903},{"name":"(有）上平井葬儀社","province":"東京都","city":"葛飾区","address":"東京都葛飾区西新小岩3丁目39-8","lat":35.72376226,"lon":139.8467885},{"name":"（有）網代屋葬儀社奥戸支店","province":"東京都","city":"葛飾区","address":"東京都葛飾区奥戸3丁目28-11","lat":35.73451157,"lon":139.86399463},{"name":"（有）橋本葬儀社","province":"東京都","city":"葛飾区","address":"東京都葛飾区東立石4丁目46-6","lat":35.73720813,"lon":139.85044291},{"name":"（株）葵式典（島田会館）","province":"東京都","city":"葛飾区","address":"東京都葛飾区四つ木1丁目33-5","lat":35.7345953,"lon":139.8360199},{"name":"東間葬儀社","province":"東京都","city":"葛飾区","address":"東京都葛飾区四つ木2丁目3-9","lat":35.73532582,"lon":139.83486168},{"name":"（株）八木井","province":"東京都","city":"葛飾区","address":"東京都葛飾区堀切2丁目34-2","lat":35.74504354,"lon":139.82592301},{"name":"（有）登坂商店","province":"東京都","city":"葛飾区","address":"東京都葛飾区堀切2丁目35-3","lat":35.74575453,"lon":139.82591738},{"name":"稲垣屋葬儀店","province":"東京都","city":"葛飾区","address":"東京都葛飾区堀切6丁目33-4","lat":35.75318384,"lon":139.82765534},{"name":"（有）秋元商店","province":"東京都","city":"葛飾区","address":"東京都葛飾区東堀切2丁目13-8","lat":35.75377009,"lon":139.83614627},{"name":"（有）セレモニーマルヤマ","province":"東京都","city":"葛飾区","address":"東京都葛飾区青戸3丁目33-18","lat":35.74656001,"lon":139.8554865},{"name":"（有）網代屋葬儀社青戸支店","province":"東京都","city":"葛飾区","address":"東京都葛飾区青戸4丁目22-22","lat":35.74858752,"lon":139.8526561},{"name":"（有）島田富義葬祭式典","province":"東京都","city":"葛飾区","address":"東京都葛飾区亀有3丁目14-10","lat":35.7630218,"lon":139.84898083},{"name":"（有）網代屋葬儀社本店","province":"東京都","city":"葛飾区","address":"東京都葛飾区高砂5丁目35-11","lat":35.7517789,"lon":139.86808531},{"name":"（株）島村葬儀社","province":"東京都","city":"葛飾区","address":"東京都葛飾区金町6丁目1-14","lat":35.76745719,"lon":139.87160132},{"name":"（株）東京供養舎（かなまち会館）","province":"東京都","city":"葛飾区","address":"東京都葛飾区東金町4丁目37-1","lat":35.77491998,"lon":139.87306216},{"name":"立石みんな子ども食堂","province":"東京都","city":"葛飾区","address":"東京都葛飾区立石1丁目21-12","lat":35.73770808,"lon":139.85014569},{"name":"たていしこども食堂実行委員会","province":"東京都","city":"葛飾区","address":"東京都葛飾区立石1丁目21-12","lat":35.73770808,"lon":139.85014569},{"name":"えまいまキッチン","province":"東京都","city":"葛飾区","address":"東京都葛飾区亀有3丁目32-3","lat":35.76494653,"lon":139.84890299},{"name":"青空っ子こども食堂","province":"東京都","city":"葛飾区","address":"東京都葛飾区お花茶屋3丁目5-6","lat":35.75648368,"lon":139.84306772},{"name":"こども食堂　トコ","province":"東京都","city":"葛飾区","address":"東京都葛飾区東水元2-35-16","lat":35.7807536,"lon":139.868906},{"name":"ほっこり食堂","province":"東京都","city":"葛飾区","address":"東京都葛飾区立石8丁目51-7","lat":35.73898869,"lon":139.85940314},{"name":"マミー子ども食堂","province":"東京都","city":"葛飾区","address":"東京都葛飾区東金町4丁目7-7","lat":35.77312574,"lon":139.87489821},{"name":"(株）伊藤葬祭","province":"東京都","city":"葛飾区","address":"東京都葛飾区新小岩1丁目48-8","lat":35.71652119,"lon":139.85929903},{"name":"(有）上平井葬儀社","province":"東京都","city":"葛飾区","address":"東京都葛飾区西新小岩3丁目39-8","lat":35.72376226,"lon":139.8467885},{"name":"（有）網代屋葬儀社奥戸支店","province":"東京都","city":"葛飾区","address":"東京都葛飾区奥戸3丁目28-11","lat":35.73451157,"lon":139.86399463},{"name":"（有）橋本葬儀社","province":"東京都","city":"葛飾区","address":"東京都葛飾区東立石4丁目46-6","lat":35.73720813,"lon":139.85044291},{"name":"（株）葵式典（島田会館）","province":"東京都","city":"葛飾区","address":"東京都葛飾区四つ木1丁目33-5","lat":35.7345953,"lon":139.8360199},{"name":"東間葬儀社","province":"東京都","city":"葛飾区","address":"東京都葛飾区四つ木2丁目3-9","lat":35.73532582,"lon":139.83486168},{"name":"（株）八木井","province":"東京都","city":"葛飾区","address":"東京都葛飾区堀切2丁目34-2","lat":35.74504354,"lon":139.82592301},{"name":"（有）登坂商店","province":"東京都","city":"葛飾区","address":"東京都葛飾区堀切2丁目35-3","lat":35.74575453,"lon":139.82591738},{"name":"稲垣屋葬儀店","province":"東京都","city":"葛飾区","address":"東京都葛飾区堀切6丁目33-4","lat":35.75318384,"lon":139.82765534},{"name":"（有）秋元商店","province":"東京都","city":"葛飾区","address":"東京都葛飾区東堀切2丁目13-8","lat":35.75377009,"lon":139.83614627},{"name":"（有）セレモニーマルヤマ","province":"東京都","city":"葛飾区","address":"東京都葛飾区青戸3丁目33-18","lat":35.74656001,"lon":139.8554865},{"name":"（有）網代屋葬儀社青戸支店","province":"東京都","city":"葛飾区","address":"東京都葛飾区青戸4丁目22-22","lat":35.74858752,"lon":139.8526561},{"name":"（有）島田富義葬祭式典","province":"東京都","city":"葛飾区","address":"東京都葛飾区亀有3丁目14-10","lat":35.7630218,"lon":139.84898083},{"name":"（有）網代屋葬儀社本店","province":"東京都","city":"葛飾区","address":"東京都葛飾区高砂5丁目35-11","lat":35.7517789,"lon":139.86808531},{"name":"（株）島村葬儀社","province":"東京都","city":"葛飾区","address":"東京都葛飾区金町6丁目1-14","lat":35.76745719,"lon":139.87160132},{"name":"（株）東京供養舎（かなまち会館）","province":"東京都","city":"葛飾区","address":"東京都葛飾区東金町4丁目37-1","lat":35.77491998,"lon":139.87306216},{"name":"立石みんな子ども食堂","province":"東京都","city":"葛飾区","address":"東京都葛飾区立石1丁目21-12","lat":35.73770808,"lon":139.85014569},{"name":"たていしこども食堂実行委員会","province":"東京都","city":"葛飾区","address":"東京都葛飾区立石1丁目21-12","lat":35.73770808,"lon":139.85014569},{"name":"えまいまキッチン","province":"東京都","city":"葛飾区","address":"東京都葛飾区亀有3丁目32-3","lat":35.76494653,"lon":139.84890299},{"name":"青空っ子こども食堂","province":"東京都","city":"葛飾区","address":"東京都葛飾区お花茶屋3丁目5-6","lat":35.75648368,"lon":139.84306772},{"name":"こども食堂　トコ","province":"東京都","city":"葛飾区","address":"東京都葛飾区東水元2-35-16","lat":35.7807536,"lon":139.868906},{"name":"ほっこり食堂","province":"東京都","city":"葛飾区","address":"東京都葛飾区立石8丁目51-7","lat":35.73898869,"lon":139.85940314},{"name":"マミー子ども食堂","province":"東京都","city":"葛飾区","address":"東京都葛飾区東金町4丁目7-7","lat":35.77312574,"lon":139.87489821},{"name":"(株）伊藤葬祭","province":"東京都","city":"葛飾区","address":"東京都葛飾区新小岩1丁目48-8","lat":35.71652119,"lon":139.85929903},{"name":"(有）上平井葬儀社","province":"東京都","city":"葛飾区","address":"東京都葛飾区西新小岩3丁目39-8","lat":35.72376226,"lon":139.8467885},{"name":"（有）網代屋葬儀社奥戸支店","province":"東京都","city":"葛飾区","address":"東京都葛飾区奥戸3丁目28-11","lat":35.73451157,"lon":139.86399463},{"name":"（有）橋本葬儀社","province":"東京都","city":"葛飾区","address":"東京都葛飾区東立石4丁目46-6","lat":35.73720813,"lon":139.85044291},{"name":"（株）葵式典（島田会館）","province":"東京都","city":"葛飾区","address":"東京都葛飾区四つ木1丁目33-5","lat":35.7345953,"lon":139.8360199},{"name":"東間葬儀社","province":"東京都","city":"葛飾区","address":"東京都葛飾区四つ木2丁目3-9","lat":35.73532582,"lon":139.83486168},{"name":"（株）八木井","province":"東京都","city":"葛飾区","address":"東京都葛飾区堀切2丁目34-2","lat":35.74504354,"lon":139.82592301},{"name":"（有）登坂商店","province":"東京都","city":"葛飾区","address":"東京都葛飾区堀切2丁目35-3","lat":35.74575453,"lon":139.82591738},{"name":"稲垣屋葬儀店","province":"東京都","city":"葛飾区","address":"東京都葛飾区堀切6丁目33-4","lat":35.75318384,"lon":139.82765534},{"name":"（有）秋元商店","province":"東京都","city":"葛飾区","address":"東京都葛飾区東堀切2丁目13-8","lat":35.75377009,"lon":139.83614627},{"name":"（有）セレモニーマルヤマ","province":"東京都","city":"葛飾区","address":"東京都葛飾区青戸3丁目33-18","lat":35.74656001,"lon":139.8554865},{"name":"（有）網代屋葬儀社青戸支店","province":"東京都","city":"葛飾区","address":"東京都葛飾区青戸4丁目22-22","lat":35.74858752,"lon":139.8526561},{"name":"（有）島田富義葬祭式典","province":"東京都","city":"葛飾区","address":"東京都葛飾区亀有3丁目14-10","lat":35.7630218,"lon":139.84898083},{"name":"（有）網代屋葬儀社本店","province":"東京都","city":"葛飾区","address":"東京都葛飾区高砂5丁目35-11","lat":35.7517789,"lon":139.86808531},{"name":"（株）島村葬儀社","province":"東京都","city":"葛飾区","address":"東京都葛飾区金町6丁目1-14","lat":35.76745719,"lon":139.87160132},{"name":"（株）東京供養舎（かなまち会館）","province":"東京都","city":"葛飾区","address":"東京都葛飾区東金町4丁目37-1","lat":35.77491998,"lon":139.87306216},{"name":"立石みんな子ども食堂","province":"東京都","city":"葛飾区","address":"東京都葛飾区立石1丁目21-12","lat":35.73770808,"lon":139.85014569},{"name":"たていしこども食堂実行委員会","province":"東京都","city":"葛飾区","address":"東京都葛飾区立石1丁目21-12","lat":35.73770808,"lon":139.85014569},{"name":"えまいまキッチン","province":"東京都","city":"葛飾区","address":"東京都葛飾区亀有3丁目32-3","lat":35.76494653,"lon":139.84890299},{"name":"青空っ子こども食堂","province":"東京都","city":"葛飾区","address":"東京都葛飾区お花茶屋3丁目5-6","lat":35.75648368,"lon":139.84306772},{"name":"こども食堂　トコ","province":"東京都","city":"葛飾区","address":"東京都葛飾区東水元2-35-16","lat":35.7807536,"lon":139.868906},{"name":"ほっこり食堂","province":"東京都","city":"葛飾区","address":"東京都葛飾区立石8丁目51-7","lat":35.73898869,"lon":139.85940314},{"name":"マミー子ども食堂","province":"東京都","city":"葛飾区","address":"東京都葛飾区東金町4丁目7-7","lat":35.77312574,"lon":139.87489821},{"name":"(株）伊藤葬祭","province":"東京都","city":"葛飾区","address":"東京都葛飾区新小岩1丁目48-8","lat":35.71652119,"lon":139.85929903},{"name":"(有）上平井葬儀社","province":"東京都","city":"葛飾区","address":"東京都葛飾区西新小岩3丁目39-8","lat":35.72376226,"lon":139.8467885},{"name":"（有）網代屋葬儀社奥戸支店","province":"東京都","city":"葛飾区","address":"東京都葛飾区奥戸3丁目28-11","lat":35.73451157,"lon":139.86399463},{"name":"（有）橋本葬儀社","province":"東京都","city":"葛飾区","address":"東京都葛飾区東立石4丁目46-6","lat":35.73720813,"lon":139.85044291},{"name":"（株）葵式典（島田会館）","province":"東京都","city":"葛飾区","address":"東京都葛飾区四つ木1丁目33-5","lat":35.7345953,"lon":139.8360199},{"name":"東間葬儀社","province":"東京都","city":"葛飾区","address":"東京都葛飾区四つ木2丁目3-9","lat":35.73532582,"lon":139.83486168},{"name":"（株）八木井","province":"東京都","city":"葛飾区","address":"東京都葛飾区堀切2丁目34-2","lat":35.74504354,"lon":139.82592301},{"name":"（有）登坂商店","province":"東京都","city":"葛飾区","address":"東京都葛飾区堀切2丁目35-3","lat":35.74575453,"lon":139.82591738},{"name":"稲垣屋葬儀店","province":"東京都","city":"葛飾区","address":"東京都葛飾区堀切6丁目33-4","lat":35.75318384,"lon":139.82765534},{"name":"（有）秋元商店","province":"東京都","city":"葛飾区","address":"東京都葛飾区東堀切2丁目13-8","lat":35.75377009,"lon":139.83614627},{"name":"（有）セレモニーマルヤマ","province":"東京都","city":"葛飾区","address":"東京都葛飾区青戸3丁目33-18","lat":35.74656001,"lon":139.8554865},{"name":"（有）網代屋葬儀社青戸支店","province":"東京都","city":"葛飾区","address":"東京都葛飾区青戸4丁目22-22","lat":35.74858752,"lon":139.8526561},{"name":"（有）島田富義葬祭式典","province":"東京都","city":"葛飾区","address":"東京都葛飾区亀有3丁目14-10","lat":35.7630218,"lon":139.84898083},{"name":"（有）網代屋葬儀社本店","province":"東京都","city":"葛飾区","address":"東京都葛飾区高砂5丁目35-11","lat":35.7517789,"lon":139.86808531},{"name":"（株）島村葬儀社","province":"東京都","city":"葛飾区","address":"東京都葛飾区金町6丁目1-14","lat":35.76745719,"lon":139.87160132},{"name":"（株）東京供養舎（かなまち会館）","province":"東京都","city":"葛飾区","address":"東京都葛飾区東金町4丁目37-1","lat":35.77491998,"lon":139.87306216},{"name":"立石みんな子ども食堂","province":"東京都","city":"葛飾区","address":"東京都葛飾区立石1丁目21-12","lat":35.73770808,"lon":139.85014569},{"name":"たていしこども食堂実行委員会","province":"東京都","city":"葛飾区","address":"東京都葛飾区立石1丁目21-12","lat":35.73770808,"lon":139.85014569},{"name":"えまいまキッチン","province":"東京都","city":"葛飾区","address":"東京都葛飾区亀有3丁目32-3","lat":35.76494653,"lon":139.84890299},{"name":"青空っ子こども食堂","province":"東京都","city":"葛飾区","address":"東京都葛飾区お花茶屋3丁目5-6","lat":35.75648368,"lon":139.84306772},{"name":"こども食堂　トコ","province":"東京都","city":"葛飾区","address":"東京都葛飾区東水元2-35-16","lat":35.7807536,"lon":139.868906},{"name":"ほっこり食堂","province":"東京都","city":"葛飾区","address":"東京都葛飾区立石8丁目51-7","lat":35.73898869,"lon":139.85940314},{"name":"マミー子ども食堂","province":"東京都","city":"葛飾区","address":"東京都葛飾区東金町4丁目7-7","lat":35.77312574,"lon":139.87489821},{"name":"(株）伊藤葬祭","province":"東京都","city":"葛飾区","address":"東京都葛飾区新小岩1丁目48-8","lat":35.71652119,"lon":139.85929903},{"name":"(有）上平井葬儀社","province":"東京都","city":"葛飾区","address":"東京都葛飾区西新小岩3丁目39-8","lat":35.72376226,"lon":139.8467885},{"name":"（有）網代屋葬儀社奥戸支店","province":"東京都","city":"葛飾区","address":"東京都葛飾区奥戸3丁目28-11","lat":35.73451157,"lon":139.86399463},{"name":"（有）橋本葬儀社","province":"東京都","city":"葛飾区","address":"東京都葛飾区東立石4丁目46-6","lat":35.73720813,"lon":139.85044291},{"name":"（株）葵式典（島田会館）","province":"東京都","city":"葛飾区","address":"東京都葛飾区四つ木1丁目33-5","lat":35.7345953,"lon":139.8360199},{"name":"東間葬儀社","province":"東京都","city":"葛飾区","address":"東京都葛飾区四つ木2丁目3-9","lat":35.73532582,"lon":139.83486168},{"name":"（株）八木井","province":"東京都","city":"葛飾区","address":"東京都葛飾区堀切2丁目34-2","lat":35.74504354,"lon":139.82592301},{"name":"（有）登坂商店","province":"東京都","city":"葛飾区","address":"東京都葛飾区堀切2丁目35-3","lat":35.74575453,"lon":139.82591738},{"name":"稲垣屋葬儀店","province":"東京都","city":"葛飾区","address":"東京都葛飾区堀切6丁目33-4","lat":35.75318384,"lon":139.82765534},{"name":"（有）秋元商店","province":"東京都","city":"葛飾区","address":"東京都葛飾区東堀切2丁目13-8","lat":35.75377009,"lon":139.83614627},{"name":"（有）セレモニーマルヤマ","province":"東京都","city":"葛飾区","address":"東京都葛飾区青戸3丁目33-18","lat":35.74656001,"lon":139.8554865},{"name":"（有）網代屋葬儀社青戸支店","province":"東京都","city":"葛飾区","address":"東京都葛飾区青戸4丁目22-22","lat":35.74858752,"lon":139.8526561},{"name":"（有）島田富義葬祭式典","province":"東京都","city":"葛飾区","address":"東京都葛飾区亀有3丁目14-10","lat":35.7630218,"lon":139.84898083},{"name":"（有）網代屋葬儀社本店","province":"東京都","city":"葛飾区","address":"東京都葛飾区高砂5丁目35-11","lat":35.7517789,"lon":139.86808531},{"name":"（株）島村葬儀社","province":"東京都","city":"葛飾区","address":"東京都葛飾区金町6丁目1-14","lat":35.76745719,"lon":139.87160132},{"name":"（株）東京供養舎（かなまち会館）","province":"東京都","city":"葛飾区","address":"東京都葛飾区東金町4丁目37-1","lat":35.77491998,"lon":139.87306216},{"name":"立石みんな子ども食堂","province":"東京都","city":"葛飾区","address":"東京都葛飾区立石1丁目21-12","lat":35.73770808,"lon":139.85014569},{"name":"たていしこども食堂実行委員会","province":"東京都","city":"葛飾区","address":"東京都葛飾区立石1丁目21-12","lat":35.73770808,"lon":139.85014569},{"name":"えまいまキッチン","province":"東京都","city":"葛飾区","address":"東京都葛飾区亀有3丁目32-3","lat":35.76494653,"lon":139.84890299},{"name":"青空っ子こども食堂","province":"東京都","city":"葛飾区","address":"東京都葛飾区お花茶屋3丁目5-6","lat":35.75648368,"lon":139.84306772},{"name":"こども食堂　トコ","province":"東京都","city":"葛飾区","address":"東京都葛飾区東水元2-35-16","lat":35.7807536,"lon":139.868906},{"name":"ほっこり食堂","province":"東京都","city":"葛飾区","address":"東京都葛飾区立石8丁目51-7","lat":35.73898869,"lon":139.85940314},{"name":"マミー子ども食堂","province":"東京都","city":"葛飾区","address":"東京都葛飾区東金町4丁目7-7","lat":35.77312574,"lon":139.87489821},{"name":"(株）伊藤葬祭","province":"東京都","city":"葛飾区","address":"東京都葛飾区新小岩1丁目48-8","lat":35.71652119,"lon":139.85929903},{"name":"(有）上平井葬儀社","province":"東京都","city":"葛飾区","address":"東京都葛飾区西新小岩3丁目39-8","lat":35.72376226,"lon":139.8467885},{"name":"（有）網代屋葬儀社奥戸支店","province":"東京都","city":"葛飾区","address":"東京都葛飾区奥戸3丁目28-11","lat":35.73451157,"lon":139.86399463},{"name":"（有）橋本葬儀社","province":"東京都","city":"葛飾区","address":"東京都葛飾区東立石4丁目46-6","lat":35.73720813,"lon":139.85044291},{"name":"（株）葵式典（島田会館）","province":"東京都","city":"葛飾区","address":"東京都葛飾区四つ木1丁目33-5","lat":35.7345953,"lon":139.8360199},{"name":"東間葬儀社","province":"東京都","city":"葛飾区","address":"東京都葛飾区四つ木2丁目3-9","lat":35.73532582,"lon":139.83486168},{"name":"（株）八木井","province":"東京都","city":"葛飾区","address":"東京都葛飾区堀切2丁目34-2","lat":35.74504354,"lon":139.82592301},{"name":"（有）登坂商店","province":"東京都","city":"葛飾区","address":"東京都葛飾区堀切2丁目35-3","lat":35.74575453,"lon":139.82591738},{"name":"稲垣屋葬儀店","province":"東京都","city":"葛飾区","address":"東京都葛飾区堀切6丁目33-4","lat":35.75318384,"lon":139.82765534},{"name":"（有）秋元商店","province":"東京都","city":"葛飾区","address":"東京都葛飾区東堀切2丁目13-8","lat":35.75377009,"lon":139.83614627},{"name":"（有）セレモニーマルヤマ","province":"東京都","city":"葛飾区","address":"東京都葛飾区青戸3丁目33-18","lat":35.74656001,"lon":139.8554865},{"name":"（有）網代屋葬儀社青戸支店","province":"東京都","city":"葛飾区","address":"東京都葛飾区青戸4丁目22-22","lat":35.74858752,"lon":139.8526561},{"name":"（有）島田富義葬祭式典","province":"東京都","city":"葛飾区","address":"東京都葛飾区亀有3丁目14-10","lat":35.7630218,"lon":139.84898083},{"name":"（有）網代屋葬儀社本店","province":"東京都","city":"葛飾区","address":"東京都葛飾区高砂5丁目35-11","lat":35.7517789,"lon":139.86808531},{"name":"（株）島村葬儀社","province":"東京都","city":"葛飾区","address":"東京都葛飾区金町6丁目1-14","lat":35.76745719,"lon":139.87160132},{"name":"（株）東京供養舎（かなまち会館）","province":"東京都","city":"葛飾区","address":"東京都葛飾区東金町4丁目37-1","lat":35.77491998,"lon":139.87306216},{"name":"立石みんな子ども食堂","province":"東京都","city":"葛飾区","address":"東京都葛飾区立石1丁目21-12","lat":35.73770808,"lon":139.85014569},{"name":"たていしこども食堂実行委員会","province":"東京都","city":"葛飾区","address":"東京都葛飾区立石1丁目21-12","lat":35.73770808,"lon":139.85014569},{"name":"えまいまキッチン","province":"東京都","city":"葛飾区","address":"東京都葛飾区亀有3丁目32-3","lat":35.76494653,"lon":139.84890299},{"name":"青空っ子こども食堂","province":"東京都","city":"葛飾区","address":"東京都葛飾区お花茶屋3丁目5-6","lat":35.75648368,"lon":139.84306772},{"name":"こども食堂　トコ","province":"東京都","city":"葛飾区","address":"東京都葛飾区東水元2-35-16","lat":35.7807536,"lon":139.868906},{"name":"ほっこり食堂","province":"東京都","city":"葛飾区","address":"東京都葛飾区立石8丁目51-7","lat":35.73898869,"lon":139.85940314},{"name":"マミー子ども食堂","province":"東京都","city":"葛飾区","address":"東京都葛飾区東金町4丁目7-7","lat":35.77312574,"lon":139.87489821},{"name":"(株）伊藤葬祭","province":"東京都","city":"葛飾区","address":"東京都葛飾区新小岩1丁目48-8","lat":35.71652119,"lon":139.85929903},{"name":"(有）上平井葬儀社","province":"東京都","city":"葛飾区","address":"東京都葛飾区西新小岩3丁目39-8","lat":35.72376226,"lon":139.8467885},{"name":"（有）網代屋葬儀社奥戸支店","province":"東京都","city":"葛飾区","address":"東京都葛飾区奥戸3丁目28-11","lat":35.73451157,"lon":139.86399463},{"name":"（有）橋本葬儀社","province":"東京都","city":"葛飾区","address":"東京都葛飾区東立石4丁目46-6","lat":35.73720813,"lon":139.85044291},{"name":"（株）葵式典（島田会館）","province":"東京都","city":"葛飾区","address":"東京都葛飾区四つ木1丁目33-5","lat":35.7345953,"lon":139.8360199},{"name":"東間葬儀社","province":"東京都","city":"葛飾区","address":"東京都葛飾区四つ木2丁目3-9","lat":35.73532582,"lon":139.83486168},{"name":"（株）八木井","province":"東京都","city":"葛飾区","address":"東京都葛飾区堀切2丁目34-2","lat":35.74504354,"lon":139.82592301},{"name":"（有）登坂商店","province":"東京都","city":"葛飾区","address":"東京都葛飾区堀切2丁目35-3","lat":35.74575453,"lon":139.82591738},{"name":"稲垣屋葬儀店","province":"東京都","city":"葛飾区","address":"東京都葛飾区堀切6丁目33-4","lat":35.75318384,"lon":139.82765534},{"name":"（有）秋元商店","province":"東京都","city":"葛飾区","address":"東京都葛飾区東堀切2丁目13-8","lat":35.75377009,"lon":139.83614627},{"name":"（有）セレモニーマルヤマ","province":"東京都","city":"葛飾区","address":"東京都葛飾区青戸3丁目33-18","lat":35.74656001,"lon":139.8554865},{"name":"（有）網代屋葬儀社青戸支店","province":"東京都","city":"葛飾区","address":"東京都葛飾区青戸4丁目22-22","lat":35.74858752,"lon":139.8526561},{"name":"（有）島田富義葬祭式典","province":"東京都","city":"葛飾区","address":"東京都葛飾区亀有3丁目14-10","lat":35.7630218,"lon":139.84898083},{"name":"（有）網代屋葬儀社本店","province":"東京都","city":"葛飾区","address":"東京都葛飾区高砂5丁目35-11","lat":35.7517789,"lon":139.86808531},{"name":"（株）島村葬儀社","province":"東京都","city":"葛飾区","address":"東京都葛飾区金町6丁目1-14","lat":35.76745719,"lon":139.87160132},{"name":"（株）東京供養舎（かなまち会館）","province":"東京都","city":"葛飾区","address":"東京都葛飾区東金町4丁目37-1","lat":35.77491998,"lon":139.87306216},{"name":"立石みんな子ども食堂","province":"東京都","city":"葛飾区","address":"東京都葛飾区立石1丁目21-12","lat":35.73770808,"lon":139.85014569},{"name":"たていしこども食堂実行委員会","province":"東京都","city":"葛飾区","address":"東京都葛飾区立石1丁目21-12","lat":35.73770808,"lon":139.85014569},{"name":"えまいまキッチン","province":"東京都","city":"葛飾区","address":"東京都葛飾区亀有3丁目32-3","lat":35.76494653,"lon":139.84890299},{"name":"青空っ子こども食堂","province":"東京都","city":"葛飾区","address":"東京都葛飾区お花茶屋3丁目5-6","lat":35.75648368,"lon":139.84306772},{"name":"こども食堂　トコ","province":"東京都","city":"葛飾区","address":"東京都葛飾区東水元2-35-16","lat":35.7807536,"lon":139.868906},{"name":"ほっこり食堂","province":"東京都","city":"葛飾区","address":"東京都葛飾区立石8丁目51-7","lat":35.73898869,"lon":139.85940314},{"name":"マミー子ども食堂","province":"東京都","city":"葛飾区","address":"東京都葛飾区東金町4丁目7-7","lat":35.77312574,"lon":139.87489821},{"name":"(株）伊藤葬祭","province":"東京都","city":"葛飾区","address":"東京都葛飾区新小岩1丁目48-8","lat":35.71652119,"lon":139.85929903},{"name":"(有）上平井葬儀社","province":"東京都","city":"葛飾区","address":"東京都葛飾区西新小岩3丁目39-8","lat":35.72376226,"lon":139.8467885},{"name":"（有）網代屋葬儀社奥戸支店","province":"東京都","city":"葛飾区","address":"東京都葛飾区奥戸3丁目28-11","lat":35.73451157,"lon":139.86399463},{"name":"（有）橋本葬儀社","province":"東京都","city":"葛飾区","address":"東京都葛飾区東立石4丁目46-6","lat":35.73720813,"lon":139.85044291},{"name":"（株）葵式典（島田会館）","province":"東京都","city":"葛飾区","address":"東京都葛飾区四つ木1丁目33-5","lat":35.7345953,"lon":139.8360199},{"name":"東間葬儀社","province":"東京都","city":"葛飾区","address":"東京都葛飾区四つ木2丁目3-9","lat":35.73532582,"lon":139.83486168},{"name":"（株）八木井","province":"東京都","city":"葛飾区","address":"東京都葛飾区堀切2丁目34-2","lat":35.74504354,"lon":139.82592301},{"name":"（有）登坂商店","province":"東京都","city":"葛飾区","address":"東京都葛飾区堀切2丁目35-3","lat":35.74575453,"lon":139.82591738},{"name":"稲垣屋葬儀店","province":"東京都","city":"葛飾区","address":"東京都葛飾区堀切6丁目33-4","lat":35.75318384,"lon":139.82765534},{"name":"（有）秋元商店","province":"東京都","city":"葛飾区","address":"東京都葛飾区東堀切2丁目13-8","lat":35.75377009,"lon":139.83614627},{"name":"（有）セレモニーマルヤマ","province":"東京都","city":"葛飾区","address":"東京都葛飾区青戸3丁目33-18","lat":35.74656001,"lon":139.8554865},{"name":"（有）網代屋葬儀社青戸支店","province":"東京都","city":"葛飾区","address":"東京都葛飾区青戸4丁目22-22","lat":35.74858752,"lon":139.8526561},{"name":"（有）島田富義葬祭式典","province":"東京都","city":"葛飾区","address":"東京都葛飾区亀有3丁目14-10","lat":35.7630218,"lon":139.84898083},{"name":"（有）網代屋葬儀社本店","province":"東京都","city":"葛飾区","address":"東京都葛飾区高砂5丁目35-11","lat":35.7517789,"lon":139.86808531},{"name":"（株）島村葬儀社","province":"東京都","city":"葛飾区","address":"東京都葛飾区金町6丁目1-14","lat":35.76745719,"lon":139.87160132},{"name":"（株）東京供養舎（かなまち会館）","province":"東京都","city":"葛飾区","address":"東京都葛飾区東金町4丁目37-1","lat":35.77491998,"lon":139.87306216},{"name":"立石みんな子ども食堂","province":"東京都","city":"葛飾区","address":"東京都葛飾区立石1丁目21-12","lat":35.73770808,"lon":139.85014569},{"name":"たていしこども食堂実行委員会","province":"東京都","city":"葛飾区","address":"東京都葛飾区立石1丁目21-12","lat":35.73770808,"lon":139.85014569},{"name":"えまいまキッチン","province":"東京都","city":"葛飾区","address":"東京都葛飾区亀有3丁目32-3","lat":35.76494653,"lon":139.84890299},{"name":"青空っ子こども食堂","province":"東京都","city":"葛飾区","address":"東京都葛飾区お花茶屋3丁目5-6","lat":35.75648368,"lon":139.84306772},{"name":"こども食堂　トコ","province":"東京都","city":"葛飾区","address":"東京都葛飾区東水元2-35-16","lat":35.7807536,"lon":139.868906},{"name":"ほっこり食堂","province":"東京都","city":"葛飾区","address":"東京都葛飾区立石8丁目51-7","lat":35.73898869,"lon":139.85940314},{"name":"マミー子ども食堂","province":"東京都","city":"葛飾区","address":"東京都葛飾区東金町4丁目7-7","lat":35.77312574,"lon":139.87489821},{"name":"(株）伊藤葬祭","province":"東京都","city":"葛飾区","address":"東京都葛飾区新小岩1丁目48-8","lat":35.71652119,"lon":139.85929903},{"name":"(有）上平井葬儀社","province":"東京都","city":"葛飾区","address":"東京都葛飾区西新小岩3丁目39-8","lat":35.72376226,"lon":139.8467885},{"name":"（有）網代屋葬儀社奥戸支店","province":"東京都","city":"葛飾区","address":"東京都葛飾区奥戸3丁目28-11","lat":35.73451157,"lon":139.86399463},{"name":"（有）橋本葬儀社","province":"東京都","city":"葛飾区","address":"東京都葛飾区東立石4丁目46-6","lat":35.73720813,"lon":139.85044291},{"name":"（株）葵式典（島田会館）","province":"東京都","city":"葛飾区","address":"東京都葛飾区四つ木1丁目33-5","lat":35.7345953,"lon":139.8360199},{"name":"東間葬儀社","province":"東京都","city":"葛飾区","address":"東京都葛飾区四つ木2丁目3-9","lat":35.73532582,"lon":139.83486168},{"name":"（株）八木井","province":"東京都","city":"葛飾区","address":"東京都葛飾区堀切2丁目34-2","lat":35.74504354,"lon":139.82592301},{"name":"（有）登坂商店","province":"東京都","city":"葛飾区","address":"東京都葛飾区堀切2丁目35-3","lat":35.74575453,"lon":139.82591738},{"name":"稲垣屋葬儀店","province":"東京都","city":"葛飾区","address":"東京都葛飾区堀切6丁目33-4","lat":35.75318384,"lon":139.82765534},{"name":"（有）秋元商店","province":"東京都","city":"葛飾区","address":"東京都葛飾区東堀切2丁目13-8","lat":35.75377009,"lon":139.83614627},{"name":"（有）セレモニーマルヤマ","province":"東京都","city":"葛飾区","address":"東京都葛飾区青戸3丁目33-18","lat":35.74656001,"lon":139.8554865},{"name":"（有）網代屋葬儀社青戸支店","province":"東京都","city":"葛飾区","address":"東京都葛飾区青戸4丁目22-22","lat":35.74858752,"lon":139.8526561},{"name":"（有）島田富義葬祭式典","province":"東京都","city":"葛飾区","address":"東京都葛飾区亀有3丁目14-10","lat":35.7630218,"lon":139.84898083},{"name":"（有）網代屋葬儀社本店","province":"東京都","city":"葛飾区","address":"東京都葛飾区高砂5丁目35-11","lat":35.7517789,"lon":139.86808531},{"name":"（株）島村葬儀社","province":"東京都","city":"葛飾区","address":"東京都葛飾区金町6丁目1-14","lat":35.76745719,"lon":139.87160132},{"name":"（株）東京供養舎（かなまち会館）","province":"東京都","city":"葛飾区","address":"東京都葛飾区東金町4丁目37-1","lat":35.77491998,"lon":139.87306216},{"name":"立石みんな子ども食堂","province":"東京都","city":"葛飾区","address":"東京都葛飾区立石1丁目21-12","lat":35.73770808,"lon":139.85014569},{"name":"たていしこども食堂実行委員会","province":"東京都","city":"葛飾区","address":"東京都葛飾区立石1丁目21-12","lat":35.73770808,"lon":139.85014569},{"name":"えまいまキッチン","province":"東京都","city":"葛飾区","address":"東京都葛飾区亀有3丁目32-3","lat":35.76494653,"lon":139.84890299},{"name":"青空っ子こども食堂","province":"東京都","city":"葛飾区","address":"東京都葛飾区お花茶屋3丁目5-6","lat":35.75648368,"lon":139.84306772},{"name":"こども食堂　トコ","province":"東京都","city":"葛飾区","address":"東京都葛飾区東水元2-35-16","lat":35.7807536,"lon":139.868906},{"name":"ほっこり食堂","province":"東京都","city":"葛飾区","address":"東京都葛飾区立石8丁目51-7","lat":35.73898869,"lon":139.85940314},{"name":"マミー子ども食堂","province":"東京都","city":"葛飾区","address":"東京都葛飾区東金町4丁目7-7","lat":35.77312574,"lon":139.87489821},{"name":"(株）伊藤葬祭","province":"東京都","city":"葛飾区","address":"東京都葛飾区新小岩1丁目48-8","lat":35.71652119,"lon":139.85929903},{"name":"(有）上平井葬儀社","province":"東京都","city":"葛飾区","address":"東京都葛飾区西新小岩3丁目39-8","lat":35.72376226,"lon":139.8467885},{"name":"（有）網代屋葬儀社奥戸支店","province":"東京都","city":"葛飾区","address":"東京都葛飾区奥戸3丁目28-11","lat":35.73451157,"lon":139.86399463},{"name":"（有）橋本葬儀社","province":"東京都","city":"葛飾区","address":"東京都葛飾区東立石4丁目46-6","lat":35.73720813,"lon":139.85044291},{"name":"（株）葵式典（島田会館）","province":"東京都","city":"葛飾区","address":"東京都葛飾区四つ木1丁目33-5","lat":35.7345953,"lon":139.8360199},{"name":"東間葬儀社","province":"東京都","city":"葛飾区","address":"東京都葛飾区四つ木2丁目3-9","lat":35.73532582,"lon":139.83486168},{"name":"（株）八木井","province":"東京都","city":"葛飾区","address":"東京都葛飾区堀切2丁目34-2","lat":35.74504354,"lon":139.82592301},{"name":"（有）登坂商店","province":"東京都","city":"葛飾区","address":"東京都葛飾区堀切2丁目35-3","lat":35.74575453,"lon":139.82591738},{"name":"稲垣屋葬儀店","province":"東京都","city":"葛飾区","address":"東京都葛飾区堀切6丁目33-4","lat":35.75318384,"lon":139.82765534},{"name":"（有）秋元商店","province":"東京都","city":"葛飾区","address":"東京都葛飾区東堀切2丁目13-8","lat":35.75377009,"lon":139.83614627},{"name":"（有）セレモニーマルヤマ","province":"東京都","city":"葛飾区","address":"東京都葛飾区青戸3丁目33-18","lat":35.74656001,"lon":139.8554865},{"name":"（有）網代屋葬儀社青戸支店","province":"東京都","city":"葛飾区","address":"東京都葛飾区青戸4丁目22-22","lat":35.74858752,"lon":139.8526561},{"name":"（有）島田富義葬祭式典","province":"東京都","city":"葛飾区","address":"東京都葛飾区亀有3丁目14-10","lat":35.7630218,"lon":139.84898083},{"name":"（有）網代屋葬儀社本店","province":"東京都","city":"葛飾区","address":"東京都葛飾区高砂5丁目35-11","lat":35.7517789,"lon":139.86808531},{"name":"（株）島村葬儀社","province":"東京都","city":"葛飾区","address":"東京都葛飾区金町6丁目1-14","lat":35.76745719,"lon":139.87160132},{"name":"（株）東京供養舎（かなまち会館）","province":"東京都","city":"葛飾区","address":"東京都葛飾区東金町4丁目37-1","lat":35.77491998,"lon":139.87306216},{"name":"立石みんな子ども食堂","province":"東京都","city":"葛飾区","address":"東京都葛飾区立石1丁目21-12","lat":35.73770808,"lon":139.85014569},{"name":"たていしこども食堂実行委員会","province":"東京都","city":"葛飾区","address":"東京都葛飾区立石1丁目21-12","lat":35.73770808,"lon":139.85014569},{"name":"えまいまキッチン","province":"東京都","city":"葛飾区","address":"東京都葛飾区亀有3丁目32-3","lat":35.76494653,"lon":139.84890299},{"name":"青空っ子こども食堂","province":"東京都","city":"葛飾区","address":"東京都葛飾区お花茶屋3丁目5-6","lat":35.75648368,"lon":139.84306772},{"name":"こども食堂　トコ","province":"東京都","city":"葛飾区","address":"東京都葛飾区東水元2-35-16","lat":35.7807536,"lon":139.868906},{"name":"ほっこり食堂","province":"東京都","city":"葛飾区","address":"東京都葛飾区立石8丁目51-7","lat":35.73898869,"lon":139.85940314},{"name":"マミー子ども食堂","province":"東京都","city":"葛飾区","address":"東京都葛飾区東金町4丁目7-7","lat":35.77312574,"lon":139.87489821},{"name":"(株）伊藤葬祭","province":"東京都","city":"葛飾区","address":"東京都葛飾区新小岩1丁目48-8","lat":35.71652119,"lon":139.85929903},{"name":"(有）上平井葬儀社","province":"東京都","city":"葛飾区","address":"東京都葛飾区西新小岩3丁目39-8","lat":35.72376226,"lon":139.8467885},{"name":"（有）網代屋葬儀社奥戸支店","province":"東京都","city":"葛飾区","address":"東京都葛飾区奥戸3丁目28-11","lat":35.73451157,"lon":139.86399463},{"name":"（有）橋本葬儀社","province":"東京都","city":"葛飾区","address":"東京都葛飾区東立石4丁目46-6","lat":35.73720813,"lon":139.85044291},{"name":"（株）葵式典（島田会館）","province":"東京都","city":"葛飾区","address":"東京都葛飾区四つ木1丁目33-5","lat":35.7345953,"lon":139.8360199},{"name":"東間葬儀社","province":"東京都","city":"葛飾区","address":"東京都葛飾区四つ木2丁目3-9","lat":35.73532582,"lon":139.83486168},{"name":"（株）八木井","province":"東京都","city":"葛飾区","address":"東京都葛飾区堀切2丁目34-2","lat":35.74504354,"lon":139.82592301},{"name":"（有）登坂商店","province":"東京都","city":"葛飾区","address":"東京都葛飾区堀切2丁目35-3","lat":35.74575453,"lon":139.82591738},{"name":"稲垣屋葬儀店","province":"東京都","city":"葛飾区","address":"東京都葛飾区堀切6丁目33-4","lat":35.75318384,"lon":139.82765534},{"name":"（有）秋元商店","province":"東京都","city":"葛飾区","address":"東京都葛飾区東堀切2丁目13-8","lat":35.75377009,"lon":139.83614627},{"name":"（有）セレモニーマルヤマ","province":"東京都","city":"葛飾区","address":"東京都葛飾区青戸3丁目33-18","lat":35.74656001,"lon":139.8554865},{"name":"（有）網代屋葬儀社青戸支店","province":"東京都","city":"葛飾区","address":"東京都葛飾区青戸4丁目22-22","lat":35.74858752,"lon":139.8526561},{"name":"（有）島田富義葬祭式典","province":"東京都","city":"葛飾区","address":"東京都葛飾区亀有3丁目14-10","lat":35.7630218,"lon":139.84898083},{"name":"（有）網代屋葬儀社本店","province":"東京都","city":"葛飾区","address":"東京都葛飾区高砂5丁目35-11","lat":35.7517789,"lon":139.86808531},{"name":"（株）島村葬儀社","province":"東京都","city":"葛飾区","address":"東京都葛飾区金町6丁目1-14","lat":35.76745719,"lon":139.87160132},{"name":"（株）東京供養舎（かなまち会館）","province":"東京都","city":"葛飾区","address":"東京都葛飾区東金町4丁目37-1","lat":35.77491998,"lon":139.87306216},{"name":"立石みんな子ども食堂","province":"東京都","city":"葛飾区","address":"東京都葛飾区立石1丁目21-12","lat":35.73770808,"lon":139.85014569},{"name":"たていしこども食堂実行委員会","province":"東京都","city":"葛飾区","address":"東京都葛飾区立石1丁目21-12","lat":35.73770808,"lon":139.85014569},{"name":"えまいまキッチン","province":"東京都","city":"葛飾区","address":"東京都葛飾区亀有3丁目32-3","lat":35.76494653,"lon":139.84890299},{"name":"青空っ子こども食堂","province":"東京都","city":"葛飾区","address":"東京都葛飾区お花茶屋3丁目5-6","lat":35.75648368,"lon":139.84306772},{"name":"こども食堂　トコ","province":"東京都","city":"葛飾区","address":"東京都葛飾区東水元2-35-16","lat":35.7807536,"lon":139.868906},{"name":"ほっこり食堂","province":"東京都","city":"葛飾区","address":"東京都葛飾区立石8丁目51-7","lat":35.73898869,"lon":139.85940314},{"name":"マミー子ども食堂","province":"東京都","city":"葛飾区","address":"東京都葛飾区東金町4丁目7-7","lat":35.77312574,"lon":139.87489821}]}