{"keyword":"自転車","data":[{"name":"金町駅北口（西側）自転車駐車場","province":"東京都","city":"葛飾区","address":"東京都葛飾区東金町1丁目22-1","lat":35.769718,"lon":139.86884311},{"name":"金町駅北口（東側）自転車駐車場","province":"東京都","city":"葛飾区","address":"東京都葛飾区東金町1丁目45-13","lat":35.76989847,"lon":139.87260954},{"name":"金町駅北口（東金町）自転車駐車場","province":"東京都","city":"葛飾区","address":"東京都葛飾区東金町3丁目5-9","lat":35.7698401,"lon":139.87456499},{"name":"金町高架下自転車駐車場","province":"東京都","city":"葛飾区","address":"東京都葛飾区金町6丁目7-24","lat":35.76793488,"lon":139.87238182},{"name":"金町南自転車駐車場","province":"東京都","city":"葛飾区","address":"東京都葛飾区金町6丁目13-5","lat":35.76926519,"lon":139.87454278},{"name":"東金町一丁目自転車駐車場","province":"東京都","city":"葛飾区","address":"東京都葛飾区東金町1丁目9","lat":35.7698208,"lon":139.86648493},{"name":"新小岩北口自転車駐車場","province":"東京都","city":"葛飾区","address":"東京都葛飾区西新小岩1丁目6-6","lat":35.71843771,"lon":139.85628245},{"name":"西井堀第一自転車駐車場","province":"東京都","city":"葛飾区","address":"東京都葛飾区西新小岩1丁目1","lat":35.71611838,"lon":139.85394669},{"name":"西井堀第三自転車駐車場","province":"東京都","city":"葛飾区","address":"東京都葛飾区西新小岩1丁目1","lat":35.71611838,"lon":139.85394669},{"name":"西井堀第四自転車駐車場","province":"東京都","city":"葛飾区","address":"東京都葛飾区西新小岩1丁目1","lat":35.71611838,"lon":139.85394669},{"name":"新小岩東自転車駐車場","province":"東京都","city":"葛飾区","address":"東京都葛飾区新小岩4丁目2-3","lat":35.71908233,"lon":139.86219572},{"name":"新小岩駅南口自転車駐車場","province":"東京都","city":"葛飾区","address":"東京都葛飾区新小岩1丁目29-1","lat":35.71616841,"lon":139.85743253},{"name":"新小岩東北自転車駐車場","province":"東京都","city":"葛飾区","address":"東京都葛飾区東新小岩1丁目16-14","lat":35.72143486,"lon":139.86118178},{"name":"亀有東自転車駐車場","province":"東京都","city":"葛飾区","address":"東京都葛飾区亀有3丁目25-2","lat":35.76726288,"lon":139.85026392},{"name":"亀有南（リリオ）自転車駐車場","province":"東京都","city":"葛飾区","address":"東京都葛飾区亀有3丁目26-3","lat":35.76688516,"lon":139.849414},{"name":"亀有駅南口公園下自転車駐車場","province":"東京都","city":"葛飾区","address":"東京都葛飾区亀有3丁目25-1","lat":35.76662684,"lon":139.84805579},{"name":"亀有西自転車駐車場","province":"東京都","city":"葛飾区","address":"東京都葛飾区亀有4丁目33-6","lat":35.76486316,"lon":139.84483111},{"name":"高砂自転車駐車場","province":"東京都","city":"葛飾区","address":"東京都葛飾区高砂5丁目6-7","lat":35.75139839,"lon":139.86520219},{"name":"四つ木高架下自転車駐車場","province":"東京都","city":"葛飾区","address":"東京都葛飾区東四つ木3丁目23-1","lat":35.7309599,"lon":139.83531194},{"name":"立石北第一自転車駐車場","province":"東京都","city":"葛飾区","address":"東京都葛飾区立石7丁目1-15","lat":35.73854409,"lon":139.84947626},{"name":"立石北第二自転車駐車場","province":"東京都","city":"葛飾区","address":"東京都葛飾区立石4丁目18-8","lat":35.73931344,"lon":139.84803192},{"name":"立石南第一自転車駐車場","province":"東京都","city":"葛飾区","address":"東京都葛飾区立石1丁目22-15","lat":35.73811359,"lon":139.84989014},{"name":"お花茶屋地下自転車駐車場","province":"東京都","city":"葛飾区","address":"東京都葛飾区白鳥2丁目1-1","lat":35.74784036,"lon":139.84131557},{"name":"お花茶屋南自転車駐車場","province":"東京都","city":"葛飾区","address":"東京都葛飾区白鳥1丁目1-12","lat":35.74608505,"lon":139.84086572},{"name":"堀切北第一自転車駐車場","province":"東京都","city":"葛飾区","address":"東京都葛飾区堀切4丁目57-13","lat":35.74862072,"lon":139.82708363},{"name":"青戸北第一自転車駐車場","province":"東京都","city":"葛飾区","address":"東京都葛飾区青戸3丁目27-6","lat":35.74540735,"lon":139.85409222},{"name":"青戸高架下第一自転車駐車場","province":"東京都","city":"葛飾区","address":"東京都葛飾区立石6丁目39-8","lat":35.74434637,"lon":139.8547311},{"name":"青戸南第一自転車駐車場","province":"東京都","city":"葛飾区","address":"東京都葛飾区青戸3丁目33-14","lat":35.74693497,"lon":139.85584478},{"name":"新柴又高架下第一自転車駐車場","province":"東京都","city":"葛飾区","address":"東京都葛飾区鎌倉3丁目20-4","lat":35.75026796,"lon":139.87779303},{"name":"新柴又高架下第二自転車駐車場","province":"東京都","city":"葛飾区","address":"東京都葛飾区柴又5丁目13-11","lat":35.75178714,"lon":139.88103723},{"name":"四つ木北自転車置場","province":"東京都","city":"葛飾区","address":"東京都葛飾区四つ木1丁目8-9","lat":35.73401774,"lon":139.83271206},{"name":"環七青砥橋下自転車駐車場","province":"東京都","city":"葛飾区","address":"東京都葛飾区青戸2丁目12-15","lat":35.74717663,"lon":139.85887783},{"name":"ST-Park亀有駅北口第1駐車駐輪場","province":"東京都","city":"葛飾区","address":"東京都葛飾区亀有5丁目39-11","lat":35.76893209,"lon":139.84792517},{"name":"ST-Park亀有駅南口第1駐輪場","province":"東京都","city":"葛飾区","address":"東京都葛飾区亀有3丁目6","lat":35.76531035,"lon":139.84659206},{"name":"CCPお花茶屋第1駐輪場","province":"東京都","city":"葛飾区","address":"東京都葛飾区お花茶屋1丁目19-19","lat":35.74786537,"lon":139.84002404},{"name":"立石北第三自転車駐車場","province":"東京都","city":"葛飾区","address":"東京都葛飾区立石4丁目23-1","lat":35.73832741,"lon":139.84755422},{"name":"新小岩東南自転車駐車場","province":"東京都","city":"葛飾区","address":"東京都葛飾区新小岩2丁目2-12","lat":35.71835731,"lon":139.86103758},{"name":"立石北第一臨時自転車駐車場","province":"東京都","city":"葛飾区","address":"東京都葛飾区立石4丁目25","lat":35.73845798,"lon":139.84874856}]}