{"keyword":"葬儀","data":[{"name":"(株）伊藤葬祭","province":"東京都","city":"葛飾区","address":"東京都葛飾区新小岩1丁目48-8","lat":35.71652119,"lon":139.85929903},{"name":"(有）上平井葬儀社","province":"東京都","city":"葛飾区","address":"東京都葛飾区西新小岩3丁目39-8","lat":35.72376226,"lon":139.8467885},{"name":"（有）網代屋葬儀社奥戸支店","province":"東京都","city":"葛飾区","address":"東京都葛飾区奥戸3丁目28-11","lat":35.73451157,"lon":139.86399463},{"name":"（有）橋本葬儀社","province":"東京都","city":"葛飾区","address":"東京都葛飾区東立石4丁目46-6","lat":35.73720813,"lon":139.85044291},{"name":"（株）葵式典（島田会館）","province":"東京都","city":"葛飾区","address":"東京都葛飾区四つ木1丁目33-5","lat":35.7345953,"lon":139.8360199},{"name":"東間葬儀社","province":"東京都","city":"葛飾区","address":"東京都葛飾区四つ木2丁目3-9","lat":35.73532582,"lon":139.83486168},{"name":"（株）八木井","province":"東京都","city":"葛飾区","address":"東京都葛飾区堀切2丁目34-2","lat":35.74504354,"lon":139.82592301},{"name":"（有）登坂商店","province":"東京都","city":"葛飾区","address":"東京都葛飾区堀切2丁目35-3","lat":35.74575453,"lon":139.82591738},{"name":"稲垣屋葬儀店","province":"東京都","city":"葛飾区","address":"東京都葛飾区堀切6丁目33-4","lat":35.75318384,"lon":139.82765534},{"name":"（有）秋元商店","province":"東京都","city":"葛飾区","address":"東京都葛飾区東堀切2丁目13-8","lat":35.75377009,"lon":139.83614627},{"name":"（有）セレモニーマルヤマ","province":"東京都","city":"葛飾区","address":"東京都葛飾区青戸3丁目33-18","lat":35.74656001,"lon":139.8554865},{"name":"（有）網代屋葬儀社青戸支店","province":"東京都","city":"葛飾区","address":"東京都葛飾区青戸4丁目22-22","lat":35.74858752,"lon":139.8526561},{"name":"（有）島田富義葬祭式典","province":"東京都","city":"葛飾区","address":"東京都葛飾区亀有3丁目14-10","lat":35.7630218,"lon":139.84898083},{"name":"（有）網代屋葬儀社本店","province":"東京都","city":"葛飾区","address":"東京都葛飾区高砂5丁目35-11","lat":35.7517789,"lon":139.86808531},{"name":"（株）島村葬儀社","province":"東京都","city":"葛飾区","address":"東京都葛飾区金町6丁目1-14","lat":35.76745719,"lon":139.87160132},{"name":"（株）東京供養舎（かなまち会館）","province":"東京都","city":"葛飾区","address":"東京都葛飾区東金町4丁目37-1","lat":35.77491998,"lon":139.87306216}]}