{"keyword":"認可","data":[{"name":"西亀有保育園","province":"東京都","city":"葛飾区","address":"葛飾区西亀有1-18-6","lat":35.75827,"lon":139.83905},{"name":"京進のほいくえんビーフェア堀切菖蒲園","province":"東京都","city":"葛飾区","address":"葛飾区堀切4‐49‐6","lat":35.74774,"lon":139.82436},{"name":"そあ保育園","province":"東京都","city":"葛飾区","address":"葛飾区水元3-13-20","lat":35.7826,"lon":139.86394},{"name":"京進のほいくえんビーフェア京成小岩駅","province":"東京都","city":"葛飾区","address":"葛飾区鎌倉1‐4‐15","lat":35.74273,"lon":139.87573},{"name":"AIAI NURSERY 高砂","province":"東京都","city":"葛飾区","address":"葛飾区高砂2-31-5","lat":35.74712,"lon":139.86676},{"name":"東立石保育園","province":"東京都","city":"葛飾区","address":"葛飾区東立石3-3-15","lat":35.73583,"lon":139.84317},{"name":"渋江保育園","province":"東京都","city":"葛飾区","address":"葛飾区東四つ木2-15-11","lat":35.7308,"lon":139.84355},{"name":"砂原保育園","province":"東京都","city":"葛飾区","address":"葛飾区西亀有4-8-19","lat":35.76472,"lon":139.83917},{"name":"西亀有保育園","province":"東京都","city":"葛飾区","address":"葛飾区西亀有3-31-9","lat":35.76076,"lon":139.84007},{"name":"金町駅前さくらんぼ保育園","province":"東京都","city":"葛飾区","address":"葛飾区金町6-4-1金町木下ビル2階","lat":35.76902,"lon":139.87135},{"name":"キッズハーモニー・かなまち","province":"東京都","city":"葛飾区","address":"葛飾区金町6-4-2ルミナス金町2階","lat":35.76902,"lon":139.87135},{"name":"南鎌倉保育園","province":"東京都","city":"葛飾区","address":"葛飾区鎌倉1-7-3","lat":35.74445,"lon":139.87607},{"name":"あい・あい保育園　高砂園","province":"東京都","city":"葛飾区","address":"葛飾区高砂2-31-5","lat":35.74712,"lon":139.86676},{"name":"小谷野しょうぶ保育園","province":"東京都","city":"葛飾区","address":"葛飾区堀切4-60-1","lat":35.74933,"lon":139.82596},{"name":"たけのこ第２保育園","province":"東京都","city":"葛飾区","address":"葛飾区堀切8-5-7","lat":35.75734,"lon":139.83225},{"name":"梅田保育園","province":"東京都","city":"葛飾区","address":"葛飾区立石3-26-10","lat":35.74092,"lon":139.84522},{"name":"木下の保育園青砥","province":"東京都","city":"葛飾区","address":"葛飾区立石6-35-14","lat":35.74297,"lon":139.85375},{"name":"ほっぺるランド東立石","province":"東京都","city":"葛飾区","address":"葛飾区東立石2-3-10","lat":35.7334,"lon":139.84432},{"name":"日の出保育園","province":"東京都","city":"葛飾区","address":"葛飾区細田5-24-1","lat":35.74066,"lon":139.87499},{"name":"無二保育園","province":"東京都","city":"葛飾区","address":"葛飾区細田3-16-5","lat":35.74242,"lon":139.86762},{"name":"グローバルキッズ奥戸園","province":"東京都","city":"葛飾区","address":"葛飾区奥戸8-2-4","lat":35.73451,"lon":139.86751},{"name":"かみこまつ保育園","province":"東京都","city":"葛飾区","address":"葛飾区東新小岩3-14-1","lat":35.7236,"lon":139.86173},{"name":"東新小岩保育園","province":"東京都","city":"葛飾区","address":"葛飾区東新小岩4-7-13","lat":35.72735,"lon":139.86202},{"name":"砂原保育園","province":"東京都","city":"葛飾区","address":"葛飾区西亀有4-8-19","lat":35.76473,"lon":139.83917},{"name":"新水元保育園","province":"東京都","city":"葛飾区","address":"葛飾区東水元3-5-7","lat":35.78404,"lon":139.86614},{"name":"水元保育園","province":"東京都","city":"葛飾区","address":"葛飾区南水元4-18-11","lat":35.78042,"lon":139.86581},{"name":"金町ひまわり保育園","province":"東京都","city":"葛飾区","address":"葛飾区東金町1-3-1","lat":35.77033,"lon":139.86525},{"name":"金町どんぐり保育園","province":"東京都","city":"葛飾区","address":"葛飾区東金町1-14-5","lat":35.77102,"lon":139.86762},{"name":"鎌倉保育園","province":"東京都","city":"葛飾区","address":"葛飾区鎌倉3-39-15","lat":35.74788,"lon":139.87911},{"name":"亀青保育園","province":"東京都","city":"葛飾区","address":"葛飾区亀有2-32-28","lat":35.76001,"lon":139.84905},{"name":"青戸もも保育園","province":"東京都","city":"葛飾区","address":"葛飾区青戸4-23-1","lat":35.74942,"lon":139.85169},{"name":"こはるび保育園","province":"東京都","city":"葛飾区","address":"葛飾区青戸7-34-6","lat":35.75609,"lon":139.85642},{"name":"木下の保育園青砥第２","province":"東京都","city":"葛飾区","address":"葛飾区青戸3-33-7","lat":35.74666,"lon":139.85536},{"name":"白鳥保育園","province":"東京都","city":"葛飾区","address":"葛飾区白鳥3-32-6","lat":35.75538,"lon":139.84432},{"name":"金町駅前さくらんぼ保育園","province":"東京都","city":"葛飾区","address":"葛飾区金町6-4-1金町木下ビル2階","lat":35.76414,"lon":139.87032}]}