{"keyword":"重傷","data":[{"name":"葛飾区立総合スポーツセンター陸上競技場","province":"東京都","city":"葛飾区","address":"東京都葛飾区奥戸7丁目17-1","lat":35.73772504,"lon":139.86210297},{"name":"都立水元公園駐車場","province":"東京都","city":"葛飾区","address":"東京都葛飾区水元公園4","lat":35.79240643,"lon":139.86812312},{"name":"都立水元公園多目的広場","province":"東京都","city":"葛飾区","address":"東京都葛飾区東金町8丁目31","lat":35.78263806,"lon":139.88528344},{"name":"葛飾区立柴又公園（矢切の渡し）","province":"東京都","city":"葛飾区","address":"東京都葛飾区柴又7丁目","lat":35.75767798,"lon":139.87675403},{"name":"新四つ木橋地区東岸","province":"東京都","city":"葛飾区","address":"東京都葛飾区東四つ木3丁目","lat":35.73102085,"lon":139.83684505},{"name":"葛飾区立奥戸運動場","province":"東京都","city":"葛飾区","address":"東京都葛飾区高砂1丁目","lat":35.74382707,"lon":139.86149721},{"name":"葛飾区立新小岩公園","province":"東京都","city":"葛飾区","address":"東京都葛飾区西新小岩1丁目1-3","lat":35.71611839,"lon":139.85476607},{"name":"産業技術研究センター城東支所","province":"東京都","city":"葛飾区","address":"東京都葛飾区青戸7丁目2-5","lat":35.75314809,"lon":139.85219761},{"name":"南葛飾高等学校","province":"東京都","city":"葛飾区","address":"東京都葛飾区立石6丁目4-1","lat":35.74460459,"lon":139.84813447},{"name":"葛飾野高等学校","province":"東京都","city":"葛飾区","address":"東京都葛飾区亀有1丁目7-1","lat":35.7557838,"lon":139.84568418},{"name":"農産高等学校","province":"東京都","city":"葛飾区","address":"東京都葛飾区西亀有1丁目28-1","lat":35.7591722,"lon":139.84153162},{"name":"葛飾商業高等学校","province":"東京都","city":"葛飾区","address":"東京都葛飾区新宿3丁目14-1","lat":35.75721985,"lon":139.86483258},{"name":"葛飾総合高等学校","province":"東京都","city":"葛飾区","address":"東京都葛飾区南水元4丁目21-1","lat":35.77796689,"lon":139.86473761},{"name":"葛飾区立総合スポーツセンター陸上競技場","province":"東京都","city":"葛飾区","address":"東京都葛飾区奥戸7丁目17-1","lat":35.73772504,"lon":139.86210297},{"name":"都立水元公園駐車場","province":"東京都","city":"葛飾区","address":"東京都葛飾区水元公園4","lat":35.79240643,"lon":139.86812312},{"name":"都立水元公園多目的広場","province":"東京都","city":"葛飾区","address":"東京都葛飾区東金町8丁目31","lat":35.78263806,"lon":139.88528344},{"name":"葛飾区立柴又公園（矢切の渡し）","province":"東京都","city":"葛飾区","address":"東京都葛飾区柴又7丁目","lat":35.75767798,"lon":139.87675403},{"name":"新四つ木橋地区東岸","province":"東京都","city":"葛飾区","address":"東京都葛飾区東四つ木3丁目","lat":35.73102085,"lon":139.83684505},{"name":"葛飾区立奥戸運動場","province":"東京都","city":"葛飾区","address":"東京都葛飾区高砂1丁目","lat":35.74382707,"lon":139.86149721},{"name":"葛飾区立新小岩公園","province":"東京都","city":"葛飾区","address":"東京都葛飾区西新小岩1丁目1-3","lat":35.71611839,"lon":139.85476607},{"name":"産業技術研究センター城東支所","province":"東京都","city":"葛飾区","address":"東京都葛飾区青戸7丁目2-5","lat":35.75314809,"lon":139.85219761},{"name":"南葛飾高等学校","province":"東京都","city":"葛飾区","address":"東京都葛飾区立石6丁目4-1","lat":35.74460459,"lon":139.84813447},{"name":"葛飾野高等学校","province":"東京都","city":"葛飾区","address":"東京都葛飾区亀有1丁目7-1","lat":35.7557838,"lon":139.84568418},{"name":"農産高等学校","province":"東京都","city":"葛飾区","address":"東京都葛飾区西亀有1丁目28-1","lat":35.7591722,"lon":139.84153162},{"name":"葛飾商業高等学校","province":"東京都","city":"葛飾区","address":"東京都葛飾区新宿3丁目14-1","lat":35.75721985,"lon":139.86483258},{"name":"葛飾総合高等学校","province":"東京都","city":"葛飾区","address":"東京都葛飾区南水元4丁目21-1","lat":35.77796689,"lon":139.86473761},{"name":"葛飾区立総合スポーツセンター陸上競技場","province":"東京都","city":"葛飾区","address":"東京都葛飾区奥戸7丁目17-1","lat":35.73772504,"lon":139.86210297},{"name":"都立水元公園駐車場","province":"東京都","city":"葛飾区","address":"東京都葛飾区水元公園4","lat":35.79240643,"lon":139.86812312},{"name":"都立水元公園多目的広場","province":"東京都","city":"葛飾区","address":"東京都葛飾区東金町8丁目31","lat":35.78263806,"lon":139.88528344},{"name":"葛飾区立柴又公園（矢切の渡し）","province":"東京都","city":"葛飾区","address":"東京都葛飾区柴又7丁目","lat":35.75767798,"lon":139.87675403},{"name":"新四つ木橋地区東岸","province":"東京都","city":"葛飾区","address":"東京都葛飾区東四つ木3丁目","lat":35.73102085,"lon":139.83684505},{"name":"葛飾区立奥戸運動場","province":"東京都","city":"葛飾区","address":"東京都葛飾区高砂1丁目","lat":35.74382707,"lon":139.86149721},{"name":"葛飾区立新小岩公園","province":"東京都","city":"葛飾区","address":"東京都葛飾区西新小岩1丁目1-3","lat":35.71611839,"lon":139.85476607},{"name":"産業技術研究センター城東支所","province":"東京都","city":"葛飾区","address":"東京都葛飾区青戸7丁目2-5","lat":35.75314809,"lon":139.85219761},{"name":"南葛飾高等学校","province":"東京都","city":"葛飾区","address":"東京都葛飾区立石6丁目4-1","lat":35.74460459,"lon":139.84813447},{"name":"葛飾野高等学校","province":"東京都","city":"葛飾区","address":"東京都葛飾区亀有1丁目7-1","lat":35.7557838,"lon":139.84568418},{"name":"農産高等学校","province":"東京都","city":"葛飾区","address":"東京都葛飾区西亀有1丁目28-1","lat":35.7591722,"lon":139.84153162},{"name":"葛飾商業高等学校","province":"東京都","city":"葛飾区","address":"東京都葛飾区新宿3丁目14-1","lat":35.75721985,"lon":139.86483258},{"name":"葛飾総合高等学校","province":"東京都","city":"葛飾区","address":"東京都葛飾区南水元4丁目21-1","lat":35.77796689,"lon":139.86473761},{"name":"葛飾区立総合スポーツセンター陸上競技場","province":"東京都","city":"葛飾区","address":"東京都葛飾区奥戸7丁目17-1","lat":35.73772504,"lon":139.86210297},{"name":"都立水元公園駐車場","province":"東京都","city":"葛飾区","address":"東京都葛飾区水元公園4","lat":35.79240643,"lon":139.86812312},{"name":"都立水元公園多目的広場","province":"東京都","city":"葛飾区","address":"東京都葛飾区東金町8丁目31","lat":35.78263806,"lon":139.88528344},{"name":"葛飾区立柴又公園（矢切の渡し）","province":"東京都","city":"葛飾区","address":"東京都葛飾区柴又7丁目","lat":35.75767798,"lon":139.87675403},{"name":"新四つ木橋地区東岸","province":"東京都","city":"葛飾区","address":"東京都葛飾区東四つ木3丁目","lat":35.73102085,"lon":139.83684505},{"name":"葛飾区立奥戸運動場","province":"東京都","city":"葛飾区","address":"東京都葛飾区高砂1丁目","lat":35.74382707,"lon":139.86149721},{"name":"葛飾区立新小岩公園","province":"東京都","city":"葛飾区","address":"東京都葛飾区西新小岩1丁目1-3","lat":35.71611839,"lon":139.85476607},{"name":"産業技術研究センター城東支所","province":"東京都","city":"葛飾区","address":"東京都葛飾区青戸7丁目2-5","lat":35.75314809,"lon":139.85219761},{"name":"南葛飾高等学校","province":"東京都","city":"葛飾区","address":"東京都葛飾区立石6丁目4-1","lat":35.74460459,"lon":139.84813447},{"name":"葛飾野高等学校","province":"東京都","city":"葛飾区","address":"東京都葛飾区亀有1丁目7-1","lat":35.7557838,"lon":139.84568418},{"name":"農産高等学校","province":"東京都","city":"葛飾区","address":"東京都葛飾区西亀有1丁目28-1","lat":35.7591722,"lon":139.84153162},{"name":"葛飾商業高等学校","province":"東京都","city":"葛飾区","address":"東京都葛飾区新宿3丁目14-1","lat":35.75721985,"lon":139.86483258},{"name":"葛飾総合高等学校","province":"東京都","city":"葛飾区","address":"東京都葛飾区南水元4丁目21-1","lat":35.77796689,"lon":139.86473761},{"name":"葛飾区立総合スポーツセンター陸上競技場","province":"東京都","city":"葛飾区","address":"東京都葛飾区奥戸7丁目17-1","lat":35.73772504,"lon":139.86210297},{"name":"都立水元公園駐車場","province":"東京都","city":"葛飾区","address":"東京都葛飾区水元公園4","lat":35.79240643,"lon":139.86812312},{"name":"都立水元公園多目的広場","province":"東京都","city":"葛飾区","address":"東京都葛飾区東金町8丁目31","lat":35.78263806,"lon":139.88528344},{"name":"葛飾区立柴又公園（矢切の渡し）","province":"東京都","city":"葛飾区","address":"東京都葛飾区柴又7丁目","lat":35.75767798,"lon":139.87675403},{"name":"新四つ木橋地区東岸","province":"東京都","city":"葛飾区","address":"東京都葛飾区東四つ木3丁目","lat":35.73102085,"lon":139.83684505},{"name":"葛飾区立奥戸運動場","province":"東京都","city":"葛飾区","address":"東京都葛飾区高砂1丁目","lat":35.74382707,"lon":139.86149721},{"name":"葛飾区立新小岩公園","province":"東京都","city":"葛飾区","address":"東京都葛飾区西新小岩1丁目1-3","lat":35.71611839,"lon":139.85476607},{"name":"産業技術研究センター城東支所","province":"東京都","city":"葛飾区","address":"東京都葛飾区青戸7丁目2-5","lat":35.75314809,"lon":139.85219761},{"name":"南葛飾高等学校","province":"東京都","city":"葛飾区","address":"東京都葛飾区立石6丁目4-1","lat":35.74460459,"lon":139.84813447},{"name":"葛飾野高等学校","province":"東京都","city":"葛飾区","address":"東京都葛飾区亀有1丁目7-1","lat":35.7557838,"lon":139.84568418},{"name":"農産高等学校","province":"東京都","city":"葛飾区","address":"東京都葛飾区西亀有1丁目28-1","lat":35.7591722,"lon":139.84153162},{"name":"葛飾商業高等学校","province":"東京都","city":"葛飾区","address":"東京都葛飾区新宿3丁目14-1","lat":35.75721985,"lon":139.86483258},{"name":"葛飾総合高等学校","province":"東京都","city":"葛飾区","address":"東京都葛飾区南水元4丁目21-1","lat":35.77796689,"lon":139.86473761},{"name":"葛飾区立総合スポーツセンター陸上競技場","province":"東京都","city":"葛飾区","address":"東京都葛飾区奥戸7丁目17-1","lat":35.73772504,"lon":139.86210297},{"name":"都立水元公園駐車場","province":"東京都","city":"葛飾区","address":"東京都葛飾区水元公園4","lat":35.79240643,"lon":139.86812312},{"name":"都立水元公園多目的広場","province":"東京都","city":"葛飾区","address":"東京都葛飾区東金町8丁目31","lat":35.78263806,"lon":139.88528344},{"name":"葛飾区立柴又公園（矢切の渡し）","province":"東京都","city":"葛飾区","address":"東京都葛飾区柴又7丁目","lat":35.75767798,"lon":139.87675403},{"name":"新四つ木橋地区東岸","province":"東京都","city":"葛飾区","address":"東京都葛飾区東四つ木3丁目","lat":35.73102085,"lon":139.83684505},{"name":"葛飾区立奥戸運動場","province":"東京都","city":"葛飾区","address":"東京都葛飾区高砂1丁目","lat":35.74382707,"lon":139.86149721},{"name":"葛飾区立新小岩公園","province":"東京都","city":"葛飾区","address":"東京都葛飾区西新小岩1丁目1-3","lat":35.71611839,"lon":139.85476607},{"name":"産業技術研究センター城東支所","province":"東京都","city":"葛飾区","address":"東京都葛飾区青戸7丁目2-5","lat":35.75314809,"lon":139.85219761},{"name":"南葛飾高等学校","province":"東京都","city":"葛飾区","address":"東京都葛飾区立石6丁目4-1","lat":35.74460459,"lon":139.84813447},{"name":"葛飾野高等学校","province":"東京都","city":"葛飾区","address":"東京都葛飾区亀有1丁目7-1","lat":35.7557838,"lon":139.84568418},{"name":"農産高等学校","province":"東京都","city":"葛飾区","address":"東京都葛飾区西亀有1丁目28-1","lat":35.7591722,"lon":139.84153162},{"name":"葛飾商業高等学校","province":"東京都","city":"葛飾区","address":"東京都葛飾区新宿3丁目14-1","lat":35.75721985,"lon":139.86483258},{"name":"葛飾総合高等学校","province":"東京都","city":"葛飾区","address":"東京都葛飾区南水元4丁目21-1","lat":35.77796689,"lon":139.86473761},{"name":"葛飾区立総合スポーツセンター陸上競技場","province":"東京都","city":"葛飾区","address":"東京都葛飾区奥戸7丁目17-1","lat":35.73772504,"lon":139.86210297},{"name":"都立水元公園駐車場","province":"東京都","city":"葛飾区","address":"東京都葛飾区水元公園4","lat":35.79240643,"lon":139.86812312},{"name":"都立水元公園多目的広場","province":"東京都","city":"葛飾区","address":"東京都葛飾区東金町8丁目31","lat":35.78263806,"lon":139.88528344},{"name":"葛飾区立柴又公園（矢切の渡し）","province":"東京都","city":"葛飾区","address":"東京都葛飾区柴又7丁目","lat":35.75767798,"lon":139.87675403},{"name":"新四つ木橋地区東岸","province":"東京都","city":"葛飾区","address":"東京都葛飾区東四つ木3丁目","lat":35.73102085,"lon":139.83684505},{"name":"葛飾区立奥戸運動場","province":"東京都","city":"葛飾区","address":"東京都葛飾区高砂1丁目","lat":35.74382707,"lon":139.86149721},{"name":"葛飾区立新小岩公園","province":"東京都","city":"葛飾区","address":"東京都葛飾区西新小岩1丁目1-3","lat":35.71611839,"lon":139.85476607},{"name":"葛飾区立総合スポーツセンター陸上競技場","province":"東京都","city":"葛飾区","address":"東京都葛飾区奥戸7丁目17-1","lat":35.73772504,"lon":139.86210297},{"name":"都立水元公園駐車場","province":"東京都","city":"葛飾区","address":"東京都葛飾区水元公園4","lat":35.79240643,"lon":139.86812312},{"name":"都立水元公園多目的広場","province":"東京都","city":"葛飾区","address":"東京都葛飾区東金町8丁目31","lat":35.78263806,"lon":139.88528344},{"name":"葛飾区立柴又公園（矢切の渡し）","province":"東京都","city":"葛飾区","address":"東京都葛飾区柴又7丁目","lat":35.75767798,"lon":139.87675403},{"name":"新四つ木橋地区東岸","province":"東京都","city":"葛飾区","address":"東京都葛飾区東四つ木3丁目","lat":35.73102085,"lon":139.83684505},{"name":"葛飾区立奥戸運動場","province":"東京都","city":"葛飾区","address":"東京都葛飾区高砂1丁目","lat":35.74382707,"lon":139.86149721},{"name":"葛飾区立新小岩公園","province":"東京都","city":"葛飾区","address":"東京都葛飾区西新小岩1丁目1-3","lat":35.71611839,"lon":139.85476607},{"name":"葛飾区立総合スポーツセンター陸上競技場","province":"東京都","city":"葛飾区","address":"東京都葛飾区奥戸7丁目17-1","lat":35.73772504,"lon":139.86210297},{"name":"都立水元公園駐車場","province":"東京都","city":"葛飾区","address":"東京都葛飾区水元公園4","lat":35.79240643,"lon":139.86812312},{"name":"都立水元公園多目的広場","province":"東京都","city":"葛飾区","address":"東京都葛飾区東金町8丁目31","lat":35.78263806,"lon":139.88528344},{"name":"葛飾区立柴又公園（矢切の渡し）","province":"東京都","city":"葛飾区","address":"東京都葛飾区柴又7丁目","lat":35.75767798,"lon":139.87675403},{"name":"新四つ木橋地区東岸","province":"東京都","city":"葛飾区","address":"東京都葛飾区東四つ木3丁目","lat":35.73102085,"lon":139.83684505},{"name":"葛飾区立奥戸運動場","province":"東京都","city":"葛飾区","address":"東京都葛飾区高砂1丁目","lat":35.74382707,"lon":139.86149721},{"name":"葛飾区立新小岩公園","province":"東京都","city":"葛飾区","address":"東京都葛飾区西新小岩1丁目1-3","lat":35.71611839,"lon":139.85476607},{"name":"葛飾区立総合スポーツセンター陸上競技場","province":"東京都","city":"葛飾区","address":"東京都葛飾区奥戸7丁目17-1","lat":35.73772504,"lon":139.86210297},{"name":"都立水元公園駐車場","province":"東京都","city":"葛飾区","address":"東京都葛飾区水元公園4","lat":35.79240643,"lon":139.86812312},{"name":"都立水元公園多目的広場","province":"東京都","city":"葛飾区","address":"東京都葛飾区東金町8丁目31","lat":35.78263806,"lon":139.88528344},{"name":"葛飾区立柴又公園（矢切の渡し）","province":"東京都","city":"葛飾区","address":"東京都葛飾区柴又7丁目","lat":35.75767798,"lon":139.87675403},{"name":"新四つ木橋地区東岸","province":"東京都","city":"葛飾区","address":"東京都葛飾区東四つ木3丁目","lat":35.73102085,"lon":139.83684505},{"name":"葛飾区立奥戸運動場","province":"東京都","city":"葛飾区","address":"東京都葛飾区高砂1丁目","lat":35.74382707,"lon":139.86149721},{"name":"葛飾区立新小岩公園","province":"東京都","city":"葛飾区","address":"東京都葛飾区西新小岩1丁目1-3","lat":35.71611839,"lon":139.85476607},{"name":"葛飾区立総合スポーツセンター陸上競技場","province":"東京都","city":"葛飾区","address":"東京都葛飾区奥戸7丁目17-1","lat":35.73772504,"lon":139.86210297},{"name":"都立水元公園駐車場","province":"東京都","city":"葛飾区","address":"東京都葛飾区水元公園4","lat":35.79240643,"lon":139.86812312},{"name":"都立水元公園多目的広場","province":"東京都","city":"葛飾区","address":"東京都葛飾区東金町8丁目31","lat":35.78263806,"lon":139.88528344},{"name":"葛飾区立柴又公園（矢切の渡し）","province":"東京都","city":"葛飾区","address":"東京都葛飾区柴又7丁目","lat":35.75767798,"lon":139.87675403},{"name":"新四つ木橋地区東岸","province":"東京都","city":"葛飾区","address":"東京都葛飾区東四つ木3丁目","lat":35.73102085,"lon":139.83684505},{"name":"葛飾区立奥戸運動場","province":"東京都","city":"葛飾区","address":"東京都葛飾区高砂1丁目","lat":35.74382707,"lon":139.86149721},{"name":"葛飾区立新小岩公園","province":"東京都","city":"葛飾区","address":"東京都葛飾区西新小岩1丁目1-3","lat":35.71611839,"lon":139.85476607},{"name":"葛飾区立総合スポーツセンター陸上競技場","province":"東京都","city":"葛飾区","address":"東京都葛飾区奥戸7丁目17-1","lat":35.73772504,"lon":139.86210297},{"name":"都立水元公園駐車場","province":"東京都","city":"葛飾区","address":"東京都葛飾区水元公園4","lat":35.79240643,"lon":139.86812312},{"name":"都立水元公園多目的広場","province":"東京都","city":"葛飾区","address":"東京都葛飾区東金町8丁目31","lat":35.78263806,"lon":139.88528344},{"name":"葛飾区立柴又公園（矢切の渡し）","province":"東京都","city":"葛飾区","address":"東京都葛飾区柴又7丁目","lat":35.75767798,"lon":139.87675403},{"name":"新四つ木橋地区東岸","province":"東京都","city":"葛飾区","address":"東京都葛飾区東四つ木3丁目","lat":35.73102085,"lon":139.83684505},{"name":"葛飾区立奥戸運動場","province":"東京都","city":"葛飾区","address":"東京都葛飾区高砂1丁目","lat":35.74382707,"lon":139.86149721},{"name":"葛飾区立新小岩公園","province":"東京都","city":"葛飾区","address":"東京都葛飾区西新小岩1丁目1-3","lat":35.71611839,"lon":139.85476607},{"name":"葛飾区立総合スポーツセンター陸上競技場","province":"東京都","city":"葛飾区","address":"東京都葛飾区奥戸7丁目17-1","lat":35.73772504,"lon":139.86210297},{"name":"都立水元公園駐車場","province":"東京都","city":"葛飾区","address":"東京都葛飾区水元公園4","lat":35.79240643,"lon":139.86812312},{"name":"都立水元公園多目的広場","province":"東京都","city":"葛飾区","address":"東京都葛飾区東金町8丁目31","lat":35.78263806,"lon":139.88528344},{"name":"葛飾区立柴又公園（矢切の渡し）","province":"東京都","city":"葛飾区","address":"東京都葛飾区柴又7丁目","lat":35.75767798,"lon":139.87675403},{"name":"新四つ木橋地区東岸","province":"東京都","city":"葛飾区","address":"東京都葛飾区東四つ木3丁目","lat":35.73102085,"lon":139.83684505},{"name":"葛飾区立奥戸運動場","province":"東京都","city":"葛飾区","address":"東京都葛飾区高砂1丁目","lat":35.74382707,"lon":139.86149721},{"name":"葛飾区立新小岩公園","province":"東京都","city":"葛飾区","address":"東京都葛飾区西新小岩1丁目1-3","lat":35.71611839,"lon":139.85476607}]}