{"keyword":"音響","data":[{"name":"大道中学校前","province":"東京都","city":"葛飾区","address":"東京都葛飾区立石5丁目3-8","lat":35.74409914,"lon":139.84374051},{"name":"小菅三丁目","province":"東京都","city":"葛飾区","address":"東京都葛飾区小菅4丁目22-20","lat":35.75687226,"lon":139.82796347},{"name":"小菅二丁目","province":"東京都","city":"葛飾区","address":"東京都葛飾区小菅3丁目14-17","lat":35.75388095,"lon":139.82711924},{"name":"金町三丁目","province":"東京都","city":"葛飾区","address":"東京都葛飾区金町6丁目1-18","lat":35.7671739,"lon":139.87115135},{"name":"亀有四丁目","province":"東京都","city":"葛飾区","address":"東京都葛飾区西亀有3丁目43-10","lat":35.76287171,"lon":139.84142314},{"name":"金町駅北口第二","province":"東京都","city":"葛飾区","address":"東京都葛飾区東金町1丁目45-2","lat":35.76986517,"lon":139.87100686},{"name":"帝釈天参道","province":"東京都","city":"葛飾区","address":"東京都葛飾区柴又7丁目3-7","lat":35.75760856,"lon":139.87611796},{"name":"帝釈天参道第二","province":"東京都","city":"葛飾区","address":"東京都葛飾区柴又7丁目1-10","lat":35.75691699,"lon":139.8764124},{"name":"東金町二丁目","province":"東京都","city":"葛飾区","address":"東京都葛飾区東金町2丁目3-13","lat":35.77092341,"lon":139.8670182},{"name":"葛飾盲学校東","province":"東京都","city":"葛飾区","address":"東京都葛飾区堀切7丁目27-5","lat":35.75620851,"lon":139.82978835},{"name":"ふれあい動物広場前","province":"東京都","city":"葛飾区","address":"東京都葛飾区西亀有1丁目27","lat":35.75759463,"lon":139.84162336},{"name":"曳舟川親水公園","province":"東京都","city":"葛飾区","address":"東京都葛飾区お花茶屋3丁目7-13","lat":35.75480612,"lon":139.84318167},{"name":"亀有駅前第一","province":"東京都","city":"葛飾区","address":"東京都葛飾区亀有3丁目26-1","lat":35.76658519,"lon":139.84842798},{"name":"お花茶屋公園東","province":"東京都","city":"葛飾区","address":"東京都葛飾区お花茶屋1丁目21-14","lat":35.74905131,"lon":139.84131828},{"name":"亀有二丁目西第二","province":"東京都","city":"葛飾区","address":"東京都葛飾区亀有2丁目62-5","lat":35.76283016,"lon":139.84977244},{"name":"金町駅南口交番南","province":"東京都","city":"葛飾区","address":"東京都葛飾区金町6丁目4-2","lat":35.76912359,"lon":139.87244845},{"name":"本田小学校前","province":"東京都","city":"葛飾区","address":"東京都葛飾区立石1丁目8-20","lat":35.73662209,"lon":139.84545455},{"name":"京成立石駅前","province":"東京都","city":"葛飾区","address":"東京都葛飾区立石1丁目21-1","lat":35.7374081,"lon":139.84960686},{"name":"上平井消防出張所前","province":"東京都","city":"葛飾区","address":"東京都葛飾区東新小岩7丁目1-1","lat":35.72344011,"lon":139.85292685},{"name":"新小岩駅前","province":"東京都","city":"葛飾区","address":"東京都葛飾区新小岩1丁目46-9","lat":35.71696561,"lon":139.85901013},{"name":"堀切五丁目","province":"東京都","city":"葛飾区","address":"東京都葛飾区堀切5丁目5-3","lat":35.74897622,"lon":139.8277002},{"name":"巽橋","province":"東京都","city":"葛飾区","address":"東京都葛飾区西新小岩4丁目42-16","lat":35.71929321,"lon":139.85652403},{"name":"シンフォニーヒルズ前","province":"東京都","city":"葛飾区","address":"東京都葛飾区立石6丁目33-1","lat":35.74245764,"lon":139.85221197},{"name":"立石一丁目","province":"東京都","city":"葛飾区","address":"東京都葛飾区立石1丁目11-7","lat":35.73688031,"lon":139.84686545},{"name":"立石駅前第二","province":"東京都","city":"葛飾区","address":"東京都葛飾区東立石4丁目46-6","lat":35.73720813,"lon":139.85044291},{"name":"青砥駅北口","province":"東京都","city":"葛飾区","address":"東京都葛飾区青戸3丁目31-8","lat":35.74579342,"lon":139.85460883},{"name":"堀切菖蒲園駅前","province":"東京都","city":"葛飾区","address":"東京都葛飾区堀切4丁目9-10","lat":35.74698488,"lon":139.82665328},{"name":"葛飾区役所前","province":"東京都","city":"葛飾区","address":"東京都葛飾区立石5丁目12-6","lat":35.74226037,"lon":139.84756795},{"name":"東新小岩三丁目","province":"東京都","city":"葛飾区","address":"東京都葛飾区東新小岩3丁目4-21","lat":35.721057,"lon":139.8588626},{"name":"葛飾税務署前","province":"東京都","city":"葛飾区","address":"東京都葛飾区立石7丁目11-11","lat":35.7423354,"lon":139.8499844},{"name":"新小岩一丁目","province":"東京都","city":"葛飾区","address":"東京都葛飾区新小岩1丁目50-8","lat":35.71575743,"lon":139.86033786},{"name":"西新小岩四丁目","province":"東京都","city":"葛飾区","address":"東京都葛飾区東新小岩5丁目12-1","lat":35.7211903,"lon":139.85524623},{"name":"渋江公園前","province":"東京都","city":"葛飾区","address":"東京都葛飾区立石1丁目6","lat":35.73668888,"lon":139.84359091},{"name":"堀切駅ガード下","province":"東京都","city":"葛飾区","address":"東京都葛飾区堀切4丁目52-5","lat":35.74787639,"lon":139.82665597},{"name":"小松中学校前","province":"東京都","city":"葛飾区","address":"東京都葛飾区新小岩4丁目30-1","lat":35.72039624,"lon":139.86414821},{"name":"立石七丁目","province":"東京都","city":"葛飾区","address":"東京都葛飾区立石7丁目4-9","lat":35.74061056,"lon":139.84961505},{"name":"新小岩駅前第二","province":"東京都","city":"葛飾区","address":"東京都葛飾区新小岩1丁目47-1","lat":35.71660451,"lon":139.85866297},{"name":"新小岩駅前第三","province":"東京都","city":"葛飾区","address":"東京都葛飾区新小岩1丁目45-1","lat":35.71660173,"lon":139.85776858},{"name":"新小岩駅北口","province":"東京都","city":"葛飾区","address":"東京都葛飾区西新小岩1丁目9-8","lat":35.7180933,"lon":139.85785457},{"name":"新小岩ＪＲ官舎前","province":"東京都","city":"葛飾区","address":"東京都葛飾区新小岩2丁目2-26","lat":35.71761568,"lon":139.86079321},{"name":"立石駅前第三","province":"東京都","city":"葛飾区","address":"東京都葛飾区東立石3丁目37-6","lat":35.73672201,"lon":139.84771539},{"name":"生活会館前","province":"東京都","city":"葛飾区","address":"東京都葛飾区立石6丁目33-1","lat":35.74245764,"lon":139.85221197},{"name":"西町停留所前","province":"東京都","city":"葛飾区","address":"東京都葛飾区立石7丁目2-9","lat":35.73936902,"lon":139.84973733},{"name":"松上小学校前","province":"東京都","city":"葛飾区","address":"東京都葛飾区西新小岩4丁目33-10","lat":35.71879599,"lon":139.85336877},{"name":"葛飾勤労福祉会館前","province":"東京都","city":"葛飾区","address":"東京都葛飾区立石3丁目13-4","lat":35.73948022,"lon":139.843588},{"name":"立石駅南","province":"東京都","city":"葛飾区","address":"東京都葛飾区東立石4丁目54-6","lat":35.73688313,"lon":139.8487014},{"name":"大道橋","province":"東京都","city":"葛飾区","address":"東京都葛飾区東立石3丁目24-11","lat":35.73650815,"lon":139.84636277},{"name":"新小岩東北広場入口","province":"東京都","city":"葛飾区","address":"東京都葛飾区東新小岩1丁目14-11","lat":35.72107373,"lon":139.86015413}]}