{"keyword":"館","data":[{"name":"小菅児童館","province":"東京都","city":"葛飾区","address":"葛飾区小菅2-19-13","lat":35.750481,"lon":139.826206},{"name":"中道児童館","province":"東京都","city":"葛飾区","address":"葛飾区西亀有1-2-7","lat":35.756814,"lon":139.83709},{"name":"東堀切児童館","province":"東京都","city":"葛飾区","address":"葛飾区東堀切2-20-8","lat":35.751507,"lon":139.83508},{"name":"宝町児童館","province":"東京都","city":"葛飾区","address":"葛飾区宝町1-5-1","lat":35.742227,"lon":139.835272},{"name":"堀切児童館","province":"東京都","city":"葛飾区","address":"葛飾区堀切1-9-18","lat":35.740139,"lon":139.828026},{"name":"梅田児童館","province":"東京都","city":"葛飾区","address":"葛飾区立石3-26-10","lat":35.741097,"lon":139.845377},{"name":"渋江児童館","province":"東京都","city":"葛飾区","address":"葛飾区東四つ木2-15-11","lat":35.730865,"lon":139.843677},{"name":"細田児童館","province":"東京都","city":"葛飾区","address":"葛飾区細田4-19-8","lat":35.742964,"lon":139.872107},{"name":"西奥戸児童館","province":"東京都","city":"葛飾区","address":"葛飾区奥戸1-12-1","lat":35.728595,"lon":139.854054},{"name":"東奥戸児童館","province":"東京都","city":"葛飾区","address":"葛飾区奥戸4-20-11","lat":35.728829,"lon":139.867925},{"name":"南奥戸児童館","province":"東京都","city":"葛飾区","address":"葛飾区奥戸2-30-11","lat":35.733698,"lon":139.859895},{"name":"葛飾区児童会館","province":"東京都","city":"葛飾区","address":"葛飾区西新小岩4-33-2","lat":35.718721,"lon":139.853708},{"name":"西亀有児童館","province":"東京都","city":"葛飾区","address":"葛飾区西亀有4-24-1","lat":35.764838,"lon":139.84357},{"name":"幸田児童館","province":"東京都","city":"葛飾区","address":"葛飾区西水元2-16-10","lat":35.786074,"lon":139.851336},{"name":"新水元児童館","province":"東京都","city":"葛飾区","address":"葛飾区東水元3-5-7","lat":35.784191,"lon":139.866129},{"name":"花の木児童館","province":"東京都","city":"葛飾区","address":"葛飾区南水元3-7-1","lat":35.773806,"lon":139.86564},{"name":"葛飾区金町子どもセンター","province":"東京都","city":"葛飾区","address":"葛飾区東金町3-8-1","lat":35.771529,"lon":139.875482},{"name":"東金町児童館","province":"東京都","city":"葛飾区","address":"葛飾区東金町5-22-18","lat":35.779325,"lon":139.878048},{"name":"末広児童館","province":"東京都","city":"葛飾区","address":"葛飾区金町5-4-1","lat":35.765966,"lon":139.866357},{"name":"南新宿児童館","province":"東京都","city":"葛飾区","address":"葛飾区新宿1-23-4","lat":35.760481,"lon":139.860985},{"name":"柴又児童館","province":"東京都","city":"葛飾区","address":"葛飾区柴又2-4-5","lat":35.758011,"lon":139.870066},{"name":"新柴又児童館","province":"東京都","city":"葛飾区","address":"葛飾区柴又5-33-8","lat":35.753673,"lon":139.881882},{"name":"鎌倉児童館","province":"東京都","city":"葛飾区","address":"葛飾区鎌倉2-6-20","lat":35.745277,"lon":139.874471},{"name":"高砂児童館","province":"東京都","city":"葛飾区","address":"葛飾区高砂5-6-7","lat":35.751398,"lon":139.865202},{"name":"亀有児童館","province":"東京都","city":"葛飾区","address":"葛飾区亀有1-17-5","lat":35.759119,"lon":139.846028},{"name":"青戸中央児童館","province":"東京都","city":"葛飾区","address":"葛飾区青戸6-16-12","lat":35.752973,"lon":139.857092},{"name":"青戸児童館","province":"東京都","city":"葛飾区","address":"葛飾区青戸3-10-5","lat":35.746321,"lon":139.848815},{"name":"白鳥児童館","province":"東京都","city":"葛飾区","address":"葛飾区白鳥3-32-6","lat":35.75555,"lon":139.844095},{"name":"中央図書館","province":"東京都","city":"葛飾区","address":"東京都葛飾区金町6丁目2-1","lat":35.76781825,"lon":139.87126244},{"name":"立石図書館","province":"東京都","city":"葛飾区","address":"東京都葛飾区立石1丁目9-1","lat":35.73721368,"lon":139.84567116},{"name":"お花茶屋図書館","province":"東京都","city":"葛飾区","address":"東京都葛飾区お花茶屋2丁目1-15","lat":35.75119269,"lon":139.83869897},{"name":"上小松図書館","province":"東京都","city":"葛飾区","address":"東京都葛飾区東新小岩3丁目12-1","lat":35.72297089,"lon":139.8619316},{"name":"亀有図書館","province":"東京都","city":"葛飾区","address":"東京都葛飾区亀有1丁目17-5","lat":35.75911949,"lon":139.84602845},{"name":"水元図書館","province":"東京都","city":"葛飾区","address":"東京都葛飾区東水元1丁目7-3","lat":35.77884728,"lon":139.8675263},{"name":"鎌倉図書館","province":"東京都","city":"葛飾区","address":"東京都葛飾区鎌倉2丁目4-5","lat":35.74524093,"lon":139.8753711},{"name":"四つ木地区図書館","province":"東京都","city":"葛飾区","address":"東京都葛飾区四つ木4丁目8-1","lat":35.73682003,"lon":139.83380337},{"name":"西水元地区図書館","province":"東京都","city":"葛飾区","address":"東京都葛飾区西水元2丁目2-8","lat":35.78494379,"lon":139.84906078},{"name":"青戸地区図書館","province":"東京都","city":"葛飾区","address":"東京都葛飾区青戸5丁目20-6","lat":35.75015679,"lon":139.854317},{"name":"奥戸地区図書館","province":"東京都","city":"葛飾区","address":"東京都葛飾区奥戸3丁目5-1","lat":35.73143113,"lon":139.85953687},{"name":"こすげ地区図書館","province":"東京都","city":"葛飾区","address":"東京都葛飾区小菅3丁目8-22","lat":35.75382256,"lon":139.82480832},{"name":"にいじゅく地区図書館","province":"東京都","city":"葛飾区","address":"東京都葛飾区新宿3丁目7-1","lat":35.76133323,"lon":139.86257702},{"name":"リリオ亀有図書サービスカウンター","province":"東京都","city":"葛飾区","address":"東京都葛飾区亀有3丁目26-1","lat":35.76658519,"lon":139.84842798},{"name":"新小岩図書サービスカウンター","province":"東京都","city":"葛飾区","address":"東京都葛飾区新小岩1丁目45-1","lat":35.71660173,"lon":139.85776858},{"name":"小菅児童館","province":"東京都","city":"葛飾区","address":"葛飾区小菅2-19-1","lat":35.75019,"lon":139.82582},{"name":"中道児童館","province":"東京都","city":"葛飾区","address":"葛飾区西亀有1-2-7","lat":35.75663,"lon":139.83699},{"name":"東堀切児童館","province":"東京都","city":"葛飾区","address":"葛飾区東堀切2-20-8","lat":35.75078,"lon":139.8353},{"name":"宝町児童館","province":"東京都","city":"葛飾区","address":"葛飾区宝町1-5-1","lat":35.74249,"lon":139.83517},{"name":"堀切児童館","province":"東京都","city":"葛飾区","address":"葛飾区堀切1-9-18","lat":35.74015,"lon":139.82787},{"name":"梅田児童館","province":"東京都","city":"葛飾区","address":"葛飾区立石3-26-10","lat":35.74092,"lon":139.84521},{"name":"渋江児童館","province":"東京都","city":"葛飾区","address":"葛飾区東四つ木1-20-4","lat":35.72883,"lon":139.84062},{"name":"西奥戸児童館","province":"東京都","city":"葛飾区","address":"葛飾区奥戸1-12-1","lat":35.7288,"lon":139.85399},{"name":"南奥戸児童館","province":"東京都","city":"葛飾区","address":"葛飾区奥戸2-30-11","lat":35.73333,"lon":139.85912},{"name":"東奥戸児童館","province":"東京都","city":"葛飾区","address":"葛飾区奥戸4-20-11","lat":35.7284,"lon":139.86754},{"name":"西亀有児童館","province":"東京都","city":"葛飾区","address":"葛飾区西亀有4-24-1","lat":35.76512,"lon":139.84392},{"name":"幸田児童館","province":"東京都","city":"葛飾区","address":"葛飾区西水元2-16-10","lat":35.78585,"lon":139.85127},{"name":"新水元児童館","province":"東京都","city":"葛飾区","address":"葛飾区東水元3-5-7","lat":35.78404,"lon":139.86613},{"name":"花の木児童館","province":"東京都","city":"葛飾区","address":"葛飾区南水元3-7-1","lat":35.77343,"lon":139.86581},{"name":"金町子どもセンター","province":"東京都","city":"葛飾区","address":"葛飾区東金町3-8-1","lat":35.77158,"lon":139.87549},{"name":"東金町児童館","province":"東京都","city":"葛飾区","address":"葛飾区東金町5-22-18","lat":35.7794,"lon":139.87787},{"name":"末広児童館","province":"東京都","city":"葛飾区","address":"葛飾区金町5-4-1","lat":35.76581,"lon":139.86678},{"name":"南新宿児童館","province":"東京都","city":"葛飾区","address":"葛飾区新宿1-23-4","lat":35.76056,"lon":139.86095},{"name":"柴又児童館","province":"東京都","city":"葛飾区","address":"葛飾区柴又2-4-5","lat":35.75816,"lon":139.87013},{"name":"新柴又児童館","province":"東京都","city":"葛飾区","address":"葛飾区柴又5-33-8","lat":35.75348,"lon":139.88097},{"name":"鎌倉児童館","province":"東京都","city":"葛飾区","address":"葛飾区鎌倉2-6-20","lat":35.74531,"lon":139.87433},{"name":"高砂児童館","province":"東京都","city":"葛飾区","address":"葛飾区高砂5-6-7","lat":35.75124,"lon":139.86525},{"name":"亀有児童館","province":"東京都","city":"葛飾区","address":"葛飾区亀有1-17-5","lat":35.75911,"lon":139.84593},{"name":"青戸児童館","province":"東京都","city":"葛飾区","address":"葛飾区青戸3-10-5","lat":35.74647,"lon":139.8488},{"name":"青戸中央児童館","province":"東京都","city":"葛飾区","address":"葛飾区青戸6-16-12","lat":35.75296,"lon":139.85678},{"name":"白鳥児童館","province":"東京都","city":"葛飾区","address":"葛飾区西亀有1-18-6","lat":35.75841,"lon":139.83906},{"name":"白鳥児童館","province":"東京都","city":"葛飾区","address":"葛飾区白鳥3-32-6","lat":35.75538,"lon":139.84431},{"name":"渋江児童館","province":"東京都","city":"葛飾区","address":"葛飾区東四つ木2-15-11","lat":35.7308,"lon":139.84355},{"name":"葛飾区児童会館","province":"東京都","city":"葛飾区","address":"葛飾区西新小岩4-33-10新小岩学び交流館内","lat":35.71869,"lon":139.85342},{"name":"葛飾区金町子どもセンター","province":"東京都","city":"葛飾区","address":"葛飾区東金町3-8-1","lat":35.77158,"lon":139.87549},{"name":"葛飾区児童会館","province":"東京都","city":"葛飾区","address":"葛飾区西新小岩4-33-10","lat":35.718574,"lon":139.853199},{"name":"宝町児童館","province":"東京都","city":"葛飾区","address":"葛飾区宝町1-5-1","lat":35.74249,"lon":139.83518},{"name":"梅田児童館","province":"東京都","city":"葛飾区","address":"葛飾区立石3-26-10","lat":35.74092,"lon":139.84522},{"name":"新水元児童館","province":"東京都","city":"葛飾区","address":"葛飾区東水元3-5-7","lat":35.78404,"lon":139.86614},{"name":"白鳥児童館","province":"東京都","city":"葛飾区","address":"葛飾区白鳥3-32-6","lat":35.75538,"lon":139.84432},{"name":"＊?中央図書館","province":"東京都","city":"葛飾区","address":"葛飾区金町6-2-1ヴィナシス金町ブライトコート3階","lat":35.768042,"lon":139.871306},{"name":"＊?水元図書館","province":"東京都","city":"葛飾区","address":"葛飾区東水元1-7-3","lat":35.778909,"lon":139.867538},{"name":"＊?鎌倉図書館","province":"東京都","city":"葛飾区","address":"葛飾区鎌倉2-4-5","lat":35.745245,"lon":139.875339},{"name":"＊?亀有図書館","province":"東京都","city":"葛飾区","address":"葛飾区亀有1-17-5都営住宅5号棟1・2階","lat":35.759189,"lon":139.846026},{"name":"＊?お花茶屋図書館","province":"東京都","city":"葛飾区","address":"葛飾区お花茶屋2-1-15","lat":35.751171,"lon":139.838706},{"name":"＊?立石図書館","province":"東京都","city":"葛飾区","address":"葛飾区立石1-9-1","lat":35.737278,"lon":139.845693},{"name":"＊?上小松図書館","province":"東京都","city":"葛飾区","address":"葛飾区東新小岩3-12-1都営住宅1階","lat":35.722978,"lon":139.861865},{"name":"＊?西水元地区図書館","province":"東京都","city":"葛飾区","address":"葛飾区西水元2-2-8西水元あやめ園内","lat":35.784947,"lon":139.849061},{"name":"＊?四つ木地区図書館","province":"東京都","city":"葛飾区","address":"葛飾区四つ木4-8-1よつぎ小学校内","lat":35.736912,"lon":139.833968},{"name":"＊?青戸地区図書館","province":"東京都","city":"葛飾区","address":"葛飾区青戸5-20-6青戸地区センター内","lat":35.750147,"lon":139.854364},{"name":"＊?奥戸地区図書館","province":"東京都","city":"葛飾区","address":"葛飾区奥戸3-5-1南奥戸小学校内","lat":35.731692,"lon":139.860207},{"name":"＊?新宿図書サービスコーナー","province":"東京都","city":"葛飾区","address":"葛飾区新宿1-5-6新宿憩い交流館内","lat":35.759056,"lon":139.858957},{"name":"＊?こすげ地区図書館","province":"東京都","city":"葛飾区","address":"葛飾区小菅3-8-22こすげ小学校内","lat":35.753796,"lon":139.824833}]}