{"keyword":"クラブ","data":[{"name":"清瀬市立梅園第1第2第3学童クラブ","province":"東京都","city":"清瀬市","address":"東京都清瀬市梅園2-9-38","lat":35.771999,"lon":139.505174},{"name":"清瀬市立清明小第1第2学童クラブ","province":"東京都","city":"清瀬市","address":"東京都清瀬市旭が丘2-8-1","lat":35.796885,"lon":139.539993},{"name":"清瀬市立四小学童クラブ","province":"東京都","city":"清瀬市","address":"東京都清瀬市中里2-1471","lat":35.783236,"lon":139.510435},{"name":"清瀬市立八小第1第2学童クラブ","province":"東京都","city":"清瀬市","address":"東京都清瀬市中清戸4-1070","lat":35.787303,"lon":139.530847},{"name":"清瀬市立竹丘第1第２学童クラブ","province":"東京都","city":"清瀬市","address":"東京都清瀬市竹丘1-15-11","lat":35.767616,"lon":139.511404},{"name":"清瀬市立芝山小第1第2学童クラブ","province":"東京都","city":"清瀬市","address":"東京都清瀬市元町2-16-8","lat":35.775359,"lon":139.511204},{"name":"清瀬市立清瀬小第1学童クラブ","province":"東京都","city":"清瀬市","address":"東京都清瀬市中里5-741","lat":35.785211,"lon":139.525606},{"name":"清瀬市立三小第1第2学童クラブ","province":"東京都","city":"清瀬市","address":"東京都清瀬市竹丘1-15-4","lat":35.768568,"lon":139.509927},{"name":"清瀬市立中清戸第1第2学童クラブ","province":"東京都","city":"清瀬市","address":"東京都清瀬市中清戸1-556-1","lat":35.775051,"lon":139.528458},{"name":"清瀬市立十小学童クラブ","province":"東京都","city":"","address":"東京都中清戸1-454-14","lat":35.775148,"lon":139.527536},{"name":"清瀬市立清瀬小第2学童クラブ","province":"東京都","city":"清瀬市","address":"東京都清瀬市中里5-624","lat":35.78533,"lon":139.52593},{"name":"寿児童館","province":"","city":"","address":"寿1丁目4番5号","lat":35.70684519,"lon":139.7900243},{"name":"玉姫児童館","province":"","city":"","address":"清川2丁目22番13号","lat":35.72747559,"lon":139.803782},{"name":"台東児童館","province":"","city":"","address":"台東1丁目11番5号","lat":35.7012655,"lon":139.7765454},{"name":"池之端児童館","province":"","city":"","address":"池之端2丁目3番3号","lat":35.71458388,"lon":139.7670052},{"name":"松が谷児童館","province":"","city":"","address":"松が谷4丁目15番11号","lat":35.71851406,"lon":139.7863338},{"name":"今戸児童館","province":"","city":"","address":"今戸1丁目3番6号","lat":35.71936496,"lon":139.8046927},{"name":"千束児童館","province":"","city":"","address":"千束3丁目20番6号","lat":35.7223237,"lon":139.7928029},{"name":"谷中児童館","province":"","city":"","address":"谷中5丁目6番5号","lat":35.72546162,"lon":139.7664614},{"name":"千束こどもクラブ","province":"東京都","city":"台東区","address":"台東区千束3丁目20番6号(千束児童館併設)","lat":35.72240361,"lon":139.7927362},{"name":"東泉こどもクラブ","province":"東京都","city":"台東区","address":"台東区三ノ輪1丁目23番9号(東泉小学校内)","lat":35.72834259,"lon":139.7921227},{"name":"東浅草こどもクラブ","province":"東京都","city":"台東区","address":"台東区東浅草2丁目27番19号(東浅草小学校内)","lat":35.72437076,"lon":139.7985103},{"name":"竹町こどもクラブ","province":"東京都","city":"台東区","address":"台東区台東3丁目25番4号","lat":35.70475324,"lon":139.7803002},{"name":"池之端こどもクラブ","province":"東京都","city":"台東区","address":"台東区池之端2丁目3番3号(池之端児童館併設)","lat":35.71464663,"lon":139.7669399},{"name":"谷中こどもクラブ","province":"東京都","city":"台東区","address":"台東区谷中5丁目6番5号(谷中児童館併設)","lat":35.72562437,"lon":139.7666446},{"name":"松が谷こどもクラブ","province":"東京都","city":"台東区","address":"台東区松が谷4丁目15番11号(松が谷児童館併設)","lat":35.71861925,"lon":139.7862809},{"name":"下谷こどもクラブ","province":"東京都","city":"台東区","address":"台東区下谷3丁目1番14号(柏葉中学校内)","lat":35.72364599,"lon":139.7858935},{"name":"松葉こどもクラブ","province":"東京都","city":"台東区","address":"台東区松が谷1丁目13番16号(松葉小学校内)","lat":35.71228951,"lon":139.7864842},{"name":"浅草こどもクラブ","province":"東京都","city":"台東区","address":"台東区花川戸1丁目14番21号(浅草小学校内)","lat":35.71379571,"lon":139.7998683},{"name":"寿こどもクラブ","province":"東京都","city":"台東区","address":"台東区寿1丁目4番5号(寿児童館3階)","lat":35.70693962,"lon":139.790039},{"name":"寿第2こどもクラブ","province":"東京都","city":"台東区","address":"台東区寿1丁目4番5号(寿児童館1階)","lat":35.70693962,"lon":139.790039},{"name":"浅草橋こどもクラブ","province":"東京都","city":"台東区","address":"台東区浅草橋5丁目1番8号(柳北スポーツプラザ併設)","lat":35.69938061,"lon":139.7822015},{"name":"竜泉こどもクラブ","province":"東京都","city":"台東区","address":"台東区竜泉2丁目10番6号(旧竜泉中学校敷地内)","lat":35.72530266,"lon":139.7896461},{"name":"千束小学校こどもクラブ","province":"東京都","city":"台東区","address":"台東区浅草4丁目24番11号(千束小学校内)","lat":35.71919111,"lon":139.7939939},{"name":"富士こどもクラブ","province":"東京都","city":"台東区","address":"台東区浅草4丁目48番9号(富士小学校内)","lat":35.7187367,"lon":139.7983676},{"name":"北上野こどもクラブ","province":"東京都","city":"台東区","address":"台東区北上野2丁目15番6号(駒形中学校内)","lat":35.71756462,"lon":139.7841187},{"name":"田原こどもクラブ","province":"東京都","city":"台東区","address":"台東区雷門1丁目4番4号ネクストサイト浅草ビル","lat":35.70956744,"lon":139.7933165},{"name":"金竜こどもクラブ","province":"東京都","city":"台東区","address":"台東区千束1丁目9番14号(金竜小学校敷地内)","lat":35.71862906,"lon":139.7906154},{"name":"今戸こどもクラブ","province":"東京都","city":"台東区","address":"台東区今戸1丁目3番6号(今戸児童館併設)","lat":35.71940466,"lon":139.8046392},{"name":"台東入谷こどもクラブ（民設民営）","province":"東京都","city":"台東区","address":"台東区入谷1丁目13番9号","lat":35.72029337,"lon":139.7870674},{"name":"石浜こどもクラブ","province":"東京都","city":"台東区","address":"台東区清川1丁目14番21号(石浜小学校内)","lat":35.72489015,"lon":139.8036903},{"name":"蔵前こどもクラブ","province":"","city":"","address":"蔵前4丁目19番6号(蔵前小学校内)","lat":35.7043574,"lon":139.7893623},{"name":"根岸こどもクラブ","province":"","city":"","address":"根岸3丁目9番2号(根岸小学校敷地内)","lat":35.72321403,"lon":139.7791025},{"name":"駒場小学校内学童保育クラブ","province":"東京都","city":"目黒区","address":"東京都目黒区駒場3-11-13","lat":35.659448053,"lon":139.681547078},{"name":"愛隣会学童保育クラブ","province":"東京都","city":"目黒区","address":"東京都目黒区大橋2-19-1","lat":35.655602078,"lon":139.682445467},{"name":"東山児童館学童保育クラブ","province":"東京都","city":"目黒区","address":"東京都目黒区東山3-24-2","lat":35.648047603,"lon":139.685590925},{"name":"東山児童館第二学童保育クラブ","province":"東京都","city":"目黒区","address":"東京都目黒区東山3-24-2","lat":35.648047603,"lon":139.685590925},{"name":"東山児童館第三学童保育クラブ","province":"東京都","city":"目黒区","address":"東京都目黒区東山3-24-2","lat":35.648047603,"lon":139.685590925},{"name":"菅刈小学校内学童保育クラブ","province":"東京都","city":"目黒区","address":"東京都目黒区青葉台3-3-26","lat":35.651305875,"lon":139.692242364},{"name":"菅刈学童保育クラブ","province":"東京都","city":"目黒区","address":"東京都目黒区青葉台2-10-18","lat":35.649786031,"lon":139.695875683},{"name":"烏森住区センター児童館学童保育クラブ","province":"東京都","city":"目黒区","address":"東京都目黒区上目黒3-37-24","lat":35.643969669,"lon":139.692022294},{"name":"烏森住区センター児童館第二学童保育クラブ","province":"東京都","city":"目黒区","address":"東京都目黒区上目黒5-18-9","lat":35.642676303,"lon":139.688615003},{"name":"中目黒小学校学童保育クラブ","province":"東京都","city":"目黒区","address":"東京都目黒区中目黒3-13-32","lat":35.639828158,"lon":139.698486639},{"name":"中目黒住区センター児童館学童保育クラブ","province":"東京都","city":"目黒区","address":"東京都目黒区中目黒2-10-13","lat":35.640360364,"lon":139.702910097},{"name":"不動児童館学童保育クラブ","province":"東京都","city":"目黒区","address":"東京都目黒区下目黒6-11-35","lat":35.627308444,"lon":139.699191297},{"name":"下目黒小学校学童保育クラブ","province":"東京都","city":"目黒区","address":"東京都目黒区目黒2-7-9","lat":35.633797225,"lon":139.709514056},{"name":"目黒区民センター児童館学童保育クラブ","province":"東京都","city":"目黒区","address":"東京都目黒区目黒2-4-36","lat":35.635324036,"lon":139.707759811},{"name":"田道小学校内学童保育クラブ","province":"東京都","city":"目黒区","address":"東京都目黒区目黒1-15-28","lat":35.637774403,"lon":139.709084444},{"name":"三田学童保育クラブ","province":"東京都","city":"目黒区","address":"東京都目黒区三田二丁目10番33号","lat":35.638864703,"lon":139.712660819},{"name":"油面小学校内学童保育クラブ","province":"東京都","city":"目黒区","address":"東京都目黒区中町1-5-4","lat":35.632523269,"lon":139.699291047},{"name":"油面住区センター児童館学童保育クラブ","province":"東京都","city":"目黒区","address":"東京都目黒区中町1-6-23","lat":35.631309469,"lon":139.699650161},{"name":"上目黒住区センター児童館学童保育クラブ","province":"東京都","city":"目黒区","address":"東京都目黒区祐天寺2-6-6","lat":35.637078786,"lon":139.694058503},{"name":"五本木住区センター児童館学童保育クラブ","province":"東京都","city":"目黒区","address":"東京都目黒区中央町2-17-2","lat":35.633408506,"lon":139.689320631},{"name":"鷹番学童保育クラブ","province":"東京都","city":"目黒区","address":"東京都目黒区碑文谷6-2-23","lat":35.626204514,"lon":139.685154306},{"name":"中央町児童館学童保育クラブ","province":"東京都","city":"目黒区","address":"東京都目黒区中央町2-32-5","lat":35.631734817,"lon":139.688628133},{"name":"月光原小学校内学童保育クラブ","province":"東京都","city":"目黒区","address":"東京都目黒区目黒本町4-15-3","lat":35.622887794,"lon":139.6954608},{"name":"目黒本町学童保育クラブ","province":"東京都","city":"目黒区","address":"東京都目黒区目黒本町2-1-20","lat":35.625484247,"lon":139.695255233},{"name":"向原小学校内学童保育クラブ","province":"東京都","city":"目黒区","address":"東京都目黒区目黒本町6-7-15","lat":35.618405894,"lon":139.695623625},{"name":"向原住区センター児童館学童保育クラブ","province":"東京都","city":"目黒区","address":"東京都目黒区目黒本町5-22-11","lat":35.618559556,"lon":139.698561897},{"name":"原町小学校内学童保育クラブ","province":"東京都","city":"目黒区","address":"東京都目黒区原町2-18-12","lat":35.614990539,"lon":139.690864836},{"name":"原町住区センター児童館学童保育クラブ","province":"東京都","city":"目黒区","address":"東京都目黒区南1-8-9","lat":35.615070692,"lon":139.689595497},{"name":"ひもんや学童保育クラブ","province":"東京都","city":"目黒区","address":"東京都目黒区碑文谷2-8-9","lat":35.622648731,"lon":139.688137861},{"name":"南学童保育クラブ","province":"東京都","city":"目黒区","address":"東京都目黒区南2-8-10","lat":35.613884467,"lon":139.686211581},{"name":"平町児童館学童保育クラブ","province":"東京都","city":"目黒区","address":"東京都目黒区平町1-5-3","lat":35.617263519,"lon":139.6822977},{"name":"大岡山学童保育クラブ","province":"東京都","city":"目黒区","address":"東京都目黒区平町2-4-10","lat":35.614404828,"lon":139.6830171},{"name":"中根小学校内学童保育クラブ","province":"東京都","city":"目黒区","address":"東京都目黒区緑が丘1-1-1","lat":35.612877108,"lon":139.678900311},{"name":"緑が丘児童館学童保育クラブ","province":"東京都","city":"目黒区","address":"東京都目黒区緑が丘2-7-20","lat":35.609630122,"lon":139.674427267},{"name":"八雲小学校内学童保育クラブ","province":"東京都","city":"目黒区","address":"東京都目黒区八雲2-5-1","lat":35.618472406,"lon":139.671715219},{"name":"八雲住区センター児童館学童保育クラブ","province":"東京都","city":"目黒区","address":"東京都目黒区八雲1-10-5","lat":35.618579606,"lon":139.672554319},{"name":"宮前小学校内学童保育クラブ","province":"東京都","city":"目黒区","address":"東京都目黒区八雲3-13-21","lat":35.615387258,"lon":139.666361414},{"name":"東が丘学童保育クラブ","province":"東京都","city":"目黒区","address":"東京都目黒区東が丘1-1-1","lat":35.62960995,"lon":139.672200428},{"name":"東根学童保育クラブ","province":"東京都","city":"目黒区","address":"東京都目黒区東が丘1-20-1","lat":35.627427503,"lon":139.668401294},{"name":"東根第二学童保育クラブ","province":"東京都","city":"目黒区","address":"東京都目黒区東が丘1-31-7","lat":35.629822917,"lon":139.667169014},{"name":"こどもの森学童保育クラブ","province":"東京都","city":"目黒区","address":"東京都目黒区目黒本町1ー16-17","lat":35.626762789,"lon":139.6939224},{"name":"中央学童保育クラブ","province":"東京都","city":"町田市","address":"東京都町田市中町1丁目20-30","lat":35.5483303,"lon":139.44582031},{"name":"つるっこ学童保育クラブ","province":"東京都","city":"町田市","address":"東京都町田市大蔵町1913","lat":35.58985811,"lon":139.46581521},{"name":"相原たけの子学童保育クラブ","province":"東京都","city":"町田市","address":"東京都町田市相原町1673","lat":35.60650795,"lon":139.32341804},{"name":"藤の台学童保育クラブ","province":"東京都","city":"町田市","address":"東京都町田市本町田3350","lat":35.56977814,"lon":139.44405873},{"name":"木曽学童保育クラブ","province":"東京都","city":"町田市","address":"東京都町田市木曽東3丁目11-3","lat":35.56335634,"lon":139.42533839},{"name":"木曽境川学童保育クラブ","province":"東京都","city":"町田市","address":"東京都町田市木曽西1丁目9-1","lat":35.56531984,"lon":139.41511154},{"name":"七国山学童保育クラブ","province":"東京都","city":"町田市","address":"東京都町田市山崎町1314-2","lat":35.57645513,"lon":139.43528713},{"name":"竹ん子学童保育クラブ","province":"東京都","city":"町田市","address":"東京都町田市本町田1212","lat":35.56417318,"lon":139.44604758},{"name":"学童21保育クラブ","province":"東京都","city":"町田市","address":"東京都町田市原町田4丁目26-40","lat":35.54567525,"lon":139.45355312},{"name":"学童21保育クラブ（分室）","province":"東京都","city":"町田市","address":"東京都町田市原町田4丁目24-6","lat":35.54444758,"lon":139.45308375},{"name":"高ケ坂学童保育クラブ","province":"東京都","city":"町田市","address":"東京都町田市南大谷1260","lat":35.54935846,"lon":139.46030803},{"name":"すまいる学童保育クラブ","province":"東京都","city":"町田市","address":"東京都町田市成瀬台2丁目5-2","lat":35.55048491,"lon":139.47770442},{"name":"野津田学童保育クラブ","province":"東京都","city":"町田市","address":"東京都町田市野津田町1290","lat":35.5905323,"lon":139.45691843},{"name":"なんなる学童保育クラブ","province":"東京都","city":"町田市","address":"東京都町田市南成瀬3丁目6","lat":35.53996581,"lon":139.47043},{"name":"鶴間ひまわり学童保育クラブ","province":"東京都","city":"町田市","address":"東京都町田市鶴間4丁目17-1","lat":35.50529936,"lon":139.46952593},{"name":"金森学童保育クラブ","province":"東京都","city":"町田市","address":"東京都町田市金森東1丁目2-1","lat":35.53680688,"lon":139.45805583},{"name":"鶴川第四学童保育クラブ","province":"東京都","city":"町田市","address":"東京都町田市鶴川3丁目22","lat":35.59324364,"lon":139.4629264},{"name":"森野学童保育クラブ","province":"東京都","city":"町田市","address":"東京都町田市森野2丁目21-28","lat":35.54990233,"lon":139.43824871},{"name":"成瀬中央あおぞら学童保育クラブ","province":"東京都","city":"町田市","address":"東京都町田市成瀬2丁目8","lat":35.54700182,"lon":139.47627404},{"name":"なかよし学童保育クラブ","province":"東京都","city":"町田市","address":"東京都町田市忠生3丁目10-2","lat":35.57919057,"lon":139.41731927},{"name":"わんぱく学童保育クラブ","province":"東京都","city":"町田市","address":"東京都町田市小川3丁目10-1","lat":35.52704234,"lon":139.4708081},{"name":"そよかぜ学童保育クラブ","province":"東京都","city":"町田市","address":"東京都町田市成瀬7丁目11-1","lat":35.53926682,"lon":139.47797424},{"name":"大蔵学童保育クラブ","province":"東京都","city":"町田市","address":"東京都町田市大蔵町286","lat":35.58672524,"lon":139.46810681},{"name":"図師学童保育クラブ","province":"東京都","city":"町田市","address":"東京都町田市図師町239-19","lat":35.58439555,"lon":139.41675806},{"name":"高ヶ坂けやき学童保育クラブ","province":"東京都","city":"町田市","address":"東京都町田市高ヶ坂6丁目7-1","lat":35.54101506,"lon":139.46231931},{"name":"つくし野学童保育クラブ","province":"東京都","city":"町田市","address":"東京都町田市つくし野2丁目21-11","lat":35.52573031,"lon":139.48194403},{"name":"どろん子学童保育クラブ","province":"東京都","city":"町田市","address":"東京都町田市金森東3丁目22-24","lat":35.53303299,"lon":139.46720537},{"name":"鶴川学童保育クラブ","province":"東京都","city":"町田市","address":"東京都町田市鶴川6丁目5","lat":35.59047275,"lon":139.47338157},{"name":"大戸のびっ子学童保育クラブ","province":"東京都","city":"町田市","address":"東京都町田市相原町3865","lat":35.60927454,"lon":139.30496144},{"name":"南大谷学童保育クラブ","province":"東京都","city":"町田市","address":"東京都町田市南大谷811-1","lat":35.55179454,"lon":139.46352722},{"name":"ころころ学童保育クラブ","province":"東京都","city":"町田市","address":"東京都町田市玉川学園3丁目35-45","lat":35.56302635,"lon":139.4590521},{"name":"ころころ学童保育クラブ（分室）","province":"東京都","city":"町田市","address":"東京都町田市玉川学園4丁目14-7","lat":35.56464281,"lon":139.45687445},{"name":"小山ヶ丘学童保育クラブ","province":"東京都","city":"町田市","address":"東京都町田市小山ヶ丘5丁目37","lat":35.60515838,"lon":139.35477364},{"name":"小山中央学童保育クラブ","province":"東京都","city":"町田市","address":"東京都町田市小山ヶ丘3丁目7-1","lat":35.6020921,"lon":139.37327214},{"name":"小山学童保育クラブ","province":"東京都","city":"町田市","address":"東京都町田市小山町944","lat":35.59226283,"lon":139.37764714},{"name":"小山田学童保育クラブ","province":"東京都","city":"町田市","address":"東京都町田市上小山田町610","lat":35.59659656,"lon":139.40603081},{"name":"本町田学童保育クラブ","province":"東京都","city":"町田市","address":"東京都町田市本町田2032","lat":35.56336483,"lon":139.43682343},{"name":"鶴川第二学童保育クラブ","province":"東京都","city":"町田市","address":"東京都町田市能ヶ谷7丁目24-2","lat":35.59223497,"lon":139.48192588},{"name":"南つくし野学童保育クラブ","province":"東京都","city":"町田市","address":"東京都町田市南つくし野2丁目17-2","lat":35.5172141,"lon":139.47494734},{"name":"山崎学童保育クラブ","province":"東京都","city":"町田市","address":"東京都町田市忠生2丁目15-26","lat":35.57595775,"lon":139.42524918},{"name":"南第一さくら学童保育クラブ","province":"東京都","city":"町田市","address":"東京都町田市南町田1丁目10-1","lat":35.52179017,"lon":139.46777519},{"name":"みわっこ学童保育クラブ","province":"東京都","city":"町田市","address":"東京都町田市三輪町330-1","lat":35.57797107,"lon":139.49638675},{"name":"桜の森学童保育クラブ","province":"東京都","city":"町田市","address":"東京都町田市小山田桜台2丁目7","lat":35.58909451,"lon":139.40062596}]}