{"keyword":"体育","data":[{"name":"桜台体育館","province":"東京都","city":"練馬区","address":"練馬区桜台3-28-1","lat":35.74555314,"lon":139.6662203},{"name":"平和台体育館","province":"東京都","city":"練馬区","address":"練馬区平和台2-12-5","lat":35.75942687,"lon":139.6614234},{"name":"光が丘体育館","province":"東京都","city":"練馬区","address":"練馬区光が丘4-1-4","lat":35.76406703,"lon":139.6302901},{"name":"総合体育館","province":"東京都","city":"練馬区","address":"練馬区谷原1-7-5","lat":35.74953925,"lon":139.6212784},{"name":"大泉学園町体育館","province":"東京都","city":"練馬区","address":"練馬区大泉学園町5-14-24","lat":35.76528508,"lon":139.5840967},{"name":"上石神井体育館","province":"東京都","city":"練馬区","address":"練馬区上石神井1-32-37","lat":35.72247194,"lon":139.5872066},{"name":"中村南スポーツ交流センター","province":"東京都","city":"練馬区","address":"練馬区中村南1-2-32","lat":35.72922377,"lon":139.6486919},{"name":"体育館・プール等","province":"東京都","city":"墨田区","address":"東京都墨田区立花1丁目25-10","lat":35.70518594,"lon":139.83201569},{"name":"体育館・プール等","province":"東京都","city":"墨田区","address":"東京都墨田区錦糸4丁目15-1","lat":35.69947749,"lon":139.8171875},{"name":"体育館・プール等","province":"東京都","city":"墨田区","address":"東京都墨田区横網1丁目8-1","lat":35.69748355,"lon":139.79611518},{"name":"体育館・プール等","province":"東京都","city":"墨田区","address":"東京都墨田区墨田1丁目4-4","lat":35.72923761,"lon":139.81523723},{"name":"体育館・プール等","province":"東京都","city":"墨田区","address":"東京都墨田区墨田4丁目32-10","lat":35.7326956,"lon":139.8238883},{"name":"野球場・競技場","province":"東京都","city":"墨田区","address":"東京都墨田区錦糸4丁目15-1","lat":35.69947749,"lon":139.8171875},{"name":"野球場・競技場","province":"東京都","city":"墨田区","address":"東京都墨田区八広6丁目","lat":35.7273797,"lon":139.82688263},{"name":"野球場・競技場","province":"東京都","city":"墨田区","address":"東京都墨田区墨田4丁目","lat":35.73137358,"lon":139.82435222},{"name":"野球場・競技場","province":"東京都","city":"墨田区","address":"東京都墨田区墨田4丁目","lat":35.73137358,"lon":139.82435222},{"name":"野球場・競技場","province":"東京都","city":"墨田区","address":"東京都墨田区墨田5丁目","lat":35.7358617,"lon":139.81926369},{"name":"野球場・競技場","province":"東京都","city":"墨田区","address":"東京都墨田区東墨田3丁目","lat":35.71973469,"lon":139.83681989},{"name":"野球場・競技場","province":"埼玉県","city":"三郷市","address":"埼玉県三郷市新和4丁目","lat":35.81421167,"lon":139.88508786},{"name":"野球場・競技場","province":"東京都","city":"墨田区","address":"東京都墨田区墨田5丁目16","lat":35.73872784,"lon":139.81809129},{"name":"野球場・競技場","province":"東京都","city":"墨田区","address":"東京都墨田区東墨田1丁目10","lat":35.71647687,"lon":139.83195391},{"name":"少年野球場","province":"東京都","city":"墨田区","address":"東京都墨田区東墨田3丁目","lat":35.71973469,"lon":139.83681989},{"name":"少年野球場","province":"東京都","city":"墨田区","address":"東京都墨田区東墨田3丁目4-14","lat":35.71999578,"lon":139.83525055},{"name":"庭球場","province":"東京都","city":"墨田区","address":"東京都墨田区錦糸4丁目15-1","lat":35.69947749,"lon":139.8171875},{"name":"庭球場","province":"東京都","city":"墨田区","address":"東京都墨田区堤通1丁目8-1","lat":35.72447964,"lon":139.81077124},{"name":"庭球場","province":"東京都","city":"墨田区","address":"東京都墨田区文花1丁目19-12","lat":35.70969168,"lon":139.82397745},{"name":"庭球場","province":"東京都","city":"墨田区","address":"東京都墨田区東墨田3丁目19-6","lat":35.71841259,"lon":139.83710607},{"name":"庭球場","province":"東京都","city":"墨田区","address":"東京都墨田区緑4丁目22","lat":35.69420884,"lon":139.80876949},{"name":"弓道場","province":"東京都","city":"墨田区","address":"東京都墨田区江東橋4丁目1-3","lat":35.69338672,"lon":139.81732938}]}