{"keyword":"一覧","data":[{"name":"赤塚体育館","province":"東京都","city":"板橋区","address":"東京都板橋区赤塚5丁目6-1","lat":35.77789538,"lon":139.64176755},{"name":"赤塚図書館","province":"東京都","city":"板橋区","address":"東京都板橋区赤塚6丁目38-1","lat":35.77877313,"lon":139.64490059},{"name":"志村図書館","province":"東京都","city":"板橋区","address":"東京都板橋区小豆沢1丁目8-1","lat":35.77328346,"lon":139.69995437},{"name":"小豆沢体育館","province":"東京都","city":"板橋区","address":"東京都板橋区小豆沢3丁目1-1","lat":35.7791632,"lon":139.69744603},{"name":"清水図書館","province":"東京都","city":"板橋区","address":"東京都板橋区泉町16-16","lat":35.7664205,"lon":139.70206557},{"name":"中央図書館","province":"東京都","city":"板橋区","address":"東京都板橋区常盤台4丁目3-1","lat":35.76294248,"lon":139.6815507},{"name":"西台図書館","province":"東京都","city":"板橋区","address":"東京都板橋区西台3丁目13-2","lat":35.77393531,"lon":139.66879034},{"name":"新板橋駅（都営三田線）","province":"東京都","city":"板橋区","address":"東京都板橋区板橋1丁目53-17","lat":35.74850645,"lon":139.72072868},{"name":"板橋区役所前駅（都営三田線）","province":"東京都","city":"板橋区","address":"東京都板橋区板橋2丁目66-17","lat":35.7513864,"lon":139.70957948},{"name":"東板橋図書館","province":"東京都","city":"板橋区","address":"東京都板橋区加賀1丁目10-15","lat":35.75440843,"lon":139.7157483},{"name":"植村記念加賀スポーツセンター","province":"東京都","city":"板橋区","address":"東京都板橋区加賀1丁目10-5","lat":35.7538085,"lon":139.71563721},{"name":"上板橋体育館","province":"東京都","city":"板橋区","address":"東京都板橋区桜川1丁目3-1","lat":35.75706804,"lon":139.67558762},{"name":"志村坂上駅（都営三田線）","province":"東京都","city":"板橋区","address":"東京都板橋区志村1丁目14-13","lat":35.77614686,"lon":139.69468802},{"name":"志村三丁目駅（都営三田線）","province":"東京都","city":"板橋区","address":"東京都板橋区志村3丁目23-1","lat":35.77748817,"lon":139.68616365},{"name":"西高島平駅（都営三田線）","province":"東京都","city":"板橋区","address":"東京都板橋区高島平6丁目1","lat":35.79145471,"lon":139.64786668},{"name":"新高島平駅（都営三田線）","province":"東京都","city":"板橋区","address":"東京都板橋区高島平7丁目1","lat":35.79028557,"lon":139.65394675},{"name":"高島平駅（都営三田線）","province":"東京都","city":"板橋区","address":"東京都板橋区高島平8丁目2-1","lat":35.7888276,"lon":139.66119894},{"name":"高島平温水プール","province":"東京都","city":"板橋区","address":"東京都板橋区高島平8丁目28-1","lat":35.79143562,"lon":139.66440971},{"name":"西台駅（都営三田線）","province":"東京都","city":"板橋区","address":"東京都板橋区高島平9丁目1-1","lat":35.78810293,"lon":139.66886214},{"name":"仲町地域センター","province":"東京都","city":"板橋区","address":"東京都板橋区仲町20-5","lat":35.75119443,"lon":139.69631951},{"name":"本蓮沼駅（都営三田線）","province":"東京都","city":"板橋区","address":"東京都板橋区蓮沼町19-8","lat":35.7686397,"lon":139.7029043},{"name":"蓮根駅（都営三田線）","province":"東京都","city":"板橋区","address":"東京都板橋区蓮根2丁目31-30","lat":35.78423714,"lon":139.67905295},{"name":"氷川図書館","province":"東京都","city":"板橋区","address":"東京都板橋区氷川町28-9","lat":35.75313609,"lon":139.70482704},{"name":"水道局板橋営業所","province":"東京都","city":"板橋区","address":"東京都板橋区氷川町3-6","lat":35.7516891,"lon":139.70741577},{"name":"板橋本町駅（都営三田線）","province":"東京都","city":"板橋区","address":"東京都板橋区大和町17-1","lat":35.76157119,"lon":139.70515164}]}