{"keyword":"保育","data":[{"name":"敬隣保育園","province":"東京都","city":"板橋区","address":"板橋区本町19-4","lat":35.76048,"lon":139.708407},{"name":"ほんちょうさくらさくほいくえん","province":"東京都","city":"板橋区","address":"板橋区本町24-7","lat":35.75928,"lon":139.708418},{"name":"加賀保育園","province":"東京都","city":"板橋区","address":"板橋区加賀2-3-2","lat":35.75593,"lon":139.715007},{"name":"保育園加賀のこども","province":"東京都","city":"板橋区","address":"板橋区加賀1-9-11","lat":35.753361,"lon":139.716829},{"name":"ベネッセ板橋三丁目保育園","province":"東京都","city":"板橋区","address":"板橋区板橋3-36-6","lat":35.752442,"lon":139.714887},{"name":"かないくぼ保育園","province":"東京都","city":"板橋区","address":"板橋区板橋2-21-1","lat":35.748201,"lon":139.709257},{"name":"日生板橋区役所前保育園ひびき","province":"東京都","city":"板橋区","address":"板橋区板橋2-65-8MSビルディング板橋区役所前2階","lat":35.750209,"lon":139.708824},{"name":"あいあい保育園","province":"東京都","city":"板橋区","address":"板橋区仲宿32-3","lat":35.753797,"lon":139.71086},{"name":"太陽の子保育園","province":"東京都","city":"板橋区","address":"板橋区仲宿46-1","lat":35.754967,"lon":139.710551},{"name":"あすなろ保育園","province":"東京都","city":"板橋区","address":"板橋区仲宿25-6","lat":35.756483,"lon":139.710476},{"name":"仲宿保育園","province":"東京都","city":"板橋区","address":"板橋区仲宿52-9","lat":35.756458,"lon":139.707916},{"name":"やまと保育園","province":"東京都","city":"板橋区","address":"板橋区大和町2-2","lat":35.756877,"lon":139.705918},{"name":"板橋保育園","province":"東京都","city":"板橋区","address":"板橋区大和町36-4","lat":35.75943,"lon":139.705016},{"name":"松葉保育園","province":"東京都","city":"板橋区","address":"板橋区氷川町27-2","lat":35.753742,"lon":139.704733},{"name":"大禮保育園","province":"東京都","city":"板橋区","address":"板橋区大山東町13-2","lat":35.748256,"lon":139.704858},{"name":"栄町保育園","province":"東京都","city":"板橋区","address":"板橋区栄町26-1","lat":35.751642,"lon":139.701961},{"name":"中板橋保育園","province":"東京都","city":"板橋区","address":"板橋区中板橋11-9","lat":35.755,"lon":139.698411},{"name":"なかいたばしさくらさくほいくえん","province":"東京都","city":"板橋区","address":"板橋区中板橋20-1モダ・ビエント中板橋プラシア203","lat":35.755897,"lon":139.696483},{"name":"にじいろ保育園中板橋","province":"東京都","city":"板橋区","address":"板橋区中板橋9-1","lat":35.755647,"lon":139.699158},{"name":"弥生保育園","province":"東京都","city":"板橋区","address":"板橋区弥生町16-3","lat":35.753183,"lon":139.694483},{"name":"日生中板橋保育園ひびき","province":"東京都","city":"板橋区","address":"板橋区弥生町21-8","lat":35.753894,"lon":139.693825},{"name":"風の子保育園","province":"東京都","city":"板橋区","address":"板橋区仲町14-15","lat":35.751725,"lon":139.698347},{"name":"わかたけ保育園","province":"東京都","city":"板橋区","address":"板橋区仲町45-4","lat":35.753189,"lon":139.695714},{"name":"板橋仲町どろんこ保育園","province":"東京都","city":"板橋区","address":"板橋区仲町16-10","lat":35.751119,"lon":139.697667},{"name":"大山保育園","province":"東京都","city":"板橋区","address":"板橋区大山町44-4","lat":35.75012,"lon":139.698308},{"name":"旭保育園","province":"東京都","city":"板橋区","address":"板橋区大山金井町56-1","lat":35.746248,"lon":139.700669},{"name":"明日葉保育園大山園","province":"東京都","city":"板橋区","address":"板橋区南町57-11","lat":35.742804,"lon":139.700267},{"name":"大谷口保育園","province":"東京都","city":"板橋区","address":"板橋区大谷口北町87-1","lat":35.750936,"lon":139.685748},{"name":"陽光保育園","province":"東京都","city":"板橋区","address":"板橋区大谷口上町23-1","lat":35.749506,"lon":139.69402},{"name":"大山西町保育園","province":"東京都","city":"板橋区","address":"板橋区大山西町21-2","lat":35.744828,"lon":139.694367},{"name":"さいわい保育園","province":"東京都","city":"板橋区","address":"板橋区幸町45-4","lat":35.745578,"lon":139.696125},{"name":"みなみ保育園","province":"東京都","city":"板橋区","address":"板橋区幸町3-1","lat":35.745262,"lon":139.700194},{"name":"ほっぺるランド大谷口","province":"東京都","city":"板橋区","address":"板橋区大谷口2-11-8","lat":35.745625,"lon":139.688404},{"name":"キッズタウンむかいはら保育園","province":"東京都","city":"板橋区","address":"板橋区向原3-7-7","lat":35.746617,"lon":139.684382},{"name":"向原保育園","province":"東京都","city":"板橋区","address":"板橋区向原1-18-5","lat":35.742545,"lon":139.68474},{"name":"茂呂塾保育園","province":"東京都","city":"板橋区","address":"板橋区小茂根4-4-7","lat":35.749088,"lon":139.676902},{"name":"ひまわりベビールーム小竹向原","province":"東京都","city":"板橋区","address":"板橋区小茂根1-27-7小茂根サンハイツ1階","lat":35.74595,"lon":139.677171},{"name":"ひまわりキッズガーデン小茂根","province":"東京都","city":"板橋区","address":"板橋区小茂根2-11-12","lat":35.748503,"lon":139.684046},{"name":"舟渡保育園","province":"東京都","city":"板橋区","address":"板橋区舟渡2-19-8","lat":35.795433,"lon":139.689221},{"name":"志村橋保育園","province":"東京都","city":"板橋区","address":"板橋区舟渡3-6-3","lat":35.793578,"lon":139.680289},{"name":"にりんそう保育園","province":"東京都","city":"板橋区","address":"板橋区舟渡1-13-10","lat":35.791945,"lon":139.69081},{"name":"はぁもにぃ保育園","province":"東京都","city":"板橋区","address":"板橋区舟渡1-14-23","lat":35.792153,"lon":139.690363},{"name":"友和保育園","province":"東京都","city":"板橋区","address":"板橋区坂下1-21-9","lat":35.780616,"lon":139.686358},{"name":"坂下三丁目保育園","province":"東京都","city":"板橋区","address":"板橋区坂下3-14-6-101","lat":35.78737,"lon":139.6818},{"name":"こぶし保育園","province":"東京都","city":"板橋区","address":"板橋区坂下3-10-G-109","lat":35.786104,"lon":139.6796},{"name":"志村さかした保育園","province":"東京都","city":"板橋区","address":"板橋区相生町23-5","lat":35.777857,"lon":139.678345},{"name":"相生保育園","province":"東京都","city":"板橋区","address":"板橋区相生町24-3-101","lat":35.778571,"lon":139.6788},{"name":"同援みどり保育園","province":"東京都","city":"板橋区","address":"板橋区蓮根3-15-6","lat":35.788223,"lon":139.677017},{"name":"蓮根保育園","province":"東京都","city":"板橋区","address":"板橋区蓮根2-6-15","lat":35.78089,"lon":139.676351},{"name":"ひまわりキッズガーデン志村","province":"東京都","city":"板橋区","address":"板橋区小豆沢1-12-6","lat":35.773564,"lon":139.698318},{"name":"さかうえ保育園","province":"東京都","city":"板橋区","address":"板橋区小豆沢1-20-17","lat":35.775855,"lon":139.702335},{"name":"日生あずさわ保育園ひびき","province":"東京都","city":"板橋区","address":"板橋区小豆沢2-19-8","lat":35.776039,"lon":139.696466},{"name":"ほっぺるランド板橋小豆沢","province":"東京都","city":"板橋区","address":"板橋区小豆沢二丁目26番20号","lat":35.777855,"lon":139.700265},{"name":"ほっぺるランド本蓮沼","province":"東京都","city":"板橋区","address":"板橋区蓮沼町22-2","lat":35.769001,"lon":139.703074},{"name":"東京自由保育園","province":"東京都","city":"板橋区","address":"板橋区清水町24-13","lat":35.763627,"lon":139.706957},{"name":"グローバルキッズ板橋園","province":"東京都","city":"板橋区","address":"板橋区清水町44-3ロイヤルガーデン2F","lat":35.763646,"lon":139.704988},{"name":"ほっぺるランド板橋清水町","province":"東京都","city":"板橋区","address":"板橋区清水町36-1","lat":35.762713,"lon":139.705427},{"name":"ひまわりキッズガーデン城山","province":"東京都","city":"板橋区","address":"板橋区志村1-30-15","lat":35.775205,"lon":139.689547},{"name":"小桜保育園","province":"東京都","city":"板橋区","address":"板橋区志村3-32-1","lat":35.77896,"lon":139.690677},{"name":"和敬保育園","province":"東京都","city":"板橋区","address":"板橋区大原町3-9","lat":35.769267,"lon":139.700454},{"name":"ひまわりキッズガーデン大原","province":"東京都","city":"板橋区","address":"板橋区大原町13-1","lat":35.770334,"lon":139.69853},{"name":"平和保育園","province":"東京都","city":"板橋区","address":"板橋区富士見町13-6","lat":35.761763,"lon":139.69881},{"name":"マハヤナ第二保育園","province":"東京都","city":"板橋区","address":"板橋区前野町5-24-10","lat":35.772242,"lon":139.685025},{"name":"前野保育園","province":"東京都","city":"板橋区","address":"板橋区前野町4-6-7","lat":35.769528,"lon":139.688817},{"name":"南前野保育園","province":"東京都","city":"板橋区","address":"板橋区前野町2-23-1","lat":35.765837,"lon":139.688089},{"name":"西前野保育園","province":"東京都","city":"板橋区","address":"板橋区前野町6-10-7","lat":35.765328,"lon":139.683348},{"name":"いたばし前野町保育園","province":"東京都","city":"板橋区","address":"板橋区前野町6-3-9日版プロセスビル","lat":35.764184,"lon":139.684484},{"name":"ベネッセ前野町保育園","province":"東京都","city":"板橋区","address":"板橋区前野町3-28-1","lat":35.769459,"lon":139.6921},{"name":"ほっぺるランド志村坂上","province":"東京都","city":"板橋区","address":"板橋区前野町4-1-17","lat":35.769281,"lon":139.689641},{"name":"アスクときわ台","province":"東京都","city":"板橋区","address":"板橋区前野町2-35-22","lat":35.764568,"lon":139.69163},{"name":"向台保育園","province":"東京都","city":"板橋区","address":"板橋区中台2-15-7","lat":35.770106,"lon":139.680878},{"name":"緑が丘保育園","province":"東京都","city":"板橋区","address":"板橋区中台3-27-2","lat":35.773216,"lon":139.67912},{"name":"若木保育園","province":"東京都","city":"板橋区","address":"板橋区若木2-11-6","lat":35.770203,"lon":139.674379},{"name":"たつの子保育園","province":"東京都","city":"板橋区","address":"板橋区常盤台3-25-10","lat":35.76329,"lon":139.683509},{"name":"第二たつの子保育園","province":"東京都","city":"板橋区","address":"板橋区常盤台3-24-2","lat":35.763492,"lon":139.683548},{"name":"グローバルキッズ上板橋園","province":"東京都","city":"板橋区","address":"板橋区常盤台4-30-4","lat":35.76467,"lon":139.677265},{"name":"わかたけかなえ保育園","province":"東京都","city":"板橋区","address":"板橋区常盤台3-12-15","lat":35.762654,"lon":139.685286},{"name":"ときわ台保育園","province":"東京都","city":"板橋区","address":"板橋区常盤台3-21-2","lat":35.762223,"lon":139.683881},{"name":"さくら保育園","province":"東京都","city":"板橋区","address":"板橋区東新町1-17-7","lat":35.761779,"lon":139.679754},{"name":"東新保育園","province":"東京都","city":"板橋区","address":"板橋区東新町2-43-5","lat":35.752572,"lon":139.680579},{"name":"アスク上板橋保育園","province":"東京都","city":"板橋区","address":"板橋区上板橋1-19-16アソルティ上板橋1F","lat":35.761526,"lon":139.67526},{"name":"上板橋保育園","province":"東京都","city":"板橋区","address":"板橋区上板橋2-3-8","lat":35.761809,"lon":139.673843},{"name":"上板橋すきっぷ保育園","province":"東京都","city":"板橋区","address":"板橋区上板橋3-21-7","lat":35.766275,"lon":139.671754},{"name":"にじいろ保育園上板橋","province":"東京都","city":"板橋区","address":"板橋区上板橋二丁目2番15号","lat":35.762176,"lon":139.674207},{"name":"第一保育園","province":"東京都","city":"板橋区","address":"板橋区西台3-32-26","lat":35.774799,"lon":139.670165},{"name":"ひいらぎ保育園","province":"東京都","city":"板橋区","address":"板橋区西台2-22-4","lat":35.78056,"lon":139.671015},{"name":"西台保育園","province":"東京都","city":"板橋区","address":"板橋区西台2-5-18","lat":35.779107,"lon":139.670137},{"name":"わかたけ第二保育園","province":"東京都","city":"板橋区","address":"板橋区新河岸1-3-5","lat":35.794099,"lon":139.665671},{"name":"新河岸保育園","province":"東京都","city":"板橋区","address":"板橋区新河岸2-10-11-101","lat":35.795443,"lon":139.663582},{"name":"聖マリア保育園","province":"東京都","city":"板橋区","address":"板橋区高島平8-21-11","lat":35.790755,"lon":139.663949},{"name":"白鳩保育園","province":"東京都","city":"板橋区","address":"板橋区高島平5-34-7","lat":35.786697,"lon":139.647306},{"name":"こじか保育園","province":"東京都","city":"板橋区","address":"板橋区高島平2-28-7","lat":35.785906,"lon":139.664768},{"name":"かえで保育園","province":"東京都","city":"板橋区","address":"板橋区高島平1-65-1","lat":35.785503,"lon":139.669462},{"name":"つつじ保育園","province":"東京都","city":"板橋区","address":"板橋区高島平9-43-1","lat":35.791197,"lon":139.669856},{"name":"高島平つくし保育園","province":"東京都","city":"板橋区","address":"板橋区高島平2-26-3-101","lat":35.783548,"lon":139.665063},{"name":"高島平すみれ保育園","province":"東京都","city":"板橋区","address":"板橋区高島平2-28-6-101","lat":35.786536,"lon":139.664846},{"name":"高島平けやき保育園","province":"東京都","city":"板橋区","address":"板橋区高島平2-32-3-101","lat":35.786525,"lon":139.662321},{"name":"高島平つぼみ保育園","province":"東京都","city":"板橋区","address":"板橋区高島平2-25-4","lat":35.784076,"lon":139.661302},{"name":"高島平もみじ保育園","province":"東京都","city":"板橋区","address":"板橋区高島平3-10-1-101","lat":35.789161,"lon":139.655138},{"name":"高島平さつき保育園","province":"東京都","city":"板橋区","address":"板橋区高島平9-1-6-201","lat":35.787548,"lon":139.673315},{"name":"高島平あやめ保育園","province":"東京都","city":"板橋区","address":"板橋区高島平8-30-1","lat":35.792394,"lon":139.664604},{"name":"高島平くるみ保育園","province":"東京都","city":"板橋区","address":"板橋区高島平8-16-1","lat":35.790161,"lon":139.660805},{"name":"北野保育園","province":"東京都","city":"板橋区","address":"板橋区徳丸3-20-14","lat":35.771269,"lon":139.658283},{"name":"メリーポピンズ東武練馬ルーム","province":"東京都","city":"板橋区","address":"板橋区徳丸2-3-1徳丸スクウェア1F","lat":35.769083,"lon":139.661494},{"name":"紅梅保育園","province":"東京都","city":"板橋区","address":"板橋区徳丸6-2-10","lat":35.776365,"lon":139.662952},{"name":"にじいろ保育園徳丸","province":"東京都","city":"板橋区","address":"板橋区徳丸3-38-19","lat":35.775488,"lon":139.658555},{"name":"ほっぺるランド板橋徳丸","province":"東京都","city":"板橋区","address":"板橋区徳丸4-20-28","lat":35.772566,"lon":139.654972},{"name":"にじいろ保育園蓮根","province":"東京都","city":"板橋区","address":"板橋区蓮根2-19-3","lat":35.782482,"lon":139.678509},{"name":"愛和保育園","province":"東京都","city":"板橋区","address":"板橋区赤塚2-14-10","lat":35.772518,"lon":139.643048},{"name":"赤塚六丁目保育園","province":"東京都","city":"板橋区","address":"板橋区赤塚6-32-11","lat":35.776404,"lon":139.643326},{"name":"麦の子保育園","province":"東京都","city":"板橋区","address":"板橋区赤塚5-16-27","lat":35.781548,"lon":139.645623},{"name":"赤塚保育園","province":"東京都","city":"板橋区","address":"板橋区赤塚6-30-1","lat":35.77669,"lon":139.643829},{"name":"あさひが丘保育園","province":"東京都","city":"板橋区","address":"板橋区赤塚7-4-1","lat":35.773635,"lon":139.648539},{"name":"うぃず成増保育園","province":"東京都","city":"板橋区","address":"板橋区赤塚3-19-4","lat":35.77657,"lon":139.63716},{"name":"まなびの森保育園下赤塚","province":"東京都","city":"板橋区","address":"板橋区赤塚6-15-2","lat":35.774807,"lon":139.642387},{"name":"赤塚新町保育園","province":"東京都","city":"板橋区","address":"板橋区赤塚新町2-12-1","lat":35.773385,"lon":139.638851},{"name":"ゆりの木保育園","province":"東京都","city":"板橋区","address":"板橋区赤塚新町3-32-11-102","lat":35.769116,"lon":139.638232},{"name":"成増保育園","province":"東京都","city":"板橋区","address":"板橋区成増2-24-7","lat":35.779445,"lon":139.629849},{"name":"成美保育園","province":"東京都","city":"板橋区","address":"板橋区成増4-33-17","lat":35.787697,"lon":139.636234},{"name":"しらさぎ保育園","province":"東京都","city":"板橋区","address":"板橋区成増5-19-40","lat":35.788719,"lon":139.637223},{"name":"ほっぺるランド成増","province":"東京都","city":"板橋区","address":"板橋区成増3-3-6","lat":35.777662,"lon":139.634271},{"name":"グローバルキッズ成増園","province":"東京都","city":"板橋区","address":"板橋区成増2-8-10","lat":35.776231,"lon":139.634143}]}