{"keyword":"再生","data":[{"name":"栗原紙材(株)  板橋事業所","province":"東京都","city":"板橋区","address":"板橋区前野町3-32-7","lat":35.768223,"lon":139.693405},{"name":"三弘紙業(株)  板橋営業所","province":"東京都","city":"板橋区","address":"板橋区大谷口北町6","lat":35.750614,"lon":139.691391},{"name":"森本鐵鋼産業(株)","province":"東京都","city":"板橋区","address":"板橋区小茂根2-22-10","lat":35.749813,"lon":139.681137},{"name":"(株)工藤商店  高島平営業所","province":"東京都","city":"板橋区","address":"板橋区高島平6-2-6","lat":35.790798,"lon":139.651169},{"name":"皆川商事(株)  東京営業所","province":"東京都","city":"板橋区","address":"板橋区舟渡1-9-10","lat":35.790653,"lon":139.689514},{"name":"(有)川島商店","province":"東京都","city":"板橋区","address":"板橋区高島平9-25-8","lat":35.790478,"lon":139.668198},{"name":"(株)関口商店  本店","province":"東京都","city":"板橋区","address":"板橋区東坂下1-14-9","lat":35.782116,"lon":139.691544},{"name":"(株)関口商店  営業所","province":"東京都","city":"板橋区","address":"板橋区坂下1-4-5","lat":35.779938,"lon":139.688049},{"name":"(有)石原商店  資源化センター","province":"東京都","city":"板橋区","address":"板橋区徳丸6-9-20","lat":35.777489,"lon":139.664322},{"name":"古田産商(株)","province":"東京都","city":"板橋区","address":"板橋区舟渡1-7-23","lat":35.791412,"lon":139.68837},{"name":"グリーンロジテック(株)  本社営業所","province":"東京都","city":"板橋区","address":"板橋区坂下3-34-3","lat":35.78949,"lon":139.684204},{"name":"（株）鈴福","province":"東京都","city":"板橋区","address":"板橋区新河岸1-12-11","lat":35.796066,"lon":139.6698},{"name":"(株)志賀商店","province":"東京都","city":"板橋区","address":"板橋区新河岸1-17-6","lat":35.796051,"lon":139.66597},{"name":"木村鋼業(株)  東京板橋営業所","province":"東京都","city":"板橋区","address":"板橋区徳丸6-51-12","lat":35.779758,"lon":139.66098},{"name":"(有)藤田商店","province":"東京都","city":"板橋区","address":"板橋区新河岸1-25-12","lat":35.797394,"lon":139.665359},{"name":"(株)東方産業","province":"東京都","city":"板橋区","address":"板橋区三園2-6-26","lat":35.792931,"lon":139.64119}]}