{"keyword":"区","data":[{"name":"板橋区保健所（健康推進課）","province":"東京都","city":"板橋区","address":"板橋区板橋2-66-1","lat":35.75092,"lon":139.709199},{"name":"板橋区保健所（予防対策課）","province":"東京都","city":"板橋区","address":"板橋区大山東町32-15","lat":35.750567,"lon":139.708091},{"name":"板橋区保健所（生活衛生課）","province":"東京都","city":"板橋区","address":"板橋区大山東町32-15","lat":35.750567,"lon":139.708091},{"name":"板橋健康福祉センター","province":"東京都","city":"板橋区","address":"板橋区大山東町32-15","lat":35.750567,"lon":139.708091},{"name":"上板橋健康福祉センター","province":"東京都","city":"板橋区","address":"板橋区桜川3-18-6","lat":35.760057,"lon":139.675532},{"name":"赤塚健康福祉センター","province":"東京都","city":"板橋区","address":"板橋区赤塚1-10-13","lat":35.772107,"lon":139.647162},{"name":"志村健康福祉センター","province":"東京都","city":"板橋区","address":"板橋区蓮根2-5-5","lat":35.781171,"lon":139.677173},{"name":"高島平健康福祉センター","province":"東京都","city":"板橋区","address":"板橋区高島平3-13-28","lat":35.788142,"lon":139.659319},{"name":"板橋区保健所（健康推進課）","province":"東京都","city":"板橋区","address":"東京都板橋区板橋2丁目66-1","lat":35.75091701,"lon":139.70919342},{"name":"板橋区保健所（予防対策課）","province":"東京都","city":"板橋区","address":"東京都板橋区大山東町32-15","lat":35.75056702,"lon":139.70809075},{"name":"板橋区保健所（生活衛生課）","province":"東京都","city":"板橋区","address":"東京都板橋区大山東町32-15","lat":35.75056702,"lon":139.70809075},{"name":"板橋健康福祉センター","province":"東京都","city":"板橋区","address":"東京都板橋区大山東町32-15","lat":35.75056702,"lon":139.70809075},{"name":"上板橋健康福祉センター","province":"東京都","city":"板橋区","address":"東京都板橋区桜川3丁目18-6","lat":35.76005656,"lon":139.67553193},{"name":"赤塚健康福祉センター","province":"東京都","city":"板橋区","address":"東京都板橋区赤塚1丁目10-13","lat":35.7721073,"lon":139.64716176},{"name":"志村健康福祉センター","province":"東京都","city":"板橋区","address":"東京都板橋区蓮根2丁目5-5","lat":35.78117079,"lon":139.67717267},{"name":"高島平健康福祉センター","province":"東京都","city":"板橋区","address":"東京都板橋区高島平3丁目13-28","lat":35.78814153,"lon":139.65931856},{"name":"板橋区保健所（感染症対策課）","province":"東京都","city":"板橋区","address":"板橋区大山東町32-15","lat":35.75045,"lon":139.70816},{"name":"板橋区保健所（健康推進課）","province":"東京都","city":"板橋区","address":"板橋区板橋2-66-1","lat":35.75111,"lon":139.70912},{"name":"板橋区保健所（予防対策課）","province":"東京都","city":"板橋区","address":"板橋区大山東町32-15","lat":35.75045,"lon":139.70816},{"name":"板橋区保健所（生活衛生課）","province":"東京都","city":"板橋区","address":"板橋区大山東町32-15","lat":35.75045,"lon":139.70816},{"name":"板橋健康福祉センター","province":"東京都","city":"板橋区","address":"板橋区大山東町32-15","lat":35.75045,"lon":139.70816},{"name":"上板橋健康福祉センター","province":"東京都","city":"板橋区","address":"板橋区桜川3-18-6","lat":35.76015,"lon":139.67572},{"name":"赤塚健康福祉センター","province":"東京都","city":"板橋区","address":"板橋区赤塚1-10-13","lat":35.77201,"lon":139.64677},{"name":"志村健康福祉センター","province":"東京都","city":"板橋区","address":"板橋区蓮根2-5-5","lat":35.78085,"lon":139.67709},{"name":"高島平健康福祉センター","province":"東京都","city":"板橋区","address":"板橋区高島平3-13-28","lat":35.78799,"lon":139.65884}]}