{"keyword":"収蔵","data":[{"name":"三園浄水場","province":"東京都","city":"板橋区","address":"東京都板橋区三園2-10-1","lat":35.7948321,"lon":139.641979},{"name":"板橋給水所","province":"東京都","city":"板橋区","address":"東京都板橋区加賀1-17-1","lat":35.755489,"lon":139.718612},{"name":"大谷口給水所","province":"東京都","city":"板橋区","address":"東京都板橋区大谷口1-4","lat":35.745615,"lon":139.690848},{"name":"都立城北中央公園","province":"東京都","city":"板橋区","address":"東京都板橋区桜川1-1","lat":35.7536508,"lon":139.6776669},{"name":"区立城北公園","province":"東京都","city":"板橋区","address":"東京都板橋区坂下2-19-1","lat":35.7825806,"lon":139.6814502},{"name":"都立板橋高等学校","province":"東京都","city":"板橋区","address":"東京都板橋区大谷ロ1-54-1","lat":35.7439,"lon":139.689637},{"name":"都立赤塚公園","province":"東京都","city":"板橋区","address":"東京都板橋区高島平3-1","lat":35.785528,"lon":139.65724},{"name":"区立西徳第二公園","province":"東京都","city":"板橋区","address":"東京都板橋区西台3-42-1","lat":35.7766684,"lon":139.6673924},{"name":"日本大学医学部附属板橋病院","province":"東京都","city":"板橋区","address":"東京都板橋区大谷口上町30-1","lat":35.74958888,"lon":139.69154496},{"name":"帝京大学医学部附属病院","province":"東京都","city":"板橋区","address":"東京都板橋区加賀2丁目11-1","lat":35.75922729,"lon":139.71498704},{"name":"東京都健康長寿医療センター","province":"東京都","city":"板橋区","address":"東京都板橋区栄町35-2","lat":35.75087794,"lon":139.70167185},{"name":"東京都保健医療公社豊島病院","province":"東京都","city":"板橋区","address":"東京都板橋区栄町33-1","lat":35.75269994,"lon":139.70097739},{"name":"三園浄水場","province":"東京都","city":"板橋区","address":"東京都板橋区三園2丁目10-1","lat":35.7948317,"lon":139.64197828},{"name":"区立城北公園","province":"東京都","city":"板橋区","address":"東京都板橋区坂下2丁目19-1","lat":35.78357064,"lon":139.68153885},{"name":"都立板橋高等学校","province":"東京都","city":"板橋区","address":"東京都板橋区大谷口1丁目54-1","lat":35.74187304,"lon":139.68991765},{"name":"都立赤塚公園","province":"東京都","city":"板橋区","address":"東京都板橋区高島平3丁目1","lat":35.78522804,"lon":139.65529951},{"name":"区立西徳第二公園","province":"東京都","city":"板橋区","address":"東京都板橋区西台3丁目42-1","lat":35.77615447,"lon":139.66783758},{"name":"大谷口給水所","province":"東京都","city":"板橋区","address":"東京都板橋区大谷口1丁目4","lat":35.74552822,"lon":139.69106185},{"name":"都立豊島病院","province":"東京都","city":"板橋区","address":"東京都板橋区栄町33-1","lat":35.75269994,"lon":139.70097739},{"name":"板橋トラックターミナル","province":"東京都","city":"板橋区","address":"東京都板橋区高島平6丁目1-1","lat":35.79228232,"lon":139.64660566},{"name":"都立城北中央公園陸上競技場","province":"東京都","city":"板橋区","address":"東京都板橋区桜川1丁目4","lat":35.75681526,"lon":139.67436275},{"name":"板橋区立城北公園野球場","province":"東京都","city":"板橋区","address":"東京都板橋区坂下2丁目19-1","lat":35.78357064,"lon":139.68153885},{"name":"板橋区立東板橋公園グラウンド","province":"東京都","city":"板橋区","address":"東京都板橋区板橋3丁目50-1","lat":35.75398895,"lon":139.71224304},{"name":"荒川戸田橋緑地草地広場","province":"東京都","city":"板橋区","address":"東京都板橋区新河岸1丁目15","lat":35.79670152,"lon":139.66723994},{"name":"荒川戸田橋緑地野球場","province":"東京都","city":"板橋区","address":"東京都板橋区舟渡3丁目","lat":35.79449154,"lon":139.6825884},{"name":"板橋区立小豆沢公園","province":"東京都","city":"板橋区","address":"東京都板橋区小豆沢3丁目8","lat":35.77860211,"lon":139.69505179},{"name":"都立赤塚公園野球場","province":"東京都","city":"板橋区","address":"東京都板橋区高島平3丁目1","lat":35.78522804,"lon":139.65529951},{"name":"帝京大学医学部附属病院ヘリポート","province":"東京都","city":"板橋区","address":"東京都板橋区加賀2丁目11-1","lat":35.75922729,"lon":139.71498704},{"name":"東京都保健医療公社豊島病院ヘリポート","province":"東京都","city":"板橋区","address":"東京都板橋区栄町33-1","lat":35.75269994,"lon":139.70097739},{"name":"板橋区役所屋上","province":"東京都","city":"板橋区","address":"東京都板橋区板橋2丁目66-1","lat":35.75091701,"lon":139.70919342},{"name":"板橋トラックターミナル","province":"東京都","city":"板橋区","address":"東京都板橋区高島平6丁目1-1","lat":35.79228232,"lon":139.64660566},{"name":"板橋区若木原公園内倉庫","province":"東京都","city":"板橋区","address":"板橋区若木1-24区立若木原公園内","lat":35.76726,"lon":139.6706},{"name":"板橋区","province":"東京都","city":"板橋区","address":"板橋区常盤台1-40-1","lat":35.76297,"lon":139.6926},{"name":"日本メガケア（株）","province":"東京都","city":"板橋区","address":"板橋区新河岸1-13-5","lat":35.79643,"lon":139.6701},{"name":"三園浄水場","province":"東京都","city":"板橋区","address":"東京都板橋区三園2-10-1","lat":35.7948321,"lon":139.641979},{"name":"板橋給水所","province":"東京都","city":"板橋区","address":"東京都板橋区加賀1-17-1","lat":35.755489,"lon":139.718612},{"name":"大谷口給水所","province":"東京都","city":"板橋区","address":"東京都板橋区大谷口1-4","lat":35.745615,"lon":139.690848},{"name":"都立城北中央公園","province":"東京都","city":"板橋区","address":"東京都板橋区桜川1-1","lat":35.7536508,"lon":139.6776669},{"name":"区立城北公園","province":"東京都","city":"板橋区","address":"東京都板橋区坂下2-19-1","lat":35.7825806,"lon":139.6814502},{"name":"都立板橋高等学校","province":"東京都","city":"板橋区","address":"東京都板橋区大谷ロ1-54-1","lat":35.7439,"lon":139.689637},{"name":"都立赤塚公園","province":"東京都","city":"板橋区","address":"東京都板橋区高島平3-1","lat":35.785528,"lon":139.65724},{"name":"区立西徳第二公園","province":"東京都","city":"板橋区","address":"東京都板橋区西台3-42-1","lat":35.7766684,"lon":139.6673924},{"name":"日本大学医学部附属板橋病院","province":"東京都","city":"板橋区","address":"東京都板橋区大谷口上町30-1","lat":35.74958888,"lon":139.69154496},{"name":"帝京大学医学部附属病院","province":"東京都","city":"板橋区","address":"東京都板橋区加賀2丁目11-1","lat":35.75922729,"lon":139.71498704},{"name":"東京都健康長寿医療センター","province":"東京都","city":"板橋区","address":"東京都板橋区栄町35-2","lat":35.75087794,"lon":139.70167185},{"name":"東京都保健医療公社豊島病院","province":"東京都","city":"板橋区","address":"東京都板橋区栄町33-1","lat":35.75269994,"lon":139.70097739},{"name":"三園浄水場","province":"東京都","city":"板橋区","address":"東京都板橋区三園2丁目10-1","lat":35.7948317,"lon":139.64197828},{"name":"区立城北公園","province":"東京都","city":"板橋区","address":"東京都板橋区坂下2丁目19-1","lat":35.78357064,"lon":139.68153885},{"name":"都立板橋高等学校","province":"東京都","city":"板橋区","address":"東京都板橋区大谷口1丁目54-1","lat":35.74187304,"lon":139.68991765},{"name":"都立赤塚公園","province":"東京都","city":"板橋区","address":"東京都板橋区高島平3丁目1","lat":35.78522804,"lon":139.65529951},{"name":"区立西徳第二公園","province":"東京都","city":"板橋区","address":"東京都板橋区西台3丁目42-1","lat":35.77615447,"lon":139.66783758},{"name":"大谷口給水所","province":"東京都","city":"板橋区","address":"東京都板橋区大谷口1丁目4","lat":35.74552822,"lon":139.69106185},{"name":"都立豊島病院","province":"東京都","city":"板橋区","address":"東京都板橋区栄町33-1","lat":35.75269994,"lon":139.70097739},{"name":"都立城北中央公園陸上競技場","province":"東京都","city":"板橋区","address":"東京都板橋区桜川1丁目4","lat":35.75681526,"lon":139.67436275},{"name":"板橋区立城北公園野球場","province":"東京都","city":"板橋区","address":"東京都板橋区坂下2丁目19-1","lat":35.78357064,"lon":139.68153885},{"name":"板橋区立東板橋公園グラウンド","province":"東京都","city":"板橋区","address":"東京都板橋区板橋3丁目50-1","lat":35.75398895,"lon":139.71224304},{"name":"荒川戸田橋緑地草地広場","province":"東京都","city":"板橋区","address":"東京都板橋区新河岸1丁目15","lat":35.79670152,"lon":139.66723994},{"name":"荒川戸田橋緑地野球場","province":"東京都","city":"板橋区","address":"東京都板橋区舟渡3丁目","lat":35.79449154,"lon":139.6825884},{"name":"板橋区立小豆沢公園","province":"東京都","city":"板橋区","address":"東京都板橋区小豆沢3丁目8","lat":35.77860211,"lon":139.69505179},{"name":"都立赤塚公園野球場","province":"東京都","city":"板橋区","address":"東京都板橋区高島平3丁目1","lat":35.78522804,"lon":139.65529951},{"name":"帝京大学医学部附属病院ヘリポート","province":"東京都","city":"板橋区","address":"東京都板橋区加賀2丁目11-1","lat":35.75922729,"lon":139.71498704},{"name":"東京都保健医療公社豊島病院ヘリポート","province":"東京都","city":"板橋区","address":"東京都板橋区栄町33-1","lat":35.75269994,"lon":139.70097739},{"name":"板橋区役所屋上","province":"東京都","city":"板橋区","address":"東京都板橋区板橋2丁目66-1","lat":35.75091701,"lon":139.70919342},{"name":"板橋区若木原公園内倉庫","province":"東京都","city":"板橋区","address":"板橋区若木1-24区立若木原公園内","lat":35.76726,"lon":139.6706},{"name":"板橋区","province":"東京都","city":"板橋区","address":"板橋区常盤台1-40-1","lat":35.76297,"lon":139.6926},{"name":"日本メガケア（株）","province":"東京都","city":"板橋区","address":"板橋区新河岸1-13-5","lat":35.79643,"lon":139.6701},{"name":"三園浄水場","province":"東京都","city":"板橋区","address":"東京都板橋区三園2-10-1","lat":35.7948321,"lon":139.641979},{"name":"板橋給水所","province":"東京都","city":"板橋区","address":"東京都板橋区加賀1-17-1","lat":35.755489,"lon":139.718612},{"name":"大谷口給水所","province":"東京都","city":"板橋区","address":"東京都板橋区大谷口1-4","lat":35.745615,"lon":139.690848},{"name":"都立城北中央公園","province":"東京都","city":"板橋区","address":"東京都板橋区桜川1-1","lat":35.7536508,"lon":139.6776669},{"name":"区立城北公園","province":"東京都","city":"板橋区","address":"東京都板橋区坂下2-19-1","lat":35.7825806,"lon":139.6814502},{"name":"都立板橋高等学校","province":"東京都","city":"板橋区","address":"東京都板橋区大谷ロ1-54-1","lat":35.7439,"lon":139.689637},{"name":"都立赤塚公園","province":"東京都","city":"板橋区","address":"東京都板橋区高島平3-1","lat":35.785528,"lon":139.65724},{"name":"区立西徳第二公園","province":"東京都","city":"板橋区","address":"東京都板橋区西台3-42-1","lat":35.7766684,"lon":139.6673924},{"name":"日本大学医学部附属板橋病院","province":"東京都","city":"板橋区","address":"東京都板橋区大谷口上町30-1","lat":35.74958888,"lon":139.69154496},{"name":"帝京大学医学部附属病院","province":"東京都","city":"板橋区","address":"東京都板橋区加賀2丁目11-1","lat":35.75922729,"lon":139.71498704},{"name":"東京都健康長寿医療センター","province":"東京都","city":"板橋区","address":"東京都板橋区栄町35-2","lat":35.75087794,"lon":139.70167185},{"name":"東京都保健医療公社豊島病院","province":"東京都","city":"板橋区","address":"東京都板橋区栄町33-1","lat":35.75269994,"lon":139.70097739},{"name":"三園浄水場","province":"東京都","city":"板橋区","address":"東京都板橋区三園2丁目10-1","lat":35.7948317,"lon":139.64197828},{"name":"区立城北公園","province":"東京都","city":"板橋区","address":"東京都板橋区坂下2丁目19-1","lat":35.78357064,"lon":139.68153885},{"name":"都立板橋高等学校","province":"東京都","city":"板橋区","address":"東京都板橋区大谷口1丁目54-1","lat":35.74187304,"lon":139.68991765},{"name":"都立赤塚公園","province":"東京都","city":"板橋区","address":"東京都板橋区高島平3丁目1","lat":35.78522804,"lon":139.65529951},{"name":"区立西徳第二公園","province":"東京都","city":"板橋区","address":"東京都板橋区西台3丁目42-1","lat":35.77615447,"lon":139.66783758},{"name":"大谷口給水所","province":"東京都","city":"板橋区","address":"東京都板橋区大谷口1丁目4","lat":35.74552822,"lon":139.69106185},{"name":"都立豊島病院","province":"東京都","city":"板橋区","address":"東京都板橋区栄町33-1","lat":35.75269994,"lon":139.70097739},{"name":"都立城北中央公園陸上競技場","province":"東京都","city":"板橋区","address":"東京都板橋区桜川1丁目4","lat":35.75681526,"lon":139.67436275},{"name":"板橋区立城北公園野球場","province":"東京都","city":"板橋区","address":"東京都板橋区坂下2丁目19-1","lat":35.78357064,"lon":139.68153885},{"name":"板橋区立東板橋公園グラウンド","province":"東京都","city":"板橋区","address":"東京都板橋区板橋3丁目50-1","lat":35.75398895,"lon":139.71224304},{"name":"荒川戸田橋緑地草地広場","province":"東京都","city":"板橋区","address":"東京都板橋区新河岸1丁目15","lat":35.79670152,"lon":139.66723994},{"name":"荒川戸田橋緑地野球場","province":"東京都","city":"板橋区","address":"東京都板橋区舟渡3丁目","lat":35.79449154,"lon":139.6825884},{"name":"板橋区立小豆沢公園","province":"東京都","city":"板橋区","address":"東京都板橋区小豆沢3丁目8","lat":35.77860211,"lon":139.69505179},{"name":"都立赤塚公園野球場","province":"東京都","city":"板橋区","address":"東京都板橋区高島平3丁目1","lat":35.78522804,"lon":139.65529951},{"name":"帝京大学医学部附属病院ヘリポート","province":"東京都","city":"板橋区","address":"東京都板橋区加賀2丁目11-1","lat":35.75922729,"lon":139.71498704},{"name":"東京都保健医療公社豊島病院ヘリポート","province":"東京都","city":"板橋区","address":"東京都板橋区栄町33-1","lat":35.75269994,"lon":139.70097739},{"name":"板橋区役所屋上","province":"東京都","city":"板橋区","address":"東京都板橋区板橋2丁目66-1","lat":35.75091701,"lon":139.70919342},{"name":"板橋区若木原公園内倉庫","province":"東京都","city":"板橋区","address":"板橋区若木1-24区立若木原公園内","lat":35.76726,"lon":139.6706},{"name":"板橋区","province":"東京都","city":"板橋区","address":"板橋区常盤台1-40-1","lat":35.76297,"lon":139.6926},{"name":"日本メガケア（株）","province":"東京都","city":"板橋区","address":"板橋区新河岸1-13-5","lat":35.79643,"lon":139.6701},{"name":"三園浄水場","province":"東京都","city":"板橋区","address":"東京都板橋区三園2-10-1","lat":35.7948321,"lon":139.641979},{"name":"板橋給水所","province":"東京都","city":"板橋区","address":"東京都板橋区加賀1-17-1","lat":35.755489,"lon":139.718612},{"name":"大谷口給水所","province":"東京都","city":"板橋区","address":"東京都板橋区大谷口1-4","lat":35.745615,"lon":139.690848},{"name":"都立城北中央公園","province":"東京都","city":"板橋区","address":"東京都板橋区桜川1-1","lat":35.7536508,"lon":139.6776669},{"name":"区立城北公園","province":"東京都","city":"板橋区","address":"東京都板橋区坂下2-19-1","lat":35.7825806,"lon":139.6814502},{"name":"都立板橋高等学校","province":"東京都","city":"板橋区","address":"東京都板橋区大谷ロ1-54-1","lat":35.7439,"lon":139.689637},{"name":"都立赤塚公園","province":"東京都","city":"板橋区","address":"東京都板橋区高島平3-1","lat":35.785528,"lon":139.65724},{"name":"区立西徳第二公園","province":"東京都","city":"板橋区","address":"東京都板橋区西台3-42-1","lat":35.7766684,"lon":139.6673924},{"name":"日本大学医学部附属板橋病院","province":"東京都","city":"板橋区","address":"東京都板橋区大谷口上町30-1","lat":35.74958888,"lon":139.69154496},{"name":"帝京大学医学部附属病院","province":"東京都","city":"板橋区","address":"東京都板橋区加賀2丁目11-1","lat":35.75922729,"lon":139.71498704},{"name":"東京都健康長寿医療センター","province":"東京都","city":"板橋区","address":"東京都板橋区栄町35-2","lat":35.75087794,"lon":139.70167185},{"name":"東京都保健医療公社豊島病院","province":"東京都","city":"板橋区","address":"東京都板橋区栄町33-1","lat":35.75269994,"lon":139.70097739},{"name":"都立豊島病院","province":"東京都","city":"板橋区","address":"東京都板橋区栄町33-1","lat":35.75269994,"lon":139.70097739},{"name":"都立城北中央公園陸上競技場","province":"東京都","city":"板橋区","address":"東京都板橋区桜川1丁目4","lat":35.75681526,"lon":139.67436275},{"name":"板橋区立城北公園野球場","province":"東京都","city":"板橋区","address":"東京都板橋区坂下2丁目19-1","lat":35.78357064,"lon":139.68153885},{"name":"板橋区立東板橋公園グラウンド","province":"東京都","city":"板橋区","address":"東京都板橋区板橋3丁目50-1","lat":35.75398895,"lon":139.71224304},{"name":"荒川戸田橋緑地草地広場","province":"東京都","city":"板橋区","address":"東京都板橋区新河岸1丁目15","lat":35.79670152,"lon":139.66723994},{"name":"荒川戸田橋緑地野球場","province":"東京都","city":"板橋区","address":"東京都板橋区舟渡3丁目","lat":35.79449154,"lon":139.6825884},{"name":"板橋区立小豆沢公園","province":"東京都","city":"板橋区","address":"東京都板橋区小豆沢3丁目8","lat":35.77860211,"lon":139.69505179},{"name":"都立赤塚公園野球場","province":"東京都","city":"板橋区","address":"東京都板橋区高島平3丁目1","lat":35.78522804,"lon":139.65529951},{"name":"帝京大学医学部附属病院ヘリポート","province":"東京都","city":"板橋区","address":"東京都板橋区加賀2丁目11-1","lat":35.75922729,"lon":139.71498704},{"name":"東京都保健医療公社豊島病院ヘリポート","province":"東京都","city":"板橋区","address":"東京都板橋区栄町33-1","lat":35.75269994,"lon":139.70097739},{"name":"板橋区役所屋上","province":"東京都","city":"板橋区","address":"東京都板橋区板橋2丁目66-1","lat":35.75091701,"lon":139.70919342},{"name":"板橋区若木原公園内倉庫","province":"東京都","city":"板橋区","address":"板橋区若木1-24区立若木原公園内","lat":35.76726,"lon":139.6706},{"name":"板橋区","province":"東京都","city":"板橋区","address":"板橋区常盤台1-40-1","lat":35.76297,"lon":139.6926},{"name":"日本メガケア（株）","province":"東京都","city":"板橋区","address":"板橋区新河岸1-13-5","lat":35.79643,"lon":139.6701},{"name":"三園浄水場","province":"東京都","city":"板橋区","address":"東京都板橋区三園2-10-1","lat":35.7948321,"lon":139.641979},{"name":"板橋給水所","province":"東京都","city":"板橋区","address":"東京都板橋区加賀1-17-1","lat":35.755489,"lon":139.718612},{"name":"大谷口給水所","province":"東京都","city":"板橋区","address":"東京都板橋区大谷口1-4","lat":35.745615,"lon":139.690848},{"name":"都立城北中央公園","province":"東京都","city":"板橋区","address":"東京都板橋区桜川1-1","lat":35.7536508,"lon":139.6776669},{"name":"区立城北公園","province":"東京都","city":"板橋区","address":"東京都板橋区坂下2-19-1","lat":35.7825806,"lon":139.6814502},{"name":"都立板橋高等学校","province":"東京都","city":"板橋区","address":"東京都板橋区大谷ロ1-54-1","lat":35.7439,"lon":139.689637},{"name":"都立赤塚公園","province":"東京都","city":"板橋区","address":"東京都板橋区高島平3-1","lat":35.785528,"lon":139.65724},{"name":"区立西徳第二公園","province":"東京都","city":"板橋区","address":"東京都板橋区西台3-42-1","lat":35.7766684,"lon":139.6673924},{"name":"日本大学医学部附属板橋病院","province":"東京都","city":"板橋区","address":"東京都板橋区大谷口上町30-1","lat":35.74958888,"lon":139.69154496},{"name":"帝京大学医学部附属病院","province":"東京都","city":"板橋区","address":"東京都板橋区加賀2丁目11-1","lat":35.75922729,"lon":139.71498704},{"name":"東京都健康長寿医療センター","province":"東京都","city":"板橋区","address":"東京都板橋区栄町35-2","lat":35.75087794,"lon":139.70167185},{"name":"東京都保健医療公社豊島病院","province":"東京都","city":"板橋区","address":"東京都板橋区栄町33-1","lat":35.75269994,"lon":139.70097739},{"name":"都立豊島病院","province":"東京都","city":"板橋区","address":"東京都板橋区栄町33-1","lat":35.75269994,"lon":139.70097739},{"name":"板橋区若木原公園内倉庫","province":"東京都","city":"板橋区","address":"板橋区若木1-24区立若木原公園内","lat":35.76726,"lon":139.6706},{"name":"板橋区","province":"東京都","city":"板橋区","address":"板橋区常盤台1-40-1","lat":35.76297,"lon":139.6926},{"name":"日本メガケア（株）","province":"東京都","city":"板橋区","address":"板橋区新河岸1-13-5","lat":35.79643,"lon":139.6701},{"name":"三園浄水場","province":"東京都","city":"板橋区","address":"東京都板橋区三園2-10-1","lat":35.7948321,"lon":139.641979},{"name":"板橋給水所","province":"東京都","city":"板橋区","address":"東京都板橋区加賀1-17-1","lat":35.755489,"lon":139.718612},{"name":"大谷口給水所","province":"東京都","city":"板橋区","address":"東京都板橋区大谷口1-4","lat":35.745615,"lon":139.690848},{"name":"都立城北中央公園","province":"東京都","city":"板橋区","address":"東京都板橋区桜川1-1","lat":35.7536508,"lon":139.6776669},{"name":"区立城北公園","province":"東京都","city":"板橋区","address":"東京都板橋区坂下2-19-1","lat":35.7825806,"lon":139.6814502},{"name":"都立板橋高等学校","province":"東京都","city":"板橋区","address":"東京都板橋区大谷ロ1-54-1","lat":35.7439,"lon":139.689637},{"name":"都立赤塚公園","province":"東京都","city":"板橋区","address":"東京都板橋区高島平3-1","lat":35.785528,"lon":139.65724},{"name":"区立西徳第二公園","province":"東京都","city":"板橋区","address":"東京都板橋区西台3-42-1","lat":35.7766684,"lon":139.6673924},{"name":"日本大学医学部附属板橋病院","province":"東京都","city":"板橋区","address":"東京都板橋区大谷口上町30-1","lat":35.74958888,"lon":139.69154496},{"name":"帝京大学医学部附属病院","province":"東京都","city":"板橋区","address":"東京都板橋区加賀2丁目11-1","lat":35.75922729,"lon":139.71498704},{"name":"東京都健康長寿医療センター","province":"東京都","city":"板橋区","address":"東京都板橋区栄町35-2","lat":35.75087794,"lon":139.70167185},{"name":"東京都保健医療公社豊島病院","province":"東京都","city":"板橋区","address":"東京都板橋区栄町33-1","lat":35.75269994,"lon":139.70097739},{"name":"都立豊島病院","province":"東京都","city":"板橋区","address":"東京都板橋区栄町33-1","lat":35.75269994,"lon":139.70097739},{"name":"板橋区若木原公園内倉庫","province":"東京都","city":"板橋区","address":"板橋区若木1-24区立若木原公園内","lat":35.76726,"lon":139.6706},{"name":"板橋区","province":"東京都","city":"板橋区","address":"板橋区常盤台1-40-1","lat":35.76297,"lon":139.6926},{"name":"日本メガケア（株）","province":"東京都","city":"板橋区","address":"板橋区新河岸1-13-5","lat":35.79643,"lon":139.6701},{"name":"三園浄水場","province":"東京都","city":"板橋区","address":"東京都板橋区三園2-10-1","lat":35.7948321,"lon":139.641979},{"name":"板橋給水所","province":"東京都","city":"板橋区","address":"東京都板橋区加賀1-17-1","lat":35.755489,"lon":139.718612},{"name":"大谷口給水所","province":"東京都","city":"板橋区","address":"東京都板橋区大谷口1-4","lat":35.745615,"lon":139.690848},{"name":"都立城北中央公園","province":"東京都","city":"板橋区","address":"東京都板橋区桜川1-1","lat":35.7536508,"lon":139.6776669},{"name":"区立城北公園","province":"東京都","city":"板橋区","address":"東京都板橋区坂下2-19-1","lat":35.7825806,"lon":139.6814502},{"name":"都立板橋高等学校","province":"東京都","city":"板橋区","address":"東京都板橋区大谷ロ1-54-1","lat":35.7439,"lon":139.689637},{"name":"都立赤塚公園","province":"東京都","city":"板橋区","address":"東京都板橋区高島平3-1","lat":35.785528,"lon":139.65724},{"name":"区立西徳第二公園","province":"東京都","city":"板橋区","address":"東京都板橋区西台3-42-1","lat":35.7766684,"lon":139.6673924},{"name":"日本大学医学部附属板橋病院","province":"東京都","city":"板橋区","address":"東京都板橋区大谷口上町30-1","lat":35.74958888,"lon":139.69154496},{"name":"帝京大学医学部附属病院","province":"東京都","city":"板橋区","address":"東京都板橋区加賀2丁目11-1","lat":35.75922729,"lon":139.71498704},{"name":"東京都健康長寿医療センター","province":"東京都","city":"板橋区","address":"東京都板橋区栄町35-2","lat":35.75087794,"lon":139.70167185},{"name":"東京都保健医療公社豊島病院","province":"東京都","city":"板橋区","address":"東京都板橋区栄町33-1","lat":35.75269994,"lon":139.70097739},{"name":"都立豊島病院","province":"東京都","city":"板橋区","address":"東京都板橋区栄町33-1","lat":35.75269994,"lon":139.70097739},{"name":"板橋区若木原公園内倉庫","province":"東京都","city":"板橋区","address":"板橋区若木1-24区立若木原公園内","lat":35.76726,"lon":139.6706},{"name":"板橋区","province":"東京都","city":"板橋区","address":"板橋区常盤台1-40-1","lat":35.76297,"lon":139.6926},{"name":"日本メガケア（株）","province":"東京都","city":"板橋区","address":"板橋区新河岸1-13-5","lat":35.79643,"lon":139.6701},{"name":"三園浄水場","province":"東京都","city":"板橋区","address":"東京都板橋区三園2-10-1","lat":35.7948321,"lon":139.641979},{"name":"板橋給水所","province":"東京都","city":"板橋区","address":"東京都板橋区加賀1-17-1","lat":35.755489,"lon":139.718612},{"name":"大谷口給水所","province":"東京都","city":"板橋区","address":"東京都板橋区大谷口1-4","lat":35.745615,"lon":139.690848},{"name":"都立城北中央公園","province":"東京都","city":"板橋区","address":"東京都板橋区桜川1-1","lat":35.7536508,"lon":139.6776669},{"name":"区立城北公園","province":"東京都","city":"板橋区","address":"東京都板橋区坂下2-19-1","lat":35.7825806,"lon":139.6814502},{"name":"都立板橋高等学校","province":"東京都","city":"板橋区","address":"東京都板橋区大谷ロ1-54-1","lat":35.7439,"lon":139.689637},{"name":"都立赤塚公園","province":"東京都","city":"板橋区","address":"東京都板橋区高島平3-1","lat":35.785528,"lon":139.65724},{"name":"区立西徳第二公園","province":"東京都","city":"板橋区","address":"東京都板橋区西台3-42-1","lat":35.7766684,"lon":139.6673924},{"name":"日本大学医学部附属板橋病院","province":"東京都","city":"板橋区","address":"東京都板橋区大谷口上町30-1","lat":35.74958888,"lon":139.69154496},{"name":"帝京大学医学部附属病院","province":"東京都","city":"板橋区","address":"東京都板橋区加賀2丁目11-1","lat":35.75922729,"lon":139.71498704},{"name":"東京都健康長寿医療センター","province":"東京都","city":"板橋区","address":"東京都板橋区栄町35-2","lat":35.75087794,"lon":139.70167185},{"name":"東京都保健医療公社豊島病院","province":"東京都","city":"板橋区","address":"東京都板橋区栄町33-1","lat":35.75269994,"lon":139.70097739},{"name":"都立豊島病院","province":"東京都","city":"板橋区","address":"東京都板橋区栄町33-1","lat":35.75269994,"lon":139.70097739},{"name":"板橋区若木原公園内倉庫","province":"東京都","city":"板橋区","address":"板橋区若木1-24区立若木原公園内","lat":35.76726,"lon":139.6706},{"name":"板橋区","province":"東京都","city":"板橋区","address":"板橋区常盤台1-40-1","lat":35.76297,"lon":139.6926},{"name":"日本メガケア（株）","province":"東京都","city":"板橋区","address":"板橋区新河岸1-13-5","lat":35.79643,"lon":139.6701},{"name":"三園浄水場","province":"東京都","city":"板橋区","address":"東京都板橋区三園2-10-1","lat":35.7948321,"lon":139.641979},{"name":"板橋給水所","province":"東京都","city":"板橋区","address":"東京都板橋区加賀1-17-1","lat":35.755489,"lon":139.718612},{"name":"大谷口給水所","province":"東京都","city":"板橋区","address":"東京都板橋区大谷口1-4","lat":35.745615,"lon":139.690848},{"name":"都立城北中央公園","province":"東京都","city":"板橋区","address":"東京都板橋区桜川1-1","lat":35.7536508,"lon":139.6776669},{"name":"区立城北公園","province":"東京都","city":"板橋区","address":"東京都板橋区坂下2-19-1","lat":35.7825806,"lon":139.6814502},{"name":"都立板橋高等学校","province":"東京都","city":"板橋区","address":"東京都板橋区大谷ロ1-54-1","lat":35.7439,"lon":139.689637},{"name":"都立赤塚公園","province":"東京都","city":"板橋区","address":"東京都板橋区高島平3-1","lat":35.785528,"lon":139.65724},{"name":"区立西徳第二公園","province":"東京都","city":"板橋区","address":"東京都板橋区西台3-42-1","lat":35.7766684,"lon":139.6673924},{"name":"日本大学医学部附属板橋病院","province":"東京都","city":"板橋区","address":"東京都板橋区大谷口上町30-1","lat":35.74958888,"lon":139.69154496},{"name":"帝京大学医学部附属病院","province":"東京都","city":"板橋区","address":"東京都板橋区加賀2丁目11-1","lat":35.75922729,"lon":139.71498704},{"name":"東京都健康長寿医療センター","province":"東京都","city":"板橋区","address":"東京都板橋区栄町35-2","lat":35.75087794,"lon":139.70167185},{"name":"東京都保健医療公社豊島病院","province":"東京都","city":"板橋区","address":"東京都板橋区栄町33-1","lat":35.75269994,"lon":139.70097739},{"name":"都立豊島病院","province":"東京都","city":"板橋区","address":"東京都板橋区栄町33-1","lat":35.75269994,"lon":139.70097739},{"name":"板橋区若木原公園内倉庫","province":"東京都","city":"板橋区","address":"板橋区若木1-24区立若木原公園内","lat":35.76726,"lon":139.6706},{"name":"板橋区","province":"東京都","city":"板橋区","address":"板橋区常盤台1-40-1","lat":35.76297,"lon":139.6926},{"name":"日本メガケア（株）","province":"東京都","city":"板橋区","address":"板橋区新河岸1-13-5","lat":35.79643,"lon":139.6701},{"name":"三園浄水場","province":"東京都","city":"板橋区","address":"東京都板橋区三園2-10-1","lat":35.7948321,"lon":139.641979},{"name":"板橋給水所","province":"東京都","city":"板橋区","address":"東京都板橋区加賀1-17-1","lat":35.755489,"lon":139.718612},{"name":"大谷口給水所","province":"東京都","city":"板橋区","address":"東京都板橋区大谷口1-4","lat":35.745615,"lon":139.690848},{"name":"都立城北中央公園","province":"東京都","city":"板橋区","address":"東京都板橋区桜川1-1","lat":35.7536508,"lon":139.6776669},{"name":"区立城北公園","province":"東京都","city":"板橋区","address":"東京都板橋区坂下2-19-1","lat":35.7825806,"lon":139.6814502},{"name":"都立板橋高等学校","province":"東京都","city":"板橋区","address":"東京都板橋区大谷ロ1-54-1","lat":35.7439,"lon":139.689637},{"name":"都立赤塚公園","province":"東京都","city":"板橋区","address":"東京都板橋区高島平3-1","lat":35.785528,"lon":139.65724},{"name":"区立西徳第二公園","province":"東京都","city":"板橋区","address":"東京都板橋区西台3-42-1","lat":35.7766684,"lon":139.6673924},{"name":"日本大学医学部附属板橋病院","province":"東京都","city":"板橋区","address":"東京都板橋区大谷口上町30-1","lat":35.74958888,"lon":139.69154496},{"name":"帝京大学医学部附属病院","province":"東京都","city":"板橋区","address":"東京都板橋区加賀2丁目11-1","lat":35.75922729,"lon":139.71498704},{"name":"東京都健康長寿医療センター","province":"東京都","city":"板橋区","address":"東京都板橋区栄町35-2","lat":35.75087794,"lon":139.70167185},{"name":"東京都保健医療公社豊島病院","province":"東京都","city":"板橋区","address":"東京都板橋区栄町33-1","lat":35.75269994,"lon":139.70097739},{"name":"都立豊島病院","province":"東京都","city":"板橋区","address":"東京都板橋区栄町33-1","lat":35.75269994,"lon":139.70097739},{"name":"板橋区若木原公園内倉庫","province":"東京都","city":"板橋区","address":"板橋区若木1-24区立若木原公園内","lat":35.76726,"lon":139.6706},{"name":"板橋区","province":"東京都","city":"板橋区","address":"板橋区常盤台1-40-1","lat":35.76297,"lon":139.6926},{"name":"日本メガケア（株）","province":"東京都","city":"板橋区","address":"板橋区新河岸1-13-5","lat":35.79643,"lon":139.6701},{"name":"三園浄水場","province":"東京都","city":"板橋区","address":"東京都板橋区三園2-10-1","lat":35.7948321,"lon":139.641979},{"name":"板橋給水所","province":"東京都","city":"板橋区","address":"東京都板橋区加賀1-17-1","lat":35.755489,"lon":139.718612},{"name":"大谷口給水所","province":"東京都","city":"板橋区","address":"東京都板橋区大谷口1-4","lat":35.745615,"lon":139.690848},{"name":"都立城北中央公園","province":"東京都","city":"板橋区","address":"東京都板橋区桜川1-1","lat":35.7536508,"lon":139.6776669},{"name":"区立城北公園","province":"東京都","city":"板橋区","address":"東京都板橋区坂下2-19-1","lat":35.7825806,"lon":139.6814502},{"name":"都立板橋高等学校","province":"東京都","city":"板橋区","address":"東京都板橋区大谷ロ1-54-1","lat":35.7439,"lon":139.689637},{"name":"都立赤塚公園","province":"東京都","city":"板橋区","address":"東京都板橋区高島平3-1","lat":35.785528,"lon":139.65724},{"name":"区立西徳第二公園","province":"東京都","city":"板橋区","address":"東京都板橋区西台3-42-1","lat":35.7766684,"lon":139.6673924},{"name":"板橋区若木原公園内倉庫","province":"東京都","city":"板橋区","address":"板橋区若木1-24区立若木原公園内","lat":35.76726,"lon":139.6706},{"name":"板橋区","province":"東京都","city":"板橋区","address":"板橋区常盤台1-40-1","lat":35.76297,"lon":139.6926},{"name":"日本メガケア（株）","province":"東京都","city":"板橋区","address":"板橋区新河岸1-13-5","lat":35.79643,"lon":139.6701},{"name":"三園浄水場","province":"東京都","city":"板橋区","address":"東京都板橋区三園2-10-1","lat":35.7948321,"lon":139.641979},{"name":"板橋給水所","province":"東京都","city":"板橋区","address":"東京都板橋区加賀1-17-1","lat":35.755489,"lon":139.718612},{"name":"大谷口給水所","province":"東京都","city":"板橋区","address":"東京都板橋区大谷口1-4","lat":35.745615,"lon":139.690848},{"name":"都立城北中央公園","province":"東京都","city":"板橋区","address":"東京都板橋区桜川1-1","lat":35.7536508,"lon":139.6776669},{"name":"区立城北公園","province":"東京都","city":"板橋区","address":"東京都板橋区坂下2-19-1","lat":35.7825806,"lon":139.6814502},{"name":"都立板橋高等学校","province":"東京都","city":"板橋区","address":"東京都板橋区大谷ロ1-54-1","lat":35.7439,"lon":139.689637},{"name":"都立赤塚公園","province":"東京都","city":"板橋区","address":"東京都板橋区高島平3-1","lat":35.785528,"lon":139.65724},{"name":"区立西徳第二公園","province":"東京都","city":"板橋区","address":"東京都板橋区西台3-42-1","lat":35.7766684,"lon":139.6673924},{"name":"板橋区若木原公園内倉庫","province":"東京都","city":"板橋区","address":"板橋区若木1-24区立若木原公園内","lat":35.76726,"lon":139.6706},{"name":"板橋区","province":"東京都","city":"板橋区","address":"板橋区常盤台1-40-1","lat":35.76297,"lon":139.6926},{"name":"日本メガケア（株）","province":"東京都","city":"板橋区","address":"板橋区新河岸1-13-5","lat":35.79643,"lon":139.6701},{"name":"三園浄水場","province":"東京都","city":"板橋区","address":"東京都板橋区三園2-10-1","lat":35.7948321,"lon":139.641979},{"name":"板橋給水所","province":"東京都","city":"板橋区","address":"東京都板橋区加賀1-17-1","lat":35.755489,"lon":139.718612},{"name":"大谷口給水所","province":"東京都","city":"板橋区","address":"東京都板橋区大谷口1-4","lat":35.745615,"lon":139.690848},{"name":"都立城北中央公園","province":"東京都","city":"板橋区","address":"東京都板橋区桜川1-1","lat":35.7536508,"lon":139.6776669},{"name":"区立城北公園","province":"東京都","city":"板橋区","address":"東京都板橋区坂下2-19-1","lat":35.7825806,"lon":139.6814502},{"name":"都立板橋高等学校","province":"東京都","city":"板橋区","address":"東京都板橋区大谷ロ1-54-1","lat":35.7439,"lon":139.689637},{"name":"都立赤塚公園","province":"東京都","city":"板橋区","address":"東京都板橋区高島平3-1","lat":35.785528,"lon":139.65724},{"name":"区立西徳第二公園","province":"東京都","city":"板橋区","address":"東京都板橋区西台3-42-1","lat":35.7766684,"lon":139.6673924},{"name":"板橋区若木原公園内倉庫","province":"東京都","city":"板橋区","address":"板橋区若木1-24区立若木原公園内","lat":35.76726,"lon":139.6706},{"name":"板橋区","province":"東京都","city":"板橋区","address":"板橋区常盤台1-40-1","lat":35.76297,"lon":139.6926},{"name":"日本メガケア（株）","province":"東京都","city":"板橋区","address":"板橋区新河岸1-13-5","lat":35.79643,"lon":139.6701},{"name":"三園浄水場","province":"東京都","city":"板橋区","address":"東京都板橋区三園2-10-1","lat":35.7948321,"lon":139.641979},{"name":"板橋給水所","province":"東京都","city":"板橋区","address":"東京都板橋区加賀1-17-1","lat":35.755489,"lon":139.718612},{"name":"大谷口給水所","province":"東京都","city":"板橋区","address":"東京都板橋区大谷口1-4","lat":35.745615,"lon":139.690848},{"name":"都立城北中央公園","province":"東京都","city":"板橋区","address":"東京都板橋区桜川1-1","lat":35.7536508,"lon":139.6776669},{"name":"区立城北公園","province":"東京都","city":"板橋区","address":"東京都板橋区坂下2-19-1","lat":35.7825806,"lon":139.6814502},{"name":"都立板橋高等学校","province":"東京都","city":"板橋区","address":"東京都板橋区大谷ロ1-54-1","lat":35.7439,"lon":139.689637},{"name":"都立赤塚公園","province":"東京都","city":"板橋区","address":"東京都板橋区高島平3-1","lat":35.785528,"lon":139.65724},{"name":"区立西徳第二公園","province":"東京都","city":"板橋区","address":"東京都板橋区西台3-42-1","lat":35.7766684,"lon":139.6673924},{"name":"板橋区若木原公園内倉庫","province":"東京都","city":"板橋区","address":"板橋区若木1-24区立若木原公園内","lat":35.76726,"lon":139.6706},{"name":"板橋区","province":"東京都","city":"板橋区","address":"板橋区常盤台1-40-1","lat":35.76297,"lon":139.6926},{"name":"日本メガケア（株）","province":"東京都","city":"板橋区","address":"板橋区新河岸1-13-5","lat":35.79643,"lon":139.6701},{"name":"三園浄水場","province":"東京都","city":"板橋区","address":"東京都板橋区三園2-10-1","lat":35.7948321,"lon":139.641979},{"name":"板橋給水所","province":"東京都","city":"板橋区","address":"東京都板橋区加賀1-17-1","lat":35.755489,"lon":139.718612},{"name":"大谷口給水所","province":"東京都","city":"板橋区","address":"東京都板橋区大谷口1-4","lat":35.745615,"lon":139.690848},{"name":"都立城北中央公園","province":"東京都","city":"板橋区","address":"東京都板橋区桜川1-1","lat":35.7536508,"lon":139.6776669},{"name":"区立城北公園","province":"東京都","city":"板橋区","address":"東京都板橋区坂下2-19-1","lat":35.7825806,"lon":139.6814502},{"name":"都立板橋高等学校","province":"東京都","city":"板橋区","address":"東京都板橋区大谷ロ1-54-1","lat":35.7439,"lon":139.689637},{"name":"都立赤塚公園","province":"東京都","city":"板橋区","address":"東京都板橋区高島平3-1","lat":35.785528,"lon":139.65724},{"name":"区立西徳第二公園","province":"東京都","city":"板橋区","address":"東京都板橋区西台3-42-1","lat":35.7766684,"lon":139.6673924},{"name":"板橋区若木原公園内倉庫","province":"東京都","city":"板橋区","address":"板橋区若木1-24区立若木原公園内","lat":35.76726,"lon":139.6706},{"name":"板橋区","province":"東京都","city":"板橋区","address":"板橋区常盤台1-40-1","lat":35.76297,"lon":139.6926},{"name":"日本メガケア（株）","province":"東京都","city":"板橋区","address":"板橋区新河岸1-13-5","lat":35.79643,"lon":139.6701},{"name":"三園浄水場","province":"東京都","city":"板橋区","address":"東京都板橋区三園2-10-1","lat":35.7948321,"lon":139.641979},{"name":"板橋給水所","province":"東京都","city":"板橋区","address":"東京都板橋区加賀1-17-1","lat":35.755489,"lon":139.718612},{"name":"大谷口給水所","province":"東京都","city":"板橋区","address":"東京都板橋区大谷口1-4","lat":35.745615,"lon":139.690848},{"name":"都立城北中央公園","province":"東京都","city":"板橋区","address":"東京都板橋区桜川1-1","lat":35.7536508,"lon":139.6776669},{"name":"区立城北公園","province":"東京都","city":"板橋区","address":"東京都板橋区坂下2-19-1","lat":35.7825806,"lon":139.6814502},{"name":"都立板橋高等学校","province":"東京都","city":"板橋区","address":"東京都板橋区大谷ロ1-54-1","lat":35.7439,"lon":139.689637},{"name":"都立赤塚公園","province":"東京都","city":"板橋区","address":"東京都板橋区高島平3-1","lat":35.785528,"lon":139.65724},{"name":"区立西徳第二公園","province":"東京都","city":"板橋区","address":"東京都板橋区西台3-42-1","lat":35.7766684,"lon":139.6673924},{"name":"板橋区若木原公園内倉庫","province":"東京都","city":"板橋区","address":"板橋区若木1-24区立若木原公園内","lat":35.76726,"lon":139.6706},{"name":"板橋区","province":"東京都","city":"板橋区","address":"板橋区常盤台1-40-1","lat":35.76297,"lon":139.6926},{"name":"日本メガケア（株）","province":"東京都","city":"板橋区","address":"板橋区新河岸1-13-5","lat":35.79643,"lon":139.6701},{"name":"三園浄水場","province":"東京都","city":"板橋区","address":"東京都板橋区三園2-10-1","lat":35.7948321,"lon":139.641979},{"name":"板橋給水所","province":"東京都","city":"板橋区","address":"東京都板橋区加賀1-17-1","lat":35.755489,"lon":139.718612},{"name":"大谷口給水所","province":"東京都","city":"板橋区","address":"東京都板橋区大谷口1-4","lat":35.745615,"lon":139.690848},{"name":"都立城北中央公園","province":"東京都","city":"板橋区","address":"東京都板橋区桜川1-1","lat":35.7536508,"lon":139.6776669},{"name":"区立城北公園","province":"東京都","city":"板橋区","address":"東京都板橋区坂下2-19-1","lat":35.7825806,"lon":139.6814502},{"name":"都立板橋高等学校","province":"東京都","city":"板橋区","address":"東京都板橋区大谷ロ1-54-1","lat":35.7439,"lon":139.689637},{"name":"都立赤塚公園","province":"東京都","city":"板橋区","address":"東京都板橋区高島平3-1","lat":35.785528,"lon":139.65724},{"name":"区立西徳第二公園","province":"東京都","city":"板橋区","address":"東京都板橋区西台3-42-1","lat":35.7766684,"lon":139.6673924},{"name":"板橋区若木原公園内倉庫","province":"東京都","city":"板橋区","address":"板橋区若木1-24区立若木原公園内","lat":35.76726,"lon":139.6706},{"name":"板橋区","province":"東京都","city":"板橋区","address":"板橋区常盤台1-40-1","lat":35.76297,"lon":139.6926},{"name":"日本メガケア（株）","province":"東京都","city":"板橋区","address":"板橋区新河岸1-13-5","lat":35.79643,"lon":139.6701},{"name":"三園浄水場","province":"東京都","city":"板橋区","address":"東京都板橋区三園2-10-1","lat":35.7948321,"lon":139.641979},{"name":"板橋給水所","province":"東京都","city":"板橋区","address":"東京都板橋区加賀1-17-1","lat":35.755489,"lon":139.718612},{"name":"大谷口給水所","province":"東京都","city":"板橋区","address":"東京都板橋区大谷口1-4","lat":35.745615,"lon":139.690848},{"name":"都立城北中央公園","province":"東京都","city":"板橋区","address":"東京都板橋区桜川1-1","lat":35.7536508,"lon":139.6776669},{"name":"区立城北公園","province":"東京都","city":"板橋区","address":"東京都板橋区坂下2-19-1","lat":35.7825806,"lon":139.6814502},{"name":"都立板橋高等学校","province":"東京都","city":"板橋区","address":"東京都板橋区大谷ロ1-54-1","lat":35.7439,"lon":139.689637},{"name":"都立赤塚公園","province":"東京都","city":"板橋区","address":"東京都板橋区高島平3-1","lat":35.785528,"lon":139.65724},{"name":"区立西徳第二公園","province":"東京都","city":"板橋区","address":"東京都板橋区西台3-42-1","lat":35.7766684,"lon":139.6673924},{"name":"板橋区若木原公園内倉庫","province":"東京都","city":"板橋区","address":"板橋区若木1-24区立若木原公園内","lat":35.76726,"lon":139.6706},{"name":"板橋区","province":"東京都","city":"板橋区","address":"板橋区常盤台1-40-1","lat":35.76297,"lon":139.6926},{"name":"日本メガケア（株）","province":"東京都","city":"板橋区","address":"板橋区新河岸1-13-5","lat":35.79643,"lon":139.6701},{"name":"三園浄水場","province":"東京都","city":"板橋区","address":"東京都板橋区三園2-10-1","lat":35.7948321,"lon":139.641979},{"name":"板橋給水所","province":"東京都","city":"板橋区","address":"東京都板橋区加賀1-17-1","lat":35.755489,"lon":139.718612},{"name":"大谷口給水所","province":"東京都","city":"板橋区","address":"東京都板橋区大谷口1-4","lat":35.745615,"lon":139.690848},{"name":"都立城北中央公園","province":"東京都","city":"板橋区","address":"東京都板橋区桜川1-1","lat":35.7536508,"lon":139.6776669},{"name":"区立城北公園","province":"東京都","city":"板橋区","address":"東京都板橋区坂下2-19-1","lat":35.7825806,"lon":139.6814502},{"name":"都立板橋高等学校","province":"東京都","city":"板橋区","address":"東京都板橋区大谷ロ1-54-1","lat":35.7439,"lon":139.689637},{"name":"都立赤塚公園","province":"東京都","city":"板橋区","address":"東京都板橋区高島平3-1","lat":35.785528,"lon":139.65724},{"name":"区立西徳第二公園","province":"東京都","city":"板橋区","address":"東京都板橋区西台3-42-1","lat":35.7766684,"lon":139.6673924},{"name":"板橋区若木原公園内倉庫","province":"東京都","city":"板橋区","address":"板橋区若木1-24区立若木原公園内","lat":35.76726,"lon":139.6706},{"name":"板橋区","province":"東京都","city":"板橋区","address":"板橋区常盤台1-40-1","lat":35.76297,"lon":139.6926},{"name":"日本メガケア（株）","province":"東京都","city":"板橋区","address":"板橋区新河岸1-13-5","lat":35.79643,"lon":139.6701},{"name":"三園浄水場","province":"東京都","city":"板橋区","address":"東京都板橋区三園2-10-1","lat":35.7948321,"lon":139.641979},{"name":"板橋給水所","province":"東京都","city":"板橋区","address":"東京都板橋区加賀1-17-1","lat":35.755489,"lon":139.718612},{"name":"大谷口給水所","province":"東京都","city":"板橋区","address":"東京都板橋区大谷口1-4","lat":35.745615,"lon":139.690848},{"name":"都立城北中央公園","province":"東京都","city":"板橋区","address":"東京都板橋区桜川1-1","lat":35.7536508,"lon":139.6776669},{"name":"区立城北公園","province":"東京都","city":"板橋区","address":"東京都板橋区坂下2-19-1","lat":35.7825806,"lon":139.6814502},{"name":"都立板橋高等学校","province":"東京都","city":"板橋区","address":"東京都板橋区大谷ロ1-54-1","lat":35.7439,"lon":139.689637},{"name":"都立赤塚公園","province":"東京都","city":"板橋区","address":"東京都板橋区高島平3-1","lat":35.785528,"lon":139.65724},{"name":"区立西徳第二公園","province":"東京都","city":"板橋区","address":"東京都板橋区西台3-42-1","lat":35.7766684,"lon":139.6673924},{"name":"板橋区若木原公園内倉庫","province":"東京都","city":"板橋区","address":"板橋区若木1-24区立若木原公園内","lat":35.76726,"lon":139.6706},{"name":"板橋区","province":"東京都","city":"板橋区","address":"板橋区常盤台1-40-1","lat":35.76297,"lon":139.6926},{"name":"日本メガケア（株）","province":"東京都","city":"板橋区","address":"板橋区新河岸1-13-5","lat":35.79643,"lon":139.6701},{"name":"三園浄水場","province":"東京都","city":"板橋区","address":"東京都板橋区三園2-10-1","lat":35.7948321,"lon":139.641979},{"name":"板橋給水所","province":"東京都","city":"板橋区","address":"東京都板橋区加賀1-17-1","lat":35.755489,"lon":139.718612},{"name":"大谷口給水所","province":"東京都","city":"板橋区","address":"東京都板橋区大谷口1-4","lat":35.745615,"lon":139.690848},{"name":"都立城北中央公園","province":"東京都","city":"板橋区","address":"東京都板橋区桜川1-1","lat":35.7536508,"lon":139.6776669},{"name":"区立城北公園","province":"東京都","city":"板橋区","address":"東京都板橋区坂下2-19-1","lat":35.7825806,"lon":139.6814502},{"name":"都立板橋高等学校","province":"東京都","city":"板橋区","address":"東京都板橋区大谷ロ1-54-1","lat":35.7439,"lon":139.689637},{"name":"都立赤塚公園","province":"東京都","city":"板橋区","address":"東京都板橋区高島平3-1","lat":35.785528,"lon":139.65724},{"name":"区立西徳第二公園","province":"東京都","city":"板橋区","address":"東京都板橋区西台3-42-1","lat":35.7766684,"lon":139.6673924},{"name":"板橋区若木原公園内倉庫","province":"東京都","city":"板橋区","address":"板橋区若木1-24区立若木原公園内","lat":35.76726,"lon":139.6706},{"name":"板橋区","province":"東京都","city":"板橋区","address":"板橋区常盤台1-40-1","lat":35.76297,"lon":139.6926},{"name":"日本メガケア（株）","province":"東京都","city":"板橋区","address":"板橋区新河岸1-13-5","lat":35.79643,"lon":139.6701},{"name":"三園浄水場","province":"東京都","city":"板橋区","address":"東京都板橋区三園2-10-1","lat":35.7948321,"lon":139.641979},{"name":"板橋給水所","province":"東京都","city":"板橋区","address":"東京都板橋区加賀1-17-1","lat":35.755489,"lon":139.718612},{"name":"大谷口給水所","province":"東京都","city":"板橋区","address":"東京都板橋区大谷口1-4","lat":35.745615,"lon":139.690848},{"name":"都立城北中央公園","province":"東京都","city":"板橋区","address":"東京都板橋区桜川1-1","lat":35.7536508,"lon":139.6776669},{"name":"区立城北公園","province":"東京都","city":"板橋区","address":"東京都板橋区坂下2-19-1","lat":35.7825806,"lon":139.6814502},{"name":"都立板橋高等学校","province":"東京都","city":"板橋区","address":"東京都板橋区大谷ロ1-54-1","lat":35.7439,"lon":139.689637},{"name":"都立赤塚公園","province":"東京都","city":"板橋区","address":"東京都板橋区高島平3-1","lat":35.785528,"lon":139.65724},{"name":"区立西徳第二公園","province":"東京都","city":"板橋区","address":"東京都板橋区西台3-42-1","lat":35.7766684,"lon":139.6673924},{"name":"板橋区若木原公園内倉庫","province":"東京都","city":"板橋区","address":"板橋区若木1-24区立若木原公園内","lat":35.76726,"lon":139.6706},{"name":"板橋区","province":"東京都","city":"板橋区","address":"板橋区常盤台1-40-1","lat":35.76297,"lon":139.6926},{"name":"日本メガケア（株）","province":"東京都","city":"板橋区","address":"板橋区新河岸1-13-5","lat":35.79643,"lon":139.6701},{"name":"三園浄水場","province":"東京都","city":"板橋区","address":"東京都板橋区三園2-10-1","lat":35.7948321,"lon":139.641979},{"name":"板橋給水所","province":"東京都","city":"板橋区","address":"東京都板橋区加賀1-17-1","lat":35.755489,"lon":139.718612},{"name":"大谷口給水所","province":"東京都","city":"板橋区","address":"東京都板橋区大谷口1-4","lat":35.745615,"lon":139.690848},{"name":"都立城北中央公園","province":"東京都","city":"板橋区","address":"東京都板橋区桜川1-1","lat":35.7536508,"lon":139.6776669},{"name":"区立城北公園","province":"東京都","city":"板橋区","address":"東京都板橋区坂下2-19-1","lat":35.7825806,"lon":139.6814502},{"name":"都立板橋高等学校","province":"東京都","city":"板橋区","address":"東京都板橋区大谷ロ1-54-1","lat":35.7439,"lon":139.689637},{"name":"都立赤塚公園","province":"東京都","city":"板橋区","address":"東京都板橋区高島平3-1","lat":35.785528,"lon":139.65724},{"name":"区立西徳第二公園","province":"東京都","city":"板橋区","address":"東京都板橋区西台3-42-1","lat":35.7766684,"lon":139.6673924},{"name":"板橋区若木原公園内倉庫","province":"東京都","city":"板橋区","address":"板橋区若木1-24区立若木原公園内","lat":35.76726,"lon":139.6706},{"name":"板橋区","province":"東京都","city":"板橋区","address":"板橋区常盤台1-40-1","lat":35.76297,"lon":139.6926},{"name":"日本メガケア（株）","province":"東京都","city":"板橋区","address":"板橋区新河岸1-13-5","lat":35.79643,"lon":139.6701},{"name":"三園浄水場","province":"東京都","city":"板橋区","address":"東京都板橋区三園2-10-1","lat":35.7948321,"lon":139.641979},{"name":"板橋給水所","province":"東京都","city":"板橋区","address":"東京都板橋区加賀1-17-1","lat":35.755489,"lon":139.718612},{"name":"大谷口給水所","province":"東京都","city":"板橋区","address":"東京都板橋区大谷口1-4","lat":35.745615,"lon":139.690848},{"name":"都立城北中央公園","province":"東京都","city":"板橋区","address":"東京都板橋区桜川1-1","lat":35.7536508,"lon":139.6776669},{"name":"区立城北公園","province":"東京都","city":"板橋区","address":"東京都板橋区坂下2-19-1","lat":35.7825806,"lon":139.6814502},{"name":"都立板橋高等学校","province":"東京都","city":"板橋区","address":"東京都板橋区大谷ロ1-54-1","lat":35.7439,"lon":139.689637},{"name":"都立赤塚公園","province":"東京都","city":"板橋区","address":"東京都板橋区高島平3-1","lat":35.785528,"lon":139.65724},{"name":"区立西徳第二公園","province":"東京都","city":"板橋区","address":"東京都板橋区西台3-42-1","lat":35.7766684,"lon":139.6673924},{"name":"板橋区若木原公園内倉庫","province":"東京都","city":"板橋区","address":"板橋区若木1-24区立若木原公園内","lat":35.76726,"lon":139.6706},{"name":"板橋区","province":"東京都","city":"板橋区","address":"板橋区常盤台1-40-1","lat":35.76297,"lon":139.6926},{"name":"日本メガケア（株）","province":"東京都","city":"板橋区","address":"板橋区新河岸1-13-5","lat":35.79643,"lon":139.6701},{"name":"三園浄水場","province":"東京都","city":"板橋区","address":"東京都板橋区三園2-10-1","lat":35.7948321,"lon":139.641979},{"name":"板橋給水所","province":"東京都","city":"板橋区","address":"東京都板橋区加賀1-17-1","lat":35.755489,"lon":139.718612},{"name":"大谷口給水所","province":"東京都","city":"板橋区","address":"東京都板橋区大谷口1-4","lat":35.745615,"lon":139.690848},{"name":"都立城北中央公園","province":"東京都","city":"板橋区","address":"東京都板橋区桜川1-1","lat":35.7536508,"lon":139.6776669},{"name":"区立城北公園","province":"東京都","city":"板橋区","address":"東京都板橋区坂下2-19-1","lat":35.7825806,"lon":139.6814502},{"name":"都立板橋高等学校","province":"東京都","city":"板橋区","address":"東京都板橋区大谷ロ1-54-1","lat":35.7439,"lon":139.689637},{"name":"都立赤塚公園","province":"東京都","city":"板橋区","address":"東京都板橋区高島平3-1","lat":35.785528,"lon":139.65724},{"name":"区立西徳第二公園","province":"東京都","city":"板橋区","address":"東京都板橋区西台3-42-1","lat":35.7766684,"lon":139.6673924},{"name":"板橋区若木原公園内倉庫","province":"東京都","city":"板橋区","address":"板橋区若木1-24区立若木原公園内","lat":35.76726,"lon":139.6706},{"name":"板橋区","province":"東京都","city":"板橋区","address":"板橋区常盤台1-40-1","lat":35.76297,"lon":139.6926},{"name":"日本メガケア（株）","province":"東京都","city":"板橋区","address":"板橋区新河岸1-13-5","lat":35.79643,"lon":139.6701},{"name":"三園浄水場","province":"東京都","city":"板橋区","address":"東京都板橋区三園2-10-1","lat":35.7948321,"lon":139.641979},{"name":"板橋給水所","province":"東京都","city":"板橋区","address":"東京都板橋区加賀1-17-1","lat":35.755489,"lon":139.718612},{"name":"大谷口給水所","province":"東京都","city":"板橋区","address":"東京都板橋区大谷口1-4","lat":35.745615,"lon":139.690848},{"name":"都立城北中央公園","province":"東京都","city":"板橋区","address":"東京都板橋区桜川1-1","lat":35.7536508,"lon":139.6776669},{"name":"区立城北公園","province":"東京都","city":"板橋区","address":"東京都板橋区坂下2-19-1","lat":35.7825806,"lon":139.6814502},{"name":"都立板橋高等学校","province":"東京都","city":"板橋区","address":"東京都板橋区大谷ロ1-54-1","lat":35.7439,"lon":139.689637},{"name":"都立赤塚公園","province":"東京都","city":"板橋区","address":"東京都板橋区高島平3-1","lat":35.785528,"lon":139.65724},{"name":"区立西徳第二公園","province":"東京都","city":"板橋区","address":"東京都板橋区西台3-42-1","lat":35.7766684,"lon":139.6673924},{"name":"板橋区若木原公園内倉庫","province":"東京都","city":"板橋区","address":"板橋区若木1-24区立若木原公園内","lat":35.76726,"lon":139.6706},{"name":"板橋区","province":"東京都","city":"板橋区","address":"板橋区常盤台1-40-1","lat":35.76297,"lon":139.6926},{"name":"日本メガケア（株）","province":"東京都","city":"板橋区","address":"板橋区新河岸1-13-5","lat":35.79643,"lon":139.6701},{"name":"三園浄水場","province":"東京都","city":"板橋区","address":"東京都板橋区三園2-10-1","lat":35.7948321,"lon":139.641979},{"name":"板橋給水所","province":"東京都","city":"板橋区","address":"東京都板橋区加賀1-17-1","lat":35.755489,"lon":139.718612},{"name":"大谷口給水所","province":"東京都","city":"板橋区","address":"東京都板橋区大谷口1-4","lat":35.745615,"lon":139.690848},{"name":"都立城北中央公園","province":"東京都","city":"板橋区","address":"東京都板橋区桜川1-1","lat":35.7536508,"lon":139.6776669},{"name":"区立城北公園","province":"東京都","city":"板橋区","address":"東京都板橋区坂下2-19-1","lat":35.7825806,"lon":139.6814502},{"name":"都立板橋高等学校","province":"東京都","city":"板橋区","address":"東京都板橋区大谷ロ1-54-1","lat":35.7439,"lon":139.689637},{"name":"都立赤塚公園","province":"東京都","city":"板橋区","address":"東京都板橋区高島平3-1","lat":35.785528,"lon":139.65724},{"name":"区立西徳第二公園","province":"東京都","city":"板橋区","address":"東京都板橋区西台3-42-1","lat":35.7766684,"lon":139.6673924},{"name":"板橋区若木原公園内倉庫","province":"東京都","city":"板橋区","address":"板橋区若木1-24区立若木原公園内","lat":35.76726,"lon":139.6706},{"name":"板橋区","province":"東京都","city":"板橋区","address":"板橋区常盤台1-40-1","lat":35.76297,"lon":139.6926},{"name":"日本メガケア（株）","province":"東京都","city":"板橋区","address":"板橋区新河岸1-13-5","lat":35.79643,"lon":139.6701},{"name":"三園浄水場","province":"東京都","city":"板橋区","address":"東京都板橋区三園2-10-1","lat":35.7948321,"lon":139.641979},{"name":"板橋給水所","province":"東京都","city":"板橋区","address":"東京都板橋区加賀1-17-1","lat":35.755489,"lon":139.718612},{"name":"大谷口給水所","province":"東京都","city":"板橋区","address":"東京都板橋区大谷口1-4","lat":35.745615,"lon":139.690848},{"name":"都立城北中央公園","province":"東京都","city":"板橋区","address":"東京都板橋区桜川1-1","lat":35.7536508,"lon":139.6776669},{"name":"区立城北公園","province":"東京都","city":"板橋区","address":"東京都板橋区坂下2-19-1","lat":35.7825806,"lon":139.6814502},{"name":"都立板橋高等学校","province":"東京都","city":"板橋区","address":"東京都板橋区大谷ロ1-54-1","lat":35.7439,"lon":139.689637},{"name":"都立赤塚公園","province":"東京都","city":"板橋区","address":"東京都板橋区高島平3-1","lat":35.785528,"lon":139.65724},{"name":"区立西徳第二公園","province":"東京都","city":"板橋区","address":"東京都板橋区西台3-42-1","lat":35.7766684,"lon":139.6673924},{"name":"板橋区若木原公園内倉庫","province":"東京都","city":"板橋区","address":"板橋区若木1-24区立若木原公園内","lat":35.76726,"lon":139.6706},{"name":"板橋区","province":"東京都","city":"板橋区","address":"板橋区常盤台1-40-1","lat":35.76297,"lon":139.6926},{"name":"日本メガケア（株）","province":"東京都","city":"板橋区","address":"板橋区新河岸1-13-5","lat":35.79643,"lon":139.6701},{"name":"三園浄水場","province":"東京都","city":"板橋区","address":"東京都板橋区三園2-10-1","lat":35.7948321,"lon":139.641979},{"name":"板橋給水所","province":"東京都","city":"板橋区","address":"東京都板橋区加賀1-17-1","lat":35.755489,"lon":139.718612},{"name":"大谷口給水所","province":"東京都","city":"板橋区","address":"東京都板橋区大谷口1-4","lat":35.745615,"lon":139.690848},{"name":"都立城北中央公園","province":"東京都","city":"板橋区","address":"東京都板橋区桜川1-1","lat":35.7536508,"lon":139.6776669},{"name":"区立城北公園","province":"東京都","city":"板橋区","address":"東京都板橋区坂下2-19-1","lat":35.7825806,"lon":139.6814502},{"name":"都立板橋高等学校","province":"東京都","city":"板橋区","address":"東京都板橋区大谷ロ1-54-1","lat":35.7439,"lon":139.689637},{"name":"都立赤塚公園","province":"東京都","city":"板橋区","address":"東京都板橋区高島平3-1","lat":35.785528,"lon":139.65724},{"name":"区立西徳第二公園","province":"東京都","city":"板橋区","address":"東京都板橋区西台3-42-1","lat":35.7766684,"lon":139.6673924},{"name":"板橋区若木原公園内倉庫","province":"東京都","city":"板橋区","address":"板橋区若木1-24区立若木原公園内","lat":35.76726,"lon":139.6706},{"name":"板橋区","province":"東京都","city":"板橋区","address":"板橋区常盤台1-40-1","lat":35.76297,"lon":139.6926},{"name":"日本メガケア（株）","province":"東京都","city":"板橋区","address":"板橋区新河岸1-13-5","lat":35.79643,"lon":139.6701},{"name":"三園浄水場","province":"東京都","city":"板橋区","address":"東京都板橋区三園2-10-1","lat":35.7948321,"lon":139.641979},{"name":"板橋給水所","province":"東京都","city":"板橋区","address":"東京都板橋区加賀1-17-1","lat":35.755489,"lon":139.718612},{"name":"大谷口給水所","province":"東京都","city":"板橋区","address":"東京都板橋区大谷口1-4","lat":35.745615,"lon":139.690848},{"name":"都立城北中央公園","province":"東京都","city":"板橋区","address":"東京都板橋区桜川1-1","lat":35.7536508,"lon":139.6776669},{"name":"区立城北公園","province":"東京都","city":"板橋区","address":"東京都板橋区坂下2-19-1","lat":35.7825806,"lon":139.6814502},{"name":"都立板橋高等学校","province":"東京都","city":"板橋区","address":"東京都板橋区大谷ロ1-54-1","lat":35.7439,"lon":139.689637},{"name":"都立赤塚公園","province":"東京都","city":"板橋区","address":"東京都板橋区高島平3-1","lat":35.785528,"lon":139.65724},{"name":"区立西徳第二公園","province":"東京都","city":"板橋区","address":"東京都板橋区西台3-42-1","lat":35.7766684,"lon":139.6673924},{"name":"板橋区若木原公園内倉庫","province":"東京都","city":"板橋区","address":"板橋区若木1-24区立若木原公園内","lat":35.76726,"lon":139.6706},{"name":"板橋区","province":"東京都","city":"板橋区","address":"板橋区常盤台1-40-1","lat":35.76297,"lon":139.6926},{"name":"日本メガケア（株）","province":"東京都","city":"板橋区","address":"板橋区新河岸1-13-5","lat":35.79643,"lon":139.6701},{"name":"三園浄水場","province":"東京都","city":"板橋区","address":"東京都板橋区三園2-10-1","lat":35.7948321,"lon":139.641979},{"name":"板橋給水所","province":"東京都","city":"板橋区","address":"東京都板橋区加賀1-17-1","lat":35.755489,"lon":139.718612},{"name":"大谷口給水所","province":"東京都","city":"板橋区","address":"東京都板橋区大谷口1-4","lat":35.745615,"lon":139.690848},{"name":"都立城北中央公園","province":"東京都","city":"板橋区","address":"東京都板橋区桜川1-1","lat":35.7536508,"lon":139.6776669},{"name":"区立城北公園","province":"東京都","city":"板橋区","address":"東京都板橋区坂下2-19-1","lat":35.7825806,"lon":139.6814502},{"name":"都立板橋高等学校","province":"東京都","city":"板橋区","address":"東京都板橋区大谷ロ1-54-1","lat":35.7439,"lon":139.689637},{"name":"都立赤塚公園","province":"東京都","city":"板橋区","address":"東京都板橋区高島平3-1","lat":35.785528,"lon":139.65724},{"name":"区立西徳第二公園","province":"東京都","city":"板橋区","address":"東京都板橋区西台3-42-1","lat":35.7766684,"lon":139.6673924},{"name":"板橋区若木原公園内倉庫","province":"東京都","city":"板橋区","address":"板橋区若木1-24区立若木原公園内","lat":35.76726,"lon":139.6706},{"name":"板橋区","province":"東京都","city":"板橋区","address":"板橋区常盤台1-40-1","lat":35.76297,"lon":139.6926},{"name":"日本メガケア（株）","province":"東京都","city":"板橋区","address":"板橋区新河岸1-13-5","lat":35.79643,"lon":139.6701},{"name":"三園浄水場","province":"東京都","city":"板橋区","address":"東京都板橋区三園2-10-1","lat":35.7948321,"lon":139.641979},{"name":"板橋給水所","province":"東京都","city":"板橋区","address":"東京都板橋区加賀1-17-1","lat":35.755489,"lon":139.718612},{"name":"大谷口給水所","province":"東京都","city":"板橋区","address":"東京都板橋区大谷口1-4","lat":35.745615,"lon":139.690848},{"name":"都立城北中央公園","province":"東京都","city":"板橋区","address":"東京都板橋区桜川1-1","lat":35.7536508,"lon":139.6776669},{"name":"区立城北公園","province":"東京都","city":"板橋区","address":"東京都板橋区坂下2-19-1","lat":35.7825806,"lon":139.6814502},{"name":"都立板橋高等学校","province":"東京都","city":"板橋区","address":"東京都板橋区大谷ロ1-54-1","lat":35.7439,"lon":139.689637},{"name":"都立赤塚公園","province":"東京都","city":"板橋区","address":"東京都板橋区高島平3-1","lat":35.785528,"lon":139.65724},{"name":"区立西徳第二公園","province":"東京都","city":"板橋区","address":"東京都板橋区西台3-42-1","lat":35.7766684,"lon":139.6673924},{"name":"板橋区若木原公園内倉庫","province":"東京都","city":"板橋区","address":"板橋区若木1-24区立若木原公園内","lat":35.76726,"lon":139.6706},{"name":"板橋区","province":"東京都","city":"板橋区","address":"板橋区常盤台1-40-1","lat":35.76297,"lon":139.6926},{"name":"日本メガケア（株）","province":"東京都","city":"板橋区","address":"板橋区新河岸1-13-5","lat":35.79643,"lon":139.6701},{"name":"三園浄水場","province":"東京都","city":"板橋区","address":"東京都板橋区三園2-10-1","lat":35.7948321,"lon":139.641979},{"name":"板橋給水所","province":"東京都","city":"板橋区","address":"東京都板橋区加賀1-17-1","lat":35.755489,"lon":139.718612},{"name":"大谷口給水所","province":"東京都","city":"板橋区","address":"東京都板橋区大谷口1-4","lat":35.745615,"lon":139.690848},{"name":"都立城北中央公園","province":"東京都","city":"板橋区","address":"東京都板橋区桜川1-1","lat":35.7536508,"lon":139.6776669},{"name":"区立城北公園","province":"東京都","city":"板橋区","address":"東京都板橋区坂下2-19-1","lat":35.7825806,"lon":139.6814502},{"name":"都立板橋高等学校","province":"東京都","city":"板橋区","address":"東京都板橋区大谷ロ1-54-1","lat":35.7439,"lon":139.689637},{"name":"都立赤塚公園","province":"東京都","city":"板橋区","address":"東京都板橋区高島平3-1","lat":35.785528,"lon":139.65724},{"name":"区立西徳第二公園","province":"東京都","city":"板橋区","address":"東京都板橋区西台3-42-1","lat":35.7766684,"lon":139.6673924},{"name":"三園浄水場","province":"東京都","city":"板橋区","address":"東京都板橋区三園2-10-1","lat":35.7948321,"lon":139.641979},{"name":"板橋給水所","province":"東京都","city":"板橋区","address":"東京都板橋区加賀1-17-1","lat":35.755489,"lon":139.718612},{"name":"大谷口給水所","province":"東京都","city":"板橋区","address":"東京都板橋区大谷口1-4","lat":35.745615,"lon":139.690848},{"name":"都立城北中央公園","province":"東京都","city":"板橋区","address":"東京都板橋区桜川1-1","lat":35.7536508,"lon":139.6776669},{"name":"区立城北公園","province":"東京都","city":"板橋区","address":"東京都板橋区坂下2-19-1","lat":35.7825806,"lon":139.6814502},{"name":"都立板橋高等学校","province":"東京都","city":"板橋区","address":"東京都板橋区大谷ロ1-54-1","lat":35.7439,"lon":139.689637},{"name":"都立赤塚公園","province":"東京都","city":"板橋区","address":"東京都板橋区高島平3-1","lat":35.785528,"lon":139.65724},{"name":"区立西徳第二公園","province":"東京都","city":"板橋区","address":"東京都板橋区西台3-42-1","lat":35.7766684,"lon":139.6673924},{"name":"三園浄水場","province":"東京都","city":"板橋区","address":"東京都板橋区三園2-10-1","lat":35.7948321,"lon":139.641979},{"name":"板橋給水所","province":"東京都","city":"板橋区","address":"東京都板橋区加賀1-17-1","lat":35.755489,"lon":139.718612},{"name":"大谷口給水所","province":"東京都","city":"板橋区","address":"東京都板橋区大谷口1-4","lat":35.745615,"lon":139.690848},{"name":"都立城北中央公園","province":"東京都","city":"板橋区","address":"東京都板橋区桜川1-1","lat":35.7536508,"lon":139.6776669},{"name":"区立城北公園","province":"東京都","city":"板橋区","address":"東京都板橋区坂下2-19-1","lat":35.7825806,"lon":139.6814502},{"name":"都立板橋高等学校","province":"東京都","city":"板橋区","address":"東京都板橋区大谷ロ1-54-1","lat":35.7439,"lon":139.689637},{"name":"都立赤塚公園","province":"東京都","city":"板橋区","address":"東京都板橋区高島平3-1","lat":35.785528,"lon":139.65724},{"name":"区立西徳第二公園","province":"東京都","city":"板橋区","address":"東京都板橋区西台3-42-1","lat":35.7766684,"lon":139.6673924},{"name":"三園浄水場","province":"東京都","city":"板橋区","address":"東京都板橋区三園2-10-1","lat":35.7948321,"lon":139.641979},{"name":"板橋給水所","province":"東京都","city":"板橋区","address":"東京都板橋区加賀1-17-1","lat":35.755489,"lon":139.718612},{"name":"大谷口給水所","province":"東京都","city":"板橋区","address":"東京都板橋区大谷口1-4","lat":35.745615,"lon":139.690848},{"name":"都立城北中央公園","province":"東京都","city":"板橋区","address":"東京都板橋区桜川1-1","lat":35.7536508,"lon":139.6776669},{"name":"区立城北公園","province":"東京都","city":"板橋区","address":"東京都板橋区坂下2-19-1","lat":35.7825806,"lon":139.6814502},{"name":"都立板橋高等学校","province":"東京都","city":"板橋区","address":"東京都板橋区大谷ロ1-54-1","lat":35.7439,"lon":139.689637},{"name":"都立赤塚公園","province":"東京都","city":"板橋区","address":"東京都板橋区高島平3-1","lat":35.785528,"lon":139.65724},{"name":"区立西徳第二公園","province":"東京都","city":"板橋区","address":"東京都板橋区西台3-42-1","lat":35.7766684,"lon":139.6673924},{"name":"三園浄水場","province":"東京都","city":"板橋区","address":"東京都板橋区三園2-10-1","lat":35.7948321,"lon":139.641979},{"name":"板橋給水所","province":"東京都","city":"板橋区","address":"東京都板橋区加賀1-17-1","lat":35.755489,"lon":139.718612},{"name":"大谷口給水所","province":"東京都","city":"板橋区","address":"東京都板橋区大谷口1-4","lat":35.745615,"lon":139.690848},{"name":"都立城北中央公園","province":"東京都","city":"板橋区","address":"東京都板橋区桜川1-1","lat":35.7536508,"lon":139.6776669},{"name":"区立城北公園","province":"東京都","city":"板橋区","address":"東京都板橋区坂下2-19-1","lat":35.7825806,"lon":139.6814502},{"name":"都立板橋高等学校","province":"東京都","city":"板橋区","address":"東京都板橋区大谷ロ1-54-1","lat":35.7439,"lon":139.689637},{"name":"都立赤塚公園","province":"東京都","city":"板橋区","address":"東京都板橋区高島平3-1","lat":35.785528,"lon":139.65724},{"name":"区立西徳第二公園","province":"東京都","city":"板橋区","address":"東京都板橋区西台3-42-1","lat":35.7766684,"lon":139.6673924},{"name":"三園浄水場","province":"東京都","city":"板橋区","address":"東京都板橋区三園2-10-1","lat":35.7948321,"lon":139.641979},{"name":"板橋給水所","province":"東京都","city":"板橋区","address":"東京都板橋区加賀1-17-1","lat":35.755489,"lon":139.718612},{"name":"大谷口給水所","province":"東京都","city":"板橋区","address":"東京都板橋区大谷口1-4","lat":35.745615,"lon":139.690848},{"name":"都立城北中央公園","province":"東京都","city":"板橋区","address":"東京都板橋区桜川1-1","lat":35.7536508,"lon":139.6776669},{"name":"区立城北公園","province":"東京都","city":"板橋区","address":"東京都板橋区坂下2-19-1","lat":35.7825806,"lon":139.6814502},{"name":"都立板橋高等学校","province":"東京都","city":"板橋区","address":"東京都板橋区大谷ロ1-54-1","lat":35.7439,"lon":139.689637},{"name":"都立赤塚公園","province":"東京都","city":"板橋区","address":"東京都板橋区高島平3-1","lat":35.785528,"lon":139.65724},{"name":"区立西徳第二公園","province":"東京都","city":"板橋区","address":"東京都板橋区西台3-42-1","lat":35.7766684,"lon":139.6673924},{"name":"三園浄水場","province":"東京都","city":"板橋区","address":"東京都板橋区三園2-10-1","lat":35.7948321,"lon":139.641979},{"name":"板橋給水所","province":"東京都","city":"板橋区","address":"東京都板橋区加賀1-17-1","lat":35.755489,"lon":139.718612},{"name":"大谷口給水所","province":"東京都","city":"板橋区","address":"東京都板橋区大谷口1-4","lat":35.745615,"lon":139.690848},{"name":"都立城北中央公園","province":"東京都","city":"板橋区","address":"東京都板橋区桜川1-1","lat":35.7536508,"lon":139.6776669},{"name":"区立城北公園","province":"東京都","city":"板橋区","address":"東京都板橋区坂下2-19-1","lat":35.7825806,"lon":139.6814502},{"name":"都立板橋高等学校","province":"東京都","city":"板橋区","address":"東京都板橋区大谷ロ1-54-1","lat":35.7439,"lon":139.689637},{"name":"都立赤塚公園","province":"東京都","city":"板橋区","address":"東京都板橋区高島平3-1","lat":35.785528,"lon":139.65724},{"name":"区立西徳第二公園","province":"東京都","city":"板橋区","address":"東京都板橋区西台3-42-1","lat":35.7766684,"lon":139.6673924},{"name":"三園浄水場","province":"東京都","city":"板橋区","address":"東京都板橋区三園2-10-1","lat":35.7948321,"lon":139.641979},{"name":"板橋給水所","province":"東京都","city":"板橋区","address":"東京都板橋区加賀1-17-1","lat":35.755489,"lon":139.718612},{"name":"大谷口給水所","province":"東京都","city":"板橋区","address":"東京都板橋区大谷口1-4","lat":35.745615,"lon":139.690848},{"name":"都立城北中央公園","province":"東京都","city":"板橋区","address":"東京都板橋区桜川1-1","lat":35.7536508,"lon":139.6776669},{"name":"区立城北公園","province":"東京都","city":"板橋区","address":"東京都板橋区坂下2-19-1","lat":35.7825806,"lon":139.6814502},{"name":"都立板橋高等学校","province":"東京都","city":"板橋区","address":"東京都板橋区大谷ロ1-54-1","lat":35.7439,"lon":139.689637},{"name":"都立赤塚公園","province":"東京都","city":"板橋区","address":"東京都板橋区高島平3-1","lat":35.785528,"lon":139.65724},{"name":"区立西徳第二公園","province":"東京都","city":"板橋区","address":"東京都板橋区西台3-42-1","lat":35.7766684,"lon":139.6673924},{"name":"三園浄水場","province":"東京都","city":"板橋区","address":"東京都板橋区三園2-10-1","lat":35.7948321,"lon":139.641979},{"name":"板橋給水所","province":"東京都","city":"板橋区","address":"東京都板橋区加賀1-17-1","lat":35.755489,"lon":139.718612},{"name":"大谷口給水所","province":"東京都","city":"板橋区","address":"東京都板橋区大谷口1-4","lat":35.745615,"lon":139.690848},{"name":"都立城北中央公園","province":"東京都","city":"板橋区","address":"東京都板橋区桜川1-1","lat":35.7536508,"lon":139.6776669},{"name":"区立城北公園","province":"東京都","city":"板橋区","address":"東京都板橋区坂下2-19-1","lat":35.7825806,"lon":139.6814502},{"name":"都立板橋高等学校","province":"東京都","city":"板橋区","address":"東京都板橋区大谷ロ1-54-1","lat":35.7439,"lon":139.689637},{"name":"都立赤塚公園","province":"東京都","city":"板橋区","address":"東京都板橋区高島平3-1","lat":35.785528,"lon":139.65724},{"name":"区立西徳第二公園","province":"東京都","city":"板橋区","address":"東京都板橋区西台3-42-1","lat":35.7766684,"lon":139.6673924},{"name":"三園浄水場","province":"東京都","city":"板橋区","address":"東京都板橋区三園2-10-1","lat":35.7948321,"lon":139.641979},{"name":"板橋給水所","province":"東京都","city":"板橋区","address":"東京都板橋区加賀1-17-1","lat":35.755489,"lon":139.718612},{"name":"大谷口給水所","province":"東京都","city":"板橋区","address":"東京都板橋区大谷口1-4","lat":35.745615,"lon":139.690848},{"name":"都立城北中央公園","province":"東京都","city":"板橋区","address":"東京都板橋区桜川1-1","lat":35.7536508,"lon":139.6776669},{"name":"区立城北公園","province":"東京都","city":"板橋区","address":"東京都板橋区坂下2-19-1","lat":35.7825806,"lon":139.6814502},{"name":"都立板橋高等学校","province":"東京都","city":"板橋区","address":"東京都板橋区大谷ロ1-54-1","lat":35.7439,"lon":139.689637},{"name":"都立赤塚公園","province":"東京都","city":"板橋区","address":"東京都板橋区高島平3-1","lat":35.785528,"lon":139.65724},{"name":"区立西徳第二公園","province":"東京都","city":"板橋区","address":"東京都板橋区西台3-42-1","lat":35.7766684,"lon":139.6673924},{"name":"三園浄水場","province":"東京都","city":"板橋区","address":"東京都板橋区三園2-10-1","lat":35.7948321,"lon":139.641979},{"name":"板橋給水所","province":"東京都","city":"板橋区","address":"東京都板橋区加賀1-17-1","lat":35.755489,"lon":139.718612},{"name":"大谷口給水所","province":"東京都","city":"板橋区","address":"東京都板橋区大谷口1-4","lat":35.745615,"lon":139.690848},{"name":"都立城北中央公園","province":"東京都","city":"板橋区","address":"東京都板橋区桜川1-1","lat":35.7536508,"lon":139.6776669},{"name":"区立城北公園","province":"東京都","city":"板橋区","address":"東京都板橋区坂下2-19-1","lat":35.7825806,"lon":139.6814502},{"name":"都立板橋高等学校","province":"東京都","city":"板橋区","address":"東京都板橋区大谷ロ1-54-1","lat":35.7439,"lon":139.689637},{"name":"都立赤塚公園","province":"東京都","city":"板橋区","address":"東京都板橋区高島平3-1","lat":35.785528,"lon":139.65724},{"name":"区立西徳第二公園","province":"東京都","city":"板橋区","address":"東京都板橋区西台3-42-1","lat":35.7766684,"lon":139.6673924},{"name":"三園浄水場","province":"東京都","city":"板橋区","address":"東京都板橋区三園2-10-1","lat":35.7948321,"lon":139.641979},{"name":"板橋給水所","province":"東京都","city":"板橋区","address":"東京都板橋区加賀1-17-1","lat":35.755489,"lon":139.718612},{"name":"大谷口給水所","province":"東京都","city":"板橋区","address":"東京都板橋区大谷口1-4","lat":35.745615,"lon":139.690848},{"name":"都立城北中央公園","province":"東京都","city":"板橋区","address":"東京都板橋区桜川1-1","lat":35.7536508,"lon":139.6776669},{"name":"区立城北公園","province":"東京都","city":"板橋区","address":"東京都板橋区坂下2-19-1","lat":35.7825806,"lon":139.6814502},{"name":"都立板橋高等学校","province":"東京都","city":"板橋区","address":"東京都板橋区大谷ロ1-54-1","lat":35.7439,"lon":139.689637},{"name":"都立赤塚公園","province":"東京都","city":"板橋区","address":"東京都板橋区高島平3-1","lat":35.785528,"lon":139.65724},{"name":"区立西徳第二公園","province":"東京都","city":"板橋区","address":"東京都板橋区西台3-42-1","lat":35.7766684,"lon":139.6673924},{"name":"三園浄水場","province":"東京都","city":"板橋区","address":"東京都板橋区三園2-10-1","lat":35.7948321,"lon":139.641979},{"name":"板橋給水所","province":"東京都","city":"板橋区","address":"東京都板橋区加賀1-17-1","lat":35.755489,"lon":139.718612},{"name":"大谷口給水所","province":"東京都","city":"板橋区","address":"東京都板橋区大谷口1-4","lat":35.745615,"lon":139.690848},{"name":"都立城北中央公園","province":"東京都","city":"板橋区","address":"東京都板橋区桜川1-1","lat":35.7536508,"lon":139.6776669},{"name":"区立城北公園","province":"東京都","city":"板橋区","address":"東京都板橋区坂下2-19-1","lat":35.7825806,"lon":139.6814502},{"name":"都立板橋高等学校","province":"東京都","city":"板橋区","address":"東京都板橋区大谷ロ1-54-1","lat":35.7439,"lon":139.689637},{"name":"都立赤塚公園","province":"東京都","city":"板橋区","address":"東京都板橋区高島平3-1","lat":35.785528,"lon":139.65724},{"name":"区立西徳第二公園","province":"東京都","city":"板橋区","address":"東京都板橋区西台3-42-1","lat":35.7766684,"lon":139.6673924}]}