{"keyword":"子ども","data":[{"name":"東京都板橋四ツ又駐車場","province":"東京都","city":"板橋区","address":"東京都板橋区板橋2丁目","lat":35.74808686,"lon":139.71301545},{"name":"板橋都税事務所","province":"東京都","city":"板橋区","address":"東京都板橋区大山東町44-8","lat":35.749488,"lon":139.706298},{"name":"地方独立行政法人東京都立病院機構　東京都立豊島病院","province":"東京都","city":"板橋区","address":"東京都板橋区栄町33-1","lat":35.75282,"lon":139.701144},{"name":"東京都立中央・城北職業能力開発センター板橋校","province":"東京都","city":"板橋区","address":"東京都板橋区舟渡2丁目2","lat":35.793465,"lon":139.691175},{"name":"東京都立中央・城北職業能力開発センター板橋校","province":"東京都","city":"板橋区","address":"東京都板橋区舟渡2丁目2-1","lat":35.793645,"lon":139.69128},{"name":"赤塚公園","province":"東京都","city":"板橋区","address":"東京都板橋区高島平3丁目1","lat":35.785485,"lon":139.657546},{"name":"赤塚公園","province":"東京都","city":"板橋区","address":"東京都板橋区高島平3丁目1","lat":35.784919,"lon":139.655738},{"name":"赤塚公園","province":"東京都","city":"板橋区","address":"東京都板橋区徳丸7丁目4","lat":35.780889,"lon":139.662961},{"name":"赤塚公園","province":"東京都","city":"板橋区","address":"東京都板橋区徳丸8丁目23","lat":35.783692,"lon":139.654381},{"name":"浮間公園","province":"東京都","city":"板橋区","address":"東京都板橋区舟渡2丁目15","lat":35.795026,"lon":139.693107},{"name":"浮間公園","province":"東京都","city":"板橋区","address":"東京都板橋区舟渡2丁目14","lat":35.794044,"lon":139.692809},{"name":"城北中央公園","province":"東京都","city":"板橋区","address":"東京都板橋区桜川1丁目1","lat":35.75523,"lon":139.676194},{"name":"都営三田線板橋区役所前駅","province":"東京都","city":"板橋区","address":"東京都板橋区板橋2丁目66-17","lat":35.751417,"lon":139.709611},{"name":"都営三田線駅新板橋駅","province":"東京都","city":"板橋区","address":"東京都板橋区板橋4丁目4","lat":35.748903,"lon":139.718899},{"name":"都営三田線板橋本町駅","province":"東京都","city":"板橋区","address":"東京都板橋区本町37","lat":35.760976,"lon":139.70557},{"name":"都営三田線板橋区役所前駅","province":"東京都","city":"板橋区","address":"東京都板橋区仲宿65","lat":35.751729,"lon":139.709692},{"name":"都営三田線本蓮沼駅","province":"東京都","city":"板橋区","address":"東京都板橋区蓮沼町19","lat":35.768619,"lon":139.702566},{"name":"都営三田線志村坂上駅","province":"東京都","city":"板橋区","address":"東京都板橋区小豆沢3丁目6","lat":35.776491,"lon":139.694684},{"name":"都営三田線志村三丁目駅","province":"東京都","city":"板橋区","address":"東京都板橋区志村3丁目23","lat":35.777481,"lon":139.685926},{"name":"都営三田線蓮根駅","province":"東京都","city":"板橋区","address":"東京都板橋区蓮根2丁目31","lat":35.784082,"lon":139.678967},{"name":"都営三田線西台駅","province":"東京都","city":"板橋区","address":"東京都板橋区高島平9丁目1","lat":35.786996,"lon":139.673632},{"name":"都営三田線高島平駅","province":"東京都","city":"板橋区","address":"東京都板橋区高島平8丁目2","lat":35.788993,"lon":139.661438},{"name":"都営三田線新高島平駅","province":"東京都","city":"板橋区","address":"東京都板橋区高島平7丁目1","lat":35.790222,"lon":139.654559},{"name":"都営三田線西高島平駅","province":"東京都","city":"板橋区","address":"東京都板橋区高島平6丁目1-1","lat":35.791914,"lon":139.645942},{"name":"東京都水道局板橋営業所","province":"東京都","city":"板橋区","address":"東京都板橋区氷川町3-6","lat":35.751704,"lon":139.707233},{"name":"志村消防署高島平出張所","province":"東京都","city":"板橋区","address":"東京都板橋区高島平3丁目12-10","lat":35.786199,"lon":139.658018},{"name":"郷土資料館","province":"東京都","city":"板橋区","address":"東京都板橋区赤塚5丁目35-25","lat":35.785487,"lon":139.6431},{"name":"板橋区役所本庁舎","province":"東京都","city":"板橋区","address":"東京都板橋区板橋2丁目66-1","lat":35.751064,"lon":139.70904},{"name":"板橋区役所本庁舎","province":"東京都","city":"板橋区","address":"東京都板橋区板橋2丁目66-1","lat":35.751026,"lon":139.709036},{"name":"板橋区役所本庁舎","province":"東京都","city":"板橋区","address":"東京都板橋区板橋2丁目66-1","lat":35.751067,"lon":139.709041},{"name":"板橋区役所本庁舎","province":"東京都","city":"板橋区","address":"東京都板橋区板橋2丁目66-1","lat":35.750869,"lon":139.708988},{"name":"板橋区役所本庁舎","province":"東京都","city":"板橋区","address":"東京都板橋区板橋2丁目66-1","lat":35.751189,"lon":139.709061},{"name":"板橋区役所本庁舎","province":"東京都","city":"板橋区","address":"東京都板橋区板橋2丁目66-1","lat":35.75087,"lon":139.708987},{"name":"板橋区役所本庁舎","province":"東京都","city":"板橋区","address":"東京都板橋区板橋2丁目66-1","lat":35.75087,"lon":139.708986},{"name":"板橋区役所本庁舎","province":"東京都","city":"板橋区","address":"東京都板橋区板橋2丁目66-1","lat":35.75119,"lon":139.709059},{"name":"板橋区役所本庁舎","province":"東京都","city":"板橋区","address":"東京都板橋区板橋2丁目66-1","lat":35.750869,"lon":139.708984},{"name":"板橋区役所本庁舎","province":"東京都","city":"板橋区","address":"東京都板橋区板橋2丁目66-1","lat":35.751192,"lon":139.709058},{"name":"板橋区役所本庁舎","province":"東京都","city":"板橋区","address":"東京都板橋区板橋2丁目66-1","lat":35.751189,"lon":139.709056},{"name":"板橋区役所本庁舎","province":"東京都","city":"板橋区","address":"東京都板橋区板橋2丁目66-1","lat":35.751187,"lon":139.709058},{"name":"板橋区役所本庁舎","province":"東京都","city":"板橋区","address":"東京都板橋区板橋2丁目66-1","lat":35.75119,"lon":139.709061},{"name":"板橋区役所本庁舎","province":"東京都","city":"板橋区","address":"東京都板橋区板橋2丁目66-1","lat":35.751192,"lon":139.709059},{"name":"赤塚支所","province":"東京都","city":"板橋区","address":"東京都板橋区赤塚6丁目38-1","lat":35.778633,"lon":139.644744},{"name":"赤塚支所","province":"東京都","city":"板橋区","address":"東京都板橋区赤塚6丁目38-1","lat":35.778629,"lon":139.644736},{"name":"赤塚支所","province":"東京都","city":"板橋区","address":"東京都板橋区赤塚6丁目38-1","lat":35.778628,"lon":139.644734},{"name":"赤塚支所","province":"東京都","city":"板橋区","address":"東京都板橋区赤塚6丁目38-1","lat":35.778715,"lon":139.644787},{"name":"常盤台区民事務所","province":"東京都","city":"板橋区","address":"東京都板橋区常盤台3丁目27","lat":35.761329,"lon":139.682337},{"name":"志村福祉事務所","province":"東京都","city":"板橋区","address":"東京都板橋区蓮根2丁目28-1","lat":35.785305,"lon":139.675158},{"name":"情報処理センター","province":"東京都","city":"板橋区","address":"東京都板橋区板橋2丁目65-6","lat":35.750018,"lon":139.708859},{"name":"情報処理センター","province":"東京都","city":"板橋区","address":"東京都板橋区板橋2丁目65-6","lat":35.750018,"lon":139.708864},{"name":"情報処理センター","province":"東京都","city":"板橋区","address":"東京都板橋区板橋2丁目65-6","lat":35.750021,"lon":139.70886},{"name":"情報処理センター","province":"東京都","city":"板橋区","address":"東京都板橋区板橋2丁目65-6","lat":35.750022,"lon":139.708865},{"name":"情報処理センター","province":"東京都","city":"板橋区","address":"東京都板橋区板橋2丁目65-6","lat":35.750017,"lon":139.708862},{"name":"情報処理センター","province":"東京都","city":"板橋区","address":"東京都板橋区板橋2丁目65-6","lat":35.750021,"lon":139.708858},{"name":"情報処理センター","province":"東京都","city":"板橋区","address":"東京都板橋区板橋2丁目65-6","lat":35.750018,"lon":139.708865},{"name":"四葉集会所","province":"東京都","city":"板橋区","address":"東京都板橋区四葉2丁目9-16","lat":35.781021,"lon":139.651761},{"name":"見次公園内集会所","province":"東京都","city":"板橋区","address":"東京都板橋区前野町4丁目59-1","lat":35.773371,"lon":139.693523},{"name":"中台二丁目集会所","province":"東京都","city":"板橋区","address":"東京都板橋区中台2丁目43-20","lat":35.773533,"lon":139.682624},{"name":"清水町第二集会所","province":"東京都","city":"板橋区","address":"東京都板橋区清水町72","lat":35.765392,"lon":139.704702},{"name":"高島平地域センター","province":"東京都","city":"板橋区","address":"東京都板橋区高島平3丁目12-28","lat":35.786978,"lon":139.658956},{"name":"高島平地域センター","province":"東京都","city":"板橋区","address":"東京都板橋区高島平3丁目12-28","lat":35.786958,"lon":139.658785},{"name":"桜川地域センター","province":"東京都","city":"板橋区","address":"東京都板橋区東新町2丁目45-6","lat":35.752421,"lon":139.681841},{"name":"志村坂上地域センター","province":"東京都","city":"板橋区","address":"東京都板橋区小豆沢2丁目19-15","lat":35.776461,"lon":139.696011},{"name":"清水地域センター","province":"東京都","city":"板橋区","address":"東京都板橋区泉町16-16","lat":35.766428,"lon":139.702103},{"name":"清水地域センター","province":"東京都","city":"板橋区","address":"東京都板橋区泉町16-16","lat":35.766457,"lon":139.702154},{"name":"清水地域センター","province":"東京都","city":"板橋区","address":"東京都板橋区泉町16-16","lat":35.766381,"lon":139.702098},{"name":"清水地域センター","province":"東京都","city":"板橋区","address":"東京都板橋区泉町16-16","lat":35.766421,"lon":139.702044},{"name":"仲宿地域センター","province":"東京都","city":"板橋区","address":"東京都板橋区氷川町12-10","lat":35.753891,"lon":139.707211},{"name":"仲宿地域センター","province":"東京都","city":"板橋区","address":"東京都板橋区氷川町12-10","lat":35.753978,"lon":139.707146},{"name":"仲宿地域センター","province":"東京都","city":"板橋区","address":"東京都板橋区氷川町12-10","lat":35.753901,"lon":139.707159},{"name":"富士見地域センター","province":"東京都","city":"板橋区","address":"東京都板橋区富士見町3-1","lat":35.760773,"lon":139.700398},{"name":"板橋区保健所","province":"東京都","city":"板橋区","address":"東京都板橋区大山東町32-15","lat":35.750596,"lon":139.708152},{"name":"板橋区保健所","province":"東京都","city":"板橋区","address":"東京都板橋区大山東町32","lat":35.750549,"lon":139.707999},{"name":"高島平図書館","province":"東京都","city":"板橋区","address":"東京都板橋区高島平3丁目13-1","lat":35.787531,"lon":139.658997},{"name":"高島平図書館","province":"東京都","city":"板橋区","address":"東京都板橋区高島平3丁目13-1","lat":35.787492,"lon":139.658982},{"name":"氷川図書館","province":"東京都","city":"板橋区","address":"東京都板橋区氷川町28-9","lat":35.753112,"lon":139.704723},{"name":"蓮根図書館","province":"東京都","city":"板橋区","address":"東京都板橋区蓮根3丁目15-1","lat":35.788556,"lon":139.676386},{"name":"東板橋図書館","province":"東京都","city":"板橋区","address":"東京都板橋区加賀1丁目10-15","lat":35.754382,"lon":139.715763},{"name":"東板橋図書館","province":"東京都","city":"板橋区","address":"東京都板橋区加賀1丁目10-15","lat":35.754401,"lon":139.71579},{"name":"成増図書館","province":"東京都","city":"板橋区","address":"東京都板橋区成増3丁目13-1","lat":35.7786,"lon":139.632242},{"name":"志村図書館","province":"東京都","city":"板橋区","address":"東京都板橋区小豆沢1丁目8-1","lat":35.773182,"lon":139.700047},{"name":"西台図書館","province":"東京都","city":"板橋区","address":"東京都板橋区西台3丁目13-2","lat":35.773996,"lon":139.668893},{"name":"小茂根図書館","province":"東京都","city":"板橋区","address":"東京都板橋区小茂根1丁目5-2","lat":35.745575,"lon":139.680874},{"name":"中央図書館（いたばしボローニャ絵本館併設）","province":"東京都","city":"板橋区","address":"東京都板橋区常盤台4丁目3-1","lat":35.762884,"lon":139.681526},{"name":"教育科学館","province":"東京都","city":"板橋区","address":"東京都板橋区常盤台4丁目14-1","lat":35.763462,"lon":139.679604},{"name":"教育科学館","province":"東京都","city":"板橋区","address":"東京都板橋区常盤台4丁目14","lat":35.763452,"lon":139.679425},{"name":"溝下東公園","province":"東京都","city":"板橋区","address":"東京都板橋区三園1丁目49","lat":35.791733,"lon":139.641856},{"name":"熱帯環境植物館","province":"東京都","city":"板橋区","address":"東京都板橋区高島平8丁目29-2","lat":35.792046,"lon":139.663983},{"name":"熱帯環境植物館","province":"東京都","city":"板橋区","address":"東京都板橋区高島平8丁目29-2","lat":35.792012,"lon":139.663915},{"name":"美術館","province":"東京都","city":"板橋区","address":"東京都板橋区赤塚5丁目34-27","lat":35.784219,"lon":139.644536},{"name":"前野ホール","province":"東京都","city":"板橋区","address":"東京都板橋区前野町2丁目43","lat":35.766998,"lon":139.690257},{"name":"前野ホール","province":"東京都","city":"板橋区","address":"東京都板橋区前野町2丁目43-15","lat":35.76699,"lon":139.690325},{"name":"舟渡ホール","province":"東京都","city":"板橋区","address":"東京都板橋区舟渡1丁目14-5","lat":35.792138,"lon":139.689964},{"name":"区立グリーンホール","province":"東京都","city":"板橋区","address":"東京都板橋区栄町36-1","lat":35.750811,"lon":139.705233},{"name":"区立グリーンホール","province":"東京都","city":"板橋区","address":"東京都板橋区栄町36-1","lat":35.750806,"lon":139.705223},{"name":"区立グリーンホール","province":"東京都","city":"板橋区","address":"東京都板橋区栄町36-1","lat":35.75081,"lon":139.705232},{"name":"区立グリーンホール","province":"東京都","city":"板橋区","address":"東京都板橋区栄町36-1","lat":35.750811,"lon":139.705234},{"name":"区立グリーンホール","province":"東京都","city":"板橋区","address":"東京都板橋区栄町36-1","lat":35.750812,"lon":139.705234},{"name":"区立文化会館","province":"東京都","city":"板橋区","address":"東京都板橋区大山東町51-1","lat":35.749485,"lon":139.704656},{"name":"三丁目青空公園","province":"東京都","city":"板橋区","address":"東京都板橋区小茂根3丁目14","lat":35.749942,"lon":139.679905},{"name":"四葉二丁目公園","province":"東京都","city":"板橋区","address":"東京都板橋区四葉2丁目9","lat":35.781129,"lon":139.651715},{"name":"東原公園","province":"東京都","city":"板橋区","address":"東京都板橋区小豆沢1丁目20","lat":35.77581,"lon":139.701842},{"name":"東坂下二丁目公園","province":"東京都","city":"板橋区","address":"東京都板橋区東坂下2丁目9","lat":35.78481,"lon":139.687775},{"name":"東板橋公園","province":"東京都","city":"板橋区","address":"東京都板橋区板橋3丁目50","lat":35.754505,"lon":139.712794},{"name":"親和児童遊園","province":"東京都","city":"板橋区","address":"東京都板橋区志村3丁目20-25","lat":35.77757,"lon":139.684461},{"name":"城北公園(管理棟併設)","province":"東京都","city":"板橋区","address":"東京都板橋区坂下2丁目19-1","lat":35.783655,"lon":139.68168},{"name":"志村第二公園","province":"東京都","city":"板橋区","address":"東京都板橋区前野町5丁目56","lat":35.774543,"lon":139.683997},{"name":"志村第三公園","province":"東京都","city":"板橋区","address":"東京都板橋区志村1丁目21","lat":35.775219,"lon":139.692648},{"name":"富士見街道にぎわい広場","province":"東京都","city":"板橋区","address":"東京都板橋区前野町1丁目7","lat":35.76315,"lon":139.695277},{"name":"富士見西児童遊園","province":"東京都","city":"板橋区","address":"東京都板橋区富士見町24","lat":35.758995,"lon":139.694988},{"name":"坂下三丁目緑地","province":"東京都","city":"板橋区","address":"東京都板橋区坂下3丁目9","lat":35.785207,"lon":139.681978},{"name":"坂下一丁目公園","province":"東京都","city":"板橋区","address":"東京都板橋区坂下1丁目36","lat":35.780184,"lon":139.683119},{"name":"小茂根四丁目公園","province":"東京都","city":"板橋区","address":"東京都板橋区小茂根4丁目16","lat":35.748948,"lon":139.676218},{"name":"紅梅公園","province":"東京都","city":"板橋区","address":"東京都板橋区徳丸8丁目5","lat":35.78079,"lon":139.654664},{"name":"けやきの公園","province":"東京都","city":"板橋区","address":"東京都板橋区前野町1丁目48","lat":35.764473,"lon":139.692354},{"name":"熊野町公園","province":"東京都","city":"板橋区","address":"東京都板橋区熊野町23","lat":35.74385,"lon":139.706867},{"name":"志村城山公園","province":"東京都","city":"板橋区","address":"東京都板橋区志村2丁目17","lat":35.776905,"lon":139.687455},{"name":"若木公園","province":"東京都","city":"板橋区","address":"東京都板橋区若木2丁目29","lat":35.770275,"lon":139.669772},{"name":"ゆりの木公衆便所","province":"東京都","city":"板橋区","address":"東京都板橋区赤塚新町3丁目32","lat":35.76996,"lon":139.639117},{"name":"成増公園","province":"東京都","city":"板橋区","address":"東京都板橋区成増3丁目4","lat":35.777907,"lon":139.633962},{"name":"本蓮沼駅前いずみ公園","province":"東京都","city":"板橋区","address":"東京都板橋区泉町5","lat":35.768028,"lon":139.702229},{"name":"向原公園","province":"東京都","city":"板橋区","address":"東京都板橋区向原2丁目29","lat":35.74006,"lon":139.681331},{"name":"向口公園","province":"東京都","city":"板橋区","address":"東京都板橋区四葉2丁目29-5","lat":35.782215,"lon":139.653746},{"name":"宮本公園","province":"東京都","city":"板橋区","address":"東京都板橋区宮本町38","lat":35.763607,"lon":139.697577},{"name":"南ときわ台公園","province":"東京都","city":"板橋区","address":"東京都板橋区南常盤台2丁目8","lat":35.756639,"lon":139.68635},{"name":"緑ケ丘第三公園","province":"東京都","city":"板橋区","address":"東京都板橋区桜川3丁目9","lat":35.760834,"lon":139.672869},{"name":"見次公園","province":"東京都","city":"板橋区","address":"東京都板橋区前野町4丁目59-1","lat":35.773411,"lon":139.693563},{"name":"溝下公園","province":"東京都","city":"板橋区","address":"東京都板橋区三園1丁目41","lat":35.790893,"lon":139.639722},{"name":"前野公園","province":"東京都","city":"板橋区","address":"東京都板橋区前野町5丁目1","lat":35.768889,"lon":139.687294},{"name":"舟渡水辺公園","province":"東京都","city":"板橋区","address":"東京都板橋区舟渡4丁目4","lat":35.792686,"lon":139.673076},{"name":"双葉町ひだまり公園","province":"東京都","city":"板橋区","address":"東京都板橋区双葉町18","lat":35.757376,"lon":139.699196},{"name":"宮前公園","province":"東京都","city":"板橋区","address":"東京都板橋区赤塚4丁目16","lat":35.783541,"lon":139.639006},{"name":"水車公園","province":"東京都","city":"板橋区","address":"東京都板橋区四葉1丁目17","lat":35.777658,"lon":139.65246},{"name":"小豆沢公園(環八沿線南側)","province":"東京都","city":"板橋区","address":"東京都板橋区小豆沢4丁目20","lat":35.78087,"lon":139.698682},{"name":"小豆沢公園(河岸広場)","province":"東京都","city":"板橋区","address":"東京都板橋区小豆沢4丁目28","lat":35.781582,"lon":139.698645},{"name":"小豆沢公園(グランド南)","province":"東京都","city":"板橋区","address":"東京都板橋区小豆沢3丁目8","lat":35.778347,"lon":139.69639},{"name":"赤塚四丁目公園","province":"東京都","city":"板橋区","address":"東京都板橋区赤塚4丁目31","lat":35.785751,"lon":139.640669},{"name":"赤塚溜池公園","province":"東京都","city":"板橋区","address":"東京都板橋区赤塚5丁目35","lat":35.785746,"lon":139.643929},{"name":"赤塚新町公園","province":"東京都","city":"板橋区","address":"東京都板橋区赤塚新町3丁目35","lat":35.770259,"lon":139.637986},{"name":"赤塚しのがやと公園","province":"東京都","city":"板橋区","address":"東京都板橋区赤塚6丁目30","lat":35.77694,"lon":139.644134},{"name":"西台公園","province":"東京都","city":"板橋区","address":"東京都板橋区西台1丁目23","lat":35.774163,"lon":139.672523},{"name":"高島平五丁目第二公園","province":"東京都","city":"板橋区","address":"東京都板橋区高島平5丁目24","lat":35.78979,"lon":139.645084},{"name":"蓮根川緑道","province":"東京都","city":"板橋区","address":"東京都板橋区蓮根3丁目3","lat":35.786627,"lon":139.678303},{"name":"大門みはらし台公園","province":"東京都","city":"板橋区","address":"東京都板橋区大門6","lat":35.783583,"lon":139.647057},{"name":"成増児童遊園","province":"東京都","city":"板橋区","address":"東京都板橋区成増2丁目24","lat":35.779255,"lon":139.629567},{"name":"上赤塚公園","province":"東京都","city":"板橋区","address":"東京都板橋区赤塚3丁目40","lat":35.781494,"lon":139.637174},{"name":"西台三丁目公園","province":"東京都","city":"板橋区","address":"東京都板橋区西台3丁目19","lat":35.774011,"lon":139.669354},{"name":"西徳第二公園","province":"東京都","city":"板橋区","address":"東京都板橋区西台3丁目42","lat":35.776188,"lon":139.667019},{"name":"成増うめの里公園","province":"東京都","city":"板橋区","address":"東京都板橋区成増5丁目3","lat":35.783526,"lon":139.630919},{"name":"蓮根三丁目公園","province":"東京都","city":"板橋区","address":"東京都板橋区蓮根3丁目15","lat":35.788933,"lon":139.678405},{"name":"西台中央通り公園","province":"東京都","city":"板橋区","address":"東京都板橋区西台4丁目4","lat":35.770334,"lon":139.667413},{"name":"常盤台公園(身障者用付き)","province":"東京都","city":"板橋区","address":"東京都板橋区常盤台1丁目13","lat":35.760604,"lon":139.691567},{"name":"高島平七丁目第二公園","province":"東京都","city":"板橋区","address":"東京都板橋区高島平7丁目33","lat":35.792143,"lon":139.655146},{"name":"高島平緑地(西台駅寄り)","province":"東京都","city":"板橋区","address":"東京都板橋区高島平9丁目1","lat":35.787121,"lon":139.670358},{"name":"高島平緑地(前谷津川側)","province":"東京都","city":"板橋区","address":"東京都板橋区高島平2丁目34","lat":35.788144,"lon":139.661882},{"name":"成増北第一公園","province":"東京都","city":"板橋区","address":"東京都板橋区成増5丁目19","lat":35.788764,"lon":139.635839},{"name":"高島平五丁目公園","province":"東京都","city":"板橋区","address":"東京都板橋区高島平5丁目4","lat":35.787084,"lon":139.646162},{"name":"徳石公園","province":"東京都","city":"板橋区","address":"東京都板橋区徳丸5丁目10-16","lat":35.776531,"lon":139.659002},{"name":"徳丸ケ丘公園","province":"東京都","city":"板橋区","address":"東京都板橋区徳丸6丁目27","lat":35.778758,"lon":139.661782},{"name":"徳丸ケ原公園","province":"東京都","city":"板橋区","address":"東京都板橋区高島平8丁目24-1","lat":35.791506,"lon":139.661341},{"name":"徳丸橋公園","province":"東京都","city":"板橋区","address":"東京都板橋区新河岸1丁目3","lat":35.794845,"lon":139.664143},{"name":"どんぐり山公園","province":"東京都","city":"板橋区","address":"東京都板橋区中台1丁目19","lat":35.767923,"lon":139.680622},{"name":"中台公園","province":"東京都","city":"板橋区","address":"東京都板橋区中台3丁目9","lat":35.769455,"lon":139.678346},{"name":"高島平緑地(高島平駅前)","province":"東京都","city":"板橋区","address":"東京都板橋区高島平2丁目34","lat":35.787556,"lon":139.664238},{"name":"加賀第二公園","province":"東京都","city":"板橋区","address":"東京都板橋区加賀1丁目16","lat":35.755279,"lon":139.718159},{"name":"大谷口北町宮ノ下公園","province":"東京都","city":"板橋区","address":"東京都板橋区大谷口北町79","lat":35.749053,"lon":139.686387},{"name":"大谷口北町公園","province":"東京都","city":"板橋区","address":"東京都板橋区大谷口北町87","lat":35.751076,"lon":139.685938},{"name":"大谷口児童遊園","province":"東京都","city":"板橋区","address":"東京都板橋区大谷口北町21","lat":35.750581,"lon":139.691077},{"name":"加賀公園","province":"東京都","city":"板橋区","address":"東京都板橋区加賀1丁目8","lat":35.752659,"lon":139.720517},{"name":"大原第二公園","province":"東京都","city":"板橋区","address":"東京都板橋区大原町27","lat":35.768231,"lon":139.698019},{"name":"板谷公園","province":"東京都","city":"板橋区","address":"東京都板橋区板橋4丁目55","lat":35.752986,"lon":139.718136},{"name":"板橋公園(公園中央)","province":"東京都","city":"板橋区","address":"東京都板橋区大山西町21","lat":35.745896,"lon":139.695341},{"name":"板橋駅前公園","province":"東京都","city":"板橋区","address":"東京都板橋区板橋1丁目23","lat":35.747402,"lon":139.718164},{"name":"板橋区平和公園","province":"東京都","city":"板橋区","address":"東京都板橋区常盤台4丁目3","lat":35.763397,"lon":139.681436},{"name":"大谷口一丁目4番遊び場","province":"東京都","city":"板橋区","address":"東京都板橋区大谷口1丁目4","lat":35.74605,"lon":139.691146},{"name":"石成公園","province":"東京都","city":"板橋区","address":"東京都板橋区赤塚4丁目7","lat":35.781701,"lon":139.639655},{"name":"徳丸三ツ和公園","province":"東京都","city":"板橋区","address":"東京都板橋区徳丸5丁目32","lat":35.778953,"lon":139.656396},{"name":"日暮台公園","province":"東京都","city":"板橋区","address":"東京都板橋区前野町5丁目20","lat":35.770804,"lon":139.684519},{"name":"板橋東いこいの森","province":"東京都","city":"板橋区","address":"東京都板橋区板橋4丁目45","lat":35.751274,"lon":139.722384},{"name":"えび山広場","province":"東京都","city":"板橋区","address":"東京都板橋区大谷口上町4","lat":35.750021,"lon":139.694941},{"name":"大谷口上町公園","province":"東京都","city":"板橋区","address":"東京都板橋区大谷口上町50","lat":35.747357,"lon":139.691524},{"name":"さくらづつみ児童遊園","province":"東京都","city":"板橋区","address":"東京都板橋区大谷口北町14","lat":35.752386,"lon":139.690068},{"name":"緑ケ丘第一公園","province":"東京都","city":"板橋区","address":"東京都板橋区東新町1丁目27","lat":35.756972,"lon":139.681182},{"name":"南板橋公園","province":"東京都","city":"板橋区","address":"東京都板橋区板橋1丁目39","lat":35.74821,"lon":139.714583},{"name":"赤塚植物園","province":"東京都","city":"板橋区","address":"東京都板橋区赤塚5丁目17-14","lat":35.780894,"lon":139.644397},{"name":"赤塚六丁目公園","province":"東京都","city":"板橋区","address":"東京都板橋区赤塚6丁目4","lat":35.773624,"lon":139.645338},{"name":"徳丸二丁目第二児童遊園","province":"東京都","city":"板橋区","address":"東京都板橋区徳丸2丁目16","lat":35.773075,"lon":139.660567},{"name":"高島平一丁目公園","province":"東京都","city":"板橋区","address":"東京都板橋区高島平1丁目23","lat":35.782557,"lon":139.671617},{"name":"成増生涯学習センター","province":"東京都","city":"板橋区","address":"東京都板橋区成増1丁目12-4","lat":35.774622,"lon":139.632777},{"name":"坂下二丁目公園","province":"東京都","city":"板橋区","address":"東京都板橋区坂下2丁目1","lat":35.782485,"lon":139.687418},{"name":"真畔公園","province":"東京都","city":"板橋区","address":"東京都板橋区蓮根3丁目9","lat":35.787271,"lon":139.675619},{"name":"三葉児童遊園","province":"東京都","city":"板橋区","address":"東京都板橋区弥生町16","lat":35.752937,"lon":139.695132},{"name":"志村坂上公衆便所","province":"東京都","city":"板橋区","address":"東京都板橋区志村2丁目3","lat":35.776598,"lon":139.694346},{"name":"本町公衆便所","province":"東京都","city":"板橋区","address":"東京都板橋区本町18","lat":35.759605,"lon":139.707794},{"name":"成増駅南口公衆便所","province":"東京都","city":"板橋区","address":"東京都板橋区成増2丁目15","lat":35.777128,"lon":139.632541},{"name":"蓮根三丁目公衆便所","province":"東京都","city":"板橋区","address":"東京都板橋区蓮根3丁目15","lat":35.788835,"lon":139.6772},{"name":"高島平西口公衆便所","province":"東京都","city":"板橋区","address":"東京都板橋区高島平8丁目2","lat":35.789045,"lon":139.66035},{"name":"常盤台駅前公衆便所","province":"東京都","city":"板橋区","address":"東京都板橋区常盤台1丁目1","lat":35.758833,"lon":139.690015},{"name":"板橋区役所前公衆便所","province":"東京都","city":"板橋区","address":"東京都板橋区板橋2丁目66","lat":35.75143,"lon":139.709541},{"name":"やよい防災ひろば","province":"東京都","city":"板橋区","address":"東京都板橋区弥生町82","lat":35.753819,"lon":139.690281},{"name":"大原生涯学習センター","province":"東京都","city":"板橋区","address":"東京都板橋区大原町5-18","lat":35.769664,"lon":139.70018},{"name":"エコポリスセンター","province":"東京都","city":"板橋区","address":"東京都板橋区前野町4丁目6-1","lat":35.769163,"lon":139.688661},{"name":"板橋区立リサイクルプラザ","province":"東京都","city":"板橋区","address":"東京都板橋区舟渡4丁目16-6","lat":35.795662,"lon":139.676159},{"name":"板橋区立リサイクルプラザ","province":"東京都","city":"板橋区","address":"東京都板橋区舟渡4丁目16-6","lat":35.79567,"lon":139.676175},{"name":"板橋区立リサイクルプラザ","province":"東京都","city":"板橋区","address":"東京都板橋区舟渡4丁目16-6","lat":35.795673,"lon":139.676165},{"name":"板橋区立リサイクルプラザ","province":"東京都","city":"板橋区","address":"東京都板橋区舟渡4丁目16-6","lat":35.795639,"lon":139.675954},{"name":"エコポリスセンター","province":"東京都","city":"板橋区","address":"東京都板橋区前野町4丁目6-1","lat":35.769224,"lon":139.688758},{"name":"仲町ふれあい館","province":"東京都","city":"板橋区","address":"東京都板橋区仲町20-5","lat":35.751091,"lon":139.69643},{"name":"西徳児童館","province":"東京都","city":"板橋区","address":"東京都板橋区西台4丁目4-37","lat":35.770158,"lon":139.668142},{"name":"しらさぎ児童館","province":"東京都","city":"板橋区","address":"東京都板橋区成増5丁目19-41","lat":35.788527,"lon":139.636762},{"name":"上板橋健康福祉センター","province":"東京都","city":"板橋区","address":"東京都板橋区桜川3丁目18-6","lat":35.760162,"lon":139.675503},{"name":"志村児童館","province":"東京都","city":"板橋区","address":"東京都板橋区志村2丁目16-11","lat":35.774855,"lon":139.685925},{"name":"赤塚健康福祉センター","province":"東京都","city":"板橋区","address":"東京都板橋区赤塚1丁目10-13","lat":35.772102,"lon":139.647109},{"name":"志村健康福祉センター","province":"東京都","city":"板橋区","address":"東京都板橋区蓮根2丁目5-5","lat":35.781214,"lon":139.677279},{"name":"志村健康福祉センター","province":"東京都","city":"板橋区","address":"東京都板橋区蓮根2丁目5-5","lat":35.781152,"lon":139.677316},{"name":"志村健康福祉センター","province":"東京都","city":"板橋区","address":"東京都板橋区蓮根2丁目5-5","lat":35.781104,"lon":139.677218},{"name":"高島平健康福祉センター","province":"東京都","city":"板橋区","address":"東京都板橋区高島平3丁目13-28","lat":35.788037,"lon":139.659392},{"name":"おとしより保健福祉センター","province":"東京都","city":"板橋区","address":"東京都板橋区前野町4丁目16-1","lat":35.771598,"lon":139.689851},{"name":"障がい者福祉センター","province":"東京都","city":"板橋区","address":"東京都板橋区高島平9丁目25-12","lat":35.790458,"lon":139.668168},{"name":"障がい者福祉センター","province":"東京都","city":"板橋区","address":"東京都板橋区高島平9丁目25-12","lat":35.790462,"lon":139.66817},{"name":"上板橋体育館","province":"東京都","city":"板橋区","address":"東京都板橋区桜川1丁目3-1","lat":35.757088,"lon":139.675679},{"name":"上板橋体育館","province":"東京都","city":"板橋区","address":"東京都板橋区桜川1丁目3-1","lat":35.757271,"lon":139.6758},{"name":"小豆沢体育館","province":"東京都","city":"板橋区","address":"東京都板橋区小豆沢3丁目1","lat":35.778776,"lon":139.698012},{"name":"小豆沢体育館","province":"東京都","city":"板橋区","address":"東京都板橋区小豆沢3丁目1","lat":35.778808,"lon":139.698009},{"name":"小豆沢体育館","province":"東京都","city":"板橋区","address":"東京都板橋区小豆沢3丁目1","lat":35.778808,"lon":139.698005},{"name":"小豆沢体育館","province":"東京都","city":"板橋区","address":"東京都板橋区小豆沢3丁目1","lat":35.778936,"lon":139.697617},{"name":"小豆沢体育館","province":"東京都","city":"板橋区","address":"東京都板橋区小豆沢3丁目1","lat":35.779083,"lon":139.697861},{"name":"小豆沢体育館","province":"東京都","city":"板橋区","address":"東京都板橋区小豆沢3丁目1-1","lat":35.77916,"lon":139.697722},{"name":"赤塚体育館","province":"東京都","city":"板橋区","address":"東京都板橋区赤塚5丁目6-1","lat":35.778017,"lon":139.641691},{"name":"赤塚体育館","province":"東京都","city":"板橋区","address":"東京都板橋区赤塚5丁目6-1","lat":35.778018,"lon":139.641691},{"name":"赤塚体育館","province":"東京都","city":"板橋区","address":"東京都板橋区赤塚5丁目6","lat":35.778271,"lon":139.641871},{"name":"高島平温水プール","province":"東京都","city":"板橋区","address":"東京都板橋区高島平8丁目28-1","lat":35.791519,"lon":139.664073},{"name":"高島平ふれあい館","province":"東京都","city":"板橋区","address":"東京都板橋区高島平8丁目29-1","lat":35.791854,"lon":139.664519},{"name":"中台ふれあい館","province":"東京都","city":"板橋区","address":"東京都板橋区中台2丁目14-1","lat":35.769949,"lon":139.68008},{"name":"中台ふれあい館","province":"東京都","city":"板橋区","address":"東京都板橋区中台2丁目14-1","lat":35.769895,"lon":139.6802014},{"name":"仲町ふれあい館","province":"東京都","city":"板橋区","address":"東京都板橋区仲町20-5","lat":35.751068,"lon":139.696441},{"name":"仲町ふれあい館","province":"東京都","city":"板橋区","address":"東京都板橋区仲町20-5","lat":35.751209,"lon":139.696411},{"name":"仲町ふれあい館","province":"東京都","city":"板橋区","address":"東京都板橋区仲町20-5","lat":35.751164,"lon":139.696195},{"name":"仲宿集会所","province":"東京都","city":"板橋区","address":"東京都板橋区仲宿3-1","lat":35.756279,"lon":139.712438},{"name":"仲町ふれあい館","province":"東京都","city":"板橋区","address":"東京都板橋区仲町20-5","lat":35.751142,"lon":139.696299},{"name":"企業活性化センター","province":"東京都","city":"板橋区","address":"東京都板橋区舟渡1丁目13-10","lat":35.792223,"lon":139.690984},{"name":"旧中丸いこいの家（熊野地域包括支援センター及び中丸集会所）","province":"東京都","city":"板橋区","address":"東京都板橋区中丸町27","lat":35.741066,"lon":139.703291},{"name":"旧中丸いこいの家（熊野地域包括支援センター及び中丸集会所）","province":"東京都","city":"板橋区","address":"東京都板橋区中丸町27-11","lat":35.741077,"lon":139.703307},{"name":"仲宿集会所","province":"東京都","city":"板橋区","address":"東京都板橋区仲宿3-1","lat":35.756259,"lon":139.712479},{"name":"弥生児童館","province":"東京都","city":"板橋区","address":"東京都板橋区弥生町16","lat":35.753122,"lon":139.694831},{"name":"旧板橋いこいの家（ベルネススペース板橋）","province":"東京都","city":"板橋区","address":"東京都板橋区板橋3丁目26-4","lat":35.750453,"lon":139.71358},{"name":"旧板橋いこいの家（ベルネススペース板橋）","province":"東京都","city":"板橋区","address":"東京都板橋区板橋3丁目26-4","lat":35.750422,"lon":139.713682},{"name":"植村記念加賀スポーツセンター","province":"東京都","city":"板橋区","address":"東京都板橋区加賀1丁目10-5","lat":35.753766,"lon":139.715627},{"name":"大山東児童館","province":"東京都","city":"板橋区","address":"東京都板橋区大山東町8-7","lat":35.747574,"lon":139.706258},{"name":"高島平福祉園","province":"東京都","city":"板橋区","address":"東京都板橋区高島平9丁目25-12","lat":35.790474,"lon":139.668172},{"name":"三園福祉園","province":"東京都","city":"板橋区","address":"東京都板橋区三園2丁目9","lat":35.793231,"lon":139.640518},{"name":"徳丸ふれあい館","province":"東京都","city":"板橋区","address":"東京都板橋区徳丸2丁目12-12","lat":35.772004,"lon":139.66014},{"name":"板橋区立ハイライフ プラザ","province":"東京都","city":"板橋区","address":"東京都板橋区板橋1丁目55-16","lat":35.747255,"lon":139.720417},{"name":"富士見地域包括支援センター","province":"東京都","city":"板橋区","address":"東京都板橋区宮本町17","lat":35.763577,"lon":139.703257},{"name":"ウェルネススペース桜川及び桜川地域包括支援センター","province":"東京都","city":"板橋区","address":"東京都板橋区東新町2丁目36-5","lat":35.753798,"lon":139.680298},{"name":"板橋区立志村ふれあい館","province":"東京都","city":"板橋区","address":"東京都板橋区志村3丁目32-6","lat":35.778877,"lon":139.690282},{"name":"板橋区立グリーンカレッジホール","province":"東京都","city":"板橋区","address":"東京都板橋区志村3丁目32-6","lat":35.778973,"lon":139.690305},{"name":"まえのふれあいこども食堂","province":"東京都","city":"板橋区","address":"東京都板橋区前野町2丁目43-15","lat":35.76690619,"lon":139.69032483},{"name":"板橋いずみ教会子ども食堂（ジョイフルクラブ）","province":"東京都","city":"板橋区","address":"東京都板橋区泉町52-6","lat":35.76863128,"lon":139.69969067},{"name":"陽ちゃん家こども食堂","province":"東京都","city":"板橋区","address":"東京都板橋区宮本町6-12","lat":35.76244603,"lon":139.70349062},{"name":"ことぶき子ども食堂","province":"東京都","city":"板橋区","address":"東京都板橋区相生町8-3","lat":35.77656317,"lon":139.68210293},{"name":"南蔵院こども会","province":"東京都","city":"板橋区","address":"東京都板橋区蓮沼町48-8","lat":35.77073383,"lon":139.70160989},{"name":"しむらん通り食堂","province":"東京都","city":"板橋区","address":"東京都板橋区志村1丁目35-15","lat":35.77616906,"lon":139.69405474},{"name":"かもめこども食堂","province":"東京都","city":"板橋区","address":"東京都板橋区東坂下1丁目12-7","lat":35.78199048,"lon":139.69029929},{"name":"いずみの苑コミュニティ弁当","province":"東京都","city":"板橋区","address":"東京都板橋区東坂下2丁目2-22","lat":35.78308199,"lon":139.69001316},{"name":"NPO板橋こども食堂","province":"東京都","city":"板橋区","address":"東京都板橋区蓮根2丁目21-11","lat":35.78285666,"lon":139.67648379},{"name":"さかした子ども食堂","province":"東京都","city":"板橋区","address":"東京都板橋区坂下2丁目22-5","lat":35.78320133,"lon":139.68411362},{"name":"にこにこ食堂","province":"東京都","city":"板橋区","address":"東京都板橋区坂下2丁目1-3","lat":35.78272368,"lon":139.68804944},{"name":"SOMPO流子ども食堂　高島平","province":"東京都","city":"板橋区","address":"東京都板橋区坂下3丁目5-2","lat":35.785165,"lon":139.6847135},{"name":"ごはん塾・にじいろぱーく","province":"東京都","city":"板橋区","address":"東京都板橋区高島平8丁目21-11","lat":35.79075515,"lon":139.66394866},{"name":"SOMPO流こども食堂　新高島平","province":"東京都","city":"板橋区","address":"東京都板橋区高島平7丁目17-9","lat":35.79133263,"lon":139.65537995},{"name":"まいにちおいで子ども食堂","province":"東京都","city":"板橋区","address":"東京都板橋区高島平7丁目23-21","lat":35.7908217,"lon":139.66045176},{"name":"リル・インフィニティ〈子ども食堂〉","province":"東京都","city":"板橋区","address":"東京都板橋区南常盤台1丁目18-5","lat":35.75687679,"lon":139.6888226},{"name":"ブランチCAF? in まもりん坊","province":"東京都","city":"板橋区","address":"東京都板橋区上板橋2丁目30-2","lat":35.76229793,"lon":139.67435139},{"name":"SOMPO流子ども食堂　ときわ台南","province":"東京都","city":"板橋区","address":"東京都板橋区東新町1丁目29-6","lat":35.75703764,"lon":139.68144542},{"name":"こども食堂ｂｙハーブ＆おいしい野菜塾","province":"東京都","city":"板橋区","address":"東京都板橋区西台2丁目12-12","lat":35.78035126,"lon":139.67099827},{"name":"長秀龍子ども食堂","province":"東京都","city":"板橋区","address":"東京都板橋区南常盤台1丁目20-4","lat":35.7565241,"lon":139.6898392},{"name":"寺子屋学園こども食堂","province":"東京都","city":"板橋区","address":"東京都板橋区常盤台2丁目15-9","lat":35.76136793,"lon":139.68968064},{"name":"西徳げんき食堂","province":"東京都","city":"板橋区","address":"東京都板橋区西台4丁目8-13","lat":35.77234384,"lon":139.66901538},{"name":"こども食堂　良ちゃん","province":"東京都","city":"板橋区","address":"東京都板橋区常盤台4丁目33-3","lat":35.76392557,"lon":139.67633725},{"name":"SOMPO流子ども食堂 ときわ台","province":"東京都","city":"板橋区","address":"東京都板橋区前野町2丁目18-3","lat":35.7649813,"lon":139.68694182},{"name":"「上二テラス」ランチタイム","province":"東京都","city":"板橋区","address":"東京都板橋区向原3丁目1-12","lat":35.74417819,"lon":139.6855318},{"name":"ななテラスこども食堂","province":"東京都","city":"板橋区","address":"東京都板橋区向原3丁目7-7","lat":35.7465251,"lon":139.68421513},{"name":"SOMPO流こども食堂　若木","province":"東京都","city":"板橋区","address":"東京都板橋区若木3丁目3-1","lat":35.77365225,"lon":139.67728125},{"name":"SOMPO流子ども食堂　奈美木成増","province":"東京都","city":"板橋区","address":"東京都板橋区赤塚3丁目13-1","lat":35.77897296,"lon":139.63954549},{"name":"SOMPO流子ども食堂　赤塚公園","province":"東京都","city":"板橋区","address":"東京都板橋区大門7-5","lat":35.78333099,"lon":139.64862789},{"name":"SOMPO流子ども食堂","province":"東京都","city":"板橋区","address":"東京都板橋区徳丸6丁目1-11","lat":35.77657377,"lon":139.66411013},{"name":"福まね嬉　こども食堂","province":"東京都","city":"板橋区","address":"東京都板橋区徳丸3丁目29-2","lat":35.77245185,"lon":139.65623043},{"name":"カフェひびき（誰でも食堂）","province":"東京都","city":"板橋区","address":"東京都板橋区徳丸6丁目13-18","lat":35.77790959,"lon":139.65914942},{"name":"SOMPOの子ども食堂","province":"東京都","city":"板橋区","address":"東京都板橋区赤塚新町2丁目7-16","lat":35.77214322,"lon":139.63940686},{"name":"くじらハウス赤塚こども食堂","province":"東京都","city":"板橋区","address":"東京都板橋区赤塚7丁目26-7","lat":35.77879265,"lon":139.64860305},{"name":"こども食堂　ニクビッタ","province":"東京都","city":"板橋区","address":"東京都板橋区徳丸1丁目7-12","lat":35.7684775,"lon":139.66417154},{"name":"ゆとりんぼ","province":"東京都","city":"板橋区","address":"東京都板橋区徳丸1丁目7-12","lat":35.7684775,"lon":139.66417154},{"name":"あったかごはんの会","province":"東京都","city":"板橋区","address":"東京都板橋区成増1丁目12-4","lat":35.7747122,"lon":139.632674},{"name":"子ども食堂　たんぽぽ","province":"東京都","city":"板橋区","address":"東京都板橋区成増4丁目14-18","lat":35.78327223,"lon":139.63534852},{"name":"SOMPO流子ども食堂　板橋三園","province":"東京都","city":"板橋区","address":"東京都板橋区三園2丁目12-14","lat":35.79587877,"lon":139.64304484},{"name":"SOMPO流子ども食堂　板橋仲宿","province":"東京都","city":"板橋区","address":"東京都板橋区仲宿50-1","lat":35.75705795,"lon":139.70863765},{"name":"みんなの食堂　フラワー","province":"東京都","city":"板橋区","address":"東京都板橋区大山東町25-12","lat":35.74915324,"lon":139.70618543},{"name":"親子ひろば","province":"東京都","city":"板橋区","address":"東京都板橋区大谷口上町1-3","lat":35.74976121,"lon":139.69509745},{"name":"にっこりキッチン！","province":"東京都","city":"板橋区","address":"東京都板橋区富士見町17-15","lat":35.76142102,"lon":139.69848829},{"name":"りんごのたね","province":"東京都","city":"板橋区","address":"東京都板橋区富士見町3-1","lat":35.76096004,"lon":139.70108533},{"name":"こども食堂　よかや","province":"東京都","city":"板橋区","address":"東京都板橋区板橋1丁目31-8","lat":35.74766755,"lon":139.71610132},{"name":"ノンナの家","province":"東京都","city":"板橋区","address":"東京都板橋区板橋4丁目53-2","lat":35.75228096,"lon":139.71834817},{"name":"大山こども食堂・みんなの広場","province":"東京都","city":"板橋区","address":"東京都板橋区大山金井町48-2","lat":35.74555077,"lon":139.70229423},{"name":"ハッピー大山子ども食堂","province":"東京都","city":"板橋区","address":"東京都板橋区大山町40-5","lat":35.74893641,"lon":139.69878051},{"name":"子ども食堂 鶏のから騒ぎ","province":"東京都","city":"板橋区","address":"東京都板橋区弥生町31-15","lat":35.75530502,"lon":139.69531385},{"name":"地域のみなぱ食堂","province":"東京都","city":"板橋区","address":"東京都板橋区弥生町58-1","lat":35.75503824,"lon":139.69163914},{"name":"板橋トラックターミナル","province":"東京都","city":"板橋区","address":"東京都板橋区高島平6丁目1-1","lat":35.79228232,"lon":139.64660566},{"name":"都立城北中央公園陸上競技場","province":"東京都","city":"板橋区","address":"東京都板橋区桜川1丁目4","lat":35.75681526,"lon":139.67436275},{"name":"板橋区立城北公園野球場","province":"東京都","city":"板橋区","address":"東京都板橋区坂下2丁目19-1","lat":35.78357064,"lon":139.68153885},{"name":"板橋区立東板橋公園グラウンド","province":"東京都","city":"板橋区","address":"東京都板橋区板橋3丁目50-1","lat":35.75398895,"lon":139.71224304},{"name":"荒川戸田橋緑地草地広場","province":"東京都","city":"板橋区","address":"東京都板橋区新河岸1丁目15","lat":35.79670152,"lon":139.66723994},{"name":"荒川戸田橋緑地野球場","province":"東京都","city":"板橋区","address":"東京都板橋区舟渡3丁目","lat":35.79449154,"lon":139.6825884},{"name":"板橋区立小豆沢公園","province":"東京都","city":"板橋区","address":"東京都板橋区小豆沢3丁目8","lat":35.77860211,"lon":139.69505179},{"name":"都立赤塚公園野球場","province":"東京都","city":"板橋区","address":"東京都板橋区高島平3丁目1","lat":35.78522804,"lon":139.65529951},{"name":"帝京大学医学部附属病院ヘリポート","province":"東京都","city":"板橋区","address":"東京都板橋区加賀2丁目11-1","lat":35.75922729,"lon":139.71498704},{"name":"東京都保健医療公社豊島病院ヘリポート","province":"東京都","city":"板橋区","address":"東京都板橋区栄町33-1","lat":35.75269994,"lon":139.70097739},{"name":"板橋区役所屋上","province":"東京都","city":"板橋区","address":"東京都板橋区板橋2丁目66-1","lat":35.75091701,"lon":139.70919342},{"name":"＊?郷土芸能伝承館","province":"東京都","city":"板橋区","address":"板橋区徳丸6-29-13","lat":35.778365,"lon":139.660649},{"name":"＊?成増アートギャラリー","province":"東京都","city":"板橋区","address":"板橋区成増3-13-1","lat":35.778846,"lon":139.63236},{"name":"板橋トラックターミナル","province":"東京都","city":"板橋区","address":"東京都板橋区高島平6丁目1-1","lat":35.79228232,"lon":139.64660566},{"name":"小豆沢","province":"東京都","city":"板橋区","address":"東京都板橋区小豆沢4丁目","lat":35.77909659,"lon":139.69991806},{"name":"板橋区立小豆沢体育館","province":"東京都","city":"板橋区","address":"東京都板橋区小豆沢3丁目1-1","lat":35.7791632,"lon":139.69744603},{"name":"板橋区若木原公園内倉庫","province":"東京都","city":"板橋区","address":"板橋区若木1-24区立若木原公園内","lat":35.76726,"lon":139.6706},{"name":"板橋区","province":"東京都","city":"板橋区","address":"板橋区常盤台1-40-1","lat":35.76297,"lon":139.6926},{"name":"日本メガケア（株）","province":"東京都","city":"板橋区","address":"板橋区新河岸1-13-5","lat":35.79643,"lon":139.6701},{"name":"志村ＰＡ","province":"東京都","city":"板橋区","address":"東京都板橋区","lat":35.7511642,"lon":139.70924619},{"name":"東京都板橋四ツ又駐車場","province":"東京都","city":"板橋区","address":"東京都板橋区板橋2丁目","lat":35.74808686,"lon":139.71301545},{"name":"板橋都税事務所","province":"東京都","city":"板橋区","address":"東京都板橋区大山東町44-8","lat":35.749488,"lon":139.706298},{"name":"地方独立行政法人東京都立病院機構　東京都立豊島病院","province":"東京都","city":"板橋区","address":"東京都板橋区栄町33-1","lat":35.75282,"lon":139.701144},{"name":"東京都立中央・城北職業能力開発センター板橋校","province":"東京都","city":"板橋区","address":"東京都板橋区舟渡2丁目2","lat":35.793465,"lon":139.691175},{"name":"東京都立中央・城北職業能力開発センター板橋校","province":"東京都","city":"板橋区","address":"東京都板橋区舟渡2丁目2-1","lat":35.793645,"lon":139.69128},{"name":"赤塚公園","province":"東京都","city":"板橋区","address":"東京都板橋区高島平3丁目1","lat":35.785485,"lon":139.657546},{"name":"赤塚公園","province":"東京都","city":"板橋区","address":"東京都板橋区高島平3丁目1","lat":35.784919,"lon":139.655738},{"name":"赤塚公園","province":"東京都","city":"板橋区","address":"東京都板橋区徳丸7丁目4","lat":35.780889,"lon":139.662961},{"name":"赤塚公園","province":"東京都","city":"板橋区","address":"東京都板橋区徳丸8丁目23","lat":35.783692,"lon":139.654381},{"name":"浮間公園","province":"東京都","city":"板橋区","address":"東京都板橋区舟渡2丁目15","lat":35.795026,"lon":139.693107},{"name":"浮間公園","province":"東京都","city":"板橋区","address":"東京都板橋区舟渡2丁目14","lat":35.794044,"lon":139.692809},{"name":"城北中央公園","province":"東京都","city":"板橋区","address":"東京都板橋区桜川1丁目1","lat":35.75523,"lon":139.676194},{"name":"都営三田線板橋区役所前駅","province":"東京都","city":"板橋区","address":"東京都板橋区板橋2丁目66-17","lat":35.751417,"lon":139.709611},{"name":"都営三田線駅新板橋駅","province":"東京都","city":"板橋区","address":"東京都板橋区板橋4丁目4","lat":35.748903,"lon":139.718899},{"name":"都営三田線板橋本町駅","province":"東京都","city":"板橋区","address":"東京都板橋区本町37","lat":35.760976,"lon":139.70557},{"name":"都営三田線板橋区役所前駅","province":"東京都","city":"板橋区","address":"東京都板橋区仲宿65","lat":35.751729,"lon":139.709692},{"name":"都営三田線本蓮沼駅","province":"東京都","city":"板橋区","address":"東京都板橋区蓮沼町19","lat":35.768619,"lon":139.702566},{"name":"都営三田線志村坂上駅","province":"東京都","city":"板橋区","address":"東京都板橋区小豆沢3丁目6","lat":35.776491,"lon":139.694684},{"name":"都営三田線志村三丁目駅","province":"東京都","city":"板橋区","address":"東京都板橋区志村3丁目23","lat":35.777481,"lon":139.685926},{"name":"都営三田線蓮根駅","province":"東京都","city":"板橋区","address":"東京都板橋区蓮根2丁目31","lat":35.784082,"lon":139.678967},{"name":"都営三田線西台駅","province":"東京都","city":"板橋区","address":"東京都板橋区高島平9丁目1","lat":35.786996,"lon":139.673632},{"name":"都営三田線高島平駅","province":"東京都","city":"板橋区","address":"東京都板橋区高島平8丁目2","lat":35.788993,"lon":139.661438},{"name":"都営三田線新高島平駅","province":"東京都","city":"板橋区","address":"東京都板橋区高島平7丁目1","lat":35.790222,"lon":139.654559},{"name":"都営三田線西高島平駅","province":"東京都","city":"板橋区","address":"東京都板橋区高島平6丁目1-1","lat":35.791914,"lon":139.645942},{"name":"東京都水道局板橋営業所","province":"東京都","city":"板橋区","address":"東京都板橋区氷川町3-6","lat":35.751704,"lon":139.707233},{"name":"志村消防署高島平出張所","province":"東京都","city":"板橋区","address":"東京都板橋区高島平3丁目12-10","lat":35.786199,"lon":139.658018},{"name":"郷土資料館","province":"東京都","city":"板橋区","address":"東京都板橋区赤塚5丁目35-25","lat":35.785487,"lon":139.6431},{"name":"板橋区役所本庁舎","province":"東京都","city":"板橋区","address":"東京都板橋区板橋2丁目66-1","lat":35.751064,"lon":139.70904},{"name":"板橋区役所本庁舎","province":"東京都","city":"板橋区","address":"東京都板橋区板橋2丁目66-1","lat":35.751026,"lon":139.709036},{"name":"板橋区役所本庁舎","province":"東京都","city":"板橋区","address":"東京都板橋区板橋2丁目66-1","lat":35.751067,"lon":139.709041},{"name":"板橋区役所本庁舎","province":"東京都","city":"板橋区","address":"東京都板橋区板橋2丁目66-1","lat":35.750869,"lon":139.708988},{"name":"板橋区役所本庁舎","province":"東京都","city":"板橋区","address":"東京都板橋区板橋2丁目66-1","lat":35.751189,"lon":139.709061},{"name":"板橋区役所本庁舎","province":"東京都","city":"板橋区","address":"東京都板橋区板橋2丁目66-1","lat":35.75087,"lon":139.708987},{"name":"板橋区役所本庁舎","province":"東京都","city":"板橋区","address":"東京都板橋区板橋2丁目66-1","lat":35.75087,"lon":139.708986},{"name":"板橋区役所本庁舎","province":"東京都","city":"板橋区","address":"東京都板橋区板橋2丁目66-1","lat":35.75119,"lon":139.709059},{"name":"板橋区役所本庁舎","province":"東京都","city":"板橋区","address":"東京都板橋区板橋2丁目66-1","lat":35.750869,"lon":139.708984},{"name":"板橋区役所本庁舎","province":"東京都","city":"板橋区","address":"東京都板橋区板橋2丁目66-1","lat":35.751192,"lon":139.709058},{"name":"板橋区役所本庁舎","province":"東京都","city":"板橋区","address":"東京都板橋区板橋2丁目66-1","lat":35.751189,"lon":139.709056},{"name":"板橋区役所本庁舎","province":"東京都","city":"板橋区","address":"東京都板橋区板橋2丁目66-1","lat":35.751187,"lon":139.709058},{"name":"板橋区役所本庁舎","province":"東京都","city":"板橋区","address":"東京都板橋区板橋2丁目66-1","lat":35.75119,"lon":139.709061},{"name":"板橋区役所本庁舎","province":"東京都","city":"板橋区","address":"東京都板橋区板橋2丁目66-1","lat":35.751192,"lon":139.709059},{"name":"赤塚支所","province":"東京都","city":"板橋区","address":"東京都板橋区赤塚6丁目38-1","lat":35.778633,"lon":139.644744},{"name":"赤塚支所","province":"東京都","city":"板橋区","address":"東京都板橋区赤塚6丁目38-1","lat":35.778629,"lon":139.644736},{"name":"赤塚支所","province":"東京都","city":"板橋区","address":"東京都板橋区赤塚6丁目38-1","lat":35.778628,"lon":139.644734},{"name":"赤塚支所","province":"東京都","city":"板橋区","address":"東京都板橋区赤塚6丁目38-1","lat":35.778715,"lon":139.644787},{"name":"常盤台区民事務所","province":"東京都","city":"板橋区","address":"東京都板橋区常盤台3丁目27","lat":35.761329,"lon":139.682337},{"name":"志村福祉事務所","province":"東京都","city":"板橋区","address":"東京都板橋区蓮根2丁目28-1","lat":35.785305,"lon":139.675158},{"name":"情報処理センター","province":"東京都","city":"板橋区","address":"東京都板橋区板橋2丁目65-6","lat":35.750018,"lon":139.708859},{"name":"情報処理センター","province":"東京都","city":"板橋区","address":"東京都板橋区板橋2丁目65-6","lat":35.750018,"lon":139.708864},{"name":"情報処理センター","province":"東京都","city":"板橋区","address":"東京都板橋区板橋2丁目65-6","lat":35.750021,"lon":139.70886},{"name":"情報処理センター","province":"東京都","city":"板橋区","address":"東京都板橋区板橋2丁目65-6","lat":35.750022,"lon":139.708865},{"name":"情報処理センター","province":"東京都","city":"板橋区","address":"東京都板橋区板橋2丁目65-6","lat":35.750017,"lon":139.708862},{"name":"情報処理センター","province":"東京都","city":"板橋区","address":"東京都板橋区板橋2丁目65-6","lat":35.750021,"lon":139.708858},{"name":"情報処理センター","province":"東京都","city":"板橋区","address":"東京都板橋区板橋2丁目65-6","lat":35.750018,"lon":139.708865},{"name":"四葉集会所","province":"東京都","city":"板橋区","address":"東京都板橋区四葉2丁目9-16","lat":35.781021,"lon":139.651761},{"name":"見次公園内集会所","province":"東京都","city":"板橋区","address":"東京都板橋区前野町4丁目59-1","lat":35.773371,"lon":139.693523},{"name":"中台二丁目集会所","province":"東京都","city":"板橋区","address":"東京都板橋区中台2丁目43-20","lat":35.773533,"lon":139.682624},{"name":"清水町第二集会所","province":"東京都","city":"板橋区","address":"東京都板橋区清水町72","lat":35.765392,"lon":139.704702},{"name":"高島平地域センター","province":"東京都","city":"板橋区","address":"東京都板橋区高島平3丁目12-28","lat":35.786978,"lon":139.658956},{"name":"高島平地域センター","province":"東京都","city":"板橋区","address":"東京都板橋区高島平3丁目12-28","lat":35.786958,"lon":139.658785},{"name":"桜川地域センター","province":"東京都","city":"板橋区","address":"東京都板橋区東新町2丁目45-6","lat":35.752421,"lon":139.681841},{"name":"志村坂上地域センター","province":"東京都","city":"板橋区","address":"東京都板橋区小豆沢2丁目19-15","lat":35.776461,"lon":139.696011},{"name":"清水地域センター","province":"東京都","city":"板橋区","address":"東京都板橋区泉町16-16","lat":35.766428,"lon":139.702103},{"name":"清水地域センター","province":"東京都","city":"板橋区","address":"東京都板橋区泉町16-16","lat":35.766457,"lon":139.702154},{"name":"清水地域センター","province":"東京都","city":"板橋区","address":"東京都板橋区泉町16-16","lat":35.766381,"lon":139.702098},{"name":"清水地域センター","province":"東京都","city":"板橋区","address":"東京都板橋区泉町16-16","lat":35.766421,"lon":139.702044},{"name":"仲宿地域センター","province":"東京都","city":"板橋区","address":"東京都板橋区氷川町12-10","lat":35.753891,"lon":139.707211},{"name":"仲宿地域センター","province":"東京都","city":"板橋区","address":"東京都板橋区氷川町12-10","lat":35.753978,"lon":139.707146},{"name":"仲宿地域センター","province":"東京都","city":"板橋区","address":"東京都板橋区氷川町12-10","lat":35.753901,"lon":139.707159},{"name":"富士見地域センター","province":"東京都","city":"板橋区","address":"東京都板橋区富士見町3-1","lat":35.760773,"lon":139.700398},{"name":"板橋区保健所","province":"東京都","city":"板橋区","address":"東京都板橋区大山東町32-15","lat":35.750596,"lon":139.708152},{"name":"板橋区保健所","province":"東京都","city":"板橋区","address":"東京都板橋区大山東町32","lat":35.750549,"lon":139.707999},{"name":"高島平図書館","province":"東京都","city":"板橋区","address":"東京都板橋区高島平3丁目13-1","lat":35.787531,"lon":139.658997},{"name":"高島平図書館","province":"東京都","city":"板橋区","address":"東京都板橋区高島平3丁目13-1","lat":35.787492,"lon":139.658982},{"name":"氷川図書館","province":"東京都","city":"板橋区","address":"東京都板橋区氷川町28-9","lat":35.753112,"lon":139.704723},{"name":"蓮根図書館","province":"東京都","city":"板橋区","address":"東京都板橋区蓮根3丁目15-1","lat":35.788556,"lon":139.676386},{"name":"東板橋図書館","province":"東京都","city":"板橋区","address":"東京都板橋区加賀1丁目10-15","lat":35.754382,"lon":139.715763},{"name":"東板橋図書館","province":"東京都","city":"板橋区","address":"東京都板橋区加賀1丁目10-15","lat":35.754401,"lon":139.71579},{"name":"成増図書館","province":"東京都","city":"板橋区","address":"東京都板橋区成増3丁目13-1","lat":35.7786,"lon":139.632242},{"name":"志村図書館","province":"東京都","city":"板橋区","address":"東京都板橋区小豆沢1丁目8-1","lat":35.773182,"lon":139.700047},{"name":"西台図書館","province":"東京都","city":"板橋区","address":"東京都板橋区西台3丁目13-2","lat":35.773996,"lon":139.668893},{"name":"小茂根図書館","province":"東京都","city":"板橋区","address":"東京都板橋区小茂根1丁目5-2","lat":35.745575,"lon":139.680874},{"name":"中央図書館（いたばしボローニャ絵本館併設）","province":"東京都","city":"板橋区","address":"東京都板橋区常盤台4丁目3-1","lat":35.762884,"lon":139.681526},{"name":"教育科学館","province":"東京都","city":"板橋区","address":"東京都板橋区常盤台4丁目14-1","lat":35.763462,"lon":139.679604},{"name":"教育科学館","province":"東京都","city":"板橋区","address":"東京都板橋区常盤台4丁目14","lat":35.763452,"lon":139.679425},{"name":"溝下東公園","province":"東京都","city":"板橋区","address":"東京都板橋区三園1丁目49","lat":35.791733,"lon":139.641856},{"name":"熱帯環境植物館","province":"東京都","city":"板橋区","address":"東京都板橋区高島平8丁目29-2","lat":35.792046,"lon":139.663983},{"name":"熱帯環境植物館","province":"東京都","city":"板橋区","address":"東京都板橋区高島平8丁目29-2","lat":35.792012,"lon":139.663915},{"name":"美術館","province":"東京都","city":"板橋区","address":"東京都板橋区赤塚5丁目34-27","lat":35.784219,"lon":139.644536},{"name":"前野ホール","province":"東京都","city":"板橋区","address":"東京都板橋区前野町2丁目43","lat":35.766998,"lon":139.690257},{"name":"前野ホール","province":"東京都","city":"板橋区","address":"東京都板橋区前野町2丁目43-15","lat":35.76699,"lon":139.690325},{"name":"舟渡ホール","province":"東京都","city":"板橋区","address":"東京都板橋区舟渡1丁目14-5","lat":35.792138,"lon":139.689964},{"name":"区立グリーンホール","province":"東京都","city":"板橋区","address":"東京都板橋区栄町36-1","lat":35.750811,"lon":139.705233},{"name":"区立グリーンホール","province":"東京都","city":"板橋区","address":"東京都板橋区栄町36-1","lat":35.750806,"lon":139.705223},{"name":"区立グリーンホール","province":"東京都","city":"板橋区","address":"東京都板橋区栄町36-1","lat":35.75081,"lon":139.705232},{"name":"区立グリーンホール","province":"東京都","city":"板橋区","address":"東京都板橋区栄町36-1","lat":35.750811,"lon":139.705234},{"name":"区立グリーンホール","province":"東京都","city":"板橋区","address":"東京都板橋区栄町36-1","lat":35.750812,"lon":139.705234},{"name":"区立文化会館","province":"東京都","city":"板橋区","address":"東京都板橋区大山東町51-1","lat":35.749485,"lon":139.704656},{"name":"三丁目青空公園","province":"東京都","city":"板橋区","address":"東京都板橋区小茂根3丁目14","lat":35.749942,"lon":139.679905},{"name":"四葉二丁目公園","province":"東京都","city":"板橋区","address":"東京都板橋区四葉2丁目9","lat":35.781129,"lon":139.651715},{"name":"東原公園","province":"東京都","city":"板橋区","address":"東京都板橋区小豆沢1丁目20","lat":35.77581,"lon":139.701842},{"name":"東坂下二丁目公園","province":"東京都","city":"板橋区","address":"東京都板橋区東坂下2丁目9","lat":35.78481,"lon":139.687775},{"name":"東板橋公園","province":"東京都","city":"板橋区","address":"東京都板橋区板橋3丁目50","lat":35.754505,"lon":139.712794},{"name":"親和児童遊園","province":"東京都","city":"板橋区","address":"東京都板橋区志村3丁目20-25","lat":35.77757,"lon":139.684461},{"name":"城北公園(管理棟併設)","province":"東京都","city":"板橋区","address":"東京都板橋区坂下2丁目19-1","lat":35.783655,"lon":139.68168},{"name":"志村第二公園","province":"東京都","city":"板橋区","address":"東京都板橋区前野町5丁目56","lat":35.774543,"lon":139.683997},{"name":"志村第三公園","province":"東京都","city":"板橋区","address":"東京都板橋区志村1丁目21","lat":35.775219,"lon":139.692648},{"name":"富士見街道にぎわい広場","province":"東京都","city":"板橋区","address":"東京都板橋区前野町1丁目7","lat":35.76315,"lon":139.695277},{"name":"富士見西児童遊園","province":"東京都","city":"板橋区","address":"東京都板橋区富士見町24","lat":35.758995,"lon":139.694988},{"name":"坂下三丁目緑地","province":"東京都","city":"板橋区","address":"東京都板橋区坂下3丁目9","lat":35.785207,"lon":139.681978},{"name":"坂下一丁目公園","province":"東京都","city":"板橋区","address":"東京都板橋区坂下1丁目36","lat":35.780184,"lon":139.683119},{"name":"小茂根四丁目公園","province":"東京都","city":"板橋区","address":"東京都板橋区小茂根4丁目16","lat":35.748948,"lon":139.676218},{"name":"紅梅公園","province":"東京都","city":"板橋区","address":"東京都板橋区徳丸8丁目5","lat":35.78079,"lon":139.654664},{"name":"けやきの公園","province":"東京都","city":"板橋区","address":"東京都板橋区前野町1丁目48","lat":35.764473,"lon":139.692354},{"name":"熊野町公園","province":"東京都","city":"板橋区","address":"東京都板橋区熊野町23","lat":35.74385,"lon":139.706867},{"name":"志村城山公園","province":"東京都","city":"板橋区","address":"東京都板橋区志村2丁目17","lat":35.776905,"lon":139.687455},{"name":"若木公園","province":"東京都","city":"板橋区","address":"東京都板橋区若木2丁目29","lat":35.770275,"lon":139.669772},{"name":"ゆりの木公衆便所","province":"東京都","city":"板橋区","address":"東京都板橋区赤塚新町3丁目32","lat":35.76996,"lon":139.639117},{"name":"成増公園","province":"東京都","city":"板橋区","address":"東京都板橋区成増3丁目4","lat":35.777907,"lon":139.633962},{"name":"本蓮沼駅前いずみ公園","province":"東京都","city":"板橋区","address":"東京都板橋区泉町5","lat":35.768028,"lon":139.702229},{"name":"向原公園","province":"東京都","city":"板橋区","address":"東京都板橋区向原2丁目29","lat":35.74006,"lon":139.681331},{"name":"向口公園","province":"東京都","city":"板橋区","address":"東京都板橋区四葉2丁目29-5","lat":35.782215,"lon":139.653746},{"name":"宮本公園","province":"東京都","city":"板橋区","address":"東京都板橋区宮本町38","lat":35.763607,"lon":139.697577},{"name":"南ときわ台公園","province":"東京都","city":"板橋区","address":"東京都板橋区南常盤台2丁目8","lat":35.756639,"lon":139.68635},{"name":"緑ケ丘第三公園","province":"東京都","city":"板橋区","address":"東京都板橋区桜川3丁目9","lat":35.760834,"lon":139.672869},{"name":"見次公園","province":"東京都","city":"板橋区","address":"東京都板橋区前野町4丁目59-1","lat":35.773411,"lon":139.693563},{"name":"溝下公園","province":"東京都","city":"板橋区","address":"東京都板橋区三園1丁目41","lat":35.790893,"lon":139.639722},{"name":"前野公園","province":"東京都","city":"板橋区","address":"東京都板橋区前野町5丁目1","lat":35.768889,"lon":139.687294},{"name":"舟渡水辺公園","province":"東京都","city":"板橋区","address":"東京都板橋区舟渡4丁目4","lat":35.792686,"lon":139.673076},{"name":"双葉町ひだまり公園","province":"東京都","city":"板橋区","address":"東京都板橋区双葉町18","lat":35.757376,"lon":139.699196},{"name":"宮前公園","province":"東京都","city":"板橋区","address":"東京都板橋区赤塚4丁目16","lat":35.783541,"lon":139.639006},{"name":"水車公園","province":"東京都","city":"板橋区","address":"東京都板橋区四葉1丁目17","lat":35.777658,"lon":139.65246},{"name":"小豆沢公園(環八沿線南側)","province":"東京都","city":"板橋区","address":"東京都板橋区小豆沢4丁目20","lat":35.78087,"lon":139.698682},{"name":"小豆沢公園(河岸広場)","province":"東京都","city":"板橋区","address":"東京都板橋区小豆沢4丁目28","lat":35.781582,"lon":139.698645},{"name":"小豆沢公園(グランド南)","province":"東京都","city":"板橋区","address":"東京都板橋区小豆沢3丁目8","lat":35.778347,"lon":139.69639},{"name":"赤塚四丁目公園","province":"東京都","city":"板橋区","address":"東京都板橋区赤塚4丁目31","lat":35.785751,"lon":139.640669},{"name":"赤塚溜池公園","province":"東京都","city":"板橋区","address":"東京都板橋区赤塚5丁目35","lat":35.785746,"lon":139.643929},{"name":"赤塚新町公園","province":"東京都","city":"板橋区","address":"東京都板橋区赤塚新町3丁目35","lat":35.770259,"lon":139.637986},{"name":"赤塚しのがやと公園","province":"東京都","city":"板橋区","address":"東京都板橋区赤塚6丁目30","lat":35.77694,"lon":139.644134},{"name":"西台公園","province":"東京都","city":"板橋区","address":"東京都板橋区西台1丁目23","lat":35.774163,"lon":139.672523},{"name":"高島平五丁目第二公園","province":"東京都","city":"板橋区","address":"東京都板橋区高島平5丁目24","lat":35.78979,"lon":139.645084},{"name":"蓮根川緑道","province":"東京都","city":"板橋区","address":"東京都板橋区蓮根3丁目3","lat":35.786627,"lon":139.678303},{"name":"大門みはらし台公園","province":"東京都","city":"板橋区","address":"東京都板橋区大門6","lat":35.783583,"lon":139.647057},{"name":"成増児童遊園","province":"東京都","city":"板橋区","address":"東京都板橋区成増2丁目24","lat":35.779255,"lon":139.629567},{"name":"上赤塚公園","province":"東京都","city":"板橋区","address":"東京都板橋区赤塚3丁目40","lat":35.781494,"lon":139.637174},{"name":"西台三丁目公園","province":"東京都","city":"板橋区","address":"東京都板橋区西台3丁目19","lat":35.774011,"lon":139.669354},{"name":"西徳第二公園","province":"東京都","city":"板橋区","address":"東京都板橋区西台3丁目42","lat":35.776188,"lon":139.667019},{"name":"成増うめの里公園","province":"東京都","city":"板橋区","address":"東京都板橋区成増5丁目3","lat":35.783526,"lon":139.630919},{"name":"蓮根三丁目公園","province":"東京都","city":"板橋区","address":"東京都板橋区蓮根3丁目15","lat":35.788933,"lon":139.678405},{"name":"西台中央通り公園","province":"東京都","city":"板橋区","address":"東京都板橋区西台4丁目4","lat":35.770334,"lon":139.667413},{"name":"常盤台公園(身障者用付き)","province":"東京都","city":"板橋区","address":"東京都板橋区常盤台1丁目13","lat":35.760604,"lon":139.691567},{"name":"高島平七丁目第二公園","province":"東京都","city":"板橋区","address":"東京都板橋区高島平7丁目33","lat":35.792143,"lon":139.655146},{"name":"高島平緑地(西台駅寄り)","province":"東京都","city":"板橋区","address":"東京都板橋区高島平9丁目1","lat":35.787121,"lon":139.670358},{"name":"高島平緑地(前谷津川側)","province":"東京都","city":"板橋区","address":"東京都板橋区高島平2丁目34","lat":35.788144,"lon":139.661882},{"name":"成増北第一公園","province":"東京都","city":"板橋区","address":"東京都板橋区成増5丁目19","lat":35.788764,"lon":139.635839},{"name":"高島平五丁目公園","province":"東京都","city":"板橋区","address":"東京都板橋区高島平5丁目4","lat":35.787084,"lon":139.646162},{"name":"徳石公園","province":"東京都","city":"板橋区","address":"東京都板橋区徳丸5丁目10-16","lat":35.776531,"lon":139.659002},{"name":"徳丸ケ丘公園","province":"東京都","city":"板橋区","address":"東京都板橋区徳丸6丁目27","lat":35.778758,"lon":139.661782},{"name":"徳丸ケ原公園","province":"東京都","city":"板橋区","address":"東京都板橋区高島平8丁目24-1","lat":35.791506,"lon":139.661341},{"name":"徳丸橋公園","province":"東京都","city":"板橋区","address":"東京都板橋区新河岸1丁目3","lat":35.794845,"lon":139.664143},{"name":"どんぐり山公園","province":"東京都","city":"板橋区","address":"東京都板橋区中台1丁目19","lat":35.767923,"lon":139.680622},{"name":"中台公園","province":"東京都","city":"板橋区","address":"東京都板橋区中台3丁目9","lat":35.769455,"lon":139.678346},{"name":"高島平緑地(高島平駅前)","province":"東京都","city":"板橋区","address":"東京都板橋区高島平2丁目34","lat":35.787556,"lon":139.664238},{"name":"加賀第二公園","province":"東京都","city":"板橋区","address":"東京都板橋区加賀1丁目16","lat":35.755279,"lon":139.718159},{"name":"大谷口北町宮ノ下公園","province":"東京都","city":"板橋区","address":"東京都板橋区大谷口北町79","lat":35.749053,"lon":139.686387},{"name":"大谷口北町公園","province":"東京都","city":"板橋区","address":"東京都板橋区大谷口北町87","lat":35.751076,"lon":139.685938},{"name":"大谷口児童遊園","province":"東京都","city":"板橋区","address":"東京都板橋区大谷口北町21","lat":35.750581,"lon":139.691077},{"name":"加賀公園","province":"東京都","city":"板橋区","address":"東京都板橋区加賀1丁目8","lat":35.752659,"lon":139.720517},{"name":"大原第二公園","province":"東京都","city":"板橋区","address":"東京都板橋区大原町27","lat":35.768231,"lon":139.698019},{"name":"板谷公園","province":"東京都","city":"板橋区","address":"東京都板橋区板橋4丁目55","lat":35.752986,"lon":139.718136},{"name":"板橋公園(公園中央)","province":"東京都","city":"板橋区","address":"東京都板橋区大山西町21","lat":35.745896,"lon":139.695341},{"name":"板橋駅前公園","province":"東京都","city":"板橋区","address":"東京都板橋区板橋1丁目23","lat":35.747402,"lon":139.718164},{"name":"板橋区平和公園","province":"東京都","city":"板橋区","address":"東京都板橋区常盤台4丁目3","lat":35.763397,"lon":139.681436},{"name":"大谷口一丁目4番遊び場","province":"東京都","city":"板橋区","address":"東京都板橋区大谷口1丁目4","lat":35.74605,"lon":139.691146},{"name":"石成公園","province":"東京都","city":"板橋区","address":"東京都板橋区赤塚4丁目7","lat":35.781701,"lon":139.639655},{"name":"徳丸三ツ和公園","province":"東京都","city":"板橋区","address":"東京都板橋区徳丸5丁目32","lat":35.778953,"lon":139.656396},{"name":"日暮台公園","province":"東京都","city":"板橋区","address":"東京都板橋区前野町5丁目20","lat":35.770804,"lon":139.684519},{"name":"板橋東いこいの森","province":"東京都","city":"板橋区","address":"東京都板橋区板橋4丁目45","lat":35.751274,"lon":139.722384},{"name":"えび山広場","province":"東京都","city":"板橋区","address":"東京都板橋区大谷口上町4","lat":35.750021,"lon":139.694941},{"name":"大谷口上町公園","province":"東京都","city":"板橋区","address":"東京都板橋区大谷口上町50","lat":35.747357,"lon":139.691524},{"name":"さくらづつみ児童遊園","province":"東京都","city":"板橋区","address":"東京都板橋区大谷口北町14","lat":35.752386,"lon":139.690068},{"name":"緑ケ丘第一公園","province":"東京都","city":"板橋区","address":"東京都板橋区東新町1丁目27","lat":35.756972,"lon":139.681182},{"name":"南板橋公園","province":"東京都","city":"板橋区","address":"東京都板橋区板橋1丁目39","lat":35.74821,"lon":139.714583},{"name":"赤塚植物園","province":"東京都","city":"板橋区","address":"東京都板橋区赤塚5丁目17-14","lat":35.780894,"lon":139.644397},{"name":"赤塚六丁目公園","province":"東京都","city":"板橋区","address":"東京都板橋区赤塚6丁目4","lat":35.773624,"lon":139.645338},{"name":"徳丸二丁目第二児童遊園","province":"東京都","city":"板橋区","address":"東京都板橋区徳丸2丁目16","lat":35.773075,"lon":139.660567},{"name":"高島平一丁目公園","province":"東京都","city":"板橋区","address":"東京都板橋区高島平1丁目23","lat":35.782557,"lon":139.671617},{"name":"成増生涯学習センター","province":"東京都","city":"板橋区","address":"東京都板橋区成増1丁目12-4","lat":35.774622,"lon":139.632777},{"name":"坂下二丁目公園","province":"東京都","city":"板橋区","address":"東京都板橋区坂下2丁目1","lat":35.782485,"lon":139.687418},{"name":"真畔公園","province":"東京都","city":"板橋区","address":"東京都板橋区蓮根3丁目9","lat":35.787271,"lon":139.675619},{"name":"三葉児童遊園","province":"東京都","city":"板橋区","address":"東京都板橋区弥生町16","lat":35.752937,"lon":139.695132},{"name":"志村坂上公衆便所","province":"東京都","city":"板橋区","address":"東京都板橋区志村2丁目3","lat":35.776598,"lon":139.694346},{"name":"本町公衆便所","province":"東京都","city":"板橋区","address":"東京都板橋区本町18","lat":35.759605,"lon":139.707794},{"name":"成増駅南口公衆便所","province":"東京都","city":"板橋区","address":"東京都板橋区成増2丁目15","lat":35.777128,"lon":139.632541},{"name":"蓮根三丁目公衆便所","province":"東京都","city":"板橋区","address":"東京都板橋区蓮根3丁目15","lat":35.788835,"lon":139.6772},{"name":"高島平西口公衆便所","province":"東京都","city":"板橋区","address":"東京都板橋区高島平8丁目2","lat":35.789045,"lon":139.66035},{"name":"常盤台駅前公衆便所","province":"東京都","city":"板橋区","address":"東京都板橋区常盤台1丁目1","lat":35.758833,"lon":139.690015},{"name":"板橋区役所前公衆便所","province":"東京都","city":"板橋区","address":"東京都板橋区板橋2丁目66","lat":35.75143,"lon":139.709541},{"name":"やよい防災ひろば","province":"東京都","city":"板橋区","address":"東京都板橋区弥生町82","lat":35.753819,"lon":139.690281},{"name":"大原生涯学習センター","province":"東京都","city":"板橋区","address":"東京都板橋区大原町5-18","lat":35.769664,"lon":139.70018},{"name":"エコポリスセンター","province":"東京都","city":"板橋区","address":"東京都板橋区前野町4丁目6-1","lat":35.769163,"lon":139.688661},{"name":"板橋区立リサイクルプラザ","province":"東京都","city":"板橋区","address":"東京都板橋区舟渡4丁目16-6","lat":35.795662,"lon":139.676159},{"name":"板橋区立リサイクルプラザ","province":"東京都","city":"板橋区","address":"東京都板橋区舟渡4丁目16-6","lat":35.79567,"lon":139.676175},{"name":"板橋区立リサイクルプラザ","province":"東京都","city":"板橋区","address":"東京都板橋区舟渡4丁目16-6","lat":35.795673,"lon":139.676165},{"name":"板橋区立リサイクルプラザ","province":"東京都","city":"板橋区","address":"東京都板橋区舟渡4丁目16-6","lat":35.795639,"lon":139.675954},{"name":"エコポリスセンター","province":"東京都","city":"板橋区","address":"東京都板橋区前野町4丁目6-1","lat":35.769224,"lon":139.688758},{"name":"仲町ふれあい館","province":"東京都","city":"板橋区","address":"東京都板橋区仲町20-5","lat":35.751091,"lon":139.69643},{"name":"西徳児童館","province":"東京都","city":"板橋区","address":"東京都板橋区西台4丁目4-37","lat":35.770158,"lon":139.668142},{"name":"しらさぎ児童館","province":"東京都","city":"板橋区","address":"東京都板橋区成増5丁目19-41","lat":35.788527,"lon":139.636762},{"name":"上板橋健康福祉センター","province":"東京都","city":"板橋区","address":"東京都板橋区桜川3丁目18-6","lat":35.760162,"lon":139.675503},{"name":"志村児童館","province":"東京都","city":"板橋区","address":"東京都板橋区志村2丁目16-11","lat":35.774855,"lon":139.685925},{"name":"赤塚健康福祉センター","province":"東京都","city":"板橋区","address":"東京都板橋区赤塚1丁目10-13","lat":35.772102,"lon":139.647109},{"name":"志村健康福祉センター","province":"東京都","city":"板橋区","address":"東京都板橋区蓮根2丁目5-5","lat":35.781214,"lon":139.677279},{"name":"志村健康福祉センター","province":"東京都","city":"板橋区","address":"東京都板橋区蓮根2丁目5-5","lat":35.781152,"lon":139.677316},{"name":"志村健康福祉センター","province":"東京都","city":"板橋区","address":"東京都板橋区蓮根2丁目5-5","lat":35.781104,"lon":139.677218},{"name":"高島平健康福祉センター","province":"東京都","city":"板橋区","address":"東京都板橋区高島平3丁目13-28","lat":35.788037,"lon":139.659392},{"name":"おとしより保健福祉センター","province":"東京都","city":"板橋区","address":"東京都板橋区前野町4丁目16-1","lat":35.771598,"lon":139.689851},{"name":"障がい者福祉センター","province":"東京都","city":"板橋区","address":"東京都板橋区高島平9丁目25-12","lat":35.790458,"lon":139.668168},{"name":"障がい者福祉センター","province":"東京都","city":"板橋区","address":"東京都板橋区高島平9丁目25-12","lat":35.790462,"lon":139.66817},{"name":"上板橋体育館","province":"東京都","city":"板橋区","address":"東京都板橋区桜川1丁目3-1","lat":35.757088,"lon":139.675679},{"name":"上板橋体育館","province":"東京都","city":"板橋区","address":"東京都板橋区桜川1丁目3-1","lat":35.757271,"lon":139.6758},{"name":"小豆沢体育館","province":"東京都","city":"板橋区","address":"東京都板橋区小豆沢3丁目1","lat":35.778776,"lon":139.698012},{"name":"小豆沢体育館","province":"東京都","city":"板橋区","address":"東京都板橋区小豆沢3丁目1","lat":35.778808,"lon":139.698009},{"name":"小豆沢体育館","province":"東京都","city":"板橋区","address":"東京都板橋区小豆沢3丁目1","lat":35.778808,"lon":139.698005},{"name":"小豆沢体育館","province":"東京都","city":"板橋区","address":"東京都板橋区小豆沢3丁目1","lat":35.778936,"lon":139.697617},{"name":"小豆沢体育館","province":"東京都","city":"板橋区","address":"東京都板橋区小豆沢3丁目1","lat":35.779083,"lon":139.697861},{"name":"小豆沢体育館","province":"東京都","city":"板橋区","address":"東京都板橋区小豆沢3丁目1-1","lat":35.77916,"lon":139.697722},{"name":"赤塚体育館","province":"東京都","city":"板橋区","address":"東京都板橋区赤塚5丁目6-1","lat":35.778017,"lon":139.641691},{"name":"赤塚体育館","province":"東京都","city":"板橋区","address":"東京都板橋区赤塚5丁目6-1","lat":35.778018,"lon":139.641691},{"name":"赤塚体育館","province":"東京都","city":"板橋区","address":"東京都板橋区赤塚5丁目6","lat":35.778271,"lon":139.641871},{"name":"高島平温水プール","province":"東京都","city":"板橋区","address":"東京都板橋区高島平8丁目28-1","lat":35.791519,"lon":139.664073},{"name":"高島平ふれあい館","province":"東京都","city":"板橋区","address":"東京都板橋区高島平8丁目29-1","lat":35.791854,"lon":139.664519},{"name":"中台ふれあい館","province":"東京都","city":"板橋区","address":"東京都板橋区中台2丁目14-1","lat":35.769949,"lon":139.68008},{"name":"中台ふれあい館","province":"東京都","city":"板橋区","address":"東京都板橋区中台2丁目14-1","lat":35.769895,"lon":139.6802014},{"name":"仲町ふれあい館","province":"東京都","city":"板橋区","address":"東京都板橋区仲町20-5","lat":35.751068,"lon":139.696441},{"name":"仲町ふれあい館","province":"東京都","city":"板橋区","address":"東京都板橋区仲町20-5","lat":35.751209,"lon":139.696411},{"name":"仲町ふれあい館","province":"東京都","city":"板橋区","address":"東京都板橋区仲町20-5","lat":35.751164,"lon":139.696195},{"name":"仲宿集会所","province":"東京都","city":"板橋区","address":"東京都板橋区仲宿3-1","lat":35.756279,"lon":139.712438},{"name":"仲町ふれあい館","province":"東京都","city":"板橋区","address":"東京都板橋区仲町20-5","lat":35.751142,"lon":139.696299},{"name":"企業活性化センター","province":"東京都","city":"板橋区","address":"東京都板橋区舟渡1丁目13-10","lat":35.792223,"lon":139.690984},{"name":"旧中丸いこいの家（熊野地域包括支援センター及び中丸集会所）","province":"東京都","city":"板橋区","address":"東京都板橋区中丸町27","lat":35.741066,"lon":139.703291},{"name":"旧中丸いこいの家（熊野地域包括支援センター及び中丸集会所）","province":"東京都","city":"板橋区","address":"東京都板橋区中丸町27-11","lat":35.741077,"lon":139.703307},{"name":"仲宿集会所","province":"東京都","city":"板橋区","address":"東京都板橋区仲宿3-1","lat":35.756259,"lon":139.712479},{"name":"弥生児童館","province":"東京都","city":"板橋区","address":"東京都板橋区弥生町16","lat":35.753122,"lon":139.694831},{"name":"旧板橋いこいの家（ベルネススペース板橋）","province":"東京都","city":"板橋区","address":"東京都板橋区板橋3丁目26-4","lat":35.750453,"lon":139.71358},{"name":"旧板橋いこいの家（ベルネススペース板橋）","province":"東京都","city":"板橋区","address":"東京都板橋区板橋3丁目26-4","lat":35.750422,"lon":139.713682},{"name":"植村記念加賀スポーツセンター","province":"東京都","city":"板橋区","address":"東京都板橋区加賀1丁目10-5","lat":35.753766,"lon":139.715627},{"name":"大山東児童館","province":"東京都","city":"板橋区","address":"東京都板橋区大山東町8-7","lat":35.747574,"lon":139.706258},{"name":"高島平福祉園","province":"東京都","city":"板橋区","address":"東京都板橋区高島平9丁目25-12","lat":35.790474,"lon":139.668172},{"name":"三園福祉園","province":"東京都","city":"板橋区","address":"東京都板橋区三園2丁目9","lat":35.793231,"lon":139.640518},{"name":"徳丸ふれあい館","province":"東京都","city":"板橋区","address":"東京都板橋区徳丸2丁目12-12","lat":35.772004,"lon":139.66014},{"name":"板橋区立ハイライフ プラザ","province":"東京都","city":"板橋区","address":"東京都板橋区板橋1丁目55-16","lat":35.747255,"lon":139.720417},{"name":"富士見地域包括支援センター","province":"東京都","city":"板橋区","address":"東京都板橋区宮本町17","lat":35.763577,"lon":139.703257},{"name":"ウェルネススペース桜川及び桜川地域包括支援センター","province":"東京都","city":"板橋区","address":"東京都板橋区東新町2丁目36-5","lat":35.753798,"lon":139.680298},{"name":"板橋区立志村ふれあい館","province":"東京都","city":"板橋区","address":"東京都板橋区志村3丁目32-6","lat":35.778877,"lon":139.690282},{"name":"板橋区立グリーンカレッジホール","province":"東京都","city":"板橋区","address":"東京都板橋区志村3丁目32-6","lat":35.778973,"lon":139.690305},{"name":"まえのふれあいこども食堂","province":"東京都","city":"板橋区","address":"東京都板橋区前野町2丁目43-15","lat":35.76690619,"lon":139.69032483},{"name":"板橋いずみ教会子ども食堂（ジョイフルクラブ）","province":"東京都","city":"板橋区","address":"東京都板橋区泉町52-6","lat":35.76863128,"lon":139.69969067},{"name":"陽ちゃん家こども食堂","province":"東京都","city":"板橋区","address":"東京都板橋区宮本町6-12","lat":35.76244603,"lon":139.70349062},{"name":"ことぶき子ども食堂","province":"東京都","city":"板橋区","address":"東京都板橋区相生町8-3","lat":35.77656317,"lon":139.68210293},{"name":"南蔵院こども会","province":"東京都","city":"板橋区","address":"東京都板橋区蓮沼町48-8","lat":35.77073383,"lon":139.70160989},{"name":"しむらん通り食堂","province":"東京都","city":"板橋区","address":"東京都板橋区志村1丁目35-15","lat":35.77616906,"lon":139.69405474},{"name":"かもめこども食堂","province":"東京都","city":"板橋区","address":"東京都板橋区東坂下1丁目12-7","lat":35.78199048,"lon":139.69029929},{"name":"いずみの苑コミュニティ弁当","province":"東京都","city":"板橋区","address":"東京都板橋区東坂下2丁目2-22","lat":35.78308199,"lon":139.69001316},{"name":"NPO板橋こども食堂","province":"東京都","city":"板橋区","address":"東京都板橋区蓮根2丁目21-11","lat":35.78285666,"lon":139.67648379},{"name":"さかした子ども食堂","province":"東京都","city":"板橋区","address":"東京都板橋区坂下2丁目22-5","lat":35.78320133,"lon":139.68411362},{"name":"にこにこ食堂","province":"東京都","city":"板橋区","address":"東京都板橋区坂下2丁目1-3","lat":35.78272368,"lon":139.68804944},{"name":"SOMPO流子ども食堂　高島平","province":"東京都","city":"板橋区","address":"東京都板橋区坂下3丁目5-2","lat":35.785165,"lon":139.6847135},{"name":"ごはん塾・にじいろぱーく","province":"東京都","city":"板橋区","address":"東京都板橋区高島平8丁目21-11","lat":35.79075515,"lon":139.66394866},{"name":"SOMPO流こども食堂　新高島平","province":"東京都","city":"板橋区","address":"東京都板橋区高島平7丁目17-9","lat":35.79133263,"lon":139.65537995},{"name":"まいにちおいで子ども食堂","province":"東京都","city":"板橋区","address":"東京都板橋区高島平7丁目23-21","lat":35.7908217,"lon":139.66045176},{"name":"リル・インフィニティ〈子ども食堂〉","province":"東京都","city":"板橋区","address":"東京都板橋区南常盤台1丁目18-5","lat":35.75687679,"lon":139.6888226},{"name":"ブランチCAF? in まもりん坊","province":"東京都","city":"板橋区","address":"東京都板橋区上板橋2丁目30-2","lat":35.76229793,"lon":139.67435139},{"name":"SOMPO流子ども食堂　ときわ台南","province":"東京都","city":"板橋区","address":"東京都板橋区東新町1丁目29-6","lat":35.75703764,"lon":139.68144542},{"name":"こども食堂ｂｙハーブ＆おいしい野菜塾","province":"東京都","city":"板橋区","address":"東京都板橋区西台2丁目12-12","lat":35.78035126,"lon":139.67099827},{"name":"長秀龍子ども食堂","province":"東京都","city":"板橋区","address":"東京都板橋区南常盤台1丁目20-4","lat":35.7565241,"lon":139.6898392},{"name":"寺子屋学園こども食堂","province":"東京都","city":"板橋区","address":"東京都板橋区常盤台2丁目15-9","lat":35.76136793,"lon":139.68968064},{"name":"西徳げんき食堂","province":"東京都","city":"板橋区","address":"東京都板橋区西台4丁目8-13","lat":35.77234384,"lon":139.66901538},{"name":"こども食堂　良ちゃん","province":"東京都","city":"板橋区","address":"東京都板橋区常盤台4丁目33-3","lat":35.76392557,"lon":139.67633725},{"name":"SOMPO流子ども食堂 ときわ台","province":"東京都","city":"板橋区","address":"東京都板橋区前野町2丁目18-3","lat":35.7649813,"lon":139.68694182},{"name":"「上二テラス」ランチタイム","province":"東京都","city":"板橋区","address":"東京都板橋区向原3丁目1-12","lat":35.74417819,"lon":139.6855318},{"name":"ななテラスこども食堂","province":"東京都","city":"板橋区","address":"東京都板橋区向原3丁目7-7","lat":35.7465251,"lon":139.68421513},{"name":"SOMPO流こども食堂　若木","province":"東京都","city":"板橋区","address":"東京都板橋区若木3丁目3-1","lat":35.77365225,"lon":139.67728125},{"name":"SOMPO流子ども食堂　奈美木成増","province":"東京都","city":"板橋区","address":"東京都板橋区赤塚3丁目13-1","lat":35.77897296,"lon":139.63954549},{"name":"SOMPO流子ども食堂　赤塚公園","province":"東京都","city":"板橋区","address":"東京都板橋区大門7-5","lat":35.78333099,"lon":139.64862789},{"name":"SOMPO流子ども食堂","province":"東京都","city":"板橋区","address":"東京都板橋区徳丸6丁目1-11","lat":35.77657377,"lon":139.66411013},{"name":"福まね嬉　こども食堂","province":"東京都","city":"板橋区","address":"東京都板橋区徳丸3丁目29-2","lat":35.77245185,"lon":139.65623043},{"name":"カフェひびき（誰でも食堂）","province":"東京都","city":"板橋区","address":"東京都板橋区徳丸6丁目13-18","lat":35.77790959,"lon":139.65914942},{"name":"SOMPOの子ども食堂","province":"東京都","city":"板橋区","address":"東京都板橋区赤塚新町2丁目7-16","lat":35.77214322,"lon":139.63940686},{"name":"くじらハウス赤塚こども食堂","province":"東京都","city":"板橋区","address":"東京都板橋区赤塚7丁目26-7","lat":35.77879265,"lon":139.64860305},{"name":"こども食堂　ニクビッタ","province":"東京都","city":"板橋区","address":"東京都板橋区徳丸1丁目7-12","lat":35.7684775,"lon":139.66417154},{"name":"ゆとりんぼ","province":"東京都","city":"板橋区","address":"東京都板橋区徳丸1丁目7-12","lat":35.7684775,"lon":139.66417154},{"name":"あったかごはんの会","province":"東京都","city":"板橋区","address":"東京都板橋区成増1丁目12-4","lat":35.7747122,"lon":139.632674},{"name":"子ども食堂　たんぽぽ","province":"東京都","city":"板橋区","address":"東京都板橋区成増4丁目14-18","lat":35.78327223,"lon":139.63534852},{"name":"SOMPO流子ども食堂　板橋三園","province":"東京都","city":"板橋区","address":"東京都板橋区三園2丁目12-14","lat":35.79587877,"lon":139.64304484},{"name":"SOMPO流子ども食堂　板橋仲宿","province":"東京都","city":"板橋区","address":"東京都板橋区仲宿50-1","lat":35.75705795,"lon":139.70863765},{"name":"みんなの食堂　フラワー","province":"東京都","city":"板橋区","address":"東京都板橋区大山東町25-12","lat":35.74915324,"lon":139.70618543},{"name":"親子ひろば","province":"東京都","city":"板橋区","address":"東京都板橋区大谷口上町1-3","lat":35.74976121,"lon":139.69509745},{"name":"にっこりキッチン！","province":"東京都","city":"板橋区","address":"東京都板橋区富士見町17-15","lat":35.76142102,"lon":139.69848829},{"name":"りんごのたね","province":"東京都","city":"板橋区","address":"東京都板橋区富士見町3-1","lat":35.76096004,"lon":139.70108533},{"name":"こども食堂　よかや","province":"東京都","city":"板橋区","address":"東京都板橋区板橋1丁目31-8","lat":35.74766755,"lon":139.71610132},{"name":"ノンナの家","province":"東京都","city":"板橋区","address":"東京都板橋区板橋4丁目53-2","lat":35.75228096,"lon":139.71834817},{"name":"大山こども食堂・みんなの広場","province":"東京都","city":"板橋区","address":"東京都板橋区大山金井町48-2","lat":35.74555077,"lon":139.70229423},{"name":"ハッピー大山子ども食堂","province":"東京都","city":"板橋区","address":"東京都板橋区大山町40-5","lat":35.74893641,"lon":139.69878051},{"name":"子ども食堂 鶏のから騒ぎ","province":"東京都","city":"板橋区","address":"東京都板橋区弥生町31-15","lat":35.75530502,"lon":139.69531385},{"name":"地域のみなぱ食堂","province":"東京都","city":"板橋区","address":"東京都板橋区弥生町58-1","lat":35.75503824,"lon":139.69163914},{"name":"板橋トラックターミナル","province":"東京都","city":"板橋区","address":"東京都板橋区高島平6丁目1-1","lat":35.79228232,"lon":139.64660566},{"name":"＊?郷土芸能伝承館","province":"東京都","city":"板橋区","address":"板橋区徳丸6-29-13","lat":35.778365,"lon":139.660649},{"name":"＊?成増アートギャラリー","province":"東京都","city":"板橋区","address":"板橋区成増3-13-1","lat":35.778846,"lon":139.63236},{"name":"東京都板橋四ツ又駐車場","province":"東京都","city":"板橋区","address":"東京都板橋区板橋2丁目","lat":35.74808686,"lon":139.71301545},{"name":"板橋都税事務所","province":"東京都","city":"板橋区","address":"東京都板橋区大山東町44-8","lat":35.749488,"lon":139.706298},{"name":"地方独立行政法人東京都立病院機構　東京都立豊島病院","province":"東京都","city":"板橋区","address":"東京都板橋区栄町33-1","lat":35.75282,"lon":139.701144},{"name":"東京都立中央・城北職業能力開発センター板橋校","province":"東京都","city":"板橋区","address":"東京都板橋区舟渡2丁目2","lat":35.793465,"lon":139.691175},{"name":"東京都立中央・城北職業能力開発センター板橋校","province":"東京都","city":"板橋区","address":"東京都板橋区舟渡2丁目2-1","lat":35.793645,"lon":139.69128},{"name":"赤塚公園","province":"東京都","city":"板橋区","address":"東京都板橋区高島平3丁目1","lat":35.785485,"lon":139.657546},{"name":"赤塚公園","province":"東京都","city":"板橋区","address":"東京都板橋区高島平3丁目1","lat":35.784919,"lon":139.655738},{"name":"赤塚公園","province":"東京都","city":"板橋区","address":"東京都板橋区徳丸7丁目4","lat":35.780889,"lon":139.662961},{"name":"赤塚公園","province":"東京都","city":"板橋区","address":"東京都板橋区徳丸8丁目23","lat":35.783692,"lon":139.654381},{"name":"浮間公園","province":"東京都","city":"板橋区","address":"東京都板橋区舟渡2丁目15","lat":35.795026,"lon":139.693107},{"name":"浮間公園","province":"東京都","city":"板橋区","address":"東京都板橋区舟渡2丁目14","lat":35.794044,"lon":139.692809},{"name":"城北中央公園","province":"東京都","city":"板橋区","address":"東京都板橋区桜川1丁目1","lat":35.75523,"lon":139.676194},{"name":"都営三田線板橋区役所前駅","province":"東京都","city":"板橋区","address":"東京都板橋区板橋2丁目66-17","lat":35.751417,"lon":139.709611},{"name":"都営三田線駅新板橋駅","province":"東京都","city":"板橋区","address":"東京都板橋区板橋4丁目4","lat":35.748903,"lon":139.718899},{"name":"都営三田線板橋本町駅","province":"東京都","city":"板橋区","address":"東京都板橋区本町37","lat":35.760976,"lon":139.70557},{"name":"都営三田線板橋区役所前駅","province":"東京都","city":"板橋区","address":"東京都板橋区仲宿65","lat":35.751729,"lon":139.709692},{"name":"都営三田線本蓮沼駅","province":"東京都","city":"板橋区","address":"東京都板橋区蓮沼町19","lat":35.768619,"lon":139.702566},{"name":"都営三田線志村坂上駅","province":"東京都","city":"板橋区","address":"東京都板橋区小豆沢3丁目6","lat":35.776491,"lon":139.694684},{"name":"都営三田線志村三丁目駅","province":"東京都","city":"板橋区","address":"東京都板橋区志村3丁目23","lat":35.777481,"lon":139.685926},{"name":"都営三田線蓮根駅","province":"東京都","city":"板橋区","address":"東京都板橋区蓮根2丁目31","lat":35.784082,"lon":139.678967},{"name":"都営三田線西台駅","province":"東京都","city":"板橋区","address":"東京都板橋区高島平9丁目1","lat":35.786996,"lon":139.673632},{"name":"都営三田線高島平駅","province":"東京都","city":"板橋区","address":"東京都板橋区高島平8丁目2","lat":35.788993,"lon":139.661438},{"name":"都営三田線新高島平駅","province":"東京都","city":"板橋区","address":"東京都板橋区高島平7丁目1","lat":35.790222,"lon":139.654559},{"name":"都営三田線西高島平駅","province":"東京都","city":"板橋区","address":"東京都板橋区高島平6丁目1-1","lat":35.791914,"lon":139.645942},{"name":"東京都水道局板橋営業所","province":"東京都","city":"板橋区","address":"東京都板橋区氷川町3-6","lat":35.751704,"lon":139.707233},{"name":"志村消防署高島平出張所","province":"東京都","city":"板橋区","address":"東京都板橋区高島平3丁目12-10","lat":35.786199,"lon":139.658018},{"name":"郷土資料館","province":"東京都","city":"板橋区","address":"東京都板橋区赤塚5丁目35-25","lat":35.785487,"lon":139.6431},{"name":"板橋区役所本庁舎","province":"東京都","city":"板橋区","address":"東京都板橋区板橋2丁目66-1","lat":35.751064,"lon":139.70904},{"name":"板橋区役所本庁舎","province":"東京都","city":"板橋区","address":"東京都板橋区板橋2丁目66-1","lat":35.751026,"lon":139.709036},{"name":"板橋区役所本庁舎","province":"東京都","city":"板橋区","address":"東京都板橋区板橋2丁目66-1","lat":35.751067,"lon":139.709041},{"name":"板橋区役所本庁舎","province":"東京都","city":"板橋区","address":"東京都板橋区板橋2丁目66-1","lat":35.750869,"lon":139.708988},{"name":"板橋区役所本庁舎","province":"東京都","city":"板橋区","address":"東京都板橋区板橋2丁目66-1","lat":35.751189,"lon":139.709061},{"name":"板橋区役所本庁舎","province":"東京都","city":"板橋区","address":"東京都板橋区板橋2丁目66-1","lat":35.75087,"lon":139.708987},{"name":"板橋区役所本庁舎","province":"東京都","city":"板橋区","address":"東京都板橋区板橋2丁目66-1","lat":35.75087,"lon":139.708986},{"name":"板橋区役所本庁舎","province":"東京都","city":"板橋区","address":"東京都板橋区板橋2丁目66-1","lat":35.75119,"lon":139.709059},{"name":"板橋区役所本庁舎","province":"東京都","city":"板橋区","address":"東京都板橋区板橋2丁目66-1","lat":35.750869,"lon":139.708984},{"name":"板橋区役所本庁舎","province":"東京都","city":"板橋区","address":"東京都板橋区板橋2丁目66-1","lat":35.751192,"lon":139.709058},{"name":"板橋区役所本庁舎","province":"東京都","city":"板橋区","address":"東京都板橋区板橋2丁目66-1","lat":35.751189,"lon":139.709056},{"name":"板橋区役所本庁舎","province":"東京都","city":"板橋区","address":"東京都板橋区板橋2丁目66-1","lat":35.751187,"lon":139.709058},{"name":"板橋区役所本庁舎","province":"東京都","city":"板橋区","address":"東京都板橋区板橋2丁目66-1","lat":35.75119,"lon":139.709061},{"name":"板橋区役所本庁舎","province":"東京都","city":"板橋区","address":"東京都板橋区板橋2丁目66-1","lat":35.751192,"lon":139.709059},{"name":"赤塚支所","province":"東京都","city":"板橋区","address":"東京都板橋区赤塚6丁目38-1","lat":35.778633,"lon":139.644744},{"name":"赤塚支所","province":"東京都","city":"板橋区","address":"東京都板橋区赤塚6丁目38-1","lat":35.778629,"lon":139.644736},{"name":"赤塚支所","province":"東京都","city":"板橋区","address":"東京都板橋区赤塚6丁目38-1","lat":35.778628,"lon":139.644734},{"name":"赤塚支所","province":"東京都","city":"板橋区","address":"東京都板橋区赤塚6丁目38-1","lat":35.778715,"lon":139.644787},{"name":"常盤台区民事務所","province":"東京都","city":"板橋区","address":"東京都板橋区常盤台3丁目27","lat":35.761329,"lon":139.682337},{"name":"志村福祉事務所","province":"東京都","city":"板橋区","address":"東京都板橋区蓮根2丁目28-1","lat":35.785305,"lon":139.675158},{"name":"情報処理センター","province":"東京都","city":"板橋区","address":"東京都板橋区板橋2丁目65-6","lat":35.750018,"lon":139.708859},{"name":"情報処理センター","province":"東京都","city":"板橋区","address":"東京都板橋区板橋2丁目65-6","lat":35.750018,"lon":139.708864},{"name":"情報処理センター","province":"東京都","city":"板橋区","address":"東京都板橋区板橋2丁目65-6","lat":35.750021,"lon":139.70886},{"name":"情報処理センター","province":"東京都","city":"板橋区","address":"東京都板橋区板橋2丁目65-6","lat":35.750022,"lon":139.708865},{"name":"情報処理センター","province":"東京都","city":"板橋区","address":"東京都板橋区板橋2丁目65-6","lat":35.750017,"lon":139.708862},{"name":"情報処理センター","province":"東京都","city":"板橋区","address":"東京都板橋区板橋2丁目65-6","lat":35.750021,"lon":139.708858},{"name":"情報処理センター","province":"東京都","city":"板橋区","address":"東京都板橋区板橋2丁目65-6","lat":35.750018,"lon":139.708865},{"name":"四葉集会所","province":"東京都","city":"板橋区","address":"東京都板橋区四葉2丁目9-16","lat":35.781021,"lon":139.651761},{"name":"見次公園内集会所","province":"東京都","city":"板橋区","address":"東京都板橋区前野町4丁目59-1","lat":35.773371,"lon":139.693523},{"name":"中台二丁目集会所","province":"東京都","city":"板橋区","address":"東京都板橋区中台2丁目43-20","lat":35.773533,"lon":139.682624},{"name":"清水町第二集会所","province":"東京都","city":"板橋区","address":"東京都板橋区清水町72","lat":35.765392,"lon":139.704702},{"name":"高島平地域センター","province":"東京都","city":"板橋区","address":"東京都板橋区高島平3丁目12-28","lat":35.786978,"lon":139.658956},{"name":"高島平地域センター","province":"東京都","city":"板橋区","address":"東京都板橋区高島平3丁目12-28","lat":35.786958,"lon":139.658785},{"name":"桜川地域センター","province":"東京都","city":"板橋区","address":"東京都板橋区東新町2丁目45-6","lat":35.752421,"lon":139.681841},{"name":"志村坂上地域センター","province":"東京都","city":"板橋区","address":"東京都板橋区小豆沢2丁目19-15","lat":35.776461,"lon":139.696011},{"name":"清水地域センター","province":"東京都","city":"板橋区","address":"東京都板橋区泉町16-16","lat":35.766428,"lon":139.702103},{"name":"清水地域センター","province":"東京都","city":"板橋区","address":"東京都板橋区泉町16-16","lat":35.766457,"lon":139.702154},{"name":"清水地域センター","province":"東京都","city":"板橋区","address":"東京都板橋区泉町16-16","lat":35.766381,"lon":139.702098},{"name":"清水地域センター","province":"東京都","city":"板橋区","address":"東京都板橋区泉町16-16","lat":35.766421,"lon":139.702044},{"name":"仲宿地域センター","province":"東京都","city":"板橋区","address":"東京都板橋区氷川町12-10","lat":35.753891,"lon":139.707211},{"name":"仲宿地域センター","province":"東京都","city":"板橋区","address":"東京都板橋区氷川町12-10","lat":35.753978,"lon":139.707146},{"name":"仲宿地域センター","province":"東京都","city":"板橋区","address":"東京都板橋区氷川町12-10","lat":35.753901,"lon":139.707159},{"name":"富士見地域センター","province":"東京都","city":"板橋区","address":"東京都板橋区富士見町3-1","lat":35.760773,"lon":139.700398},{"name":"板橋区保健所","province":"東京都","city":"板橋区","address":"東京都板橋区大山東町32-15","lat":35.750596,"lon":139.708152},{"name":"板橋区保健所","province":"東京都","city":"板橋区","address":"東京都板橋区大山東町32","lat":35.750549,"lon":139.707999},{"name":"高島平図書館","province":"東京都","city":"板橋区","address":"東京都板橋区高島平3丁目13-1","lat":35.787531,"lon":139.658997},{"name":"高島平図書館","province":"東京都","city":"板橋区","address":"東京都板橋区高島平3丁目13-1","lat":35.787492,"lon":139.658982},{"name":"氷川図書館","province":"東京都","city":"板橋区","address":"東京都板橋区氷川町28-9","lat":35.753112,"lon":139.704723},{"name":"蓮根図書館","province":"東京都","city":"板橋区","address":"東京都板橋区蓮根3丁目15-1","lat":35.788556,"lon":139.676386},{"name":"東板橋図書館","province":"東京都","city":"板橋区","address":"東京都板橋区加賀1丁目10-15","lat":35.754382,"lon":139.715763},{"name":"東板橋図書館","province":"東京都","city":"板橋区","address":"東京都板橋区加賀1丁目10-15","lat":35.754401,"lon":139.71579},{"name":"成増図書館","province":"東京都","city":"板橋区","address":"東京都板橋区成増3丁目13-1","lat":35.7786,"lon":139.632242},{"name":"志村図書館","province":"東京都","city":"板橋区","address":"東京都板橋区小豆沢1丁目8-1","lat":35.773182,"lon":139.700047},{"name":"西台図書館","province":"東京都","city":"板橋区","address":"東京都板橋区西台3丁目13-2","lat":35.773996,"lon":139.668893},{"name":"小茂根図書館","province":"東京都","city":"板橋区","address":"東京都板橋区小茂根1丁目5-2","lat":35.745575,"lon":139.680874},{"name":"中央図書館（いたばしボローニャ絵本館併設）","province":"東京都","city":"板橋区","address":"東京都板橋区常盤台4丁目3-1","lat":35.762884,"lon":139.681526},{"name":"教育科学館","province":"東京都","city":"板橋区","address":"東京都板橋区常盤台4丁目14-1","lat":35.763462,"lon":139.679604},{"name":"教育科学館","province":"東京都","city":"板橋区","address":"東京都板橋区常盤台4丁目14","lat":35.763452,"lon":139.679425},{"name":"溝下東公園","province":"東京都","city":"板橋区","address":"東京都板橋区三園1丁目49","lat":35.791733,"lon":139.641856},{"name":"熱帯環境植物館","province":"東京都","city":"板橋区","address":"東京都板橋区高島平8丁目29-2","lat":35.792046,"lon":139.663983},{"name":"熱帯環境植物館","province":"東京都","city":"板橋区","address":"東京都板橋区高島平8丁目29-2","lat":35.792012,"lon":139.663915},{"name":"美術館","province":"東京都","city":"板橋区","address":"東京都板橋区赤塚5丁目34-27","lat":35.784219,"lon":139.644536},{"name":"前野ホール","province":"東京都","city":"板橋区","address":"東京都板橋区前野町2丁目43","lat":35.766998,"lon":139.690257},{"name":"前野ホール","province":"東京都","city":"板橋区","address":"東京都板橋区前野町2丁目43-15","lat":35.76699,"lon":139.690325},{"name":"舟渡ホール","province":"東京都","city":"板橋区","address":"東京都板橋区舟渡1丁目14-5","lat":35.792138,"lon":139.689964},{"name":"区立グリーンホール","province":"東京都","city":"板橋区","address":"東京都板橋区栄町36-1","lat":35.750811,"lon":139.705233},{"name":"区立グリーンホール","province":"東京都","city":"板橋区","address":"東京都板橋区栄町36-1","lat":35.750806,"lon":139.705223},{"name":"区立グリーンホール","province":"東京都","city":"板橋区","address":"東京都板橋区栄町36-1","lat":35.75081,"lon":139.705232},{"name":"区立グリーンホール","province":"東京都","city":"板橋区","address":"東京都板橋区栄町36-1","lat":35.750811,"lon":139.705234},{"name":"区立グリーンホール","province":"東京都","city":"板橋区","address":"東京都板橋区栄町36-1","lat":35.750812,"lon":139.705234},{"name":"区立文化会館","province":"東京都","city":"板橋区","address":"東京都板橋区大山東町51-1","lat":35.749485,"lon":139.704656},{"name":"三丁目青空公園","province":"東京都","city":"板橋区","address":"東京都板橋区小茂根3丁目14","lat":35.749942,"lon":139.679905},{"name":"四葉二丁目公園","province":"東京都","city":"板橋区","address":"東京都板橋区四葉2丁目9","lat":35.781129,"lon":139.651715},{"name":"東原公園","province":"東京都","city":"板橋区","address":"東京都板橋区小豆沢1丁目20","lat":35.77581,"lon":139.701842},{"name":"東坂下二丁目公園","province":"東京都","city":"板橋区","address":"東京都板橋区東坂下2丁目9","lat":35.78481,"lon":139.687775},{"name":"東板橋公園","province":"東京都","city":"板橋区","address":"東京都板橋区板橋3丁目50","lat":35.754505,"lon":139.712794},{"name":"親和児童遊園","province":"東京都","city":"板橋区","address":"東京都板橋区志村3丁目20-25","lat":35.77757,"lon":139.684461},{"name":"城北公園(管理棟併設)","province":"東京都","city":"板橋区","address":"東京都板橋区坂下2丁目19-1","lat":35.783655,"lon":139.68168},{"name":"志村第二公園","province":"東京都","city":"板橋区","address":"東京都板橋区前野町5丁目56","lat":35.774543,"lon":139.683997},{"name":"志村第三公園","province":"東京都","city":"板橋区","address":"東京都板橋区志村1丁目21","lat":35.775219,"lon":139.692648},{"name":"富士見街道にぎわい広場","province":"東京都","city":"板橋区","address":"東京都板橋区前野町1丁目7","lat":35.76315,"lon":139.695277},{"name":"富士見西児童遊園","province":"東京都","city":"板橋区","address":"東京都板橋区富士見町24","lat":35.758995,"lon":139.694988},{"name":"坂下三丁目緑地","province":"東京都","city":"板橋区","address":"東京都板橋区坂下3丁目9","lat":35.785207,"lon":139.681978},{"name":"坂下一丁目公園","province":"東京都","city":"板橋区","address":"東京都板橋区坂下1丁目36","lat":35.780184,"lon":139.683119},{"name":"小茂根四丁目公園","province":"東京都","city":"板橋区","address":"東京都板橋区小茂根4丁目16","lat":35.748948,"lon":139.676218},{"name":"紅梅公園","province":"東京都","city":"板橋区","address":"東京都板橋区徳丸8丁目5","lat":35.78079,"lon":139.654664},{"name":"けやきの公園","province":"東京都","city":"板橋区","address":"東京都板橋区前野町1丁目48","lat":35.764473,"lon":139.692354},{"name":"熊野町公園","province":"東京都","city":"板橋区","address":"東京都板橋区熊野町23","lat":35.74385,"lon":139.706867},{"name":"志村城山公園","province":"東京都","city":"板橋区","address":"東京都板橋区志村2丁目17","lat":35.776905,"lon":139.687455},{"name":"若木公園","province":"東京都","city":"板橋区","address":"東京都板橋区若木2丁目29","lat":35.770275,"lon":139.669772},{"name":"ゆりの木公衆便所","province":"東京都","city":"板橋区","address":"東京都板橋区赤塚新町3丁目32","lat":35.76996,"lon":139.639117},{"name":"成増公園","province":"東京都","city":"板橋区","address":"東京都板橋区成増3丁目4","lat":35.777907,"lon":139.633962},{"name":"本蓮沼駅前いずみ公園","province":"東京都","city":"板橋区","address":"東京都板橋区泉町5","lat":35.768028,"lon":139.702229},{"name":"向原公園","province":"東京都","city":"板橋区","address":"東京都板橋区向原2丁目29","lat":35.74006,"lon":139.681331},{"name":"向口公園","province":"東京都","city":"板橋区","address":"東京都板橋区四葉2丁目29-5","lat":35.782215,"lon":139.653746},{"name":"宮本公園","province":"東京都","city":"板橋区","address":"東京都板橋区宮本町38","lat":35.763607,"lon":139.697577},{"name":"南ときわ台公園","province":"東京都","city":"板橋区","address":"東京都板橋区南常盤台2丁目8","lat":35.756639,"lon":139.68635},{"name":"緑ケ丘第三公園","province":"東京都","city":"板橋区","address":"東京都板橋区桜川3丁目9","lat":35.760834,"lon":139.672869},{"name":"見次公園","province":"東京都","city":"板橋区","address":"東京都板橋区前野町4丁目59-1","lat":35.773411,"lon":139.693563},{"name":"溝下公園","province":"東京都","city":"板橋区","address":"東京都板橋区三園1丁目41","lat":35.790893,"lon":139.639722},{"name":"前野公園","province":"東京都","city":"板橋区","address":"東京都板橋区前野町5丁目1","lat":35.768889,"lon":139.687294},{"name":"舟渡水辺公園","province":"東京都","city":"板橋区","address":"東京都板橋区舟渡4丁目4","lat":35.792686,"lon":139.673076},{"name":"双葉町ひだまり公園","province":"東京都","city":"板橋区","address":"東京都板橋区双葉町18","lat":35.757376,"lon":139.699196},{"name":"宮前公園","province":"東京都","city":"板橋区","address":"東京都板橋区赤塚4丁目16","lat":35.783541,"lon":139.639006},{"name":"水車公園","province":"東京都","city":"板橋区","address":"東京都板橋区四葉1丁目17","lat":35.777658,"lon":139.65246},{"name":"小豆沢公園(環八沿線南側)","province":"東京都","city":"板橋区","address":"東京都板橋区小豆沢4丁目20","lat":35.78087,"lon":139.698682},{"name":"小豆沢公園(河岸広場)","province":"東京都","city":"板橋区","address":"東京都板橋区小豆沢4丁目28","lat":35.781582,"lon":139.698645},{"name":"小豆沢公園(グランド南)","province":"東京都","city":"板橋区","address":"東京都板橋区小豆沢3丁目8","lat":35.778347,"lon":139.69639},{"name":"赤塚四丁目公園","province":"東京都","city":"板橋区","address":"東京都板橋区赤塚4丁目31","lat":35.785751,"lon":139.640669},{"name":"赤塚溜池公園","province":"東京都","city":"板橋区","address":"東京都板橋区赤塚5丁目35","lat":35.785746,"lon":139.643929},{"name":"赤塚新町公園","province":"東京都","city":"板橋区","address":"東京都板橋区赤塚新町3丁目35","lat":35.770259,"lon":139.637986},{"name":"赤塚しのがやと公園","province":"東京都","city":"板橋区","address":"東京都板橋区赤塚6丁目30","lat":35.77694,"lon":139.644134},{"name":"西台公園","province":"東京都","city":"板橋区","address":"東京都板橋区西台1丁目23","lat":35.774163,"lon":139.672523},{"name":"高島平五丁目第二公園","province":"東京都","city":"板橋区","address":"東京都板橋区高島平5丁目24","lat":35.78979,"lon":139.645084},{"name":"蓮根川緑道","province":"東京都","city":"板橋区","address":"東京都板橋区蓮根3丁目3","lat":35.786627,"lon":139.678303},{"name":"大門みはらし台公園","province":"東京都","city":"板橋区","address":"東京都板橋区大門6","lat":35.783583,"lon":139.647057},{"name":"成増児童遊園","province":"東京都","city":"板橋区","address":"東京都板橋区成増2丁目24","lat":35.779255,"lon":139.629567},{"name":"上赤塚公園","province":"東京都","city":"板橋区","address":"東京都板橋区赤塚3丁目40","lat":35.781494,"lon":139.637174},{"name":"西台三丁目公園","province":"東京都","city":"板橋区","address":"東京都板橋区西台3丁目19","lat":35.774011,"lon":139.669354},{"name":"西徳第二公園","province":"東京都","city":"板橋区","address":"東京都板橋区西台3丁目42","lat":35.776188,"lon":139.667019},{"name":"成増うめの里公園","province":"東京都","city":"板橋区","address":"東京都板橋区成増5丁目3","lat":35.783526,"lon":139.630919},{"name":"蓮根三丁目公園","province":"東京都","city":"板橋区","address":"東京都板橋区蓮根3丁目15","lat":35.788933,"lon":139.678405},{"name":"西台中央通り公園","province":"東京都","city":"板橋区","address":"東京都板橋区西台4丁目4","lat":35.770334,"lon":139.667413},{"name":"常盤台公園(身障者用付き)","province":"東京都","city":"板橋区","address":"東京都板橋区常盤台1丁目13","lat":35.760604,"lon":139.691567},{"name":"高島平七丁目第二公園","province":"東京都","city":"板橋区","address":"東京都板橋区高島平7丁目33","lat":35.792143,"lon":139.655146},{"name":"高島平緑地(西台駅寄り)","province":"東京都","city":"板橋区","address":"東京都板橋区高島平9丁目1","lat":35.787121,"lon":139.670358},{"name":"高島平緑地(前谷津川側)","province":"東京都","city":"板橋区","address":"東京都板橋区高島平2丁目34","lat":35.788144,"lon":139.661882},{"name":"成増北第一公園","province":"東京都","city":"板橋区","address":"東京都板橋区成増5丁目19","lat":35.788764,"lon":139.635839},{"name":"高島平五丁目公園","province":"東京都","city":"板橋区","address":"東京都板橋区高島平5丁目4","lat":35.787084,"lon":139.646162},{"name":"徳石公園","province":"東京都","city":"板橋区","address":"東京都板橋区徳丸5丁目10-16","lat":35.776531,"lon":139.659002},{"name":"徳丸ケ丘公園","province":"東京都","city":"板橋区","address":"東京都板橋区徳丸6丁目27","lat":35.778758,"lon":139.661782},{"name":"徳丸ケ原公園","province":"東京都","city":"板橋区","address":"東京都板橋区高島平8丁目24-1","lat":35.791506,"lon":139.661341},{"name":"徳丸橋公園","province":"東京都","city":"板橋区","address":"東京都板橋区新河岸1丁目3","lat":35.794845,"lon":139.664143},{"name":"どんぐり山公園","province":"東京都","city":"板橋区","address":"東京都板橋区中台1丁目19","lat":35.767923,"lon":139.680622},{"name":"中台公園","province":"東京都","city":"板橋区","address":"東京都板橋区中台3丁目9","lat":35.769455,"lon":139.678346},{"name":"高島平緑地(高島平駅前)","province":"東京都","city":"板橋区","address":"東京都板橋区高島平2丁目34","lat":35.787556,"lon":139.664238},{"name":"加賀第二公園","province":"東京都","city":"板橋区","address":"東京都板橋区加賀1丁目16","lat":35.755279,"lon":139.718159},{"name":"大谷口北町宮ノ下公園","province":"東京都","city":"板橋区","address":"東京都板橋区大谷口北町79","lat":35.749053,"lon":139.686387},{"name":"大谷口北町公園","province":"東京都","city":"板橋区","address":"東京都板橋区大谷口北町87","lat":35.751076,"lon":139.685938},{"name":"大谷口児童遊園","province":"東京都","city":"板橋区","address":"東京都板橋区大谷口北町21","lat":35.750581,"lon":139.691077},{"name":"加賀公園","province":"東京都","city":"板橋区","address":"東京都板橋区加賀1丁目8","lat":35.752659,"lon":139.720517},{"name":"大原第二公園","province":"東京都","city":"板橋区","address":"東京都板橋区大原町27","lat":35.768231,"lon":139.698019},{"name":"板谷公園","province":"東京都","city":"板橋区","address":"東京都板橋区板橋4丁目55","lat":35.752986,"lon":139.718136},{"name":"板橋公園(公園中央)","province":"東京都","city":"板橋区","address":"東京都板橋区大山西町21","lat":35.745896,"lon":139.695341},{"name":"板橋駅前公園","province":"東京都","city":"板橋区","address":"東京都板橋区板橋1丁目23","lat":35.747402,"lon":139.718164},{"name":"板橋区平和公園","province":"東京都","city":"板橋区","address":"東京都板橋区常盤台4丁目3","lat":35.763397,"lon":139.681436},{"name":"大谷口一丁目4番遊び場","province":"東京都","city":"板橋区","address":"東京都板橋区大谷口1丁目4","lat":35.74605,"lon":139.691146},{"name":"石成公園","province":"東京都","city":"板橋区","address":"東京都板橋区赤塚4丁目7","lat":35.781701,"lon":139.639655},{"name":"徳丸三ツ和公園","province":"東京都","city":"板橋区","address":"東京都板橋区徳丸5丁目32","lat":35.778953,"lon":139.656396},{"name":"日暮台公園","province":"東京都","city":"板橋区","address":"東京都板橋区前野町5丁目20","lat":35.770804,"lon":139.684519},{"name":"板橋東いこいの森","province":"東京都","city":"板橋区","address":"東京都板橋区板橋4丁目45","lat":35.751274,"lon":139.722384},{"name":"えび山広場","province":"東京都","city":"板橋区","address":"東京都板橋区大谷口上町4","lat":35.750021,"lon":139.694941},{"name":"大谷口上町公園","province":"東京都","city":"板橋区","address":"東京都板橋区大谷口上町50","lat":35.747357,"lon":139.691524},{"name":"さくらづつみ児童遊園","province":"東京都","city":"板橋区","address":"東京都板橋区大谷口北町14","lat":35.752386,"lon":139.690068},{"name":"緑ケ丘第一公園","province":"東京都","city":"板橋区","address":"東京都板橋区東新町1丁目27","lat":35.756972,"lon":139.681182},{"name":"南板橋公園","province":"東京都","city":"板橋区","address":"東京都板橋区板橋1丁目39","lat":35.74821,"lon":139.714583},{"name":"赤塚植物園","province":"東京都","city":"板橋区","address":"東京都板橋区赤塚5丁目17-14","lat":35.780894,"lon":139.644397},{"name":"赤塚六丁目公園","province":"東京都","city":"板橋区","address":"東京都板橋区赤塚6丁目4","lat":35.773624,"lon":139.645338},{"name":"徳丸二丁目第二児童遊園","province":"東京都","city":"板橋区","address":"東京都板橋区徳丸2丁目16","lat":35.773075,"lon":139.660567},{"name":"高島平一丁目公園","province":"東京都","city":"板橋区","address":"東京都板橋区高島平1丁目23","lat":35.782557,"lon":139.671617},{"name":"成増生涯学習センター","province":"東京都","city":"板橋区","address":"東京都板橋区成増1丁目12-4","lat":35.774622,"lon":139.632777},{"name":"坂下二丁目公園","province":"東京都","city":"板橋区","address":"東京都板橋区坂下2丁目1","lat":35.782485,"lon":139.687418},{"name":"真畔公園","province":"東京都","city":"板橋区","address":"東京都板橋区蓮根3丁目9","lat":35.787271,"lon":139.675619},{"name":"三葉児童遊園","province":"東京都","city":"板橋区","address":"東京都板橋区弥生町16","lat":35.752937,"lon":139.695132},{"name":"志村坂上公衆便所","province":"東京都","city":"板橋区","address":"東京都板橋区志村2丁目3","lat":35.776598,"lon":139.694346},{"name":"本町公衆便所","province":"東京都","city":"板橋区","address":"東京都板橋区本町18","lat":35.759605,"lon":139.707794},{"name":"成増駅南口公衆便所","province":"東京都","city":"板橋区","address":"東京都板橋区成増2丁目15","lat":35.777128,"lon":139.632541},{"name":"蓮根三丁目公衆便所","province":"東京都","city":"板橋区","address":"東京都板橋区蓮根3丁目15","lat":35.788835,"lon":139.6772},{"name":"高島平西口公衆便所","province":"東京都","city":"板橋区","address":"東京都板橋区高島平8丁目2","lat":35.789045,"lon":139.66035},{"name":"常盤台駅前公衆便所","province":"東京都","city":"板橋区","address":"東京都板橋区常盤台1丁目1","lat":35.758833,"lon":139.690015},{"name":"板橋区役所前公衆便所","province":"東京都","city":"板橋区","address":"東京都板橋区板橋2丁目66","lat":35.75143,"lon":139.709541},{"name":"やよい防災ひろば","province":"東京都","city":"板橋区","address":"東京都板橋区弥生町82","lat":35.753819,"lon":139.690281},{"name":"大原生涯学習センター","province":"東京都","city":"板橋区","address":"東京都板橋区大原町5-18","lat":35.769664,"lon":139.70018},{"name":"エコポリスセンター","province":"東京都","city":"板橋区","address":"東京都板橋区前野町4丁目6-1","lat":35.769163,"lon":139.688661},{"name":"板橋区立リサイクルプラザ","province":"東京都","city":"板橋区","address":"東京都板橋区舟渡4丁目16-6","lat":35.795662,"lon":139.676159},{"name":"板橋区立リサイクルプラザ","province":"東京都","city":"板橋区","address":"東京都板橋区舟渡4丁目16-6","lat":35.79567,"lon":139.676175},{"name":"板橋区立リサイクルプラザ","province":"東京都","city":"板橋区","address":"東京都板橋区舟渡4丁目16-6","lat":35.795673,"lon":139.676165},{"name":"板橋区立リサイクルプラザ","province":"東京都","city":"板橋区","address":"東京都板橋区舟渡4丁目16-6","lat":35.795639,"lon":139.675954},{"name":"エコポリスセンター","province":"東京都","city":"板橋区","address":"東京都板橋区前野町4丁目6-1","lat":35.769224,"lon":139.688758},{"name":"仲町ふれあい館","province":"東京都","city":"板橋区","address":"東京都板橋区仲町20-5","lat":35.751091,"lon":139.69643},{"name":"西徳児童館","province":"東京都","city":"板橋区","address":"東京都板橋区西台4丁目4-37","lat":35.770158,"lon":139.668142},{"name":"しらさぎ児童館","province":"東京都","city":"板橋区","address":"東京都板橋区成増5丁目19-41","lat":35.788527,"lon":139.636762},{"name":"上板橋健康福祉センター","province":"東京都","city":"板橋区","address":"東京都板橋区桜川3丁目18-6","lat":35.760162,"lon":139.675503},{"name":"志村児童館","province":"東京都","city":"板橋区","address":"東京都板橋区志村2丁目16-11","lat":35.774855,"lon":139.685925},{"name":"赤塚健康福祉センター","province":"東京都","city":"板橋区","address":"東京都板橋区赤塚1丁目10-13","lat":35.772102,"lon":139.647109},{"name":"志村健康福祉センター","province":"東京都","city":"板橋区","address":"東京都板橋区蓮根2丁目5-5","lat":35.781214,"lon":139.677279},{"name":"志村健康福祉センター","province":"東京都","city":"板橋区","address":"東京都板橋区蓮根2丁目5-5","lat":35.781152,"lon":139.677316},{"name":"志村健康福祉センター","province":"東京都","city":"板橋区","address":"東京都板橋区蓮根2丁目5-5","lat":35.781104,"lon":139.677218},{"name":"高島平健康福祉センター","province":"東京都","city":"板橋区","address":"東京都板橋区高島平3丁目13-28","lat":35.788037,"lon":139.659392},{"name":"おとしより保健福祉センター","province":"東京都","city":"板橋区","address":"東京都板橋区前野町4丁目16-1","lat":35.771598,"lon":139.689851},{"name":"障がい者福祉センター","province":"東京都","city":"板橋区","address":"東京都板橋区高島平9丁目25-12","lat":35.790458,"lon":139.668168},{"name":"障がい者福祉センター","province":"東京都","city":"板橋区","address":"東京都板橋区高島平9丁目25-12","lat":35.790462,"lon":139.66817},{"name":"上板橋体育館","province":"東京都","city":"板橋区","address":"東京都板橋区桜川1丁目3-1","lat":35.757088,"lon":139.675679},{"name":"上板橋体育館","province":"東京都","city":"板橋区","address":"東京都板橋区桜川1丁目3-1","lat":35.757271,"lon":139.6758},{"name":"小豆沢体育館","province":"東京都","city":"板橋区","address":"東京都板橋区小豆沢3丁目1","lat":35.778776,"lon":139.698012},{"name":"小豆沢体育館","province":"東京都","city":"板橋区","address":"東京都板橋区小豆沢3丁目1","lat":35.778808,"lon":139.698009},{"name":"小豆沢体育館","province":"東京都","city":"板橋区","address":"東京都板橋区小豆沢3丁目1","lat":35.778808,"lon":139.698005},{"name":"小豆沢体育館","province":"東京都","city":"板橋区","address":"東京都板橋区小豆沢3丁目1","lat":35.778936,"lon":139.697617},{"name":"小豆沢体育館","province":"東京都","city":"板橋区","address":"東京都板橋区小豆沢3丁目1","lat":35.779083,"lon":139.697861},{"name":"小豆沢体育館","province":"東京都","city":"板橋区","address":"東京都板橋区小豆沢3丁目1-1","lat":35.77916,"lon":139.697722},{"name":"赤塚体育館","province":"東京都","city":"板橋区","address":"東京都板橋区赤塚5丁目6-1","lat":35.778017,"lon":139.641691},{"name":"赤塚体育館","province":"東京都","city":"板橋区","address":"東京都板橋区赤塚5丁目6-1","lat":35.778018,"lon":139.641691},{"name":"赤塚体育館","province":"東京都","city":"板橋区","address":"東京都板橋区赤塚5丁目6","lat":35.778271,"lon":139.641871},{"name":"高島平温水プール","province":"東京都","city":"板橋区","address":"東京都板橋区高島平8丁目28-1","lat":35.791519,"lon":139.664073},{"name":"高島平ふれあい館","province":"東京都","city":"板橋区","address":"東京都板橋区高島平8丁目29-1","lat":35.791854,"lon":139.664519},{"name":"中台ふれあい館","province":"東京都","city":"板橋区","address":"東京都板橋区中台2丁目14-1","lat":35.769949,"lon":139.68008},{"name":"中台ふれあい館","province":"東京都","city":"板橋区","address":"東京都板橋区中台2丁目14-1","lat":35.769895,"lon":139.6802014},{"name":"仲町ふれあい館","province":"東京都","city":"板橋区","address":"東京都板橋区仲町20-5","lat":35.751068,"lon":139.696441},{"name":"仲町ふれあい館","province":"東京都","city":"板橋区","address":"東京都板橋区仲町20-5","lat":35.751209,"lon":139.696411},{"name":"仲町ふれあい館","province":"東京都","city":"板橋区","address":"東京都板橋区仲町20-5","lat":35.751164,"lon":139.696195},{"name":"仲宿集会所","province":"東京都","city":"板橋区","address":"東京都板橋区仲宿3-1","lat":35.756279,"lon":139.712438},{"name":"仲町ふれあい館","province":"東京都","city":"板橋区","address":"東京都板橋区仲町20-5","lat":35.751142,"lon":139.696299},{"name":"企業活性化センター","province":"東京都","city":"板橋区","address":"東京都板橋区舟渡1丁目13-10","lat":35.792223,"lon":139.690984},{"name":"旧中丸いこいの家（熊野地域包括支援センター及び中丸集会所）","province":"東京都","city":"板橋区","address":"東京都板橋区中丸町27","lat":35.741066,"lon":139.703291},{"name":"旧中丸いこいの家（熊野地域包括支援センター及び中丸集会所）","province":"東京都","city":"板橋区","address":"東京都板橋区中丸町27-11","lat":35.741077,"lon":139.703307},{"name":"仲宿集会所","province":"東京都","city":"板橋区","address":"東京都板橋区仲宿3-1","lat":35.756259,"lon":139.712479},{"name":"弥生児童館","province":"東京都","city":"板橋区","address":"東京都板橋区弥生町16","lat":35.753122,"lon":139.694831},{"name":"旧板橋いこいの家（ベルネススペース板橋）","province":"東京都","city":"板橋区","address":"東京都板橋区板橋3丁目26-4","lat":35.750453,"lon":139.71358},{"name":"旧板橋いこいの家（ベルネススペース板橋）","province":"東京都","city":"板橋区","address":"東京都板橋区板橋3丁目26-4","lat":35.750422,"lon":139.713682},{"name":"植村記念加賀スポーツセンター","province":"東京都","city":"板橋区","address":"東京都板橋区加賀1丁目10-5","lat":35.753766,"lon":139.715627},{"name":"大山東児童館","province":"東京都","city":"板橋区","address":"東京都板橋区大山東町8-7","lat":35.747574,"lon":139.706258},{"name":"高島平福祉園","province":"東京都","city":"板橋区","address":"東京都板橋区高島平9丁目25-12","lat":35.790474,"lon":139.668172},{"name":"三園福祉園","province":"東京都","city":"板橋区","address":"東京都板橋区三園2丁目9","lat":35.793231,"lon":139.640518},{"name":"徳丸ふれあい館","province":"東京都","city":"板橋区","address":"東京都板橋区徳丸2丁目12-12","lat":35.772004,"lon":139.66014},{"name":"板橋区立ハイライフ プラザ","province":"東京都","city":"板橋区","address":"東京都板橋区板橋1丁目55-16","lat":35.747255,"lon":139.720417},{"name":"富士見地域包括支援センター","province":"東京都","city":"板橋区","address":"東京都板橋区宮本町17","lat":35.763577,"lon":139.703257},{"name":"ウェルネススペース桜川及び桜川地域包括支援センター","province":"東京都","city":"板橋区","address":"東京都板橋区東新町2丁目36-5","lat":35.753798,"lon":139.680298},{"name":"板橋区立志村ふれあい館","province":"東京都","city":"板橋区","address":"東京都板橋区志村3丁目32-6","lat":35.778877,"lon":139.690282},{"name":"板橋区立グリーンカレッジホール","province":"東京都","city":"板橋区","address":"東京都板橋区志村3丁目32-6","lat":35.778973,"lon":139.690305},{"name":"まえのふれあいこども食堂","province":"東京都","city":"板橋区","address":"東京都板橋区前野町2丁目43-15","lat":35.76690619,"lon":139.69032483},{"name":"板橋いずみ教会子ども食堂（ジョイフルクラブ）","province":"東京都","city":"板橋区","address":"東京都板橋区泉町52-6","lat":35.76863128,"lon":139.69969067},{"name":"陽ちゃん家こども食堂","province":"東京都","city":"板橋区","address":"東京都板橋区宮本町6-12","lat":35.76244603,"lon":139.70349062},{"name":"ことぶき子ども食堂","province":"東京都","city":"板橋区","address":"東京都板橋区相生町8-3","lat":35.77656317,"lon":139.68210293},{"name":"南蔵院こども会","province":"東京都","city":"板橋区","address":"東京都板橋区蓮沼町48-8","lat":35.77073383,"lon":139.70160989},{"name":"しむらん通り食堂","province":"東京都","city":"板橋区","address":"東京都板橋区志村1丁目35-15","lat":35.77616906,"lon":139.69405474},{"name":"かもめこども食堂","province":"東京都","city":"板橋区","address":"東京都板橋区東坂下1丁目12-7","lat":35.78199048,"lon":139.69029929},{"name":"いずみの苑コミュニティ弁当","province":"東京都","city":"板橋区","address":"東京都板橋区東坂下2丁目2-22","lat":35.78308199,"lon":139.69001316},{"name":"NPO板橋こども食堂","province":"東京都","city":"板橋区","address":"東京都板橋区蓮根2丁目21-11","lat":35.78285666,"lon":139.67648379},{"name":"さかした子ども食堂","province":"東京都","city":"板橋区","address":"東京都板橋区坂下2丁目22-5","lat":35.78320133,"lon":139.68411362},{"name":"にこにこ食堂","province":"東京都","city":"板橋区","address":"東京都板橋区坂下2丁目1-3","lat":35.78272368,"lon":139.68804944},{"name":"SOMPO流子ども食堂　高島平","province":"東京都","city":"板橋区","address":"東京都板橋区坂下3丁目5-2","lat":35.785165,"lon":139.6847135},{"name":"ごはん塾・にじいろぱーく","province":"東京都","city":"板橋区","address":"東京都板橋区高島平8丁目21-11","lat":35.79075515,"lon":139.66394866},{"name":"SOMPO流こども食堂　新高島平","province":"東京都","city":"板橋区","address":"東京都板橋区高島平7丁目17-9","lat":35.79133263,"lon":139.65537995},{"name":"まいにちおいで子ども食堂","province":"東京都","city":"板橋区","address":"東京都板橋区高島平7丁目23-21","lat":35.7908217,"lon":139.66045176},{"name":"リル・インフィニティ〈子ども食堂〉","province":"東京都","city":"板橋区","address":"東京都板橋区南常盤台1丁目18-5","lat":35.75687679,"lon":139.6888226},{"name":"ブランチCAF? in まもりん坊","province":"東京都","city":"板橋区","address":"東京都板橋区上板橋2丁目30-2","lat":35.76229793,"lon":139.67435139},{"name":"SOMPO流子ども食堂　ときわ台南","province":"東京都","city":"板橋区","address":"東京都板橋区東新町1丁目29-6","lat":35.75703764,"lon":139.68144542},{"name":"こども食堂ｂｙハーブ＆おいしい野菜塾","province":"東京都","city":"板橋区","address":"東京都板橋区西台2丁目12-12","lat":35.78035126,"lon":139.67099827},{"name":"長秀龍子ども食堂","province":"東京都","city":"板橋区","address":"東京都板橋区南常盤台1丁目20-4","lat":35.7565241,"lon":139.6898392},{"name":"寺子屋学園こども食堂","province":"東京都","city":"板橋区","address":"東京都板橋区常盤台2丁目15-9","lat":35.76136793,"lon":139.68968064},{"name":"西徳げんき食堂","province":"東京都","city":"板橋区","address":"東京都板橋区西台4丁目8-13","lat":35.77234384,"lon":139.66901538},{"name":"こども食堂　良ちゃん","province":"東京都","city":"板橋区","address":"東京都板橋区常盤台4丁目33-3","lat":35.76392557,"lon":139.67633725},{"name":"SOMPO流子ども食堂 ときわ台","province":"東京都","city":"板橋区","address":"東京都板橋区前野町2丁目18-3","lat":35.7649813,"lon":139.68694182},{"name":"「上二テラス」ランチタイム","province":"東京都","city":"板橋区","address":"東京都板橋区向原3丁目1-12","lat":35.74417819,"lon":139.6855318},{"name":"ななテラスこども食堂","province":"東京都","city":"板橋区","address":"東京都板橋区向原3丁目7-7","lat":35.7465251,"lon":139.68421513},{"name":"SOMPO流こども食堂　若木","province":"東京都","city":"板橋区","address":"東京都板橋区若木3丁目3-1","lat":35.77365225,"lon":139.67728125},{"name":"SOMPO流子ども食堂　奈美木成増","province":"東京都","city":"板橋区","address":"東京都板橋区赤塚3丁目13-1","lat":35.77897296,"lon":139.63954549},{"name":"SOMPO流子ども食堂　赤塚公園","province":"東京都","city":"板橋区","address":"東京都板橋区大門7-5","lat":35.78333099,"lon":139.64862789},{"name":"SOMPO流子ども食堂","province":"東京都","city":"板橋区","address":"東京都板橋区徳丸6丁目1-11","lat":35.77657377,"lon":139.66411013},{"name":"福まね嬉　こども食堂","province":"東京都","city":"板橋区","address":"東京都板橋区徳丸3丁目29-2","lat":35.77245185,"lon":139.65623043},{"name":"カフェひびき（誰でも食堂）","province":"東京都","city":"板橋区","address":"東京都板橋区徳丸6丁目13-18","lat":35.77790959,"lon":139.65914942},{"name":"SOMPOの子ども食堂","province":"東京都","city":"板橋区","address":"東京都板橋区赤塚新町2丁目7-16","lat":35.77214322,"lon":139.63940686},{"name":"くじらハウス赤塚こども食堂","province":"東京都","city":"板橋区","address":"東京都板橋区赤塚7丁目26-7","lat":35.77879265,"lon":139.64860305},{"name":"こども食堂　ニクビッタ","province":"東京都","city":"板橋区","address":"東京都板橋区徳丸1丁目7-12","lat":35.7684775,"lon":139.66417154},{"name":"ゆとりんぼ","province":"東京都","city":"板橋区","address":"東京都板橋区徳丸1丁目7-12","lat":35.7684775,"lon":139.66417154},{"name":"あったかごはんの会","province":"東京都","city":"板橋区","address":"東京都板橋区成増1丁目12-4","lat":35.7747122,"lon":139.632674},{"name":"子ども食堂　たんぽぽ","province":"東京都","city":"板橋区","address":"東京都板橋区成増4丁目14-18","lat":35.78327223,"lon":139.63534852},{"name":"SOMPO流子ども食堂　板橋三園","province":"東京都","city":"板橋区","address":"東京都板橋区三園2丁目12-14","lat":35.79587877,"lon":139.64304484},{"name":"SOMPO流子ども食堂　板橋仲宿","province":"東京都","city":"板橋区","address":"東京都板橋区仲宿50-1","lat":35.75705795,"lon":139.70863765},{"name":"みんなの食堂　フラワー","province":"東京都","city":"板橋区","address":"東京都板橋区大山東町25-12","lat":35.74915324,"lon":139.70618543},{"name":"親子ひろば","province":"東京都","city":"板橋区","address":"東京都板橋区大谷口上町1-3","lat":35.74976121,"lon":139.69509745},{"name":"にっこりキッチン！","province":"東京都","city":"板橋区","address":"東京都板橋区富士見町17-15","lat":35.76142102,"lon":139.69848829},{"name":"りんごのたね","province":"東京都","city":"板橋区","address":"東京都板橋区富士見町3-1","lat":35.76096004,"lon":139.70108533},{"name":"こども食堂　よかや","province":"東京都","city":"板橋区","address":"東京都板橋区板橋1丁目31-8","lat":35.74766755,"lon":139.71610132},{"name":"ノンナの家","province":"東京都","city":"板橋区","address":"東京都板橋区板橋4丁目53-2","lat":35.75228096,"lon":139.71834817},{"name":"大山こども食堂・みんなの広場","province":"東京都","city":"板橋区","address":"東京都板橋区大山金井町48-2","lat":35.74555077,"lon":139.70229423},{"name":"ハッピー大山子ども食堂","province":"東京都","city":"板橋区","address":"東京都板橋区大山町40-5","lat":35.74893641,"lon":139.69878051},{"name":"子ども食堂 鶏のから騒ぎ","province":"東京都","city":"板橋区","address":"東京都板橋区弥生町31-15","lat":35.75530502,"lon":139.69531385},{"name":"地域のみなぱ食堂","province":"東京都","city":"板橋区","address":"東京都板橋区弥生町58-1","lat":35.75503824,"lon":139.69163914},{"name":"板橋トラックターミナル","province":"東京都","city":"板橋区","address":"東京都板橋区高島平6丁目1-1","lat":35.79228232,"lon":139.64660566},{"name":"＊?郷土芸能伝承館","province":"東京都","city":"板橋区","address":"板橋区徳丸6-29-13","lat":35.778365,"lon":139.660649},{"name":"＊?成増アートギャラリー","province":"東京都","city":"板橋区","address":"板橋区成増3-13-1","lat":35.778846,"lon":139.63236},{"name":"東京都板橋四ツ又駐車場","province":"東京都","city":"板橋区","address":"東京都板橋区板橋2丁目","lat":35.74808686,"lon":139.71301545},{"name":"板橋都税事務所","province":"東京都","city":"板橋区","address":"東京都板橋区大山東町44-8","lat":35.749488,"lon":139.706298},{"name":"地方独立行政法人東京都立病院機構　東京都立豊島病院","province":"東京都","city":"板橋区","address":"東京都板橋区栄町33-1","lat":35.75282,"lon":139.701144},{"name":"東京都立中央・城北職業能力開発センター板橋校","province":"東京都","city":"板橋区","address":"東京都板橋区舟渡2丁目2","lat":35.793465,"lon":139.691175},{"name":"東京都立中央・城北職業能力開発センター板橋校","province":"東京都","city":"板橋区","address":"東京都板橋区舟渡2丁目2-1","lat":35.793645,"lon":139.69128},{"name":"赤塚公園","province":"東京都","city":"板橋区","address":"東京都板橋区高島平3丁目1","lat":35.785485,"lon":139.657546},{"name":"赤塚公園","province":"東京都","city":"板橋区","address":"東京都板橋区高島平3丁目1","lat":35.784919,"lon":139.655738},{"name":"赤塚公園","province":"東京都","city":"板橋区","address":"東京都板橋区徳丸7丁目4","lat":35.780889,"lon":139.662961},{"name":"赤塚公園","province":"東京都","city":"板橋区","address":"東京都板橋区徳丸8丁目23","lat":35.783692,"lon":139.654381},{"name":"浮間公園","province":"東京都","city":"板橋区","address":"東京都板橋区舟渡2丁目15","lat":35.795026,"lon":139.693107},{"name":"浮間公園","province":"東京都","city":"板橋区","address":"東京都板橋区舟渡2丁目14","lat":35.794044,"lon":139.692809},{"name":"城北中央公園","province":"東京都","city":"板橋区","address":"東京都板橋区桜川1丁目1","lat":35.75523,"lon":139.676194},{"name":"都営三田線板橋区役所前駅","province":"東京都","city":"板橋区","address":"東京都板橋区板橋2丁目66-17","lat":35.751417,"lon":139.709611},{"name":"都営三田線駅新板橋駅","province":"東京都","city":"板橋区","address":"東京都板橋区板橋4丁目4","lat":35.748903,"lon":139.718899},{"name":"都営三田線板橋本町駅","province":"東京都","city":"板橋区","address":"東京都板橋区本町37","lat":35.760976,"lon":139.70557},{"name":"都営三田線板橋区役所前駅","province":"東京都","city":"板橋区","address":"東京都板橋区仲宿65","lat":35.751729,"lon":139.709692},{"name":"都営三田線本蓮沼駅","province":"東京都","city":"板橋区","address":"東京都板橋区蓮沼町19","lat":35.768619,"lon":139.702566},{"name":"都営三田線志村坂上駅","province":"東京都","city":"板橋区","address":"東京都板橋区小豆沢3丁目6","lat":35.776491,"lon":139.694684},{"name":"都営三田線志村三丁目駅","province":"東京都","city":"板橋区","address":"東京都板橋区志村3丁目23","lat":35.777481,"lon":139.685926},{"name":"都営三田線蓮根駅","province":"東京都","city":"板橋区","address":"東京都板橋区蓮根2丁目31","lat":35.784082,"lon":139.678967},{"name":"都営三田線西台駅","province":"東京都","city":"板橋区","address":"東京都板橋区高島平9丁目1","lat":35.786996,"lon":139.673632},{"name":"都営三田線高島平駅","province":"東京都","city":"板橋区","address":"東京都板橋区高島平8丁目2","lat":35.788993,"lon":139.661438},{"name":"都営三田線新高島平駅","province":"東京都","city":"板橋区","address":"東京都板橋区高島平7丁目1","lat":35.790222,"lon":139.654559},{"name":"都営三田線西高島平駅","province":"東京都","city":"板橋区","address":"東京都板橋区高島平6丁目1-1","lat":35.791914,"lon":139.645942},{"name":"東京都水道局板橋営業所","province":"東京都","city":"板橋区","address":"東京都板橋区氷川町3-6","lat":35.751704,"lon":139.707233},{"name":"志村消防署高島平出張所","province":"東京都","city":"板橋区","address":"東京都板橋区高島平3丁目12-10","lat":35.786199,"lon":139.658018},{"name":"郷土資料館","province":"東京都","city":"板橋区","address":"東京都板橋区赤塚5丁目35-25","lat":35.785487,"lon":139.6431},{"name":"板橋区役所本庁舎","province":"東京都","city":"板橋区","address":"東京都板橋区板橋2丁目66-1","lat":35.751064,"lon":139.70904},{"name":"板橋区役所本庁舎","province":"東京都","city":"板橋区","address":"東京都板橋区板橋2丁目66-1","lat":35.751026,"lon":139.709036},{"name":"板橋区役所本庁舎","province":"東京都","city":"板橋区","address":"東京都板橋区板橋2丁目66-1","lat":35.751067,"lon":139.709041},{"name":"板橋区役所本庁舎","province":"東京都","city":"板橋区","address":"東京都板橋区板橋2丁目66-1","lat":35.750869,"lon":139.708988},{"name":"板橋区役所本庁舎","province":"東京都","city":"板橋区","address":"東京都板橋区板橋2丁目66-1","lat":35.751189,"lon":139.709061},{"name":"板橋区役所本庁舎","province":"東京都","city":"板橋区","address":"東京都板橋区板橋2丁目66-1","lat":35.75087,"lon":139.708987},{"name":"板橋区役所本庁舎","province":"東京都","city":"板橋区","address":"東京都板橋区板橋2丁目66-1","lat":35.75087,"lon":139.708986},{"name":"板橋区役所本庁舎","province":"東京都","city":"板橋区","address":"東京都板橋区板橋2丁目66-1","lat":35.75119,"lon":139.709059},{"name":"板橋区役所本庁舎","province":"東京都","city":"板橋区","address":"東京都板橋区板橋2丁目66-1","lat":35.750869,"lon":139.708984},{"name":"板橋区役所本庁舎","province":"東京都","city":"板橋区","address":"東京都板橋区板橋2丁目66-1","lat":35.751192,"lon":139.709058},{"name":"板橋区役所本庁舎","province":"東京都","city":"板橋区","address":"東京都板橋区板橋2丁目66-1","lat":35.751189,"lon":139.709056},{"name":"板橋区役所本庁舎","province":"東京都","city":"板橋区","address":"東京都板橋区板橋2丁目66-1","lat":35.751187,"lon":139.709058},{"name":"板橋区役所本庁舎","province":"東京都","city":"板橋区","address":"東京都板橋区板橋2丁目66-1","lat":35.75119,"lon":139.709061},{"name":"板橋区役所本庁舎","province":"東京都","city":"板橋区","address":"東京都板橋区板橋2丁目66-1","lat":35.751192,"lon":139.709059},{"name":"赤塚支所","province":"東京都","city":"板橋区","address":"東京都板橋区赤塚6丁目38-1","lat":35.778633,"lon":139.644744},{"name":"赤塚支所","province":"東京都","city":"板橋区","address":"東京都板橋区赤塚6丁目38-1","lat":35.778629,"lon":139.644736},{"name":"赤塚支所","province":"東京都","city":"板橋区","address":"東京都板橋区赤塚6丁目38-1","lat":35.778628,"lon":139.644734},{"name":"赤塚支所","province":"東京都","city":"板橋区","address":"東京都板橋区赤塚6丁目38-1","lat":35.778715,"lon":139.644787},{"name":"常盤台区民事務所","province":"東京都","city":"板橋区","address":"東京都板橋区常盤台3丁目27","lat":35.761329,"lon":139.682337},{"name":"志村福祉事務所","province":"東京都","city":"板橋区","address":"東京都板橋区蓮根2丁目28-1","lat":35.785305,"lon":139.675158},{"name":"情報処理センター","province":"東京都","city":"板橋区","address":"東京都板橋区板橋2丁目65-6","lat":35.750018,"lon":139.708859},{"name":"情報処理センター","province":"東京都","city":"板橋区","address":"東京都板橋区板橋2丁目65-6","lat":35.750018,"lon":139.708864},{"name":"情報処理センター","province":"東京都","city":"板橋区","address":"東京都板橋区板橋2丁目65-6","lat":35.750021,"lon":139.70886},{"name":"情報処理センター","province":"東京都","city":"板橋区","address":"東京都板橋区板橋2丁目65-6","lat":35.750022,"lon":139.708865},{"name":"情報処理センター","province":"東京都","city":"板橋区","address":"東京都板橋区板橋2丁目65-6","lat":35.750017,"lon":139.708862},{"name":"情報処理センター","province":"東京都","city":"板橋区","address":"東京都板橋区板橋2丁目65-6","lat":35.750021,"lon":139.708858},{"name":"情報処理センター","province":"東京都","city":"板橋区","address":"東京都板橋区板橋2丁目65-6","lat":35.750018,"lon":139.708865},{"name":"四葉集会所","province":"東京都","city":"板橋区","address":"東京都板橋区四葉2丁目9-16","lat":35.781021,"lon":139.651761},{"name":"見次公園内集会所","province":"東京都","city":"板橋区","address":"東京都板橋区前野町4丁目59-1","lat":35.773371,"lon":139.693523},{"name":"中台二丁目集会所","province":"東京都","city":"板橋区","address":"東京都板橋区中台2丁目43-20","lat":35.773533,"lon":139.682624},{"name":"清水町第二集会所","province":"東京都","city":"板橋区","address":"東京都板橋区清水町72","lat":35.765392,"lon":139.704702},{"name":"高島平地域センター","province":"東京都","city":"板橋区","address":"東京都板橋区高島平3丁目12-28","lat":35.786978,"lon":139.658956},{"name":"高島平地域センター","province":"東京都","city":"板橋区","address":"東京都板橋区高島平3丁目12-28","lat":35.786958,"lon":139.658785},{"name":"桜川地域センター","province":"東京都","city":"板橋区","address":"東京都板橋区東新町2丁目45-6","lat":35.752421,"lon":139.681841},{"name":"志村坂上地域センター","province":"東京都","city":"板橋区","address":"東京都板橋区小豆沢2丁目19-15","lat":35.776461,"lon":139.696011},{"name":"清水地域センター","province":"東京都","city":"板橋区","address":"東京都板橋区泉町16-16","lat":35.766428,"lon":139.702103},{"name":"清水地域センター","province":"東京都","city":"板橋区","address":"東京都板橋区泉町16-16","lat":35.766457,"lon":139.702154},{"name":"清水地域センター","province":"東京都","city":"板橋区","address":"東京都板橋区泉町16-16","lat":35.766381,"lon":139.702098},{"name":"清水地域センター","province":"東京都","city":"板橋区","address":"東京都板橋区泉町16-16","lat":35.766421,"lon":139.702044},{"name":"仲宿地域センター","province":"東京都","city":"板橋区","address":"東京都板橋区氷川町12-10","lat":35.753891,"lon":139.707211},{"name":"仲宿地域センター","province":"東京都","city":"板橋区","address":"東京都板橋区氷川町12-10","lat":35.753978,"lon":139.707146},{"name":"仲宿地域センター","province":"東京都","city":"板橋区","address":"東京都板橋区氷川町12-10","lat":35.753901,"lon":139.707159},{"name":"富士見地域センター","province":"東京都","city":"板橋区","address":"東京都板橋区富士見町3-1","lat":35.760773,"lon":139.700398},{"name":"板橋区保健所","province":"東京都","city":"板橋区","address":"東京都板橋区大山東町32-15","lat":35.750596,"lon":139.708152},{"name":"板橋区保健所","province":"東京都","city":"板橋区","address":"東京都板橋区大山東町32","lat":35.750549,"lon":139.707999},{"name":"高島平図書館","province":"東京都","city":"板橋区","address":"東京都板橋区高島平3丁目13-1","lat":35.787531,"lon":139.658997},{"name":"高島平図書館","province":"東京都","city":"板橋区","address":"東京都板橋区高島平3丁目13-1","lat":35.787492,"lon":139.658982},{"name":"氷川図書館","province":"東京都","city":"板橋区","address":"東京都板橋区氷川町28-9","lat":35.753112,"lon":139.704723},{"name":"蓮根図書館","province":"東京都","city":"板橋区","address":"東京都板橋区蓮根3丁目15-1","lat":35.788556,"lon":139.676386},{"name":"東板橋図書館","province":"東京都","city":"板橋区","address":"東京都板橋区加賀1丁目10-15","lat":35.754382,"lon":139.715763},{"name":"東板橋図書館","province":"東京都","city":"板橋区","address":"東京都板橋区加賀1丁目10-15","lat":35.754401,"lon":139.71579},{"name":"成増図書館","province":"東京都","city":"板橋区","address":"東京都板橋区成増3丁目13-1","lat":35.7786,"lon":139.632242},{"name":"志村図書館","province":"東京都","city":"板橋区","address":"東京都板橋区小豆沢1丁目8-1","lat":35.773182,"lon":139.700047},{"name":"西台図書館","province":"東京都","city":"板橋区","address":"東京都板橋区西台3丁目13-2","lat":35.773996,"lon":139.668893},{"name":"小茂根図書館","province":"東京都","city":"板橋区","address":"東京都板橋区小茂根1丁目5-2","lat":35.745575,"lon":139.680874},{"name":"中央図書館（いたばしボローニャ絵本館併設）","province":"東京都","city":"板橋区","address":"東京都板橋区常盤台4丁目3-1","lat":35.762884,"lon":139.681526},{"name":"教育科学館","province":"東京都","city":"板橋区","address":"東京都板橋区常盤台4丁目14-1","lat":35.763462,"lon":139.679604},{"name":"教育科学館","province":"東京都","city":"板橋区","address":"東京都板橋区常盤台4丁目14","lat":35.763452,"lon":139.679425},{"name":"溝下東公園","province":"東京都","city":"板橋区","address":"東京都板橋区三園1丁目49","lat":35.791733,"lon":139.641856},{"name":"熱帯環境植物館","province":"東京都","city":"板橋区","address":"東京都板橋区高島平8丁目29-2","lat":35.792046,"lon":139.663983},{"name":"熱帯環境植物館","province":"東京都","city":"板橋区","address":"東京都板橋区高島平8丁目29-2","lat":35.792012,"lon":139.663915},{"name":"美術館","province":"東京都","city":"板橋区","address":"東京都板橋区赤塚5丁目34-27","lat":35.784219,"lon":139.644536},{"name":"前野ホール","province":"東京都","city":"板橋区","address":"東京都板橋区前野町2丁目43","lat":35.766998,"lon":139.690257},{"name":"前野ホール","province":"東京都","city":"板橋区","address":"東京都板橋区前野町2丁目43-15","lat":35.76699,"lon":139.690325},{"name":"舟渡ホール","province":"東京都","city":"板橋区","address":"東京都板橋区舟渡1丁目14-5","lat":35.792138,"lon":139.689964},{"name":"区立グリーンホール","province":"東京都","city":"板橋区","address":"東京都板橋区栄町36-1","lat":35.750811,"lon":139.705233},{"name":"区立グリーンホール","province":"東京都","city":"板橋区","address":"東京都板橋区栄町36-1","lat":35.750806,"lon":139.705223},{"name":"区立グリーンホール","province":"東京都","city":"板橋区","address":"東京都板橋区栄町36-1","lat":35.75081,"lon":139.705232},{"name":"区立グリーンホール","province":"東京都","city":"板橋区","address":"東京都板橋区栄町36-1","lat":35.750811,"lon":139.705234},{"name":"区立グリーンホール","province":"東京都","city":"板橋区","address":"東京都板橋区栄町36-1","lat":35.750812,"lon":139.705234},{"name":"区立文化会館","province":"東京都","city":"板橋区","address":"東京都板橋区大山東町51-1","lat":35.749485,"lon":139.704656},{"name":"三丁目青空公園","province":"東京都","city":"板橋区","address":"東京都板橋区小茂根3丁目14","lat":35.749942,"lon":139.679905},{"name":"四葉二丁目公園","province":"東京都","city":"板橋区","address":"東京都板橋区四葉2丁目9","lat":35.781129,"lon":139.651715},{"name":"東原公園","province":"東京都","city":"板橋区","address":"東京都板橋区小豆沢1丁目20","lat":35.77581,"lon":139.701842},{"name":"東坂下二丁目公園","province":"東京都","city":"板橋区","address":"東京都板橋区東坂下2丁目9","lat":35.78481,"lon":139.687775},{"name":"東板橋公園","province":"東京都","city":"板橋区","address":"東京都板橋区板橋3丁目50","lat":35.754505,"lon":139.712794},{"name":"親和児童遊園","province":"東京都","city":"板橋区","address":"東京都板橋区志村3丁目20-25","lat":35.77757,"lon":139.684461},{"name":"城北公園(管理棟併設)","province":"東京都","city":"板橋区","address":"東京都板橋区坂下2丁目19-1","lat":35.783655,"lon":139.68168},{"name":"志村第二公園","province":"東京都","city":"板橋区","address":"東京都板橋区前野町5丁目56","lat":35.774543,"lon":139.683997},{"name":"志村第三公園","province":"東京都","city":"板橋区","address":"東京都板橋区志村1丁目21","lat":35.775219,"lon":139.692648},{"name":"富士見街道にぎわい広場","province":"東京都","city":"板橋区","address":"東京都板橋区前野町1丁目7","lat":35.76315,"lon":139.695277},{"name":"富士見西児童遊園","province":"東京都","city":"板橋区","address":"東京都板橋区富士見町24","lat":35.758995,"lon":139.694988},{"name":"坂下三丁目緑地","province":"東京都","city":"板橋区","address":"東京都板橋区坂下3丁目9","lat":35.785207,"lon":139.681978},{"name":"坂下一丁目公園","province":"東京都","city":"板橋区","address":"東京都板橋区坂下1丁目36","lat":35.780184,"lon":139.683119},{"name":"小茂根四丁目公園","province":"東京都","city":"板橋区","address":"東京都板橋区小茂根4丁目16","lat":35.748948,"lon":139.676218},{"name":"紅梅公園","province":"東京都","city":"板橋区","address":"東京都板橋区徳丸8丁目5","lat":35.78079,"lon":139.654664},{"name":"けやきの公園","province":"東京都","city":"板橋区","address":"東京都板橋区前野町1丁目48","lat":35.764473,"lon":139.692354},{"name":"熊野町公園","province":"東京都","city":"板橋区","address":"東京都板橋区熊野町23","lat":35.74385,"lon":139.706867},{"name":"志村城山公園","province":"東京都","city":"板橋区","address":"東京都板橋区志村2丁目17","lat":35.776905,"lon":139.687455},{"name":"若木公園","province":"東京都","city":"板橋区","address":"東京都板橋区若木2丁目29","lat":35.770275,"lon":139.669772},{"name":"ゆりの木公衆便所","province":"東京都","city":"板橋区","address":"東京都板橋区赤塚新町3丁目32","lat":35.76996,"lon":139.639117},{"name":"成増公園","province":"東京都","city":"板橋区","address":"東京都板橋区成増3丁目4","lat":35.777907,"lon":139.633962},{"name":"本蓮沼駅前いずみ公園","province":"東京都","city":"板橋区","address":"東京都板橋区泉町5","lat":35.768028,"lon":139.702229},{"name":"向原公園","province":"東京都","city":"板橋区","address":"東京都板橋区向原2丁目29","lat":35.74006,"lon":139.681331},{"name":"向口公園","province":"東京都","city":"板橋区","address":"東京都板橋区四葉2丁目29-5","lat":35.782215,"lon":139.653746},{"name":"宮本公園","province":"東京都","city":"板橋区","address":"東京都板橋区宮本町38","lat":35.763607,"lon":139.697577},{"name":"南ときわ台公園","province":"東京都","city":"板橋区","address":"東京都板橋区南常盤台2丁目8","lat":35.756639,"lon":139.68635},{"name":"緑ケ丘第三公園","province":"東京都","city":"板橋区","address":"東京都板橋区桜川3丁目9","lat":35.760834,"lon":139.672869},{"name":"見次公園","province":"東京都","city":"板橋区","address":"東京都板橋区前野町4丁目59-1","lat":35.773411,"lon":139.693563},{"name":"溝下公園","province":"東京都","city":"板橋区","address":"東京都板橋区三園1丁目41","lat":35.790893,"lon":139.639722},{"name":"前野公園","province":"東京都","city":"板橋区","address":"東京都板橋区前野町5丁目1","lat":35.768889,"lon":139.687294},{"name":"舟渡水辺公園","province":"東京都","city":"板橋区","address":"東京都板橋区舟渡4丁目4","lat":35.792686,"lon":139.673076},{"name":"双葉町ひだまり公園","province":"東京都","city":"板橋区","address":"東京都板橋区双葉町18","lat":35.757376,"lon":139.699196},{"name":"宮前公園","province":"東京都","city":"板橋区","address":"東京都板橋区赤塚4丁目16","lat":35.783541,"lon":139.639006},{"name":"水車公園","province":"東京都","city":"板橋区","address":"東京都板橋区四葉1丁目17","lat":35.777658,"lon":139.65246},{"name":"小豆沢公園(環八沿線南側)","province":"東京都","city":"板橋区","address":"東京都板橋区小豆沢4丁目20","lat":35.78087,"lon":139.698682},{"name":"小豆沢公園(河岸広場)","province":"東京都","city":"板橋区","address":"東京都板橋区小豆沢4丁目28","lat":35.781582,"lon":139.698645},{"name":"小豆沢公園(グランド南)","province":"東京都","city":"板橋区","address":"東京都板橋区小豆沢3丁目8","lat":35.778347,"lon":139.69639},{"name":"赤塚四丁目公園","province":"東京都","city":"板橋区","address":"東京都板橋区赤塚4丁目31","lat":35.785751,"lon":139.640669},{"name":"赤塚溜池公園","province":"東京都","city":"板橋区","address":"東京都板橋区赤塚5丁目35","lat":35.785746,"lon":139.643929},{"name":"赤塚新町公園","province":"東京都","city":"板橋区","address":"東京都板橋区赤塚新町3丁目35","lat":35.770259,"lon":139.637986},{"name":"赤塚しのがやと公園","province":"東京都","city":"板橋区","address":"東京都板橋区赤塚6丁目30","lat":35.77694,"lon":139.644134},{"name":"西台公園","province":"東京都","city":"板橋区","address":"東京都板橋区西台1丁目23","lat":35.774163,"lon":139.672523},{"name":"高島平五丁目第二公園","province":"東京都","city":"板橋区","address":"東京都板橋区高島平5丁目24","lat":35.78979,"lon":139.645084},{"name":"蓮根川緑道","province":"東京都","city":"板橋区","address":"東京都板橋区蓮根3丁目3","lat":35.786627,"lon":139.678303},{"name":"大門みはらし台公園","province":"東京都","city":"板橋区","address":"東京都板橋区大門6","lat":35.783583,"lon":139.647057},{"name":"成増児童遊園","province":"東京都","city":"板橋区","address":"東京都板橋区成増2丁目24","lat":35.779255,"lon":139.629567},{"name":"上赤塚公園","province":"東京都","city":"板橋区","address":"東京都板橋区赤塚3丁目40","lat":35.781494,"lon":139.637174},{"name":"西台三丁目公園","province":"東京都","city":"板橋区","address":"東京都板橋区西台3丁目19","lat":35.774011,"lon":139.669354},{"name":"西徳第二公園","province":"東京都","city":"板橋区","address":"東京都板橋区西台3丁目42","lat":35.776188,"lon":139.667019},{"name":"成増うめの里公園","province":"東京都","city":"板橋区","address":"東京都板橋区成増5丁目3","lat":35.783526,"lon":139.630919},{"name":"蓮根三丁目公園","province":"東京都","city":"板橋区","address":"東京都板橋区蓮根3丁目15","lat":35.788933,"lon":139.678405},{"name":"西台中央通り公園","province":"東京都","city":"板橋区","address":"東京都板橋区西台4丁目4","lat":35.770334,"lon":139.667413},{"name":"常盤台公園(身障者用付き)","province":"東京都","city":"板橋区","address":"東京都板橋区常盤台1丁目13","lat":35.760604,"lon":139.691567},{"name":"高島平七丁目第二公園","province":"東京都","city":"板橋区","address":"東京都板橋区高島平7丁目33","lat":35.792143,"lon":139.655146},{"name":"高島平緑地(西台駅寄り)","province":"東京都","city":"板橋区","address":"東京都板橋区高島平9丁目1","lat":35.787121,"lon":139.670358},{"name":"高島平緑地(前谷津川側)","province":"東京都","city":"板橋区","address":"東京都板橋区高島平2丁目34","lat":35.788144,"lon":139.661882},{"name":"成増北第一公園","province":"東京都","city":"板橋区","address":"東京都板橋区成増5丁目19","lat":35.788764,"lon":139.635839},{"name":"高島平五丁目公園","province":"東京都","city":"板橋区","address":"東京都板橋区高島平5丁目4","lat":35.787084,"lon":139.646162},{"name":"徳石公園","province":"東京都","city":"板橋区","address":"東京都板橋区徳丸5丁目10-16","lat":35.776531,"lon":139.659002},{"name":"徳丸ケ丘公園","province":"東京都","city":"板橋区","address":"東京都板橋区徳丸6丁目27","lat":35.778758,"lon":139.661782},{"name":"徳丸ケ原公園","province":"東京都","city":"板橋区","address":"東京都板橋区高島平8丁目24-1","lat":35.791506,"lon":139.661341},{"name":"徳丸橋公園","province":"東京都","city":"板橋区","address":"東京都板橋区新河岸1丁目3","lat":35.794845,"lon":139.664143},{"name":"どんぐり山公園","province":"東京都","city":"板橋区","address":"東京都板橋区中台1丁目19","lat":35.767923,"lon":139.680622},{"name":"中台公園","province":"東京都","city":"板橋区","address":"東京都板橋区中台3丁目9","lat":35.769455,"lon":139.678346},{"name":"高島平緑地(高島平駅前)","province":"東京都","city":"板橋区","address":"東京都板橋区高島平2丁目34","lat":35.787556,"lon":139.664238},{"name":"加賀第二公園","province":"東京都","city":"板橋区","address":"東京都板橋区加賀1丁目16","lat":35.755279,"lon":139.718159},{"name":"大谷口北町宮ノ下公園","province":"東京都","city":"板橋区","address":"東京都板橋区大谷口北町79","lat":35.749053,"lon":139.686387},{"name":"大谷口北町公園","province":"東京都","city":"板橋区","address":"東京都板橋区大谷口北町87","lat":35.751076,"lon":139.685938},{"name":"大谷口児童遊園","province":"東京都","city":"板橋区","address":"東京都板橋区大谷口北町21","lat":35.750581,"lon":139.691077},{"name":"加賀公園","province":"東京都","city":"板橋区","address":"東京都板橋区加賀1丁目8","lat":35.752659,"lon":139.720517},{"name":"大原第二公園","province":"東京都","city":"板橋区","address":"東京都板橋区大原町27","lat":35.768231,"lon":139.698019},{"name":"板谷公園","province":"東京都","city":"板橋区","address":"東京都板橋区板橋4丁目55","lat":35.752986,"lon":139.718136},{"name":"板橋公園(公園中央)","province":"東京都","city":"板橋区","address":"東京都板橋区大山西町21","lat":35.745896,"lon":139.695341},{"name":"板橋駅前公園","province":"東京都","city":"板橋区","address":"東京都板橋区板橋1丁目23","lat":35.747402,"lon":139.718164},{"name":"板橋区平和公園","province":"東京都","city":"板橋区","address":"東京都板橋区常盤台4丁目3","lat":35.763397,"lon":139.681436},{"name":"大谷口一丁目4番遊び場","province":"東京都","city":"板橋区","address":"東京都板橋区大谷口1丁目4","lat":35.74605,"lon":139.691146},{"name":"石成公園","province":"東京都","city":"板橋区","address":"東京都板橋区赤塚4丁目7","lat":35.781701,"lon":139.639655},{"name":"徳丸三ツ和公園","province":"東京都","city":"板橋区","address":"東京都板橋区徳丸5丁目32","lat":35.778953,"lon":139.656396},{"name":"日暮台公園","province":"東京都","city":"板橋区","address":"東京都板橋区前野町5丁目20","lat":35.770804,"lon":139.684519},{"name":"板橋東いこいの森","province":"東京都","city":"板橋区","address":"東京都板橋区板橋4丁目45","lat":35.751274,"lon":139.722384},{"name":"えび山広場","province":"東京都","city":"板橋区","address":"東京都板橋区大谷口上町4","lat":35.750021,"lon":139.694941},{"name":"大谷口上町公園","province":"東京都","city":"板橋区","address":"東京都板橋区大谷口上町50","lat":35.747357,"lon":139.691524},{"name":"さくらづつみ児童遊園","province":"東京都","city":"板橋区","address":"東京都板橋区大谷口北町14","lat":35.752386,"lon":139.690068},{"name":"緑ケ丘第一公園","province":"東京都","city":"板橋区","address":"東京都板橋区東新町1丁目27","lat":35.756972,"lon":139.681182},{"name":"南板橋公園","province":"東京都","city":"板橋区","address":"東京都板橋区板橋1丁目39","lat":35.74821,"lon":139.714583},{"name":"赤塚植物園","province":"東京都","city":"板橋区","address":"東京都板橋区赤塚5丁目17-14","lat":35.780894,"lon":139.644397},{"name":"赤塚六丁目公園","province":"東京都","city":"板橋区","address":"東京都板橋区赤塚6丁目4","lat":35.773624,"lon":139.645338},{"name":"徳丸二丁目第二児童遊園","province":"東京都","city":"板橋区","address":"東京都板橋区徳丸2丁目16","lat":35.773075,"lon":139.660567},{"name":"高島平一丁目公園","province":"東京都","city":"板橋区","address":"東京都板橋区高島平1丁目23","lat":35.782557,"lon":139.671617},{"name":"成増生涯学習センター","province":"東京都","city":"板橋区","address":"東京都板橋区成増1丁目12-4","lat":35.774622,"lon":139.632777},{"name":"坂下二丁目公園","province":"東京都","city":"板橋区","address":"東京都板橋区坂下2丁目1","lat":35.782485,"lon":139.687418},{"name":"真畔公園","province":"東京都","city":"板橋区","address":"東京都板橋区蓮根3丁目9","lat":35.787271,"lon":139.675619},{"name":"三葉児童遊園","province":"東京都","city":"板橋区","address":"東京都板橋区弥生町16","lat":35.752937,"lon":139.695132},{"name":"志村坂上公衆便所","province":"東京都","city":"板橋区","address":"東京都板橋区志村2丁目3","lat":35.776598,"lon":139.694346},{"name":"本町公衆便所","province":"東京都","city":"板橋区","address":"東京都板橋区本町18","lat":35.759605,"lon":139.707794},{"name":"成増駅南口公衆便所","province":"東京都","city":"板橋区","address":"東京都板橋区成増2丁目15","lat":35.777128,"lon":139.632541},{"name":"蓮根三丁目公衆便所","province":"東京都","city":"板橋区","address":"東京都板橋区蓮根3丁目15","lat":35.788835,"lon":139.6772},{"name":"高島平西口公衆便所","province":"東京都","city":"板橋区","address":"東京都板橋区高島平8丁目2","lat":35.789045,"lon":139.66035},{"name":"常盤台駅前公衆便所","province":"東京都","city":"板橋区","address":"東京都板橋区常盤台1丁目1","lat":35.758833,"lon":139.690015},{"name":"板橋区役所前公衆便所","province":"東京都","city":"板橋区","address":"東京都板橋区板橋2丁目66","lat":35.75143,"lon":139.709541},{"name":"やよい防災ひろば","province":"東京都","city":"板橋区","address":"東京都板橋区弥生町82","lat":35.753819,"lon":139.690281},{"name":"大原生涯学習センター","province":"東京都","city":"板橋区","address":"東京都板橋区大原町5-18","lat":35.769664,"lon":139.70018},{"name":"エコポリスセンター","province":"東京都","city":"板橋区","address":"東京都板橋区前野町4丁目6-1","lat":35.769163,"lon":139.688661},{"name":"板橋区立リサイクルプラザ","province":"東京都","city":"板橋区","address":"東京都板橋区舟渡4丁目16-6","lat":35.795662,"lon":139.676159},{"name":"板橋区立リサイクルプラザ","province":"東京都","city":"板橋区","address":"東京都板橋区舟渡4丁目16-6","lat":35.79567,"lon":139.676175},{"name":"板橋区立リサイクルプラザ","province":"東京都","city":"板橋区","address":"東京都板橋区舟渡4丁目16-6","lat":35.795673,"lon":139.676165},{"name":"板橋区立リサイクルプラザ","province":"東京都","city":"板橋区","address":"東京都板橋区舟渡4丁目16-6","lat":35.795639,"lon":139.675954},{"name":"エコポリスセンター","province":"東京都","city":"板橋区","address":"東京都板橋区前野町4丁目6-1","lat":35.769224,"lon":139.688758},{"name":"仲町ふれあい館","province":"東京都","city":"板橋区","address":"東京都板橋区仲町20-5","lat":35.751091,"lon":139.69643},{"name":"西徳児童館","province":"東京都","city":"板橋区","address":"東京都板橋区西台4丁目4-37","lat":35.770158,"lon":139.668142},{"name":"しらさぎ児童館","province":"東京都","city":"板橋区","address":"東京都板橋区成増5丁目19-41","lat":35.788527,"lon":139.636762},{"name":"上板橋健康福祉センター","province":"東京都","city":"板橋区","address":"東京都板橋区桜川3丁目18-6","lat":35.760162,"lon":139.675503},{"name":"志村児童館","province":"東京都","city":"板橋区","address":"東京都板橋区志村2丁目16-11","lat":35.774855,"lon":139.685925},{"name":"赤塚健康福祉センター","province":"東京都","city":"板橋区","address":"東京都板橋区赤塚1丁目10-13","lat":35.772102,"lon":139.647109},{"name":"志村健康福祉センター","province":"東京都","city":"板橋区","address":"東京都板橋区蓮根2丁目5-5","lat":35.781214,"lon":139.677279},{"name":"志村健康福祉センター","province":"東京都","city":"板橋区","address":"東京都板橋区蓮根2丁目5-5","lat":35.781152,"lon":139.677316},{"name":"志村健康福祉センター","province":"東京都","city":"板橋区","address":"東京都板橋区蓮根2丁目5-5","lat":35.781104,"lon":139.677218},{"name":"高島平健康福祉センター","province":"東京都","city":"板橋区","address":"東京都板橋区高島平3丁目13-28","lat":35.788037,"lon":139.659392},{"name":"おとしより保健福祉センター","province":"東京都","city":"板橋区","address":"東京都板橋区前野町4丁目16-1","lat":35.771598,"lon":139.689851},{"name":"障がい者福祉センター","province":"東京都","city":"板橋区","address":"東京都板橋区高島平9丁目25-12","lat":35.790458,"lon":139.668168},{"name":"障がい者福祉センター","province":"東京都","city":"板橋区","address":"東京都板橋区高島平9丁目25-12","lat":35.790462,"lon":139.66817},{"name":"上板橋体育館","province":"東京都","city":"板橋区","address":"東京都板橋区桜川1丁目3-1","lat":35.757088,"lon":139.675679},{"name":"上板橋体育館","province":"東京都","city":"板橋区","address":"東京都板橋区桜川1丁目3-1","lat":35.757271,"lon":139.6758},{"name":"小豆沢体育館","province":"東京都","city":"板橋区","address":"東京都板橋区小豆沢3丁目1","lat":35.778776,"lon":139.698012},{"name":"小豆沢体育館","province":"東京都","city":"板橋区","address":"東京都板橋区小豆沢3丁目1","lat":35.778808,"lon":139.698009},{"name":"小豆沢体育館","province":"東京都","city":"板橋区","address":"東京都板橋区小豆沢3丁目1","lat":35.778808,"lon":139.698005},{"name":"小豆沢体育館","province":"東京都","city":"板橋区","address":"東京都板橋区小豆沢3丁目1","lat":35.778936,"lon":139.697617},{"name":"小豆沢体育館","province":"東京都","city":"板橋区","address":"東京都板橋区小豆沢3丁目1","lat":35.779083,"lon":139.697861},{"name":"小豆沢体育館","province":"東京都","city":"板橋区","address":"東京都板橋区小豆沢3丁目1-1","lat":35.77916,"lon":139.697722},{"name":"赤塚体育館","province":"東京都","city":"板橋区","address":"東京都板橋区赤塚5丁目6-1","lat":35.778017,"lon":139.641691},{"name":"赤塚体育館","province":"東京都","city":"板橋区","address":"東京都板橋区赤塚5丁目6-1","lat":35.778018,"lon":139.641691},{"name":"赤塚体育館","province":"東京都","city":"板橋区","address":"東京都板橋区赤塚5丁目6","lat":35.778271,"lon":139.641871},{"name":"高島平温水プール","province":"東京都","city":"板橋区","address":"東京都板橋区高島平8丁目28-1","lat":35.791519,"lon":139.664073},{"name":"高島平ふれあい館","province":"東京都","city":"板橋区","address":"東京都板橋区高島平8丁目29-1","lat":35.791854,"lon":139.664519},{"name":"中台ふれあい館","province":"東京都","city":"板橋区","address":"東京都板橋区中台2丁目14-1","lat":35.769949,"lon":139.68008},{"name":"中台ふれあい館","province":"東京都","city":"板橋区","address":"東京都板橋区中台2丁目14-1","lat":35.769895,"lon":139.6802014},{"name":"仲町ふれあい館","province":"東京都","city":"板橋区","address":"東京都板橋区仲町20-5","lat":35.751068,"lon":139.696441},{"name":"仲町ふれあい館","province":"東京都","city":"板橋区","address":"東京都板橋区仲町20-5","lat":35.751209,"lon":139.696411},{"name":"仲町ふれあい館","province":"東京都","city":"板橋区","address":"東京都板橋区仲町20-5","lat":35.751164,"lon":139.696195},{"name":"仲宿集会所","province":"東京都","city":"板橋区","address":"東京都板橋区仲宿3-1","lat":35.756279,"lon":139.712438},{"name":"仲町ふれあい館","province":"東京都","city":"板橋区","address":"東京都板橋区仲町20-5","lat":35.751142,"lon":139.696299},{"name":"企業活性化センター","province":"東京都","city":"板橋区","address":"東京都板橋区舟渡1丁目13-10","lat":35.792223,"lon":139.690984},{"name":"旧中丸いこいの家（熊野地域包括支援センター及び中丸集会所）","province":"東京都","city":"板橋区","address":"東京都板橋区中丸町27","lat":35.741066,"lon":139.703291},{"name":"旧中丸いこいの家（熊野地域包括支援センター及び中丸集会所）","province":"東京都","city":"板橋区","address":"東京都板橋区中丸町27-11","lat":35.741077,"lon":139.703307},{"name":"仲宿集会所","province":"東京都","city":"板橋区","address":"東京都板橋区仲宿3-1","lat":35.756259,"lon":139.712479},{"name":"弥生児童館","province":"東京都","city":"板橋区","address":"東京都板橋区弥生町16","lat":35.753122,"lon":139.694831},{"name":"旧板橋いこいの家（ベルネススペース板橋）","province":"東京都","city":"板橋区","address":"東京都板橋区板橋3丁目26-4","lat":35.750453,"lon":139.71358},{"name":"旧板橋いこいの家（ベルネススペース板橋）","province":"東京都","city":"板橋区","address":"東京都板橋区板橋3丁目26-4","lat":35.750422,"lon":139.713682},{"name":"植村記念加賀スポーツセンター","province":"東京都","city":"板橋区","address":"東京都板橋区加賀1丁目10-5","lat":35.753766,"lon":139.715627},{"name":"大山東児童館","province":"東京都","city":"板橋区","address":"東京都板橋区大山東町8-7","lat":35.747574,"lon":139.706258},{"name":"高島平福祉園","province":"東京都","city":"板橋区","address":"東京都板橋区高島平9丁目25-12","lat":35.790474,"lon":139.668172},{"name":"三園福祉園","province":"東京都","city":"板橋区","address":"東京都板橋区三園2丁目9","lat":35.793231,"lon":139.640518},{"name":"徳丸ふれあい館","province":"東京都","city":"板橋区","address":"東京都板橋区徳丸2丁目12-12","lat":35.772004,"lon":139.66014},{"name":"板橋区立ハイライフ プラザ","province":"東京都","city":"板橋区","address":"東京都板橋区板橋1丁目55-16","lat":35.747255,"lon":139.720417},{"name":"富士見地域包括支援センター","province":"東京都","city":"板橋区","address":"東京都板橋区宮本町17","lat":35.763577,"lon":139.703257},{"name":"ウェルネススペース桜川及び桜川地域包括支援センター","province":"東京都","city":"板橋区","address":"東京都板橋区東新町2丁目36-5","lat":35.753798,"lon":139.680298},{"name":"板橋区立志村ふれあい館","province":"東京都","city":"板橋区","address":"東京都板橋区志村3丁目32-6","lat":35.778877,"lon":139.690282},{"name":"板橋区立グリーンカレッジホール","province":"東京都","city":"板橋区","address":"東京都板橋区志村3丁目32-6","lat":35.778973,"lon":139.690305},{"name":"まえのふれあいこども食堂","province":"東京都","city":"板橋区","address":"東京都板橋区前野町2丁目43-15","lat":35.76690619,"lon":139.69032483},{"name":"板橋いずみ教会子ども食堂（ジョイフルクラブ）","province":"東京都","city":"板橋区","address":"東京都板橋区泉町52-6","lat":35.76863128,"lon":139.69969067},{"name":"陽ちゃん家こども食堂","province":"東京都","city":"板橋区","address":"東京都板橋区宮本町6-12","lat":35.76244603,"lon":139.70349062},{"name":"ことぶき子ども食堂","province":"東京都","city":"板橋区","address":"東京都板橋区相生町8-3","lat":35.77656317,"lon":139.68210293},{"name":"南蔵院こども会","province":"東京都","city":"板橋区","address":"東京都板橋区蓮沼町48-8","lat":35.77073383,"lon":139.70160989},{"name":"しむらん通り食堂","province":"東京都","city":"板橋区","address":"東京都板橋区志村1丁目35-15","lat":35.77616906,"lon":139.69405474},{"name":"かもめこども食堂","province":"東京都","city":"板橋区","address":"東京都板橋区東坂下1丁目12-7","lat":35.78199048,"lon":139.69029929},{"name":"いずみの苑コミュニティ弁当","province":"東京都","city":"板橋区","address":"東京都板橋区東坂下2丁目2-22","lat":35.78308199,"lon":139.69001316},{"name":"NPO板橋こども食堂","province":"東京都","city":"板橋区","address":"東京都板橋区蓮根2丁目21-11","lat":35.78285666,"lon":139.67648379},{"name":"さかした子ども食堂","province":"東京都","city":"板橋区","address":"東京都板橋区坂下2丁目22-5","lat":35.78320133,"lon":139.68411362},{"name":"にこにこ食堂","province":"東京都","city":"板橋区","address":"東京都板橋区坂下2丁目1-3","lat":35.78272368,"lon":139.68804944},{"name":"SOMPO流子ども食堂　高島平","province":"東京都","city":"板橋区","address":"東京都板橋区坂下3丁目5-2","lat":35.785165,"lon":139.6847135},{"name":"ごはん塾・にじいろぱーく","province":"東京都","city":"板橋区","address":"東京都板橋区高島平8丁目21-11","lat":35.79075515,"lon":139.66394866},{"name":"SOMPO流こども食堂　新高島平","province":"東京都","city":"板橋区","address":"東京都板橋区高島平7丁目17-9","lat":35.79133263,"lon":139.65537995},{"name":"まいにちおいで子ども食堂","province":"東京都","city":"板橋区","address":"東京都板橋区高島平7丁目23-21","lat":35.7908217,"lon":139.66045176},{"name":"リル・インフィニティ〈子ども食堂〉","province":"東京都","city":"板橋区","address":"東京都板橋区南常盤台1丁目18-5","lat":35.75687679,"lon":139.6888226},{"name":"ブランチCAF? in まもりん坊","province":"東京都","city":"板橋区","address":"東京都板橋区上板橋2丁目30-2","lat":35.76229793,"lon":139.67435139},{"name":"SOMPO流子ども食堂　ときわ台南","province":"東京都","city":"板橋区","address":"東京都板橋区東新町1丁目29-6","lat":35.75703764,"lon":139.68144542},{"name":"こども食堂ｂｙハーブ＆おいしい野菜塾","province":"東京都","city":"板橋区","address":"東京都板橋区西台2丁目12-12","lat":35.78035126,"lon":139.67099827},{"name":"長秀龍子ども食堂","province":"東京都","city":"板橋区","address":"東京都板橋区南常盤台1丁目20-4","lat":35.7565241,"lon":139.6898392},{"name":"寺子屋学園こども食堂","province":"東京都","city":"板橋区","address":"東京都板橋区常盤台2丁目15-9","lat":35.76136793,"lon":139.68968064},{"name":"西徳げんき食堂","province":"東京都","city":"板橋区","address":"東京都板橋区西台4丁目8-13","lat":35.77234384,"lon":139.66901538},{"name":"こども食堂　良ちゃん","province":"東京都","city":"板橋区","address":"東京都板橋区常盤台4丁目33-3","lat":35.76392557,"lon":139.67633725},{"name":"SOMPO流子ども食堂 ときわ台","province":"東京都","city":"板橋区","address":"東京都板橋区前野町2丁目18-3","lat":35.7649813,"lon":139.68694182},{"name":"「上二テラス」ランチタイム","province":"東京都","city":"板橋区","address":"東京都板橋区向原3丁目1-12","lat":35.74417819,"lon":139.6855318},{"name":"ななテラスこども食堂","province":"東京都","city":"板橋区","address":"東京都板橋区向原3丁目7-7","lat":35.7465251,"lon":139.68421513},{"name":"SOMPO流こども食堂　若木","province":"東京都","city":"板橋区","address":"東京都板橋区若木3丁目3-1","lat":35.77365225,"lon":139.67728125},{"name":"SOMPO流子ども食堂　奈美木成増","province":"東京都","city":"板橋区","address":"東京都板橋区赤塚3丁目13-1","lat":35.77897296,"lon":139.63954549},{"name":"SOMPO流子ども食堂　赤塚公園","province":"東京都","city":"板橋区","address":"東京都板橋区大門7-5","lat":35.78333099,"lon":139.64862789},{"name":"SOMPO流子ども食堂","province":"東京都","city":"板橋区","address":"東京都板橋区徳丸6丁目1-11","lat":35.77657377,"lon":139.66411013},{"name":"福まね嬉　こども食堂","province":"東京都","city":"板橋区","address":"東京都板橋区徳丸3丁目29-2","lat":35.77245185,"lon":139.65623043},{"name":"カフェひびき（誰でも食堂）","province":"東京都","city":"板橋区","address":"東京都板橋区徳丸6丁目13-18","lat":35.77790959,"lon":139.65914942},{"name":"SOMPOの子ども食堂","province":"東京都","city":"板橋区","address":"東京都板橋区赤塚新町2丁目7-16","lat":35.77214322,"lon":139.63940686},{"name":"くじらハウス赤塚こども食堂","province":"東京都","city":"板橋区","address":"東京都板橋区赤塚7丁目26-7","lat":35.77879265,"lon":139.64860305},{"name":"こども食堂　ニクビッタ","province":"東京都","city":"板橋区","address":"東京都板橋区徳丸1丁目7-12","lat":35.7684775,"lon":139.66417154},{"name":"ゆとりんぼ","province":"東京都","city":"板橋区","address":"東京都板橋区徳丸1丁目7-12","lat":35.7684775,"lon":139.66417154},{"name":"あったかごはんの会","province":"東京都","city":"板橋区","address":"東京都板橋区成増1丁目12-4","lat":35.7747122,"lon":139.632674},{"name":"子ども食堂　たんぽぽ","province":"東京都","city":"板橋区","address":"東京都板橋区成増4丁目14-18","lat":35.78327223,"lon":139.63534852},{"name":"SOMPO流子ども食堂　板橋三園","province":"東京都","city":"板橋区","address":"東京都板橋区三園2丁目12-14","lat":35.79587877,"lon":139.64304484},{"name":"SOMPO流子ども食堂　板橋仲宿","province":"東京都","city":"板橋区","address":"東京都板橋区仲宿50-1","lat":35.75705795,"lon":139.70863765},{"name":"みんなの食堂　フラワー","province":"東京都","city":"板橋区","address":"東京都板橋区大山東町25-12","lat":35.74915324,"lon":139.70618543},{"name":"親子ひろば","province":"東京都","city":"板橋区","address":"東京都板橋区大谷口上町1-3","lat":35.74976121,"lon":139.69509745},{"name":"にっこりキッチン！","province":"東京都","city":"板橋区","address":"東京都板橋区富士見町17-15","lat":35.76142102,"lon":139.69848829},{"name":"りんごのたね","province":"東京都","city":"板橋区","address":"東京都板橋区富士見町3-1","lat":35.76096004,"lon":139.70108533},{"name":"こども食堂　よかや","province":"東京都","city":"板橋区","address":"東京都板橋区板橋1丁目31-8","lat":35.74766755,"lon":139.71610132},{"name":"ノンナの家","province":"東京都","city":"板橋区","address":"東京都板橋区板橋4丁目53-2","lat":35.75228096,"lon":139.71834817},{"name":"大山こども食堂・みんなの広場","province":"東京都","city":"板橋区","address":"東京都板橋区大山金井町48-2","lat":35.74555077,"lon":139.70229423},{"name":"ハッピー大山子ども食堂","province":"東京都","city":"板橋区","address":"東京都板橋区大山町40-5","lat":35.74893641,"lon":139.69878051},{"name":"子ども食堂 鶏のから騒ぎ","province":"東京都","city":"板橋区","address":"東京都板橋区弥生町31-15","lat":35.75530502,"lon":139.69531385},{"name":"地域のみなぱ食堂","province":"東京都","city":"板橋区","address":"東京都板橋区弥生町58-1","lat":35.75503824,"lon":139.69163914},{"name":"板橋トラックターミナル","province":"東京都","city":"板橋区","address":"東京都板橋区高島平6丁目1-1","lat":35.79228232,"lon":139.64660566},{"name":"＊?郷土芸能伝承館","province":"東京都","city":"板橋区","address":"板橋区徳丸6-29-13","lat":35.778365,"lon":139.660649},{"name":"＊?成増アートギャラリー","province":"東京都","city":"板橋区","address":"板橋区成増3-13-1","lat":35.778846,"lon":139.63236},{"name":"東京都板橋四ツ又駐車場","province":"東京都","city":"板橋区","address":"東京都板橋区板橋2丁目","lat":35.74808686,"lon":139.71301545},{"name":"まえのふれあいこども食堂","province":"東京都","city":"板橋区","address":"東京都板橋区前野町2丁目43-15","lat":35.76690619,"lon":139.69032483},{"name":"板橋いずみ教会子ども食堂（ジョイフルクラブ）","province":"東京都","city":"板橋区","address":"東京都板橋区泉町52-6","lat":35.76863128,"lon":139.69969067},{"name":"陽ちゃん家こども食堂","province":"東京都","city":"板橋区","address":"東京都板橋区宮本町6-12","lat":35.76244603,"lon":139.70349062},{"name":"ことぶき子ども食堂","province":"東京都","city":"板橋区","address":"東京都板橋区相生町8-3","lat":35.77656317,"lon":139.68210293},{"name":"南蔵院こども会","province":"東京都","city":"板橋区","address":"東京都板橋区蓮沼町48-8","lat":35.77073383,"lon":139.70160989},{"name":"しむらん通り食堂","province":"東京都","city":"板橋区","address":"東京都板橋区志村1丁目35-15","lat":35.77616906,"lon":139.69405474},{"name":"かもめこども食堂","province":"東京都","city":"板橋区","address":"東京都板橋区東坂下1丁目12-7","lat":35.78199048,"lon":139.69029929},{"name":"いずみの苑コミュニティ弁当","province":"東京都","city":"板橋区","address":"東京都板橋区東坂下2丁目2-22","lat":35.78308199,"lon":139.69001316},{"name":"NPO板橋こども食堂","province":"東京都","city":"板橋区","address":"東京都板橋区蓮根2丁目21-11","lat":35.78285666,"lon":139.67648379},{"name":"さかした子ども食堂","province":"東京都","city":"板橋区","address":"東京都板橋区坂下2丁目22-5","lat":35.78320133,"lon":139.68411362},{"name":"にこにこ食堂","province":"東京都","city":"板橋区","address":"東京都板橋区坂下2丁目1-3","lat":35.78272368,"lon":139.68804944},{"name":"SOMPO流子ども食堂　高島平","province":"東京都","city":"板橋区","address":"東京都板橋区坂下3丁目5-2","lat":35.785165,"lon":139.6847135},{"name":"ごはん塾・にじいろぱーく","province":"東京都","city":"板橋区","address":"東京都板橋区高島平8丁目21-11","lat":35.79075515,"lon":139.66394866},{"name":"SOMPO流こども食堂　新高島平","province":"東京都","city":"板橋区","address":"東京都板橋区高島平7丁目17-9","lat":35.79133263,"lon":139.65537995},{"name":"まいにちおいで子ども食堂","province":"東京都","city":"板橋区","address":"東京都板橋区高島平7丁目23-21","lat":35.7908217,"lon":139.66045176},{"name":"リル・インフィニティ〈子ども食堂〉","province":"東京都","city":"板橋区","address":"東京都板橋区南常盤台1丁目18-5","lat":35.75687679,"lon":139.6888226},{"name":"ブランチCAF? in まもりん坊","province":"東京都","city":"板橋区","address":"東京都板橋区上板橋2丁目30-2","lat":35.76229793,"lon":139.67435139},{"name":"SOMPO流子ども食堂　ときわ台南","province":"東京都","city":"板橋区","address":"東京都板橋区東新町1丁目29-6","lat":35.75703764,"lon":139.68144542},{"name":"こども食堂ｂｙハーブ＆おいしい野菜塾","province":"東京都","city":"板橋区","address":"東京都板橋区西台2丁目12-12","lat":35.78035126,"lon":139.67099827},{"name":"長秀龍子ども食堂","province":"東京都","city":"板橋区","address":"東京都板橋区南常盤台1丁目20-4","lat":35.7565241,"lon":139.6898392},{"name":"寺子屋学園こども食堂","province":"東京都","city":"板橋区","address":"東京都板橋区常盤台2丁目15-9","lat":35.76136793,"lon":139.68968064},{"name":"西徳げんき食堂","province":"東京都","city":"板橋区","address":"東京都板橋区西台4丁目8-13","lat":35.77234384,"lon":139.66901538},{"name":"こども食堂　良ちゃん","province":"東京都","city":"板橋区","address":"東京都板橋区常盤台4丁目33-3","lat":35.76392557,"lon":139.67633725},{"name":"SOMPO流子ども食堂 ときわ台","province":"東京都","city":"板橋区","address":"東京都板橋区前野町2丁目18-3","lat":35.7649813,"lon":139.68694182},{"name":"「上二テラス」ランチタイム","province":"東京都","city":"板橋区","address":"東京都板橋区向原3丁目1-12","lat":35.74417819,"lon":139.6855318},{"name":"ななテラスこども食堂","province":"東京都","city":"板橋区","address":"東京都板橋区向原3丁目7-7","lat":35.7465251,"lon":139.68421513},{"name":"SOMPO流こども食堂　若木","province":"東京都","city":"板橋区","address":"東京都板橋区若木3丁目3-1","lat":35.77365225,"lon":139.67728125},{"name":"SOMPO流子ども食堂　奈美木成増","province":"東京都","city":"板橋区","address":"東京都板橋区赤塚3丁目13-1","lat":35.77897296,"lon":139.63954549},{"name":"SOMPO流子ども食堂　赤塚公園","province":"東京都","city":"板橋区","address":"東京都板橋区大門7-5","lat":35.78333099,"lon":139.64862789},{"name":"SOMPO流子ども食堂","province":"東京都","city":"板橋区","address":"東京都板橋区徳丸6丁目1-11","lat":35.77657377,"lon":139.66411013},{"name":"福まね嬉　こども食堂","province":"東京都","city":"板橋区","address":"東京都板橋区徳丸3丁目29-2","lat":35.77245185,"lon":139.65623043},{"name":"カフェひびき（誰でも食堂）","province":"東京都","city":"板橋区","address":"東京都板橋区徳丸6丁目13-18","lat":35.77790959,"lon":139.65914942},{"name":"SOMPOの子ども食堂","province":"東京都","city":"板橋区","address":"東京都板橋区赤塚新町2丁目7-16","lat":35.77214322,"lon":139.63940686},{"name":"くじらハウス赤塚こども食堂","province":"東京都","city":"板橋区","address":"東京都板橋区赤塚7丁目26-7","lat":35.77879265,"lon":139.64860305},{"name":"こども食堂　ニクビッタ","province":"東京都","city":"板橋区","address":"東京都板橋区徳丸1丁目7-12","lat":35.7684775,"lon":139.66417154},{"name":"ゆとりんぼ","province":"東京都","city":"板橋区","address":"東京都板橋区徳丸1丁目7-12","lat":35.7684775,"lon":139.66417154},{"name":"あったかごはんの会","province":"東京都","city":"板橋区","address":"東京都板橋区成増1丁目12-4","lat":35.7747122,"lon":139.632674},{"name":"子ども食堂　たんぽぽ","province":"東京都","city":"板橋区","address":"東京都板橋区成増4丁目14-18","lat":35.78327223,"lon":139.63534852},{"name":"SOMPO流子ども食堂　板橋三園","province":"東京都","city":"板橋区","address":"東京都板橋区三園2丁目12-14","lat":35.79587877,"lon":139.64304484},{"name":"SOMPO流子ども食堂　板橋仲宿","province":"東京都","city":"板橋区","address":"東京都板橋区仲宿50-1","lat":35.75705795,"lon":139.70863765},{"name":"みんなの食堂　フラワー","province":"東京都","city":"板橋区","address":"東京都板橋区大山東町25-12","lat":35.74915324,"lon":139.70618543},{"name":"親子ひろば","province":"東京都","city":"板橋区","address":"東京都板橋区大谷口上町1-3","lat":35.74976121,"lon":139.69509745},{"name":"にっこりキッチン！","province":"東京都","city":"板橋区","address":"東京都板橋区富士見町17-15","lat":35.76142102,"lon":139.69848829},{"name":"りんごのたね","province":"東京都","city":"板橋区","address":"東京都板橋区富士見町3-1","lat":35.76096004,"lon":139.70108533},{"name":"こども食堂　よかや","province":"東京都","city":"板橋区","address":"東京都板橋区板橋1丁目31-8","lat":35.74766755,"lon":139.71610132},{"name":"ノンナの家","province":"東京都","city":"板橋区","address":"東京都板橋区板橋4丁目53-2","lat":35.75228096,"lon":139.71834817},{"name":"大山こども食堂・みんなの広場","province":"東京都","city":"板橋区","address":"東京都板橋区大山金井町48-2","lat":35.74555077,"lon":139.70229423},{"name":"ハッピー大山子ども食堂","province":"東京都","city":"板橋区","address":"東京都板橋区大山町40-5","lat":35.74893641,"lon":139.69878051},{"name":"子ども食堂 鶏のから騒ぎ","province":"東京都","city":"板橋区","address":"東京都板橋区弥生町31-15","lat":35.75530502,"lon":139.69531385},{"name":"地域のみなぱ食堂","province":"東京都","city":"板橋区","address":"東京都板橋区弥生町58-1","lat":35.75503824,"lon":139.69163914},{"name":"板橋トラックターミナル","province":"東京都","city":"板橋区","address":"東京都板橋区高島平6丁目1-1","lat":35.79228232,"lon":139.64660566},{"name":"＊?郷土芸能伝承館","province":"東京都","city":"板橋区","address":"板橋区徳丸6-29-13","lat":35.778365,"lon":139.660649},{"name":"＊?成増アートギャラリー","province":"東京都","city":"板橋区","address":"板橋区成増3-13-1","lat":35.778846,"lon":139.63236},{"name":"東京都板橋四ツ又駐車場","province":"東京都","city":"板橋区","address":"東京都板橋区板橋2丁目","lat":35.74808686,"lon":139.71301545},{"name":"まえのふれあいこども食堂","province":"東京都","city":"板橋区","address":"東京都板橋区前野町2丁目43-15","lat":35.76690619,"lon":139.69032483},{"name":"板橋いずみ教会子ども食堂（ジョイフルクラブ）","province":"東京都","city":"板橋区","address":"東京都板橋区泉町52-6","lat":35.76863128,"lon":139.69969067},{"name":"陽ちゃん家こども食堂","province":"東京都","city":"板橋区","address":"東京都板橋区宮本町6-12","lat":35.76244603,"lon":139.70349062},{"name":"ことぶき子ども食堂","province":"東京都","city":"板橋区","address":"東京都板橋区相生町8-3","lat":35.77656317,"lon":139.68210293},{"name":"南蔵院こども会","province":"東京都","city":"板橋区","address":"東京都板橋区蓮沼町48-8","lat":35.77073383,"lon":139.70160989},{"name":"しむらん通り食堂","province":"東京都","city":"板橋区","address":"東京都板橋区志村1丁目35-15","lat":35.77616906,"lon":139.69405474},{"name":"かもめこども食堂","province":"東京都","city":"板橋区","address":"東京都板橋区東坂下1丁目12-7","lat":35.78199048,"lon":139.69029929},{"name":"いずみの苑コミュニティ弁当","province":"東京都","city":"板橋区","address":"東京都板橋区東坂下2丁目2-22","lat":35.78308199,"lon":139.69001316},{"name":"NPO板橋こども食堂","province":"東京都","city":"板橋区","address":"東京都板橋区蓮根2丁目21-11","lat":35.78285666,"lon":139.67648379},{"name":"さかした子ども食堂","province":"東京都","city":"板橋区","address":"東京都板橋区坂下2丁目22-5","lat":35.78320133,"lon":139.68411362},{"name":"にこにこ食堂","province":"東京都","city":"板橋区","address":"東京都板橋区坂下2丁目1-3","lat":35.78272368,"lon":139.68804944},{"name":"SOMPO流子ども食堂　高島平","province":"東京都","city":"板橋区","address":"東京都板橋区坂下3丁目5-2","lat":35.785165,"lon":139.6847135},{"name":"ごはん塾・にじいろぱーく","province":"東京都","city":"板橋区","address":"東京都板橋区高島平8丁目21-11","lat":35.79075515,"lon":139.66394866},{"name":"SOMPO流こども食堂　新高島平","province":"東京都","city":"板橋区","address":"東京都板橋区高島平7丁目17-9","lat":35.79133263,"lon":139.65537995},{"name":"まいにちおいで子ども食堂","province":"東京都","city":"板橋区","address":"東京都板橋区高島平7丁目23-21","lat":35.7908217,"lon":139.66045176},{"name":"リル・インフィニティ〈子ども食堂〉","province":"東京都","city":"板橋区","address":"東京都板橋区南常盤台1丁目18-5","lat":35.75687679,"lon":139.6888226},{"name":"ブランチCAF? in まもりん坊","province":"東京都","city":"板橋区","address":"東京都板橋区上板橋2丁目30-2","lat":35.76229793,"lon":139.67435139},{"name":"SOMPO流子ども食堂　ときわ台南","province":"東京都","city":"板橋区","address":"東京都板橋区東新町1丁目29-6","lat":35.75703764,"lon":139.68144542},{"name":"こども食堂ｂｙハーブ＆おいしい野菜塾","province":"東京都","city":"板橋区","address":"東京都板橋区西台2丁目12-12","lat":35.78035126,"lon":139.67099827},{"name":"長秀龍子ども食堂","province":"東京都","city":"板橋区","address":"東京都板橋区南常盤台1丁目20-4","lat":35.7565241,"lon":139.6898392},{"name":"寺子屋学園こども食堂","province":"東京都","city":"板橋区","address":"東京都板橋区常盤台2丁目15-9","lat":35.76136793,"lon":139.68968064},{"name":"西徳げんき食堂","province":"東京都","city":"板橋区","address":"東京都板橋区西台4丁目8-13","lat":35.77234384,"lon":139.66901538},{"name":"こども食堂　良ちゃん","province":"東京都","city":"板橋区","address":"東京都板橋区常盤台4丁目33-3","lat":35.76392557,"lon":139.67633725},{"name":"SOMPO流子ども食堂 ときわ台","province":"東京都","city":"板橋区","address":"東京都板橋区前野町2丁目18-3","lat":35.7649813,"lon":139.68694182},{"name":"「上二テラス」ランチタイム","province":"東京都","city":"板橋区","address":"東京都板橋区向原3丁目1-12","lat":35.74417819,"lon":139.6855318},{"name":"ななテラスこども食堂","province":"東京都","city":"板橋区","address":"東京都板橋区向原3丁目7-7","lat":35.7465251,"lon":139.68421513},{"name":"SOMPO流こども食堂　若木","province":"東京都","city":"板橋区","address":"東京都板橋区若木3丁目3-1","lat":35.77365225,"lon":139.67728125},{"name":"SOMPO流子ども食堂　奈美木成増","province":"東京都","city":"板橋区","address":"東京都板橋区赤塚3丁目13-1","lat":35.77897296,"lon":139.63954549},{"name":"SOMPO流子ども食堂　赤塚公園","province":"東京都","city":"板橋区","address":"東京都板橋区大門7-5","lat":35.78333099,"lon":139.64862789},{"name":"SOMPO流子ども食堂","province":"東京都","city":"板橋区","address":"東京都板橋区徳丸6丁目1-11","lat":35.77657377,"lon":139.66411013},{"name":"福まね嬉　こども食堂","province":"東京都","city":"板橋区","address":"東京都板橋区徳丸3丁目29-2","lat":35.77245185,"lon":139.65623043},{"name":"カフェひびき（誰でも食堂）","province":"東京都","city":"板橋区","address":"東京都板橋区徳丸6丁目13-18","lat":35.77790959,"lon":139.65914942},{"name":"SOMPOの子ども食堂","province":"東京都","city":"板橋区","address":"東京都板橋区赤塚新町2丁目7-16","lat":35.77214322,"lon":139.63940686},{"name":"くじらハウス赤塚こども食堂","province":"東京都","city":"板橋区","address":"東京都板橋区赤塚7丁目26-7","lat":35.77879265,"lon":139.64860305},{"name":"こども食堂　ニクビッタ","province":"東京都","city":"板橋区","address":"東京都板橋区徳丸1丁目7-12","lat":35.7684775,"lon":139.66417154},{"name":"ゆとりんぼ","province":"東京都","city":"板橋区","address":"東京都板橋区徳丸1丁目7-12","lat":35.7684775,"lon":139.66417154},{"name":"あったかごはんの会","province":"東京都","city":"板橋区","address":"東京都板橋区成増1丁目12-4","lat":35.7747122,"lon":139.632674},{"name":"子ども食堂　たんぽぽ","province":"東京都","city":"板橋区","address":"東京都板橋区成増4丁目14-18","lat":35.78327223,"lon":139.63534852},{"name":"SOMPO流子ども食堂　板橋三園","province":"東京都","city":"板橋区","address":"東京都板橋区三園2丁目12-14","lat":35.79587877,"lon":139.64304484},{"name":"SOMPO流子ども食堂　板橋仲宿","province":"東京都","city":"板橋区","address":"東京都板橋区仲宿50-1","lat":35.75705795,"lon":139.70863765},{"name":"みんなの食堂　フラワー","province":"東京都","city":"板橋区","address":"東京都板橋区大山東町25-12","lat":35.74915324,"lon":139.70618543},{"name":"親子ひろば","province":"東京都","city":"板橋区","address":"東京都板橋区大谷口上町1-3","lat":35.74976121,"lon":139.69509745},{"name":"にっこりキッチン！","province":"東京都","city":"板橋区","address":"東京都板橋区富士見町17-15","lat":35.76142102,"lon":139.69848829},{"name":"りんごのたね","province":"東京都","city":"板橋区","address":"東京都板橋区富士見町3-1","lat":35.76096004,"lon":139.70108533},{"name":"こども食堂　よかや","province":"東京都","city":"板橋区","address":"東京都板橋区板橋1丁目31-8","lat":35.74766755,"lon":139.71610132},{"name":"ノンナの家","province":"東京都","city":"板橋区","address":"東京都板橋区板橋4丁目53-2","lat":35.75228096,"lon":139.71834817},{"name":"大山こども食堂・みんなの広場","province":"東京都","city":"板橋区","address":"東京都板橋区大山金井町48-2","lat":35.74555077,"lon":139.70229423},{"name":"ハッピー大山子ども食堂","province":"東京都","city":"板橋区","address":"東京都板橋区大山町40-5","lat":35.74893641,"lon":139.69878051},{"name":"子ども食堂 鶏のから騒ぎ","province":"東京都","city":"板橋区","address":"東京都板橋区弥生町31-15","lat":35.75530502,"lon":139.69531385},{"name":"地域のみなぱ食堂","province":"東京都","city":"板橋区","address":"東京都板橋区弥生町58-1","lat":35.75503824,"lon":139.69163914},{"name":"板橋トラックターミナル","province":"東京都","city":"板橋区","address":"東京都板橋区高島平6丁目1-1","lat":35.79228232,"lon":139.64660566},{"name":"＊?郷土芸能伝承館","province":"東京都","city":"板橋区","address":"板橋区徳丸6-29-13","lat":35.778365,"lon":139.660649},{"name":"＊?成増アートギャラリー","province":"東京都","city":"板橋区","address":"板橋区成増3-13-1","lat":35.778846,"lon":139.63236},{"name":"東京都板橋四ツ又駐車場","province":"東京都","city":"板橋区","address":"東京都板橋区板橋2丁目","lat":35.74808686,"lon":139.71301545},{"name":"まえのふれあいこども食堂","province":"東京都","city":"板橋区","address":"東京都板橋区前野町2丁目43-15","lat":35.76690619,"lon":139.69032483},{"name":"板橋いずみ教会子ども食堂（ジョイフルクラブ）","province":"東京都","city":"板橋区","address":"東京都板橋区泉町52-6","lat":35.76863128,"lon":139.69969067},{"name":"陽ちゃん家こども食堂","province":"東京都","city":"板橋区","address":"東京都板橋区宮本町6-12","lat":35.76244603,"lon":139.70349062},{"name":"ことぶき子ども食堂","province":"東京都","city":"板橋区","address":"東京都板橋区相生町8-3","lat":35.77656317,"lon":139.68210293},{"name":"南蔵院こども会","province":"東京都","city":"板橋区","address":"東京都板橋区蓮沼町48-8","lat":35.77073383,"lon":139.70160989},{"name":"しむらん通り食堂","province":"東京都","city":"板橋区","address":"東京都板橋区志村1丁目35-15","lat":35.77616906,"lon":139.69405474},{"name":"かもめこども食堂","province":"東京都","city":"板橋区","address":"東京都板橋区東坂下1丁目12-7","lat":35.78199048,"lon":139.69029929},{"name":"いずみの苑コミュニティ弁当","province":"東京都","city":"板橋区","address":"東京都板橋区東坂下2丁目2-22","lat":35.78308199,"lon":139.69001316},{"name":"NPO板橋こども食堂","province":"東京都","city":"板橋区","address":"東京都板橋区蓮根2丁目21-11","lat":35.78285666,"lon":139.67648379},{"name":"さかした子ども食堂","province":"東京都","city":"板橋区","address":"東京都板橋区坂下2丁目22-5","lat":35.78320133,"lon":139.68411362},{"name":"にこにこ食堂","province":"東京都","city":"板橋区","address":"東京都板橋区坂下2丁目1-3","lat":35.78272368,"lon":139.68804944},{"name":"SOMPO流子ども食堂　高島平","province":"東京都","city":"板橋区","address":"東京都板橋区坂下3丁目5-2","lat":35.785165,"lon":139.6847135},{"name":"ごはん塾・にじいろぱーく","province":"東京都","city":"板橋区","address":"東京都板橋区高島平8丁目21-11","lat":35.79075515,"lon":139.66394866},{"name":"SOMPO流こども食堂　新高島平","province":"東京都","city":"板橋区","address":"東京都板橋区高島平7丁目17-9","lat":35.79133263,"lon":139.65537995},{"name":"まいにちおいで子ども食堂","province":"東京都","city":"板橋区","address":"東京都板橋区高島平7丁目23-21","lat":35.7908217,"lon":139.66045176},{"name":"リル・インフィニティ〈子ども食堂〉","province":"東京都","city":"板橋区","address":"東京都板橋区南常盤台1丁目18-5","lat":35.75687679,"lon":139.6888226},{"name":"ブランチCAF? in まもりん坊","province":"東京都","city":"板橋区","address":"東京都板橋区上板橋2丁目30-2","lat":35.76229793,"lon":139.67435139},{"name":"SOMPO流子ども食堂　ときわ台南","province":"東京都","city":"板橋区","address":"東京都板橋区東新町1丁目29-6","lat":35.75703764,"lon":139.68144542},{"name":"こども食堂ｂｙハーブ＆おいしい野菜塾","province":"東京都","city":"板橋区","address":"東京都板橋区西台2丁目12-12","lat":35.78035126,"lon":139.67099827},{"name":"長秀龍子ども食堂","province":"東京都","city":"板橋区","address":"東京都板橋区南常盤台1丁目20-4","lat":35.7565241,"lon":139.6898392},{"name":"寺子屋学園こども食堂","province":"東京都","city":"板橋区","address":"東京都板橋区常盤台2丁目15-9","lat":35.76136793,"lon":139.68968064},{"name":"西徳げんき食堂","province":"東京都","city":"板橋区","address":"東京都板橋区西台4丁目8-13","lat":35.77234384,"lon":139.66901538},{"name":"こども食堂　良ちゃん","province":"東京都","city":"板橋区","address":"東京都板橋区常盤台4丁目33-3","lat":35.76392557,"lon":139.67633725},{"name":"SOMPO流子ども食堂 ときわ台","province":"東京都","city":"板橋区","address":"東京都板橋区前野町2丁目18-3","lat":35.7649813,"lon":139.68694182},{"name":"「上二テラス」ランチタイム","province":"東京都","city":"板橋区","address":"東京都板橋区向原3丁目1-12","lat":35.74417819,"lon":139.6855318},{"name":"ななテラスこども食堂","province":"東京都","city":"板橋区","address":"東京都板橋区向原3丁目7-7","lat":35.7465251,"lon":139.68421513},{"name":"SOMPO流こども食堂　若木","province":"東京都","city":"板橋区","address":"東京都板橋区若木3丁目3-1","lat":35.77365225,"lon":139.67728125},{"name":"SOMPO流子ども食堂　奈美木成増","province":"東京都","city":"板橋区","address":"東京都板橋区赤塚3丁目13-1","lat":35.77897296,"lon":139.63954549},{"name":"SOMPO流子ども食堂　赤塚公園","province":"東京都","city":"板橋区","address":"東京都板橋区大門7-5","lat":35.78333099,"lon":139.64862789},{"name":"SOMPO流子ども食堂","province":"東京都","city":"板橋区","address":"東京都板橋区徳丸6丁目1-11","lat":35.77657377,"lon":139.66411013},{"name":"福まね嬉　こども食堂","province":"東京都","city":"板橋区","address":"東京都板橋区徳丸3丁目29-2","lat":35.77245185,"lon":139.65623043},{"name":"カフェひびき（誰でも食堂）","province":"東京都","city":"板橋区","address":"東京都板橋区徳丸6丁目13-18","lat":35.77790959,"lon":139.65914942},{"name":"SOMPOの子ども食堂","province":"東京都","city":"板橋区","address":"東京都板橋区赤塚新町2丁目7-16","lat":35.77214322,"lon":139.63940686},{"name":"くじらハウス赤塚こども食堂","province":"東京都","city":"板橋区","address":"東京都板橋区赤塚7丁目26-7","lat":35.77879265,"lon":139.64860305},{"name":"こども食堂　ニクビッタ","province":"東京都","city":"板橋区","address":"東京都板橋区徳丸1丁目7-12","lat":35.7684775,"lon":139.66417154},{"name":"ゆとりんぼ","province":"東京都","city":"板橋区","address":"東京都板橋区徳丸1丁目7-12","lat":35.7684775,"lon":139.66417154},{"name":"あったかごはんの会","province":"東京都","city":"板橋区","address":"東京都板橋区成増1丁目12-4","lat":35.7747122,"lon":139.632674},{"name":"子ども食堂　たんぽぽ","province":"東京都","city":"板橋区","address":"東京都板橋区成増4丁目14-18","lat":35.78327223,"lon":139.63534852},{"name":"SOMPO流子ども食堂　板橋三園","province":"東京都","city":"板橋区","address":"東京都板橋区三園2丁目12-14","lat":35.79587877,"lon":139.64304484},{"name":"SOMPO流子ども食堂　板橋仲宿","province":"東京都","city":"板橋区","address":"東京都板橋区仲宿50-1","lat":35.75705795,"lon":139.70863765},{"name":"みんなの食堂　フラワー","province":"東京都","city":"板橋区","address":"東京都板橋区大山東町25-12","lat":35.74915324,"lon":139.70618543},{"name":"親子ひろば","province":"東京都","city":"板橋区","address":"東京都板橋区大谷口上町1-3","lat":35.74976121,"lon":139.69509745},{"name":"にっこりキッチン！","province":"東京都","city":"板橋区","address":"東京都板橋区富士見町17-15","lat":35.76142102,"lon":139.69848829},{"name":"りんごのたね","province":"東京都","city":"板橋区","address":"東京都板橋区富士見町3-1","lat":35.76096004,"lon":139.70108533},{"name":"こども食堂　よかや","province":"東京都","city":"板橋区","address":"東京都板橋区板橋1丁目31-8","lat":35.74766755,"lon":139.71610132},{"name":"ノンナの家","province":"東京都","city":"板橋区","address":"東京都板橋区板橋4丁目53-2","lat":35.75228096,"lon":139.71834817},{"name":"大山こども食堂・みんなの広場","province":"東京都","city":"板橋区","address":"東京都板橋区大山金井町48-2","lat":35.74555077,"lon":139.70229423},{"name":"ハッピー大山子ども食堂","province":"東京都","city":"板橋区","address":"東京都板橋区大山町40-5","lat":35.74893641,"lon":139.69878051},{"name":"子ども食堂 鶏のから騒ぎ","province":"東京都","city":"板橋区","address":"東京都板橋区弥生町31-15","lat":35.75530502,"lon":139.69531385},{"name":"地域のみなぱ食堂","province":"東京都","city":"板橋区","address":"東京都板橋区弥生町58-1","lat":35.75503824,"lon":139.69163914},{"name":"＊?郷土芸能伝承館","province":"東京都","city":"板橋区","address":"板橋区徳丸6-29-13","lat":35.778365,"lon":139.660649},{"name":"＊?成増アートギャラリー","province":"東京都","city":"板橋区","address":"板橋区成増3-13-1","lat":35.778846,"lon":139.63236},{"name":"東京都板橋四ツ又駐車場","province":"東京都","city":"板橋区","address":"東京都板橋区板橋2丁目","lat":35.74808686,"lon":139.71301545},{"name":"まえのふれあいこども食堂","province":"東京都","city":"板橋区","address":"東京都板橋区前野町2丁目43-15","lat":35.76690619,"lon":139.69032483},{"name":"板橋いずみ教会子ども食堂（ジョイフルクラブ）","province":"東京都","city":"板橋区","address":"東京都板橋区泉町52-6","lat":35.76863128,"lon":139.69969067},{"name":"陽ちゃん家こども食堂","province":"東京都","city":"板橋区","address":"東京都板橋区宮本町6-12","lat":35.76244603,"lon":139.70349062},{"name":"ことぶき子ども食堂","province":"東京都","city":"板橋区","address":"東京都板橋区相生町8-3","lat":35.77656317,"lon":139.68210293},{"name":"南蔵院こども会","province":"東京都","city":"板橋区","address":"東京都板橋区蓮沼町48-8","lat":35.77073383,"lon":139.70160989},{"name":"しむらん通り食堂","province":"東京都","city":"板橋区","address":"東京都板橋区志村1丁目35-15","lat":35.77616906,"lon":139.69405474},{"name":"かもめこども食堂","province":"東京都","city":"板橋区","address":"東京都板橋区東坂下1丁目12-7","lat":35.78199048,"lon":139.69029929},{"name":"いずみの苑コミュニティ弁当","province":"東京都","city":"板橋区","address":"東京都板橋区東坂下2丁目2-22","lat":35.78308199,"lon":139.69001316},{"name":"NPO板橋こども食堂","province":"東京都","city":"板橋区","address":"東京都板橋区蓮根2丁目21-11","lat":35.78285666,"lon":139.67648379},{"name":"さかした子ども食堂","province":"東京都","city":"板橋区","address":"東京都板橋区坂下2丁目22-5","lat":35.78320133,"lon":139.68411362},{"name":"にこにこ食堂","province":"東京都","city":"板橋区","address":"東京都板橋区坂下2丁目1-3","lat":35.78272368,"lon":139.68804944},{"name":"SOMPO流子ども食堂　高島平","province":"東京都","city":"板橋区","address":"東京都板橋区坂下3丁目5-2","lat":35.785165,"lon":139.6847135},{"name":"ごはん塾・にじいろぱーく","province":"東京都","city":"板橋区","address":"東京都板橋区高島平8丁目21-11","lat":35.79075515,"lon":139.66394866},{"name":"SOMPO流こども食堂　新高島平","province":"東京都","city":"板橋区","address":"東京都板橋区高島平7丁目17-9","lat":35.79133263,"lon":139.65537995},{"name":"まいにちおいで子ども食堂","province":"東京都","city":"板橋区","address":"東京都板橋区高島平7丁目23-21","lat":35.7908217,"lon":139.66045176},{"name":"リル・インフィニティ〈子ども食堂〉","province":"東京都","city":"板橋区","address":"東京都板橋区南常盤台1丁目18-5","lat":35.75687679,"lon":139.6888226},{"name":"ブランチCAF? in まもりん坊","province":"東京都","city":"板橋区","address":"東京都板橋区上板橋2丁目30-2","lat":35.76229793,"lon":139.67435139},{"name":"SOMPO流子ども食堂　ときわ台南","province":"東京都","city":"板橋区","address":"東京都板橋区東新町1丁目29-6","lat":35.75703764,"lon":139.68144542},{"name":"こども食堂ｂｙハーブ＆おいしい野菜塾","province":"東京都","city":"板橋区","address":"東京都板橋区西台2丁目12-12","lat":35.78035126,"lon":139.67099827},{"name":"長秀龍子ども食堂","province":"東京都","city":"板橋区","address":"東京都板橋区南常盤台1丁目20-4","lat":35.7565241,"lon":139.6898392},{"name":"寺子屋学園こども食堂","province":"東京都","city":"板橋区","address":"東京都板橋区常盤台2丁目15-9","lat":35.76136793,"lon":139.68968064},{"name":"西徳げんき食堂","province":"東京都","city":"板橋区","address":"東京都板橋区西台4丁目8-13","lat":35.77234384,"lon":139.66901538},{"name":"こども食堂　良ちゃん","province":"東京都","city":"板橋区","address":"東京都板橋区常盤台4丁目33-3","lat":35.76392557,"lon":139.67633725},{"name":"SOMPO流子ども食堂 ときわ台","province":"東京都","city":"板橋区","address":"東京都板橋区前野町2丁目18-3","lat":35.7649813,"lon":139.68694182},{"name":"「上二テラス」ランチタイム","province":"東京都","city":"板橋区","address":"東京都板橋区向原3丁目1-12","lat":35.74417819,"lon":139.6855318},{"name":"ななテラスこども食堂","province":"東京都","city":"板橋区","address":"東京都板橋区向原3丁目7-7","lat":35.7465251,"lon":139.68421513},{"name":"SOMPO流こども食堂　若木","province":"東京都","city":"板橋区","address":"東京都板橋区若木3丁目3-1","lat":35.77365225,"lon":139.67728125},{"name":"SOMPO流子ども食堂　奈美木成増","province":"東京都","city":"板橋区","address":"東京都板橋区赤塚3丁目13-1","lat":35.77897296,"lon":139.63954549},{"name":"SOMPO流子ども食堂　赤塚公園","province":"東京都","city":"板橋区","address":"東京都板橋区大門7-5","lat":35.78333099,"lon":139.64862789},{"name":"SOMPO流子ども食堂","province":"東京都","city":"板橋区","address":"東京都板橋区徳丸6丁目1-11","lat":35.77657377,"lon":139.66411013},{"name":"福まね嬉　こども食堂","province":"東京都","city":"板橋区","address":"東京都板橋区徳丸3丁目29-2","lat":35.77245185,"lon":139.65623043},{"name":"カフェひびき（誰でも食堂）","province":"東京都","city":"板橋区","address":"東京都板橋区徳丸6丁目13-18","lat":35.77790959,"lon":139.65914942},{"name":"SOMPOの子ども食堂","province":"東京都","city":"板橋区","address":"東京都板橋区赤塚新町2丁目7-16","lat":35.77214322,"lon":139.63940686},{"name":"くじらハウス赤塚こども食堂","province":"東京都","city":"板橋区","address":"東京都板橋区赤塚7丁目26-7","lat":35.77879265,"lon":139.64860305},{"name":"こども食堂　ニクビッタ","province":"東京都","city":"板橋区","address":"東京都板橋区徳丸1丁目7-12","lat":35.7684775,"lon":139.66417154},{"name":"ゆとりんぼ","province":"東京都","city":"板橋区","address":"東京都板橋区徳丸1丁目7-12","lat":35.7684775,"lon":139.66417154},{"name":"あったかごはんの会","province":"東京都","city":"板橋区","address":"東京都板橋区成増1丁目12-4","lat":35.7747122,"lon":139.632674},{"name":"子ども食堂　たんぽぽ","province":"東京都","city":"板橋区","address":"東京都板橋区成増4丁目14-18","lat":35.78327223,"lon":139.63534852},{"name":"SOMPO流子ども食堂　板橋三園","province":"東京都","city":"板橋区","address":"東京都板橋区三園2丁目12-14","lat":35.79587877,"lon":139.64304484},{"name":"SOMPO流子ども食堂　板橋仲宿","province":"東京都","city":"板橋区","address":"東京都板橋区仲宿50-1","lat":35.75705795,"lon":139.70863765},{"name":"みんなの食堂　フラワー","province":"東京都","city":"板橋区","address":"東京都板橋区大山東町25-12","lat":35.74915324,"lon":139.70618543},{"name":"親子ひろば","province":"東京都","city":"板橋区","address":"東京都板橋区大谷口上町1-3","lat":35.74976121,"lon":139.69509745},{"name":"にっこりキッチン！","province":"東京都","city":"板橋区","address":"東京都板橋区富士見町17-15","lat":35.76142102,"lon":139.69848829},{"name":"りんごのたね","province":"東京都","city":"板橋区","address":"東京都板橋区富士見町3-1","lat":35.76096004,"lon":139.70108533},{"name":"こども食堂　よかや","province":"東京都","city":"板橋区","address":"東京都板橋区板橋1丁目31-8","lat":35.74766755,"lon":139.71610132},{"name":"ノンナの家","province":"東京都","city":"板橋区","address":"東京都板橋区板橋4丁目53-2","lat":35.75228096,"lon":139.71834817},{"name":"大山こども食堂・みんなの広場","province":"東京都","city":"板橋区","address":"東京都板橋区大山金井町48-2","lat":35.74555077,"lon":139.70229423},{"name":"ハッピー大山子ども食堂","province":"東京都","city":"板橋区","address":"東京都板橋区大山町40-5","lat":35.74893641,"lon":139.69878051},{"name":"子ども食堂 鶏のから騒ぎ","province":"東京都","city":"板橋区","address":"東京都板橋区弥生町31-15","lat":35.75530502,"lon":139.69531385},{"name":"地域のみなぱ食堂","province":"東京都","city":"板橋区","address":"東京都板橋区弥生町58-1","lat":35.75503824,"lon":139.69163914},{"name":"＊?郷土芸能伝承館","province":"東京都","city":"板橋区","address":"板橋区徳丸6-29-13","lat":35.778365,"lon":139.660649},{"name":"＊?成増アートギャラリー","province":"東京都","city":"板橋区","address":"板橋区成増3-13-1","lat":35.778846,"lon":139.63236},{"name":"東京都板橋四ツ又駐車場","province":"東京都","city":"板橋区","address":"東京都板橋区板橋2丁目","lat":35.74808686,"lon":139.71301545},{"name":"まえのふれあいこども食堂","province":"東京都","city":"板橋区","address":"東京都板橋区前野町2丁目43-15","lat":35.76690619,"lon":139.69032483},{"name":"板橋いずみ教会子ども食堂（ジョイフルクラブ）","province":"東京都","city":"板橋区","address":"東京都板橋区泉町52-6","lat":35.76863128,"lon":139.69969067},{"name":"陽ちゃん家こども食堂","province":"東京都","city":"板橋区","address":"東京都板橋区宮本町6-12","lat":35.76244603,"lon":139.70349062},{"name":"ことぶき子ども食堂","province":"東京都","city":"板橋区","address":"東京都板橋区相生町8-3","lat":35.77656317,"lon":139.68210293},{"name":"南蔵院こども会","province":"東京都","city":"板橋区","address":"東京都板橋区蓮沼町48-8","lat":35.77073383,"lon":139.70160989},{"name":"しむらん通り食堂","province":"東京都","city":"板橋区","address":"東京都板橋区志村1丁目35-15","lat":35.77616906,"lon":139.69405474},{"name":"かもめこども食堂","province":"東京都","city":"板橋区","address":"東京都板橋区東坂下1丁目12-7","lat":35.78199048,"lon":139.69029929},{"name":"いずみの苑コミュニティ弁当","province":"東京都","city":"板橋区","address":"東京都板橋区東坂下2丁目2-22","lat":35.78308199,"lon":139.69001316},{"name":"NPO板橋こども食堂","province":"東京都","city":"板橋区","address":"東京都板橋区蓮根2丁目21-11","lat":35.78285666,"lon":139.67648379},{"name":"さかした子ども食堂","province":"東京都","city":"板橋区","address":"東京都板橋区坂下2丁目22-5","lat":35.78320133,"lon":139.68411362},{"name":"にこにこ食堂","province":"東京都","city":"板橋区","address":"東京都板橋区坂下2丁目1-3","lat":35.78272368,"lon":139.68804944},{"name":"SOMPO流子ども食堂　高島平","province":"東京都","city":"板橋区","address":"東京都板橋区坂下3丁目5-2","lat":35.785165,"lon":139.6847135},{"name":"ごはん塾・にじいろぱーく","province":"東京都","city":"板橋区","address":"東京都板橋区高島平8丁目21-11","lat":35.79075515,"lon":139.66394866},{"name":"SOMPO流こども食堂　新高島平","province":"東京都","city":"板橋区","address":"東京都板橋区高島平7丁目17-9","lat":35.79133263,"lon":139.65537995},{"name":"まいにちおいで子ども食堂","province":"東京都","city":"板橋区","address":"東京都板橋区高島平7丁目23-21","lat":35.7908217,"lon":139.66045176},{"name":"リル・インフィニティ〈子ども食堂〉","province":"東京都","city":"板橋区","address":"東京都板橋区南常盤台1丁目18-5","lat":35.75687679,"lon":139.6888226},{"name":"ブランチCAF? in まもりん坊","province":"東京都","city":"板橋区","address":"東京都板橋区上板橋2丁目30-2","lat":35.76229793,"lon":139.67435139},{"name":"SOMPO流子ども食堂　ときわ台南","province":"東京都","city":"板橋区","address":"東京都板橋区東新町1丁目29-6","lat":35.75703764,"lon":139.68144542},{"name":"こども食堂ｂｙハーブ＆おいしい野菜塾","province":"東京都","city":"板橋区","address":"東京都板橋区西台2丁目12-12","lat":35.78035126,"lon":139.67099827},{"name":"長秀龍子ども食堂","province":"東京都","city":"板橋区","address":"東京都板橋区南常盤台1丁目20-4","lat":35.7565241,"lon":139.6898392},{"name":"寺子屋学園こども食堂","province":"東京都","city":"板橋区","address":"東京都板橋区常盤台2丁目15-9","lat":35.76136793,"lon":139.68968064},{"name":"西徳げんき食堂","province":"東京都","city":"板橋区","address":"東京都板橋区西台4丁目8-13","lat":35.77234384,"lon":139.66901538},{"name":"こども食堂　良ちゃん","province":"東京都","city":"板橋区","address":"東京都板橋区常盤台4丁目33-3","lat":35.76392557,"lon":139.67633725},{"name":"SOMPO流子ども食堂 ときわ台","province":"東京都","city":"板橋区","address":"東京都板橋区前野町2丁目18-3","lat":35.7649813,"lon":139.68694182},{"name":"「上二テラス」ランチタイム","province":"東京都","city":"板橋区","address":"東京都板橋区向原3丁目1-12","lat":35.74417819,"lon":139.6855318},{"name":"ななテラスこども食堂","province":"東京都","city":"板橋区","address":"東京都板橋区向原3丁目7-7","lat":35.7465251,"lon":139.68421513},{"name":"SOMPO流こども食堂　若木","province":"東京都","city":"板橋区","address":"東京都板橋区若木3丁目3-1","lat":35.77365225,"lon":139.67728125},{"name":"SOMPO流子ども食堂　奈美木成増","province":"東京都","city":"板橋区","address":"東京都板橋区赤塚3丁目13-1","lat":35.77897296,"lon":139.63954549},{"name":"SOMPO流子ども食堂　赤塚公園","province":"東京都","city":"板橋区","address":"東京都板橋区大門7-5","lat":35.78333099,"lon":139.64862789},{"name":"SOMPO流子ども食堂","province":"東京都","city":"板橋区","address":"東京都板橋区徳丸6丁目1-11","lat":35.77657377,"lon":139.66411013},{"name":"福まね嬉　こども食堂","province":"東京都","city":"板橋区","address":"東京都板橋区徳丸3丁目29-2","lat":35.77245185,"lon":139.65623043},{"name":"カフェひびき（誰でも食堂）","province":"東京都","city":"板橋区","address":"東京都板橋区徳丸6丁目13-18","lat":35.77790959,"lon":139.65914942},{"name":"SOMPOの子ども食堂","province":"東京都","city":"板橋区","address":"東京都板橋区赤塚新町2丁目7-16","lat":35.77214322,"lon":139.63940686},{"name":"くじらハウス赤塚こども食堂","province":"東京都","city":"板橋区","address":"東京都板橋区赤塚7丁目26-7","lat":35.77879265,"lon":139.64860305},{"name":"こども食堂　ニクビッタ","province":"東京都","city":"板橋区","address":"東京都板橋区徳丸1丁目7-12","lat":35.7684775,"lon":139.66417154},{"name":"ゆとりんぼ","province":"東京都","city":"板橋区","address":"東京都板橋区徳丸1丁目7-12","lat":35.7684775,"lon":139.66417154},{"name":"あったかごはんの会","province":"東京都","city":"板橋区","address":"東京都板橋区成増1丁目12-4","lat":35.7747122,"lon":139.632674},{"name":"子ども食堂　たんぽぽ","province":"東京都","city":"板橋区","address":"東京都板橋区成増4丁目14-18","lat":35.78327223,"lon":139.63534852},{"name":"SOMPO流子ども食堂　板橋三園","province":"東京都","city":"板橋区","address":"東京都板橋区三園2丁目12-14","lat":35.79587877,"lon":139.64304484},{"name":"SOMPO流子ども食堂　板橋仲宿","province":"東京都","city":"板橋区","address":"東京都板橋区仲宿50-1","lat":35.75705795,"lon":139.70863765},{"name":"みんなの食堂　フラワー","province":"東京都","city":"板橋区","address":"東京都板橋区大山東町25-12","lat":35.74915324,"lon":139.70618543},{"name":"親子ひろば","province":"東京都","city":"板橋区","address":"東京都板橋区大谷口上町1-3","lat":35.74976121,"lon":139.69509745},{"name":"にっこりキッチン！","province":"東京都","city":"板橋区","address":"東京都板橋区富士見町17-15","lat":35.76142102,"lon":139.69848829},{"name":"りんごのたね","province":"東京都","city":"板橋区","address":"東京都板橋区富士見町3-1","lat":35.76096004,"lon":139.70108533},{"name":"こども食堂　よかや","province":"東京都","city":"板橋区","address":"東京都板橋区板橋1丁目31-8","lat":35.74766755,"lon":139.71610132},{"name":"ノンナの家","province":"東京都","city":"板橋区","address":"東京都板橋区板橋4丁目53-2","lat":35.75228096,"lon":139.71834817},{"name":"大山こども食堂・みんなの広場","province":"東京都","city":"板橋区","address":"東京都板橋区大山金井町48-2","lat":35.74555077,"lon":139.70229423},{"name":"ハッピー大山子ども食堂","province":"東京都","city":"板橋区","address":"東京都板橋区大山町40-5","lat":35.74893641,"lon":139.69878051},{"name":"子ども食堂 鶏のから騒ぎ","province":"東京都","city":"板橋区","address":"東京都板橋区弥生町31-15","lat":35.75530502,"lon":139.69531385},{"name":"地域のみなぱ食堂","province":"東京都","city":"板橋区","address":"東京都板橋区弥生町58-1","lat":35.75503824,"lon":139.69163914},{"name":"＊?郷土芸能伝承館","province":"東京都","city":"板橋区","address":"板橋区徳丸6-29-13","lat":35.778365,"lon":139.660649},{"name":"＊?成増アートギャラリー","province":"東京都","city":"板橋区","address":"板橋区成増3-13-1","lat":35.778846,"lon":139.63236},{"name":"＊?郷土芸能伝承館","province":"東京都","city":"板橋区","address":"板橋区徳丸6-29-13","lat":35.778365,"lon":139.660649},{"name":"＊?成増アートギャラリー","province":"東京都","city":"板橋区","address":"板橋区成増3-13-1","lat":35.778846,"lon":139.63236},{"name":"＊?郷土芸能伝承館","province":"東京都","city":"板橋区","address":"板橋区徳丸6-29-13","lat":35.778365,"lon":139.660649},{"name":"＊?成増アートギャラリー","province":"東京都","city":"板橋区","address":"板橋区成増3-13-1","lat":35.778846,"lon":139.63236},{"name":"＊?郷土芸能伝承館","province":"東京都","city":"板橋区","address":"板橋区徳丸6-29-13","lat":35.778365,"lon":139.660649},{"name":"＊?成増アートギャラリー","province":"東京都","city":"板橋区","address":"板橋区成増3-13-1","lat":35.778846,"lon":139.63236},{"name":"＊?郷土芸能伝承館","province":"東京都","city":"板橋区","address":"板橋区徳丸6-29-13","lat":35.778365,"lon":139.660649},{"name":"＊?成増アートギャラリー","province":"東京都","city":"板橋区","address":"板橋区成増3-13-1","lat":35.778846,"lon":139.63236},{"name":"＊?郷土芸能伝承館","province":"東京都","city":"板橋区","address":"板橋区徳丸6-29-13","lat":35.778365,"lon":139.660649},{"name":"＊?成増アートギャラリー","province":"東京都","city":"板橋区","address":"板橋区成増3-13-1","lat":35.778846,"lon":139.63236},{"name":"＊?郷土芸能伝承館","province":"東京都","city":"板橋区","address":"板橋区徳丸6-29-13","lat":35.778365,"lon":139.660649},{"name":"＊?成増アートギャラリー","province":"東京都","city":"板橋区","address":"板橋区成増3-13-1","lat":35.778846,"lon":139.63236},{"name":"＊?郷土芸能伝承館","province":"東京都","city":"板橋区","address":"板橋区徳丸6-29-13","lat":35.778365,"lon":139.660649},{"name":"＊?成増アートギャラリー","province":"東京都","city":"板橋区","address":"板橋区成増3-13-1","lat":35.778846,"lon":139.63236},{"name":"＊?郷土芸能伝承館","province":"東京都","city":"板橋区","address":"板橋区徳丸6-29-13","lat":35.778365,"lon":139.660649},{"name":"＊?成増アートギャラリー","province":"東京都","city":"板橋区","address":"板橋区成増3-13-1","lat":35.778846,"lon":139.63236},{"name":"＊?郷土芸能伝承館","province":"東京都","city":"板橋区","address":"板橋区徳丸6-29-13","lat":35.778365,"lon":139.660649},{"name":"＊?成増アートギャラリー","province":"東京都","city":"板橋区","address":"板橋区成増3-13-1","lat":35.778846,"lon":139.63236},{"name":"＊?郷土芸能伝承館","province":"東京都","city":"板橋区","address":"板橋区徳丸6-29-13","lat":35.778365,"lon":139.660649},{"name":"＊?成増アートギャラリー","province":"東京都","city":"板橋区","address":"板橋区成増3-13-1","lat":35.778846,"lon":139.63236},{"name":"＊?郷土芸能伝承館","province":"東京都","city":"板橋区","address":"板橋区徳丸6-29-13","lat":35.778365,"lon":139.660649},{"name":"＊?成増アートギャラリー","province":"東京都","city":"板橋区","address":"板橋区成増3-13-1","lat":35.778846,"lon":139.63236},{"name":"＊?郷土芸能伝承館","province":"東京都","city":"板橋区","address":"板橋区徳丸6-29-13","lat":35.778365,"lon":139.660649},{"name":"＊?成増アートギャラリー","province":"東京都","city":"板橋区","address":"板橋区成増3-13-1","lat":35.778846,"lon":139.63236},{"name":"＊?郷土芸能伝承館","province":"東京都","city":"板橋区","address":"板橋区徳丸6-29-13","lat":35.778365,"lon":139.660649},{"name":"＊?成増アートギャラリー","province":"東京都","city":"板橋区","address":"板橋区成増3-13-1","lat":35.778846,"lon":139.63236},{"name":"＊?郷土芸能伝承館","province":"東京都","city":"板橋区","address":"板橋区徳丸6-29-13","lat":35.778365,"lon":139.660649},{"name":"＊?成増アートギャラリー","province":"東京都","city":"板橋区","address":"板橋区成増3-13-1","lat":35.778846,"lon":139.63236},{"name":"＊?郷土芸能伝承館","province":"東京都","city":"板橋区","address":"板橋区徳丸6-29-13","lat":35.778365,"lon":139.660649},{"name":"＊?成増アートギャラリー","province":"東京都","city":"板橋区","address":"板橋区成増3-13-1","lat":35.778846,"lon":139.63236},{"name":"＊?郷土芸能伝承館","province":"東京都","city":"板橋区","address":"板橋区徳丸6-29-13","lat":35.778365,"lon":139.660649},{"name":"＊?成増アートギャラリー","province":"東京都","city":"板橋区","address":"板橋区成増3-13-1","lat":35.778846,"lon":139.63236},{"name":"＊?郷土芸能伝承館","province":"東京都","city":"板橋区","address":"板橋区徳丸6-29-13","lat":35.778365,"lon":139.660649},{"name":"＊?成増アートギャラリー","province":"東京都","city":"板橋区","address":"板橋区成増3-13-1","lat":35.778846,"lon":139.63236},{"name":"＊?郷土芸能伝承館","province":"東京都","city":"板橋区","address":"板橋区徳丸6-29-13","lat":35.778365,"lon":139.660649},{"name":"＊?成増アートギャラリー","province":"東京都","city":"板橋区","address":"板橋区成増3-13-1","lat":35.778846,"lon":139.63236},{"name":"＊?郷土芸能伝承館","province":"東京都","city":"板橋区","address":"板橋区徳丸6-29-13","lat":35.778365,"lon":139.660649},{"name":"＊?成増アートギャラリー","province":"東京都","city":"板橋区","address":"板橋区成増3-13-1","lat":35.778846,"lon":139.63236},{"name":"＊?郷土芸能伝承館","province":"東京都","city":"板橋区","address":"板橋区徳丸6-29-13","lat":35.778365,"lon":139.660649},{"name":"＊?成増アートギャラリー","province":"東京都","city":"板橋区","address":"板橋区成増3-13-1","lat":35.778846,"lon":139.63236},{"name":"＊?郷土芸能伝承館","province":"東京都","city":"板橋区","address":"板橋区徳丸6-29-13","lat":35.778365,"lon":139.660649},{"name":"＊?成増アートギャラリー","province":"東京都","city":"板橋区","address":"板橋区成増3-13-1","lat":35.778846,"lon":139.63236},{"name":"＊?郷土芸能伝承館","province":"東京都","city":"板橋区","address":"板橋区徳丸6-29-13","lat":35.778365,"lon":139.660649},{"name":"＊?成増アートギャラリー","province":"東京都","city":"板橋区","address":"板橋区成増3-13-1","lat":35.778846,"lon":139.63236},{"name":"＊?郷土芸能伝承館","province":"東京都","city":"板橋区","address":"板橋区徳丸6-29-13","lat":35.778365,"lon":139.660649},{"name":"＊?成増アートギャラリー","province":"東京都","city":"板橋区","address":"板橋区成増3-13-1","lat":35.778846,"lon":139.63236},{"name":"＊?郷土芸能伝承館","province":"東京都","city":"板橋区","address":"板橋区徳丸6-29-13","lat":35.778365,"lon":139.660649},{"name":"＊?成増アートギャラリー","province":"東京都","city":"板橋区","address":"板橋区成増3-13-1","lat":35.778846,"lon":139.63236},{"name":"＊?郷土芸能伝承館","province":"東京都","city":"板橋区","address":"板橋区徳丸6-29-13","lat":35.778365,"lon":139.660649},{"name":"＊?成増アートギャラリー","province":"東京都","city":"板橋区","address":"板橋区成増3-13-1","lat":35.778846,"lon":139.63236},{"name":"＊?郷土芸能伝承館","province":"東京都","city":"板橋区","address":"板橋区徳丸6-29-13","lat":35.778365,"lon":139.660649},{"name":"＊?成増アートギャラリー","province":"東京都","city":"板橋区","address":"板橋区成増3-13-1","lat":35.778846,"lon":139.63236},{"name":"＊?郷土芸能伝承館","province":"東京都","city":"板橋区","address":"板橋区徳丸6-29-13","lat":35.778365,"lon":139.660649},{"name":"＊?成増アートギャラリー","province":"東京都","city":"板橋区","address":"板橋区成増3-13-1","lat":35.778846,"lon":139.63236},{"name":"＊?郷土芸能伝承館","province":"東京都","city":"板橋区","address":"板橋区徳丸6-29-13","lat":35.778365,"lon":139.660649},{"name":"＊?成増アートギャラリー","province":"東京都","city":"板橋区","address":"板橋区成増3-13-1","lat":35.778846,"lon":139.63236},{"name":"＊?郷土芸能伝承館","province":"東京都","city":"板橋区","address":"板橋区徳丸6-29-13","lat":35.778365,"lon":139.660649},{"name":"＊?成増アートギャラリー","province":"東京都","city":"板橋区","address":"板橋区成増3-13-1","lat":35.778846,"lon":139.63236},{"name":"＊?郷土芸能伝承館","province":"東京都","city":"板橋区","address":"板橋区徳丸6-29-13","lat":35.778365,"lon":139.660649},{"name":"＊?成増アートギャラリー","province":"東京都","city":"板橋区","address":"板橋区成増3-13-1","lat":35.778846,"lon":139.63236},{"name":"＊?郷土芸能伝承館","province":"東京都","city":"板橋区","address":"板橋区徳丸6-29-13","lat":35.778365,"lon":139.660649},{"name":"＊?成増アートギャラリー","province":"東京都","city":"板橋区","address":"板橋区成増3-13-1","lat":35.778846,"lon":139.63236},{"name":"＊?郷土芸能伝承館","province":"東京都","city":"板橋区","address":"板橋区徳丸6-29-13","lat":35.778365,"lon":139.660649},{"name":"＊?成増アートギャラリー","province":"東京都","city":"板橋区","address":"板橋区成増3-13-1","lat":35.778846,"lon":139.63236},{"name":"＊?郷土芸能伝承館","province":"東京都","city":"板橋区","address":"板橋区徳丸6-29-13","lat":35.778365,"lon":139.660649},{"name":"＊?成増アートギャラリー","province":"東京都","city":"板橋区","address":"板橋区成増3-13-1","lat":35.778846,"lon":139.63236},{"name":"＊?郷土芸能伝承館","province":"東京都","city":"板橋区","address":"板橋区徳丸6-29-13","lat":35.778365,"lon":139.660649},{"name":"＊?成増アートギャラリー","province":"東京都","city":"板橋区","address":"板橋区成増3-13-1","lat":35.778846,"lon":139.63236},{"name":"＊?郷土芸能伝承館","province":"東京都","city":"板橋区","address":"板橋区徳丸6-29-13","lat":35.778365,"lon":139.660649},{"name":"＊?成増アートギャラリー","province":"東京都","city":"板橋区","address":"板橋区成増3-13-1","lat":35.778846,"lon":139.63236},{"name":"＊?郷土芸能伝承館","province":"東京都","city":"板橋区","address":"板橋区徳丸6-29-13","lat":35.778365,"lon":139.660649},{"name":"＊?成増アートギャラリー","province":"東京都","city":"板橋区","address":"板橋区成増3-13-1","lat":35.778846,"lon":139.63236},{"name":"＊?郷土芸能伝承館","province":"東京都","city":"板橋区","address":"板橋区徳丸6-29-13","lat":35.778365,"lon":139.660649},{"name":"＊?成増アートギャラリー","province":"東京都","city":"板橋区","address":"板橋区成増3-13-1","lat":35.778846,"lon":139.63236},{"name":"＊?郷土芸能伝承館","province":"東京都","city":"板橋区","address":"板橋区徳丸6-29-13","lat":35.778365,"lon":139.660649},{"name":"＊?成増アートギャラリー","province":"東京都","city":"板橋区","address":"板橋区成増3-13-1","lat":35.778846,"lon":139.63236},{"name":"＊?郷土芸能伝承館","province":"東京都","city":"板橋区","address":"板橋区徳丸6-29-13","lat":35.778365,"lon":139.660649},{"name":"＊?成増アートギャラリー","province":"東京都","city":"板橋区","address":"板橋区成増3-13-1","lat":35.778846,"lon":139.63236},{"name":"＊?郷土芸能伝承館","province":"東京都","city":"板橋区","address":"板橋区徳丸6-29-13","lat":35.778365,"lon":139.660649},{"name":"＊?成増アートギャラリー","province":"東京都","city":"板橋区","address":"板橋区成増3-13-1","lat":35.778846,"lon":139.63236},{"name":"＊?郷土芸能伝承館","province":"東京都","city":"板橋区","address":"板橋区徳丸6-29-13","lat":35.778365,"lon":139.660649},{"name":"＊?成増アートギャラリー","province":"東京都","city":"板橋区","address":"板橋区成増3-13-1","lat":35.778846,"lon":139.63236},{"name":"＊?郷土芸能伝承館","province":"東京都","city":"板橋区","address":"板橋区徳丸6-29-13","lat":35.778365,"lon":139.660649},{"name":"＊?成増アートギャラリー","province":"東京都","city":"板橋区","address":"板橋区成増3-13-1","lat":35.778846,"lon":139.63236}]}