{"keyword":"店","data":[{"name":"豊島病院","province":"東京都","city":"板橋区","address":"東京都板橋区栄町33-1","lat":35.75269994,"lon":139.70097739},{"name":"（公財）都保健医療公社豊島病院","province":"東京都","city":"板橋区","address":"板橋区栄町33-1","lat":35.752705,"lon":139.700914},{"name":"板橋区医師会病院","province":"東京都","city":"板橋区","address":"板橋区高島平3-12-6","lat":35.786975,"lon":139.658058},{"name":"小豆沢荘","province":"東京都","city":"板橋区","address":"東京都板橋区","lat":35.7511642,"lon":139.70924619},{"name":"宿所提供施設ふじみ","province":"東京都","city":"板橋区","address":"東京都板橋区","lat":35.7511642,"lon":139.70924619},{"name":"シルバービレッジ","province":"東京都","city":"板橋区","address":"板橋区板橋1-47-10","lat":35.74874,"lon":139.718284},{"name":"向原荘","province":"東京都","city":"板橋区","address":"板橋区向原1-20-3","lat":35.743228,"lon":139.685887},{"name":"高島平荘","province":"東京都","city":"板橋区","address":"板橋区高島平1-59-10","lat":35.785823,"lon":139.671534},{"name":"小豆沢病院","province":"東京都","city":"板橋区","address":"板橋区小豆沢1-6-8","lat":35.772989,"lon":139.700727},{"name":"板橋区社会福祉協議会","province":"東京都","city":"板橋区","address":"板橋区板橋2-65-6板橋区立情報処理センター1階","lat":35.750014,"lon":139.708866},{"name":"シルバービレッジ","province":"東京都","city":"板橋区","address":"板橋区板橋1-47-10","lat":35.74858,"lon":139.71838},{"name":"向原荘","province":"東京都","city":"板橋区","address":"板橋区向原1-20-3","lat":35.74322,"lon":139.68579},{"name":"高島平荘","province":"東京都","city":"板橋区","address":"板橋区高島平1-59-10","lat":35.78559,"lon":139.67181},{"name":"㈱宇野商店","province":"東京都","city":"板橋区","address":"東京都板橋区大谷口上町70-12","lat":35.74699743,"lon":139.68910083},{"name":"\"㈱京花  \"","province":"東京都","city":"板橋区","address":"東京都板橋区中丸町28-3","lat":35.74151794,"lon":139.70425257},{"name":"㈱正美堂 大村葬儀社","province":"東京都","city":"板橋区","address":"東京都板橋区志村3丁目1-16","lat":35.77984631,"lon":139.69081043},{"name":"㈱コーディアル","province":"東京都","city":"板橋区","address":"東京都板橋区高島平1丁目48-1","lat":35.78419515,"lon":139.66936774},{"name":"㈱高根商店","province":"東京都","city":"板橋区","address":"東京都板橋区大山町19-2","lat":35.74736716,"lon":139.69926109},{"name":"\"常盤葬祭㈲  \"","province":"東京都","city":"板橋区","address":"東京都板橋区南常盤台1丁目36-8","lat":35.75755443,"lon":139.68729491},{"name":"㈲服部葬儀社","province":"東京都","city":"板橋区","address":"東京都板橋区赤塚新町1丁目22-4","lat":35.77002972,"lon":139.64477037},{"name":"㈲望月葬儀社","province":"東京都","city":"板橋区","address":"東京都板橋区栄町28-3","lat":35.75364151,"lon":139.70174951},{"name":"㈱大白社","province":"東京都","city":"板橋区","address":"東京都板橋区志村2丁目11-3","lat":35.77638007,"lon":139.69046335},{"name":"東京都立豊島病院","province":"東京都","city":"板橋区","address":"板橋区栄町33-1","lat":35.7529,"lon":139.70078},{"name":"板橋中央総合病院","province":"東京都","city":"板橋区","address":"板橋区小豆沢2-12-7","lat":35.77565,"lon":139.69719},{"name":"板橋区医師会病院","province":"東京都","city":"板橋区","address":"板橋区高島平3-12-6","lat":35.78631,"lon":139.65782},{"name":"心身障害児総合医療療育センター","province":"東京都","city":"板橋区","address":"板橋区小茂根1-1-10","lat":35.74653,"lon":139.68274},{"name":"高島平荘（日住）","province":"東京都","city":"板橋区","address":"板橋区高島平1-59-10","lat":35.78559,"lon":139.67181},{"name":"ライズケア成増","province":"東京都","city":"板橋区","address":"板橋区成増1-16-27","lat":35.77446,"lon":139.63127},{"name":"板橋区社会福祉協議会","province":"東京都","city":"板橋区","address":"板橋区板橋2-65-6板橋区情報処理センター","lat":35.75013,"lon":139.7088},{"name":"社会福祉法人東京援護協会板橋区立障がい者福祉センター","province":"東京都","city":"板橋区","address":"東京都板橋区高島平9丁目25-12","lat":35.79048032,"lon":139.66817606},{"name":"特定非営利活動法人みんなのセンターおむすびデイサービスおむすび","province":"東京都","city":"板橋区","address":"東京都板橋区仲宿45-6","lat":35.75413886,"lon":139.70952382},{"name":"特定非営利活動法人みんなのセンターおむすびときわの杜","province":"東京都","city":"板橋区","address":"東京都板橋区常盤台3丁目27-12","lat":35.76172876,"lon":139.68286728},{"name":"（公財）都保健医療公社豊島病院","province":"東京都","city":"板橋区","address":"板橋区栄町33-1","lat":35.7529,"lon":139.70078},{"name":"シルバービレッジ　※現在、休止中","province":"東京都","city":"板橋区","address":"板橋区板橋1-47-10","lat":35.74858,"lon":139.71838},{"name":"（公財）東京都保健医療公社豊島病院","province":"東京都","city":"板橋区","address":"板橋区栄町33-1","lat":35.752705,"lon":139.700914},{"name":"シルバービレッジ","province":"東京都","city":"板橋区","address":"板橋区板橋1-47-10","lat":35.74859,"lon":139.71838},{"name":"＊?大原生涯学習センター","province":"東京都","city":"板橋区","address":"板橋区大原町5-18","lat":35.769703,"lon":139.700118},{"name":"＊?成増生涯学習センター","province":"東京都","city":"板橋区","address":"板橋区成増1-12-4","lat":35.77466,"lon":139.63277},{"name":"介護老人保健施設志村さつき苑","province":"東京都","city":"板橋区","address":"板橋区坂下3-7-6","lat":35.786376,"lon":139.683855},{"name":"豊島病院","province":"東京都","city":"板橋区","address":"東京都板橋区栄町33-1","lat":35.75269994,"lon":139.70097739},{"name":"（公財）都保健医療公社豊島病院","province":"東京都","city":"板橋区","address":"板橋区栄町33-1","lat":35.752705,"lon":139.700914},{"name":"板橋区医師会病院","province":"東京都","city":"板橋区","address":"板橋区高島平3-12-6","lat":35.786975,"lon":139.658058},{"name":"小豆沢荘","province":"東京都","city":"板橋区","address":"東京都板橋区","lat":35.7511642,"lon":139.70924619},{"name":"宿所提供施設ふじみ","province":"東京都","city":"板橋区","address":"東京都板橋区","lat":35.7511642,"lon":139.70924619},{"name":"シルバービレッジ","province":"東京都","city":"板橋区","address":"板橋区板橋1-47-10","lat":35.74874,"lon":139.718284},{"name":"向原荘","province":"東京都","city":"板橋区","address":"板橋区向原1-20-3","lat":35.743228,"lon":139.685887},{"name":"高島平荘","province":"東京都","city":"板橋区","address":"板橋区高島平1-59-10","lat":35.785823,"lon":139.671534},{"name":"小豆沢病院","province":"東京都","city":"板橋区","address":"板橋区小豆沢1-6-8","lat":35.772989,"lon":139.700727},{"name":"板橋区社会福祉協議会","province":"東京都","city":"板橋区","address":"板橋区板橋2-65-6板橋区立情報処理センター1階","lat":35.750014,"lon":139.708866},{"name":"シルバービレッジ","province":"東京都","city":"板橋区","address":"板橋区板橋1-47-10","lat":35.74858,"lon":139.71838},{"name":"向原荘","province":"東京都","city":"板橋区","address":"板橋区向原1-20-3","lat":35.74322,"lon":139.68579},{"name":"高島平荘","province":"東京都","city":"板橋区","address":"板橋区高島平1-59-10","lat":35.78559,"lon":139.67181},{"name":"㈱宇野商店","province":"東京都","city":"板橋区","address":"東京都板橋区大谷口上町70-12","lat":35.74699743,"lon":139.68910083},{"name":"\"㈱京花  \"","province":"東京都","city":"板橋区","address":"東京都板橋区中丸町28-3","lat":35.74151794,"lon":139.70425257},{"name":"㈱正美堂 大村葬儀社","province":"東京都","city":"板橋区","address":"東京都板橋区志村3丁目1-16","lat":35.77984631,"lon":139.69081043},{"name":"㈱コーディアル","province":"東京都","city":"板橋区","address":"東京都板橋区高島平1丁目48-1","lat":35.78419515,"lon":139.66936774},{"name":"㈱高根商店","province":"東京都","city":"板橋区","address":"東京都板橋区大山町19-2","lat":35.74736716,"lon":139.69926109},{"name":"\"常盤葬祭㈲  \"","province":"東京都","city":"板橋区","address":"東京都板橋区南常盤台1丁目36-8","lat":35.75755443,"lon":139.68729491},{"name":"㈲服部葬儀社","province":"東京都","city":"板橋区","address":"東京都板橋区赤塚新町1丁目22-4","lat":35.77002972,"lon":139.64477037},{"name":"㈲望月葬儀社","province":"東京都","city":"板橋区","address":"東京都板橋区栄町28-3","lat":35.75364151,"lon":139.70174951},{"name":"㈱大白社","province":"東京都","city":"板橋区","address":"東京都板橋区志村2丁目11-3","lat":35.77638007,"lon":139.69046335},{"name":"東京都立豊島病院","province":"東京都","city":"板橋区","address":"板橋区栄町33-1","lat":35.7529,"lon":139.70078},{"name":"板橋中央総合病院","province":"東京都","city":"板橋区","address":"板橋区小豆沢2-12-7","lat":35.77565,"lon":139.69719},{"name":"板橋区医師会病院","province":"東京都","city":"板橋区","address":"板橋区高島平3-12-6","lat":35.78631,"lon":139.65782},{"name":"心身障害児総合医療療育センター","province":"東京都","city":"板橋区","address":"板橋区小茂根1-1-10","lat":35.74653,"lon":139.68274},{"name":"高島平荘（日住）","province":"東京都","city":"板橋区","address":"板橋区高島平1-59-10","lat":35.78559,"lon":139.67181},{"name":"ライズケア成増","province":"東京都","city":"板橋区","address":"板橋区成増1-16-27","lat":35.77446,"lon":139.63127},{"name":"板橋区社会福祉協議会","province":"東京都","city":"板橋区","address":"板橋区板橋2-65-6板橋区情報処理センター","lat":35.75013,"lon":139.7088},{"name":"社会福祉法人東京援護協会板橋区立障がい者福祉センター","province":"東京都","city":"板橋区","address":"東京都板橋区高島平9丁目25-12","lat":35.79048032,"lon":139.66817606},{"name":"特定非営利活動法人みんなのセンターおむすびデイサービスおむすび","province":"東京都","city":"板橋区","address":"東京都板橋区仲宿45-6","lat":35.75413886,"lon":139.70952382},{"name":"特定非営利活動法人みんなのセンターおむすびときわの杜","province":"東京都","city":"板橋区","address":"東京都板橋区常盤台3丁目27-12","lat":35.76172876,"lon":139.68286728},{"name":"（公財）都保健医療公社豊島病院","province":"東京都","city":"板橋区","address":"板橋区栄町33-1","lat":35.7529,"lon":139.70078},{"name":"シルバービレッジ　※現在、休止中","province":"東京都","city":"板橋区","address":"板橋区板橋1-47-10","lat":35.74858,"lon":139.71838},{"name":"（公財）東京都保健医療公社豊島病院","province":"東京都","city":"板橋区","address":"板橋区栄町33-1","lat":35.752705,"lon":139.700914},{"name":"シルバービレッジ","province":"東京都","city":"板橋区","address":"板橋区板橋1-47-10","lat":35.74859,"lon":139.71838},{"name":"介護老人保健施設志村さつき苑","province":"東京都","city":"板橋区","address":"板橋区坂下3-7-6","lat":35.786376,"lon":139.683855},{"name":"豊島病院","province":"東京都","city":"板橋区","address":"東京都板橋区栄町33-1","lat":35.75269994,"lon":139.70097739},{"name":"（公財）都保健医療公社豊島病院","province":"東京都","city":"板橋区","address":"板橋区栄町33-1","lat":35.752705,"lon":139.700914},{"name":"板橋区医師会病院","province":"東京都","city":"板橋区","address":"板橋区高島平3-12-6","lat":35.786975,"lon":139.658058},{"name":"小豆沢荘","province":"東京都","city":"板橋区","address":"東京都板橋区","lat":35.7511642,"lon":139.70924619},{"name":"宿所提供施設ふじみ","province":"東京都","city":"板橋区","address":"東京都板橋区","lat":35.7511642,"lon":139.70924619},{"name":"シルバービレッジ","province":"東京都","city":"板橋区","address":"板橋区板橋1-47-10","lat":35.74874,"lon":139.718284},{"name":"向原荘","province":"東京都","city":"板橋区","address":"板橋区向原1-20-3","lat":35.743228,"lon":139.685887},{"name":"高島平荘","province":"東京都","city":"板橋区","address":"板橋区高島平1-59-10","lat":35.785823,"lon":139.671534},{"name":"小豆沢病院","province":"東京都","city":"板橋区","address":"板橋区小豆沢1-6-8","lat":35.772989,"lon":139.700727},{"name":"板橋区社会福祉協議会","province":"東京都","city":"板橋区","address":"板橋区板橋2-65-6板橋区立情報処理センター1階","lat":35.750014,"lon":139.708866},{"name":"シルバービレッジ","province":"東京都","city":"板橋区","address":"板橋区板橋1-47-10","lat":35.74858,"lon":139.71838},{"name":"向原荘","province":"東京都","city":"板橋区","address":"板橋区向原1-20-3","lat":35.74322,"lon":139.68579},{"name":"高島平荘","province":"東京都","city":"板橋区","address":"板橋区高島平1-59-10","lat":35.78559,"lon":139.67181},{"name":"㈱宇野商店","province":"東京都","city":"板橋区","address":"東京都板橋区大谷口上町70-12","lat":35.74699743,"lon":139.68910083},{"name":"\"㈱京花  \"","province":"東京都","city":"板橋区","address":"東京都板橋区中丸町28-3","lat":35.74151794,"lon":139.70425257},{"name":"㈱正美堂 大村葬儀社","province":"東京都","city":"板橋区","address":"東京都板橋区志村3丁目1-16","lat":35.77984631,"lon":139.69081043},{"name":"㈱コーディアル","province":"東京都","city":"板橋区","address":"東京都板橋区高島平1丁目48-1","lat":35.78419515,"lon":139.66936774},{"name":"㈱高根商店","province":"東京都","city":"板橋区","address":"東京都板橋区大山町19-2","lat":35.74736716,"lon":139.69926109},{"name":"\"常盤葬祭㈲  \"","province":"東京都","city":"板橋区","address":"東京都板橋区南常盤台1丁目36-8","lat":35.75755443,"lon":139.68729491},{"name":"㈲服部葬儀社","province":"東京都","city":"板橋区","address":"東京都板橋区赤塚新町1丁目22-4","lat":35.77002972,"lon":139.64477037},{"name":"㈲望月葬儀社","province":"東京都","city":"板橋区","address":"東京都板橋区栄町28-3","lat":35.75364151,"lon":139.70174951},{"name":"㈱大白社","province":"東京都","city":"板橋区","address":"東京都板橋区志村2丁目11-3","lat":35.77638007,"lon":139.69046335},{"name":"東京都立豊島病院","province":"東京都","city":"板橋区","address":"板橋区栄町33-1","lat":35.7529,"lon":139.70078},{"name":"板橋中央総合病院","province":"東京都","city":"板橋区","address":"板橋区小豆沢2-12-7","lat":35.77565,"lon":139.69719},{"name":"板橋区医師会病院","province":"東京都","city":"板橋区","address":"板橋区高島平3-12-6","lat":35.78631,"lon":139.65782},{"name":"心身障害児総合医療療育センター","province":"東京都","city":"板橋区","address":"板橋区小茂根1-1-10","lat":35.74653,"lon":139.68274},{"name":"高島平荘（日住）","province":"東京都","city":"板橋区","address":"板橋区高島平1-59-10","lat":35.78559,"lon":139.67181},{"name":"ライズケア成増","province":"東京都","city":"板橋区","address":"板橋区成増1-16-27","lat":35.77446,"lon":139.63127},{"name":"板橋区社会福祉協議会","province":"東京都","city":"板橋区","address":"板橋区板橋2-65-6板橋区情報処理センター","lat":35.75013,"lon":139.7088},{"name":"社会福祉法人東京援護協会板橋区立障がい者福祉センター","province":"東京都","city":"板橋区","address":"東京都板橋区高島平9丁目25-12","lat":35.79048032,"lon":139.66817606},{"name":"特定非営利活動法人みんなのセンターおむすびデイサービスおむすび","province":"東京都","city":"板橋区","address":"東京都板橋区仲宿45-6","lat":35.75413886,"lon":139.70952382},{"name":"特定非営利活動法人みんなのセンターおむすびときわの杜","province":"東京都","city":"板橋区","address":"東京都板橋区常盤台3丁目27-12","lat":35.76172876,"lon":139.68286728},{"name":"（公財）都保健医療公社豊島病院","province":"東京都","city":"板橋区","address":"板橋区栄町33-1","lat":35.7529,"lon":139.70078},{"name":"シルバービレッジ　※現在、休止中","province":"東京都","city":"板橋区","address":"板橋区板橋1-47-10","lat":35.74858,"lon":139.71838},{"name":"（公財）東京都保健医療公社豊島病院","province":"東京都","city":"板橋区","address":"板橋区栄町33-1","lat":35.752705,"lon":139.700914},{"name":"シルバービレッジ","province":"東京都","city":"板橋区","address":"板橋区板橋1-47-10","lat":35.74859,"lon":139.71838},{"name":"介護老人保健施設志村さつき苑","province":"東京都","city":"板橋区","address":"板橋区坂下3-7-6","lat":35.786376,"lon":139.683855},{"name":"豊島病院","province":"東京都","city":"板橋区","address":"東京都板橋区栄町33-1","lat":35.75269994,"lon":139.70097739},{"name":"（公財）都保健医療公社豊島病院","province":"東京都","city":"板橋区","address":"板橋区栄町33-1","lat":35.752705,"lon":139.700914},{"name":"板橋区医師会病院","province":"東京都","city":"板橋区","address":"板橋区高島平3-12-6","lat":35.786975,"lon":139.658058},{"name":"小豆沢荘","province":"東京都","city":"板橋区","address":"東京都板橋区","lat":35.7511642,"lon":139.70924619},{"name":"宿所提供施設ふじみ","province":"東京都","city":"板橋区","address":"東京都板橋区","lat":35.7511642,"lon":139.70924619},{"name":"シルバービレッジ","province":"東京都","city":"板橋区","address":"板橋区板橋1-47-10","lat":35.74874,"lon":139.718284},{"name":"向原荘","province":"東京都","city":"板橋区","address":"板橋区向原1-20-3","lat":35.743228,"lon":139.685887},{"name":"高島平荘","province":"東京都","city":"板橋区","address":"板橋区高島平1-59-10","lat":35.785823,"lon":139.671534},{"name":"小豆沢病院","province":"東京都","city":"板橋区","address":"板橋区小豆沢1-6-8","lat":35.772989,"lon":139.700727},{"name":"板橋区社会福祉協議会","province":"東京都","city":"板橋区","address":"板橋区板橋2-65-6板橋区立情報処理センター1階","lat":35.750014,"lon":139.708866},{"name":"シルバービレッジ","province":"東京都","city":"板橋区","address":"板橋区板橋1-47-10","lat":35.74858,"lon":139.71838},{"name":"向原荘","province":"東京都","city":"板橋区","address":"板橋区向原1-20-3","lat":35.74322,"lon":139.68579},{"name":"高島平荘","province":"東京都","city":"板橋区","address":"板橋区高島平1-59-10","lat":35.78559,"lon":139.67181},{"name":"㈱宇野商店","province":"東京都","city":"板橋区","address":"東京都板橋区大谷口上町70-12","lat":35.74699743,"lon":139.68910083},{"name":"\"㈱京花  \"","province":"東京都","city":"板橋区","address":"東京都板橋区中丸町28-3","lat":35.74151794,"lon":139.70425257},{"name":"㈱正美堂 大村葬儀社","province":"東京都","city":"板橋区","address":"東京都板橋区志村3丁目1-16","lat":35.77984631,"lon":139.69081043},{"name":"㈱コーディアル","province":"東京都","city":"板橋区","address":"東京都板橋区高島平1丁目48-1","lat":35.78419515,"lon":139.66936774},{"name":"㈱高根商店","province":"東京都","city":"板橋区","address":"東京都板橋区大山町19-2","lat":35.74736716,"lon":139.69926109},{"name":"\"常盤葬祭㈲  \"","province":"東京都","city":"板橋区","address":"東京都板橋区南常盤台1丁目36-8","lat":35.75755443,"lon":139.68729491},{"name":"㈲服部葬儀社","province":"東京都","city":"板橋区","address":"東京都板橋区赤塚新町1丁目22-4","lat":35.77002972,"lon":139.64477037},{"name":"㈲望月葬儀社","province":"東京都","city":"板橋区","address":"東京都板橋区栄町28-3","lat":35.75364151,"lon":139.70174951},{"name":"㈱大白社","province":"東京都","city":"板橋区","address":"東京都板橋区志村2丁目11-3","lat":35.77638007,"lon":139.69046335},{"name":"東京都立豊島病院","province":"東京都","city":"板橋区","address":"板橋区栄町33-1","lat":35.7529,"lon":139.70078},{"name":"板橋中央総合病院","province":"東京都","city":"板橋区","address":"板橋区小豆沢2-12-7","lat":35.77565,"lon":139.69719},{"name":"板橋区医師会病院","province":"東京都","city":"板橋区","address":"板橋区高島平3-12-6","lat":35.78631,"lon":139.65782},{"name":"心身障害児総合医療療育センター","province":"東京都","city":"板橋区","address":"板橋区小茂根1-1-10","lat":35.74653,"lon":139.68274},{"name":"高島平荘（日住）","province":"東京都","city":"板橋区","address":"板橋区高島平1-59-10","lat":35.78559,"lon":139.67181},{"name":"ライズケア成増","province":"東京都","city":"板橋区","address":"板橋区成増1-16-27","lat":35.77446,"lon":139.63127},{"name":"板橋区社会福祉協議会","province":"東京都","city":"板橋区","address":"板橋区板橋2-65-6板橋区情報処理センター","lat":35.75013,"lon":139.7088},{"name":"社会福祉法人東京援護協会板橋区立障がい者福祉センター","province":"東京都","city":"板橋区","address":"東京都板橋区高島平9丁目25-12","lat":35.79048032,"lon":139.66817606},{"name":"特定非営利活動法人みんなのセンターおむすびデイサービスおむすび","province":"東京都","city":"板橋区","address":"東京都板橋区仲宿45-6","lat":35.75413886,"lon":139.70952382},{"name":"特定非営利活動法人みんなのセンターおむすびときわの杜","province":"東京都","city":"板橋区","address":"東京都板橋区常盤台3丁目27-12","lat":35.76172876,"lon":139.68286728},{"name":"（公財）都保健医療公社豊島病院","province":"東京都","city":"板橋区","address":"板橋区栄町33-1","lat":35.7529,"lon":139.70078},{"name":"シルバービレッジ　※現在、休止中","province":"東京都","city":"板橋区","address":"板橋区板橋1-47-10","lat":35.74858,"lon":139.71838},{"name":"（公財）東京都保健医療公社豊島病院","province":"東京都","city":"板橋区","address":"板橋区栄町33-1","lat":35.752705,"lon":139.700914},{"name":"シルバービレッジ","province":"東京都","city":"板橋区","address":"板橋区板橋1-47-10","lat":35.74859,"lon":139.71838},{"name":"介護老人保健施設志村さつき苑","province":"東京都","city":"板橋区","address":"板橋区坂下3-7-6","lat":35.786376,"lon":139.683855},{"name":"豊島病院","province":"東京都","city":"板橋区","address":"東京都板橋区栄町33-1","lat":35.75269994,"lon":139.70097739},{"name":"（公財）都保健医療公社豊島病院","province":"東京都","city":"板橋区","address":"板橋区栄町33-1","lat":35.752705,"lon":139.700914},{"name":"板橋区医師会病院","province":"東京都","city":"板橋区","address":"板橋区高島平3-12-6","lat":35.786975,"lon":139.658058},{"name":"小豆沢荘","province":"東京都","city":"板橋区","address":"東京都板橋区","lat":35.7511642,"lon":139.70924619},{"name":"宿所提供施設ふじみ","province":"東京都","city":"板橋区","address":"東京都板橋区","lat":35.7511642,"lon":139.70924619},{"name":"シルバービレッジ","province":"東京都","city":"板橋区","address":"板橋区板橋1-47-10","lat":35.74874,"lon":139.718284},{"name":"向原荘","province":"東京都","city":"板橋区","address":"板橋区向原1-20-3","lat":35.743228,"lon":139.685887},{"name":"高島平荘","province":"東京都","city":"板橋区","address":"板橋区高島平1-59-10","lat":35.785823,"lon":139.671534},{"name":"小豆沢病院","province":"東京都","city":"板橋区","address":"板橋区小豆沢1-6-8","lat":35.772989,"lon":139.700727},{"name":"板橋区社会福祉協議会","province":"東京都","city":"板橋区","address":"板橋区板橋2-65-6板橋区立情報処理センター1階","lat":35.750014,"lon":139.708866},{"name":"シルバービレッジ","province":"東京都","city":"板橋区","address":"板橋区板橋1-47-10","lat":35.74858,"lon":139.71838},{"name":"向原荘","province":"東京都","city":"板橋区","address":"板橋区向原1-20-3","lat":35.74322,"lon":139.68579},{"name":"高島平荘","province":"東京都","city":"板橋区","address":"板橋区高島平1-59-10","lat":35.78559,"lon":139.67181},{"name":"㈱宇野商店","province":"東京都","city":"板橋区","address":"東京都板橋区大谷口上町70-12","lat":35.74699743,"lon":139.68910083},{"name":"\"㈱京花  \"","province":"東京都","city":"板橋区","address":"東京都板橋区中丸町28-3","lat":35.74151794,"lon":139.70425257},{"name":"㈱正美堂 大村葬儀社","province":"東京都","city":"板橋区","address":"東京都板橋区志村3丁目1-16","lat":35.77984631,"lon":139.69081043},{"name":"㈱コーディアル","province":"東京都","city":"板橋区","address":"東京都板橋区高島平1丁目48-1","lat":35.78419515,"lon":139.66936774},{"name":"㈱高根商店","province":"東京都","city":"板橋区","address":"東京都板橋区大山町19-2","lat":35.74736716,"lon":139.69926109},{"name":"\"常盤葬祭㈲  \"","province":"東京都","city":"板橋区","address":"東京都板橋区南常盤台1丁目36-8","lat":35.75755443,"lon":139.68729491},{"name":"㈲服部葬儀社","province":"東京都","city":"板橋区","address":"東京都板橋区赤塚新町1丁目22-4","lat":35.77002972,"lon":139.64477037},{"name":"㈲望月葬儀社","province":"東京都","city":"板橋区","address":"東京都板橋区栄町28-3","lat":35.75364151,"lon":139.70174951},{"name":"㈱大白社","province":"東京都","city":"板橋区","address":"東京都板橋区志村2丁目11-3","lat":35.77638007,"lon":139.69046335},{"name":"東京都立豊島病院","province":"東京都","city":"板橋区","address":"板橋区栄町33-1","lat":35.7529,"lon":139.70078},{"name":"板橋中央総合病院","province":"東京都","city":"板橋区","address":"板橋区小豆沢2-12-7","lat":35.77565,"lon":139.69719},{"name":"板橋区医師会病院","province":"東京都","city":"板橋区","address":"板橋区高島平3-12-6","lat":35.78631,"lon":139.65782},{"name":"心身障害児総合医療療育センター","province":"東京都","city":"板橋区","address":"板橋区小茂根1-1-10","lat":35.74653,"lon":139.68274},{"name":"高島平荘（日住）","province":"東京都","city":"板橋区","address":"板橋区高島平1-59-10","lat":35.78559,"lon":139.67181},{"name":"ライズケア成増","province":"東京都","city":"板橋区","address":"板橋区成増1-16-27","lat":35.77446,"lon":139.63127},{"name":"板橋区社会福祉協議会","province":"東京都","city":"板橋区","address":"板橋区板橋2-65-6板橋区情報処理センター","lat":35.75013,"lon":139.7088},{"name":"社会福祉法人東京援護協会板橋区立障がい者福祉センター","province":"東京都","city":"板橋区","address":"東京都板橋区高島平9丁目25-12","lat":35.79048032,"lon":139.66817606},{"name":"特定非営利活動法人みんなのセンターおむすびデイサービスおむすび","province":"東京都","city":"板橋区","address":"東京都板橋区仲宿45-6","lat":35.75413886,"lon":139.70952382},{"name":"特定非営利活動法人みんなのセンターおむすびときわの杜","province":"東京都","city":"板橋区","address":"東京都板橋区常盤台3丁目27-12","lat":35.76172876,"lon":139.68286728},{"name":"（公財）都保健医療公社豊島病院","province":"東京都","city":"板橋区","address":"板橋区栄町33-1","lat":35.7529,"lon":139.70078},{"name":"シルバービレッジ　※現在、休止中","province":"東京都","city":"板橋区","address":"板橋区板橋1-47-10","lat":35.74858,"lon":139.71838},{"name":"（公財）東京都保健医療公社豊島病院","province":"東京都","city":"板橋区","address":"板橋区栄町33-1","lat":35.752705,"lon":139.700914},{"name":"シルバービレッジ","province":"東京都","city":"板橋区","address":"板橋区板橋1-47-10","lat":35.74859,"lon":139.71838},{"name":"介護老人保健施設志村さつき苑","province":"東京都","city":"板橋区","address":"板橋区坂下3-7-6","lat":35.786376,"lon":139.683855},{"name":"（公財）都保健医療公社豊島病院","province":"東京都","city":"板橋区","address":"板橋区栄町33-1","lat":35.752705,"lon":139.700914},{"name":"板橋区医師会病院","province":"東京都","city":"板橋区","address":"板橋区高島平3-12-6","lat":35.786975,"lon":139.658058},{"name":"小豆沢荘","province":"東京都","city":"板橋区","address":"東京都板橋区","lat":35.7511642,"lon":139.70924619},{"name":"宿所提供施設ふじみ","province":"東京都","city":"板橋区","address":"東京都板橋区","lat":35.7511642,"lon":139.70924619},{"name":"シルバービレッジ","province":"東京都","city":"板橋区","address":"板橋区板橋1-47-10","lat":35.74874,"lon":139.718284},{"name":"向原荘","province":"東京都","city":"板橋区","address":"板橋区向原1-20-3","lat":35.743228,"lon":139.685887},{"name":"高島平荘","province":"東京都","city":"板橋区","address":"板橋区高島平1-59-10","lat":35.785823,"lon":139.671534},{"name":"小豆沢病院","province":"東京都","city":"板橋区","address":"板橋区小豆沢1-6-8","lat":35.772989,"lon":139.700727},{"name":"板橋区社会福祉協議会","province":"東京都","city":"板橋区","address":"板橋区板橋2-65-6板橋区立情報処理センター1階","lat":35.750014,"lon":139.708866},{"name":"シルバービレッジ","province":"東京都","city":"板橋区","address":"板橋区板橋1-47-10","lat":35.74858,"lon":139.71838},{"name":"向原荘","province":"東京都","city":"板橋区","address":"板橋区向原1-20-3","lat":35.74322,"lon":139.68579},{"name":"高島平荘","province":"東京都","city":"板橋区","address":"板橋区高島平1-59-10","lat":35.78559,"lon":139.67181},{"name":"東京都立豊島病院","province":"東京都","city":"板橋区","address":"板橋区栄町33-1","lat":35.7529,"lon":139.70078},{"name":"板橋中央総合病院","province":"東京都","city":"板橋区","address":"板橋区小豆沢2-12-7","lat":35.77565,"lon":139.69719},{"name":"板橋区医師会病院","province":"東京都","city":"板橋区","address":"板橋区高島平3-12-6","lat":35.78631,"lon":139.65782},{"name":"心身障害児総合医療療育センター","province":"東京都","city":"板橋区","address":"板橋区小茂根1-1-10","lat":35.74653,"lon":139.68274},{"name":"高島平荘（日住）","province":"東京都","city":"板橋区","address":"板橋区高島平1-59-10","lat":35.78559,"lon":139.67181},{"name":"ライズケア成増","province":"東京都","city":"板橋区","address":"板橋区成増1-16-27","lat":35.77446,"lon":139.63127},{"name":"板橋区社会福祉協議会","province":"東京都","city":"板橋区","address":"板橋区板橋2-65-6板橋区情報処理センター","lat":35.75013,"lon":139.7088},{"name":"社会福祉法人東京援護協会板橋区立障がい者福祉センター","province":"東京都","city":"板橋区","address":"東京都板橋区高島平9丁目25-12","lat":35.79048032,"lon":139.66817606},{"name":"特定非営利活動法人みんなのセンターおむすびデイサービスおむすび","province":"東京都","city":"板橋区","address":"東京都板橋区仲宿45-6","lat":35.75413886,"lon":139.70952382},{"name":"特定非営利活動法人みんなのセンターおむすびときわの杜","province":"東京都","city":"板橋区","address":"東京都板橋区常盤台3丁目27-12","lat":35.76172876,"lon":139.68286728},{"name":"（公財）都保健医療公社豊島病院","province":"東京都","city":"板橋区","address":"板橋区栄町33-1","lat":35.7529,"lon":139.70078},{"name":"シルバービレッジ　※現在、休止中","province":"東京都","city":"板橋区","address":"板橋区板橋1-47-10","lat":35.74858,"lon":139.71838},{"name":"（公財）東京都保健医療公社豊島病院","province":"東京都","city":"板橋区","address":"板橋区栄町33-1","lat":35.752705,"lon":139.700914},{"name":"シルバービレッジ","province":"東京都","city":"板橋区","address":"板橋区板橋1-47-10","lat":35.74859,"lon":139.71838},{"name":"介護老人保健施設志村さつき苑","province":"東京都","city":"板橋区","address":"板橋区坂下3-7-6","lat":35.786376,"lon":139.683855},{"name":"（公財）都保健医療公社豊島病院","province":"東京都","city":"板橋区","address":"板橋区栄町33-1","lat":35.752705,"lon":139.700914},{"name":"板橋区医師会病院","province":"東京都","city":"板橋区","address":"板橋区高島平3-12-6","lat":35.786975,"lon":139.658058},{"name":"小豆沢荘","province":"東京都","city":"板橋区","address":"東京都板橋区","lat":35.7511642,"lon":139.70924619},{"name":"宿所提供施設ふじみ","province":"東京都","city":"板橋区","address":"東京都板橋区","lat":35.7511642,"lon":139.70924619},{"name":"シルバービレッジ","province":"東京都","city":"板橋区","address":"板橋区板橋1-47-10","lat":35.74874,"lon":139.718284},{"name":"向原荘","province":"東京都","city":"板橋区","address":"板橋区向原1-20-3","lat":35.743228,"lon":139.685887},{"name":"高島平荘","province":"東京都","city":"板橋区","address":"板橋区高島平1-59-10","lat":35.785823,"lon":139.671534},{"name":"小豆沢病院","province":"東京都","city":"板橋区","address":"板橋区小豆沢1-6-8","lat":35.772989,"lon":139.700727},{"name":"板橋区社会福祉協議会","province":"東京都","city":"板橋区","address":"板橋区板橋2-65-6板橋区立情報処理センター1階","lat":35.750014,"lon":139.708866},{"name":"シルバービレッジ","province":"東京都","city":"板橋区","address":"板橋区板橋1-47-10","lat":35.74858,"lon":139.71838},{"name":"向原荘","province":"東京都","city":"板橋区","address":"板橋区向原1-20-3","lat":35.74322,"lon":139.68579},{"name":"高島平荘","province":"東京都","city":"板橋区","address":"板橋区高島平1-59-10","lat":35.78559,"lon":139.67181},{"name":"東京都立豊島病院","province":"東京都","city":"板橋区","address":"板橋区栄町33-1","lat":35.7529,"lon":139.70078},{"name":"板橋中央総合病院","province":"東京都","city":"板橋区","address":"板橋区小豆沢2-12-7","lat":35.77565,"lon":139.69719},{"name":"板橋区医師会病院","province":"東京都","city":"板橋区","address":"板橋区高島平3-12-6","lat":35.78631,"lon":139.65782},{"name":"心身障害児総合医療療育センター","province":"東京都","city":"板橋区","address":"板橋区小茂根1-1-10","lat":35.74653,"lon":139.68274},{"name":"高島平荘（日住）","province":"東京都","city":"板橋区","address":"板橋区高島平1-59-10","lat":35.78559,"lon":139.67181},{"name":"ライズケア成増","province":"東京都","city":"板橋区","address":"板橋区成増1-16-27","lat":35.77446,"lon":139.63127},{"name":"板橋区社会福祉協議会","province":"東京都","city":"板橋区","address":"板橋区板橋2-65-6板橋区情報処理センター","lat":35.75013,"lon":139.7088},{"name":"社会福祉法人東京援護協会板橋区立障がい者福祉センター","province":"東京都","city":"板橋区","address":"東京都板橋区高島平9丁目25-12","lat":35.79048032,"lon":139.66817606},{"name":"特定非営利活動法人みんなのセンターおむすびデイサービスおむすび","province":"東京都","city":"板橋区","address":"東京都板橋区仲宿45-6","lat":35.75413886,"lon":139.70952382},{"name":"特定非営利活動法人みんなのセンターおむすびときわの杜","province":"東京都","city":"板橋区","address":"東京都板橋区常盤台3丁目27-12","lat":35.76172876,"lon":139.68286728},{"name":"（公財）都保健医療公社豊島病院","province":"東京都","city":"板橋区","address":"板橋区栄町33-1","lat":35.7529,"lon":139.70078},{"name":"シルバービレッジ　※現在、休止中","province":"東京都","city":"板橋区","address":"板橋区板橋1-47-10","lat":35.74858,"lon":139.71838},{"name":"（公財）東京都保健医療公社豊島病院","province":"東京都","city":"板橋区","address":"板橋区栄町33-1","lat":35.752705,"lon":139.700914},{"name":"シルバービレッジ","province":"東京都","city":"板橋区","address":"板橋区板橋1-47-10","lat":35.74859,"lon":139.71838},{"name":"介護老人保健施設志村さつき苑","province":"東京都","city":"板橋区","address":"板橋区坂下3-7-6","lat":35.786376,"lon":139.683855},{"name":"（公財）都保健医療公社豊島病院","province":"東京都","city":"板橋区","address":"板橋区栄町33-1","lat":35.752705,"lon":139.700914},{"name":"板橋区医師会病院","province":"東京都","city":"板橋区","address":"板橋区高島平3-12-6","lat":35.786975,"lon":139.658058},{"name":"小豆沢荘","province":"東京都","city":"板橋区","address":"東京都板橋区","lat":35.7511642,"lon":139.70924619},{"name":"宿所提供施設ふじみ","province":"東京都","city":"板橋区","address":"東京都板橋区","lat":35.7511642,"lon":139.70924619},{"name":"シルバービレッジ","province":"東京都","city":"板橋区","address":"板橋区板橋1-47-10","lat":35.74874,"lon":139.718284},{"name":"向原荘","province":"東京都","city":"板橋区","address":"板橋区向原1-20-3","lat":35.743228,"lon":139.685887},{"name":"高島平荘","province":"東京都","city":"板橋区","address":"板橋区高島平1-59-10","lat":35.785823,"lon":139.671534},{"name":"小豆沢病院","province":"東京都","city":"板橋区","address":"板橋区小豆沢1-6-8","lat":35.772989,"lon":139.700727},{"name":"板橋区社会福祉協議会","province":"東京都","city":"板橋区","address":"板橋区板橋2-65-6板橋区立情報処理センター1階","lat":35.750014,"lon":139.708866},{"name":"シルバービレッジ","province":"東京都","city":"板橋区","address":"板橋区板橋1-47-10","lat":35.74858,"lon":139.71838},{"name":"向原荘","province":"東京都","city":"板橋区","address":"板橋区向原1-20-3","lat":35.74322,"lon":139.68579},{"name":"高島平荘","province":"東京都","city":"板橋区","address":"板橋区高島平1-59-10","lat":35.78559,"lon":139.67181},{"name":"東京都立豊島病院","province":"東京都","city":"板橋区","address":"板橋区栄町33-1","lat":35.7529,"lon":139.70078},{"name":"板橋中央総合病院","province":"東京都","city":"板橋区","address":"板橋区小豆沢2-12-7","lat":35.77565,"lon":139.69719},{"name":"板橋区医師会病院","province":"東京都","city":"板橋区","address":"板橋区高島平3-12-6","lat":35.78631,"lon":139.65782},{"name":"心身障害児総合医療療育センター","province":"東京都","city":"板橋区","address":"板橋区小茂根1-1-10","lat":35.74653,"lon":139.68274},{"name":"高島平荘（日住）","province":"東京都","city":"板橋区","address":"板橋区高島平1-59-10","lat":35.78559,"lon":139.67181},{"name":"ライズケア成増","province":"東京都","city":"板橋区","address":"板橋区成増1-16-27","lat":35.77446,"lon":139.63127},{"name":"板橋区社会福祉協議会","province":"東京都","city":"板橋区","address":"板橋区板橋2-65-6板橋区情報処理センター","lat":35.75013,"lon":139.7088},{"name":"社会福祉法人東京援護協会板橋区立障がい者福祉センター","province":"東京都","city":"板橋区","address":"東京都板橋区高島平9丁目25-12","lat":35.79048032,"lon":139.66817606},{"name":"特定非営利活動法人みんなのセンターおむすびデイサービスおむすび","province":"東京都","city":"板橋区","address":"東京都板橋区仲宿45-6","lat":35.75413886,"lon":139.70952382},{"name":"特定非営利活動法人みんなのセンターおむすびときわの杜","province":"東京都","city":"板橋区","address":"東京都板橋区常盤台3丁目27-12","lat":35.76172876,"lon":139.68286728},{"name":"（公財）都保健医療公社豊島病院","province":"東京都","city":"板橋区","address":"板橋区栄町33-1","lat":35.7529,"lon":139.70078},{"name":"シルバービレッジ　※現在、休止中","province":"東京都","city":"板橋区","address":"板橋区板橋1-47-10","lat":35.74858,"lon":139.71838},{"name":"（公財）東京都保健医療公社豊島病院","province":"東京都","city":"板橋区","address":"板橋区栄町33-1","lat":35.752705,"lon":139.700914},{"name":"シルバービレッジ","province":"東京都","city":"板橋区","address":"板橋区板橋1-47-10","lat":35.74859,"lon":139.71838},{"name":"介護老人保健施設志村さつき苑","province":"東京都","city":"板橋区","address":"板橋区坂下3-7-6","lat":35.786376,"lon":139.683855},{"name":"（公財）都保健医療公社豊島病院","province":"東京都","city":"板橋区","address":"板橋区栄町33-1","lat":35.752705,"lon":139.700914},{"name":"板橋区医師会病院","province":"東京都","city":"板橋区","address":"板橋区高島平3-12-6","lat":35.786975,"lon":139.658058},{"name":"小豆沢荘","province":"東京都","city":"板橋区","address":"東京都板橋区","lat":35.7511642,"lon":139.70924619},{"name":"宿所提供施設ふじみ","province":"東京都","city":"板橋区","address":"東京都板橋区","lat":35.7511642,"lon":139.70924619},{"name":"シルバービレッジ","province":"東京都","city":"板橋区","address":"板橋区板橋1-47-10","lat":35.74874,"lon":139.718284},{"name":"向原荘","province":"東京都","city":"板橋区","address":"板橋区向原1-20-3","lat":35.743228,"lon":139.685887},{"name":"高島平荘","province":"東京都","city":"板橋区","address":"板橋区高島平1-59-10","lat":35.785823,"lon":139.671534},{"name":"小豆沢病院","province":"東京都","city":"板橋区","address":"板橋区小豆沢1-6-8","lat":35.772989,"lon":139.700727},{"name":"板橋区社会福祉協議会","province":"東京都","city":"板橋区","address":"板橋区板橋2-65-6板橋区立情報処理センター1階","lat":35.750014,"lon":139.708866},{"name":"シルバービレッジ","province":"東京都","city":"板橋区","address":"板橋区板橋1-47-10","lat":35.74858,"lon":139.71838},{"name":"向原荘","province":"東京都","city":"板橋区","address":"板橋区向原1-20-3","lat":35.74322,"lon":139.68579},{"name":"高島平荘","province":"東京都","city":"板橋区","address":"板橋区高島平1-59-10","lat":35.78559,"lon":139.67181},{"name":"東京都立豊島病院","province":"東京都","city":"板橋区","address":"板橋区栄町33-1","lat":35.7529,"lon":139.70078},{"name":"板橋中央総合病院","province":"東京都","city":"板橋区","address":"板橋区小豆沢2-12-7","lat":35.77565,"lon":139.69719},{"name":"板橋区医師会病院","province":"東京都","city":"板橋区","address":"板橋区高島平3-12-6","lat":35.78631,"lon":139.65782},{"name":"心身障害児総合医療療育センター","province":"東京都","city":"板橋区","address":"板橋区小茂根1-1-10","lat":35.74653,"lon":139.68274},{"name":"高島平荘（日住）","province":"東京都","city":"板橋区","address":"板橋区高島平1-59-10","lat":35.78559,"lon":139.67181},{"name":"ライズケア成増","province":"東京都","city":"板橋区","address":"板橋区成増1-16-27","lat":35.77446,"lon":139.63127},{"name":"板橋区社会福祉協議会","province":"東京都","city":"板橋区","address":"板橋区板橋2-65-6板橋区情報処理センター","lat":35.75013,"lon":139.7088},{"name":"社会福祉法人東京援護協会板橋区立障がい者福祉センター","province":"東京都","city":"板橋区","address":"東京都板橋区高島平9丁目25-12","lat":35.79048032,"lon":139.66817606},{"name":"特定非営利活動法人みんなのセンターおむすびデイサービスおむすび","province":"東京都","city":"板橋区","address":"東京都板橋区仲宿45-6","lat":35.75413886,"lon":139.70952382},{"name":"特定非営利活動法人みんなのセンターおむすびときわの杜","province":"東京都","city":"板橋区","address":"東京都板橋区常盤台3丁目27-12","lat":35.76172876,"lon":139.68286728},{"name":"（公財）都保健医療公社豊島病院","province":"東京都","city":"板橋区","address":"板橋区栄町33-1","lat":35.7529,"lon":139.70078},{"name":"シルバービレッジ　※現在、休止中","province":"東京都","city":"板橋区","address":"板橋区板橋1-47-10","lat":35.74858,"lon":139.71838},{"name":"（公財）東京都保健医療公社豊島病院","province":"東京都","city":"板橋区","address":"板橋区栄町33-1","lat":35.752705,"lon":139.700914},{"name":"シルバービレッジ","province":"東京都","city":"板橋区","address":"板橋区板橋1-47-10","lat":35.74859,"lon":139.71838},{"name":"介護老人保健施設志村さつき苑","province":"東京都","city":"板橋区","address":"板橋区坂下3-7-6","lat":35.786376,"lon":139.683855},{"name":"（公財）都保健医療公社豊島病院","province":"東京都","city":"板橋区","address":"板橋区栄町33-1","lat":35.752705,"lon":139.700914},{"name":"板橋区医師会病院","province":"東京都","city":"板橋区","address":"板橋区高島平3-12-6","lat":35.786975,"lon":139.658058},{"name":"小豆沢荘","province":"東京都","city":"板橋区","address":"東京都板橋区","lat":35.7511642,"lon":139.70924619},{"name":"宿所提供施設ふじみ","province":"東京都","city":"板橋区","address":"東京都板橋区","lat":35.7511642,"lon":139.70924619},{"name":"シルバービレッジ","province":"東京都","city":"板橋区","address":"板橋区板橋1-47-10","lat":35.74874,"lon":139.718284},{"name":"向原荘","province":"東京都","city":"板橋区","address":"板橋区向原1-20-3","lat":35.743228,"lon":139.685887},{"name":"高島平荘","province":"東京都","city":"板橋区","address":"板橋区高島平1-59-10","lat":35.785823,"lon":139.671534},{"name":"小豆沢病院","province":"東京都","city":"板橋区","address":"板橋区小豆沢1-6-8","lat":35.772989,"lon":139.700727},{"name":"板橋区社会福祉協議会","province":"東京都","city":"板橋区","address":"板橋区板橋2-65-6板橋区立情報処理センター1階","lat":35.750014,"lon":139.708866},{"name":"シルバービレッジ","province":"東京都","city":"板橋区","address":"板橋区板橋1-47-10","lat":35.74858,"lon":139.71838},{"name":"向原荘","province":"東京都","city":"板橋区","address":"板橋区向原1-20-3","lat":35.74322,"lon":139.68579},{"name":"高島平荘","province":"東京都","city":"板橋区","address":"板橋区高島平1-59-10","lat":35.78559,"lon":139.67181},{"name":"東京都立豊島病院","province":"東京都","city":"板橋区","address":"板橋区栄町33-1","lat":35.7529,"lon":139.70078},{"name":"板橋中央総合病院","province":"東京都","city":"板橋区","address":"板橋区小豆沢2-12-7","lat":35.77565,"lon":139.69719},{"name":"板橋区医師会病院","province":"東京都","city":"板橋区","address":"板橋区高島平3-12-6","lat":35.78631,"lon":139.65782},{"name":"心身障害児総合医療療育センター","province":"東京都","city":"板橋区","address":"板橋区小茂根1-1-10","lat":35.74653,"lon":139.68274},{"name":"高島平荘（日住）","province":"東京都","city":"板橋区","address":"板橋区高島平1-59-10","lat":35.78559,"lon":139.67181},{"name":"ライズケア成増","province":"東京都","city":"板橋区","address":"板橋区成増1-16-27","lat":35.77446,"lon":139.63127},{"name":"板橋区社会福祉協議会","province":"東京都","city":"板橋区","address":"板橋区板橋2-65-6板橋区情報処理センター","lat":35.75013,"lon":139.7088},{"name":"社会福祉法人東京援護協会板橋区立障がい者福祉センター","province":"東京都","city":"板橋区","address":"東京都板橋区高島平9丁目25-12","lat":35.79048032,"lon":139.66817606},{"name":"特定非営利活動法人みんなのセンターおむすびデイサービスおむすび","province":"東京都","city":"板橋区","address":"東京都板橋区仲宿45-6","lat":35.75413886,"lon":139.70952382},{"name":"特定非営利活動法人みんなのセンターおむすびときわの杜","province":"東京都","city":"板橋区","address":"東京都板橋区常盤台3丁目27-12","lat":35.76172876,"lon":139.68286728},{"name":"（公財）都保健医療公社豊島病院","province":"東京都","city":"板橋区","address":"板橋区栄町33-1","lat":35.7529,"lon":139.70078},{"name":"シルバービレッジ　※現在、休止中","province":"東京都","city":"板橋区","address":"板橋区板橋1-47-10","lat":35.74858,"lon":139.71838},{"name":"（公財）東京都保健医療公社豊島病院","province":"東京都","city":"板橋区","address":"板橋区栄町33-1","lat":35.752705,"lon":139.700914},{"name":"シルバービレッジ","province":"東京都","city":"板橋区","address":"板橋区板橋1-47-10","lat":35.74859,"lon":139.71838},{"name":"介護老人保健施設志村さつき苑","province":"東京都","city":"板橋区","address":"板橋区坂下3-7-6","lat":35.786376,"lon":139.683855},{"name":"（公財）都保健医療公社豊島病院","province":"東京都","city":"板橋区","address":"板橋区栄町33-1","lat":35.752705,"lon":139.700914},{"name":"板橋区医師会病院","province":"東京都","city":"板橋区","address":"板橋区高島平3-12-6","lat":35.786975,"lon":139.658058},{"name":"小豆沢荘","province":"東京都","city":"板橋区","address":"東京都板橋区","lat":35.7511642,"lon":139.70924619},{"name":"宿所提供施設ふじみ","province":"東京都","city":"板橋区","address":"東京都板橋区","lat":35.7511642,"lon":139.70924619},{"name":"シルバービレッジ","province":"東京都","city":"板橋区","address":"板橋区板橋1-47-10","lat":35.74874,"lon":139.718284},{"name":"向原荘","province":"東京都","city":"板橋区","address":"板橋区向原1-20-3","lat":35.743228,"lon":139.685887},{"name":"高島平荘","province":"東京都","city":"板橋区","address":"板橋区高島平1-59-10","lat":35.785823,"lon":139.671534},{"name":"小豆沢病院","province":"東京都","city":"板橋区","address":"板橋区小豆沢1-6-8","lat":35.772989,"lon":139.700727},{"name":"板橋区社会福祉協議会","province":"東京都","city":"板橋区","address":"板橋区板橋2-65-6板橋区立情報処理センター1階","lat":35.750014,"lon":139.708866},{"name":"シルバービレッジ","province":"東京都","city":"板橋区","address":"板橋区板橋1-47-10","lat":35.74858,"lon":139.71838},{"name":"向原荘","province":"東京都","city":"板橋区","address":"板橋区向原1-20-3","lat":35.74322,"lon":139.68579},{"name":"高島平荘","province":"東京都","city":"板橋区","address":"板橋区高島平1-59-10","lat":35.78559,"lon":139.67181},{"name":"東京都立豊島病院","province":"東京都","city":"板橋区","address":"板橋区栄町33-1","lat":35.7529,"lon":139.70078},{"name":"板橋中央総合病院","province":"東京都","city":"板橋区","address":"板橋区小豆沢2-12-7","lat":35.77565,"lon":139.69719},{"name":"板橋区医師会病院","province":"東京都","city":"板橋区","address":"板橋区高島平3-12-6","lat":35.78631,"lon":139.65782},{"name":"心身障害児総合医療療育センター","province":"東京都","city":"板橋区","address":"板橋区小茂根1-1-10","lat":35.74653,"lon":139.68274},{"name":"高島平荘（日住）","province":"東京都","city":"板橋区","address":"板橋区高島平1-59-10","lat":35.78559,"lon":139.67181},{"name":"ライズケア成増","province":"東京都","city":"板橋区","address":"板橋区成増1-16-27","lat":35.77446,"lon":139.63127},{"name":"板橋区社会福祉協議会","province":"東京都","city":"板橋区","address":"板橋区板橋2-65-6板橋区情報処理センター","lat":35.75013,"lon":139.7088},{"name":"社会福祉法人東京援護協会板橋区立障がい者福祉センター","province":"東京都","city":"板橋区","address":"東京都板橋区高島平9丁目25-12","lat":35.79048032,"lon":139.66817606},{"name":"特定非営利活動法人みんなのセンターおむすびデイサービスおむすび","province":"東京都","city":"板橋区","address":"東京都板橋区仲宿45-6","lat":35.75413886,"lon":139.70952382},{"name":"特定非営利活動法人みんなのセンターおむすびときわの杜","province":"東京都","city":"板橋区","address":"東京都板橋区常盤台3丁目27-12","lat":35.76172876,"lon":139.68286728},{"name":"（公財）都保健医療公社豊島病院","province":"東京都","city":"板橋区","address":"板橋区栄町33-1","lat":35.7529,"lon":139.70078},{"name":"シルバービレッジ　※現在、休止中","province":"東京都","city":"板橋区","address":"板橋区板橋1-47-10","lat":35.74858,"lon":139.71838},{"name":"（公財）東京都保健医療公社豊島病院","province":"東京都","city":"板橋区","address":"板橋区栄町33-1","lat":35.752705,"lon":139.700914},{"name":"シルバービレッジ","province":"東京都","city":"板橋区","address":"板橋区板橋1-47-10","lat":35.74859,"lon":139.71838},{"name":"介護老人保健施設志村さつき苑","province":"東京都","city":"板橋区","address":"板橋区坂下3-7-6","lat":35.786376,"lon":139.683855},{"name":"（公財）都保健医療公社豊島病院","province":"東京都","city":"板橋区","address":"板橋区栄町33-1","lat":35.752705,"lon":139.700914},{"name":"板橋区医師会病院","province":"東京都","city":"板橋区","address":"板橋区高島平3-12-6","lat":35.786975,"lon":139.658058},{"name":"小豆沢荘","province":"東京都","city":"板橋区","address":"東京都板橋区","lat":35.7511642,"lon":139.70924619},{"name":"宿所提供施設ふじみ","province":"東京都","city":"板橋区","address":"東京都板橋区","lat":35.7511642,"lon":139.70924619},{"name":"シルバービレッジ","province":"東京都","city":"板橋区","address":"板橋区板橋1-47-10","lat":35.74874,"lon":139.718284},{"name":"向原荘","province":"東京都","city":"板橋区","address":"板橋区向原1-20-3","lat":35.743228,"lon":139.685887},{"name":"高島平荘","province":"東京都","city":"板橋区","address":"板橋区高島平1-59-10","lat":35.785823,"lon":139.671534},{"name":"小豆沢病院","province":"東京都","city":"板橋区","address":"板橋区小豆沢1-6-8","lat":35.772989,"lon":139.700727},{"name":"板橋区社会福祉協議会","province":"東京都","city":"板橋区","address":"板橋区板橋2-65-6板橋区立情報処理センター1階","lat":35.750014,"lon":139.708866},{"name":"シルバービレッジ","province":"東京都","city":"板橋区","address":"板橋区板橋1-47-10","lat":35.74858,"lon":139.71838},{"name":"向原荘","province":"東京都","city":"板橋区","address":"板橋区向原1-20-3","lat":35.74322,"lon":139.68579},{"name":"高島平荘","province":"東京都","city":"板橋区","address":"板橋区高島平1-59-10","lat":35.78559,"lon":139.67181},{"name":"東京都立豊島病院","province":"東京都","city":"板橋区","address":"板橋区栄町33-1","lat":35.7529,"lon":139.70078},{"name":"板橋中央総合病院","province":"東京都","city":"板橋区","address":"板橋区小豆沢2-12-7","lat":35.77565,"lon":139.69719},{"name":"板橋区医師会病院","province":"東京都","city":"板橋区","address":"板橋区高島平3-12-6","lat":35.78631,"lon":139.65782},{"name":"心身障害児総合医療療育センター","province":"東京都","city":"板橋区","address":"板橋区小茂根1-1-10","lat":35.74653,"lon":139.68274},{"name":"高島平荘（日住）","province":"東京都","city":"板橋区","address":"板橋区高島平1-59-10","lat":35.78559,"lon":139.67181},{"name":"ライズケア成増","province":"東京都","city":"板橋区","address":"板橋区成増1-16-27","lat":35.77446,"lon":139.63127},{"name":"板橋区社会福祉協議会","province":"東京都","city":"板橋区","address":"板橋区板橋2-65-6板橋区情報処理センター","lat":35.75013,"lon":139.7088},{"name":"社会福祉法人東京援護協会板橋区立障がい者福祉センター","province":"東京都","city":"板橋区","address":"東京都板橋区高島平9丁目25-12","lat":35.79048032,"lon":139.66817606},{"name":"特定非営利活動法人みんなのセンターおむすびデイサービスおむすび","province":"東京都","city":"板橋区","address":"東京都板橋区仲宿45-6","lat":35.75413886,"lon":139.70952382},{"name":"特定非営利活動法人みんなのセンターおむすびときわの杜","province":"東京都","city":"板橋区","address":"東京都板橋区常盤台3丁目27-12","lat":35.76172876,"lon":139.68286728},{"name":"（公財）都保健医療公社豊島病院","province":"東京都","city":"板橋区","address":"板橋区栄町33-1","lat":35.7529,"lon":139.70078},{"name":"シルバービレッジ　※現在、休止中","province":"東京都","city":"板橋区","address":"板橋区板橋1-47-10","lat":35.74858,"lon":139.71838},{"name":"（公財）東京都保健医療公社豊島病院","province":"東京都","city":"板橋区","address":"板橋区栄町33-1","lat":35.752705,"lon":139.700914},{"name":"シルバービレッジ","province":"東京都","city":"板橋区","address":"板橋区板橋1-47-10","lat":35.74859,"lon":139.71838},{"name":"介護老人保健施設志村さつき苑","province":"東京都","city":"板橋区","address":"板橋区坂下3-7-6","lat":35.786376,"lon":139.683855},{"name":"（公財）都保健医療公社豊島病院","province":"東京都","city":"板橋区","address":"板橋区栄町33-1","lat":35.752705,"lon":139.700914},{"name":"板橋区医師会病院","province":"東京都","city":"板橋区","address":"板橋区高島平3-12-6","lat":35.786975,"lon":139.658058},{"name":"小豆沢荘","province":"東京都","city":"板橋区","address":"東京都板橋区","lat":35.7511642,"lon":139.70924619},{"name":"宿所提供施設ふじみ","province":"東京都","city":"板橋区","address":"東京都板橋区","lat":35.7511642,"lon":139.70924619},{"name":"シルバービレッジ","province":"東京都","city":"板橋区","address":"板橋区板橋1-47-10","lat":35.74874,"lon":139.718284},{"name":"向原荘","province":"東京都","city":"板橋区","address":"板橋区向原1-20-3","lat":35.743228,"lon":139.685887},{"name":"高島平荘","province":"東京都","city":"板橋区","address":"板橋区高島平1-59-10","lat":35.785823,"lon":139.671534},{"name":"小豆沢病院","province":"東京都","city":"板橋区","address":"板橋区小豆沢1-6-8","lat":35.772989,"lon":139.700727},{"name":"板橋区社会福祉協議会","province":"東京都","city":"板橋区","address":"板橋区板橋2-65-6板橋区立情報処理センター1階","lat":35.750014,"lon":139.708866},{"name":"シルバービレッジ","province":"東京都","city":"板橋区","address":"板橋区板橋1-47-10","lat":35.74858,"lon":139.71838},{"name":"向原荘","province":"東京都","city":"板橋区","address":"板橋区向原1-20-3","lat":35.74322,"lon":139.68579},{"name":"高島平荘","province":"東京都","city":"板橋区","address":"板橋区高島平1-59-10","lat":35.78559,"lon":139.67181},{"name":"東京都立豊島病院","province":"東京都","city":"板橋区","address":"板橋区栄町33-1","lat":35.7529,"lon":139.70078},{"name":"板橋中央総合病院","province":"東京都","city":"板橋区","address":"板橋区小豆沢2-12-7","lat":35.77565,"lon":139.69719},{"name":"板橋区医師会病院","province":"東京都","city":"板橋区","address":"板橋区高島平3-12-6","lat":35.78631,"lon":139.65782},{"name":"心身障害児総合医療療育センター","province":"東京都","city":"板橋区","address":"板橋区小茂根1-1-10","lat":35.74653,"lon":139.68274},{"name":"高島平荘（日住）","province":"東京都","city":"板橋区","address":"板橋区高島平1-59-10","lat":35.78559,"lon":139.67181},{"name":"ライズケア成増","province":"東京都","city":"板橋区","address":"板橋区成増1-16-27","lat":35.77446,"lon":139.63127},{"name":"板橋区社会福祉協議会","province":"東京都","city":"板橋区","address":"板橋区板橋2-65-6板橋区情報処理センター","lat":35.75013,"lon":139.7088},{"name":"社会福祉法人東京援護協会板橋区立障がい者福祉センター","province":"東京都","city":"板橋区","address":"東京都板橋区高島平9丁目25-12","lat":35.79048032,"lon":139.66817606},{"name":"特定非営利活動法人みんなのセンターおむすびデイサービスおむすび","province":"東京都","city":"板橋区","address":"東京都板橋区仲宿45-6","lat":35.75413886,"lon":139.70952382},{"name":"特定非営利活動法人みんなのセンターおむすびときわの杜","province":"東京都","city":"板橋区","address":"東京都板橋区常盤台3丁目27-12","lat":35.76172876,"lon":139.68286728},{"name":"（公財）都保健医療公社豊島病院","province":"東京都","city":"板橋区","address":"板橋区栄町33-1","lat":35.7529,"lon":139.70078},{"name":"シルバービレッジ　※現在、休止中","province":"東京都","city":"板橋区","address":"板橋区板橋1-47-10","lat":35.74858,"lon":139.71838},{"name":"（公財）東京都保健医療公社豊島病院","province":"東京都","city":"板橋区","address":"板橋区栄町33-1","lat":35.752705,"lon":139.700914},{"name":"シルバービレッジ","province":"東京都","city":"板橋区","address":"板橋区板橋1-47-10","lat":35.74859,"lon":139.71838},{"name":"介護老人保健施設志村さつき苑","province":"東京都","city":"板橋区","address":"板橋区坂下3-7-6","lat":35.786376,"lon":139.683855},{"name":"（公財）都保健医療公社豊島病院","province":"東京都","city":"板橋区","address":"板橋区栄町33-1","lat":35.752705,"lon":139.700914},{"name":"板橋区医師会病院","province":"東京都","city":"板橋区","address":"板橋区高島平3-12-6","lat":35.786975,"lon":139.658058},{"name":"小豆沢荘","province":"東京都","city":"板橋区","address":"東京都板橋区","lat":35.7511642,"lon":139.70924619},{"name":"宿所提供施設ふじみ","province":"東京都","city":"板橋区","address":"東京都板橋区","lat":35.7511642,"lon":139.70924619},{"name":"シルバービレッジ","province":"東京都","city":"板橋区","address":"板橋区板橋1-47-10","lat":35.74874,"lon":139.718284},{"name":"向原荘","province":"東京都","city":"板橋区","address":"板橋区向原1-20-3","lat":35.743228,"lon":139.685887},{"name":"高島平荘","province":"東京都","city":"板橋区","address":"板橋区高島平1-59-10","lat":35.785823,"lon":139.671534},{"name":"小豆沢病院","province":"東京都","city":"板橋区","address":"板橋区小豆沢1-6-8","lat":35.772989,"lon":139.700727},{"name":"板橋区社会福祉協議会","province":"東京都","city":"板橋区","address":"板橋区板橋2-65-6板橋区立情報処理センター1階","lat":35.750014,"lon":139.708866},{"name":"シルバービレッジ","province":"東京都","city":"板橋区","address":"板橋区板橋1-47-10","lat":35.74858,"lon":139.71838},{"name":"向原荘","province":"東京都","city":"板橋区","address":"板橋区向原1-20-3","lat":35.74322,"lon":139.68579},{"name":"高島平荘","province":"東京都","city":"板橋区","address":"板橋区高島平1-59-10","lat":35.78559,"lon":139.67181},{"name":"東京都立豊島病院","province":"東京都","city":"板橋区","address":"板橋区栄町33-1","lat":35.7529,"lon":139.70078},{"name":"板橋中央総合病院","province":"東京都","city":"板橋区","address":"板橋区小豆沢2-12-7","lat":35.77565,"lon":139.69719},{"name":"板橋区医師会病院","province":"東京都","city":"板橋区","address":"板橋区高島平3-12-6","lat":35.78631,"lon":139.65782},{"name":"心身障害児総合医療療育センター","province":"東京都","city":"板橋区","address":"板橋区小茂根1-1-10","lat":35.74653,"lon":139.68274},{"name":"高島平荘（日住）","province":"東京都","city":"板橋区","address":"板橋区高島平1-59-10","lat":35.78559,"lon":139.67181},{"name":"ライズケア成増","province":"東京都","city":"板橋区","address":"板橋区成増1-16-27","lat":35.77446,"lon":139.63127},{"name":"板橋区社会福祉協議会","province":"東京都","city":"板橋区","address":"板橋区板橋2-65-6板橋区情報処理センター","lat":35.75013,"lon":139.7088},{"name":"社会福祉法人東京援護協会板橋区立障がい者福祉センター","province":"東京都","city":"板橋区","address":"東京都板橋区高島平9丁目25-12","lat":35.79048032,"lon":139.66817606},{"name":"特定非営利活動法人みんなのセンターおむすびデイサービスおむすび","province":"東京都","city":"板橋区","address":"東京都板橋区仲宿45-6","lat":35.75413886,"lon":139.70952382},{"name":"特定非営利活動法人みんなのセンターおむすびときわの杜","province":"東京都","city":"板橋区","address":"東京都板橋区常盤台3丁目27-12","lat":35.76172876,"lon":139.68286728},{"name":"（公財）都保健医療公社豊島病院","province":"東京都","city":"板橋区","address":"板橋区栄町33-1","lat":35.7529,"lon":139.70078},{"name":"シルバービレッジ　※現在、休止中","province":"東京都","city":"板橋区","address":"板橋区板橋1-47-10","lat":35.74858,"lon":139.71838},{"name":"（公財）東京都保健医療公社豊島病院","province":"東京都","city":"板橋区","address":"板橋区栄町33-1","lat":35.752705,"lon":139.700914},{"name":"シルバービレッジ","province":"東京都","city":"板橋区","address":"板橋区板橋1-47-10","lat":35.74859,"lon":139.71838},{"name":"介護老人保健施設志村さつき苑","province":"東京都","city":"板橋区","address":"板橋区坂下3-7-6","lat":35.786376,"lon":139.683855},{"name":"（公財）都保健医療公社豊島病院","province":"東京都","city":"板橋区","address":"板橋区栄町33-1","lat":35.752705,"lon":139.700914},{"name":"板橋区医師会病院","province":"東京都","city":"板橋区","address":"板橋区高島平3-12-6","lat":35.786975,"lon":139.658058},{"name":"小豆沢荘","province":"東京都","city":"板橋区","address":"東京都板橋区","lat":35.7511642,"lon":139.70924619},{"name":"宿所提供施設ふじみ","province":"東京都","city":"板橋区","address":"東京都板橋区","lat":35.7511642,"lon":139.70924619},{"name":"シルバービレッジ","province":"東京都","city":"板橋区","address":"板橋区板橋1-47-10","lat":35.74874,"lon":139.718284},{"name":"向原荘","province":"東京都","city":"板橋区","address":"板橋区向原1-20-3","lat":35.743228,"lon":139.685887},{"name":"高島平荘","province":"東京都","city":"板橋区","address":"板橋区高島平1-59-10","lat":35.785823,"lon":139.671534},{"name":"小豆沢病院","province":"東京都","city":"板橋区","address":"板橋区小豆沢1-6-8","lat":35.772989,"lon":139.700727},{"name":"板橋区社会福祉協議会","province":"東京都","city":"板橋区","address":"板橋区板橋2-65-6板橋区立情報処理センター1階","lat":35.750014,"lon":139.708866},{"name":"シルバービレッジ","province":"東京都","city":"板橋区","address":"板橋区板橋1-47-10","lat":35.74858,"lon":139.71838},{"name":"向原荘","province":"東京都","city":"板橋区","address":"板橋区向原1-20-3","lat":35.74322,"lon":139.68579},{"name":"高島平荘","province":"東京都","city":"板橋区","address":"板橋区高島平1-59-10","lat":35.78559,"lon":139.67181},{"name":"東京都立豊島病院","province":"東京都","city":"板橋区","address":"板橋区栄町33-1","lat":35.7529,"lon":139.70078},{"name":"板橋中央総合病院","province":"東京都","city":"板橋区","address":"板橋区小豆沢2-12-7","lat":35.77565,"lon":139.69719},{"name":"板橋区医師会病院","province":"東京都","city":"板橋区","address":"板橋区高島平3-12-6","lat":35.78631,"lon":139.65782},{"name":"心身障害児総合医療療育センター","province":"東京都","city":"板橋区","address":"板橋区小茂根1-1-10","lat":35.74653,"lon":139.68274},{"name":"高島平荘（日住）","province":"東京都","city":"板橋区","address":"板橋区高島平1-59-10","lat":35.78559,"lon":139.67181},{"name":"ライズケア成増","province":"東京都","city":"板橋区","address":"板橋区成増1-16-27","lat":35.77446,"lon":139.63127},{"name":"板橋区社会福祉協議会","province":"東京都","city":"板橋区","address":"板橋区板橋2-65-6板橋区情報処理センター","lat":35.75013,"lon":139.7088},{"name":"社会福祉法人東京援護協会板橋区立障がい者福祉センター","province":"東京都","city":"板橋区","address":"東京都板橋区高島平9丁目25-12","lat":35.79048032,"lon":139.66817606},{"name":"特定非営利活動法人みんなのセンターおむすびデイサービスおむすび","province":"東京都","city":"板橋区","address":"東京都板橋区仲宿45-6","lat":35.75413886,"lon":139.70952382},{"name":"特定非営利活動法人みんなのセンターおむすびときわの杜","province":"東京都","city":"板橋区","address":"東京都板橋区常盤台3丁目27-12","lat":35.76172876,"lon":139.68286728},{"name":"（公財）都保健医療公社豊島病院","province":"東京都","city":"板橋区","address":"板橋区栄町33-1","lat":35.7529,"lon":139.70078},{"name":"シルバービレッジ　※現在、休止中","province":"東京都","city":"板橋区","address":"板橋区板橋1-47-10","lat":35.74858,"lon":139.71838},{"name":"（公財）東京都保健医療公社豊島病院","province":"東京都","city":"板橋区","address":"板橋区栄町33-1","lat":35.752705,"lon":139.700914},{"name":"シルバービレッジ","province":"東京都","city":"板橋区","address":"板橋区板橋1-47-10","lat":35.74859,"lon":139.71838},{"name":"介護老人保健施設志村さつき苑","province":"東京都","city":"板橋区","address":"板橋区坂下3-7-6","lat":35.786376,"lon":139.683855},{"name":"（公財）都保健医療公社豊島病院","province":"東京都","city":"板橋区","address":"板橋区栄町33-1","lat":35.752705,"lon":139.700914},{"name":"板橋区医師会病院","province":"東京都","city":"板橋区","address":"板橋区高島平3-12-6","lat":35.786975,"lon":139.658058},{"name":"小豆沢荘","province":"東京都","city":"板橋区","address":"東京都板橋区","lat":35.7511642,"lon":139.70924619},{"name":"宿所提供施設ふじみ","province":"東京都","city":"板橋区","address":"東京都板橋区","lat":35.7511642,"lon":139.70924619},{"name":"シルバービレッジ","province":"東京都","city":"板橋区","address":"板橋区板橋1-47-10","lat":35.74874,"lon":139.718284},{"name":"向原荘","province":"東京都","city":"板橋区","address":"板橋区向原1-20-3","lat":35.743228,"lon":139.685887},{"name":"高島平荘","province":"東京都","city":"板橋区","address":"板橋区高島平1-59-10","lat":35.785823,"lon":139.671534},{"name":"小豆沢病院","province":"東京都","city":"板橋区","address":"板橋区小豆沢1-6-8","lat":35.772989,"lon":139.700727},{"name":"板橋区社会福祉協議会","province":"東京都","city":"板橋区","address":"板橋区板橋2-65-6板橋区立情報処理センター1階","lat":35.750014,"lon":139.708866},{"name":"シルバービレッジ","province":"東京都","city":"板橋区","address":"板橋区板橋1-47-10","lat":35.74858,"lon":139.71838},{"name":"向原荘","province":"東京都","city":"板橋区","address":"板橋区向原1-20-3","lat":35.74322,"lon":139.68579},{"name":"高島平荘","province":"東京都","city":"板橋区","address":"板橋区高島平1-59-10","lat":35.78559,"lon":139.67181},{"name":"東京都立豊島病院","province":"東京都","city":"板橋区","address":"板橋区栄町33-1","lat":35.7529,"lon":139.70078},{"name":"板橋中央総合病院","province":"東京都","city":"板橋区","address":"板橋区小豆沢2-12-7","lat":35.77565,"lon":139.69719},{"name":"板橋区医師会病院","province":"東京都","city":"板橋区","address":"板橋区高島平3-12-6","lat":35.78631,"lon":139.65782},{"name":"心身障害児総合医療療育センター","province":"東京都","city":"板橋区","address":"板橋区小茂根1-1-10","lat":35.74653,"lon":139.68274},{"name":"高島平荘（日住）","province":"東京都","city":"板橋区","address":"板橋区高島平1-59-10","lat":35.78559,"lon":139.67181},{"name":"ライズケア成増","province":"東京都","city":"板橋区","address":"板橋区成増1-16-27","lat":35.77446,"lon":139.63127},{"name":"板橋区社会福祉協議会","province":"東京都","city":"板橋区","address":"板橋区板橋2-65-6板橋区情報処理センター","lat":35.75013,"lon":139.7088},{"name":"社会福祉法人東京援護協会板橋区立障がい者福祉センター","province":"東京都","city":"板橋区","address":"東京都板橋区高島平9丁目25-12","lat":35.79048032,"lon":139.66817606},{"name":"特定非営利活動法人みんなのセンターおむすびデイサービスおむすび","province":"東京都","city":"板橋区","address":"東京都板橋区仲宿45-6","lat":35.75413886,"lon":139.70952382},{"name":"特定非営利活動法人みんなのセンターおむすびときわの杜","province":"東京都","city":"板橋区","address":"東京都板橋区常盤台3丁目27-12","lat":35.76172876,"lon":139.68286728},{"name":"（公財）都保健医療公社豊島病院","province":"東京都","city":"板橋区","address":"板橋区栄町33-1","lat":35.7529,"lon":139.70078},{"name":"シルバービレッジ　※現在、休止中","province":"東京都","city":"板橋区","address":"板橋区板橋1-47-10","lat":35.74858,"lon":139.71838},{"name":"（公財）東京都保健医療公社豊島病院","province":"東京都","city":"板橋区","address":"板橋区栄町33-1","lat":35.752705,"lon":139.700914},{"name":"シルバービレッジ","province":"東京都","city":"板橋区","address":"板橋区板橋1-47-10","lat":35.74859,"lon":139.71838},{"name":"介護老人保健施設志村さつき苑","province":"東京都","city":"板橋区","address":"板橋区坂下3-7-6","lat":35.786376,"lon":139.683855},{"name":"（公財）都保健医療公社豊島病院","province":"東京都","city":"板橋区","address":"板橋区栄町33-1","lat":35.752705,"lon":139.700914},{"name":"板橋区医師会病院","province":"東京都","city":"板橋区","address":"板橋区高島平3-12-6","lat":35.786975,"lon":139.658058},{"name":"小豆沢荘","province":"東京都","city":"板橋区","address":"東京都板橋区","lat":35.7511642,"lon":139.70924619},{"name":"宿所提供施設ふじみ","province":"東京都","city":"板橋区","address":"東京都板橋区","lat":35.7511642,"lon":139.70924619},{"name":"シルバービレッジ","province":"東京都","city":"板橋区","address":"板橋区板橋1-47-10","lat":35.74874,"lon":139.718284},{"name":"向原荘","province":"東京都","city":"板橋区","address":"板橋区向原1-20-3","lat":35.743228,"lon":139.685887},{"name":"高島平荘","province":"東京都","city":"板橋区","address":"板橋区高島平1-59-10","lat":35.785823,"lon":139.671534},{"name":"小豆沢病院","province":"東京都","city":"板橋区","address":"板橋区小豆沢1-6-8","lat":35.772989,"lon":139.700727},{"name":"板橋区社会福祉協議会","province":"東京都","city":"板橋区","address":"板橋区板橋2-65-6板橋区立情報処理センター1階","lat":35.750014,"lon":139.708866},{"name":"シルバービレッジ","province":"東京都","city":"板橋区","address":"板橋区板橋1-47-10","lat":35.74858,"lon":139.71838},{"name":"向原荘","province":"東京都","city":"板橋区","address":"板橋区向原1-20-3","lat":35.74322,"lon":139.68579},{"name":"高島平荘","province":"東京都","city":"板橋区","address":"板橋区高島平1-59-10","lat":35.78559,"lon":139.67181},{"name":"東京都立豊島病院","province":"東京都","city":"板橋区","address":"板橋区栄町33-1","lat":35.7529,"lon":139.70078},{"name":"板橋中央総合病院","province":"東京都","city":"板橋区","address":"板橋区小豆沢2-12-7","lat":35.77565,"lon":139.69719},{"name":"板橋区医師会病院","province":"東京都","city":"板橋区","address":"板橋区高島平3-12-6","lat":35.78631,"lon":139.65782},{"name":"心身障害児総合医療療育センター","province":"東京都","city":"板橋区","address":"板橋区小茂根1-1-10","lat":35.74653,"lon":139.68274},{"name":"高島平荘（日住）","province":"東京都","city":"板橋区","address":"板橋区高島平1-59-10","lat":35.78559,"lon":139.67181},{"name":"ライズケア成増","province":"東京都","city":"板橋区","address":"板橋区成増1-16-27","lat":35.77446,"lon":139.63127},{"name":"板橋区社会福祉協議会","province":"東京都","city":"板橋区","address":"板橋区板橋2-65-6板橋区情報処理センター","lat":35.75013,"lon":139.7088},{"name":"社会福祉法人東京援護協会板橋区立障がい者福祉センター","province":"東京都","city":"板橋区","address":"東京都板橋区高島平9丁目25-12","lat":35.79048032,"lon":139.66817606},{"name":"特定非営利活動法人みんなのセンターおむすびデイサービスおむすび","province":"東京都","city":"板橋区","address":"東京都板橋区仲宿45-6","lat":35.75413886,"lon":139.70952382},{"name":"特定非営利活動法人みんなのセンターおむすびときわの杜","province":"東京都","city":"板橋区","address":"東京都板橋区常盤台3丁目27-12","lat":35.76172876,"lon":139.68286728},{"name":"（公財）都保健医療公社豊島病院","province":"東京都","city":"板橋区","address":"板橋区栄町33-1","lat":35.7529,"lon":139.70078},{"name":"シルバービレッジ　※現在、休止中","province":"東京都","city":"板橋区","address":"板橋区板橋1-47-10","lat":35.74858,"lon":139.71838},{"name":"（公財）東京都保健医療公社豊島病院","province":"東京都","city":"板橋区","address":"板橋区栄町33-1","lat":35.752705,"lon":139.700914},{"name":"シルバービレッジ","province":"東京都","city":"板橋区","address":"板橋区板橋1-47-10","lat":35.74859,"lon":139.71838},{"name":"介護老人保健施設志村さつき苑","province":"東京都","city":"板橋区","address":"板橋区坂下3-7-6","lat":35.786376,"lon":139.683855},{"name":"（公財）都保健医療公社豊島病院","province":"東京都","city":"板橋区","address":"板橋区栄町33-1","lat":35.752705,"lon":139.700914},{"name":"板橋区医師会病院","province":"東京都","city":"板橋区","address":"板橋区高島平3-12-6","lat":35.786975,"lon":139.658058},{"name":"小豆沢荘","province":"東京都","city":"板橋区","address":"東京都板橋区","lat":35.7511642,"lon":139.70924619},{"name":"宿所提供施設ふじみ","province":"東京都","city":"板橋区","address":"東京都板橋区","lat":35.7511642,"lon":139.70924619},{"name":"シルバービレッジ","province":"東京都","city":"板橋区","address":"板橋区板橋1-47-10","lat":35.74874,"lon":139.718284},{"name":"向原荘","province":"東京都","city":"板橋区","address":"板橋区向原1-20-3","lat":35.743228,"lon":139.685887},{"name":"高島平荘","province":"東京都","city":"板橋区","address":"板橋区高島平1-59-10","lat":35.785823,"lon":139.671534},{"name":"小豆沢病院","province":"東京都","city":"板橋区","address":"板橋区小豆沢1-6-8","lat":35.772989,"lon":139.700727},{"name":"板橋区社会福祉協議会","province":"東京都","city":"板橋区","address":"板橋区板橋2-65-6板橋区立情報処理センター1階","lat":35.750014,"lon":139.708866},{"name":"シルバービレッジ","province":"東京都","city":"板橋区","address":"板橋区板橋1-47-10","lat":35.74858,"lon":139.71838},{"name":"向原荘","province":"東京都","city":"板橋区","address":"板橋区向原1-20-3","lat":35.74322,"lon":139.68579},{"name":"高島平荘","province":"東京都","city":"板橋区","address":"板橋区高島平1-59-10","lat":35.78559,"lon":139.67181},{"name":"東京都立豊島病院","province":"東京都","city":"板橋区","address":"板橋区栄町33-1","lat":35.7529,"lon":139.70078},{"name":"板橋中央総合病院","province":"東京都","city":"板橋区","address":"板橋区小豆沢2-12-7","lat":35.77565,"lon":139.69719},{"name":"板橋区医師会病院","province":"東京都","city":"板橋区","address":"板橋区高島平3-12-6","lat":35.78631,"lon":139.65782},{"name":"心身障害児総合医療療育センター","province":"東京都","city":"板橋区","address":"板橋区小茂根1-1-10","lat":35.74653,"lon":139.68274},{"name":"高島平荘（日住）","province":"東京都","city":"板橋区","address":"板橋区高島平1-59-10","lat":35.78559,"lon":139.67181},{"name":"ライズケア成増","province":"東京都","city":"板橋区","address":"板橋区成増1-16-27","lat":35.77446,"lon":139.63127},{"name":"板橋区社会福祉協議会","province":"東京都","city":"板橋区","address":"板橋区板橋2-65-6板橋区情報処理センター","lat":35.75013,"lon":139.7088},{"name":"社会福祉法人東京援護協会板橋区立障がい者福祉センター","province":"東京都","city":"板橋区","address":"東京都板橋区高島平9丁目25-12","lat":35.79048032,"lon":139.66817606},{"name":"特定非営利活動法人みんなのセンターおむすびデイサービスおむすび","province":"東京都","city":"板橋区","address":"東京都板橋区仲宿45-6","lat":35.75413886,"lon":139.70952382},{"name":"特定非営利活動法人みんなのセンターおむすびときわの杜","province":"東京都","city":"板橋区","address":"東京都板橋区常盤台3丁目27-12","lat":35.76172876,"lon":139.68286728},{"name":"（公財）都保健医療公社豊島病院","province":"東京都","city":"板橋区","address":"板橋区栄町33-1","lat":35.7529,"lon":139.70078},{"name":"シルバービレッジ　※現在、休止中","province":"東京都","city":"板橋区","address":"板橋区板橋1-47-10","lat":35.74858,"lon":139.71838},{"name":"（公財）東京都保健医療公社豊島病院","province":"東京都","city":"板橋区","address":"板橋区栄町33-1","lat":35.752705,"lon":139.700914},{"name":"シルバービレッジ","province":"東京都","city":"板橋区","address":"板橋区板橋1-47-10","lat":35.74859,"lon":139.71838},{"name":"介護老人保健施設志村さつき苑","province":"東京都","city":"板橋区","address":"板橋区坂下3-7-6","lat":35.786376,"lon":139.683855},{"name":"（公財）都保健医療公社豊島病院","province":"東京都","city":"板橋区","address":"板橋区栄町33-1","lat":35.752705,"lon":139.700914},{"name":"板橋区医師会病院","province":"東京都","city":"板橋区","address":"板橋区高島平3-12-6","lat":35.786975,"lon":139.658058},{"name":"小豆沢荘","province":"東京都","city":"板橋区","address":"東京都板橋区","lat":35.7511642,"lon":139.70924619},{"name":"宿所提供施設ふじみ","province":"東京都","city":"板橋区","address":"東京都板橋区","lat":35.7511642,"lon":139.70924619},{"name":"シルバービレッジ","province":"東京都","city":"板橋区","address":"板橋区板橋1-47-10","lat":35.74874,"lon":139.718284},{"name":"向原荘","province":"東京都","city":"板橋区","address":"板橋区向原1-20-3","lat":35.743228,"lon":139.685887},{"name":"高島平荘","province":"東京都","city":"板橋区","address":"板橋区高島平1-59-10","lat":35.785823,"lon":139.671534},{"name":"小豆沢病院","province":"東京都","city":"板橋区","address":"板橋区小豆沢1-6-8","lat":35.772989,"lon":139.700727},{"name":"板橋区社会福祉協議会","province":"東京都","city":"板橋区","address":"板橋区板橋2-65-6板橋区立情報処理センター1階","lat":35.750014,"lon":139.708866},{"name":"シルバービレッジ","province":"東京都","city":"板橋区","address":"板橋区板橋1-47-10","lat":35.74858,"lon":139.71838},{"name":"向原荘","province":"東京都","city":"板橋区","address":"板橋区向原1-20-3","lat":35.74322,"lon":139.68579},{"name":"高島平荘","province":"東京都","city":"板橋区","address":"板橋区高島平1-59-10","lat":35.78559,"lon":139.67181},{"name":"東京都立豊島病院","province":"東京都","city":"板橋区","address":"板橋区栄町33-1","lat":35.7529,"lon":139.70078},{"name":"板橋中央総合病院","province":"東京都","city":"板橋区","address":"板橋区小豆沢2-12-7","lat":35.77565,"lon":139.69719},{"name":"板橋区医師会病院","province":"東京都","city":"板橋区","address":"板橋区高島平3-12-6","lat":35.78631,"lon":139.65782},{"name":"心身障害児総合医療療育センター","province":"東京都","city":"板橋区","address":"板橋区小茂根1-1-10","lat":35.74653,"lon":139.68274},{"name":"高島平荘（日住）","province":"東京都","city":"板橋区","address":"板橋区高島平1-59-10","lat":35.78559,"lon":139.67181},{"name":"ライズケア成増","province":"東京都","city":"板橋区","address":"板橋区成増1-16-27","lat":35.77446,"lon":139.63127},{"name":"板橋区社会福祉協議会","province":"東京都","city":"板橋区","address":"板橋区板橋2-65-6板橋区情報処理センター","lat":35.75013,"lon":139.7088},{"name":"社会福祉法人東京援護協会板橋区立障がい者福祉センター","province":"東京都","city":"板橋区","address":"東京都板橋区高島平9丁目25-12","lat":35.79048032,"lon":139.66817606},{"name":"特定非営利活動法人みんなのセンターおむすびデイサービスおむすび","province":"東京都","city":"板橋区","address":"東京都板橋区仲宿45-6","lat":35.75413886,"lon":139.70952382},{"name":"特定非営利活動法人みんなのセンターおむすびときわの杜","province":"東京都","city":"板橋区","address":"東京都板橋区常盤台3丁目27-12","lat":35.76172876,"lon":139.68286728},{"name":"（公財）都保健医療公社豊島病院","province":"東京都","city":"板橋区","address":"板橋区栄町33-1","lat":35.7529,"lon":139.70078},{"name":"シルバービレッジ　※現在、休止中","province":"東京都","city":"板橋区","address":"板橋区板橋1-47-10","lat":35.74858,"lon":139.71838},{"name":"（公財）東京都保健医療公社豊島病院","province":"東京都","city":"板橋区","address":"板橋区栄町33-1","lat":35.752705,"lon":139.700914},{"name":"シルバービレッジ","province":"東京都","city":"板橋区","address":"板橋区板橋1-47-10","lat":35.74859,"lon":139.71838},{"name":"介護老人保健施設志村さつき苑","province":"東京都","city":"板橋区","address":"板橋区坂下3-7-6","lat":35.786376,"lon":139.683855},{"name":"（公財）都保健医療公社豊島病院","province":"東京都","city":"板橋区","address":"板橋区栄町33-1","lat":35.752705,"lon":139.700914},{"name":"板橋区医師会病院","province":"東京都","city":"板橋区","address":"板橋区高島平3-12-6","lat":35.786975,"lon":139.658058},{"name":"小豆沢荘","province":"東京都","city":"板橋区","address":"東京都板橋区","lat":35.7511642,"lon":139.70924619},{"name":"宿所提供施設ふじみ","province":"東京都","city":"板橋区","address":"東京都板橋区","lat":35.7511642,"lon":139.70924619},{"name":"シルバービレッジ","province":"東京都","city":"板橋区","address":"板橋区板橋1-47-10","lat":35.74874,"lon":139.718284},{"name":"向原荘","province":"東京都","city":"板橋区","address":"板橋区向原1-20-3","lat":35.743228,"lon":139.685887},{"name":"高島平荘","province":"東京都","city":"板橋区","address":"板橋区高島平1-59-10","lat":35.785823,"lon":139.671534},{"name":"小豆沢病院","province":"東京都","city":"板橋区","address":"板橋区小豆沢1-6-8","lat":35.772989,"lon":139.700727},{"name":"板橋区社会福祉協議会","province":"東京都","city":"板橋区","address":"板橋区板橋2-65-6板橋区立情報処理センター1階","lat":35.750014,"lon":139.708866},{"name":"シルバービレッジ","province":"東京都","city":"板橋区","address":"板橋区板橋1-47-10","lat":35.74858,"lon":139.71838},{"name":"向原荘","province":"東京都","city":"板橋区","address":"板橋区向原1-20-3","lat":35.74322,"lon":139.68579},{"name":"高島平荘","province":"東京都","city":"板橋区","address":"板橋区高島平1-59-10","lat":35.78559,"lon":139.67181},{"name":"東京都立豊島病院","province":"東京都","city":"板橋区","address":"板橋区栄町33-1","lat":35.7529,"lon":139.70078},{"name":"板橋中央総合病院","province":"東京都","city":"板橋区","address":"板橋区小豆沢2-12-7","lat":35.77565,"lon":139.69719},{"name":"板橋区医師会病院","province":"東京都","city":"板橋区","address":"板橋区高島平3-12-6","lat":35.78631,"lon":139.65782},{"name":"心身障害児総合医療療育センター","province":"東京都","city":"板橋区","address":"板橋区小茂根1-1-10","lat":35.74653,"lon":139.68274},{"name":"高島平荘（日住）","province":"東京都","city":"板橋区","address":"板橋区高島平1-59-10","lat":35.78559,"lon":139.67181},{"name":"ライズケア成増","province":"東京都","city":"板橋区","address":"板橋区成増1-16-27","lat":35.77446,"lon":139.63127},{"name":"板橋区社会福祉協議会","province":"東京都","city":"板橋区","address":"板橋区板橋2-65-6板橋区情報処理センター","lat":35.75013,"lon":139.7088},{"name":"社会福祉法人東京援護協会板橋区立障がい者福祉センター","province":"東京都","city":"板橋区","address":"東京都板橋区高島平9丁目25-12","lat":35.79048032,"lon":139.66817606},{"name":"特定非営利活動法人みんなのセンターおむすびデイサービスおむすび","province":"東京都","city":"板橋区","address":"東京都板橋区仲宿45-6","lat":35.75413886,"lon":139.70952382},{"name":"特定非営利活動法人みんなのセンターおむすびときわの杜","province":"東京都","city":"板橋区","address":"東京都板橋区常盤台3丁目27-12","lat":35.76172876,"lon":139.68286728},{"name":"（公財）都保健医療公社豊島病院","province":"東京都","city":"板橋区","address":"板橋区栄町33-1","lat":35.7529,"lon":139.70078},{"name":"シルバービレッジ　※現在、休止中","province":"東京都","city":"板橋区","address":"板橋区板橋1-47-10","lat":35.74858,"lon":139.71838},{"name":"（公財）東京都保健医療公社豊島病院","province":"東京都","city":"板橋区","address":"板橋区栄町33-1","lat":35.752705,"lon":139.700914},{"name":"シルバービレッジ","province":"東京都","city":"板橋区","address":"板橋区板橋1-47-10","lat":35.74859,"lon":139.71838},{"name":"介護老人保健施設志村さつき苑","province":"東京都","city":"板橋区","address":"板橋区坂下3-7-6","lat":35.786376,"lon":139.683855},{"name":"（公財）都保健医療公社豊島病院","province":"東京都","city":"板橋区","address":"板橋区栄町33-1","lat":35.752705,"lon":139.700914},{"name":"板橋区医師会病院","province":"東京都","city":"板橋区","address":"板橋区高島平3-12-6","lat":35.786975,"lon":139.658058},{"name":"小豆沢荘","province":"東京都","city":"板橋区","address":"東京都板橋区","lat":35.7511642,"lon":139.70924619},{"name":"宿所提供施設ふじみ","province":"東京都","city":"板橋区","address":"東京都板橋区","lat":35.7511642,"lon":139.70924619},{"name":"シルバービレッジ","province":"東京都","city":"板橋区","address":"板橋区板橋1-47-10","lat":35.74874,"lon":139.718284},{"name":"向原荘","province":"東京都","city":"板橋区","address":"板橋区向原1-20-3","lat":35.743228,"lon":139.685887},{"name":"高島平荘","province":"東京都","city":"板橋区","address":"板橋区高島平1-59-10","lat":35.785823,"lon":139.671534},{"name":"小豆沢病院","province":"東京都","city":"板橋区","address":"板橋区小豆沢1-6-8","lat":35.772989,"lon":139.700727},{"name":"板橋区社会福祉協議会","province":"東京都","city":"板橋区","address":"板橋区板橋2-65-6板橋区立情報処理センター1階","lat":35.750014,"lon":139.708866},{"name":"シルバービレッジ","province":"東京都","city":"板橋区","address":"板橋区板橋1-47-10","lat":35.74858,"lon":139.71838},{"name":"向原荘","province":"東京都","city":"板橋区","address":"板橋区向原1-20-3","lat":35.74322,"lon":139.68579},{"name":"高島平荘","province":"東京都","city":"板橋区","address":"板橋区高島平1-59-10","lat":35.78559,"lon":139.67181},{"name":"東京都立豊島病院","province":"東京都","city":"板橋区","address":"板橋区栄町33-1","lat":35.7529,"lon":139.70078},{"name":"板橋中央総合病院","province":"東京都","city":"板橋区","address":"板橋区小豆沢2-12-7","lat":35.77565,"lon":139.69719},{"name":"板橋区医師会病院","province":"東京都","city":"板橋区","address":"板橋区高島平3-12-6","lat":35.78631,"lon":139.65782},{"name":"心身障害児総合医療療育センター","province":"東京都","city":"板橋区","address":"板橋区小茂根1-1-10","lat":35.74653,"lon":139.68274},{"name":"高島平荘（日住）","province":"東京都","city":"板橋区","address":"板橋区高島平1-59-10","lat":35.78559,"lon":139.67181},{"name":"ライズケア成増","province":"東京都","city":"板橋区","address":"板橋区成増1-16-27","lat":35.77446,"lon":139.63127},{"name":"板橋区社会福祉協議会","province":"東京都","city":"板橋区","address":"板橋区板橋2-65-6板橋区情報処理センター","lat":35.75013,"lon":139.7088},{"name":"社会福祉法人東京援護協会板橋区立障がい者福祉センター","province":"東京都","city":"板橋区","address":"東京都板橋区高島平9丁目25-12","lat":35.79048032,"lon":139.66817606},{"name":"特定非営利活動法人みんなのセンターおむすびデイサービスおむすび","province":"東京都","city":"板橋区","address":"東京都板橋区仲宿45-6","lat":35.75413886,"lon":139.70952382},{"name":"特定非営利活動法人みんなのセンターおむすびときわの杜","province":"東京都","city":"板橋区","address":"東京都板橋区常盤台3丁目27-12","lat":35.76172876,"lon":139.68286728},{"name":"（公財）都保健医療公社豊島病院","province":"東京都","city":"板橋区","address":"板橋区栄町33-1","lat":35.7529,"lon":139.70078},{"name":"シルバービレッジ　※現在、休止中","province":"東京都","city":"板橋区","address":"板橋区板橋1-47-10","lat":35.74858,"lon":139.71838},{"name":"（公財）東京都保健医療公社豊島病院","province":"東京都","city":"板橋区","address":"板橋区栄町33-1","lat":35.752705,"lon":139.700914},{"name":"シルバービレッジ","province":"東京都","city":"板橋区","address":"板橋区板橋1-47-10","lat":35.74859,"lon":139.71838},{"name":"介護老人保健施設志村さつき苑","province":"東京都","city":"板橋区","address":"板橋区坂下3-7-6","lat":35.786376,"lon":139.683855},{"name":"（公財）都保健医療公社豊島病院","province":"東京都","city":"板橋区","address":"板橋区栄町33-1","lat":35.752705,"lon":139.700914},{"name":"板橋区医師会病院","province":"東京都","city":"板橋区","address":"板橋区高島平3-12-6","lat":35.786975,"lon":139.658058},{"name":"小豆沢荘","province":"東京都","city":"板橋区","address":"東京都板橋区","lat":35.7511642,"lon":139.70924619},{"name":"宿所提供施設ふじみ","province":"東京都","city":"板橋区","address":"東京都板橋区","lat":35.7511642,"lon":139.70924619},{"name":"シルバービレッジ","province":"東京都","city":"板橋区","address":"板橋区板橋1-47-10","lat":35.74874,"lon":139.718284},{"name":"向原荘","province":"東京都","city":"板橋区","address":"板橋区向原1-20-3","lat":35.743228,"lon":139.685887},{"name":"高島平荘","province":"東京都","city":"板橋区","address":"板橋区高島平1-59-10","lat":35.785823,"lon":139.671534},{"name":"小豆沢病院","province":"東京都","city":"板橋区","address":"板橋区小豆沢1-6-8","lat":35.772989,"lon":139.700727},{"name":"板橋区社会福祉協議会","province":"東京都","city":"板橋区","address":"板橋区板橋2-65-6板橋区立情報処理センター1階","lat":35.750014,"lon":139.708866},{"name":"シルバービレッジ","province":"東京都","city":"板橋区","address":"板橋区板橋1-47-10","lat":35.74858,"lon":139.71838},{"name":"向原荘","province":"東京都","city":"板橋区","address":"板橋区向原1-20-3","lat":35.74322,"lon":139.68579},{"name":"高島平荘","province":"東京都","city":"板橋区","address":"板橋区高島平1-59-10","lat":35.78559,"lon":139.67181},{"name":"東京都立豊島病院","province":"東京都","city":"板橋区","address":"板橋区栄町33-1","lat":35.7529,"lon":139.70078},{"name":"板橋中央総合病院","province":"東京都","city":"板橋区","address":"板橋区小豆沢2-12-7","lat":35.77565,"lon":139.69719},{"name":"板橋区医師会病院","province":"東京都","city":"板橋区","address":"板橋区高島平3-12-6","lat":35.78631,"lon":139.65782},{"name":"心身障害児総合医療療育センター","province":"東京都","city":"板橋区","address":"板橋区小茂根1-1-10","lat":35.74653,"lon":139.68274},{"name":"高島平荘（日住）","province":"東京都","city":"板橋区","address":"板橋区高島平1-59-10","lat":35.78559,"lon":139.67181},{"name":"ライズケア成増","province":"東京都","city":"板橋区","address":"板橋区成増1-16-27","lat":35.77446,"lon":139.63127},{"name":"板橋区社会福祉協議会","province":"東京都","city":"板橋区","address":"板橋区板橋2-65-6板橋区情報処理センター","lat":35.75013,"lon":139.7088},{"name":"社会福祉法人東京援護協会板橋区立障がい者福祉センター","province":"東京都","city":"板橋区","address":"東京都板橋区高島平9丁目25-12","lat":35.79048032,"lon":139.66817606},{"name":"特定非営利活動法人みんなのセンターおむすびデイサービスおむすび","province":"東京都","city":"板橋区","address":"東京都板橋区仲宿45-6","lat":35.75413886,"lon":139.70952382},{"name":"特定非営利活動法人みんなのセンターおむすびときわの杜","province":"東京都","city":"板橋区","address":"東京都板橋区常盤台3丁目27-12","lat":35.76172876,"lon":139.68286728},{"name":"（公財）都保健医療公社豊島病院","province":"東京都","city":"板橋区","address":"板橋区栄町33-1","lat":35.7529,"lon":139.70078},{"name":"シルバービレッジ　※現在、休止中","province":"東京都","city":"板橋区","address":"板橋区板橋1-47-10","lat":35.74858,"lon":139.71838},{"name":"（公財）東京都保健医療公社豊島病院","province":"東京都","city":"板橋区","address":"板橋区栄町33-1","lat":35.752705,"lon":139.700914},{"name":"シルバービレッジ","province":"東京都","city":"板橋区","address":"板橋区板橋1-47-10","lat":35.74859,"lon":139.71838},{"name":"介護老人保健施設志村さつき苑","province":"東京都","city":"板橋区","address":"板橋区坂下3-7-6","lat":35.786376,"lon":139.683855},{"name":"（公財）都保健医療公社豊島病院","province":"東京都","city":"板橋区","address":"板橋区栄町33-1","lat":35.752705,"lon":139.700914},{"name":"板橋区医師会病院","province":"東京都","city":"板橋区","address":"板橋区高島平3-12-6","lat":35.786975,"lon":139.658058},{"name":"小豆沢荘","province":"東京都","city":"板橋区","address":"東京都板橋区","lat":35.7511642,"lon":139.70924619},{"name":"宿所提供施設ふじみ","province":"東京都","city":"板橋区","address":"東京都板橋区","lat":35.7511642,"lon":139.70924619},{"name":"シルバービレッジ","province":"東京都","city":"板橋区","address":"板橋区板橋1-47-10","lat":35.74874,"lon":139.718284},{"name":"向原荘","province":"東京都","city":"板橋区","address":"板橋区向原1-20-3","lat":35.743228,"lon":139.685887},{"name":"高島平荘","province":"東京都","city":"板橋区","address":"板橋区高島平1-59-10","lat":35.785823,"lon":139.671534},{"name":"小豆沢病院","province":"東京都","city":"板橋区","address":"板橋区小豆沢1-6-8","lat":35.772989,"lon":139.700727},{"name":"板橋区社会福祉協議会","province":"東京都","city":"板橋区","address":"板橋区板橋2-65-6板橋区立情報処理センター1階","lat":35.750014,"lon":139.708866},{"name":"シルバービレッジ","province":"東京都","city":"板橋区","address":"板橋区板橋1-47-10","lat":35.74858,"lon":139.71838},{"name":"向原荘","province":"東京都","city":"板橋区","address":"板橋区向原1-20-3","lat":35.74322,"lon":139.68579},{"name":"高島平荘","province":"東京都","city":"板橋区","address":"板橋区高島平1-59-10","lat":35.78559,"lon":139.67181},{"name":"東京都立豊島病院","province":"東京都","city":"板橋区","address":"板橋区栄町33-1","lat":35.7529,"lon":139.70078},{"name":"板橋中央総合病院","province":"東京都","city":"板橋区","address":"板橋区小豆沢2-12-7","lat":35.77565,"lon":139.69719},{"name":"板橋区医師会病院","province":"東京都","city":"板橋区","address":"板橋区高島平3-12-6","lat":35.78631,"lon":139.65782},{"name":"心身障害児総合医療療育センター","province":"東京都","city":"板橋区","address":"板橋区小茂根1-1-10","lat":35.74653,"lon":139.68274},{"name":"高島平荘（日住）","province":"東京都","city":"板橋区","address":"板橋区高島平1-59-10","lat":35.78559,"lon":139.67181},{"name":"ライズケア成増","province":"東京都","city":"板橋区","address":"板橋区成増1-16-27","lat":35.77446,"lon":139.63127},{"name":"板橋区社会福祉協議会","province":"東京都","city":"板橋区","address":"板橋区板橋2-65-6板橋区情報処理センター","lat":35.75013,"lon":139.7088},{"name":"社会福祉法人東京援護協会板橋区立障がい者福祉センター","province":"東京都","city":"板橋区","address":"東京都板橋区高島平9丁目25-12","lat":35.79048032,"lon":139.66817606},{"name":"特定非営利活動法人みんなのセンターおむすびデイサービスおむすび","province":"東京都","city":"板橋区","address":"東京都板橋区仲宿45-6","lat":35.75413886,"lon":139.70952382},{"name":"特定非営利活動法人みんなのセンターおむすびときわの杜","province":"東京都","city":"板橋区","address":"東京都板橋区常盤台3丁目27-12","lat":35.76172876,"lon":139.68286728},{"name":"（公財）都保健医療公社豊島病院","province":"東京都","city":"板橋区","address":"板橋区栄町33-1","lat":35.7529,"lon":139.70078},{"name":"シルバービレッジ　※現在、休止中","province":"東京都","city":"板橋区","address":"板橋区板橋1-47-10","lat":35.74858,"lon":139.71838},{"name":"（公財）東京都保健医療公社豊島病院","province":"東京都","city":"板橋区","address":"板橋区栄町33-1","lat":35.752705,"lon":139.700914},{"name":"シルバービレッジ","province":"東京都","city":"板橋区","address":"板橋区板橋1-47-10","lat":35.74859,"lon":139.71838},{"name":"介護老人保健施設志村さつき苑","province":"東京都","city":"板橋区","address":"板橋区坂下3-7-6","lat":35.786376,"lon":139.683855},{"name":"（公財）都保健医療公社豊島病院","province":"東京都","city":"板橋区","address":"板橋区栄町33-1","lat":35.752705,"lon":139.700914},{"name":"板橋区医師会病院","province":"東京都","city":"板橋区","address":"板橋区高島平3-12-6","lat":35.786975,"lon":139.658058},{"name":"小豆沢荘","province":"東京都","city":"板橋区","address":"東京都板橋区","lat":35.7511642,"lon":139.70924619},{"name":"宿所提供施設ふじみ","province":"東京都","city":"板橋区","address":"東京都板橋区","lat":35.7511642,"lon":139.70924619},{"name":"シルバービレッジ","province":"東京都","city":"板橋区","address":"板橋区板橋1-47-10","lat":35.74874,"lon":139.718284},{"name":"向原荘","province":"東京都","city":"板橋区","address":"板橋区向原1-20-3","lat":35.743228,"lon":139.685887},{"name":"高島平荘","province":"東京都","city":"板橋区","address":"板橋区高島平1-59-10","lat":35.785823,"lon":139.671534},{"name":"小豆沢病院","province":"東京都","city":"板橋区","address":"板橋区小豆沢1-6-8","lat":35.772989,"lon":139.700727},{"name":"板橋区社会福祉協議会","province":"東京都","city":"板橋区","address":"板橋区板橋2-65-6板橋区立情報処理センター1階","lat":35.750014,"lon":139.708866},{"name":"シルバービレッジ","province":"東京都","city":"板橋区","address":"板橋区板橋1-47-10","lat":35.74858,"lon":139.71838},{"name":"向原荘","province":"東京都","city":"板橋区","address":"板橋区向原1-20-3","lat":35.74322,"lon":139.68579},{"name":"高島平荘","province":"東京都","city":"板橋区","address":"板橋区高島平1-59-10","lat":35.78559,"lon":139.67181},{"name":"東京都立豊島病院","province":"東京都","city":"板橋区","address":"板橋区栄町33-1","lat":35.7529,"lon":139.70078},{"name":"板橋中央総合病院","province":"東京都","city":"板橋区","address":"板橋区小豆沢2-12-7","lat":35.77565,"lon":139.69719},{"name":"板橋区医師会病院","province":"東京都","city":"板橋区","address":"板橋区高島平3-12-6","lat":35.78631,"lon":139.65782},{"name":"心身障害児総合医療療育センター","province":"東京都","city":"板橋区","address":"板橋区小茂根1-1-10","lat":35.74653,"lon":139.68274},{"name":"高島平荘（日住）","province":"東京都","city":"板橋区","address":"板橋区高島平1-59-10","lat":35.78559,"lon":139.67181},{"name":"ライズケア成増","province":"東京都","city":"板橋区","address":"板橋区成増1-16-27","lat":35.77446,"lon":139.63127},{"name":"板橋区社会福祉協議会","province":"東京都","city":"板橋区","address":"板橋区板橋2-65-6板橋区情報処理センター","lat":35.75013,"lon":139.7088},{"name":"社会福祉法人東京援護協会板橋区立障がい者福祉センター","province":"東京都","city":"板橋区","address":"東京都板橋区高島平9丁目25-12","lat":35.79048032,"lon":139.66817606},{"name":"特定非営利活動法人みんなのセンターおむすびデイサービスおむすび","province":"東京都","city":"板橋区","address":"東京都板橋区仲宿45-6","lat":35.75413886,"lon":139.70952382},{"name":"特定非営利活動法人みんなのセンターおむすびときわの杜","province":"東京都","city":"板橋区","address":"東京都板橋区常盤台3丁目27-12","lat":35.76172876,"lon":139.68286728},{"name":"（公財）都保健医療公社豊島病院","province":"東京都","city":"板橋区","address":"板橋区栄町33-1","lat":35.7529,"lon":139.70078},{"name":"シルバービレッジ　※現在、休止中","province":"東京都","city":"板橋区","address":"板橋区板橋1-47-10","lat":35.74858,"lon":139.71838},{"name":"（公財）東京都保健医療公社豊島病院","province":"東京都","city":"板橋区","address":"板橋区栄町33-1","lat":35.752705,"lon":139.700914},{"name":"シルバービレッジ","province":"東京都","city":"板橋区","address":"板橋区板橋1-47-10","lat":35.74859,"lon":139.71838},{"name":"介護老人保健施設志村さつき苑","province":"東京都","city":"板橋区","address":"板橋区坂下3-7-6","lat":35.786376,"lon":139.683855},{"name":"（公財）都保健医療公社豊島病院","province":"東京都","city":"板橋区","address":"板橋区栄町33-1","lat":35.752705,"lon":139.700914},{"name":"板橋区医師会病院","province":"東京都","city":"板橋区","address":"板橋区高島平3-12-6","lat":35.786975,"lon":139.658058},{"name":"小豆沢荘","province":"東京都","city":"板橋区","address":"東京都板橋区","lat":35.7511642,"lon":139.70924619},{"name":"宿所提供施設ふじみ","province":"東京都","city":"板橋区","address":"東京都板橋区","lat":35.7511642,"lon":139.70924619},{"name":"シルバービレッジ","province":"東京都","city":"板橋区","address":"板橋区板橋1-47-10","lat":35.74874,"lon":139.718284},{"name":"向原荘","province":"東京都","city":"板橋区","address":"板橋区向原1-20-3","lat":35.743228,"lon":139.685887},{"name":"高島平荘","province":"東京都","city":"板橋区","address":"板橋区高島平1-59-10","lat":35.785823,"lon":139.671534},{"name":"小豆沢病院","province":"東京都","city":"板橋区","address":"板橋区小豆沢1-6-8","lat":35.772989,"lon":139.700727},{"name":"板橋区社会福祉協議会","province":"東京都","city":"板橋区","address":"板橋区板橋2-65-6板橋区立情報処理センター1階","lat":35.750014,"lon":139.708866},{"name":"シルバービレッジ","province":"東京都","city":"板橋区","address":"板橋区板橋1-47-10","lat":35.74858,"lon":139.71838},{"name":"向原荘","province":"東京都","city":"板橋区","address":"板橋区向原1-20-3","lat":35.74322,"lon":139.68579},{"name":"高島平荘","province":"東京都","city":"板橋区","address":"板橋区高島平1-59-10","lat":35.78559,"lon":139.67181},{"name":"東京都立豊島病院","province":"東京都","city":"板橋区","address":"板橋区栄町33-1","lat":35.7529,"lon":139.70078},{"name":"板橋中央総合病院","province":"東京都","city":"板橋区","address":"板橋区小豆沢2-12-7","lat":35.77565,"lon":139.69719},{"name":"板橋区医師会病院","province":"東京都","city":"板橋区","address":"板橋区高島平3-12-6","lat":35.78631,"lon":139.65782},{"name":"心身障害児総合医療療育センター","province":"東京都","city":"板橋区","address":"板橋区小茂根1-1-10","lat":35.74653,"lon":139.68274},{"name":"高島平荘（日住）","province":"東京都","city":"板橋区","address":"板橋区高島平1-59-10","lat":35.78559,"lon":139.67181},{"name":"ライズケア成増","province":"東京都","city":"板橋区","address":"板橋区成増1-16-27","lat":35.77446,"lon":139.63127},{"name":"板橋区社会福祉協議会","province":"東京都","city":"板橋区","address":"板橋区板橋2-65-6板橋区情報処理センター","lat":35.75013,"lon":139.7088},{"name":"社会福祉法人東京援護協会板橋区立障がい者福祉センター","province":"東京都","city":"板橋区","address":"東京都板橋区高島平9丁目25-12","lat":35.79048032,"lon":139.66817606},{"name":"特定非営利活動法人みんなのセンターおむすびデイサービスおむすび","province":"東京都","city":"板橋区","address":"東京都板橋区仲宿45-6","lat":35.75413886,"lon":139.70952382},{"name":"特定非営利活動法人みんなのセンターおむすびときわの杜","province":"東京都","city":"板橋区","address":"東京都板橋区常盤台3丁目27-12","lat":35.76172876,"lon":139.68286728},{"name":"（公財）都保健医療公社豊島病院","province":"東京都","city":"板橋区","address":"板橋区栄町33-1","lat":35.7529,"lon":139.70078},{"name":"シルバービレッジ　※現在、休止中","province":"東京都","city":"板橋区","address":"板橋区板橋1-47-10","lat":35.74858,"lon":139.71838},{"name":"（公財）東京都保健医療公社豊島病院","province":"東京都","city":"板橋区","address":"板橋区栄町33-1","lat":35.752705,"lon":139.700914},{"name":"シルバービレッジ","province":"東京都","city":"板橋区","address":"板橋区板橋1-47-10","lat":35.74859,"lon":139.71838},{"name":"介護老人保健施設志村さつき苑","province":"東京都","city":"板橋区","address":"板橋区坂下3-7-6","lat":35.786376,"lon":139.683855},{"name":"（公財）都保健医療公社豊島病院","province":"東京都","city":"板橋区","address":"板橋区栄町33-1","lat":35.752705,"lon":139.700914},{"name":"板橋区医師会病院","province":"東京都","city":"板橋区","address":"板橋区高島平3-12-6","lat":35.786975,"lon":139.658058},{"name":"小豆沢荘","province":"東京都","city":"板橋区","address":"東京都板橋区","lat":35.7511642,"lon":139.70924619},{"name":"宿所提供施設ふじみ","province":"東京都","city":"板橋区","address":"東京都板橋区","lat":35.7511642,"lon":139.70924619},{"name":"シルバービレッジ","province":"東京都","city":"板橋区","address":"板橋区板橋1-47-10","lat":35.74874,"lon":139.718284},{"name":"向原荘","province":"東京都","city":"板橋区","address":"板橋区向原1-20-3","lat":35.743228,"lon":139.685887},{"name":"高島平荘","province":"東京都","city":"板橋区","address":"板橋区高島平1-59-10","lat":35.785823,"lon":139.671534},{"name":"小豆沢病院","province":"東京都","city":"板橋区","address":"板橋区小豆沢1-6-8","lat":35.772989,"lon":139.700727},{"name":"板橋区社会福祉協議会","province":"東京都","city":"板橋区","address":"板橋区板橋2-65-6板橋区立情報処理センター1階","lat":35.750014,"lon":139.708866},{"name":"シルバービレッジ","province":"東京都","city":"板橋区","address":"板橋区板橋1-47-10","lat":35.74858,"lon":139.71838},{"name":"向原荘","province":"東京都","city":"板橋区","address":"板橋区向原1-20-3","lat":35.74322,"lon":139.68579},{"name":"高島平荘","province":"東京都","city":"板橋区","address":"板橋区高島平1-59-10","lat":35.78559,"lon":139.67181},{"name":"東京都立豊島病院","province":"東京都","city":"板橋区","address":"板橋区栄町33-1","lat":35.7529,"lon":139.70078},{"name":"板橋中央総合病院","province":"東京都","city":"板橋区","address":"板橋区小豆沢2-12-7","lat":35.77565,"lon":139.69719},{"name":"板橋区医師会病院","province":"東京都","city":"板橋区","address":"板橋区高島平3-12-6","lat":35.78631,"lon":139.65782},{"name":"心身障害児総合医療療育センター","province":"東京都","city":"板橋区","address":"板橋区小茂根1-1-10","lat":35.74653,"lon":139.68274},{"name":"高島平荘（日住）","province":"東京都","city":"板橋区","address":"板橋区高島平1-59-10","lat":35.78559,"lon":139.67181},{"name":"ライズケア成増","province":"東京都","city":"板橋区","address":"板橋区成増1-16-27","lat":35.77446,"lon":139.63127},{"name":"板橋区社会福祉協議会","province":"東京都","city":"板橋区","address":"板橋区板橋2-65-6板橋区情報処理センター","lat":35.75013,"lon":139.7088},{"name":"社会福祉法人東京援護協会板橋区立障がい者福祉センター","province":"東京都","city":"板橋区","address":"東京都板橋区高島平9丁目25-12","lat":35.79048032,"lon":139.66817606},{"name":"特定非営利活動法人みんなのセンターおむすびデイサービスおむすび","province":"東京都","city":"板橋区","address":"東京都板橋区仲宿45-6","lat":35.75413886,"lon":139.70952382},{"name":"特定非営利活動法人みんなのセンターおむすびときわの杜","province":"東京都","city":"板橋区","address":"東京都板橋区常盤台3丁目27-12","lat":35.76172876,"lon":139.68286728},{"name":"（公財）都保健医療公社豊島病院","province":"東京都","city":"板橋区","address":"板橋区栄町33-1","lat":35.7529,"lon":139.70078},{"name":"シルバービレッジ　※現在、休止中","province":"東京都","city":"板橋区","address":"板橋区板橋1-47-10","lat":35.74858,"lon":139.71838},{"name":"（公財）東京都保健医療公社豊島病院","province":"東京都","city":"板橋区","address":"板橋区栄町33-1","lat":35.752705,"lon":139.700914},{"name":"シルバービレッジ","province":"東京都","city":"板橋区","address":"板橋区板橋1-47-10","lat":35.74859,"lon":139.71838},{"name":"介護老人保健施設志村さつき苑","province":"東京都","city":"板橋区","address":"板橋区坂下3-7-6","lat":35.786376,"lon":139.683855},{"name":"（公財）都保健医療公社豊島病院","province":"東京都","city":"板橋区","address":"板橋区栄町33-1","lat":35.752705,"lon":139.700914},{"name":"板橋区医師会病院","province":"東京都","city":"板橋区","address":"板橋区高島平3-12-6","lat":35.786975,"lon":139.658058},{"name":"小豆沢荘","province":"東京都","city":"板橋区","address":"東京都板橋区","lat":35.7511642,"lon":139.70924619},{"name":"宿所提供施設ふじみ","province":"東京都","city":"板橋区","address":"東京都板橋区","lat":35.7511642,"lon":139.70924619},{"name":"シルバービレッジ","province":"東京都","city":"板橋区","address":"板橋区板橋1-47-10","lat":35.74874,"lon":139.718284},{"name":"向原荘","province":"東京都","city":"板橋区","address":"板橋区向原1-20-3","lat":35.743228,"lon":139.685887},{"name":"高島平荘","province":"東京都","city":"板橋区","address":"板橋区高島平1-59-10","lat":35.785823,"lon":139.671534},{"name":"小豆沢病院","province":"東京都","city":"板橋区","address":"板橋区小豆沢1-6-8","lat":35.772989,"lon":139.700727},{"name":"板橋区社会福祉協議会","province":"東京都","city":"板橋区","address":"板橋区板橋2-65-6板橋区立情報処理センター1階","lat":35.750014,"lon":139.708866},{"name":"シルバービレッジ","province":"東京都","city":"板橋区","address":"板橋区板橋1-47-10","lat":35.74858,"lon":139.71838},{"name":"向原荘","province":"東京都","city":"板橋区","address":"板橋区向原1-20-3","lat":35.74322,"lon":139.68579},{"name":"高島平荘","province":"東京都","city":"板橋区","address":"板橋区高島平1-59-10","lat":35.78559,"lon":139.67181},{"name":"東京都立豊島病院","province":"東京都","city":"板橋区","address":"板橋区栄町33-1","lat":35.7529,"lon":139.70078},{"name":"板橋中央総合病院","province":"東京都","city":"板橋区","address":"板橋区小豆沢2-12-7","lat":35.77565,"lon":139.69719},{"name":"板橋区医師会病院","province":"東京都","city":"板橋区","address":"板橋区高島平3-12-6","lat":35.78631,"lon":139.65782},{"name":"心身障害児総合医療療育センター","province":"東京都","city":"板橋区","address":"板橋区小茂根1-1-10","lat":35.74653,"lon":139.68274},{"name":"高島平荘（日住）","province":"東京都","city":"板橋区","address":"板橋区高島平1-59-10","lat":35.78559,"lon":139.67181},{"name":"ライズケア成増","province":"東京都","city":"板橋区","address":"板橋区成増1-16-27","lat":35.77446,"lon":139.63127},{"name":"板橋区社会福祉協議会","province":"東京都","city":"板橋区","address":"板橋区板橋2-65-6板橋区情報処理センター","lat":35.75013,"lon":139.7088},{"name":"社会福祉法人東京援護協会板橋区立障がい者福祉センター","province":"東京都","city":"板橋区","address":"東京都板橋区高島平9丁目25-12","lat":35.79048032,"lon":139.66817606},{"name":"特定非営利活動法人みんなのセンターおむすびデイサービスおむすび","province":"東京都","city":"板橋区","address":"東京都板橋区仲宿45-6","lat":35.75413886,"lon":139.70952382},{"name":"特定非営利活動法人みんなのセンターおむすびときわの杜","province":"東京都","city":"板橋区","address":"東京都板橋区常盤台3丁目27-12","lat":35.76172876,"lon":139.68286728},{"name":"（公財）都保健医療公社豊島病院","province":"東京都","city":"板橋区","address":"板橋区栄町33-1","lat":35.7529,"lon":139.70078},{"name":"シルバービレッジ　※現在、休止中","province":"東京都","city":"板橋区","address":"板橋区板橋1-47-10","lat":35.74858,"lon":139.71838},{"name":"（公財）東京都保健医療公社豊島病院","province":"東京都","city":"板橋区","address":"板橋区栄町33-1","lat":35.752705,"lon":139.700914},{"name":"シルバービレッジ","province":"東京都","city":"板橋区","address":"板橋区板橋1-47-10","lat":35.74859,"lon":139.71838},{"name":"介護老人保健施設志村さつき苑","province":"東京都","city":"板橋区","address":"板橋区坂下3-7-6","lat":35.786376,"lon":139.683855},{"name":"（公財）都保健医療公社豊島病院","province":"東京都","city":"板橋区","address":"板橋区栄町33-1","lat":35.752705,"lon":139.700914},{"name":"板橋区医師会病院","province":"東京都","city":"板橋区","address":"板橋区高島平3-12-6","lat":35.786975,"lon":139.658058},{"name":"小豆沢荘","province":"東京都","city":"板橋区","address":"東京都板橋区","lat":35.7511642,"lon":139.70924619},{"name":"宿所提供施設ふじみ","province":"東京都","city":"板橋区","address":"東京都板橋区","lat":35.7511642,"lon":139.70924619},{"name":"シルバービレッジ","province":"東京都","city":"板橋区","address":"板橋区板橋1-47-10","lat":35.74874,"lon":139.718284},{"name":"向原荘","province":"東京都","city":"板橋区","address":"板橋区向原1-20-3","lat":35.743228,"lon":139.685887},{"name":"高島平荘","province":"東京都","city":"板橋区","address":"板橋区高島平1-59-10","lat":35.785823,"lon":139.671534},{"name":"小豆沢病院","province":"東京都","city":"板橋区","address":"板橋区小豆沢1-6-8","lat":35.772989,"lon":139.700727},{"name":"板橋区社会福祉協議会","province":"東京都","city":"板橋区","address":"板橋区板橋2-65-6板橋区立情報処理センター1階","lat":35.750014,"lon":139.708866},{"name":"シルバービレッジ","province":"東京都","city":"板橋区","address":"板橋区板橋1-47-10","lat":35.74858,"lon":139.71838},{"name":"向原荘","province":"東京都","city":"板橋区","address":"板橋区向原1-20-3","lat":35.74322,"lon":139.68579},{"name":"高島平荘","province":"東京都","city":"板橋区","address":"板橋区高島平1-59-10","lat":35.78559,"lon":139.67181},{"name":"東京都立豊島病院","province":"東京都","city":"板橋区","address":"板橋区栄町33-1","lat":35.7529,"lon":139.70078},{"name":"板橋中央総合病院","province":"東京都","city":"板橋区","address":"板橋区小豆沢2-12-7","lat":35.77565,"lon":139.69719},{"name":"板橋区医師会病院","province":"東京都","city":"板橋区","address":"板橋区高島平3-12-6","lat":35.78631,"lon":139.65782},{"name":"心身障害児総合医療療育センター","province":"東京都","city":"板橋区","address":"板橋区小茂根1-1-10","lat":35.74653,"lon":139.68274},{"name":"高島平荘（日住）","province":"東京都","city":"板橋区","address":"板橋区高島平1-59-10","lat":35.78559,"lon":139.67181},{"name":"ライズケア成増","province":"東京都","city":"板橋区","address":"板橋区成増1-16-27","lat":35.77446,"lon":139.63127},{"name":"板橋区社会福祉協議会","province":"東京都","city":"板橋区","address":"板橋区板橋2-65-6板橋区情報処理センター","lat":35.75013,"lon":139.7088},{"name":"社会福祉法人東京援護協会板橋区立障がい者福祉センター","province":"東京都","city":"板橋区","address":"東京都板橋区高島平9丁目25-12","lat":35.79048032,"lon":139.66817606},{"name":"特定非営利活動法人みんなのセンターおむすびデイサービスおむすび","province":"東京都","city":"板橋区","address":"東京都板橋区仲宿45-6","lat":35.75413886,"lon":139.70952382},{"name":"特定非営利活動法人みんなのセンターおむすびときわの杜","province":"東京都","city":"板橋区","address":"東京都板橋区常盤台3丁目27-12","lat":35.76172876,"lon":139.68286728},{"name":"（公財）都保健医療公社豊島病院","province":"東京都","city":"板橋区","address":"板橋区栄町33-1","lat":35.7529,"lon":139.70078},{"name":"シルバービレッジ　※現在、休止中","province":"東京都","city":"板橋区","address":"板橋区板橋1-47-10","lat":35.74858,"lon":139.71838},{"name":"（公財）東京都保健医療公社豊島病院","province":"東京都","city":"板橋区","address":"板橋区栄町33-1","lat":35.752705,"lon":139.700914},{"name":"シルバービレッジ","province":"東京都","city":"板橋区","address":"板橋区板橋1-47-10","lat":35.74859,"lon":139.71838},{"name":"介護老人保健施設志村さつき苑","province":"東京都","city":"板橋区","address":"板橋区坂下3-7-6","lat":35.786376,"lon":139.683855},{"name":"（公財）都保健医療公社豊島病院","province":"東京都","city":"板橋区","address":"板橋区栄町33-1","lat":35.752705,"lon":139.700914},{"name":"板橋区医師会病院","province":"東京都","city":"板橋区","address":"板橋区高島平3-12-6","lat":35.786975,"lon":139.658058},{"name":"小豆沢荘","province":"東京都","city":"板橋区","address":"東京都板橋区","lat":35.7511642,"lon":139.70924619},{"name":"宿所提供施設ふじみ","province":"東京都","city":"板橋区","address":"東京都板橋区","lat":35.7511642,"lon":139.70924619},{"name":"シルバービレッジ","province":"東京都","city":"板橋区","address":"板橋区板橋1-47-10","lat":35.74874,"lon":139.718284},{"name":"向原荘","province":"東京都","city":"板橋区","address":"板橋区向原1-20-3","lat":35.743228,"lon":139.685887},{"name":"高島平荘","province":"東京都","city":"板橋区","address":"板橋区高島平1-59-10","lat":35.785823,"lon":139.671534},{"name":"小豆沢病院","province":"東京都","city":"板橋区","address":"板橋区小豆沢1-6-8","lat":35.772989,"lon":139.700727},{"name":"板橋区社会福祉協議会","province":"東京都","city":"板橋区","address":"板橋区板橋2-65-6板橋区立情報処理センター1階","lat":35.750014,"lon":139.708866},{"name":"シルバービレッジ","province":"東京都","city":"板橋区","address":"板橋区板橋1-47-10","lat":35.74858,"lon":139.71838},{"name":"向原荘","province":"東京都","city":"板橋区","address":"板橋区向原1-20-3","lat":35.74322,"lon":139.68579},{"name":"高島平荘","province":"東京都","city":"板橋区","address":"板橋区高島平1-59-10","lat":35.78559,"lon":139.67181},{"name":"東京都立豊島病院","province":"東京都","city":"板橋区","address":"板橋区栄町33-1","lat":35.7529,"lon":139.70078},{"name":"板橋中央総合病院","province":"東京都","city":"板橋区","address":"板橋区小豆沢2-12-7","lat":35.77565,"lon":139.69719},{"name":"板橋区医師会病院","province":"東京都","city":"板橋区","address":"板橋区高島平3-12-6","lat":35.78631,"lon":139.65782},{"name":"心身障害児総合医療療育センター","province":"東京都","city":"板橋区","address":"板橋区小茂根1-1-10","lat":35.74653,"lon":139.68274},{"name":"高島平荘（日住）","province":"東京都","city":"板橋区","address":"板橋区高島平1-59-10","lat":35.78559,"lon":139.67181},{"name":"ライズケア成増","province":"東京都","city":"板橋区","address":"板橋区成増1-16-27","lat":35.77446,"lon":139.63127},{"name":"板橋区社会福祉協議会","province":"東京都","city":"板橋区","address":"板橋区板橋2-65-6板橋区情報処理センター","lat":35.75013,"lon":139.7088},{"name":"（公財）都保健医療公社豊島病院","province":"東京都","city":"板橋区","address":"板橋区栄町33-1","lat":35.7529,"lon":139.70078},{"name":"シルバービレッジ　※現在、休止中","province":"東京都","city":"板橋区","address":"板橋区板橋1-47-10","lat":35.74858,"lon":139.71838},{"name":"（公財）東京都保健医療公社豊島病院","province":"東京都","city":"板橋区","address":"板橋区栄町33-1","lat":35.752705,"lon":139.700914},{"name":"シルバービレッジ","province":"東京都","city":"板橋区","address":"板橋区板橋1-47-10","lat":35.74859,"lon":139.71838},{"name":"介護老人保健施設志村さつき苑","province":"東京都","city":"板橋区","address":"板橋区坂下3-7-6","lat":35.786376,"lon":139.683855},{"name":"（公財）都保健医療公社豊島病院","province":"東京都","city":"板橋区","address":"板橋区栄町33-1","lat":35.752705,"lon":139.700914},{"name":"板橋区医師会病院","province":"東京都","city":"板橋区","address":"板橋区高島平3-12-6","lat":35.786975,"lon":139.658058},{"name":"小豆沢荘","province":"東京都","city":"板橋区","address":"東京都板橋区","lat":35.7511642,"lon":139.70924619},{"name":"宿所提供施設ふじみ","province":"東京都","city":"板橋区","address":"東京都板橋区","lat":35.7511642,"lon":139.70924619},{"name":"シルバービレッジ","province":"東京都","city":"板橋区","address":"板橋区板橋1-47-10","lat":35.74874,"lon":139.718284},{"name":"向原荘","province":"東京都","city":"板橋区","address":"板橋区向原1-20-3","lat":35.743228,"lon":139.685887},{"name":"高島平荘","province":"東京都","city":"板橋区","address":"板橋区高島平1-59-10","lat":35.785823,"lon":139.671534},{"name":"小豆沢病院","province":"東京都","city":"板橋区","address":"板橋区小豆沢1-6-8","lat":35.772989,"lon":139.700727},{"name":"板橋区社会福祉協議会","province":"東京都","city":"板橋区","address":"板橋区板橋2-65-6板橋区立情報処理センター1階","lat":35.750014,"lon":139.708866},{"name":"シルバービレッジ","province":"東京都","city":"板橋区","address":"板橋区板橋1-47-10","lat":35.74858,"lon":139.71838},{"name":"向原荘","province":"東京都","city":"板橋区","address":"板橋区向原1-20-3","lat":35.74322,"lon":139.68579},{"name":"高島平荘","province":"東京都","city":"板橋区","address":"板橋区高島平1-59-10","lat":35.78559,"lon":139.67181},{"name":"東京都立豊島病院","province":"東京都","city":"板橋区","address":"板橋区栄町33-1","lat":35.7529,"lon":139.70078},{"name":"板橋中央総合病院","province":"東京都","city":"板橋区","address":"板橋区小豆沢2-12-7","lat":35.77565,"lon":139.69719},{"name":"板橋区医師会病院","province":"東京都","city":"板橋区","address":"板橋区高島平3-12-6","lat":35.78631,"lon":139.65782},{"name":"心身障害児総合医療療育センター","province":"東京都","city":"板橋区","address":"板橋区小茂根1-1-10","lat":35.74653,"lon":139.68274},{"name":"高島平荘（日住）","province":"東京都","city":"板橋区","address":"板橋区高島平1-59-10","lat":35.78559,"lon":139.67181},{"name":"ライズケア成増","province":"東京都","city":"板橋区","address":"板橋区成増1-16-27","lat":35.77446,"lon":139.63127},{"name":"板橋区社会福祉協議会","province":"東京都","city":"板橋区","address":"板橋区板橋2-65-6板橋区情報処理センター","lat":35.75013,"lon":139.7088},{"name":"（公財）都保健医療公社豊島病院","province":"東京都","city":"板橋区","address":"板橋区栄町33-1","lat":35.7529,"lon":139.70078},{"name":"シルバービレッジ　※現在、休止中","province":"東京都","city":"板橋区","address":"板橋区板橋1-47-10","lat":35.74858,"lon":139.71838},{"name":"（公財）東京都保健医療公社豊島病院","province":"東京都","city":"板橋区","address":"板橋区栄町33-1","lat":35.752705,"lon":139.700914},{"name":"シルバービレッジ","province":"東京都","city":"板橋区","address":"板橋区板橋1-47-10","lat":35.74859,"lon":139.71838},{"name":"介護老人保健施設志村さつき苑","province":"東京都","city":"板橋区","address":"板橋区坂下3-7-6","lat":35.786376,"lon":139.683855},{"name":"（公財）都保健医療公社豊島病院","province":"東京都","city":"板橋区","address":"板橋区栄町33-1","lat":35.752705,"lon":139.700914},{"name":"板橋区医師会病院","province":"東京都","city":"板橋区","address":"板橋区高島平3-12-6","lat":35.786975,"lon":139.658058},{"name":"小豆沢荘","province":"東京都","city":"板橋区","address":"東京都板橋区","lat":35.7511642,"lon":139.70924619},{"name":"宿所提供施設ふじみ","province":"東京都","city":"板橋区","address":"東京都板橋区","lat":35.7511642,"lon":139.70924619},{"name":"シルバービレッジ","province":"東京都","city":"板橋区","address":"板橋区板橋1-47-10","lat":35.74874,"lon":139.718284},{"name":"向原荘","province":"東京都","city":"板橋区","address":"板橋区向原1-20-3","lat":35.743228,"lon":139.685887},{"name":"高島平荘","province":"東京都","city":"板橋区","address":"板橋区高島平1-59-10","lat":35.785823,"lon":139.671534},{"name":"小豆沢病院","province":"東京都","city":"板橋区","address":"板橋区小豆沢1-6-8","lat":35.772989,"lon":139.700727},{"name":"板橋区社会福祉協議会","province":"東京都","city":"板橋区","address":"板橋区板橋2-65-6板橋区立情報処理センター1階","lat":35.750014,"lon":139.708866},{"name":"シルバービレッジ","province":"東京都","city":"板橋区","address":"板橋区板橋1-47-10","lat":35.74858,"lon":139.71838},{"name":"向原荘","province":"東京都","city":"板橋区","address":"板橋区向原1-20-3","lat":35.74322,"lon":139.68579},{"name":"高島平荘","province":"東京都","city":"板橋区","address":"板橋区高島平1-59-10","lat":35.78559,"lon":139.67181},{"name":"東京都立豊島病院","province":"東京都","city":"板橋区","address":"板橋区栄町33-1","lat":35.7529,"lon":139.70078},{"name":"板橋中央総合病院","province":"東京都","city":"板橋区","address":"板橋区小豆沢2-12-7","lat":35.77565,"lon":139.69719},{"name":"板橋区医師会病院","province":"東京都","city":"板橋区","address":"板橋区高島平3-12-6","lat":35.78631,"lon":139.65782},{"name":"心身障害児総合医療療育センター","province":"東京都","city":"板橋区","address":"板橋区小茂根1-1-10","lat":35.74653,"lon":139.68274},{"name":"高島平荘（日住）","province":"東京都","city":"板橋区","address":"板橋区高島平1-59-10","lat":35.78559,"lon":139.67181},{"name":"ライズケア成増","province":"東京都","city":"板橋区","address":"板橋区成増1-16-27","lat":35.77446,"lon":139.63127},{"name":"板橋区社会福祉協議会","province":"東京都","city":"板橋区","address":"板橋区板橋2-65-6板橋区情報処理センター","lat":35.75013,"lon":139.7088},{"name":"（公財）都保健医療公社豊島病院","province":"東京都","city":"板橋区","address":"板橋区栄町33-1","lat":35.7529,"lon":139.70078},{"name":"シルバービレッジ　※現在、休止中","province":"東京都","city":"板橋区","address":"板橋区板橋1-47-10","lat":35.74858,"lon":139.71838},{"name":"（公財）東京都保健医療公社豊島病院","province":"東京都","city":"板橋区","address":"板橋区栄町33-1","lat":35.752705,"lon":139.700914},{"name":"シルバービレッジ","province":"東京都","city":"板橋区","address":"板橋区板橋1-47-10","lat":35.74859,"lon":139.71838},{"name":"介護老人保健施設志村さつき苑","province":"東京都","city":"板橋区","address":"板橋区坂下3-7-6","lat":35.786376,"lon":139.683855},{"name":"（公財）都保健医療公社豊島病院","province":"東京都","city":"板橋区","address":"板橋区栄町33-1","lat":35.752705,"lon":139.700914},{"name":"板橋区医師会病院","province":"東京都","city":"板橋区","address":"板橋区高島平3-12-6","lat":35.786975,"lon":139.658058},{"name":"小豆沢荘","province":"東京都","city":"板橋区","address":"東京都板橋区","lat":35.7511642,"lon":139.70924619},{"name":"宿所提供施設ふじみ","province":"東京都","city":"板橋区","address":"東京都板橋区","lat":35.7511642,"lon":139.70924619},{"name":"シルバービレッジ","province":"東京都","city":"板橋区","address":"板橋区板橋1-47-10","lat":35.74874,"lon":139.718284},{"name":"向原荘","province":"東京都","city":"板橋区","address":"板橋区向原1-20-3","lat":35.743228,"lon":139.685887},{"name":"高島平荘","province":"東京都","city":"板橋区","address":"板橋区高島平1-59-10","lat":35.785823,"lon":139.671534},{"name":"小豆沢病院","province":"東京都","city":"板橋区","address":"板橋区小豆沢1-6-8","lat":35.772989,"lon":139.700727},{"name":"板橋区社会福祉協議会","province":"東京都","city":"板橋区","address":"板橋区板橋2-65-6板橋区立情報処理センター1階","lat":35.750014,"lon":139.708866},{"name":"シルバービレッジ","province":"東京都","city":"板橋区","address":"板橋区板橋1-47-10","lat":35.74858,"lon":139.71838},{"name":"向原荘","province":"東京都","city":"板橋区","address":"板橋区向原1-20-3","lat":35.74322,"lon":139.68579},{"name":"高島平荘","province":"東京都","city":"板橋区","address":"板橋区高島平1-59-10","lat":35.78559,"lon":139.67181},{"name":"東京都立豊島病院","province":"東京都","city":"板橋区","address":"板橋区栄町33-1","lat":35.7529,"lon":139.70078},{"name":"板橋中央総合病院","province":"東京都","city":"板橋区","address":"板橋区小豆沢2-12-7","lat":35.77565,"lon":139.69719},{"name":"板橋区医師会病院","province":"東京都","city":"板橋区","address":"板橋区高島平3-12-6","lat":35.78631,"lon":139.65782},{"name":"心身障害児総合医療療育センター","province":"東京都","city":"板橋区","address":"板橋区小茂根1-1-10","lat":35.74653,"lon":139.68274},{"name":"高島平荘（日住）","province":"東京都","city":"板橋区","address":"板橋区高島平1-59-10","lat":35.78559,"lon":139.67181},{"name":"ライズケア成増","province":"東京都","city":"板橋区","address":"板橋区成増1-16-27","lat":35.77446,"lon":139.63127},{"name":"板橋区社会福祉協議会","province":"東京都","city":"板橋区","address":"板橋区板橋2-65-6板橋区情報処理センター","lat":35.75013,"lon":139.7088},{"name":"（公財）都保健医療公社豊島病院","province":"東京都","city":"板橋区","address":"板橋区栄町33-1","lat":35.7529,"lon":139.70078},{"name":"シルバービレッジ　※現在、休止中","province":"東京都","city":"板橋区","address":"板橋区板橋1-47-10","lat":35.74858,"lon":139.71838},{"name":"（公財）東京都保健医療公社豊島病院","province":"東京都","city":"板橋区","address":"板橋区栄町33-1","lat":35.752705,"lon":139.700914},{"name":"シルバービレッジ","province":"東京都","city":"板橋区","address":"板橋区板橋1-47-10","lat":35.74859,"lon":139.71838},{"name":"介護老人保健施設志村さつき苑","province":"東京都","city":"板橋区","address":"板橋区坂下3-7-6","lat":35.786376,"lon":139.683855},{"name":"（公財）都保健医療公社豊島病院","province":"東京都","city":"板橋区","address":"板橋区栄町33-1","lat":35.752705,"lon":139.700914},{"name":"板橋区医師会病院","province":"東京都","city":"板橋区","address":"板橋区高島平3-12-6","lat":35.786975,"lon":139.658058},{"name":"小豆沢荘","province":"東京都","city":"板橋区","address":"東京都板橋区","lat":35.7511642,"lon":139.70924619},{"name":"宿所提供施設ふじみ","province":"東京都","city":"板橋区","address":"東京都板橋区","lat":35.7511642,"lon":139.70924619},{"name":"シルバービレッジ","province":"東京都","city":"板橋区","address":"板橋区板橋1-47-10","lat":35.74874,"lon":139.718284},{"name":"向原荘","province":"東京都","city":"板橋区","address":"板橋区向原1-20-3","lat":35.743228,"lon":139.685887},{"name":"高島平荘","province":"東京都","city":"板橋区","address":"板橋区高島平1-59-10","lat":35.785823,"lon":139.671534},{"name":"小豆沢病院","province":"東京都","city":"板橋区","address":"板橋区小豆沢1-6-8","lat":35.772989,"lon":139.700727},{"name":"板橋区社会福祉協議会","province":"東京都","city":"板橋区","address":"板橋区板橋2-65-6板橋区立情報処理センター1階","lat":35.750014,"lon":139.708866},{"name":"シルバービレッジ","province":"東京都","city":"板橋区","address":"板橋区板橋1-47-10","lat":35.74858,"lon":139.71838},{"name":"向原荘","province":"東京都","city":"板橋区","address":"板橋区向原1-20-3","lat":35.74322,"lon":139.68579},{"name":"高島平荘","province":"東京都","city":"板橋区","address":"板橋区高島平1-59-10","lat":35.78559,"lon":139.67181},{"name":"東京都立豊島病院","province":"東京都","city":"板橋区","address":"板橋区栄町33-1","lat":35.7529,"lon":139.70078},{"name":"板橋中央総合病院","province":"東京都","city":"板橋区","address":"板橋区小豆沢2-12-7","lat":35.77565,"lon":139.69719},{"name":"板橋区医師会病院","province":"東京都","city":"板橋区","address":"板橋区高島平3-12-6","lat":35.78631,"lon":139.65782},{"name":"心身障害児総合医療療育センター","province":"東京都","city":"板橋区","address":"板橋区小茂根1-1-10","lat":35.74653,"lon":139.68274},{"name":"高島平荘（日住）","province":"東京都","city":"板橋区","address":"板橋区高島平1-59-10","lat":35.78559,"lon":139.67181},{"name":"ライズケア成増","province":"東京都","city":"板橋区","address":"板橋区成増1-16-27","lat":35.77446,"lon":139.63127},{"name":"板橋区社会福祉協議会","province":"東京都","city":"板橋区","address":"板橋区板橋2-65-6板橋区情報処理センター","lat":35.75013,"lon":139.7088},{"name":"（公財）都保健医療公社豊島病院","province":"東京都","city":"板橋区","address":"板橋区栄町33-1","lat":35.7529,"lon":139.70078},{"name":"シルバービレッジ　※現在、休止中","province":"東京都","city":"板橋区","address":"板橋区板橋1-47-10","lat":35.74858,"lon":139.71838},{"name":"（公財）東京都保健医療公社豊島病院","province":"東京都","city":"板橋区","address":"板橋区栄町33-1","lat":35.752705,"lon":139.700914},{"name":"シルバービレッジ","province":"東京都","city":"板橋区","address":"板橋区板橋1-47-10","lat":35.74859,"lon":139.71838},{"name":"介護老人保健施設志村さつき苑","province":"東京都","city":"板橋区","address":"板橋区坂下3-7-6","lat":35.786376,"lon":139.683855},{"name":"（公財）都保健医療公社豊島病院","province":"東京都","city":"板橋区","address":"板橋区栄町33-1","lat":35.752705,"lon":139.700914},{"name":"板橋区医師会病院","province":"東京都","city":"板橋区","address":"板橋区高島平3-12-6","lat":35.786975,"lon":139.658058},{"name":"小豆沢荘","province":"東京都","city":"板橋区","address":"東京都板橋区","lat":35.7511642,"lon":139.70924619},{"name":"宿所提供施設ふじみ","province":"東京都","city":"板橋区","address":"東京都板橋区","lat":35.7511642,"lon":139.70924619},{"name":"シルバービレッジ","province":"東京都","city":"板橋区","address":"板橋区板橋1-47-10","lat":35.74874,"lon":139.718284},{"name":"向原荘","province":"東京都","city":"板橋区","address":"板橋区向原1-20-3","lat":35.743228,"lon":139.685887},{"name":"高島平荘","province":"東京都","city":"板橋区","address":"板橋区高島平1-59-10","lat":35.785823,"lon":139.671534},{"name":"小豆沢病院","province":"東京都","city":"板橋区","address":"板橋区小豆沢1-6-8","lat":35.772989,"lon":139.700727},{"name":"板橋区社会福祉協議会","province":"東京都","city":"板橋区","address":"板橋区板橋2-65-6板橋区立情報処理センター1階","lat":35.750014,"lon":139.708866},{"name":"シルバービレッジ","province":"東京都","city":"板橋区","address":"板橋区板橋1-47-10","lat":35.74858,"lon":139.71838},{"name":"向原荘","province":"東京都","city":"板橋区","address":"板橋区向原1-20-3","lat":35.74322,"lon":139.68579},{"name":"高島平荘","province":"東京都","city":"板橋区","address":"板橋区高島平1-59-10","lat":35.78559,"lon":139.67181},{"name":"東京都立豊島病院","province":"東京都","city":"板橋区","address":"板橋区栄町33-1","lat":35.7529,"lon":139.70078},{"name":"板橋中央総合病院","province":"東京都","city":"板橋区","address":"板橋区小豆沢2-12-7","lat":35.77565,"lon":139.69719},{"name":"板橋区医師会病院","province":"東京都","city":"板橋区","address":"板橋区高島平3-12-6","lat":35.78631,"lon":139.65782},{"name":"心身障害児総合医療療育センター","province":"東京都","city":"板橋区","address":"板橋区小茂根1-1-10","lat":35.74653,"lon":139.68274},{"name":"高島平荘（日住）","province":"東京都","city":"板橋区","address":"板橋区高島平1-59-10","lat":35.78559,"lon":139.67181},{"name":"ライズケア成増","province":"東京都","city":"板橋区","address":"板橋区成増1-16-27","lat":35.77446,"lon":139.63127},{"name":"板橋区社会福祉協議会","province":"東京都","city":"板橋区","address":"板橋区板橋2-65-6板橋区情報処理センター","lat":35.75013,"lon":139.7088},{"name":"（公財）都保健医療公社豊島病院","province":"東京都","city":"板橋区","address":"板橋区栄町33-1","lat":35.7529,"lon":139.70078},{"name":"シルバービレッジ　※現在、休止中","province":"東京都","city":"板橋区","address":"板橋区板橋1-47-10","lat":35.74858,"lon":139.71838},{"name":"（公財）東京都保健医療公社豊島病院","province":"東京都","city":"板橋区","address":"板橋区栄町33-1","lat":35.752705,"lon":139.700914},{"name":"シルバービレッジ","province":"東京都","city":"板橋区","address":"板橋区板橋1-47-10","lat":35.74859,"lon":139.71838},{"name":"介護老人保健施設志村さつき苑","province":"東京都","city":"板橋区","address":"板橋区坂下3-7-6","lat":35.786376,"lon":139.683855},{"name":"（公財）都保健医療公社豊島病院","province":"東京都","city":"板橋区","address":"板橋区栄町33-1","lat":35.752705,"lon":139.700914},{"name":"板橋区医師会病院","province":"東京都","city":"板橋区","address":"板橋区高島平3-12-6","lat":35.786975,"lon":139.658058},{"name":"小豆沢荘","province":"東京都","city":"板橋区","address":"東京都板橋区","lat":35.7511642,"lon":139.70924619},{"name":"宿所提供施設ふじみ","province":"東京都","city":"板橋区","address":"東京都板橋区","lat":35.7511642,"lon":139.70924619},{"name":"シルバービレッジ","province":"東京都","city":"板橋区","address":"板橋区板橋1-47-10","lat":35.74874,"lon":139.718284},{"name":"向原荘","province":"東京都","city":"板橋区","address":"板橋区向原1-20-3","lat":35.743228,"lon":139.685887},{"name":"高島平荘","province":"東京都","city":"板橋区","address":"板橋区高島平1-59-10","lat":35.785823,"lon":139.671534},{"name":"小豆沢病院","province":"東京都","city":"板橋区","address":"板橋区小豆沢1-6-8","lat":35.772989,"lon":139.700727},{"name":"板橋区社会福祉協議会","province":"東京都","city":"板橋区","address":"板橋区板橋2-65-6板橋区立情報処理センター1階","lat":35.750014,"lon":139.708866},{"name":"シルバービレッジ","province":"東京都","city":"板橋区","address":"板橋区板橋1-47-10","lat":35.74858,"lon":139.71838},{"name":"向原荘","province":"東京都","city":"板橋区","address":"板橋区向原1-20-3","lat":35.74322,"lon":139.68579},{"name":"高島平荘","province":"東京都","city":"板橋区","address":"板橋区高島平1-59-10","lat":35.78559,"lon":139.67181},{"name":"東京都立豊島病院","province":"東京都","city":"板橋区","address":"板橋区栄町33-1","lat":35.7529,"lon":139.70078},{"name":"板橋中央総合病院","province":"東京都","city":"板橋区","address":"板橋区小豆沢2-12-7","lat":35.77565,"lon":139.69719},{"name":"板橋区医師会病院","province":"東京都","city":"板橋区","address":"板橋区高島平3-12-6","lat":35.78631,"lon":139.65782},{"name":"心身障害児総合医療療育センター","province":"東京都","city":"板橋区","address":"板橋区小茂根1-1-10","lat":35.74653,"lon":139.68274},{"name":"高島平荘（日住）","province":"東京都","city":"板橋区","address":"板橋区高島平1-59-10","lat":35.78559,"lon":139.67181},{"name":"ライズケア成増","province":"東京都","city":"板橋区","address":"板橋区成増1-16-27","lat":35.77446,"lon":139.63127},{"name":"板橋区社会福祉協議会","province":"東京都","city":"板橋区","address":"板橋区板橋2-65-6板橋区情報処理センター","lat":35.75013,"lon":139.7088},{"name":"（公財）都保健医療公社豊島病院","province":"東京都","city":"板橋区","address":"板橋区栄町33-1","lat":35.7529,"lon":139.70078},{"name":"シルバービレッジ　※現在、休止中","province":"東京都","city":"板橋区","address":"板橋区板橋1-47-10","lat":35.74858,"lon":139.71838},{"name":"（公財）東京都保健医療公社豊島病院","province":"東京都","city":"板橋区","address":"板橋区栄町33-1","lat":35.752705,"lon":139.700914},{"name":"シルバービレッジ","province":"東京都","city":"板橋区","address":"板橋区板橋1-47-10","lat":35.74859,"lon":139.71838},{"name":"介護老人保健施設志村さつき苑","province":"東京都","city":"板橋区","address":"板橋区坂下3-7-6","lat":35.786376,"lon":139.683855},{"name":"（公財）都保健医療公社豊島病院","province":"東京都","city":"板橋区","address":"板橋区栄町33-1","lat":35.752705,"lon":139.700914},{"name":"板橋区医師会病院","province":"東京都","city":"板橋区","address":"板橋区高島平3-12-6","lat":35.786975,"lon":139.658058},{"name":"小豆沢荘","province":"東京都","city":"板橋区","address":"東京都板橋区","lat":35.7511642,"lon":139.70924619},{"name":"宿所提供施設ふじみ","province":"東京都","city":"板橋区","address":"東京都板橋区","lat":35.7511642,"lon":139.70924619},{"name":"シルバービレッジ","province":"東京都","city":"板橋区","address":"板橋区板橋1-47-10","lat":35.74874,"lon":139.718284},{"name":"向原荘","province":"東京都","city":"板橋区","address":"板橋区向原1-20-3","lat":35.743228,"lon":139.685887},{"name":"高島平荘","province":"東京都","city":"板橋区","address":"板橋区高島平1-59-10","lat":35.785823,"lon":139.671534},{"name":"小豆沢病院","province":"東京都","city":"板橋区","address":"板橋区小豆沢1-6-8","lat":35.772989,"lon":139.700727},{"name":"板橋区社会福祉協議会","province":"東京都","city":"板橋区","address":"板橋区板橋2-65-6板橋区立情報処理センター1階","lat":35.750014,"lon":139.708866},{"name":"シルバービレッジ","province":"東京都","city":"板橋区","address":"板橋区板橋1-47-10","lat":35.74858,"lon":139.71838},{"name":"向原荘","province":"東京都","city":"板橋区","address":"板橋区向原1-20-3","lat":35.74322,"lon":139.68579},{"name":"高島平荘","province":"東京都","city":"板橋区","address":"板橋区高島平1-59-10","lat":35.78559,"lon":139.67181},{"name":"東京都立豊島病院","province":"東京都","city":"板橋区","address":"板橋区栄町33-1","lat":35.7529,"lon":139.70078},{"name":"板橋中央総合病院","province":"東京都","city":"板橋区","address":"板橋区小豆沢2-12-7","lat":35.77565,"lon":139.69719},{"name":"板橋区医師会病院","province":"東京都","city":"板橋区","address":"板橋区高島平3-12-6","lat":35.78631,"lon":139.65782},{"name":"心身障害児総合医療療育センター","province":"東京都","city":"板橋区","address":"板橋区小茂根1-1-10","lat":35.74653,"lon":139.68274},{"name":"高島平荘（日住）","province":"東京都","city":"板橋区","address":"板橋区高島平1-59-10","lat":35.78559,"lon":139.67181},{"name":"ライズケア成増","province":"東京都","city":"板橋区","address":"板橋区成増1-16-27","lat":35.77446,"lon":139.63127},{"name":"板橋区社会福祉協議会","province":"東京都","city":"板橋区","address":"板橋区板橋2-65-6板橋区情報処理センター","lat":35.75013,"lon":139.7088},{"name":"（公財）都保健医療公社豊島病院","province":"東京都","city":"板橋区","address":"板橋区栄町33-1","lat":35.7529,"lon":139.70078},{"name":"シルバービレッジ　※現在、休止中","province":"東京都","city":"板橋区","address":"板橋区板橋1-47-10","lat":35.74858,"lon":139.71838},{"name":"（公財）東京都保健医療公社豊島病院","province":"東京都","city":"板橋区","address":"板橋区栄町33-1","lat":35.752705,"lon":139.700914},{"name":"シルバービレッジ","province":"東京都","city":"板橋区","address":"板橋区板橋1-47-10","lat":35.74859,"lon":139.71838},{"name":"介護老人保健施設志村さつき苑","province":"東京都","city":"板橋区","address":"板橋区坂下3-7-6","lat":35.786376,"lon":139.683855},{"name":"（公財）都保健医療公社豊島病院","province":"東京都","city":"板橋区","address":"板橋区栄町33-1","lat":35.752705,"lon":139.700914},{"name":"板橋区医師会病院","province":"東京都","city":"板橋区","address":"板橋区高島平3-12-6","lat":35.786975,"lon":139.658058},{"name":"小豆沢荘","province":"東京都","city":"板橋区","address":"東京都板橋区","lat":35.7511642,"lon":139.70924619},{"name":"宿所提供施設ふじみ","province":"東京都","city":"板橋区","address":"東京都板橋区","lat":35.7511642,"lon":139.70924619},{"name":"シルバービレッジ","province":"東京都","city":"板橋区","address":"板橋区板橋1-47-10","lat":35.74874,"lon":139.718284},{"name":"向原荘","province":"東京都","city":"板橋区","address":"板橋区向原1-20-3","lat":35.743228,"lon":139.685887},{"name":"高島平荘","province":"東京都","city":"板橋区","address":"板橋区高島平1-59-10","lat":35.785823,"lon":139.671534},{"name":"小豆沢病院","province":"東京都","city":"板橋区","address":"板橋区小豆沢1-6-8","lat":35.772989,"lon":139.700727},{"name":"板橋区社会福祉協議会","province":"東京都","city":"板橋区","address":"板橋区板橋2-65-6板橋区立情報処理センター1階","lat":35.750014,"lon":139.708866},{"name":"シルバービレッジ","province":"東京都","city":"板橋区","address":"板橋区板橋1-47-10","lat":35.74858,"lon":139.71838},{"name":"向原荘","province":"東京都","city":"板橋区","address":"板橋区向原1-20-3","lat":35.74322,"lon":139.68579},{"name":"高島平荘","province":"東京都","city":"板橋区","address":"板橋区高島平1-59-10","lat":35.78559,"lon":139.67181},{"name":"東京都立豊島病院","province":"東京都","city":"板橋区","address":"板橋区栄町33-1","lat":35.7529,"lon":139.70078},{"name":"板橋中央総合病院","province":"東京都","city":"板橋区","address":"板橋区小豆沢2-12-7","lat":35.77565,"lon":139.69719},{"name":"板橋区医師会病院","province":"東京都","city":"板橋区","address":"板橋区高島平3-12-6","lat":35.78631,"lon":139.65782},{"name":"心身障害児総合医療療育センター","province":"東京都","city":"板橋区","address":"板橋区小茂根1-1-10","lat":35.74653,"lon":139.68274},{"name":"高島平荘（日住）","province":"東京都","city":"板橋区","address":"板橋区高島平1-59-10","lat":35.78559,"lon":139.67181},{"name":"ライズケア成増","province":"東京都","city":"板橋区","address":"板橋区成増1-16-27","lat":35.77446,"lon":139.63127},{"name":"板橋区社会福祉協議会","province":"東京都","city":"板橋区","address":"板橋区板橋2-65-6板橋区情報処理センター","lat":35.75013,"lon":139.7088},{"name":"（公財）都保健医療公社豊島病院","province":"東京都","city":"板橋区","address":"板橋区栄町33-1","lat":35.7529,"lon":139.70078},{"name":"シルバービレッジ　※現在、休止中","province":"東京都","city":"板橋区","address":"板橋区板橋1-47-10","lat":35.74858,"lon":139.71838},{"name":"（公財）東京都保健医療公社豊島病院","province":"東京都","city":"板橋区","address":"板橋区栄町33-1","lat":35.752705,"lon":139.700914},{"name":"シルバービレッジ","province":"東京都","city":"板橋区","address":"板橋区板橋1-47-10","lat":35.74859,"lon":139.71838},{"name":"介護老人保健施設志村さつき苑","province":"東京都","city":"板橋区","address":"板橋区坂下3-7-6","lat":35.786376,"lon":139.683855},{"name":"（公財）都保健医療公社豊島病院","province":"東京都","city":"板橋区","address":"板橋区栄町33-1","lat":35.752705,"lon":139.700914},{"name":"板橋区医師会病院","province":"東京都","city":"板橋区","address":"板橋区高島平3-12-6","lat":35.786975,"lon":139.658058},{"name":"小豆沢荘","province":"東京都","city":"板橋区","address":"東京都板橋区","lat":35.7511642,"lon":139.70924619},{"name":"宿所提供施設ふじみ","province":"東京都","city":"板橋区","address":"東京都板橋区","lat":35.7511642,"lon":139.70924619},{"name":"シルバービレッジ","province":"東京都","city":"板橋区","address":"板橋区板橋1-47-10","lat":35.74874,"lon":139.718284},{"name":"向原荘","province":"東京都","city":"板橋区","address":"板橋区向原1-20-3","lat":35.743228,"lon":139.685887},{"name":"高島平荘","province":"東京都","city":"板橋区","address":"板橋区高島平1-59-10","lat":35.785823,"lon":139.671534},{"name":"小豆沢病院","province":"東京都","city":"板橋区","address":"板橋区小豆沢1-6-8","lat":35.772989,"lon":139.700727},{"name":"板橋区社会福祉協議会","province":"東京都","city":"板橋区","address":"板橋区板橋2-65-6板橋区立情報処理センター1階","lat":35.750014,"lon":139.708866},{"name":"シルバービレッジ","province":"東京都","city":"板橋区","address":"板橋区板橋1-47-10","lat":35.74858,"lon":139.71838},{"name":"向原荘","province":"東京都","city":"板橋区","address":"板橋区向原1-20-3","lat":35.74322,"lon":139.68579},{"name":"高島平荘","province":"東京都","city":"板橋区","address":"板橋区高島平1-59-10","lat":35.78559,"lon":139.67181},{"name":"東京都立豊島病院","province":"東京都","city":"板橋区","address":"板橋区栄町33-1","lat":35.7529,"lon":139.70078},{"name":"板橋中央総合病院","province":"東京都","city":"板橋区","address":"板橋区小豆沢2-12-7","lat":35.77565,"lon":139.69719},{"name":"板橋区医師会病院","province":"東京都","city":"板橋区","address":"板橋区高島平3-12-6","lat":35.78631,"lon":139.65782},{"name":"心身障害児総合医療療育センター","province":"東京都","city":"板橋区","address":"板橋区小茂根1-1-10","lat":35.74653,"lon":139.68274},{"name":"高島平荘（日住）","province":"東京都","city":"板橋区","address":"板橋区高島平1-59-10","lat":35.78559,"lon":139.67181},{"name":"ライズケア成増","province":"東京都","city":"板橋区","address":"板橋区成増1-16-27","lat":35.77446,"lon":139.63127},{"name":"板橋区社会福祉協議会","province":"東京都","city":"板橋区","address":"板橋区板橋2-65-6板橋区情報処理センター","lat":35.75013,"lon":139.7088},{"name":"（公財）都保健医療公社豊島病院","province":"東京都","city":"板橋区","address":"板橋区栄町33-1","lat":35.7529,"lon":139.70078},{"name":"シルバービレッジ　※現在、休止中","province":"東京都","city":"板橋区","address":"板橋区板橋1-47-10","lat":35.74858,"lon":139.71838},{"name":"（公財）東京都保健医療公社豊島病院","province":"東京都","city":"板橋区","address":"板橋区栄町33-1","lat":35.752705,"lon":139.700914},{"name":"シルバービレッジ","province":"東京都","city":"板橋区","address":"板橋区板橋1-47-10","lat":35.74859,"lon":139.71838},{"name":"介護老人保健施設志村さつき苑","province":"東京都","city":"板橋区","address":"板橋区坂下3-7-6","lat":35.786376,"lon":139.683855},{"name":"（公財）都保健医療公社豊島病院","province":"東京都","city":"板橋区","address":"板橋区栄町33-1","lat":35.752705,"lon":139.700914},{"name":"板橋区医師会病院","province":"東京都","city":"板橋区","address":"板橋区高島平3-12-6","lat":35.786975,"lon":139.658058},{"name":"小豆沢荘","province":"東京都","city":"板橋区","address":"東京都板橋区","lat":35.7511642,"lon":139.70924619},{"name":"宿所提供施設ふじみ","province":"東京都","city":"板橋区","address":"東京都板橋区","lat":35.7511642,"lon":139.70924619},{"name":"シルバービレッジ","province":"東京都","city":"板橋区","address":"板橋区板橋1-47-10","lat":35.74874,"lon":139.718284},{"name":"向原荘","province":"東京都","city":"板橋区","address":"板橋区向原1-20-3","lat":35.743228,"lon":139.685887},{"name":"高島平荘","province":"東京都","city":"板橋区","address":"板橋区高島平1-59-10","lat":35.785823,"lon":139.671534},{"name":"小豆沢病院","province":"東京都","city":"板橋区","address":"板橋区小豆沢1-6-8","lat":35.772989,"lon":139.700727},{"name":"板橋区社会福祉協議会","province":"東京都","city":"板橋区","address":"板橋区板橋2-65-6板橋区立情報処理センター1階","lat":35.750014,"lon":139.708866},{"name":"シルバービレッジ","province":"東京都","city":"板橋区","address":"板橋区板橋1-47-10","lat":35.74858,"lon":139.71838},{"name":"向原荘","province":"東京都","city":"板橋区","address":"板橋区向原1-20-3","lat":35.74322,"lon":139.68579},{"name":"高島平荘","province":"東京都","city":"板橋区","address":"板橋区高島平1-59-10","lat":35.78559,"lon":139.67181},{"name":"東京都立豊島病院","province":"東京都","city":"板橋区","address":"板橋区栄町33-1","lat":35.7529,"lon":139.70078},{"name":"板橋中央総合病院","province":"東京都","city":"板橋区","address":"板橋区小豆沢2-12-7","lat":35.77565,"lon":139.69719},{"name":"板橋区医師会病院","province":"東京都","city":"板橋区","address":"板橋区高島平3-12-6","lat":35.78631,"lon":139.65782},{"name":"心身障害児総合医療療育センター","province":"東京都","city":"板橋区","address":"板橋区小茂根1-1-10","lat":35.74653,"lon":139.68274},{"name":"高島平荘（日住）","province":"東京都","city":"板橋区","address":"板橋区高島平1-59-10","lat":35.78559,"lon":139.67181},{"name":"ライズケア成増","province":"東京都","city":"板橋区","address":"板橋区成増1-16-27","lat":35.77446,"lon":139.63127},{"name":"板橋区社会福祉協議会","province":"東京都","city":"板橋区","address":"板橋区板橋2-65-6板橋区情報処理センター","lat":35.75013,"lon":139.7088},{"name":"（公財）都保健医療公社豊島病院","province":"東京都","city":"板橋区","address":"板橋区栄町33-1","lat":35.7529,"lon":139.70078},{"name":"シルバービレッジ　※現在、休止中","province":"東京都","city":"板橋区","address":"板橋区板橋1-47-10","lat":35.74858,"lon":139.71838},{"name":"（公財）東京都保健医療公社豊島病院","province":"東京都","city":"板橋区","address":"板橋区栄町33-1","lat":35.752705,"lon":139.700914},{"name":"シルバービレッジ","province":"東京都","city":"板橋区","address":"板橋区板橋1-47-10","lat":35.74859,"lon":139.71838},{"name":"介護老人保健施設志村さつき苑","province":"東京都","city":"板橋区","address":"板橋区坂下3-7-6","lat":35.786376,"lon":139.683855},{"name":"（公財）都保健医療公社豊島病院","province":"東京都","city":"板橋区","address":"板橋区栄町33-1","lat":35.752705,"lon":139.700914},{"name":"板橋区医師会病院","province":"東京都","city":"板橋区","address":"板橋区高島平3-12-6","lat":35.786975,"lon":139.658058},{"name":"小豆沢荘","province":"東京都","city":"板橋区","address":"東京都板橋区","lat":35.7511642,"lon":139.70924619},{"name":"宿所提供施設ふじみ","province":"東京都","city":"板橋区","address":"東京都板橋区","lat":35.7511642,"lon":139.70924619},{"name":"シルバービレッジ","province":"東京都","city":"板橋区","address":"板橋区板橋1-47-10","lat":35.74874,"lon":139.718284},{"name":"向原荘","province":"東京都","city":"板橋区","address":"板橋区向原1-20-3","lat":35.743228,"lon":139.685887},{"name":"高島平荘","province":"東京都","city":"板橋区","address":"板橋区高島平1-59-10","lat":35.785823,"lon":139.671534},{"name":"小豆沢病院","province":"東京都","city":"板橋区","address":"板橋区小豆沢1-6-8","lat":35.772989,"lon":139.700727},{"name":"板橋区社会福祉協議会","province":"東京都","city":"板橋区","address":"板橋区板橋2-65-6板橋区立情報処理センター1階","lat":35.750014,"lon":139.708866},{"name":"シルバービレッジ","province":"東京都","city":"板橋区","address":"板橋区板橋1-47-10","lat":35.74858,"lon":139.71838},{"name":"向原荘","province":"東京都","city":"板橋区","address":"板橋区向原1-20-3","lat":35.74322,"lon":139.68579},{"name":"高島平荘","province":"東京都","city":"板橋区","address":"板橋区高島平1-59-10","lat":35.78559,"lon":139.67181},{"name":"東京都立豊島病院","province":"東京都","city":"板橋区","address":"板橋区栄町33-1","lat":35.7529,"lon":139.70078},{"name":"板橋中央総合病院","province":"東京都","city":"板橋区","address":"板橋区小豆沢2-12-7","lat":35.77565,"lon":139.69719},{"name":"板橋区医師会病院","province":"東京都","city":"板橋区","address":"板橋区高島平3-12-6","lat":35.78631,"lon":139.65782},{"name":"心身障害児総合医療療育センター","province":"東京都","city":"板橋区","address":"板橋区小茂根1-1-10","lat":35.74653,"lon":139.68274},{"name":"高島平荘（日住）","province":"東京都","city":"板橋区","address":"板橋区高島平1-59-10","lat":35.78559,"lon":139.67181},{"name":"ライズケア成増","province":"東京都","city":"板橋区","address":"板橋区成増1-16-27","lat":35.77446,"lon":139.63127},{"name":"板橋区社会福祉協議会","province":"東京都","city":"板橋区","address":"板橋区板橋2-65-6板橋区情報処理センター","lat":35.75013,"lon":139.7088},{"name":"（公財）都保健医療公社豊島病院","province":"東京都","city":"板橋区","address":"板橋区栄町33-1","lat":35.7529,"lon":139.70078},{"name":"シルバービレッジ　※現在、休止中","province":"東京都","city":"板橋区","address":"板橋区板橋1-47-10","lat":35.74858,"lon":139.71838},{"name":"（公財）東京都保健医療公社豊島病院","province":"東京都","city":"板橋区","address":"板橋区栄町33-1","lat":35.752705,"lon":139.700914},{"name":"シルバービレッジ","province":"東京都","city":"板橋区","address":"板橋区板橋1-47-10","lat":35.74859,"lon":139.71838},{"name":"介護老人保健施設志村さつき苑","province":"東京都","city":"板橋区","address":"板橋区坂下3-7-6","lat":35.786376,"lon":139.683855},{"name":"（公財）都保健医療公社豊島病院","province":"東京都","city":"板橋区","address":"板橋区栄町33-1","lat":35.752705,"lon":139.700914},{"name":"板橋区医師会病院","province":"東京都","city":"板橋区","address":"板橋区高島平3-12-6","lat":35.786975,"lon":139.658058},{"name":"小豆沢荘","province":"東京都","city":"板橋区","address":"東京都板橋区","lat":35.7511642,"lon":139.70924619},{"name":"宿所提供施設ふじみ","province":"東京都","city":"板橋区","address":"東京都板橋区","lat":35.7511642,"lon":139.70924619},{"name":"シルバービレッジ","province":"東京都","city":"板橋区","address":"板橋区板橋1-47-10","lat":35.74874,"lon":139.718284},{"name":"向原荘","province":"東京都","city":"板橋区","address":"板橋区向原1-20-3","lat":35.743228,"lon":139.685887},{"name":"高島平荘","province":"東京都","city":"板橋区","address":"板橋区高島平1-59-10","lat":35.785823,"lon":139.671534},{"name":"小豆沢病院","province":"東京都","city":"板橋区","address":"板橋区小豆沢1-6-8","lat":35.772989,"lon":139.700727},{"name":"板橋区社会福祉協議会","province":"東京都","city":"板橋区","address":"板橋区板橋2-65-6板橋区立情報処理センター1階","lat":35.750014,"lon":139.708866},{"name":"シルバービレッジ","province":"東京都","city":"板橋区","address":"板橋区板橋1-47-10","lat":35.74858,"lon":139.71838},{"name":"向原荘","province":"東京都","city":"板橋区","address":"板橋区向原1-20-3","lat":35.74322,"lon":139.68579},{"name":"高島平荘","province":"東京都","city":"板橋区","address":"板橋区高島平1-59-10","lat":35.78559,"lon":139.67181},{"name":"東京都立豊島病院","province":"東京都","city":"板橋区","address":"板橋区栄町33-1","lat":35.7529,"lon":139.70078},{"name":"板橋中央総合病院","province":"東京都","city":"板橋区","address":"板橋区小豆沢2-12-7","lat":35.77565,"lon":139.69719},{"name":"板橋区医師会病院","province":"東京都","city":"板橋区","address":"板橋区高島平3-12-6","lat":35.78631,"lon":139.65782},{"name":"心身障害児総合医療療育センター","province":"東京都","city":"板橋区","address":"板橋区小茂根1-1-10","lat":35.74653,"lon":139.68274},{"name":"高島平荘（日住）","province":"東京都","city":"板橋区","address":"板橋区高島平1-59-10","lat":35.78559,"lon":139.67181},{"name":"ライズケア成増","province":"東京都","city":"板橋区","address":"板橋区成増1-16-27","lat":35.77446,"lon":139.63127},{"name":"板橋区社会福祉協議会","province":"東京都","city":"板橋区","address":"板橋区板橋2-65-6板橋区情報処理センター","lat":35.75013,"lon":139.7088},{"name":"（公財）都保健医療公社豊島病院","province":"東京都","city":"板橋区","address":"板橋区栄町33-1","lat":35.7529,"lon":139.70078},{"name":"シルバービレッジ　※現在、休止中","province":"東京都","city":"板橋区","address":"板橋区板橋1-47-10","lat":35.74858,"lon":139.71838},{"name":"（公財）東京都保健医療公社豊島病院","province":"東京都","city":"板橋区","address":"板橋区栄町33-1","lat":35.752705,"lon":139.700914},{"name":"シルバービレッジ","province":"東京都","city":"板橋区","address":"板橋区板橋1-47-10","lat":35.74859,"lon":139.71838},{"name":"介護老人保健施設志村さつき苑","province":"東京都","city":"板橋区","address":"板橋区坂下3-7-6","lat":35.786376,"lon":139.683855},{"name":"（公財）都保健医療公社豊島病院","province":"東京都","city":"板橋区","address":"板橋区栄町33-1","lat":35.752705,"lon":139.700914},{"name":"板橋区医師会病院","province":"東京都","city":"板橋区","address":"板橋区高島平3-12-6","lat":35.786975,"lon":139.658058},{"name":"小豆沢荘","province":"東京都","city":"板橋区","address":"東京都板橋区","lat":35.7511642,"lon":139.70924619},{"name":"宿所提供施設ふじみ","province":"東京都","city":"板橋区","address":"東京都板橋区","lat":35.7511642,"lon":139.70924619},{"name":"シルバービレッジ","province":"東京都","city":"板橋区","address":"板橋区板橋1-47-10","lat":35.74874,"lon":139.718284},{"name":"向原荘","province":"東京都","city":"板橋区","address":"板橋区向原1-20-3","lat":35.743228,"lon":139.685887},{"name":"高島平荘","province":"東京都","city":"板橋区","address":"板橋区高島平1-59-10","lat":35.785823,"lon":139.671534},{"name":"小豆沢病院","province":"東京都","city":"板橋区","address":"板橋区小豆沢1-6-8","lat":35.772989,"lon":139.700727},{"name":"板橋区社会福祉協議会","province":"東京都","city":"板橋区","address":"板橋区板橋2-65-6板橋区立情報処理センター1階","lat":35.750014,"lon":139.708866},{"name":"シルバービレッジ","province":"東京都","city":"板橋区","address":"板橋区板橋1-47-10","lat":35.74858,"lon":139.71838},{"name":"向原荘","province":"東京都","city":"板橋区","address":"板橋区向原1-20-3","lat":35.74322,"lon":139.68579},{"name":"高島平荘","province":"東京都","city":"板橋区","address":"板橋区高島平1-59-10","lat":35.78559,"lon":139.67181},{"name":"東京都立豊島病院","province":"東京都","city":"板橋区","address":"板橋区栄町33-1","lat":35.7529,"lon":139.70078},{"name":"板橋中央総合病院","province":"東京都","city":"板橋区","address":"板橋区小豆沢2-12-7","lat":35.77565,"lon":139.69719},{"name":"板橋区医師会病院","province":"東京都","city":"板橋区","address":"板橋区高島平3-12-6","lat":35.78631,"lon":139.65782},{"name":"心身障害児総合医療療育センター","province":"東京都","city":"板橋区","address":"板橋区小茂根1-1-10","lat":35.74653,"lon":139.68274},{"name":"高島平荘（日住）","province":"東京都","city":"板橋区","address":"板橋区高島平1-59-10","lat":35.78559,"lon":139.67181},{"name":"ライズケア成増","province":"東京都","city":"板橋区","address":"板橋区成増1-16-27","lat":35.77446,"lon":139.63127},{"name":"板橋区社会福祉協議会","province":"東京都","city":"板橋区","address":"板橋区板橋2-65-6板橋区情報処理センター","lat":35.75013,"lon":139.7088},{"name":"（公財）都保健医療公社豊島病院","province":"東京都","city":"板橋区","address":"板橋区栄町33-1","lat":35.7529,"lon":139.70078},{"name":"シルバービレッジ　※現在、休止中","province":"東京都","city":"板橋区","address":"板橋区板橋1-47-10","lat":35.74858,"lon":139.71838},{"name":"（公財）東京都保健医療公社豊島病院","province":"東京都","city":"板橋区","address":"板橋区栄町33-1","lat":35.752705,"lon":139.700914},{"name":"シルバービレッジ","province":"東京都","city":"板橋区","address":"板橋区板橋1-47-10","lat":35.74859,"lon":139.71838},{"name":"介護老人保健施設志村さつき苑","province":"東京都","city":"板橋区","address":"板橋区坂下3-7-6","lat":35.786376,"lon":139.683855},{"name":"（公財）都保健医療公社豊島病院","province":"東京都","city":"板橋区","address":"板橋区栄町33-1","lat":35.752705,"lon":139.700914},{"name":"板橋区医師会病院","province":"東京都","city":"板橋区","address":"板橋区高島平3-12-6","lat":35.786975,"lon":139.658058},{"name":"小豆沢荘","province":"東京都","city":"板橋区","address":"東京都板橋区","lat":35.7511642,"lon":139.70924619},{"name":"宿所提供施設ふじみ","province":"東京都","city":"板橋区","address":"東京都板橋区","lat":35.7511642,"lon":139.70924619},{"name":"シルバービレッジ","province":"東京都","city":"板橋区","address":"板橋区板橋1-47-10","lat":35.74874,"lon":139.718284},{"name":"向原荘","province":"東京都","city":"板橋区","address":"板橋区向原1-20-3","lat":35.743228,"lon":139.685887},{"name":"高島平荘","province":"東京都","city":"板橋区","address":"板橋区高島平1-59-10","lat":35.785823,"lon":139.671534},{"name":"小豆沢病院","province":"東京都","city":"板橋区","address":"板橋区小豆沢1-6-8","lat":35.772989,"lon":139.700727},{"name":"板橋区社会福祉協議会","province":"東京都","city":"板橋区","address":"板橋区板橋2-65-6板橋区立情報処理センター1階","lat":35.750014,"lon":139.708866},{"name":"シルバービレッジ","province":"東京都","city":"板橋区","address":"板橋区板橋1-47-10","lat":35.74858,"lon":139.71838},{"name":"向原荘","province":"東京都","city":"板橋区","address":"板橋区向原1-20-3","lat":35.74322,"lon":139.68579},{"name":"高島平荘","province":"東京都","city":"板橋区","address":"板橋区高島平1-59-10","lat":35.78559,"lon":139.67181},{"name":"東京都立豊島病院","province":"東京都","city":"板橋区","address":"板橋区栄町33-1","lat":35.7529,"lon":139.70078},{"name":"板橋中央総合病院","province":"東京都","city":"板橋区","address":"板橋区小豆沢2-12-7","lat":35.77565,"lon":139.69719},{"name":"板橋区医師会病院","province":"東京都","city":"板橋区","address":"板橋区高島平3-12-6","lat":35.78631,"lon":139.65782},{"name":"心身障害児総合医療療育センター","province":"東京都","city":"板橋区","address":"板橋区小茂根1-1-10","lat":35.74653,"lon":139.68274},{"name":"高島平荘（日住）","province":"東京都","city":"板橋区","address":"板橋区高島平1-59-10","lat":35.78559,"lon":139.67181},{"name":"ライズケア成増","province":"東京都","city":"板橋区","address":"板橋区成増1-16-27","lat":35.77446,"lon":139.63127},{"name":"板橋区社会福祉協議会","province":"東京都","city":"板橋区","address":"板橋区板橋2-65-6板橋区情報処理センター","lat":35.75013,"lon":139.7088},{"name":"（公財）都保健医療公社豊島病院","province":"東京都","city":"板橋区","address":"板橋区栄町33-1","lat":35.7529,"lon":139.70078},{"name":"シルバービレッジ　※現在、休止中","province":"東京都","city":"板橋区","address":"板橋区板橋1-47-10","lat":35.74858,"lon":139.71838},{"name":"（公財）東京都保健医療公社豊島病院","province":"東京都","city":"板橋区","address":"板橋区栄町33-1","lat":35.752705,"lon":139.700914},{"name":"シルバービレッジ","province":"東京都","city":"板橋区","address":"板橋区板橋1-47-10","lat":35.74859,"lon":139.71838},{"name":"介護老人保健施設志村さつき苑","province":"東京都","city":"板橋区","address":"板橋区坂下3-7-6","lat":35.786376,"lon":139.683855},{"name":"（公財）都保健医療公社豊島病院","province":"東京都","city":"板橋区","address":"板橋区栄町33-1","lat":35.752705,"lon":139.700914},{"name":"板橋区医師会病院","province":"東京都","city":"板橋区","address":"板橋区高島平3-12-6","lat":35.786975,"lon":139.658058},{"name":"小豆沢荘","province":"東京都","city":"板橋区","address":"東京都板橋区","lat":35.7511642,"lon":139.70924619},{"name":"宿所提供施設ふじみ","province":"東京都","city":"板橋区","address":"東京都板橋区","lat":35.7511642,"lon":139.70924619},{"name":"シルバービレッジ","province":"東京都","city":"板橋区","address":"板橋区板橋1-47-10","lat":35.74874,"lon":139.718284},{"name":"向原荘","province":"東京都","city":"板橋区","address":"板橋区向原1-20-3","lat":35.743228,"lon":139.685887},{"name":"高島平荘","province":"東京都","city":"板橋区","address":"板橋区高島平1-59-10","lat":35.785823,"lon":139.671534},{"name":"小豆沢病院","province":"東京都","city":"板橋区","address":"板橋区小豆沢1-6-8","lat":35.772989,"lon":139.700727},{"name":"板橋区社会福祉協議会","province":"東京都","city":"板橋区","address":"板橋区板橋2-65-6板橋区立情報処理センター1階","lat":35.750014,"lon":139.708866},{"name":"シルバービレッジ","province":"東京都","city":"板橋区","address":"板橋区板橋1-47-10","lat":35.74858,"lon":139.71838},{"name":"向原荘","province":"東京都","city":"板橋区","address":"板橋区向原1-20-3","lat":35.74322,"lon":139.68579},{"name":"高島平荘","province":"東京都","city":"板橋区","address":"板橋区高島平1-59-10","lat":35.78559,"lon":139.67181},{"name":"東京都立豊島病院","province":"東京都","city":"板橋区","address":"板橋区栄町33-1","lat":35.7529,"lon":139.70078},{"name":"板橋中央総合病院","province":"東京都","city":"板橋区","address":"板橋区小豆沢2-12-7","lat":35.77565,"lon":139.69719},{"name":"板橋区医師会病院","province":"東京都","city":"板橋区","address":"板橋区高島平3-12-6","lat":35.78631,"lon":139.65782},{"name":"心身障害児総合医療療育センター","province":"東京都","city":"板橋区","address":"板橋区小茂根1-1-10","lat":35.74653,"lon":139.68274},{"name":"高島平荘（日住）","province":"東京都","city":"板橋区","address":"板橋区高島平1-59-10","lat":35.78559,"lon":139.67181},{"name":"ライズケア成増","province":"東京都","city":"板橋区","address":"板橋区成増1-16-27","lat":35.77446,"lon":139.63127},{"name":"板橋区社会福祉協議会","province":"東京都","city":"板橋区","address":"板橋区板橋2-65-6板橋区情報処理センター","lat":35.75013,"lon":139.7088},{"name":"（公財）都保健医療公社豊島病院","province":"東京都","city":"板橋区","address":"板橋区栄町33-1","lat":35.7529,"lon":139.70078},{"name":"シルバービレッジ　※現在、休止中","province":"東京都","city":"板橋区","address":"板橋区板橋1-47-10","lat":35.74858,"lon":139.71838},{"name":"（公財）東京都保健医療公社豊島病院","province":"東京都","city":"板橋区","address":"板橋区栄町33-1","lat":35.752705,"lon":139.700914},{"name":"シルバービレッジ","province":"東京都","city":"板橋区","address":"板橋区板橋1-47-10","lat":35.74859,"lon":139.71838},{"name":"介護老人保健施設志村さつき苑","province":"東京都","city":"板橋区","address":"板橋区坂下3-7-6","lat":35.786376,"lon":139.683855},{"name":"（公財）都保健医療公社豊島病院","province":"東京都","city":"板橋区","address":"板橋区栄町33-1","lat":35.752705,"lon":139.700914},{"name":"板橋区医師会病院","province":"東京都","city":"板橋区","address":"板橋区高島平3-12-6","lat":35.786975,"lon":139.658058},{"name":"小豆沢荘","province":"東京都","city":"板橋区","address":"東京都板橋区","lat":35.7511642,"lon":139.70924619},{"name":"宿所提供施設ふじみ","province":"東京都","city":"板橋区","address":"東京都板橋区","lat":35.7511642,"lon":139.70924619},{"name":"シルバービレッジ","province":"東京都","city":"板橋区","address":"板橋区板橋1-47-10","lat":35.74874,"lon":139.718284},{"name":"向原荘","province":"東京都","city":"板橋区","address":"板橋区向原1-20-3","lat":35.743228,"lon":139.685887},{"name":"高島平荘","province":"東京都","city":"板橋区","address":"板橋区高島平1-59-10","lat":35.785823,"lon":139.671534},{"name":"小豆沢病院","province":"東京都","city":"板橋区","address":"板橋区小豆沢1-6-8","lat":35.772989,"lon":139.700727},{"name":"板橋区社会福祉協議会","province":"東京都","city":"板橋区","address":"板橋区板橋2-65-6板橋区立情報処理センター1階","lat":35.750014,"lon":139.708866},{"name":"シルバービレッジ","province":"東京都","city":"板橋区","address":"板橋区板橋1-47-10","lat":35.74858,"lon":139.71838},{"name":"向原荘","province":"東京都","city":"板橋区","address":"板橋区向原1-20-3","lat":35.74322,"lon":139.68579},{"name":"高島平荘","province":"東京都","city":"板橋区","address":"板橋区高島平1-59-10","lat":35.78559,"lon":139.67181},{"name":"東京都立豊島病院","province":"東京都","city":"板橋区","address":"板橋区栄町33-1","lat":35.7529,"lon":139.70078},{"name":"板橋中央総合病院","province":"東京都","city":"板橋区","address":"板橋区小豆沢2-12-7","lat":35.77565,"lon":139.69719},{"name":"板橋区医師会病院","province":"東京都","city":"板橋区","address":"板橋区高島平3-12-6","lat":35.78631,"lon":139.65782},{"name":"心身障害児総合医療療育センター","province":"東京都","city":"板橋区","address":"板橋区小茂根1-1-10","lat":35.74653,"lon":139.68274},{"name":"高島平荘（日住）","province":"東京都","city":"板橋区","address":"板橋区高島平1-59-10","lat":35.78559,"lon":139.67181},{"name":"ライズケア成増","province":"東京都","city":"板橋区","address":"板橋区成増1-16-27","lat":35.77446,"lon":139.63127},{"name":"板橋区社会福祉協議会","province":"東京都","city":"板橋区","address":"板橋区板橋2-65-6板橋区情報処理センター","lat":35.75013,"lon":139.7088},{"name":"（公財）都保健医療公社豊島病院","province":"東京都","city":"板橋区","address":"板橋区栄町33-1","lat":35.7529,"lon":139.70078},{"name":"シルバービレッジ　※現在、休止中","province":"東京都","city":"板橋区","address":"板橋区板橋1-47-10","lat":35.74858,"lon":139.71838},{"name":"（公財）東京都保健医療公社豊島病院","province":"東京都","city":"板橋区","address":"板橋区栄町33-1","lat":35.752705,"lon":139.700914},{"name":"シルバービレッジ","province":"東京都","city":"板橋区","address":"板橋区板橋1-47-10","lat":35.74859,"lon":139.71838},{"name":"介護老人保健施設志村さつき苑","province":"東京都","city":"板橋区","address":"板橋区坂下3-7-6","lat":35.786376,"lon":139.683855},{"name":"（公財）都保健医療公社豊島病院","province":"東京都","city":"板橋区","address":"板橋区栄町33-1","lat":35.752705,"lon":139.700914},{"name":"板橋区医師会病院","province":"東京都","city":"板橋区","address":"板橋区高島平3-12-6","lat":35.786975,"lon":139.658058},{"name":"小豆沢荘","province":"東京都","city":"板橋区","address":"東京都板橋区","lat":35.7511642,"lon":139.70924619},{"name":"宿所提供施設ふじみ","province":"東京都","city":"板橋区","address":"東京都板橋区","lat":35.7511642,"lon":139.70924619},{"name":"シルバービレッジ","province":"東京都","city":"板橋区","address":"板橋区板橋1-47-10","lat":35.74874,"lon":139.718284},{"name":"向原荘","province":"東京都","city":"板橋区","address":"板橋区向原1-20-3","lat":35.743228,"lon":139.685887},{"name":"高島平荘","province":"東京都","city":"板橋区","address":"板橋区高島平1-59-10","lat":35.785823,"lon":139.671534},{"name":"小豆沢病院","province":"東京都","city":"板橋区","address":"板橋区小豆沢1-6-8","lat":35.772989,"lon":139.700727},{"name":"板橋区社会福祉協議会","province":"東京都","city":"板橋区","address":"板橋区板橋2-65-6板橋区立情報処理センター1階","lat":35.750014,"lon":139.708866},{"name":"シルバービレッジ","province":"東京都","city":"板橋区","address":"板橋区板橋1-47-10","lat":35.74858,"lon":139.71838},{"name":"向原荘","province":"東京都","city":"板橋区","address":"板橋区向原1-20-3","lat":35.74322,"lon":139.68579},{"name":"高島平荘","province":"東京都","city":"板橋区","address":"板橋区高島平1-59-10","lat":35.78559,"lon":139.67181},{"name":"東京都立豊島病院","province":"東京都","city":"板橋区","address":"板橋区栄町33-1","lat":35.7529,"lon":139.70078},{"name":"板橋中央総合病院","province":"東京都","city":"板橋区","address":"板橋区小豆沢2-12-7","lat":35.77565,"lon":139.69719},{"name":"板橋区医師会病院","province":"東京都","city":"板橋区","address":"板橋区高島平3-12-6","lat":35.78631,"lon":139.65782},{"name":"心身障害児総合医療療育センター","province":"東京都","city":"板橋区","address":"板橋区小茂根1-1-10","lat":35.74653,"lon":139.68274},{"name":"高島平荘（日住）","province":"東京都","city":"板橋区","address":"板橋区高島平1-59-10","lat":35.78559,"lon":139.67181},{"name":"ライズケア成増","province":"東京都","city":"板橋区","address":"板橋区成増1-16-27","lat":35.77446,"lon":139.63127},{"name":"板橋区社会福祉協議会","province":"東京都","city":"板橋区","address":"板橋区板橋2-65-6板橋区情報処理センター","lat":35.75013,"lon":139.7088},{"name":"（公財）都保健医療公社豊島病院","province":"東京都","city":"板橋区","address":"板橋区栄町33-1","lat":35.7529,"lon":139.70078},{"name":"シルバービレッジ　※現在、休止中","province":"東京都","city":"板橋区","address":"板橋区板橋1-47-10","lat":35.74858,"lon":139.71838},{"name":"（公財）東京都保健医療公社豊島病院","province":"東京都","city":"板橋区","address":"板橋区栄町33-1","lat":35.752705,"lon":139.700914},{"name":"シルバービレッジ","province":"東京都","city":"板橋区","address":"板橋区板橋1-47-10","lat":35.74859,"lon":139.71838},{"name":"介護老人保健施設志村さつき苑","province":"東京都","city":"板橋区","address":"板橋区坂下3-7-6","lat":35.786376,"lon":139.683855},{"name":"（公財）都保健医療公社豊島病院","province":"東京都","city":"板橋区","address":"板橋区栄町33-1","lat":35.752705,"lon":139.700914},{"name":"板橋区医師会病院","province":"東京都","city":"板橋区","address":"板橋区高島平3-12-6","lat":35.786975,"lon":139.658058},{"name":"小豆沢荘","province":"東京都","city":"板橋区","address":"東京都板橋区","lat":35.7511642,"lon":139.70924619},{"name":"宿所提供施設ふじみ","province":"東京都","city":"板橋区","address":"東京都板橋区","lat":35.7511642,"lon":139.70924619},{"name":"シルバービレッジ","province":"東京都","city":"板橋区","address":"板橋区板橋1-47-10","lat":35.74874,"lon":139.718284},{"name":"向原荘","province":"東京都","city":"板橋区","address":"板橋区向原1-20-3","lat":35.743228,"lon":139.685887},{"name":"高島平荘","province":"東京都","city":"板橋区","address":"板橋区高島平1-59-10","lat":35.785823,"lon":139.671534},{"name":"小豆沢病院","province":"東京都","city":"板橋区","address":"板橋区小豆沢1-6-8","lat":35.772989,"lon":139.700727},{"name":"板橋区社会福祉協議会","province":"東京都","city":"板橋区","address":"板橋区板橋2-65-6板橋区立情報処理センター1階","lat":35.750014,"lon":139.708866},{"name":"シルバービレッジ","province":"東京都","city":"板橋区","address":"板橋区板橋1-47-10","lat":35.74858,"lon":139.71838},{"name":"向原荘","province":"東京都","city":"板橋区","address":"板橋区向原1-20-3","lat":35.74322,"lon":139.68579},{"name":"高島平荘","province":"東京都","city":"板橋区","address":"板橋区高島平1-59-10","lat":35.78559,"lon":139.67181},{"name":"東京都立豊島病院","province":"東京都","city":"板橋区","address":"板橋区栄町33-1","lat":35.7529,"lon":139.70078},{"name":"板橋中央総合病院","province":"東京都","city":"板橋区","address":"板橋区小豆沢2-12-7","lat":35.77565,"lon":139.69719},{"name":"板橋区医師会病院","province":"東京都","city":"板橋区","address":"板橋区高島平3-12-6","lat":35.78631,"lon":139.65782},{"name":"心身障害児総合医療療育センター","province":"東京都","city":"板橋区","address":"板橋区小茂根1-1-10","lat":35.74653,"lon":139.68274},{"name":"高島平荘（日住）","province":"東京都","city":"板橋区","address":"板橋区高島平1-59-10","lat":35.78559,"lon":139.67181},{"name":"ライズケア成増","province":"東京都","city":"板橋区","address":"板橋区成増1-16-27","lat":35.77446,"lon":139.63127},{"name":"板橋区社会福祉協議会","province":"東京都","city":"板橋区","address":"板橋区板橋2-65-6板橋区情報処理センター","lat":35.75013,"lon":139.7088},{"name":"（公財）都保健医療公社豊島病院","province":"東京都","city":"板橋区","address":"板橋区栄町33-1","lat":35.7529,"lon":139.70078},{"name":"シルバービレッジ　※現在、休止中","province":"東京都","city":"板橋区","address":"板橋区板橋1-47-10","lat":35.74858,"lon":139.71838},{"name":"（公財）東京都保健医療公社豊島病院","province":"東京都","city":"板橋区","address":"板橋区栄町33-1","lat":35.752705,"lon":139.700914},{"name":"シルバービレッジ","province":"東京都","city":"板橋区","address":"板橋区板橋1-47-10","lat":35.74859,"lon":139.71838},{"name":"介護老人保健施設志村さつき苑","province":"東京都","city":"板橋区","address":"板橋区坂下3-7-6","lat":35.786376,"lon":139.683855},{"name":"（公財）都保健医療公社豊島病院","province":"東京都","city":"板橋区","address":"板橋区栄町33-1","lat":35.752705,"lon":139.700914},{"name":"板橋区医師会病院","province":"東京都","city":"板橋区","address":"板橋区高島平3-12-6","lat":35.786975,"lon":139.658058},{"name":"小豆沢荘","province":"東京都","city":"板橋区","address":"東京都板橋区","lat":35.7511642,"lon":139.70924619},{"name":"宿所提供施設ふじみ","province":"東京都","city":"板橋区","address":"東京都板橋区","lat":35.7511642,"lon":139.70924619},{"name":"シルバービレッジ","province":"東京都","city":"板橋区","address":"板橋区板橋1-47-10","lat":35.74874,"lon":139.718284},{"name":"向原荘","province":"東京都","city":"板橋区","address":"板橋区向原1-20-3","lat":35.743228,"lon":139.685887},{"name":"高島平荘","province":"東京都","city":"板橋区","address":"板橋区高島平1-59-10","lat":35.785823,"lon":139.671534},{"name":"小豆沢病院","province":"東京都","city":"板橋区","address":"板橋区小豆沢1-6-8","lat":35.772989,"lon":139.700727},{"name":"板橋区社会福祉協議会","province":"東京都","city":"板橋区","address":"板橋区板橋2-65-6板橋区立情報処理センター1階","lat":35.750014,"lon":139.708866},{"name":"シルバービレッジ","province":"東京都","city":"板橋区","address":"板橋区板橋1-47-10","lat":35.74858,"lon":139.71838},{"name":"向原荘","province":"東京都","city":"板橋区","address":"板橋区向原1-20-3","lat":35.74322,"lon":139.68579},{"name":"高島平荘","province":"東京都","city":"板橋区","address":"板橋区高島平1-59-10","lat":35.78559,"lon":139.67181},{"name":"東京都立豊島病院","province":"東京都","city":"板橋区","address":"板橋区栄町33-1","lat":35.7529,"lon":139.70078},{"name":"板橋中央総合病院","province":"東京都","city":"板橋区","address":"板橋区小豆沢2-12-7","lat":35.77565,"lon":139.69719},{"name":"板橋区医師会病院","province":"東京都","city":"板橋区","address":"板橋区高島平3-12-6","lat":35.78631,"lon":139.65782},{"name":"心身障害児総合医療療育センター","province":"東京都","city":"板橋区","address":"板橋区小茂根1-1-10","lat":35.74653,"lon":139.68274},{"name":"高島平荘（日住）","province":"東京都","city":"板橋区","address":"板橋区高島平1-59-10","lat":35.78559,"lon":139.67181},{"name":"ライズケア成増","province":"東京都","city":"板橋区","address":"板橋区成増1-16-27","lat":35.77446,"lon":139.63127},{"name":"板橋区社会福祉協議会","province":"東京都","city":"板橋区","address":"板橋区板橋2-65-6板橋区情報処理センター","lat":35.75013,"lon":139.7088},{"name":"（公財）都保健医療公社豊島病院","province":"東京都","city":"板橋区","address":"板橋区栄町33-1","lat":35.7529,"lon":139.70078},{"name":"シルバービレッジ　※現在、休止中","province":"東京都","city":"板橋区","address":"板橋区板橋1-47-10","lat":35.74858,"lon":139.71838},{"name":"（公財）東京都保健医療公社豊島病院","province":"東京都","city":"板橋区","address":"板橋区栄町33-1","lat":35.752705,"lon":139.700914},{"name":"シルバービレッジ","province":"東京都","city":"板橋区","address":"板橋区板橋1-47-10","lat":35.74859,"lon":139.71838},{"name":"介護老人保健施設志村さつき苑","province":"東京都","city":"板橋区","address":"板橋区坂下3-7-6","lat":35.786376,"lon":139.683855}]}