{"keyword":"戸数","data":[{"name":"豊島病院","province":"東京都","city":"板橋区","address":"東京都板橋区栄町33-1","lat":35.75269994,"lon":139.70097739},{"name":"板橋区社会福祉協議会","province":"東京都","city":"板橋区","address":"板橋区板橋2-65-6板橋区立情報処理センター1階","lat":35.750014,"lon":139.708866},{"name":"板橋区","province":"東京都","city":"板橋区","address":"板橋区板橋2-66-1","lat":35.7509203,"lon":139.7091992},{"name":"㈱宇野商店","province":"東京都","city":"板橋区","address":"東京都板橋区大谷口上町70-12","lat":35.74699743,"lon":139.68910083},{"name":"\"㈱京花  \"","province":"東京都","city":"板橋区","address":"東京都板橋区中丸町28-3","lat":35.74151794,"lon":139.70425257},{"name":"㈱正美堂 大村葬儀社","province":"東京都","city":"板橋区","address":"東京都板橋区志村3丁目1-16","lat":35.77984631,"lon":139.69081043},{"name":"㈱コーディアル","province":"東京都","city":"板橋区","address":"東京都板橋区高島平1丁目48-1","lat":35.78419515,"lon":139.66936774},{"name":"㈱高根商店","province":"東京都","city":"板橋区","address":"東京都板橋区大山町19-2","lat":35.74736716,"lon":139.69926109},{"name":"\"常盤葬祭㈲  \"","province":"東京都","city":"板橋区","address":"東京都板橋区南常盤台1丁目36-8","lat":35.75755443,"lon":139.68729491},{"name":"㈲服部葬儀社","province":"東京都","city":"板橋区","address":"東京都板橋区赤塚新町1丁目22-4","lat":35.77002972,"lon":139.64477037},{"name":"㈲望月葬儀社","province":"東京都","city":"板橋区","address":"東京都板橋区栄町28-3","lat":35.75364151,"lon":139.70174951},{"name":"㈱大白社","province":"東京都","city":"板橋区","address":"東京都板橋区志村2丁目11-3","lat":35.77638007,"lon":139.69046335},{"name":"板橋区社会福祉協議会","province":"東京都","city":"板橋区","address":"板橋区板橋2-65-6板橋区情報処理センター","lat":35.75013,"lon":139.7088},{"name":"板橋区役所","province":"東京都","city":"板橋区","address":"東京都板橋区板橋2-66-1","lat":35.75113,"lon":139.70925},{"name":"情報処理センター","province":"東京都","city":"板橋区","address":"東京都板橋区板橋2-65-6","lat":35.74996,"lon":139.70894},{"name":"板橋区保健所","province":"東京都","city":"板橋区","address":"東京都板橋区大山東町32-15","lat":35.75053,"lon":139.70807},{"name":"赤塚支所","province":"東京都","city":"板橋区","address":"東京都板橋区赤塚6-38-1","lat":35.77889,"lon":139.6447},{"name":"いたばし総合ボランティアセンター","province":"東京都","city":"板橋区","address":"東京都板橋区本町24-1","lat":35.75944,"lon":139.70809},{"name":"板橋地域センター","province":"東京都","city":"板橋区","address":"東京都板橋区板橋3-14-15","lat":35.75119,"lon":139.71222},{"name":"熊野地域センター","province":"東京都","city":"板橋区","address":"東京都板橋区熊野町40-9","lat":35.74363,"lon":139.70443},{"name":"仲宿地域センター","province":"東京都","city":"板橋区","address":"東京都板橋区氷川町12-10","lat":35.75396,"lon":139.70714},{"name":"仲町地域センター","province":"東京都","city":"板橋区","address":"東京都板橋区仲町20-5","lat":35.75107,"lon":139.6965},{"name":"富士見地域センター","province":"東京都","city":"板橋区","address":"東京都板橋区富士見町3-1","lat":35.7607,"lon":139.7005},{"name":"大谷口地域センター","province":"東京都","city":"板橋区","address":"東京都板橋区大谷口2-12-5","lat":35.74579,"lon":139.68901},{"name":"常盤台地域センター","province":"東京都","city":"板橋区","address":"東京都板橋区常盤台4-14-1","lat":35.76351,"lon":139.67961},{"name":"清水地域センター","province":"東京都","city":"板橋区","address":"東京都板橋区泉町16-16","lat":35.76639,"lon":139.70222},{"name":"志村坂上地域センター","province":"東京都","city":"板橋区","address":"東京都板橋区小豆沢2-19-15","lat":35.77666,"lon":139.69602},{"name":"中台地域センター","province":"東京都","city":"板橋区","address":"東京都板橋区中台1-44-8","lat":35.76774,"lon":139.67666},{"name":"蓮根地域センター","province":"東京都","city":"板橋区","address":"東京都板橋区坂下2-18-1","lat":35.78261,"lon":139.6808},{"name":"舟渡地域センター","province":"東京都","city":"板橋区","address":"東京都板橋区舟渡3-19-8","lat":35.79437,"lon":139.6809},{"name":"前野地域センター","province":"東京都","city":"板橋区","address":"東京都板橋区前野町4-6-1","lat":35.76918901,"lon":139.6887954},{"name":"桜川地域センター","province":"東京都","city":"板橋区","address":"東京都板橋区東新町2-45-6","lat":35.7524,"lon":139.68176},{"name":"下赤塚地域センター","province":"東京都","city":"板橋区","address":"東京都板橋区赤塚6-38-1","lat":35.77872723,"lon":139.6446233},{"name":"成増地域センター","province":"東京都","city":"板橋区","address":"東京都板橋区成増3-11-3-405","lat":35.7782,"lon":139.63342},{"name":"徳丸地域センター","province":"東京都","city":"板橋区","address":"東京都板橋区徳丸3-35-15","lat":35.77372,"lon":139.65947},{"name":"高島平地域センター","province":"東京都","city":"板橋区","address":"東京都板橋区高島平3-12-28","lat":35.78715,"lon":139.65881},{"name":"常盤台区民事務所","province":"東京都","city":"板橋区","address":"東京都板橋区常盤台3-27-1","lat":35.76118,"lon":139.68257},{"name":"志村坂上区民事務所","province":"東京都","city":"板橋区","address":"東京都板橋区小豆沢2-19-15","lat":35.77650422,"lon":139.6961483},{"name":"高島平区民事務所","province":"東京都","city":"板橋区","address":"東京都板橋区高島平3-12-28","lat":35.78712684,"lon":139.6590316},{"name":"志村福祉事務所","province":"東京都","city":"板橋区","address":"東京都板橋区蓮根2-28-1","lat":35.78535,"lon":139.67517},{"name":"小豆沢体育館","province":"東京都","city":"板橋区","address":"東京都板橋区小豆沢3-1-1","lat":35.77863,"lon":139.69818},{"name":"板橋東清掃事務所","province":"東京都","city":"板橋区","address":"東京都板橋区東坂下2-20-9","lat":35.78778,"lon":139.68525},{"name":"板橋西清掃事務所","province":"東京都","city":"板橋区","address":"東京都板橋区徳丸1-16-1","lat":35.76924,"lon":139.66662},{"name":"まなぽーと大原（大原生涯学習センター）","province":"東京都","city":"板橋区","address":"東京都板橋区大原町5-18","lat":35.76968,"lon":139.7001},{"name":"まなぽーと成増（成増生涯学習センター）","province":"東京都","city":"板橋区","address":"東京都板橋区成増1-12-4","lat":35.77467,"lon":139.63276},{"name":"文化会館","province":"東京都","city":"板橋区","address":"東京都板橋区大山東町51-1","lat":35.74949,"lon":139.70461},{"name":"グリーンホール","province":"東京都","city":"板橋区","address":"東京都板橋区栄町36-1","lat":35.75088,"lon":139.70527},{"name":"エコポリスセンター","province":"東京都","city":"板橋区","address":"東京都板橋区前野町4-6-1","lat":35.76915,"lon":139.68879},{"name":"企業活性化センター","province":"東京都","city":"板橋区","address":"東京都板橋区舟渡1-13-10","lat":35.792209,"lon":139.691089},{"name":"美術館","province":"東京都","city":"板橋区","address":"東京都板橋区赤塚5-34-27","lat":35.78435214,"lon":139.6444433},{"name":"郷土資料館","province":"東京都","city":"板橋区","address":"東京都板橋区赤塚5-35-25","lat":35.785209,"lon":139.64337},{"name":"板橋健康福祉センター","province":"東京都","city":"板橋区","address":"東京都板橋区大山東町32-15","lat":35.750424,"lon":139.70809},{"name":"上板橋健康福祉センター","province":"東京都","city":"板橋区","address":"東京都板橋区桜川3-18-6","lat":35.760172,"lon":139.675717},{"name":"赤塚健康福祉センター","province":"東京都","city":"板橋区","address":"東京都板橋区赤塚1-10-13","lat":35.772065,"lon":139.646761},{"name":"志村健康福祉センター","province":"東京都","city":"板橋区","address":"東京都板橋区蓮根2-5-5","lat":35.780875,"lon":139.677048},{"name":"高島平健康福祉センター","province":"東京都","city":"板橋区","address":"東京都板橋区高島平3-13-28","lat":35.787982,"lon":139.65877},{"name":"郷土芸能伝承館","province":"東京都","city":"板橋区","address":"東京都板橋区徳丸6-29-13","lat":35.778365,"lon":139.660649},{"name":"教育科学館","province":"東京都","city":"板橋区","address":"東京都板橋区常盤台4-14-1","lat":35.763454,"lon":139.679618},{"name":"赤塚植物園","province":"東京都","city":"板橋区","address":"東京都板橋区赤塚5-17","lat":35.780612,"lon":139.644253},{"name":"リサイクルプラザ","province":"東京都","city":"板橋区","address":"東京都板橋区舟渡4-16-6","lat":35.795671,"lon":139.676303},{"name":"北部土木サービスセンター","province":"東京都","city":"板橋区","address":"東京都板橋区新河岸1-9-8","lat":35.794855,"lon":139.668296},{"name":"南部土木サービスセンター","province":"東京都","city":"板橋区","address":"東京都板橋区富士見町3-1","lat":35.760756,"lon":139.701033},{"name":"熱帯環境植物館","province":"東京都","city":"板橋区","address":"東京都板橋区高島平8-29-2","lat":35.791911,"lon":139.664337},{"name":"中央図書館","province":"東京都","city":"板橋区","address":"東京都板橋区常盤台4-3-1","lat":35.76352,"lon":139.681456},{"name":"ハイライフプラザいたばし","province":"東京都","city":"板橋区","address":"東京都板橋区板橋1-55-16","lat":35.747027,"lon":139.720667},{"name":"植村冒険館","province":"東京都","city":"板橋区","address":"東京都板橋区加賀1-10-5","lat":35.75425,"lon":139.715975},{"name":"板橋区子ども家庭総合支援センター","province":"東京都","city":"板橋区","address":"東京都板橋区本町24-17","lat":35.759416,"lon":139.708348},{"name":"日本大学医学部附属板橋病院","province":"東京都","city":"板橋区","address":"東京都板橋区大谷口上町30-1","lat":35.74958888,"lon":139.69154496},{"name":"帝京大学医学部附属病院","province":"東京都","city":"板橋区","address":"東京都板橋区加賀2丁目11-1","lat":35.75922729,"lon":139.71498704},{"name":"東京都健康長寿医療センター","province":"東京都","city":"板橋区","address":"東京都板橋区栄町35-2","lat":35.75087794,"lon":139.70167185},{"name":"東京都保健医療公社豊島病院","province":"東京都","city":"板橋区","address":"東京都板橋区栄町33-1","lat":35.75269994,"lon":139.70097739},{"name":"戸田葬祭場","province":"東京都","city":"板橋区","address":"東京都板橋区舟渡4丁目15-1","lat":35.79523828,"lon":139.67609464},{"name":"三園浄水場","province":"東京都","city":"板橋区","address":"東京都板橋区三園2丁目10-1","lat":35.7948317,"lon":139.64197828},{"name":"区立城北公園","province":"東京都","city":"板橋区","address":"東京都板橋区坂下2丁目19-1","lat":35.78357064,"lon":139.68153885},{"name":"都立板橋高等学校","province":"東京都","city":"板橋区","address":"東京都板橋区大谷口1丁目54-1","lat":35.74187304,"lon":139.68991765},{"name":"都立赤塚公園","province":"東京都","city":"板橋区","address":"東京都板橋区高島平3丁目1","lat":35.78522804,"lon":139.65529951},{"name":"区立西徳第二公園","province":"東京都","city":"板橋区","address":"東京都板橋区西台3丁目42-1","lat":35.77615447,"lon":139.66783758},{"name":"大谷口給水所","province":"東京都","city":"板橋区","address":"東京都板橋区大谷口1丁目4","lat":35.74552822,"lon":139.69106185},{"name":"都立城北中央公園陸上競技場","province":"東京都","city":"板橋区","address":"東京都板橋区桜川1丁目4","lat":35.75681526,"lon":139.67436275},{"name":"板橋区立城北公園野球場","province":"東京都","city":"板橋区","address":"東京都板橋区坂下2丁目19-1","lat":35.78357064,"lon":139.68153885},{"name":"板橋区立東板橋公園グラウンド","province":"東京都","city":"板橋区","address":"東京都板橋区板橋3丁目50-1","lat":35.75398895,"lon":139.71224304},{"name":"荒川戸田橋緑地草地広場","province":"東京都","city":"板橋区","address":"東京都板橋区新河岸1丁目15","lat":35.79670152,"lon":139.66723994},{"name":"荒川戸田橋緑地野球場","province":"東京都","city":"板橋区","address":"東京都板橋区舟渡3丁目","lat":35.79449154,"lon":139.6825884},{"name":"板橋区立小豆沢公園","province":"東京都","city":"板橋区","address":"東京都板橋区小豆沢3丁目8","lat":35.77860211,"lon":139.69505179},{"name":"都立赤塚公園野球場","province":"東京都","city":"板橋区","address":"東京都板橋区高島平3丁目1","lat":35.78522804,"lon":139.65529951},{"name":"帝京大学医学部附属病院ヘリポート","province":"東京都","city":"板橋区","address":"東京都板橋区加賀2丁目11-1","lat":35.75922729,"lon":139.71498704},{"name":"東京都保健医療公社豊島病院ヘリポート","province":"東京都","city":"板橋区","address":"東京都板橋区栄町33-1","lat":35.75269994,"lon":139.70097739},{"name":"板橋区役所屋上","province":"東京都","city":"板橋区","address":"東京都板橋区板橋2丁目66-1","lat":35.75091701,"lon":139.70919342},{"name":"板橋区選挙管理委員会","province":"東京都","city":"板橋区","address":"板橋区板橋2-66-1","lat":35.75088,"lon":139.709189},{"name":"中央・城北職業能力開発センター板橋校","province":"東京都","city":"板橋区","address":"東京都板橋区舟渡2丁目2-1","lat":35.79383056,"lon":139.69136553},{"name":"板橋市場","province":"東京都","city":"板橋区","address":"東京都板橋区高島平6丁目1-5","lat":35.79387658,"lon":139.65126915},{"name":"板橋高等学校","province":"東京都","city":"板橋区","address":"東京都板橋区大谷口1丁目54-1","lat":35.74187304,"lon":139.68991765},{"name":"大山高等学校","province":"東京都","city":"板橋区","address":"東京都板橋区小茂根5丁目18-1","lat":35.7538323,"lon":139.67484061},{"name":"北園高等学校","province":"東京都","city":"板橋区","address":"東京都板橋区板橋4丁目14-1","lat":35.75028113,"lon":139.7157929},{"name":"高島高等学校","province":"東京都","city":"板橋区","address":"東京都板橋区高島平3丁目7-1","lat":35.78634732,"lon":139.65317743},{"name":"北豊島工業高等学校","province":"東京都","city":"板橋区","address":"東京都板橋区富士見町28-1","lat":35.76089327,"lon":139.6971551},{"name":"板橋有徳高等学校","province":"東京都","city":"板橋区","address":"東京都板橋区徳丸2丁目17-1","lat":35.77254916,"lon":139.66137997},{"name":"板橋区若木原公園内倉庫","province":"東京都","city":"板橋区","address":"板橋区若木1-24区立若木原公園内","lat":35.76726,"lon":139.6706},{"name":"板橋区","province":"東京都","city":"板橋区","address":"板橋区常盤台1-40-1","lat":35.76297,"lon":139.6926},{"name":"日本メガケア（株）","province":"東京都","city":"板橋区","address":"板橋区新河岸1-13-5","lat":35.79643,"lon":139.6701},{"name":"豊島病院","province":"東京都","city":"板橋区","address":"東京都板橋区栄町33-1","lat":35.75269994,"lon":139.70097739},{"name":"板橋区社会福祉協議会","province":"東京都","city":"板橋区","address":"板橋区板橋2-65-6板橋区立情報処理センター1階","lat":35.750014,"lon":139.708866},{"name":"板橋区社会福祉協議会","province":"東京都","city":"板橋区","address":"板橋区板橋2-65-6板橋区情報処理センター","lat":35.75013,"lon":139.7088},{"name":"板橋区役所","province":"東京都","city":"板橋区","address":"東京都板橋区板橋2-66-1","lat":35.75113,"lon":139.70925},{"name":"情報処理センター","province":"東京都","city":"板橋区","address":"東京都板橋区板橋2-65-6","lat":35.74996,"lon":139.70894},{"name":"板橋区保健所","province":"東京都","city":"板橋区","address":"東京都板橋区大山東町32-15","lat":35.75053,"lon":139.70807},{"name":"赤塚支所","province":"東京都","city":"板橋区","address":"東京都板橋区赤塚6-38-1","lat":35.77889,"lon":139.6447},{"name":"いたばし総合ボランティアセンター","province":"東京都","city":"板橋区","address":"東京都板橋区本町24-1","lat":35.75944,"lon":139.70809},{"name":"板橋地域センター","province":"東京都","city":"板橋区","address":"東京都板橋区板橋3-14-15","lat":35.75119,"lon":139.71222},{"name":"熊野地域センター","province":"東京都","city":"板橋区","address":"東京都板橋区熊野町40-9","lat":35.74363,"lon":139.70443},{"name":"仲宿地域センター","province":"東京都","city":"板橋区","address":"東京都板橋区氷川町12-10","lat":35.75396,"lon":139.70714},{"name":"仲町地域センター","province":"東京都","city":"板橋区","address":"東京都板橋区仲町20-5","lat":35.75107,"lon":139.6965},{"name":"富士見地域センター","province":"東京都","city":"板橋区","address":"東京都板橋区富士見町3-1","lat":35.7607,"lon":139.7005},{"name":"大谷口地域センター","province":"東京都","city":"板橋区","address":"東京都板橋区大谷口2-12-5","lat":35.74579,"lon":139.68901},{"name":"常盤台地域センター","province":"東京都","city":"板橋区","address":"東京都板橋区常盤台4-14-1","lat":35.76351,"lon":139.67961},{"name":"清水地域センター","province":"東京都","city":"板橋区","address":"東京都板橋区泉町16-16","lat":35.76639,"lon":139.70222},{"name":"志村坂上地域センター","province":"東京都","city":"板橋区","address":"東京都板橋区小豆沢2-19-15","lat":35.77666,"lon":139.69602},{"name":"中台地域センター","province":"東京都","city":"板橋区","address":"東京都板橋区中台1-44-8","lat":35.76774,"lon":139.67666},{"name":"蓮根地域センター","province":"東京都","city":"板橋区","address":"東京都板橋区坂下2-18-1","lat":35.78261,"lon":139.6808},{"name":"舟渡地域センター","province":"東京都","city":"板橋区","address":"東京都板橋区舟渡3-19-8","lat":35.79437,"lon":139.6809},{"name":"前野地域センター","province":"東京都","city":"板橋区","address":"東京都板橋区前野町4-6-1","lat":35.76918901,"lon":139.6887954},{"name":"桜川地域センター","province":"東京都","city":"板橋区","address":"東京都板橋区東新町2-45-6","lat":35.7524,"lon":139.68176},{"name":"下赤塚地域センター","province":"東京都","city":"板橋区","address":"東京都板橋区赤塚6-38-1","lat":35.77872723,"lon":139.6446233},{"name":"成増地域センター","province":"東京都","city":"板橋区","address":"東京都板橋区成増3-11-3-405","lat":35.7782,"lon":139.63342},{"name":"徳丸地域センター","province":"東京都","city":"板橋区","address":"東京都板橋区徳丸3-35-15","lat":35.77372,"lon":139.65947},{"name":"高島平地域センター","province":"東京都","city":"板橋区","address":"東京都板橋区高島平3-12-28","lat":35.78715,"lon":139.65881},{"name":"常盤台区民事務所","province":"東京都","city":"板橋区","address":"東京都板橋区常盤台3-27-1","lat":35.76118,"lon":139.68257},{"name":"志村坂上区民事務所","province":"東京都","city":"板橋区","address":"東京都板橋区小豆沢2-19-15","lat":35.77650422,"lon":139.6961483},{"name":"高島平区民事務所","province":"東京都","city":"板橋区","address":"東京都板橋区高島平3-12-28","lat":35.78712684,"lon":139.6590316},{"name":"志村福祉事務所","province":"東京都","city":"板橋区","address":"東京都板橋区蓮根2-28-1","lat":35.78535,"lon":139.67517},{"name":"小豆沢体育館","province":"東京都","city":"板橋区","address":"東京都板橋区小豆沢3-1-1","lat":35.77863,"lon":139.69818},{"name":"板橋東清掃事務所","province":"東京都","city":"板橋区","address":"東京都板橋区東坂下2-20-9","lat":35.78778,"lon":139.68525},{"name":"板橋西清掃事務所","province":"東京都","city":"板橋区","address":"東京都板橋区徳丸1-16-1","lat":35.76924,"lon":139.66662},{"name":"まなぽーと大原（大原生涯学習センター）","province":"東京都","city":"板橋区","address":"東京都板橋区大原町5-18","lat":35.76968,"lon":139.7001},{"name":"まなぽーと成増（成増生涯学習センター）","province":"東京都","city":"板橋区","address":"東京都板橋区成増1-12-4","lat":35.77467,"lon":139.63276},{"name":"文化会館","province":"東京都","city":"板橋区","address":"東京都板橋区大山東町51-1","lat":35.74949,"lon":139.70461},{"name":"グリーンホール","province":"東京都","city":"板橋区","address":"東京都板橋区栄町36-1","lat":35.75088,"lon":139.70527},{"name":"エコポリスセンター","province":"東京都","city":"板橋区","address":"東京都板橋区前野町4-6-1","lat":35.76915,"lon":139.68879},{"name":"企業活性化センター","province":"東京都","city":"板橋区","address":"東京都板橋区舟渡1-13-10","lat":35.792209,"lon":139.691089},{"name":"美術館","province":"東京都","city":"板橋区","address":"東京都板橋区赤塚5-34-27","lat":35.78435214,"lon":139.6444433},{"name":"郷土資料館","province":"東京都","city":"板橋区","address":"東京都板橋区赤塚5-35-25","lat":35.785209,"lon":139.64337},{"name":"板橋健康福祉センター","province":"東京都","city":"板橋区","address":"東京都板橋区大山東町32-15","lat":35.750424,"lon":139.70809},{"name":"上板橋健康福祉センター","province":"東京都","city":"板橋区","address":"東京都板橋区桜川3-18-6","lat":35.760172,"lon":139.675717},{"name":"赤塚健康福祉センター","province":"東京都","city":"板橋区","address":"東京都板橋区赤塚1-10-13","lat":35.772065,"lon":139.646761},{"name":"志村健康福祉センター","province":"東京都","city":"板橋区","address":"東京都板橋区蓮根2-5-5","lat":35.780875,"lon":139.677048},{"name":"高島平健康福祉センター","province":"東京都","city":"板橋区","address":"東京都板橋区高島平3-13-28","lat":35.787982,"lon":139.65877},{"name":"郷土芸能伝承館","province":"東京都","city":"板橋区","address":"東京都板橋区徳丸6-29-13","lat":35.778365,"lon":139.660649},{"name":"教育科学館","province":"東京都","city":"板橋区","address":"東京都板橋区常盤台4-14-1","lat":35.763454,"lon":139.679618},{"name":"赤塚植物園","province":"東京都","city":"板橋区","address":"東京都板橋区赤塚5-17","lat":35.780612,"lon":139.644253},{"name":"リサイクルプラザ","province":"東京都","city":"板橋区","address":"東京都板橋区舟渡4-16-6","lat":35.795671,"lon":139.676303},{"name":"北部土木サービスセンター","province":"東京都","city":"板橋区","address":"東京都板橋区新河岸1-9-8","lat":35.794855,"lon":139.668296},{"name":"南部土木サービスセンター","province":"東京都","city":"板橋区","address":"東京都板橋区富士見町3-1","lat":35.760756,"lon":139.701033},{"name":"熱帯環境植物館","province":"東京都","city":"板橋区","address":"東京都板橋区高島平8-29-2","lat":35.791911,"lon":139.664337},{"name":"中央図書館","province":"東京都","city":"板橋区","address":"東京都板橋区常盤台4-3-1","lat":35.76352,"lon":139.681456},{"name":"ハイライフプラザいたばし","province":"東京都","city":"板橋区","address":"東京都板橋区板橋1-55-16","lat":35.747027,"lon":139.720667},{"name":"植村冒険館","province":"東京都","city":"板橋区","address":"東京都板橋区加賀1-10-5","lat":35.75425,"lon":139.715975},{"name":"板橋区子ども家庭総合支援センター","province":"東京都","city":"板橋区","address":"東京都板橋区本町24-17","lat":35.759416,"lon":139.708348},{"name":"日本大学医学部附属板橋病院","province":"東京都","city":"板橋区","address":"東京都板橋区大谷口上町30-1","lat":35.74958888,"lon":139.69154496},{"name":"帝京大学医学部附属病院","province":"東京都","city":"板橋区","address":"東京都板橋区加賀2丁目11-1","lat":35.75922729,"lon":139.71498704},{"name":"東京都健康長寿医療センター","province":"東京都","city":"板橋区","address":"東京都板橋区栄町35-2","lat":35.75087794,"lon":139.70167185},{"name":"東京都保健医療公社豊島病院","province":"東京都","city":"板橋区","address":"東京都板橋区栄町33-1","lat":35.75269994,"lon":139.70097739},{"name":"戸田葬祭場","province":"東京都","city":"板橋区","address":"東京都板橋区舟渡4丁目15-1","lat":35.79523828,"lon":139.67609464},{"name":"三園浄水場","province":"東京都","city":"板橋区","address":"東京都板橋区三園2丁目10-1","lat":35.7948317,"lon":139.64197828},{"name":"区立城北公園","province":"東京都","city":"板橋区","address":"東京都板橋区坂下2丁目19-1","lat":35.78357064,"lon":139.68153885},{"name":"都立板橋高等学校","province":"東京都","city":"板橋区","address":"東京都板橋区大谷口1丁目54-1","lat":35.74187304,"lon":139.68991765},{"name":"都立赤塚公園","province":"東京都","city":"板橋区","address":"東京都板橋区高島平3丁目1","lat":35.78522804,"lon":139.65529951},{"name":"区立西徳第二公園","province":"東京都","city":"板橋区","address":"東京都板橋区西台3丁目42-1","lat":35.77615447,"lon":139.66783758},{"name":"大谷口給水所","province":"東京都","city":"板橋区","address":"東京都板橋区大谷口1丁目4","lat":35.74552822,"lon":139.69106185},{"name":"都立城北中央公園陸上競技場","province":"東京都","city":"板橋区","address":"東京都板橋区桜川1丁目4","lat":35.75681526,"lon":139.67436275},{"name":"板橋区立城北公園野球場","province":"東京都","city":"板橋区","address":"東京都板橋区坂下2丁目19-1","lat":35.78357064,"lon":139.68153885},{"name":"板橋区立東板橋公園グラウンド","province":"東京都","city":"板橋区","address":"東京都板橋区板橋3丁目50-1","lat":35.75398895,"lon":139.71224304},{"name":"荒川戸田橋緑地草地広場","province":"東京都","city":"板橋区","address":"東京都板橋区新河岸1丁目15","lat":35.79670152,"lon":139.66723994},{"name":"荒川戸田橋緑地野球場","province":"東京都","city":"板橋区","address":"東京都板橋区舟渡3丁目","lat":35.79449154,"lon":139.6825884},{"name":"板橋区立小豆沢公園","province":"東京都","city":"板橋区","address":"東京都板橋区小豆沢3丁目8","lat":35.77860211,"lon":139.69505179},{"name":"都立赤塚公園野球場","province":"東京都","city":"板橋区","address":"東京都板橋区高島平3丁目1","lat":35.78522804,"lon":139.65529951},{"name":"帝京大学医学部附属病院ヘリポート","province":"東京都","city":"板橋区","address":"東京都板橋区加賀2丁目11-1","lat":35.75922729,"lon":139.71498704},{"name":"東京都保健医療公社豊島病院ヘリポート","province":"東京都","city":"板橋区","address":"東京都板橋区栄町33-1","lat":35.75269994,"lon":139.70097739},{"name":"板橋区役所屋上","province":"東京都","city":"板橋区","address":"東京都板橋区板橋2丁目66-1","lat":35.75091701,"lon":139.70919342},{"name":"中央・城北職業能力開発センター板橋校","province":"東京都","city":"板橋区","address":"東京都板橋区舟渡2丁目2-1","lat":35.79383056,"lon":139.69136553},{"name":"板橋市場","province":"東京都","city":"板橋区","address":"東京都板橋区高島平6丁目1-5","lat":35.79387658,"lon":139.65126915},{"name":"板橋高等学校","province":"東京都","city":"板橋区","address":"東京都板橋区大谷口1丁目54-1","lat":35.74187304,"lon":139.68991765},{"name":"大山高等学校","province":"東京都","city":"板橋区","address":"東京都板橋区小茂根5丁目18-1","lat":35.7538323,"lon":139.67484061},{"name":"北園高等学校","province":"東京都","city":"板橋区","address":"東京都板橋区板橋4丁目14-1","lat":35.75028113,"lon":139.7157929},{"name":"高島高等学校","province":"東京都","city":"板橋区","address":"東京都板橋区高島平3丁目7-1","lat":35.78634732,"lon":139.65317743},{"name":"北豊島工業高等学校","province":"東京都","city":"板橋区","address":"東京都板橋区富士見町28-1","lat":35.76089327,"lon":139.6971551},{"name":"板橋有徳高等学校","province":"東京都","city":"板橋区","address":"東京都板橋区徳丸2丁目17-1","lat":35.77254916,"lon":139.66137997},{"name":"板橋区若木原公園内倉庫","province":"東京都","city":"板橋区","address":"板橋区若木1-24区立若木原公園内","lat":35.76726,"lon":139.6706},{"name":"板橋区","province":"東京都","city":"板橋区","address":"板橋区常盤台1-40-1","lat":35.76297,"lon":139.6926},{"name":"日本メガケア（株）","province":"東京都","city":"板橋区","address":"板橋区新河岸1-13-5","lat":35.79643,"lon":139.6701},{"name":"豊島病院","province":"東京都","city":"板橋区","address":"東京都板橋区栄町33-1","lat":35.75269994,"lon":139.70097739},{"name":"板橋区役所","province":"東京都","city":"板橋区","address":"東京都板橋区板橋2-66-1","lat":35.75113,"lon":139.70925},{"name":"情報処理センター","province":"東京都","city":"板橋区","address":"東京都板橋区板橋2-65-6","lat":35.74996,"lon":139.70894},{"name":"板橋区保健所","province":"東京都","city":"板橋区","address":"東京都板橋区大山東町32-15","lat":35.75053,"lon":139.70807},{"name":"赤塚支所","province":"東京都","city":"板橋区","address":"東京都板橋区赤塚6-38-1","lat":35.77889,"lon":139.6447},{"name":"いたばし総合ボランティアセンター","province":"東京都","city":"板橋区","address":"東京都板橋区本町24-1","lat":35.75944,"lon":139.70809},{"name":"板橋地域センター","province":"東京都","city":"板橋区","address":"東京都板橋区板橋3-14-15","lat":35.75119,"lon":139.71222},{"name":"熊野地域センター","province":"東京都","city":"板橋区","address":"東京都板橋区熊野町40-9","lat":35.74363,"lon":139.70443},{"name":"仲宿地域センター","province":"東京都","city":"板橋区","address":"東京都板橋区氷川町12-10","lat":35.75396,"lon":139.70714},{"name":"仲町地域センター","province":"東京都","city":"板橋区","address":"東京都板橋区仲町20-5","lat":35.75107,"lon":139.6965},{"name":"富士見地域センター","province":"東京都","city":"板橋区","address":"東京都板橋区富士見町3-1","lat":35.7607,"lon":139.7005},{"name":"大谷口地域センター","province":"東京都","city":"板橋区","address":"東京都板橋区大谷口2-12-5","lat":35.74579,"lon":139.68901},{"name":"常盤台地域センター","province":"東京都","city":"板橋区","address":"東京都板橋区常盤台4-14-1","lat":35.76351,"lon":139.67961},{"name":"清水地域センター","province":"東京都","city":"板橋区","address":"東京都板橋区泉町16-16","lat":35.76639,"lon":139.70222},{"name":"志村坂上地域センター","province":"東京都","city":"板橋区","address":"東京都板橋区小豆沢2-19-15","lat":35.77666,"lon":139.69602},{"name":"中台地域センター","province":"東京都","city":"板橋区","address":"東京都板橋区中台1-44-8","lat":35.76774,"lon":139.67666},{"name":"蓮根地域センター","province":"東京都","city":"板橋区","address":"東京都板橋区坂下2-18-1","lat":35.78261,"lon":139.6808},{"name":"舟渡地域センター","province":"東京都","city":"板橋区","address":"東京都板橋区舟渡3-19-8","lat":35.79437,"lon":139.6809},{"name":"前野地域センター","province":"東京都","city":"板橋区","address":"東京都板橋区前野町4-6-1","lat":35.76918901,"lon":139.6887954},{"name":"桜川地域センター","province":"東京都","city":"板橋区","address":"東京都板橋区東新町2-45-6","lat":35.7524,"lon":139.68176},{"name":"下赤塚地域センター","province":"東京都","city":"板橋区","address":"東京都板橋区赤塚6-38-1","lat":35.77872723,"lon":139.6446233},{"name":"成増地域センター","province":"東京都","city":"板橋区","address":"東京都板橋区成増3-11-3-405","lat":35.7782,"lon":139.63342},{"name":"徳丸地域センター","province":"東京都","city":"板橋区","address":"東京都板橋区徳丸3-35-15","lat":35.77372,"lon":139.65947},{"name":"高島平地域センター","province":"東京都","city":"板橋区","address":"東京都板橋区高島平3-12-28","lat":35.78715,"lon":139.65881},{"name":"常盤台区民事務所","province":"東京都","city":"板橋区","address":"東京都板橋区常盤台3-27-1","lat":35.76118,"lon":139.68257},{"name":"志村坂上区民事務所","province":"東京都","city":"板橋区","address":"東京都板橋区小豆沢2-19-15","lat":35.77650422,"lon":139.6961483},{"name":"高島平区民事務所","province":"東京都","city":"板橋区","address":"東京都板橋区高島平3-12-28","lat":35.78712684,"lon":139.6590316},{"name":"志村福祉事務所","province":"東京都","city":"板橋区","address":"東京都板橋区蓮根2-28-1","lat":35.78535,"lon":139.67517},{"name":"小豆沢体育館","province":"東京都","city":"板橋区","address":"東京都板橋区小豆沢3-1-1","lat":35.77863,"lon":139.69818},{"name":"板橋東清掃事務所","province":"東京都","city":"板橋区","address":"東京都板橋区東坂下2-20-9","lat":35.78778,"lon":139.68525},{"name":"板橋西清掃事務所","province":"東京都","city":"板橋区","address":"東京都板橋区徳丸1-16-1","lat":35.76924,"lon":139.66662},{"name":"まなぽーと大原（大原生涯学習センター）","province":"東京都","city":"板橋区","address":"東京都板橋区大原町5-18","lat":35.76968,"lon":139.7001},{"name":"まなぽーと成増（成増生涯学習センター）","province":"東京都","city":"板橋区","address":"東京都板橋区成増1-12-4","lat":35.77467,"lon":139.63276},{"name":"文化会館","province":"東京都","city":"板橋区","address":"東京都板橋区大山東町51-1","lat":35.74949,"lon":139.70461},{"name":"グリーンホール","province":"東京都","city":"板橋区","address":"東京都板橋区栄町36-1","lat":35.75088,"lon":139.70527},{"name":"エコポリスセンター","province":"東京都","city":"板橋区","address":"東京都板橋区前野町4-6-1","lat":35.76915,"lon":139.68879},{"name":"企業活性化センター","province":"東京都","city":"板橋区","address":"東京都板橋区舟渡1-13-10","lat":35.792209,"lon":139.691089},{"name":"美術館","province":"東京都","city":"板橋区","address":"東京都板橋区赤塚5-34-27","lat":35.78435214,"lon":139.6444433},{"name":"郷土資料館","province":"東京都","city":"板橋区","address":"東京都板橋区赤塚5-35-25","lat":35.785209,"lon":139.64337},{"name":"板橋健康福祉センター","province":"東京都","city":"板橋区","address":"東京都板橋区大山東町32-15","lat":35.750424,"lon":139.70809},{"name":"上板橋健康福祉センター","province":"東京都","city":"板橋区","address":"東京都板橋区桜川3-18-6","lat":35.760172,"lon":139.675717},{"name":"赤塚健康福祉センター","province":"東京都","city":"板橋区","address":"東京都板橋区赤塚1-10-13","lat":35.772065,"lon":139.646761},{"name":"志村健康福祉センター","province":"東京都","city":"板橋区","address":"東京都板橋区蓮根2-5-5","lat":35.780875,"lon":139.677048},{"name":"高島平健康福祉センター","province":"東京都","city":"板橋区","address":"東京都板橋区高島平3-13-28","lat":35.787982,"lon":139.65877},{"name":"郷土芸能伝承館","province":"東京都","city":"板橋区","address":"東京都板橋区徳丸6-29-13","lat":35.778365,"lon":139.660649},{"name":"教育科学館","province":"東京都","city":"板橋区","address":"東京都板橋区常盤台4-14-1","lat":35.763454,"lon":139.679618},{"name":"赤塚植物園","province":"東京都","city":"板橋区","address":"東京都板橋区赤塚5-17","lat":35.780612,"lon":139.644253},{"name":"リサイクルプラザ","province":"東京都","city":"板橋区","address":"東京都板橋区舟渡4-16-6","lat":35.795671,"lon":139.676303},{"name":"北部土木サービスセンター","province":"東京都","city":"板橋区","address":"東京都板橋区新河岸1-9-8","lat":35.794855,"lon":139.668296},{"name":"南部土木サービスセンター","province":"東京都","city":"板橋区","address":"東京都板橋区富士見町3-1","lat":35.760756,"lon":139.701033},{"name":"熱帯環境植物館","province":"東京都","city":"板橋区","address":"東京都板橋区高島平8-29-2","lat":35.791911,"lon":139.664337},{"name":"中央図書館","province":"東京都","city":"板橋区","address":"東京都板橋区常盤台4-3-1","lat":35.76352,"lon":139.681456},{"name":"ハイライフプラザいたばし","province":"東京都","city":"板橋区","address":"東京都板橋区板橋1-55-16","lat":35.747027,"lon":139.720667},{"name":"植村冒険館","province":"東京都","city":"板橋区","address":"東京都板橋区加賀1-10-5","lat":35.75425,"lon":139.715975},{"name":"板橋区子ども家庭総合支援センター","province":"東京都","city":"板橋区","address":"東京都板橋区本町24-17","lat":35.759416,"lon":139.708348},{"name":"日本大学医学部附属板橋病院","province":"東京都","city":"板橋区","address":"東京都板橋区大谷口上町30-1","lat":35.74958888,"lon":139.69154496},{"name":"帝京大学医学部附属病院","province":"東京都","city":"板橋区","address":"東京都板橋区加賀2丁目11-1","lat":35.75922729,"lon":139.71498704},{"name":"東京都健康長寿医療センター","province":"東京都","city":"板橋区","address":"東京都板橋区栄町35-2","lat":35.75087794,"lon":139.70167185},{"name":"東京都保健医療公社豊島病院","province":"東京都","city":"板橋区","address":"東京都板橋区栄町33-1","lat":35.75269994,"lon":139.70097739},{"name":"中央・城北職業能力開発センター板橋校","province":"東京都","city":"板橋区","address":"東京都板橋区舟渡2丁目2-1","lat":35.79383056,"lon":139.69136553},{"name":"板橋市場","province":"東京都","city":"板橋区","address":"東京都板橋区高島平6丁目1-5","lat":35.79387658,"lon":139.65126915},{"name":"板橋高等学校","province":"東京都","city":"板橋区","address":"東京都板橋区大谷口1丁目54-1","lat":35.74187304,"lon":139.68991765},{"name":"大山高等学校","province":"東京都","city":"板橋区","address":"東京都板橋区小茂根5丁目18-1","lat":35.7538323,"lon":139.67484061},{"name":"北園高等学校","province":"東京都","city":"板橋区","address":"東京都板橋区板橋4丁目14-1","lat":35.75028113,"lon":139.7157929},{"name":"高島高等学校","province":"東京都","city":"板橋区","address":"東京都板橋区高島平3丁目7-1","lat":35.78634732,"lon":139.65317743},{"name":"北豊島工業高等学校","province":"東京都","city":"板橋区","address":"東京都板橋区富士見町28-1","lat":35.76089327,"lon":139.6971551},{"name":"板橋有徳高等学校","province":"東京都","city":"板橋区","address":"東京都板橋区徳丸2丁目17-1","lat":35.77254916,"lon":139.66137997},{"name":"豊島病院","province":"東京都","city":"板橋区","address":"東京都板橋区栄町33-1","lat":35.75269994,"lon":139.70097739},{"name":"板橋区役所","province":"東京都","city":"板橋区","address":"東京都板橋区板橋2-66-1","lat":35.75113,"lon":139.70925},{"name":"情報処理センター","province":"東京都","city":"板橋区","address":"東京都板橋区板橋2-65-6","lat":35.74996,"lon":139.70894},{"name":"板橋区保健所","province":"東京都","city":"板橋区","address":"東京都板橋区大山東町32-15","lat":35.75053,"lon":139.70807},{"name":"赤塚支所","province":"東京都","city":"板橋区","address":"東京都板橋区赤塚6-38-1","lat":35.77889,"lon":139.6447},{"name":"いたばし総合ボランティアセンター","province":"東京都","city":"板橋区","address":"東京都板橋区本町24-1","lat":35.75944,"lon":139.70809},{"name":"板橋地域センター","province":"東京都","city":"板橋区","address":"東京都板橋区板橋3-14-15","lat":35.75119,"lon":139.71222},{"name":"熊野地域センター","province":"東京都","city":"板橋区","address":"東京都板橋区熊野町40-9","lat":35.74363,"lon":139.70443},{"name":"仲宿地域センター","province":"東京都","city":"板橋区","address":"東京都板橋区氷川町12-10","lat":35.75396,"lon":139.70714},{"name":"仲町地域センター","province":"東京都","city":"板橋区","address":"東京都板橋区仲町20-5","lat":35.75107,"lon":139.6965},{"name":"富士見地域センター","province":"東京都","city":"板橋区","address":"東京都板橋区富士見町3-1","lat":35.7607,"lon":139.7005},{"name":"大谷口地域センター","province":"東京都","city":"板橋区","address":"東京都板橋区大谷口2-12-5","lat":35.74579,"lon":139.68901},{"name":"常盤台地域センター","province":"東京都","city":"板橋区","address":"東京都板橋区常盤台4-14-1","lat":35.76351,"lon":139.67961},{"name":"清水地域センター","province":"東京都","city":"板橋区","address":"東京都板橋区泉町16-16","lat":35.76639,"lon":139.70222},{"name":"志村坂上地域センター","province":"東京都","city":"板橋区","address":"東京都板橋区小豆沢2-19-15","lat":35.77666,"lon":139.69602},{"name":"中台地域センター","province":"東京都","city":"板橋区","address":"東京都板橋区中台1-44-8","lat":35.76774,"lon":139.67666},{"name":"蓮根地域センター","province":"東京都","city":"板橋区","address":"東京都板橋区坂下2-18-1","lat":35.78261,"lon":139.6808},{"name":"舟渡地域センター","province":"東京都","city":"板橋区","address":"東京都板橋区舟渡3-19-8","lat":35.79437,"lon":139.6809},{"name":"前野地域センター","province":"東京都","city":"板橋区","address":"東京都板橋区前野町4-6-1","lat":35.76918901,"lon":139.6887954},{"name":"桜川地域センター","province":"東京都","city":"板橋区","address":"東京都板橋区東新町2-45-6","lat":35.7524,"lon":139.68176},{"name":"下赤塚地域センター","province":"東京都","city":"板橋区","address":"東京都板橋区赤塚6-38-1","lat":35.77872723,"lon":139.6446233},{"name":"成増地域センター","province":"東京都","city":"板橋区","address":"東京都板橋区成増3-11-3-405","lat":35.7782,"lon":139.63342},{"name":"徳丸地域センター","province":"東京都","city":"板橋区","address":"東京都板橋区徳丸3-35-15","lat":35.77372,"lon":139.65947},{"name":"高島平地域センター","province":"東京都","city":"板橋区","address":"東京都板橋区高島平3-12-28","lat":35.78715,"lon":139.65881},{"name":"常盤台区民事務所","province":"東京都","city":"板橋区","address":"東京都板橋区常盤台3-27-1","lat":35.76118,"lon":139.68257},{"name":"志村坂上区民事務所","province":"東京都","city":"板橋区","address":"東京都板橋区小豆沢2-19-15","lat":35.77650422,"lon":139.6961483},{"name":"高島平区民事務所","province":"東京都","city":"板橋区","address":"東京都板橋区高島平3-12-28","lat":35.78712684,"lon":139.6590316},{"name":"志村福祉事務所","province":"東京都","city":"板橋区","address":"東京都板橋区蓮根2-28-1","lat":35.78535,"lon":139.67517},{"name":"小豆沢体育館","province":"東京都","city":"板橋区","address":"東京都板橋区小豆沢3-1-1","lat":35.77863,"lon":139.69818},{"name":"板橋東清掃事務所","province":"東京都","city":"板橋区","address":"東京都板橋区東坂下2-20-9","lat":35.78778,"lon":139.68525},{"name":"板橋西清掃事務所","province":"東京都","city":"板橋区","address":"東京都板橋区徳丸1-16-1","lat":35.76924,"lon":139.66662},{"name":"まなぽーと大原（大原生涯学習センター）","province":"東京都","city":"板橋区","address":"東京都板橋区大原町5-18","lat":35.76968,"lon":139.7001},{"name":"まなぽーと成増（成増生涯学習センター）","province":"東京都","city":"板橋区","address":"東京都板橋区成増1-12-4","lat":35.77467,"lon":139.63276},{"name":"文化会館","province":"東京都","city":"板橋区","address":"東京都板橋区大山東町51-1","lat":35.74949,"lon":139.70461},{"name":"グリーンホール","province":"東京都","city":"板橋区","address":"東京都板橋区栄町36-1","lat":35.75088,"lon":139.70527},{"name":"エコポリスセンター","province":"東京都","city":"板橋区","address":"東京都板橋区前野町4-6-1","lat":35.76915,"lon":139.68879},{"name":"企業活性化センター","province":"東京都","city":"板橋区","address":"東京都板橋区舟渡1-13-10","lat":35.792209,"lon":139.691089},{"name":"美術館","province":"東京都","city":"板橋区","address":"東京都板橋区赤塚5-34-27","lat":35.78435214,"lon":139.6444433},{"name":"郷土資料館","province":"東京都","city":"板橋区","address":"東京都板橋区赤塚5-35-25","lat":35.785209,"lon":139.64337},{"name":"板橋健康福祉センター","province":"東京都","city":"板橋区","address":"東京都板橋区大山東町32-15","lat":35.750424,"lon":139.70809},{"name":"上板橋健康福祉センター","province":"東京都","city":"板橋区","address":"東京都板橋区桜川3-18-6","lat":35.760172,"lon":139.675717},{"name":"赤塚健康福祉センター","province":"東京都","city":"板橋区","address":"東京都板橋区赤塚1-10-13","lat":35.772065,"lon":139.646761},{"name":"志村健康福祉センター","province":"東京都","city":"板橋区","address":"東京都板橋区蓮根2-5-5","lat":35.780875,"lon":139.677048},{"name":"高島平健康福祉センター","province":"東京都","city":"板橋区","address":"東京都板橋区高島平3-13-28","lat":35.787982,"lon":139.65877},{"name":"郷土芸能伝承館","province":"東京都","city":"板橋区","address":"東京都板橋区徳丸6-29-13","lat":35.778365,"lon":139.660649},{"name":"教育科学館","province":"東京都","city":"板橋区","address":"東京都板橋区常盤台4-14-1","lat":35.763454,"lon":139.679618},{"name":"赤塚植物園","province":"東京都","city":"板橋区","address":"東京都板橋区赤塚5-17","lat":35.780612,"lon":139.644253},{"name":"リサイクルプラザ","province":"東京都","city":"板橋区","address":"東京都板橋区舟渡4-16-6","lat":35.795671,"lon":139.676303},{"name":"北部土木サービスセンター","province":"東京都","city":"板橋区","address":"東京都板橋区新河岸1-9-8","lat":35.794855,"lon":139.668296},{"name":"南部土木サービスセンター","province":"東京都","city":"板橋区","address":"東京都板橋区富士見町3-1","lat":35.760756,"lon":139.701033},{"name":"熱帯環境植物館","province":"東京都","city":"板橋区","address":"東京都板橋区高島平8-29-2","lat":35.791911,"lon":139.664337},{"name":"中央図書館","province":"東京都","city":"板橋区","address":"東京都板橋区常盤台4-3-1","lat":35.76352,"lon":139.681456},{"name":"ハイライフプラザいたばし","province":"東京都","city":"板橋区","address":"東京都板橋区板橋1-55-16","lat":35.747027,"lon":139.720667},{"name":"植村冒険館","province":"東京都","city":"板橋区","address":"東京都板橋区加賀1-10-5","lat":35.75425,"lon":139.715975},{"name":"板橋区子ども家庭総合支援センター","province":"東京都","city":"板橋区","address":"東京都板橋区本町24-17","lat":35.759416,"lon":139.708348},{"name":"日本大学医学部附属板橋病院","province":"東京都","city":"板橋区","address":"東京都板橋区大谷口上町30-1","lat":35.74958888,"lon":139.69154496},{"name":"帝京大学医学部附属病院","province":"東京都","city":"板橋区","address":"東京都板橋区加賀2丁目11-1","lat":35.75922729,"lon":139.71498704},{"name":"東京都健康長寿医療センター","province":"東京都","city":"板橋区","address":"東京都板橋区栄町35-2","lat":35.75087794,"lon":139.70167185},{"name":"東京都保健医療公社豊島病院","province":"東京都","city":"板橋区","address":"東京都板橋区栄町33-1","lat":35.75269994,"lon":139.70097739},{"name":"中央・城北職業能力開発センター板橋校","province":"東京都","city":"板橋区","address":"東京都板橋区舟渡2丁目2-1","lat":35.79383056,"lon":139.69136553},{"name":"板橋市場","province":"東京都","city":"板橋区","address":"東京都板橋区高島平6丁目1-5","lat":35.79387658,"lon":139.65126915},{"name":"板橋高等学校","province":"東京都","city":"板橋区","address":"東京都板橋区大谷口1丁目54-1","lat":35.74187304,"lon":139.68991765},{"name":"大山高等学校","province":"東京都","city":"板橋区","address":"東京都板橋区小茂根5丁目18-1","lat":35.7538323,"lon":139.67484061},{"name":"北園高等学校","province":"東京都","city":"板橋区","address":"東京都板橋区板橋4丁目14-1","lat":35.75028113,"lon":139.7157929},{"name":"高島高等学校","province":"東京都","city":"板橋区","address":"東京都板橋区高島平3丁目7-1","lat":35.78634732,"lon":139.65317743},{"name":"北豊島工業高等学校","province":"東京都","city":"板橋区","address":"東京都板橋区富士見町28-1","lat":35.76089327,"lon":139.6971551},{"name":"板橋有徳高等学校","province":"東京都","city":"板橋区","address":"東京都板橋区徳丸2丁目17-1","lat":35.77254916,"lon":139.66137997},{"name":"豊島病院","province":"東京都","city":"板橋区","address":"東京都板橋区栄町33-1","lat":35.75269994,"lon":139.70097739},{"name":"板橋区役所","province":"東京都","city":"板橋区","address":"東京都板橋区板橋2-66-1","lat":35.75113,"lon":139.70925},{"name":"情報処理センター","province":"東京都","city":"板橋区","address":"東京都板橋区板橋2-65-6","lat":35.74996,"lon":139.70894},{"name":"板橋区保健所","province":"東京都","city":"板橋区","address":"東京都板橋区大山東町32-15","lat":35.75053,"lon":139.70807},{"name":"赤塚支所","province":"東京都","city":"板橋区","address":"東京都板橋区赤塚6-38-1","lat":35.77889,"lon":139.6447},{"name":"いたばし総合ボランティアセンター","province":"東京都","city":"板橋区","address":"東京都板橋区本町24-1","lat":35.75944,"lon":139.70809},{"name":"板橋地域センター","province":"東京都","city":"板橋区","address":"東京都板橋区板橋3-14-15","lat":35.75119,"lon":139.71222},{"name":"熊野地域センター","province":"東京都","city":"板橋区","address":"東京都板橋区熊野町40-9","lat":35.74363,"lon":139.70443},{"name":"仲宿地域センター","province":"東京都","city":"板橋区","address":"東京都板橋区氷川町12-10","lat":35.75396,"lon":139.70714},{"name":"仲町地域センター","province":"東京都","city":"板橋区","address":"東京都板橋区仲町20-5","lat":35.75107,"lon":139.6965},{"name":"富士見地域センター","province":"東京都","city":"板橋区","address":"東京都板橋区富士見町3-1","lat":35.7607,"lon":139.7005},{"name":"大谷口地域センター","province":"東京都","city":"板橋区","address":"東京都板橋区大谷口2-12-5","lat":35.74579,"lon":139.68901},{"name":"常盤台地域センター","province":"東京都","city":"板橋区","address":"東京都板橋区常盤台4-14-1","lat":35.76351,"lon":139.67961},{"name":"清水地域センター","province":"東京都","city":"板橋区","address":"東京都板橋区泉町16-16","lat":35.76639,"lon":139.70222},{"name":"志村坂上地域センター","province":"東京都","city":"板橋区","address":"東京都板橋区小豆沢2-19-15","lat":35.77666,"lon":139.69602},{"name":"中台地域センター","province":"東京都","city":"板橋区","address":"東京都板橋区中台1-44-8","lat":35.76774,"lon":139.67666},{"name":"蓮根地域センター","province":"東京都","city":"板橋区","address":"東京都板橋区坂下2-18-1","lat":35.78261,"lon":139.6808},{"name":"舟渡地域センター","province":"東京都","city":"板橋区","address":"東京都板橋区舟渡3-19-8","lat":35.79437,"lon":139.6809},{"name":"前野地域センター","province":"東京都","city":"板橋区","address":"東京都板橋区前野町4-6-1","lat":35.76918901,"lon":139.6887954},{"name":"桜川地域センター","province":"東京都","city":"板橋区","address":"東京都板橋区東新町2-45-6","lat":35.7524,"lon":139.68176},{"name":"下赤塚地域センター","province":"東京都","city":"板橋区","address":"東京都板橋区赤塚6-38-1","lat":35.77872723,"lon":139.6446233},{"name":"成増地域センター","province":"東京都","city":"板橋区","address":"東京都板橋区成増3-11-3-405","lat":35.7782,"lon":139.63342},{"name":"徳丸地域センター","province":"東京都","city":"板橋区","address":"東京都板橋区徳丸3-35-15","lat":35.77372,"lon":139.65947},{"name":"高島平地域センター","province":"東京都","city":"板橋区","address":"東京都板橋区高島平3-12-28","lat":35.78715,"lon":139.65881},{"name":"常盤台区民事務所","province":"東京都","city":"板橋区","address":"東京都板橋区常盤台3-27-1","lat":35.76118,"lon":139.68257},{"name":"志村坂上区民事務所","province":"東京都","city":"板橋区","address":"東京都板橋区小豆沢2-19-15","lat":35.77650422,"lon":139.6961483},{"name":"高島平区民事務所","province":"東京都","city":"板橋区","address":"東京都板橋区高島平3-12-28","lat":35.78712684,"lon":139.6590316},{"name":"志村福祉事務所","province":"東京都","city":"板橋区","address":"東京都板橋区蓮根2-28-1","lat":35.78535,"lon":139.67517},{"name":"小豆沢体育館","province":"東京都","city":"板橋区","address":"東京都板橋区小豆沢3-1-1","lat":35.77863,"lon":139.69818},{"name":"板橋東清掃事務所","province":"東京都","city":"板橋区","address":"東京都板橋区東坂下2-20-9","lat":35.78778,"lon":139.68525},{"name":"板橋西清掃事務所","province":"東京都","city":"板橋区","address":"東京都板橋区徳丸1-16-1","lat":35.76924,"lon":139.66662},{"name":"まなぽーと大原（大原生涯学習センター）","province":"東京都","city":"板橋区","address":"東京都板橋区大原町5-18","lat":35.76968,"lon":139.7001},{"name":"まなぽーと成増（成増生涯学習センター）","province":"東京都","city":"板橋区","address":"東京都板橋区成増1-12-4","lat":35.77467,"lon":139.63276},{"name":"文化会館","province":"東京都","city":"板橋区","address":"東京都板橋区大山東町51-1","lat":35.74949,"lon":139.70461},{"name":"グリーンホール","province":"東京都","city":"板橋区","address":"東京都板橋区栄町36-1","lat":35.75088,"lon":139.70527},{"name":"エコポリスセンター","province":"東京都","city":"板橋区","address":"東京都板橋区前野町4-6-1","lat":35.76915,"lon":139.68879},{"name":"企業活性化センター","province":"東京都","city":"板橋区","address":"東京都板橋区舟渡1-13-10","lat":35.792209,"lon":139.691089},{"name":"美術館","province":"東京都","city":"板橋区","address":"東京都板橋区赤塚5-34-27","lat":35.78435214,"lon":139.6444433},{"name":"郷土資料館","province":"東京都","city":"板橋区","address":"東京都板橋区赤塚5-35-25","lat":35.785209,"lon":139.64337},{"name":"板橋健康福祉センター","province":"東京都","city":"板橋区","address":"東京都板橋区大山東町32-15","lat":35.750424,"lon":139.70809},{"name":"上板橋健康福祉センター","province":"東京都","city":"板橋区","address":"東京都板橋区桜川3-18-6","lat":35.760172,"lon":139.675717},{"name":"赤塚健康福祉センター","province":"東京都","city":"板橋区","address":"東京都板橋区赤塚1-10-13","lat":35.772065,"lon":139.646761},{"name":"志村健康福祉センター","province":"東京都","city":"板橋区","address":"東京都板橋区蓮根2-5-5","lat":35.780875,"lon":139.677048},{"name":"高島平健康福祉センター","province":"東京都","city":"板橋区","address":"東京都板橋区高島平3-13-28","lat":35.787982,"lon":139.65877},{"name":"郷土芸能伝承館","province":"東京都","city":"板橋区","address":"東京都板橋区徳丸6-29-13","lat":35.778365,"lon":139.660649},{"name":"教育科学館","province":"東京都","city":"板橋区","address":"東京都板橋区常盤台4-14-1","lat":35.763454,"lon":139.679618},{"name":"赤塚植物園","province":"東京都","city":"板橋区","address":"東京都板橋区赤塚5-17","lat":35.780612,"lon":139.644253},{"name":"リサイクルプラザ","province":"東京都","city":"板橋区","address":"東京都板橋区舟渡4-16-6","lat":35.795671,"lon":139.676303},{"name":"北部土木サービスセンター","province":"東京都","city":"板橋区","address":"東京都板橋区新河岸1-9-8","lat":35.794855,"lon":139.668296},{"name":"南部土木サービスセンター","province":"東京都","city":"板橋区","address":"東京都板橋区富士見町3-1","lat":35.760756,"lon":139.701033},{"name":"熱帯環境植物館","province":"東京都","city":"板橋区","address":"東京都板橋区高島平8-29-2","lat":35.791911,"lon":139.664337},{"name":"中央図書館","province":"東京都","city":"板橋区","address":"東京都板橋区常盤台4-3-1","lat":35.76352,"lon":139.681456},{"name":"ハイライフプラザいたばし","province":"東京都","city":"板橋区","address":"東京都板橋区板橋1-55-16","lat":35.747027,"lon":139.720667},{"name":"植村冒険館","province":"東京都","city":"板橋区","address":"東京都板橋区加賀1-10-5","lat":35.75425,"lon":139.715975},{"name":"板橋区子ども家庭総合支援センター","province":"東京都","city":"板橋区","address":"東京都板橋区本町24-17","lat":35.759416,"lon":139.708348},{"name":"豊島病院","province":"東京都","city":"板橋区","address":"東京都板橋区栄町33-1","lat":35.75269994,"lon":139.70097739},{"name":"板橋区役所","province":"東京都","city":"板橋区","address":"東京都板橋区板橋2-66-1","lat":35.75113,"lon":139.70925},{"name":"情報処理センター","province":"東京都","city":"板橋区","address":"東京都板橋区板橋2-65-6","lat":35.74996,"lon":139.70894},{"name":"板橋区保健所","province":"東京都","city":"板橋区","address":"東京都板橋区大山東町32-15","lat":35.75053,"lon":139.70807},{"name":"赤塚支所","province":"東京都","city":"板橋区","address":"東京都板橋区赤塚6-38-1","lat":35.77889,"lon":139.6447},{"name":"いたばし総合ボランティアセンター","province":"東京都","city":"板橋区","address":"東京都板橋区本町24-1","lat":35.75944,"lon":139.70809},{"name":"板橋地域センター","province":"東京都","city":"板橋区","address":"東京都板橋区板橋3-14-15","lat":35.75119,"lon":139.71222},{"name":"熊野地域センター","province":"東京都","city":"板橋区","address":"東京都板橋区熊野町40-9","lat":35.74363,"lon":139.70443},{"name":"仲宿地域センター","province":"東京都","city":"板橋区","address":"東京都板橋区氷川町12-10","lat":35.75396,"lon":139.70714},{"name":"仲町地域センター","province":"東京都","city":"板橋区","address":"東京都板橋区仲町20-5","lat":35.75107,"lon":139.6965},{"name":"富士見地域センター","province":"東京都","city":"板橋区","address":"東京都板橋区富士見町3-1","lat":35.7607,"lon":139.7005},{"name":"大谷口地域センター","province":"東京都","city":"板橋区","address":"東京都板橋区大谷口2-12-5","lat":35.74579,"lon":139.68901},{"name":"常盤台地域センター","province":"東京都","city":"板橋区","address":"東京都板橋区常盤台4-14-1","lat":35.76351,"lon":139.67961},{"name":"清水地域センター","province":"東京都","city":"板橋区","address":"東京都板橋区泉町16-16","lat":35.76639,"lon":139.70222},{"name":"志村坂上地域センター","province":"東京都","city":"板橋区","address":"東京都板橋区小豆沢2-19-15","lat":35.77666,"lon":139.69602},{"name":"中台地域センター","province":"東京都","city":"板橋区","address":"東京都板橋区中台1-44-8","lat":35.76774,"lon":139.67666},{"name":"蓮根地域センター","province":"東京都","city":"板橋区","address":"東京都板橋区坂下2-18-1","lat":35.78261,"lon":139.6808},{"name":"舟渡地域センター","province":"東京都","city":"板橋区","address":"東京都板橋区舟渡3-19-8","lat":35.79437,"lon":139.6809},{"name":"前野地域センター","province":"東京都","city":"板橋区","address":"東京都板橋区前野町4-6-1","lat":35.76918901,"lon":139.6887954},{"name":"桜川地域センター","province":"東京都","city":"板橋区","address":"東京都板橋区東新町2-45-6","lat":35.7524,"lon":139.68176},{"name":"下赤塚地域センター","province":"東京都","city":"板橋区","address":"東京都板橋区赤塚6-38-1","lat":35.77872723,"lon":139.6446233},{"name":"成増地域センター","province":"東京都","city":"板橋区","address":"東京都板橋区成増3-11-3-405","lat":35.7782,"lon":139.63342},{"name":"徳丸地域センター","province":"東京都","city":"板橋区","address":"東京都板橋区徳丸3-35-15","lat":35.77372,"lon":139.65947},{"name":"高島平地域センター","province":"東京都","city":"板橋区","address":"東京都板橋区高島平3-12-28","lat":35.78715,"lon":139.65881},{"name":"常盤台区民事務所","province":"東京都","city":"板橋区","address":"東京都板橋区常盤台3-27-1","lat":35.76118,"lon":139.68257},{"name":"志村坂上区民事務所","province":"東京都","city":"板橋区","address":"東京都板橋区小豆沢2-19-15","lat":35.77650422,"lon":139.6961483},{"name":"高島平区民事務所","province":"東京都","city":"板橋区","address":"東京都板橋区高島平3-12-28","lat":35.78712684,"lon":139.6590316},{"name":"志村福祉事務所","province":"東京都","city":"板橋区","address":"東京都板橋区蓮根2-28-1","lat":35.78535,"lon":139.67517},{"name":"小豆沢体育館","province":"東京都","city":"板橋区","address":"東京都板橋区小豆沢3-1-1","lat":35.77863,"lon":139.69818},{"name":"板橋東清掃事務所","province":"東京都","city":"板橋区","address":"東京都板橋区東坂下2-20-9","lat":35.78778,"lon":139.68525},{"name":"板橋西清掃事務所","province":"東京都","city":"板橋区","address":"東京都板橋区徳丸1-16-1","lat":35.76924,"lon":139.66662},{"name":"まなぽーと大原（大原生涯学習センター）","province":"東京都","city":"板橋区","address":"東京都板橋区大原町5-18","lat":35.76968,"lon":139.7001},{"name":"まなぽーと成増（成増生涯学習センター）","province":"東京都","city":"板橋区","address":"東京都板橋区成増1-12-4","lat":35.77467,"lon":139.63276},{"name":"文化会館","province":"東京都","city":"板橋区","address":"東京都板橋区大山東町51-1","lat":35.74949,"lon":139.70461},{"name":"グリーンホール","province":"東京都","city":"板橋区","address":"東京都板橋区栄町36-1","lat":35.75088,"lon":139.70527},{"name":"エコポリスセンター","province":"東京都","city":"板橋区","address":"東京都板橋区前野町4-6-1","lat":35.76915,"lon":139.68879},{"name":"企業活性化センター","province":"東京都","city":"板橋区","address":"東京都板橋区舟渡1-13-10","lat":35.792209,"lon":139.691089},{"name":"美術館","province":"東京都","city":"板橋区","address":"東京都板橋区赤塚5-34-27","lat":35.78435214,"lon":139.6444433},{"name":"郷土資料館","province":"東京都","city":"板橋区","address":"東京都板橋区赤塚5-35-25","lat":35.785209,"lon":139.64337},{"name":"板橋健康福祉センター","province":"東京都","city":"板橋区","address":"東京都板橋区大山東町32-15","lat":35.750424,"lon":139.70809},{"name":"上板橋健康福祉センター","province":"東京都","city":"板橋区","address":"東京都板橋区桜川3-18-6","lat":35.760172,"lon":139.675717},{"name":"赤塚健康福祉センター","province":"東京都","city":"板橋区","address":"東京都板橋区赤塚1-10-13","lat":35.772065,"lon":139.646761},{"name":"志村健康福祉センター","province":"東京都","city":"板橋区","address":"東京都板橋区蓮根2-5-5","lat":35.780875,"lon":139.677048},{"name":"高島平健康福祉センター","province":"東京都","city":"板橋区","address":"東京都板橋区高島平3-13-28","lat":35.787982,"lon":139.65877},{"name":"郷土芸能伝承館","province":"東京都","city":"板橋区","address":"東京都板橋区徳丸6-29-13","lat":35.778365,"lon":139.660649},{"name":"教育科学館","province":"東京都","city":"板橋区","address":"東京都板橋区常盤台4-14-1","lat":35.763454,"lon":139.679618},{"name":"赤塚植物園","province":"東京都","city":"板橋区","address":"東京都板橋区赤塚5-17","lat":35.780612,"lon":139.644253},{"name":"リサイクルプラザ","province":"東京都","city":"板橋区","address":"東京都板橋区舟渡4-16-6","lat":35.795671,"lon":139.676303},{"name":"北部土木サービスセンター","province":"東京都","city":"板橋区","address":"東京都板橋区新河岸1-9-8","lat":35.794855,"lon":139.668296},{"name":"南部土木サービスセンター","province":"東京都","city":"板橋区","address":"東京都板橋区富士見町3-1","lat":35.760756,"lon":139.701033},{"name":"熱帯環境植物館","province":"東京都","city":"板橋区","address":"東京都板橋区高島平8-29-2","lat":35.791911,"lon":139.664337},{"name":"中央図書館","province":"東京都","city":"板橋区","address":"東京都板橋区常盤台4-3-1","lat":35.76352,"lon":139.681456},{"name":"ハイライフプラザいたばし","province":"東京都","city":"板橋区","address":"東京都板橋区板橋1-55-16","lat":35.747027,"lon":139.720667},{"name":"植村冒険館","province":"東京都","city":"板橋区","address":"東京都板橋区加賀1-10-5","lat":35.75425,"lon":139.715975},{"name":"板橋区子ども家庭総合支援センター","province":"東京都","city":"板橋区","address":"東京都板橋区本町24-17","lat":35.759416,"lon":139.708348},{"name":"板橋区役所","province":"東京都","city":"板橋区","address":"東京都板橋区板橋2-66-1","lat":35.75113,"lon":139.70925},{"name":"情報処理センター","province":"東京都","city":"板橋区","address":"東京都板橋区板橋2-65-6","lat":35.74996,"lon":139.70894},{"name":"板橋区保健所","province":"東京都","city":"板橋区","address":"東京都板橋区大山東町32-15","lat":35.75053,"lon":139.70807},{"name":"赤塚支所","province":"東京都","city":"板橋区","address":"東京都板橋区赤塚6-38-1","lat":35.77889,"lon":139.6447},{"name":"いたばし総合ボランティアセンター","province":"東京都","city":"板橋区","address":"東京都板橋区本町24-1","lat":35.75944,"lon":139.70809},{"name":"板橋地域センター","province":"東京都","city":"板橋区","address":"東京都板橋区板橋3-14-15","lat":35.75119,"lon":139.71222},{"name":"熊野地域センター","province":"東京都","city":"板橋区","address":"東京都板橋区熊野町40-9","lat":35.74363,"lon":139.70443},{"name":"仲宿地域センター","province":"東京都","city":"板橋区","address":"東京都板橋区氷川町12-10","lat":35.75396,"lon":139.70714},{"name":"仲町地域センター","province":"東京都","city":"板橋区","address":"東京都板橋区仲町20-5","lat":35.75107,"lon":139.6965},{"name":"富士見地域センター","province":"東京都","city":"板橋区","address":"東京都板橋区富士見町3-1","lat":35.7607,"lon":139.7005},{"name":"大谷口地域センター","province":"東京都","city":"板橋区","address":"東京都板橋区大谷口2-12-5","lat":35.74579,"lon":139.68901},{"name":"常盤台地域センター","province":"東京都","city":"板橋区","address":"東京都板橋区常盤台4-14-1","lat":35.76351,"lon":139.67961},{"name":"清水地域センター","province":"東京都","city":"板橋区","address":"東京都板橋区泉町16-16","lat":35.76639,"lon":139.70222},{"name":"志村坂上地域センター","province":"東京都","city":"板橋区","address":"東京都板橋区小豆沢2-19-15","lat":35.77666,"lon":139.69602},{"name":"中台地域センター","province":"東京都","city":"板橋区","address":"東京都板橋区中台1-44-8","lat":35.76774,"lon":139.67666},{"name":"蓮根地域センター","province":"東京都","city":"板橋区","address":"東京都板橋区坂下2-18-1","lat":35.78261,"lon":139.6808},{"name":"舟渡地域センター","province":"東京都","city":"板橋区","address":"東京都板橋区舟渡3-19-8","lat":35.79437,"lon":139.6809},{"name":"前野地域センター","province":"東京都","city":"板橋区","address":"東京都板橋区前野町4-6-1","lat":35.76918901,"lon":139.6887954},{"name":"桜川地域センター","province":"東京都","city":"板橋区","address":"東京都板橋区東新町2-45-6","lat":35.7524,"lon":139.68176},{"name":"下赤塚地域センター","province":"東京都","city":"板橋区","address":"東京都板橋区赤塚6-38-1","lat":35.77872723,"lon":139.6446233},{"name":"成増地域センター","province":"東京都","city":"板橋区","address":"東京都板橋区成増3-11-3-405","lat":35.7782,"lon":139.63342},{"name":"徳丸地域センター","province":"東京都","city":"板橋区","address":"東京都板橋区徳丸3-35-15","lat":35.77372,"lon":139.65947},{"name":"高島平地域センター","province":"東京都","city":"板橋区","address":"東京都板橋区高島平3-12-28","lat":35.78715,"lon":139.65881},{"name":"常盤台区民事務所","province":"東京都","city":"板橋区","address":"東京都板橋区常盤台3-27-1","lat":35.76118,"lon":139.68257},{"name":"志村坂上区民事務所","province":"東京都","city":"板橋区","address":"東京都板橋区小豆沢2-19-15","lat":35.77650422,"lon":139.6961483},{"name":"高島平区民事務所","province":"東京都","city":"板橋区","address":"東京都板橋区高島平3-12-28","lat":35.78712684,"lon":139.6590316},{"name":"志村福祉事務所","province":"東京都","city":"板橋区","address":"東京都板橋区蓮根2-28-1","lat":35.78535,"lon":139.67517},{"name":"小豆沢体育館","province":"東京都","city":"板橋区","address":"東京都板橋区小豆沢3-1-1","lat":35.77863,"lon":139.69818},{"name":"板橋東清掃事務所","province":"東京都","city":"板橋区","address":"東京都板橋区東坂下2-20-9","lat":35.78778,"lon":139.68525},{"name":"板橋西清掃事務所","province":"東京都","city":"板橋区","address":"東京都板橋区徳丸1-16-1","lat":35.76924,"lon":139.66662},{"name":"まなぽーと大原（大原生涯学習センター）","province":"東京都","city":"板橋区","address":"東京都板橋区大原町5-18","lat":35.76968,"lon":139.7001},{"name":"まなぽーと成増（成増生涯学習センター）","province":"東京都","city":"板橋区","address":"東京都板橋区成増1-12-4","lat":35.77467,"lon":139.63276},{"name":"文化会館","province":"東京都","city":"板橋区","address":"東京都板橋区大山東町51-1","lat":35.74949,"lon":139.70461},{"name":"グリーンホール","province":"東京都","city":"板橋区","address":"東京都板橋区栄町36-1","lat":35.75088,"lon":139.70527},{"name":"エコポリスセンター","province":"東京都","city":"板橋区","address":"東京都板橋区前野町4-6-1","lat":35.76915,"lon":139.68879},{"name":"企業活性化センター","province":"東京都","city":"板橋区","address":"東京都板橋区舟渡1-13-10","lat":35.792209,"lon":139.691089},{"name":"美術館","province":"東京都","city":"板橋区","address":"東京都板橋区赤塚5-34-27","lat":35.78435214,"lon":139.6444433},{"name":"郷土資料館","province":"東京都","city":"板橋区","address":"東京都板橋区赤塚5-35-25","lat":35.785209,"lon":139.64337},{"name":"板橋健康福祉センター","province":"東京都","city":"板橋区","address":"東京都板橋区大山東町32-15","lat":35.750424,"lon":139.70809},{"name":"上板橋健康福祉センター","province":"東京都","city":"板橋区","address":"東京都板橋区桜川3-18-6","lat":35.760172,"lon":139.675717},{"name":"赤塚健康福祉センター","province":"東京都","city":"板橋区","address":"東京都板橋区赤塚1-10-13","lat":35.772065,"lon":139.646761},{"name":"志村健康福祉センター","province":"東京都","city":"板橋区","address":"東京都板橋区蓮根2-5-5","lat":35.780875,"lon":139.677048},{"name":"高島平健康福祉センター","province":"東京都","city":"板橋区","address":"東京都板橋区高島平3-13-28","lat":35.787982,"lon":139.65877},{"name":"郷土芸能伝承館","province":"東京都","city":"板橋区","address":"東京都板橋区徳丸6-29-13","lat":35.778365,"lon":139.660649},{"name":"教育科学館","province":"東京都","city":"板橋区","address":"東京都板橋区常盤台4-14-1","lat":35.763454,"lon":139.679618},{"name":"赤塚植物園","province":"東京都","city":"板橋区","address":"東京都板橋区赤塚5-17","lat":35.780612,"lon":139.644253},{"name":"リサイクルプラザ","province":"東京都","city":"板橋区","address":"東京都板橋区舟渡4-16-6","lat":35.795671,"lon":139.676303},{"name":"北部土木サービスセンター","province":"東京都","city":"板橋区","address":"東京都板橋区新河岸1-9-8","lat":35.794855,"lon":139.668296},{"name":"南部土木サービスセンター","province":"東京都","city":"板橋区","address":"東京都板橋区富士見町3-1","lat":35.760756,"lon":139.701033},{"name":"熱帯環境植物館","province":"東京都","city":"板橋区","address":"東京都板橋区高島平8-29-2","lat":35.791911,"lon":139.664337},{"name":"中央図書館","province":"東京都","city":"板橋区","address":"東京都板橋区常盤台4-3-1","lat":35.76352,"lon":139.681456},{"name":"ハイライフプラザいたばし","province":"東京都","city":"板橋区","address":"東京都板橋区板橋1-55-16","lat":35.747027,"lon":139.720667},{"name":"植村冒険館","province":"東京都","city":"板橋区","address":"東京都板橋区加賀1-10-5","lat":35.75425,"lon":139.715975},{"name":"板橋区子ども家庭総合支援センター","province":"東京都","city":"板橋区","address":"東京都板橋区本町24-17","lat":35.759416,"lon":139.708348},{"name":"板橋区役所","province":"東京都","city":"板橋区","address":"東京都板橋区板橋2-66-1","lat":35.75113,"lon":139.70925},{"name":"情報処理センター","province":"東京都","city":"板橋区","address":"東京都板橋区板橋2-65-6","lat":35.74996,"lon":139.70894},{"name":"板橋区保健所","province":"東京都","city":"板橋区","address":"東京都板橋区大山東町32-15","lat":35.75053,"lon":139.70807},{"name":"赤塚支所","province":"東京都","city":"板橋区","address":"東京都板橋区赤塚6-38-1","lat":35.77889,"lon":139.6447},{"name":"いたばし総合ボランティアセンター","province":"東京都","city":"板橋区","address":"東京都板橋区本町24-1","lat":35.75944,"lon":139.70809},{"name":"板橋地域センター","province":"東京都","city":"板橋区","address":"東京都板橋区板橋3-14-15","lat":35.75119,"lon":139.71222},{"name":"熊野地域センター","province":"東京都","city":"板橋区","address":"東京都板橋区熊野町40-9","lat":35.74363,"lon":139.70443},{"name":"仲宿地域センター","province":"東京都","city":"板橋区","address":"東京都板橋区氷川町12-10","lat":35.75396,"lon":139.70714},{"name":"仲町地域センター","province":"東京都","city":"板橋区","address":"東京都板橋区仲町20-5","lat":35.75107,"lon":139.6965},{"name":"富士見地域センター","province":"東京都","city":"板橋区","address":"東京都板橋区富士見町3-1","lat":35.7607,"lon":139.7005},{"name":"大谷口地域センター","province":"東京都","city":"板橋区","address":"東京都板橋区大谷口2-12-5","lat":35.74579,"lon":139.68901},{"name":"常盤台地域センター","province":"東京都","city":"板橋区","address":"東京都板橋区常盤台4-14-1","lat":35.76351,"lon":139.67961},{"name":"清水地域センター","province":"東京都","city":"板橋区","address":"東京都板橋区泉町16-16","lat":35.76639,"lon":139.70222},{"name":"志村坂上地域センター","province":"東京都","city":"板橋区","address":"東京都板橋区小豆沢2-19-15","lat":35.77666,"lon":139.69602},{"name":"中台地域センター","province":"東京都","city":"板橋区","address":"東京都板橋区中台1-44-8","lat":35.76774,"lon":139.67666},{"name":"蓮根地域センター","province":"東京都","city":"板橋区","address":"東京都板橋区坂下2-18-1","lat":35.78261,"lon":139.6808},{"name":"舟渡地域センター","province":"東京都","city":"板橋区","address":"東京都板橋区舟渡3-19-8","lat":35.79437,"lon":139.6809},{"name":"前野地域センター","province":"東京都","city":"板橋区","address":"東京都板橋区前野町4-6-1","lat":35.76918901,"lon":139.6887954},{"name":"桜川地域センター","province":"東京都","city":"板橋区","address":"東京都板橋区東新町2-45-6","lat":35.7524,"lon":139.68176},{"name":"下赤塚地域センター","province":"東京都","city":"板橋区","address":"東京都板橋区赤塚6-38-1","lat":35.77872723,"lon":139.6446233},{"name":"成増地域センター","province":"東京都","city":"板橋区","address":"東京都板橋区成増3-11-3-405","lat":35.7782,"lon":139.63342},{"name":"徳丸地域センター","province":"東京都","city":"板橋区","address":"東京都板橋区徳丸3-35-15","lat":35.77372,"lon":139.65947},{"name":"高島平地域センター","province":"東京都","city":"板橋区","address":"東京都板橋区高島平3-12-28","lat":35.78715,"lon":139.65881},{"name":"常盤台区民事務所","province":"東京都","city":"板橋区","address":"東京都板橋区常盤台3-27-1","lat":35.76118,"lon":139.68257},{"name":"志村坂上区民事務所","province":"東京都","city":"板橋区","address":"東京都板橋区小豆沢2-19-15","lat":35.77650422,"lon":139.6961483},{"name":"高島平区民事務所","province":"東京都","city":"板橋区","address":"東京都板橋区高島平3-12-28","lat":35.78712684,"lon":139.6590316},{"name":"志村福祉事務所","province":"東京都","city":"板橋区","address":"東京都板橋区蓮根2-28-1","lat":35.78535,"lon":139.67517},{"name":"小豆沢体育館","province":"東京都","city":"板橋区","address":"東京都板橋区小豆沢3-1-1","lat":35.77863,"lon":139.69818},{"name":"板橋東清掃事務所","province":"東京都","city":"板橋区","address":"東京都板橋区東坂下2-20-9","lat":35.78778,"lon":139.68525},{"name":"板橋西清掃事務所","province":"東京都","city":"板橋区","address":"東京都板橋区徳丸1-16-1","lat":35.76924,"lon":139.66662},{"name":"まなぽーと大原（大原生涯学習センター）","province":"東京都","city":"板橋区","address":"東京都板橋区大原町5-18","lat":35.76968,"lon":139.7001},{"name":"まなぽーと成増（成増生涯学習センター）","province":"東京都","city":"板橋区","address":"東京都板橋区成増1-12-4","lat":35.77467,"lon":139.63276},{"name":"文化会館","province":"東京都","city":"板橋区","address":"東京都板橋区大山東町51-1","lat":35.74949,"lon":139.70461},{"name":"グリーンホール","province":"東京都","city":"板橋区","address":"東京都板橋区栄町36-1","lat":35.75088,"lon":139.70527},{"name":"エコポリスセンター","province":"東京都","city":"板橋区","address":"東京都板橋区前野町4-6-1","lat":35.76915,"lon":139.68879},{"name":"企業活性化センター","province":"東京都","city":"板橋区","address":"東京都板橋区舟渡1-13-10","lat":35.792209,"lon":139.691089},{"name":"美術館","province":"東京都","city":"板橋区","address":"東京都板橋区赤塚5-34-27","lat":35.78435214,"lon":139.6444433},{"name":"郷土資料館","province":"東京都","city":"板橋区","address":"東京都板橋区赤塚5-35-25","lat":35.785209,"lon":139.64337},{"name":"板橋健康福祉センター","province":"東京都","city":"板橋区","address":"東京都板橋区大山東町32-15","lat":35.750424,"lon":139.70809},{"name":"上板橋健康福祉センター","province":"東京都","city":"板橋区","address":"東京都板橋区桜川3-18-6","lat":35.760172,"lon":139.675717},{"name":"赤塚健康福祉センター","province":"東京都","city":"板橋区","address":"東京都板橋区赤塚1-10-13","lat":35.772065,"lon":139.646761},{"name":"志村健康福祉センター","province":"東京都","city":"板橋区","address":"東京都板橋区蓮根2-5-5","lat":35.780875,"lon":139.677048},{"name":"高島平健康福祉センター","province":"東京都","city":"板橋区","address":"東京都板橋区高島平3-13-28","lat":35.787982,"lon":139.65877},{"name":"郷土芸能伝承館","province":"東京都","city":"板橋区","address":"東京都板橋区徳丸6-29-13","lat":35.778365,"lon":139.660649},{"name":"教育科学館","province":"東京都","city":"板橋区","address":"東京都板橋区常盤台4-14-1","lat":35.763454,"lon":139.679618},{"name":"赤塚植物園","province":"東京都","city":"板橋区","address":"東京都板橋区赤塚5-17","lat":35.780612,"lon":139.644253},{"name":"リサイクルプラザ","province":"東京都","city":"板橋区","address":"東京都板橋区舟渡4-16-6","lat":35.795671,"lon":139.676303},{"name":"北部土木サービスセンター","province":"東京都","city":"板橋区","address":"東京都板橋区新河岸1-9-8","lat":35.794855,"lon":139.668296},{"name":"南部土木サービスセンター","province":"東京都","city":"板橋区","address":"東京都板橋区富士見町3-1","lat":35.760756,"lon":139.701033},{"name":"熱帯環境植物館","province":"東京都","city":"板橋区","address":"東京都板橋区高島平8-29-2","lat":35.791911,"lon":139.664337},{"name":"中央図書館","province":"東京都","city":"板橋区","address":"東京都板橋区常盤台4-3-1","lat":35.76352,"lon":139.681456},{"name":"ハイライフプラザいたばし","province":"東京都","city":"板橋区","address":"東京都板橋区板橋1-55-16","lat":35.747027,"lon":139.720667},{"name":"植村冒険館","province":"東京都","city":"板橋区","address":"東京都板橋区加賀1-10-5","lat":35.75425,"lon":139.715975},{"name":"板橋区子ども家庭総合支援センター","province":"東京都","city":"板橋区","address":"東京都板橋区本町24-17","lat":35.759416,"lon":139.708348}]}