{"keyword":"放課後","data":[{"name":"このこのリーフ　板橋区役所前","province":"東京都","city":"板橋区","address":"板橋区板橋2-64-13Y&Iビル2階","lat":35.750331,"lon":139.709543},{"name":"フォレストケア","province":"東京都","city":"板橋区","address":"板橋区弥生町49-11NYビル中板橋1F","lat":35.755088,"lon":139.692495},{"name":"ライブリーライフそよかぜ","province":"東京都","city":"板橋区","address":"板橋区大山町30-18大澤ビル2階","lat":35.748673,"lon":139.700764},{"name":"クローバー　よつばのいえ","province":"東京都","city":"板橋区","address":"板橋区熊野町15-5","lat":35.742585,"lon":139.707197},{"name":"レインボー熊野町","province":"東京都","city":"板橋区","address":"板橋区熊野町15-1パレ・ドール池袋北101","lat":35.742546,"lon":139.707477},{"name":"児童デイサービス　悠湯館","province":"東京都","city":"板橋区","address":"板橋区大谷口北町78-6","lat":35.749205,"lon":139.685779},{"name":"東京ＹＷＣＡキッズガーデン","province":"東京都","city":"板橋区","address":"板橋区坂下1-34-25","lat":35.780993,"lon":139.684505},{"name":"児童デイサービス・アニマート蓮根駅前","province":"東京都","city":"板橋区","address":"板橋区坂下2-16-8","lat":35.784001,"lon":139.679436},{"name":"放課後等デイサービス事業所　ウイング・ケアサービス","province":"東京都","city":"板橋区","address":"板橋区蓮根2-21-5計良ビル201","lat":35.782679,"lon":139.676834},{"name":"板橋ゆめの園　はすねっこ","province":"東京都","city":"板橋区","address":"板橋区蓮根3-6-3","lat":35.785912,"lon":139.6759},{"name":"児童放課後等デイサービス　ノア","province":"東京都","city":"板橋区","address":"板橋区蓮根2-19-4足立ビル1階101号室","lat":35.782473,"lon":139.678448},{"name":"フォレストケア板橋本町","province":"東京都","city":"板橋区","address":"板橋区宮本町1-1健生ビル1階","lat":35.762391,"lon":139.704829},{"name":"放課後等デイサービス　第２もちの木","province":"東京都","city":"板橋区","address":"板橋区富士見町7-11","lat":35.761388,"lon":139.700691},{"name":"このこのランド上板橋","province":"東京都","city":"板橋区","address":"板橋区中台1丁目41-12","lat":35.767039,"lon":139.677079},{"name":"若葉ゆめの園多機能型事業所","province":"東京都","city":"板橋区","address":"板橋区若木3-15-1","lat":35.772105,"lon":139.674201},{"name":"ドリームボックスときわ台","province":"東京都","city":"板橋区","address":"板橋区南常盤台2-9-13キャッスルミナミときわ台1階","lat":35.756963,"lon":139.685409},{"name":"キッズステーションフレンズ","province":"東京都","city":"板橋区","address":"板橋区桜川2-28-31","lat":35.759937,"lon":139.678362},{"name":"このこのランド桜川五本けやき","province":"東京都","city":"板橋区","address":"板橋区桜川3-23-9ヒルトップYS1階","lat":35.761112,"lon":139.673843},{"name":"キャプテンキッズ","province":"東京都","city":"板橋区","address":"板橋区上板橋2-13-3ライオンズマンション1F","lat":35.762376,"lon":139.670993},{"name":"放課後サポートわくわく","province":"東京都","city":"板橋区","address":"板橋区西台4-4-11キャッスル西台","lat":35.769708,"lon":139.667493},{"name":"児童デイサービス　もちの木","province":"東京都","city":"板橋区","address":"板橋区高島平1-34-7","lat":35.783648,"lon":139.670179},{"name":"放課後等デイサービス事業所　てんとう虫","province":"東京都","city":"板橋区","address":"板橋区高島平9-28-7技興舎ビル101","lat":35.7899,"lon":139.670137},{"name":"アプリ児童デイサービス高島平","province":"東京都","city":"板橋区","address":"板橋区高島平7-43-2Fortress.U101号室","lat":35.792108,"lon":139.65788},{"name":"ドリームボックス高島平","province":"東京都","city":"板橋区","address":"板橋区高島平四丁目23番15号ハイネス新高1階","lat":35.789402,"lon":139.652444},{"name":"このこのリーフ西台駅前","province":"東京都","city":"板橋区","address":"板橋区高島平1丁目80番13号","lat":35.786764,"lon":139.673181},{"name":"アプリ児童デイサービス高島平２号館","province":"東京都","city":"板橋区","address":"板橋区高島平7丁目18番18号高島平セントラルコート","lat":35.790916,"lon":139.656538},{"name":"放課後等デイサービス　オレンジスイート","province":"東京都","city":"板橋区","address":"板橋区徳丸七丁目24番15号徳丸ビル2階","lat":35.781287,"lon":139.665215},{"name":"このこのリーフ","province":"東京都","city":"板橋区","address":"板橋区成増1-14-15アーバンスパークビル102号","lat":35.775829,"lon":139.632402},{"name":"シルバーハート放課後デイサービスひまわり　成増","province":"東京都","city":"板橋区","address":"板橋区成増1-5-11第一相互マンション1階","lat":35.773251,"lon":139.632588}]}