{"keyword":"板橋","data":[{"name":"中央図書館","province":"東京都","city":"板橋区","address":"板橋区常盤台4-3-1","lat":35.763317,"lon":139.681006},{"name":"蓮根図書館","province":"東京都","city":"板橋区","address":"板橋区蓮根3-15-1-101","lat":35.78872881,"lon":139.6765722},{"name":"志村図書館","province":"東京都","city":"板橋区","address":"板橋区小豆沢1-8-1","lat":35.77319348,"lon":139.7000167},{"name":"清水図書館","province":"東京都","city":"板橋区","address":"板橋区泉町16-16","lat":35.7664743,"lon":139.702288},{"name":"高島平図書館","province":"東京都","city":"板橋区","address":"板橋区高島平3-13-1","lat":35.78770025,"lon":139.6591464},{"name":"赤塚図書館","province":"東京都","city":"板橋区","address":"板橋区赤塚6-38-1","lat":35.77877497,"lon":139.6447864},{"name":"成増図書館","province":"東京都","city":"板橋区","address":"板橋区成増3-13-1","lat":35.77883623,"lon":139.6322477},{"name":"小茂根図書館","province":"東京都","city":"板橋区","address":"板橋区小茂根1-6-2","lat":35.74565107,"lon":139.6809467},{"name":"氷川図書館","province":"東京都","city":"板橋区","address":"板橋区氷川町28-9","lat":35.75324706,"lon":139.7048242},{"name":"東板橋図書館","province":"東京都","city":"板橋区","address":"板橋区加賀1-10-15","lat":35.75447292,"lon":139.7158064},{"name":"西台図書館","province":"東京都","city":"板橋区","address":"板橋区西台3-13-2","lat":35.77397886,"lon":139.6689511}]}