{"keyword":"破損","data":[{"name":"日大病院入口","province":"東京都","city":"板橋区","address":"東京都板橋区大山町57","lat":35.74984733,"lon":139.69578072},{"name":"大和町","province":"東京都","city":"板橋区","address":"東京都板橋区本町37-7","lat":35.76090186,"lon":139.70603215},{"name":"常盤台入口","province":"東京都","city":"板橋区","address":"東京都板橋区東山町50-10","lat":35.75582684,"lon":139.68663949},{"name":"板橋区民館入口","province":"東京都","city":"板橋区","address":"東京都板橋区大山東町31-1","lat":35.74961435,"lon":139.70811579},{"name":"板橋本町","province":"東京都","city":"板橋区","address":"東京都板橋区本町40-9","lat":35.7585466,"lon":139.7069544},{"name":"板橋駅前","province":"東京都","city":"板橋区","address":"東京都板橋区板橋1丁目44-6","lat":35.74867302,"lon":139.71760115},{"name":"板橋区役所前","province":"東京都","city":"板橋区","address":"東京都板橋区板橋2丁目66-1","lat":35.75091701,"lon":139.70919342},{"name":"板橋区役所駅前","province":"東京都","city":"板橋区","address":"東京都板橋区板橋2丁目66-16","lat":35.75148917,"lon":139.70964614},{"name":"岩の坂上","province":"東京都","city":"板橋区","address":"東京都板橋区本町35-13","lat":35.76130738,"lon":139.70665153},{"name":"大山駅入口","province":"東京都","city":"板橋区","address":"東京都板橋区大山金井町54-15","lat":35.74533967,"lon":139.70188039},{"name":"板橋中央陸橋下","province":"東京都","city":"板橋区","address":"東京都板橋区東山町48-4","lat":35.75524085,"lon":139.68766167},{"name":"武蔵野病院前","province":"東京都","city":"板橋区","address":"東京都板橋区小茂根4丁目10-1","lat":35.74608599,"lon":139.67504929},{"name":"南常盤台一丁目","province":"東京都","city":"板橋区","address":"東京都板橋区南常盤台1丁目18","lat":35.75685457,"lon":139.68869762},{"name":"加賀交番前","province":"東京都","city":"板橋区","address":"東京都板橋区加賀1丁目10-5","lat":35.7538085,"lon":139.71563721},{"name":"常盤台小学校前","province":"東京都","city":"板橋区","address":"東京都板橋区常盤台1丁目6-1","lat":35.75952655,"lon":139.69117507},{"name":"新板橋駅前","province":"東京都","city":"板橋区","address":"東京都板橋区板橋1丁目52-6","lat":35.74863141,"lon":139.71976208},{"name":"仲宿三差路","province":"東京都","city":"板橋区","address":"東京都板橋区板橋2丁目68-5","lat":35.75182801,"lon":139.70891008},{"name":"常盤台駅前中央通り","province":"東京都","city":"板橋区","address":"東京都板橋区常盤台1丁目10-8","lat":35.76124851,"lon":139.69019172},{"name":"南常盤台一丁目第二","province":"東京都","city":"板橋区","address":"東京都板橋区南常盤台1丁目35-2","lat":35.75699342,"lon":139.68795322},{"name":"板橋第一中前","province":"東京都","city":"板橋区","address":"東京都板橋区栄町35-1","lat":35.75211676,"lon":139.70474376},{"name":"板橋天祖神社前","province":"東京都","city":"板橋区","address":"東京都板橋区南常盤台1丁目32","lat":35.75800994,"lon":139.68779485},{"name":"常盤台駅北","province":"東京都","city":"板橋区","address":"東京都板橋区常盤台2丁目14-1","lat":35.76038471,"lon":139.68967236},{"name":"環七板橋本町","province":"東京都","city":"板橋区","address":"東京都板橋区本町11-2","lat":35.76257953,"lon":139.70947902},{"name":"めぐみ幼稚園前","province":"東京都","city":"板橋区","address":"東京都板橋区常盤台2丁目3-1","lat":35.75981526,"lon":139.68738645},{"name":"板橋大山公園前","province":"東京都","city":"板橋区","address":"東京都板橋区栄町36-1","lat":35.75082525,"lon":139.70499935},{"name":"蓮沼町","province":"東京都","city":"板橋区","address":"東京都板橋区泉町7-7","lat":35.76863411,"lon":139.70194327},{"name":"志村坂上","province":"東京都","city":"板橋区","address":"東京都板橋区志村2丁目3-1","lat":35.77656347,"lon":139.69438248},{"name":"前野町二丁目","province":"東京都","city":"板橋区","address":"東京都板橋区前野町2丁目13-4","lat":35.76358709,"lon":139.68902782},{"name":"蓮根三丁目","province":"東京都","city":"板橋区","address":"東京都板橋区坂下3丁目10-6","lat":35.78559254,"lon":139.6796473},{"name":"志村三丁目","province":"東京都","city":"板橋区","address":"東京都板橋区坂下1丁目7-1","lat":35.77891576,"lon":139.68546089},{"name":"小豆沢公園前","province":"東京都","city":"板橋区","address":"東京都板橋区小豆沢3丁目1","lat":35.77861607,"lon":139.69794601},{"name":"坂下一丁目都営住宅前","province":"東京都","city":"板橋区","address":"東京都板橋区坂下1丁目11-3","lat":35.7787185,"lon":139.68319998},{"name":"前野町二丁目東","province":"東京都","city":"板橋区","address":"東京都板橋区常盤台2丁目27-10","lat":35.76318995,"lon":139.69005554},{"name":"ナショナルトレーニングセンター前","province":"東京都","city":"板橋区","address":"東京都板橋区清水町60-11","lat":35.76596516,"lon":139.70760404},{"name":"小豆沢三丁目東","province":"東京都","city":"板橋区","address":"東京都板橋区小豆沢3丁目9-5","lat":35.78011301,"lon":139.6944379},{"name":"成増","province":"東京都","city":"板橋区","address":"東京都板橋区成増2丁目21-6","lat":35.7780173,"lon":139.62992967},{"name":"成増駅前","province":"東京都","city":"板橋区","address":"東京都板橋区成増2丁目16-1","lat":35.77645087,"lon":139.63214065},{"name":"西台駅南","province":"東京都","city":"板橋区","address":"東京都板橋区蓮根3丁目8-12","lat":35.78591733,"lon":139.67492551},{"name":"高島平三丁目","province":"東京都","city":"板橋区","address":"東京都板橋区高島平7丁目1-1","lat":35.79046608,"lon":139.65332458},{"name":"高島平二丁目","province":"東京都","city":"板橋区","address":"東京都板橋区高島平8丁目2-1","lat":35.7888276,"lon":139.66119894},{"name":"新河岸一丁目","province":"東京都","city":"板橋区","address":"東京都板橋区新河岸2丁目1-31","lat":35.79441288,"lon":139.66290424},{"name":"高島平八丁目東","province":"東京都","city":"板橋区","address":"東京都板橋区高島平8丁目11","lat":35.78961364,"lon":139.66311541},{"name":"高島平警察署前","province":"東京都","city":"板橋区","address":"東京都板橋区高島平2丁目33-6","lat":35.78590855,"lon":139.65968524},{"name":"高島平出張所前","province":"東京都","city":"板橋区","address":"東京都板橋区高島平3丁目13","lat":35.78795544,"lon":139.65866029},{"name":"西台駅前ガード下","province":"東京都","city":"板橋区","address":"東京都板橋区蓮根3丁目9-7","lat":35.78688387,"lon":139.67475327},{"name":"高島一の橋","province":"東京都","city":"板橋区","address":"東京都板橋区高島平9丁目23-1","lat":35.79038028,"lon":139.66622624},{"name":"板橋清掃工場入口","province":"東京都","city":"板橋区","address":"東京都板橋区高島平9丁目14","lat":35.78940268,"lon":139.66686785},{"name":"大東文化大学前","province":"東京都","city":"板橋区","address":"東京都板橋区高島平1丁目5-8","lat":35.78142053,"lon":139.66988722},{"name":"赤塚六丁目","province":"東京都","city":"板橋区","address":"東京都板橋区赤塚6丁目7-1","lat":35.77625681,"lon":139.64687551},{"name":"高島平九丁目第三","province":"東京都","city":"板橋区","address":"東京都板橋区高島平9丁目2","lat":35.78940003,"lon":139.67136466},{"name":"大東文化大学正門前","province":"東京都","city":"板橋区","address":"東京都板橋区西台2丁目42","lat":35.78094001,"lon":139.66864846},{"name":"高島平駅前","province":"東京都","city":"板橋区","address":"東京都板橋区高島平8丁目2","lat":35.78876373,"lon":139.6614767},{"name":"赤塚新町郵便局前","province":"東京都","city":"板橋区","address":"東京都板橋区赤塚新町1丁目25-10","lat":35.77062128,"lon":139.64333992},{"name":"高島平駅北","province":"東京都","city":"板橋区","address":"東京都板橋区高島平8丁目18","lat":35.79037459,"lon":139.66179608},{"name":"高島平駅西口","province":"東京都","city":"板橋区","address":"東京都板橋区高島平7丁目2","lat":35.78959132,"lon":139.65997682},{"name":"三園浄水場","province":"東京都","city":"板橋区","address":"東京都板橋区三園2丁目10-1","lat":35.7948317,"lon":139.64197828},{"name":"区立城北公園","province":"東京都","city":"板橋区","address":"東京都板橋区坂下2丁目19-1","lat":35.78357064,"lon":139.68153885},{"name":"都立板橋高等学校","province":"東京都","city":"板橋区","address":"東京都板橋区大谷口1丁目54-1","lat":35.74187304,"lon":139.68991765},{"name":"都立赤塚公園","province":"東京都","city":"板橋区","address":"東京都板橋区高島平3丁目1","lat":35.78522804,"lon":139.65529951},{"name":"区立西徳第二公園","province":"東京都","city":"板橋区","address":"東京都板橋区西台3丁目42-1","lat":35.77615447,"lon":139.66783758},{"name":"大谷口給水所","province":"東京都","city":"板橋区","address":"東京都板橋区大谷口1丁目4","lat":35.74552822,"lon":139.69106185},{"name":"板橋トラックターミナル","province":"東京都","city":"板橋区","address":"東京都板橋区高島平6丁目1-1","lat":35.79228232,"lon":139.64660566},{"name":"１６板橋清掃工場","province":"東京都","city":"板橋区","address":"東京都板橋区高島平9丁目48-1","lat":35.79180785,"lon":139.66670672},{"name":"日大病院入口","province":"東京都","city":"板橋区","address":"東京都板橋区大山町57","lat":35.74984733,"lon":139.69578072},{"name":"大和町","province":"東京都","city":"板橋区","address":"東京都板橋区本町37-7","lat":35.76090186,"lon":139.70603215},{"name":"常盤台入口","province":"東京都","city":"板橋区","address":"東京都板橋区東山町50-10","lat":35.75582684,"lon":139.68663949},{"name":"板橋区民館入口","province":"東京都","city":"板橋区","address":"東京都板橋区大山東町31-1","lat":35.74961435,"lon":139.70811579},{"name":"板橋本町","province":"東京都","city":"板橋区","address":"東京都板橋区本町40-9","lat":35.7585466,"lon":139.7069544},{"name":"板橋駅前","province":"東京都","city":"板橋区","address":"東京都板橋区板橋1丁目44-6","lat":35.74867302,"lon":139.71760115},{"name":"板橋区役所前","province":"東京都","city":"板橋区","address":"東京都板橋区板橋2丁目66-1","lat":35.75091701,"lon":139.70919342},{"name":"板橋区役所駅前","province":"東京都","city":"板橋区","address":"東京都板橋区板橋2丁目66-16","lat":35.75148917,"lon":139.70964614},{"name":"岩の坂上","province":"東京都","city":"板橋区","address":"東京都板橋区本町35-13","lat":35.76130738,"lon":139.70665153},{"name":"大山駅入口","province":"東京都","city":"板橋区","address":"東京都板橋区大山金井町54-15","lat":35.74533967,"lon":139.70188039},{"name":"板橋中央陸橋下","province":"東京都","city":"板橋区","address":"東京都板橋区東山町48-4","lat":35.75524085,"lon":139.68766167},{"name":"武蔵野病院前","province":"東京都","city":"板橋区","address":"東京都板橋区小茂根4丁目10-1","lat":35.74608599,"lon":139.67504929},{"name":"南常盤台一丁目","province":"東京都","city":"板橋区","address":"東京都板橋区南常盤台1丁目18","lat":35.75685457,"lon":139.68869762},{"name":"加賀交番前","province":"東京都","city":"板橋区","address":"東京都板橋区加賀1丁目10-5","lat":35.7538085,"lon":139.71563721},{"name":"常盤台小学校前","province":"東京都","city":"板橋区","address":"東京都板橋区常盤台1丁目6-1","lat":35.75952655,"lon":139.69117507},{"name":"新板橋駅前","province":"東京都","city":"板橋区","address":"東京都板橋区板橋1丁目52-6","lat":35.74863141,"lon":139.71976208},{"name":"仲宿三差路","province":"東京都","city":"板橋区","address":"東京都板橋区板橋2丁目68-5","lat":35.75182801,"lon":139.70891008},{"name":"常盤台駅前中央通り","province":"東京都","city":"板橋区","address":"東京都板橋区常盤台1丁目10-8","lat":35.76124851,"lon":139.69019172},{"name":"南常盤台一丁目第二","province":"東京都","city":"板橋区","address":"東京都板橋区南常盤台1丁目35-2","lat":35.75699342,"lon":139.68795322},{"name":"板橋第一中前","province":"東京都","city":"板橋区","address":"東京都板橋区栄町35-1","lat":35.75211676,"lon":139.70474376},{"name":"板橋天祖神社前","province":"東京都","city":"板橋区","address":"東京都板橋区南常盤台1丁目32","lat":35.75800994,"lon":139.68779485},{"name":"常盤台駅北","province":"東京都","city":"板橋区","address":"東京都板橋区常盤台2丁目14-1","lat":35.76038471,"lon":139.68967236},{"name":"環七板橋本町","province":"東京都","city":"板橋区","address":"東京都板橋区本町11-2","lat":35.76257953,"lon":139.70947902},{"name":"めぐみ幼稚園前","province":"東京都","city":"板橋区","address":"東京都板橋区常盤台2丁目3-1","lat":35.75981526,"lon":139.68738645},{"name":"板橋大山公園前","province":"東京都","city":"板橋区","address":"東京都板橋区栄町36-1","lat":35.75082525,"lon":139.70499935},{"name":"蓮沼町","province":"東京都","city":"板橋区","address":"東京都板橋区泉町7-7","lat":35.76863411,"lon":139.70194327},{"name":"志村坂上","province":"東京都","city":"板橋区","address":"東京都板橋区志村2丁目3-1","lat":35.77656347,"lon":139.69438248},{"name":"前野町二丁目","province":"東京都","city":"板橋区","address":"東京都板橋区前野町2丁目13-4","lat":35.76358709,"lon":139.68902782},{"name":"蓮根三丁目","province":"東京都","city":"板橋区","address":"東京都板橋区坂下3丁目10-6","lat":35.78559254,"lon":139.6796473},{"name":"志村三丁目","province":"東京都","city":"板橋区","address":"東京都板橋区坂下1丁目7-1","lat":35.77891576,"lon":139.68546089},{"name":"小豆沢公園前","province":"東京都","city":"板橋区","address":"東京都板橋区小豆沢3丁目1","lat":35.77861607,"lon":139.69794601},{"name":"坂下一丁目都営住宅前","province":"東京都","city":"板橋区","address":"東京都板橋区坂下1丁目11-3","lat":35.7787185,"lon":139.68319998},{"name":"前野町二丁目東","province":"東京都","city":"板橋区","address":"東京都板橋区常盤台2丁目27-10","lat":35.76318995,"lon":139.69005554},{"name":"ナショナルトレーニングセンター前","province":"東京都","city":"板橋区","address":"東京都板橋区清水町60-11","lat":35.76596516,"lon":139.70760404},{"name":"小豆沢三丁目東","province":"東京都","city":"板橋区","address":"東京都板橋区小豆沢3丁目9-5","lat":35.78011301,"lon":139.6944379},{"name":"成増","province":"東京都","city":"板橋区","address":"東京都板橋区成増2丁目21-6","lat":35.7780173,"lon":139.62992967},{"name":"成増駅前","province":"東京都","city":"板橋区","address":"東京都板橋区成増2丁目16-1","lat":35.77645087,"lon":139.63214065},{"name":"西台駅南","province":"東京都","city":"板橋区","address":"東京都板橋区蓮根3丁目8-12","lat":35.78591733,"lon":139.67492551},{"name":"高島平三丁目","province":"東京都","city":"板橋区","address":"東京都板橋区高島平7丁目1-1","lat":35.79046608,"lon":139.65332458},{"name":"高島平二丁目","province":"東京都","city":"板橋区","address":"東京都板橋区高島平8丁目2-1","lat":35.7888276,"lon":139.66119894},{"name":"新河岸一丁目","province":"東京都","city":"板橋区","address":"東京都板橋区新河岸2丁目1-31","lat":35.79441288,"lon":139.66290424},{"name":"高島平八丁目東","province":"東京都","city":"板橋区","address":"東京都板橋区高島平8丁目11","lat":35.78961364,"lon":139.66311541},{"name":"高島平警察署前","province":"東京都","city":"板橋区","address":"東京都板橋区高島平2丁目33-6","lat":35.78590855,"lon":139.65968524},{"name":"高島平出張所前","province":"東京都","city":"板橋区","address":"東京都板橋区高島平3丁目13","lat":35.78795544,"lon":139.65866029},{"name":"西台駅前ガード下","province":"東京都","city":"板橋区","address":"東京都板橋区蓮根3丁目9-7","lat":35.78688387,"lon":139.67475327},{"name":"高島一の橋","province":"東京都","city":"板橋区","address":"東京都板橋区高島平9丁目23-1","lat":35.79038028,"lon":139.66622624},{"name":"板橋清掃工場入口","province":"東京都","city":"板橋区","address":"東京都板橋区高島平9丁目14","lat":35.78940268,"lon":139.66686785},{"name":"大東文化大学前","province":"東京都","city":"板橋区","address":"東京都板橋区高島平1丁目5-8","lat":35.78142053,"lon":139.66988722},{"name":"赤塚六丁目","province":"東京都","city":"板橋区","address":"東京都板橋区赤塚6丁目7-1","lat":35.77625681,"lon":139.64687551},{"name":"高島平九丁目第三","province":"東京都","city":"板橋区","address":"東京都板橋区高島平9丁目2","lat":35.78940003,"lon":139.67136466},{"name":"大東文化大学正門前","province":"東京都","city":"板橋区","address":"東京都板橋区西台2丁目42","lat":35.78094001,"lon":139.66864846},{"name":"高島平駅前","province":"東京都","city":"板橋区","address":"東京都板橋区高島平8丁目2","lat":35.78876373,"lon":139.6614767},{"name":"赤塚新町郵便局前","province":"東京都","city":"板橋区","address":"東京都板橋区赤塚新町1丁目25-10","lat":35.77062128,"lon":139.64333992},{"name":"高島平駅北","province":"東京都","city":"板橋区","address":"東京都板橋区高島平8丁目18","lat":35.79037459,"lon":139.66179608},{"name":"高島平駅西口","province":"東京都","city":"板橋区","address":"東京都板橋区高島平7丁目2","lat":35.78959132,"lon":139.65997682},{"name":"三園浄水場","province":"東京都","city":"板橋区","address":"東京都板橋区三園2丁目10-1","lat":35.7948317,"lon":139.64197828},{"name":"区立城北公園","province":"東京都","city":"板橋区","address":"東京都板橋区坂下2丁目19-1","lat":35.78357064,"lon":139.68153885},{"name":"都立板橋高等学校","province":"東京都","city":"板橋区","address":"東京都板橋区大谷口1丁目54-1","lat":35.74187304,"lon":139.68991765},{"name":"都立赤塚公園","province":"東京都","city":"板橋区","address":"東京都板橋区高島平3丁目1","lat":35.78522804,"lon":139.65529951},{"name":"区立西徳第二公園","province":"東京都","city":"板橋区","address":"東京都板橋区西台3丁目42-1","lat":35.77615447,"lon":139.66783758},{"name":"大谷口給水所","province":"東京都","city":"板橋区","address":"東京都板橋区大谷口1丁目4","lat":35.74552822,"lon":139.69106185},{"name":"板橋トラックターミナル","province":"東京都","city":"板橋区","address":"東京都板橋区高島平6丁目1-1","lat":35.79228232,"lon":139.64660566},{"name":"１６板橋清掃工場","province":"東京都","city":"板橋区","address":"東京都板橋区高島平9丁目48-1","lat":35.79180785,"lon":139.66670672},{"name":"日大病院入口","province":"東京都","city":"板橋区","address":"東京都板橋区大山町57","lat":35.74984733,"lon":139.69578072},{"name":"大和町","province":"東京都","city":"板橋区","address":"東京都板橋区本町37-7","lat":35.76090186,"lon":139.70603215},{"name":"常盤台入口","province":"東京都","city":"板橋区","address":"東京都板橋区東山町50-10","lat":35.75582684,"lon":139.68663949},{"name":"板橋区民館入口","province":"東京都","city":"板橋区","address":"東京都板橋区大山東町31-1","lat":35.74961435,"lon":139.70811579},{"name":"板橋本町","province":"東京都","city":"板橋区","address":"東京都板橋区本町40-9","lat":35.7585466,"lon":139.7069544},{"name":"板橋駅前","province":"東京都","city":"板橋区","address":"東京都板橋区板橋1丁目44-6","lat":35.74867302,"lon":139.71760115},{"name":"板橋区役所前","province":"東京都","city":"板橋区","address":"東京都板橋区板橋2丁目66-1","lat":35.75091701,"lon":139.70919342},{"name":"板橋区役所駅前","province":"東京都","city":"板橋区","address":"東京都板橋区板橋2丁目66-16","lat":35.75148917,"lon":139.70964614},{"name":"岩の坂上","province":"東京都","city":"板橋区","address":"東京都板橋区本町35-13","lat":35.76130738,"lon":139.70665153},{"name":"大山駅入口","province":"東京都","city":"板橋区","address":"東京都板橋区大山金井町54-15","lat":35.74533967,"lon":139.70188039},{"name":"板橋中央陸橋下","province":"東京都","city":"板橋区","address":"東京都板橋区東山町48-4","lat":35.75524085,"lon":139.68766167},{"name":"武蔵野病院前","province":"東京都","city":"板橋区","address":"東京都板橋区小茂根4丁目10-1","lat":35.74608599,"lon":139.67504929},{"name":"南常盤台一丁目","province":"東京都","city":"板橋区","address":"東京都板橋区南常盤台1丁目18","lat":35.75685457,"lon":139.68869762},{"name":"加賀交番前","province":"東京都","city":"板橋区","address":"東京都板橋区加賀1丁目10-5","lat":35.7538085,"lon":139.71563721},{"name":"常盤台小学校前","province":"東京都","city":"板橋区","address":"東京都板橋区常盤台1丁目6-1","lat":35.75952655,"lon":139.69117507},{"name":"新板橋駅前","province":"東京都","city":"板橋区","address":"東京都板橋区板橋1丁目52-6","lat":35.74863141,"lon":139.71976208},{"name":"仲宿三差路","province":"東京都","city":"板橋区","address":"東京都板橋区板橋2丁目68-5","lat":35.75182801,"lon":139.70891008},{"name":"常盤台駅前中央通り","province":"東京都","city":"板橋区","address":"東京都板橋区常盤台1丁目10-8","lat":35.76124851,"lon":139.69019172},{"name":"南常盤台一丁目第二","province":"東京都","city":"板橋区","address":"東京都板橋区南常盤台1丁目35-2","lat":35.75699342,"lon":139.68795322},{"name":"板橋第一中前","province":"東京都","city":"板橋区","address":"東京都板橋区栄町35-1","lat":35.75211676,"lon":139.70474376},{"name":"板橋天祖神社前","province":"東京都","city":"板橋区","address":"東京都板橋区南常盤台1丁目32","lat":35.75800994,"lon":139.68779485},{"name":"常盤台駅北","province":"東京都","city":"板橋区","address":"東京都板橋区常盤台2丁目14-1","lat":35.76038471,"lon":139.68967236},{"name":"環七板橋本町","province":"東京都","city":"板橋区","address":"東京都板橋区本町11-2","lat":35.76257953,"lon":139.70947902},{"name":"めぐみ幼稚園前","province":"東京都","city":"板橋区","address":"東京都板橋区常盤台2丁目3-1","lat":35.75981526,"lon":139.68738645},{"name":"板橋大山公園前","province":"東京都","city":"板橋区","address":"東京都板橋区栄町36-1","lat":35.75082525,"lon":139.70499935},{"name":"蓮沼町","province":"東京都","city":"板橋区","address":"東京都板橋区泉町7-7","lat":35.76863411,"lon":139.70194327},{"name":"志村坂上","province":"東京都","city":"板橋区","address":"東京都板橋区志村2丁目3-1","lat":35.77656347,"lon":139.69438248},{"name":"前野町二丁目","province":"東京都","city":"板橋区","address":"東京都板橋区前野町2丁目13-4","lat":35.76358709,"lon":139.68902782},{"name":"蓮根三丁目","province":"東京都","city":"板橋区","address":"東京都板橋区坂下3丁目10-6","lat":35.78559254,"lon":139.6796473},{"name":"志村三丁目","province":"東京都","city":"板橋区","address":"東京都板橋区坂下1丁目7-1","lat":35.77891576,"lon":139.68546089},{"name":"小豆沢公園前","province":"東京都","city":"板橋区","address":"東京都板橋区小豆沢3丁目1","lat":35.77861607,"lon":139.69794601},{"name":"坂下一丁目都営住宅前","province":"東京都","city":"板橋区","address":"東京都板橋区坂下1丁目11-3","lat":35.7787185,"lon":139.68319998},{"name":"前野町二丁目東","province":"東京都","city":"板橋区","address":"東京都板橋区常盤台2丁目27-10","lat":35.76318995,"lon":139.69005554},{"name":"ナショナルトレーニングセンター前","province":"東京都","city":"板橋区","address":"東京都板橋区清水町60-11","lat":35.76596516,"lon":139.70760404},{"name":"小豆沢三丁目東","province":"東京都","city":"板橋区","address":"東京都板橋区小豆沢3丁目9-5","lat":35.78011301,"lon":139.6944379},{"name":"成増","province":"東京都","city":"板橋区","address":"東京都板橋区成増2丁目21-6","lat":35.7780173,"lon":139.62992967},{"name":"成増駅前","province":"東京都","city":"板橋区","address":"東京都板橋区成増2丁目16-1","lat":35.77645087,"lon":139.63214065},{"name":"西台駅南","province":"東京都","city":"板橋区","address":"東京都板橋区蓮根3丁目8-12","lat":35.78591733,"lon":139.67492551},{"name":"高島平三丁目","province":"東京都","city":"板橋区","address":"東京都板橋区高島平7丁目1-1","lat":35.79046608,"lon":139.65332458},{"name":"高島平二丁目","province":"東京都","city":"板橋区","address":"東京都板橋区高島平8丁目2-1","lat":35.7888276,"lon":139.66119894},{"name":"新河岸一丁目","province":"東京都","city":"板橋区","address":"東京都板橋区新河岸2丁目1-31","lat":35.79441288,"lon":139.66290424},{"name":"高島平八丁目東","province":"東京都","city":"板橋区","address":"東京都板橋区高島平8丁目11","lat":35.78961364,"lon":139.66311541},{"name":"高島平警察署前","province":"東京都","city":"板橋区","address":"東京都板橋区高島平2丁目33-6","lat":35.78590855,"lon":139.65968524},{"name":"高島平出張所前","province":"東京都","city":"板橋区","address":"東京都板橋区高島平3丁目13","lat":35.78795544,"lon":139.65866029},{"name":"西台駅前ガード下","province":"東京都","city":"板橋区","address":"東京都板橋区蓮根3丁目9-7","lat":35.78688387,"lon":139.67475327},{"name":"高島一の橋","province":"東京都","city":"板橋区","address":"東京都板橋区高島平9丁目23-1","lat":35.79038028,"lon":139.66622624},{"name":"板橋清掃工場入口","province":"東京都","city":"板橋区","address":"東京都板橋区高島平9丁目14","lat":35.78940268,"lon":139.66686785},{"name":"大東文化大学前","province":"東京都","city":"板橋区","address":"東京都板橋区高島平1丁目5-8","lat":35.78142053,"lon":139.66988722},{"name":"赤塚六丁目","province":"東京都","city":"板橋区","address":"東京都板橋区赤塚6丁目7-1","lat":35.77625681,"lon":139.64687551},{"name":"高島平九丁目第三","province":"東京都","city":"板橋区","address":"東京都板橋区高島平9丁目2","lat":35.78940003,"lon":139.67136466},{"name":"大東文化大学正門前","province":"東京都","city":"板橋区","address":"東京都板橋区西台2丁目42","lat":35.78094001,"lon":139.66864846},{"name":"高島平駅前","province":"東京都","city":"板橋区","address":"東京都板橋区高島平8丁目2","lat":35.78876373,"lon":139.6614767},{"name":"赤塚新町郵便局前","province":"東京都","city":"板橋区","address":"東京都板橋区赤塚新町1丁目25-10","lat":35.77062128,"lon":139.64333992},{"name":"高島平駅北","province":"東京都","city":"板橋区","address":"東京都板橋区高島平8丁目18","lat":35.79037459,"lon":139.66179608},{"name":"高島平駅西口","province":"東京都","city":"板橋区","address":"東京都板橋区高島平7丁目2","lat":35.78959132,"lon":139.65997682},{"name":"三園浄水場","province":"東京都","city":"板橋区","address":"東京都板橋区三園2丁目10-1","lat":35.7948317,"lon":139.64197828},{"name":"区立城北公園","province":"東京都","city":"板橋区","address":"東京都板橋区坂下2丁目19-1","lat":35.78357064,"lon":139.68153885},{"name":"都立板橋高等学校","province":"東京都","city":"板橋区","address":"東京都板橋区大谷口1丁目54-1","lat":35.74187304,"lon":139.68991765},{"name":"都立赤塚公園","province":"東京都","city":"板橋区","address":"東京都板橋区高島平3丁目1","lat":35.78522804,"lon":139.65529951},{"name":"区立西徳第二公園","province":"東京都","city":"板橋区","address":"東京都板橋区西台3丁目42-1","lat":35.77615447,"lon":139.66783758},{"name":"大谷口給水所","province":"東京都","city":"板橋区","address":"東京都板橋区大谷口1丁目4","lat":35.74552822,"lon":139.69106185},{"name":"板橋トラックターミナル","province":"東京都","city":"板橋区","address":"東京都板橋区高島平6丁目1-1","lat":35.79228232,"lon":139.64660566},{"name":"１６板橋清掃工場","province":"東京都","city":"板橋区","address":"東京都板橋区高島平9丁目48-1","lat":35.79180785,"lon":139.66670672},{"name":"日大病院入口","province":"東京都","city":"板橋区","address":"東京都板橋区大山町57","lat":35.74984733,"lon":139.69578072},{"name":"大和町","province":"東京都","city":"板橋区","address":"東京都板橋区本町37-7","lat":35.76090186,"lon":139.70603215},{"name":"常盤台入口","province":"東京都","city":"板橋区","address":"東京都板橋区東山町50-10","lat":35.75582684,"lon":139.68663949},{"name":"板橋区民館入口","province":"東京都","city":"板橋区","address":"東京都板橋区大山東町31-1","lat":35.74961435,"lon":139.70811579},{"name":"板橋本町","province":"東京都","city":"板橋区","address":"東京都板橋区本町40-9","lat":35.7585466,"lon":139.7069544},{"name":"板橋駅前","province":"東京都","city":"板橋区","address":"東京都板橋区板橋1丁目44-6","lat":35.74867302,"lon":139.71760115},{"name":"板橋区役所前","province":"東京都","city":"板橋区","address":"東京都板橋区板橋2丁目66-1","lat":35.75091701,"lon":139.70919342},{"name":"板橋区役所駅前","province":"東京都","city":"板橋区","address":"東京都板橋区板橋2丁目66-16","lat":35.75148917,"lon":139.70964614},{"name":"岩の坂上","province":"東京都","city":"板橋区","address":"東京都板橋区本町35-13","lat":35.76130738,"lon":139.70665153},{"name":"大山駅入口","province":"東京都","city":"板橋区","address":"東京都板橋区大山金井町54-15","lat":35.74533967,"lon":139.70188039},{"name":"板橋中央陸橋下","province":"東京都","city":"板橋区","address":"東京都板橋区東山町48-4","lat":35.75524085,"lon":139.68766167},{"name":"武蔵野病院前","province":"東京都","city":"板橋区","address":"東京都板橋区小茂根4丁目10-1","lat":35.74608599,"lon":139.67504929},{"name":"南常盤台一丁目","province":"東京都","city":"板橋区","address":"東京都板橋区南常盤台1丁目18","lat":35.75685457,"lon":139.68869762},{"name":"加賀交番前","province":"東京都","city":"板橋区","address":"東京都板橋区加賀1丁目10-5","lat":35.7538085,"lon":139.71563721},{"name":"常盤台小学校前","province":"東京都","city":"板橋区","address":"東京都板橋区常盤台1丁目6-1","lat":35.75952655,"lon":139.69117507},{"name":"新板橋駅前","province":"東京都","city":"板橋区","address":"東京都板橋区板橋1丁目52-6","lat":35.74863141,"lon":139.71976208},{"name":"仲宿三差路","province":"東京都","city":"板橋区","address":"東京都板橋区板橋2丁目68-5","lat":35.75182801,"lon":139.70891008},{"name":"常盤台駅前中央通り","province":"東京都","city":"板橋区","address":"東京都板橋区常盤台1丁目10-8","lat":35.76124851,"lon":139.69019172},{"name":"南常盤台一丁目第二","province":"東京都","city":"板橋区","address":"東京都板橋区南常盤台1丁目35-2","lat":35.75699342,"lon":139.68795322},{"name":"板橋第一中前","province":"東京都","city":"板橋区","address":"東京都板橋区栄町35-1","lat":35.75211676,"lon":139.70474376},{"name":"板橋天祖神社前","province":"東京都","city":"板橋区","address":"東京都板橋区南常盤台1丁目32","lat":35.75800994,"lon":139.68779485},{"name":"常盤台駅北","province":"東京都","city":"板橋区","address":"東京都板橋区常盤台2丁目14-1","lat":35.76038471,"lon":139.68967236},{"name":"環七板橋本町","province":"東京都","city":"板橋区","address":"東京都板橋区本町11-2","lat":35.76257953,"lon":139.70947902},{"name":"めぐみ幼稚園前","province":"東京都","city":"板橋区","address":"東京都板橋区常盤台2丁目3-1","lat":35.75981526,"lon":139.68738645},{"name":"板橋大山公園前","province":"東京都","city":"板橋区","address":"東京都板橋区栄町36-1","lat":35.75082525,"lon":139.70499935},{"name":"蓮沼町","province":"東京都","city":"板橋区","address":"東京都板橋区泉町7-7","lat":35.76863411,"lon":139.70194327},{"name":"志村坂上","province":"東京都","city":"板橋区","address":"東京都板橋区志村2丁目3-1","lat":35.77656347,"lon":139.69438248},{"name":"前野町二丁目","province":"東京都","city":"板橋区","address":"東京都板橋区前野町2丁目13-4","lat":35.76358709,"lon":139.68902782},{"name":"蓮根三丁目","province":"東京都","city":"板橋区","address":"東京都板橋区坂下3丁目10-6","lat":35.78559254,"lon":139.6796473},{"name":"志村三丁目","province":"東京都","city":"板橋区","address":"東京都板橋区坂下1丁目7-1","lat":35.77891576,"lon":139.68546089},{"name":"小豆沢公園前","province":"東京都","city":"板橋区","address":"東京都板橋区小豆沢3丁目1","lat":35.77861607,"lon":139.69794601},{"name":"坂下一丁目都営住宅前","province":"東京都","city":"板橋区","address":"東京都板橋区坂下1丁目11-3","lat":35.7787185,"lon":139.68319998},{"name":"前野町二丁目東","province":"東京都","city":"板橋区","address":"東京都板橋区常盤台2丁目27-10","lat":35.76318995,"lon":139.69005554},{"name":"ナショナルトレーニングセンター前","province":"東京都","city":"板橋区","address":"東京都板橋区清水町60-11","lat":35.76596516,"lon":139.70760404},{"name":"小豆沢三丁目東","province":"東京都","city":"板橋区","address":"東京都板橋区小豆沢3丁目9-5","lat":35.78011301,"lon":139.6944379},{"name":"成増","province":"東京都","city":"板橋区","address":"東京都板橋区成増2丁目21-6","lat":35.7780173,"lon":139.62992967},{"name":"成増駅前","province":"東京都","city":"板橋区","address":"東京都板橋区成増2丁目16-1","lat":35.77645087,"lon":139.63214065},{"name":"西台駅南","province":"東京都","city":"板橋区","address":"東京都板橋区蓮根3丁目8-12","lat":35.78591733,"lon":139.67492551},{"name":"高島平三丁目","province":"東京都","city":"板橋区","address":"東京都板橋区高島平7丁目1-1","lat":35.79046608,"lon":139.65332458},{"name":"高島平二丁目","province":"東京都","city":"板橋区","address":"東京都板橋区高島平8丁目2-1","lat":35.7888276,"lon":139.66119894},{"name":"新河岸一丁目","province":"東京都","city":"板橋区","address":"東京都板橋区新河岸2丁目1-31","lat":35.79441288,"lon":139.66290424},{"name":"高島平八丁目東","province":"東京都","city":"板橋区","address":"東京都板橋区高島平8丁目11","lat":35.78961364,"lon":139.66311541},{"name":"高島平警察署前","province":"東京都","city":"板橋区","address":"東京都板橋区高島平2丁目33-6","lat":35.78590855,"lon":139.65968524},{"name":"高島平出張所前","province":"東京都","city":"板橋区","address":"東京都板橋区高島平3丁目13","lat":35.78795544,"lon":139.65866029},{"name":"西台駅前ガード下","province":"東京都","city":"板橋区","address":"東京都板橋区蓮根3丁目9-7","lat":35.78688387,"lon":139.67475327},{"name":"高島一の橋","province":"東京都","city":"板橋区","address":"東京都板橋区高島平9丁目23-1","lat":35.79038028,"lon":139.66622624},{"name":"板橋清掃工場入口","province":"東京都","city":"板橋区","address":"東京都板橋区高島平9丁目14","lat":35.78940268,"lon":139.66686785},{"name":"大東文化大学前","province":"東京都","city":"板橋区","address":"東京都板橋区高島平1丁目5-8","lat":35.78142053,"lon":139.66988722},{"name":"赤塚六丁目","province":"東京都","city":"板橋区","address":"東京都板橋区赤塚6丁目7-1","lat":35.77625681,"lon":139.64687551},{"name":"高島平九丁目第三","province":"東京都","city":"板橋区","address":"東京都板橋区高島平9丁目2","lat":35.78940003,"lon":139.67136466},{"name":"大東文化大学正門前","province":"東京都","city":"板橋区","address":"東京都板橋区西台2丁目42","lat":35.78094001,"lon":139.66864846},{"name":"高島平駅前","province":"東京都","city":"板橋区","address":"東京都板橋区高島平8丁目2","lat":35.78876373,"lon":139.6614767},{"name":"赤塚新町郵便局前","province":"東京都","city":"板橋区","address":"東京都板橋区赤塚新町1丁目25-10","lat":35.77062128,"lon":139.64333992},{"name":"高島平駅北","province":"東京都","city":"板橋区","address":"東京都板橋区高島平8丁目18","lat":35.79037459,"lon":139.66179608},{"name":"高島平駅西口","province":"東京都","city":"板橋区","address":"東京都板橋区高島平7丁目2","lat":35.78959132,"lon":139.65997682},{"name":"三園浄水場","province":"東京都","city":"板橋区","address":"東京都板橋区三園2丁目10-1","lat":35.7948317,"lon":139.64197828},{"name":"区立城北公園","province":"東京都","city":"板橋区","address":"東京都板橋区坂下2丁目19-1","lat":35.78357064,"lon":139.68153885},{"name":"都立板橋高等学校","province":"東京都","city":"板橋区","address":"東京都板橋区大谷口1丁目54-1","lat":35.74187304,"lon":139.68991765},{"name":"都立赤塚公園","province":"東京都","city":"板橋区","address":"東京都板橋区高島平3丁目1","lat":35.78522804,"lon":139.65529951},{"name":"区立西徳第二公園","province":"東京都","city":"板橋区","address":"東京都板橋区西台3丁目42-1","lat":35.77615447,"lon":139.66783758},{"name":"大谷口給水所","province":"東京都","city":"板橋区","address":"東京都板橋区大谷口1丁目4","lat":35.74552822,"lon":139.69106185},{"name":"板橋トラックターミナル","province":"東京都","city":"板橋区","address":"東京都板橋区高島平6丁目1-1","lat":35.79228232,"lon":139.64660566},{"name":"１６板橋清掃工場","province":"東京都","city":"板橋区","address":"東京都板橋区高島平9丁目48-1","lat":35.79180785,"lon":139.66670672},{"name":"日大病院入口","province":"東京都","city":"板橋区","address":"東京都板橋区大山町57","lat":35.74984733,"lon":139.69578072},{"name":"大和町","province":"東京都","city":"板橋区","address":"東京都板橋区本町37-7","lat":35.76090186,"lon":139.70603215},{"name":"常盤台入口","province":"東京都","city":"板橋区","address":"東京都板橋区東山町50-10","lat":35.75582684,"lon":139.68663949},{"name":"板橋区民館入口","province":"東京都","city":"板橋区","address":"東京都板橋区大山東町31-1","lat":35.74961435,"lon":139.70811579},{"name":"板橋本町","province":"東京都","city":"板橋区","address":"東京都板橋区本町40-9","lat":35.7585466,"lon":139.7069544},{"name":"板橋駅前","province":"東京都","city":"板橋区","address":"東京都板橋区板橋1丁目44-6","lat":35.74867302,"lon":139.71760115},{"name":"板橋区役所前","province":"東京都","city":"板橋区","address":"東京都板橋区板橋2丁目66-1","lat":35.75091701,"lon":139.70919342},{"name":"板橋区役所駅前","province":"東京都","city":"板橋区","address":"東京都板橋区板橋2丁目66-16","lat":35.75148917,"lon":139.70964614},{"name":"岩の坂上","province":"東京都","city":"板橋区","address":"東京都板橋区本町35-13","lat":35.76130738,"lon":139.70665153},{"name":"大山駅入口","province":"東京都","city":"板橋区","address":"東京都板橋区大山金井町54-15","lat":35.74533967,"lon":139.70188039},{"name":"板橋中央陸橋下","province":"東京都","city":"板橋区","address":"東京都板橋区東山町48-4","lat":35.75524085,"lon":139.68766167},{"name":"武蔵野病院前","province":"東京都","city":"板橋区","address":"東京都板橋区小茂根4丁目10-1","lat":35.74608599,"lon":139.67504929},{"name":"南常盤台一丁目","province":"東京都","city":"板橋区","address":"東京都板橋区南常盤台1丁目18","lat":35.75685457,"lon":139.68869762},{"name":"加賀交番前","province":"東京都","city":"板橋区","address":"東京都板橋区加賀1丁目10-5","lat":35.7538085,"lon":139.71563721},{"name":"常盤台小学校前","province":"東京都","city":"板橋区","address":"東京都板橋区常盤台1丁目6-1","lat":35.75952655,"lon":139.69117507},{"name":"新板橋駅前","province":"東京都","city":"板橋区","address":"東京都板橋区板橋1丁目52-6","lat":35.74863141,"lon":139.71976208},{"name":"仲宿三差路","province":"東京都","city":"板橋区","address":"東京都板橋区板橋2丁目68-5","lat":35.75182801,"lon":139.70891008},{"name":"常盤台駅前中央通り","province":"東京都","city":"板橋区","address":"東京都板橋区常盤台1丁目10-8","lat":35.76124851,"lon":139.69019172},{"name":"南常盤台一丁目第二","province":"東京都","city":"板橋区","address":"東京都板橋区南常盤台1丁目35-2","lat":35.75699342,"lon":139.68795322},{"name":"板橋第一中前","province":"東京都","city":"板橋区","address":"東京都板橋区栄町35-1","lat":35.75211676,"lon":139.70474376},{"name":"板橋天祖神社前","province":"東京都","city":"板橋区","address":"東京都板橋区南常盤台1丁目32","lat":35.75800994,"lon":139.68779485},{"name":"常盤台駅北","province":"東京都","city":"板橋区","address":"東京都板橋区常盤台2丁目14-1","lat":35.76038471,"lon":139.68967236},{"name":"環七板橋本町","province":"東京都","city":"板橋区","address":"東京都板橋区本町11-2","lat":35.76257953,"lon":139.70947902},{"name":"めぐみ幼稚園前","province":"東京都","city":"板橋区","address":"東京都板橋区常盤台2丁目3-1","lat":35.75981526,"lon":139.68738645},{"name":"板橋大山公園前","province":"東京都","city":"板橋区","address":"東京都板橋区栄町36-1","lat":35.75082525,"lon":139.70499935},{"name":"蓮沼町","province":"東京都","city":"板橋区","address":"東京都板橋区泉町7-7","lat":35.76863411,"lon":139.70194327},{"name":"志村坂上","province":"東京都","city":"板橋区","address":"東京都板橋区志村2丁目3-1","lat":35.77656347,"lon":139.69438248},{"name":"前野町二丁目","province":"東京都","city":"板橋区","address":"東京都板橋区前野町2丁目13-4","lat":35.76358709,"lon":139.68902782},{"name":"蓮根三丁目","province":"東京都","city":"板橋区","address":"東京都板橋区坂下3丁目10-6","lat":35.78559254,"lon":139.6796473},{"name":"志村三丁目","province":"東京都","city":"板橋区","address":"東京都板橋区坂下1丁目7-1","lat":35.77891576,"lon":139.68546089},{"name":"小豆沢公園前","province":"東京都","city":"板橋区","address":"東京都板橋区小豆沢3丁目1","lat":35.77861607,"lon":139.69794601},{"name":"坂下一丁目都営住宅前","province":"東京都","city":"板橋区","address":"東京都板橋区坂下1丁目11-3","lat":35.7787185,"lon":139.68319998},{"name":"前野町二丁目東","province":"東京都","city":"板橋区","address":"東京都板橋区常盤台2丁目27-10","lat":35.76318995,"lon":139.69005554},{"name":"ナショナルトレーニングセンター前","province":"東京都","city":"板橋区","address":"東京都板橋区清水町60-11","lat":35.76596516,"lon":139.70760404},{"name":"小豆沢三丁目東","province":"東京都","city":"板橋区","address":"東京都板橋区小豆沢3丁目9-5","lat":35.78011301,"lon":139.6944379},{"name":"成増","province":"東京都","city":"板橋区","address":"東京都板橋区成増2丁目21-6","lat":35.7780173,"lon":139.62992967},{"name":"成増駅前","province":"東京都","city":"板橋区","address":"東京都板橋区成増2丁目16-1","lat":35.77645087,"lon":139.63214065},{"name":"西台駅南","province":"東京都","city":"板橋区","address":"東京都板橋区蓮根3丁目8-12","lat":35.78591733,"lon":139.67492551},{"name":"高島平三丁目","province":"東京都","city":"板橋区","address":"東京都板橋区高島平7丁目1-1","lat":35.79046608,"lon":139.65332458},{"name":"高島平二丁目","province":"東京都","city":"板橋区","address":"東京都板橋区高島平8丁目2-1","lat":35.7888276,"lon":139.66119894},{"name":"新河岸一丁目","province":"東京都","city":"板橋区","address":"東京都板橋区新河岸2丁目1-31","lat":35.79441288,"lon":139.66290424},{"name":"高島平八丁目東","province":"東京都","city":"板橋区","address":"東京都板橋区高島平8丁目11","lat":35.78961364,"lon":139.66311541},{"name":"高島平警察署前","province":"東京都","city":"板橋区","address":"東京都板橋区高島平2丁目33-6","lat":35.78590855,"lon":139.65968524},{"name":"高島平出張所前","province":"東京都","city":"板橋区","address":"東京都板橋区高島平3丁目13","lat":35.78795544,"lon":139.65866029},{"name":"西台駅前ガード下","province":"東京都","city":"板橋区","address":"東京都板橋区蓮根3丁目9-7","lat":35.78688387,"lon":139.67475327},{"name":"高島一の橋","province":"東京都","city":"板橋区","address":"東京都板橋区高島平9丁目23-1","lat":35.79038028,"lon":139.66622624},{"name":"板橋清掃工場入口","province":"東京都","city":"板橋区","address":"東京都板橋区高島平9丁目14","lat":35.78940268,"lon":139.66686785},{"name":"大東文化大学前","province":"東京都","city":"板橋区","address":"東京都板橋区高島平1丁目5-8","lat":35.78142053,"lon":139.66988722},{"name":"赤塚六丁目","province":"東京都","city":"板橋区","address":"東京都板橋区赤塚6丁目7-1","lat":35.77625681,"lon":139.64687551},{"name":"高島平九丁目第三","province":"東京都","city":"板橋区","address":"東京都板橋区高島平9丁目2","lat":35.78940003,"lon":139.67136466},{"name":"大東文化大学正門前","province":"東京都","city":"板橋区","address":"東京都板橋区西台2丁目42","lat":35.78094001,"lon":139.66864846},{"name":"高島平駅前","province":"東京都","city":"板橋区","address":"東京都板橋区高島平8丁目2","lat":35.78876373,"lon":139.6614767},{"name":"赤塚新町郵便局前","province":"東京都","city":"板橋区","address":"東京都板橋区赤塚新町1丁目25-10","lat":35.77062128,"lon":139.64333992},{"name":"高島平駅北","province":"東京都","city":"板橋区","address":"東京都板橋区高島平8丁目18","lat":35.79037459,"lon":139.66179608},{"name":"高島平駅西口","province":"東京都","city":"板橋区","address":"東京都板橋区高島平7丁目2","lat":35.78959132,"lon":139.65997682},{"name":"三園浄水場","province":"東京都","city":"板橋区","address":"東京都板橋区三園2丁目10-1","lat":35.7948317,"lon":139.64197828},{"name":"区立城北公園","province":"東京都","city":"板橋区","address":"東京都板橋区坂下2丁目19-1","lat":35.78357064,"lon":139.68153885},{"name":"都立板橋高等学校","province":"東京都","city":"板橋区","address":"東京都板橋区大谷口1丁目54-1","lat":35.74187304,"lon":139.68991765},{"name":"都立赤塚公園","province":"東京都","city":"板橋区","address":"東京都板橋区高島平3丁目1","lat":35.78522804,"lon":139.65529951},{"name":"区立西徳第二公園","province":"東京都","city":"板橋区","address":"東京都板橋区西台3丁目42-1","lat":35.77615447,"lon":139.66783758},{"name":"大谷口給水所","province":"東京都","city":"板橋区","address":"東京都板橋区大谷口1丁目4","lat":35.74552822,"lon":139.69106185},{"name":"板橋トラックターミナル","province":"東京都","city":"板橋区","address":"東京都板橋区高島平6丁目1-1","lat":35.79228232,"lon":139.64660566},{"name":"１６板橋清掃工場","province":"東京都","city":"板橋区","address":"東京都板橋区高島平9丁目48-1","lat":35.79180785,"lon":139.66670672},{"name":"日大病院入口","province":"東京都","city":"板橋区","address":"東京都板橋区大山町57","lat":35.74984733,"lon":139.69578072},{"name":"大和町","province":"東京都","city":"板橋区","address":"東京都板橋区本町37-7","lat":35.76090186,"lon":139.70603215},{"name":"常盤台入口","province":"東京都","city":"板橋区","address":"東京都板橋区東山町50-10","lat":35.75582684,"lon":139.68663949},{"name":"板橋区民館入口","province":"東京都","city":"板橋区","address":"東京都板橋区大山東町31-1","lat":35.74961435,"lon":139.70811579},{"name":"板橋本町","province":"東京都","city":"板橋区","address":"東京都板橋区本町40-9","lat":35.7585466,"lon":139.7069544},{"name":"板橋駅前","province":"東京都","city":"板橋区","address":"東京都板橋区板橋1丁目44-6","lat":35.74867302,"lon":139.71760115},{"name":"板橋区役所前","province":"東京都","city":"板橋区","address":"東京都板橋区板橋2丁目66-1","lat":35.75091701,"lon":139.70919342},{"name":"板橋区役所駅前","province":"東京都","city":"板橋区","address":"東京都板橋区板橋2丁目66-16","lat":35.75148917,"lon":139.70964614},{"name":"岩の坂上","province":"東京都","city":"板橋区","address":"東京都板橋区本町35-13","lat":35.76130738,"lon":139.70665153},{"name":"大山駅入口","province":"東京都","city":"板橋区","address":"東京都板橋区大山金井町54-15","lat":35.74533967,"lon":139.70188039},{"name":"板橋中央陸橋下","province":"東京都","city":"板橋区","address":"東京都板橋区東山町48-4","lat":35.75524085,"lon":139.68766167},{"name":"武蔵野病院前","province":"東京都","city":"板橋区","address":"東京都板橋区小茂根4丁目10-1","lat":35.74608599,"lon":139.67504929},{"name":"南常盤台一丁目","province":"東京都","city":"板橋区","address":"東京都板橋区南常盤台1丁目18","lat":35.75685457,"lon":139.68869762},{"name":"加賀交番前","province":"東京都","city":"板橋区","address":"東京都板橋区加賀1丁目10-5","lat":35.7538085,"lon":139.71563721},{"name":"常盤台小学校前","province":"東京都","city":"板橋区","address":"東京都板橋区常盤台1丁目6-1","lat":35.75952655,"lon":139.69117507},{"name":"新板橋駅前","province":"東京都","city":"板橋区","address":"東京都板橋区板橋1丁目52-6","lat":35.74863141,"lon":139.71976208},{"name":"仲宿三差路","province":"東京都","city":"板橋区","address":"東京都板橋区板橋2丁目68-5","lat":35.75182801,"lon":139.70891008},{"name":"常盤台駅前中央通り","province":"東京都","city":"板橋区","address":"東京都板橋区常盤台1丁目10-8","lat":35.76124851,"lon":139.69019172},{"name":"南常盤台一丁目第二","province":"東京都","city":"板橋区","address":"東京都板橋区南常盤台1丁目35-2","lat":35.75699342,"lon":139.68795322},{"name":"板橋第一中前","province":"東京都","city":"板橋区","address":"東京都板橋区栄町35-1","lat":35.75211676,"lon":139.70474376},{"name":"板橋天祖神社前","province":"東京都","city":"板橋区","address":"東京都板橋区南常盤台1丁目32","lat":35.75800994,"lon":139.68779485},{"name":"常盤台駅北","province":"東京都","city":"板橋区","address":"東京都板橋区常盤台2丁目14-1","lat":35.76038471,"lon":139.68967236},{"name":"環七板橋本町","province":"東京都","city":"板橋区","address":"東京都板橋区本町11-2","lat":35.76257953,"lon":139.70947902},{"name":"めぐみ幼稚園前","province":"東京都","city":"板橋区","address":"東京都板橋区常盤台2丁目3-1","lat":35.75981526,"lon":139.68738645},{"name":"板橋大山公園前","province":"東京都","city":"板橋区","address":"東京都板橋区栄町36-1","lat":35.75082525,"lon":139.70499935},{"name":"蓮沼町","province":"東京都","city":"板橋区","address":"東京都板橋区泉町7-7","lat":35.76863411,"lon":139.70194327},{"name":"志村坂上","province":"東京都","city":"板橋区","address":"東京都板橋区志村2丁目3-1","lat":35.77656347,"lon":139.69438248},{"name":"前野町二丁目","province":"東京都","city":"板橋区","address":"東京都板橋区前野町2丁目13-4","lat":35.76358709,"lon":139.68902782},{"name":"蓮根三丁目","province":"東京都","city":"板橋区","address":"東京都板橋区坂下3丁目10-6","lat":35.78559254,"lon":139.6796473},{"name":"志村三丁目","province":"東京都","city":"板橋区","address":"東京都板橋区坂下1丁目7-1","lat":35.77891576,"lon":139.68546089},{"name":"小豆沢公園前","province":"東京都","city":"板橋区","address":"東京都板橋区小豆沢3丁目1","lat":35.77861607,"lon":139.69794601},{"name":"坂下一丁目都営住宅前","province":"東京都","city":"板橋区","address":"東京都板橋区坂下1丁目11-3","lat":35.7787185,"lon":139.68319998},{"name":"前野町二丁目東","province":"東京都","city":"板橋区","address":"東京都板橋区常盤台2丁目27-10","lat":35.76318995,"lon":139.69005554},{"name":"ナショナルトレーニングセンター前","province":"東京都","city":"板橋区","address":"東京都板橋区清水町60-11","lat":35.76596516,"lon":139.70760404},{"name":"小豆沢三丁目東","province":"東京都","city":"板橋区","address":"東京都板橋区小豆沢3丁目9-5","lat":35.78011301,"lon":139.6944379},{"name":"成増","province":"東京都","city":"板橋区","address":"東京都板橋区成増2丁目21-6","lat":35.7780173,"lon":139.62992967},{"name":"成増駅前","province":"東京都","city":"板橋区","address":"東京都板橋区成増2丁目16-1","lat":35.77645087,"lon":139.63214065},{"name":"西台駅南","province":"東京都","city":"板橋区","address":"東京都板橋区蓮根3丁目8-12","lat":35.78591733,"lon":139.67492551},{"name":"高島平三丁目","province":"東京都","city":"板橋区","address":"東京都板橋区高島平7丁目1-1","lat":35.79046608,"lon":139.65332458},{"name":"高島平二丁目","province":"東京都","city":"板橋区","address":"東京都板橋区高島平8丁目2-1","lat":35.7888276,"lon":139.66119894},{"name":"新河岸一丁目","province":"東京都","city":"板橋区","address":"東京都板橋区新河岸2丁目1-31","lat":35.79441288,"lon":139.66290424},{"name":"高島平八丁目東","province":"東京都","city":"板橋区","address":"東京都板橋区高島平8丁目11","lat":35.78961364,"lon":139.66311541},{"name":"高島平警察署前","province":"東京都","city":"板橋区","address":"東京都板橋区高島平2丁目33-6","lat":35.78590855,"lon":139.65968524},{"name":"高島平出張所前","province":"東京都","city":"板橋区","address":"東京都板橋区高島平3丁目13","lat":35.78795544,"lon":139.65866029},{"name":"西台駅前ガード下","province":"東京都","city":"板橋区","address":"東京都板橋区蓮根3丁目9-7","lat":35.78688387,"lon":139.67475327},{"name":"高島一の橋","province":"東京都","city":"板橋区","address":"東京都板橋区高島平9丁目23-1","lat":35.79038028,"lon":139.66622624},{"name":"板橋清掃工場入口","province":"東京都","city":"板橋区","address":"東京都板橋区高島平9丁目14","lat":35.78940268,"lon":139.66686785},{"name":"大東文化大学前","province":"東京都","city":"板橋区","address":"東京都板橋区高島平1丁目5-8","lat":35.78142053,"lon":139.66988722},{"name":"赤塚六丁目","province":"東京都","city":"板橋区","address":"東京都板橋区赤塚6丁目7-1","lat":35.77625681,"lon":139.64687551},{"name":"高島平九丁目第三","province":"東京都","city":"板橋区","address":"東京都板橋区高島平9丁目2","lat":35.78940003,"lon":139.67136466},{"name":"大東文化大学正門前","province":"東京都","city":"板橋区","address":"東京都板橋区西台2丁目42","lat":35.78094001,"lon":139.66864846},{"name":"高島平駅前","province":"東京都","city":"板橋区","address":"東京都板橋区高島平8丁目2","lat":35.78876373,"lon":139.6614767},{"name":"赤塚新町郵便局前","province":"東京都","city":"板橋区","address":"東京都板橋区赤塚新町1丁目25-10","lat":35.77062128,"lon":139.64333992},{"name":"高島平駅北","province":"東京都","city":"板橋区","address":"東京都板橋区高島平8丁目18","lat":35.79037459,"lon":139.66179608},{"name":"高島平駅西口","province":"東京都","city":"板橋区","address":"東京都板橋区高島平7丁目2","lat":35.78959132,"lon":139.65997682},{"name":"三園浄水場","province":"東京都","city":"板橋区","address":"東京都板橋区三園2丁目10-1","lat":35.7948317,"lon":139.64197828},{"name":"区立城北公園","province":"東京都","city":"板橋区","address":"東京都板橋区坂下2丁目19-1","lat":35.78357064,"lon":139.68153885},{"name":"都立板橋高等学校","province":"東京都","city":"板橋区","address":"東京都板橋区大谷口1丁目54-1","lat":35.74187304,"lon":139.68991765},{"name":"都立赤塚公園","province":"東京都","city":"板橋区","address":"東京都板橋区高島平3丁目1","lat":35.78522804,"lon":139.65529951},{"name":"区立西徳第二公園","province":"東京都","city":"板橋区","address":"東京都板橋区西台3丁目42-1","lat":35.77615447,"lon":139.66783758},{"name":"大谷口給水所","province":"東京都","city":"板橋区","address":"東京都板橋区大谷口1丁目4","lat":35.74552822,"lon":139.69106185},{"name":"板橋トラックターミナル","province":"東京都","city":"板橋区","address":"東京都板橋区高島平6丁目1-1","lat":35.79228232,"lon":139.64660566},{"name":"１６板橋清掃工場","province":"東京都","city":"板橋区","address":"東京都板橋区高島平9丁目48-1","lat":35.79180785,"lon":139.66670672},{"name":"日大病院入口","province":"東京都","city":"板橋区","address":"東京都板橋区大山町57","lat":35.74984733,"lon":139.69578072},{"name":"大和町","province":"東京都","city":"板橋区","address":"東京都板橋区本町37-7","lat":35.76090186,"lon":139.70603215},{"name":"常盤台入口","province":"東京都","city":"板橋区","address":"東京都板橋区東山町50-10","lat":35.75582684,"lon":139.68663949},{"name":"板橋区民館入口","province":"東京都","city":"板橋区","address":"東京都板橋区大山東町31-1","lat":35.74961435,"lon":139.70811579},{"name":"板橋本町","province":"東京都","city":"板橋区","address":"東京都板橋区本町40-9","lat":35.7585466,"lon":139.7069544},{"name":"板橋駅前","province":"東京都","city":"板橋区","address":"東京都板橋区板橋1丁目44-6","lat":35.74867302,"lon":139.71760115},{"name":"板橋区役所前","province":"東京都","city":"板橋区","address":"東京都板橋区板橋2丁目66-1","lat":35.75091701,"lon":139.70919342},{"name":"板橋区役所駅前","province":"東京都","city":"板橋区","address":"東京都板橋区板橋2丁目66-16","lat":35.75148917,"lon":139.70964614},{"name":"岩の坂上","province":"東京都","city":"板橋区","address":"東京都板橋区本町35-13","lat":35.76130738,"lon":139.70665153},{"name":"大山駅入口","province":"東京都","city":"板橋区","address":"東京都板橋区大山金井町54-15","lat":35.74533967,"lon":139.70188039},{"name":"板橋中央陸橋下","province":"東京都","city":"板橋区","address":"東京都板橋区東山町48-4","lat":35.75524085,"lon":139.68766167},{"name":"武蔵野病院前","province":"東京都","city":"板橋区","address":"東京都板橋区小茂根4丁目10-1","lat":35.74608599,"lon":139.67504929},{"name":"南常盤台一丁目","province":"東京都","city":"板橋区","address":"東京都板橋区南常盤台1丁目18","lat":35.75685457,"lon":139.68869762},{"name":"加賀交番前","province":"東京都","city":"板橋区","address":"東京都板橋区加賀1丁目10-5","lat":35.7538085,"lon":139.71563721},{"name":"常盤台小学校前","province":"東京都","city":"板橋区","address":"東京都板橋区常盤台1丁目6-1","lat":35.75952655,"lon":139.69117507},{"name":"新板橋駅前","province":"東京都","city":"板橋区","address":"東京都板橋区板橋1丁目52-6","lat":35.74863141,"lon":139.71976208},{"name":"仲宿三差路","province":"東京都","city":"板橋区","address":"東京都板橋区板橋2丁目68-5","lat":35.75182801,"lon":139.70891008},{"name":"常盤台駅前中央通り","province":"東京都","city":"板橋区","address":"東京都板橋区常盤台1丁目10-8","lat":35.76124851,"lon":139.69019172},{"name":"南常盤台一丁目第二","province":"東京都","city":"板橋区","address":"東京都板橋区南常盤台1丁目35-2","lat":35.75699342,"lon":139.68795322},{"name":"板橋第一中前","province":"東京都","city":"板橋区","address":"東京都板橋区栄町35-1","lat":35.75211676,"lon":139.70474376},{"name":"板橋天祖神社前","province":"東京都","city":"板橋区","address":"東京都板橋区南常盤台1丁目32","lat":35.75800994,"lon":139.68779485},{"name":"常盤台駅北","province":"東京都","city":"板橋区","address":"東京都板橋区常盤台2丁目14-1","lat":35.76038471,"lon":139.68967236},{"name":"環七板橋本町","province":"東京都","city":"板橋区","address":"東京都板橋区本町11-2","lat":35.76257953,"lon":139.70947902},{"name":"めぐみ幼稚園前","province":"東京都","city":"板橋区","address":"東京都板橋区常盤台2丁目3-1","lat":35.75981526,"lon":139.68738645},{"name":"板橋大山公園前","province":"東京都","city":"板橋区","address":"東京都板橋区栄町36-1","lat":35.75082525,"lon":139.70499935},{"name":"蓮沼町","province":"東京都","city":"板橋区","address":"東京都板橋区泉町7-7","lat":35.76863411,"lon":139.70194327},{"name":"志村坂上","province":"東京都","city":"板橋区","address":"東京都板橋区志村2丁目3-1","lat":35.77656347,"lon":139.69438248},{"name":"前野町二丁目","province":"東京都","city":"板橋区","address":"東京都板橋区前野町2丁目13-4","lat":35.76358709,"lon":139.68902782},{"name":"蓮根三丁目","province":"東京都","city":"板橋区","address":"東京都板橋区坂下3丁目10-6","lat":35.78559254,"lon":139.6796473},{"name":"志村三丁目","province":"東京都","city":"板橋区","address":"東京都板橋区坂下1丁目7-1","lat":35.77891576,"lon":139.68546089},{"name":"小豆沢公園前","province":"東京都","city":"板橋区","address":"東京都板橋区小豆沢3丁目1","lat":35.77861607,"lon":139.69794601},{"name":"坂下一丁目都営住宅前","province":"東京都","city":"板橋区","address":"東京都板橋区坂下1丁目11-3","lat":35.7787185,"lon":139.68319998},{"name":"前野町二丁目東","province":"東京都","city":"板橋区","address":"東京都板橋区常盤台2丁目27-10","lat":35.76318995,"lon":139.69005554},{"name":"ナショナルトレーニングセンター前","province":"東京都","city":"板橋区","address":"東京都板橋区清水町60-11","lat":35.76596516,"lon":139.70760404},{"name":"小豆沢三丁目東","province":"東京都","city":"板橋区","address":"東京都板橋区小豆沢3丁目9-5","lat":35.78011301,"lon":139.6944379},{"name":"成増","province":"東京都","city":"板橋区","address":"東京都板橋区成増2丁目21-6","lat":35.7780173,"lon":139.62992967},{"name":"成増駅前","province":"東京都","city":"板橋区","address":"東京都板橋区成増2丁目16-1","lat":35.77645087,"lon":139.63214065},{"name":"西台駅南","province":"東京都","city":"板橋区","address":"東京都板橋区蓮根3丁目8-12","lat":35.78591733,"lon":139.67492551},{"name":"高島平三丁目","province":"東京都","city":"板橋区","address":"東京都板橋区高島平7丁目1-1","lat":35.79046608,"lon":139.65332458},{"name":"高島平二丁目","province":"東京都","city":"板橋区","address":"東京都板橋区高島平8丁目2-1","lat":35.7888276,"lon":139.66119894},{"name":"新河岸一丁目","province":"東京都","city":"板橋区","address":"東京都板橋区新河岸2丁目1-31","lat":35.79441288,"lon":139.66290424},{"name":"高島平八丁目東","province":"東京都","city":"板橋区","address":"東京都板橋区高島平8丁目11","lat":35.78961364,"lon":139.66311541},{"name":"高島平警察署前","province":"東京都","city":"板橋区","address":"東京都板橋区高島平2丁目33-6","lat":35.78590855,"lon":139.65968524},{"name":"高島平出張所前","province":"東京都","city":"板橋区","address":"東京都板橋区高島平3丁目13","lat":35.78795544,"lon":139.65866029},{"name":"西台駅前ガード下","province":"東京都","city":"板橋区","address":"東京都板橋区蓮根3丁目9-7","lat":35.78688387,"lon":139.67475327},{"name":"高島一の橋","province":"東京都","city":"板橋区","address":"東京都板橋区高島平9丁目23-1","lat":35.79038028,"lon":139.66622624},{"name":"板橋清掃工場入口","province":"東京都","city":"板橋区","address":"東京都板橋区高島平9丁目14","lat":35.78940268,"lon":139.66686785},{"name":"大東文化大学前","province":"東京都","city":"板橋区","address":"東京都板橋区高島平1丁目5-8","lat":35.78142053,"lon":139.66988722},{"name":"赤塚六丁目","province":"東京都","city":"板橋区","address":"東京都板橋区赤塚6丁目7-1","lat":35.77625681,"lon":139.64687551},{"name":"高島平九丁目第三","province":"東京都","city":"板橋区","address":"東京都板橋区高島平9丁目2","lat":35.78940003,"lon":139.67136466},{"name":"大東文化大学正門前","province":"東京都","city":"板橋区","address":"東京都板橋区西台2丁目42","lat":35.78094001,"lon":139.66864846},{"name":"高島平駅前","province":"東京都","city":"板橋区","address":"東京都板橋区高島平8丁目2","lat":35.78876373,"lon":139.6614767},{"name":"赤塚新町郵便局前","province":"東京都","city":"板橋区","address":"東京都板橋区赤塚新町1丁目25-10","lat":35.77062128,"lon":139.64333992},{"name":"高島平駅北","province":"東京都","city":"板橋区","address":"東京都板橋区高島平8丁目18","lat":35.79037459,"lon":139.66179608},{"name":"高島平駅西口","province":"東京都","city":"板橋区","address":"東京都板橋区高島平7丁目2","lat":35.78959132,"lon":139.65997682},{"name":"三園浄水場","province":"東京都","city":"板橋区","address":"東京都板橋区三園2丁目10-1","lat":35.7948317,"lon":139.64197828},{"name":"区立城北公園","province":"東京都","city":"板橋区","address":"東京都板橋区坂下2丁目19-1","lat":35.78357064,"lon":139.68153885},{"name":"都立板橋高等学校","province":"東京都","city":"板橋区","address":"東京都板橋区大谷口1丁目54-1","lat":35.74187304,"lon":139.68991765},{"name":"都立赤塚公園","province":"東京都","city":"板橋区","address":"東京都板橋区高島平3丁目1","lat":35.78522804,"lon":139.65529951},{"name":"区立西徳第二公園","province":"東京都","city":"板橋区","address":"東京都板橋区西台3丁目42-1","lat":35.77615447,"lon":139.66783758},{"name":"大谷口給水所","province":"東京都","city":"板橋区","address":"東京都板橋区大谷口1丁目4","lat":35.74552822,"lon":139.69106185},{"name":"板橋トラックターミナル","province":"東京都","city":"板橋区","address":"東京都板橋区高島平6丁目1-1","lat":35.79228232,"lon":139.64660566},{"name":"１６板橋清掃工場","province":"東京都","city":"板橋区","address":"東京都板橋区高島平9丁目48-1","lat":35.79180785,"lon":139.66670672},{"name":"日大病院入口","province":"東京都","city":"板橋区","address":"東京都板橋区大山町57","lat":35.74984733,"lon":139.69578072},{"name":"大和町","province":"東京都","city":"板橋区","address":"東京都板橋区本町37-7","lat":35.76090186,"lon":139.70603215},{"name":"常盤台入口","province":"東京都","city":"板橋区","address":"東京都板橋区東山町50-10","lat":35.75582684,"lon":139.68663949},{"name":"板橋区民館入口","province":"東京都","city":"板橋区","address":"東京都板橋区大山東町31-1","lat":35.74961435,"lon":139.70811579},{"name":"板橋本町","province":"東京都","city":"板橋区","address":"東京都板橋区本町40-9","lat":35.7585466,"lon":139.7069544},{"name":"板橋駅前","province":"東京都","city":"板橋区","address":"東京都板橋区板橋1丁目44-6","lat":35.74867302,"lon":139.71760115},{"name":"板橋区役所前","province":"東京都","city":"板橋区","address":"東京都板橋区板橋2丁目66-1","lat":35.75091701,"lon":139.70919342},{"name":"板橋区役所駅前","province":"東京都","city":"板橋区","address":"東京都板橋区板橋2丁目66-16","lat":35.75148917,"lon":139.70964614},{"name":"岩の坂上","province":"東京都","city":"板橋区","address":"東京都板橋区本町35-13","lat":35.76130738,"lon":139.70665153},{"name":"大山駅入口","province":"東京都","city":"板橋区","address":"東京都板橋区大山金井町54-15","lat":35.74533967,"lon":139.70188039},{"name":"板橋中央陸橋下","province":"東京都","city":"板橋区","address":"東京都板橋区東山町48-4","lat":35.75524085,"lon":139.68766167},{"name":"武蔵野病院前","province":"東京都","city":"板橋区","address":"東京都板橋区小茂根4丁目10-1","lat":35.74608599,"lon":139.67504929},{"name":"南常盤台一丁目","province":"東京都","city":"板橋区","address":"東京都板橋区南常盤台1丁目18","lat":35.75685457,"lon":139.68869762},{"name":"加賀交番前","province":"東京都","city":"板橋区","address":"東京都板橋区加賀1丁目10-5","lat":35.7538085,"lon":139.71563721},{"name":"常盤台小学校前","province":"東京都","city":"板橋区","address":"東京都板橋区常盤台1丁目6-1","lat":35.75952655,"lon":139.69117507},{"name":"新板橋駅前","province":"東京都","city":"板橋区","address":"東京都板橋区板橋1丁目52-6","lat":35.74863141,"lon":139.71976208},{"name":"仲宿三差路","province":"東京都","city":"板橋区","address":"東京都板橋区板橋2丁目68-5","lat":35.75182801,"lon":139.70891008},{"name":"常盤台駅前中央通り","province":"東京都","city":"板橋区","address":"東京都板橋区常盤台1丁目10-8","lat":35.76124851,"lon":139.69019172},{"name":"南常盤台一丁目第二","province":"東京都","city":"板橋区","address":"東京都板橋区南常盤台1丁目35-2","lat":35.75699342,"lon":139.68795322},{"name":"板橋第一中前","province":"東京都","city":"板橋区","address":"東京都板橋区栄町35-1","lat":35.75211676,"lon":139.70474376},{"name":"板橋天祖神社前","province":"東京都","city":"板橋区","address":"東京都板橋区南常盤台1丁目32","lat":35.75800994,"lon":139.68779485},{"name":"常盤台駅北","province":"東京都","city":"板橋区","address":"東京都板橋区常盤台2丁目14-1","lat":35.76038471,"lon":139.68967236},{"name":"環七板橋本町","province":"東京都","city":"板橋区","address":"東京都板橋区本町11-2","lat":35.76257953,"lon":139.70947902},{"name":"めぐみ幼稚園前","province":"東京都","city":"板橋区","address":"東京都板橋区常盤台2丁目3-1","lat":35.75981526,"lon":139.68738645},{"name":"板橋大山公園前","province":"東京都","city":"板橋区","address":"東京都板橋区栄町36-1","lat":35.75082525,"lon":139.70499935},{"name":"蓮沼町","province":"東京都","city":"板橋区","address":"東京都板橋区泉町7-7","lat":35.76863411,"lon":139.70194327},{"name":"志村坂上","province":"東京都","city":"板橋区","address":"東京都板橋区志村2丁目3-1","lat":35.77656347,"lon":139.69438248},{"name":"前野町二丁目","province":"東京都","city":"板橋区","address":"東京都板橋区前野町2丁目13-4","lat":35.76358709,"lon":139.68902782},{"name":"蓮根三丁目","province":"東京都","city":"板橋区","address":"東京都板橋区坂下3丁目10-6","lat":35.78559254,"lon":139.6796473},{"name":"志村三丁目","province":"東京都","city":"板橋区","address":"東京都板橋区坂下1丁目7-1","lat":35.77891576,"lon":139.68546089},{"name":"小豆沢公園前","province":"東京都","city":"板橋区","address":"東京都板橋区小豆沢3丁目1","lat":35.77861607,"lon":139.69794601},{"name":"坂下一丁目都営住宅前","province":"東京都","city":"板橋区","address":"東京都板橋区坂下1丁目11-3","lat":35.7787185,"lon":139.68319998},{"name":"前野町二丁目東","province":"東京都","city":"板橋区","address":"東京都板橋区常盤台2丁目27-10","lat":35.76318995,"lon":139.69005554},{"name":"ナショナルトレーニングセンター前","province":"東京都","city":"板橋区","address":"東京都板橋区清水町60-11","lat":35.76596516,"lon":139.70760404},{"name":"小豆沢三丁目東","province":"東京都","city":"板橋区","address":"東京都板橋区小豆沢3丁目9-5","lat":35.78011301,"lon":139.6944379},{"name":"成増","province":"東京都","city":"板橋区","address":"東京都板橋区成増2丁目21-6","lat":35.7780173,"lon":139.62992967},{"name":"成増駅前","province":"東京都","city":"板橋区","address":"東京都板橋区成増2丁目16-1","lat":35.77645087,"lon":139.63214065},{"name":"西台駅南","province":"東京都","city":"板橋区","address":"東京都板橋区蓮根3丁目8-12","lat":35.78591733,"lon":139.67492551},{"name":"高島平三丁目","province":"東京都","city":"板橋区","address":"東京都板橋区高島平7丁目1-1","lat":35.79046608,"lon":139.65332458},{"name":"高島平二丁目","province":"東京都","city":"板橋区","address":"東京都板橋区高島平8丁目2-1","lat":35.7888276,"lon":139.66119894},{"name":"新河岸一丁目","province":"東京都","city":"板橋区","address":"東京都板橋区新河岸2丁目1-31","lat":35.79441288,"lon":139.66290424},{"name":"高島平八丁目東","province":"東京都","city":"板橋区","address":"東京都板橋区高島平8丁目11","lat":35.78961364,"lon":139.66311541},{"name":"高島平警察署前","province":"東京都","city":"板橋区","address":"東京都板橋区高島平2丁目33-6","lat":35.78590855,"lon":139.65968524},{"name":"高島平出張所前","province":"東京都","city":"板橋区","address":"東京都板橋区高島平3丁目13","lat":35.78795544,"lon":139.65866029},{"name":"西台駅前ガード下","province":"東京都","city":"板橋区","address":"東京都板橋区蓮根3丁目9-7","lat":35.78688387,"lon":139.67475327},{"name":"高島一の橋","province":"東京都","city":"板橋区","address":"東京都板橋区高島平9丁目23-1","lat":35.79038028,"lon":139.66622624},{"name":"板橋清掃工場入口","province":"東京都","city":"板橋区","address":"東京都板橋区高島平9丁目14","lat":35.78940268,"lon":139.66686785},{"name":"大東文化大学前","province":"東京都","city":"板橋区","address":"東京都板橋区高島平1丁目5-8","lat":35.78142053,"lon":139.66988722},{"name":"赤塚六丁目","province":"東京都","city":"板橋区","address":"東京都板橋区赤塚6丁目7-1","lat":35.77625681,"lon":139.64687551},{"name":"高島平九丁目第三","province":"東京都","city":"板橋区","address":"東京都板橋区高島平9丁目2","lat":35.78940003,"lon":139.67136466},{"name":"大東文化大学正門前","province":"東京都","city":"板橋区","address":"東京都板橋区西台2丁目42","lat":35.78094001,"lon":139.66864846},{"name":"高島平駅前","province":"東京都","city":"板橋区","address":"東京都板橋区高島平8丁目2","lat":35.78876373,"lon":139.6614767},{"name":"赤塚新町郵便局前","province":"東京都","city":"板橋区","address":"東京都板橋区赤塚新町1丁目25-10","lat":35.77062128,"lon":139.64333992},{"name":"高島平駅北","province":"東京都","city":"板橋区","address":"東京都板橋区高島平8丁目18","lat":35.79037459,"lon":139.66179608},{"name":"高島平駅西口","province":"東京都","city":"板橋区","address":"東京都板橋区高島平7丁目2","lat":35.78959132,"lon":139.65997682},{"name":"三園浄水場","province":"東京都","city":"板橋区","address":"東京都板橋区三園2丁目10-1","lat":35.7948317,"lon":139.64197828},{"name":"区立城北公園","province":"東京都","city":"板橋区","address":"東京都板橋区坂下2丁目19-1","lat":35.78357064,"lon":139.68153885},{"name":"都立板橋高等学校","province":"東京都","city":"板橋区","address":"東京都板橋区大谷口1丁目54-1","lat":35.74187304,"lon":139.68991765},{"name":"都立赤塚公園","province":"東京都","city":"板橋区","address":"東京都板橋区高島平3丁目1","lat":35.78522804,"lon":139.65529951},{"name":"区立西徳第二公園","province":"東京都","city":"板橋区","address":"東京都板橋区西台3丁目42-1","lat":35.77615447,"lon":139.66783758},{"name":"大谷口給水所","province":"東京都","city":"板橋区","address":"東京都板橋区大谷口1丁目4","lat":35.74552822,"lon":139.69106185},{"name":"板橋トラックターミナル","province":"東京都","city":"板橋区","address":"東京都板橋区高島平6丁目1-1","lat":35.79228232,"lon":139.64660566},{"name":"１６板橋清掃工場","province":"東京都","city":"板橋区","address":"東京都板橋区高島平9丁目48-1","lat":35.79180785,"lon":139.66670672},{"name":"日大病院入口","province":"東京都","city":"板橋区","address":"東京都板橋区大山町57","lat":35.74984733,"lon":139.69578072},{"name":"大和町","province":"東京都","city":"板橋区","address":"東京都板橋区本町37-7","lat":35.76090186,"lon":139.70603215},{"name":"常盤台入口","province":"東京都","city":"板橋区","address":"東京都板橋区東山町50-10","lat":35.75582684,"lon":139.68663949},{"name":"板橋区民館入口","province":"東京都","city":"板橋区","address":"東京都板橋区大山東町31-1","lat":35.74961435,"lon":139.70811579},{"name":"板橋本町","province":"東京都","city":"板橋区","address":"東京都板橋区本町40-9","lat":35.7585466,"lon":139.7069544},{"name":"板橋駅前","province":"東京都","city":"板橋区","address":"東京都板橋区板橋1丁目44-6","lat":35.74867302,"lon":139.71760115},{"name":"板橋区役所前","province":"東京都","city":"板橋区","address":"東京都板橋区板橋2丁目66-1","lat":35.75091701,"lon":139.70919342},{"name":"板橋区役所駅前","province":"東京都","city":"板橋区","address":"東京都板橋区板橋2丁目66-16","lat":35.75148917,"lon":139.70964614},{"name":"岩の坂上","province":"東京都","city":"板橋区","address":"東京都板橋区本町35-13","lat":35.76130738,"lon":139.70665153},{"name":"大山駅入口","province":"東京都","city":"板橋区","address":"東京都板橋区大山金井町54-15","lat":35.74533967,"lon":139.70188039},{"name":"板橋中央陸橋下","province":"東京都","city":"板橋区","address":"東京都板橋区東山町48-4","lat":35.75524085,"lon":139.68766167},{"name":"武蔵野病院前","province":"東京都","city":"板橋区","address":"東京都板橋区小茂根4丁目10-1","lat":35.74608599,"lon":139.67504929},{"name":"南常盤台一丁目","province":"東京都","city":"板橋区","address":"東京都板橋区南常盤台1丁目18","lat":35.75685457,"lon":139.68869762},{"name":"加賀交番前","province":"東京都","city":"板橋区","address":"東京都板橋区加賀1丁目10-5","lat":35.7538085,"lon":139.71563721},{"name":"常盤台小学校前","province":"東京都","city":"板橋区","address":"東京都板橋区常盤台1丁目6-1","lat":35.75952655,"lon":139.69117507},{"name":"新板橋駅前","province":"東京都","city":"板橋区","address":"東京都板橋区板橋1丁目52-6","lat":35.74863141,"lon":139.71976208},{"name":"仲宿三差路","province":"東京都","city":"板橋区","address":"東京都板橋区板橋2丁目68-5","lat":35.75182801,"lon":139.70891008},{"name":"常盤台駅前中央通り","province":"東京都","city":"板橋区","address":"東京都板橋区常盤台1丁目10-8","lat":35.76124851,"lon":139.69019172},{"name":"南常盤台一丁目第二","province":"東京都","city":"板橋区","address":"東京都板橋区南常盤台1丁目35-2","lat":35.75699342,"lon":139.68795322},{"name":"板橋第一中前","province":"東京都","city":"板橋区","address":"東京都板橋区栄町35-1","lat":35.75211676,"lon":139.70474376},{"name":"板橋天祖神社前","province":"東京都","city":"板橋区","address":"東京都板橋区南常盤台1丁目32","lat":35.75800994,"lon":139.68779485},{"name":"常盤台駅北","province":"東京都","city":"板橋区","address":"東京都板橋区常盤台2丁目14-1","lat":35.76038471,"lon":139.68967236},{"name":"環七板橋本町","province":"東京都","city":"板橋区","address":"東京都板橋区本町11-2","lat":35.76257953,"lon":139.70947902},{"name":"めぐみ幼稚園前","province":"東京都","city":"板橋区","address":"東京都板橋区常盤台2丁目3-1","lat":35.75981526,"lon":139.68738645},{"name":"板橋大山公園前","province":"東京都","city":"板橋区","address":"東京都板橋区栄町36-1","lat":35.75082525,"lon":139.70499935},{"name":"蓮沼町","province":"東京都","city":"板橋区","address":"東京都板橋区泉町7-7","lat":35.76863411,"lon":139.70194327},{"name":"志村坂上","province":"東京都","city":"板橋区","address":"東京都板橋区志村2丁目3-1","lat":35.77656347,"lon":139.69438248},{"name":"前野町二丁目","province":"東京都","city":"板橋区","address":"東京都板橋区前野町2丁目13-4","lat":35.76358709,"lon":139.68902782},{"name":"蓮根三丁目","province":"東京都","city":"板橋区","address":"東京都板橋区坂下3丁目10-6","lat":35.78559254,"lon":139.6796473},{"name":"志村三丁目","province":"東京都","city":"板橋区","address":"東京都板橋区坂下1丁目7-1","lat":35.77891576,"lon":139.68546089},{"name":"小豆沢公園前","province":"東京都","city":"板橋区","address":"東京都板橋区小豆沢3丁目1","lat":35.77861607,"lon":139.69794601},{"name":"坂下一丁目都営住宅前","province":"東京都","city":"板橋区","address":"東京都板橋区坂下1丁目11-3","lat":35.7787185,"lon":139.68319998},{"name":"前野町二丁目東","province":"東京都","city":"板橋区","address":"東京都板橋区常盤台2丁目27-10","lat":35.76318995,"lon":139.69005554},{"name":"ナショナルトレーニングセンター前","province":"東京都","city":"板橋区","address":"東京都板橋区清水町60-11","lat":35.76596516,"lon":139.70760404},{"name":"小豆沢三丁目東","province":"東京都","city":"板橋区","address":"東京都板橋区小豆沢3丁目9-5","lat":35.78011301,"lon":139.6944379},{"name":"成増","province":"東京都","city":"板橋区","address":"東京都板橋区成増2丁目21-6","lat":35.7780173,"lon":139.62992967},{"name":"成増駅前","province":"東京都","city":"板橋区","address":"東京都板橋区成増2丁目16-1","lat":35.77645087,"lon":139.63214065},{"name":"西台駅南","province":"東京都","city":"板橋区","address":"東京都板橋区蓮根3丁目8-12","lat":35.78591733,"lon":139.67492551},{"name":"高島平三丁目","province":"東京都","city":"板橋区","address":"東京都板橋区高島平7丁目1-1","lat":35.79046608,"lon":139.65332458},{"name":"高島平二丁目","province":"東京都","city":"板橋区","address":"東京都板橋区高島平8丁目2-1","lat":35.7888276,"lon":139.66119894},{"name":"新河岸一丁目","province":"東京都","city":"板橋区","address":"東京都板橋区新河岸2丁目1-31","lat":35.79441288,"lon":139.66290424},{"name":"高島平八丁目東","province":"東京都","city":"板橋区","address":"東京都板橋区高島平8丁目11","lat":35.78961364,"lon":139.66311541},{"name":"高島平警察署前","province":"東京都","city":"板橋区","address":"東京都板橋区高島平2丁目33-6","lat":35.78590855,"lon":139.65968524},{"name":"高島平出張所前","province":"東京都","city":"板橋区","address":"東京都板橋区高島平3丁目13","lat":35.78795544,"lon":139.65866029},{"name":"西台駅前ガード下","province":"東京都","city":"板橋区","address":"東京都板橋区蓮根3丁目9-7","lat":35.78688387,"lon":139.67475327},{"name":"高島一の橋","province":"東京都","city":"板橋区","address":"東京都板橋区高島平9丁目23-1","lat":35.79038028,"lon":139.66622624},{"name":"板橋清掃工場入口","province":"東京都","city":"板橋区","address":"東京都板橋区高島平9丁目14","lat":35.78940268,"lon":139.66686785},{"name":"大東文化大学前","province":"東京都","city":"板橋区","address":"東京都板橋区高島平1丁目5-8","lat":35.78142053,"lon":139.66988722},{"name":"赤塚六丁目","province":"東京都","city":"板橋区","address":"東京都板橋区赤塚6丁目7-1","lat":35.77625681,"lon":139.64687551},{"name":"高島平九丁目第三","province":"東京都","city":"板橋区","address":"東京都板橋区高島平9丁目2","lat":35.78940003,"lon":139.67136466},{"name":"大東文化大学正門前","province":"東京都","city":"板橋区","address":"東京都板橋区西台2丁目42","lat":35.78094001,"lon":139.66864846},{"name":"高島平駅前","province":"東京都","city":"板橋区","address":"東京都板橋区高島平8丁目2","lat":35.78876373,"lon":139.6614767},{"name":"赤塚新町郵便局前","province":"東京都","city":"板橋区","address":"東京都板橋区赤塚新町1丁目25-10","lat":35.77062128,"lon":139.64333992},{"name":"高島平駅北","province":"東京都","city":"板橋区","address":"東京都板橋区高島平8丁目18","lat":35.79037459,"lon":139.66179608},{"name":"高島平駅西口","province":"東京都","city":"板橋区","address":"東京都板橋区高島平7丁目2","lat":35.78959132,"lon":139.65997682},{"name":"三園浄水場","province":"東京都","city":"板橋区","address":"東京都板橋区三園2丁目10-1","lat":35.7948317,"lon":139.64197828},{"name":"区立城北公園","province":"東京都","city":"板橋区","address":"東京都板橋区坂下2丁目19-1","lat":35.78357064,"lon":139.68153885},{"name":"都立板橋高等学校","province":"東京都","city":"板橋区","address":"東京都板橋区大谷口1丁目54-1","lat":35.74187304,"lon":139.68991765},{"name":"都立赤塚公園","province":"東京都","city":"板橋区","address":"東京都板橋区高島平3丁目1","lat":35.78522804,"lon":139.65529951},{"name":"区立西徳第二公園","province":"東京都","city":"板橋区","address":"東京都板橋区西台3丁目42-1","lat":35.77615447,"lon":139.66783758},{"name":"大谷口給水所","province":"東京都","city":"板橋区","address":"東京都板橋区大谷口1丁目4","lat":35.74552822,"lon":139.69106185},{"name":"板橋トラックターミナル","province":"東京都","city":"板橋区","address":"東京都板橋区高島平6丁目1-1","lat":35.79228232,"lon":139.64660566},{"name":"１６板橋清掃工場","province":"東京都","city":"板橋区","address":"東京都板橋区高島平9丁目48-1","lat":35.79180785,"lon":139.66670672},{"name":"日大病院入口","province":"東京都","city":"板橋区","address":"東京都板橋区大山町57","lat":35.74984733,"lon":139.69578072},{"name":"大和町","province":"東京都","city":"板橋区","address":"東京都板橋区本町37-7","lat":35.76090186,"lon":139.70603215},{"name":"常盤台入口","province":"東京都","city":"板橋区","address":"東京都板橋区東山町50-10","lat":35.75582684,"lon":139.68663949},{"name":"板橋区民館入口","province":"東京都","city":"板橋区","address":"東京都板橋区大山東町31-1","lat":35.74961435,"lon":139.70811579},{"name":"板橋本町","province":"東京都","city":"板橋区","address":"東京都板橋区本町40-9","lat":35.7585466,"lon":139.7069544},{"name":"板橋駅前","province":"東京都","city":"板橋区","address":"東京都板橋区板橋1丁目44-6","lat":35.74867302,"lon":139.71760115},{"name":"板橋区役所前","province":"東京都","city":"板橋区","address":"東京都板橋区板橋2丁目66-1","lat":35.75091701,"lon":139.70919342},{"name":"板橋区役所駅前","province":"東京都","city":"板橋区","address":"東京都板橋区板橋2丁目66-16","lat":35.75148917,"lon":139.70964614},{"name":"岩の坂上","province":"東京都","city":"板橋区","address":"東京都板橋区本町35-13","lat":35.76130738,"lon":139.70665153},{"name":"大山駅入口","province":"東京都","city":"板橋区","address":"東京都板橋区大山金井町54-15","lat":35.74533967,"lon":139.70188039},{"name":"板橋中央陸橋下","province":"東京都","city":"板橋区","address":"東京都板橋区東山町48-4","lat":35.75524085,"lon":139.68766167},{"name":"武蔵野病院前","province":"東京都","city":"板橋区","address":"東京都板橋区小茂根4丁目10-1","lat":35.74608599,"lon":139.67504929},{"name":"南常盤台一丁目","province":"東京都","city":"板橋区","address":"東京都板橋区南常盤台1丁目18","lat":35.75685457,"lon":139.68869762},{"name":"加賀交番前","province":"東京都","city":"板橋区","address":"東京都板橋区加賀1丁目10-5","lat":35.7538085,"lon":139.71563721},{"name":"常盤台小学校前","province":"東京都","city":"板橋区","address":"東京都板橋区常盤台1丁目6-1","lat":35.75952655,"lon":139.69117507},{"name":"新板橋駅前","province":"東京都","city":"板橋区","address":"東京都板橋区板橋1丁目52-6","lat":35.74863141,"lon":139.71976208},{"name":"仲宿三差路","province":"東京都","city":"板橋区","address":"東京都板橋区板橋2丁目68-5","lat":35.75182801,"lon":139.70891008},{"name":"常盤台駅前中央通り","province":"東京都","city":"板橋区","address":"東京都板橋区常盤台1丁目10-8","lat":35.76124851,"lon":139.69019172},{"name":"南常盤台一丁目第二","province":"東京都","city":"板橋区","address":"東京都板橋区南常盤台1丁目35-2","lat":35.75699342,"lon":139.68795322},{"name":"板橋第一中前","province":"東京都","city":"板橋区","address":"東京都板橋区栄町35-1","lat":35.75211676,"lon":139.70474376},{"name":"板橋天祖神社前","province":"東京都","city":"板橋区","address":"東京都板橋区南常盤台1丁目32","lat":35.75800994,"lon":139.68779485},{"name":"常盤台駅北","province":"東京都","city":"板橋区","address":"東京都板橋区常盤台2丁目14-1","lat":35.76038471,"lon":139.68967236},{"name":"環七板橋本町","province":"東京都","city":"板橋区","address":"東京都板橋区本町11-2","lat":35.76257953,"lon":139.70947902},{"name":"めぐみ幼稚園前","province":"東京都","city":"板橋区","address":"東京都板橋区常盤台2丁目3-1","lat":35.75981526,"lon":139.68738645},{"name":"板橋大山公園前","province":"東京都","city":"板橋区","address":"東京都板橋区栄町36-1","lat":35.75082525,"lon":139.70499935},{"name":"蓮沼町","province":"東京都","city":"板橋区","address":"東京都板橋区泉町7-7","lat":35.76863411,"lon":139.70194327},{"name":"志村坂上","province":"東京都","city":"板橋区","address":"東京都板橋区志村2丁目3-1","lat":35.77656347,"lon":139.69438248},{"name":"前野町二丁目","province":"東京都","city":"板橋区","address":"東京都板橋区前野町2丁目13-4","lat":35.76358709,"lon":139.68902782},{"name":"蓮根三丁目","province":"東京都","city":"板橋区","address":"東京都板橋区坂下3丁目10-6","lat":35.78559254,"lon":139.6796473},{"name":"志村三丁目","province":"東京都","city":"板橋区","address":"東京都板橋区坂下1丁目7-1","lat":35.77891576,"lon":139.68546089},{"name":"小豆沢公園前","province":"東京都","city":"板橋区","address":"東京都板橋区小豆沢3丁目1","lat":35.77861607,"lon":139.69794601},{"name":"坂下一丁目都営住宅前","province":"東京都","city":"板橋区","address":"東京都板橋区坂下1丁目11-3","lat":35.7787185,"lon":139.68319998},{"name":"前野町二丁目東","province":"東京都","city":"板橋区","address":"東京都板橋区常盤台2丁目27-10","lat":35.76318995,"lon":139.69005554},{"name":"ナショナルトレーニングセンター前","province":"東京都","city":"板橋区","address":"東京都板橋区清水町60-11","lat":35.76596516,"lon":139.70760404},{"name":"小豆沢三丁目東","province":"東京都","city":"板橋区","address":"東京都板橋区小豆沢3丁目9-5","lat":35.78011301,"lon":139.6944379},{"name":"成増","province":"東京都","city":"板橋区","address":"東京都板橋区成増2丁目21-6","lat":35.7780173,"lon":139.62992967},{"name":"成増駅前","province":"東京都","city":"板橋区","address":"東京都板橋区成増2丁目16-1","lat":35.77645087,"lon":139.63214065},{"name":"西台駅南","province":"東京都","city":"板橋区","address":"東京都板橋区蓮根3丁目8-12","lat":35.78591733,"lon":139.67492551},{"name":"高島平三丁目","province":"東京都","city":"板橋区","address":"東京都板橋区高島平7丁目1-1","lat":35.79046608,"lon":139.65332458},{"name":"高島平二丁目","province":"東京都","city":"板橋区","address":"東京都板橋区高島平8丁目2-1","lat":35.7888276,"lon":139.66119894},{"name":"新河岸一丁目","province":"東京都","city":"板橋区","address":"東京都板橋区新河岸2丁目1-31","lat":35.79441288,"lon":139.66290424},{"name":"高島平八丁目東","province":"東京都","city":"板橋区","address":"東京都板橋区高島平8丁目11","lat":35.78961364,"lon":139.66311541},{"name":"高島平警察署前","province":"東京都","city":"板橋区","address":"東京都板橋区高島平2丁目33-6","lat":35.78590855,"lon":139.65968524},{"name":"高島平出張所前","province":"東京都","city":"板橋区","address":"東京都板橋区高島平3丁目13","lat":35.78795544,"lon":139.65866029},{"name":"西台駅前ガード下","province":"東京都","city":"板橋区","address":"東京都板橋区蓮根3丁目9-7","lat":35.78688387,"lon":139.67475327},{"name":"高島一の橋","province":"東京都","city":"板橋区","address":"東京都板橋区高島平9丁目23-1","lat":35.79038028,"lon":139.66622624},{"name":"板橋清掃工場入口","province":"東京都","city":"板橋区","address":"東京都板橋区高島平9丁目14","lat":35.78940268,"lon":139.66686785},{"name":"大東文化大学前","province":"東京都","city":"板橋区","address":"東京都板橋区高島平1丁目5-8","lat":35.78142053,"lon":139.66988722},{"name":"赤塚六丁目","province":"東京都","city":"板橋区","address":"東京都板橋区赤塚6丁目7-1","lat":35.77625681,"lon":139.64687551},{"name":"高島平九丁目第三","province":"東京都","city":"板橋区","address":"東京都板橋区高島平9丁目2","lat":35.78940003,"lon":139.67136466},{"name":"大東文化大学正門前","province":"東京都","city":"板橋区","address":"東京都板橋区西台2丁目42","lat":35.78094001,"lon":139.66864846},{"name":"高島平駅前","province":"東京都","city":"板橋区","address":"東京都板橋区高島平8丁目2","lat":35.78876373,"lon":139.6614767},{"name":"赤塚新町郵便局前","province":"東京都","city":"板橋区","address":"東京都板橋区赤塚新町1丁目25-10","lat":35.77062128,"lon":139.64333992},{"name":"高島平駅北","province":"東京都","city":"板橋区","address":"東京都板橋区高島平8丁目18","lat":35.79037459,"lon":139.66179608},{"name":"高島平駅西口","province":"東京都","city":"板橋区","address":"東京都板橋区高島平7丁目2","lat":35.78959132,"lon":139.65997682},{"name":"三園浄水場","province":"東京都","city":"板橋区","address":"東京都板橋区三園2丁目10-1","lat":35.7948317,"lon":139.64197828},{"name":"区立城北公園","province":"東京都","city":"板橋区","address":"東京都板橋区坂下2丁目19-1","lat":35.78357064,"lon":139.68153885},{"name":"都立板橋高等学校","province":"東京都","city":"板橋区","address":"東京都板橋区大谷口1丁目54-1","lat":35.74187304,"lon":139.68991765},{"name":"都立赤塚公園","province":"東京都","city":"板橋区","address":"東京都板橋区高島平3丁目1","lat":35.78522804,"lon":139.65529951},{"name":"区立西徳第二公園","province":"東京都","city":"板橋区","address":"東京都板橋区西台3丁目42-1","lat":35.77615447,"lon":139.66783758},{"name":"大谷口給水所","province":"東京都","city":"板橋区","address":"東京都板橋区大谷口1丁目4","lat":35.74552822,"lon":139.69106185},{"name":"板橋トラックターミナル","province":"東京都","city":"板橋区","address":"東京都板橋区高島平6丁目1-1","lat":35.79228232,"lon":139.64660566},{"name":"１６板橋清掃工場","province":"東京都","city":"板橋区","address":"東京都板橋区高島平9丁目48-1","lat":35.79180785,"lon":139.66670672},{"name":"日大病院入口","province":"東京都","city":"板橋区","address":"東京都板橋区大山町57","lat":35.74984733,"lon":139.69578072},{"name":"大和町","province":"東京都","city":"板橋区","address":"東京都板橋区本町37-7","lat":35.76090186,"lon":139.70603215},{"name":"常盤台入口","province":"東京都","city":"板橋区","address":"東京都板橋区東山町50-10","lat":35.75582684,"lon":139.68663949},{"name":"板橋区民館入口","province":"東京都","city":"板橋区","address":"東京都板橋区大山東町31-1","lat":35.74961435,"lon":139.70811579},{"name":"板橋本町","province":"東京都","city":"板橋区","address":"東京都板橋区本町40-9","lat":35.7585466,"lon":139.7069544},{"name":"板橋駅前","province":"東京都","city":"板橋区","address":"東京都板橋区板橋1丁目44-6","lat":35.74867302,"lon":139.71760115},{"name":"板橋区役所前","province":"東京都","city":"板橋区","address":"東京都板橋区板橋2丁目66-1","lat":35.75091701,"lon":139.70919342},{"name":"板橋区役所駅前","province":"東京都","city":"板橋区","address":"東京都板橋区板橋2丁目66-16","lat":35.75148917,"lon":139.70964614},{"name":"岩の坂上","province":"東京都","city":"板橋区","address":"東京都板橋区本町35-13","lat":35.76130738,"lon":139.70665153},{"name":"大山駅入口","province":"東京都","city":"板橋区","address":"東京都板橋区大山金井町54-15","lat":35.74533967,"lon":139.70188039},{"name":"板橋中央陸橋下","province":"東京都","city":"板橋区","address":"東京都板橋区東山町48-4","lat":35.75524085,"lon":139.68766167},{"name":"武蔵野病院前","province":"東京都","city":"板橋区","address":"東京都板橋区小茂根4丁目10-1","lat":35.74608599,"lon":139.67504929},{"name":"南常盤台一丁目","province":"東京都","city":"板橋区","address":"東京都板橋区南常盤台1丁目18","lat":35.75685457,"lon":139.68869762},{"name":"加賀交番前","province":"東京都","city":"板橋区","address":"東京都板橋区加賀1丁目10-5","lat":35.7538085,"lon":139.71563721},{"name":"常盤台小学校前","province":"東京都","city":"板橋区","address":"東京都板橋区常盤台1丁目6-1","lat":35.75952655,"lon":139.69117507},{"name":"新板橋駅前","province":"東京都","city":"板橋区","address":"東京都板橋区板橋1丁目52-6","lat":35.74863141,"lon":139.71976208},{"name":"仲宿三差路","province":"東京都","city":"板橋区","address":"東京都板橋区板橋2丁目68-5","lat":35.75182801,"lon":139.70891008},{"name":"常盤台駅前中央通り","province":"東京都","city":"板橋区","address":"東京都板橋区常盤台1丁目10-8","lat":35.76124851,"lon":139.69019172},{"name":"南常盤台一丁目第二","province":"東京都","city":"板橋区","address":"東京都板橋区南常盤台1丁目35-2","lat":35.75699342,"lon":139.68795322},{"name":"板橋第一中前","province":"東京都","city":"板橋区","address":"東京都板橋区栄町35-1","lat":35.75211676,"lon":139.70474376},{"name":"板橋天祖神社前","province":"東京都","city":"板橋区","address":"東京都板橋区南常盤台1丁目32","lat":35.75800994,"lon":139.68779485},{"name":"常盤台駅北","province":"東京都","city":"板橋区","address":"東京都板橋区常盤台2丁目14-1","lat":35.76038471,"lon":139.68967236},{"name":"環七板橋本町","province":"東京都","city":"板橋区","address":"東京都板橋区本町11-2","lat":35.76257953,"lon":139.70947902},{"name":"めぐみ幼稚園前","province":"東京都","city":"板橋区","address":"東京都板橋区常盤台2丁目3-1","lat":35.75981526,"lon":139.68738645},{"name":"板橋大山公園前","province":"東京都","city":"板橋区","address":"東京都板橋区栄町36-1","lat":35.75082525,"lon":139.70499935},{"name":"蓮沼町","province":"東京都","city":"板橋区","address":"東京都板橋区泉町7-7","lat":35.76863411,"lon":139.70194327},{"name":"志村坂上","province":"東京都","city":"板橋区","address":"東京都板橋区志村2丁目3-1","lat":35.77656347,"lon":139.69438248},{"name":"前野町二丁目","province":"東京都","city":"板橋区","address":"東京都板橋区前野町2丁目13-4","lat":35.76358709,"lon":139.68902782},{"name":"蓮根三丁目","province":"東京都","city":"板橋区","address":"東京都板橋区坂下3丁目10-6","lat":35.78559254,"lon":139.6796473},{"name":"志村三丁目","province":"東京都","city":"板橋区","address":"東京都板橋区坂下1丁目7-1","lat":35.77891576,"lon":139.68546089},{"name":"小豆沢公園前","province":"東京都","city":"板橋区","address":"東京都板橋区小豆沢3丁目1","lat":35.77861607,"lon":139.69794601},{"name":"坂下一丁目都営住宅前","province":"東京都","city":"板橋区","address":"東京都板橋区坂下1丁目11-3","lat":35.7787185,"lon":139.68319998},{"name":"前野町二丁目東","province":"東京都","city":"板橋区","address":"東京都板橋区常盤台2丁目27-10","lat":35.76318995,"lon":139.69005554},{"name":"ナショナルトレーニングセンター前","province":"東京都","city":"板橋区","address":"東京都板橋区清水町60-11","lat":35.76596516,"lon":139.70760404},{"name":"小豆沢三丁目東","province":"東京都","city":"板橋区","address":"東京都板橋区小豆沢3丁目9-5","lat":35.78011301,"lon":139.6944379},{"name":"成増","province":"東京都","city":"板橋区","address":"東京都板橋区成増2丁目21-6","lat":35.7780173,"lon":139.62992967},{"name":"成増駅前","province":"東京都","city":"板橋区","address":"東京都板橋区成増2丁目16-1","lat":35.77645087,"lon":139.63214065},{"name":"西台駅南","province":"東京都","city":"板橋区","address":"東京都板橋区蓮根3丁目8-12","lat":35.78591733,"lon":139.67492551},{"name":"高島平三丁目","province":"東京都","city":"板橋区","address":"東京都板橋区高島平7丁目1-1","lat":35.79046608,"lon":139.65332458},{"name":"高島平二丁目","province":"東京都","city":"板橋区","address":"東京都板橋区高島平8丁目2-1","lat":35.7888276,"lon":139.66119894},{"name":"新河岸一丁目","province":"東京都","city":"板橋区","address":"東京都板橋区新河岸2丁目1-31","lat":35.79441288,"lon":139.66290424},{"name":"高島平八丁目東","province":"東京都","city":"板橋区","address":"東京都板橋区高島平8丁目11","lat":35.78961364,"lon":139.66311541},{"name":"高島平警察署前","province":"東京都","city":"板橋区","address":"東京都板橋区高島平2丁目33-6","lat":35.78590855,"lon":139.65968524},{"name":"高島平出張所前","province":"東京都","city":"板橋区","address":"東京都板橋区高島平3丁目13","lat":35.78795544,"lon":139.65866029},{"name":"西台駅前ガード下","province":"東京都","city":"板橋区","address":"東京都板橋区蓮根3丁目9-7","lat":35.78688387,"lon":139.67475327},{"name":"高島一の橋","province":"東京都","city":"板橋区","address":"東京都板橋区高島平9丁目23-1","lat":35.79038028,"lon":139.66622624},{"name":"板橋清掃工場入口","province":"東京都","city":"板橋区","address":"東京都板橋区高島平9丁目14","lat":35.78940268,"lon":139.66686785},{"name":"大東文化大学前","province":"東京都","city":"板橋区","address":"東京都板橋区高島平1丁目5-8","lat":35.78142053,"lon":139.66988722},{"name":"赤塚六丁目","province":"東京都","city":"板橋区","address":"東京都板橋区赤塚6丁目7-1","lat":35.77625681,"lon":139.64687551},{"name":"高島平九丁目第三","province":"東京都","city":"板橋区","address":"東京都板橋区高島平9丁目2","lat":35.78940003,"lon":139.67136466},{"name":"大東文化大学正門前","province":"東京都","city":"板橋区","address":"東京都板橋区西台2丁目42","lat":35.78094001,"lon":139.66864846},{"name":"高島平駅前","province":"東京都","city":"板橋区","address":"東京都板橋区高島平8丁目2","lat":35.78876373,"lon":139.6614767},{"name":"赤塚新町郵便局前","province":"東京都","city":"板橋区","address":"東京都板橋区赤塚新町1丁目25-10","lat":35.77062128,"lon":139.64333992},{"name":"高島平駅北","province":"東京都","city":"板橋区","address":"東京都板橋区高島平8丁目18","lat":35.79037459,"lon":139.66179608},{"name":"高島平駅西口","province":"東京都","city":"板橋区","address":"東京都板橋区高島平7丁目2","lat":35.78959132,"lon":139.65997682},{"name":"三園浄水場","province":"東京都","city":"板橋区","address":"東京都板橋区三園2丁目10-1","lat":35.7948317,"lon":139.64197828},{"name":"区立城北公園","province":"東京都","city":"板橋区","address":"東京都板橋区坂下2丁目19-1","lat":35.78357064,"lon":139.68153885},{"name":"都立板橋高等学校","province":"東京都","city":"板橋区","address":"東京都板橋区大谷口1丁目54-1","lat":35.74187304,"lon":139.68991765},{"name":"都立赤塚公園","province":"東京都","city":"板橋区","address":"東京都板橋区高島平3丁目1","lat":35.78522804,"lon":139.65529951},{"name":"区立西徳第二公園","province":"東京都","city":"板橋区","address":"東京都板橋区西台3丁目42-1","lat":35.77615447,"lon":139.66783758},{"name":"大谷口給水所","province":"東京都","city":"板橋区","address":"東京都板橋区大谷口1丁目4","lat":35.74552822,"lon":139.69106185},{"name":"板橋トラックターミナル","province":"東京都","city":"板橋区","address":"東京都板橋区高島平6丁目1-1","lat":35.79228232,"lon":139.64660566},{"name":"１６板橋清掃工場","province":"東京都","city":"板橋区","address":"東京都板橋区高島平9丁目48-1","lat":35.79180785,"lon":139.66670672},{"name":"日大病院入口","province":"東京都","city":"板橋区","address":"東京都板橋区大山町57","lat":35.74984733,"lon":139.69578072},{"name":"大和町","province":"東京都","city":"板橋区","address":"東京都板橋区本町37-7","lat":35.76090186,"lon":139.70603215},{"name":"常盤台入口","province":"東京都","city":"板橋区","address":"東京都板橋区東山町50-10","lat":35.75582684,"lon":139.68663949},{"name":"板橋区民館入口","province":"東京都","city":"板橋区","address":"東京都板橋区大山東町31-1","lat":35.74961435,"lon":139.70811579},{"name":"板橋本町","province":"東京都","city":"板橋区","address":"東京都板橋区本町40-9","lat":35.7585466,"lon":139.7069544},{"name":"板橋駅前","province":"東京都","city":"板橋区","address":"東京都板橋区板橋1丁目44-6","lat":35.74867302,"lon":139.71760115},{"name":"板橋区役所前","province":"東京都","city":"板橋区","address":"東京都板橋区板橋2丁目66-1","lat":35.75091701,"lon":139.70919342},{"name":"板橋区役所駅前","province":"東京都","city":"板橋区","address":"東京都板橋区板橋2丁目66-16","lat":35.75148917,"lon":139.70964614},{"name":"岩の坂上","province":"東京都","city":"板橋区","address":"東京都板橋区本町35-13","lat":35.76130738,"lon":139.70665153},{"name":"大山駅入口","province":"東京都","city":"板橋区","address":"東京都板橋区大山金井町54-15","lat":35.74533967,"lon":139.70188039},{"name":"板橋中央陸橋下","province":"東京都","city":"板橋区","address":"東京都板橋区東山町48-4","lat":35.75524085,"lon":139.68766167},{"name":"武蔵野病院前","province":"東京都","city":"板橋区","address":"東京都板橋区小茂根4丁目10-1","lat":35.74608599,"lon":139.67504929},{"name":"南常盤台一丁目","province":"東京都","city":"板橋区","address":"東京都板橋区南常盤台1丁目18","lat":35.75685457,"lon":139.68869762},{"name":"加賀交番前","province":"東京都","city":"板橋区","address":"東京都板橋区加賀1丁目10-5","lat":35.7538085,"lon":139.71563721},{"name":"常盤台小学校前","province":"東京都","city":"板橋区","address":"東京都板橋区常盤台1丁目6-1","lat":35.75952655,"lon":139.69117507},{"name":"新板橋駅前","province":"東京都","city":"板橋区","address":"東京都板橋区板橋1丁目52-6","lat":35.74863141,"lon":139.71976208},{"name":"仲宿三差路","province":"東京都","city":"板橋区","address":"東京都板橋区板橋2丁目68-5","lat":35.75182801,"lon":139.70891008},{"name":"常盤台駅前中央通り","province":"東京都","city":"板橋区","address":"東京都板橋区常盤台1丁目10-8","lat":35.76124851,"lon":139.69019172},{"name":"南常盤台一丁目第二","province":"東京都","city":"板橋区","address":"東京都板橋区南常盤台1丁目35-2","lat":35.75699342,"lon":139.68795322},{"name":"板橋第一中前","province":"東京都","city":"板橋区","address":"東京都板橋区栄町35-1","lat":35.75211676,"lon":139.70474376},{"name":"板橋天祖神社前","province":"東京都","city":"板橋区","address":"東京都板橋区南常盤台1丁目32","lat":35.75800994,"lon":139.68779485},{"name":"常盤台駅北","province":"東京都","city":"板橋区","address":"東京都板橋区常盤台2丁目14-1","lat":35.76038471,"lon":139.68967236},{"name":"環七板橋本町","province":"東京都","city":"板橋区","address":"東京都板橋区本町11-2","lat":35.76257953,"lon":139.70947902},{"name":"めぐみ幼稚園前","province":"東京都","city":"板橋区","address":"東京都板橋区常盤台2丁目3-1","lat":35.75981526,"lon":139.68738645},{"name":"板橋大山公園前","province":"東京都","city":"板橋区","address":"東京都板橋区栄町36-1","lat":35.75082525,"lon":139.70499935},{"name":"蓮沼町","province":"東京都","city":"板橋区","address":"東京都板橋区泉町7-7","lat":35.76863411,"lon":139.70194327},{"name":"志村坂上","province":"東京都","city":"板橋区","address":"東京都板橋区志村2丁目3-1","lat":35.77656347,"lon":139.69438248},{"name":"前野町二丁目","province":"東京都","city":"板橋区","address":"東京都板橋区前野町2丁目13-4","lat":35.76358709,"lon":139.68902782},{"name":"蓮根三丁目","province":"東京都","city":"板橋区","address":"東京都板橋区坂下3丁目10-6","lat":35.78559254,"lon":139.6796473},{"name":"志村三丁目","province":"東京都","city":"板橋区","address":"東京都板橋区坂下1丁目7-1","lat":35.77891576,"lon":139.68546089},{"name":"小豆沢公園前","province":"東京都","city":"板橋区","address":"東京都板橋区小豆沢3丁目1","lat":35.77861607,"lon":139.69794601},{"name":"坂下一丁目都営住宅前","province":"東京都","city":"板橋区","address":"東京都板橋区坂下1丁目11-3","lat":35.7787185,"lon":139.68319998},{"name":"前野町二丁目東","province":"東京都","city":"板橋区","address":"東京都板橋区常盤台2丁目27-10","lat":35.76318995,"lon":139.69005554},{"name":"ナショナルトレーニングセンター前","province":"東京都","city":"板橋区","address":"東京都板橋区清水町60-11","lat":35.76596516,"lon":139.70760404},{"name":"小豆沢三丁目東","province":"東京都","city":"板橋区","address":"東京都板橋区小豆沢3丁目9-5","lat":35.78011301,"lon":139.6944379},{"name":"成増","province":"東京都","city":"板橋区","address":"東京都板橋区成増2丁目21-6","lat":35.7780173,"lon":139.62992967},{"name":"成増駅前","province":"東京都","city":"板橋区","address":"東京都板橋区成増2丁目16-1","lat":35.77645087,"lon":139.63214065},{"name":"西台駅南","province":"東京都","city":"板橋区","address":"東京都板橋区蓮根3丁目8-12","lat":35.78591733,"lon":139.67492551},{"name":"高島平三丁目","province":"東京都","city":"板橋区","address":"東京都板橋区高島平7丁目1-1","lat":35.79046608,"lon":139.65332458},{"name":"高島平二丁目","province":"東京都","city":"板橋区","address":"東京都板橋区高島平8丁目2-1","lat":35.7888276,"lon":139.66119894},{"name":"新河岸一丁目","province":"東京都","city":"板橋区","address":"東京都板橋区新河岸2丁目1-31","lat":35.79441288,"lon":139.66290424},{"name":"高島平八丁目東","province":"東京都","city":"板橋区","address":"東京都板橋区高島平8丁目11","lat":35.78961364,"lon":139.66311541},{"name":"高島平警察署前","province":"東京都","city":"板橋区","address":"東京都板橋区高島平2丁目33-6","lat":35.78590855,"lon":139.65968524},{"name":"高島平出張所前","province":"東京都","city":"板橋区","address":"東京都板橋区高島平3丁目13","lat":35.78795544,"lon":139.65866029},{"name":"西台駅前ガード下","province":"東京都","city":"板橋区","address":"東京都板橋区蓮根3丁目9-7","lat":35.78688387,"lon":139.67475327},{"name":"高島一の橋","province":"東京都","city":"板橋区","address":"東京都板橋区高島平9丁目23-1","lat":35.79038028,"lon":139.66622624},{"name":"板橋清掃工場入口","province":"東京都","city":"板橋区","address":"東京都板橋区高島平9丁目14","lat":35.78940268,"lon":139.66686785},{"name":"大東文化大学前","province":"東京都","city":"板橋区","address":"東京都板橋区高島平1丁目5-8","lat":35.78142053,"lon":139.66988722},{"name":"赤塚六丁目","province":"東京都","city":"板橋区","address":"東京都板橋区赤塚6丁目7-1","lat":35.77625681,"lon":139.64687551},{"name":"高島平九丁目第三","province":"東京都","city":"板橋区","address":"東京都板橋区高島平9丁目2","lat":35.78940003,"lon":139.67136466},{"name":"大東文化大学正門前","province":"東京都","city":"板橋区","address":"東京都板橋区西台2丁目42","lat":35.78094001,"lon":139.66864846},{"name":"高島平駅前","province":"東京都","city":"板橋区","address":"東京都板橋区高島平8丁目2","lat":35.78876373,"lon":139.6614767},{"name":"赤塚新町郵便局前","province":"東京都","city":"板橋区","address":"東京都板橋区赤塚新町1丁目25-10","lat":35.77062128,"lon":139.64333992},{"name":"高島平駅北","province":"東京都","city":"板橋区","address":"東京都板橋区高島平8丁目18","lat":35.79037459,"lon":139.66179608},{"name":"高島平駅西口","province":"東京都","city":"板橋区","address":"東京都板橋区高島平7丁目2","lat":35.78959132,"lon":139.65997682},{"name":"三園浄水場","province":"東京都","city":"板橋区","address":"東京都板橋区三園2丁目10-1","lat":35.7948317,"lon":139.64197828},{"name":"区立城北公園","province":"東京都","city":"板橋区","address":"東京都板橋区坂下2丁目19-1","lat":35.78357064,"lon":139.68153885},{"name":"都立板橋高等学校","province":"東京都","city":"板橋区","address":"東京都板橋区大谷口1丁目54-1","lat":35.74187304,"lon":139.68991765},{"name":"都立赤塚公園","province":"東京都","city":"板橋区","address":"東京都板橋区高島平3丁目1","lat":35.78522804,"lon":139.65529951},{"name":"区立西徳第二公園","province":"東京都","city":"板橋区","address":"東京都板橋区西台3丁目42-1","lat":35.77615447,"lon":139.66783758},{"name":"大谷口給水所","province":"東京都","city":"板橋区","address":"東京都板橋区大谷口1丁目4","lat":35.74552822,"lon":139.69106185},{"name":"板橋トラックターミナル","province":"東京都","city":"板橋区","address":"東京都板橋区高島平6丁目1-1","lat":35.79228232,"lon":139.64660566},{"name":"１６板橋清掃工場","province":"東京都","city":"板橋区","address":"東京都板橋区高島平9丁目48-1","lat":35.79180785,"lon":139.66670672},{"name":"日大病院入口","province":"東京都","city":"板橋区","address":"東京都板橋区大山町57","lat":35.74984733,"lon":139.69578072},{"name":"大和町","province":"東京都","city":"板橋区","address":"東京都板橋区本町37-7","lat":35.76090186,"lon":139.70603215},{"name":"常盤台入口","province":"東京都","city":"板橋区","address":"東京都板橋区東山町50-10","lat":35.75582684,"lon":139.68663949},{"name":"板橋区民館入口","province":"東京都","city":"板橋区","address":"東京都板橋区大山東町31-1","lat":35.74961435,"lon":139.70811579},{"name":"板橋本町","province":"東京都","city":"板橋区","address":"東京都板橋区本町40-9","lat":35.7585466,"lon":139.7069544},{"name":"板橋駅前","province":"東京都","city":"板橋区","address":"東京都板橋区板橋1丁目44-6","lat":35.74867302,"lon":139.71760115},{"name":"板橋区役所前","province":"東京都","city":"板橋区","address":"東京都板橋区板橋2丁目66-1","lat":35.75091701,"lon":139.70919342},{"name":"板橋区役所駅前","province":"東京都","city":"板橋区","address":"東京都板橋区板橋2丁目66-16","lat":35.75148917,"lon":139.70964614},{"name":"岩の坂上","province":"東京都","city":"板橋区","address":"東京都板橋区本町35-13","lat":35.76130738,"lon":139.70665153},{"name":"大山駅入口","province":"東京都","city":"板橋区","address":"東京都板橋区大山金井町54-15","lat":35.74533967,"lon":139.70188039},{"name":"板橋中央陸橋下","province":"東京都","city":"板橋区","address":"東京都板橋区東山町48-4","lat":35.75524085,"lon":139.68766167},{"name":"武蔵野病院前","province":"東京都","city":"板橋区","address":"東京都板橋区小茂根4丁目10-1","lat":35.74608599,"lon":139.67504929},{"name":"南常盤台一丁目","province":"東京都","city":"板橋区","address":"東京都板橋区南常盤台1丁目18","lat":35.75685457,"lon":139.68869762},{"name":"加賀交番前","province":"東京都","city":"板橋区","address":"東京都板橋区加賀1丁目10-5","lat":35.7538085,"lon":139.71563721},{"name":"常盤台小学校前","province":"東京都","city":"板橋区","address":"東京都板橋区常盤台1丁目6-1","lat":35.75952655,"lon":139.69117507},{"name":"新板橋駅前","province":"東京都","city":"板橋区","address":"東京都板橋区板橋1丁目52-6","lat":35.74863141,"lon":139.71976208},{"name":"仲宿三差路","province":"東京都","city":"板橋区","address":"東京都板橋区板橋2丁目68-5","lat":35.75182801,"lon":139.70891008},{"name":"常盤台駅前中央通り","province":"東京都","city":"板橋区","address":"東京都板橋区常盤台1丁目10-8","lat":35.76124851,"lon":139.69019172},{"name":"南常盤台一丁目第二","province":"東京都","city":"板橋区","address":"東京都板橋区南常盤台1丁目35-2","lat":35.75699342,"lon":139.68795322},{"name":"板橋第一中前","province":"東京都","city":"板橋区","address":"東京都板橋区栄町35-1","lat":35.75211676,"lon":139.70474376},{"name":"板橋天祖神社前","province":"東京都","city":"板橋区","address":"東京都板橋区南常盤台1丁目32","lat":35.75800994,"lon":139.68779485},{"name":"常盤台駅北","province":"東京都","city":"板橋区","address":"東京都板橋区常盤台2丁目14-1","lat":35.76038471,"lon":139.68967236},{"name":"環七板橋本町","province":"東京都","city":"板橋区","address":"東京都板橋区本町11-2","lat":35.76257953,"lon":139.70947902},{"name":"めぐみ幼稚園前","province":"東京都","city":"板橋区","address":"東京都板橋区常盤台2丁目3-1","lat":35.75981526,"lon":139.68738645},{"name":"板橋大山公園前","province":"東京都","city":"板橋区","address":"東京都板橋区栄町36-1","lat":35.75082525,"lon":139.70499935},{"name":"蓮沼町","province":"東京都","city":"板橋区","address":"東京都板橋区泉町7-7","lat":35.76863411,"lon":139.70194327},{"name":"志村坂上","province":"東京都","city":"板橋区","address":"東京都板橋区志村2丁目3-1","lat":35.77656347,"lon":139.69438248},{"name":"前野町二丁目","province":"東京都","city":"板橋区","address":"東京都板橋区前野町2丁目13-4","lat":35.76358709,"lon":139.68902782},{"name":"蓮根三丁目","province":"東京都","city":"板橋区","address":"東京都板橋区坂下3丁目10-6","lat":35.78559254,"lon":139.6796473},{"name":"志村三丁目","province":"東京都","city":"板橋区","address":"東京都板橋区坂下1丁目7-1","lat":35.77891576,"lon":139.68546089},{"name":"小豆沢公園前","province":"東京都","city":"板橋区","address":"東京都板橋区小豆沢3丁目1","lat":35.77861607,"lon":139.69794601},{"name":"坂下一丁目都営住宅前","province":"東京都","city":"板橋区","address":"東京都板橋区坂下1丁目11-3","lat":35.7787185,"lon":139.68319998},{"name":"前野町二丁目東","province":"東京都","city":"板橋区","address":"東京都板橋区常盤台2丁目27-10","lat":35.76318995,"lon":139.69005554},{"name":"ナショナルトレーニングセンター前","province":"東京都","city":"板橋区","address":"東京都板橋区清水町60-11","lat":35.76596516,"lon":139.70760404},{"name":"小豆沢三丁目東","province":"東京都","city":"板橋区","address":"東京都板橋区小豆沢3丁目9-5","lat":35.78011301,"lon":139.6944379},{"name":"成増","province":"東京都","city":"板橋区","address":"東京都板橋区成増2丁目21-6","lat":35.7780173,"lon":139.62992967},{"name":"成増駅前","province":"東京都","city":"板橋区","address":"東京都板橋区成増2丁目16-1","lat":35.77645087,"lon":139.63214065},{"name":"西台駅南","province":"東京都","city":"板橋区","address":"東京都板橋区蓮根3丁目8-12","lat":35.78591733,"lon":139.67492551},{"name":"高島平三丁目","province":"東京都","city":"板橋区","address":"東京都板橋区高島平7丁目1-1","lat":35.79046608,"lon":139.65332458},{"name":"高島平二丁目","province":"東京都","city":"板橋区","address":"東京都板橋区高島平8丁目2-1","lat":35.7888276,"lon":139.66119894},{"name":"新河岸一丁目","province":"東京都","city":"板橋区","address":"東京都板橋区新河岸2丁目1-31","lat":35.79441288,"lon":139.66290424},{"name":"高島平八丁目東","province":"東京都","city":"板橋区","address":"東京都板橋区高島平8丁目11","lat":35.78961364,"lon":139.66311541},{"name":"高島平警察署前","province":"東京都","city":"板橋区","address":"東京都板橋区高島平2丁目33-6","lat":35.78590855,"lon":139.65968524},{"name":"高島平出張所前","province":"東京都","city":"板橋区","address":"東京都板橋区高島平3丁目13","lat":35.78795544,"lon":139.65866029},{"name":"西台駅前ガード下","province":"東京都","city":"板橋区","address":"東京都板橋区蓮根3丁目9-7","lat":35.78688387,"lon":139.67475327},{"name":"高島一の橋","province":"東京都","city":"板橋区","address":"東京都板橋区高島平9丁目23-1","lat":35.79038028,"lon":139.66622624},{"name":"板橋清掃工場入口","province":"東京都","city":"板橋区","address":"東京都板橋区高島平9丁目14","lat":35.78940268,"lon":139.66686785},{"name":"大東文化大学前","province":"東京都","city":"板橋区","address":"東京都板橋区高島平1丁目5-8","lat":35.78142053,"lon":139.66988722},{"name":"赤塚六丁目","province":"東京都","city":"板橋区","address":"東京都板橋区赤塚6丁目7-1","lat":35.77625681,"lon":139.64687551},{"name":"高島平九丁目第三","province":"東京都","city":"板橋区","address":"東京都板橋区高島平9丁目2","lat":35.78940003,"lon":139.67136466},{"name":"大東文化大学正門前","province":"東京都","city":"板橋区","address":"東京都板橋区西台2丁目42","lat":35.78094001,"lon":139.66864846},{"name":"高島平駅前","province":"東京都","city":"板橋区","address":"東京都板橋区高島平8丁目2","lat":35.78876373,"lon":139.6614767},{"name":"赤塚新町郵便局前","province":"東京都","city":"板橋区","address":"東京都板橋区赤塚新町1丁目25-10","lat":35.77062128,"lon":139.64333992},{"name":"高島平駅北","province":"東京都","city":"板橋区","address":"東京都板橋区高島平8丁目18","lat":35.79037459,"lon":139.66179608},{"name":"高島平駅西口","province":"東京都","city":"板橋区","address":"東京都板橋区高島平7丁目2","lat":35.78959132,"lon":139.65997682},{"name":"三園浄水場","province":"東京都","city":"板橋区","address":"東京都板橋区三園2丁目10-1","lat":35.7948317,"lon":139.64197828},{"name":"区立城北公園","province":"東京都","city":"板橋区","address":"東京都板橋区坂下2丁目19-1","lat":35.78357064,"lon":139.68153885},{"name":"都立板橋高等学校","province":"東京都","city":"板橋区","address":"東京都板橋区大谷口1丁目54-1","lat":35.74187304,"lon":139.68991765},{"name":"都立赤塚公園","province":"東京都","city":"板橋区","address":"東京都板橋区高島平3丁目1","lat":35.78522804,"lon":139.65529951},{"name":"区立西徳第二公園","province":"東京都","city":"板橋区","address":"東京都板橋区西台3丁目42-1","lat":35.77615447,"lon":139.66783758},{"name":"大谷口給水所","province":"東京都","city":"板橋区","address":"東京都板橋区大谷口1丁目4","lat":35.74552822,"lon":139.69106185},{"name":"板橋トラックターミナル","province":"東京都","city":"板橋区","address":"東京都板橋区高島平6丁目1-1","lat":35.79228232,"lon":139.64660566},{"name":"１６板橋清掃工場","province":"東京都","city":"板橋区","address":"東京都板橋区高島平9丁目48-1","lat":35.79180785,"lon":139.66670672},{"name":"日大病院入口","province":"東京都","city":"板橋区","address":"東京都板橋区大山町57","lat":35.74984733,"lon":139.69578072},{"name":"大和町","province":"東京都","city":"板橋区","address":"東京都板橋区本町37-7","lat":35.76090186,"lon":139.70603215},{"name":"常盤台入口","province":"東京都","city":"板橋区","address":"東京都板橋区東山町50-10","lat":35.75582684,"lon":139.68663949},{"name":"板橋区民館入口","province":"東京都","city":"板橋区","address":"東京都板橋区大山東町31-1","lat":35.74961435,"lon":139.70811579},{"name":"板橋本町","province":"東京都","city":"板橋区","address":"東京都板橋区本町40-9","lat":35.7585466,"lon":139.7069544},{"name":"板橋駅前","province":"東京都","city":"板橋区","address":"東京都板橋区板橋1丁目44-6","lat":35.74867302,"lon":139.71760115},{"name":"板橋区役所前","province":"東京都","city":"板橋区","address":"東京都板橋区板橋2丁目66-1","lat":35.75091701,"lon":139.70919342},{"name":"板橋区役所駅前","province":"東京都","city":"板橋区","address":"東京都板橋区板橋2丁目66-16","lat":35.75148917,"lon":139.70964614},{"name":"岩の坂上","province":"東京都","city":"板橋区","address":"東京都板橋区本町35-13","lat":35.76130738,"lon":139.70665153},{"name":"大山駅入口","province":"東京都","city":"板橋区","address":"東京都板橋区大山金井町54-15","lat":35.74533967,"lon":139.70188039},{"name":"板橋中央陸橋下","province":"東京都","city":"板橋区","address":"東京都板橋区東山町48-4","lat":35.75524085,"lon":139.68766167},{"name":"武蔵野病院前","province":"東京都","city":"板橋区","address":"東京都板橋区小茂根4丁目10-1","lat":35.74608599,"lon":139.67504929},{"name":"南常盤台一丁目","province":"東京都","city":"板橋区","address":"東京都板橋区南常盤台1丁目18","lat":35.75685457,"lon":139.68869762},{"name":"加賀交番前","province":"東京都","city":"板橋区","address":"東京都板橋区加賀1丁目10-5","lat":35.7538085,"lon":139.71563721},{"name":"常盤台小学校前","province":"東京都","city":"板橋区","address":"東京都板橋区常盤台1丁目6-1","lat":35.75952655,"lon":139.69117507},{"name":"新板橋駅前","province":"東京都","city":"板橋区","address":"東京都板橋区板橋1丁目52-6","lat":35.74863141,"lon":139.71976208},{"name":"仲宿三差路","province":"東京都","city":"板橋区","address":"東京都板橋区板橋2丁目68-5","lat":35.75182801,"lon":139.70891008},{"name":"常盤台駅前中央通り","province":"東京都","city":"板橋区","address":"東京都板橋区常盤台1丁目10-8","lat":35.76124851,"lon":139.69019172},{"name":"南常盤台一丁目第二","province":"東京都","city":"板橋区","address":"東京都板橋区南常盤台1丁目35-2","lat":35.75699342,"lon":139.68795322},{"name":"板橋第一中前","province":"東京都","city":"板橋区","address":"東京都板橋区栄町35-1","lat":35.75211676,"lon":139.70474376},{"name":"板橋天祖神社前","province":"東京都","city":"板橋区","address":"東京都板橋区南常盤台1丁目32","lat":35.75800994,"lon":139.68779485},{"name":"常盤台駅北","province":"東京都","city":"板橋区","address":"東京都板橋区常盤台2丁目14-1","lat":35.76038471,"lon":139.68967236},{"name":"環七板橋本町","province":"東京都","city":"板橋区","address":"東京都板橋区本町11-2","lat":35.76257953,"lon":139.70947902},{"name":"めぐみ幼稚園前","province":"東京都","city":"板橋区","address":"東京都板橋区常盤台2丁目3-1","lat":35.75981526,"lon":139.68738645},{"name":"板橋大山公園前","province":"東京都","city":"板橋区","address":"東京都板橋区栄町36-1","lat":35.75082525,"lon":139.70499935},{"name":"蓮沼町","province":"東京都","city":"板橋区","address":"東京都板橋区泉町7-7","lat":35.76863411,"lon":139.70194327},{"name":"志村坂上","province":"東京都","city":"板橋区","address":"東京都板橋区志村2丁目3-1","lat":35.77656347,"lon":139.69438248},{"name":"前野町二丁目","province":"東京都","city":"板橋区","address":"東京都板橋区前野町2丁目13-4","lat":35.76358709,"lon":139.68902782},{"name":"蓮根三丁目","province":"東京都","city":"板橋区","address":"東京都板橋区坂下3丁目10-6","lat":35.78559254,"lon":139.6796473},{"name":"志村三丁目","province":"東京都","city":"板橋区","address":"東京都板橋区坂下1丁目7-1","lat":35.77891576,"lon":139.68546089},{"name":"小豆沢公園前","province":"東京都","city":"板橋区","address":"東京都板橋区小豆沢3丁目1","lat":35.77861607,"lon":139.69794601},{"name":"坂下一丁目都営住宅前","province":"東京都","city":"板橋区","address":"東京都板橋区坂下1丁目11-3","lat":35.7787185,"lon":139.68319998},{"name":"前野町二丁目東","province":"東京都","city":"板橋区","address":"東京都板橋区常盤台2丁目27-10","lat":35.76318995,"lon":139.69005554},{"name":"ナショナルトレーニングセンター前","province":"東京都","city":"板橋区","address":"東京都板橋区清水町60-11","lat":35.76596516,"lon":139.70760404},{"name":"小豆沢三丁目東","province":"東京都","city":"板橋区","address":"東京都板橋区小豆沢3丁目9-5","lat":35.78011301,"lon":139.6944379},{"name":"成増","province":"東京都","city":"板橋区","address":"東京都板橋区成増2丁目21-6","lat":35.7780173,"lon":139.62992967},{"name":"成増駅前","province":"東京都","city":"板橋区","address":"東京都板橋区成増2丁目16-1","lat":35.77645087,"lon":139.63214065},{"name":"西台駅南","province":"東京都","city":"板橋区","address":"東京都板橋区蓮根3丁目8-12","lat":35.78591733,"lon":139.67492551},{"name":"高島平三丁目","province":"東京都","city":"板橋区","address":"東京都板橋区高島平7丁目1-1","lat":35.79046608,"lon":139.65332458},{"name":"高島平二丁目","province":"東京都","city":"板橋区","address":"東京都板橋区高島平8丁目2-1","lat":35.7888276,"lon":139.66119894},{"name":"新河岸一丁目","province":"東京都","city":"板橋区","address":"東京都板橋区新河岸2丁目1-31","lat":35.79441288,"lon":139.66290424},{"name":"高島平八丁目東","province":"東京都","city":"板橋区","address":"東京都板橋区高島平8丁目11","lat":35.78961364,"lon":139.66311541},{"name":"高島平警察署前","province":"東京都","city":"板橋区","address":"東京都板橋区高島平2丁目33-6","lat":35.78590855,"lon":139.65968524},{"name":"高島平出張所前","province":"東京都","city":"板橋区","address":"東京都板橋区高島平3丁目13","lat":35.78795544,"lon":139.65866029},{"name":"西台駅前ガード下","province":"東京都","city":"板橋区","address":"東京都板橋区蓮根3丁目9-7","lat":35.78688387,"lon":139.67475327},{"name":"高島一の橋","province":"東京都","city":"板橋区","address":"東京都板橋区高島平9丁目23-1","lat":35.79038028,"lon":139.66622624},{"name":"板橋清掃工場入口","province":"東京都","city":"板橋区","address":"東京都板橋区高島平9丁目14","lat":35.78940268,"lon":139.66686785},{"name":"大東文化大学前","province":"東京都","city":"板橋区","address":"東京都板橋区高島平1丁目5-8","lat":35.78142053,"lon":139.66988722},{"name":"赤塚六丁目","province":"東京都","city":"板橋区","address":"東京都板橋区赤塚6丁目7-1","lat":35.77625681,"lon":139.64687551},{"name":"高島平九丁目第三","province":"東京都","city":"板橋区","address":"東京都板橋区高島平9丁目2","lat":35.78940003,"lon":139.67136466},{"name":"大東文化大学正門前","province":"東京都","city":"板橋区","address":"東京都板橋区西台2丁目42","lat":35.78094001,"lon":139.66864846},{"name":"高島平駅前","province":"東京都","city":"板橋区","address":"東京都板橋区高島平8丁目2","lat":35.78876373,"lon":139.6614767},{"name":"赤塚新町郵便局前","province":"東京都","city":"板橋区","address":"東京都板橋区赤塚新町1丁目25-10","lat":35.77062128,"lon":139.64333992},{"name":"高島平駅北","province":"東京都","city":"板橋区","address":"東京都板橋区高島平8丁目18","lat":35.79037459,"lon":139.66179608},{"name":"高島平駅西口","province":"東京都","city":"板橋区","address":"東京都板橋区高島平7丁目2","lat":35.78959132,"lon":139.65997682},{"name":"三園浄水場","province":"東京都","city":"板橋区","address":"東京都板橋区三園2丁目10-1","lat":35.7948317,"lon":139.64197828},{"name":"区立城北公園","province":"東京都","city":"板橋区","address":"東京都板橋区坂下2丁目19-1","lat":35.78357064,"lon":139.68153885},{"name":"都立板橋高等学校","province":"東京都","city":"板橋区","address":"東京都板橋区大谷口1丁目54-1","lat":35.74187304,"lon":139.68991765},{"name":"都立赤塚公園","province":"東京都","city":"板橋区","address":"東京都板橋区高島平3丁目1","lat":35.78522804,"lon":139.65529951},{"name":"区立西徳第二公園","province":"東京都","city":"板橋区","address":"東京都板橋区西台3丁目42-1","lat":35.77615447,"lon":139.66783758},{"name":"大谷口給水所","province":"東京都","city":"板橋区","address":"東京都板橋区大谷口1丁目4","lat":35.74552822,"lon":139.69106185},{"name":"板橋トラックターミナル","province":"東京都","city":"板橋区","address":"東京都板橋区高島平6丁目1-1","lat":35.79228232,"lon":139.64660566},{"name":"１６板橋清掃工場","province":"東京都","city":"板橋区","address":"東京都板橋区高島平9丁目48-1","lat":35.79180785,"lon":139.66670672},{"name":"日大病院入口","province":"東京都","city":"板橋区","address":"東京都板橋区大山町57","lat":35.74984733,"lon":139.69578072},{"name":"大和町","province":"東京都","city":"板橋区","address":"東京都板橋区本町37-7","lat":35.76090186,"lon":139.70603215},{"name":"常盤台入口","province":"東京都","city":"板橋区","address":"東京都板橋区東山町50-10","lat":35.75582684,"lon":139.68663949},{"name":"板橋区民館入口","province":"東京都","city":"板橋区","address":"東京都板橋区大山東町31-1","lat":35.74961435,"lon":139.70811579},{"name":"板橋本町","province":"東京都","city":"板橋区","address":"東京都板橋区本町40-9","lat":35.7585466,"lon":139.7069544},{"name":"板橋駅前","province":"東京都","city":"板橋区","address":"東京都板橋区板橋1丁目44-6","lat":35.74867302,"lon":139.71760115},{"name":"板橋区役所前","province":"東京都","city":"板橋区","address":"東京都板橋区板橋2丁目66-1","lat":35.75091701,"lon":139.70919342},{"name":"板橋区役所駅前","province":"東京都","city":"板橋区","address":"東京都板橋区板橋2丁目66-16","lat":35.75148917,"lon":139.70964614},{"name":"岩の坂上","province":"東京都","city":"板橋区","address":"東京都板橋区本町35-13","lat":35.76130738,"lon":139.70665153},{"name":"大山駅入口","province":"東京都","city":"板橋区","address":"東京都板橋区大山金井町54-15","lat":35.74533967,"lon":139.70188039},{"name":"板橋中央陸橋下","province":"東京都","city":"板橋区","address":"東京都板橋区東山町48-4","lat":35.75524085,"lon":139.68766167},{"name":"武蔵野病院前","province":"東京都","city":"板橋区","address":"東京都板橋区小茂根4丁目10-1","lat":35.74608599,"lon":139.67504929},{"name":"南常盤台一丁目","province":"東京都","city":"板橋区","address":"東京都板橋区南常盤台1丁目18","lat":35.75685457,"lon":139.68869762},{"name":"加賀交番前","province":"東京都","city":"板橋区","address":"東京都板橋区加賀1丁目10-5","lat":35.7538085,"lon":139.71563721},{"name":"常盤台小学校前","province":"東京都","city":"板橋区","address":"東京都板橋区常盤台1丁目6-1","lat":35.75952655,"lon":139.69117507},{"name":"新板橋駅前","province":"東京都","city":"板橋区","address":"東京都板橋区板橋1丁目52-6","lat":35.74863141,"lon":139.71976208},{"name":"仲宿三差路","province":"東京都","city":"板橋区","address":"東京都板橋区板橋2丁目68-5","lat":35.75182801,"lon":139.70891008},{"name":"常盤台駅前中央通り","province":"東京都","city":"板橋区","address":"東京都板橋区常盤台1丁目10-8","lat":35.76124851,"lon":139.69019172},{"name":"南常盤台一丁目第二","province":"東京都","city":"板橋区","address":"東京都板橋区南常盤台1丁目35-2","lat":35.75699342,"lon":139.68795322},{"name":"板橋第一中前","province":"東京都","city":"板橋区","address":"東京都板橋区栄町35-1","lat":35.75211676,"lon":139.70474376},{"name":"板橋天祖神社前","province":"東京都","city":"板橋区","address":"東京都板橋区南常盤台1丁目32","lat":35.75800994,"lon":139.68779485},{"name":"常盤台駅北","province":"東京都","city":"板橋区","address":"東京都板橋区常盤台2丁目14-1","lat":35.76038471,"lon":139.68967236},{"name":"環七板橋本町","province":"東京都","city":"板橋区","address":"東京都板橋区本町11-2","lat":35.76257953,"lon":139.70947902},{"name":"めぐみ幼稚園前","province":"東京都","city":"板橋区","address":"東京都板橋区常盤台2丁目3-1","lat":35.75981526,"lon":139.68738645},{"name":"板橋大山公園前","province":"東京都","city":"板橋区","address":"東京都板橋区栄町36-1","lat":35.75082525,"lon":139.70499935},{"name":"蓮沼町","province":"東京都","city":"板橋区","address":"東京都板橋区泉町7-7","lat":35.76863411,"lon":139.70194327},{"name":"志村坂上","province":"東京都","city":"板橋区","address":"東京都板橋区志村2丁目3-1","lat":35.77656347,"lon":139.69438248},{"name":"前野町二丁目","province":"東京都","city":"板橋区","address":"東京都板橋区前野町2丁目13-4","lat":35.76358709,"lon":139.68902782},{"name":"蓮根三丁目","province":"東京都","city":"板橋区","address":"東京都板橋区坂下3丁目10-6","lat":35.78559254,"lon":139.6796473},{"name":"志村三丁目","province":"東京都","city":"板橋区","address":"東京都板橋区坂下1丁目7-1","lat":35.77891576,"lon":139.68546089},{"name":"小豆沢公園前","province":"東京都","city":"板橋区","address":"東京都板橋区小豆沢3丁目1","lat":35.77861607,"lon":139.69794601},{"name":"坂下一丁目都営住宅前","province":"東京都","city":"板橋区","address":"東京都板橋区坂下1丁目11-3","lat":35.7787185,"lon":139.68319998},{"name":"前野町二丁目東","province":"東京都","city":"板橋区","address":"東京都板橋区常盤台2丁目27-10","lat":35.76318995,"lon":139.69005554},{"name":"ナショナルトレーニングセンター前","province":"東京都","city":"板橋区","address":"東京都板橋区清水町60-11","lat":35.76596516,"lon":139.70760404},{"name":"小豆沢三丁目東","province":"東京都","city":"板橋区","address":"東京都板橋区小豆沢3丁目9-5","lat":35.78011301,"lon":139.6944379},{"name":"成増","province":"東京都","city":"板橋区","address":"東京都板橋区成増2丁目21-6","lat":35.7780173,"lon":139.62992967},{"name":"成増駅前","province":"東京都","city":"板橋区","address":"東京都板橋区成増2丁目16-1","lat":35.77645087,"lon":139.63214065},{"name":"西台駅南","province":"東京都","city":"板橋区","address":"東京都板橋区蓮根3丁目8-12","lat":35.78591733,"lon":139.67492551},{"name":"高島平三丁目","province":"東京都","city":"板橋区","address":"東京都板橋区高島平7丁目1-1","lat":35.79046608,"lon":139.65332458},{"name":"高島平二丁目","province":"東京都","city":"板橋区","address":"東京都板橋区高島平8丁目2-1","lat":35.7888276,"lon":139.66119894},{"name":"新河岸一丁目","province":"東京都","city":"板橋区","address":"東京都板橋区新河岸2丁目1-31","lat":35.79441288,"lon":139.66290424},{"name":"高島平八丁目東","province":"東京都","city":"板橋区","address":"東京都板橋区高島平8丁目11","lat":35.78961364,"lon":139.66311541},{"name":"高島平警察署前","province":"東京都","city":"板橋区","address":"東京都板橋区高島平2丁目33-6","lat":35.78590855,"lon":139.65968524},{"name":"高島平出張所前","province":"東京都","city":"板橋区","address":"東京都板橋区高島平3丁目13","lat":35.78795544,"lon":139.65866029},{"name":"西台駅前ガード下","province":"東京都","city":"板橋区","address":"東京都板橋区蓮根3丁目9-7","lat":35.78688387,"lon":139.67475327},{"name":"高島一の橋","province":"東京都","city":"板橋区","address":"東京都板橋区高島平9丁目23-1","lat":35.79038028,"lon":139.66622624},{"name":"板橋清掃工場入口","province":"東京都","city":"板橋区","address":"東京都板橋区高島平9丁目14","lat":35.78940268,"lon":139.66686785},{"name":"大東文化大学前","province":"東京都","city":"板橋区","address":"東京都板橋区高島平1丁目5-8","lat":35.78142053,"lon":139.66988722},{"name":"赤塚六丁目","province":"東京都","city":"板橋区","address":"東京都板橋区赤塚6丁目7-1","lat":35.77625681,"lon":139.64687551},{"name":"高島平九丁目第三","province":"東京都","city":"板橋区","address":"東京都板橋区高島平9丁目2","lat":35.78940003,"lon":139.67136466},{"name":"大東文化大学正門前","province":"東京都","city":"板橋区","address":"東京都板橋区西台2丁目42","lat":35.78094001,"lon":139.66864846},{"name":"高島平駅前","province":"東京都","city":"板橋区","address":"東京都板橋区高島平8丁目2","lat":35.78876373,"lon":139.6614767},{"name":"赤塚新町郵便局前","province":"東京都","city":"板橋区","address":"東京都板橋区赤塚新町1丁目25-10","lat":35.77062128,"lon":139.64333992},{"name":"高島平駅北","province":"東京都","city":"板橋区","address":"東京都板橋区高島平8丁目18","lat":35.79037459,"lon":139.66179608},{"name":"高島平駅西口","province":"東京都","city":"板橋区","address":"東京都板橋区高島平7丁目2","lat":35.78959132,"lon":139.65997682},{"name":"三園浄水場","province":"東京都","city":"板橋区","address":"東京都板橋区三園2丁目10-1","lat":35.7948317,"lon":139.64197828},{"name":"区立城北公園","province":"東京都","city":"板橋区","address":"東京都板橋区坂下2丁目19-1","lat":35.78357064,"lon":139.68153885},{"name":"都立板橋高等学校","province":"東京都","city":"板橋区","address":"東京都板橋区大谷口1丁目54-1","lat":35.74187304,"lon":139.68991765},{"name":"都立赤塚公園","province":"東京都","city":"板橋区","address":"東京都板橋区高島平3丁目1","lat":35.78522804,"lon":139.65529951},{"name":"区立西徳第二公園","province":"東京都","city":"板橋区","address":"東京都板橋区西台3丁目42-1","lat":35.77615447,"lon":139.66783758},{"name":"大谷口給水所","province":"東京都","city":"板橋区","address":"東京都板橋区大谷口1丁目4","lat":35.74552822,"lon":139.69106185},{"name":"板橋トラックターミナル","province":"東京都","city":"板橋区","address":"東京都板橋区高島平6丁目1-1","lat":35.79228232,"lon":139.64660566},{"name":"１６板橋清掃工場","province":"東京都","city":"板橋区","address":"東京都板橋区高島平9丁目48-1","lat":35.79180785,"lon":139.66670672},{"name":"日大病院入口","province":"東京都","city":"板橋区","address":"東京都板橋区大山町57","lat":35.74984733,"lon":139.69578072},{"name":"大和町","province":"東京都","city":"板橋区","address":"東京都板橋区本町37-7","lat":35.76090186,"lon":139.70603215},{"name":"常盤台入口","province":"東京都","city":"板橋区","address":"東京都板橋区東山町50-10","lat":35.75582684,"lon":139.68663949},{"name":"板橋区民館入口","province":"東京都","city":"板橋区","address":"東京都板橋区大山東町31-1","lat":35.74961435,"lon":139.70811579},{"name":"板橋本町","province":"東京都","city":"板橋区","address":"東京都板橋区本町40-9","lat":35.7585466,"lon":139.7069544},{"name":"板橋駅前","province":"東京都","city":"板橋区","address":"東京都板橋区板橋1丁目44-6","lat":35.74867302,"lon":139.71760115},{"name":"板橋区役所前","province":"東京都","city":"板橋区","address":"東京都板橋区板橋2丁目66-1","lat":35.75091701,"lon":139.70919342},{"name":"板橋区役所駅前","province":"東京都","city":"板橋区","address":"東京都板橋区板橋2丁目66-16","lat":35.75148917,"lon":139.70964614},{"name":"岩の坂上","province":"東京都","city":"板橋区","address":"東京都板橋区本町35-13","lat":35.76130738,"lon":139.70665153},{"name":"大山駅入口","province":"東京都","city":"板橋区","address":"東京都板橋区大山金井町54-15","lat":35.74533967,"lon":139.70188039},{"name":"板橋中央陸橋下","province":"東京都","city":"板橋区","address":"東京都板橋区東山町48-4","lat":35.75524085,"lon":139.68766167},{"name":"武蔵野病院前","province":"東京都","city":"板橋区","address":"東京都板橋区小茂根4丁目10-1","lat":35.74608599,"lon":139.67504929},{"name":"南常盤台一丁目","province":"東京都","city":"板橋区","address":"東京都板橋区南常盤台1丁目18","lat":35.75685457,"lon":139.68869762},{"name":"加賀交番前","province":"東京都","city":"板橋区","address":"東京都板橋区加賀1丁目10-5","lat":35.7538085,"lon":139.71563721},{"name":"常盤台小学校前","province":"東京都","city":"板橋区","address":"東京都板橋区常盤台1丁目6-1","lat":35.75952655,"lon":139.69117507},{"name":"新板橋駅前","province":"東京都","city":"板橋区","address":"東京都板橋区板橋1丁目52-6","lat":35.74863141,"lon":139.71976208},{"name":"仲宿三差路","province":"東京都","city":"板橋区","address":"東京都板橋区板橋2丁目68-5","lat":35.75182801,"lon":139.70891008},{"name":"常盤台駅前中央通り","province":"東京都","city":"板橋区","address":"東京都板橋区常盤台1丁目10-8","lat":35.76124851,"lon":139.69019172},{"name":"南常盤台一丁目第二","province":"東京都","city":"板橋区","address":"東京都板橋区南常盤台1丁目35-2","lat":35.75699342,"lon":139.68795322},{"name":"板橋第一中前","province":"東京都","city":"板橋区","address":"東京都板橋区栄町35-1","lat":35.75211676,"lon":139.70474376},{"name":"板橋天祖神社前","province":"東京都","city":"板橋区","address":"東京都板橋区南常盤台1丁目32","lat":35.75800994,"lon":139.68779485},{"name":"常盤台駅北","province":"東京都","city":"板橋区","address":"東京都板橋区常盤台2丁目14-1","lat":35.76038471,"lon":139.68967236},{"name":"環七板橋本町","province":"東京都","city":"板橋区","address":"東京都板橋区本町11-2","lat":35.76257953,"lon":139.70947902},{"name":"めぐみ幼稚園前","province":"東京都","city":"板橋区","address":"東京都板橋区常盤台2丁目3-1","lat":35.75981526,"lon":139.68738645},{"name":"板橋大山公園前","province":"東京都","city":"板橋区","address":"東京都板橋区栄町36-1","lat":35.75082525,"lon":139.70499935},{"name":"蓮沼町","province":"東京都","city":"板橋区","address":"東京都板橋区泉町7-7","lat":35.76863411,"lon":139.70194327},{"name":"志村坂上","province":"東京都","city":"板橋区","address":"東京都板橋区志村2丁目3-1","lat":35.77656347,"lon":139.69438248},{"name":"前野町二丁目","province":"東京都","city":"板橋区","address":"東京都板橋区前野町2丁目13-4","lat":35.76358709,"lon":139.68902782},{"name":"蓮根三丁目","province":"東京都","city":"板橋区","address":"東京都板橋区坂下3丁目10-6","lat":35.78559254,"lon":139.6796473},{"name":"志村三丁目","province":"東京都","city":"板橋区","address":"東京都板橋区坂下1丁目7-1","lat":35.77891576,"lon":139.68546089},{"name":"小豆沢公園前","province":"東京都","city":"板橋区","address":"東京都板橋区小豆沢3丁目1","lat":35.77861607,"lon":139.69794601},{"name":"坂下一丁目都営住宅前","province":"東京都","city":"板橋区","address":"東京都板橋区坂下1丁目11-3","lat":35.7787185,"lon":139.68319998},{"name":"前野町二丁目東","province":"東京都","city":"板橋区","address":"東京都板橋区常盤台2丁目27-10","lat":35.76318995,"lon":139.69005554},{"name":"ナショナルトレーニングセンター前","province":"東京都","city":"板橋区","address":"東京都板橋区清水町60-11","lat":35.76596516,"lon":139.70760404},{"name":"小豆沢三丁目東","province":"東京都","city":"板橋区","address":"東京都板橋区小豆沢3丁目9-5","lat":35.78011301,"lon":139.6944379},{"name":"成増","province":"東京都","city":"板橋区","address":"東京都板橋区成増2丁目21-6","lat":35.7780173,"lon":139.62992967},{"name":"成増駅前","province":"東京都","city":"板橋区","address":"東京都板橋区成増2丁目16-1","lat":35.77645087,"lon":139.63214065},{"name":"西台駅南","province":"東京都","city":"板橋区","address":"東京都板橋区蓮根3丁目8-12","lat":35.78591733,"lon":139.67492551},{"name":"高島平三丁目","province":"東京都","city":"板橋区","address":"東京都板橋区高島平7丁目1-1","lat":35.79046608,"lon":139.65332458},{"name":"高島平二丁目","province":"東京都","city":"板橋区","address":"東京都板橋区高島平8丁目2-1","lat":35.7888276,"lon":139.66119894},{"name":"新河岸一丁目","province":"東京都","city":"板橋区","address":"東京都板橋区新河岸2丁目1-31","lat":35.79441288,"lon":139.66290424},{"name":"高島平八丁目東","province":"東京都","city":"板橋区","address":"東京都板橋区高島平8丁目11","lat":35.78961364,"lon":139.66311541},{"name":"高島平警察署前","province":"東京都","city":"板橋区","address":"東京都板橋区高島平2丁目33-6","lat":35.78590855,"lon":139.65968524},{"name":"高島平出張所前","province":"東京都","city":"板橋区","address":"東京都板橋区高島平3丁目13","lat":35.78795544,"lon":139.65866029},{"name":"西台駅前ガード下","province":"東京都","city":"板橋区","address":"東京都板橋区蓮根3丁目9-7","lat":35.78688387,"lon":139.67475327},{"name":"高島一の橋","province":"東京都","city":"板橋区","address":"東京都板橋区高島平9丁目23-1","lat":35.79038028,"lon":139.66622624},{"name":"板橋清掃工場入口","province":"東京都","city":"板橋区","address":"東京都板橋区高島平9丁目14","lat":35.78940268,"lon":139.66686785},{"name":"大東文化大学前","province":"東京都","city":"板橋区","address":"東京都板橋区高島平1丁目5-8","lat":35.78142053,"lon":139.66988722},{"name":"赤塚六丁目","province":"東京都","city":"板橋区","address":"東京都板橋区赤塚6丁目7-1","lat":35.77625681,"lon":139.64687551},{"name":"高島平九丁目第三","province":"東京都","city":"板橋区","address":"東京都板橋区高島平9丁目2","lat":35.78940003,"lon":139.67136466},{"name":"大東文化大学正門前","province":"東京都","city":"板橋区","address":"東京都板橋区西台2丁目42","lat":35.78094001,"lon":139.66864846},{"name":"高島平駅前","province":"東京都","city":"板橋区","address":"東京都板橋区高島平8丁目2","lat":35.78876373,"lon":139.6614767},{"name":"赤塚新町郵便局前","province":"東京都","city":"板橋区","address":"東京都板橋区赤塚新町1丁目25-10","lat":35.77062128,"lon":139.64333992},{"name":"高島平駅北","province":"東京都","city":"板橋区","address":"東京都板橋区高島平8丁目18","lat":35.79037459,"lon":139.66179608},{"name":"高島平駅西口","province":"東京都","city":"板橋区","address":"東京都板橋区高島平7丁目2","lat":35.78959132,"lon":139.65997682},{"name":"三園浄水場","province":"東京都","city":"板橋区","address":"東京都板橋区三園2丁目10-1","lat":35.7948317,"lon":139.64197828},{"name":"区立城北公園","province":"東京都","city":"板橋区","address":"東京都板橋区坂下2丁目19-1","lat":35.78357064,"lon":139.68153885},{"name":"都立板橋高等学校","province":"東京都","city":"板橋区","address":"東京都板橋区大谷口1丁目54-1","lat":35.74187304,"lon":139.68991765},{"name":"都立赤塚公園","province":"東京都","city":"板橋区","address":"東京都板橋区高島平3丁目1","lat":35.78522804,"lon":139.65529951},{"name":"区立西徳第二公園","province":"東京都","city":"板橋区","address":"東京都板橋区西台3丁目42-1","lat":35.77615447,"lon":139.66783758},{"name":"大谷口給水所","province":"東京都","city":"板橋区","address":"東京都板橋区大谷口1丁目4","lat":35.74552822,"lon":139.69106185},{"name":"板橋トラックターミナル","province":"東京都","city":"板橋区","address":"東京都板橋区高島平6丁目1-1","lat":35.79228232,"lon":139.64660566},{"name":"１６板橋清掃工場","province":"東京都","city":"板橋区","address":"東京都板橋区高島平9丁目48-1","lat":35.79180785,"lon":139.66670672},{"name":"日大病院入口","province":"東京都","city":"板橋区","address":"東京都板橋区大山町57","lat":35.74984733,"lon":139.69578072},{"name":"大和町","province":"東京都","city":"板橋区","address":"東京都板橋区本町37-7","lat":35.76090186,"lon":139.70603215},{"name":"常盤台入口","province":"東京都","city":"板橋区","address":"東京都板橋区東山町50-10","lat":35.75582684,"lon":139.68663949},{"name":"板橋区民館入口","province":"東京都","city":"板橋区","address":"東京都板橋区大山東町31-1","lat":35.74961435,"lon":139.70811579},{"name":"板橋本町","province":"東京都","city":"板橋区","address":"東京都板橋区本町40-9","lat":35.7585466,"lon":139.7069544},{"name":"板橋駅前","province":"東京都","city":"板橋区","address":"東京都板橋区板橋1丁目44-6","lat":35.74867302,"lon":139.71760115},{"name":"板橋区役所前","province":"東京都","city":"板橋区","address":"東京都板橋区板橋2丁目66-1","lat":35.75091701,"lon":139.70919342},{"name":"板橋区役所駅前","province":"東京都","city":"板橋区","address":"東京都板橋区板橋2丁目66-16","lat":35.75148917,"lon":139.70964614},{"name":"岩の坂上","province":"東京都","city":"板橋区","address":"東京都板橋区本町35-13","lat":35.76130738,"lon":139.70665153},{"name":"大山駅入口","province":"東京都","city":"板橋区","address":"東京都板橋区大山金井町54-15","lat":35.74533967,"lon":139.70188039},{"name":"板橋中央陸橋下","province":"東京都","city":"板橋区","address":"東京都板橋区東山町48-4","lat":35.75524085,"lon":139.68766167},{"name":"武蔵野病院前","province":"東京都","city":"板橋区","address":"東京都板橋区小茂根4丁目10-1","lat":35.74608599,"lon":139.67504929},{"name":"南常盤台一丁目","province":"東京都","city":"板橋区","address":"東京都板橋区南常盤台1丁目18","lat":35.75685457,"lon":139.68869762},{"name":"加賀交番前","province":"東京都","city":"板橋区","address":"東京都板橋区加賀1丁目10-5","lat":35.7538085,"lon":139.71563721},{"name":"常盤台小学校前","province":"東京都","city":"板橋区","address":"東京都板橋区常盤台1丁目6-1","lat":35.75952655,"lon":139.69117507},{"name":"新板橋駅前","province":"東京都","city":"板橋区","address":"東京都板橋区板橋1丁目52-6","lat":35.74863141,"lon":139.71976208},{"name":"仲宿三差路","province":"東京都","city":"板橋区","address":"東京都板橋区板橋2丁目68-5","lat":35.75182801,"lon":139.70891008},{"name":"常盤台駅前中央通り","province":"東京都","city":"板橋区","address":"東京都板橋区常盤台1丁目10-8","lat":35.76124851,"lon":139.69019172},{"name":"南常盤台一丁目第二","province":"東京都","city":"板橋区","address":"東京都板橋区南常盤台1丁目35-2","lat":35.75699342,"lon":139.68795322},{"name":"板橋第一中前","province":"東京都","city":"板橋区","address":"東京都板橋区栄町35-1","lat":35.75211676,"lon":139.70474376},{"name":"板橋天祖神社前","province":"東京都","city":"板橋区","address":"東京都板橋区南常盤台1丁目32","lat":35.75800994,"lon":139.68779485},{"name":"常盤台駅北","province":"東京都","city":"板橋区","address":"東京都板橋区常盤台2丁目14-1","lat":35.76038471,"lon":139.68967236},{"name":"環七板橋本町","province":"東京都","city":"板橋区","address":"東京都板橋区本町11-2","lat":35.76257953,"lon":139.70947902},{"name":"めぐみ幼稚園前","province":"東京都","city":"板橋区","address":"東京都板橋区常盤台2丁目3-1","lat":35.75981526,"lon":139.68738645},{"name":"板橋大山公園前","province":"東京都","city":"板橋区","address":"東京都板橋区栄町36-1","lat":35.75082525,"lon":139.70499935},{"name":"蓮沼町","province":"東京都","city":"板橋区","address":"東京都板橋区泉町7-7","lat":35.76863411,"lon":139.70194327},{"name":"志村坂上","province":"東京都","city":"板橋区","address":"東京都板橋区志村2丁目3-1","lat":35.77656347,"lon":139.69438248},{"name":"前野町二丁目","province":"東京都","city":"板橋区","address":"東京都板橋区前野町2丁目13-4","lat":35.76358709,"lon":139.68902782},{"name":"蓮根三丁目","province":"東京都","city":"板橋区","address":"東京都板橋区坂下3丁目10-6","lat":35.78559254,"lon":139.6796473},{"name":"志村三丁目","province":"東京都","city":"板橋区","address":"東京都板橋区坂下1丁目7-1","lat":35.77891576,"lon":139.68546089},{"name":"小豆沢公園前","province":"東京都","city":"板橋区","address":"東京都板橋区小豆沢3丁目1","lat":35.77861607,"lon":139.69794601},{"name":"坂下一丁目都営住宅前","province":"東京都","city":"板橋区","address":"東京都板橋区坂下1丁目11-3","lat":35.7787185,"lon":139.68319998},{"name":"前野町二丁目東","province":"東京都","city":"板橋区","address":"東京都板橋区常盤台2丁目27-10","lat":35.76318995,"lon":139.69005554},{"name":"ナショナルトレーニングセンター前","province":"東京都","city":"板橋区","address":"東京都板橋区清水町60-11","lat":35.76596516,"lon":139.70760404},{"name":"小豆沢三丁目東","province":"東京都","city":"板橋区","address":"東京都板橋区小豆沢3丁目9-5","lat":35.78011301,"lon":139.6944379},{"name":"成増","province":"東京都","city":"板橋区","address":"東京都板橋区成増2丁目21-6","lat":35.7780173,"lon":139.62992967},{"name":"成増駅前","province":"東京都","city":"板橋区","address":"東京都板橋区成増2丁目16-1","lat":35.77645087,"lon":139.63214065},{"name":"西台駅南","province":"東京都","city":"板橋区","address":"東京都板橋区蓮根3丁目8-12","lat":35.78591733,"lon":139.67492551},{"name":"高島平三丁目","province":"東京都","city":"板橋区","address":"東京都板橋区高島平7丁目1-1","lat":35.79046608,"lon":139.65332458},{"name":"高島平二丁目","province":"東京都","city":"板橋区","address":"東京都板橋区高島平8丁目2-1","lat":35.7888276,"lon":139.66119894},{"name":"新河岸一丁目","province":"東京都","city":"板橋区","address":"東京都板橋区新河岸2丁目1-31","lat":35.79441288,"lon":139.66290424},{"name":"高島平八丁目東","province":"東京都","city":"板橋区","address":"東京都板橋区高島平8丁目11","lat":35.78961364,"lon":139.66311541},{"name":"高島平警察署前","province":"東京都","city":"板橋区","address":"東京都板橋区高島平2丁目33-6","lat":35.78590855,"lon":139.65968524},{"name":"高島平出張所前","province":"東京都","city":"板橋区","address":"東京都板橋区高島平3丁目13","lat":35.78795544,"lon":139.65866029},{"name":"西台駅前ガード下","province":"東京都","city":"板橋区","address":"東京都板橋区蓮根3丁目9-7","lat":35.78688387,"lon":139.67475327},{"name":"高島一の橋","province":"東京都","city":"板橋区","address":"東京都板橋区高島平9丁目23-1","lat":35.79038028,"lon":139.66622624},{"name":"板橋清掃工場入口","province":"東京都","city":"板橋区","address":"東京都板橋区高島平9丁目14","lat":35.78940268,"lon":139.66686785},{"name":"大東文化大学前","province":"東京都","city":"板橋区","address":"東京都板橋区高島平1丁目5-8","lat":35.78142053,"lon":139.66988722},{"name":"赤塚六丁目","province":"東京都","city":"板橋区","address":"東京都板橋区赤塚6丁目7-1","lat":35.77625681,"lon":139.64687551},{"name":"高島平九丁目第三","province":"東京都","city":"板橋区","address":"東京都板橋区高島平9丁目2","lat":35.78940003,"lon":139.67136466},{"name":"大東文化大学正門前","province":"東京都","city":"板橋区","address":"東京都板橋区西台2丁目42","lat":35.78094001,"lon":139.66864846},{"name":"高島平駅前","province":"東京都","city":"板橋区","address":"東京都板橋区高島平8丁目2","lat":35.78876373,"lon":139.6614767},{"name":"赤塚新町郵便局前","province":"東京都","city":"板橋区","address":"東京都板橋区赤塚新町1丁目25-10","lat":35.77062128,"lon":139.64333992},{"name":"高島平駅北","province":"東京都","city":"板橋区","address":"東京都板橋区高島平8丁目18","lat":35.79037459,"lon":139.66179608},{"name":"高島平駅西口","province":"東京都","city":"板橋区","address":"東京都板橋区高島平7丁目2","lat":35.78959132,"lon":139.65997682},{"name":"三園浄水場","province":"東京都","city":"板橋区","address":"東京都板橋区三園2丁目10-1","lat":35.7948317,"lon":139.64197828},{"name":"区立城北公園","province":"東京都","city":"板橋区","address":"東京都板橋区坂下2丁目19-1","lat":35.78357064,"lon":139.68153885},{"name":"都立板橋高等学校","province":"東京都","city":"板橋区","address":"東京都板橋区大谷口1丁目54-1","lat":35.74187304,"lon":139.68991765},{"name":"都立赤塚公園","province":"東京都","city":"板橋区","address":"東京都板橋区高島平3丁目1","lat":35.78522804,"lon":139.65529951},{"name":"区立西徳第二公園","province":"東京都","city":"板橋区","address":"東京都板橋区西台3丁目42-1","lat":35.77615447,"lon":139.66783758},{"name":"大谷口給水所","province":"東京都","city":"板橋区","address":"東京都板橋区大谷口1丁目4","lat":35.74552822,"lon":139.69106185},{"name":"板橋トラックターミナル","province":"東京都","city":"板橋区","address":"東京都板橋区高島平6丁目1-1","lat":35.79228232,"lon":139.64660566},{"name":"１６板橋清掃工場","province":"東京都","city":"板橋区","address":"東京都板橋区高島平9丁目48-1","lat":35.79180785,"lon":139.66670672},{"name":"日大病院入口","province":"東京都","city":"板橋区","address":"東京都板橋区大山町57","lat":35.74984733,"lon":139.69578072},{"name":"大和町","province":"東京都","city":"板橋区","address":"東京都板橋区本町37-7","lat":35.76090186,"lon":139.70603215},{"name":"常盤台入口","province":"東京都","city":"板橋区","address":"東京都板橋区東山町50-10","lat":35.75582684,"lon":139.68663949},{"name":"板橋区民館入口","province":"東京都","city":"板橋区","address":"東京都板橋区大山東町31-1","lat":35.74961435,"lon":139.70811579},{"name":"板橋本町","province":"東京都","city":"板橋区","address":"東京都板橋区本町40-9","lat":35.7585466,"lon":139.7069544},{"name":"板橋駅前","province":"東京都","city":"板橋区","address":"東京都板橋区板橋1丁目44-6","lat":35.74867302,"lon":139.71760115},{"name":"板橋区役所前","province":"東京都","city":"板橋区","address":"東京都板橋区板橋2丁目66-1","lat":35.75091701,"lon":139.70919342},{"name":"板橋区役所駅前","province":"東京都","city":"板橋区","address":"東京都板橋区板橋2丁目66-16","lat":35.75148917,"lon":139.70964614},{"name":"岩の坂上","province":"東京都","city":"板橋区","address":"東京都板橋区本町35-13","lat":35.76130738,"lon":139.70665153},{"name":"大山駅入口","province":"東京都","city":"板橋区","address":"東京都板橋区大山金井町54-15","lat":35.74533967,"lon":139.70188039},{"name":"板橋中央陸橋下","province":"東京都","city":"板橋区","address":"東京都板橋区東山町48-4","lat":35.75524085,"lon":139.68766167},{"name":"武蔵野病院前","province":"東京都","city":"板橋区","address":"東京都板橋区小茂根4丁目10-1","lat":35.74608599,"lon":139.67504929},{"name":"南常盤台一丁目","province":"東京都","city":"板橋区","address":"東京都板橋区南常盤台1丁目18","lat":35.75685457,"lon":139.68869762},{"name":"加賀交番前","province":"東京都","city":"板橋区","address":"東京都板橋区加賀1丁目10-5","lat":35.7538085,"lon":139.71563721},{"name":"常盤台小学校前","province":"東京都","city":"板橋区","address":"東京都板橋区常盤台1丁目6-1","lat":35.75952655,"lon":139.69117507},{"name":"新板橋駅前","province":"東京都","city":"板橋区","address":"東京都板橋区板橋1丁目52-6","lat":35.74863141,"lon":139.71976208},{"name":"仲宿三差路","province":"東京都","city":"板橋区","address":"東京都板橋区板橋2丁目68-5","lat":35.75182801,"lon":139.70891008},{"name":"常盤台駅前中央通り","province":"東京都","city":"板橋区","address":"東京都板橋区常盤台1丁目10-8","lat":35.76124851,"lon":139.69019172},{"name":"南常盤台一丁目第二","province":"東京都","city":"板橋区","address":"東京都板橋区南常盤台1丁目35-2","lat":35.75699342,"lon":139.68795322},{"name":"板橋第一中前","province":"東京都","city":"板橋区","address":"東京都板橋区栄町35-1","lat":35.75211676,"lon":139.70474376},{"name":"板橋天祖神社前","province":"東京都","city":"板橋区","address":"東京都板橋区南常盤台1丁目32","lat":35.75800994,"lon":139.68779485},{"name":"常盤台駅北","province":"東京都","city":"板橋区","address":"東京都板橋区常盤台2丁目14-1","lat":35.76038471,"lon":139.68967236},{"name":"環七板橋本町","province":"東京都","city":"板橋区","address":"東京都板橋区本町11-2","lat":35.76257953,"lon":139.70947902},{"name":"めぐみ幼稚園前","province":"東京都","city":"板橋区","address":"東京都板橋区常盤台2丁目3-1","lat":35.75981526,"lon":139.68738645},{"name":"板橋大山公園前","province":"東京都","city":"板橋区","address":"東京都板橋区栄町36-1","lat":35.75082525,"lon":139.70499935},{"name":"蓮沼町","province":"東京都","city":"板橋区","address":"東京都板橋区泉町7-7","lat":35.76863411,"lon":139.70194327},{"name":"志村坂上","province":"東京都","city":"板橋区","address":"東京都板橋区志村2丁目3-1","lat":35.77656347,"lon":139.69438248},{"name":"前野町二丁目","province":"東京都","city":"板橋区","address":"東京都板橋区前野町2丁目13-4","lat":35.76358709,"lon":139.68902782},{"name":"蓮根三丁目","province":"東京都","city":"板橋区","address":"東京都板橋区坂下3丁目10-6","lat":35.78559254,"lon":139.6796473},{"name":"志村三丁目","province":"東京都","city":"板橋区","address":"東京都板橋区坂下1丁目7-1","lat":35.77891576,"lon":139.68546089},{"name":"小豆沢公園前","province":"東京都","city":"板橋区","address":"東京都板橋区小豆沢3丁目1","lat":35.77861607,"lon":139.69794601},{"name":"坂下一丁目都営住宅前","province":"東京都","city":"板橋区","address":"東京都板橋区坂下1丁目11-3","lat":35.7787185,"lon":139.68319998},{"name":"前野町二丁目東","province":"東京都","city":"板橋区","address":"東京都板橋区常盤台2丁目27-10","lat":35.76318995,"lon":139.69005554},{"name":"ナショナルトレーニングセンター前","province":"東京都","city":"板橋区","address":"東京都板橋区清水町60-11","lat":35.76596516,"lon":139.70760404},{"name":"小豆沢三丁目東","province":"東京都","city":"板橋区","address":"東京都板橋区小豆沢3丁目9-5","lat":35.78011301,"lon":139.6944379},{"name":"成増","province":"東京都","city":"板橋区","address":"東京都板橋区成増2丁目21-6","lat":35.7780173,"lon":139.62992967},{"name":"成増駅前","province":"東京都","city":"板橋区","address":"東京都板橋区成増2丁目16-1","lat":35.77645087,"lon":139.63214065},{"name":"西台駅南","province":"東京都","city":"板橋区","address":"東京都板橋区蓮根3丁目8-12","lat":35.78591733,"lon":139.67492551},{"name":"高島平三丁目","province":"東京都","city":"板橋区","address":"東京都板橋区高島平7丁目1-1","lat":35.79046608,"lon":139.65332458},{"name":"高島平二丁目","province":"東京都","city":"板橋区","address":"東京都板橋区高島平8丁目2-1","lat":35.7888276,"lon":139.66119894},{"name":"新河岸一丁目","province":"東京都","city":"板橋区","address":"東京都板橋区新河岸2丁目1-31","lat":35.79441288,"lon":139.66290424},{"name":"高島平八丁目東","province":"東京都","city":"板橋区","address":"東京都板橋区高島平8丁目11","lat":35.78961364,"lon":139.66311541},{"name":"高島平警察署前","province":"東京都","city":"板橋区","address":"東京都板橋区高島平2丁目33-6","lat":35.78590855,"lon":139.65968524},{"name":"高島平出張所前","province":"東京都","city":"板橋区","address":"東京都板橋区高島平3丁目13","lat":35.78795544,"lon":139.65866029},{"name":"西台駅前ガード下","province":"東京都","city":"板橋区","address":"東京都板橋区蓮根3丁目9-7","lat":35.78688387,"lon":139.67475327},{"name":"高島一の橋","province":"東京都","city":"板橋区","address":"東京都板橋区高島平9丁目23-1","lat":35.79038028,"lon":139.66622624},{"name":"板橋清掃工場入口","province":"東京都","city":"板橋区","address":"東京都板橋区高島平9丁目14","lat":35.78940268,"lon":139.66686785},{"name":"大東文化大学前","province":"東京都","city":"板橋区","address":"東京都板橋区高島平1丁目5-8","lat":35.78142053,"lon":139.66988722},{"name":"赤塚六丁目","province":"東京都","city":"板橋区","address":"東京都板橋区赤塚6丁目7-1","lat":35.77625681,"lon":139.64687551},{"name":"高島平九丁目第三","province":"東京都","city":"板橋区","address":"東京都板橋区高島平9丁目2","lat":35.78940003,"lon":139.67136466},{"name":"大東文化大学正門前","province":"東京都","city":"板橋区","address":"東京都板橋区西台2丁目42","lat":35.78094001,"lon":139.66864846},{"name":"高島平駅前","province":"東京都","city":"板橋区","address":"東京都板橋区高島平8丁目2","lat":35.78876373,"lon":139.6614767},{"name":"赤塚新町郵便局前","province":"東京都","city":"板橋区","address":"東京都板橋区赤塚新町1丁目25-10","lat":35.77062128,"lon":139.64333992},{"name":"高島平駅北","province":"東京都","city":"板橋区","address":"東京都板橋区高島平8丁目18","lat":35.79037459,"lon":139.66179608},{"name":"高島平駅西口","province":"東京都","city":"板橋区","address":"東京都板橋区高島平7丁目2","lat":35.78959132,"lon":139.65997682},{"name":"三園浄水場","province":"東京都","city":"板橋区","address":"東京都板橋区三園2丁目10-1","lat":35.7948317,"lon":139.64197828},{"name":"区立城北公園","province":"東京都","city":"板橋区","address":"東京都板橋区坂下2丁目19-1","lat":35.78357064,"lon":139.68153885},{"name":"都立板橋高等学校","province":"東京都","city":"板橋区","address":"東京都板橋区大谷口1丁目54-1","lat":35.74187304,"lon":139.68991765},{"name":"都立赤塚公園","province":"東京都","city":"板橋区","address":"東京都板橋区高島平3丁目1","lat":35.78522804,"lon":139.65529951},{"name":"区立西徳第二公園","province":"東京都","city":"板橋区","address":"東京都板橋区西台3丁目42-1","lat":35.77615447,"lon":139.66783758},{"name":"大谷口給水所","province":"東京都","city":"板橋区","address":"東京都板橋区大谷口1丁目4","lat":35.74552822,"lon":139.69106185},{"name":"板橋トラックターミナル","province":"東京都","city":"板橋区","address":"東京都板橋区高島平6丁目1-1","lat":35.79228232,"lon":139.64660566},{"name":"１６板橋清掃工場","province":"東京都","city":"板橋区","address":"東京都板橋区高島平9丁目48-1","lat":35.79180785,"lon":139.66670672},{"name":"日大病院入口","province":"東京都","city":"板橋区","address":"東京都板橋区大山町57","lat":35.74984733,"lon":139.69578072},{"name":"大和町","province":"東京都","city":"板橋区","address":"東京都板橋区本町37-7","lat":35.76090186,"lon":139.70603215},{"name":"常盤台入口","province":"東京都","city":"板橋区","address":"東京都板橋区東山町50-10","lat":35.75582684,"lon":139.68663949},{"name":"板橋区民館入口","province":"東京都","city":"板橋区","address":"東京都板橋区大山東町31-1","lat":35.74961435,"lon":139.70811579},{"name":"板橋本町","province":"東京都","city":"板橋区","address":"東京都板橋区本町40-9","lat":35.7585466,"lon":139.7069544},{"name":"板橋駅前","province":"東京都","city":"板橋区","address":"東京都板橋区板橋1丁目44-6","lat":35.74867302,"lon":139.71760115},{"name":"板橋区役所前","province":"東京都","city":"板橋区","address":"東京都板橋区板橋2丁目66-1","lat":35.75091701,"lon":139.70919342},{"name":"板橋区役所駅前","province":"東京都","city":"板橋区","address":"東京都板橋区板橋2丁目66-16","lat":35.75148917,"lon":139.70964614},{"name":"岩の坂上","province":"東京都","city":"板橋区","address":"東京都板橋区本町35-13","lat":35.76130738,"lon":139.70665153},{"name":"大山駅入口","province":"東京都","city":"板橋区","address":"東京都板橋区大山金井町54-15","lat":35.74533967,"lon":139.70188039},{"name":"板橋中央陸橋下","province":"東京都","city":"板橋区","address":"東京都板橋区東山町48-4","lat":35.75524085,"lon":139.68766167},{"name":"武蔵野病院前","province":"東京都","city":"板橋区","address":"東京都板橋区小茂根4丁目10-1","lat":35.74608599,"lon":139.67504929},{"name":"南常盤台一丁目","province":"東京都","city":"板橋区","address":"東京都板橋区南常盤台1丁目18","lat":35.75685457,"lon":139.68869762},{"name":"加賀交番前","province":"東京都","city":"板橋区","address":"東京都板橋区加賀1丁目10-5","lat":35.7538085,"lon":139.71563721},{"name":"常盤台小学校前","province":"東京都","city":"板橋区","address":"東京都板橋区常盤台1丁目6-1","lat":35.75952655,"lon":139.69117507},{"name":"新板橋駅前","province":"東京都","city":"板橋区","address":"東京都板橋区板橋1丁目52-6","lat":35.74863141,"lon":139.71976208},{"name":"仲宿三差路","province":"東京都","city":"板橋区","address":"東京都板橋区板橋2丁目68-5","lat":35.75182801,"lon":139.70891008},{"name":"常盤台駅前中央通り","province":"東京都","city":"板橋区","address":"東京都板橋区常盤台1丁目10-8","lat":35.76124851,"lon":139.69019172},{"name":"南常盤台一丁目第二","province":"東京都","city":"板橋区","address":"東京都板橋区南常盤台1丁目35-2","lat":35.75699342,"lon":139.68795322},{"name":"板橋第一中前","province":"東京都","city":"板橋区","address":"東京都板橋区栄町35-1","lat":35.75211676,"lon":139.70474376},{"name":"板橋天祖神社前","province":"東京都","city":"板橋区","address":"東京都板橋区南常盤台1丁目32","lat":35.75800994,"lon":139.68779485},{"name":"常盤台駅北","province":"東京都","city":"板橋区","address":"東京都板橋区常盤台2丁目14-1","lat":35.76038471,"lon":139.68967236},{"name":"環七板橋本町","province":"東京都","city":"板橋区","address":"東京都板橋区本町11-2","lat":35.76257953,"lon":139.70947902},{"name":"めぐみ幼稚園前","province":"東京都","city":"板橋区","address":"東京都板橋区常盤台2丁目3-1","lat":35.75981526,"lon":139.68738645},{"name":"板橋大山公園前","province":"東京都","city":"板橋区","address":"東京都板橋区栄町36-1","lat":35.75082525,"lon":139.70499935},{"name":"蓮沼町","province":"東京都","city":"板橋区","address":"東京都板橋区泉町7-7","lat":35.76863411,"lon":139.70194327},{"name":"志村坂上","province":"東京都","city":"板橋区","address":"東京都板橋区志村2丁目3-1","lat":35.77656347,"lon":139.69438248},{"name":"前野町二丁目","province":"東京都","city":"板橋区","address":"東京都板橋区前野町2丁目13-4","lat":35.76358709,"lon":139.68902782},{"name":"蓮根三丁目","province":"東京都","city":"板橋区","address":"東京都板橋区坂下3丁目10-6","lat":35.78559254,"lon":139.6796473},{"name":"志村三丁目","province":"東京都","city":"板橋区","address":"東京都板橋区坂下1丁目7-1","lat":35.77891576,"lon":139.68546089},{"name":"小豆沢公園前","province":"東京都","city":"板橋区","address":"東京都板橋区小豆沢3丁目1","lat":35.77861607,"lon":139.69794601},{"name":"坂下一丁目都営住宅前","province":"東京都","city":"板橋区","address":"東京都板橋区坂下1丁目11-3","lat":35.7787185,"lon":139.68319998},{"name":"前野町二丁目東","province":"東京都","city":"板橋区","address":"東京都板橋区常盤台2丁目27-10","lat":35.76318995,"lon":139.69005554},{"name":"ナショナルトレーニングセンター前","province":"東京都","city":"板橋区","address":"東京都板橋区清水町60-11","lat":35.76596516,"lon":139.70760404},{"name":"小豆沢三丁目東","province":"東京都","city":"板橋区","address":"東京都板橋区小豆沢3丁目9-5","lat":35.78011301,"lon":139.6944379},{"name":"成増","province":"東京都","city":"板橋区","address":"東京都板橋区成増2丁目21-6","lat":35.7780173,"lon":139.62992967},{"name":"成増駅前","province":"東京都","city":"板橋区","address":"東京都板橋区成増2丁目16-1","lat":35.77645087,"lon":139.63214065},{"name":"西台駅南","province":"東京都","city":"板橋区","address":"東京都板橋区蓮根3丁目8-12","lat":35.78591733,"lon":139.67492551},{"name":"高島平三丁目","province":"東京都","city":"板橋区","address":"東京都板橋区高島平7丁目1-1","lat":35.79046608,"lon":139.65332458},{"name":"高島平二丁目","province":"東京都","city":"板橋区","address":"東京都板橋区高島平8丁目2-1","lat":35.7888276,"lon":139.66119894},{"name":"新河岸一丁目","province":"東京都","city":"板橋区","address":"東京都板橋区新河岸2丁目1-31","lat":35.79441288,"lon":139.66290424},{"name":"高島平八丁目東","province":"東京都","city":"板橋区","address":"東京都板橋区高島平8丁目11","lat":35.78961364,"lon":139.66311541},{"name":"高島平警察署前","province":"東京都","city":"板橋区","address":"東京都板橋区高島平2丁目33-6","lat":35.78590855,"lon":139.65968524},{"name":"高島平出張所前","province":"東京都","city":"板橋区","address":"東京都板橋区高島平3丁目13","lat":35.78795544,"lon":139.65866029},{"name":"西台駅前ガード下","province":"東京都","city":"板橋区","address":"東京都板橋区蓮根3丁目9-7","lat":35.78688387,"lon":139.67475327},{"name":"高島一の橋","province":"東京都","city":"板橋区","address":"東京都板橋区高島平9丁目23-1","lat":35.79038028,"lon":139.66622624},{"name":"板橋清掃工場入口","province":"東京都","city":"板橋区","address":"東京都板橋区高島平9丁目14","lat":35.78940268,"lon":139.66686785},{"name":"大東文化大学前","province":"東京都","city":"板橋区","address":"東京都板橋区高島平1丁目5-8","lat":35.78142053,"lon":139.66988722},{"name":"赤塚六丁目","province":"東京都","city":"板橋区","address":"東京都板橋区赤塚6丁目7-1","lat":35.77625681,"lon":139.64687551},{"name":"高島平九丁目第三","province":"東京都","city":"板橋区","address":"東京都板橋区高島平9丁目2","lat":35.78940003,"lon":139.67136466},{"name":"大東文化大学正門前","province":"東京都","city":"板橋区","address":"東京都板橋区西台2丁目42","lat":35.78094001,"lon":139.66864846},{"name":"高島平駅前","province":"東京都","city":"板橋区","address":"東京都板橋区高島平8丁目2","lat":35.78876373,"lon":139.6614767},{"name":"赤塚新町郵便局前","province":"東京都","city":"板橋区","address":"東京都板橋区赤塚新町1丁目25-10","lat":35.77062128,"lon":139.64333992},{"name":"高島平駅北","province":"東京都","city":"板橋区","address":"東京都板橋区高島平8丁目18","lat":35.79037459,"lon":139.66179608},{"name":"高島平駅西口","province":"東京都","city":"板橋区","address":"東京都板橋区高島平7丁目2","lat":35.78959132,"lon":139.65997682},{"name":"三園浄水場","province":"東京都","city":"板橋区","address":"東京都板橋区三園2丁目10-1","lat":35.7948317,"lon":139.64197828},{"name":"区立城北公園","province":"東京都","city":"板橋区","address":"東京都板橋区坂下2丁目19-1","lat":35.78357064,"lon":139.68153885},{"name":"都立板橋高等学校","province":"東京都","city":"板橋区","address":"東京都板橋区大谷口1丁目54-1","lat":35.74187304,"lon":139.68991765},{"name":"都立赤塚公園","province":"東京都","city":"板橋区","address":"東京都板橋区高島平3丁目1","lat":35.78522804,"lon":139.65529951},{"name":"区立西徳第二公園","province":"東京都","city":"板橋区","address":"東京都板橋区西台3丁目42-1","lat":35.77615447,"lon":139.66783758},{"name":"大谷口給水所","province":"東京都","city":"板橋区","address":"東京都板橋区大谷口1丁目4","lat":35.74552822,"lon":139.69106185},{"name":"板橋トラックターミナル","province":"東京都","city":"板橋区","address":"東京都板橋区高島平6丁目1-1","lat":35.79228232,"lon":139.64660566},{"name":"１６板橋清掃工場","province":"東京都","city":"板橋区","address":"東京都板橋区高島平9丁目48-1","lat":35.79180785,"lon":139.66670672},{"name":"日大病院入口","province":"東京都","city":"板橋区","address":"東京都板橋区大山町57","lat":35.74984733,"lon":139.69578072},{"name":"大和町","province":"東京都","city":"板橋区","address":"東京都板橋区本町37-7","lat":35.76090186,"lon":139.70603215},{"name":"常盤台入口","province":"東京都","city":"板橋区","address":"東京都板橋区東山町50-10","lat":35.75582684,"lon":139.68663949},{"name":"板橋区民館入口","province":"東京都","city":"板橋区","address":"東京都板橋区大山東町31-1","lat":35.74961435,"lon":139.70811579},{"name":"板橋本町","province":"東京都","city":"板橋区","address":"東京都板橋区本町40-9","lat":35.7585466,"lon":139.7069544},{"name":"板橋駅前","province":"東京都","city":"板橋区","address":"東京都板橋区板橋1丁目44-6","lat":35.74867302,"lon":139.71760115},{"name":"板橋区役所前","province":"東京都","city":"板橋区","address":"東京都板橋区板橋2丁目66-1","lat":35.75091701,"lon":139.70919342},{"name":"板橋区役所駅前","province":"東京都","city":"板橋区","address":"東京都板橋区板橋2丁目66-16","lat":35.75148917,"lon":139.70964614},{"name":"岩の坂上","province":"東京都","city":"板橋区","address":"東京都板橋区本町35-13","lat":35.76130738,"lon":139.70665153},{"name":"大山駅入口","province":"東京都","city":"板橋区","address":"東京都板橋区大山金井町54-15","lat":35.74533967,"lon":139.70188039},{"name":"板橋中央陸橋下","province":"東京都","city":"板橋区","address":"東京都板橋区東山町48-4","lat":35.75524085,"lon":139.68766167},{"name":"武蔵野病院前","province":"東京都","city":"板橋区","address":"東京都板橋区小茂根4丁目10-1","lat":35.74608599,"lon":139.67504929},{"name":"南常盤台一丁目","province":"東京都","city":"板橋区","address":"東京都板橋区南常盤台1丁目18","lat":35.75685457,"lon":139.68869762},{"name":"加賀交番前","province":"東京都","city":"板橋区","address":"東京都板橋区加賀1丁目10-5","lat":35.7538085,"lon":139.71563721},{"name":"常盤台小学校前","province":"東京都","city":"板橋区","address":"東京都板橋区常盤台1丁目6-1","lat":35.75952655,"lon":139.69117507},{"name":"新板橋駅前","province":"東京都","city":"板橋区","address":"東京都板橋区板橋1丁目52-6","lat":35.74863141,"lon":139.71976208},{"name":"仲宿三差路","province":"東京都","city":"板橋区","address":"東京都板橋区板橋2丁目68-5","lat":35.75182801,"lon":139.70891008},{"name":"常盤台駅前中央通り","province":"東京都","city":"板橋区","address":"東京都板橋区常盤台1丁目10-8","lat":35.76124851,"lon":139.69019172},{"name":"南常盤台一丁目第二","province":"東京都","city":"板橋区","address":"東京都板橋区南常盤台1丁目35-2","lat":35.75699342,"lon":139.68795322},{"name":"板橋第一中前","province":"東京都","city":"板橋区","address":"東京都板橋区栄町35-1","lat":35.75211676,"lon":139.70474376},{"name":"板橋天祖神社前","province":"東京都","city":"板橋区","address":"東京都板橋区南常盤台1丁目32","lat":35.75800994,"lon":139.68779485},{"name":"常盤台駅北","province":"東京都","city":"板橋区","address":"東京都板橋区常盤台2丁目14-1","lat":35.76038471,"lon":139.68967236},{"name":"環七板橋本町","province":"東京都","city":"板橋区","address":"東京都板橋区本町11-2","lat":35.76257953,"lon":139.70947902},{"name":"めぐみ幼稚園前","province":"東京都","city":"板橋区","address":"東京都板橋区常盤台2丁目3-1","lat":35.75981526,"lon":139.68738645},{"name":"板橋大山公園前","province":"東京都","city":"板橋区","address":"東京都板橋区栄町36-1","lat":35.75082525,"lon":139.70499935},{"name":"蓮沼町","province":"東京都","city":"板橋区","address":"東京都板橋区泉町7-7","lat":35.76863411,"lon":139.70194327},{"name":"志村坂上","province":"東京都","city":"板橋区","address":"東京都板橋区志村2丁目3-1","lat":35.77656347,"lon":139.69438248},{"name":"前野町二丁目","province":"東京都","city":"板橋区","address":"東京都板橋区前野町2丁目13-4","lat":35.76358709,"lon":139.68902782},{"name":"蓮根三丁目","province":"東京都","city":"板橋区","address":"東京都板橋区坂下3丁目10-6","lat":35.78559254,"lon":139.6796473},{"name":"志村三丁目","province":"東京都","city":"板橋区","address":"東京都板橋区坂下1丁目7-1","lat":35.77891576,"lon":139.68546089},{"name":"小豆沢公園前","province":"東京都","city":"板橋区","address":"東京都板橋区小豆沢3丁目1","lat":35.77861607,"lon":139.69794601},{"name":"坂下一丁目都営住宅前","province":"東京都","city":"板橋区","address":"東京都板橋区坂下1丁目11-3","lat":35.7787185,"lon":139.68319998},{"name":"前野町二丁目東","province":"東京都","city":"板橋区","address":"東京都板橋区常盤台2丁目27-10","lat":35.76318995,"lon":139.69005554},{"name":"ナショナルトレーニングセンター前","province":"東京都","city":"板橋区","address":"東京都板橋区清水町60-11","lat":35.76596516,"lon":139.70760404},{"name":"小豆沢三丁目東","province":"東京都","city":"板橋区","address":"東京都板橋区小豆沢3丁目9-5","lat":35.78011301,"lon":139.6944379},{"name":"成増","province":"東京都","city":"板橋区","address":"東京都板橋区成増2丁目21-6","lat":35.7780173,"lon":139.62992967},{"name":"成増駅前","province":"東京都","city":"板橋区","address":"東京都板橋区成増2丁目16-1","lat":35.77645087,"lon":139.63214065},{"name":"西台駅南","province":"東京都","city":"板橋区","address":"東京都板橋区蓮根3丁目8-12","lat":35.78591733,"lon":139.67492551},{"name":"高島平三丁目","province":"東京都","city":"板橋区","address":"東京都板橋区高島平7丁目1-1","lat":35.79046608,"lon":139.65332458},{"name":"高島平二丁目","province":"東京都","city":"板橋区","address":"東京都板橋区高島平8丁目2-1","lat":35.7888276,"lon":139.66119894},{"name":"新河岸一丁目","province":"東京都","city":"板橋区","address":"東京都板橋区新河岸2丁目1-31","lat":35.79441288,"lon":139.66290424},{"name":"高島平八丁目東","province":"東京都","city":"板橋区","address":"東京都板橋区高島平8丁目11","lat":35.78961364,"lon":139.66311541},{"name":"高島平警察署前","province":"東京都","city":"板橋区","address":"東京都板橋区高島平2丁目33-6","lat":35.78590855,"lon":139.65968524},{"name":"高島平出張所前","province":"東京都","city":"板橋区","address":"東京都板橋区高島平3丁目13","lat":35.78795544,"lon":139.65866029},{"name":"西台駅前ガード下","province":"東京都","city":"板橋区","address":"東京都板橋区蓮根3丁目9-7","lat":35.78688387,"lon":139.67475327},{"name":"高島一の橋","province":"東京都","city":"板橋区","address":"東京都板橋区高島平9丁目23-1","lat":35.79038028,"lon":139.66622624},{"name":"板橋清掃工場入口","province":"東京都","city":"板橋区","address":"東京都板橋区高島平9丁目14","lat":35.78940268,"lon":139.66686785},{"name":"大東文化大学前","province":"東京都","city":"板橋区","address":"東京都板橋区高島平1丁目5-8","lat":35.78142053,"lon":139.66988722},{"name":"赤塚六丁目","province":"東京都","city":"板橋区","address":"東京都板橋区赤塚6丁目7-1","lat":35.77625681,"lon":139.64687551},{"name":"高島平九丁目第三","province":"東京都","city":"板橋区","address":"東京都板橋区高島平9丁目2","lat":35.78940003,"lon":139.67136466},{"name":"大東文化大学正門前","province":"東京都","city":"板橋区","address":"東京都板橋区西台2丁目42","lat":35.78094001,"lon":139.66864846},{"name":"高島平駅前","province":"東京都","city":"板橋区","address":"東京都板橋区高島平8丁目2","lat":35.78876373,"lon":139.6614767},{"name":"赤塚新町郵便局前","province":"東京都","city":"板橋区","address":"東京都板橋区赤塚新町1丁目25-10","lat":35.77062128,"lon":139.64333992},{"name":"高島平駅北","province":"東京都","city":"板橋区","address":"東京都板橋区高島平8丁目18","lat":35.79037459,"lon":139.66179608},{"name":"高島平駅西口","province":"東京都","city":"板橋区","address":"東京都板橋区高島平7丁目2","lat":35.78959132,"lon":139.65997682},{"name":"三園浄水場","province":"東京都","city":"板橋区","address":"東京都板橋区三園2丁目10-1","lat":35.7948317,"lon":139.64197828},{"name":"区立城北公園","province":"東京都","city":"板橋区","address":"東京都板橋区坂下2丁目19-1","lat":35.78357064,"lon":139.68153885},{"name":"都立板橋高等学校","province":"東京都","city":"板橋区","address":"東京都板橋区大谷口1丁目54-1","lat":35.74187304,"lon":139.68991765},{"name":"都立赤塚公園","province":"東京都","city":"板橋区","address":"東京都板橋区高島平3丁目1","lat":35.78522804,"lon":139.65529951},{"name":"区立西徳第二公園","province":"東京都","city":"板橋区","address":"東京都板橋区西台3丁目42-1","lat":35.77615447,"lon":139.66783758},{"name":"大谷口給水所","province":"東京都","city":"板橋区","address":"東京都板橋区大谷口1丁目4","lat":35.74552822,"lon":139.69106185},{"name":"板橋トラックターミナル","province":"東京都","city":"板橋区","address":"東京都板橋区高島平6丁目1-1","lat":35.79228232,"lon":139.64660566},{"name":"１６板橋清掃工場","province":"東京都","city":"板橋区","address":"東京都板橋区高島平9丁目48-1","lat":35.79180785,"lon":139.66670672},{"name":"板橋トラックターミナル","province":"東京都","city":"板橋区","address":"東京都板橋区高島平6丁目1-1","lat":35.79228232,"lon":139.64660566},{"name":"１６板橋清掃工場","province":"東京都","city":"板橋区","address":"東京都板橋区高島平9丁目48-1","lat":35.79180785,"lon":139.66670672},{"name":"板橋トラックターミナル","province":"東京都","city":"板橋区","address":"東京都板橋区高島平6丁目1-1","lat":35.79228232,"lon":139.64660566},{"name":"１６板橋清掃工場","province":"東京都","city":"板橋区","address":"東京都板橋区高島平9丁目48-1","lat":35.79180785,"lon":139.66670672},{"name":"板橋トラックターミナル","province":"東京都","city":"板橋区","address":"東京都板橋区高島平6丁目1-1","lat":35.79228232,"lon":139.64660566},{"name":"１６板橋清掃工場","province":"東京都","city":"板橋区","address":"東京都板橋区高島平9丁目48-1","lat":35.79180785,"lon":139.66670672},{"name":"板橋トラックターミナル","province":"東京都","city":"板橋区","address":"東京都板橋区高島平6丁目1-1","lat":35.79228232,"lon":139.64660566},{"name":"１６板橋清掃工場","province":"東京都","city":"板橋区","address":"東京都板橋区高島平9丁目48-1","lat":35.79180785,"lon":139.66670672},{"name":"板橋トラックターミナル","province":"東京都","city":"板橋区","address":"東京都板橋区高島平6丁目1-1","lat":35.79228232,"lon":139.64660566},{"name":"１６板橋清掃工場","province":"東京都","city":"板橋区","address":"東京都板橋区高島平9丁目48-1","lat":35.79180785,"lon":139.66670672},{"name":"板橋トラックターミナル","province":"東京都","city":"板橋区","address":"東京都板橋区高島平6丁目1-1","lat":35.79228232,"lon":139.64660566},{"name":"１６板橋清掃工場","province":"東京都","city":"板橋区","address":"東京都板橋区高島平9丁目48-1","lat":35.79180785,"lon":139.66670672},{"name":"板橋トラックターミナル","province":"東京都","city":"板橋区","address":"東京都板橋区高島平6丁目1-1","lat":35.79228232,"lon":139.64660566},{"name":"１６板橋清掃工場","province":"東京都","city":"板橋区","address":"東京都板橋区高島平9丁目48-1","lat":35.79180785,"lon":139.66670672},{"name":"板橋トラックターミナル","province":"東京都","city":"板橋区","address":"東京都板橋区高島平6丁目1-1","lat":35.79228232,"lon":139.64660566},{"name":"１６板橋清掃工場","province":"東京都","city":"板橋区","address":"東京都板橋区高島平9丁目48-1","lat":35.79180785,"lon":139.66670672},{"name":"板橋トラックターミナル","province":"東京都","city":"板橋区","address":"東京都板橋区高島平6丁目1-1","lat":35.79228232,"lon":139.64660566},{"name":"１６板橋清掃工場","province":"東京都","city":"板橋区","address":"東京都板橋区高島平9丁目48-1","lat":35.79180785,"lon":139.66670672},{"name":"板橋トラックターミナル","province":"東京都","city":"板橋区","address":"東京都板橋区高島平6丁目1-1","lat":35.79228232,"lon":139.64660566},{"name":"１６板橋清掃工場","province":"東京都","city":"板橋区","address":"東京都板橋区高島平9丁目48-1","lat":35.79180785,"lon":139.66670672},{"name":"板橋トラックターミナル","province":"東京都","city":"板橋区","address":"東京都板橋区高島平6丁目1-1","lat":35.79228232,"lon":139.64660566},{"name":"１６板橋清掃工場","province":"東京都","city":"板橋区","address":"東京都板橋区高島平9丁目48-1","lat":35.79180785,"lon":139.66670672},{"name":"板橋トラックターミナル","province":"東京都","city":"板橋区","address":"東京都板橋区高島平6丁目1-1","lat":35.79228232,"lon":139.64660566},{"name":"１６板橋清掃工場","province":"東京都","city":"板橋区","address":"東京都板橋区高島平9丁目48-1","lat":35.79180785,"lon":139.66670672},{"name":"板橋トラックターミナル","province":"東京都","city":"板橋区","address":"東京都板橋区高島平6丁目1-1","lat":35.79228232,"lon":139.64660566},{"name":"１６板橋清掃工場","province":"東京都","city":"板橋区","address":"東京都板橋区高島平9丁目48-1","lat":35.79180785,"lon":139.66670672}]}