{"keyword":"総務","data":[{"name":"都立城北中央公園陸上競技場","province":"東京都","city":"板橋区","address":"東京都板橋区桜川1丁目4","lat":35.75681526,"lon":139.67436275},{"name":"板橋区立城北公園野球場","province":"東京都","city":"板橋区","address":"東京都板橋区坂下2丁目19-1","lat":35.78357064,"lon":139.68153885},{"name":"板橋区立東板橋公園グラウンド","province":"東京都","city":"板橋区","address":"東京都板橋区板橋3丁目50-1","lat":35.75398895,"lon":139.71224304},{"name":"荒川戸田橋緑地草地広場","province":"東京都","city":"板橋区","address":"東京都板橋区新河岸1丁目15","lat":35.79670152,"lon":139.66723994},{"name":"荒川戸田橋緑地野球場","province":"東京都","city":"板橋区","address":"東京都板橋区舟渡3丁目","lat":35.79449154,"lon":139.6825884},{"name":"板橋区立小豆沢公園","province":"東京都","city":"板橋区","address":"東京都板橋区小豆沢3丁目8","lat":35.77860211,"lon":139.69505179},{"name":"都立赤塚公園野球場","province":"東京都","city":"板橋区","address":"東京都板橋区高島平3丁目1","lat":35.78522804,"lon":139.65529951},{"name":"帝京大学医学部附属病院ヘリポート","province":"東京都","city":"板橋区","address":"東京都板橋区加賀2丁目11-1","lat":35.75922729,"lon":139.71498704},{"name":"東京都保健医療公社豊島病院ヘリポート","province":"東京都","city":"板橋区","address":"東京都板橋区栄町33-1","lat":35.75269994,"lon":139.70097739},{"name":"板橋区役所屋上","province":"東京都","city":"板橋区","address":"東京都板橋区板橋2丁目66-1","lat":35.75091701,"lon":139.70919342},{"name":"中央・城北職業能力開発センター板橋校","province":"東京都","city":"板橋区","address":"東京都板橋区舟渡2丁目2-1","lat":35.79383056,"lon":139.69136553},{"name":"板橋市場","province":"東京都","city":"板橋区","address":"東京都板橋区高島平6丁目1-5","lat":35.79387658,"lon":139.65126915},{"name":"板橋高等学校","province":"東京都","city":"板橋区","address":"東京都板橋区大谷口1丁目54-1","lat":35.74187304,"lon":139.68991765},{"name":"大山高等学校","province":"東京都","city":"板橋区","address":"東京都板橋区小茂根5丁目18-1","lat":35.7538323,"lon":139.67484061},{"name":"北園高等学校","province":"東京都","city":"板橋区","address":"東京都板橋区板橋4丁目14-1","lat":35.75028113,"lon":139.7157929},{"name":"高島高等学校","province":"東京都","city":"板橋区","address":"東京都板橋区高島平3丁目7-1","lat":35.78634732,"lon":139.65317743},{"name":"北豊島工業高等学校","province":"東京都","city":"板橋区","address":"東京都板橋区富士見町28-1","lat":35.76089327,"lon":139.6971551},{"name":"板橋有徳高等学校","province":"東京都","city":"板橋区","address":"東京都板橋区徳丸2丁目17-1","lat":35.77254916,"lon":139.66137997}]}