{"keyword":"葬儀","data":[{"name":"㈱宇野商店","province":"東京都","city":"板橋区","address":"東京都板橋区大谷口上町70-12","lat":35.74699743,"lon":139.68910083},{"name":"\"㈱京花  \"","province":"東京都","city":"板橋区","address":"東京都板橋区中丸町28-3","lat":35.74151794,"lon":139.70425257},{"name":"㈱正美堂 大村葬儀社","province":"東京都","city":"板橋区","address":"東京都板橋区志村3丁目1-16","lat":35.77984631,"lon":139.69081043},{"name":"㈱コーディアル","province":"東京都","city":"板橋区","address":"東京都板橋区高島平1丁目48-1","lat":35.78419515,"lon":139.66936774},{"name":"㈱高根商店","province":"東京都","city":"板橋区","address":"東京都板橋区大山町19-2","lat":35.74736716,"lon":139.69926109},{"name":"\"常盤葬祭㈲  \"","province":"東京都","city":"板橋区","address":"東京都板橋区南常盤台1丁目36-8","lat":35.75755443,"lon":139.68729491},{"name":"㈲服部葬儀社","province":"東京都","city":"板橋区","address":"東京都板橋区赤塚新町1丁目22-4","lat":35.77002972,"lon":139.64477037},{"name":"㈲望月葬儀社","province":"東京都","city":"板橋区","address":"東京都板橋区栄町28-3","lat":35.75364151,"lon":139.70174951},{"name":"㈱大白社","province":"東京都","city":"板橋区","address":"東京都板橋区志村2丁目11-3","lat":35.77638007,"lon":139.69046335}]}