{"keyword":"認可","data":[{"name":"Gakkenほいくえん志村坂上","province":"東京都","city":"板橋区","address":"板橋区小豆沢2-21-12","lat":35.77706,"lon":139.69826},{"name":"わかたけ保育園","province":"東京都","city":"板橋区","address":"板橋区仲町45-4","lat":35.7531,"lon":139.69595},{"name":"ココファン・ナーサリー志村坂上","province":"東京都","city":"板橋区","address":"板橋区小豆沢2-21-12","lat":35.77706,"lon":139.69826},{"name":"しらさぎ保育園","province":"東京都","city":"板橋区","address":"板橋区成増5-19-40","lat":35.78682,"lon":139.63248},{"name":"成美保育園","province":"東京都","city":"板橋区","address":"板橋区成増4-28-16","lat":35.78551,"lon":139.63712},{"name":"やまと保育園","province":"東京都","city":"板橋区","address":"板橋区大和町2-2","lat":35.75643,"lon":139.70635},{"name":"弥生保育園","province":"東京都","city":"板橋区","address":"板橋区弥生町16-3","lat":35.75316,"lon":139.6946},{"name":"さいわい保育園","province":"東京都","city":"板橋区","address":"板橋区幸町45-4","lat":35.74455,"lon":139.69515},{"name":"茂呂塾保育園","province":"東京都","city":"板橋区","address":"板橋区小茂根4-4-7","lat":35.74929,"lon":139.67687},{"name":"は?anitize]もにぃ保育園","province":"東京都","city":"板橋区","address":"板橋区舟渡1-14-23","lat":35.79209,"lon":139.69025},{"name":"相生保育園","province":"東京都","city":"板橋区","address":"板橋区相生町24-3-101","lat":35.7786,"lon":139.67879},{"name":"同援みどり保育園","province":"東京都","city":"板橋区","address":"板橋区蓮根3-15-6","lat":35.78869,"lon":139.67647},{"name":"にじいろ保育園蓮根","province":"東京都","city":"板橋区","address":"板橋区蓮根2-19-3","lat":35.78366,"lon":139.67806},{"name":"前野保育園","province":"東京都","city":"板橋区","address":"板橋区前野町4-6-7","lat":35.76946,"lon":139.6889},{"name":"西前野保育園","province":"東京都","city":"板橋区","address":"板橋区前野町6-10-7","lat":35.76459,"lon":139.68308},{"name":"若木保育園","province":"東京都","city":"板橋区","address":"板橋区若木2-11-6","lat":35.77115,"lon":139.67418},{"name":"にじいろ保育園上板橋","province":"東京都","city":"板橋区","address":"板橋区上板橋2-2-15","lat":35.762,"lon":139.67423},{"name":"こじか保育園","province":"東京都","city":"板橋区","address":"板橋区高島平2-28-7","lat":35.78679,"lon":139.66538},{"name":"高島平すみれ保育園","province":"東京都","city":"板橋区","address":"板橋区高島平2-28-6-101","lat":35.78679,"lon":139.66538},{"name":"高島平あやめ保育園","province":"東京都","city":"板橋区","address":"板橋区高島平8-30-1","lat":35.79231,"lon":139.66435},{"name":"にじいろ保育園徳丸","province":"東京都","city":"板橋区","address":"板橋区徳丸3-38-19","lat":35.77511,"lon":139.65849},{"name":"赤塚保育園","province":"東京都","city":"板橋区","address":"板橋区赤塚6-30-1","lat":35.77704,"lon":139.64403},{"name":"うぃず成増保育園","province":"東京都","city":"板橋区","address":"板橋区赤塚3-19-4","lat":35.77675,"lon":139.63689},{"name":"成増保育園","province":"東京都","city":"板橋区","address":"板橋区成増2-24-7","lat":35.77949,"lon":139.62972},{"name":"グローバルキッズ成増園","province":"東京都","city":"板橋区","address":"板橋区成増2-8-10","lat":35.77625,"lon":139.63413},{"name":"ソラスト成増保育園","province":"東京都","city":"板橋区","address":"板橋区成増3-13-1アリエスビル1階","lat":35.77877,"lon":139.63236},{"name":"さくらさくみらい　中板橋","province":"東京都","city":"板橋区","address":"板橋区中板橋20-1モダ・ビエント中板橋プラシア203","lat":35.75574,"lon":139.69974},{"name":"ひまわりベビールーム小竹向原","province":"東京都","city":"板橋区","address":"板橋区小茂根1-27-7小茂根サンハイツ1階","lat":35.74607,"lon":139.67984},{"name":"坂下三丁目保育園","province":"東京都","city":"板橋区","address":"板橋区坂下3-14-6-101","lat":35.75128,"lon":139.71231},{"name":"相生保育園","province":"東京都","city":"板橋区","address":"板橋区相生町24-3-101","lat":35.74915,"lon":139.71985},{"name":"グローバルキッズ板橋園","province":"東京都","city":"板橋区","address":"板橋区清水町44-3ロイヤルガーデン2階","lat":35.7822,"lon":139.6523},{"name":"メリーポピンズ東武練馬ルーム","province":"東京都","city":"板橋区","address":"板橋区徳丸2-3-1徳丸スクウェア1階","lat":35.74672,"lon":139.71353},{"name":"ゆりの木保育園","province":"東京都","city":"板橋区","address":"板橋区赤塚新町3-32-11-102","lat":35.78677,"lon":139.64264}]}