{"keyword":"食堂","data":[{"name":"まえのふれあいこども食堂","province":"東京都","city":"板橋区","address":"東京都板橋区前野町2丁目43-15","lat":35.76690619,"lon":139.69032483},{"name":"板橋いずみ教会子ども食堂（ジョイフルクラブ）","province":"東京都","city":"板橋区","address":"東京都板橋区泉町52-6","lat":35.76863128,"lon":139.69969067},{"name":"陽ちゃん家こども食堂","province":"東京都","city":"板橋区","address":"東京都板橋区宮本町6-12","lat":35.76244603,"lon":139.70349062},{"name":"ことぶき子ども食堂","province":"東京都","city":"板橋区","address":"東京都板橋区相生町8-3","lat":35.77656317,"lon":139.68210293},{"name":"南蔵院こども会","province":"東京都","city":"板橋区","address":"東京都板橋区蓮沼町48-8","lat":35.77073383,"lon":139.70160989},{"name":"しむらん通り食堂","province":"東京都","city":"板橋区","address":"東京都板橋区志村1丁目35-15","lat":35.77616906,"lon":139.69405474},{"name":"かもめこども食堂","province":"東京都","city":"板橋区","address":"東京都板橋区東坂下1丁目12-7","lat":35.78199048,"lon":139.69029929},{"name":"いずみの苑コミュニティ弁当","province":"東京都","city":"板橋区","address":"東京都板橋区東坂下2丁目2-22","lat":35.78308199,"lon":139.69001316},{"name":"NPO板橋こども食堂","province":"東京都","city":"板橋区","address":"東京都板橋区蓮根2丁目21-11","lat":35.78285666,"lon":139.67648379},{"name":"さかした子ども食堂","province":"東京都","city":"板橋区","address":"東京都板橋区坂下2丁目22-5","lat":35.78320133,"lon":139.68411362},{"name":"にこにこ食堂","province":"東京都","city":"板橋区","address":"東京都板橋区坂下2丁目1-3","lat":35.78272368,"lon":139.68804944},{"name":"SOMPO流子ども食堂　高島平","province":"東京都","city":"板橋区","address":"東京都板橋区坂下3丁目5-2","lat":35.785165,"lon":139.6847135},{"name":"ごはん塾・にじいろぱーく","province":"東京都","city":"板橋区","address":"東京都板橋区高島平8丁目21-11","lat":35.79075515,"lon":139.66394866},{"name":"SOMPO流こども食堂　新高島平","province":"東京都","city":"板橋区","address":"東京都板橋区高島平7丁目17-9","lat":35.79133263,"lon":139.65537995},{"name":"まいにちおいで子ども食堂","province":"東京都","city":"板橋区","address":"東京都板橋区高島平7丁目23-21","lat":35.7908217,"lon":139.66045176},{"name":"リル・インフィニティ〈子ども食堂〉","province":"東京都","city":"板橋区","address":"東京都板橋区南常盤台1丁目18-5","lat":35.75687679,"lon":139.6888226},{"name":"ブランチCAF? in まもりん坊","province":"東京都","city":"板橋区","address":"東京都板橋区上板橋2丁目30-2","lat":35.76229793,"lon":139.67435139},{"name":"SOMPO流子ども食堂　ときわ台南","province":"東京都","city":"板橋区","address":"東京都板橋区東新町1丁目29-6","lat":35.75703764,"lon":139.68144542},{"name":"こども食堂ｂｙハーブ＆おいしい野菜塾","province":"東京都","city":"板橋区","address":"東京都板橋区西台2丁目12-12","lat":35.78035126,"lon":139.67099827},{"name":"長秀龍子ども食堂","province":"東京都","city":"板橋区","address":"東京都板橋区南常盤台1丁目20-4","lat":35.7565241,"lon":139.6898392},{"name":"寺子屋学園こども食堂","province":"東京都","city":"板橋区","address":"東京都板橋区常盤台2丁目15-9","lat":35.76136793,"lon":139.68968064},{"name":"西徳げんき食堂","province":"東京都","city":"板橋区","address":"東京都板橋区西台4丁目8-13","lat":35.77234384,"lon":139.66901538},{"name":"こども食堂　良ちゃん","province":"東京都","city":"板橋区","address":"東京都板橋区常盤台4丁目33-3","lat":35.76392557,"lon":139.67633725},{"name":"SOMPO流子ども食堂 ときわ台","province":"東京都","city":"板橋区","address":"東京都板橋区前野町2丁目18-3","lat":35.7649813,"lon":139.68694182},{"name":"「上二テラス」ランチタイム","province":"東京都","city":"板橋区","address":"東京都板橋区向原3丁目1-12","lat":35.74417819,"lon":139.6855318},{"name":"ななテラスこども食堂","province":"東京都","city":"板橋区","address":"東京都板橋区向原3丁目7-7","lat":35.7465251,"lon":139.68421513},{"name":"SOMPO流こども食堂　若木","province":"東京都","city":"板橋区","address":"東京都板橋区若木3丁目3-1","lat":35.77365225,"lon":139.67728125},{"name":"SOMPO流子ども食堂　奈美木成増","province":"東京都","city":"板橋区","address":"東京都板橋区赤塚3丁目13-1","lat":35.77897296,"lon":139.63954549},{"name":"SOMPO流子ども食堂　赤塚公園","province":"東京都","city":"板橋区","address":"東京都板橋区大門7-5","lat":35.78333099,"lon":139.64862789},{"name":"SOMPO流子ども食堂","province":"東京都","city":"板橋区","address":"東京都板橋区徳丸6丁目1-11","lat":35.77657377,"lon":139.66411013},{"name":"福まね嬉　こども食堂","province":"東京都","city":"板橋区","address":"東京都板橋区徳丸3丁目29-2","lat":35.77245185,"lon":139.65623043},{"name":"カフェひびき（誰でも食堂）","province":"東京都","city":"板橋区","address":"東京都板橋区徳丸6丁目13-18","lat":35.77790959,"lon":139.65914942},{"name":"SOMPOの子ども食堂","province":"東京都","city":"板橋区","address":"東京都板橋区赤塚新町2丁目7-16","lat":35.77214322,"lon":139.63940686},{"name":"くじらハウス赤塚こども食堂","province":"東京都","city":"板橋区","address":"東京都板橋区赤塚7丁目26-7","lat":35.77879265,"lon":139.64860305},{"name":"こども食堂　ニクビッタ","province":"東京都","city":"板橋区","address":"東京都板橋区徳丸1丁目7-12","lat":35.7684775,"lon":139.66417154},{"name":"ゆとりんぼ","province":"東京都","city":"板橋区","address":"東京都板橋区徳丸1丁目7-12","lat":35.7684775,"lon":139.66417154},{"name":"あったかごはんの会","province":"東京都","city":"板橋区","address":"東京都板橋区成増1丁目12-4","lat":35.7747122,"lon":139.632674},{"name":"子ども食堂　たんぽぽ","province":"東京都","city":"板橋区","address":"東京都板橋区成増4丁目14-18","lat":35.78327223,"lon":139.63534852},{"name":"SOMPO流子ども食堂　板橋三園","province":"東京都","city":"板橋区","address":"東京都板橋区三園2丁目12-14","lat":35.79587877,"lon":139.64304484},{"name":"SOMPO流子ども食堂　板橋仲宿","province":"東京都","city":"板橋区","address":"東京都板橋区仲宿50-1","lat":35.75705795,"lon":139.70863765},{"name":"みんなの食堂　フラワー","province":"東京都","city":"板橋区","address":"東京都板橋区大山東町25-12","lat":35.74915324,"lon":139.70618543},{"name":"親子ひろば","province":"東京都","city":"板橋区","address":"東京都板橋区大谷口上町1-3","lat":35.74976121,"lon":139.69509745},{"name":"にっこりキッチン！","province":"東京都","city":"板橋区","address":"東京都板橋区富士見町17-15","lat":35.76142102,"lon":139.69848829},{"name":"りんごのたね","province":"東京都","city":"板橋区","address":"東京都板橋区富士見町3-1","lat":35.76096004,"lon":139.70108533},{"name":"こども食堂　よかや","province":"東京都","city":"板橋区","address":"東京都板橋区板橋1丁目31-8","lat":35.74766755,"lon":139.71610132},{"name":"ノンナの家","province":"東京都","city":"板橋区","address":"東京都板橋区板橋4丁目53-2","lat":35.75228096,"lon":139.71834817},{"name":"大山こども食堂・みんなの広場","province":"東京都","city":"板橋区","address":"東京都板橋区大山金井町48-2","lat":35.74555077,"lon":139.70229423},{"name":"ハッピー大山子ども食堂","province":"東京都","city":"板橋区","address":"東京都板橋区大山町40-5","lat":35.74893641,"lon":139.69878051},{"name":"子ども食堂 鶏のから騒ぎ","province":"東京都","city":"板橋区","address":"東京都板橋区弥生町31-15","lat":35.75530502,"lon":139.69531385},{"name":"地域のみなぱ食堂","province":"東京都","city":"板橋区","address":"東京都板橋区弥生町58-1","lat":35.75503824,"lon":139.69163914}]}