{"keyword":"館","data":[{"name":"大山東児童館","province":"東京都","city":"板橋区","address":"板橋区大山東町8-7","lat":35.74751,"lon":139.70606},{"name":"弥生児童館","province":"東京都","city":"板橋区","address":"板橋区弥生町16-3","lat":35.75316,"lon":139.6946},{"name":"蓮根第二児童館","province":"東京都","city":"板橋区","address":"板橋区蓮根3-15-1-104","lat":35.78869,"lon":139.67647},{"name":"西徳児童館","province":"東京都","city":"板橋区","address":"板橋区西台4-4-37","lat":35.77062,"lon":139.66808},{"name":"なります児童館","province":"東京都","city":"板橋区","address":"板橋区成増3-34-21","lat":35.78156,"lon":139.63178},{"name":"蓮根第二児童館","province":"東京都","city":"板橋区","address":"板橋区蓮根3-15-1-104","lat":35.78748,"lon":139.6403},{"name":"西徳児童館","province":"東京都","city":"板橋区","address":"板橋区西台4-4-37","lat":35.76996,"lon":139.66786},{"name":"ゆりの木児童館","province":"東京都","city":"板橋区","address":"板橋区赤塚新町3-32-11-209","lat":35.78733,"lon":139.6414},{"name":"あずさわ児童館","province":"東京都","city":"板橋区","address":"板橋区小豆沢3-9-2-103","lat":35.78055254,"lon":139.6960174},{"name":"大山東児童館","province":"東京都","city":"板橋区","address":"板橋区大山東町8-7","lat":35.74746404,"lon":139.7061018},{"name":"上板橋児童館","province":"東京都","city":"板橋区","address":"板橋区上板橋2-3-8","lat":35.76169547,"lon":139.6737793},{"name":"紅梅児童館","province":"東京都","city":"板橋区","address":"板橋区徳丸6-2-10","lat":35.77640453,"lon":139.6630818},{"name":"さかうえ児童館","province":"東京都","city":"板橋区","address":"板橋区小豆沢1-20-17","lat":35.77569326,"lon":139.7022981},{"name":"清水児童館","province":"東京都","city":"板橋区","address":"板橋区清水町72-7","lat":35.76538538,"lon":139.7046049},{"name":"志村児童館","province":"東京都","city":"板橋区","address":"板橋区志村2-16-11","lat":35.7749649,"lon":139.6858318},{"name":"志村橋児童館","province":"東京都","city":"板橋区","address":"板橋区舟渡3-6-3","lat":35.79354685,"lon":139.6801598},{"name":"しらさぎ児童館","province":"東京都","city":"板橋区","address":"板橋区成増5-19-41","lat":35.78857,"lon":139.6366},{"name":"新河岸児童館","province":"東京都","city":"板橋区","address":"板橋区新河岸1-3-2-101","lat":35.7937633,"lon":139.664161},{"name":"高島平児童館","province":"東京都","city":"板橋区","address":"板橋区高島平3-12-28","lat":35.78700132,"lon":139.6587415},{"name":"東新児童館","province":"東京都","city":"板橋区","address":"板橋区東新町2-43-5","lat":35.75259118,"lon":139.6806096},{"name":"なります児童館","province":"東京都","city":"板橋区","address":"板橋区成増3-34-21","lat":35.78117464,"lon":139.6315036},{"name":"西徳児童館","province":"東京都","city":"板橋区","address":"板橋区西台4-4-37","lat":35.77020916,"lon":139.6680585},{"name":"蓮根児童館","province":"東京都","city":"板橋区","address":"板橋区蓮根2-6-15","lat":35.78129924,"lon":139.6765946},{"name":"蓮根第二児童館","province":"東京都","city":"板橋区","address":"板橋区蓮根3-15-1-104","lat":35.78903786,"lon":139.6765475},{"name":"はすのみ児童館","province":"東京都","city":"板橋区","address":"板橋区高島平1-50-2","lat":35.78405849,"lon":139.671563},{"name":"氷川児童館","province":"東京都","city":"板橋区","address":"板橋区氷川町24-2","lat":35.75436514,"lon":139.7051674},{"name":"富士見台児童館","province":"東京都","city":"板橋区","address":"板橋区前野町1-8-1","lat":35.76401331,"lon":139.69623},{"name":"緑が丘児童館","province":"東京都","city":"板橋区","address":"板橋区中台3-27-2","lat":35.77326021,"lon":139.6791025},{"name":"南板橋児童館","province":"東京都","city":"板橋区","address":"板橋区板橋1-39-1","lat":35.74779264,"lon":139.7149683},{"name":"南前野児童館","province":"東京都","city":"板橋区","address":"板橋区前野町2-23-1","lat":35.7657545,"lon":139.6882041},{"name":"向原児童館","province":"東京都","city":"板橋区","address":"板橋区向原1-18-5","lat":35.74247383,"lon":139.6848543},{"name":"弥生児童館","province":"東京都","city":"板橋区","address":"板橋区弥生町16-3","lat":35.75316198,"lon":139.6942392},{"name":"ゆりの木児童館","province":"東京都","city":"板橋区","address":"板橋区赤塚新町3-32-11-209","lat":35.76922728,"lon":139.6386133},{"name":"赤塚児童館","province":"東京都","city":"板橋区","address":"板橋区赤塚6-38-1","lat":35.77884326,"lon":139.6449369},{"name":"＊?成増図書館","province":"東京都","city":"板橋区","address":"板橋区成増3-13-1","lat":35.778846,"lon":139.63236},{"name":"＊?小茂根図書館","province":"東京都","city":"板橋区","address":"板橋区小茂根1-6-2","lat":35.745567,"lon":139.680865},{"name":"＊?東板橋図書館","province":"東京都","city":"板橋区","address":"板橋区加賀1-10-15","lat":35.754429,"lon":139.715777},{"name":"＊?赤塚図書館","province":"東京都","city":"板橋区","address":"板橋区赤塚6-38-1","lat":35.778715,"lon":139.644803},{"name":"＊?高島平図書館","province":"東京都","city":"板橋区","address":"板橋区高島平3-13-1","lat":35.787514,"lon":139.659091},{"name":"＊?氷川図書館","province":"東京都","city":"板橋区","address":"板橋区氷川町28-9","lat":35.753139,"lon":139.704839},{"name":"＊?蓮根図書館","province":"東京都","city":"板橋区","address":"板橋区蓮根3-15-1-101","lat":35.788859,"lon":139.676511},{"name":"＊?清水図書館","province":"東京都","city":"板橋区","address":"板橋区泉町16-16","lat":35.766449,"lon":139.702166},{"name":"＊?中央図書館","province":"東京都","city":"板橋区","address":"板橋区常盤台1-13-1","lat":35.760026,"lon":139.691511},{"name":"＊?西台図書館","province":"東京都","city":"板橋区","address":"板橋区西台3-13-2","lat":35.773986,"lon":139.668814},{"name":"＊?志村図書館","province":"東京都","city":"板橋区","address":"板橋区小豆沢1-8-1","lat":35.773232,"lon":139.700014},{"name":"＊?いたばしボローニャ子ども絵本館","province":"東京都","city":"板橋区","address":"板橋区本町24-1","lat":35.759732,"lon":139.70838}]}