{"keyword":"スモッグ","data":[{"name":"玉川上水緑道","province":"東京都","city":"福生市","address":"東京都福生市、昭島市、立川市、小平市、三鷹市、武蔵野市、杉並区","lat":35.671987,"lon":139.664898},{"name":"福生武蔵野台浄水所","province":"東京都","city":"福生市","address":"東京都福生市武蔵野台2丁目32","lat":35.75162088,"lon":139.329215},{"name":"福生市立多摩川緑地福生南公園","province":"東京都","city":"福生市","address":"東京都福生市南田園1丁目1-1","lat":35.71975535,"lon":139.33089655},{"name":"加美平野球場","province":"東京都","city":"福生市","address":"東京都福生市加美平1丁目21","lat":35.75075425,"lon":139.3271652},{"name":"玉川上水緑道","province":"東京都","city":"福生市","address":"東京都福生市、昭島市、立川市、小平市、三鷹市、武蔵野市、杉並区","lat":35.671987,"lon":139.664898},{"name":"玉川上水緑道","province":"東京都","city":"福生市","address":"東京都福生市、昭島市、立川市、小平市、三鷹市、武蔵野市、杉並区","lat":35.671987,"lon":139.664898},{"name":"玉川上水緑道","province":"東京都","city":"福生市","address":"東京都福生市、昭島市、立川市、小平市、三鷹市、武蔵野市、杉並区","lat":35.671987,"lon":139.664898},{"name":"玉川上水緑道","province":"東京都","city":"福生市","address":"東京都福生市、昭島市、立川市、小平市、三鷹市、武蔵野市、杉並区","lat":35.671987,"lon":139.664898},{"name":"玉川上水緑道","province":"東京都","city":"福生市","address":"東京都福生市、昭島市、立川市、小平市、三鷹市、武蔵野市、杉並区","lat":35.671987,"lon":139.664898},{"name":"玉川上水緑道","province":"東京都","city":"福生市","address":"東京都福生市、昭島市、立川市、小平市、三鷹市、武蔵野市、杉並区","lat":35.671987,"lon":139.664898},{"name":"玉川上水緑道","province":"東京都","city":"福生市","address":"東京都福生市、昭島市、立川市、小平市、三鷹市、武蔵野市、杉並区","lat":35.671987,"lon":139.664898},{"name":"玉川上水緑道","province":"東京都","city":"福生市","address":"東京都福生市、昭島市、立川市、小平市、三鷹市、武蔵野市、杉並区","lat":35.671987,"lon":139.664898},{"name":"玉川上水緑道","province":"東京都","city":"福生市","address":"東京都福生市、昭島市、立川市、小平市、三鷹市、武蔵野市、杉並区","lat":35.671987,"lon":139.664898},{"name":"玉川上水緑道","province":"東京都","city":"福生市","address":"東京都福生市、昭島市、立川市、小平市、三鷹市、武蔵野市、杉並区","lat":35.671987,"lon":139.664898},{"name":"玉川上水緑道","province":"東京都","city":"福生市","address":"東京都福生市、昭島市、立川市、小平市、三鷹市、武蔵野市、杉並区","lat":35.671987,"lon":139.664898},{"name":"玉川上水緑道","province":"東京都","city":"福生市","address":"東京都福生市、昭島市、立川市、小平市、三鷹市、武蔵野市、杉並区","lat":35.671987,"lon":139.664898},{"name":"玉川上水緑道","province":"東京都","city":"福生市","address":"東京都福生市、昭島市、立川市、小平市、三鷹市、武蔵野市、杉並区","lat":35.671987,"lon":139.664898},{"name":"玉川上水緑道","province":"東京都","city":"福生市","address":"東京都福生市、昭島市、立川市、小平市、三鷹市、武蔵野市、杉並区","lat":35.671987,"lon":139.664898},{"name":"玉川上水緑道","province":"東京都","city":"福生市","address":"東京都福生市、昭島市、立川市、小平市、三鷹市、武蔵野市、杉並区","lat":35.671987,"lon":139.664898},{"name":"玉川上水緑道","province":"東京都","city":"福生市","address":"東京都福生市、昭島市、立川市、小平市、三鷹市、武蔵野市、杉並区","lat":35.671987,"lon":139.664898},{"name":"玉川上水緑道","province":"東京都","city":"福生市","address":"東京都福生市、昭島市、立川市、小平市、三鷹市、武蔵野市、杉並区","lat":35.671987,"lon":139.664898},{"name":"玉川上水緑道","province":"東京都","city":"福生市","address":"東京都福生市、昭島市、立川市、小平市、三鷹市、武蔵野市、杉並区","lat":35.671987,"lon":139.664898},{"name":"玉川上水緑道","province":"東京都","city":"福生市","address":"東京都福生市、昭島市、立川市、小平市、三鷹市、武蔵野市、杉並区","lat":35.671987,"lon":139.664898},{"name":"玉川上水緑道","province":"東京都","city":"福生市","address":"東京都福生市、昭島市、立川市、小平市、三鷹市、武蔵野市、杉並区","lat":35.671987,"lon":139.664898},{"name":"玉川上水緑道","province":"東京都","city":"福生市","address":"東京都福生市、昭島市、立川市、小平市、三鷹市、武蔵野市、杉並区","lat":35.671987,"lon":139.664898},{"name":"玉川上水緑道","province":"東京都","city":"福生市","address":"東京都福生市、昭島市、立川市、小平市、三鷹市、武蔵野市、杉並区","lat":35.671987,"lon":139.664898},{"name":"玉川上水緑道","province":"東京都","city":"福生市","address":"東京都福生市、昭島市、立川市、小平市、三鷹市、武蔵野市、杉並区","lat":35.671987,"lon":139.664898},{"name":"玉川上水緑道","province":"東京都","city":"福生市","address":"東京都福生市、昭島市、立川市、小平市、三鷹市、武蔵野市、杉並区","lat":35.671987,"lon":139.664898},{"name":"玉川上水緑道","province":"東京都","city":"福生市","address":"東京都福生市、昭島市、立川市、小平市、三鷹市、武蔵野市、杉並区","lat":35.671987,"lon":139.664898},{"name":"玉川上水緑道","province":"東京都","city":"福生市","address":"東京都福生市、昭島市、立川市、小平市、三鷹市、武蔵野市、杉並区","lat":35.671987,"lon":139.664898},{"name":"玉川上水緑道","province":"東京都","city":"福生市","address":"東京都福生市、昭島市、立川市、小平市、三鷹市、武蔵野市、杉並区","lat":35.671987,"lon":139.664898},{"name":"玉川上水緑道","province":"東京都","city":"福生市","address":"東京都福生市、昭島市、立川市、小平市、三鷹市、武蔵野市、杉並区","lat":35.671987,"lon":139.664898},{"name":"玉川上水緑道","province":"東京都","city":"福生市","address":"東京都福生市、昭島市、立川市、小平市、三鷹市、武蔵野市、杉並区","lat":35.671987,"lon":139.664898},{"name":"玉川上水緑道","province":"東京都","city":"福生市","address":"東京都福生市、昭島市、立川市、小平市、三鷹市、武蔵野市、杉並区","lat":35.671987,"lon":139.664898},{"name":"玉川上水緑道","province":"東京都","city":"福生市","address":"東京都福生市、昭島市、立川市、小平市、三鷹市、武蔵野市、杉並区","lat":35.671987,"lon":139.664898},{"name":"玉川上水緑道","province":"東京都","city":"福生市","address":"東京都福生市、昭島市、立川市、小平市、三鷹市、武蔵野市、杉並区","lat":35.671987,"lon":139.664898},{"name":"玉川上水緑道","province":"東京都","city":"福生市","address":"東京都福生市、昭島市、立川市、小平市、三鷹市、武蔵野市、杉並区","lat":35.671987,"lon":139.664898},{"name":"玉川上水緑道","province":"東京都","city":"福生市","address":"東京都福生市、昭島市、立川市、小平市、三鷹市、武蔵野市、杉並区","lat":35.671987,"lon":139.664898},{"name":"玉川上水緑道","province":"東京都","city":"福生市","address":"東京都福生市、昭島市、立川市、小平市、三鷹市、武蔵野市、杉並区","lat":35.671987,"lon":139.664898},{"name":"玉川上水緑道","province":"東京都","city":"福生市","address":"東京都福生市、昭島市、立川市、小平市、三鷹市、武蔵野市、杉並区","lat":35.671987,"lon":139.664898},{"name":"玉川上水緑道","province":"東京都","city":"福生市","address":"東京都福生市、昭島市、立川市、小平市、三鷹市、武蔵野市、杉並区","lat":35.671987,"lon":139.664898},{"name":"玉川上水緑道","province":"東京都","city":"福生市","address":"東京都福生市、昭島市、立川市、小平市、三鷹市、武蔵野市、杉並区","lat":35.671987,"lon":139.664898},{"name":"玉川上水緑道","province":"東京都","city":"福生市","address":"東京都福生市、昭島市、立川市、小平市、三鷹市、武蔵野市、杉並区","lat":35.671987,"lon":139.664898},{"name":"玉川上水緑道","province":"東京都","city":"福生市","address":"東京都福生市、昭島市、立川市、小平市、三鷹市、武蔵野市、杉並区","lat":35.671987,"lon":139.664898},{"name":"玉川上水緑道","province":"東京都","city":"福生市","address":"東京都福生市、昭島市、立川市、小平市、三鷹市、武蔵野市、杉並区","lat":35.671987,"lon":139.664898},{"name":"玉川上水緑道","province":"東京都","city":"福生市","address":"東京都福生市、昭島市、立川市、小平市、三鷹市、武蔵野市、杉並区","lat":35.671987,"lon":139.664898},{"name":"玉川上水緑道","province":"東京都","city":"福生市","address":"東京都福生市、昭島市、立川市、小平市、三鷹市、武蔵野市、杉並区","lat":35.671987,"lon":139.664898},{"name":"玉川上水緑道","province":"東京都","city":"福生市","address":"東京都福生市、昭島市、立川市、小平市、三鷹市、武蔵野市、杉並区","lat":35.671987,"lon":139.664898},{"name":"玉川上水緑道","province":"東京都","city":"福生市","address":"東京都福生市、昭島市、立川市、小平市、三鷹市、武蔵野市、杉並区","lat":35.671987,"lon":139.664898}]}