{"keyword":"一覧","data":[{"name":"中央体育館","province":"東京都","city":"福生市","address":"東京都福生市北田園2丁目9-1","lat":35.73451441,"lon":139.32237447},{"name":"わかぎり会館・図書館","province":"東京都","city":"福生市","address":"東京都福生市福生（大字）1280-1","lat":35.74619349,"lon":139.32083528},{"name":"白梅会館","province":"東京都","city":"福生市","address":"東京都福生市熊川（大字）559-1","lat":35.7240883,"lon":139.33774313},{"name":"中央図書館","province":"東京都","city":"福生市","address":"東京都福生市熊川（大字）850-1","lat":35.73186235,"lon":139.3376679},{"name":"わかたけ会館・図書館","province":"東京都","city":"福生市","address":"東京都福生市熊川（大字）199-1","lat":35.7181112,"lon":139.33499907},{"name":"福生市役所庁舎","province":"東京都","city":"福生市","address":"東京都福生市本町5","lat":35.73848071,"lon":139.32691568},{"name":"福祉センター","province":"東京都","city":"福生市","address":"東京都福生市南田園2丁目13-1","lat":35.72748498,"lon":139.33227121},{"name":"武蔵野台図書館・児童館","province":"東京都","city":"福生市","address":"東京都福生市武蔵野台1丁目12-2","lat":35.74680769,"lon":139.33394539},{"name":"松林会館","province":"東京都","city":"福生市","address":"東京都福生市武蔵野台1丁目15-1","lat":35.74648547,"lon":139.33246496}]}