{"keyword":"伐採","data":[{"name":"公立福生病院","province":"東京都","city":"福生市","address":"東京都福生市加美平1丁目6-1","lat":35.74701301,"lon":139.3266987},{"name":"福生市立多摩川緑地福生南公園","province":"東京都","city":"福生市","address":"東京都福生市南田園1丁目1-1","lat":35.71975535,"lon":139.33089655},{"name":"加美平野球場","province":"東京都","city":"福生市","address":"東京都福生市加美平1丁目21","lat":35.75075425,"lon":139.3271652},{"name":"公立福生病院","province":"東京都","city":"福生市","address":"東京都福生市加美平1丁目6-1","lat":35.74701301,"lon":139.3266987},{"name":"福生市立多摩川緑地福生南公園","province":"東京都","city":"福生市","address":"東京都福生市南田園1丁目1-1","lat":35.71975535,"lon":139.33089655},{"name":"加美平野球場","province":"東京都","city":"福生市","address":"東京都福生市加美平1丁目21","lat":35.75075425,"lon":139.3271652},{"name":"公立福生病院","province":"東京都","city":"福生市","address":"東京都福生市加美平1丁目6-1","lat":35.74701301,"lon":139.3266987},{"name":"福生市立多摩川緑地福生南公園","province":"東京都","city":"福生市","address":"東京都福生市南田園1丁目1-1","lat":35.71975535,"lon":139.33089655},{"name":"加美平野球場","province":"東京都","city":"福生市","address":"東京都福生市加美平1丁目21","lat":35.75075425,"lon":139.3271652},{"name":"公立福生病院","province":"東京都","city":"福生市","address":"東京都福生市加美平1丁目6-1","lat":35.74701301,"lon":139.3266987},{"name":"公立福生病院","province":"東京都","city":"福生市","address":"東京都福生市加美平1丁目6-1","lat":35.74701301,"lon":139.3266987},{"name":"公立福生病院","province":"東京都","city":"福生市","address":"東京都福生市加美平1丁目6-1","lat":35.74701301,"lon":139.3266987},{"name":"公立福生病院","province":"東京都","city":"福生市","address":"東京都福生市加美平1丁目6-1","lat":35.74701301,"lon":139.3266987},{"name":"公立福生病院","province":"東京都","city":"福生市","address":"東京都福生市加美平1丁目6-1","lat":35.74701301,"lon":139.3266987},{"name":"公立福生病院","province":"東京都","city":"福生市","address":"東京都福生市加美平1丁目6-1","lat":35.74701301,"lon":139.3266987},{"name":"公立福生病院","province":"東京都","city":"福生市","address":"東京都福生市加美平1丁目6-1","lat":35.74701301,"lon":139.3266987},{"name":"公立福生病院","province":"東京都","city":"福生市","address":"東京都福生市加美平1丁目6-1","lat":35.74701301,"lon":139.3266987},{"name":"公立福生病院","province":"東京都","city":"福生市","address":"東京都福生市加美平1丁目6-1","lat":35.74701301,"lon":139.3266987},{"name":"公立福生病院","province":"東京都","city":"福生市","address":"東京都福生市加美平1丁目6-1","lat":35.74701301,"lon":139.3266987},{"name":"公立福生病院","province":"東京都","city":"福生市","address":"東京都福生市加美平1丁目6-1","lat":35.74701301,"lon":139.3266987},{"name":"公立福生病院","province":"東京都","city":"福生市","address":"東京都福生市加美平1丁目6-1","lat":35.74701301,"lon":139.3266987},{"name":"公立福生病院","province":"東京都","city":"福生市","address":"東京都福生市加美平1丁目6-1","lat":35.74701301,"lon":139.3266987},{"name":"公立福生病院","province":"東京都","city":"福生市","address":"東京都福生市加美平1丁目6-1","lat":35.74701301,"lon":139.3266987},{"name":"公立福生病院","province":"東京都","city":"福生市","address":"東京都福生市加美平1丁目6-1","lat":35.74701301,"lon":139.3266987},{"name":"公立福生病院","province":"東京都","city":"福生市","address":"東京都福生市加美平1丁目6-1","lat":35.74701301,"lon":139.3266987},{"name":"公立福生病院","province":"東京都","city":"福生市","address":"東京都福生市加美平1丁目6-1","lat":35.74701301,"lon":139.3266987},{"name":"公立福生病院","province":"東京都","city":"福生市","address":"東京都福生市加美平1丁目6-1","lat":35.74701301,"lon":139.3266987},{"name":"公立福生病院","province":"東京都","city":"福生市","address":"東京都福生市加美平1丁目6-1","lat":35.74701301,"lon":139.3266987},{"name":"公立福生病院","province":"東京都","city":"福生市","address":"東京都福生市加美平1丁目6-1","lat":35.74701301,"lon":139.3266987},{"name":"公立福生病院","province":"東京都","city":"福生市","address":"東京都福生市加美平1丁目6-1","lat":35.74701301,"lon":139.3266987},{"name":"公立福生病院","province":"東京都","city":"福生市","address":"東京都福生市加美平1丁目6-1","lat":35.74701301,"lon":139.3266987},{"name":"公立福生病院","province":"東京都","city":"福生市","address":"東京都福生市加美平1丁目6-1","lat":35.74701301,"lon":139.3266987},{"name":"公立福生病院","province":"東京都","city":"福生市","address":"東京都福生市加美平1丁目6-1","lat":35.74701301,"lon":139.3266987},{"name":"公立福生病院","province":"東京都","city":"福生市","address":"東京都福生市加美平1丁目6-1","lat":35.74701301,"lon":139.3266987},{"name":"公立福生病院","province":"東京都","city":"福生市","address":"東京都福生市加美平1丁目6-1","lat":35.74701301,"lon":139.3266987},{"name":"公立福生病院","province":"東京都","city":"福生市","address":"東京都福生市加美平1丁目6-1","lat":35.74701301,"lon":139.3266987},{"name":"公立福生病院","province":"東京都","city":"福生市","address":"東京都福生市加美平1丁目6-1","lat":35.74701301,"lon":139.3266987},{"name":"公立福生病院","province":"東京都","city":"福生市","address":"東京都福生市加美平1丁目6-1","lat":35.74701301,"lon":139.3266987},{"name":"公立福生病院","province":"東京都","city":"福生市","address":"東京都福生市加美平1丁目6-1","lat":35.74701301,"lon":139.3266987},{"name":"公立福生病院","province":"東京都","city":"福生市","address":"東京都福生市加美平1丁目6-1","lat":35.74701301,"lon":139.3266987},{"name":"公立福生病院","province":"東京都","city":"福生市","address":"東京都福生市加美平1丁目6-1","lat":35.74701301,"lon":139.3266987}]}