{"keyword":"保育","data":[{"name":"若葉保育園","province":"東京都","city":"福生市","address":"福生市大字熊川1430番地","lat":35.726099,"lon":139.342148},{"name":"杉ノ子第三保育園","province":"東京都","city":"福生市","address":"福生市大字熊川373番地1","lat":35.721664,"lon":139.336377},{"name":"熊川保育園","province":"東京都","city":"福生市","address":"福生市大字熊川597番地1","lat":35.726416,"lon":139.337118},{"name":"杉ノ子第二保育園","province":"東京都","city":"福生市","address":"福生市南田園三丁目4番地2","lat":35.729276,"lon":139.329632},{"name":"わらべつくし保育園","province":"東京都","city":"福生市","address":"福生市南田園一丁目4番地12","lat":35.721066,"lon":139.330502},{"name":"東福保育園","province":"東京都","city":"福生市","address":"福生市大字福生209番地","lat":35.738817,"lon":139.334851},{"name":"福生保育園","province":"東京都","city":"福生市","address":"福生市大字福生1058番地11","lat":35.742827,"lon":139.325488},{"name":"福生本町保育園","province":"東京都","city":"福生市","address":"福生市大字福生2143番地11","lat":35.743097,"lon":139.332637},{"name":"すみれ保育園","province":"東京都","city":"福生市","address":"福生市大字福生959番地8","lat":35.746519,"lon":139.328532},{"name":"加美平保育園","province":"東京都","city":"福生市","address":"福生市加美平四丁目1番地1","lat":35.753743,"lon":139.326279},{"name":"彌生保育園","province":"東京都","city":"福生市","address":"福生市加美平三丁目37番地13","lat":35.748774,"lon":139.319071},{"name":"ありんこ保育園","province":"東京都","city":"福生市","address":"福生市加美平一丁目17番地7","lat":35.750177,"lon":139.327335},{"name":"福生杉ノ子保育園","province":"東京都","city":"福生市","address":"福生市志茂47番地3","lat":35.735962,"lon":139.329404},{"name":"牛浜こども園","province":"東京都","city":"福生市","address":"福生市牛浜121番地4","lat":35.735004,"lon":139.334076}]}