{"keyword":"収蔵","data":[{"name":"福生武蔵野台給水所","province":"東京都","city":"福生市","address":"東京都福生市武蔵野台2-32","lat":35.751586,"lon":139.329512},{"name":"市立明神下公園","province":"東京都","city":"福生市","address":"東京都福生市南田園1-12-1","lat":35.723895,"lon":139.330834},{"name":"公立福生病院","province":"東京都","city":"福生市","address":"東京都福生市加美平1丁目6-1","lat":35.74701301,"lon":139.3266987},{"name":"福生武蔵野台浄水所","province":"東京都","city":"福生市","address":"東京都福生市武蔵野台2丁目32","lat":35.75162088,"lon":139.329215},{"name":"福生市立多摩川緑地福生南公園","province":"東京都","city":"福生市","address":"東京都福生市南田園1丁目1-1","lat":35.71975535,"lon":139.33089655},{"name":"加美平野球場","province":"東京都","city":"福生市","address":"東京都福生市加美平1丁目21","lat":35.75075425,"lon":139.3271652},{"name":"＊?福生市公民館","province":"東京都","city":"福生市","address":"福生市福生2455","lat":35.733906,"lon":139.337829},{"name":"＊?福生市公民館松林分館","province":"東京都","city":"福生市","address":"福生市武蔵野台1-15-1","lat":35.746445,"lon":139.332546},{"name":"＊?福生市公民館白梅分館","province":"東京都","city":"福生市","address":"福生市熊川559-1","lat":35.724133,"lon":139.337724},{"name":"福生武蔵野台給水所","province":"東京都","city":"福生市","address":"東京都福生市武蔵野台2-32","lat":35.751586,"lon":139.329512},{"name":"市立明神下公園","province":"東京都","city":"福生市","address":"東京都福生市南田園1-12-1","lat":35.723895,"lon":139.330834},{"name":"公立福生病院","province":"東京都","city":"福生市","address":"東京都福生市加美平1丁目6-1","lat":35.74701301,"lon":139.3266987},{"name":"福生武蔵野台浄水所","province":"東京都","city":"福生市","address":"東京都福生市武蔵野台2丁目32","lat":35.75162088,"lon":139.329215},{"name":"福生市立多摩川緑地福生南公園","province":"東京都","city":"福生市","address":"東京都福生市南田園1丁目1-1","lat":35.71975535,"lon":139.33089655},{"name":"加美平野球場","province":"東京都","city":"福生市","address":"東京都福生市加美平1丁目21","lat":35.75075425,"lon":139.3271652},{"name":"＊?福生市公民館","province":"東京都","city":"福生市","address":"福生市福生2455","lat":35.733906,"lon":139.337829},{"name":"＊?福生市公民館松林分館","province":"東京都","city":"福生市","address":"福生市武蔵野台1-15-1","lat":35.746445,"lon":139.332546},{"name":"＊?福生市公民館白梅分館","province":"東京都","city":"福生市","address":"福生市熊川559-1","lat":35.724133,"lon":139.337724},{"name":"福生武蔵野台給水所","province":"東京都","city":"福生市","address":"東京都福生市武蔵野台2-32","lat":35.751586,"lon":139.329512},{"name":"市立明神下公園","province":"東京都","city":"福生市","address":"東京都福生市南田園1-12-1","lat":35.723895,"lon":139.330834},{"name":"公立福生病院","province":"東京都","city":"福生市","address":"東京都福生市加美平1丁目6-1","lat":35.74701301,"lon":139.3266987},{"name":"福生武蔵野台浄水所","province":"東京都","city":"福生市","address":"東京都福生市武蔵野台2丁目32","lat":35.75162088,"lon":139.329215},{"name":"福生市立多摩川緑地福生南公園","province":"東京都","city":"福生市","address":"東京都福生市南田園1丁目1-1","lat":35.71975535,"lon":139.33089655},{"name":"加美平野球場","province":"東京都","city":"福生市","address":"東京都福生市加美平1丁目21","lat":35.75075425,"lon":139.3271652},{"name":"＊?福生市公民館","province":"東京都","city":"福生市","address":"福生市福生2455","lat":35.733906,"lon":139.337829},{"name":"＊?福生市公民館松林分館","province":"東京都","city":"福生市","address":"福生市武蔵野台1-15-1","lat":35.746445,"lon":139.332546},{"name":"＊?福生市公民館白梅分館","province":"東京都","city":"福生市","address":"福生市熊川559-1","lat":35.724133,"lon":139.337724},{"name":"福生武蔵野台給水所","province":"東京都","city":"福生市","address":"東京都福生市武蔵野台2-32","lat":35.751586,"lon":139.329512},{"name":"市立明神下公園","province":"東京都","city":"福生市","address":"東京都福生市南田園1-12-1","lat":35.723895,"lon":139.330834},{"name":"公立福生病院","province":"東京都","city":"福生市","address":"東京都福生市加美平1丁目6-1","lat":35.74701301,"lon":139.3266987},{"name":"福生市立多摩川緑地福生南公園","province":"東京都","city":"福生市","address":"東京都福生市南田園1丁目1-1","lat":35.71975535,"lon":139.33089655},{"name":"加美平野球場","province":"東京都","city":"福生市","address":"東京都福生市加美平1丁目21","lat":35.75075425,"lon":139.3271652},{"name":"＊?福生市公民館","province":"東京都","city":"福生市","address":"福生市福生2455","lat":35.733906,"lon":139.337829},{"name":"＊?福生市公民館松林分館","province":"東京都","city":"福生市","address":"福生市武蔵野台1-15-1","lat":35.746445,"lon":139.332546},{"name":"＊?福生市公民館白梅分館","province":"東京都","city":"福生市","address":"福生市熊川559-1","lat":35.724133,"lon":139.337724},{"name":"福生武蔵野台給水所","province":"東京都","city":"福生市","address":"東京都福生市武蔵野台2-32","lat":35.751586,"lon":139.329512},{"name":"市立明神下公園","province":"東京都","city":"福生市","address":"東京都福生市南田園1-12-1","lat":35.723895,"lon":139.330834},{"name":"公立福生病院","province":"東京都","city":"福生市","address":"東京都福生市加美平1丁目6-1","lat":35.74701301,"lon":139.3266987},{"name":"＊?福生市公民館","province":"東京都","city":"福生市","address":"福生市福生2455","lat":35.733906,"lon":139.337829},{"name":"＊?福生市公民館松林分館","province":"東京都","city":"福生市","address":"福生市武蔵野台1-15-1","lat":35.746445,"lon":139.332546},{"name":"＊?福生市公民館白梅分館","province":"東京都","city":"福生市","address":"福生市熊川559-1","lat":35.724133,"lon":139.337724},{"name":"福生武蔵野台給水所","province":"東京都","city":"福生市","address":"東京都福生市武蔵野台2-32","lat":35.751586,"lon":139.329512},{"name":"市立明神下公園","province":"東京都","city":"福生市","address":"東京都福生市南田園1-12-1","lat":35.723895,"lon":139.330834},{"name":"公立福生病院","province":"東京都","city":"福生市","address":"東京都福生市加美平1丁目6-1","lat":35.74701301,"lon":139.3266987},{"name":"＊?福生市公民館","province":"東京都","city":"福生市","address":"福生市福生2455","lat":35.733906,"lon":139.337829},{"name":"＊?福生市公民館松林分館","province":"東京都","city":"福生市","address":"福生市武蔵野台1-15-1","lat":35.746445,"lon":139.332546},{"name":"＊?福生市公民館白梅分館","province":"東京都","city":"福生市","address":"福生市熊川559-1","lat":35.724133,"lon":139.337724},{"name":"福生武蔵野台給水所","province":"東京都","city":"福生市","address":"東京都福生市武蔵野台2-32","lat":35.751586,"lon":139.329512},{"name":"市立明神下公園","province":"東京都","city":"福生市","address":"東京都福生市南田園1-12-1","lat":35.723895,"lon":139.330834},{"name":"公立福生病院","province":"東京都","city":"福生市","address":"東京都福生市加美平1丁目6-1","lat":35.74701301,"lon":139.3266987},{"name":"＊?福生市公民館","province":"東京都","city":"福生市","address":"福生市福生2455","lat":35.733906,"lon":139.337829},{"name":"＊?福生市公民館松林分館","province":"東京都","city":"福生市","address":"福生市武蔵野台1-15-1","lat":35.746445,"lon":139.332546},{"name":"＊?福生市公民館白梅分館","province":"東京都","city":"福生市","address":"福生市熊川559-1","lat":35.724133,"lon":139.337724},{"name":"福生武蔵野台給水所","province":"東京都","city":"福生市","address":"東京都福生市武蔵野台2-32","lat":35.751586,"lon":139.329512},{"name":"市立明神下公園","province":"東京都","city":"福生市","address":"東京都福生市南田園1-12-1","lat":35.723895,"lon":139.330834},{"name":"公立福生病院","province":"東京都","city":"福生市","address":"東京都福生市加美平1丁目6-1","lat":35.74701301,"lon":139.3266987},{"name":"＊?福生市公民館","province":"東京都","city":"福生市","address":"福生市福生2455","lat":35.733906,"lon":139.337829},{"name":"＊?福生市公民館松林分館","province":"東京都","city":"福生市","address":"福生市武蔵野台1-15-1","lat":35.746445,"lon":139.332546},{"name":"＊?福生市公民館白梅分館","province":"東京都","city":"福生市","address":"福生市熊川559-1","lat":35.724133,"lon":139.337724},{"name":"福生武蔵野台給水所","province":"東京都","city":"福生市","address":"東京都福生市武蔵野台2-32","lat":35.751586,"lon":139.329512},{"name":"市立明神下公園","province":"東京都","city":"福生市","address":"東京都福生市南田園1-12-1","lat":35.723895,"lon":139.330834},{"name":"公立福生病院","province":"東京都","city":"福生市","address":"東京都福生市加美平1丁目6-1","lat":35.74701301,"lon":139.3266987},{"name":"＊?福生市公民館","province":"東京都","city":"福生市","address":"福生市福生2455","lat":35.733906,"lon":139.337829},{"name":"＊?福生市公民館松林分館","province":"東京都","city":"福生市","address":"福生市武蔵野台1-15-1","lat":35.746445,"lon":139.332546},{"name":"＊?福生市公民館白梅分館","province":"東京都","city":"福生市","address":"福生市熊川559-1","lat":35.724133,"lon":139.337724},{"name":"福生武蔵野台給水所","province":"東京都","city":"福生市","address":"東京都福生市武蔵野台2-32","lat":35.751586,"lon":139.329512},{"name":"市立明神下公園","province":"東京都","city":"福生市","address":"東京都福生市南田園1-12-1","lat":35.723895,"lon":139.330834},{"name":"公立福生病院","province":"東京都","city":"福生市","address":"東京都福生市加美平1丁目6-1","lat":35.74701301,"lon":139.3266987},{"name":"＊?福生市公民館","province":"東京都","city":"福生市","address":"福生市福生2455","lat":35.733906,"lon":139.337829},{"name":"＊?福生市公民館松林分館","province":"東京都","city":"福生市","address":"福生市武蔵野台1-15-1","lat":35.746445,"lon":139.332546},{"name":"＊?福生市公民館白梅分館","province":"東京都","city":"福生市","address":"福生市熊川559-1","lat":35.724133,"lon":139.337724},{"name":"福生武蔵野台給水所","province":"東京都","city":"福生市","address":"東京都福生市武蔵野台2-32","lat":35.751586,"lon":139.329512},{"name":"市立明神下公園","province":"東京都","city":"福生市","address":"東京都福生市南田園1-12-1","lat":35.723895,"lon":139.330834},{"name":"＊?福生市公民館","province":"東京都","city":"福生市","address":"福生市福生2455","lat":35.733906,"lon":139.337829},{"name":"＊?福生市公民館松林分館","province":"東京都","city":"福生市","address":"福生市武蔵野台1-15-1","lat":35.746445,"lon":139.332546},{"name":"＊?福生市公民館白梅分館","province":"東京都","city":"福生市","address":"福生市熊川559-1","lat":35.724133,"lon":139.337724},{"name":"福生武蔵野台給水所","province":"東京都","city":"福生市","address":"東京都福生市武蔵野台2-32","lat":35.751586,"lon":139.329512},{"name":"市立明神下公園","province":"東京都","city":"福生市","address":"東京都福生市南田園1-12-1","lat":35.723895,"lon":139.330834},{"name":"＊?福生市公民館","province":"東京都","city":"福生市","address":"福生市福生2455","lat":35.733906,"lon":139.337829},{"name":"＊?福生市公民館松林分館","province":"東京都","city":"福生市","address":"福生市武蔵野台1-15-1","lat":35.746445,"lon":139.332546},{"name":"＊?福生市公民館白梅分館","province":"東京都","city":"福生市","address":"福生市熊川559-1","lat":35.724133,"lon":139.337724},{"name":"福生武蔵野台給水所","province":"東京都","city":"福生市","address":"東京都福生市武蔵野台2-32","lat":35.751586,"lon":139.329512},{"name":"市立明神下公園","province":"東京都","city":"福生市","address":"東京都福生市南田園1-12-1","lat":35.723895,"lon":139.330834},{"name":"＊?福生市公民館","province":"東京都","city":"福生市","address":"福生市福生2455","lat":35.733906,"lon":139.337829},{"name":"＊?福生市公民館松林分館","province":"東京都","city":"福生市","address":"福生市武蔵野台1-15-1","lat":35.746445,"lon":139.332546},{"name":"＊?福生市公民館白梅分館","province":"東京都","city":"福生市","address":"福生市熊川559-1","lat":35.724133,"lon":139.337724},{"name":"福生武蔵野台給水所","province":"東京都","city":"福生市","address":"東京都福生市武蔵野台2-32","lat":35.751586,"lon":139.329512},{"name":"市立明神下公園","province":"東京都","city":"福生市","address":"東京都福生市南田園1-12-1","lat":35.723895,"lon":139.330834},{"name":"＊?福生市公民館","province":"東京都","city":"福生市","address":"福生市福生2455","lat":35.733906,"lon":139.337829},{"name":"＊?福生市公民館松林分館","province":"東京都","city":"福生市","address":"福生市武蔵野台1-15-1","lat":35.746445,"lon":139.332546},{"name":"＊?福生市公民館白梅分館","province":"東京都","city":"福生市","address":"福生市熊川559-1","lat":35.724133,"lon":139.337724},{"name":"福生武蔵野台給水所","province":"東京都","city":"福生市","address":"東京都福生市武蔵野台2-32","lat":35.751586,"lon":139.329512},{"name":"市立明神下公園","province":"東京都","city":"福生市","address":"東京都福生市南田園1-12-1","lat":35.723895,"lon":139.330834},{"name":"＊?福生市公民館","province":"東京都","city":"福生市","address":"福生市福生2455","lat":35.733906,"lon":139.337829},{"name":"＊?福生市公民館松林分館","province":"東京都","city":"福生市","address":"福生市武蔵野台1-15-1","lat":35.746445,"lon":139.332546},{"name":"＊?福生市公民館白梅分館","province":"東京都","city":"福生市","address":"福生市熊川559-1","lat":35.724133,"lon":139.337724},{"name":"福生武蔵野台給水所","province":"東京都","city":"福生市","address":"東京都福生市武蔵野台2-32","lat":35.751586,"lon":139.329512},{"name":"市立明神下公園","province":"東京都","city":"福生市","address":"東京都福生市南田園1-12-1","lat":35.723895,"lon":139.330834},{"name":"＊?福生市公民館","province":"東京都","city":"福生市","address":"福生市福生2455","lat":35.733906,"lon":139.337829},{"name":"＊?福生市公民館松林分館","province":"東京都","city":"福生市","address":"福生市武蔵野台1-15-1","lat":35.746445,"lon":139.332546},{"name":"＊?福生市公民館白梅分館","province":"東京都","city":"福生市","address":"福生市熊川559-1","lat":35.724133,"lon":139.337724},{"name":"福生武蔵野台給水所","province":"東京都","city":"福生市","address":"東京都福生市武蔵野台2-32","lat":35.751586,"lon":139.329512},{"name":"市立明神下公園","province":"東京都","city":"福生市","address":"東京都福生市南田園1-12-1","lat":35.723895,"lon":139.330834},{"name":"＊?福生市公民館","province":"東京都","city":"福生市","address":"福生市福生2455","lat":35.733906,"lon":139.337829},{"name":"＊?福生市公民館松林分館","province":"東京都","city":"福生市","address":"福生市武蔵野台1-15-1","lat":35.746445,"lon":139.332546},{"name":"＊?福生市公民館白梅分館","province":"東京都","city":"福生市","address":"福生市熊川559-1","lat":35.724133,"lon":139.337724},{"name":"福生武蔵野台給水所","province":"東京都","city":"福生市","address":"東京都福生市武蔵野台2-32","lat":35.751586,"lon":139.329512},{"name":"市立明神下公園","province":"東京都","city":"福生市","address":"東京都福生市南田園1-12-1","lat":35.723895,"lon":139.330834},{"name":"＊?福生市公民館","province":"東京都","city":"福生市","address":"福生市福生2455","lat":35.733906,"lon":139.337829},{"name":"＊?福生市公民館松林分館","province":"東京都","city":"福生市","address":"福生市武蔵野台1-15-1","lat":35.746445,"lon":139.332546},{"name":"＊?福生市公民館白梅分館","province":"東京都","city":"福生市","address":"福生市熊川559-1","lat":35.724133,"lon":139.337724},{"name":"福生武蔵野台給水所","province":"東京都","city":"福生市","address":"東京都福生市武蔵野台2-32","lat":35.751586,"lon":139.329512},{"name":"市立明神下公園","province":"東京都","city":"福生市","address":"東京都福生市南田園1-12-1","lat":35.723895,"lon":139.330834},{"name":"＊?福生市公民館","province":"東京都","city":"福生市","address":"福生市福生2455","lat":35.733906,"lon":139.337829},{"name":"＊?福生市公民館松林分館","province":"東京都","city":"福生市","address":"福生市武蔵野台1-15-1","lat":35.746445,"lon":139.332546},{"name":"＊?福生市公民館白梅分館","province":"東京都","city":"福生市","address":"福生市熊川559-1","lat":35.724133,"lon":139.337724},{"name":"福生武蔵野台給水所","province":"東京都","city":"福生市","address":"東京都福生市武蔵野台2-32","lat":35.751586,"lon":139.329512},{"name":"市立明神下公園","province":"東京都","city":"福生市","address":"東京都福生市南田園1-12-1","lat":35.723895,"lon":139.330834},{"name":"＊?福生市公民館","province":"東京都","city":"福生市","address":"福生市福生2455","lat":35.733906,"lon":139.337829},{"name":"＊?福生市公民館松林分館","province":"東京都","city":"福生市","address":"福生市武蔵野台1-15-1","lat":35.746445,"lon":139.332546},{"name":"＊?福生市公民館白梅分館","province":"東京都","city":"福生市","address":"福生市熊川559-1","lat":35.724133,"lon":139.337724},{"name":"福生武蔵野台給水所","province":"東京都","city":"福生市","address":"東京都福生市武蔵野台2-32","lat":35.751586,"lon":139.329512},{"name":"市立明神下公園","province":"東京都","city":"福生市","address":"東京都福生市南田園1-12-1","lat":35.723895,"lon":139.330834},{"name":"＊?福生市公民館","province":"東京都","city":"福生市","address":"福生市福生2455","lat":35.733906,"lon":139.337829},{"name":"＊?福生市公民館松林分館","province":"東京都","city":"福生市","address":"福生市武蔵野台1-15-1","lat":35.746445,"lon":139.332546},{"name":"＊?福生市公民館白梅分館","province":"東京都","city":"福生市","address":"福生市熊川559-1","lat":35.724133,"lon":139.337724},{"name":"福生武蔵野台給水所","province":"東京都","city":"福生市","address":"東京都福生市武蔵野台2-32","lat":35.751586,"lon":139.329512},{"name":"市立明神下公園","province":"東京都","city":"福生市","address":"東京都福生市南田園1-12-1","lat":35.723895,"lon":139.330834},{"name":"＊?福生市公民館","province":"東京都","city":"福生市","address":"福生市福生2455","lat":35.733906,"lon":139.337829},{"name":"＊?福生市公民館松林分館","province":"東京都","city":"福生市","address":"福生市武蔵野台1-15-1","lat":35.746445,"lon":139.332546},{"name":"＊?福生市公民館白梅分館","province":"東京都","city":"福生市","address":"福生市熊川559-1","lat":35.724133,"lon":139.337724},{"name":"福生武蔵野台給水所","province":"東京都","city":"福生市","address":"東京都福生市武蔵野台2-32","lat":35.751586,"lon":139.329512},{"name":"市立明神下公園","province":"東京都","city":"福生市","address":"東京都福生市南田園1-12-1","lat":35.723895,"lon":139.330834},{"name":"＊?福生市公民館","province":"東京都","city":"福生市","address":"福生市福生2455","lat":35.733906,"lon":139.337829},{"name":"＊?福生市公民館松林分館","province":"東京都","city":"福生市","address":"福生市武蔵野台1-15-1","lat":35.746445,"lon":139.332546},{"name":"＊?福生市公民館白梅分館","province":"東京都","city":"福生市","address":"福生市熊川559-1","lat":35.724133,"lon":139.337724},{"name":"福生武蔵野台給水所","province":"東京都","city":"福生市","address":"東京都福生市武蔵野台2-32","lat":35.751586,"lon":139.329512},{"name":"市立明神下公園","province":"東京都","city":"福生市","address":"東京都福生市南田園1-12-1","lat":35.723895,"lon":139.330834},{"name":"＊?福生市公民館","province":"東京都","city":"福生市","address":"福生市福生2455","lat":35.733906,"lon":139.337829},{"name":"＊?福生市公民館松林分館","province":"東京都","city":"福生市","address":"福生市武蔵野台1-15-1","lat":35.746445,"lon":139.332546},{"name":"＊?福生市公民館白梅分館","province":"東京都","city":"福生市","address":"福生市熊川559-1","lat":35.724133,"lon":139.337724},{"name":"福生武蔵野台給水所","province":"東京都","city":"福生市","address":"東京都福生市武蔵野台2-32","lat":35.751586,"lon":139.329512},{"name":"市立明神下公園","province":"東京都","city":"福生市","address":"東京都福生市南田園1-12-1","lat":35.723895,"lon":139.330834},{"name":"＊?福生市公民館","province":"東京都","city":"福生市","address":"福生市福生2455","lat":35.733906,"lon":139.337829},{"name":"＊?福生市公民館松林分館","province":"東京都","city":"福生市","address":"福生市武蔵野台1-15-1","lat":35.746445,"lon":139.332546},{"name":"＊?福生市公民館白梅分館","province":"東京都","city":"福生市","address":"福生市熊川559-1","lat":35.724133,"lon":139.337724},{"name":"福生武蔵野台給水所","province":"東京都","city":"福生市","address":"東京都福生市武蔵野台2-32","lat":35.751586,"lon":139.329512},{"name":"市立明神下公園","province":"東京都","city":"福生市","address":"東京都福生市南田園1-12-1","lat":35.723895,"lon":139.330834},{"name":"＊?福生市公民館","province":"東京都","city":"福生市","address":"福生市福生2455","lat":35.733906,"lon":139.337829},{"name":"＊?福生市公民館松林分館","province":"東京都","city":"福生市","address":"福生市武蔵野台1-15-1","lat":35.746445,"lon":139.332546},{"name":"＊?福生市公民館白梅分館","province":"東京都","city":"福生市","address":"福生市熊川559-1","lat":35.724133,"lon":139.337724},{"name":"福生武蔵野台給水所","province":"東京都","city":"福生市","address":"東京都福生市武蔵野台2-32","lat":35.751586,"lon":139.329512},{"name":"市立明神下公園","province":"東京都","city":"福生市","address":"東京都福生市南田園1-12-1","lat":35.723895,"lon":139.330834},{"name":"＊?福生市公民館","province":"東京都","city":"福生市","address":"福生市福生2455","lat":35.733906,"lon":139.337829},{"name":"＊?福生市公民館松林分館","province":"東京都","city":"福生市","address":"福生市武蔵野台1-15-1","lat":35.746445,"lon":139.332546},{"name":"＊?福生市公民館白梅分館","province":"東京都","city":"福生市","address":"福生市熊川559-1","lat":35.724133,"lon":139.337724},{"name":"福生武蔵野台給水所","province":"東京都","city":"福生市","address":"東京都福生市武蔵野台2-32","lat":35.751586,"lon":139.329512},{"name":"市立明神下公園","province":"東京都","city":"福生市","address":"東京都福生市南田園1-12-1","lat":35.723895,"lon":139.330834},{"name":"＊?福生市公民館","province":"東京都","city":"福生市","address":"福生市福生2455","lat":35.733906,"lon":139.337829},{"name":"＊?福生市公民館松林分館","province":"東京都","city":"福生市","address":"福生市武蔵野台1-15-1","lat":35.746445,"lon":139.332546},{"name":"＊?福生市公民館白梅分館","province":"東京都","city":"福生市","address":"福生市熊川559-1","lat":35.724133,"lon":139.337724},{"name":"福生武蔵野台給水所","province":"東京都","city":"福生市","address":"東京都福生市武蔵野台2-32","lat":35.751586,"lon":139.329512},{"name":"市立明神下公園","province":"東京都","city":"福生市","address":"東京都福生市南田園1-12-1","lat":35.723895,"lon":139.330834},{"name":"＊?福生市公民館","province":"東京都","city":"福生市","address":"福生市福生2455","lat":35.733906,"lon":139.337829},{"name":"＊?福生市公民館松林分館","province":"東京都","city":"福生市","address":"福生市武蔵野台1-15-1","lat":35.746445,"lon":139.332546},{"name":"＊?福生市公民館白梅分館","province":"東京都","city":"福生市","address":"福生市熊川559-1","lat":35.724133,"lon":139.337724},{"name":"福生武蔵野台給水所","province":"東京都","city":"福生市","address":"東京都福生市武蔵野台2-32","lat":35.751586,"lon":139.329512},{"name":"市立明神下公園","province":"東京都","city":"福生市","address":"東京都福生市南田園1-12-1","lat":35.723895,"lon":139.330834},{"name":"＊?福生市公民館","province":"東京都","city":"福生市","address":"福生市福生2455","lat":35.733906,"lon":139.337829},{"name":"＊?福生市公民館松林分館","province":"東京都","city":"福生市","address":"福生市武蔵野台1-15-1","lat":35.746445,"lon":139.332546},{"name":"＊?福生市公民館白梅分館","province":"東京都","city":"福生市","address":"福生市熊川559-1","lat":35.724133,"lon":139.337724},{"name":"福生武蔵野台給水所","province":"東京都","city":"福生市","address":"東京都福生市武蔵野台2-32","lat":35.751586,"lon":139.329512},{"name":"市立明神下公園","province":"東京都","city":"福生市","address":"東京都福生市南田園1-12-1","lat":35.723895,"lon":139.330834},{"name":"＊?福生市公民館","province":"東京都","city":"福生市","address":"福生市福生2455","lat":35.733906,"lon":139.337829},{"name":"＊?福生市公民館松林分館","province":"東京都","city":"福生市","address":"福生市武蔵野台1-15-1","lat":35.746445,"lon":139.332546},{"name":"＊?福生市公民館白梅分館","province":"東京都","city":"福生市","address":"福生市熊川559-1","lat":35.724133,"lon":139.337724},{"name":"福生武蔵野台給水所","province":"東京都","city":"福生市","address":"東京都福生市武蔵野台2-32","lat":35.751586,"lon":139.329512},{"name":"市立明神下公園","province":"東京都","city":"福生市","address":"東京都福生市南田園1-12-1","lat":35.723895,"lon":139.330834},{"name":"＊?福生市公民館","province":"東京都","city":"福生市","address":"福生市福生2455","lat":35.733906,"lon":139.337829},{"name":"＊?福生市公民館松林分館","province":"東京都","city":"福生市","address":"福生市武蔵野台1-15-1","lat":35.746445,"lon":139.332546},{"name":"＊?福生市公民館白梅分館","province":"東京都","city":"福生市","address":"福生市熊川559-1","lat":35.724133,"lon":139.337724},{"name":"福生武蔵野台給水所","province":"東京都","city":"福生市","address":"東京都福生市武蔵野台2-32","lat":35.751586,"lon":139.329512},{"name":"市立明神下公園","province":"東京都","city":"福生市","address":"東京都福生市南田園1-12-1","lat":35.723895,"lon":139.330834},{"name":"＊?福生市公民館","province":"東京都","city":"福生市","address":"福生市福生2455","lat":35.733906,"lon":139.337829},{"name":"＊?福生市公民館松林分館","province":"東京都","city":"福生市","address":"福生市武蔵野台1-15-1","lat":35.746445,"lon":139.332546},{"name":"＊?福生市公民館白梅分館","province":"東京都","city":"福生市","address":"福生市熊川559-1","lat":35.724133,"lon":139.337724},{"name":"福生武蔵野台給水所","province":"東京都","city":"福生市","address":"東京都福生市武蔵野台2-32","lat":35.751586,"lon":139.329512},{"name":"市立明神下公園","province":"東京都","city":"福生市","address":"東京都福生市南田園1-12-1","lat":35.723895,"lon":139.330834},{"name":"＊?福生市公民館","province":"東京都","city":"福生市","address":"福生市福生2455","lat":35.733906,"lon":139.337829},{"name":"＊?福生市公民館松林分館","province":"東京都","city":"福生市","address":"福生市武蔵野台1-15-1","lat":35.746445,"lon":139.332546},{"name":"＊?福生市公民館白梅分館","province":"東京都","city":"福生市","address":"福生市熊川559-1","lat":35.724133,"lon":139.337724},{"name":"福生武蔵野台給水所","province":"東京都","city":"福生市","address":"東京都福生市武蔵野台2-32","lat":35.751586,"lon":139.329512},{"name":"市立明神下公園","province":"東京都","city":"福生市","address":"東京都福生市南田園1-12-1","lat":35.723895,"lon":139.330834},{"name":"＊?福生市公民館","province":"東京都","city":"福生市","address":"福生市福生2455","lat":35.733906,"lon":139.337829},{"name":"＊?福生市公民館松林分館","province":"東京都","city":"福生市","address":"福生市武蔵野台1-15-1","lat":35.746445,"lon":139.332546},{"name":"＊?福生市公民館白梅分館","province":"東京都","city":"福生市","address":"福生市熊川559-1","lat":35.724133,"lon":139.337724},{"name":"福生武蔵野台給水所","province":"東京都","city":"福生市","address":"東京都福生市武蔵野台2-32","lat":35.751586,"lon":139.329512},{"name":"市立明神下公園","province":"東京都","city":"福生市","address":"東京都福生市南田園1-12-1","lat":35.723895,"lon":139.330834},{"name":"＊?福生市公民館","province":"東京都","city":"福生市","address":"福生市福生2455","lat":35.733906,"lon":139.337829},{"name":"＊?福生市公民館松林分館","province":"東京都","city":"福生市","address":"福生市武蔵野台1-15-1","lat":35.746445,"lon":139.332546},{"name":"＊?福生市公民館白梅分館","province":"東京都","city":"福生市","address":"福生市熊川559-1","lat":35.724133,"lon":139.337724},{"name":"福生武蔵野台給水所","province":"東京都","city":"福生市","address":"東京都福生市武蔵野台2-32","lat":35.751586,"lon":139.329512},{"name":"市立明神下公園","province":"東京都","city":"福生市","address":"東京都福生市南田園1-12-1","lat":35.723895,"lon":139.330834},{"name":"＊?福生市公民館","province":"東京都","city":"福生市","address":"福生市福生2455","lat":35.733906,"lon":139.337829},{"name":"＊?福生市公民館松林分館","province":"東京都","city":"福生市","address":"福生市武蔵野台1-15-1","lat":35.746445,"lon":139.332546},{"name":"＊?福生市公民館白梅分館","province":"東京都","city":"福生市","address":"福生市熊川559-1","lat":35.724133,"lon":139.337724},{"name":"福生武蔵野台給水所","province":"東京都","city":"福生市","address":"東京都福生市武蔵野台2-32","lat":35.751586,"lon":139.329512},{"name":"市立明神下公園","province":"東京都","city":"福生市","address":"東京都福生市南田園1-12-1","lat":35.723895,"lon":139.330834},{"name":"＊?福生市公民館","province":"東京都","city":"福生市","address":"福生市福生2455","lat":35.733906,"lon":139.337829},{"name":"＊?福生市公民館松林分館","province":"東京都","city":"福生市","address":"福生市武蔵野台1-15-1","lat":35.746445,"lon":139.332546},{"name":"＊?福生市公民館白梅分館","province":"東京都","city":"福生市","address":"福生市熊川559-1","lat":35.724133,"lon":139.337724},{"name":"福生武蔵野台給水所","province":"東京都","city":"福生市","address":"東京都福生市武蔵野台2-32","lat":35.751586,"lon":139.329512},{"name":"市立明神下公園","province":"東京都","city":"福生市","address":"東京都福生市南田園1-12-1","lat":35.723895,"lon":139.330834},{"name":"＊?福生市公民館","province":"東京都","city":"福生市","address":"福生市福生2455","lat":35.733906,"lon":139.337829},{"name":"＊?福生市公民館松林分館","province":"東京都","city":"福生市","address":"福生市武蔵野台1-15-1","lat":35.746445,"lon":139.332546},{"name":"＊?福生市公民館白梅分館","province":"東京都","city":"福生市","address":"福生市熊川559-1","lat":35.724133,"lon":139.337724},{"name":"福生武蔵野台給水所","province":"東京都","city":"福生市","address":"東京都福生市武蔵野台2-32","lat":35.751586,"lon":139.329512},{"name":"市立明神下公園","province":"東京都","city":"福生市","address":"東京都福生市南田園1-12-1","lat":35.723895,"lon":139.330834},{"name":"＊?福生市公民館","province":"東京都","city":"福生市","address":"福生市福生2455","lat":35.733906,"lon":139.337829},{"name":"＊?福生市公民館松林分館","province":"東京都","city":"福生市","address":"福生市武蔵野台1-15-1","lat":35.746445,"lon":139.332546},{"name":"＊?福生市公民館白梅分館","province":"東京都","city":"福生市","address":"福生市熊川559-1","lat":35.724133,"lon":139.337724},{"name":"福生武蔵野台給水所","province":"東京都","city":"福生市","address":"東京都福生市武蔵野台2-32","lat":35.751586,"lon":139.329512},{"name":"市立明神下公園","province":"東京都","city":"福生市","address":"東京都福生市南田園1-12-1","lat":35.723895,"lon":139.330834},{"name":"＊?福生市公民館","province":"東京都","city":"福生市","address":"福生市福生2455","lat":35.733906,"lon":139.337829},{"name":"＊?福生市公民館松林分館","province":"東京都","city":"福生市","address":"福生市武蔵野台1-15-1","lat":35.746445,"lon":139.332546},{"name":"＊?福生市公民館白梅分館","province":"東京都","city":"福生市","address":"福生市熊川559-1","lat":35.724133,"lon":139.337724},{"name":"福生武蔵野台給水所","province":"東京都","city":"福生市","address":"東京都福生市武蔵野台2-32","lat":35.751586,"lon":139.329512},{"name":"市立明神下公園","province":"東京都","city":"福生市","address":"東京都福生市南田園1-12-1","lat":35.723895,"lon":139.330834},{"name":"＊?福生市公民館","province":"東京都","city":"福生市","address":"福生市福生2455","lat":35.733906,"lon":139.337829},{"name":"＊?福生市公民館松林分館","province":"東京都","city":"福生市","address":"福生市武蔵野台1-15-1","lat":35.746445,"lon":139.332546},{"name":"＊?福生市公民館白梅分館","province":"東京都","city":"福生市","address":"福生市熊川559-1","lat":35.724133,"lon":139.337724},{"name":"福生武蔵野台給水所","province":"東京都","city":"福生市","address":"東京都福生市武蔵野台2-32","lat":35.751586,"lon":139.329512},{"name":"市立明神下公園","province":"東京都","city":"福生市","address":"東京都福生市南田園1-12-1","lat":35.723895,"lon":139.330834},{"name":"＊?福生市公民館","province":"東京都","city":"福生市","address":"福生市福生2455","lat":35.733906,"lon":139.337829},{"name":"＊?福生市公民館松林分館","province":"東京都","city":"福生市","address":"福生市武蔵野台1-15-1","lat":35.746445,"lon":139.332546},{"name":"＊?福生市公民館白梅分館","province":"東京都","city":"福生市","address":"福生市熊川559-1","lat":35.724133,"lon":139.337724},{"name":"福生武蔵野台給水所","province":"東京都","city":"福生市","address":"東京都福生市武蔵野台2-32","lat":35.751586,"lon":139.329512},{"name":"市立明神下公園","province":"東京都","city":"福生市","address":"東京都福生市南田園1-12-1","lat":35.723895,"lon":139.330834},{"name":"＊?福生市公民館","province":"東京都","city":"福生市","address":"福生市福生2455","lat":35.733906,"lon":139.337829},{"name":"＊?福生市公民館松林分館","province":"東京都","city":"福生市","address":"福生市武蔵野台1-15-1","lat":35.746445,"lon":139.332546},{"name":"＊?福生市公民館白梅分館","province":"東京都","city":"福生市","address":"福生市熊川559-1","lat":35.724133,"lon":139.337724},{"name":"福生武蔵野台給水所","province":"東京都","city":"福生市","address":"東京都福生市武蔵野台2-32","lat":35.751586,"lon":139.329512},{"name":"市立明神下公園","province":"東京都","city":"福生市","address":"東京都福生市南田園1-12-1","lat":35.723895,"lon":139.330834},{"name":"＊?福生市公民館","province":"東京都","city":"福生市","address":"福生市福生2455","lat":35.733906,"lon":139.337829},{"name":"＊?福生市公民館松林分館","province":"東京都","city":"福生市","address":"福生市武蔵野台1-15-1","lat":35.746445,"lon":139.332546},{"name":"＊?福生市公民館白梅分館","province":"東京都","city":"福生市","address":"福生市熊川559-1","lat":35.724133,"lon":139.337724}]}