{"keyword":"命令","data":[{"name":"若葉保育園","province":"東京都","city":"福生市","address":"福生市大字熊川1430番地","lat":35.72628,"lon":139.34256},{"name":"杉ノ子第三保育園","province":"東京都","city":"福生市","address":"福生市大字熊川373番地1","lat":35.72161,"lon":139.33626},{"name":"熊川保育園","province":"東京都","city":"福生市","address":"福生市大字熊川597番地1","lat":35.72658,"lon":139.33719},{"name":"わらべつくし保育園","province":"東京都","city":"福生市","address":"福生市南田園一丁目4番地12","lat":35.72079,"lon":139.33043},{"name":"杉ノ子第二保育園","province":"東京都","city":"福生市","address":"福生市南田園三丁目4番地2","lat":35.72952,"lon":139.32973},{"name":"福生保育園","province":"東京都","city":"福生市","address":"福生市大字福生1058番地11","lat":35.74302,"lon":139.32541},{"name":"東福保育園","province":"東京都","city":"福生市","address":"福生市大字福生209番地","lat":35.73854,"lon":139.33534},{"name":"不動の森こども園","province":"東京都","city":"福生市","address":"福生市大字福生2143番地11","lat":35.7430454,"lon":139.3326818},{"name":"すみれ保育園","province":"東京都","city":"福生市","address":"福生市大字福生959番地8","lat":35.74628,"lon":139.32748},{"name":"ありんこ保育園","province":"東京都","city":"福生市","address":"福生市加美平一丁目17番地7","lat":35.75013,"lon":139.3275},{"name":"彌生保育園","province":"東京都","city":"福生市","address":"福生市加美平三丁目37番地13","lat":35.74911,"lon":139.31897},{"name":"加美平保育園","province":"東京都","city":"福生市","address":"福生市加美平四丁目1番地1","lat":35.75366,"lon":139.32352},{"name":"福生杉ノ子保育園","province":"東京都","city":"福生市","address":"福生市志茂47番地3","lat":35.736,"lon":139.32938},{"name":"牛浜こども園","province":"東京都","city":"福生市","address":"福生市牛浜121番地4","lat":35.7349947,"lon":139.3340896},{"name":"福生本町保育園","province":"東京都","city":"福生市","address":"福生市大字福生2143番地11","lat":35.74321,"lon":139.33192},{"name":"杉ノ子第三保育園","province":"東京都","city":"福生市","address":"福生市大字熊川373-1","lat":35.72162,"lon":139.33626},{"name":"福生市民会館","province":"東京都","city":"福生市","address":"東京都福生市福生（大字）2455","lat":35.73403986,"lon":139.33785671},{"name":"さくら会館","province":"東京都","city":"福生市","address":"東京都福生市牛浜163","lat":35.73379544,"lon":139.33723732},{"name":"福生市本庁舎","province":"東京都","city":"福生市","address":"福生市本町5","lat":35.738484,"lon":139.326868},{"name":"航空自衛隊横田基地","province":"東京都","city":"福生市","address":"福生市大字福生2552","lat":35.74337,"lon":139.3305},{"name":"福生警察署","province":"東京都","city":"福生市","address":"福生市加美平3-25","lat":35.74889,"lon":139.3206},{"name":"福生消防署","province":"東京都","city":"福生市","address":"福生市福生1072","lat":35.74401,"lon":139.3245},{"name":"加美平野球場","province":"東京都","city":"福生市","address":"福生市加美平1-21","lat":35.75075,"lon":139.3272},{"name":"若葉保育園","province":"東京都","city":"福生市","address":"福生市大字熊川1430番地","lat":35.72628,"lon":139.34256},{"name":"杉ノ子第三保育園","province":"東京都","city":"福生市","address":"福生市大字熊川373番地1","lat":35.72161,"lon":139.33626},{"name":"熊川保育園","province":"東京都","city":"福生市","address":"福生市大字熊川597番地1","lat":35.72658,"lon":139.33719},{"name":"わらべつくし保育園","province":"東京都","city":"福生市","address":"福生市南田園一丁目4番地12","lat":35.72079,"lon":139.33043},{"name":"杉ノ子第二保育園","province":"東京都","city":"福生市","address":"福生市南田園三丁目4番地2","lat":35.72952,"lon":139.32973},{"name":"福生保育園","province":"東京都","city":"福生市","address":"福生市大字福生1058番地11","lat":35.74302,"lon":139.32541},{"name":"東福保育園","province":"東京都","city":"福生市","address":"福生市大字福生209番地","lat":35.73854,"lon":139.33534},{"name":"不動の森こども園","province":"東京都","city":"福生市","address":"福生市大字福生2143番地11","lat":35.7430454,"lon":139.3326818},{"name":"すみれ保育園","province":"東京都","city":"福生市","address":"福生市大字福生959番地8","lat":35.74628,"lon":139.32748},{"name":"ありんこ保育園","province":"東京都","city":"福生市","address":"福生市加美平一丁目17番地7","lat":35.75013,"lon":139.3275},{"name":"彌生保育園","province":"東京都","city":"福生市","address":"福生市加美平三丁目37番地13","lat":35.74911,"lon":139.31897},{"name":"加美平保育園","province":"東京都","city":"福生市","address":"福生市加美平四丁目1番地1","lat":35.75366,"lon":139.32352},{"name":"福生杉ノ子保育園","province":"東京都","city":"福生市","address":"福生市志茂47番地3","lat":35.736,"lon":139.32938},{"name":"牛浜こども園","province":"東京都","city":"福生市","address":"福生市牛浜121番地4","lat":35.7349947,"lon":139.3340896},{"name":"福生本町保育園","province":"東京都","city":"福生市","address":"福生市大字福生2143番地11","lat":35.74321,"lon":139.33192},{"name":"杉ノ子第三保育園","province":"東京都","city":"福生市","address":"福生市大字熊川373-1","lat":35.72162,"lon":139.33626},{"name":"福生市民会館","province":"東京都","city":"福生市","address":"東京都福生市福生（大字）2455","lat":35.73403986,"lon":139.33785671},{"name":"さくら会館","province":"東京都","city":"福生市","address":"東京都福生市牛浜163","lat":35.73379544,"lon":139.33723732},{"name":"福生市本庁舎","province":"東京都","city":"福生市","address":"福生市本町5","lat":35.738484,"lon":139.326868},{"name":"航空自衛隊横田基地","province":"東京都","city":"福生市","address":"福生市大字福生2552","lat":35.74337,"lon":139.3305},{"name":"福生警察署","province":"東京都","city":"福生市","address":"福生市加美平3-25","lat":35.74889,"lon":139.3206},{"name":"福生消防署","province":"東京都","city":"福生市","address":"福生市福生1072","lat":35.74401,"lon":139.3245},{"name":"加美平野球場","province":"東京都","city":"福生市","address":"福生市加美平1-21","lat":35.75075,"lon":139.3272},{"name":"若葉保育園","province":"東京都","city":"福生市","address":"福生市大字熊川1430番地","lat":35.72628,"lon":139.34256},{"name":"杉ノ子第三保育園","province":"東京都","city":"福生市","address":"福生市大字熊川373番地1","lat":35.72161,"lon":139.33626},{"name":"熊川保育園","province":"東京都","city":"福生市","address":"福生市大字熊川597番地1","lat":35.72658,"lon":139.33719},{"name":"わらべつくし保育園","province":"東京都","city":"福生市","address":"福生市南田園一丁目4番地12","lat":35.72079,"lon":139.33043},{"name":"杉ノ子第二保育園","province":"東京都","city":"福生市","address":"福生市南田園三丁目4番地2","lat":35.72952,"lon":139.32973},{"name":"福生保育園","province":"東京都","city":"福生市","address":"福生市大字福生1058番地11","lat":35.74302,"lon":139.32541},{"name":"東福保育園","province":"東京都","city":"福生市","address":"福生市大字福生209番地","lat":35.73854,"lon":139.33534},{"name":"不動の森こども園","province":"東京都","city":"福生市","address":"福生市大字福生2143番地11","lat":35.7430454,"lon":139.3326818},{"name":"すみれ保育園","province":"東京都","city":"福生市","address":"福生市大字福生959番地8","lat":35.74628,"lon":139.32748},{"name":"ありんこ保育園","province":"東京都","city":"福生市","address":"福生市加美平一丁目17番地7","lat":35.75013,"lon":139.3275},{"name":"彌生保育園","province":"東京都","city":"福生市","address":"福生市加美平三丁目37番地13","lat":35.74911,"lon":139.31897},{"name":"加美平保育園","province":"東京都","city":"福生市","address":"福生市加美平四丁目1番地1","lat":35.75366,"lon":139.32352},{"name":"福生杉ノ子保育園","province":"東京都","city":"福生市","address":"福生市志茂47番地3","lat":35.736,"lon":139.32938},{"name":"牛浜こども園","province":"東京都","city":"福生市","address":"福生市牛浜121番地4","lat":35.7349947,"lon":139.3340896},{"name":"福生本町保育園","province":"東京都","city":"福生市","address":"福生市大字福生2143番地11","lat":35.74321,"lon":139.33192},{"name":"杉ノ子第三保育園","province":"東京都","city":"福生市","address":"福生市大字熊川373-1","lat":35.72162,"lon":139.33626},{"name":"若葉保育園","province":"東京都","city":"福生市","address":"福生市大字熊川1430番地","lat":35.72628,"lon":139.34256},{"name":"杉ノ子第三保育園","province":"東京都","city":"福生市","address":"福生市大字熊川373番地1","lat":35.72161,"lon":139.33626},{"name":"熊川保育園","province":"東京都","city":"福生市","address":"福生市大字熊川597番地1","lat":35.72658,"lon":139.33719},{"name":"わらべつくし保育園","province":"東京都","city":"福生市","address":"福生市南田園一丁目4番地12","lat":35.72079,"lon":139.33043},{"name":"杉ノ子第二保育園","province":"東京都","city":"福生市","address":"福生市南田園三丁目4番地2","lat":35.72952,"lon":139.32973},{"name":"福生保育園","province":"東京都","city":"福生市","address":"福生市大字福生1058番地11","lat":35.74302,"lon":139.32541},{"name":"東福保育園","province":"東京都","city":"福生市","address":"福生市大字福生209番地","lat":35.73854,"lon":139.33534},{"name":"不動の森こども園","province":"東京都","city":"福生市","address":"福生市大字福生2143番地11","lat":35.7430454,"lon":139.3326818},{"name":"すみれ保育園","province":"東京都","city":"福生市","address":"福生市大字福生959番地8","lat":35.74628,"lon":139.32748},{"name":"ありんこ保育園","province":"東京都","city":"福生市","address":"福生市加美平一丁目17番地7","lat":35.75013,"lon":139.3275},{"name":"彌生保育園","province":"東京都","city":"福生市","address":"福生市加美平三丁目37番地13","lat":35.74911,"lon":139.31897},{"name":"加美平保育園","province":"東京都","city":"福生市","address":"福生市加美平四丁目1番地1","lat":35.75366,"lon":139.32352},{"name":"福生杉ノ子保育園","province":"東京都","city":"福生市","address":"福生市志茂47番地3","lat":35.736,"lon":139.32938},{"name":"牛浜こども園","province":"東京都","city":"福生市","address":"福生市牛浜121番地4","lat":35.7349947,"lon":139.3340896},{"name":"福生本町保育園","province":"東京都","city":"福生市","address":"福生市大字福生2143番地11","lat":35.74321,"lon":139.33192},{"name":"杉ノ子第三保育園","province":"東京都","city":"福生市","address":"福生市大字熊川373-1","lat":35.72162,"lon":139.33626},{"name":"若葉保育園","province":"東京都","city":"福生市","address":"福生市大字熊川1430番地","lat":35.72628,"lon":139.34256},{"name":"杉ノ子第三保育園","province":"東京都","city":"福生市","address":"福生市大字熊川373番地1","lat":35.72161,"lon":139.33626},{"name":"熊川保育園","province":"東京都","city":"福生市","address":"福生市大字熊川597番地1","lat":35.72658,"lon":139.33719},{"name":"わらべつくし保育園","province":"東京都","city":"福生市","address":"福生市南田園一丁目4番地12","lat":35.72079,"lon":139.33043},{"name":"杉ノ子第二保育園","province":"東京都","city":"福生市","address":"福生市南田園三丁目4番地2","lat":35.72952,"lon":139.32973},{"name":"福生保育園","province":"東京都","city":"福生市","address":"福生市大字福生1058番地11","lat":35.74302,"lon":139.32541},{"name":"東福保育園","province":"東京都","city":"福生市","address":"福生市大字福生209番地","lat":35.73854,"lon":139.33534},{"name":"不動の森こども園","province":"東京都","city":"福生市","address":"福生市大字福生2143番地11","lat":35.7430454,"lon":139.3326818},{"name":"すみれ保育園","province":"東京都","city":"福生市","address":"福生市大字福生959番地8","lat":35.74628,"lon":139.32748},{"name":"ありんこ保育園","province":"東京都","city":"福生市","address":"福生市加美平一丁目17番地7","lat":35.75013,"lon":139.3275},{"name":"彌生保育園","province":"東京都","city":"福生市","address":"福生市加美平三丁目37番地13","lat":35.74911,"lon":139.31897},{"name":"加美平保育園","province":"東京都","city":"福生市","address":"福生市加美平四丁目1番地1","lat":35.75366,"lon":139.32352},{"name":"福生杉ノ子保育園","province":"東京都","city":"福生市","address":"福生市志茂47番地3","lat":35.736,"lon":139.32938},{"name":"牛浜こども園","province":"東京都","city":"福生市","address":"福生市牛浜121番地4","lat":35.7349947,"lon":139.3340896},{"name":"福生本町保育園","province":"東京都","city":"福生市","address":"福生市大字福生2143番地11","lat":35.74321,"lon":139.33192},{"name":"杉ノ子第三保育園","province":"東京都","city":"福生市","address":"福生市大字熊川373-1","lat":35.72162,"lon":139.33626},{"name":"若葉保育園","province":"東京都","city":"福生市","address":"福生市大字熊川1430番地","lat":35.72628,"lon":139.34256},{"name":"杉ノ子第三保育園","province":"東京都","city":"福生市","address":"福生市大字熊川373番地1","lat":35.72161,"lon":139.33626},{"name":"熊川保育園","province":"東京都","city":"福生市","address":"福生市大字熊川597番地1","lat":35.72658,"lon":139.33719},{"name":"わらべつくし保育園","province":"東京都","city":"福生市","address":"福生市南田園一丁目4番地12","lat":35.72079,"lon":139.33043},{"name":"杉ノ子第二保育園","province":"東京都","city":"福生市","address":"福生市南田園三丁目4番地2","lat":35.72952,"lon":139.32973},{"name":"福生保育園","province":"東京都","city":"福生市","address":"福生市大字福生1058番地11","lat":35.74302,"lon":139.32541},{"name":"東福保育園","province":"東京都","city":"福生市","address":"福生市大字福生209番地","lat":35.73854,"lon":139.33534},{"name":"不動の森こども園","province":"東京都","city":"福生市","address":"福生市大字福生2143番地11","lat":35.7430454,"lon":139.3326818},{"name":"すみれ保育園","province":"東京都","city":"福生市","address":"福生市大字福生959番地8","lat":35.74628,"lon":139.32748},{"name":"ありんこ保育園","province":"東京都","city":"福生市","address":"福生市加美平一丁目17番地7","lat":35.75013,"lon":139.3275},{"name":"彌生保育園","province":"東京都","city":"福生市","address":"福生市加美平三丁目37番地13","lat":35.74911,"lon":139.31897},{"name":"加美平保育園","province":"東京都","city":"福生市","address":"福生市加美平四丁目1番地1","lat":35.75366,"lon":139.32352},{"name":"福生杉ノ子保育園","province":"東京都","city":"福生市","address":"福生市志茂47番地3","lat":35.736,"lon":139.32938},{"name":"牛浜こども園","province":"東京都","city":"福生市","address":"福生市牛浜121番地4","lat":35.7349947,"lon":139.3340896},{"name":"福生本町保育園","province":"東京都","city":"福生市","address":"福生市大字福生2143番地11","lat":35.74321,"lon":139.33192},{"name":"杉ノ子第三保育園","province":"東京都","city":"福生市","address":"福生市大字熊川373-1","lat":35.72162,"lon":139.33626},{"name":"若葉保育園","province":"東京都","city":"福生市","address":"福生市大字熊川1430番地","lat":35.72628,"lon":139.34256},{"name":"杉ノ子第三保育園","province":"東京都","city":"福生市","address":"福生市大字熊川373番地1","lat":35.72161,"lon":139.33626},{"name":"熊川保育園","province":"東京都","city":"福生市","address":"福生市大字熊川597番地1","lat":35.72658,"lon":139.33719},{"name":"わらべつくし保育園","province":"東京都","city":"福生市","address":"福生市南田園一丁目4番地12","lat":35.72079,"lon":139.33043},{"name":"杉ノ子第二保育園","province":"東京都","city":"福生市","address":"福生市南田園三丁目4番地2","lat":35.72952,"lon":139.32973},{"name":"福生保育園","province":"東京都","city":"福生市","address":"福生市大字福生1058番地11","lat":35.74302,"lon":139.32541},{"name":"東福保育園","province":"東京都","city":"福生市","address":"福生市大字福生209番地","lat":35.73854,"lon":139.33534},{"name":"不動の森こども園","province":"東京都","city":"福生市","address":"福生市大字福生2143番地11","lat":35.7430454,"lon":139.3326818},{"name":"すみれ保育園","province":"東京都","city":"福生市","address":"福生市大字福生959番地8","lat":35.74628,"lon":139.32748},{"name":"ありんこ保育園","province":"東京都","city":"福生市","address":"福生市加美平一丁目17番地7","lat":35.75013,"lon":139.3275},{"name":"彌生保育園","province":"東京都","city":"福生市","address":"福生市加美平三丁目37番地13","lat":35.74911,"lon":139.31897},{"name":"加美平保育園","province":"東京都","city":"福生市","address":"福生市加美平四丁目1番地1","lat":35.75366,"lon":139.32352},{"name":"福生杉ノ子保育園","province":"東京都","city":"福生市","address":"福生市志茂47番地3","lat":35.736,"lon":139.32938},{"name":"牛浜こども園","province":"東京都","city":"福生市","address":"福生市牛浜121番地4","lat":35.7349947,"lon":139.3340896},{"name":"福生本町保育園","province":"東京都","city":"福生市","address":"福生市大字福生2143番地11","lat":35.74321,"lon":139.33192},{"name":"杉ノ子第三保育園","province":"東京都","city":"福生市","address":"福生市大字熊川373-1","lat":35.72162,"lon":139.33626},{"name":"若葉保育園","province":"東京都","city":"福生市","address":"福生市大字熊川1430番地","lat":35.72628,"lon":139.34256},{"name":"杉ノ子第三保育園","province":"東京都","city":"福生市","address":"福生市大字熊川373番地1","lat":35.72161,"lon":139.33626},{"name":"熊川保育園","province":"東京都","city":"福生市","address":"福生市大字熊川597番地1","lat":35.72658,"lon":139.33719},{"name":"わらべつくし保育園","province":"東京都","city":"福生市","address":"福生市南田園一丁目4番地12","lat":35.72079,"lon":139.33043},{"name":"杉ノ子第二保育園","province":"東京都","city":"福生市","address":"福生市南田園三丁目4番地2","lat":35.72952,"lon":139.32973},{"name":"福生保育園","province":"東京都","city":"福生市","address":"福生市大字福生1058番地11","lat":35.74302,"lon":139.32541},{"name":"東福保育園","province":"東京都","city":"福生市","address":"福生市大字福生209番地","lat":35.73854,"lon":139.33534},{"name":"不動の森こども園","province":"東京都","city":"福生市","address":"福生市大字福生2143番地11","lat":35.7430454,"lon":139.3326818},{"name":"すみれ保育園","province":"東京都","city":"福生市","address":"福生市大字福生959番地8","lat":35.74628,"lon":139.32748},{"name":"ありんこ保育園","province":"東京都","city":"福生市","address":"福生市加美平一丁目17番地7","lat":35.75013,"lon":139.3275},{"name":"彌生保育園","province":"東京都","city":"福生市","address":"福生市加美平三丁目37番地13","lat":35.74911,"lon":139.31897},{"name":"加美平保育園","province":"東京都","city":"福生市","address":"福生市加美平四丁目1番地1","lat":35.75366,"lon":139.32352},{"name":"福生杉ノ子保育園","province":"東京都","city":"福生市","address":"福生市志茂47番地3","lat":35.736,"lon":139.32938},{"name":"牛浜こども園","province":"東京都","city":"福生市","address":"福生市牛浜121番地4","lat":35.7349947,"lon":139.3340896},{"name":"福生本町保育園","province":"東京都","city":"福生市","address":"福生市大字福生2143番地11","lat":35.74321,"lon":139.33192},{"name":"杉ノ子第三保育園","province":"東京都","city":"福生市","address":"福生市大字熊川373-1","lat":35.72162,"lon":139.33626},{"name":"若葉保育園","province":"東京都","city":"福生市","address":"福生市大字熊川1430番地","lat":35.72628,"lon":139.34256},{"name":"杉ノ子第三保育園","province":"東京都","city":"福生市","address":"福生市大字熊川373番地1","lat":35.72161,"lon":139.33626},{"name":"熊川保育園","province":"東京都","city":"福生市","address":"福生市大字熊川597番地1","lat":35.72658,"lon":139.33719},{"name":"わらべつくし保育園","province":"東京都","city":"福生市","address":"福生市南田園一丁目4番地12","lat":35.72079,"lon":139.33043},{"name":"杉ノ子第二保育園","province":"東京都","city":"福生市","address":"福生市南田園三丁目4番地2","lat":35.72952,"lon":139.32973},{"name":"福生保育園","province":"東京都","city":"福生市","address":"福生市大字福生1058番地11","lat":35.74302,"lon":139.32541},{"name":"東福保育園","province":"東京都","city":"福生市","address":"福生市大字福生209番地","lat":35.73854,"lon":139.33534},{"name":"不動の森こども園","province":"東京都","city":"福生市","address":"福生市大字福生2143番地11","lat":35.7430454,"lon":139.3326818},{"name":"すみれ保育園","province":"東京都","city":"福生市","address":"福生市大字福生959番地8","lat":35.74628,"lon":139.32748},{"name":"ありんこ保育園","province":"東京都","city":"福生市","address":"福生市加美平一丁目17番地7","lat":35.75013,"lon":139.3275},{"name":"彌生保育園","province":"東京都","city":"福生市","address":"福生市加美平三丁目37番地13","lat":35.74911,"lon":139.31897},{"name":"加美平保育園","province":"東京都","city":"福生市","address":"福生市加美平四丁目1番地1","lat":35.75366,"lon":139.32352},{"name":"福生杉ノ子保育園","province":"東京都","city":"福生市","address":"福生市志茂47番地3","lat":35.736,"lon":139.32938},{"name":"牛浜こども園","province":"東京都","city":"福生市","address":"福生市牛浜121番地4","lat":35.7349947,"lon":139.3340896},{"name":"福生本町保育園","province":"東京都","city":"福生市","address":"福生市大字福生2143番地11","lat":35.74321,"lon":139.33192},{"name":"杉ノ子第三保育園","province":"東京都","city":"福生市","address":"福生市大字熊川373-1","lat":35.72162,"lon":139.33626},{"name":"若葉保育園","province":"東京都","city":"福生市","address":"福生市大字熊川1430番地","lat":35.72628,"lon":139.34256},{"name":"杉ノ子第三保育園","province":"東京都","city":"福生市","address":"福生市大字熊川373番地1","lat":35.72161,"lon":139.33626},{"name":"熊川保育園","province":"東京都","city":"福生市","address":"福生市大字熊川597番地1","lat":35.72658,"lon":139.33719},{"name":"わらべつくし保育園","province":"東京都","city":"福生市","address":"福生市南田園一丁目4番地12","lat":35.72079,"lon":139.33043},{"name":"杉ノ子第二保育園","province":"東京都","city":"福生市","address":"福生市南田園三丁目4番地2","lat":35.72952,"lon":139.32973},{"name":"福生保育園","province":"東京都","city":"福生市","address":"福生市大字福生1058番地11","lat":35.74302,"lon":139.32541},{"name":"東福保育園","province":"東京都","city":"福生市","address":"福生市大字福生209番地","lat":35.73854,"lon":139.33534},{"name":"不動の森こども園","province":"東京都","city":"福生市","address":"福生市大字福生2143番地11","lat":35.7430454,"lon":139.3326818},{"name":"すみれ保育園","province":"東京都","city":"福生市","address":"福生市大字福生959番地8","lat":35.74628,"lon":139.32748},{"name":"ありんこ保育園","province":"東京都","city":"福生市","address":"福生市加美平一丁目17番地7","lat":35.75013,"lon":139.3275},{"name":"彌生保育園","province":"東京都","city":"福生市","address":"福生市加美平三丁目37番地13","lat":35.74911,"lon":139.31897},{"name":"加美平保育園","province":"東京都","city":"福生市","address":"福生市加美平四丁目1番地1","lat":35.75366,"lon":139.32352},{"name":"福生杉ノ子保育園","province":"東京都","city":"福生市","address":"福生市志茂47番地3","lat":35.736,"lon":139.32938},{"name":"牛浜こども園","province":"東京都","city":"福生市","address":"福生市牛浜121番地4","lat":35.7349947,"lon":139.3340896},{"name":"福生本町保育園","province":"東京都","city":"福生市","address":"福生市大字福生2143番地11","lat":35.74321,"lon":139.33192},{"name":"杉ノ子第三保育園","province":"東京都","city":"福生市","address":"福生市大字熊川373-1","lat":35.72162,"lon":139.33626},{"name":"若葉保育園","province":"東京都","city":"福生市","address":"福生市大字熊川1430番地","lat":35.72628,"lon":139.34256},{"name":"杉ノ子第三保育園","province":"東京都","city":"福生市","address":"福生市大字熊川373番地1","lat":35.72161,"lon":139.33626},{"name":"熊川保育園","province":"東京都","city":"福生市","address":"福生市大字熊川597番地1","lat":35.72658,"lon":139.33719},{"name":"わらべつくし保育園","province":"東京都","city":"福生市","address":"福生市南田園一丁目4番地12","lat":35.72079,"lon":139.33043},{"name":"杉ノ子第二保育園","province":"東京都","city":"福生市","address":"福生市南田園三丁目4番地2","lat":35.72952,"lon":139.32973},{"name":"福生保育園","province":"東京都","city":"福生市","address":"福生市大字福生1058番地11","lat":35.74302,"lon":139.32541},{"name":"東福保育園","province":"東京都","city":"福生市","address":"福生市大字福生209番地","lat":35.73854,"lon":139.33534},{"name":"不動の森こども園","province":"東京都","city":"福生市","address":"福生市大字福生2143番地11","lat":35.7430454,"lon":139.3326818},{"name":"すみれ保育園","province":"東京都","city":"福生市","address":"福生市大字福生959番地8","lat":35.74628,"lon":139.32748},{"name":"ありんこ保育園","province":"東京都","city":"福生市","address":"福生市加美平一丁目17番地7","lat":35.75013,"lon":139.3275},{"name":"彌生保育園","province":"東京都","city":"福生市","address":"福生市加美平三丁目37番地13","lat":35.74911,"lon":139.31897},{"name":"加美平保育園","province":"東京都","city":"福生市","address":"福生市加美平四丁目1番地1","lat":35.75366,"lon":139.32352},{"name":"福生杉ノ子保育園","province":"東京都","city":"福生市","address":"福生市志茂47番地3","lat":35.736,"lon":139.32938},{"name":"牛浜こども園","province":"東京都","city":"福生市","address":"福生市牛浜121番地4","lat":35.7349947,"lon":139.3340896},{"name":"福生本町保育園","province":"東京都","city":"福生市","address":"福生市大字福生2143番地11","lat":35.74321,"lon":139.33192},{"name":"杉ノ子第三保育園","province":"東京都","city":"福生市","address":"福生市大字熊川373-1","lat":35.72162,"lon":139.33626},{"name":"若葉保育園","province":"東京都","city":"福生市","address":"福生市大字熊川1430番地","lat":35.72628,"lon":139.34256},{"name":"杉ノ子第三保育園","province":"東京都","city":"福生市","address":"福生市大字熊川373番地1","lat":35.72161,"lon":139.33626},{"name":"熊川保育園","province":"東京都","city":"福生市","address":"福生市大字熊川597番地1","lat":35.72658,"lon":139.33719},{"name":"わらべつくし保育園","province":"東京都","city":"福生市","address":"福生市南田園一丁目4番地12","lat":35.72079,"lon":139.33043},{"name":"杉ノ子第二保育園","province":"東京都","city":"福生市","address":"福生市南田園三丁目4番地2","lat":35.72952,"lon":139.32973},{"name":"福生保育園","province":"東京都","city":"福生市","address":"福生市大字福生1058番地11","lat":35.74302,"lon":139.32541},{"name":"東福保育園","province":"東京都","city":"福生市","address":"福生市大字福生209番地","lat":35.73854,"lon":139.33534},{"name":"不動の森こども園","province":"東京都","city":"福生市","address":"福生市大字福生2143番地11","lat":35.7430454,"lon":139.3326818},{"name":"すみれ保育園","province":"東京都","city":"福生市","address":"福生市大字福生959番地8","lat":35.74628,"lon":139.32748},{"name":"ありんこ保育園","province":"東京都","city":"福生市","address":"福生市加美平一丁目17番地7","lat":35.75013,"lon":139.3275},{"name":"彌生保育園","province":"東京都","city":"福生市","address":"福生市加美平三丁目37番地13","lat":35.74911,"lon":139.31897},{"name":"加美平保育園","province":"東京都","city":"福生市","address":"福生市加美平四丁目1番地1","lat":35.75366,"lon":139.32352},{"name":"福生杉ノ子保育園","province":"東京都","city":"福生市","address":"福生市志茂47番地3","lat":35.736,"lon":139.32938},{"name":"牛浜こども園","province":"東京都","city":"福生市","address":"福生市牛浜121番地4","lat":35.7349947,"lon":139.3340896},{"name":"福生本町保育園","province":"東京都","city":"福生市","address":"福生市大字福生2143番地11","lat":35.74321,"lon":139.33192},{"name":"杉ノ子第三保育園","province":"東京都","city":"福生市","address":"福生市大字熊川373-1","lat":35.72162,"lon":139.33626},{"name":"若葉保育園","province":"東京都","city":"福生市","address":"福生市大字熊川1430番地","lat":35.72628,"lon":139.34256},{"name":"杉ノ子第三保育園","province":"東京都","city":"福生市","address":"福生市大字熊川373番地1","lat":35.72161,"lon":139.33626},{"name":"熊川保育園","province":"東京都","city":"福生市","address":"福生市大字熊川597番地1","lat":35.72658,"lon":139.33719},{"name":"わらべつくし保育園","province":"東京都","city":"福生市","address":"福生市南田園一丁目4番地12","lat":35.72079,"lon":139.33043},{"name":"杉ノ子第二保育園","province":"東京都","city":"福生市","address":"福生市南田園三丁目4番地2","lat":35.72952,"lon":139.32973},{"name":"福生保育園","province":"東京都","city":"福生市","address":"福生市大字福生1058番地11","lat":35.74302,"lon":139.32541},{"name":"東福保育園","province":"東京都","city":"福生市","address":"福生市大字福生209番地","lat":35.73854,"lon":139.33534},{"name":"不動の森こども園","province":"東京都","city":"福生市","address":"福生市大字福生2143番地11","lat":35.7430454,"lon":139.3326818},{"name":"すみれ保育園","province":"東京都","city":"福生市","address":"福生市大字福生959番地8","lat":35.74628,"lon":139.32748},{"name":"ありんこ保育園","province":"東京都","city":"福生市","address":"福生市加美平一丁目17番地7","lat":35.75013,"lon":139.3275},{"name":"彌生保育園","province":"東京都","city":"福生市","address":"福生市加美平三丁目37番地13","lat":35.74911,"lon":139.31897},{"name":"加美平保育園","province":"東京都","city":"福生市","address":"福生市加美平四丁目1番地1","lat":35.75366,"lon":139.32352},{"name":"福生杉ノ子保育園","province":"東京都","city":"福生市","address":"福生市志茂47番地3","lat":35.736,"lon":139.32938},{"name":"牛浜こども園","province":"東京都","city":"福生市","address":"福生市牛浜121番地4","lat":35.7349947,"lon":139.3340896},{"name":"福生本町保育園","province":"東京都","city":"福生市","address":"福生市大字福生2143番地11","lat":35.74321,"lon":139.33192},{"name":"杉ノ子第三保育園","province":"東京都","city":"福生市","address":"福生市大字熊川373-1","lat":35.72162,"lon":139.33626},{"name":"若葉保育園","province":"東京都","city":"福生市","address":"福生市大字熊川1430番地","lat":35.72628,"lon":139.34256},{"name":"杉ノ子第三保育園","province":"東京都","city":"福生市","address":"福生市大字熊川373番地1","lat":35.72161,"lon":139.33626},{"name":"熊川保育園","province":"東京都","city":"福生市","address":"福生市大字熊川597番地1","lat":35.72658,"lon":139.33719},{"name":"わらべつくし保育園","province":"東京都","city":"福生市","address":"福生市南田園一丁目4番地12","lat":35.72079,"lon":139.33043},{"name":"杉ノ子第二保育園","province":"東京都","city":"福生市","address":"福生市南田園三丁目4番地2","lat":35.72952,"lon":139.32973},{"name":"福生保育園","province":"東京都","city":"福生市","address":"福生市大字福生1058番地11","lat":35.74302,"lon":139.32541},{"name":"東福保育園","province":"東京都","city":"福生市","address":"福生市大字福生209番地","lat":35.73854,"lon":139.33534},{"name":"不動の森こども園","province":"東京都","city":"福生市","address":"福生市大字福生2143番地11","lat":35.7430454,"lon":139.3326818},{"name":"すみれ保育園","province":"東京都","city":"福生市","address":"福生市大字福生959番地8","lat":35.74628,"lon":139.32748},{"name":"ありんこ保育園","province":"東京都","city":"福生市","address":"福生市加美平一丁目17番地7","lat":35.75013,"lon":139.3275},{"name":"彌生保育園","province":"東京都","city":"福生市","address":"福生市加美平三丁目37番地13","lat":35.74911,"lon":139.31897},{"name":"加美平保育園","province":"東京都","city":"福生市","address":"福生市加美平四丁目1番地1","lat":35.75366,"lon":139.32352},{"name":"福生杉ノ子保育園","province":"東京都","city":"福生市","address":"福生市志茂47番地3","lat":35.736,"lon":139.32938},{"name":"牛浜こども園","province":"東京都","city":"福生市","address":"福生市牛浜121番地4","lat":35.7349947,"lon":139.3340896},{"name":"福生本町保育園","province":"東京都","city":"福生市","address":"福生市大字福生2143番地11","lat":35.74321,"lon":139.33192},{"name":"杉ノ子第三保育園","province":"東京都","city":"福生市","address":"福生市大字熊川373-1","lat":35.72162,"lon":139.33626},{"name":"若葉保育園","province":"東京都","city":"福生市","address":"福生市大字熊川1430番地","lat":35.72628,"lon":139.34256},{"name":"杉ノ子第三保育園","province":"東京都","city":"福生市","address":"福生市大字熊川373番地1","lat":35.72161,"lon":139.33626},{"name":"熊川保育園","province":"東京都","city":"福生市","address":"福生市大字熊川597番地1","lat":35.72658,"lon":139.33719},{"name":"わらべつくし保育園","province":"東京都","city":"福生市","address":"福生市南田園一丁目4番地12","lat":35.72079,"lon":139.33043},{"name":"杉ノ子第二保育園","province":"東京都","city":"福生市","address":"福生市南田園三丁目4番地2","lat":35.72952,"lon":139.32973},{"name":"福生保育園","province":"東京都","city":"福生市","address":"福生市大字福生1058番地11","lat":35.74302,"lon":139.32541},{"name":"東福保育園","province":"東京都","city":"福生市","address":"福生市大字福生209番地","lat":35.73854,"lon":139.33534},{"name":"不動の森こども園","province":"東京都","city":"福生市","address":"福生市大字福生2143番地11","lat":35.7430454,"lon":139.3326818},{"name":"すみれ保育園","province":"東京都","city":"福生市","address":"福生市大字福生959番地8","lat":35.74628,"lon":139.32748},{"name":"ありんこ保育園","province":"東京都","city":"福生市","address":"福生市加美平一丁目17番地7","lat":35.75013,"lon":139.3275},{"name":"彌生保育園","province":"東京都","city":"福生市","address":"福生市加美平三丁目37番地13","lat":35.74911,"lon":139.31897},{"name":"加美平保育園","province":"東京都","city":"福生市","address":"福生市加美平四丁目1番地1","lat":35.75366,"lon":139.32352},{"name":"福生杉ノ子保育園","province":"東京都","city":"福生市","address":"福生市志茂47番地3","lat":35.736,"lon":139.32938},{"name":"牛浜こども園","province":"東京都","city":"福生市","address":"福生市牛浜121番地4","lat":35.7349947,"lon":139.3340896},{"name":"福生本町保育園","province":"東京都","city":"福生市","address":"福生市大字福生2143番地11","lat":35.74321,"lon":139.33192},{"name":"杉ノ子第三保育園","province":"東京都","city":"福生市","address":"福生市大字熊川373-1","lat":35.72162,"lon":139.33626},{"name":"若葉保育園","province":"東京都","city":"福生市","address":"福生市大字熊川1430番地","lat":35.72628,"lon":139.34256},{"name":"杉ノ子第三保育園","province":"東京都","city":"福生市","address":"福生市大字熊川373番地1","lat":35.72161,"lon":139.33626},{"name":"熊川保育園","province":"東京都","city":"福生市","address":"福生市大字熊川597番地1","lat":35.72658,"lon":139.33719},{"name":"わらべつくし保育園","province":"東京都","city":"福生市","address":"福生市南田園一丁目4番地12","lat":35.72079,"lon":139.33043},{"name":"杉ノ子第二保育園","province":"東京都","city":"福生市","address":"福生市南田園三丁目4番地2","lat":35.72952,"lon":139.32973},{"name":"福生保育園","province":"東京都","city":"福生市","address":"福生市大字福生1058番地11","lat":35.74302,"lon":139.32541},{"name":"東福保育園","province":"東京都","city":"福生市","address":"福生市大字福生209番地","lat":35.73854,"lon":139.33534},{"name":"不動の森こども園","province":"東京都","city":"福生市","address":"福生市大字福生2143番地11","lat":35.7430454,"lon":139.3326818},{"name":"すみれ保育園","province":"東京都","city":"福生市","address":"福生市大字福生959番地8","lat":35.74628,"lon":139.32748},{"name":"ありんこ保育園","province":"東京都","city":"福生市","address":"福生市加美平一丁目17番地7","lat":35.75013,"lon":139.3275},{"name":"彌生保育園","province":"東京都","city":"福生市","address":"福生市加美平三丁目37番地13","lat":35.74911,"lon":139.31897},{"name":"加美平保育園","province":"東京都","city":"福生市","address":"福生市加美平四丁目1番地1","lat":35.75366,"lon":139.32352},{"name":"福生杉ノ子保育園","province":"東京都","city":"福生市","address":"福生市志茂47番地3","lat":35.736,"lon":139.32938},{"name":"牛浜こども園","province":"東京都","city":"福生市","address":"福生市牛浜121番地4","lat":35.7349947,"lon":139.3340896},{"name":"福生本町保育園","province":"東京都","city":"福生市","address":"福生市大字福生2143番地11","lat":35.74321,"lon":139.33192},{"name":"杉ノ子第三保育園","province":"東京都","city":"福生市","address":"福生市大字熊川373-1","lat":35.72162,"lon":139.33626},{"name":"若葉保育園","province":"東京都","city":"福生市","address":"福生市大字熊川1430番地","lat":35.72628,"lon":139.34256},{"name":"杉ノ子第三保育園","province":"東京都","city":"福生市","address":"福生市大字熊川373番地1","lat":35.72161,"lon":139.33626},{"name":"熊川保育園","province":"東京都","city":"福生市","address":"福生市大字熊川597番地1","lat":35.72658,"lon":139.33719},{"name":"わらべつくし保育園","province":"東京都","city":"福生市","address":"福生市南田園一丁目4番地12","lat":35.72079,"lon":139.33043},{"name":"杉ノ子第二保育園","province":"東京都","city":"福生市","address":"福生市南田園三丁目4番地2","lat":35.72952,"lon":139.32973},{"name":"福生保育園","province":"東京都","city":"福生市","address":"福生市大字福生1058番地11","lat":35.74302,"lon":139.32541},{"name":"東福保育園","province":"東京都","city":"福生市","address":"福生市大字福生209番地","lat":35.73854,"lon":139.33534},{"name":"不動の森こども園","province":"東京都","city":"福生市","address":"福生市大字福生2143番地11","lat":35.7430454,"lon":139.3326818},{"name":"すみれ保育園","province":"東京都","city":"福生市","address":"福生市大字福生959番地8","lat":35.74628,"lon":139.32748},{"name":"ありんこ保育園","province":"東京都","city":"福生市","address":"福生市加美平一丁目17番地7","lat":35.75013,"lon":139.3275},{"name":"彌生保育園","province":"東京都","city":"福生市","address":"福生市加美平三丁目37番地13","lat":35.74911,"lon":139.31897},{"name":"加美平保育園","province":"東京都","city":"福生市","address":"福生市加美平四丁目1番地1","lat":35.75366,"lon":139.32352},{"name":"福生杉ノ子保育園","province":"東京都","city":"福生市","address":"福生市志茂47番地3","lat":35.736,"lon":139.32938},{"name":"牛浜こども園","province":"東京都","city":"福生市","address":"福生市牛浜121番地4","lat":35.7349947,"lon":139.3340896},{"name":"福生本町保育園","province":"東京都","city":"福生市","address":"福生市大字福生2143番地11","lat":35.74321,"lon":139.33192},{"name":"杉ノ子第三保育園","province":"東京都","city":"福生市","address":"福生市大字熊川373-1","lat":35.72162,"lon":139.33626},{"name":"若葉保育園","province":"東京都","city":"福生市","address":"福生市大字熊川1430番地","lat":35.72628,"lon":139.34256},{"name":"杉ノ子第三保育園","province":"東京都","city":"福生市","address":"福生市大字熊川373番地1","lat":35.72161,"lon":139.33626},{"name":"熊川保育園","province":"東京都","city":"福生市","address":"福生市大字熊川597番地1","lat":35.72658,"lon":139.33719},{"name":"わらべつくし保育園","province":"東京都","city":"福生市","address":"福生市南田園一丁目4番地12","lat":35.72079,"lon":139.33043},{"name":"杉ノ子第二保育園","province":"東京都","city":"福生市","address":"福生市南田園三丁目4番地2","lat":35.72952,"lon":139.32973},{"name":"福生保育園","province":"東京都","city":"福生市","address":"福生市大字福生1058番地11","lat":35.74302,"lon":139.32541},{"name":"東福保育園","province":"東京都","city":"福生市","address":"福生市大字福生209番地","lat":35.73854,"lon":139.33534},{"name":"不動の森こども園","province":"東京都","city":"福生市","address":"福生市大字福生2143番地11","lat":35.7430454,"lon":139.3326818},{"name":"すみれ保育園","province":"東京都","city":"福生市","address":"福生市大字福生959番地8","lat":35.74628,"lon":139.32748},{"name":"ありんこ保育園","province":"東京都","city":"福生市","address":"福生市加美平一丁目17番地7","lat":35.75013,"lon":139.3275},{"name":"彌生保育園","province":"東京都","city":"福生市","address":"福生市加美平三丁目37番地13","lat":35.74911,"lon":139.31897},{"name":"加美平保育園","province":"東京都","city":"福生市","address":"福生市加美平四丁目1番地1","lat":35.75366,"lon":139.32352},{"name":"福生杉ノ子保育園","province":"東京都","city":"福生市","address":"福生市志茂47番地3","lat":35.736,"lon":139.32938},{"name":"牛浜こども園","province":"東京都","city":"福生市","address":"福生市牛浜121番地4","lat":35.7349947,"lon":139.3340896},{"name":"福生本町保育園","province":"東京都","city":"福生市","address":"福生市大字福生2143番地11","lat":35.74321,"lon":139.33192},{"name":"杉ノ子第三保育園","province":"東京都","city":"福生市","address":"福生市大字熊川373-1","lat":35.72162,"lon":139.33626},{"name":"若葉保育園","province":"東京都","city":"福生市","address":"福生市大字熊川1430番地","lat":35.72628,"lon":139.34256},{"name":"杉ノ子第三保育園","province":"東京都","city":"福生市","address":"福生市大字熊川373番地1","lat":35.72161,"lon":139.33626},{"name":"熊川保育園","province":"東京都","city":"福生市","address":"福生市大字熊川597番地1","lat":35.72658,"lon":139.33719},{"name":"わらべつくし保育園","province":"東京都","city":"福生市","address":"福生市南田園一丁目4番地12","lat":35.72079,"lon":139.33043},{"name":"杉ノ子第二保育園","province":"東京都","city":"福生市","address":"福生市南田園三丁目4番地2","lat":35.72952,"lon":139.32973},{"name":"福生保育園","province":"東京都","city":"福生市","address":"福生市大字福生1058番地11","lat":35.74302,"lon":139.32541},{"name":"東福保育園","province":"東京都","city":"福生市","address":"福生市大字福生209番地","lat":35.73854,"lon":139.33534},{"name":"不動の森こども園","province":"東京都","city":"福生市","address":"福生市大字福生2143番地11","lat":35.7430454,"lon":139.3326818},{"name":"すみれ保育園","province":"東京都","city":"福生市","address":"福生市大字福生959番地8","lat":35.74628,"lon":139.32748},{"name":"ありんこ保育園","province":"東京都","city":"福生市","address":"福生市加美平一丁目17番地7","lat":35.75013,"lon":139.3275},{"name":"彌生保育園","province":"東京都","city":"福生市","address":"福生市加美平三丁目37番地13","lat":35.74911,"lon":139.31897},{"name":"加美平保育園","province":"東京都","city":"福生市","address":"福生市加美平四丁目1番地1","lat":35.75366,"lon":139.32352},{"name":"福生杉ノ子保育園","province":"東京都","city":"福生市","address":"福生市志茂47番地3","lat":35.736,"lon":139.32938},{"name":"牛浜こども園","province":"東京都","city":"福生市","address":"福生市牛浜121番地4","lat":35.7349947,"lon":139.3340896},{"name":"福生本町保育園","province":"東京都","city":"福生市","address":"福生市大字福生2143番地11","lat":35.74321,"lon":139.33192},{"name":"杉ノ子第三保育園","province":"東京都","city":"福生市","address":"福生市大字熊川373-1","lat":35.72162,"lon":139.33626},{"name":"若葉保育園","province":"東京都","city":"福生市","address":"福生市大字熊川1430番地","lat":35.72628,"lon":139.34256},{"name":"杉ノ子第三保育園","province":"東京都","city":"福生市","address":"福生市大字熊川373番地1","lat":35.72161,"lon":139.33626},{"name":"熊川保育園","province":"東京都","city":"福生市","address":"福生市大字熊川597番地1","lat":35.72658,"lon":139.33719},{"name":"わらべつくし保育園","province":"東京都","city":"福生市","address":"福生市南田園一丁目4番地12","lat":35.72079,"lon":139.33043},{"name":"杉ノ子第二保育園","province":"東京都","city":"福生市","address":"福生市南田園三丁目4番地2","lat":35.72952,"lon":139.32973},{"name":"福生保育園","province":"東京都","city":"福生市","address":"福生市大字福生1058番地11","lat":35.74302,"lon":139.32541},{"name":"東福保育園","province":"東京都","city":"福生市","address":"福生市大字福生209番地","lat":35.73854,"lon":139.33534},{"name":"不動の森こども園","province":"東京都","city":"福生市","address":"福生市大字福生2143番地11","lat":35.7430454,"lon":139.3326818},{"name":"すみれ保育園","province":"東京都","city":"福生市","address":"福生市大字福生959番地8","lat":35.74628,"lon":139.32748},{"name":"ありんこ保育園","province":"東京都","city":"福生市","address":"福生市加美平一丁目17番地7","lat":35.75013,"lon":139.3275},{"name":"彌生保育園","province":"東京都","city":"福生市","address":"福生市加美平三丁目37番地13","lat":35.74911,"lon":139.31897},{"name":"加美平保育園","province":"東京都","city":"福生市","address":"福生市加美平四丁目1番地1","lat":35.75366,"lon":139.32352},{"name":"福生杉ノ子保育園","province":"東京都","city":"福生市","address":"福生市志茂47番地3","lat":35.736,"lon":139.32938},{"name":"牛浜こども園","province":"東京都","city":"福生市","address":"福生市牛浜121番地4","lat":35.7349947,"lon":139.3340896},{"name":"福生本町保育園","province":"東京都","city":"福生市","address":"福生市大字福生2143番地11","lat":35.74321,"lon":139.33192},{"name":"杉ノ子第三保育園","province":"東京都","city":"福生市","address":"福生市大字熊川373-1","lat":35.72162,"lon":139.33626},{"name":"若葉保育園","province":"東京都","city":"福生市","address":"福生市大字熊川1430番地","lat":35.72628,"lon":139.34256},{"name":"杉ノ子第三保育園","province":"東京都","city":"福生市","address":"福生市大字熊川373番地1","lat":35.72161,"lon":139.33626},{"name":"熊川保育園","province":"東京都","city":"福生市","address":"福生市大字熊川597番地1","lat":35.72658,"lon":139.33719},{"name":"わらべつくし保育園","province":"東京都","city":"福生市","address":"福生市南田園一丁目4番地12","lat":35.72079,"lon":139.33043},{"name":"杉ノ子第二保育園","province":"東京都","city":"福生市","address":"福生市南田園三丁目4番地2","lat":35.72952,"lon":139.32973},{"name":"福生保育園","province":"東京都","city":"福生市","address":"福生市大字福生1058番地11","lat":35.74302,"lon":139.32541},{"name":"東福保育園","province":"東京都","city":"福生市","address":"福生市大字福生209番地","lat":35.73854,"lon":139.33534},{"name":"不動の森こども園","province":"東京都","city":"福生市","address":"福生市大字福生2143番地11","lat":35.7430454,"lon":139.3326818},{"name":"すみれ保育園","province":"東京都","city":"福生市","address":"福生市大字福生959番地8","lat":35.74628,"lon":139.32748},{"name":"ありんこ保育園","province":"東京都","city":"福生市","address":"福生市加美平一丁目17番地7","lat":35.75013,"lon":139.3275},{"name":"彌生保育園","province":"東京都","city":"福生市","address":"福生市加美平三丁目37番地13","lat":35.74911,"lon":139.31897},{"name":"加美平保育園","province":"東京都","city":"福生市","address":"福生市加美平四丁目1番地1","lat":35.75366,"lon":139.32352},{"name":"福生杉ノ子保育園","province":"東京都","city":"福生市","address":"福生市志茂47番地3","lat":35.736,"lon":139.32938},{"name":"牛浜こども園","province":"東京都","city":"福生市","address":"福生市牛浜121番地4","lat":35.7349947,"lon":139.3340896},{"name":"福生本町保育園","province":"東京都","city":"福生市","address":"福生市大字福生2143番地11","lat":35.74321,"lon":139.33192},{"name":"杉ノ子第三保育園","province":"東京都","city":"福生市","address":"福生市大字熊川373-1","lat":35.72162,"lon":139.33626},{"name":"若葉保育園","province":"東京都","city":"福生市","address":"福生市大字熊川1430番地","lat":35.72628,"lon":139.34256},{"name":"杉ノ子第三保育園","province":"東京都","city":"福生市","address":"福生市大字熊川373番地1","lat":35.72161,"lon":139.33626},{"name":"熊川保育園","province":"東京都","city":"福生市","address":"福生市大字熊川597番地1","lat":35.72658,"lon":139.33719},{"name":"わらべつくし保育園","province":"東京都","city":"福生市","address":"福生市南田園一丁目4番地12","lat":35.72079,"lon":139.33043},{"name":"杉ノ子第二保育園","province":"東京都","city":"福生市","address":"福生市南田園三丁目4番地2","lat":35.72952,"lon":139.32973},{"name":"福生保育園","province":"東京都","city":"福生市","address":"福生市大字福生1058番地11","lat":35.74302,"lon":139.32541},{"name":"東福保育園","province":"東京都","city":"福生市","address":"福生市大字福生209番地","lat":35.73854,"lon":139.33534},{"name":"不動の森こども園","province":"東京都","city":"福生市","address":"福生市大字福生2143番地11","lat":35.7430454,"lon":139.3326818},{"name":"すみれ保育園","province":"東京都","city":"福生市","address":"福生市大字福生959番地8","lat":35.74628,"lon":139.32748},{"name":"ありんこ保育園","province":"東京都","city":"福生市","address":"福生市加美平一丁目17番地7","lat":35.75013,"lon":139.3275},{"name":"彌生保育園","province":"東京都","city":"福生市","address":"福生市加美平三丁目37番地13","lat":35.74911,"lon":139.31897},{"name":"加美平保育園","province":"東京都","city":"福生市","address":"福生市加美平四丁目1番地1","lat":35.75366,"lon":139.32352},{"name":"福生杉ノ子保育園","province":"東京都","city":"福生市","address":"福生市志茂47番地3","lat":35.736,"lon":139.32938},{"name":"牛浜こども園","province":"東京都","city":"福生市","address":"福生市牛浜121番地4","lat":35.7349947,"lon":139.3340896},{"name":"福生本町保育園","province":"東京都","city":"福生市","address":"福生市大字福生2143番地11","lat":35.74321,"lon":139.33192},{"name":"杉ノ子第三保育園","province":"東京都","city":"福生市","address":"福生市大字熊川373-1","lat":35.72162,"lon":139.33626},{"name":"若葉保育園","province":"東京都","city":"福生市","address":"福生市大字熊川1430番地","lat":35.72628,"lon":139.34256},{"name":"杉ノ子第三保育園","province":"東京都","city":"福生市","address":"福生市大字熊川373番地1","lat":35.72161,"lon":139.33626},{"name":"熊川保育園","province":"東京都","city":"福生市","address":"福生市大字熊川597番地1","lat":35.72658,"lon":139.33719},{"name":"わらべつくし保育園","province":"東京都","city":"福生市","address":"福生市南田園一丁目4番地12","lat":35.72079,"lon":139.33043},{"name":"杉ノ子第二保育園","province":"東京都","city":"福生市","address":"福生市南田園三丁目4番地2","lat":35.72952,"lon":139.32973},{"name":"福生保育園","province":"東京都","city":"福生市","address":"福生市大字福生1058番地11","lat":35.74302,"lon":139.32541},{"name":"東福保育園","province":"東京都","city":"福生市","address":"福生市大字福生209番地","lat":35.73854,"lon":139.33534},{"name":"不動の森こども園","province":"東京都","city":"福生市","address":"福生市大字福生2143番地11","lat":35.7430454,"lon":139.3326818},{"name":"すみれ保育園","province":"東京都","city":"福生市","address":"福生市大字福生959番地8","lat":35.74628,"lon":139.32748},{"name":"ありんこ保育園","province":"東京都","city":"福生市","address":"福生市加美平一丁目17番地7","lat":35.75013,"lon":139.3275},{"name":"彌生保育園","province":"東京都","city":"福生市","address":"福生市加美平三丁目37番地13","lat":35.74911,"lon":139.31897},{"name":"加美平保育園","province":"東京都","city":"福生市","address":"福生市加美平四丁目1番地1","lat":35.75366,"lon":139.32352},{"name":"福生杉ノ子保育園","province":"東京都","city":"福生市","address":"福生市志茂47番地3","lat":35.736,"lon":139.32938},{"name":"牛浜こども園","province":"東京都","city":"福生市","address":"福生市牛浜121番地4","lat":35.7349947,"lon":139.3340896},{"name":"福生本町保育園","province":"東京都","city":"福生市","address":"福生市大字福生2143番地11","lat":35.74321,"lon":139.33192},{"name":"杉ノ子第三保育園","province":"東京都","city":"福生市","address":"福生市大字熊川373-1","lat":35.72162,"lon":139.33626},{"name":"若葉保育園","province":"東京都","city":"福生市","address":"福生市大字熊川1430番地","lat":35.72628,"lon":139.34256},{"name":"杉ノ子第三保育園","province":"東京都","city":"福生市","address":"福生市大字熊川373番地1","lat":35.72161,"lon":139.33626},{"name":"熊川保育園","province":"東京都","city":"福生市","address":"福生市大字熊川597番地1","lat":35.72658,"lon":139.33719},{"name":"わらべつくし保育園","province":"東京都","city":"福生市","address":"福生市南田園一丁目4番地12","lat":35.72079,"lon":139.33043},{"name":"杉ノ子第二保育園","province":"東京都","city":"福生市","address":"福生市南田園三丁目4番地2","lat":35.72952,"lon":139.32973},{"name":"福生保育園","province":"東京都","city":"福生市","address":"福生市大字福生1058番地11","lat":35.74302,"lon":139.32541},{"name":"東福保育園","province":"東京都","city":"福生市","address":"福生市大字福生209番地","lat":35.73854,"lon":139.33534},{"name":"不動の森こども園","province":"東京都","city":"福生市","address":"福生市大字福生2143番地11","lat":35.7430454,"lon":139.3326818},{"name":"すみれ保育園","province":"東京都","city":"福生市","address":"福生市大字福生959番地8","lat":35.74628,"lon":139.32748},{"name":"ありんこ保育園","province":"東京都","city":"福生市","address":"福生市加美平一丁目17番地7","lat":35.75013,"lon":139.3275},{"name":"彌生保育園","province":"東京都","city":"福生市","address":"福生市加美平三丁目37番地13","lat":35.74911,"lon":139.31897},{"name":"加美平保育園","province":"東京都","city":"福生市","address":"福生市加美平四丁目1番地1","lat":35.75366,"lon":139.32352},{"name":"福生杉ノ子保育園","province":"東京都","city":"福生市","address":"福生市志茂47番地3","lat":35.736,"lon":139.32938},{"name":"牛浜こども園","province":"東京都","city":"福生市","address":"福生市牛浜121番地4","lat":35.7349947,"lon":139.3340896},{"name":"福生本町保育園","province":"東京都","city":"福生市","address":"福生市大字福生2143番地11","lat":35.74321,"lon":139.33192},{"name":"杉ノ子第三保育園","province":"東京都","city":"福生市","address":"福生市大字熊川373-1","lat":35.72162,"lon":139.33626},{"name":"若葉保育園","province":"東京都","city":"福生市","address":"福生市大字熊川1430番地","lat":35.72628,"lon":139.34256},{"name":"杉ノ子第三保育園","province":"東京都","city":"福生市","address":"福生市大字熊川373番地1","lat":35.72161,"lon":139.33626},{"name":"熊川保育園","province":"東京都","city":"福生市","address":"福生市大字熊川597番地1","lat":35.72658,"lon":139.33719},{"name":"わらべつくし保育園","province":"東京都","city":"福生市","address":"福生市南田園一丁目4番地12","lat":35.72079,"lon":139.33043},{"name":"杉ノ子第二保育園","province":"東京都","city":"福生市","address":"福生市南田園三丁目4番地2","lat":35.72952,"lon":139.32973},{"name":"福生保育園","province":"東京都","city":"福生市","address":"福生市大字福生1058番地11","lat":35.74302,"lon":139.32541},{"name":"東福保育園","province":"東京都","city":"福生市","address":"福生市大字福生209番地","lat":35.73854,"lon":139.33534},{"name":"不動の森こども園","province":"東京都","city":"福生市","address":"福生市大字福生2143番地11","lat":35.7430454,"lon":139.3326818},{"name":"すみれ保育園","province":"東京都","city":"福生市","address":"福生市大字福生959番地8","lat":35.74628,"lon":139.32748},{"name":"ありんこ保育園","province":"東京都","city":"福生市","address":"福生市加美平一丁目17番地7","lat":35.75013,"lon":139.3275},{"name":"彌生保育園","province":"東京都","city":"福生市","address":"福生市加美平三丁目37番地13","lat":35.74911,"lon":139.31897},{"name":"加美平保育園","province":"東京都","city":"福生市","address":"福生市加美平四丁目1番地1","lat":35.75366,"lon":139.32352},{"name":"福生杉ノ子保育園","province":"東京都","city":"福生市","address":"福生市志茂47番地3","lat":35.736,"lon":139.32938},{"name":"牛浜こども園","province":"東京都","city":"福生市","address":"福生市牛浜121番地4","lat":35.7349947,"lon":139.3340896},{"name":"福生本町保育園","province":"東京都","city":"福生市","address":"福生市大字福生2143番地11","lat":35.74321,"lon":139.33192},{"name":"杉ノ子第三保育園","province":"東京都","city":"福生市","address":"福生市大字熊川373-1","lat":35.72162,"lon":139.33626},{"name":"若葉保育園","province":"東京都","city":"福生市","address":"福生市大字熊川1430番地","lat":35.72628,"lon":139.34256},{"name":"杉ノ子第三保育園","province":"東京都","city":"福生市","address":"福生市大字熊川373番地1","lat":35.72161,"lon":139.33626},{"name":"熊川保育園","province":"東京都","city":"福生市","address":"福生市大字熊川597番地1","lat":35.72658,"lon":139.33719},{"name":"わらべつくし保育園","province":"東京都","city":"福生市","address":"福生市南田園一丁目4番地12","lat":35.72079,"lon":139.33043},{"name":"杉ノ子第二保育園","province":"東京都","city":"福生市","address":"福生市南田園三丁目4番地2","lat":35.72952,"lon":139.32973},{"name":"福生保育園","province":"東京都","city":"福生市","address":"福生市大字福生1058番地11","lat":35.74302,"lon":139.32541},{"name":"東福保育園","province":"東京都","city":"福生市","address":"福生市大字福生209番地","lat":35.73854,"lon":139.33534},{"name":"不動の森こども園","province":"東京都","city":"福生市","address":"福生市大字福生2143番地11","lat":35.7430454,"lon":139.3326818},{"name":"すみれ保育園","province":"東京都","city":"福生市","address":"福生市大字福生959番地8","lat":35.74628,"lon":139.32748},{"name":"ありんこ保育園","province":"東京都","city":"福生市","address":"福生市加美平一丁目17番地7","lat":35.75013,"lon":139.3275},{"name":"彌生保育園","province":"東京都","city":"福生市","address":"福生市加美平三丁目37番地13","lat":35.74911,"lon":139.31897},{"name":"加美平保育園","province":"東京都","city":"福生市","address":"福生市加美平四丁目1番地1","lat":35.75366,"lon":139.32352},{"name":"福生杉ノ子保育園","province":"東京都","city":"福生市","address":"福生市志茂47番地3","lat":35.736,"lon":139.32938},{"name":"牛浜こども園","province":"東京都","city":"福生市","address":"福生市牛浜121番地4","lat":35.7349947,"lon":139.3340896},{"name":"福生本町保育園","province":"東京都","city":"福生市","address":"福生市大字福生2143番地11","lat":35.74321,"lon":139.33192},{"name":"杉ノ子第三保育園","province":"東京都","city":"福生市","address":"福生市大字熊川373-1","lat":35.72162,"lon":139.33626},{"name":"若葉保育園","province":"東京都","city":"福生市","address":"福生市大字熊川1430番地","lat":35.72628,"lon":139.34256},{"name":"杉ノ子第三保育園","province":"東京都","city":"福生市","address":"福生市大字熊川373番地1","lat":35.72161,"lon":139.33626},{"name":"熊川保育園","province":"東京都","city":"福生市","address":"福生市大字熊川597番地1","lat":35.72658,"lon":139.33719},{"name":"わらべつくし保育園","province":"東京都","city":"福生市","address":"福生市南田園一丁目4番地12","lat":35.72079,"lon":139.33043},{"name":"杉ノ子第二保育園","province":"東京都","city":"福生市","address":"福生市南田園三丁目4番地2","lat":35.72952,"lon":139.32973},{"name":"福生保育園","province":"東京都","city":"福生市","address":"福生市大字福生1058番地11","lat":35.74302,"lon":139.32541},{"name":"東福保育園","province":"東京都","city":"福生市","address":"福生市大字福生209番地","lat":35.73854,"lon":139.33534},{"name":"不動の森こども園","province":"東京都","city":"福生市","address":"福生市大字福生2143番地11","lat":35.7430454,"lon":139.3326818},{"name":"すみれ保育園","province":"東京都","city":"福生市","address":"福生市大字福生959番地8","lat":35.74628,"lon":139.32748},{"name":"ありんこ保育園","province":"東京都","city":"福生市","address":"福生市加美平一丁目17番地7","lat":35.75013,"lon":139.3275},{"name":"彌生保育園","province":"東京都","city":"福生市","address":"福生市加美平三丁目37番地13","lat":35.74911,"lon":139.31897},{"name":"加美平保育園","province":"東京都","city":"福生市","address":"福生市加美平四丁目1番地1","lat":35.75366,"lon":139.32352},{"name":"福生杉ノ子保育園","province":"東京都","city":"福生市","address":"福生市志茂47番地3","lat":35.736,"lon":139.32938},{"name":"牛浜こども園","province":"東京都","city":"福生市","address":"福生市牛浜121番地4","lat":35.7349947,"lon":139.3340896},{"name":"福生本町保育園","province":"東京都","city":"福生市","address":"福生市大字福生2143番地11","lat":35.74321,"lon":139.33192},{"name":"杉ノ子第三保育園","province":"東京都","city":"福生市","address":"福生市大字熊川373-1","lat":35.72162,"lon":139.33626},{"name":"若葉保育園","province":"東京都","city":"福生市","address":"福生市大字熊川1430番地","lat":35.72628,"lon":139.34256},{"name":"杉ノ子第三保育園","province":"東京都","city":"福生市","address":"福生市大字熊川373番地1","lat":35.72161,"lon":139.33626},{"name":"熊川保育園","province":"東京都","city":"福生市","address":"福生市大字熊川597番地1","lat":35.72658,"lon":139.33719},{"name":"わらべつくし保育園","province":"東京都","city":"福生市","address":"福生市南田園一丁目4番地12","lat":35.72079,"lon":139.33043},{"name":"杉ノ子第二保育園","province":"東京都","city":"福生市","address":"福生市南田園三丁目4番地2","lat":35.72952,"lon":139.32973},{"name":"福生保育園","province":"東京都","city":"福生市","address":"福生市大字福生1058番地11","lat":35.74302,"lon":139.32541},{"name":"東福保育園","province":"東京都","city":"福生市","address":"福生市大字福生209番地","lat":35.73854,"lon":139.33534},{"name":"不動の森こども園","province":"東京都","city":"福生市","address":"福生市大字福生2143番地11","lat":35.7430454,"lon":139.3326818},{"name":"すみれ保育園","province":"東京都","city":"福生市","address":"福生市大字福生959番地8","lat":35.74628,"lon":139.32748},{"name":"ありんこ保育園","province":"東京都","city":"福生市","address":"福生市加美平一丁目17番地7","lat":35.75013,"lon":139.3275},{"name":"彌生保育園","province":"東京都","city":"福生市","address":"福生市加美平三丁目37番地13","lat":35.74911,"lon":139.31897},{"name":"加美平保育園","province":"東京都","city":"福生市","address":"福生市加美平四丁目1番地1","lat":35.75366,"lon":139.32352},{"name":"福生杉ノ子保育園","province":"東京都","city":"福生市","address":"福生市志茂47番地3","lat":35.736,"lon":139.32938},{"name":"牛浜こども園","province":"東京都","city":"福生市","address":"福生市牛浜121番地4","lat":35.7349947,"lon":139.3340896},{"name":"福生本町保育園","province":"東京都","city":"福生市","address":"福生市大字福生2143番地11","lat":35.74321,"lon":139.33192},{"name":"杉ノ子第三保育園","province":"東京都","city":"福生市","address":"福生市大字熊川373-1","lat":35.72162,"lon":139.33626},{"name":"若葉保育園","province":"東京都","city":"福生市","address":"福生市大字熊川1430番地","lat":35.72628,"lon":139.34256},{"name":"杉ノ子第三保育園","province":"東京都","city":"福生市","address":"福生市大字熊川373番地1","lat":35.72161,"lon":139.33626},{"name":"熊川保育園","province":"東京都","city":"福生市","address":"福生市大字熊川597番地1","lat":35.72658,"lon":139.33719},{"name":"わらべつくし保育園","province":"東京都","city":"福生市","address":"福生市南田園一丁目4番地12","lat":35.72079,"lon":139.33043},{"name":"杉ノ子第二保育園","province":"東京都","city":"福生市","address":"福生市南田園三丁目4番地2","lat":35.72952,"lon":139.32973},{"name":"福生保育園","province":"東京都","city":"福生市","address":"福生市大字福生1058番地11","lat":35.74302,"lon":139.32541},{"name":"東福保育園","province":"東京都","city":"福生市","address":"福生市大字福生209番地","lat":35.73854,"lon":139.33534},{"name":"不動の森こども園","province":"東京都","city":"福生市","address":"福生市大字福生2143番地11","lat":35.7430454,"lon":139.3326818},{"name":"すみれ保育園","province":"東京都","city":"福生市","address":"福生市大字福生959番地8","lat":35.74628,"lon":139.32748},{"name":"ありんこ保育園","province":"東京都","city":"福生市","address":"福生市加美平一丁目17番地7","lat":35.75013,"lon":139.3275},{"name":"彌生保育園","province":"東京都","city":"福生市","address":"福生市加美平三丁目37番地13","lat":35.74911,"lon":139.31897},{"name":"加美平保育園","province":"東京都","city":"福生市","address":"福生市加美平四丁目1番地1","lat":35.75366,"lon":139.32352},{"name":"福生杉ノ子保育園","province":"東京都","city":"福生市","address":"福生市志茂47番地3","lat":35.736,"lon":139.32938},{"name":"牛浜こども園","province":"東京都","city":"福生市","address":"福生市牛浜121番地4","lat":35.7349947,"lon":139.3340896},{"name":"福生本町保育園","province":"東京都","city":"福生市","address":"福生市大字福生2143番地11","lat":35.74321,"lon":139.33192},{"name":"杉ノ子第三保育園","province":"東京都","city":"福生市","address":"福生市大字熊川373-1","lat":35.72162,"lon":139.33626},{"name":"若葉保育園","province":"東京都","city":"福生市","address":"福生市大字熊川1430番地","lat":35.72628,"lon":139.34256},{"name":"杉ノ子第三保育園","province":"東京都","city":"福生市","address":"福生市大字熊川373番地1","lat":35.72161,"lon":139.33626},{"name":"熊川保育園","province":"東京都","city":"福生市","address":"福生市大字熊川597番地1","lat":35.72658,"lon":139.33719},{"name":"わらべつくし保育園","province":"東京都","city":"福生市","address":"福生市南田園一丁目4番地12","lat":35.72079,"lon":139.33043},{"name":"杉ノ子第二保育園","province":"東京都","city":"福生市","address":"福生市南田園三丁目4番地2","lat":35.72952,"lon":139.32973},{"name":"福生保育園","province":"東京都","city":"福生市","address":"福生市大字福生1058番地11","lat":35.74302,"lon":139.32541},{"name":"東福保育園","province":"東京都","city":"福生市","address":"福生市大字福生209番地","lat":35.73854,"lon":139.33534},{"name":"不動の森こども園","province":"東京都","city":"福生市","address":"福生市大字福生2143番地11","lat":35.7430454,"lon":139.3326818},{"name":"すみれ保育園","province":"東京都","city":"福生市","address":"福生市大字福生959番地8","lat":35.74628,"lon":139.32748},{"name":"ありんこ保育園","province":"東京都","city":"福生市","address":"福生市加美平一丁目17番地7","lat":35.75013,"lon":139.3275},{"name":"彌生保育園","province":"東京都","city":"福生市","address":"福生市加美平三丁目37番地13","lat":35.74911,"lon":139.31897},{"name":"加美平保育園","province":"東京都","city":"福生市","address":"福生市加美平四丁目1番地1","lat":35.75366,"lon":139.32352},{"name":"福生杉ノ子保育園","province":"東京都","city":"福生市","address":"福生市志茂47番地3","lat":35.736,"lon":139.32938},{"name":"牛浜こども園","province":"東京都","city":"福生市","address":"福生市牛浜121番地4","lat":35.7349947,"lon":139.3340896},{"name":"福生本町保育園","province":"東京都","city":"福生市","address":"福生市大字福生2143番地11","lat":35.74321,"lon":139.33192},{"name":"杉ノ子第三保育園","province":"東京都","city":"福生市","address":"福生市大字熊川373-1","lat":35.72162,"lon":139.33626},{"name":"若葉保育園","province":"東京都","city":"福生市","address":"福生市大字熊川1430番地","lat":35.72628,"lon":139.34256},{"name":"杉ノ子第三保育園","province":"東京都","city":"福生市","address":"福生市大字熊川373番地1","lat":35.72161,"lon":139.33626},{"name":"熊川保育園","province":"東京都","city":"福生市","address":"福生市大字熊川597番地1","lat":35.72658,"lon":139.33719},{"name":"わらべつくし保育園","province":"東京都","city":"福生市","address":"福生市南田園一丁目4番地12","lat":35.72079,"lon":139.33043},{"name":"杉ノ子第二保育園","province":"東京都","city":"福生市","address":"福生市南田園三丁目4番地2","lat":35.72952,"lon":139.32973},{"name":"福生保育園","province":"東京都","city":"福生市","address":"福生市大字福生1058番地11","lat":35.74302,"lon":139.32541},{"name":"東福保育園","province":"東京都","city":"福生市","address":"福生市大字福生209番地","lat":35.73854,"lon":139.33534},{"name":"不動の森こども園","province":"東京都","city":"福生市","address":"福生市大字福生2143番地11","lat":35.7430454,"lon":139.3326818},{"name":"すみれ保育園","province":"東京都","city":"福生市","address":"福生市大字福生959番地8","lat":35.74628,"lon":139.32748},{"name":"ありんこ保育園","province":"東京都","city":"福生市","address":"福生市加美平一丁目17番地7","lat":35.75013,"lon":139.3275},{"name":"彌生保育園","province":"東京都","city":"福生市","address":"福生市加美平三丁目37番地13","lat":35.74911,"lon":139.31897},{"name":"加美平保育園","province":"東京都","city":"福生市","address":"福生市加美平四丁目1番地1","lat":35.75366,"lon":139.32352},{"name":"福生杉ノ子保育園","province":"東京都","city":"福生市","address":"福生市志茂47番地3","lat":35.736,"lon":139.32938},{"name":"牛浜こども園","province":"東京都","city":"福生市","address":"福生市牛浜121番地4","lat":35.7349947,"lon":139.3340896},{"name":"福生本町保育園","province":"東京都","city":"福生市","address":"福生市大字福生2143番地11","lat":35.74321,"lon":139.33192},{"name":"杉ノ子第三保育園","province":"東京都","city":"福生市","address":"福生市大字熊川373-1","lat":35.72162,"lon":139.33626},{"name":"若葉保育園","province":"東京都","city":"福生市","address":"福生市大字熊川1430番地","lat":35.72628,"lon":139.34256},{"name":"杉ノ子第三保育園","province":"東京都","city":"福生市","address":"福生市大字熊川373番地1","lat":35.72161,"lon":139.33626},{"name":"熊川保育園","province":"東京都","city":"福生市","address":"福生市大字熊川597番地1","lat":35.72658,"lon":139.33719},{"name":"わらべつくし保育園","province":"東京都","city":"福生市","address":"福生市南田園一丁目4番地12","lat":35.72079,"lon":139.33043},{"name":"杉ノ子第二保育園","province":"東京都","city":"福生市","address":"福生市南田園三丁目4番地2","lat":35.72952,"lon":139.32973},{"name":"福生保育園","province":"東京都","city":"福生市","address":"福生市大字福生1058番地11","lat":35.74302,"lon":139.32541},{"name":"東福保育園","province":"東京都","city":"福生市","address":"福生市大字福生209番地","lat":35.73854,"lon":139.33534},{"name":"不動の森こども園","province":"東京都","city":"福生市","address":"福生市大字福生2143番地11","lat":35.7430454,"lon":139.3326818},{"name":"すみれ保育園","province":"東京都","city":"福生市","address":"福生市大字福生959番地8","lat":35.74628,"lon":139.32748},{"name":"ありんこ保育園","province":"東京都","city":"福生市","address":"福生市加美平一丁目17番地7","lat":35.75013,"lon":139.3275},{"name":"彌生保育園","province":"東京都","city":"福生市","address":"福生市加美平三丁目37番地13","lat":35.74911,"lon":139.31897},{"name":"加美平保育園","province":"東京都","city":"福生市","address":"福生市加美平四丁目1番地1","lat":35.75366,"lon":139.32352},{"name":"福生杉ノ子保育園","province":"東京都","city":"福生市","address":"福生市志茂47番地3","lat":35.736,"lon":139.32938},{"name":"牛浜こども園","province":"東京都","city":"福生市","address":"福生市牛浜121番地4","lat":35.7349947,"lon":139.3340896},{"name":"福生本町保育園","province":"東京都","city":"福生市","address":"福生市大字福生2143番地11","lat":35.74321,"lon":139.33192},{"name":"杉ノ子第三保育園","province":"東京都","city":"福生市","address":"福生市大字熊川373-1","lat":35.72162,"lon":139.33626},{"name":"若葉保育園","province":"東京都","city":"福生市","address":"福生市大字熊川1430番地","lat":35.72628,"lon":139.34256},{"name":"杉ノ子第三保育園","province":"東京都","city":"福生市","address":"福生市大字熊川373番地1","lat":35.72161,"lon":139.33626},{"name":"熊川保育園","province":"東京都","city":"福生市","address":"福生市大字熊川597番地1","lat":35.72658,"lon":139.33719},{"name":"わらべつくし保育園","province":"東京都","city":"福生市","address":"福生市南田園一丁目4番地12","lat":35.72079,"lon":139.33043},{"name":"杉ノ子第二保育園","province":"東京都","city":"福生市","address":"福生市南田園三丁目4番地2","lat":35.72952,"lon":139.32973},{"name":"福生保育園","province":"東京都","city":"福生市","address":"福生市大字福生1058番地11","lat":35.74302,"lon":139.32541},{"name":"東福保育園","province":"東京都","city":"福生市","address":"福生市大字福生209番地","lat":35.73854,"lon":139.33534},{"name":"不動の森こども園","province":"東京都","city":"福生市","address":"福生市大字福生2143番地11","lat":35.7430454,"lon":139.3326818},{"name":"すみれ保育園","province":"東京都","city":"福生市","address":"福生市大字福生959番地8","lat":35.74628,"lon":139.32748},{"name":"ありんこ保育園","province":"東京都","city":"福生市","address":"福生市加美平一丁目17番地7","lat":35.75013,"lon":139.3275},{"name":"彌生保育園","province":"東京都","city":"福生市","address":"福生市加美平三丁目37番地13","lat":35.74911,"lon":139.31897},{"name":"加美平保育園","province":"東京都","city":"福生市","address":"福生市加美平四丁目1番地1","lat":35.75366,"lon":139.32352},{"name":"福生杉ノ子保育園","province":"東京都","city":"福生市","address":"福生市志茂47番地3","lat":35.736,"lon":139.32938},{"name":"牛浜こども園","province":"東京都","city":"福生市","address":"福生市牛浜121番地4","lat":35.7349947,"lon":139.3340896},{"name":"福生本町保育園","province":"東京都","city":"福生市","address":"福生市大字福生2143番地11","lat":35.74321,"lon":139.33192},{"name":"杉ノ子第三保育園","province":"東京都","city":"福生市","address":"福生市大字熊川373-1","lat":35.72162,"lon":139.33626},{"name":"若葉保育園","province":"東京都","city":"福生市","address":"福生市大字熊川1430番地","lat":35.72628,"lon":139.34256},{"name":"杉ノ子第三保育園","province":"東京都","city":"福生市","address":"福生市大字熊川373番地1","lat":35.72161,"lon":139.33626},{"name":"熊川保育園","province":"東京都","city":"福生市","address":"福生市大字熊川597番地1","lat":35.72658,"lon":139.33719},{"name":"わらべつくし保育園","province":"東京都","city":"福生市","address":"福生市南田園一丁目4番地12","lat":35.72079,"lon":139.33043},{"name":"杉ノ子第二保育園","province":"東京都","city":"福生市","address":"福生市南田園三丁目4番地2","lat":35.72952,"lon":139.32973},{"name":"福生保育園","province":"東京都","city":"福生市","address":"福生市大字福生1058番地11","lat":35.74302,"lon":139.32541},{"name":"東福保育園","province":"東京都","city":"福生市","address":"福生市大字福生209番地","lat":35.73854,"lon":139.33534},{"name":"不動の森こども園","province":"東京都","city":"福生市","address":"福生市大字福生2143番地11","lat":35.7430454,"lon":139.3326818},{"name":"すみれ保育園","province":"東京都","city":"福生市","address":"福生市大字福生959番地8","lat":35.74628,"lon":139.32748},{"name":"ありんこ保育園","province":"東京都","city":"福生市","address":"福生市加美平一丁目17番地7","lat":35.75013,"lon":139.3275},{"name":"彌生保育園","province":"東京都","city":"福生市","address":"福生市加美平三丁目37番地13","lat":35.74911,"lon":139.31897},{"name":"加美平保育園","province":"東京都","city":"福生市","address":"福生市加美平四丁目1番地1","lat":35.75366,"lon":139.32352},{"name":"福生杉ノ子保育園","province":"東京都","city":"福生市","address":"福生市志茂47番地3","lat":35.736,"lon":139.32938},{"name":"牛浜こども園","province":"東京都","city":"福生市","address":"福生市牛浜121番地4","lat":35.7349947,"lon":139.3340896},{"name":"福生本町保育園","province":"東京都","city":"福生市","address":"福生市大字福生2143番地11","lat":35.74321,"lon":139.33192},{"name":"杉ノ子第三保育園","province":"東京都","city":"福生市","address":"福生市大字熊川373-1","lat":35.72162,"lon":139.33626},{"name":"若葉保育園","province":"東京都","city":"福生市","address":"福生市大字熊川1430番地","lat":35.72628,"lon":139.34256},{"name":"杉ノ子第三保育園","province":"東京都","city":"福生市","address":"福生市大字熊川373番地1","lat":35.72161,"lon":139.33626},{"name":"熊川保育園","province":"東京都","city":"福生市","address":"福生市大字熊川597番地1","lat":35.72658,"lon":139.33719},{"name":"わらべつくし保育園","province":"東京都","city":"福生市","address":"福生市南田園一丁目4番地12","lat":35.72079,"lon":139.33043},{"name":"杉ノ子第二保育園","province":"東京都","city":"福生市","address":"福生市南田園三丁目4番地2","lat":35.72952,"lon":139.32973},{"name":"福生保育園","province":"東京都","city":"福生市","address":"福生市大字福生1058番地11","lat":35.74302,"lon":139.32541},{"name":"東福保育園","province":"東京都","city":"福生市","address":"福生市大字福生209番地","lat":35.73854,"lon":139.33534},{"name":"不動の森こども園","province":"東京都","city":"福生市","address":"福生市大字福生2143番地11","lat":35.7430454,"lon":139.3326818},{"name":"すみれ保育園","province":"東京都","city":"福生市","address":"福生市大字福生959番地8","lat":35.74628,"lon":139.32748},{"name":"ありんこ保育園","province":"東京都","city":"福生市","address":"福生市加美平一丁目17番地7","lat":35.75013,"lon":139.3275},{"name":"彌生保育園","province":"東京都","city":"福生市","address":"福生市加美平三丁目37番地13","lat":35.74911,"lon":139.31897},{"name":"加美平保育園","province":"東京都","city":"福生市","address":"福生市加美平四丁目1番地1","lat":35.75366,"lon":139.32352},{"name":"福生杉ノ子保育園","province":"東京都","city":"福生市","address":"福生市志茂47番地3","lat":35.736,"lon":139.32938},{"name":"牛浜こども園","province":"東京都","city":"福生市","address":"福生市牛浜121番地4","lat":35.7349947,"lon":139.3340896},{"name":"福生本町保育園","province":"東京都","city":"福生市","address":"福生市大字福生2143番地11","lat":35.74321,"lon":139.33192},{"name":"杉ノ子第三保育園","province":"東京都","city":"福生市","address":"福生市大字熊川373-1","lat":35.72162,"lon":139.33626},{"name":"若葉保育園","province":"東京都","city":"福生市","address":"福生市大字熊川1430番地","lat":35.72628,"lon":139.34256},{"name":"杉ノ子第三保育園","province":"東京都","city":"福生市","address":"福生市大字熊川373番地1","lat":35.72161,"lon":139.33626},{"name":"熊川保育園","province":"東京都","city":"福生市","address":"福生市大字熊川597番地1","lat":35.72658,"lon":139.33719},{"name":"わらべつくし保育園","province":"東京都","city":"福生市","address":"福生市南田園一丁目4番地12","lat":35.72079,"lon":139.33043},{"name":"杉ノ子第二保育園","province":"東京都","city":"福生市","address":"福生市南田園三丁目4番地2","lat":35.72952,"lon":139.32973},{"name":"福生保育園","province":"東京都","city":"福生市","address":"福生市大字福生1058番地11","lat":35.74302,"lon":139.32541},{"name":"東福保育園","province":"東京都","city":"福生市","address":"福生市大字福生209番地","lat":35.73854,"lon":139.33534},{"name":"不動の森こども園","province":"東京都","city":"福生市","address":"福生市大字福生2143番地11","lat":35.7430454,"lon":139.3326818},{"name":"すみれ保育園","province":"東京都","city":"福生市","address":"福生市大字福生959番地8","lat":35.74628,"lon":139.32748},{"name":"ありんこ保育園","province":"東京都","city":"福生市","address":"福生市加美平一丁目17番地7","lat":35.75013,"lon":139.3275},{"name":"彌生保育園","province":"東京都","city":"福生市","address":"福生市加美平三丁目37番地13","lat":35.74911,"lon":139.31897},{"name":"加美平保育園","province":"東京都","city":"福生市","address":"福生市加美平四丁目1番地1","lat":35.75366,"lon":139.32352},{"name":"福生杉ノ子保育園","province":"東京都","city":"福生市","address":"福生市志茂47番地3","lat":35.736,"lon":139.32938},{"name":"牛浜こども園","province":"東京都","city":"福生市","address":"福生市牛浜121番地4","lat":35.7349947,"lon":139.3340896},{"name":"福生本町保育園","province":"東京都","city":"福生市","address":"福生市大字福生2143番地11","lat":35.74321,"lon":139.33192},{"name":"杉ノ子第三保育園","province":"東京都","city":"福生市","address":"福生市大字熊川373-1","lat":35.72162,"lon":139.33626},{"name":"若葉保育園","province":"東京都","city":"福生市","address":"福生市大字熊川1430番地","lat":35.72628,"lon":139.34256},{"name":"杉ノ子第三保育園","province":"東京都","city":"福生市","address":"福生市大字熊川373番地1","lat":35.72161,"lon":139.33626},{"name":"熊川保育園","province":"東京都","city":"福生市","address":"福生市大字熊川597番地1","lat":35.72658,"lon":139.33719},{"name":"わらべつくし保育園","province":"東京都","city":"福生市","address":"福生市南田園一丁目4番地12","lat":35.72079,"lon":139.33043},{"name":"杉ノ子第二保育園","province":"東京都","city":"福生市","address":"福生市南田園三丁目4番地2","lat":35.72952,"lon":139.32973},{"name":"福生保育園","province":"東京都","city":"福生市","address":"福生市大字福生1058番地11","lat":35.74302,"lon":139.32541},{"name":"東福保育園","province":"東京都","city":"福生市","address":"福生市大字福生209番地","lat":35.73854,"lon":139.33534},{"name":"不動の森こども園","province":"東京都","city":"福生市","address":"福生市大字福生2143番地11","lat":35.7430454,"lon":139.3326818},{"name":"すみれ保育園","province":"東京都","city":"福生市","address":"福生市大字福生959番地8","lat":35.74628,"lon":139.32748},{"name":"ありんこ保育園","province":"東京都","city":"福生市","address":"福生市加美平一丁目17番地7","lat":35.75013,"lon":139.3275},{"name":"彌生保育園","province":"東京都","city":"福生市","address":"福生市加美平三丁目37番地13","lat":35.74911,"lon":139.31897},{"name":"加美平保育園","province":"東京都","city":"福生市","address":"福生市加美平四丁目1番地1","lat":35.75366,"lon":139.32352},{"name":"福生杉ノ子保育園","province":"東京都","city":"福生市","address":"福生市志茂47番地3","lat":35.736,"lon":139.32938},{"name":"牛浜こども園","province":"東京都","city":"福生市","address":"福生市牛浜121番地4","lat":35.7349947,"lon":139.3340896},{"name":"福生本町保育園","province":"東京都","city":"福生市","address":"福生市大字福生2143番地11","lat":35.74321,"lon":139.33192},{"name":"杉ノ子第三保育園","province":"東京都","city":"福生市","address":"福生市大字熊川373-1","lat":35.72162,"lon":139.33626},{"name":"若葉保育園","province":"東京都","city":"福生市","address":"福生市大字熊川1430番地","lat":35.72628,"lon":139.34256},{"name":"杉ノ子第三保育園","province":"東京都","city":"福生市","address":"福生市大字熊川373番地1","lat":35.72161,"lon":139.33626},{"name":"熊川保育園","province":"東京都","city":"福生市","address":"福生市大字熊川597番地1","lat":35.72658,"lon":139.33719},{"name":"わらべつくし保育園","province":"東京都","city":"福生市","address":"福生市南田園一丁目4番地12","lat":35.72079,"lon":139.33043},{"name":"杉ノ子第二保育園","province":"東京都","city":"福生市","address":"福生市南田園三丁目4番地2","lat":35.72952,"lon":139.32973},{"name":"福生保育園","province":"東京都","city":"福生市","address":"福生市大字福生1058番地11","lat":35.74302,"lon":139.32541},{"name":"東福保育園","province":"東京都","city":"福生市","address":"福生市大字福生209番地","lat":35.73854,"lon":139.33534},{"name":"不動の森こども園","province":"東京都","city":"福生市","address":"福生市大字福生2143番地11","lat":35.7430454,"lon":139.3326818},{"name":"すみれ保育園","province":"東京都","city":"福生市","address":"福生市大字福生959番地8","lat":35.74628,"lon":139.32748},{"name":"ありんこ保育園","province":"東京都","city":"福生市","address":"福生市加美平一丁目17番地7","lat":35.75013,"lon":139.3275},{"name":"彌生保育園","province":"東京都","city":"福生市","address":"福生市加美平三丁目37番地13","lat":35.74911,"lon":139.31897},{"name":"加美平保育園","province":"東京都","city":"福生市","address":"福生市加美平四丁目1番地1","lat":35.75366,"lon":139.32352},{"name":"福生杉ノ子保育園","province":"東京都","city":"福生市","address":"福生市志茂47番地3","lat":35.736,"lon":139.32938},{"name":"牛浜こども園","province":"東京都","city":"福生市","address":"福生市牛浜121番地4","lat":35.7349947,"lon":139.3340896},{"name":"福生本町保育園","province":"東京都","city":"福生市","address":"福生市大字福生2143番地11","lat":35.74321,"lon":139.33192},{"name":"杉ノ子第三保育園","province":"東京都","city":"福生市","address":"福生市大字熊川373-1","lat":35.72162,"lon":139.33626},{"name":"若葉保育園","province":"東京都","city":"福生市","address":"福生市大字熊川1430番地","lat":35.72628,"lon":139.34256},{"name":"杉ノ子第三保育園","province":"東京都","city":"福生市","address":"福生市大字熊川373番地1","lat":35.72161,"lon":139.33626},{"name":"熊川保育園","province":"東京都","city":"福生市","address":"福生市大字熊川597番地1","lat":35.72658,"lon":139.33719},{"name":"わらべつくし保育園","province":"東京都","city":"福生市","address":"福生市南田園一丁目4番地12","lat":35.72079,"lon":139.33043},{"name":"杉ノ子第二保育園","province":"東京都","city":"福生市","address":"福生市南田園三丁目4番地2","lat":35.72952,"lon":139.32973},{"name":"福生保育園","province":"東京都","city":"福生市","address":"福生市大字福生1058番地11","lat":35.74302,"lon":139.32541},{"name":"東福保育園","province":"東京都","city":"福生市","address":"福生市大字福生209番地","lat":35.73854,"lon":139.33534},{"name":"不動の森こども園","province":"東京都","city":"福生市","address":"福生市大字福生2143番地11","lat":35.7430454,"lon":139.3326818},{"name":"すみれ保育園","province":"東京都","city":"福生市","address":"福生市大字福生959番地8","lat":35.74628,"lon":139.32748},{"name":"ありんこ保育園","province":"東京都","city":"福生市","address":"福生市加美平一丁目17番地7","lat":35.75013,"lon":139.3275},{"name":"彌生保育園","province":"東京都","city":"福生市","address":"福生市加美平三丁目37番地13","lat":35.74911,"lon":139.31897},{"name":"加美平保育園","province":"東京都","city":"福生市","address":"福生市加美平四丁目1番地1","lat":35.75366,"lon":139.32352},{"name":"福生杉ノ子保育園","province":"東京都","city":"福生市","address":"福生市志茂47番地3","lat":35.736,"lon":139.32938},{"name":"牛浜こども園","province":"東京都","city":"福生市","address":"福生市牛浜121番地4","lat":35.7349947,"lon":139.3340896},{"name":"福生本町保育園","province":"東京都","city":"福生市","address":"福生市大字福生2143番地11","lat":35.74321,"lon":139.33192},{"name":"杉ノ子第三保育園","province":"東京都","city":"福生市","address":"福生市大字熊川373-1","lat":35.72162,"lon":139.33626},{"name":"若葉保育園","province":"東京都","city":"福生市","address":"福生市大字熊川1430番地","lat":35.72628,"lon":139.34256},{"name":"杉ノ子第三保育園","province":"東京都","city":"福生市","address":"福生市大字熊川373番地1","lat":35.72161,"lon":139.33626},{"name":"熊川保育園","province":"東京都","city":"福生市","address":"福生市大字熊川597番地1","lat":35.72658,"lon":139.33719},{"name":"わらべつくし保育園","province":"東京都","city":"福生市","address":"福生市南田園一丁目4番地12","lat":35.72079,"lon":139.33043},{"name":"杉ノ子第二保育園","province":"東京都","city":"福生市","address":"福生市南田園三丁目4番地2","lat":35.72952,"lon":139.32973},{"name":"福生保育園","province":"東京都","city":"福生市","address":"福生市大字福生1058番地11","lat":35.74302,"lon":139.32541},{"name":"東福保育園","province":"東京都","city":"福生市","address":"福生市大字福生209番地","lat":35.73854,"lon":139.33534},{"name":"不動の森こども園","province":"東京都","city":"福生市","address":"福生市大字福生2143番地11","lat":35.7430454,"lon":139.3326818},{"name":"すみれ保育園","province":"東京都","city":"福生市","address":"福生市大字福生959番地8","lat":35.74628,"lon":139.32748},{"name":"ありんこ保育園","province":"東京都","city":"福生市","address":"福生市加美平一丁目17番地7","lat":35.75013,"lon":139.3275},{"name":"彌生保育園","province":"東京都","city":"福生市","address":"福生市加美平三丁目37番地13","lat":35.74911,"lon":139.31897},{"name":"加美平保育園","province":"東京都","city":"福生市","address":"福生市加美平四丁目1番地1","lat":35.75366,"lon":139.32352},{"name":"福生杉ノ子保育園","province":"東京都","city":"福生市","address":"福生市志茂47番地3","lat":35.736,"lon":139.32938},{"name":"牛浜こども園","province":"東京都","city":"福生市","address":"福生市牛浜121番地4","lat":35.7349947,"lon":139.3340896},{"name":"福生本町保育園","province":"東京都","city":"福生市","address":"福生市大字福生2143番地11","lat":35.74321,"lon":139.33192},{"name":"杉ノ子第三保育園","province":"東京都","city":"福生市","address":"福生市大字熊川373-1","lat":35.72162,"lon":139.33626},{"name":"若葉保育園","province":"東京都","city":"福生市","address":"福生市大字熊川1430番地","lat":35.72628,"lon":139.34256},{"name":"杉ノ子第三保育園","province":"東京都","city":"福生市","address":"福生市大字熊川373番地1","lat":35.72161,"lon":139.33626},{"name":"熊川保育園","province":"東京都","city":"福生市","address":"福生市大字熊川597番地1","lat":35.72658,"lon":139.33719},{"name":"わらべつくし保育園","province":"東京都","city":"福生市","address":"福生市南田園一丁目4番地12","lat":35.72079,"lon":139.33043},{"name":"杉ノ子第二保育園","province":"東京都","city":"福生市","address":"福生市南田園三丁目4番地2","lat":35.72952,"lon":139.32973},{"name":"福生保育園","province":"東京都","city":"福生市","address":"福生市大字福生1058番地11","lat":35.74302,"lon":139.32541},{"name":"東福保育園","province":"東京都","city":"福生市","address":"福生市大字福生209番地","lat":35.73854,"lon":139.33534},{"name":"不動の森こども園","province":"東京都","city":"福生市","address":"福生市大字福生2143番地11","lat":35.7430454,"lon":139.3326818},{"name":"すみれ保育園","province":"東京都","city":"福生市","address":"福生市大字福生959番地8","lat":35.74628,"lon":139.32748},{"name":"ありんこ保育園","province":"東京都","city":"福生市","address":"福生市加美平一丁目17番地7","lat":35.75013,"lon":139.3275},{"name":"彌生保育園","province":"東京都","city":"福生市","address":"福生市加美平三丁目37番地13","lat":35.74911,"lon":139.31897},{"name":"加美平保育園","province":"東京都","city":"福生市","address":"福生市加美平四丁目1番地1","lat":35.75366,"lon":139.32352},{"name":"福生杉ノ子保育園","province":"東京都","city":"福生市","address":"福生市志茂47番地3","lat":35.736,"lon":139.32938},{"name":"牛浜こども園","province":"東京都","city":"福生市","address":"福生市牛浜121番地4","lat":35.7349947,"lon":139.3340896},{"name":"福生本町保育園","province":"東京都","city":"福生市","address":"福生市大字福生2143番地11","lat":35.74321,"lon":139.33192},{"name":"杉ノ子第三保育園","province":"東京都","city":"福生市","address":"福生市大字熊川373-1","lat":35.72162,"lon":139.33626},{"name":"若葉保育園","province":"東京都","city":"福生市","address":"福生市大字熊川1430番地","lat":35.72628,"lon":139.34256},{"name":"杉ノ子第三保育園","province":"東京都","city":"福生市","address":"福生市大字熊川373番地1","lat":35.72161,"lon":139.33626},{"name":"熊川保育園","province":"東京都","city":"福生市","address":"福生市大字熊川597番地1","lat":35.72658,"lon":139.33719},{"name":"わらべつくし保育園","province":"東京都","city":"福生市","address":"福生市南田園一丁目4番地12","lat":35.72079,"lon":139.33043},{"name":"杉ノ子第二保育園","province":"東京都","city":"福生市","address":"福生市南田園三丁目4番地2","lat":35.72952,"lon":139.32973},{"name":"福生保育園","province":"東京都","city":"福生市","address":"福生市大字福生1058番地11","lat":35.74302,"lon":139.32541},{"name":"東福保育園","province":"東京都","city":"福生市","address":"福生市大字福生209番地","lat":35.73854,"lon":139.33534},{"name":"不動の森こども園","province":"東京都","city":"福生市","address":"福生市大字福生2143番地11","lat":35.7430454,"lon":139.3326818},{"name":"すみれ保育園","province":"東京都","city":"福生市","address":"福生市大字福生959番地8","lat":35.74628,"lon":139.32748},{"name":"ありんこ保育園","province":"東京都","city":"福生市","address":"福生市加美平一丁目17番地7","lat":35.75013,"lon":139.3275},{"name":"彌生保育園","province":"東京都","city":"福生市","address":"福生市加美平三丁目37番地13","lat":35.74911,"lon":139.31897},{"name":"加美平保育園","province":"東京都","city":"福生市","address":"福生市加美平四丁目1番地1","lat":35.75366,"lon":139.32352},{"name":"福生杉ノ子保育園","province":"東京都","city":"福生市","address":"福生市志茂47番地3","lat":35.736,"lon":139.32938},{"name":"牛浜こども園","province":"東京都","city":"福生市","address":"福生市牛浜121番地4","lat":35.7349947,"lon":139.3340896},{"name":"福生本町保育園","province":"東京都","city":"福生市","address":"福生市大字福生2143番地11","lat":35.74321,"lon":139.33192},{"name":"杉ノ子第三保育園","province":"東京都","city":"福生市","address":"福生市大字熊川373-1","lat":35.72162,"lon":139.33626},{"name":"若葉保育園","province":"東京都","city":"福生市","address":"福生市大字熊川1430番地","lat":35.72628,"lon":139.34256},{"name":"杉ノ子第三保育園","province":"東京都","city":"福生市","address":"福生市大字熊川373番地1","lat":35.72161,"lon":139.33626},{"name":"熊川保育園","province":"東京都","city":"福生市","address":"福生市大字熊川597番地1","lat":35.72658,"lon":139.33719},{"name":"わらべつくし保育園","province":"東京都","city":"福生市","address":"福生市南田園一丁目4番地12","lat":35.72079,"lon":139.33043},{"name":"杉ノ子第二保育園","province":"東京都","city":"福生市","address":"福生市南田園三丁目4番地2","lat":35.72952,"lon":139.32973},{"name":"福生保育園","province":"東京都","city":"福生市","address":"福生市大字福生1058番地11","lat":35.74302,"lon":139.32541},{"name":"東福保育園","province":"東京都","city":"福生市","address":"福生市大字福生209番地","lat":35.73854,"lon":139.33534},{"name":"不動の森こども園","province":"東京都","city":"福生市","address":"福生市大字福生2143番地11","lat":35.7430454,"lon":139.3326818},{"name":"すみれ保育園","province":"東京都","city":"福生市","address":"福生市大字福生959番地8","lat":35.74628,"lon":139.32748},{"name":"ありんこ保育園","province":"東京都","city":"福生市","address":"福生市加美平一丁目17番地7","lat":35.75013,"lon":139.3275},{"name":"彌生保育園","province":"東京都","city":"福生市","address":"福生市加美平三丁目37番地13","lat":35.74911,"lon":139.31897},{"name":"加美平保育園","province":"東京都","city":"福生市","address":"福生市加美平四丁目1番地1","lat":35.75366,"lon":139.32352},{"name":"福生杉ノ子保育園","province":"東京都","city":"福生市","address":"福生市志茂47番地3","lat":35.736,"lon":139.32938},{"name":"牛浜こども園","province":"東京都","city":"福生市","address":"福生市牛浜121番地4","lat":35.7349947,"lon":139.3340896},{"name":"福生本町保育園","province":"東京都","city":"福生市","address":"福生市大字福生2143番地11","lat":35.74321,"lon":139.33192},{"name":"杉ノ子第三保育園","province":"東京都","city":"福生市","address":"福生市大字熊川373-1","lat":35.72162,"lon":139.33626},{"name":"若葉保育園","province":"東京都","city":"福生市","address":"福生市大字熊川1430番地","lat":35.72628,"lon":139.34256},{"name":"杉ノ子第三保育園","province":"東京都","city":"福生市","address":"福生市大字熊川373番地1","lat":35.72161,"lon":139.33626},{"name":"熊川保育園","province":"東京都","city":"福生市","address":"福生市大字熊川597番地1","lat":35.72658,"lon":139.33719},{"name":"わらべつくし保育園","province":"東京都","city":"福生市","address":"福生市南田園一丁目4番地12","lat":35.72079,"lon":139.33043},{"name":"杉ノ子第二保育園","province":"東京都","city":"福生市","address":"福生市南田園三丁目4番地2","lat":35.72952,"lon":139.32973},{"name":"福生保育園","province":"東京都","city":"福生市","address":"福生市大字福生1058番地11","lat":35.74302,"lon":139.32541},{"name":"東福保育園","province":"東京都","city":"福生市","address":"福生市大字福生209番地","lat":35.73854,"lon":139.33534},{"name":"不動の森こども園","province":"東京都","city":"福生市","address":"福生市大字福生2143番地11","lat":35.7430454,"lon":139.3326818},{"name":"すみれ保育園","province":"東京都","city":"福生市","address":"福生市大字福生959番地8","lat":35.74628,"lon":139.32748},{"name":"ありんこ保育園","province":"東京都","city":"福生市","address":"福生市加美平一丁目17番地7","lat":35.75013,"lon":139.3275},{"name":"彌生保育園","province":"東京都","city":"福生市","address":"福生市加美平三丁目37番地13","lat":35.74911,"lon":139.31897},{"name":"加美平保育園","province":"東京都","city":"福生市","address":"福生市加美平四丁目1番地1","lat":35.75366,"lon":139.32352},{"name":"福生杉ノ子保育園","province":"東京都","city":"福生市","address":"福生市志茂47番地3","lat":35.736,"lon":139.32938},{"name":"牛浜こども園","province":"東京都","city":"福生市","address":"福生市牛浜121番地4","lat":35.7349947,"lon":139.3340896},{"name":"福生本町保育園","province":"東京都","city":"福生市","address":"福生市大字福生2143番地11","lat":35.74321,"lon":139.33192},{"name":"杉ノ子第三保育園","province":"東京都","city":"福生市","address":"福生市大字熊川373-1","lat":35.72162,"lon":139.33626},{"name":"若葉保育園","province":"東京都","city":"福生市","address":"福生市大字熊川1430番地","lat":35.72628,"lon":139.34256},{"name":"杉ノ子第三保育園","province":"東京都","city":"福生市","address":"福生市大字熊川373番地1","lat":35.72161,"lon":139.33626},{"name":"熊川保育園","province":"東京都","city":"福生市","address":"福生市大字熊川597番地1","lat":35.72658,"lon":139.33719},{"name":"わらべつくし保育園","province":"東京都","city":"福生市","address":"福生市南田園一丁目4番地12","lat":35.72079,"lon":139.33043},{"name":"杉ノ子第二保育園","province":"東京都","city":"福生市","address":"福生市南田園三丁目4番地2","lat":35.72952,"lon":139.32973},{"name":"福生保育園","province":"東京都","city":"福生市","address":"福生市大字福生1058番地11","lat":35.74302,"lon":139.32541},{"name":"東福保育園","province":"東京都","city":"福生市","address":"福生市大字福生209番地","lat":35.73854,"lon":139.33534},{"name":"不動の森こども園","province":"東京都","city":"福生市","address":"福生市大字福生2143番地11","lat":35.7430454,"lon":139.3326818},{"name":"すみれ保育園","province":"東京都","city":"福生市","address":"福生市大字福生959番地8","lat":35.74628,"lon":139.32748},{"name":"ありんこ保育園","province":"東京都","city":"福生市","address":"福生市加美平一丁目17番地7","lat":35.75013,"lon":139.3275},{"name":"彌生保育園","province":"東京都","city":"福生市","address":"福生市加美平三丁目37番地13","lat":35.74911,"lon":139.31897},{"name":"加美平保育園","province":"東京都","city":"福生市","address":"福生市加美平四丁目1番地1","lat":35.75366,"lon":139.32352},{"name":"福生杉ノ子保育園","province":"東京都","city":"福生市","address":"福生市志茂47番地3","lat":35.736,"lon":139.32938},{"name":"牛浜こども園","province":"東京都","city":"福生市","address":"福生市牛浜121番地4","lat":35.7349947,"lon":139.3340896},{"name":"福生本町保育園","province":"東京都","city":"福生市","address":"福生市大字福生2143番地11","lat":35.74321,"lon":139.33192},{"name":"杉ノ子第三保育園","province":"東京都","city":"福生市","address":"福生市大字熊川373-1","lat":35.72162,"lon":139.33626},{"name":"若葉保育園","province":"東京都","city":"福生市","address":"福生市大字熊川1430番地","lat":35.72628,"lon":139.34256},{"name":"杉ノ子第三保育園","province":"東京都","city":"福生市","address":"福生市大字熊川373番地1","lat":35.72161,"lon":139.33626},{"name":"熊川保育園","province":"東京都","city":"福生市","address":"福生市大字熊川597番地1","lat":35.72658,"lon":139.33719},{"name":"わらべつくし保育園","province":"東京都","city":"福生市","address":"福生市南田園一丁目4番地12","lat":35.72079,"lon":139.33043},{"name":"杉ノ子第二保育園","province":"東京都","city":"福生市","address":"福生市南田園三丁目4番地2","lat":35.72952,"lon":139.32973},{"name":"福生保育園","province":"東京都","city":"福生市","address":"福生市大字福生1058番地11","lat":35.74302,"lon":139.32541},{"name":"東福保育園","province":"東京都","city":"福生市","address":"福生市大字福生209番地","lat":35.73854,"lon":139.33534},{"name":"不動の森こども園","province":"東京都","city":"福生市","address":"福生市大字福生2143番地11","lat":35.7430454,"lon":139.3326818},{"name":"すみれ保育園","province":"東京都","city":"福生市","address":"福生市大字福生959番地8","lat":35.74628,"lon":139.32748},{"name":"ありんこ保育園","province":"東京都","city":"福生市","address":"福生市加美平一丁目17番地7","lat":35.75013,"lon":139.3275},{"name":"彌生保育園","province":"東京都","city":"福生市","address":"福生市加美平三丁目37番地13","lat":35.74911,"lon":139.31897},{"name":"加美平保育園","province":"東京都","city":"福生市","address":"福生市加美平四丁目1番地1","lat":35.75366,"lon":139.32352},{"name":"福生杉ノ子保育園","province":"東京都","city":"福生市","address":"福生市志茂47番地3","lat":35.736,"lon":139.32938},{"name":"牛浜こども園","province":"東京都","city":"福生市","address":"福生市牛浜121番地4","lat":35.7349947,"lon":139.3340896},{"name":"福生本町保育園","province":"東京都","city":"福生市","address":"福生市大字福生2143番地11","lat":35.74321,"lon":139.33192},{"name":"杉ノ子第三保育園","province":"東京都","city":"福生市","address":"福生市大字熊川373-1","lat":35.72162,"lon":139.33626},{"name":"若葉保育園","province":"東京都","city":"福生市","address":"福生市大字熊川1430番地","lat":35.72628,"lon":139.34256},{"name":"杉ノ子第三保育園","province":"東京都","city":"福生市","address":"福生市大字熊川373番地1","lat":35.72161,"lon":139.33626},{"name":"熊川保育園","province":"東京都","city":"福生市","address":"福生市大字熊川597番地1","lat":35.72658,"lon":139.33719},{"name":"わらべつくし保育園","province":"東京都","city":"福生市","address":"福生市南田園一丁目4番地12","lat":35.72079,"lon":139.33043},{"name":"杉ノ子第二保育園","province":"東京都","city":"福生市","address":"福生市南田園三丁目4番地2","lat":35.72952,"lon":139.32973},{"name":"福生保育園","province":"東京都","city":"福生市","address":"福生市大字福生1058番地11","lat":35.74302,"lon":139.32541},{"name":"東福保育園","province":"東京都","city":"福生市","address":"福生市大字福生209番地","lat":35.73854,"lon":139.33534},{"name":"不動の森こども園","province":"東京都","city":"福生市","address":"福生市大字福生2143番地11","lat":35.7430454,"lon":139.3326818},{"name":"すみれ保育園","province":"東京都","city":"福生市","address":"福生市大字福生959番地8","lat":35.74628,"lon":139.32748},{"name":"ありんこ保育園","province":"東京都","city":"福生市","address":"福生市加美平一丁目17番地7","lat":35.75013,"lon":139.3275},{"name":"彌生保育園","province":"東京都","city":"福生市","address":"福生市加美平三丁目37番地13","lat":35.74911,"lon":139.31897},{"name":"加美平保育園","province":"東京都","city":"福生市","address":"福生市加美平四丁目1番地1","lat":35.75366,"lon":139.32352},{"name":"福生杉ノ子保育園","province":"東京都","city":"福生市","address":"福生市志茂47番地3","lat":35.736,"lon":139.32938},{"name":"牛浜こども園","province":"東京都","city":"福生市","address":"福生市牛浜121番地4","lat":35.7349947,"lon":139.3340896},{"name":"福生本町保育園","province":"東京都","city":"福生市","address":"福生市大字福生2143番地11","lat":35.74321,"lon":139.33192},{"name":"杉ノ子第三保育園","province":"東京都","city":"福生市","address":"福生市大字熊川373-1","lat":35.72162,"lon":139.33626},{"name":"若葉保育園","province":"東京都","city":"福生市","address":"福生市大字熊川1430番地","lat":35.72628,"lon":139.34256},{"name":"杉ノ子第三保育園","province":"東京都","city":"福生市","address":"福生市大字熊川373番地1","lat":35.72161,"lon":139.33626},{"name":"熊川保育園","province":"東京都","city":"福生市","address":"福生市大字熊川597番地1","lat":35.72658,"lon":139.33719},{"name":"わらべつくし保育園","province":"東京都","city":"福生市","address":"福生市南田園一丁目4番地12","lat":35.72079,"lon":139.33043},{"name":"杉ノ子第二保育園","province":"東京都","city":"福生市","address":"福生市南田園三丁目4番地2","lat":35.72952,"lon":139.32973},{"name":"福生保育園","province":"東京都","city":"福生市","address":"福生市大字福生1058番地11","lat":35.74302,"lon":139.32541},{"name":"東福保育園","province":"東京都","city":"福生市","address":"福生市大字福生209番地","lat":35.73854,"lon":139.33534},{"name":"不動の森こども園","province":"東京都","city":"福生市","address":"福生市大字福生2143番地11","lat":35.7430454,"lon":139.3326818},{"name":"すみれ保育園","province":"東京都","city":"福生市","address":"福生市大字福生959番地8","lat":35.74628,"lon":139.32748},{"name":"ありんこ保育園","province":"東京都","city":"福生市","address":"福生市加美平一丁目17番地7","lat":35.75013,"lon":139.3275},{"name":"彌生保育園","province":"東京都","city":"福生市","address":"福生市加美平三丁目37番地13","lat":35.74911,"lon":139.31897},{"name":"加美平保育園","province":"東京都","city":"福生市","address":"福生市加美平四丁目1番地1","lat":35.75366,"lon":139.32352},{"name":"福生杉ノ子保育園","province":"東京都","city":"福生市","address":"福生市志茂47番地3","lat":35.736,"lon":139.32938},{"name":"牛浜こども園","province":"東京都","city":"福生市","address":"福生市牛浜121番地4","lat":35.7349947,"lon":139.3340896},{"name":"福生本町保育園","province":"東京都","city":"福生市","address":"福生市大字福生2143番地11","lat":35.74321,"lon":139.33192},{"name":"杉ノ子第三保育園","province":"東京都","city":"福生市","address":"福生市大字熊川373-1","lat":35.72162,"lon":139.33626},{"name":"若葉保育園","province":"東京都","city":"福生市","address":"福生市大字熊川1430番地","lat":35.72628,"lon":139.34256},{"name":"杉ノ子第三保育園","province":"東京都","city":"福生市","address":"福生市大字熊川373番地1","lat":35.72161,"lon":139.33626},{"name":"熊川保育園","province":"東京都","city":"福生市","address":"福生市大字熊川597番地1","lat":35.72658,"lon":139.33719},{"name":"わらべつくし保育園","province":"東京都","city":"福生市","address":"福生市南田園一丁目4番地12","lat":35.72079,"lon":139.33043},{"name":"杉ノ子第二保育園","province":"東京都","city":"福生市","address":"福生市南田園三丁目4番地2","lat":35.72952,"lon":139.32973},{"name":"福生保育園","province":"東京都","city":"福生市","address":"福生市大字福生1058番地11","lat":35.74302,"lon":139.32541},{"name":"東福保育園","province":"東京都","city":"福生市","address":"福生市大字福生209番地","lat":35.73854,"lon":139.33534},{"name":"不動の森こども園","province":"東京都","city":"福生市","address":"福生市大字福生2143番地11","lat":35.7430454,"lon":139.3326818},{"name":"すみれ保育園","province":"東京都","city":"福生市","address":"福生市大字福生959番地8","lat":35.74628,"lon":139.32748},{"name":"ありんこ保育園","province":"東京都","city":"福生市","address":"福生市加美平一丁目17番地7","lat":35.75013,"lon":139.3275},{"name":"彌生保育園","province":"東京都","city":"福生市","address":"福生市加美平三丁目37番地13","lat":35.74911,"lon":139.31897},{"name":"加美平保育園","province":"東京都","city":"福生市","address":"福生市加美平四丁目1番地1","lat":35.75366,"lon":139.32352},{"name":"福生杉ノ子保育園","province":"東京都","city":"福生市","address":"福生市志茂47番地3","lat":35.736,"lon":139.32938},{"name":"牛浜こども園","province":"東京都","city":"福生市","address":"福生市牛浜121番地4","lat":35.7349947,"lon":139.3340896},{"name":"福生本町保育園","province":"東京都","city":"福生市","address":"福生市大字福生2143番地11","lat":35.74321,"lon":139.33192},{"name":"杉ノ子第三保育園","province":"東京都","city":"福生市","address":"福生市大字熊川373-1","lat":35.72162,"lon":139.33626}]}