{"keyword":"子ども","data":[{"name":"福生消防署","province":"東京都","city":"福生市","address":"東京都福生市大字福生1072","lat":35.744017,"lon":139.324547},{"name":"福生駅前公衆便所","province":"東京都","city":"福生市","address":"東京都福生市本町137","lat":35.742376,"lon":139.328144},{"name":"福生市役所本庁舎","province":"東京都","city":"福生市","address":"東京都福生市本町5","lat":35.738431,"lon":139.327049},{"name":"福生市役所本庁舎","province":"東京都","city":"福生市","address":"東京都福生市本町","lat":35.738959,"lon":139.326424},{"name":"福生市役所本庁舎","province":"東京都","city":"福生市","address":"東京都福生市本町5","lat":35.738482,"lon":139.32702},{"name":"福生市役所本庁舎","province":"東京都","city":"福生市","address":"東京都福生市本町5","lat":35.738837,"lon":139.326536},{"name":"福生市役所本庁舎","province":"東京都","city":"福生市","address":"東京都福生市本町5","lat":35.738449,"lon":139.327039},{"name":"福生市もくせい会館","province":"東京都","city":"福生市","address":"東京都福生市本町","lat":35.738964,"lon":139.327268},{"name":"白梅会館","province":"東京都","city":"福生市","address":"東京都福生市大字熊川559-1","lat":35.724161,"lon":139.337642},{"name":"松林会館","province":"東京都","city":"福生市","address":"東京都福生市武蔵野台1丁目15-1","lat":35.746452,"lon":139.332484},{"name":"さくら会館","province":"東京都","city":"福生市","address":"東京都福生市牛浜163","lat":35.733772,"lon":139.337251},{"name":"かえで会館","province":"東京都","city":"福生市","address":"東京都福生市加美平1丁目20-6","lat":35.750408,"lon":139.32541},{"name":"福東会館","province":"東京都","city":"福生市","address":"東京都福生市大字熊川1662-7","lat":35.722486,"lon":139.345902},{"name":"扶桑会館","province":"東京都","city":"福生市","address":"東京都福生市本町","lat":35.740759,"lon":139.326319},{"name":"扶桑会館","province":"東京都","city":"福生市","address":"東京都福生市本町","lat":35.740734,"lon":139.326329},{"name":"福生市保健センター","province":"東京都","city":"福生市","address":"東京都福生市大字福生2125-3","lat":35.744267,"lon":139.334302},{"name":"福生市立中央図書館","province":"東京都","city":"福生市","address":"東京都福生市大字熊川850-1","lat":35.732037,"lon":139.3374},{"name":"福生市わかぎり会館・図書館","province":"東京都","city":"福生市","address":"東京都福生市大字福生1280-1","lat":35.746218,"lon":139.32078},{"name":"福生市立わかたけ会館・図書館","province":"東京都","city":"福生市","address":"東京都福生市大字熊川199-1","lat":35.718175,"lon":139.335083},{"name":"福生市立武蔵野台図書館","province":"東京都","city":"福生市","address":"東京都福生市武蔵野台1丁目12-2","lat":35.746757,"lon":139.333935},{"name":"福生市民会館","province":"東京都","city":"福生市","address":"東京都福生市大字福生2455","lat":35.734178,"lon":139.337832},{"name":"福生市民会館","province":"東京都","city":"福生市","address":"東京都福生市大字福生2455","lat":35.733711,"lon":139.33776},{"name":"福生市民会館","province":"東京都","city":"福生市","address":"東京都福生市大字福生2455","lat":35.733854,"lon":139.337726},{"name":"福生市民会館","province":"東京都","city":"福生市","address":"東京都福生市大字福生2455","lat":35.733963,"lon":139.337918},{"name":"福生市民会館","province":"東京都","city":"福生市","address":"東京都福生市大字福生2455","lat":35.733982,"lon":139.337857},{"name":"茶室福庵","province":"東京都","city":"福生市","address":"東京都福生市大字熊川854-3","lat":35.732597,"lon":139.337537},{"name":"プチギャラリー","province":"東京都","city":"福生市","address":"東京都福生市大字福生1014-10","lat":35.742342,"lon":139.327689},{"name":"熊川公園","province":"東京都","city":"福生市","address":"東京都福生市大字熊川","lat":35.723912,"lon":139.334279},{"name":"もくせい公園","province":"東京都","city":"福生市","address":"東京都福生市大字福生","lat":35.743277,"lon":139.335737},{"name":"加美平北公園","province":"東京都","city":"福生市","address":"東京都福生市加美平2丁目12","lat":35.750081,"lon":139.323358},{"name":"加美平南公園","province":"東京都","city":"福生市","address":"東京都福生市加美平3丁目10","lat":35.746586,"lon":139.324396},{"name":"東町公園","province":"東京都","city":"福生市","address":"東京都福生市東町8","lat":35.743961,"lon":139.326806},{"name":"金堀公園","province":"東京都","city":"福生市","address":"東京都福生市北田園1丁目9","lat":35.733438,"lon":139.326899},{"name":"鍋ヶ谷戸児童公園","province":"東京都","city":"福生市","address":"東京都福生市大字熊川","lat":35.724884,"lon":139.337226},{"name":"明神下公園","province":"東京都","city":"福生市","address":"東京都福生市南田園1丁目12","lat":35.724002,"lon":139.330306},{"name":"わらつけ公園","province":"東京都","city":"福生市","address":"東京都福生市大字福生","lat":35.744096,"lon":139.336231},{"name":"熊牛公園","province":"東京都","city":"福生市","address":"東京都福生市大字熊川","lat":35.731818,"lon":139.334997},{"name":"長沢公園","province":"東京都","city":"福生市","address":"東京都福生市大字福生","lat":35.741727,"lon":139.322795},{"name":"鍋二公園","province":"東京都","city":"福生市","address":"東京都福生市大字熊川","lat":35.726374,"lon":139.334646},{"name":"睦公園","province":"東京都","city":"福生市","address":"東京都福生市大字熊川","lat":35.720352,"lon":139.338618},{"name":"武蔵野橋公園","province":"東京都","city":"福生市","address":"東京都福生市大字熊川","lat":35.72205,"lon":139.341404},{"name":"福生駅西口公園","province":"東京都","city":"福生市","address":"東京都福生市大字福生","lat":35.741715,"lon":139.328134},{"name":"東福生駅東口公園","province":"東京都","city":"福生市","address":"東京都福生市大字福生","lat":35.745699,"lon":139.336085},{"name":"フレンドシップパーク","province":"東京都","city":"福生市","address":"東京都福生市大字福生","lat":35.738872,"lon":139.338459},{"name":"牛一公園","province":"東京都","city":"福生市","address":"東京都福生市牛浜","lat":35.734837,"lon":139.331404},{"name":"牛浜駅東口公園","province":"東京都","city":"福生市","address":"東京都福生市牛浜","lat":35.734736,"lon":139.333725},{"name":"ひふみ公園","province":"東京都","city":"福生市","address":"東京都福生市本町","lat":35.739569,"lon":139.329448},{"name":"牛二公園","province":"東京都","city":"福生市","address":"東京都福生市大字福生","lat":35.736717,"lon":139.33902},{"name":"田園広場公園","province":"東京都","city":"福生市","address":"東京都福生市北田園1丁目54","lat":35.732352,"lon":139.323847},{"name":"福東公園","province":"東京都","city":"福生市","address":"東京都福生市大字熊川","lat":35.723006,"lon":139.349594},{"name":"福栄ミレニアムパーク","province":"東京都","city":"福生市","address":"東京都福生市大字熊川","lat":35.730503,"lon":139.341055},{"name":"加美平公園","province":"東京都","city":"福生市","address":"東京都福生市加美平1丁目21","lat":35.751441,"lon":139.327344},{"name":"中福生公園","province":"東京都","city":"福生市","address":"東京都福生市大字福生","lat":35.736927,"lon":139.325874},{"name":"武蔵野台公園","province":"東京都","city":"福生市","address":"東京都福生市武蔵野台1丁目30","lat":35.752193,"lon":139.330826},{"name":"福東トモダチ公園","province":"東京都","city":"福生市","address":"東京都福生市大字熊川","lat":35.725753,"lon":139.351785},{"name":"多摩川緑地福生柳山公園","province":"東京都","city":"福生市","address":"東京都福生市北田園2丁目8","lat":35.73788,"lon":139.319747},{"name":"多摩川緑地福生南公園","province":"東京都","city":"福生市","address":"東京都福生市大字熊川","lat":35.715897,"lon":139.33177},{"name":"多摩川緑地福生かに坂公園","province":"東京都","city":"福生市","address":"東京都福生市大字福生","lat":35.743985,"lon":139.318699},{"name":"みずくらいど公園","province":"東京都","city":"福生市","address":"東京都福生市大字熊川","lat":35.727265,"lon":139.339273},{"name":"玉川上水緑地日光橋公園","province":"東京都","city":"福生市","address":"東京都福生市大字熊川","lat":35.723162,"lon":139.34282},{"name":"下の川緑地せせらぎ遊歩道公園","province":"東京都","city":"福生市","address":"東京都福生市大字熊川","lat":35.721918,"lon":139.333609},{"name":"原ヶ谷戸どんぐり公園","province":"東京都","city":"福生市","address":"東京都福生市大字福生","lat":35.738966,"lon":139.335389},{"name":"熊牛わらつけ児童遊園","province":"東京都","city":"福生市","address":"東京都福生市大字熊川","lat":35.731951,"lon":139.339446},{"name":"多摩川緑地加美上水公園","province":"東京都","city":"福生市","address":"東京都福生市大字福生","lat":35.747119,"lon":139.318412},{"name":"福生駅西口公衆便所","province":"東京都","city":"福生市","address":"東京都福生市大字福生","lat":35.741715,"lon":139.328134},{"name":"牛浜駅東口公衆便所","province":"東京都","city":"福生市","address":"東京都福生市牛浜","lat":35.734736,"lon":139.333725},{"name":"牛浜駅西口公衆便所","province":"東京都","city":"福生市","address":"東京都福生市牛浜","lat":35.734469,"lon":139.333543},{"name":"東福生駅西口公衆便所","province":"東京都","city":"福生市","address":"東京都福生市武蔵野台1丁目1","lat":35.746013,"lon":139.335767},{"name":"福生市福祉センター","province":"東京都","city":"福生市","address":"東京都福生市南田園2丁目13-1","lat":35.727604,"lon":139.332419},{"name":"福生市福祉センター","province":"東京都","city":"福生市","address":"東京都福生市南田園2丁目13-1","lat":35.727599,"lon":139.332379},{"name":"福生市福祉センター","province":"東京都","city":"福生市","address":"東京都福生市南田園2丁目13-1","lat":35.727342,"lon":139.332273},{"name":"福生市福祉センター","province":"東京都","city":"福生市","address":"東京都福生市南田園2丁目13-1","lat":35.72762,"lon":139.332588},{"name":"福生市田園児童館","province":"東京都","city":"福生市","address":"東京都福生市南田園3丁目6-1","lat":35.730084,"lon":139.331068},{"name":"熊川児童館","province":"東京都","city":"福生市","address":"東京都福生市大字熊川","lat":35.730281,"lon":139.341304},{"name":"武蔵野台児童館","province":"東京都","city":"福生市","address":"東京都福生市武蔵野台1丁目12-2","lat":35.746745,"lon":139.333934},{"name":"子ども応援館","province":"東京都","city":"福生市","address":"東京都福生市北田園2丁目5-7","lat":35.734046,"lon":139.322685},{"name":"熊川地域体育館","province":"東京都","city":"福生市","address":"東京都福生市大字熊川380-7","lat":35.720704,"lon":139.337035},{"name":"福生地域体育館","province":"東京都","city":"福生市","address":"東京都福生市武蔵野台1丁目8-7","lat":35.746371,"lon":139.334278},{"name":"福生地域体育館","province":"東京都","city":"福生市","address":"東京都福生市武蔵野台1丁目8-7","lat":35.746198,"lon":139.334275},{"name":"福生野球場","province":"東京都","city":"福生市","address":"東京都福生市大字福生","lat":35.734848,"lon":139.337138},{"name":"市営プール","province":"東京都","city":"福生市","address":"東京都福生市北田園2丁目8-4","lat":35.734245,"lon":139.32163},{"name":"福東第二少年野球場","province":"東京都","city":"福生市","address":"東京都福生市大字熊川","lat":35.724549,"lon":139.350646},{"name":"輝き市民サポートセンター","province":"東京都","city":"福生市","address":"東京都福生市大字福生1014-10","lat":35.742342,"lon":139.327689},{"name":"市営競技場","province":"東京都","city":"福生市","address":"東京都福生市大字福生","lat":35.747622,"lon":139.317685},{"name":"市営競技場","province":"東京都","city":"福生市","address":"東京都福生市大字福生3232","lat":35.747081,"lon":139.31635},{"name":"くるみるふっさ","province":"東京都","city":"福生市","address":"東京都福生市本町23","lat":35.739415,"lon":139.328418},{"name":"福生市立多摩川緑地福生南公園","province":"東京都","city":"福生市","address":"東京都福生市南田園1丁目1-1","lat":35.71975535,"lon":139.33089655},{"name":"加美平野球場","province":"東京都","city":"福生市","address":"東京都福生市加美平1丁目21","lat":35.75075425,"lon":139.3271652},{"name":"＊?福生市茶室「福庵」","province":"東京都","city":"福生市","address":"福生市熊川854-3","lat":35.732557,"lon":139.337557},{"name":"＊?福生市民会館","province":"東京都","city":"福生市","address":"福生市福生2455","lat":35.733906,"lon":139.337829},{"name":"＊?さくら会館","province":"東京都","city":"福生市","address":"福生市牛浜163","lat":35.733793,"lon":139.337233},{"name":"＊?かえで会館","province":"東京都","city":"福生市","address":"福生市加美平1-20-6","lat":35.75041,"lon":139.325447},{"name":"＊?扶桑会館","province":"東京都","city":"福生市","address":"福生市福生1069-1","lat":35.743941,"lon":139.324981},{"name":"福生市民会館","province":"東京都","city":"福生市","address":"東京都福生市福生（大字）2455","lat":35.73403986,"lon":139.33785671},{"name":"さくら会館","province":"東京都","city":"福生市","address":"東京都福生市牛浜163","lat":35.73379544,"lon":139.33723732},{"name":"福生消防署","province":"東京都","city":"福生市","address":"東京都福生市大字福生1072","lat":35.744017,"lon":139.324547},{"name":"福生駅前公衆便所","province":"東京都","city":"福生市","address":"東京都福生市本町137","lat":35.742376,"lon":139.328144},{"name":"福生市役所本庁舎","province":"東京都","city":"福生市","address":"東京都福生市本町5","lat":35.738431,"lon":139.327049},{"name":"福生市役所本庁舎","province":"東京都","city":"福生市","address":"東京都福生市本町","lat":35.738959,"lon":139.326424},{"name":"福生市役所本庁舎","province":"東京都","city":"福生市","address":"東京都福生市本町5","lat":35.738482,"lon":139.32702},{"name":"福生市役所本庁舎","province":"東京都","city":"福生市","address":"東京都福生市本町5","lat":35.738837,"lon":139.326536},{"name":"福生市役所本庁舎","province":"東京都","city":"福生市","address":"東京都福生市本町5","lat":35.738449,"lon":139.327039},{"name":"福生市もくせい会館","province":"東京都","city":"福生市","address":"東京都福生市本町","lat":35.738964,"lon":139.327268},{"name":"白梅会館","province":"東京都","city":"福生市","address":"東京都福生市大字熊川559-1","lat":35.724161,"lon":139.337642},{"name":"松林会館","province":"東京都","city":"福生市","address":"東京都福生市武蔵野台1丁目15-1","lat":35.746452,"lon":139.332484},{"name":"さくら会館","province":"東京都","city":"福生市","address":"東京都福生市牛浜163","lat":35.733772,"lon":139.337251},{"name":"かえで会館","province":"東京都","city":"福生市","address":"東京都福生市加美平1丁目20-6","lat":35.750408,"lon":139.32541},{"name":"福東会館","province":"東京都","city":"福生市","address":"東京都福生市大字熊川1662-7","lat":35.722486,"lon":139.345902},{"name":"扶桑会館","province":"東京都","city":"福生市","address":"東京都福生市本町","lat":35.740759,"lon":139.326319},{"name":"扶桑会館","province":"東京都","city":"福生市","address":"東京都福生市本町","lat":35.740734,"lon":139.326329},{"name":"福生市保健センター","province":"東京都","city":"福生市","address":"東京都福生市大字福生2125-3","lat":35.744267,"lon":139.334302},{"name":"福生市立中央図書館","province":"東京都","city":"福生市","address":"東京都福生市大字熊川850-1","lat":35.732037,"lon":139.3374},{"name":"福生市わかぎり会館・図書館","province":"東京都","city":"福生市","address":"東京都福生市大字福生1280-1","lat":35.746218,"lon":139.32078},{"name":"福生市立わかたけ会館・図書館","province":"東京都","city":"福生市","address":"東京都福生市大字熊川199-1","lat":35.718175,"lon":139.335083},{"name":"福生市立武蔵野台図書館","province":"東京都","city":"福生市","address":"東京都福生市武蔵野台1丁目12-2","lat":35.746757,"lon":139.333935},{"name":"福生市民会館","province":"東京都","city":"福生市","address":"東京都福生市大字福生2455","lat":35.734178,"lon":139.337832},{"name":"福生市民会館","province":"東京都","city":"福生市","address":"東京都福生市大字福生2455","lat":35.733711,"lon":139.33776},{"name":"福生市民会館","province":"東京都","city":"福生市","address":"東京都福生市大字福生2455","lat":35.733854,"lon":139.337726},{"name":"福生市民会館","province":"東京都","city":"福生市","address":"東京都福生市大字福生2455","lat":35.733963,"lon":139.337918},{"name":"福生市民会館","province":"東京都","city":"福生市","address":"東京都福生市大字福生2455","lat":35.733982,"lon":139.337857},{"name":"茶室福庵","province":"東京都","city":"福生市","address":"東京都福生市大字熊川854-3","lat":35.732597,"lon":139.337537},{"name":"プチギャラリー","province":"東京都","city":"福生市","address":"東京都福生市大字福生1014-10","lat":35.742342,"lon":139.327689},{"name":"熊川公園","province":"東京都","city":"福生市","address":"東京都福生市大字熊川","lat":35.723912,"lon":139.334279},{"name":"もくせい公園","province":"東京都","city":"福生市","address":"東京都福生市大字福生","lat":35.743277,"lon":139.335737},{"name":"加美平北公園","province":"東京都","city":"福生市","address":"東京都福生市加美平2丁目12","lat":35.750081,"lon":139.323358},{"name":"加美平南公園","province":"東京都","city":"福生市","address":"東京都福生市加美平3丁目10","lat":35.746586,"lon":139.324396},{"name":"東町公園","province":"東京都","city":"福生市","address":"東京都福生市東町8","lat":35.743961,"lon":139.326806},{"name":"金堀公園","province":"東京都","city":"福生市","address":"東京都福生市北田園1丁目9","lat":35.733438,"lon":139.326899},{"name":"鍋ヶ谷戸児童公園","province":"東京都","city":"福生市","address":"東京都福生市大字熊川","lat":35.724884,"lon":139.337226},{"name":"明神下公園","province":"東京都","city":"福生市","address":"東京都福生市南田園1丁目12","lat":35.724002,"lon":139.330306},{"name":"わらつけ公園","province":"東京都","city":"福生市","address":"東京都福生市大字福生","lat":35.744096,"lon":139.336231},{"name":"熊牛公園","province":"東京都","city":"福生市","address":"東京都福生市大字熊川","lat":35.731818,"lon":139.334997},{"name":"長沢公園","province":"東京都","city":"福生市","address":"東京都福生市大字福生","lat":35.741727,"lon":139.322795},{"name":"鍋二公園","province":"東京都","city":"福生市","address":"東京都福生市大字熊川","lat":35.726374,"lon":139.334646},{"name":"睦公園","province":"東京都","city":"福生市","address":"東京都福生市大字熊川","lat":35.720352,"lon":139.338618},{"name":"武蔵野橋公園","province":"東京都","city":"福生市","address":"東京都福生市大字熊川","lat":35.72205,"lon":139.341404},{"name":"福生駅西口公園","province":"東京都","city":"福生市","address":"東京都福生市大字福生","lat":35.741715,"lon":139.328134},{"name":"東福生駅東口公園","province":"東京都","city":"福生市","address":"東京都福生市大字福生","lat":35.745699,"lon":139.336085},{"name":"フレンドシップパーク","province":"東京都","city":"福生市","address":"東京都福生市大字福生","lat":35.738872,"lon":139.338459},{"name":"牛一公園","province":"東京都","city":"福生市","address":"東京都福生市牛浜","lat":35.734837,"lon":139.331404},{"name":"牛浜駅東口公園","province":"東京都","city":"福生市","address":"東京都福生市牛浜","lat":35.734736,"lon":139.333725},{"name":"ひふみ公園","province":"東京都","city":"福生市","address":"東京都福生市本町","lat":35.739569,"lon":139.329448},{"name":"牛二公園","province":"東京都","city":"福生市","address":"東京都福生市大字福生","lat":35.736717,"lon":139.33902},{"name":"田園広場公園","province":"東京都","city":"福生市","address":"東京都福生市北田園1丁目54","lat":35.732352,"lon":139.323847},{"name":"福東公園","province":"東京都","city":"福生市","address":"東京都福生市大字熊川","lat":35.723006,"lon":139.349594},{"name":"福栄ミレニアムパーク","province":"東京都","city":"福生市","address":"東京都福生市大字熊川","lat":35.730503,"lon":139.341055},{"name":"加美平公園","province":"東京都","city":"福生市","address":"東京都福生市加美平1丁目21","lat":35.751441,"lon":139.327344},{"name":"中福生公園","province":"東京都","city":"福生市","address":"東京都福生市大字福生","lat":35.736927,"lon":139.325874},{"name":"武蔵野台公園","province":"東京都","city":"福生市","address":"東京都福生市武蔵野台1丁目30","lat":35.752193,"lon":139.330826},{"name":"福東トモダチ公園","province":"東京都","city":"福生市","address":"東京都福生市大字熊川","lat":35.725753,"lon":139.351785},{"name":"多摩川緑地福生柳山公園","province":"東京都","city":"福生市","address":"東京都福生市北田園2丁目8","lat":35.73788,"lon":139.319747},{"name":"多摩川緑地福生南公園","province":"東京都","city":"福生市","address":"東京都福生市大字熊川","lat":35.715897,"lon":139.33177},{"name":"多摩川緑地福生かに坂公園","province":"東京都","city":"福生市","address":"東京都福生市大字福生","lat":35.743985,"lon":139.318699},{"name":"みずくらいど公園","province":"東京都","city":"福生市","address":"東京都福生市大字熊川","lat":35.727265,"lon":139.339273},{"name":"玉川上水緑地日光橋公園","province":"東京都","city":"福生市","address":"東京都福生市大字熊川","lat":35.723162,"lon":139.34282},{"name":"下の川緑地せせらぎ遊歩道公園","province":"東京都","city":"福生市","address":"東京都福生市大字熊川","lat":35.721918,"lon":139.333609},{"name":"原ヶ谷戸どんぐり公園","province":"東京都","city":"福生市","address":"東京都福生市大字福生","lat":35.738966,"lon":139.335389},{"name":"熊牛わらつけ児童遊園","province":"東京都","city":"福生市","address":"東京都福生市大字熊川","lat":35.731951,"lon":139.339446},{"name":"多摩川緑地加美上水公園","province":"東京都","city":"福生市","address":"東京都福生市大字福生","lat":35.747119,"lon":139.318412},{"name":"福生駅西口公衆便所","province":"東京都","city":"福生市","address":"東京都福生市大字福生","lat":35.741715,"lon":139.328134},{"name":"牛浜駅東口公衆便所","province":"東京都","city":"福生市","address":"東京都福生市牛浜","lat":35.734736,"lon":139.333725},{"name":"牛浜駅西口公衆便所","province":"東京都","city":"福生市","address":"東京都福生市牛浜","lat":35.734469,"lon":139.333543},{"name":"東福生駅西口公衆便所","province":"東京都","city":"福生市","address":"東京都福生市武蔵野台1丁目1","lat":35.746013,"lon":139.335767},{"name":"福生市福祉センター","province":"東京都","city":"福生市","address":"東京都福生市南田園2丁目13-1","lat":35.727604,"lon":139.332419},{"name":"福生市福祉センター","province":"東京都","city":"福生市","address":"東京都福生市南田園2丁目13-1","lat":35.727599,"lon":139.332379},{"name":"福生市福祉センター","province":"東京都","city":"福生市","address":"東京都福生市南田園2丁目13-1","lat":35.727342,"lon":139.332273},{"name":"福生市福祉センター","province":"東京都","city":"福生市","address":"東京都福生市南田園2丁目13-1","lat":35.72762,"lon":139.332588},{"name":"福生市田園児童館","province":"東京都","city":"福生市","address":"東京都福生市南田園3丁目6-1","lat":35.730084,"lon":139.331068},{"name":"熊川児童館","province":"東京都","city":"福生市","address":"東京都福生市大字熊川","lat":35.730281,"lon":139.341304},{"name":"武蔵野台児童館","province":"東京都","city":"福生市","address":"東京都福生市武蔵野台1丁目12-2","lat":35.746745,"lon":139.333934},{"name":"子ども応援館","province":"東京都","city":"福生市","address":"東京都福生市北田園2丁目5-7","lat":35.734046,"lon":139.322685},{"name":"熊川地域体育館","province":"東京都","city":"福生市","address":"東京都福生市大字熊川380-7","lat":35.720704,"lon":139.337035},{"name":"福生地域体育館","province":"東京都","city":"福生市","address":"東京都福生市武蔵野台1丁目8-7","lat":35.746371,"lon":139.334278},{"name":"福生地域体育館","province":"東京都","city":"福生市","address":"東京都福生市武蔵野台1丁目8-7","lat":35.746198,"lon":139.334275},{"name":"福生野球場","province":"東京都","city":"福生市","address":"東京都福生市大字福生","lat":35.734848,"lon":139.337138},{"name":"市営プール","province":"東京都","city":"福生市","address":"東京都福生市北田園2丁目8-4","lat":35.734245,"lon":139.32163},{"name":"福東第二少年野球場","province":"東京都","city":"福生市","address":"東京都福生市大字熊川","lat":35.724549,"lon":139.350646},{"name":"輝き市民サポートセンター","province":"東京都","city":"福生市","address":"東京都福生市大字福生1014-10","lat":35.742342,"lon":139.327689},{"name":"市営競技場","province":"東京都","city":"福生市","address":"東京都福生市大字福生","lat":35.747622,"lon":139.317685},{"name":"市営競技場","province":"東京都","city":"福生市","address":"東京都福生市大字福生3232","lat":35.747081,"lon":139.31635},{"name":"くるみるふっさ","province":"東京都","city":"福生市","address":"東京都福生市本町23","lat":35.739415,"lon":139.328418},{"name":"＊?福生市茶室「福庵」","province":"東京都","city":"福生市","address":"福生市熊川854-3","lat":35.732557,"lon":139.337557},{"name":"＊?福生市民会館","province":"東京都","city":"福生市","address":"福生市福生2455","lat":35.733906,"lon":139.337829},{"name":"＊?さくら会館","province":"東京都","city":"福生市","address":"福生市牛浜163","lat":35.733793,"lon":139.337233},{"name":"＊?かえで会館","province":"東京都","city":"福生市","address":"福生市加美平1-20-6","lat":35.75041,"lon":139.325447},{"name":"＊?扶桑会館","province":"東京都","city":"福生市","address":"福生市福生1069-1","lat":35.743941,"lon":139.324981},{"name":"福生消防署","province":"東京都","city":"福生市","address":"東京都福生市大字福生1072","lat":35.744017,"lon":139.324547},{"name":"福生駅前公衆便所","province":"東京都","city":"福生市","address":"東京都福生市本町137","lat":35.742376,"lon":139.328144},{"name":"福生市役所本庁舎","province":"東京都","city":"福生市","address":"東京都福生市本町5","lat":35.738431,"lon":139.327049},{"name":"福生市役所本庁舎","province":"東京都","city":"福生市","address":"東京都福生市本町","lat":35.738959,"lon":139.326424},{"name":"福生市役所本庁舎","province":"東京都","city":"福生市","address":"東京都福生市本町5","lat":35.738482,"lon":139.32702},{"name":"福生市役所本庁舎","province":"東京都","city":"福生市","address":"東京都福生市本町5","lat":35.738837,"lon":139.326536},{"name":"福生市役所本庁舎","province":"東京都","city":"福生市","address":"東京都福生市本町5","lat":35.738449,"lon":139.327039},{"name":"福生市もくせい会館","province":"東京都","city":"福生市","address":"東京都福生市本町","lat":35.738964,"lon":139.327268},{"name":"白梅会館","province":"東京都","city":"福生市","address":"東京都福生市大字熊川559-1","lat":35.724161,"lon":139.337642},{"name":"松林会館","province":"東京都","city":"福生市","address":"東京都福生市武蔵野台1丁目15-1","lat":35.746452,"lon":139.332484},{"name":"さくら会館","province":"東京都","city":"福生市","address":"東京都福生市牛浜163","lat":35.733772,"lon":139.337251},{"name":"かえで会館","province":"東京都","city":"福生市","address":"東京都福生市加美平1丁目20-6","lat":35.750408,"lon":139.32541},{"name":"福東会館","province":"東京都","city":"福生市","address":"東京都福生市大字熊川1662-7","lat":35.722486,"lon":139.345902},{"name":"扶桑会館","province":"東京都","city":"福生市","address":"東京都福生市本町","lat":35.740759,"lon":139.326319},{"name":"扶桑会館","province":"東京都","city":"福生市","address":"東京都福生市本町","lat":35.740734,"lon":139.326329},{"name":"福生市保健センター","province":"東京都","city":"福生市","address":"東京都福生市大字福生2125-3","lat":35.744267,"lon":139.334302},{"name":"福生市立中央図書館","province":"東京都","city":"福生市","address":"東京都福生市大字熊川850-1","lat":35.732037,"lon":139.3374},{"name":"福生市わかぎり会館・図書館","province":"東京都","city":"福生市","address":"東京都福生市大字福生1280-1","lat":35.746218,"lon":139.32078},{"name":"福生市立わかたけ会館・図書館","province":"東京都","city":"福生市","address":"東京都福生市大字熊川199-1","lat":35.718175,"lon":139.335083},{"name":"福生市立武蔵野台図書館","province":"東京都","city":"福生市","address":"東京都福生市武蔵野台1丁目12-2","lat":35.746757,"lon":139.333935},{"name":"福生市民会館","province":"東京都","city":"福生市","address":"東京都福生市大字福生2455","lat":35.734178,"lon":139.337832},{"name":"福生市民会館","province":"東京都","city":"福生市","address":"東京都福生市大字福生2455","lat":35.733711,"lon":139.33776},{"name":"福生市民会館","province":"東京都","city":"福生市","address":"東京都福生市大字福生2455","lat":35.733854,"lon":139.337726},{"name":"福生市民会館","province":"東京都","city":"福生市","address":"東京都福生市大字福生2455","lat":35.733963,"lon":139.337918},{"name":"福生市民会館","province":"東京都","city":"福生市","address":"東京都福生市大字福生2455","lat":35.733982,"lon":139.337857},{"name":"茶室福庵","province":"東京都","city":"福生市","address":"東京都福生市大字熊川854-3","lat":35.732597,"lon":139.337537},{"name":"プチギャラリー","province":"東京都","city":"福生市","address":"東京都福生市大字福生1014-10","lat":35.742342,"lon":139.327689},{"name":"熊川公園","province":"東京都","city":"福生市","address":"東京都福生市大字熊川","lat":35.723912,"lon":139.334279},{"name":"もくせい公園","province":"東京都","city":"福生市","address":"東京都福生市大字福生","lat":35.743277,"lon":139.335737},{"name":"加美平北公園","province":"東京都","city":"福生市","address":"東京都福生市加美平2丁目12","lat":35.750081,"lon":139.323358},{"name":"加美平南公園","province":"東京都","city":"福生市","address":"東京都福生市加美平3丁目10","lat":35.746586,"lon":139.324396},{"name":"東町公園","province":"東京都","city":"福生市","address":"東京都福生市東町8","lat":35.743961,"lon":139.326806},{"name":"金堀公園","province":"東京都","city":"福生市","address":"東京都福生市北田園1丁目9","lat":35.733438,"lon":139.326899},{"name":"鍋ヶ谷戸児童公園","province":"東京都","city":"福生市","address":"東京都福生市大字熊川","lat":35.724884,"lon":139.337226},{"name":"明神下公園","province":"東京都","city":"福生市","address":"東京都福生市南田園1丁目12","lat":35.724002,"lon":139.330306},{"name":"わらつけ公園","province":"東京都","city":"福生市","address":"東京都福生市大字福生","lat":35.744096,"lon":139.336231},{"name":"熊牛公園","province":"東京都","city":"福生市","address":"東京都福生市大字熊川","lat":35.731818,"lon":139.334997},{"name":"長沢公園","province":"東京都","city":"福生市","address":"東京都福生市大字福生","lat":35.741727,"lon":139.322795},{"name":"鍋二公園","province":"東京都","city":"福生市","address":"東京都福生市大字熊川","lat":35.726374,"lon":139.334646},{"name":"睦公園","province":"東京都","city":"福生市","address":"東京都福生市大字熊川","lat":35.720352,"lon":139.338618},{"name":"武蔵野橋公園","province":"東京都","city":"福生市","address":"東京都福生市大字熊川","lat":35.72205,"lon":139.341404},{"name":"福生駅西口公園","province":"東京都","city":"福生市","address":"東京都福生市大字福生","lat":35.741715,"lon":139.328134},{"name":"東福生駅東口公園","province":"東京都","city":"福生市","address":"東京都福生市大字福生","lat":35.745699,"lon":139.336085},{"name":"フレンドシップパーク","province":"東京都","city":"福生市","address":"東京都福生市大字福生","lat":35.738872,"lon":139.338459},{"name":"牛一公園","province":"東京都","city":"福生市","address":"東京都福生市牛浜","lat":35.734837,"lon":139.331404},{"name":"牛浜駅東口公園","province":"東京都","city":"福生市","address":"東京都福生市牛浜","lat":35.734736,"lon":139.333725},{"name":"ひふみ公園","province":"東京都","city":"福生市","address":"東京都福生市本町","lat":35.739569,"lon":139.329448},{"name":"牛二公園","province":"東京都","city":"福生市","address":"東京都福生市大字福生","lat":35.736717,"lon":139.33902},{"name":"田園広場公園","province":"東京都","city":"福生市","address":"東京都福生市北田園1丁目54","lat":35.732352,"lon":139.323847},{"name":"福東公園","province":"東京都","city":"福生市","address":"東京都福生市大字熊川","lat":35.723006,"lon":139.349594},{"name":"福栄ミレニアムパーク","province":"東京都","city":"福生市","address":"東京都福生市大字熊川","lat":35.730503,"lon":139.341055},{"name":"加美平公園","province":"東京都","city":"福生市","address":"東京都福生市加美平1丁目21","lat":35.751441,"lon":139.327344},{"name":"中福生公園","province":"東京都","city":"福生市","address":"東京都福生市大字福生","lat":35.736927,"lon":139.325874},{"name":"武蔵野台公園","province":"東京都","city":"福生市","address":"東京都福生市武蔵野台1丁目30","lat":35.752193,"lon":139.330826},{"name":"福東トモダチ公園","province":"東京都","city":"福生市","address":"東京都福生市大字熊川","lat":35.725753,"lon":139.351785},{"name":"多摩川緑地福生柳山公園","province":"東京都","city":"福生市","address":"東京都福生市北田園2丁目8","lat":35.73788,"lon":139.319747},{"name":"多摩川緑地福生南公園","province":"東京都","city":"福生市","address":"東京都福生市大字熊川","lat":35.715897,"lon":139.33177},{"name":"多摩川緑地福生かに坂公園","province":"東京都","city":"福生市","address":"東京都福生市大字福生","lat":35.743985,"lon":139.318699},{"name":"みずくらいど公園","province":"東京都","city":"福生市","address":"東京都福生市大字熊川","lat":35.727265,"lon":139.339273},{"name":"玉川上水緑地日光橋公園","province":"東京都","city":"福生市","address":"東京都福生市大字熊川","lat":35.723162,"lon":139.34282},{"name":"下の川緑地せせらぎ遊歩道公園","province":"東京都","city":"福生市","address":"東京都福生市大字熊川","lat":35.721918,"lon":139.333609},{"name":"原ヶ谷戸どんぐり公園","province":"東京都","city":"福生市","address":"東京都福生市大字福生","lat":35.738966,"lon":139.335389},{"name":"熊牛わらつけ児童遊園","province":"東京都","city":"福生市","address":"東京都福生市大字熊川","lat":35.731951,"lon":139.339446},{"name":"多摩川緑地加美上水公園","province":"東京都","city":"福生市","address":"東京都福生市大字福生","lat":35.747119,"lon":139.318412},{"name":"福生駅西口公衆便所","province":"東京都","city":"福生市","address":"東京都福生市大字福生","lat":35.741715,"lon":139.328134},{"name":"牛浜駅東口公衆便所","province":"東京都","city":"福生市","address":"東京都福生市牛浜","lat":35.734736,"lon":139.333725},{"name":"牛浜駅西口公衆便所","province":"東京都","city":"福生市","address":"東京都福生市牛浜","lat":35.734469,"lon":139.333543},{"name":"東福生駅西口公衆便所","province":"東京都","city":"福生市","address":"東京都福生市武蔵野台1丁目1","lat":35.746013,"lon":139.335767},{"name":"福生市福祉センター","province":"東京都","city":"福生市","address":"東京都福生市南田園2丁目13-1","lat":35.727604,"lon":139.332419},{"name":"福生市福祉センター","province":"東京都","city":"福生市","address":"東京都福生市南田園2丁目13-1","lat":35.727599,"lon":139.332379},{"name":"福生市福祉センター","province":"東京都","city":"福生市","address":"東京都福生市南田園2丁目13-1","lat":35.727342,"lon":139.332273},{"name":"福生市福祉センター","province":"東京都","city":"福生市","address":"東京都福生市南田園2丁目13-1","lat":35.72762,"lon":139.332588},{"name":"福生市田園児童館","province":"東京都","city":"福生市","address":"東京都福生市南田園3丁目6-1","lat":35.730084,"lon":139.331068},{"name":"熊川児童館","province":"東京都","city":"福生市","address":"東京都福生市大字熊川","lat":35.730281,"lon":139.341304},{"name":"武蔵野台児童館","province":"東京都","city":"福生市","address":"東京都福生市武蔵野台1丁目12-2","lat":35.746745,"lon":139.333934},{"name":"子ども応援館","province":"東京都","city":"福生市","address":"東京都福生市北田園2丁目5-7","lat":35.734046,"lon":139.322685},{"name":"熊川地域体育館","province":"東京都","city":"福生市","address":"東京都福生市大字熊川380-7","lat":35.720704,"lon":139.337035},{"name":"福生地域体育館","province":"東京都","city":"福生市","address":"東京都福生市武蔵野台1丁目8-7","lat":35.746371,"lon":139.334278},{"name":"福生地域体育館","province":"東京都","city":"福生市","address":"東京都福生市武蔵野台1丁目8-7","lat":35.746198,"lon":139.334275},{"name":"福生野球場","province":"東京都","city":"福生市","address":"東京都福生市大字福生","lat":35.734848,"lon":139.337138},{"name":"市営プール","province":"東京都","city":"福生市","address":"東京都福生市北田園2丁目8-4","lat":35.734245,"lon":139.32163},{"name":"福東第二少年野球場","province":"東京都","city":"福生市","address":"東京都福生市大字熊川","lat":35.724549,"lon":139.350646},{"name":"輝き市民サポートセンター","province":"東京都","city":"福生市","address":"東京都福生市大字福生1014-10","lat":35.742342,"lon":139.327689},{"name":"市営競技場","province":"東京都","city":"福生市","address":"東京都福生市大字福生","lat":35.747622,"lon":139.317685},{"name":"市営競技場","province":"東京都","city":"福生市","address":"東京都福生市大字福生3232","lat":35.747081,"lon":139.31635},{"name":"くるみるふっさ","province":"東京都","city":"福生市","address":"東京都福生市本町23","lat":35.739415,"lon":139.328418},{"name":"＊?福生市茶室「福庵」","province":"東京都","city":"福生市","address":"福生市熊川854-3","lat":35.732557,"lon":139.337557},{"name":"＊?福生市民会館","province":"東京都","city":"福生市","address":"福生市福生2455","lat":35.733906,"lon":139.337829},{"name":"＊?さくら会館","province":"東京都","city":"福生市","address":"福生市牛浜163","lat":35.733793,"lon":139.337233},{"name":"＊?かえで会館","province":"東京都","city":"福生市","address":"福生市加美平1-20-6","lat":35.75041,"lon":139.325447},{"name":"＊?扶桑会館","province":"東京都","city":"福生市","address":"福生市福生1069-1","lat":35.743941,"lon":139.324981},{"name":"福生消防署","province":"東京都","city":"福生市","address":"東京都福生市大字福生1072","lat":35.744017,"lon":139.324547},{"name":"福生駅前公衆便所","province":"東京都","city":"福生市","address":"東京都福生市本町137","lat":35.742376,"lon":139.328144},{"name":"福生市役所本庁舎","province":"東京都","city":"福生市","address":"東京都福生市本町5","lat":35.738431,"lon":139.327049},{"name":"福生市役所本庁舎","province":"東京都","city":"福生市","address":"東京都福生市本町","lat":35.738959,"lon":139.326424},{"name":"福生市役所本庁舎","province":"東京都","city":"福生市","address":"東京都福生市本町5","lat":35.738482,"lon":139.32702},{"name":"福生市役所本庁舎","province":"東京都","city":"福生市","address":"東京都福生市本町5","lat":35.738837,"lon":139.326536},{"name":"福生市役所本庁舎","province":"東京都","city":"福生市","address":"東京都福生市本町5","lat":35.738449,"lon":139.327039},{"name":"福生市もくせい会館","province":"東京都","city":"福生市","address":"東京都福生市本町","lat":35.738964,"lon":139.327268},{"name":"白梅会館","province":"東京都","city":"福生市","address":"東京都福生市大字熊川559-1","lat":35.724161,"lon":139.337642},{"name":"松林会館","province":"東京都","city":"福生市","address":"東京都福生市武蔵野台1丁目15-1","lat":35.746452,"lon":139.332484},{"name":"さくら会館","province":"東京都","city":"福生市","address":"東京都福生市牛浜163","lat":35.733772,"lon":139.337251},{"name":"かえで会館","province":"東京都","city":"福生市","address":"東京都福生市加美平1丁目20-6","lat":35.750408,"lon":139.32541},{"name":"福東会館","province":"東京都","city":"福生市","address":"東京都福生市大字熊川1662-7","lat":35.722486,"lon":139.345902},{"name":"扶桑会館","province":"東京都","city":"福生市","address":"東京都福生市本町","lat":35.740759,"lon":139.326319},{"name":"扶桑会館","province":"東京都","city":"福生市","address":"東京都福生市本町","lat":35.740734,"lon":139.326329},{"name":"福生市保健センター","province":"東京都","city":"福生市","address":"東京都福生市大字福生2125-3","lat":35.744267,"lon":139.334302},{"name":"福生市立中央図書館","province":"東京都","city":"福生市","address":"東京都福生市大字熊川850-1","lat":35.732037,"lon":139.3374},{"name":"福生市わかぎり会館・図書館","province":"東京都","city":"福生市","address":"東京都福生市大字福生1280-1","lat":35.746218,"lon":139.32078},{"name":"福生市立わかたけ会館・図書館","province":"東京都","city":"福生市","address":"東京都福生市大字熊川199-1","lat":35.718175,"lon":139.335083},{"name":"福生市立武蔵野台図書館","province":"東京都","city":"福生市","address":"東京都福生市武蔵野台1丁目12-2","lat":35.746757,"lon":139.333935},{"name":"福生市民会館","province":"東京都","city":"福生市","address":"東京都福生市大字福生2455","lat":35.734178,"lon":139.337832},{"name":"福生市民会館","province":"東京都","city":"福生市","address":"東京都福生市大字福生2455","lat":35.733711,"lon":139.33776},{"name":"福生市民会館","province":"東京都","city":"福生市","address":"東京都福生市大字福生2455","lat":35.733854,"lon":139.337726},{"name":"福生市民会館","province":"東京都","city":"福生市","address":"東京都福生市大字福生2455","lat":35.733963,"lon":139.337918},{"name":"福生市民会館","province":"東京都","city":"福生市","address":"東京都福生市大字福生2455","lat":35.733982,"lon":139.337857},{"name":"茶室福庵","province":"東京都","city":"福生市","address":"東京都福生市大字熊川854-3","lat":35.732597,"lon":139.337537},{"name":"プチギャラリー","province":"東京都","city":"福生市","address":"東京都福生市大字福生1014-10","lat":35.742342,"lon":139.327689},{"name":"熊川公園","province":"東京都","city":"福生市","address":"東京都福生市大字熊川","lat":35.723912,"lon":139.334279},{"name":"もくせい公園","province":"東京都","city":"福生市","address":"東京都福生市大字福生","lat":35.743277,"lon":139.335737},{"name":"加美平北公園","province":"東京都","city":"福生市","address":"東京都福生市加美平2丁目12","lat":35.750081,"lon":139.323358},{"name":"加美平南公園","province":"東京都","city":"福生市","address":"東京都福生市加美平3丁目10","lat":35.746586,"lon":139.324396},{"name":"東町公園","province":"東京都","city":"福生市","address":"東京都福生市東町8","lat":35.743961,"lon":139.326806},{"name":"金堀公園","province":"東京都","city":"福生市","address":"東京都福生市北田園1丁目9","lat":35.733438,"lon":139.326899},{"name":"鍋ヶ谷戸児童公園","province":"東京都","city":"福生市","address":"東京都福生市大字熊川","lat":35.724884,"lon":139.337226},{"name":"明神下公園","province":"東京都","city":"福生市","address":"東京都福生市南田園1丁目12","lat":35.724002,"lon":139.330306},{"name":"わらつけ公園","province":"東京都","city":"福生市","address":"東京都福生市大字福生","lat":35.744096,"lon":139.336231},{"name":"熊牛公園","province":"東京都","city":"福生市","address":"東京都福生市大字熊川","lat":35.731818,"lon":139.334997},{"name":"長沢公園","province":"東京都","city":"福生市","address":"東京都福生市大字福生","lat":35.741727,"lon":139.322795},{"name":"鍋二公園","province":"東京都","city":"福生市","address":"東京都福生市大字熊川","lat":35.726374,"lon":139.334646},{"name":"睦公園","province":"東京都","city":"福生市","address":"東京都福生市大字熊川","lat":35.720352,"lon":139.338618},{"name":"武蔵野橋公園","province":"東京都","city":"福生市","address":"東京都福生市大字熊川","lat":35.72205,"lon":139.341404},{"name":"福生駅西口公園","province":"東京都","city":"福生市","address":"東京都福生市大字福生","lat":35.741715,"lon":139.328134},{"name":"東福生駅東口公園","province":"東京都","city":"福生市","address":"東京都福生市大字福生","lat":35.745699,"lon":139.336085},{"name":"フレンドシップパーク","province":"東京都","city":"福生市","address":"東京都福生市大字福生","lat":35.738872,"lon":139.338459},{"name":"牛一公園","province":"東京都","city":"福生市","address":"東京都福生市牛浜","lat":35.734837,"lon":139.331404},{"name":"牛浜駅東口公園","province":"東京都","city":"福生市","address":"東京都福生市牛浜","lat":35.734736,"lon":139.333725},{"name":"ひふみ公園","province":"東京都","city":"福生市","address":"東京都福生市本町","lat":35.739569,"lon":139.329448},{"name":"牛二公園","province":"東京都","city":"福生市","address":"東京都福生市大字福生","lat":35.736717,"lon":139.33902},{"name":"田園広場公園","province":"東京都","city":"福生市","address":"東京都福生市北田園1丁目54","lat":35.732352,"lon":139.323847},{"name":"福東公園","province":"東京都","city":"福生市","address":"東京都福生市大字熊川","lat":35.723006,"lon":139.349594},{"name":"福栄ミレニアムパーク","province":"東京都","city":"福生市","address":"東京都福生市大字熊川","lat":35.730503,"lon":139.341055},{"name":"加美平公園","province":"東京都","city":"福生市","address":"東京都福生市加美平1丁目21","lat":35.751441,"lon":139.327344},{"name":"中福生公園","province":"東京都","city":"福生市","address":"東京都福生市大字福生","lat":35.736927,"lon":139.325874},{"name":"武蔵野台公園","province":"東京都","city":"福生市","address":"東京都福生市武蔵野台1丁目30","lat":35.752193,"lon":139.330826},{"name":"福東トモダチ公園","province":"東京都","city":"福生市","address":"東京都福生市大字熊川","lat":35.725753,"lon":139.351785},{"name":"多摩川緑地福生柳山公園","province":"東京都","city":"福生市","address":"東京都福生市北田園2丁目8","lat":35.73788,"lon":139.319747},{"name":"多摩川緑地福生南公園","province":"東京都","city":"福生市","address":"東京都福生市大字熊川","lat":35.715897,"lon":139.33177},{"name":"多摩川緑地福生かに坂公園","province":"東京都","city":"福生市","address":"東京都福生市大字福生","lat":35.743985,"lon":139.318699},{"name":"みずくらいど公園","province":"東京都","city":"福生市","address":"東京都福生市大字熊川","lat":35.727265,"lon":139.339273},{"name":"玉川上水緑地日光橋公園","province":"東京都","city":"福生市","address":"東京都福生市大字熊川","lat":35.723162,"lon":139.34282},{"name":"下の川緑地せせらぎ遊歩道公園","province":"東京都","city":"福生市","address":"東京都福生市大字熊川","lat":35.721918,"lon":139.333609},{"name":"原ヶ谷戸どんぐり公園","province":"東京都","city":"福生市","address":"東京都福生市大字福生","lat":35.738966,"lon":139.335389},{"name":"熊牛わらつけ児童遊園","province":"東京都","city":"福生市","address":"東京都福生市大字熊川","lat":35.731951,"lon":139.339446},{"name":"多摩川緑地加美上水公園","province":"東京都","city":"福生市","address":"東京都福生市大字福生","lat":35.747119,"lon":139.318412},{"name":"福生駅西口公衆便所","province":"東京都","city":"福生市","address":"東京都福生市大字福生","lat":35.741715,"lon":139.328134},{"name":"牛浜駅東口公衆便所","province":"東京都","city":"福生市","address":"東京都福生市牛浜","lat":35.734736,"lon":139.333725},{"name":"牛浜駅西口公衆便所","province":"東京都","city":"福生市","address":"東京都福生市牛浜","lat":35.734469,"lon":139.333543},{"name":"東福生駅西口公衆便所","province":"東京都","city":"福生市","address":"東京都福生市武蔵野台1丁目1","lat":35.746013,"lon":139.335767},{"name":"福生市福祉センター","province":"東京都","city":"福生市","address":"東京都福生市南田園2丁目13-1","lat":35.727604,"lon":139.332419},{"name":"福生市福祉センター","province":"東京都","city":"福生市","address":"東京都福生市南田園2丁目13-1","lat":35.727599,"lon":139.332379},{"name":"福生市福祉センター","province":"東京都","city":"福生市","address":"東京都福生市南田園2丁目13-1","lat":35.727342,"lon":139.332273},{"name":"福生市福祉センター","province":"東京都","city":"福生市","address":"東京都福生市南田園2丁目13-1","lat":35.72762,"lon":139.332588},{"name":"福生市田園児童館","province":"東京都","city":"福生市","address":"東京都福生市南田園3丁目6-1","lat":35.730084,"lon":139.331068},{"name":"熊川児童館","province":"東京都","city":"福生市","address":"東京都福生市大字熊川","lat":35.730281,"lon":139.341304},{"name":"武蔵野台児童館","province":"東京都","city":"福生市","address":"東京都福生市武蔵野台1丁目12-2","lat":35.746745,"lon":139.333934},{"name":"子ども応援館","province":"東京都","city":"福生市","address":"東京都福生市北田園2丁目5-7","lat":35.734046,"lon":139.322685},{"name":"熊川地域体育館","province":"東京都","city":"福生市","address":"東京都福生市大字熊川380-7","lat":35.720704,"lon":139.337035},{"name":"福生地域体育館","province":"東京都","city":"福生市","address":"東京都福生市武蔵野台1丁目8-7","lat":35.746371,"lon":139.334278},{"name":"福生地域体育館","province":"東京都","city":"福生市","address":"東京都福生市武蔵野台1丁目8-7","lat":35.746198,"lon":139.334275},{"name":"福生野球場","province":"東京都","city":"福生市","address":"東京都福生市大字福生","lat":35.734848,"lon":139.337138},{"name":"市営プール","province":"東京都","city":"福生市","address":"東京都福生市北田園2丁目8-4","lat":35.734245,"lon":139.32163},{"name":"福東第二少年野球場","province":"東京都","city":"福生市","address":"東京都福生市大字熊川","lat":35.724549,"lon":139.350646},{"name":"輝き市民サポートセンター","province":"東京都","city":"福生市","address":"東京都福生市大字福生1014-10","lat":35.742342,"lon":139.327689},{"name":"市営競技場","province":"東京都","city":"福生市","address":"東京都福生市大字福生","lat":35.747622,"lon":139.317685},{"name":"市営競技場","province":"東京都","city":"福生市","address":"東京都福生市大字福生3232","lat":35.747081,"lon":139.31635},{"name":"くるみるふっさ","province":"東京都","city":"福生市","address":"東京都福生市本町23","lat":35.739415,"lon":139.328418},{"name":"＊?福生市茶室「福庵」","province":"東京都","city":"福生市","address":"福生市熊川854-3","lat":35.732557,"lon":139.337557},{"name":"＊?福生市民会館","province":"東京都","city":"福生市","address":"福生市福生2455","lat":35.733906,"lon":139.337829},{"name":"＊?さくら会館","province":"東京都","city":"福生市","address":"福生市牛浜163","lat":35.733793,"lon":139.337233},{"name":"＊?かえで会館","province":"東京都","city":"福生市","address":"福生市加美平1-20-6","lat":35.75041,"lon":139.325447},{"name":"＊?扶桑会館","province":"東京都","city":"福生市","address":"福生市福生1069-1","lat":35.743941,"lon":139.324981},{"name":"＊?福生市茶室「福庵」","province":"東京都","city":"福生市","address":"福生市熊川854-3","lat":35.732557,"lon":139.337557},{"name":"＊?福生市民会館","province":"東京都","city":"福生市","address":"福生市福生2455","lat":35.733906,"lon":139.337829},{"name":"＊?さくら会館","province":"東京都","city":"福生市","address":"福生市牛浜163","lat":35.733793,"lon":139.337233},{"name":"＊?かえで会館","province":"東京都","city":"福生市","address":"福生市加美平1-20-6","lat":35.75041,"lon":139.325447},{"name":"＊?扶桑会館","province":"東京都","city":"福生市","address":"福生市福生1069-1","lat":35.743941,"lon":139.324981},{"name":"＊?福生市茶室「福庵」","province":"東京都","city":"福生市","address":"福生市熊川854-3","lat":35.732557,"lon":139.337557},{"name":"＊?福生市民会館","province":"東京都","city":"福生市","address":"福生市福生2455","lat":35.733906,"lon":139.337829},{"name":"＊?さくら会館","province":"東京都","city":"福生市","address":"福生市牛浜163","lat":35.733793,"lon":139.337233},{"name":"＊?かえで会館","province":"東京都","city":"福生市","address":"福生市加美平1-20-6","lat":35.75041,"lon":139.325447},{"name":"＊?扶桑会館","province":"東京都","city":"福生市","address":"福生市福生1069-1","lat":35.743941,"lon":139.324981},{"name":"＊?福生市茶室「福庵」","province":"東京都","city":"福生市","address":"福生市熊川854-3","lat":35.732557,"lon":139.337557},{"name":"＊?福生市民会館","province":"東京都","city":"福生市","address":"福生市福生2455","lat":35.733906,"lon":139.337829},{"name":"＊?さくら会館","province":"東京都","city":"福生市","address":"福生市牛浜163","lat":35.733793,"lon":139.337233},{"name":"＊?かえで会館","province":"東京都","city":"福生市","address":"福生市加美平1-20-6","lat":35.75041,"lon":139.325447},{"name":"＊?扶桑会館","province":"東京都","city":"福生市","address":"福生市福生1069-1","lat":35.743941,"lon":139.324981},{"name":"＊?福生市茶室「福庵」","province":"東京都","city":"福生市","address":"福生市熊川854-3","lat":35.732557,"lon":139.337557},{"name":"＊?福生市民会館","province":"東京都","city":"福生市","address":"福生市福生2455","lat":35.733906,"lon":139.337829},{"name":"＊?さくら会館","province":"東京都","city":"福生市","address":"福生市牛浜163","lat":35.733793,"lon":139.337233},{"name":"＊?かえで会館","province":"東京都","city":"福生市","address":"福生市加美平1-20-6","lat":35.75041,"lon":139.325447},{"name":"＊?扶桑会館","province":"東京都","city":"福生市","address":"福生市福生1069-1","lat":35.743941,"lon":139.324981},{"name":"＊?福生市茶室「福庵」","province":"東京都","city":"福生市","address":"福生市熊川854-3","lat":35.732557,"lon":139.337557},{"name":"＊?福生市民会館","province":"東京都","city":"福生市","address":"福生市福生2455","lat":35.733906,"lon":139.337829},{"name":"＊?さくら会館","province":"東京都","city":"福生市","address":"福生市牛浜163","lat":35.733793,"lon":139.337233},{"name":"＊?かえで会館","province":"東京都","city":"福生市","address":"福生市加美平1-20-6","lat":35.75041,"lon":139.325447},{"name":"＊?扶桑会館","province":"東京都","city":"福生市","address":"福生市福生1069-1","lat":35.743941,"lon":139.324981},{"name":"＊?福生市茶室「福庵」","province":"東京都","city":"福生市","address":"福生市熊川854-3","lat":35.732557,"lon":139.337557},{"name":"＊?福生市民会館","province":"東京都","city":"福生市","address":"福生市福生2455","lat":35.733906,"lon":139.337829},{"name":"＊?さくら会館","province":"東京都","city":"福生市","address":"福生市牛浜163","lat":35.733793,"lon":139.337233},{"name":"＊?かえで会館","province":"東京都","city":"福生市","address":"福生市加美平1-20-6","lat":35.75041,"lon":139.325447},{"name":"＊?扶桑会館","province":"東京都","city":"福生市","address":"福生市福生1069-1","lat":35.743941,"lon":139.324981},{"name":"＊?福生市茶室「福庵」","province":"東京都","city":"福生市","address":"福生市熊川854-3","lat":35.732557,"lon":139.337557},{"name":"＊?福生市民会館","province":"東京都","city":"福生市","address":"福生市福生2455","lat":35.733906,"lon":139.337829},{"name":"＊?さくら会館","province":"東京都","city":"福生市","address":"福生市牛浜163","lat":35.733793,"lon":139.337233},{"name":"＊?かえで会館","province":"東京都","city":"福生市","address":"福生市加美平1-20-6","lat":35.75041,"lon":139.325447},{"name":"＊?扶桑会館","province":"東京都","city":"福生市","address":"福生市福生1069-1","lat":35.743941,"lon":139.324981},{"name":"＊?福生市茶室「福庵」","province":"東京都","city":"福生市","address":"福生市熊川854-3","lat":35.732557,"lon":139.337557},{"name":"＊?福生市民会館","province":"東京都","city":"福生市","address":"福生市福生2455","lat":35.733906,"lon":139.337829},{"name":"＊?さくら会館","province":"東京都","city":"福生市","address":"福生市牛浜163","lat":35.733793,"lon":139.337233},{"name":"＊?かえで会館","province":"東京都","city":"福生市","address":"福生市加美平1-20-6","lat":35.75041,"lon":139.325447},{"name":"＊?扶桑会館","province":"東京都","city":"福生市","address":"福生市福生1069-1","lat":35.743941,"lon":139.324981},{"name":"＊?福生市茶室「福庵」","province":"東京都","city":"福生市","address":"福生市熊川854-3","lat":35.732557,"lon":139.337557},{"name":"＊?福生市民会館","province":"東京都","city":"福生市","address":"福生市福生2455","lat":35.733906,"lon":139.337829},{"name":"＊?さくら会館","province":"東京都","city":"福生市","address":"福生市牛浜163","lat":35.733793,"lon":139.337233},{"name":"＊?かえで会館","province":"東京都","city":"福生市","address":"福生市加美平1-20-6","lat":35.75041,"lon":139.325447},{"name":"＊?扶桑会館","province":"東京都","city":"福生市","address":"福生市福生1069-1","lat":35.743941,"lon":139.324981},{"name":"＊?福生市茶室「福庵」","province":"東京都","city":"福生市","address":"福生市熊川854-3","lat":35.732557,"lon":139.337557},{"name":"＊?福生市民会館","province":"東京都","city":"福生市","address":"福生市福生2455","lat":35.733906,"lon":139.337829},{"name":"＊?さくら会館","province":"東京都","city":"福生市","address":"福生市牛浜163","lat":35.733793,"lon":139.337233},{"name":"＊?かえで会館","province":"東京都","city":"福生市","address":"福生市加美平1-20-6","lat":35.75041,"lon":139.325447},{"name":"＊?扶桑会館","province":"東京都","city":"福生市","address":"福生市福生1069-1","lat":35.743941,"lon":139.324981},{"name":"＊?福生市茶室「福庵」","province":"東京都","city":"福生市","address":"福生市熊川854-3","lat":35.732557,"lon":139.337557},{"name":"＊?福生市民会館","province":"東京都","city":"福生市","address":"福生市福生2455","lat":35.733906,"lon":139.337829},{"name":"＊?さくら会館","province":"東京都","city":"福生市","address":"福生市牛浜163","lat":35.733793,"lon":139.337233},{"name":"＊?かえで会館","province":"東京都","city":"福生市","address":"福生市加美平1-20-6","lat":35.75041,"lon":139.325447},{"name":"＊?扶桑会館","province":"東京都","city":"福生市","address":"福生市福生1069-1","lat":35.743941,"lon":139.324981},{"name":"＊?福生市茶室「福庵」","province":"東京都","city":"福生市","address":"福生市熊川854-3","lat":35.732557,"lon":139.337557},{"name":"＊?福生市民会館","province":"東京都","city":"福生市","address":"福生市福生2455","lat":35.733906,"lon":139.337829},{"name":"＊?さくら会館","province":"東京都","city":"福生市","address":"福生市牛浜163","lat":35.733793,"lon":139.337233},{"name":"＊?かえで会館","province":"東京都","city":"福生市","address":"福生市加美平1-20-6","lat":35.75041,"lon":139.325447},{"name":"＊?扶桑会館","province":"東京都","city":"福生市","address":"福生市福生1069-1","lat":35.743941,"lon":139.324981},{"name":"＊?福生市茶室「福庵」","province":"東京都","city":"福生市","address":"福生市熊川854-3","lat":35.732557,"lon":139.337557},{"name":"＊?福生市民会館","province":"東京都","city":"福生市","address":"福生市福生2455","lat":35.733906,"lon":139.337829},{"name":"＊?さくら会館","province":"東京都","city":"福生市","address":"福生市牛浜163","lat":35.733793,"lon":139.337233},{"name":"＊?かえで会館","province":"東京都","city":"福生市","address":"福生市加美平1-20-6","lat":35.75041,"lon":139.325447},{"name":"＊?扶桑会館","province":"東京都","city":"福生市","address":"福生市福生1069-1","lat":35.743941,"lon":139.324981},{"name":"＊?福生市茶室「福庵」","province":"東京都","city":"福生市","address":"福生市熊川854-3","lat":35.732557,"lon":139.337557},{"name":"＊?福生市民会館","province":"東京都","city":"福生市","address":"福生市福生2455","lat":35.733906,"lon":139.337829},{"name":"＊?さくら会館","province":"東京都","city":"福生市","address":"福生市牛浜163","lat":35.733793,"lon":139.337233},{"name":"＊?かえで会館","province":"東京都","city":"福生市","address":"福生市加美平1-20-6","lat":35.75041,"lon":139.325447},{"name":"＊?扶桑会館","province":"東京都","city":"福生市","address":"福生市福生1069-1","lat":35.743941,"lon":139.324981},{"name":"＊?福生市茶室「福庵」","province":"東京都","city":"福生市","address":"福生市熊川854-3","lat":35.732557,"lon":139.337557},{"name":"＊?福生市民会館","province":"東京都","city":"福生市","address":"福生市福生2455","lat":35.733906,"lon":139.337829},{"name":"＊?さくら会館","province":"東京都","city":"福生市","address":"福生市牛浜163","lat":35.733793,"lon":139.337233},{"name":"＊?かえで会館","province":"東京都","city":"福生市","address":"福生市加美平1-20-6","lat":35.75041,"lon":139.325447},{"name":"＊?扶桑会館","province":"東京都","city":"福生市","address":"福生市福生1069-1","lat":35.743941,"lon":139.324981},{"name":"＊?福生市茶室「福庵」","province":"東京都","city":"福生市","address":"福生市熊川854-3","lat":35.732557,"lon":139.337557},{"name":"＊?福生市民会館","province":"東京都","city":"福生市","address":"福生市福生2455","lat":35.733906,"lon":139.337829},{"name":"＊?さくら会館","province":"東京都","city":"福生市","address":"福生市牛浜163","lat":35.733793,"lon":139.337233},{"name":"＊?かえで会館","province":"東京都","city":"福生市","address":"福生市加美平1-20-6","lat":35.75041,"lon":139.325447},{"name":"＊?扶桑会館","province":"東京都","city":"福生市","address":"福生市福生1069-1","lat":35.743941,"lon":139.324981},{"name":"＊?福生市茶室「福庵」","province":"東京都","city":"福生市","address":"福生市熊川854-3","lat":35.732557,"lon":139.337557},{"name":"＊?福生市民会館","province":"東京都","city":"福生市","address":"福生市福生2455","lat":35.733906,"lon":139.337829},{"name":"＊?さくら会館","province":"東京都","city":"福生市","address":"福生市牛浜163","lat":35.733793,"lon":139.337233},{"name":"＊?かえで会館","province":"東京都","city":"福生市","address":"福生市加美平1-20-6","lat":35.75041,"lon":139.325447},{"name":"＊?扶桑会館","province":"東京都","city":"福生市","address":"福生市福生1069-1","lat":35.743941,"lon":139.324981},{"name":"＊?福生市茶室「福庵」","province":"東京都","city":"福生市","address":"福生市熊川854-3","lat":35.732557,"lon":139.337557},{"name":"＊?福生市民会館","province":"東京都","city":"福生市","address":"福生市福生2455","lat":35.733906,"lon":139.337829},{"name":"＊?さくら会館","province":"東京都","city":"福生市","address":"福生市牛浜163","lat":35.733793,"lon":139.337233},{"name":"＊?かえで会館","province":"東京都","city":"福生市","address":"福生市加美平1-20-6","lat":35.75041,"lon":139.325447},{"name":"＊?扶桑会館","province":"東京都","city":"福生市","address":"福生市福生1069-1","lat":35.743941,"lon":139.324981},{"name":"＊?福生市茶室「福庵」","province":"東京都","city":"福生市","address":"福生市熊川854-3","lat":35.732557,"lon":139.337557},{"name":"＊?福生市民会館","province":"東京都","city":"福生市","address":"福生市福生2455","lat":35.733906,"lon":139.337829},{"name":"＊?さくら会館","province":"東京都","city":"福生市","address":"福生市牛浜163","lat":35.733793,"lon":139.337233},{"name":"＊?かえで会館","province":"東京都","city":"福生市","address":"福生市加美平1-20-6","lat":35.75041,"lon":139.325447},{"name":"＊?扶桑会館","province":"東京都","city":"福生市","address":"福生市福生1069-1","lat":35.743941,"lon":139.324981},{"name":"＊?福生市茶室「福庵」","province":"東京都","city":"福生市","address":"福生市熊川854-3","lat":35.732557,"lon":139.337557},{"name":"＊?福生市民会館","province":"東京都","city":"福生市","address":"福生市福生2455","lat":35.733906,"lon":139.337829},{"name":"＊?さくら会館","province":"東京都","city":"福生市","address":"福生市牛浜163","lat":35.733793,"lon":139.337233},{"name":"＊?かえで会館","province":"東京都","city":"福生市","address":"福生市加美平1-20-6","lat":35.75041,"lon":139.325447},{"name":"＊?扶桑会館","province":"東京都","city":"福生市","address":"福生市福生1069-1","lat":35.743941,"lon":139.324981},{"name":"＊?福生市茶室「福庵」","province":"東京都","city":"福生市","address":"福生市熊川854-3","lat":35.732557,"lon":139.337557},{"name":"＊?福生市民会館","province":"東京都","city":"福生市","address":"福生市福生2455","lat":35.733906,"lon":139.337829},{"name":"＊?さくら会館","province":"東京都","city":"福生市","address":"福生市牛浜163","lat":35.733793,"lon":139.337233},{"name":"＊?かえで会館","province":"東京都","city":"福生市","address":"福生市加美平1-20-6","lat":35.75041,"lon":139.325447},{"name":"＊?扶桑会館","province":"東京都","city":"福生市","address":"福生市福生1069-1","lat":35.743941,"lon":139.324981},{"name":"＊?福生市茶室「福庵」","province":"東京都","city":"福生市","address":"福生市熊川854-3","lat":35.732557,"lon":139.337557},{"name":"＊?福生市民会館","province":"東京都","city":"福生市","address":"福生市福生2455","lat":35.733906,"lon":139.337829},{"name":"＊?さくら会館","province":"東京都","city":"福生市","address":"福生市牛浜163","lat":35.733793,"lon":139.337233},{"name":"＊?かえで会館","province":"東京都","city":"福生市","address":"福生市加美平1-20-6","lat":35.75041,"lon":139.325447},{"name":"＊?扶桑会館","province":"東京都","city":"福生市","address":"福生市福生1069-1","lat":35.743941,"lon":139.324981},{"name":"＊?福生市茶室「福庵」","province":"東京都","city":"福生市","address":"福生市熊川854-3","lat":35.732557,"lon":139.337557},{"name":"＊?福生市民会館","province":"東京都","city":"福生市","address":"福生市福生2455","lat":35.733906,"lon":139.337829},{"name":"＊?さくら会館","province":"東京都","city":"福生市","address":"福生市牛浜163","lat":35.733793,"lon":139.337233},{"name":"＊?かえで会館","province":"東京都","city":"福生市","address":"福生市加美平1-20-6","lat":35.75041,"lon":139.325447},{"name":"＊?扶桑会館","province":"東京都","city":"福生市","address":"福生市福生1069-1","lat":35.743941,"lon":139.324981},{"name":"＊?福生市茶室「福庵」","province":"東京都","city":"福生市","address":"福生市熊川854-3","lat":35.732557,"lon":139.337557},{"name":"＊?福生市民会館","province":"東京都","city":"福生市","address":"福生市福生2455","lat":35.733906,"lon":139.337829},{"name":"＊?さくら会館","province":"東京都","city":"福生市","address":"福生市牛浜163","lat":35.733793,"lon":139.337233},{"name":"＊?かえで会館","province":"東京都","city":"福生市","address":"福生市加美平1-20-6","lat":35.75041,"lon":139.325447},{"name":"＊?扶桑会館","province":"東京都","city":"福生市","address":"福生市福生1069-1","lat":35.743941,"lon":139.324981},{"name":"＊?福生市茶室「福庵」","province":"東京都","city":"福生市","address":"福生市熊川854-3","lat":35.732557,"lon":139.337557},{"name":"＊?福生市民会館","province":"東京都","city":"福生市","address":"福生市福生2455","lat":35.733906,"lon":139.337829},{"name":"＊?さくら会館","province":"東京都","city":"福生市","address":"福生市牛浜163","lat":35.733793,"lon":139.337233},{"name":"＊?かえで会館","province":"東京都","city":"福生市","address":"福生市加美平1-20-6","lat":35.75041,"lon":139.325447},{"name":"＊?扶桑会館","province":"東京都","city":"福生市","address":"福生市福生1069-1","lat":35.743941,"lon":139.324981},{"name":"＊?福生市茶室「福庵」","province":"東京都","city":"福生市","address":"福生市熊川854-3","lat":35.732557,"lon":139.337557},{"name":"＊?福生市民会館","province":"東京都","city":"福生市","address":"福生市福生2455","lat":35.733906,"lon":139.337829},{"name":"＊?さくら会館","province":"東京都","city":"福生市","address":"福生市牛浜163","lat":35.733793,"lon":139.337233},{"name":"＊?かえで会館","province":"東京都","city":"福生市","address":"福生市加美平1-20-6","lat":35.75041,"lon":139.325447},{"name":"＊?扶桑会館","province":"東京都","city":"福生市","address":"福生市福生1069-1","lat":35.743941,"lon":139.324981},{"name":"＊?福生市茶室「福庵」","province":"東京都","city":"福生市","address":"福生市熊川854-3","lat":35.732557,"lon":139.337557},{"name":"＊?福生市民会館","province":"東京都","city":"福生市","address":"福生市福生2455","lat":35.733906,"lon":139.337829},{"name":"＊?さくら会館","province":"東京都","city":"福生市","address":"福生市牛浜163","lat":35.733793,"lon":139.337233},{"name":"＊?かえで会館","province":"東京都","city":"福生市","address":"福生市加美平1-20-6","lat":35.75041,"lon":139.325447},{"name":"＊?扶桑会館","province":"東京都","city":"福生市","address":"福生市福生1069-1","lat":35.743941,"lon":139.324981},{"name":"＊?福生市茶室「福庵」","province":"東京都","city":"福生市","address":"福生市熊川854-3","lat":35.732557,"lon":139.337557},{"name":"＊?福生市民会館","province":"東京都","city":"福生市","address":"福生市福生2455","lat":35.733906,"lon":139.337829},{"name":"＊?さくら会館","province":"東京都","city":"福生市","address":"福生市牛浜163","lat":35.733793,"lon":139.337233},{"name":"＊?かえで会館","province":"東京都","city":"福生市","address":"福生市加美平1-20-6","lat":35.75041,"lon":139.325447},{"name":"＊?扶桑会館","province":"東京都","city":"福生市","address":"福生市福生1069-1","lat":35.743941,"lon":139.324981},{"name":"＊?福生市茶室「福庵」","province":"東京都","city":"福生市","address":"福生市熊川854-3","lat":35.732557,"lon":139.337557},{"name":"＊?福生市民会館","province":"東京都","city":"福生市","address":"福生市福生2455","lat":35.733906,"lon":139.337829},{"name":"＊?さくら会館","province":"東京都","city":"福生市","address":"福生市牛浜163","lat":35.733793,"lon":139.337233},{"name":"＊?かえで会館","province":"東京都","city":"福生市","address":"福生市加美平1-20-6","lat":35.75041,"lon":139.325447},{"name":"＊?扶桑会館","province":"東京都","city":"福生市","address":"福生市福生1069-1","lat":35.743941,"lon":139.324981},{"name":"＊?福生市茶室「福庵」","province":"東京都","city":"福生市","address":"福生市熊川854-3","lat":35.732557,"lon":139.337557},{"name":"＊?福生市民会館","province":"東京都","city":"福生市","address":"福生市福生2455","lat":35.733906,"lon":139.337829},{"name":"＊?さくら会館","province":"東京都","city":"福生市","address":"福生市牛浜163","lat":35.733793,"lon":139.337233},{"name":"＊?かえで会館","province":"東京都","city":"福生市","address":"福生市加美平1-20-6","lat":35.75041,"lon":139.325447},{"name":"＊?扶桑会館","province":"東京都","city":"福生市","address":"福生市福生1069-1","lat":35.743941,"lon":139.324981},{"name":"＊?福生市茶室「福庵」","province":"東京都","city":"福生市","address":"福生市熊川854-3","lat":35.732557,"lon":139.337557},{"name":"＊?福生市民会館","province":"東京都","city":"福生市","address":"福生市福生2455","lat":35.733906,"lon":139.337829},{"name":"＊?さくら会館","province":"東京都","city":"福生市","address":"福生市牛浜163","lat":35.733793,"lon":139.337233},{"name":"＊?かえで会館","province":"東京都","city":"福生市","address":"福生市加美平1-20-6","lat":35.75041,"lon":139.325447},{"name":"＊?扶桑会館","province":"東京都","city":"福生市","address":"福生市福生1069-1","lat":35.743941,"lon":139.324981},{"name":"＊?福生市茶室「福庵」","province":"東京都","city":"福生市","address":"福生市熊川854-3","lat":35.732557,"lon":139.337557},{"name":"＊?福生市民会館","province":"東京都","city":"福生市","address":"福生市福生2455","lat":35.733906,"lon":139.337829},{"name":"＊?さくら会館","province":"東京都","city":"福生市","address":"福生市牛浜163","lat":35.733793,"lon":139.337233},{"name":"＊?かえで会館","province":"東京都","city":"福生市","address":"福生市加美平1-20-6","lat":35.75041,"lon":139.325447},{"name":"＊?扶桑会館","province":"東京都","city":"福生市","address":"福生市福生1069-1","lat":35.743941,"lon":139.324981},{"name":"＊?福生市茶室「福庵」","province":"東京都","city":"福生市","address":"福生市熊川854-3","lat":35.732557,"lon":139.337557},{"name":"＊?福生市民会館","province":"東京都","city":"福生市","address":"福生市福生2455","lat":35.733906,"lon":139.337829},{"name":"＊?さくら会館","province":"東京都","city":"福生市","address":"福生市牛浜163","lat":35.733793,"lon":139.337233},{"name":"＊?かえで会館","province":"東京都","city":"福生市","address":"福生市加美平1-20-6","lat":35.75041,"lon":139.325447},{"name":"＊?扶桑会館","province":"東京都","city":"福生市","address":"福生市福生1069-1","lat":35.743941,"lon":139.324981},{"name":"＊?福生市茶室「福庵」","province":"東京都","city":"福生市","address":"福生市熊川854-3","lat":35.732557,"lon":139.337557},{"name":"＊?福生市民会館","province":"東京都","city":"福生市","address":"福生市福生2455","lat":35.733906,"lon":139.337829},{"name":"＊?さくら会館","province":"東京都","city":"福生市","address":"福生市牛浜163","lat":35.733793,"lon":139.337233},{"name":"＊?かえで会館","province":"東京都","city":"福生市","address":"福生市加美平1-20-6","lat":35.75041,"lon":139.325447},{"name":"＊?扶桑会館","province":"東京都","city":"福生市","address":"福生市福生1069-1","lat":35.743941,"lon":139.324981},{"name":"＊?福生市茶室「福庵」","province":"東京都","city":"福生市","address":"福生市熊川854-3","lat":35.732557,"lon":139.337557},{"name":"＊?福生市民会館","province":"東京都","city":"福生市","address":"福生市福生2455","lat":35.733906,"lon":139.337829},{"name":"＊?さくら会館","province":"東京都","city":"福生市","address":"福生市牛浜163","lat":35.733793,"lon":139.337233},{"name":"＊?かえで会館","province":"東京都","city":"福生市","address":"福生市加美平1-20-6","lat":35.75041,"lon":139.325447},{"name":"＊?扶桑会館","province":"東京都","city":"福生市","address":"福生市福生1069-1","lat":35.743941,"lon":139.324981},{"name":"＊?福生市茶室「福庵」","province":"東京都","city":"福生市","address":"福生市熊川854-3","lat":35.732557,"lon":139.337557},{"name":"＊?福生市民会館","province":"東京都","city":"福生市","address":"福生市福生2455","lat":35.733906,"lon":139.337829},{"name":"＊?さくら会館","province":"東京都","city":"福生市","address":"福生市牛浜163","lat":35.733793,"lon":139.337233},{"name":"＊?かえで会館","province":"東京都","city":"福生市","address":"福生市加美平1-20-6","lat":35.75041,"lon":139.325447},{"name":"＊?扶桑会館","province":"東京都","city":"福生市","address":"福生市福生1069-1","lat":35.743941,"lon":139.324981},{"name":"＊?福生市茶室「福庵」","province":"東京都","city":"福生市","address":"福生市熊川854-3","lat":35.732557,"lon":139.337557},{"name":"＊?福生市民会館","province":"東京都","city":"福生市","address":"福生市福生2455","lat":35.733906,"lon":139.337829},{"name":"＊?さくら会館","province":"東京都","city":"福生市","address":"福生市牛浜163","lat":35.733793,"lon":139.337233},{"name":"＊?かえで会館","province":"東京都","city":"福生市","address":"福生市加美平1-20-6","lat":35.75041,"lon":139.325447},{"name":"＊?扶桑会館","province":"東京都","city":"福生市","address":"福生市福生1069-1","lat":35.743941,"lon":139.324981},{"name":"＊?福生市茶室「福庵」","province":"東京都","city":"福生市","address":"福生市熊川854-3","lat":35.732557,"lon":139.337557},{"name":"＊?福生市民会館","province":"東京都","city":"福生市","address":"福生市福生2455","lat":35.733906,"lon":139.337829},{"name":"＊?さくら会館","province":"東京都","city":"福生市","address":"福生市牛浜163","lat":35.733793,"lon":139.337233},{"name":"＊?かえで会館","province":"東京都","city":"福生市","address":"福生市加美平1-20-6","lat":35.75041,"lon":139.325447},{"name":"＊?扶桑会館","province":"東京都","city":"福生市","address":"福生市福生1069-1","lat":35.743941,"lon":139.324981},{"name":"＊?福生市茶室「福庵」","province":"東京都","city":"福生市","address":"福生市熊川854-3","lat":35.732557,"lon":139.337557},{"name":"＊?福生市民会館","province":"東京都","city":"福生市","address":"福生市福生2455","lat":35.733906,"lon":139.337829},{"name":"＊?さくら会館","province":"東京都","city":"福生市","address":"福生市牛浜163","lat":35.733793,"lon":139.337233},{"name":"＊?かえで会館","province":"東京都","city":"福生市","address":"福生市加美平1-20-6","lat":35.75041,"lon":139.325447},{"name":"＊?扶桑会館","province":"東京都","city":"福生市","address":"福生市福生1069-1","lat":35.743941,"lon":139.324981},{"name":"＊?福生市茶室「福庵」","province":"東京都","city":"福生市","address":"福生市熊川854-3","lat":35.732557,"lon":139.337557},{"name":"＊?福生市民会館","province":"東京都","city":"福生市","address":"福生市福生2455","lat":35.733906,"lon":139.337829},{"name":"＊?さくら会館","province":"東京都","city":"福生市","address":"福生市牛浜163","lat":35.733793,"lon":139.337233},{"name":"＊?かえで会館","province":"東京都","city":"福生市","address":"福生市加美平1-20-6","lat":35.75041,"lon":139.325447},{"name":"＊?扶桑会館","province":"東京都","city":"福生市","address":"福生市福生1069-1","lat":35.743941,"lon":139.324981},{"name":"＊?福生市茶室「福庵」","province":"東京都","city":"福生市","address":"福生市熊川854-3","lat":35.732557,"lon":139.337557},{"name":"＊?福生市民会館","province":"東京都","city":"福生市","address":"福生市福生2455","lat":35.733906,"lon":139.337829},{"name":"＊?さくら会館","province":"東京都","city":"福生市","address":"福生市牛浜163","lat":35.733793,"lon":139.337233},{"name":"＊?かえで会館","province":"東京都","city":"福生市","address":"福生市加美平1-20-6","lat":35.75041,"lon":139.325447},{"name":"＊?扶桑会館","province":"東京都","city":"福生市","address":"福生市福生1069-1","lat":35.743941,"lon":139.324981},{"name":"＊?福生市茶室「福庵」","province":"東京都","city":"福生市","address":"福生市熊川854-3","lat":35.732557,"lon":139.337557},{"name":"＊?福生市民会館","province":"東京都","city":"福生市","address":"福生市福生2455","lat":35.733906,"lon":139.337829},{"name":"＊?さくら会館","province":"東京都","city":"福生市","address":"福生市牛浜163","lat":35.733793,"lon":139.337233},{"name":"＊?かえで会館","province":"東京都","city":"福生市","address":"福生市加美平1-20-6","lat":35.75041,"lon":139.325447},{"name":"＊?扶桑会館","province":"東京都","city":"福生市","address":"福生市福生1069-1","lat":35.743941,"lon":139.324981},{"name":"＊?福生市茶室「福庵」","province":"東京都","city":"福生市","address":"福生市熊川854-3","lat":35.732557,"lon":139.337557},{"name":"＊?福生市民会館","province":"東京都","city":"福生市","address":"福生市福生2455","lat":35.733906,"lon":139.337829},{"name":"＊?さくら会館","province":"東京都","city":"福生市","address":"福生市牛浜163","lat":35.733793,"lon":139.337233},{"name":"＊?かえで会館","province":"東京都","city":"福生市","address":"福生市加美平1-20-6","lat":35.75041,"lon":139.325447},{"name":"＊?扶桑会館","province":"東京都","city":"福生市","address":"福生市福生1069-1","lat":35.743941,"lon":139.324981},{"name":"＊?福生市茶室「福庵」","province":"東京都","city":"福生市","address":"福生市熊川854-3","lat":35.732557,"lon":139.337557},{"name":"＊?福生市民会館","province":"東京都","city":"福生市","address":"福生市福生2455","lat":35.733906,"lon":139.337829},{"name":"＊?さくら会館","province":"東京都","city":"福生市","address":"福生市牛浜163","lat":35.733793,"lon":139.337233},{"name":"＊?かえで会館","province":"東京都","city":"福生市","address":"福生市加美平1-20-6","lat":35.75041,"lon":139.325447},{"name":"＊?扶桑会館","province":"東京都","city":"福生市","address":"福生市福生1069-1","lat":35.743941,"lon":139.324981},{"name":"＊?福生市茶室「福庵」","province":"東京都","city":"福生市","address":"福生市熊川854-3","lat":35.732557,"lon":139.337557},{"name":"＊?福生市民会館","province":"東京都","city":"福生市","address":"福生市福生2455","lat":35.733906,"lon":139.337829},{"name":"＊?さくら会館","province":"東京都","city":"福生市","address":"福生市牛浜163","lat":35.733793,"lon":139.337233},{"name":"＊?かえで会館","province":"東京都","city":"福生市","address":"福生市加美平1-20-6","lat":35.75041,"lon":139.325447},{"name":"＊?扶桑会館","province":"東京都","city":"福生市","address":"福生市福生1069-1","lat":35.743941,"lon":139.324981},{"name":"＊?福生市茶室「福庵」","province":"東京都","city":"福生市","address":"福生市熊川854-3","lat":35.732557,"lon":139.337557},{"name":"＊?福生市民会館","province":"東京都","city":"福生市","address":"福生市福生2455","lat":35.733906,"lon":139.337829},{"name":"＊?さくら会館","province":"東京都","city":"福生市","address":"福生市牛浜163","lat":35.733793,"lon":139.337233},{"name":"＊?かえで会館","province":"東京都","city":"福生市","address":"福生市加美平1-20-6","lat":35.75041,"lon":139.325447},{"name":"＊?扶桑会館","province":"東京都","city":"福生市","address":"福生市福生1069-1","lat":35.743941,"lon":139.324981},{"name":"＊?福生市茶室「福庵」","province":"東京都","city":"福生市","address":"福生市熊川854-3","lat":35.732557,"lon":139.337557},{"name":"＊?福生市民会館","province":"東京都","city":"福生市","address":"福生市福生2455","lat":35.733906,"lon":139.337829},{"name":"＊?さくら会館","province":"東京都","city":"福生市","address":"福生市牛浜163","lat":35.733793,"lon":139.337233},{"name":"＊?かえで会館","province":"東京都","city":"福生市","address":"福生市加美平1-20-6","lat":35.75041,"lon":139.325447},{"name":"＊?扶桑会館","province":"東京都","city":"福生市","address":"福生市福生1069-1","lat":35.743941,"lon":139.324981}]}