{"keyword":"戸数","data":[{"name":"福生市社会福祉協議会","province":"東京都","city":"福生市","address":"福生市南田園2-13-1福生市福祉センター内","lat":35.727485,"lon":139.332271},{"name":"福生市","province":"東京都","city":"福生市","address":"福生市本町5","lat":35.7384839,"lon":139.3268683},{"name":"株式会社セレサポート","province":"東京都","city":"福生市","address":"東京都福生市武蔵野台2丁目25-5","lat":35.74972941,"lon":139.32824293},{"name":"株式会社 多摩祭典","province":"東京都","city":"福生市","address":"東京都福生市福生（大字）2350","lat":35.73898372,"lon":139.33776209},{"name":"株式会社 セレサポート","province":"東京都","city":"福生市","address":"東京都福生市武蔵野台2丁目25-5","lat":35.74972941,"lon":139.32824293},{"name":"愛和セレモニー","province":"東京都","city":"福生市","address":"東京都福生市熊川（大字）888","lat":35.72984032,"lon":139.33577366},{"name":"有限会社島田屋","province":"東京都","city":"福生市","address":"東京都福生市本町134","lat":35.7410471,"lon":139.32819327},{"name":"株式会社セレモア","province":"東京都","city":"福生市","address":"東京都福生市熊川（大字）1311","lat":35.72801848,"lon":139.34267597},{"name":"セレモニーホール福生","province":"東京都","city":"福生市","address":"東京都福生市加美平1丁目19-5","lat":35.74983486,"lon":139.32494595},{"name":"ファミリアホール創友社","province":"東京都","city":"福生市","address":"東京都福生市福生（大字）1983-40","lat":35.74859646,"lon":139.33708673},{"name":"株式会社多摩祭典","province":"東京都","city":"福生市","address":"東京都福生市福生（大字）2350","lat":35.73898372,"lon":139.33776209},{"name":"JAにしたま葬祭センター","province":"東京都","city":"福生市","address":"東京都福生市本町16","lat":35.73854461,"lon":139.32766007},{"name":"そうしんフレールホール福生","province":"東京都","city":"福生市","address":"東京都福生市南田園2丁目15-3","lat":35.72696557,"lon":139.33109909},{"name":"葬儀・終活相談センターフィーネ","province":"東京都","city":"福生市","address":"東京都福生市加美平2丁目3-2","lat":35.74649082,"lon":139.32587934},{"name":"福生市社会福祉協議会","province":"東京都","city":"福生市","address":"福生市南田園2-13-1福生市福祉センター内","lat":35.72799,"lon":139.33234},{"name":"福生市地域包括支援センター福生","province":"東京都","city":"福生市","address":"福生市本町5番地","lat":35.738701,"lon":139.326782},{"name":"福生市地域包括支援センター熊川","province":"東京都","city":"福生市","address":"福生市南田園2-13-1","lat":35.727993,"lon":139.332336},{"name":"在宅介護支援センター武蔵野","province":"東京都","city":"福生市","address":"福生市福生2300-4","lat":35.740284,"lon":139.337677},{"name":"在宅介護支援センター加美","province":"東京都","city":"福生市","address":"福生市福生3244-10","lat":35.74612,"lon":139.317993},{"name":"在宅介護支援センター南田園","province":"東京都","city":"福生市","address":"福生市南田園2-9-1-103","lat":35.720776,"lon":139.330933},{"name":"福生市消費者相談室","province":"東京都","city":"福生市","address":"福生市本町18","lat":35.739086,"lon":139.327423},{"name":"公立福生病院","province":"東京都","city":"福生市","address":"東京都福生市加美平1丁目6-1","lat":35.74701301,"lon":139.3266987},{"name":"福生武蔵野台浄水所","province":"東京都","city":"福生市","address":"東京都福生市武蔵野台2丁目32","lat":35.75162088,"lon":139.329215},{"name":"福生市立多摩川緑地福生南公園","province":"東京都","city":"福生市","address":"東京都福生市南田園1丁目1-1","lat":35.71975535,"lon":139.33089655},{"name":"加美平野球場","province":"東京都","city":"福生市","address":"東京都福生市加美平1丁目21","lat":35.75075425,"lon":139.3271652},{"name":"福生市選挙管理委員会","province":"東京都","city":"福生市","address":"福生市本町5","lat":35.738654,"lon":139.326776},{"name":"福生高等学校","province":"東京都","city":"福生市","address":"東京都福生市北田園2丁目11-3","lat":35.73671136,"lon":139.32214663},{"name":"多摩工業高等学校","province":"東京都","city":"福生市","address":"東京都福生市熊川（大字）215","lat":35.71601153,"lon":139.33874607},{"name":"福生市社会福祉協議会","province":"東京都","city":"福生市","address":"福生市南田園2-13-1福生市福祉センター内","lat":35.727485,"lon":139.332271},{"name":"福生市社会福祉協議会","province":"東京都","city":"福生市","address":"福生市南田園2-13-1福生市福祉センター内","lat":35.72799,"lon":139.33234},{"name":"福生市地域包括支援センター福生","province":"東京都","city":"福生市","address":"福生市本町5番地","lat":35.738701,"lon":139.326782},{"name":"福生市地域包括支援センター熊川","province":"東京都","city":"福生市","address":"福生市南田園2-13-1","lat":35.727993,"lon":139.332336},{"name":"在宅介護支援センター武蔵野","province":"東京都","city":"福生市","address":"福生市福生2300-4","lat":35.740284,"lon":139.337677},{"name":"在宅介護支援センター加美","province":"東京都","city":"福生市","address":"福生市福生3244-10","lat":35.74612,"lon":139.317993},{"name":"在宅介護支援センター南田園","province":"東京都","city":"福生市","address":"福生市南田園2-9-1-103","lat":35.720776,"lon":139.330933},{"name":"福生市消費者相談室","province":"東京都","city":"福生市","address":"福生市本町18","lat":35.739086,"lon":139.327423},{"name":"公立福生病院","province":"東京都","city":"福生市","address":"東京都福生市加美平1丁目6-1","lat":35.74701301,"lon":139.3266987},{"name":"福生武蔵野台浄水所","province":"東京都","city":"福生市","address":"東京都福生市武蔵野台2丁目32","lat":35.75162088,"lon":139.329215},{"name":"福生市立多摩川緑地福生南公園","province":"東京都","city":"福生市","address":"東京都福生市南田園1丁目1-1","lat":35.71975535,"lon":139.33089655},{"name":"加美平野球場","province":"東京都","city":"福生市","address":"東京都福生市加美平1丁目21","lat":35.75075425,"lon":139.3271652},{"name":"福生高等学校","province":"東京都","city":"福生市","address":"東京都福生市北田園2丁目11-3","lat":35.73671136,"lon":139.32214663},{"name":"多摩工業高等学校","province":"東京都","city":"福生市","address":"東京都福生市熊川（大字）215","lat":35.71601153,"lon":139.33874607},{"name":"福生市地域包括支援センター福生","province":"東京都","city":"福生市","address":"福生市本町5番地","lat":35.738701,"lon":139.326782},{"name":"福生市地域包括支援センター熊川","province":"東京都","city":"福生市","address":"福生市南田園2-13-1","lat":35.727993,"lon":139.332336},{"name":"在宅介護支援センター武蔵野","province":"東京都","city":"福生市","address":"福生市福生2300-4","lat":35.740284,"lon":139.337677},{"name":"在宅介護支援センター加美","province":"東京都","city":"福生市","address":"福生市福生3244-10","lat":35.74612,"lon":139.317993},{"name":"在宅介護支援センター南田園","province":"東京都","city":"福生市","address":"福生市南田園2-9-1-103","lat":35.720776,"lon":139.330933},{"name":"福生市消費者相談室","province":"東京都","city":"福生市","address":"福生市本町18","lat":35.739086,"lon":139.327423},{"name":"公立福生病院","province":"東京都","city":"福生市","address":"東京都福生市加美平1丁目6-1","lat":35.74701301,"lon":139.3266987},{"name":"福生高等学校","province":"東京都","city":"福生市","address":"東京都福生市北田園2丁目11-3","lat":35.73671136,"lon":139.32214663},{"name":"多摩工業高等学校","province":"東京都","city":"福生市","address":"東京都福生市熊川（大字）215","lat":35.71601153,"lon":139.33874607},{"name":"福生市地域包括支援センター福生","province":"東京都","city":"福生市","address":"福生市本町5番地","lat":35.738701,"lon":139.326782},{"name":"福生市地域包括支援センター熊川","province":"東京都","city":"福生市","address":"福生市南田園2-13-1","lat":35.727993,"lon":139.332336},{"name":"在宅介護支援センター武蔵野","province":"東京都","city":"福生市","address":"福生市福生2300-4","lat":35.740284,"lon":139.337677},{"name":"在宅介護支援センター加美","province":"東京都","city":"福生市","address":"福生市福生3244-10","lat":35.74612,"lon":139.317993},{"name":"在宅介護支援センター南田園","province":"東京都","city":"福生市","address":"福生市南田園2-9-1-103","lat":35.720776,"lon":139.330933},{"name":"福生市消費者相談室","province":"東京都","city":"福生市","address":"福生市本町18","lat":35.739086,"lon":139.327423},{"name":"公立福生病院","province":"東京都","city":"福生市","address":"東京都福生市加美平1丁目6-1","lat":35.74701301,"lon":139.3266987},{"name":"福生高等学校","province":"東京都","city":"福生市","address":"東京都福生市北田園2丁目11-3","lat":35.73671136,"lon":139.32214663},{"name":"多摩工業高等学校","province":"東京都","city":"福生市","address":"東京都福生市熊川（大字）215","lat":35.71601153,"lon":139.33874607},{"name":"福生市地域包括支援センター福生","province":"東京都","city":"福生市","address":"福生市本町5番地","lat":35.738701,"lon":139.326782},{"name":"福生市地域包括支援センター熊川","province":"東京都","city":"福生市","address":"福生市南田園2-13-1","lat":35.727993,"lon":139.332336},{"name":"在宅介護支援センター武蔵野","province":"東京都","city":"福生市","address":"福生市福生2300-4","lat":35.740284,"lon":139.337677},{"name":"在宅介護支援センター加美","province":"東京都","city":"福生市","address":"福生市福生3244-10","lat":35.74612,"lon":139.317993},{"name":"在宅介護支援センター南田園","province":"東京都","city":"福生市","address":"福生市南田園2-9-1-103","lat":35.720776,"lon":139.330933},{"name":"福生市消費者相談室","province":"東京都","city":"福生市","address":"福生市本町18","lat":35.739086,"lon":139.327423},{"name":"福生市地域包括支援センター福生","province":"東京都","city":"福生市","address":"福生市本町5番地","lat":35.738701,"lon":139.326782},{"name":"福生市地域包括支援センター熊川","province":"東京都","city":"福生市","address":"福生市南田園2-13-1","lat":35.727993,"lon":139.332336},{"name":"在宅介護支援センター武蔵野","province":"東京都","city":"福生市","address":"福生市福生2300-4","lat":35.740284,"lon":139.337677},{"name":"在宅介護支援センター加美","province":"東京都","city":"福生市","address":"福生市福生3244-10","lat":35.74612,"lon":139.317993},{"name":"在宅介護支援センター南田園","province":"東京都","city":"福生市","address":"福生市南田園2-9-1-103","lat":35.720776,"lon":139.330933},{"name":"福生市消費者相談室","province":"東京都","city":"福生市","address":"福生市本町18","lat":35.739086,"lon":139.327423},{"name":"福生市地域包括支援センター福生","province":"東京都","city":"福生市","address":"福生市本町5番地","lat":35.738701,"lon":139.326782},{"name":"福生市地域包括支援センター熊川","province":"東京都","city":"福生市","address":"福生市南田園2-13-1","lat":35.727993,"lon":139.332336},{"name":"在宅介護支援センター武蔵野","province":"東京都","city":"福生市","address":"福生市福生2300-4","lat":35.740284,"lon":139.337677},{"name":"在宅介護支援センター加美","province":"東京都","city":"福生市","address":"福生市福生3244-10","lat":35.74612,"lon":139.317993},{"name":"在宅介護支援センター南田園","province":"東京都","city":"福生市","address":"福生市南田園2-9-1-103","lat":35.720776,"lon":139.330933},{"name":"福生市消費者相談室","province":"東京都","city":"福生市","address":"福生市本町18","lat":35.739086,"lon":139.327423},{"name":"福生市地域包括支援センター福生","province":"東京都","city":"福生市","address":"福生市本町5番地","lat":35.738701,"lon":139.326782},{"name":"福生市地域包括支援センター熊川","province":"東京都","city":"福生市","address":"福生市南田園2-13-1","lat":35.727993,"lon":139.332336},{"name":"在宅介護支援センター武蔵野","province":"東京都","city":"福生市","address":"福生市福生2300-4","lat":35.740284,"lon":139.337677},{"name":"在宅介護支援センター加美","province":"東京都","city":"福生市","address":"福生市福生3244-10","lat":35.74612,"lon":139.317993},{"name":"在宅介護支援センター南田園","province":"東京都","city":"福生市","address":"福生市南田園2-9-1-103","lat":35.720776,"lon":139.330933},{"name":"福生市消費者相談室","province":"東京都","city":"福生市","address":"福生市本町18","lat":35.739086,"lon":139.327423},{"name":"福生市地域包括支援センター福生","province":"東京都","city":"福生市","address":"福生市本町5番地","lat":35.738701,"lon":139.326782},{"name":"福生市地域包括支援センター熊川","province":"東京都","city":"福生市","address":"福生市南田園2-13-1","lat":35.727993,"lon":139.332336},{"name":"在宅介護支援センター武蔵野","province":"東京都","city":"福生市","address":"福生市福生2300-4","lat":35.740284,"lon":139.337677},{"name":"在宅介護支援センター加美","province":"東京都","city":"福生市","address":"福生市福生3244-10","lat":35.74612,"lon":139.317993},{"name":"在宅介護支援センター南田園","province":"東京都","city":"福生市","address":"福生市南田園2-9-1-103","lat":35.720776,"lon":139.330933},{"name":"福生市消費者相談室","province":"東京都","city":"福生市","address":"福生市本町18","lat":35.739086,"lon":139.327423},{"name":"福生市地域包括支援センター福生","province":"東京都","city":"福生市","address":"福生市本町5番地","lat":35.738701,"lon":139.326782},{"name":"福生市地域包括支援センター熊川","province":"東京都","city":"福生市","address":"福生市南田園2-13-1","lat":35.727993,"lon":139.332336},{"name":"在宅介護支援センター武蔵野","province":"東京都","city":"福生市","address":"福生市福生2300-4","lat":35.740284,"lon":139.337677},{"name":"在宅介護支援センター加美","province":"東京都","city":"福生市","address":"福生市福生3244-10","lat":35.74612,"lon":139.317993},{"name":"在宅介護支援センター南田園","province":"東京都","city":"福生市","address":"福生市南田園2-9-1-103","lat":35.720776,"lon":139.330933},{"name":"福生市消費者相談室","province":"東京都","city":"福生市","address":"福生市本町18","lat":35.739086,"lon":139.327423},{"name":"福生市地域包括支援センター福生","province":"東京都","city":"福生市","address":"福生市本町5番地","lat":35.738701,"lon":139.326782},{"name":"福生市地域包括支援センター熊川","province":"東京都","city":"福生市","address":"福生市南田園2-13-1","lat":35.727993,"lon":139.332336},{"name":"在宅介護支援センター武蔵野","province":"東京都","city":"福生市","address":"福生市福生2300-4","lat":35.740284,"lon":139.337677},{"name":"在宅介護支援センター加美","province":"東京都","city":"福生市","address":"福生市福生3244-10","lat":35.74612,"lon":139.317993},{"name":"在宅介護支援センター南田園","province":"東京都","city":"福生市","address":"福生市南田園2-9-1-103","lat":35.720776,"lon":139.330933},{"name":"福生市消費者相談室","province":"東京都","city":"福生市","address":"福生市本町18","lat":35.739086,"lon":139.327423},{"name":"福生市地域包括支援センター福生","province":"東京都","city":"福生市","address":"福生市本町5番地","lat":35.738701,"lon":139.326782},{"name":"福生市地域包括支援センター熊川","province":"東京都","city":"福生市","address":"福生市南田園2-13-1","lat":35.727993,"lon":139.332336},{"name":"在宅介護支援センター武蔵野","province":"東京都","city":"福生市","address":"福生市福生2300-4","lat":35.740284,"lon":139.337677},{"name":"在宅介護支援センター加美","province":"東京都","city":"福生市","address":"福生市福生3244-10","lat":35.74612,"lon":139.317993},{"name":"在宅介護支援センター南田園","province":"東京都","city":"福生市","address":"福生市南田園2-9-1-103","lat":35.720776,"lon":139.330933},{"name":"福生市消費者相談室","province":"東京都","city":"福生市","address":"福生市本町18","lat":35.739086,"lon":139.327423},{"name":"福生市地域包括支援センター福生","province":"東京都","city":"福生市","address":"福生市本町5番地","lat":35.738701,"lon":139.326782},{"name":"福生市地域包括支援センター熊川","province":"東京都","city":"福生市","address":"福生市南田園2-13-1","lat":35.727993,"lon":139.332336},{"name":"在宅介護支援センター武蔵野","province":"東京都","city":"福生市","address":"福生市福生2300-4","lat":35.740284,"lon":139.337677},{"name":"在宅介護支援センター加美","province":"東京都","city":"福生市","address":"福生市福生3244-10","lat":35.74612,"lon":139.317993},{"name":"在宅介護支援センター南田園","province":"東京都","city":"福生市","address":"福生市南田園2-9-1-103","lat":35.720776,"lon":139.330933},{"name":"福生市消費者相談室","province":"東京都","city":"福生市","address":"福生市本町18","lat":35.739086,"lon":139.327423},{"name":"福生市地域包括支援センター福生","province":"東京都","city":"福生市","address":"福生市本町5番地","lat":35.738701,"lon":139.326782},{"name":"福生市地域包括支援センター熊川","province":"東京都","city":"福生市","address":"福生市南田園2-13-1","lat":35.727993,"lon":139.332336},{"name":"在宅介護支援センター武蔵野","province":"東京都","city":"福生市","address":"福生市福生2300-4","lat":35.740284,"lon":139.337677},{"name":"在宅介護支援センター加美","province":"東京都","city":"福生市","address":"福生市福生3244-10","lat":35.74612,"lon":139.317993},{"name":"在宅介護支援センター南田園","province":"東京都","city":"福生市","address":"福生市南田園2-9-1-103","lat":35.720776,"lon":139.330933},{"name":"福生市消費者相談室","province":"東京都","city":"福生市","address":"福生市本町18","lat":35.739086,"lon":139.327423},{"name":"福生市地域包括支援センター福生","province":"東京都","city":"福生市","address":"福生市本町5番地","lat":35.738701,"lon":139.326782},{"name":"福生市地域包括支援センター熊川","province":"東京都","city":"福生市","address":"福生市南田園2-13-1","lat":35.727993,"lon":139.332336},{"name":"在宅介護支援センター武蔵野","province":"東京都","city":"福生市","address":"福生市福生2300-4","lat":35.740284,"lon":139.337677},{"name":"在宅介護支援センター加美","province":"東京都","city":"福生市","address":"福生市福生3244-10","lat":35.74612,"lon":139.317993},{"name":"在宅介護支援センター南田園","province":"東京都","city":"福生市","address":"福生市南田園2-9-1-103","lat":35.720776,"lon":139.330933},{"name":"福生市消費者相談室","province":"東京都","city":"福生市","address":"福生市本町18","lat":35.739086,"lon":139.327423},{"name":"福生市地域包括支援センター福生","province":"東京都","city":"福生市","address":"福生市本町5番地","lat":35.738701,"lon":139.326782},{"name":"福生市地域包括支援センター熊川","province":"東京都","city":"福生市","address":"福生市南田園2-13-1","lat":35.727993,"lon":139.332336},{"name":"在宅介護支援センター武蔵野","province":"東京都","city":"福生市","address":"福生市福生2300-4","lat":35.740284,"lon":139.337677},{"name":"在宅介護支援センター加美","province":"東京都","city":"福生市","address":"福生市福生3244-10","lat":35.74612,"lon":139.317993},{"name":"在宅介護支援センター南田園","province":"東京都","city":"福生市","address":"福生市南田園2-9-1-103","lat":35.720776,"lon":139.330933},{"name":"福生市消費者相談室","province":"東京都","city":"福生市","address":"福生市本町18","lat":35.739086,"lon":139.327423},{"name":"福生市地域包括支援センター福生","province":"東京都","city":"福生市","address":"福生市本町5番地","lat":35.738701,"lon":139.326782},{"name":"福生市地域包括支援センター熊川","province":"東京都","city":"福生市","address":"福生市南田園2-13-1","lat":35.727993,"lon":139.332336},{"name":"在宅介護支援センター武蔵野","province":"東京都","city":"福生市","address":"福生市福生2300-4","lat":35.740284,"lon":139.337677},{"name":"在宅介護支援センター加美","province":"東京都","city":"福生市","address":"福生市福生3244-10","lat":35.74612,"lon":139.317993},{"name":"在宅介護支援センター南田園","province":"東京都","city":"福生市","address":"福生市南田園2-9-1-103","lat":35.720776,"lon":139.330933},{"name":"福生市消費者相談室","province":"東京都","city":"福生市","address":"福生市本町18","lat":35.739086,"lon":139.327423},{"name":"福生市地域包括支援センター福生","province":"東京都","city":"福生市","address":"福生市本町5番地","lat":35.738701,"lon":139.326782},{"name":"福生市地域包括支援センター熊川","province":"東京都","city":"福生市","address":"福生市南田園2-13-1","lat":35.727993,"lon":139.332336},{"name":"在宅介護支援センター武蔵野","province":"東京都","city":"福生市","address":"福生市福生2300-4","lat":35.740284,"lon":139.337677},{"name":"在宅介護支援センター加美","province":"東京都","city":"福生市","address":"福生市福生3244-10","lat":35.74612,"lon":139.317993},{"name":"在宅介護支援センター南田園","province":"東京都","city":"福生市","address":"福生市南田園2-9-1-103","lat":35.720776,"lon":139.330933},{"name":"福生市消費者相談室","province":"東京都","city":"福生市","address":"福生市本町18","lat":35.739086,"lon":139.327423},{"name":"福生市地域包括支援センター福生","province":"東京都","city":"福生市","address":"福生市本町5番地","lat":35.738701,"lon":139.326782},{"name":"福生市地域包括支援センター熊川","province":"東京都","city":"福生市","address":"福生市南田園2-13-1","lat":35.727993,"lon":139.332336},{"name":"在宅介護支援センター武蔵野","province":"東京都","city":"福生市","address":"福生市福生2300-4","lat":35.740284,"lon":139.337677},{"name":"在宅介護支援センター加美","province":"東京都","city":"福生市","address":"福生市福生3244-10","lat":35.74612,"lon":139.317993},{"name":"在宅介護支援センター南田園","province":"東京都","city":"福生市","address":"福生市南田園2-9-1-103","lat":35.720776,"lon":139.330933},{"name":"福生市消費者相談室","province":"東京都","city":"福生市","address":"福生市本町18","lat":35.739086,"lon":139.327423},{"name":"福生市地域包括支援センター福生","province":"東京都","city":"福生市","address":"福生市本町5番地","lat":35.738701,"lon":139.326782},{"name":"福生市地域包括支援センター熊川","province":"東京都","city":"福生市","address":"福生市南田園2-13-1","lat":35.727993,"lon":139.332336},{"name":"在宅介護支援センター武蔵野","province":"東京都","city":"福生市","address":"福生市福生2300-4","lat":35.740284,"lon":139.337677},{"name":"在宅介護支援センター加美","province":"東京都","city":"福生市","address":"福生市福生3244-10","lat":35.74612,"lon":139.317993},{"name":"在宅介護支援センター南田園","province":"東京都","city":"福生市","address":"福生市南田園2-9-1-103","lat":35.720776,"lon":139.330933},{"name":"福生市消費者相談室","province":"東京都","city":"福生市","address":"福生市本町18","lat":35.739086,"lon":139.327423},{"name":"福生市地域包括支援センター福生","province":"東京都","city":"福生市","address":"福生市本町5番地","lat":35.738701,"lon":139.326782},{"name":"福生市地域包括支援センター熊川","province":"東京都","city":"福生市","address":"福生市南田園2-13-1","lat":35.727993,"lon":139.332336},{"name":"在宅介護支援センター武蔵野","province":"東京都","city":"福生市","address":"福生市福生2300-4","lat":35.740284,"lon":139.337677},{"name":"在宅介護支援センター加美","province":"東京都","city":"福生市","address":"福生市福生3244-10","lat":35.74612,"lon":139.317993},{"name":"在宅介護支援センター南田園","province":"東京都","city":"福生市","address":"福生市南田園2-9-1-103","lat":35.720776,"lon":139.330933},{"name":"福生市消費者相談室","province":"東京都","city":"福生市","address":"福生市本町18","lat":35.739086,"lon":139.327423}]}