{"keyword":"月間","data":[{"name":"ドリームボックス拝島","province":"東京都","city":"福生市","address":"福生市大字熊川202-1ホワイトパレス1階","lat":35.716614,"lon":139.336693},{"name":"あそぼーよ","province":"東京都","city":"福生市","address":"福生市南田園3-5-21森田ビルA号","lat":35.729482,"lon":139.330405},{"name":"つなごーよ","province":"東京都","city":"福生市","address":"福生市南田園3-18-15ユタカビル1階","lat":35.731323,"lon":139.328238},{"name":"ぶどうの木","province":"東京都","city":"福生市","address":"福生市福生1062-12AMTビル2階203号","lat":35.742922,"lon":139.32483},{"name":"ＦＵＳＳＡ地域福祉事業所　歩っ歩","province":"東京都","city":"福生市","address":"福生市武蔵野台2-3-20","lat":35.745391,"lon":139.331032},{"name":"福生市子ども家庭支援センター","province":"東京都","city":"福生市","address":"福生市北田園2-5-7福生市子ども応援館1館","lat":35.734162,"lon":139.322652},{"name":"福生市子ども家庭支援センター","province":"東京都","city":"福生市","address":"福生市北田園2-5-7子ども応援館1階","lat":35.73429,"lon":139.32309},{"name":"武蔵野橋南","province":"東京都","city":"福生市","address":"東京都福生市熊川（大字）459","lat":35.72125259,"lon":139.34023747},{"name":"福生駅西","province":"東京都","city":"福生市","address":"東京都福生市福生（大字）1110","lat":35.741197,"lon":139.32506293},{"name":"鍋ヶ谷戸","province":"東京都","city":"福生市","address":"東京都福生市熊川（大字）742","lat":35.72824883,"lon":139.33455436},{"name":"福生駅前","province":"東京都","city":"福生市","address":"東京都福生市福生（大字）767","lat":35.74185531,"lon":139.32733496},{"name":"加美郵便局前","province":"東京都","city":"福生市","address":"東京都福生市加美平2丁目1-1","lat":35.74583258,"lon":139.32619323},{"name":"加美郵便局前第二","province":"東京都","city":"福生市","address":"東京都福生市東町15-1","lat":35.74577981,"lon":139.32645711},{"name":"福生市役所前","province":"東京都","city":"福生市","address":"東京都福生市本町5","lat":35.73848071,"lon":139.32691568},{"name":"公立福生病院","province":"東京都","city":"福生市","address":"東京都福生市加美平1丁目6-1","lat":35.74701301,"lon":139.3266987},{"name":"福生武蔵野台浄水所","province":"東京都","city":"福生市","address":"東京都福生市武蔵野台2丁目32","lat":35.75162088,"lon":139.329215},{"name":"福生市立多摩川緑地福生南公園","province":"東京都","city":"福生市","address":"東京都福生市南田園1丁目1-1","lat":35.71975535,"lon":139.33089655},{"name":"加美平野球場","province":"東京都","city":"福生市","address":"東京都福生市加美平1丁目21","lat":35.75075425,"lon":139.3271652},{"name":"福生高等学校","province":"東京都","city":"福生市","address":"東京都福生市北田園2丁目11-3","lat":35.73671136,"lon":139.32214663},{"name":"多摩工業高等学校","province":"東京都","city":"福生市","address":"東京都福生市熊川（大字）215","lat":35.71601153,"lon":139.33874607},{"name":"福生市民会館","province":"東京都","city":"福生市","address":"東京都福生市福生（大字）2455","lat":35.73403986,"lon":139.33785671},{"name":"さくら会館","province":"東京都","city":"福生市","address":"東京都福生市牛浜163","lat":35.73379544,"lon":139.33723732},{"name":"福生市本庁舎","province":"東京都","city":"福生市","address":"福生市本町5","lat":35.738484,"lon":139.326868},{"name":"航空自衛隊横田基地","province":"東京都","city":"福生市","address":"福生市大字福生2552","lat":35.74337,"lon":139.3305},{"name":"福生警察署","province":"東京都","city":"福生市","address":"福生市加美平3-25","lat":35.74889,"lon":139.3206},{"name":"福生消防署","province":"東京都","city":"福生市","address":"福生市福生1072","lat":35.74401,"lon":139.3245},{"name":"加美平野球場","province":"東京都","city":"福生市","address":"福生市加美平1-21","lat":35.75075,"lon":139.3272},{"name":"ドリームボックス拝島","province":"東京都","city":"福生市","address":"福生市大字熊川202-1ホワイトパレス1階","lat":35.716614,"lon":139.336693},{"name":"あそぼーよ","province":"東京都","city":"福生市","address":"福生市南田園3-5-21森田ビルA号","lat":35.729482,"lon":139.330405},{"name":"つなごーよ","province":"東京都","city":"福生市","address":"福生市南田園3-18-15ユタカビル1階","lat":35.731323,"lon":139.328238},{"name":"ぶどうの木","province":"東京都","city":"福生市","address":"福生市福生1062-12AMTビル2階203号","lat":35.742922,"lon":139.32483},{"name":"ＦＵＳＳＡ地域福祉事業所　歩っ歩","province":"東京都","city":"福生市","address":"福生市武蔵野台2-3-20","lat":35.745391,"lon":139.331032},{"name":"福生市子ども家庭支援センター","province":"東京都","city":"福生市","address":"福生市北田園2-5-7福生市子ども応援館1館","lat":35.734162,"lon":139.322652},{"name":"福生市子ども家庭支援センター","province":"東京都","city":"福生市","address":"福生市北田園2-5-7子ども応援館1階","lat":35.73429,"lon":139.32309},{"name":"武蔵野橋南","province":"東京都","city":"福生市","address":"東京都福生市熊川（大字）459","lat":35.72125259,"lon":139.34023747},{"name":"福生駅西","province":"東京都","city":"福生市","address":"東京都福生市福生（大字）1110","lat":35.741197,"lon":139.32506293},{"name":"鍋ヶ谷戸","province":"東京都","city":"福生市","address":"東京都福生市熊川（大字）742","lat":35.72824883,"lon":139.33455436},{"name":"福生駅前","province":"東京都","city":"福生市","address":"東京都福生市福生（大字）767","lat":35.74185531,"lon":139.32733496},{"name":"加美郵便局前","province":"東京都","city":"福生市","address":"東京都福生市加美平2丁目1-1","lat":35.74583258,"lon":139.32619323},{"name":"加美郵便局前第二","province":"東京都","city":"福生市","address":"東京都福生市東町15-1","lat":35.74577981,"lon":139.32645711},{"name":"福生市役所前","province":"東京都","city":"福生市","address":"東京都福生市本町5","lat":35.73848071,"lon":139.32691568},{"name":"公立福生病院","province":"東京都","city":"福生市","address":"東京都福生市加美平1丁目6-1","lat":35.74701301,"lon":139.3266987},{"name":"福生武蔵野台浄水所","province":"東京都","city":"福生市","address":"東京都福生市武蔵野台2丁目32","lat":35.75162088,"lon":139.329215},{"name":"福生市立多摩川緑地福生南公園","province":"東京都","city":"福生市","address":"東京都福生市南田園1丁目1-1","lat":35.71975535,"lon":139.33089655},{"name":"加美平野球場","province":"東京都","city":"福生市","address":"東京都福生市加美平1丁目21","lat":35.75075425,"lon":139.3271652},{"name":"福生高等学校","province":"東京都","city":"福生市","address":"東京都福生市北田園2丁目11-3","lat":35.73671136,"lon":139.32214663},{"name":"多摩工業高等学校","province":"東京都","city":"福生市","address":"東京都福生市熊川（大字）215","lat":35.71601153,"lon":139.33874607},{"name":"ドリームボックス拝島","province":"東京都","city":"福生市","address":"福生市大字熊川202-1ホワイトパレス1階","lat":35.716614,"lon":139.336693},{"name":"あそぼーよ","province":"東京都","city":"福生市","address":"福生市南田園3-5-21森田ビルA号","lat":35.729482,"lon":139.330405},{"name":"つなごーよ","province":"東京都","city":"福生市","address":"福生市南田園3-18-15ユタカビル1階","lat":35.731323,"lon":139.328238},{"name":"ぶどうの木","province":"東京都","city":"福生市","address":"福生市福生1062-12AMTビル2階203号","lat":35.742922,"lon":139.32483},{"name":"ＦＵＳＳＡ地域福祉事業所　歩っ歩","province":"東京都","city":"福生市","address":"福生市武蔵野台2-3-20","lat":35.745391,"lon":139.331032},{"name":"福生市子ども家庭支援センター","province":"東京都","city":"福生市","address":"福生市北田園2-5-7福生市子ども応援館1館","lat":35.734162,"lon":139.322652},{"name":"福生市子ども家庭支援センター","province":"東京都","city":"福生市","address":"福生市北田園2-5-7子ども応援館1階","lat":35.73429,"lon":139.32309},{"name":"武蔵野橋南","province":"東京都","city":"福生市","address":"東京都福生市熊川（大字）459","lat":35.72125259,"lon":139.34023747},{"name":"福生駅西","province":"東京都","city":"福生市","address":"東京都福生市福生（大字）1110","lat":35.741197,"lon":139.32506293},{"name":"鍋ヶ谷戸","province":"東京都","city":"福生市","address":"東京都福生市熊川（大字）742","lat":35.72824883,"lon":139.33455436},{"name":"福生駅前","province":"東京都","city":"福生市","address":"東京都福生市福生（大字）767","lat":35.74185531,"lon":139.32733496},{"name":"加美郵便局前","province":"東京都","city":"福生市","address":"東京都福生市加美平2丁目1-1","lat":35.74583258,"lon":139.32619323},{"name":"加美郵便局前第二","province":"東京都","city":"福生市","address":"東京都福生市東町15-1","lat":35.74577981,"lon":139.32645711},{"name":"福生市役所前","province":"東京都","city":"福生市","address":"東京都福生市本町5","lat":35.73848071,"lon":139.32691568},{"name":"公立福生病院","province":"東京都","city":"福生市","address":"東京都福生市加美平1丁目6-1","lat":35.74701301,"lon":139.3266987},{"name":"福生武蔵野台浄水所","province":"東京都","city":"福生市","address":"東京都福生市武蔵野台2丁目32","lat":35.75162088,"lon":139.329215},{"name":"福生市立多摩川緑地福生南公園","province":"東京都","city":"福生市","address":"東京都福生市南田園1丁目1-1","lat":35.71975535,"lon":139.33089655},{"name":"加美平野球場","province":"東京都","city":"福生市","address":"東京都福生市加美平1丁目21","lat":35.75075425,"lon":139.3271652},{"name":"福生高等学校","province":"東京都","city":"福生市","address":"東京都福生市北田園2丁目11-3","lat":35.73671136,"lon":139.32214663},{"name":"多摩工業高等学校","province":"東京都","city":"福生市","address":"東京都福生市熊川（大字）215","lat":35.71601153,"lon":139.33874607},{"name":"ドリームボックス拝島","province":"東京都","city":"福生市","address":"福生市大字熊川202-1ホワイトパレス1階","lat":35.716614,"lon":139.336693},{"name":"あそぼーよ","province":"東京都","city":"福生市","address":"福生市南田園3-5-21森田ビルA号","lat":35.729482,"lon":139.330405},{"name":"つなごーよ","province":"東京都","city":"福生市","address":"福生市南田園3-18-15ユタカビル1階","lat":35.731323,"lon":139.328238},{"name":"ぶどうの木","province":"東京都","city":"福生市","address":"福生市福生1062-12AMTビル2階203号","lat":35.742922,"lon":139.32483},{"name":"ＦＵＳＳＡ地域福祉事業所　歩っ歩","province":"東京都","city":"福生市","address":"福生市武蔵野台2-3-20","lat":35.745391,"lon":139.331032},{"name":"福生市子ども家庭支援センター","province":"東京都","city":"福生市","address":"福生市北田園2-5-7福生市子ども応援館1館","lat":35.734162,"lon":139.322652},{"name":"福生市子ども家庭支援センター","province":"東京都","city":"福生市","address":"福生市北田園2-5-7子ども応援館1階","lat":35.73429,"lon":139.32309},{"name":"福生市立多摩川緑地福生南公園","province":"東京都","city":"福生市","address":"東京都福生市南田園1丁目1-1","lat":35.71975535,"lon":139.33089655},{"name":"加美平野球場","province":"東京都","city":"福生市","address":"東京都福生市加美平1丁目21","lat":35.75075425,"lon":139.3271652},{"name":"福生高等学校","province":"東京都","city":"福生市","address":"東京都福生市北田園2丁目11-3","lat":35.73671136,"lon":139.32214663},{"name":"多摩工業高等学校","province":"東京都","city":"福生市","address":"東京都福生市熊川（大字）215","lat":35.71601153,"lon":139.33874607},{"name":"ドリームボックス拝島","province":"東京都","city":"福生市","address":"福生市大字熊川202-1ホワイトパレス1階","lat":35.716614,"lon":139.336693},{"name":"あそぼーよ","province":"東京都","city":"福生市","address":"福生市南田園3-5-21森田ビルA号","lat":35.729482,"lon":139.330405},{"name":"つなごーよ","province":"東京都","city":"福生市","address":"福生市南田園3-18-15ユタカビル1階","lat":35.731323,"lon":139.328238},{"name":"ぶどうの木","province":"東京都","city":"福生市","address":"福生市福生1062-12AMTビル2階203号","lat":35.742922,"lon":139.32483},{"name":"ＦＵＳＳＡ地域福祉事業所　歩っ歩","province":"東京都","city":"福生市","address":"福生市武蔵野台2-3-20","lat":35.745391,"lon":139.331032},{"name":"福生市子ども家庭支援センター","province":"東京都","city":"福生市","address":"福生市北田園2-5-7福生市子ども応援館1館","lat":35.734162,"lon":139.322652},{"name":"福生市子ども家庭支援センター","province":"東京都","city":"福生市","address":"福生市北田園2-5-7子ども応援館1階","lat":35.73429,"lon":139.32309},{"name":"福生高等学校","province":"東京都","city":"福生市","address":"東京都福生市北田園2丁目11-3","lat":35.73671136,"lon":139.32214663},{"name":"多摩工業高等学校","province":"東京都","city":"福生市","address":"東京都福生市熊川（大字）215","lat":35.71601153,"lon":139.33874607},{"name":"ドリームボックス拝島","province":"東京都","city":"福生市","address":"福生市大字熊川202-1ホワイトパレス1階","lat":35.716614,"lon":139.336693},{"name":"あそぼーよ","province":"東京都","city":"福生市","address":"福生市南田園3-5-21森田ビルA号","lat":35.729482,"lon":139.330405},{"name":"つなごーよ","province":"東京都","city":"福生市","address":"福生市南田園3-18-15ユタカビル1階","lat":35.731323,"lon":139.328238},{"name":"ぶどうの木","province":"東京都","city":"福生市","address":"福生市福生1062-12AMTビル2階203号","lat":35.742922,"lon":139.32483},{"name":"ＦＵＳＳＡ地域福祉事業所　歩っ歩","province":"東京都","city":"福生市","address":"福生市武蔵野台2-3-20","lat":35.745391,"lon":139.331032},{"name":"福生市子ども家庭支援センター","province":"東京都","city":"福生市","address":"福生市北田園2-5-7福生市子ども応援館1館","lat":35.734162,"lon":139.322652},{"name":"福生市子ども家庭支援センター","province":"東京都","city":"福生市","address":"福生市北田園2-5-7子ども応援館1階","lat":35.73429,"lon":139.32309},{"name":"福生高等学校","province":"東京都","city":"福生市","address":"東京都福生市北田園2丁目11-3","lat":35.73671136,"lon":139.32214663},{"name":"多摩工業高等学校","province":"東京都","city":"福生市","address":"東京都福生市熊川（大字）215","lat":35.71601153,"lon":139.33874607},{"name":"ドリームボックス拝島","province":"東京都","city":"福生市","address":"福生市大字熊川202-1ホワイトパレス1階","lat":35.716614,"lon":139.336693},{"name":"あそぼーよ","province":"東京都","city":"福生市","address":"福生市南田園3-5-21森田ビルA号","lat":35.729482,"lon":139.330405},{"name":"つなごーよ","province":"東京都","city":"福生市","address":"福生市南田園3-18-15ユタカビル1階","lat":35.731323,"lon":139.328238},{"name":"ぶどうの木","province":"東京都","city":"福生市","address":"福生市福生1062-12AMTビル2階203号","lat":35.742922,"lon":139.32483},{"name":"ＦＵＳＳＡ地域福祉事業所　歩っ歩","province":"東京都","city":"福生市","address":"福生市武蔵野台2-3-20","lat":35.745391,"lon":139.331032},{"name":"福生市子ども家庭支援センター","province":"東京都","city":"福生市","address":"福生市北田園2-5-7福生市子ども応援館1館","lat":35.734162,"lon":139.322652},{"name":"福生市子ども家庭支援センター","province":"東京都","city":"福生市","address":"福生市北田園2-5-7子ども応援館1階","lat":35.73429,"lon":139.32309},{"name":"福生高等学校","province":"東京都","city":"福生市","address":"東京都福生市北田園2丁目11-3","lat":35.73671136,"lon":139.32214663},{"name":"多摩工業高等学校","province":"東京都","city":"福生市","address":"東京都福生市熊川（大字）215","lat":35.71601153,"lon":139.33874607},{"name":"ドリームボックス拝島","province":"東京都","city":"福生市","address":"福生市大字熊川202-1ホワイトパレス1階","lat":35.716614,"lon":139.336693},{"name":"あそぼーよ","province":"東京都","city":"福生市","address":"福生市南田園3-5-21森田ビルA号","lat":35.729482,"lon":139.330405},{"name":"つなごーよ","province":"東京都","city":"福生市","address":"福生市南田園3-18-15ユタカビル1階","lat":35.731323,"lon":139.328238},{"name":"ぶどうの木","province":"東京都","city":"福生市","address":"福生市福生1062-12AMTビル2階203号","lat":35.742922,"lon":139.32483},{"name":"ＦＵＳＳＡ地域福祉事業所　歩っ歩","province":"東京都","city":"福生市","address":"福生市武蔵野台2-3-20","lat":35.745391,"lon":139.331032},{"name":"福生市子ども家庭支援センター","province":"東京都","city":"福生市","address":"福生市北田園2-5-7福生市子ども応援館1館","lat":35.734162,"lon":139.322652},{"name":"福生市子ども家庭支援センター","province":"東京都","city":"福生市","address":"福生市北田園2-5-7子ども応援館1階","lat":35.73429,"lon":139.32309},{"name":"福生高等学校","province":"東京都","city":"福生市","address":"東京都福生市北田園2丁目11-3","lat":35.73671136,"lon":139.32214663},{"name":"多摩工業高等学校","province":"東京都","city":"福生市","address":"東京都福生市熊川（大字）215","lat":35.71601153,"lon":139.33874607},{"name":"ドリームボックス拝島","province":"東京都","city":"福生市","address":"福生市大字熊川202-1ホワイトパレス1階","lat":35.716614,"lon":139.336693},{"name":"あそぼーよ","province":"東京都","city":"福生市","address":"福生市南田園3-5-21森田ビルA号","lat":35.729482,"lon":139.330405},{"name":"つなごーよ","province":"東京都","city":"福生市","address":"福生市南田園3-18-15ユタカビル1階","lat":35.731323,"lon":139.328238},{"name":"ぶどうの木","province":"東京都","city":"福生市","address":"福生市福生1062-12AMTビル2階203号","lat":35.742922,"lon":139.32483},{"name":"ＦＵＳＳＡ地域福祉事業所　歩っ歩","province":"東京都","city":"福生市","address":"福生市武蔵野台2-3-20","lat":35.745391,"lon":139.331032},{"name":"福生市子ども家庭支援センター","province":"東京都","city":"福生市","address":"福生市北田園2-5-7福生市子ども応援館1館","lat":35.734162,"lon":139.322652},{"name":"福生市子ども家庭支援センター","province":"東京都","city":"福生市","address":"福生市北田園2-5-7子ども応援館1階","lat":35.73429,"lon":139.32309},{"name":"福生高等学校","province":"東京都","city":"福生市","address":"東京都福生市北田園2丁目11-3","lat":35.73671136,"lon":139.32214663},{"name":"多摩工業高等学校","province":"東京都","city":"福生市","address":"東京都福生市熊川（大字）215","lat":35.71601153,"lon":139.33874607},{"name":"ドリームボックス拝島","province":"東京都","city":"福生市","address":"福生市大字熊川202-1ホワイトパレス1階","lat":35.716614,"lon":139.336693},{"name":"あそぼーよ","province":"東京都","city":"福生市","address":"福生市南田園3-5-21森田ビルA号","lat":35.729482,"lon":139.330405},{"name":"つなごーよ","province":"東京都","city":"福生市","address":"福生市南田園3-18-15ユタカビル1階","lat":35.731323,"lon":139.328238},{"name":"ぶどうの木","province":"東京都","city":"福生市","address":"福生市福生1062-12AMTビル2階203号","lat":35.742922,"lon":139.32483},{"name":"ＦＵＳＳＡ地域福祉事業所　歩っ歩","province":"東京都","city":"福生市","address":"福生市武蔵野台2-3-20","lat":35.745391,"lon":139.331032},{"name":"福生市子ども家庭支援センター","province":"東京都","city":"福生市","address":"福生市北田園2-5-7福生市子ども応援館1館","lat":35.734162,"lon":139.322652},{"name":"福生市子ども家庭支援センター","province":"東京都","city":"福生市","address":"福生市北田園2-5-7子ども応援館1階","lat":35.73429,"lon":139.32309},{"name":"福生高等学校","province":"東京都","city":"福生市","address":"東京都福生市北田園2丁目11-3","lat":35.73671136,"lon":139.32214663},{"name":"多摩工業高等学校","province":"東京都","city":"福生市","address":"東京都福生市熊川（大字）215","lat":35.71601153,"lon":139.33874607},{"name":"ドリームボックス拝島","province":"東京都","city":"福生市","address":"福生市大字熊川202-1ホワイトパレス1階","lat":35.716614,"lon":139.336693},{"name":"あそぼーよ","province":"東京都","city":"福生市","address":"福生市南田園3-5-21森田ビルA号","lat":35.729482,"lon":139.330405},{"name":"つなごーよ","province":"東京都","city":"福生市","address":"福生市南田園3-18-15ユタカビル1階","lat":35.731323,"lon":139.328238},{"name":"ぶどうの木","province":"東京都","city":"福生市","address":"福生市福生1062-12AMTビル2階203号","lat":35.742922,"lon":139.32483},{"name":"ＦＵＳＳＡ地域福祉事業所　歩っ歩","province":"東京都","city":"福生市","address":"福生市武蔵野台2-3-20","lat":35.745391,"lon":139.331032},{"name":"福生市子ども家庭支援センター","province":"東京都","city":"福生市","address":"福生市北田園2-5-7福生市子ども応援館1館","lat":35.734162,"lon":139.322652},{"name":"福生市子ども家庭支援センター","province":"東京都","city":"福生市","address":"福生市北田園2-5-7子ども応援館1階","lat":35.73429,"lon":139.32309},{"name":"福生高等学校","province":"東京都","city":"福生市","address":"東京都福生市北田園2丁目11-3","lat":35.73671136,"lon":139.32214663},{"name":"多摩工業高等学校","province":"東京都","city":"福生市","address":"東京都福生市熊川（大字）215","lat":35.71601153,"lon":139.33874607},{"name":"ドリームボックス拝島","province":"東京都","city":"福生市","address":"福生市大字熊川202-1ホワイトパレス1階","lat":35.716614,"lon":139.336693},{"name":"あそぼーよ","province":"東京都","city":"福生市","address":"福生市南田園3-5-21森田ビルA号","lat":35.729482,"lon":139.330405},{"name":"つなごーよ","province":"東京都","city":"福生市","address":"福生市南田園3-18-15ユタカビル1階","lat":35.731323,"lon":139.328238},{"name":"ぶどうの木","province":"東京都","city":"福生市","address":"福生市福生1062-12AMTビル2階203号","lat":35.742922,"lon":139.32483},{"name":"ＦＵＳＳＡ地域福祉事業所　歩っ歩","province":"東京都","city":"福生市","address":"福生市武蔵野台2-3-20","lat":35.745391,"lon":139.331032},{"name":"福生市子ども家庭支援センター","province":"東京都","city":"福生市","address":"福生市北田園2-5-7福生市子ども応援館1館","lat":35.734162,"lon":139.322652},{"name":"福生市子ども家庭支援センター","province":"東京都","city":"福生市","address":"福生市北田園2-5-7子ども応援館1階","lat":35.73429,"lon":139.32309},{"name":"福生高等学校","province":"東京都","city":"福生市","address":"東京都福生市北田園2丁目11-3","lat":35.73671136,"lon":139.32214663},{"name":"多摩工業高等学校","province":"東京都","city":"福生市","address":"東京都福生市熊川（大字）215","lat":35.71601153,"lon":139.33874607},{"name":"ドリームボックス拝島","province":"東京都","city":"福生市","address":"福生市大字熊川202-1ホワイトパレス1階","lat":35.716614,"lon":139.336693},{"name":"あそぼーよ","province":"東京都","city":"福生市","address":"福生市南田園3-5-21森田ビルA号","lat":35.729482,"lon":139.330405},{"name":"つなごーよ","province":"東京都","city":"福生市","address":"福生市南田園3-18-15ユタカビル1階","lat":35.731323,"lon":139.328238},{"name":"ぶどうの木","province":"東京都","city":"福生市","address":"福生市福生1062-12AMTビル2階203号","lat":35.742922,"lon":139.32483},{"name":"ＦＵＳＳＡ地域福祉事業所　歩っ歩","province":"東京都","city":"福生市","address":"福生市武蔵野台2-3-20","lat":35.745391,"lon":139.331032},{"name":"福生市子ども家庭支援センター","province":"東京都","city":"福生市","address":"福生市北田園2-5-7福生市子ども応援館1館","lat":35.734162,"lon":139.322652},{"name":"福生市子ども家庭支援センター","province":"東京都","city":"福生市","address":"福生市北田園2-5-7子ども応援館1階","lat":35.73429,"lon":139.32309},{"name":"福生高等学校","province":"東京都","city":"福生市","address":"東京都福生市北田園2丁目11-3","lat":35.73671136,"lon":139.32214663},{"name":"多摩工業高等学校","province":"東京都","city":"福生市","address":"東京都福生市熊川（大字）215","lat":35.71601153,"lon":139.33874607},{"name":"ドリームボックス拝島","province":"東京都","city":"福生市","address":"福生市大字熊川202-1ホワイトパレス1階","lat":35.716614,"lon":139.336693},{"name":"あそぼーよ","province":"東京都","city":"福生市","address":"福生市南田園3-5-21森田ビルA号","lat":35.729482,"lon":139.330405},{"name":"つなごーよ","province":"東京都","city":"福生市","address":"福生市南田園3-18-15ユタカビル1階","lat":35.731323,"lon":139.328238},{"name":"ぶどうの木","province":"東京都","city":"福生市","address":"福生市福生1062-12AMTビル2階203号","lat":35.742922,"lon":139.32483},{"name":"ＦＵＳＳＡ地域福祉事業所　歩っ歩","province":"東京都","city":"福生市","address":"福生市武蔵野台2-3-20","lat":35.745391,"lon":139.331032},{"name":"福生市子ども家庭支援センター","province":"東京都","city":"福生市","address":"福生市北田園2-5-7福生市子ども応援館1館","lat":35.734162,"lon":139.322652},{"name":"福生市子ども家庭支援センター","province":"東京都","city":"福生市","address":"福生市北田園2-5-7子ども応援館1階","lat":35.73429,"lon":139.32309},{"name":"福生高等学校","province":"東京都","city":"福生市","address":"東京都福生市北田園2丁目11-3","lat":35.73671136,"lon":139.32214663},{"name":"多摩工業高等学校","province":"東京都","city":"福生市","address":"東京都福生市熊川（大字）215","lat":35.71601153,"lon":139.33874607},{"name":"ドリームボックス拝島","province":"東京都","city":"福生市","address":"福生市大字熊川202-1ホワイトパレス1階","lat":35.716614,"lon":139.336693},{"name":"あそぼーよ","province":"東京都","city":"福生市","address":"福生市南田園3-5-21森田ビルA号","lat":35.729482,"lon":139.330405},{"name":"つなごーよ","province":"東京都","city":"福生市","address":"福生市南田園3-18-15ユタカビル1階","lat":35.731323,"lon":139.328238},{"name":"ぶどうの木","province":"東京都","city":"福生市","address":"福生市福生1062-12AMTビル2階203号","lat":35.742922,"lon":139.32483},{"name":"ＦＵＳＳＡ地域福祉事業所　歩っ歩","province":"東京都","city":"福生市","address":"福生市武蔵野台2-3-20","lat":35.745391,"lon":139.331032},{"name":"福生市子ども家庭支援センター","province":"東京都","city":"福生市","address":"福生市北田園2-5-7福生市子ども応援館1館","lat":35.734162,"lon":139.322652},{"name":"福生市子ども家庭支援センター","province":"東京都","city":"福生市","address":"福生市北田園2-5-7子ども応援館1階","lat":35.73429,"lon":139.32309},{"name":"福生高等学校","province":"東京都","city":"福生市","address":"東京都福生市北田園2丁目11-3","lat":35.73671136,"lon":139.32214663},{"name":"多摩工業高等学校","province":"東京都","city":"福生市","address":"東京都福生市熊川（大字）215","lat":35.71601153,"lon":139.33874607},{"name":"ドリームボックス拝島","province":"東京都","city":"福生市","address":"福生市大字熊川202-1ホワイトパレス1階","lat":35.716614,"lon":139.336693},{"name":"あそぼーよ","province":"東京都","city":"福生市","address":"福生市南田園3-5-21森田ビルA号","lat":35.729482,"lon":139.330405},{"name":"つなごーよ","province":"東京都","city":"福生市","address":"福生市南田園3-18-15ユタカビル1階","lat":35.731323,"lon":139.328238},{"name":"ぶどうの木","province":"東京都","city":"福生市","address":"福生市福生1062-12AMTビル2階203号","lat":35.742922,"lon":139.32483},{"name":"ＦＵＳＳＡ地域福祉事業所　歩っ歩","province":"東京都","city":"福生市","address":"福生市武蔵野台2-3-20","lat":35.745391,"lon":139.331032},{"name":"福生市子ども家庭支援センター","province":"東京都","city":"福生市","address":"福生市北田園2-5-7福生市子ども応援館1館","lat":35.734162,"lon":139.322652},{"name":"福生市子ども家庭支援センター","province":"東京都","city":"福生市","address":"福生市北田園2-5-7子ども応援館1階","lat":35.73429,"lon":139.32309},{"name":"福生高等学校","province":"東京都","city":"福生市","address":"東京都福生市北田園2丁目11-3","lat":35.73671136,"lon":139.32214663},{"name":"多摩工業高等学校","province":"東京都","city":"福生市","address":"東京都福生市熊川（大字）215","lat":35.71601153,"lon":139.33874607},{"name":"ドリームボックス拝島","province":"東京都","city":"福生市","address":"福生市大字熊川202-1ホワイトパレス1階","lat":35.716614,"lon":139.336693},{"name":"あそぼーよ","province":"東京都","city":"福生市","address":"福生市南田園3-5-21森田ビルA号","lat":35.729482,"lon":139.330405},{"name":"つなごーよ","province":"東京都","city":"福生市","address":"福生市南田園3-18-15ユタカビル1階","lat":35.731323,"lon":139.328238},{"name":"ぶどうの木","province":"東京都","city":"福生市","address":"福生市福生1062-12AMTビル2階203号","lat":35.742922,"lon":139.32483},{"name":"ＦＵＳＳＡ地域福祉事業所　歩っ歩","province":"東京都","city":"福生市","address":"福生市武蔵野台2-3-20","lat":35.745391,"lon":139.331032},{"name":"福生市子ども家庭支援センター","province":"東京都","city":"福生市","address":"福生市北田園2-5-7福生市子ども応援館1館","lat":35.734162,"lon":139.322652},{"name":"福生市子ども家庭支援センター","province":"東京都","city":"福生市","address":"福生市北田園2-5-7子ども応援館1階","lat":35.73429,"lon":139.32309},{"name":"福生高等学校","province":"東京都","city":"福生市","address":"東京都福生市北田園2丁目11-3","lat":35.73671136,"lon":139.32214663},{"name":"多摩工業高等学校","province":"東京都","city":"福生市","address":"東京都福生市熊川（大字）215","lat":35.71601153,"lon":139.33874607},{"name":"ドリームボックス拝島","province":"東京都","city":"福生市","address":"福生市大字熊川202-1ホワイトパレス1階","lat":35.716614,"lon":139.336693},{"name":"あそぼーよ","province":"東京都","city":"福生市","address":"福生市南田園3-5-21森田ビルA号","lat":35.729482,"lon":139.330405},{"name":"つなごーよ","province":"東京都","city":"福生市","address":"福生市南田園3-18-15ユタカビル1階","lat":35.731323,"lon":139.328238},{"name":"ぶどうの木","province":"東京都","city":"福生市","address":"福生市福生1062-12AMTビル2階203号","lat":35.742922,"lon":139.32483},{"name":"ＦＵＳＳＡ地域福祉事業所　歩っ歩","province":"東京都","city":"福生市","address":"福生市武蔵野台2-3-20","lat":35.745391,"lon":139.331032},{"name":"福生市子ども家庭支援センター","province":"東京都","city":"福生市","address":"福生市北田園2-5-7福生市子ども応援館1館","lat":35.734162,"lon":139.322652},{"name":"福生市子ども家庭支援センター","province":"東京都","city":"福生市","address":"福生市北田園2-5-7子ども応援館1階","lat":35.73429,"lon":139.32309},{"name":"福生高等学校","province":"東京都","city":"福生市","address":"東京都福生市北田園2丁目11-3","lat":35.73671136,"lon":139.32214663},{"name":"多摩工業高等学校","province":"東京都","city":"福生市","address":"東京都福生市熊川（大字）215","lat":35.71601153,"lon":139.33874607},{"name":"ドリームボックス拝島","province":"東京都","city":"福生市","address":"福生市大字熊川202-1ホワイトパレス1階","lat":35.716614,"lon":139.336693},{"name":"あそぼーよ","province":"東京都","city":"福生市","address":"福生市南田園3-5-21森田ビルA号","lat":35.729482,"lon":139.330405},{"name":"つなごーよ","province":"東京都","city":"福生市","address":"福生市南田園3-18-15ユタカビル1階","lat":35.731323,"lon":139.328238},{"name":"ぶどうの木","province":"東京都","city":"福生市","address":"福生市福生1062-12AMTビル2階203号","lat":35.742922,"lon":139.32483},{"name":"ＦＵＳＳＡ地域福祉事業所　歩っ歩","province":"東京都","city":"福生市","address":"福生市武蔵野台2-3-20","lat":35.745391,"lon":139.331032},{"name":"福生市子ども家庭支援センター","province":"東京都","city":"福生市","address":"福生市北田園2-5-7福生市子ども応援館1館","lat":35.734162,"lon":139.322652},{"name":"福生市子ども家庭支援センター","province":"東京都","city":"福生市","address":"福生市北田園2-5-7子ども応援館1階","lat":35.73429,"lon":139.32309},{"name":"ドリームボックス拝島","province":"東京都","city":"福生市","address":"福生市大字熊川202-1ホワイトパレス1階","lat":35.716614,"lon":139.336693},{"name":"あそぼーよ","province":"東京都","city":"福生市","address":"福生市南田園3-5-21森田ビルA号","lat":35.729482,"lon":139.330405},{"name":"つなごーよ","province":"東京都","city":"福生市","address":"福生市南田園3-18-15ユタカビル1階","lat":35.731323,"lon":139.328238},{"name":"ぶどうの木","province":"東京都","city":"福生市","address":"福生市福生1062-12AMTビル2階203号","lat":35.742922,"lon":139.32483},{"name":"ＦＵＳＳＡ地域福祉事業所　歩っ歩","province":"東京都","city":"福生市","address":"福生市武蔵野台2-3-20","lat":35.745391,"lon":139.331032},{"name":"福生市子ども家庭支援センター","province":"東京都","city":"福生市","address":"福生市北田園2-5-7福生市子ども応援館1館","lat":35.734162,"lon":139.322652},{"name":"福生市子ども家庭支援センター","province":"東京都","city":"福生市","address":"福生市北田園2-5-7子ども応援館1階","lat":35.73429,"lon":139.32309},{"name":"ドリームボックス拝島","province":"東京都","city":"福生市","address":"福生市大字熊川202-1ホワイトパレス1階","lat":35.716614,"lon":139.336693},{"name":"あそぼーよ","province":"東京都","city":"福生市","address":"福生市南田園3-5-21森田ビルA号","lat":35.729482,"lon":139.330405},{"name":"つなごーよ","province":"東京都","city":"福生市","address":"福生市南田園3-18-15ユタカビル1階","lat":35.731323,"lon":139.328238},{"name":"ぶどうの木","province":"東京都","city":"福生市","address":"福生市福生1062-12AMTビル2階203号","lat":35.742922,"lon":139.32483},{"name":"ＦＵＳＳＡ地域福祉事業所　歩っ歩","province":"東京都","city":"福生市","address":"福生市武蔵野台2-3-20","lat":35.745391,"lon":139.331032},{"name":"福生市子ども家庭支援センター","province":"東京都","city":"福生市","address":"福生市北田園2-5-7福生市子ども応援館1館","lat":35.734162,"lon":139.322652},{"name":"福生市子ども家庭支援センター","province":"東京都","city":"福生市","address":"福生市北田園2-5-7子ども応援館1階","lat":35.73429,"lon":139.32309},{"name":"ドリームボックス拝島","province":"東京都","city":"福生市","address":"福生市大字熊川202-1ホワイトパレス1階","lat":35.716614,"lon":139.336693},{"name":"あそぼーよ","province":"東京都","city":"福生市","address":"福生市南田園3-5-21森田ビルA号","lat":35.729482,"lon":139.330405},{"name":"つなごーよ","province":"東京都","city":"福生市","address":"福生市南田園3-18-15ユタカビル1階","lat":35.731323,"lon":139.328238},{"name":"ぶどうの木","province":"東京都","city":"福生市","address":"福生市福生1062-12AMTビル2階203号","lat":35.742922,"lon":139.32483},{"name":"ＦＵＳＳＡ地域福祉事業所　歩っ歩","province":"東京都","city":"福生市","address":"福生市武蔵野台2-3-20","lat":35.745391,"lon":139.331032},{"name":"福生市子ども家庭支援センター","province":"東京都","city":"福生市","address":"福生市北田園2-5-7福生市子ども応援館1館","lat":35.734162,"lon":139.322652},{"name":"福生市子ども家庭支援センター","province":"東京都","city":"福生市","address":"福生市北田園2-5-7子ども応援館1階","lat":35.73429,"lon":139.32309},{"name":"ドリームボックス拝島","province":"東京都","city":"福生市","address":"福生市大字熊川202-1ホワイトパレス1階","lat":35.716614,"lon":139.336693},{"name":"あそぼーよ","province":"東京都","city":"福生市","address":"福生市南田園3-5-21森田ビルA号","lat":35.729482,"lon":139.330405},{"name":"つなごーよ","province":"東京都","city":"福生市","address":"福生市南田園3-18-15ユタカビル1階","lat":35.731323,"lon":139.328238},{"name":"ぶどうの木","province":"東京都","city":"福生市","address":"福生市福生1062-12AMTビル2階203号","lat":35.742922,"lon":139.32483},{"name":"ＦＵＳＳＡ地域福祉事業所　歩っ歩","province":"東京都","city":"福生市","address":"福生市武蔵野台2-3-20","lat":35.745391,"lon":139.331032},{"name":"福生市子ども家庭支援センター","province":"東京都","city":"福生市","address":"福生市北田園2-5-7福生市子ども応援館1館","lat":35.734162,"lon":139.322652},{"name":"福生市子ども家庭支援センター","province":"東京都","city":"福生市","address":"福生市北田園2-5-7子ども応援館1階","lat":35.73429,"lon":139.32309},{"name":"ドリームボックス拝島","province":"東京都","city":"福生市","address":"福生市大字熊川202-1ホワイトパレス1階","lat":35.716614,"lon":139.336693},{"name":"あそぼーよ","province":"東京都","city":"福生市","address":"福生市南田園3-5-21森田ビルA号","lat":35.729482,"lon":139.330405},{"name":"つなごーよ","province":"東京都","city":"福生市","address":"福生市南田園3-18-15ユタカビル1階","lat":35.731323,"lon":139.328238},{"name":"ぶどうの木","province":"東京都","city":"福生市","address":"福生市福生1062-12AMTビル2階203号","lat":35.742922,"lon":139.32483},{"name":"ＦＵＳＳＡ地域福祉事業所　歩っ歩","province":"東京都","city":"福生市","address":"福生市武蔵野台2-3-20","lat":35.745391,"lon":139.331032},{"name":"福生市子ども家庭支援センター","province":"東京都","city":"福生市","address":"福生市北田園2-5-7福生市子ども応援館1館","lat":35.734162,"lon":139.322652},{"name":"福生市子ども家庭支援センター","province":"東京都","city":"福生市","address":"福生市北田園2-5-7子ども応援館1階","lat":35.73429,"lon":139.32309},{"name":"ドリームボックス拝島","province":"東京都","city":"福生市","address":"福生市大字熊川202-1ホワイトパレス1階","lat":35.716614,"lon":139.336693},{"name":"あそぼーよ","province":"東京都","city":"福生市","address":"福生市南田園3-5-21森田ビルA号","lat":35.729482,"lon":139.330405},{"name":"つなごーよ","province":"東京都","city":"福生市","address":"福生市南田園3-18-15ユタカビル1階","lat":35.731323,"lon":139.328238},{"name":"ぶどうの木","province":"東京都","city":"福生市","address":"福生市福生1062-12AMTビル2階203号","lat":35.742922,"lon":139.32483},{"name":"ＦＵＳＳＡ地域福祉事業所　歩っ歩","province":"東京都","city":"福生市","address":"福生市武蔵野台2-3-20","lat":35.745391,"lon":139.331032},{"name":"福生市子ども家庭支援センター","province":"東京都","city":"福生市","address":"福生市北田園2-5-7福生市子ども応援館1館","lat":35.734162,"lon":139.322652},{"name":"福生市子ども家庭支援センター","province":"東京都","city":"福生市","address":"福生市北田園2-5-7子ども応援館1階","lat":35.73429,"lon":139.32309},{"name":"ドリームボックス拝島","province":"東京都","city":"福生市","address":"福生市大字熊川202-1ホワイトパレス1階","lat":35.716614,"lon":139.336693},{"name":"あそぼーよ","province":"東京都","city":"福生市","address":"福生市南田園3-5-21森田ビルA号","lat":35.729482,"lon":139.330405},{"name":"つなごーよ","province":"東京都","city":"福生市","address":"福生市南田園3-18-15ユタカビル1階","lat":35.731323,"lon":139.328238},{"name":"ぶどうの木","province":"東京都","city":"福生市","address":"福生市福生1062-12AMTビル2階203号","lat":35.742922,"lon":139.32483},{"name":"ＦＵＳＳＡ地域福祉事業所　歩っ歩","province":"東京都","city":"福生市","address":"福生市武蔵野台2-3-20","lat":35.745391,"lon":139.331032},{"name":"福生市子ども家庭支援センター","province":"東京都","city":"福生市","address":"福生市北田園2-5-7福生市子ども応援館1館","lat":35.734162,"lon":139.322652},{"name":"福生市子ども家庭支援センター","province":"東京都","city":"福生市","address":"福生市北田園2-5-7子ども応援館1階","lat":35.73429,"lon":139.32309},{"name":"ドリームボックス拝島","province":"東京都","city":"福生市","address":"福生市大字熊川202-1ホワイトパレス1階","lat":35.716614,"lon":139.336693},{"name":"あそぼーよ","province":"東京都","city":"福生市","address":"福生市南田園3-5-21森田ビルA号","lat":35.729482,"lon":139.330405},{"name":"つなごーよ","province":"東京都","city":"福生市","address":"福生市南田園3-18-15ユタカビル1階","lat":35.731323,"lon":139.328238},{"name":"ぶどうの木","province":"東京都","city":"福生市","address":"福生市福生1062-12AMTビル2階203号","lat":35.742922,"lon":139.32483},{"name":"ＦＵＳＳＡ地域福祉事業所　歩っ歩","province":"東京都","city":"福生市","address":"福生市武蔵野台2-3-20","lat":35.745391,"lon":139.331032},{"name":"福生市子ども家庭支援センター","province":"東京都","city":"福生市","address":"福生市北田園2-5-7福生市子ども応援館1館","lat":35.734162,"lon":139.322652},{"name":"福生市子ども家庭支援センター","province":"東京都","city":"福生市","address":"福生市北田園2-5-7子ども応援館1階","lat":35.73429,"lon":139.32309},{"name":"ドリームボックス拝島","province":"東京都","city":"福生市","address":"福生市大字熊川202-1ホワイトパレス1階","lat":35.716614,"lon":139.336693},{"name":"あそぼーよ","province":"東京都","city":"福生市","address":"福生市南田園3-5-21森田ビルA号","lat":35.729482,"lon":139.330405},{"name":"つなごーよ","province":"東京都","city":"福生市","address":"福生市南田園3-18-15ユタカビル1階","lat":35.731323,"lon":139.328238},{"name":"ぶどうの木","province":"東京都","city":"福生市","address":"福生市福生1062-12AMTビル2階203号","lat":35.742922,"lon":139.32483},{"name":"ＦＵＳＳＡ地域福祉事業所　歩っ歩","province":"東京都","city":"福生市","address":"福生市武蔵野台2-3-20","lat":35.745391,"lon":139.331032},{"name":"福生市子ども家庭支援センター","province":"東京都","city":"福生市","address":"福生市北田園2-5-7福生市子ども応援館1館","lat":35.734162,"lon":139.322652},{"name":"福生市子ども家庭支援センター","province":"東京都","city":"福生市","address":"福生市北田園2-5-7子ども応援館1階","lat":35.73429,"lon":139.32309},{"name":"ドリームボックス拝島","province":"東京都","city":"福生市","address":"福生市大字熊川202-1ホワイトパレス1階","lat":35.716614,"lon":139.336693},{"name":"あそぼーよ","province":"東京都","city":"福生市","address":"福生市南田園3-5-21森田ビルA号","lat":35.729482,"lon":139.330405},{"name":"つなごーよ","province":"東京都","city":"福生市","address":"福生市南田園3-18-15ユタカビル1階","lat":35.731323,"lon":139.328238},{"name":"ぶどうの木","province":"東京都","city":"福生市","address":"福生市福生1062-12AMTビル2階203号","lat":35.742922,"lon":139.32483},{"name":"ＦＵＳＳＡ地域福祉事業所　歩っ歩","province":"東京都","city":"福生市","address":"福生市武蔵野台2-3-20","lat":35.745391,"lon":139.331032},{"name":"福生市子ども家庭支援センター","province":"東京都","city":"福生市","address":"福生市北田園2-5-7福生市子ども応援館1館","lat":35.734162,"lon":139.322652},{"name":"福生市子ども家庭支援センター","province":"東京都","city":"福生市","address":"福生市北田園2-5-7子ども応援館1階","lat":35.73429,"lon":139.32309},{"name":"ドリームボックス拝島","province":"東京都","city":"福生市","address":"福生市大字熊川202-1ホワイトパレス1階","lat":35.716614,"lon":139.336693},{"name":"あそぼーよ","province":"東京都","city":"福生市","address":"福生市南田園3-5-21森田ビルA号","lat":35.729482,"lon":139.330405},{"name":"つなごーよ","province":"東京都","city":"福生市","address":"福生市南田園3-18-15ユタカビル1階","lat":35.731323,"lon":139.328238},{"name":"ぶどうの木","province":"東京都","city":"福生市","address":"福生市福生1062-12AMTビル2階203号","lat":35.742922,"lon":139.32483},{"name":"ＦＵＳＳＡ地域福祉事業所　歩っ歩","province":"東京都","city":"福生市","address":"福生市武蔵野台2-3-20","lat":35.745391,"lon":139.331032},{"name":"福生市子ども家庭支援センター","province":"東京都","city":"福生市","address":"福生市北田園2-5-7福生市子ども応援館1館","lat":35.734162,"lon":139.322652},{"name":"福生市子ども家庭支援センター","province":"東京都","city":"福生市","address":"福生市北田園2-5-7子ども応援館1階","lat":35.73429,"lon":139.32309},{"name":"ドリームボックス拝島","province":"東京都","city":"福生市","address":"福生市大字熊川202-1ホワイトパレス1階","lat":35.716614,"lon":139.336693},{"name":"あそぼーよ","province":"東京都","city":"福生市","address":"福生市南田園3-5-21森田ビルA号","lat":35.729482,"lon":139.330405},{"name":"つなごーよ","province":"東京都","city":"福生市","address":"福生市南田園3-18-15ユタカビル1階","lat":35.731323,"lon":139.328238},{"name":"ぶどうの木","province":"東京都","city":"福生市","address":"福生市福生1062-12AMTビル2階203号","lat":35.742922,"lon":139.32483},{"name":"ＦＵＳＳＡ地域福祉事業所　歩っ歩","province":"東京都","city":"福生市","address":"福生市武蔵野台2-3-20","lat":35.745391,"lon":139.331032},{"name":"福生市子ども家庭支援センター","province":"東京都","city":"福生市","address":"福生市北田園2-5-7福生市子ども応援館1館","lat":35.734162,"lon":139.322652},{"name":"福生市子ども家庭支援センター","province":"東京都","city":"福生市","address":"福生市北田園2-5-7子ども応援館1階","lat":35.73429,"lon":139.32309},{"name":"ドリームボックス拝島","province":"東京都","city":"福生市","address":"福生市大字熊川202-1ホワイトパレス1階","lat":35.716614,"lon":139.336693},{"name":"あそぼーよ","province":"東京都","city":"福生市","address":"福生市南田園3-5-21森田ビルA号","lat":35.729482,"lon":139.330405},{"name":"つなごーよ","province":"東京都","city":"福生市","address":"福生市南田園3-18-15ユタカビル1階","lat":35.731323,"lon":139.328238},{"name":"ぶどうの木","province":"東京都","city":"福生市","address":"福生市福生1062-12AMTビル2階203号","lat":35.742922,"lon":139.32483},{"name":"ＦＵＳＳＡ地域福祉事業所　歩っ歩","province":"東京都","city":"福生市","address":"福生市武蔵野台2-3-20","lat":35.745391,"lon":139.331032},{"name":"福生市子ども家庭支援センター","province":"東京都","city":"福生市","address":"福生市北田園2-5-7福生市子ども応援館1館","lat":35.734162,"lon":139.322652},{"name":"福生市子ども家庭支援センター","province":"東京都","city":"福生市","address":"福生市北田園2-5-7子ども応援館1階","lat":35.73429,"lon":139.32309},{"name":"ドリームボックス拝島","province":"東京都","city":"福生市","address":"福生市大字熊川202-1ホワイトパレス1階","lat":35.716614,"lon":139.336693},{"name":"あそぼーよ","province":"東京都","city":"福生市","address":"福生市南田園3-5-21森田ビルA号","lat":35.729482,"lon":139.330405},{"name":"つなごーよ","province":"東京都","city":"福生市","address":"福生市南田園3-18-15ユタカビル1階","lat":35.731323,"lon":139.328238},{"name":"ぶどうの木","province":"東京都","city":"福生市","address":"福生市福生1062-12AMTビル2階203号","lat":35.742922,"lon":139.32483},{"name":"ＦＵＳＳＡ地域福祉事業所　歩っ歩","province":"東京都","city":"福生市","address":"福生市武蔵野台2-3-20","lat":35.745391,"lon":139.331032},{"name":"福生市子ども家庭支援センター","province":"東京都","city":"福生市","address":"福生市北田園2-5-7福生市子ども応援館1館","lat":35.734162,"lon":139.322652},{"name":"福生市子ども家庭支援センター","province":"東京都","city":"福生市","address":"福生市北田園2-5-7子ども応援館1階","lat":35.73429,"lon":139.32309},{"name":"ドリームボックス拝島","province":"東京都","city":"福生市","address":"福生市大字熊川202-1ホワイトパレス1階","lat":35.716614,"lon":139.336693},{"name":"あそぼーよ","province":"東京都","city":"福生市","address":"福生市南田園3-5-21森田ビルA号","lat":35.729482,"lon":139.330405},{"name":"つなごーよ","province":"東京都","city":"福生市","address":"福生市南田園3-18-15ユタカビル1階","lat":35.731323,"lon":139.328238},{"name":"ぶどうの木","province":"東京都","city":"福生市","address":"福生市福生1062-12AMTビル2階203号","lat":35.742922,"lon":139.32483},{"name":"ＦＵＳＳＡ地域福祉事業所　歩っ歩","province":"東京都","city":"福生市","address":"福生市武蔵野台2-3-20","lat":35.745391,"lon":139.331032},{"name":"福生市子ども家庭支援センター","province":"東京都","city":"福生市","address":"福生市北田園2-5-7福生市子ども応援館1館","lat":35.734162,"lon":139.322652},{"name":"福生市子ども家庭支援センター","province":"東京都","city":"福生市","address":"福生市北田園2-5-7子ども応援館1階","lat":35.73429,"lon":139.32309},{"name":"ドリームボックス拝島","province":"東京都","city":"福生市","address":"福生市大字熊川202-1ホワイトパレス1階","lat":35.716614,"lon":139.336693},{"name":"あそぼーよ","province":"東京都","city":"福生市","address":"福生市南田園3-5-21森田ビルA号","lat":35.729482,"lon":139.330405},{"name":"つなごーよ","province":"東京都","city":"福生市","address":"福生市南田園3-18-15ユタカビル1階","lat":35.731323,"lon":139.328238},{"name":"ぶどうの木","province":"東京都","city":"福生市","address":"福生市福生1062-12AMTビル2階203号","lat":35.742922,"lon":139.32483},{"name":"ＦＵＳＳＡ地域福祉事業所　歩っ歩","province":"東京都","city":"福生市","address":"福生市武蔵野台2-3-20","lat":35.745391,"lon":139.331032},{"name":"福生市子ども家庭支援センター","province":"東京都","city":"福生市","address":"福生市北田園2-5-7福生市子ども応援館1館","lat":35.734162,"lon":139.322652},{"name":"福生市子ども家庭支援センター","province":"東京都","city":"福生市","address":"福生市北田園2-5-7子ども応援館1階","lat":35.73429,"lon":139.32309},{"name":"ドリームボックス拝島","province":"東京都","city":"福生市","address":"福生市大字熊川202-1ホワイトパレス1階","lat":35.716614,"lon":139.336693},{"name":"あそぼーよ","province":"東京都","city":"福生市","address":"福生市南田園3-5-21森田ビルA号","lat":35.729482,"lon":139.330405},{"name":"つなごーよ","province":"東京都","city":"福生市","address":"福生市南田園3-18-15ユタカビル1階","lat":35.731323,"lon":139.328238},{"name":"ぶどうの木","province":"東京都","city":"福生市","address":"福生市福生1062-12AMTビル2階203号","lat":35.742922,"lon":139.32483},{"name":"ＦＵＳＳＡ地域福祉事業所　歩っ歩","province":"東京都","city":"福生市","address":"福生市武蔵野台2-3-20","lat":35.745391,"lon":139.331032},{"name":"福生市子ども家庭支援センター","province":"東京都","city":"福生市","address":"福生市北田園2-5-7福生市子ども応援館1館","lat":35.734162,"lon":139.322652},{"name":"福生市子ども家庭支援センター","province":"東京都","city":"福生市","address":"福生市北田園2-5-7子ども応援館1階","lat":35.73429,"lon":139.32309},{"name":"ドリームボックス拝島","province":"東京都","city":"福生市","address":"福生市大字熊川202-1ホワイトパレス1階","lat":35.716614,"lon":139.336693},{"name":"あそぼーよ","province":"東京都","city":"福生市","address":"福生市南田園3-5-21森田ビルA号","lat":35.729482,"lon":139.330405},{"name":"つなごーよ","province":"東京都","city":"福生市","address":"福生市南田園3-18-15ユタカビル1階","lat":35.731323,"lon":139.328238},{"name":"ぶどうの木","province":"東京都","city":"福生市","address":"福生市福生1062-12AMTビル2階203号","lat":35.742922,"lon":139.32483},{"name":"ＦＵＳＳＡ地域福祉事業所　歩っ歩","province":"東京都","city":"福生市","address":"福生市武蔵野台2-3-20","lat":35.745391,"lon":139.331032},{"name":"福生市子ども家庭支援センター","province":"東京都","city":"福生市","address":"福生市北田園2-5-7福生市子ども応援館1館","lat":35.734162,"lon":139.322652},{"name":"福生市子ども家庭支援センター","province":"東京都","city":"福生市","address":"福生市北田園2-5-7子ども応援館1階","lat":35.73429,"lon":139.32309},{"name":"ドリームボックス拝島","province":"東京都","city":"福生市","address":"福生市大字熊川202-1ホワイトパレス1階","lat":35.716614,"lon":139.336693},{"name":"あそぼーよ","province":"東京都","city":"福生市","address":"福生市南田園3-5-21森田ビルA号","lat":35.729482,"lon":139.330405},{"name":"つなごーよ","province":"東京都","city":"福生市","address":"福生市南田園3-18-15ユタカビル1階","lat":35.731323,"lon":139.328238},{"name":"ぶどうの木","province":"東京都","city":"福生市","address":"福生市福生1062-12AMTビル2階203号","lat":35.742922,"lon":139.32483},{"name":"ＦＵＳＳＡ地域福祉事業所　歩っ歩","province":"東京都","city":"福生市","address":"福生市武蔵野台2-3-20","lat":35.745391,"lon":139.331032},{"name":"福生市子ども家庭支援センター","province":"東京都","city":"福生市","address":"福生市北田園2-5-7福生市子ども応援館1館","lat":35.734162,"lon":139.322652},{"name":"福生市子ども家庭支援センター","province":"東京都","city":"福生市","address":"福生市北田園2-5-7子ども応援館1階","lat":35.73429,"lon":139.32309},{"name":"ドリームボックス拝島","province":"東京都","city":"福生市","address":"福生市大字熊川202-1ホワイトパレス1階","lat":35.716614,"lon":139.336693},{"name":"あそぼーよ","province":"東京都","city":"福生市","address":"福生市南田園3-5-21森田ビルA号","lat":35.729482,"lon":139.330405},{"name":"つなごーよ","province":"東京都","city":"福生市","address":"福生市南田園3-18-15ユタカビル1階","lat":35.731323,"lon":139.328238},{"name":"ぶどうの木","province":"東京都","city":"福生市","address":"福生市福生1062-12AMTビル2階203号","lat":35.742922,"lon":139.32483},{"name":"ＦＵＳＳＡ地域福祉事業所　歩っ歩","province":"東京都","city":"福生市","address":"福生市武蔵野台2-3-20","lat":35.745391,"lon":139.331032},{"name":"福生市子ども家庭支援センター","province":"東京都","city":"福生市","address":"福生市北田園2-5-7福生市子ども応援館1館","lat":35.734162,"lon":139.322652},{"name":"福生市子ども家庭支援センター","province":"東京都","city":"福生市","address":"福生市北田園2-5-7子ども応援館1階","lat":35.73429,"lon":139.32309},{"name":"ドリームボックス拝島","province":"東京都","city":"福生市","address":"福生市大字熊川202-1ホワイトパレス1階","lat":35.716614,"lon":139.336693},{"name":"あそぼーよ","province":"東京都","city":"福生市","address":"福生市南田園3-5-21森田ビルA号","lat":35.729482,"lon":139.330405},{"name":"つなごーよ","province":"東京都","city":"福生市","address":"福生市南田園3-18-15ユタカビル1階","lat":35.731323,"lon":139.328238},{"name":"ぶどうの木","province":"東京都","city":"福生市","address":"福生市福生1062-12AMTビル2階203号","lat":35.742922,"lon":139.32483},{"name":"ＦＵＳＳＡ地域福祉事業所　歩っ歩","province":"東京都","city":"福生市","address":"福生市武蔵野台2-3-20","lat":35.745391,"lon":139.331032},{"name":"福生市子ども家庭支援センター","province":"東京都","city":"福生市","address":"福生市北田園2-5-7福生市子ども応援館1館","lat":35.734162,"lon":139.322652},{"name":"福生市子ども家庭支援センター","province":"東京都","city":"福生市","address":"福生市北田園2-5-7子ども応援館1階","lat":35.73429,"lon":139.32309},{"name":"ドリームボックス拝島","province":"東京都","city":"福生市","address":"福生市大字熊川202-1ホワイトパレス1階","lat":35.716614,"lon":139.336693},{"name":"あそぼーよ","province":"東京都","city":"福生市","address":"福生市南田園3-5-21森田ビルA号","lat":35.729482,"lon":139.330405},{"name":"つなごーよ","province":"東京都","city":"福生市","address":"福生市南田園3-18-15ユタカビル1階","lat":35.731323,"lon":139.328238},{"name":"ぶどうの木","province":"東京都","city":"福生市","address":"福生市福生1062-12AMTビル2階203号","lat":35.742922,"lon":139.32483},{"name":"ＦＵＳＳＡ地域福祉事業所　歩っ歩","province":"東京都","city":"福生市","address":"福生市武蔵野台2-3-20","lat":35.745391,"lon":139.331032},{"name":"福生市子ども家庭支援センター","province":"東京都","city":"福生市","address":"福生市北田園2-5-7福生市子ども応援館1館","lat":35.734162,"lon":139.322652},{"name":"福生市子ども家庭支援センター","province":"東京都","city":"福生市","address":"福生市北田園2-5-7子ども応援館1階","lat":35.73429,"lon":139.32309},{"name":"ドリームボックス拝島","province":"東京都","city":"福生市","address":"福生市大字熊川202-1ホワイトパレス1階","lat":35.716614,"lon":139.336693},{"name":"あそぼーよ","province":"東京都","city":"福生市","address":"福生市南田園3-5-21森田ビルA号","lat":35.729482,"lon":139.330405},{"name":"つなごーよ","province":"東京都","city":"福生市","address":"福生市南田園3-18-15ユタカビル1階","lat":35.731323,"lon":139.328238},{"name":"ぶどうの木","province":"東京都","city":"福生市","address":"福生市福生1062-12AMTビル2階203号","lat":35.742922,"lon":139.32483},{"name":"ＦＵＳＳＡ地域福祉事業所　歩っ歩","province":"東京都","city":"福生市","address":"福生市武蔵野台2-3-20","lat":35.745391,"lon":139.331032},{"name":"福生市子ども家庭支援センター","province":"東京都","city":"福生市","address":"福生市北田園2-5-7福生市子ども応援館1館","lat":35.734162,"lon":139.322652},{"name":"福生市子ども家庭支援センター","province":"東京都","city":"福生市","address":"福生市北田園2-5-7子ども応援館1階","lat":35.73429,"lon":139.32309},{"name":"ドリームボックス拝島","province":"東京都","city":"福生市","address":"福生市大字熊川202-1ホワイトパレス1階","lat":35.716614,"lon":139.336693},{"name":"あそぼーよ","province":"東京都","city":"福生市","address":"福生市南田園3-5-21森田ビルA号","lat":35.729482,"lon":139.330405},{"name":"つなごーよ","province":"東京都","city":"福生市","address":"福生市南田園3-18-15ユタカビル1階","lat":35.731323,"lon":139.328238},{"name":"ぶどうの木","province":"東京都","city":"福生市","address":"福生市福生1062-12AMTビル2階203号","lat":35.742922,"lon":139.32483},{"name":"ＦＵＳＳＡ地域福祉事業所　歩っ歩","province":"東京都","city":"福生市","address":"福生市武蔵野台2-3-20","lat":35.745391,"lon":139.331032},{"name":"福生市子ども家庭支援センター","province":"東京都","city":"福生市","address":"福生市北田園2-5-7福生市子ども応援館1館","lat":35.734162,"lon":139.322652},{"name":"福生市子ども家庭支援センター","province":"東京都","city":"福生市","address":"福生市北田園2-5-7子ども応援館1階","lat":35.73429,"lon":139.32309},{"name":"ドリームボックス拝島","province":"東京都","city":"福生市","address":"福生市大字熊川202-1ホワイトパレス1階","lat":35.716614,"lon":139.336693},{"name":"あそぼーよ","province":"東京都","city":"福生市","address":"福生市南田園3-5-21森田ビルA号","lat":35.729482,"lon":139.330405},{"name":"つなごーよ","province":"東京都","city":"福生市","address":"福生市南田園3-18-15ユタカビル1階","lat":35.731323,"lon":139.328238},{"name":"ぶどうの木","province":"東京都","city":"福生市","address":"福生市福生1062-12AMTビル2階203号","lat":35.742922,"lon":139.32483},{"name":"ＦＵＳＳＡ地域福祉事業所　歩っ歩","province":"東京都","city":"福生市","address":"福生市武蔵野台2-3-20","lat":35.745391,"lon":139.331032},{"name":"福生市子ども家庭支援センター","province":"東京都","city":"福生市","address":"福生市北田園2-5-7福生市子ども応援館1館","lat":35.734162,"lon":139.322652},{"name":"福生市子ども家庭支援センター","province":"東京都","city":"福生市","address":"福生市北田園2-5-7子ども応援館1階","lat":35.73429,"lon":139.32309},{"name":"ドリームボックス拝島","province":"東京都","city":"福生市","address":"福生市大字熊川202-1ホワイトパレス1階","lat":35.716614,"lon":139.336693},{"name":"あそぼーよ","province":"東京都","city":"福生市","address":"福生市南田園3-5-21森田ビルA号","lat":35.729482,"lon":139.330405},{"name":"つなごーよ","province":"東京都","city":"福生市","address":"福生市南田園3-18-15ユタカビル1階","lat":35.731323,"lon":139.328238},{"name":"ぶどうの木","province":"東京都","city":"福生市","address":"福生市福生1062-12AMTビル2階203号","lat":35.742922,"lon":139.32483},{"name":"ＦＵＳＳＡ地域福祉事業所　歩っ歩","province":"東京都","city":"福生市","address":"福生市武蔵野台2-3-20","lat":35.745391,"lon":139.331032},{"name":"福生市子ども家庭支援センター","province":"東京都","city":"福生市","address":"福生市北田園2-5-7福生市子ども応援館1館","lat":35.734162,"lon":139.322652},{"name":"福生市子ども家庭支援センター","province":"東京都","city":"福生市","address":"福生市北田園2-5-7子ども応援館1階","lat":35.73429,"lon":139.32309},{"name":"ドリームボックス拝島","province":"東京都","city":"福生市","address":"福生市大字熊川202-1ホワイトパレス1階","lat":35.716614,"lon":139.336693},{"name":"あそぼーよ","province":"東京都","city":"福生市","address":"福生市南田園3-5-21森田ビルA号","lat":35.729482,"lon":139.330405},{"name":"つなごーよ","province":"東京都","city":"福生市","address":"福生市南田園3-18-15ユタカビル1階","lat":35.731323,"lon":139.328238},{"name":"ぶどうの木","province":"東京都","city":"福生市","address":"福生市福生1062-12AMTビル2階203号","lat":35.742922,"lon":139.32483},{"name":"ＦＵＳＳＡ地域福祉事業所　歩っ歩","province":"東京都","city":"福生市","address":"福生市武蔵野台2-3-20","lat":35.745391,"lon":139.331032},{"name":"福生市子ども家庭支援センター","province":"東京都","city":"福生市","address":"福生市北田園2-5-7福生市子ども応援館1館","lat":35.734162,"lon":139.322652},{"name":"福生市子ども家庭支援センター","province":"東京都","city":"福生市","address":"福生市北田園2-5-7子ども応援館1階","lat":35.73429,"lon":139.32309},{"name":"ドリームボックス拝島","province":"東京都","city":"福生市","address":"福生市大字熊川202-1ホワイトパレス1階","lat":35.716614,"lon":139.336693},{"name":"あそぼーよ","province":"東京都","city":"福生市","address":"福生市南田園3-5-21森田ビルA号","lat":35.729482,"lon":139.330405},{"name":"つなごーよ","province":"東京都","city":"福生市","address":"福生市南田園3-18-15ユタカビル1階","lat":35.731323,"lon":139.328238},{"name":"ぶどうの木","province":"東京都","city":"福生市","address":"福生市福生1062-12AMTビル2階203号","lat":35.742922,"lon":139.32483},{"name":"ＦＵＳＳＡ地域福祉事業所　歩っ歩","province":"東京都","city":"福生市","address":"福生市武蔵野台2-3-20","lat":35.745391,"lon":139.331032},{"name":"福生市子ども家庭支援センター","province":"東京都","city":"福生市","address":"福生市北田園2-5-7福生市子ども応援館1館","lat":35.734162,"lon":139.322652},{"name":"福生市子ども家庭支援センター","province":"東京都","city":"福生市","address":"福生市北田園2-5-7子ども応援館1階","lat":35.73429,"lon":139.32309},{"name":"ドリームボックス拝島","province":"東京都","city":"福生市","address":"福生市大字熊川202-1ホワイトパレス1階","lat":35.716614,"lon":139.336693},{"name":"あそぼーよ","province":"東京都","city":"福生市","address":"福生市南田園3-5-21森田ビルA号","lat":35.729482,"lon":139.330405},{"name":"つなごーよ","province":"東京都","city":"福生市","address":"福生市南田園3-18-15ユタカビル1階","lat":35.731323,"lon":139.328238},{"name":"ぶどうの木","province":"東京都","city":"福生市","address":"福生市福生1062-12AMTビル2階203号","lat":35.742922,"lon":139.32483},{"name":"ＦＵＳＳＡ地域福祉事業所　歩っ歩","province":"東京都","city":"福生市","address":"福生市武蔵野台2-3-20","lat":35.745391,"lon":139.331032},{"name":"福生市子ども家庭支援センター","province":"東京都","city":"福生市","address":"福生市北田園2-5-7福生市子ども応援館1館","lat":35.734162,"lon":139.322652},{"name":"福生市子ども家庭支援センター","province":"東京都","city":"福生市","address":"福生市北田園2-5-7子ども応援館1階","lat":35.73429,"lon":139.32309},{"name":"ドリームボックス拝島","province":"東京都","city":"福生市","address":"福生市大字熊川202-1ホワイトパレス1階","lat":35.716614,"lon":139.336693},{"name":"あそぼーよ","province":"東京都","city":"福生市","address":"福生市南田園3-5-21森田ビルA号","lat":35.729482,"lon":139.330405},{"name":"つなごーよ","province":"東京都","city":"福生市","address":"福生市南田園3-18-15ユタカビル1階","lat":35.731323,"lon":139.328238},{"name":"ぶどうの木","province":"東京都","city":"福生市","address":"福生市福生1062-12AMTビル2階203号","lat":35.742922,"lon":139.32483},{"name":"ＦＵＳＳＡ地域福祉事業所　歩っ歩","province":"東京都","city":"福生市","address":"福生市武蔵野台2-3-20","lat":35.745391,"lon":139.331032},{"name":"福生市子ども家庭支援センター","province":"東京都","city":"福生市","address":"福生市北田園2-5-7福生市子ども応援館1館","lat":35.734162,"lon":139.322652},{"name":"福生市子ども家庭支援センター","province":"東京都","city":"福生市","address":"福生市北田園2-5-7子ども応援館1階","lat":35.73429,"lon":139.32309},{"name":"ドリームボックス拝島","province":"東京都","city":"福生市","address":"福生市大字熊川202-1ホワイトパレス1階","lat":35.716614,"lon":139.336693},{"name":"あそぼーよ","province":"東京都","city":"福生市","address":"福生市南田園3-5-21森田ビルA号","lat":35.729482,"lon":139.330405},{"name":"つなごーよ","province":"東京都","city":"福生市","address":"福生市南田園3-18-15ユタカビル1階","lat":35.731323,"lon":139.328238},{"name":"ぶどうの木","province":"東京都","city":"福生市","address":"福生市福生1062-12AMTビル2階203号","lat":35.742922,"lon":139.32483},{"name":"ＦＵＳＳＡ地域福祉事業所　歩っ歩","province":"東京都","city":"福生市","address":"福生市武蔵野台2-3-20","lat":35.745391,"lon":139.331032},{"name":"福生市子ども家庭支援センター","province":"東京都","city":"福生市","address":"福生市北田園2-5-7福生市子ども応援館1館","lat":35.734162,"lon":139.322652},{"name":"福生市子ども家庭支援センター","province":"東京都","city":"福生市","address":"福生市北田園2-5-7子ども応援館1階","lat":35.73429,"lon":139.32309}]}