{"keyword":"朝","data":[{"name":"株式会社セレサポート","province":"東京都","city":"福生市","address":"東京都福生市武蔵野台2丁目25-5","lat":35.74972941,"lon":139.32824293},{"name":"株式会社 多摩祭典","province":"東京都","city":"福生市","address":"東京都福生市福生（大字）2350","lat":35.73898372,"lon":139.33776209},{"name":"株式会社 セレサポート","province":"東京都","city":"福生市","address":"東京都福生市武蔵野台2丁目25-5","lat":35.74972941,"lon":139.32824293},{"name":"愛和セレモニー","province":"東京都","city":"福生市","address":"東京都福生市熊川（大字）888","lat":35.72984032,"lon":139.33577366},{"name":"有限会社島田屋","province":"東京都","city":"福生市","address":"東京都福生市本町134","lat":35.7410471,"lon":139.32819327},{"name":"株式会社セレモア","province":"東京都","city":"福生市","address":"東京都福生市熊川（大字）1311","lat":35.72801848,"lon":139.34267597},{"name":"セレモニーホール福生","province":"東京都","city":"福生市","address":"東京都福生市加美平1丁目19-5","lat":35.74983486,"lon":139.32494595},{"name":"ファミリアホール創友社","province":"東京都","city":"福生市","address":"東京都福生市福生（大字）1983-40","lat":35.74859646,"lon":139.33708673},{"name":"株式会社多摩祭典","province":"東京都","city":"福生市","address":"東京都福生市福生（大字）2350","lat":35.73898372,"lon":139.33776209},{"name":"JAにしたま葬祭センター","province":"東京都","city":"福生市","address":"東京都福生市本町16","lat":35.73854461,"lon":139.32766007},{"name":"そうしんフレールホール福生","province":"東京都","city":"福生市","address":"東京都福生市南田園2丁目15-3","lat":35.72696557,"lon":139.33109909},{"name":"葬儀・終活相談センターフィーネ","province":"東京都","city":"福生市","address":"東京都福生市加美平2丁目3-2","lat":35.74649082,"lon":139.32587934},{"name":"武蔵野橋南","province":"東京都","city":"福生市","address":"東京都福生市熊川（大字）459","lat":35.72125259,"lon":139.34023747},{"name":"福生駅西","province":"東京都","city":"福生市","address":"東京都福生市福生（大字）1110","lat":35.741197,"lon":139.32506293},{"name":"鍋ヶ谷戸","province":"東京都","city":"福生市","address":"東京都福生市熊川（大字）742","lat":35.72824883,"lon":139.33455436},{"name":"福生駅前","province":"東京都","city":"福生市","address":"東京都福生市福生（大字）767","lat":35.74185531,"lon":139.32733496},{"name":"加美郵便局前","province":"東京都","city":"福生市","address":"東京都福生市加美平2丁目1-1","lat":35.74583258,"lon":139.32619323},{"name":"加美郵便局前第二","province":"東京都","city":"福生市","address":"東京都福生市東町15-1","lat":35.74577981,"lon":139.32645711},{"name":"福生市役所前","province":"東京都","city":"福生市","address":"東京都福生市本町5","lat":35.73848071,"lon":139.32691568},{"name":"福生武蔵野台浄水所","province":"東京都","city":"福生市","address":"東京都福生市武蔵野台2丁目32","lat":35.75162088,"lon":139.329215},{"name":"福生市公民館","province":"東京都","city":"福生市","address":"福生市福生2455","lat":35.734283,"lon":139.337967},{"name":"福生市公民館松林分館","province":"東京都","city":"福生市","address":"福生市武蔵野台1-15-1","lat":35.746574,"lon":139.332214},{"name":"福生市公民館白梅分館","province":"東京都","city":"福生市","address":"福生市熊川559-1","lat":35.72414,"lon":139.33786},{"name":"福生市立わかぎり図書館","province":"東京都","city":"福生市","address":"福生市福生1280-1","lat":35.74604,"lon":139.321091},{"name":"福生市立わかたけ図書館","province":"東京都","city":"福生市","address":"福生市熊川199-1","lat":35.718021,"lon":139.335327},{"name":"福生市立中央図書館","province":"東京都","city":"福生市","address":"福生市熊川850-1","lat":35.731689,"lon":139.337662},{"name":"福生市立武蔵野台図書館","province":"東京都","city":"福生市","address":"福生市武蔵野台1-12-2","lat":35.74699,"lon":139.333954},{"name":"福生市郷土資料室","province":"東京都","city":"福生市","address":"福生市熊川850-1","lat":35.731689,"lon":139.337662},{"name":"かえで会館","province":"東京都","city":"福生市","address":"福生市加美平1-20-6","lat":35.750492,"lon":139.325958},{"name":"さくら会館","province":"東京都","city":"福生市","address":"福生市牛浜163","lat":35.733948,"lon":139.336945},{"name":"扶桑会館","province":"東京都","city":"福生市","address":"福生市福生1069-1","lat":35.744026,"lon":139.324768},{"name":"福生市茶室「福庵」","province":"東京都","city":"福生市","address":"福生市熊川854-3","lat":35.731689,"lon":139.337662},{"name":"福生市民会館","province":"東京都","city":"福生市","address":"福生市福生2455","lat":35.734283,"lon":139.337967},{"name":"株式会社セレサポート","province":"東京都","city":"福生市","address":"東京都福生市武蔵野台2丁目25-5","lat":35.74972941,"lon":139.32824293},{"name":"株式会社 多摩祭典","province":"東京都","city":"福生市","address":"東京都福生市福生（大字）2350","lat":35.73898372,"lon":139.33776209},{"name":"株式会社 セレサポート","province":"東京都","city":"福生市","address":"東京都福生市武蔵野台2丁目25-5","lat":35.74972941,"lon":139.32824293},{"name":"愛和セレモニー","province":"東京都","city":"福生市","address":"東京都福生市熊川（大字）888","lat":35.72984032,"lon":139.33577366},{"name":"有限会社島田屋","province":"東京都","city":"福生市","address":"東京都福生市本町134","lat":35.7410471,"lon":139.32819327},{"name":"株式会社セレモア","province":"東京都","city":"福生市","address":"東京都福生市熊川（大字）1311","lat":35.72801848,"lon":139.34267597},{"name":"セレモニーホール福生","province":"東京都","city":"福生市","address":"東京都福生市加美平1丁目19-5","lat":35.74983486,"lon":139.32494595},{"name":"ファミリアホール創友社","province":"東京都","city":"福生市","address":"東京都福生市福生（大字）1983-40","lat":35.74859646,"lon":139.33708673},{"name":"株式会社多摩祭典","province":"東京都","city":"福生市","address":"東京都福生市福生（大字）2350","lat":35.73898372,"lon":139.33776209},{"name":"JAにしたま葬祭センター","province":"東京都","city":"福生市","address":"東京都福生市本町16","lat":35.73854461,"lon":139.32766007},{"name":"そうしんフレールホール福生","province":"東京都","city":"福生市","address":"東京都福生市南田園2丁目15-3","lat":35.72696557,"lon":139.33109909},{"name":"葬儀・終活相談センターフィーネ","province":"東京都","city":"福生市","address":"東京都福生市加美平2丁目3-2","lat":35.74649082,"lon":139.32587934},{"name":"武蔵野橋南","province":"東京都","city":"福生市","address":"東京都福生市熊川（大字）459","lat":35.72125259,"lon":139.34023747},{"name":"福生駅西","province":"東京都","city":"福生市","address":"東京都福生市福生（大字）1110","lat":35.741197,"lon":139.32506293},{"name":"鍋ヶ谷戸","province":"東京都","city":"福生市","address":"東京都福生市熊川（大字）742","lat":35.72824883,"lon":139.33455436},{"name":"福生駅前","province":"東京都","city":"福生市","address":"東京都福生市福生（大字）767","lat":35.74185531,"lon":139.32733496},{"name":"加美郵便局前","province":"東京都","city":"福生市","address":"東京都福生市加美平2丁目1-1","lat":35.74583258,"lon":139.32619323},{"name":"加美郵便局前第二","province":"東京都","city":"福生市","address":"東京都福生市東町15-1","lat":35.74577981,"lon":139.32645711},{"name":"福生市役所前","province":"東京都","city":"福生市","address":"東京都福生市本町5","lat":35.73848071,"lon":139.32691568},{"name":"福生武蔵野台浄水所","province":"東京都","city":"福生市","address":"東京都福生市武蔵野台2丁目32","lat":35.75162088,"lon":139.329215},{"name":"福生市公民館","province":"東京都","city":"福生市","address":"福生市福生2455","lat":35.734283,"lon":139.337967},{"name":"福生市公民館松林分館","province":"東京都","city":"福生市","address":"福生市武蔵野台1-15-1","lat":35.746574,"lon":139.332214},{"name":"福生市公民館白梅分館","province":"東京都","city":"福生市","address":"福生市熊川559-1","lat":35.72414,"lon":139.33786},{"name":"福生市立わかぎり図書館","province":"東京都","city":"福生市","address":"福生市福生1280-1","lat":35.74604,"lon":139.321091},{"name":"福生市立わかたけ図書館","province":"東京都","city":"福生市","address":"福生市熊川199-1","lat":35.718021,"lon":139.335327},{"name":"福生市立中央図書館","province":"東京都","city":"福生市","address":"福生市熊川850-1","lat":35.731689,"lon":139.337662},{"name":"福生市立武蔵野台図書館","province":"東京都","city":"福生市","address":"福生市武蔵野台1-12-2","lat":35.74699,"lon":139.333954},{"name":"福生市郷土資料室","province":"東京都","city":"福生市","address":"福生市熊川850-1","lat":35.731689,"lon":139.337662},{"name":"かえで会館","province":"東京都","city":"福生市","address":"福生市加美平1-20-6","lat":35.750492,"lon":139.325958},{"name":"さくら会館","province":"東京都","city":"福生市","address":"福生市牛浜163","lat":35.733948,"lon":139.336945},{"name":"扶桑会館","province":"東京都","city":"福生市","address":"福生市福生1069-1","lat":35.744026,"lon":139.324768},{"name":"福生市茶室「福庵」","province":"東京都","city":"福生市","address":"福生市熊川854-3","lat":35.731689,"lon":139.337662},{"name":"福生市民会館","province":"東京都","city":"福生市","address":"福生市福生2455","lat":35.734283,"lon":139.337967},{"name":"株式会社セレサポート","province":"東京都","city":"福生市","address":"東京都福生市武蔵野台2丁目25-5","lat":35.74972941,"lon":139.32824293},{"name":"株式会社 多摩祭典","province":"東京都","city":"福生市","address":"東京都福生市福生（大字）2350","lat":35.73898372,"lon":139.33776209},{"name":"株式会社 セレサポート","province":"東京都","city":"福生市","address":"東京都福生市武蔵野台2丁目25-5","lat":35.74972941,"lon":139.32824293},{"name":"愛和セレモニー","province":"東京都","city":"福生市","address":"東京都福生市熊川（大字）888","lat":35.72984032,"lon":139.33577366},{"name":"有限会社島田屋","province":"東京都","city":"福生市","address":"東京都福生市本町134","lat":35.7410471,"lon":139.32819327},{"name":"株式会社セレモア","province":"東京都","city":"福生市","address":"東京都福生市熊川（大字）1311","lat":35.72801848,"lon":139.34267597},{"name":"セレモニーホール福生","province":"東京都","city":"福生市","address":"東京都福生市加美平1丁目19-5","lat":35.74983486,"lon":139.32494595},{"name":"ファミリアホール創友社","province":"東京都","city":"福生市","address":"東京都福生市福生（大字）1983-40","lat":35.74859646,"lon":139.33708673},{"name":"株式会社多摩祭典","province":"東京都","city":"福生市","address":"東京都福生市福生（大字）2350","lat":35.73898372,"lon":139.33776209},{"name":"JAにしたま葬祭センター","province":"東京都","city":"福生市","address":"東京都福生市本町16","lat":35.73854461,"lon":139.32766007},{"name":"そうしんフレールホール福生","province":"東京都","city":"福生市","address":"東京都福生市南田園2丁目15-3","lat":35.72696557,"lon":139.33109909},{"name":"葬儀・終活相談センターフィーネ","province":"東京都","city":"福生市","address":"東京都福生市加美平2丁目3-2","lat":35.74649082,"lon":139.32587934},{"name":"武蔵野橋南","province":"東京都","city":"福生市","address":"東京都福生市熊川（大字）459","lat":35.72125259,"lon":139.34023747},{"name":"福生駅西","province":"東京都","city":"福生市","address":"東京都福生市福生（大字）1110","lat":35.741197,"lon":139.32506293},{"name":"鍋ヶ谷戸","province":"東京都","city":"福生市","address":"東京都福生市熊川（大字）742","lat":35.72824883,"lon":139.33455436},{"name":"福生駅前","province":"東京都","city":"福生市","address":"東京都福生市福生（大字）767","lat":35.74185531,"lon":139.32733496},{"name":"加美郵便局前","province":"東京都","city":"福生市","address":"東京都福生市加美平2丁目1-1","lat":35.74583258,"lon":139.32619323},{"name":"加美郵便局前第二","province":"東京都","city":"福生市","address":"東京都福生市東町15-1","lat":35.74577981,"lon":139.32645711},{"name":"福生市役所前","province":"東京都","city":"福生市","address":"東京都福生市本町5","lat":35.73848071,"lon":139.32691568},{"name":"福生武蔵野台浄水所","province":"東京都","city":"福生市","address":"東京都福生市武蔵野台2丁目32","lat":35.75162088,"lon":139.329215},{"name":"福生市公民館","province":"東京都","city":"福生市","address":"福生市福生2455","lat":35.734283,"lon":139.337967},{"name":"福生市公民館松林分館","province":"東京都","city":"福生市","address":"福生市武蔵野台1-15-1","lat":35.746574,"lon":139.332214},{"name":"福生市公民館白梅分館","province":"東京都","city":"福生市","address":"福生市熊川559-1","lat":35.72414,"lon":139.33786},{"name":"福生市立わかぎり図書館","province":"東京都","city":"福生市","address":"福生市福生1280-1","lat":35.74604,"lon":139.321091},{"name":"福生市立わかたけ図書館","province":"東京都","city":"福生市","address":"福生市熊川199-1","lat":35.718021,"lon":139.335327},{"name":"福生市立中央図書館","province":"東京都","city":"福生市","address":"福生市熊川850-1","lat":35.731689,"lon":139.337662},{"name":"福生市立武蔵野台図書館","province":"東京都","city":"福生市","address":"福生市武蔵野台1-12-2","lat":35.74699,"lon":139.333954},{"name":"福生市郷土資料室","province":"東京都","city":"福生市","address":"福生市熊川850-1","lat":35.731689,"lon":139.337662},{"name":"かえで会館","province":"東京都","city":"福生市","address":"福生市加美平1-20-6","lat":35.750492,"lon":139.325958},{"name":"さくら会館","province":"東京都","city":"福生市","address":"福生市牛浜163","lat":35.733948,"lon":139.336945},{"name":"扶桑会館","province":"東京都","city":"福生市","address":"福生市福生1069-1","lat":35.744026,"lon":139.324768},{"name":"福生市茶室「福庵」","province":"東京都","city":"福生市","address":"福生市熊川854-3","lat":35.731689,"lon":139.337662},{"name":"福生市民会館","province":"東京都","city":"福生市","address":"福生市福生2455","lat":35.734283,"lon":139.337967},{"name":"株式会社セレサポート","province":"東京都","city":"福生市","address":"東京都福生市武蔵野台2丁目25-5","lat":35.74972941,"lon":139.32824293},{"name":"株式会社 多摩祭典","province":"東京都","city":"福生市","address":"東京都福生市福生（大字）2350","lat":35.73898372,"lon":139.33776209},{"name":"株式会社 セレサポート","province":"東京都","city":"福生市","address":"東京都福生市武蔵野台2丁目25-5","lat":35.74972941,"lon":139.32824293},{"name":"愛和セレモニー","province":"東京都","city":"福生市","address":"東京都福生市熊川（大字）888","lat":35.72984032,"lon":139.33577366},{"name":"有限会社島田屋","province":"東京都","city":"福生市","address":"東京都福生市本町134","lat":35.7410471,"lon":139.32819327},{"name":"株式会社セレモア","province":"東京都","city":"福生市","address":"東京都福生市熊川（大字）1311","lat":35.72801848,"lon":139.34267597},{"name":"セレモニーホール福生","province":"東京都","city":"福生市","address":"東京都福生市加美平1丁目19-5","lat":35.74983486,"lon":139.32494595},{"name":"ファミリアホール創友社","province":"東京都","city":"福生市","address":"東京都福生市福生（大字）1983-40","lat":35.74859646,"lon":139.33708673},{"name":"株式会社多摩祭典","province":"東京都","city":"福生市","address":"東京都福生市福生（大字）2350","lat":35.73898372,"lon":139.33776209},{"name":"JAにしたま葬祭センター","province":"東京都","city":"福生市","address":"東京都福生市本町16","lat":35.73854461,"lon":139.32766007},{"name":"そうしんフレールホール福生","province":"東京都","city":"福生市","address":"東京都福生市南田園2丁目15-3","lat":35.72696557,"lon":139.33109909},{"name":"葬儀・終活相談センターフィーネ","province":"東京都","city":"福生市","address":"東京都福生市加美平2丁目3-2","lat":35.74649082,"lon":139.32587934},{"name":"武蔵野橋南","province":"東京都","city":"福生市","address":"東京都福生市熊川（大字）459","lat":35.72125259,"lon":139.34023747},{"name":"福生駅西","province":"東京都","city":"福生市","address":"東京都福生市福生（大字）1110","lat":35.741197,"lon":139.32506293},{"name":"鍋ヶ谷戸","province":"東京都","city":"福生市","address":"東京都福生市熊川（大字）742","lat":35.72824883,"lon":139.33455436},{"name":"福生駅前","province":"東京都","city":"福生市","address":"東京都福生市福生（大字）767","lat":35.74185531,"lon":139.32733496},{"name":"加美郵便局前","province":"東京都","city":"福生市","address":"東京都福生市加美平2丁目1-1","lat":35.74583258,"lon":139.32619323},{"name":"加美郵便局前第二","province":"東京都","city":"福生市","address":"東京都福生市東町15-1","lat":35.74577981,"lon":139.32645711},{"name":"福生市役所前","province":"東京都","city":"福生市","address":"東京都福生市本町5","lat":35.73848071,"lon":139.32691568},{"name":"福生武蔵野台浄水所","province":"東京都","city":"福生市","address":"東京都福生市武蔵野台2丁目32","lat":35.75162088,"lon":139.329215},{"name":"福生市公民館","province":"東京都","city":"福生市","address":"福生市福生2455","lat":35.734283,"lon":139.337967},{"name":"福生市公民館松林分館","province":"東京都","city":"福生市","address":"福生市武蔵野台1-15-1","lat":35.746574,"lon":139.332214},{"name":"福生市公民館白梅分館","province":"東京都","city":"福生市","address":"福生市熊川559-1","lat":35.72414,"lon":139.33786},{"name":"福生市立わかぎり図書館","province":"東京都","city":"福生市","address":"福生市福生1280-1","lat":35.74604,"lon":139.321091},{"name":"福生市立わかたけ図書館","province":"東京都","city":"福生市","address":"福生市熊川199-1","lat":35.718021,"lon":139.335327},{"name":"福生市立中央図書館","province":"東京都","city":"福生市","address":"福生市熊川850-1","lat":35.731689,"lon":139.337662},{"name":"福生市立武蔵野台図書館","province":"東京都","city":"福生市","address":"福生市武蔵野台1-12-2","lat":35.74699,"lon":139.333954},{"name":"福生市郷土資料室","province":"東京都","city":"福生市","address":"福生市熊川850-1","lat":35.731689,"lon":139.337662},{"name":"かえで会館","province":"東京都","city":"福生市","address":"福生市加美平1-20-6","lat":35.750492,"lon":139.325958},{"name":"さくら会館","province":"東京都","city":"福生市","address":"福生市牛浜163","lat":35.733948,"lon":139.336945},{"name":"扶桑会館","province":"東京都","city":"福生市","address":"福生市福生1069-1","lat":35.744026,"lon":139.324768},{"name":"福生市茶室「福庵」","province":"東京都","city":"福生市","address":"福生市熊川854-3","lat":35.731689,"lon":139.337662},{"name":"福生市民会館","province":"東京都","city":"福生市","address":"福生市福生2455","lat":35.734283,"lon":139.337967},{"name":"株式会社セレサポート","province":"東京都","city":"福生市","address":"東京都福生市武蔵野台2丁目25-5","lat":35.74972941,"lon":139.32824293},{"name":"株式会社 多摩祭典","province":"東京都","city":"福生市","address":"東京都福生市福生（大字）2350","lat":35.73898372,"lon":139.33776209},{"name":"株式会社 セレサポート","province":"東京都","city":"福生市","address":"東京都福生市武蔵野台2丁目25-5","lat":35.74972941,"lon":139.32824293},{"name":"愛和セレモニー","province":"東京都","city":"福生市","address":"東京都福生市熊川（大字）888","lat":35.72984032,"lon":139.33577366},{"name":"有限会社島田屋","province":"東京都","city":"福生市","address":"東京都福生市本町134","lat":35.7410471,"lon":139.32819327},{"name":"株式会社セレモア","province":"東京都","city":"福生市","address":"東京都福生市熊川（大字）1311","lat":35.72801848,"lon":139.34267597},{"name":"セレモニーホール福生","province":"東京都","city":"福生市","address":"東京都福生市加美平1丁目19-5","lat":35.74983486,"lon":139.32494595},{"name":"ファミリアホール創友社","province":"東京都","city":"福生市","address":"東京都福生市福生（大字）1983-40","lat":35.74859646,"lon":139.33708673},{"name":"株式会社多摩祭典","province":"東京都","city":"福生市","address":"東京都福生市福生（大字）2350","lat":35.73898372,"lon":139.33776209},{"name":"JAにしたま葬祭センター","province":"東京都","city":"福生市","address":"東京都福生市本町16","lat":35.73854461,"lon":139.32766007},{"name":"そうしんフレールホール福生","province":"東京都","city":"福生市","address":"東京都福生市南田園2丁目15-3","lat":35.72696557,"lon":139.33109909},{"name":"葬儀・終活相談センターフィーネ","province":"東京都","city":"福生市","address":"東京都福生市加美平2丁目3-2","lat":35.74649082,"lon":139.32587934},{"name":"武蔵野橋南","province":"東京都","city":"福生市","address":"東京都福生市熊川（大字）459","lat":35.72125259,"lon":139.34023747},{"name":"福生駅西","province":"東京都","city":"福生市","address":"東京都福生市福生（大字）1110","lat":35.741197,"lon":139.32506293},{"name":"鍋ヶ谷戸","province":"東京都","city":"福生市","address":"東京都福生市熊川（大字）742","lat":35.72824883,"lon":139.33455436},{"name":"福生駅前","province":"東京都","city":"福生市","address":"東京都福生市福生（大字）767","lat":35.74185531,"lon":139.32733496},{"name":"加美郵便局前","province":"東京都","city":"福生市","address":"東京都福生市加美平2丁目1-1","lat":35.74583258,"lon":139.32619323},{"name":"加美郵便局前第二","province":"東京都","city":"福生市","address":"東京都福生市東町15-1","lat":35.74577981,"lon":139.32645711},{"name":"福生市役所前","province":"東京都","city":"福生市","address":"東京都福生市本町5","lat":35.73848071,"lon":139.32691568},{"name":"福生武蔵野台浄水所","province":"東京都","city":"福生市","address":"東京都福生市武蔵野台2丁目32","lat":35.75162088,"lon":139.329215},{"name":"福生市公民館","province":"東京都","city":"福生市","address":"福生市福生2455","lat":35.734283,"lon":139.337967},{"name":"福生市公民館松林分館","province":"東京都","city":"福生市","address":"福生市武蔵野台1-15-1","lat":35.746574,"lon":139.332214},{"name":"福生市公民館白梅分館","province":"東京都","city":"福生市","address":"福生市熊川559-1","lat":35.72414,"lon":139.33786},{"name":"福生市立わかぎり図書館","province":"東京都","city":"福生市","address":"福生市福生1280-1","lat":35.74604,"lon":139.321091},{"name":"福生市立わかたけ図書館","province":"東京都","city":"福生市","address":"福生市熊川199-1","lat":35.718021,"lon":139.335327},{"name":"福生市立中央図書館","province":"東京都","city":"福生市","address":"福生市熊川850-1","lat":35.731689,"lon":139.337662},{"name":"福生市立武蔵野台図書館","province":"東京都","city":"福生市","address":"福生市武蔵野台1-12-2","lat":35.74699,"lon":139.333954},{"name":"福生市郷土資料室","province":"東京都","city":"福生市","address":"福生市熊川850-1","lat":35.731689,"lon":139.337662},{"name":"かえで会館","province":"東京都","city":"福生市","address":"福生市加美平1-20-6","lat":35.750492,"lon":139.325958},{"name":"さくら会館","province":"東京都","city":"福生市","address":"福生市牛浜163","lat":35.733948,"lon":139.336945},{"name":"扶桑会館","province":"東京都","city":"福生市","address":"福生市福生1069-1","lat":35.744026,"lon":139.324768},{"name":"福生市茶室「福庵」","province":"東京都","city":"福生市","address":"福生市熊川854-3","lat":35.731689,"lon":139.337662},{"name":"福生市民会館","province":"東京都","city":"福生市","address":"福生市福生2455","lat":35.734283,"lon":139.337967},{"name":"株式会社セレサポート","province":"東京都","city":"福生市","address":"東京都福生市武蔵野台2丁目25-5","lat":35.74972941,"lon":139.32824293},{"name":"株式会社 多摩祭典","province":"東京都","city":"福生市","address":"東京都福生市福生（大字）2350","lat":35.73898372,"lon":139.33776209},{"name":"株式会社 セレサポート","province":"東京都","city":"福生市","address":"東京都福生市武蔵野台2丁目25-5","lat":35.74972941,"lon":139.32824293},{"name":"愛和セレモニー","province":"東京都","city":"福生市","address":"東京都福生市熊川（大字）888","lat":35.72984032,"lon":139.33577366},{"name":"有限会社島田屋","province":"東京都","city":"福生市","address":"東京都福生市本町134","lat":35.7410471,"lon":139.32819327},{"name":"株式会社セレモア","province":"東京都","city":"福生市","address":"東京都福生市熊川（大字）1311","lat":35.72801848,"lon":139.34267597},{"name":"セレモニーホール福生","province":"東京都","city":"福生市","address":"東京都福生市加美平1丁目19-5","lat":35.74983486,"lon":139.32494595},{"name":"ファミリアホール創友社","province":"東京都","city":"福生市","address":"東京都福生市福生（大字）1983-40","lat":35.74859646,"lon":139.33708673},{"name":"株式会社多摩祭典","province":"東京都","city":"福生市","address":"東京都福生市福生（大字）2350","lat":35.73898372,"lon":139.33776209},{"name":"JAにしたま葬祭センター","province":"東京都","city":"福生市","address":"東京都福生市本町16","lat":35.73854461,"lon":139.32766007},{"name":"そうしんフレールホール福生","province":"東京都","city":"福生市","address":"東京都福生市南田園2丁目15-3","lat":35.72696557,"lon":139.33109909},{"name":"葬儀・終活相談センターフィーネ","province":"東京都","city":"福生市","address":"東京都福生市加美平2丁目3-2","lat":35.74649082,"lon":139.32587934},{"name":"武蔵野橋南","province":"東京都","city":"福生市","address":"東京都福生市熊川（大字）459","lat":35.72125259,"lon":139.34023747},{"name":"福生駅西","province":"東京都","city":"福生市","address":"東京都福生市福生（大字）1110","lat":35.741197,"lon":139.32506293},{"name":"鍋ヶ谷戸","province":"東京都","city":"福生市","address":"東京都福生市熊川（大字）742","lat":35.72824883,"lon":139.33455436},{"name":"福生駅前","province":"東京都","city":"福生市","address":"東京都福生市福生（大字）767","lat":35.74185531,"lon":139.32733496},{"name":"加美郵便局前","province":"東京都","city":"福生市","address":"東京都福生市加美平2丁目1-1","lat":35.74583258,"lon":139.32619323},{"name":"加美郵便局前第二","province":"東京都","city":"福生市","address":"東京都福生市東町15-1","lat":35.74577981,"lon":139.32645711},{"name":"福生市役所前","province":"東京都","city":"福生市","address":"東京都福生市本町5","lat":35.73848071,"lon":139.32691568},{"name":"福生武蔵野台浄水所","province":"東京都","city":"福生市","address":"東京都福生市武蔵野台2丁目32","lat":35.75162088,"lon":139.329215},{"name":"福生市公民館","province":"東京都","city":"福生市","address":"福生市福生2455","lat":35.734283,"lon":139.337967},{"name":"福生市公民館松林分館","province":"東京都","city":"福生市","address":"福生市武蔵野台1-15-1","lat":35.746574,"lon":139.332214},{"name":"福生市公民館白梅分館","province":"東京都","city":"福生市","address":"福生市熊川559-1","lat":35.72414,"lon":139.33786},{"name":"福生市立わかぎり図書館","province":"東京都","city":"福生市","address":"福生市福生1280-1","lat":35.74604,"lon":139.321091},{"name":"福生市立わかたけ図書館","province":"東京都","city":"福生市","address":"福生市熊川199-1","lat":35.718021,"lon":139.335327},{"name":"福生市立中央図書館","province":"東京都","city":"福生市","address":"福生市熊川850-1","lat":35.731689,"lon":139.337662},{"name":"福生市立武蔵野台図書館","province":"東京都","city":"福生市","address":"福生市武蔵野台1-12-2","lat":35.74699,"lon":139.333954},{"name":"福生市郷土資料室","province":"東京都","city":"福生市","address":"福生市熊川850-1","lat":35.731689,"lon":139.337662},{"name":"かえで会館","province":"東京都","city":"福生市","address":"福生市加美平1-20-6","lat":35.750492,"lon":139.325958},{"name":"さくら会館","province":"東京都","city":"福生市","address":"福生市牛浜163","lat":35.733948,"lon":139.336945},{"name":"扶桑会館","province":"東京都","city":"福生市","address":"福生市福生1069-1","lat":35.744026,"lon":139.324768},{"name":"福生市茶室「福庵」","province":"東京都","city":"福生市","address":"福生市熊川854-3","lat":35.731689,"lon":139.337662},{"name":"福生市民会館","province":"東京都","city":"福生市","address":"福生市福生2455","lat":35.734283,"lon":139.337967},{"name":"株式会社セレサポート","province":"東京都","city":"福生市","address":"東京都福生市武蔵野台2丁目25-5","lat":35.74972941,"lon":139.32824293},{"name":"株式会社 多摩祭典","province":"東京都","city":"福生市","address":"東京都福生市福生（大字）2350","lat":35.73898372,"lon":139.33776209},{"name":"株式会社 セレサポート","province":"東京都","city":"福生市","address":"東京都福生市武蔵野台2丁目25-5","lat":35.74972941,"lon":139.32824293},{"name":"愛和セレモニー","province":"東京都","city":"福生市","address":"東京都福生市熊川（大字）888","lat":35.72984032,"lon":139.33577366},{"name":"有限会社島田屋","province":"東京都","city":"福生市","address":"東京都福生市本町134","lat":35.7410471,"lon":139.32819327},{"name":"株式会社セレモア","province":"東京都","city":"福生市","address":"東京都福生市熊川（大字）1311","lat":35.72801848,"lon":139.34267597},{"name":"セレモニーホール福生","province":"東京都","city":"福生市","address":"東京都福生市加美平1丁目19-5","lat":35.74983486,"lon":139.32494595},{"name":"ファミリアホール創友社","province":"東京都","city":"福生市","address":"東京都福生市福生（大字）1983-40","lat":35.74859646,"lon":139.33708673},{"name":"株式会社多摩祭典","province":"東京都","city":"福生市","address":"東京都福生市福生（大字）2350","lat":35.73898372,"lon":139.33776209},{"name":"JAにしたま葬祭センター","province":"東京都","city":"福生市","address":"東京都福生市本町16","lat":35.73854461,"lon":139.32766007},{"name":"そうしんフレールホール福生","province":"東京都","city":"福生市","address":"東京都福生市南田園2丁目15-3","lat":35.72696557,"lon":139.33109909},{"name":"葬儀・終活相談センターフィーネ","province":"東京都","city":"福生市","address":"東京都福生市加美平2丁目3-2","lat":35.74649082,"lon":139.32587934},{"name":"武蔵野橋南","province":"東京都","city":"福生市","address":"東京都福生市熊川（大字）459","lat":35.72125259,"lon":139.34023747},{"name":"福生駅西","province":"東京都","city":"福生市","address":"東京都福生市福生（大字）1110","lat":35.741197,"lon":139.32506293},{"name":"鍋ヶ谷戸","province":"東京都","city":"福生市","address":"東京都福生市熊川（大字）742","lat":35.72824883,"lon":139.33455436},{"name":"福生駅前","province":"東京都","city":"福生市","address":"東京都福生市福生（大字）767","lat":35.74185531,"lon":139.32733496},{"name":"加美郵便局前","province":"東京都","city":"福生市","address":"東京都福生市加美平2丁目1-1","lat":35.74583258,"lon":139.32619323},{"name":"加美郵便局前第二","province":"東京都","city":"福生市","address":"東京都福生市東町15-1","lat":35.74577981,"lon":139.32645711},{"name":"福生市役所前","province":"東京都","city":"福生市","address":"東京都福生市本町5","lat":35.73848071,"lon":139.32691568},{"name":"福生武蔵野台浄水所","province":"東京都","city":"福生市","address":"東京都福生市武蔵野台2丁目32","lat":35.75162088,"lon":139.329215},{"name":"福生市公民館","province":"東京都","city":"福生市","address":"福生市福生2455","lat":35.734283,"lon":139.337967},{"name":"福生市公民館松林分館","province":"東京都","city":"福生市","address":"福生市武蔵野台1-15-1","lat":35.746574,"lon":139.332214},{"name":"福生市公民館白梅分館","province":"東京都","city":"福生市","address":"福生市熊川559-1","lat":35.72414,"lon":139.33786},{"name":"福生市立わかぎり図書館","province":"東京都","city":"福生市","address":"福生市福生1280-1","lat":35.74604,"lon":139.321091},{"name":"福生市立わかたけ図書館","province":"東京都","city":"福生市","address":"福生市熊川199-1","lat":35.718021,"lon":139.335327},{"name":"福生市立中央図書館","province":"東京都","city":"福生市","address":"福生市熊川850-1","lat":35.731689,"lon":139.337662},{"name":"福生市立武蔵野台図書館","province":"東京都","city":"福生市","address":"福生市武蔵野台1-12-2","lat":35.74699,"lon":139.333954},{"name":"福生市郷土資料室","province":"東京都","city":"福生市","address":"福生市熊川850-1","lat":35.731689,"lon":139.337662},{"name":"かえで会館","province":"東京都","city":"福生市","address":"福生市加美平1-20-6","lat":35.750492,"lon":139.325958},{"name":"さくら会館","province":"東京都","city":"福生市","address":"福生市牛浜163","lat":35.733948,"lon":139.336945},{"name":"扶桑会館","province":"東京都","city":"福生市","address":"福生市福生1069-1","lat":35.744026,"lon":139.324768},{"name":"福生市茶室「福庵」","province":"東京都","city":"福生市","address":"福生市熊川854-3","lat":35.731689,"lon":139.337662},{"name":"福生市民会館","province":"東京都","city":"福生市","address":"福生市福生2455","lat":35.734283,"lon":139.337967},{"name":"株式会社セレサポート","province":"東京都","city":"福生市","address":"東京都福生市武蔵野台2丁目25-5","lat":35.74972941,"lon":139.32824293},{"name":"株式会社 多摩祭典","province":"東京都","city":"福生市","address":"東京都福生市福生（大字）2350","lat":35.73898372,"lon":139.33776209},{"name":"株式会社 セレサポート","province":"東京都","city":"福生市","address":"東京都福生市武蔵野台2丁目25-5","lat":35.74972941,"lon":139.32824293},{"name":"愛和セレモニー","province":"東京都","city":"福生市","address":"東京都福生市熊川（大字）888","lat":35.72984032,"lon":139.33577366},{"name":"有限会社島田屋","province":"東京都","city":"福生市","address":"東京都福生市本町134","lat":35.7410471,"lon":139.32819327},{"name":"株式会社セレモア","province":"東京都","city":"福生市","address":"東京都福生市熊川（大字）1311","lat":35.72801848,"lon":139.34267597},{"name":"セレモニーホール福生","province":"東京都","city":"福生市","address":"東京都福生市加美平1丁目19-5","lat":35.74983486,"lon":139.32494595},{"name":"ファミリアホール創友社","province":"東京都","city":"福生市","address":"東京都福生市福生（大字）1983-40","lat":35.74859646,"lon":139.33708673},{"name":"株式会社多摩祭典","province":"東京都","city":"福生市","address":"東京都福生市福生（大字）2350","lat":35.73898372,"lon":139.33776209},{"name":"JAにしたま葬祭センター","province":"東京都","city":"福生市","address":"東京都福生市本町16","lat":35.73854461,"lon":139.32766007},{"name":"そうしんフレールホール福生","province":"東京都","city":"福生市","address":"東京都福生市南田園2丁目15-3","lat":35.72696557,"lon":139.33109909},{"name":"葬儀・終活相談センターフィーネ","province":"東京都","city":"福生市","address":"東京都福生市加美平2丁目3-2","lat":35.74649082,"lon":139.32587934},{"name":"武蔵野橋南","province":"東京都","city":"福生市","address":"東京都福生市熊川（大字）459","lat":35.72125259,"lon":139.34023747},{"name":"福生駅西","province":"東京都","city":"福生市","address":"東京都福生市福生（大字）1110","lat":35.741197,"lon":139.32506293},{"name":"鍋ヶ谷戸","province":"東京都","city":"福生市","address":"東京都福生市熊川（大字）742","lat":35.72824883,"lon":139.33455436},{"name":"福生駅前","province":"東京都","city":"福生市","address":"東京都福生市福生（大字）767","lat":35.74185531,"lon":139.32733496},{"name":"加美郵便局前","province":"東京都","city":"福生市","address":"東京都福生市加美平2丁目1-1","lat":35.74583258,"lon":139.32619323},{"name":"加美郵便局前第二","province":"東京都","city":"福生市","address":"東京都福生市東町15-1","lat":35.74577981,"lon":139.32645711},{"name":"福生市役所前","province":"東京都","city":"福生市","address":"東京都福生市本町5","lat":35.73848071,"lon":139.32691568},{"name":"福生武蔵野台浄水所","province":"東京都","city":"福生市","address":"東京都福生市武蔵野台2丁目32","lat":35.75162088,"lon":139.329215},{"name":"福生市公民館","province":"東京都","city":"福生市","address":"福生市福生2455","lat":35.734283,"lon":139.337967},{"name":"福生市公民館松林分館","province":"東京都","city":"福生市","address":"福生市武蔵野台1-15-1","lat":35.746574,"lon":139.332214},{"name":"福生市公民館白梅分館","province":"東京都","city":"福生市","address":"福生市熊川559-1","lat":35.72414,"lon":139.33786},{"name":"福生市立わかぎり図書館","province":"東京都","city":"福生市","address":"福生市福生1280-1","lat":35.74604,"lon":139.321091},{"name":"福生市立わかたけ図書館","province":"東京都","city":"福生市","address":"福生市熊川199-1","lat":35.718021,"lon":139.335327},{"name":"福生市立中央図書館","province":"東京都","city":"福生市","address":"福生市熊川850-1","lat":35.731689,"lon":139.337662},{"name":"福生市立武蔵野台図書館","province":"東京都","city":"福生市","address":"福生市武蔵野台1-12-2","lat":35.74699,"lon":139.333954},{"name":"福生市郷土資料室","province":"東京都","city":"福生市","address":"福生市熊川850-1","lat":35.731689,"lon":139.337662},{"name":"かえで会館","province":"東京都","city":"福生市","address":"福生市加美平1-20-6","lat":35.750492,"lon":139.325958},{"name":"さくら会館","province":"東京都","city":"福生市","address":"福生市牛浜163","lat":35.733948,"lon":139.336945},{"name":"扶桑会館","province":"東京都","city":"福生市","address":"福生市福生1069-1","lat":35.744026,"lon":139.324768},{"name":"福生市茶室「福庵」","province":"東京都","city":"福生市","address":"福生市熊川854-3","lat":35.731689,"lon":139.337662},{"name":"福生市民会館","province":"東京都","city":"福生市","address":"福生市福生2455","lat":35.734283,"lon":139.337967},{"name":"株式会社セレサポート","province":"東京都","city":"福生市","address":"東京都福生市武蔵野台2丁目25-5","lat":35.74972941,"lon":139.32824293},{"name":"株式会社 多摩祭典","province":"東京都","city":"福生市","address":"東京都福生市福生（大字）2350","lat":35.73898372,"lon":139.33776209},{"name":"株式会社 セレサポート","province":"東京都","city":"福生市","address":"東京都福生市武蔵野台2丁目25-5","lat":35.74972941,"lon":139.32824293},{"name":"愛和セレモニー","province":"東京都","city":"福生市","address":"東京都福生市熊川（大字）888","lat":35.72984032,"lon":139.33577366},{"name":"有限会社島田屋","province":"東京都","city":"福生市","address":"東京都福生市本町134","lat":35.7410471,"lon":139.32819327},{"name":"株式会社セレモア","province":"東京都","city":"福生市","address":"東京都福生市熊川（大字）1311","lat":35.72801848,"lon":139.34267597},{"name":"セレモニーホール福生","province":"東京都","city":"福生市","address":"東京都福生市加美平1丁目19-5","lat":35.74983486,"lon":139.32494595},{"name":"ファミリアホール創友社","province":"東京都","city":"福生市","address":"東京都福生市福生（大字）1983-40","lat":35.74859646,"lon":139.33708673},{"name":"株式会社多摩祭典","province":"東京都","city":"福生市","address":"東京都福生市福生（大字）2350","lat":35.73898372,"lon":139.33776209},{"name":"JAにしたま葬祭センター","province":"東京都","city":"福生市","address":"東京都福生市本町16","lat":35.73854461,"lon":139.32766007},{"name":"そうしんフレールホール福生","province":"東京都","city":"福生市","address":"東京都福生市南田園2丁目15-3","lat":35.72696557,"lon":139.33109909},{"name":"葬儀・終活相談センターフィーネ","province":"東京都","city":"福生市","address":"東京都福生市加美平2丁目3-2","lat":35.74649082,"lon":139.32587934},{"name":"武蔵野橋南","province":"東京都","city":"福生市","address":"東京都福生市熊川（大字）459","lat":35.72125259,"lon":139.34023747},{"name":"福生駅西","province":"東京都","city":"福生市","address":"東京都福生市福生（大字）1110","lat":35.741197,"lon":139.32506293},{"name":"鍋ヶ谷戸","province":"東京都","city":"福生市","address":"東京都福生市熊川（大字）742","lat":35.72824883,"lon":139.33455436},{"name":"福生駅前","province":"東京都","city":"福生市","address":"東京都福生市福生（大字）767","lat":35.74185531,"lon":139.32733496},{"name":"加美郵便局前","province":"東京都","city":"福生市","address":"東京都福生市加美平2丁目1-1","lat":35.74583258,"lon":139.32619323},{"name":"加美郵便局前第二","province":"東京都","city":"福生市","address":"東京都福生市東町15-1","lat":35.74577981,"lon":139.32645711},{"name":"福生市役所前","province":"東京都","city":"福生市","address":"東京都福生市本町5","lat":35.73848071,"lon":139.32691568},{"name":"福生武蔵野台浄水所","province":"東京都","city":"福生市","address":"東京都福生市武蔵野台2丁目32","lat":35.75162088,"lon":139.329215},{"name":"福生市公民館","province":"東京都","city":"福生市","address":"福生市福生2455","lat":35.734283,"lon":139.337967},{"name":"福生市公民館松林分館","province":"東京都","city":"福生市","address":"福生市武蔵野台1-15-1","lat":35.746574,"lon":139.332214},{"name":"福生市公民館白梅分館","province":"東京都","city":"福生市","address":"福生市熊川559-1","lat":35.72414,"lon":139.33786},{"name":"福生市立わかぎり図書館","province":"東京都","city":"福生市","address":"福生市福生1280-1","lat":35.74604,"lon":139.321091},{"name":"福生市立わかたけ図書館","province":"東京都","city":"福生市","address":"福生市熊川199-1","lat":35.718021,"lon":139.335327},{"name":"福生市立中央図書館","province":"東京都","city":"福生市","address":"福生市熊川850-1","lat":35.731689,"lon":139.337662},{"name":"福生市立武蔵野台図書館","province":"東京都","city":"福生市","address":"福生市武蔵野台1-12-2","lat":35.74699,"lon":139.333954},{"name":"福生市郷土資料室","province":"東京都","city":"福生市","address":"福生市熊川850-1","lat":35.731689,"lon":139.337662},{"name":"かえで会館","province":"東京都","city":"福生市","address":"福生市加美平1-20-6","lat":35.750492,"lon":139.325958},{"name":"さくら会館","province":"東京都","city":"福生市","address":"福生市牛浜163","lat":35.733948,"lon":139.336945},{"name":"扶桑会館","province":"東京都","city":"福生市","address":"福生市福生1069-1","lat":35.744026,"lon":139.324768},{"name":"福生市茶室「福庵」","province":"東京都","city":"福生市","address":"福生市熊川854-3","lat":35.731689,"lon":139.337662},{"name":"福生市民会館","province":"東京都","city":"福生市","address":"福生市福生2455","lat":35.734283,"lon":139.337967},{"name":"株式会社セレサポート","province":"東京都","city":"福生市","address":"東京都福生市武蔵野台2丁目25-5","lat":35.74972941,"lon":139.32824293},{"name":"株式会社 多摩祭典","province":"東京都","city":"福生市","address":"東京都福生市福生（大字）2350","lat":35.73898372,"lon":139.33776209},{"name":"株式会社 セレサポート","province":"東京都","city":"福生市","address":"東京都福生市武蔵野台2丁目25-5","lat":35.74972941,"lon":139.32824293},{"name":"愛和セレモニー","province":"東京都","city":"福生市","address":"東京都福生市熊川（大字）888","lat":35.72984032,"lon":139.33577366},{"name":"有限会社島田屋","province":"東京都","city":"福生市","address":"東京都福生市本町134","lat":35.7410471,"lon":139.32819327},{"name":"株式会社セレモア","province":"東京都","city":"福生市","address":"東京都福生市熊川（大字）1311","lat":35.72801848,"lon":139.34267597},{"name":"セレモニーホール福生","province":"東京都","city":"福生市","address":"東京都福生市加美平1丁目19-5","lat":35.74983486,"lon":139.32494595},{"name":"ファミリアホール創友社","province":"東京都","city":"福生市","address":"東京都福生市福生（大字）1983-40","lat":35.74859646,"lon":139.33708673},{"name":"株式会社多摩祭典","province":"東京都","city":"福生市","address":"東京都福生市福生（大字）2350","lat":35.73898372,"lon":139.33776209},{"name":"JAにしたま葬祭センター","province":"東京都","city":"福生市","address":"東京都福生市本町16","lat":35.73854461,"lon":139.32766007},{"name":"そうしんフレールホール福生","province":"東京都","city":"福生市","address":"東京都福生市南田園2丁目15-3","lat":35.72696557,"lon":139.33109909},{"name":"葬儀・終活相談センターフィーネ","province":"東京都","city":"福生市","address":"東京都福生市加美平2丁目3-2","lat":35.74649082,"lon":139.32587934},{"name":"福生市公民館","province":"東京都","city":"福生市","address":"福生市福生2455","lat":35.734283,"lon":139.337967},{"name":"福生市公民館松林分館","province":"東京都","city":"福生市","address":"福生市武蔵野台1-15-1","lat":35.746574,"lon":139.332214},{"name":"福生市公民館白梅分館","province":"東京都","city":"福生市","address":"福生市熊川559-1","lat":35.72414,"lon":139.33786},{"name":"福生市立わかぎり図書館","province":"東京都","city":"福生市","address":"福生市福生1280-1","lat":35.74604,"lon":139.321091},{"name":"福生市立わかたけ図書館","province":"東京都","city":"福生市","address":"福生市熊川199-1","lat":35.718021,"lon":139.335327},{"name":"福生市立中央図書館","province":"東京都","city":"福生市","address":"福生市熊川850-1","lat":35.731689,"lon":139.337662},{"name":"福生市立武蔵野台図書館","province":"東京都","city":"福生市","address":"福生市武蔵野台1-12-2","lat":35.74699,"lon":139.333954},{"name":"福生市郷土資料室","province":"東京都","city":"福生市","address":"福生市熊川850-1","lat":35.731689,"lon":139.337662},{"name":"かえで会館","province":"東京都","city":"福生市","address":"福生市加美平1-20-6","lat":35.750492,"lon":139.325958},{"name":"さくら会館","province":"東京都","city":"福生市","address":"福生市牛浜163","lat":35.733948,"lon":139.336945},{"name":"扶桑会館","province":"東京都","city":"福生市","address":"福生市福生1069-1","lat":35.744026,"lon":139.324768},{"name":"福生市茶室「福庵」","province":"東京都","city":"福生市","address":"福生市熊川854-3","lat":35.731689,"lon":139.337662},{"name":"福生市民会館","province":"東京都","city":"福生市","address":"福生市福生2455","lat":35.734283,"lon":139.337967},{"name":"株式会社セレサポート","province":"東京都","city":"福生市","address":"東京都福生市武蔵野台2丁目25-5","lat":35.74972941,"lon":139.32824293},{"name":"株式会社 多摩祭典","province":"東京都","city":"福生市","address":"東京都福生市福生（大字）2350","lat":35.73898372,"lon":139.33776209},{"name":"株式会社 セレサポート","province":"東京都","city":"福生市","address":"東京都福生市武蔵野台2丁目25-5","lat":35.74972941,"lon":139.32824293},{"name":"愛和セレモニー","province":"東京都","city":"福生市","address":"東京都福生市熊川（大字）888","lat":35.72984032,"lon":139.33577366},{"name":"有限会社島田屋","province":"東京都","city":"福生市","address":"東京都福生市本町134","lat":35.7410471,"lon":139.32819327},{"name":"株式会社セレモア","province":"東京都","city":"福生市","address":"東京都福生市熊川（大字）1311","lat":35.72801848,"lon":139.34267597},{"name":"セレモニーホール福生","province":"東京都","city":"福生市","address":"東京都福生市加美平1丁目19-5","lat":35.74983486,"lon":139.32494595},{"name":"ファミリアホール創友社","province":"東京都","city":"福生市","address":"東京都福生市福生（大字）1983-40","lat":35.74859646,"lon":139.33708673},{"name":"株式会社多摩祭典","province":"東京都","city":"福生市","address":"東京都福生市福生（大字）2350","lat":35.73898372,"lon":139.33776209},{"name":"JAにしたま葬祭センター","province":"東京都","city":"福生市","address":"東京都福生市本町16","lat":35.73854461,"lon":139.32766007},{"name":"そうしんフレールホール福生","province":"東京都","city":"福生市","address":"東京都福生市南田園2丁目15-3","lat":35.72696557,"lon":139.33109909},{"name":"葬儀・終活相談センターフィーネ","province":"東京都","city":"福生市","address":"東京都福生市加美平2丁目3-2","lat":35.74649082,"lon":139.32587934},{"name":"福生市公民館","province":"東京都","city":"福生市","address":"福生市福生2455","lat":35.734283,"lon":139.337967},{"name":"福生市公民館松林分館","province":"東京都","city":"福生市","address":"福生市武蔵野台1-15-1","lat":35.746574,"lon":139.332214},{"name":"福生市公民館白梅分館","province":"東京都","city":"福生市","address":"福生市熊川559-1","lat":35.72414,"lon":139.33786},{"name":"福生市立わかぎり図書館","province":"東京都","city":"福生市","address":"福生市福生1280-1","lat":35.74604,"lon":139.321091},{"name":"福生市立わかたけ図書館","province":"東京都","city":"福生市","address":"福生市熊川199-1","lat":35.718021,"lon":139.335327},{"name":"福生市立中央図書館","province":"東京都","city":"福生市","address":"福生市熊川850-1","lat":35.731689,"lon":139.337662},{"name":"福生市立武蔵野台図書館","province":"東京都","city":"福生市","address":"福生市武蔵野台1-12-2","lat":35.74699,"lon":139.333954},{"name":"福生市郷土資料室","province":"東京都","city":"福生市","address":"福生市熊川850-1","lat":35.731689,"lon":139.337662},{"name":"かえで会館","province":"東京都","city":"福生市","address":"福生市加美平1-20-6","lat":35.750492,"lon":139.325958},{"name":"さくら会館","province":"東京都","city":"福生市","address":"福生市牛浜163","lat":35.733948,"lon":139.336945},{"name":"扶桑会館","province":"東京都","city":"福生市","address":"福生市福生1069-1","lat":35.744026,"lon":139.324768},{"name":"福生市茶室「福庵」","province":"東京都","city":"福生市","address":"福生市熊川854-3","lat":35.731689,"lon":139.337662},{"name":"福生市民会館","province":"東京都","city":"福生市","address":"福生市福生2455","lat":35.734283,"lon":139.337967},{"name":"株式会社セレサポート","province":"東京都","city":"福生市","address":"東京都福生市武蔵野台2丁目25-5","lat":35.74972941,"lon":139.32824293},{"name":"株式会社 多摩祭典","province":"東京都","city":"福生市","address":"東京都福生市福生（大字）2350","lat":35.73898372,"lon":139.33776209},{"name":"株式会社 セレサポート","province":"東京都","city":"福生市","address":"東京都福生市武蔵野台2丁目25-5","lat":35.74972941,"lon":139.32824293},{"name":"愛和セレモニー","province":"東京都","city":"福生市","address":"東京都福生市熊川（大字）888","lat":35.72984032,"lon":139.33577366},{"name":"有限会社島田屋","province":"東京都","city":"福生市","address":"東京都福生市本町134","lat":35.7410471,"lon":139.32819327},{"name":"株式会社セレモア","province":"東京都","city":"福生市","address":"東京都福生市熊川（大字）1311","lat":35.72801848,"lon":139.34267597},{"name":"セレモニーホール福生","province":"東京都","city":"福生市","address":"東京都福生市加美平1丁目19-5","lat":35.74983486,"lon":139.32494595},{"name":"ファミリアホール創友社","province":"東京都","city":"福生市","address":"東京都福生市福生（大字）1983-40","lat":35.74859646,"lon":139.33708673},{"name":"株式会社多摩祭典","province":"東京都","city":"福生市","address":"東京都福生市福生（大字）2350","lat":35.73898372,"lon":139.33776209},{"name":"JAにしたま葬祭センター","province":"東京都","city":"福生市","address":"東京都福生市本町16","lat":35.73854461,"lon":139.32766007},{"name":"そうしんフレールホール福生","province":"東京都","city":"福生市","address":"東京都福生市南田園2丁目15-3","lat":35.72696557,"lon":139.33109909},{"name":"葬儀・終活相談センターフィーネ","province":"東京都","city":"福生市","address":"東京都福生市加美平2丁目3-2","lat":35.74649082,"lon":139.32587934},{"name":"福生市公民館","province":"東京都","city":"福生市","address":"福生市福生2455","lat":35.734283,"lon":139.337967},{"name":"福生市公民館松林分館","province":"東京都","city":"福生市","address":"福生市武蔵野台1-15-1","lat":35.746574,"lon":139.332214},{"name":"福生市公民館白梅分館","province":"東京都","city":"福生市","address":"福生市熊川559-1","lat":35.72414,"lon":139.33786},{"name":"福生市立わかぎり図書館","province":"東京都","city":"福生市","address":"福生市福生1280-1","lat":35.74604,"lon":139.321091},{"name":"福生市立わかたけ図書館","province":"東京都","city":"福生市","address":"福生市熊川199-1","lat":35.718021,"lon":139.335327},{"name":"福生市立中央図書館","province":"東京都","city":"福生市","address":"福生市熊川850-1","lat":35.731689,"lon":139.337662},{"name":"福生市立武蔵野台図書館","province":"東京都","city":"福生市","address":"福生市武蔵野台1-12-2","lat":35.74699,"lon":139.333954},{"name":"福生市郷土資料室","province":"東京都","city":"福生市","address":"福生市熊川850-1","lat":35.731689,"lon":139.337662},{"name":"かえで会館","province":"東京都","city":"福生市","address":"福生市加美平1-20-6","lat":35.750492,"lon":139.325958},{"name":"さくら会館","province":"東京都","city":"福生市","address":"福生市牛浜163","lat":35.733948,"lon":139.336945},{"name":"扶桑会館","province":"東京都","city":"福生市","address":"福生市福生1069-1","lat":35.744026,"lon":139.324768},{"name":"福生市茶室「福庵」","province":"東京都","city":"福生市","address":"福生市熊川854-3","lat":35.731689,"lon":139.337662},{"name":"福生市民会館","province":"東京都","city":"福生市","address":"福生市福生2455","lat":35.734283,"lon":139.337967},{"name":"株式会社セレサポート","province":"東京都","city":"福生市","address":"東京都福生市武蔵野台2丁目25-5","lat":35.74972941,"lon":139.32824293},{"name":"株式会社 多摩祭典","province":"東京都","city":"福生市","address":"東京都福生市福生（大字）2350","lat":35.73898372,"lon":139.33776209},{"name":"株式会社 セレサポート","province":"東京都","city":"福生市","address":"東京都福生市武蔵野台2丁目25-5","lat":35.74972941,"lon":139.32824293},{"name":"愛和セレモニー","province":"東京都","city":"福生市","address":"東京都福生市熊川（大字）888","lat":35.72984032,"lon":139.33577366},{"name":"有限会社島田屋","province":"東京都","city":"福生市","address":"東京都福生市本町134","lat":35.7410471,"lon":139.32819327},{"name":"株式会社セレモア","province":"東京都","city":"福生市","address":"東京都福生市熊川（大字）1311","lat":35.72801848,"lon":139.34267597},{"name":"セレモニーホール福生","province":"東京都","city":"福生市","address":"東京都福生市加美平1丁目19-5","lat":35.74983486,"lon":139.32494595},{"name":"ファミリアホール創友社","province":"東京都","city":"福生市","address":"東京都福生市福生（大字）1983-40","lat":35.74859646,"lon":139.33708673},{"name":"株式会社多摩祭典","province":"東京都","city":"福生市","address":"東京都福生市福生（大字）2350","lat":35.73898372,"lon":139.33776209},{"name":"JAにしたま葬祭センター","province":"東京都","city":"福生市","address":"東京都福生市本町16","lat":35.73854461,"lon":139.32766007},{"name":"そうしんフレールホール福生","province":"東京都","city":"福生市","address":"東京都福生市南田園2丁目15-3","lat":35.72696557,"lon":139.33109909},{"name":"葬儀・終活相談センターフィーネ","province":"東京都","city":"福生市","address":"東京都福生市加美平2丁目3-2","lat":35.74649082,"lon":139.32587934},{"name":"福生市公民館","province":"東京都","city":"福生市","address":"福生市福生2455","lat":35.734283,"lon":139.337967},{"name":"福生市公民館松林分館","province":"東京都","city":"福生市","address":"福生市武蔵野台1-15-1","lat":35.746574,"lon":139.332214},{"name":"福生市公民館白梅分館","province":"東京都","city":"福生市","address":"福生市熊川559-1","lat":35.72414,"lon":139.33786},{"name":"福生市立わかぎり図書館","province":"東京都","city":"福生市","address":"福生市福生1280-1","lat":35.74604,"lon":139.321091},{"name":"福生市立わかたけ図書館","province":"東京都","city":"福生市","address":"福生市熊川199-1","lat":35.718021,"lon":139.335327},{"name":"福生市立中央図書館","province":"東京都","city":"福生市","address":"福生市熊川850-1","lat":35.731689,"lon":139.337662},{"name":"福生市立武蔵野台図書館","province":"東京都","city":"福生市","address":"福生市武蔵野台1-12-2","lat":35.74699,"lon":139.333954},{"name":"福生市郷土資料室","province":"東京都","city":"福生市","address":"福生市熊川850-1","lat":35.731689,"lon":139.337662},{"name":"かえで会館","province":"東京都","city":"福生市","address":"福生市加美平1-20-6","lat":35.750492,"lon":139.325958},{"name":"さくら会館","province":"東京都","city":"福生市","address":"福生市牛浜163","lat":35.733948,"lon":139.336945},{"name":"扶桑会館","province":"東京都","city":"福生市","address":"福生市福生1069-1","lat":35.744026,"lon":139.324768},{"name":"福生市茶室「福庵」","province":"東京都","city":"福生市","address":"福生市熊川854-3","lat":35.731689,"lon":139.337662},{"name":"福生市民会館","province":"東京都","city":"福生市","address":"福生市福生2455","lat":35.734283,"lon":139.337967},{"name":"株式会社セレサポート","province":"東京都","city":"福生市","address":"東京都福生市武蔵野台2丁目25-5","lat":35.74972941,"lon":139.32824293},{"name":"株式会社 多摩祭典","province":"東京都","city":"福生市","address":"東京都福生市福生（大字）2350","lat":35.73898372,"lon":139.33776209},{"name":"株式会社 セレサポート","province":"東京都","city":"福生市","address":"東京都福生市武蔵野台2丁目25-5","lat":35.74972941,"lon":139.32824293},{"name":"愛和セレモニー","province":"東京都","city":"福生市","address":"東京都福生市熊川（大字）888","lat":35.72984032,"lon":139.33577366},{"name":"有限会社島田屋","province":"東京都","city":"福生市","address":"東京都福生市本町134","lat":35.7410471,"lon":139.32819327},{"name":"株式会社セレモア","province":"東京都","city":"福生市","address":"東京都福生市熊川（大字）1311","lat":35.72801848,"lon":139.34267597},{"name":"セレモニーホール福生","province":"東京都","city":"福生市","address":"東京都福生市加美平1丁目19-5","lat":35.74983486,"lon":139.32494595},{"name":"ファミリアホール創友社","province":"東京都","city":"福生市","address":"東京都福生市福生（大字）1983-40","lat":35.74859646,"lon":139.33708673},{"name":"株式会社多摩祭典","province":"東京都","city":"福生市","address":"東京都福生市福生（大字）2350","lat":35.73898372,"lon":139.33776209},{"name":"JAにしたま葬祭センター","province":"東京都","city":"福生市","address":"東京都福生市本町16","lat":35.73854461,"lon":139.32766007},{"name":"そうしんフレールホール福生","province":"東京都","city":"福生市","address":"東京都福生市南田園2丁目15-3","lat":35.72696557,"lon":139.33109909},{"name":"葬儀・終活相談センターフィーネ","province":"東京都","city":"福生市","address":"東京都福生市加美平2丁目3-2","lat":35.74649082,"lon":139.32587934},{"name":"福生市公民館","province":"東京都","city":"福生市","address":"福生市福生2455","lat":35.734283,"lon":139.337967},{"name":"福生市公民館松林分館","province":"東京都","city":"福生市","address":"福生市武蔵野台1-15-1","lat":35.746574,"lon":139.332214},{"name":"福生市公民館白梅分館","province":"東京都","city":"福生市","address":"福生市熊川559-1","lat":35.72414,"lon":139.33786},{"name":"福生市立わかぎり図書館","province":"東京都","city":"福生市","address":"福生市福生1280-1","lat":35.74604,"lon":139.321091},{"name":"福生市立わかたけ図書館","province":"東京都","city":"福生市","address":"福生市熊川199-1","lat":35.718021,"lon":139.335327},{"name":"福生市立中央図書館","province":"東京都","city":"福生市","address":"福生市熊川850-1","lat":35.731689,"lon":139.337662},{"name":"福生市立武蔵野台図書館","province":"東京都","city":"福生市","address":"福生市武蔵野台1-12-2","lat":35.74699,"lon":139.333954},{"name":"福生市郷土資料室","province":"東京都","city":"福生市","address":"福生市熊川850-1","lat":35.731689,"lon":139.337662},{"name":"かえで会館","province":"東京都","city":"福生市","address":"福生市加美平1-20-6","lat":35.750492,"lon":139.325958},{"name":"さくら会館","province":"東京都","city":"福生市","address":"福生市牛浜163","lat":35.733948,"lon":139.336945},{"name":"扶桑会館","province":"東京都","city":"福生市","address":"福生市福生1069-1","lat":35.744026,"lon":139.324768},{"name":"福生市茶室「福庵」","province":"東京都","city":"福生市","address":"福生市熊川854-3","lat":35.731689,"lon":139.337662},{"name":"福生市民会館","province":"東京都","city":"福生市","address":"福生市福生2455","lat":35.734283,"lon":139.337967},{"name":"株式会社セレサポート","province":"東京都","city":"福生市","address":"東京都福生市武蔵野台2丁目25-5","lat":35.74972941,"lon":139.32824293},{"name":"株式会社 多摩祭典","province":"東京都","city":"福生市","address":"東京都福生市福生（大字）2350","lat":35.73898372,"lon":139.33776209},{"name":"株式会社 セレサポート","province":"東京都","city":"福生市","address":"東京都福生市武蔵野台2丁目25-5","lat":35.74972941,"lon":139.32824293},{"name":"愛和セレモニー","province":"東京都","city":"福生市","address":"東京都福生市熊川（大字）888","lat":35.72984032,"lon":139.33577366},{"name":"有限会社島田屋","province":"東京都","city":"福生市","address":"東京都福生市本町134","lat":35.7410471,"lon":139.32819327},{"name":"株式会社セレモア","province":"東京都","city":"福生市","address":"東京都福生市熊川（大字）1311","lat":35.72801848,"lon":139.34267597},{"name":"セレモニーホール福生","province":"東京都","city":"福生市","address":"東京都福生市加美平1丁目19-5","lat":35.74983486,"lon":139.32494595},{"name":"ファミリアホール創友社","province":"東京都","city":"福生市","address":"東京都福生市福生（大字）1983-40","lat":35.74859646,"lon":139.33708673},{"name":"株式会社多摩祭典","province":"東京都","city":"福生市","address":"東京都福生市福生（大字）2350","lat":35.73898372,"lon":139.33776209},{"name":"JAにしたま葬祭センター","province":"東京都","city":"福生市","address":"東京都福生市本町16","lat":35.73854461,"lon":139.32766007},{"name":"そうしんフレールホール福生","province":"東京都","city":"福生市","address":"東京都福生市南田園2丁目15-3","lat":35.72696557,"lon":139.33109909},{"name":"葬儀・終活相談センターフィーネ","province":"東京都","city":"福生市","address":"東京都福生市加美平2丁目3-2","lat":35.74649082,"lon":139.32587934},{"name":"福生市公民館","province":"東京都","city":"福生市","address":"福生市福生2455","lat":35.734283,"lon":139.337967},{"name":"福生市公民館松林分館","province":"東京都","city":"福生市","address":"福生市武蔵野台1-15-1","lat":35.746574,"lon":139.332214},{"name":"福生市公民館白梅分館","province":"東京都","city":"福生市","address":"福生市熊川559-1","lat":35.72414,"lon":139.33786},{"name":"福生市立わかぎり図書館","province":"東京都","city":"福生市","address":"福生市福生1280-1","lat":35.74604,"lon":139.321091},{"name":"福生市立わかたけ図書館","province":"東京都","city":"福生市","address":"福生市熊川199-1","lat":35.718021,"lon":139.335327},{"name":"福生市立中央図書館","province":"東京都","city":"福生市","address":"福生市熊川850-1","lat":35.731689,"lon":139.337662},{"name":"福生市立武蔵野台図書館","province":"東京都","city":"福生市","address":"福生市武蔵野台1-12-2","lat":35.74699,"lon":139.333954},{"name":"福生市郷土資料室","province":"東京都","city":"福生市","address":"福生市熊川850-1","lat":35.731689,"lon":139.337662},{"name":"かえで会館","province":"東京都","city":"福生市","address":"福生市加美平1-20-6","lat":35.750492,"lon":139.325958},{"name":"さくら会館","province":"東京都","city":"福生市","address":"福生市牛浜163","lat":35.733948,"lon":139.336945},{"name":"扶桑会館","province":"東京都","city":"福生市","address":"福生市福生1069-1","lat":35.744026,"lon":139.324768},{"name":"福生市茶室「福庵」","province":"東京都","city":"福生市","address":"福生市熊川854-3","lat":35.731689,"lon":139.337662},{"name":"福生市民会館","province":"東京都","city":"福生市","address":"福生市福生2455","lat":35.734283,"lon":139.337967},{"name":"株式会社セレサポート","province":"東京都","city":"福生市","address":"東京都福生市武蔵野台2丁目25-5","lat":35.74972941,"lon":139.32824293},{"name":"株式会社 多摩祭典","province":"東京都","city":"福生市","address":"東京都福生市福生（大字）2350","lat":35.73898372,"lon":139.33776209},{"name":"株式会社 セレサポート","province":"東京都","city":"福生市","address":"東京都福生市武蔵野台2丁目25-5","lat":35.74972941,"lon":139.32824293},{"name":"愛和セレモニー","province":"東京都","city":"福生市","address":"東京都福生市熊川（大字）888","lat":35.72984032,"lon":139.33577366},{"name":"有限会社島田屋","province":"東京都","city":"福生市","address":"東京都福生市本町134","lat":35.7410471,"lon":139.32819327},{"name":"株式会社セレモア","province":"東京都","city":"福生市","address":"東京都福生市熊川（大字）1311","lat":35.72801848,"lon":139.34267597},{"name":"セレモニーホール福生","province":"東京都","city":"福生市","address":"東京都福生市加美平1丁目19-5","lat":35.74983486,"lon":139.32494595},{"name":"ファミリアホール創友社","province":"東京都","city":"福生市","address":"東京都福生市福生（大字）1983-40","lat":35.74859646,"lon":139.33708673},{"name":"株式会社多摩祭典","province":"東京都","city":"福生市","address":"東京都福生市福生（大字）2350","lat":35.73898372,"lon":139.33776209},{"name":"JAにしたま葬祭センター","province":"東京都","city":"福生市","address":"東京都福生市本町16","lat":35.73854461,"lon":139.32766007},{"name":"そうしんフレールホール福生","province":"東京都","city":"福生市","address":"東京都福生市南田園2丁目15-3","lat":35.72696557,"lon":139.33109909},{"name":"葬儀・終活相談センターフィーネ","province":"東京都","city":"福生市","address":"東京都福生市加美平2丁目3-2","lat":35.74649082,"lon":139.32587934},{"name":"福生市公民館","province":"東京都","city":"福生市","address":"福生市福生2455","lat":35.734283,"lon":139.337967},{"name":"福生市公民館松林分館","province":"東京都","city":"福生市","address":"福生市武蔵野台1-15-1","lat":35.746574,"lon":139.332214},{"name":"福生市公民館白梅分館","province":"東京都","city":"福生市","address":"福生市熊川559-1","lat":35.72414,"lon":139.33786},{"name":"福生市立わかぎり図書館","province":"東京都","city":"福生市","address":"福生市福生1280-1","lat":35.74604,"lon":139.321091},{"name":"福生市立わかたけ図書館","province":"東京都","city":"福生市","address":"福生市熊川199-1","lat":35.718021,"lon":139.335327},{"name":"福生市立中央図書館","province":"東京都","city":"福生市","address":"福生市熊川850-1","lat":35.731689,"lon":139.337662},{"name":"福生市立武蔵野台図書館","province":"東京都","city":"福生市","address":"福生市武蔵野台1-12-2","lat":35.74699,"lon":139.333954},{"name":"福生市郷土資料室","province":"東京都","city":"福生市","address":"福生市熊川850-1","lat":35.731689,"lon":139.337662},{"name":"かえで会館","province":"東京都","city":"福生市","address":"福生市加美平1-20-6","lat":35.750492,"lon":139.325958},{"name":"さくら会館","province":"東京都","city":"福生市","address":"福生市牛浜163","lat":35.733948,"lon":139.336945},{"name":"扶桑会館","province":"東京都","city":"福生市","address":"福生市福生1069-1","lat":35.744026,"lon":139.324768},{"name":"福生市茶室「福庵」","province":"東京都","city":"福生市","address":"福生市熊川854-3","lat":35.731689,"lon":139.337662},{"name":"福生市民会館","province":"東京都","city":"福生市","address":"福生市福生2455","lat":35.734283,"lon":139.337967},{"name":"株式会社セレサポート","province":"東京都","city":"福生市","address":"東京都福生市武蔵野台2丁目25-5","lat":35.74972941,"lon":139.32824293},{"name":"株式会社 多摩祭典","province":"東京都","city":"福生市","address":"東京都福生市福生（大字）2350","lat":35.73898372,"lon":139.33776209},{"name":"株式会社 セレサポート","province":"東京都","city":"福生市","address":"東京都福生市武蔵野台2丁目25-5","lat":35.74972941,"lon":139.32824293},{"name":"愛和セレモニー","province":"東京都","city":"福生市","address":"東京都福生市熊川（大字）888","lat":35.72984032,"lon":139.33577366},{"name":"有限会社島田屋","province":"東京都","city":"福生市","address":"東京都福生市本町134","lat":35.7410471,"lon":139.32819327},{"name":"株式会社セレモア","province":"東京都","city":"福生市","address":"東京都福生市熊川（大字）1311","lat":35.72801848,"lon":139.34267597},{"name":"セレモニーホール福生","province":"東京都","city":"福生市","address":"東京都福生市加美平1丁目19-5","lat":35.74983486,"lon":139.32494595},{"name":"ファミリアホール創友社","province":"東京都","city":"福生市","address":"東京都福生市福生（大字）1983-40","lat":35.74859646,"lon":139.33708673},{"name":"株式会社多摩祭典","province":"東京都","city":"福生市","address":"東京都福生市福生（大字）2350","lat":35.73898372,"lon":139.33776209},{"name":"JAにしたま葬祭センター","province":"東京都","city":"福生市","address":"東京都福生市本町16","lat":35.73854461,"lon":139.32766007},{"name":"そうしんフレールホール福生","province":"東京都","city":"福生市","address":"東京都福生市南田園2丁目15-3","lat":35.72696557,"lon":139.33109909},{"name":"葬儀・終活相談センターフィーネ","province":"東京都","city":"福生市","address":"東京都福生市加美平2丁目3-2","lat":35.74649082,"lon":139.32587934},{"name":"福生市公民館","province":"東京都","city":"福生市","address":"福生市福生2455","lat":35.734283,"lon":139.337967},{"name":"福生市公民館松林分館","province":"東京都","city":"福生市","address":"福生市武蔵野台1-15-1","lat":35.746574,"lon":139.332214},{"name":"福生市公民館白梅分館","province":"東京都","city":"福生市","address":"福生市熊川559-1","lat":35.72414,"lon":139.33786},{"name":"福生市立わかぎり図書館","province":"東京都","city":"福生市","address":"福生市福生1280-1","lat":35.74604,"lon":139.321091},{"name":"福生市立わかたけ図書館","province":"東京都","city":"福生市","address":"福生市熊川199-1","lat":35.718021,"lon":139.335327},{"name":"福生市立中央図書館","province":"東京都","city":"福生市","address":"福生市熊川850-1","lat":35.731689,"lon":139.337662},{"name":"福生市立武蔵野台図書館","province":"東京都","city":"福生市","address":"福生市武蔵野台1-12-2","lat":35.74699,"lon":139.333954},{"name":"福生市郷土資料室","province":"東京都","city":"福生市","address":"福生市熊川850-1","lat":35.731689,"lon":139.337662},{"name":"かえで会館","province":"東京都","city":"福生市","address":"福生市加美平1-20-6","lat":35.750492,"lon":139.325958},{"name":"さくら会館","province":"東京都","city":"福生市","address":"福生市牛浜163","lat":35.733948,"lon":139.336945},{"name":"扶桑会館","province":"東京都","city":"福生市","address":"福生市福生1069-1","lat":35.744026,"lon":139.324768},{"name":"福生市茶室「福庵」","province":"東京都","city":"福生市","address":"福生市熊川854-3","lat":35.731689,"lon":139.337662},{"name":"福生市民会館","province":"東京都","city":"福生市","address":"福生市福生2455","lat":35.734283,"lon":139.337967},{"name":"株式会社セレサポート","province":"東京都","city":"福生市","address":"東京都福生市武蔵野台2丁目25-5","lat":35.74972941,"lon":139.32824293},{"name":"株式会社 多摩祭典","province":"東京都","city":"福生市","address":"東京都福生市福生（大字）2350","lat":35.73898372,"lon":139.33776209},{"name":"株式会社 セレサポート","province":"東京都","city":"福生市","address":"東京都福生市武蔵野台2丁目25-5","lat":35.74972941,"lon":139.32824293},{"name":"愛和セレモニー","province":"東京都","city":"福生市","address":"東京都福生市熊川（大字）888","lat":35.72984032,"lon":139.33577366},{"name":"有限会社島田屋","province":"東京都","city":"福生市","address":"東京都福生市本町134","lat":35.7410471,"lon":139.32819327},{"name":"株式会社セレモア","province":"東京都","city":"福生市","address":"東京都福生市熊川（大字）1311","lat":35.72801848,"lon":139.34267597},{"name":"セレモニーホール福生","province":"東京都","city":"福生市","address":"東京都福生市加美平1丁目19-5","lat":35.74983486,"lon":139.32494595},{"name":"ファミリアホール創友社","province":"東京都","city":"福生市","address":"東京都福生市福生（大字）1983-40","lat":35.74859646,"lon":139.33708673},{"name":"株式会社多摩祭典","province":"東京都","city":"福生市","address":"東京都福生市福生（大字）2350","lat":35.73898372,"lon":139.33776209},{"name":"JAにしたま葬祭センター","province":"東京都","city":"福生市","address":"東京都福生市本町16","lat":35.73854461,"lon":139.32766007},{"name":"そうしんフレールホール福生","province":"東京都","city":"福生市","address":"東京都福生市南田園2丁目15-3","lat":35.72696557,"lon":139.33109909},{"name":"葬儀・終活相談センターフィーネ","province":"東京都","city":"福生市","address":"東京都福生市加美平2丁目3-2","lat":35.74649082,"lon":139.32587934},{"name":"福生市公民館","province":"東京都","city":"福生市","address":"福生市福生2455","lat":35.734283,"lon":139.337967},{"name":"福生市公民館松林分館","province":"東京都","city":"福生市","address":"福生市武蔵野台1-15-1","lat":35.746574,"lon":139.332214},{"name":"福生市公民館白梅分館","province":"東京都","city":"福生市","address":"福生市熊川559-1","lat":35.72414,"lon":139.33786},{"name":"福生市立わかぎり図書館","province":"東京都","city":"福生市","address":"福生市福生1280-1","lat":35.74604,"lon":139.321091},{"name":"福生市立わかたけ図書館","province":"東京都","city":"福生市","address":"福生市熊川199-1","lat":35.718021,"lon":139.335327},{"name":"福生市立中央図書館","province":"東京都","city":"福生市","address":"福生市熊川850-1","lat":35.731689,"lon":139.337662},{"name":"福生市立武蔵野台図書館","province":"東京都","city":"福生市","address":"福生市武蔵野台1-12-2","lat":35.74699,"lon":139.333954},{"name":"福生市郷土資料室","province":"東京都","city":"福生市","address":"福生市熊川850-1","lat":35.731689,"lon":139.337662},{"name":"かえで会館","province":"東京都","city":"福生市","address":"福生市加美平1-20-6","lat":35.750492,"lon":139.325958},{"name":"さくら会館","province":"東京都","city":"福生市","address":"福生市牛浜163","lat":35.733948,"lon":139.336945},{"name":"扶桑会館","province":"東京都","city":"福生市","address":"福生市福生1069-1","lat":35.744026,"lon":139.324768},{"name":"福生市茶室「福庵」","province":"東京都","city":"福生市","address":"福生市熊川854-3","lat":35.731689,"lon":139.337662},{"name":"福生市民会館","province":"東京都","city":"福生市","address":"福生市福生2455","lat":35.734283,"lon":139.337967},{"name":"株式会社セレサポート","province":"東京都","city":"福生市","address":"東京都福生市武蔵野台2丁目25-5","lat":35.74972941,"lon":139.32824293},{"name":"株式会社 多摩祭典","province":"東京都","city":"福生市","address":"東京都福生市福生（大字）2350","lat":35.73898372,"lon":139.33776209},{"name":"株式会社 セレサポート","province":"東京都","city":"福生市","address":"東京都福生市武蔵野台2丁目25-5","lat":35.74972941,"lon":139.32824293},{"name":"愛和セレモニー","province":"東京都","city":"福生市","address":"東京都福生市熊川（大字）888","lat":35.72984032,"lon":139.33577366},{"name":"有限会社島田屋","province":"東京都","city":"福生市","address":"東京都福生市本町134","lat":35.7410471,"lon":139.32819327},{"name":"株式会社セレモア","province":"東京都","city":"福生市","address":"東京都福生市熊川（大字）1311","lat":35.72801848,"lon":139.34267597},{"name":"セレモニーホール福生","province":"東京都","city":"福生市","address":"東京都福生市加美平1丁目19-5","lat":35.74983486,"lon":139.32494595},{"name":"ファミリアホール創友社","province":"東京都","city":"福生市","address":"東京都福生市福生（大字）1983-40","lat":35.74859646,"lon":139.33708673},{"name":"株式会社多摩祭典","province":"東京都","city":"福生市","address":"東京都福生市福生（大字）2350","lat":35.73898372,"lon":139.33776209},{"name":"JAにしたま葬祭センター","province":"東京都","city":"福生市","address":"東京都福生市本町16","lat":35.73854461,"lon":139.32766007},{"name":"そうしんフレールホール福生","province":"東京都","city":"福生市","address":"東京都福生市南田園2丁目15-3","lat":35.72696557,"lon":139.33109909},{"name":"葬儀・終活相談センターフィーネ","province":"東京都","city":"福生市","address":"東京都福生市加美平2丁目3-2","lat":35.74649082,"lon":139.32587934},{"name":"福生市公民館","province":"東京都","city":"福生市","address":"福生市福生2455","lat":35.734283,"lon":139.337967},{"name":"福生市公民館松林分館","province":"東京都","city":"福生市","address":"福生市武蔵野台1-15-1","lat":35.746574,"lon":139.332214},{"name":"福生市公民館白梅分館","province":"東京都","city":"福生市","address":"福生市熊川559-1","lat":35.72414,"lon":139.33786},{"name":"福生市立わかぎり図書館","province":"東京都","city":"福生市","address":"福生市福生1280-1","lat":35.74604,"lon":139.321091},{"name":"福生市立わかたけ図書館","province":"東京都","city":"福生市","address":"福生市熊川199-1","lat":35.718021,"lon":139.335327},{"name":"福生市立中央図書館","province":"東京都","city":"福生市","address":"福生市熊川850-1","lat":35.731689,"lon":139.337662},{"name":"福生市立武蔵野台図書館","province":"東京都","city":"福生市","address":"福生市武蔵野台1-12-2","lat":35.74699,"lon":139.333954},{"name":"福生市郷土資料室","province":"東京都","city":"福生市","address":"福生市熊川850-1","lat":35.731689,"lon":139.337662},{"name":"かえで会館","province":"東京都","city":"福生市","address":"福生市加美平1-20-6","lat":35.750492,"lon":139.325958},{"name":"さくら会館","province":"東京都","city":"福生市","address":"福生市牛浜163","lat":35.733948,"lon":139.336945},{"name":"扶桑会館","province":"東京都","city":"福生市","address":"福生市福生1069-1","lat":35.744026,"lon":139.324768},{"name":"福生市茶室「福庵」","province":"東京都","city":"福生市","address":"福生市熊川854-3","lat":35.731689,"lon":139.337662},{"name":"福生市民会館","province":"東京都","city":"福生市","address":"福生市福生2455","lat":35.734283,"lon":139.337967},{"name":"株式会社セレサポート","province":"東京都","city":"福生市","address":"東京都福生市武蔵野台2丁目25-5","lat":35.74972941,"lon":139.32824293},{"name":"株式会社 多摩祭典","province":"東京都","city":"福生市","address":"東京都福生市福生（大字）2350","lat":35.73898372,"lon":139.33776209},{"name":"株式会社 セレサポート","province":"東京都","city":"福生市","address":"東京都福生市武蔵野台2丁目25-5","lat":35.74972941,"lon":139.32824293},{"name":"愛和セレモニー","province":"東京都","city":"福生市","address":"東京都福生市熊川（大字）888","lat":35.72984032,"lon":139.33577366},{"name":"有限会社島田屋","province":"東京都","city":"福生市","address":"東京都福生市本町134","lat":35.7410471,"lon":139.32819327},{"name":"株式会社セレモア","province":"東京都","city":"福生市","address":"東京都福生市熊川（大字）1311","lat":35.72801848,"lon":139.34267597},{"name":"セレモニーホール福生","province":"東京都","city":"福生市","address":"東京都福生市加美平1丁目19-5","lat":35.74983486,"lon":139.32494595},{"name":"ファミリアホール創友社","province":"東京都","city":"福生市","address":"東京都福生市福生（大字）1983-40","lat":35.74859646,"lon":139.33708673},{"name":"株式会社多摩祭典","province":"東京都","city":"福生市","address":"東京都福生市福生（大字）2350","lat":35.73898372,"lon":139.33776209},{"name":"JAにしたま葬祭センター","province":"東京都","city":"福生市","address":"東京都福生市本町16","lat":35.73854461,"lon":139.32766007},{"name":"そうしんフレールホール福生","province":"東京都","city":"福生市","address":"東京都福生市南田園2丁目15-3","lat":35.72696557,"lon":139.33109909},{"name":"葬儀・終活相談センターフィーネ","province":"東京都","city":"福生市","address":"東京都福生市加美平2丁目3-2","lat":35.74649082,"lon":139.32587934},{"name":"福生市公民館","province":"東京都","city":"福生市","address":"福生市福生2455","lat":35.734283,"lon":139.337967},{"name":"福生市公民館松林分館","province":"東京都","city":"福生市","address":"福生市武蔵野台1-15-1","lat":35.746574,"lon":139.332214},{"name":"福生市公民館白梅分館","province":"東京都","city":"福生市","address":"福生市熊川559-1","lat":35.72414,"lon":139.33786},{"name":"福生市立わかぎり図書館","province":"東京都","city":"福生市","address":"福生市福生1280-1","lat":35.74604,"lon":139.321091},{"name":"福生市立わかたけ図書館","province":"東京都","city":"福生市","address":"福生市熊川199-1","lat":35.718021,"lon":139.335327},{"name":"福生市立中央図書館","province":"東京都","city":"福生市","address":"福生市熊川850-1","lat":35.731689,"lon":139.337662},{"name":"福生市立武蔵野台図書館","province":"東京都","city":"福生市","address":"福生市武蔵野台1-12-2","lat":35.74699,"lon":139.333954},{"name":"福生市郷土資料室","province":"東京都","city":"福生市","address":"福生市熊川850-1","lat":35.731689,"lon":139.337662},{"name":"かえで会館","province":"東京都","city":"福生市","address":"福生市加美平1-20-6","lat":35.750492,"lon":139.325958},{"name":"さくら会館","province":"東京都","city":"福生市","address":"福生市牛浜163","lat":35.733948,"lon":139.336945},{"name":"扶桑会館","province":"東京都","city":"福生市","address":"福生市福生1069-1","lat":35.744026,"lon":139.324768},{"name":"福生市茶室「福庵」","province":"東京都","city":"福生市","address":"福生市熊川854-3","lat":35.731689,"lon":139.337662},{"name":"福生市民会館","province":"東京都","city":"福生市","address":"福生市福生2455","lat":35.734283,"lon":139.337967},{"name":"株式会社セレサポート","province":"東京都","city":"福生市","address":"東京都福生市武蔵野台2丁目25-5","lat":35.74972941,"lon":139.32824293},{"name":"株式会社 多摩祭典","province":"東京都","city":"福生市","address":"東京都福生市福生（大字）2350","lat":35.73898372,"lon":139.33776209},{"name":"株式会社 セレサポート","province":"東京都","city":"福生市","address":"東京都福生市武蔵野台2丁目25-5","lat":35.74972941,"lon":139.32824293},{"name":"愛和セレモニー","province":"東京都","city":"福生市","address":"東京都福生市熊川（大字）888","lat":35.72984032,"lon":139.33577366},{"name":"有限会社島田屋","province":"東京都","city":"福生市","address":"東京都福生市本町134","lat":35.7410471,"lon":139.32819327},{"name":"株式会社セレモア","province":"東京都","city":"福生市","address":"東京都福生市熊川（大字）1311","lat":35.72801848,"lon":139.34267597},{"name":"セレモニーホール福生","province":"東京都","city":"福生市","address":"東京都福生市加美平1丁目19-5","lat":35.74983486,"lon":139.32494595},{"name":"ファミリアホール創友社","province":"東京都","city":"福生市","address":"東京都福生市福生（大字）1983-40","lat":35.74859646,"lon":139.33708673},{"name":"株式会社多摩祭典","province":"東京都","city":"福生市","address":"東京都福生市福生（大字）2350","lat":35.73898372,"lon":139.33776209},{"name":"JAにしたま葬祭センター","province":"東京都","city":"福生市","address":"東京都福生市本町16","lat":35.73854461,"lon":139.32766007},{"name":"そうしんフレールホール福生","province":"東京都","city":"福生市","address":"東京都福生市南田園2丁目15-3","lat":35.72696557,"lon":139.33109909},{"name":"葬儀・終活相談センターフィーネ","province":"東京都","city":"福生市","address":"東京都福生市加美平2丁目3-2","lat":35.74649082,"lon":139.32587934},{"name":"福生市公民館","province":"東京都","city":"福生市","address":"福生市福生2455","lat":35.734283,"lon":139.337967},{"name":"福生市公民館松林分館","province":"東京都","city":"福生市","address":"福生市武蔵野台1-15-1","lat":35.746574,"lon":139.332214},{"name":"福生市公民館白梅分館","province":"東京都","city":"福生市","address":"福生市熊川559-1","lat":35.72414,"lon":139.33786},{"name":"福生市立わかぎり図書館","province":"東京都","city":"福生市","address":"福生市福生1280-1","lat":35.74604,"lon":139.321091},{"name":"福生市立わかたけ図書館","province":"東京都","city":"福生市","address":"福生市熊川199-1","lat":35.718021,"lon":139.335327},{"name":"福生市立中央図書館","province":"東京都","city":"福生市","address":"福生市熊川850-1","lat":35.731689,"lon":139.337662},{"name":"福生市立武蔵野台図書館","province":"東京都","city":"福生市","address":"福生市武蔵野台1-12-2","lat":35.74699,"lon":139.333954},{"name":"福生市郷土資料室","province":"東京都","city":"福生市","address":"福生市熊川850-1","lat":35.731689,"lon":139.337662},{"name":"かえで会館","province":"東京都","city":"福生市","address":"福生市加美平1-20-6","lat":35.750492,"lon":139.325958},{"name":"さくら会館","province":"東京都","city":"福生市","address":"福生市牛浜163","lat":35.733948,"lon":139.336945},{"name":"扶桑会館","province":"東京都","city":"福生市","address":"福生市福生1069-1","lat":35.744026,"lon":139.324768},{"name":"福生市茶室「福庵」","province":"東京都","city":"福生市","address":"福生市熊川854-3","lat":35.731689,"lon":139.337662},{"name":"福生市民会館","province":"東京都","city":"福生市","address":"福生市福生2455","lat":35.734283,"lon":139.337967},{"name":"株式会社セレサポート","province":"東京都","city":"福生市","address":"東京都福生市武蔵野台2丁目25-5","lat":35.74972941,"lon":139.32824293},{"name":"株式会社 多摩祭典","province":"東京都","city":"福生市","address":"東京都福生市福生（大字）2350","lat":35.73898372,"lon":139.33776209},{"name":"株式会社 セレサポート","province":"東京都","city":"福生市","address":"東京都福生市武蔵野台2丁目25-5","lat":35.74972941,"lon":139.32824293},{"name":"愛和セレモニー","province":"東京都","city":"福生市","address":"東京都福生市熊川（大字）888","lat":35.72984032,"lon":139.33577366},{"name":"有限会社島田屋","province":"東京都","city":"福生市","address":"東京都福生市本町134","lat":35.7410471,"lon":139.32819327},{"name":"株式会社セレモア","province":"東京都","city":"福生市","address":"東京都福生市熊川（大字）1311","lat":35.72801848,"lon":139.34267597},{"name":"セレモニーホール福生","province":"東京都","city":"福生市","address":"東京都福生市加美平1丁目19-5","lat":35.74983486,"lon":139.32494595},{"name":"ファミリアホール創友社","province":"東京都","city":"福生市","address":"東京都福生市福生（大字）1983-40","lat":35.74859646,"lon":139.33708673},{"name":"株式会社多摩祭典","province":"東京都","city":"福生市","address":"東京都福生市福生（大字）2350","lat":35.73898372,"lon":139.33776209},{"name":"JAにしたま葬祭センター","province":"東京都","city":"福生市","address":"東京都福生市本町16","lat":35.73854461,"lon":139.32766007},{"name":"そうしんフレールホール福生","province":"東京都","city":"福生市","address":"東京都福生市南田園2丁目15-3","lat":35.72696557,"lon":139.33109909},{"name":"葬儀・終活相談センターフィーネ","province":"東京都","city":"福生市","address":"東京都福生市加美平2丁目3-2","lat":35.74649082,"lon":139.32587934},{"name":"福生市公民館","province":"東京都","city":"福生市","address":"福生市福生2455","lat":35.734283,"lon":139.337967},{"name":"福生市公民館松林分館","province":"東京都","city":"福生市","address":"福生市武蔵野台1-15-1","lat":35.746574,"lon":139.332214},{"name":"福生市公民館白梅分館","province":"東京都","city":"福生市","address":"福生市熊川559-1","lat":35.72414,"lon":139.33786},{"name":"福生市立わかぎり図書館","province":"東京都","city":"福生市","address":"福生市福生1280-1","lat":35.74604,"lon":139.321091},{"name":"福生市立わかたけ図書館","province":"東京都","city":"福生市","address":"福生市熊川199-1","lat":35.718021,"lon":139.335327},{"name":"福生市立中央図書館","province":"東京都","city":"福生市","address":"福生市熊川850-1","lat":35.731689,"lon":139.337662},{"name":"福生市立武蔵野台図書館","province":"東京都","city":"福生市","address":"福生市武蔵野台1-12-2","lat":35.74699,"lon":139.333954},{"name":"福生市郷土資料室","province":"東京都","city":"福生市","address":"福生市熊川850-1","lat":35.731689,"lon":139.337662},{"name":"かえで会館","province":"東京都","city":"福生市","address":"福生市加美平1-20-6","lat":35.750492,"lon":139.325958},{"name":"さくら会館","province":"東京都","city":"福生市","address":"福生市牛浜163","lat":35.733948,"lon":139.336945},{"name":"扶桑会館","province":"東京都","city":"福生市","address":"福生市福生1069-1","lat":35.744026,"lon":139.324768},{"name":"福生市茶室「福庵」","province":"東京都","city":"福生市","address":"福生市熊川854-3","lat":35.731689,"lon":139.337662},{"name":"福生市民会館","province":"東京都","city":"福生市","address":"福生市福生2455","lat":35.734283,"lon":139.337967},{"name":"株式会社セレサポート","province":"東京都","city":"福生市","address":"東京都福生市武蔵野台2丁目25-5","lat":35.74972941,"lon":139.32824293},{"name":"株式会社 多摩祭典","province":"東京都","city":"福生市","address":"東京都福生市福生（大字）2350","lat":35.73898372,"lon":139.33776209},{"name":"株式会社 セレサポート","province":"東京都","city":"福生市","address":"東京都福生市武蔵野台2丁目25-5","lat":35.74972941,"lon":139.32824293},{"name":"愛和セレモニー","province":"東京都","city":"福生市","address":"東京都福生市熊川（大字）888","lat":35.72984032,"lon":139.33577366},{"name":"有限会社島田屋","province":"東京都","city":"福生市","address":"東京都福生市本町134","lat":35.7410471,"lon":139.32819327},{"name":"株式会社セレモア","province":"東京都","city":"福生市","address":"東京都福生市熊川（大字）1311","lat":35.72801848,"lon":139.34267597},{"name":"セレモニーホール福生","province":"東京都","city":"福生市","address":"東京都福生市加美平1丁目19-5","lat":35.74983486,"lon":139.32494595},{"name":"ファミリアホール創友社","province":"東京都","city":"福生市","address":"東京都福生市福生（大字）1983-40","lat":35.74859646,"lon":139.33708673},{"name":"株式会社多摩祭典","province":"東京都","city":"福生市","address":"東京都福生市福生（大字）2350","lat":35.73898372,"lon":139.33776209},{"name":"JAにしたま葬祭センター","province":"東京都","city":"福生市","address":"東京都福生市本町16","lat":35.73854461,"lon":139.32766007},{"name":"そうしんフレールホール福生","province":"東京都","city":"福生市","address":"東京都福生市南田園2丁目15-3","lat":35.72696557,"lon":139.33109909},{"name":"葬儀・終活相談センターフィーネ","province":"東京都","city":"福生市","address":"東京都福生市加美平2丁目3-2","lat":35.74649082,"lon":139.32587934},{"name":"福生市公民館","province":"東京都","city":"福生市","address":"福生市福生2455","lat":35.734283,"lon":139.337967},{"name":"福生市公民館松林分館","province":"東京都","city":"福生市","address":"福生市武蔵野台1-15-1","lat":35.746574,"lon":139.332214},{"name":"福生市公民館白梅分館","province":"東京都","city":"福生市","address":"福生市熊川559-1","lat":35.72414,"lon":139.33786},{"name":"福生市立わかぎり図書館","province":"東京都","city":"福生市","address":"福生市福生1280-1","lat":35.74604,"lon":139.321091},{"name":"福生市立わかたけ図書館","province":"東京都","city":"福生市","address":"福生市熊川199-1","lat":35.718021,"lon":139.335327},{"name":"福生市立中央図書館","province":"東京都","city":"福生市","address":"福生市熊川850-1","lat":35.731689,"lon":139.337662},{"name":"福生市立武蔵野台図書館","province":"東京都","city":"福生市","address":"福生市武蔵野台1-12-2","lat":35.74699,"lon":139.333954},{"name":"福生市郷土資料室","province":"東京都","city":"福生市","address":"福生市熊川850-1","lat":35.731689,"lon":139.337662},{"name":"かえで会館","province":"東京都","city":"福生市","address":"福生市加美平1-20-6","lat":35.750492,"lon":139.325958},{"name":"さくら会館","province":"東京都","city":"福生市","address":"福生市牛浜163","lat":35.733948,"lon":139.336945},{"name":"扶桑会館","province":"東京都","city":"福生市","address":"福生市福生1069-1","lat":35.744026,"lon":139.324768},{"name":"福生市茶室「福庵」","province":"東京都","city":"福生市","address":"福生市熊川854-3","lat":35.731689,"lon":139.337662},{"name":"福生市民会館","province":"東京都","city":"福生市","address":"福生市福生2455","lat":35.734283,"lon":139.337967},{"name":"株式会社セレサポート","province":"東京都","city":"福生市","address":"東京都福生市武蔵野台2丁目25-5","lat":35.74972941,"lon":139.32824293},{"name":"株式会社 多摩祭典","province":"東京都","city":"福生市","address":"東京都福生市福生（大字）2350","lat":35.73898372,"lon":139.33776209},{"name":"株式会社 セレサポート","province":"東京都","city":"福生市","address":"東京都福生市武蔵野台2丁目25-5","lat":35.74972941,"lon":139.32824293},{"name":"愛和セレモニー","province":"東京都","city":"福生市","address":"東京都福生市熊川（大字）888","lat":35.72984032,"lon":139.33577366},{"name":"有限会社島田屋","province":"東京都","city":"福生市","address":"東京都福生市本町134","lat":35.7410471,"lon":139.32819327},{"name":"株式会社セレモア","province":"東京都","city":"福生市","address":"東京都福生市熊川（大字）1311","lat":35.72801848,"lon":139.34267597},{"name":"セレモニーホール福生","province":"東京都","city":"福生市","address":"東京都福生市加美平1丁目19-5","lat":35.74983486,"lon":139.32494595},{"name":"ファミリアホール創友社","province":"東京都","city":"福生市","address":"東京都福生市福生（大字）1983-40","lat":35.74859646,"lon":139.33708673},{"name":"株式会社多摩祭典","province":"東京都","city":"福生市","address":"東京都福生市福生（大字）2350","lat":35.73898372,"lon":139.33776209},{"name":"JAにしたま葬祭センター","province":"東京都","city":"福生市","address":"東京都福生市本町16","lat":35.73854461,"lon":139.32766007},{"name":"そうしんフレールホール福生","province":"東京都","city":"福生市","address":"東京都福生市南田園2丁目15-3","lat":35.72696557,"lon":139.33109909},{"name":"葬儀・終活相談センターフィーネ","province":"東京都","city":"福生市","address":"東京都福生市加美平2丁目3-2","lat":35.74649082,"lon":139.32587934},{"name":"福生市公民館","province":"東京都","city":"福生市","address":"福生市福生2455","lat":35.734283,"lon":139.337967},{"name":"福生市公民館松林分館","province":"東京都","city":"福生市","address":"福生市武蔵野台1-15-1","lat":35.746574,"lon":139.332214},{"name":"福生市公民館白梅分館","province":"東京都","city":"福生市","address":"福生市熊川559-1","lat":35.72414,"lon":139.33786},{"name":"福生市立わかぎり図書館","province":"東京都","city":"福生市","address":"福生市福生1280-1","lat":35.74604,"lon":139.321091},{"name":"福生市立わかたけ図書館","province":"東京都","city":"福生市","address":"福生市熊川199-1","lat":35.718021,"lon":139.335327},{"name":"福生市立中央図書館","province":"東京都","city":"福生市","address":"福生市熊川850-1","lat":35.731689,"lon":139.337662},{"name":"福生市立武蔵野台図書館","province":"東京都","city":"福生市","address":"福生市武蔵野台1-12-2","lat":35.74699,"lon":139.333954},{"name":"福生市郷土資料室","province":"東京都","city":"福生市","address":"福生市熊川850-1","lat":35.731689,"lon":139.337662},{"name":"かえで会館","province":"東京都","city":"福生市","address":"福生市加美平1-20-6","lat":35.750492,"lon":139.325958},{"name":"さくら会館","province":"東京都","city":"福生市","address":"福生市牛浜163","lat":35.733948,"lon":139.336945},{"name":"扶桑会館","province":"東京都","city":"福生市","address":"福生市福生1069-1","lat":35.744026,"lon":139.324768},{"name":"福生市茶室「福庵」","province":"東京都","city":"福生市","address":"福生市熊川854-3","lat":35.731689,"lon":139.337662},{"name":"福生市民会館","province":"東京都","city":"福生市","address":"福生市福生2455","lat":35.734283,"lon":139.337967},{"name":"株式会社セレサポート","province":"東京都","city":"福生市","address":"東京都福生市武蔵野台2丁目25-5","lat":35.74972941,"lon":139.32824293},{"name":"株式会社 多摩祭典","province":"東京都","city":"福生市","address":"東京都福生市福生（大字）2350","lat":35.73898372,"lon":139.33776209},{"name":"株式会社 セレサポート","province":"東京都","city":"福生市","address":"東京都福生市武蔵野台2丁目25-5","lat":35.74972941,"lon":139.32824293},{"name":"愛和セレモニー","province":"東京都","city":"福生市","address":"東京都福生市熊川（大字）888","lat":35.72984032,"lon":139.33577366},{"name":"有限会社島田屋","province":"東京都","city":"福生市","address":"東京都福生市本町134","lat":35.7410471,"lon":139.32819327},{"name":"株式会社セレモア","province":"東京都","city":"福生市","address":"東京都福生市熊川（大字）1311","lat":35.72801848,"lon":139.34267597},{"name":"セレモニーホール福生","province":"東京都","city":"福生市","address":"東京都福生市加美平1丁目19-5","lat":35.74983486,"lon":139.32494595},{"name":"ファミリアホール創友社","province":"東京都","city":"福生市","address":"東京都福生市福生（大字）1983-40","lat":35.74859646,"lon":139.33708673},{"name":"株式会社多摩祭典","province":"東京都","city":"福生市","address":"東京都福生市福生（大字）2350","lat":35.73898372,"lon":139.33776209},{"name":"JAにしたま葬祭センター","province":"東京都","city":"福生市","address":"東京都福生市本町16","lat":35.73854461,"lon":139.32766007},{"name":"そうしんフレールホール福生","province":"東京都","city":"福生市","address":"東京都福生市南田園2丁目15-3","lat":35.72696557,"lon":139.33109909},{"name":"葬儀・終活相談センターフィーネ","province":"東京都","city":"福生市","address":"東京都福生市加美平2丁目3-2","lat":35.74649082,"lon":139.32587934},{"name":"福生市公民館","province":"東京都","city":"福生市","address":"福生市福生2455","lat":35.734283,"lon":139.337967},{"name":"福生市公民館松林分館","province":"東京都","city":"福生市","address":"福生市武蔵野台1-15-1","lat":35.746574,"lon":139.332214},{"name":"福生市公民館白梅分館","province":"東京都","city":"福生市","address":"福生市熊川559-1","lat":35.72414,"lon":139.33786},{"name":"福生市立わかぎり図書館","province":"東京都","city":"福生市","address":"福生市福生1280-1","lat":35.74604,"lon":139.321091},{"name":"福生市立わかたけ図書館","province":"東京都","city":"福生市","address":"福生市熊川199-1","lat":35.718021,"lon":139.335327},{"name":"福生市立中央図書館","province":"東京都","city":"福生市","address":"福生市熊川850-1","lat":35.731689,"lon":139.337662},{"name":"福生市立武蔵野台図書館","province":"東京都","city":"福生市","address":"福生市武蔵野台1-12-2","lat":35.74699,"lon":139.333954},{"name":"福生市郷土資料室","province":"東京都","city":"福生市","address":"福生市熊川850-1","lat":35.731689,"lon":139.337662},{"name":"かえで会館","province":"東京都","city":"福生市","address":"福生市加美平1-20-6","lat":35.750492,"lon":139.325958},{"name":"さくら会館","province":"東京都","city":"福生市","address":"福生市牛浜163","lat":35.733948,"lon":139.336945},{"name":"扶桑会館","province":"東京都","city":"福生市","address":"福生市福生1069-1","lat":35.744026,"lon":139.324768},{"name":"福生市茶室「福庵」","province":"東京都","city":"福生市","address":"福生市熊川854-3","lat":35.731689,"lon":139.337662},{"name":"福生市民会館","province":"東京都","city":"福生市","address":"福生市福生2455","lat":35.734283,"lon":139.337967},{"name":"株式会社セレサポート","province":"東京都","city":"福生市","address":"東京都福生市武蔵野台2丁目25-5","lat":35.74972941,"lon":139.32824293},{"name":"株式会社 多摩祭典","province":"東京都","city":"福生市","address":"東京都福生市福生（大字）2350","lat":35.73898372,"lon":139.33776209},{"name":"株式会社 セレサポート","province":"東京都","city":"福生市","address":"東京都福生市武蔵野台2丁目25-5","lat":35.74972941,"lon":139.32824293},{"name":"愛和セレモニー","province":"東京都","city":"福生市","address":"東京都福生市熊川（大字）888","lat":35.72984032,"lon":139.33577366},{"name":"有限会社島田屋","province":"東京都","city":"福生市","address":"東京都福生市本町134","lat":35.7410471,"lon":139.32819327},{"name":"株式会社セレモア","province":"東京都","city":"福生市","address":"東京都福生市熊川（大字）1311","lat":35.72801848,"lon":139.34267597},{"name":"セレモニーホール福生","province":"東京都","city":"福生市","address":"東京都福生市加美平1丁目19-5","lat":35.74983486,"lon":139.32494595},{"name":"ファミリアホール創友社","province":"東京都","city":"福生市","address":"東京都福生市福生（大字）1983-40","lat":35.74859646,"lon":139.33708673},{"name":"株式会社多摩祭典","province":"東京都","city":"福生市","address":"東京都福生市福生（大字）2350","lat":35.73898372,"lon":139.33776209},{"name":"JAにしたま葬祭センター","province":"東京都","city":"福生市","address":"東京都福生市本町16","lat":35.73854461,"lon":139.32766007},{"name":"そうしんフレールホール福生","province":"東京都","city":"福生市","address":"東京都福生市南田園2丁目15-3","lat":35.72696557,"lon":139.33109909},{"name":"葬儀・終活相談センターフィーネ","province":"東京都","city":"福生市","address":"東京都福生市加美平2丁目3-2","lat":35.74649082,"lon":139.32587934},{"name":"福生市公民館","province":"東京都","city":"福生市","address":"福生市福生2455","lat":35.734283,"lon":139.337967},{"name":"福生市公民館松林分館","province":"東京都","city":"福生市","address":"福生市武蔵野台1-15-1","lat":35.746574,"lon":139.332214},{"name":"福生市公民館白梅分館","province":"東京都","city":"福生市","address":"福生市熊川559-1","lat":35.72414,"lon":139.33786},{"name":"福生市立わかぎり図書館","province":"東京都","city":"福生市","address":"福生市福生1280-1","lat":35.74604,"lon":139.321091},{"name":"福生市立わかたけ図書館","province":"東京都","city":"福生市","address":"福生市熊川199-1","lat":35.718021,"lon":139.335327},{"name":"福生市立中央図書館","province":"東京都","city":"福生市","address":"福生市熊川850-1","lat":35.731689,"lon":139.337662},{"name":"福生市立武蔵野台図書館","province":"東京都","city":"福生市","address":"福生市武蔵野台1-12-2","lat":35.74699,"lon":139.333954},{"name":"福生市郷土資料室","province":"東京都","city":"福生市","address":"福生市熊川850-1","lat":35.731689,"lon":139.337662},{"name":"かえで会館","province":"東京都","city":"福生市","address":"福生市加美平1-20-6","lat":35.750492,"lon":139.325958},{"name":"さくら会館","province":"東京都","city":"福生市","address":"福生市牛浜163","lat":35.733948,"lon":139.336945},{"name":"扶桑会館","province":"東京都","city":"福生市","address":"福生市福生1069-1","lat":35.744026,"lon":139.324768},{"name":"福生市茶室「福庵」","province":"東京都","city":"福生市","address":"福生市熊川854-3","lat":35.731689,"lon":139.337662},{"name":"福生市民会館","province":"東京都","city":"福生市","address":"福生市福生2455","lat":35.734283,"lon":139.337967},{"name":"株式会社セレサポート","province":"東京都","city":"福生市","address":"東京都福生市武蔵野台2丁目25-5","lat":35.74972941,"lon":139.32824293},{"name":"株式会社 多摩祭典","province":"東京都","city":"福生市","address":"東京都福生市福生（大字）2350","lat":35.73898372,"lon":139.33776209},{"name":"株式会社 セレサポート","province":"東京都","city":"福生市","address":"東京都福生市武蔵野台2丁目25-5","lat":35.74972941,"lon":139.32824293},{"name":"愛和セレモニー","province":"東京都","city":"福生市","address":"東京都福生市熊川（大字）888","lat":35.72984032,"lon":139.33577366},{"name":"有限会社島田屋","province":"東京都","city":"福生市","address":"東京都福生市本町134","lat":35.7410471,"lon":139.32819327},{"name":"株式会社セレモア","province":"東京都","city":"福生市","address":"東京都福生市熊川（大字）1311","lat":35.72801848,"lon":139.34267597},{"name":"セレモニーホール福生","province":"東京都","city":"福生市","address":"東京都福生市加美平1丁目19-5","lat":35.74983486,"lon":139.32494595},{"name":"ファミリアホール創友社","province":"東京都","city":"福生市","address":"東京都福生市福生（大字）1983-40","lat":35.74859646,"lon":139.33708673},{"name":"株式会社多摩祭典","province":"東京都","city":"福生市","address":"東京都福生市福生（大字）2350","lat":35.73898372,"lon":139.33776209},{"name":"JAにしたま葬祭センター","province":"東京都","city":"福生市","address":"東京都福生市本町16","lat":35.73854461,"lon":139.32766007},{"name":"そうしんフレールホール福生","province":"東京都","city":"福生市","address":"東京都福生市南田園2丁目15-3","lat":35.72696557,"lon":139.33109909},{"name":"葬儀・終活相談センターフィーネ","province":"東京都","city":"福生市","address":"東京都福生市加美平2丁目3-2","lat":35.74649082,"lon":139.32587934},{"name":"福生市公民館","province":"東京都","city":"福生市","address":"福生市福生2455","lat":35.734283,"lon":139.337967},{"name":"福生市公民館松林分館","province":"東京都","city":"福生市","address":"福生市武蔵野台1-15-1","lat":35.746574,"lon":139.332214},{"name":"福生市公民館白梅分館","province":"東京都","city":"福生市","address":"福生市熊川559-1","lat":35.72414,"lon":139.33786},{"name":"福生市立わかぎり図書館","province":"東京都","city":"福生市","address":"福生市福生1280-1","lat":35.74604,"lon":139.321091},{"name":"福生市立わかたけ図書館","province":"東京都","city":"福生市","address":"福生市熊川199-1","lat":35.718021,"lon":139.335327},{"name":"福生市立中央図書館","province":"東京都","city":"福生市","address":"福生市熊川850-1","lat":35.731689,"lon":139.337662},{"name":"福生市立武蔵野台図書館","province":"東京都","city":"福生市","address":"福生市武蔵野台1-12-2","lat":35.74699,"lon":139.333954},{"name":"福生市郷土資料室","province":"東京都","city":"福生市","address":"福生市熊川850-1","lat":35.731689,"lon":139.337662},{"name":"かえで会館","province":"東京都","city":"福生市","address":"福生市加美平1-20-6","lat":35.750492,"lon":139.325958},{"name":"さくら会館","province":"東京都","city":"福生市","address":"福生市牛浜163","lat":35.733948,"lon":139.336945},{"name":"扶桑会館","province":"東京都","city":"福生市","address":"福生市福生1069-1","lat":35.744026,"lon":139.324768},{"name":"福生市茶室「福庵」","province":"東京都","city":"福生市","address":"福生市熊川854-3","lat":35.731689,"lon":139.337662},{"name":"福生市民会館","province":"東京都","city":"福生市","address":"福生市福生2455","lat":35.734283,"lon":139.337967},{"name":"株式会社セレサポート","province":"東京都","city":"福生市","address":"東京都福生市武蔵野台2丁目25-5","lat":35.74972941,"lon":139.32824293},{"name":"株式会社 多摩祭典","province":"東京都","city":"福生市","address":"東京都福生市福生（大字）2350","lat":35.73898372,"lon":139.33776209},{"name":"株式会社 セレサポート","province":"東京都","city":"福生市","address":"東京都福生市武蔵野台2丁目25-5","lat":35.74972941,"lon":139.32824293},{"name":"愛和セレモニー","province":"東京都","city":"福生市","address":"東京都福生市熊川（大字）888","lat":35.72984032,"lon":139.33577366},{"name":"有限会社島田屋","province":"東京都","city":"福生市","address":"東京都福生市本町134","lat":35.7410471,"lon":139.32819327},{"name":"株式会社セレモア","province":"東京都","city":"福生市","address":"東京都福生市熊川（大字）1311","lat":35.72801848,"lon":139.34267597},{"name":"セレモニーホール福生","province":"東京都","city":"福生市","address":"東京都福生市加美平1丁目19-5","lat":35.74983486,"lon":139.32494595},{"name":"ファミリアホール創友社","province":"東京都","city":"福生市","address":"東京都福生市福生（大字）1983-40","lat":35.74859646,"lon":139.33708673},{"name":"株式会社多摩祭典","province":"東京都","city":"福生市","address":"東京都福生市福生（大字）2350","lat":35.73898372,"lon":139.33776209},{"name":"JAにしたま葬祭センター","province":"東京都","city":"福生市","address":"東京都福生市本町16","lat":35.73854461,"lon":139.32766007},{"name":"そうしんフレールホール福生","province":"東京都","city":"福生市","address":"東京都福生市南田園2丁目15-3","lat":35.72696557,"lon":139.33109909},{"name":"葬儀・終活相談センターフィーネ","province":"東京都","city":"福生市","address":"東京都福生市加美平2丁目3-2","lat":35.74649082,"lon":139.32587934},{"name":"福生市公民館","province":"東京都","city":"福生市","address":"福生市福生2455","lat":35.734283,"lon":139.337967},{"name":"福生市公民館松林分館","province":"東京都","city":"福生市","address":"福生市武蔵野台1-15-1","lat":35.746574,"lon":139.332214},{"name":"福生市公民館白梅分館","province":"東京都","city":"福生市","address":"福生市熊川559-1","lat":35.72414,"lon":139.33786},{"name":"福生市立わかぎり図書館","province":"東京都","city":"福生市","address":"福生市福生1280-1","lat":35.74604,"lon":139.321091},{"name":"福生市立わかたけ図書館","province":"東京都","city":"福生市","address":"福生市熊川199-1","lat":35.718021,"lon":139.335327},{"name":"福生市立中央図書館","province":"東京都","city":"福生市","address":"福生市熊川850-1","lat":35.731689,"lon":139.337662},{"name":"福生市立武蔵野台図書館","province":"東京都","city":"福生市","address":"福生市武蔵野台1-12-2","lat":35.74699,"lon":139.333954},{"name":"福生市郷土資料室","province":"東京都","city":"福生市","address":"福生市熊川850-1","lat":35.731689,"lon":139.337662},{"name":"かえで会館","province":"東京都","city":"福生市","address":"福生市加美平1-20-6","lat":35.750492,"lon":139.325958},{"name":"さくら会館","province":"東京都","city":"福生市","address":"福生市牛浜163","lat":35.733948,"lon":139.336945},{"name":"扶桑会館","province":"東京都","city":"福生市","address":"福生市福生1069-1","lat":35.744026,"lon":139.324768},{"name":"福生市茶室「福庵」","province":"東京都","city":"福生市","address":"福生市熊川854-3","lat":35.731689,"lon":139.337662},{"name":"福生市民会館","province":"東京都","city":"福生市","address":"福生市福生2455","lat":35.734283,"lon":139.337967},{"name":"株式会社セレサポート","province":"東京都","city":"福生市","address":"東京都福生市武蔵野台2丁目25-5","lat":35.74972941,"lon":139.32824293},{"name":"株式会社 多摩祭典","province":"東京都","city":"福生市","address":"東京都福生市福生（大字）2350","lat":35.73898372,"lon":139.33776209},{"name":"株式会社 セレサポート","province":"東京都","city":"福生市","address":"東京都福生市武蔵野台2丁目25-5","lat":35.74972941,"lon":139.32824293},{"name":"愛和セレモニー","province":"東京都","city":"福生市","address":"東京都福生市熊川（大字）888","lat":35.72984032,"lon":139.33577366},{"name":"有限会社島田屋","province":"東京都","city":"福生市","address":"東京都福生市本町134","lat":35.7410471,"lon":139.32819327},{"name":"株式会社セレモア","province":"東京都","city":"福生市","address":"東京都福生市熊川（大字）1311","lat":35.72801848,"lon":139.34267597},{"name":"セレモニーホール福生","province":"東京都","city":"福生市","address":"東京都福生市加美平1丁目19-5","lat":35.74983486,"lon":139.32494595},{"name":"ファミリアホール創友社","province":"東京都","city":"福生市","address":"東京都福生市福生（大字）1983-40","lat":35.74859646,"lon":139.33708673},{"name":"株式会社多摩祭典","province":"東京都","city":"福生市","address":"東京都福生市福生（大字）2350","lat":35.73898372,"lon":139.33776209},{"name":"JAにしたま葬祭センター","province":"東京都","city":"福生市","address":"東京都福生市本町16","lat":35.73854461,"lon":139.32766007},{"name":"そうしんフレールホール福生","province":"東京都","city":"福生市","address":"東京都福生市南田園2丁目15-3","lat":35.72696557,"lon":139.33109909},{"name":"葬儀・終活相談センターフィーネ","province":"東京都","city":"福生市","address":"東京都福生市加美平2丁目3-2","lat":35.74649082,"lon":139.32587934},{"name":"福生市公民館","province":"東京都","city":"福生市","address":"福生市福生2455","lat":35.734283,"lon":139.337967},{"name":"福生市公民館松林分館","province":"東京都","city":"福生市","address":"福生市武蔵野台1-15-1","lat":35.746574,"lon":139.332214},{"name":"福生市公民館白梅分館","province":"東京都","city":"福生市","address":"福生市熊川559-1","lat":35.72414,"lon":139.33786},{"name":"福生市立わかぎり図書館","province":"東京都","city":"福生市","address":"福生市福生1280-1","lat":35.74604,"lon":139.321091},{"name":"福生市立わかたけ図書館","province":"東京都","city":"福生市","address":"福生市熊川199-1","lat":35.718021,"lon":139.335327},{"name":"福生市立中央図書館","province":"東京都","city":"福生市","address":"福生市熊川850-1","lat":35.731689,"lon":139.337662},{"name":"福生市立武蔵野台図書館","province":"東京都","city":"福生市","address":"福生市武蔵野台1-12-2","lat":35.74699,"lon":139.333954},{"name":"福生市郷土資料室","province":"東京都","city":"福生市","address":"福生市熊川850-1","lat":35.731689,"lon":139.337662},{"name":"かえで会館","province":"東京都","city":"福生市","address":"福生市加美平1-20-6","lat":35.750492,"lon":139.325958},{"name":"さくら会館","province":"東京都","city":"福生市","address":"福生市牛浜163","lat":35.733948,"lon":139.336945},{"name":"扶桑会館","province":"東京都","city":"福生市","address":"福生市福生1069-1","lat":35.744026,"lon":139.324768},{"name":"福生市茶室「福庵」","province":"東京都","city":"福生市","address":"福生市熊川854-3","lat":35.731689,"lon":139.337662},{"name":"福生市民会館","province":"東京都","city":"福生市","address":"福生市福生2455","lat":35.734283,"lon":139.337967},{"name":"株式会社セレサポート","province":"東京都","city":"福生市","address":"東京都福生市武蔵野台2丁目25-5","lat":35.74972941,"lon":139.32824293},{"name":"株式会社 多摩祭典","province":"東京都","city":"福生市","address":"東京都福生市福生（大字）2350","lat":35.73898372,"lon":139.33776209},{"name":"株式会社 セレサポート","province":"東京都","city":"福生市","address":"東京都福生市武蔵野台2丁目25-5","lat":35.74972941,"lon":139.32824293},{"name":"愛和セレモニー","province":"東京都","city":"福生市","address":"東京都福生市熊川（大字）888","lat":35.72984032,"lon":139.33577366},{"name":"有限会社島田屋","province":"東京都","city":"福生市","address":"東京都福生市本町134","lat":35.7410471,"lon":139.32819327},{"name":"株式会社セレモア","province":"東京都","city":"福生市","address":"東京都福生市熊川（大字）1311","lat":35.72801848,"lon":139.34267597},{"name":"セレモニーホール福生","province":"東京都","city":"福生市","address":"東京都福生市加美平1丁目19-5","lat":35.74983486,"lon":139.32494595},{"name":"ファミリアホール創友社","province":"東京都","city":"福生市","address":"東京都福生市福生（大字）1983-40","lat":35.74859646,"lon":139.33708673},{"name":"株式会社多摩祭典","province":"東京都","city":"福生市","address":"東京都福生市福生（大字）2350","lat":35.73898372,"lon":139.33776209},{"name":"JAにしたま葬祭センター","province":"東京都","city":"福生市","address":"東京都福生市本町16","lat":35.73854461,"lon":139.32766007},{"name":"そうしんフレールホール福生","province":"東京都","city":"福生市","address":"東京都福生市南田園2丁目15-3","lat":35.72696557,"lon":139.33109909},{"name":"葬儀・終活相談センターフィーネ","province":"東京都","city":"福生市","address":"東京都福生市加美平2丁目3-2","lat":35.74649082,"lon":139.32587934},{"name":"福生市公民館","province":"東京都","city":"福生市","address":"福生市福生2455","lat":35.734283,"lon":139.337967},{"name":"福生市公民館松林分館","province":"東京都","city":"福生市","address":"福生市武蔵野台1-15-1","lat":35.746574,"lon":139.332214},{"name":"福生市公民館白梅分館","province":"東京都","city":"福生市","address":"福生市熊川559-1","lat":35.72414,"lon":139.33786},{"name":"福生市立わかぎり図書館","province":"東京都","city":"福生市","address":"福生市福生1280-1","lat":35.74604,"lon":139.321091},{"name":"福生市立わかたけ図書館","province":"東京都","city":"福生市","address":"福生市熊川199-1","lat":35.718021,"lon":139.335327},{"name":"福生市立中央図書館","province":"東京都","city":"福生市","address":"福生市熊川850-1","lat":35.731689,"lon":139.337662},{"name":"福生市立武蔵野台図書館","province":"東京都","city":"福生市","address":"福生市武蔵野台1-12-2","lat":35.74699,"lon":139.333954},{"name":"福生市郷土資料室","province":"東京都","city":"福生市","address":"福生市熊川850-1","lat":35.731689,"lon":139.337662},{"name":"かえで会館","province":"東京都","city":"福生市","address":"福生市加美平1-20-6","lat":35.750492,"lon":139.325958},{"name":"さくら会館","province":"東京都","city":"福生市","address":"福生市牛浜163","lat":35.733948,"lon":139.336945},{"name":"扶桑会館","province":"東京都","city":"福生市","address":"福生市福生1069-1","lat":35.744026,"lon":139.324768},{"name":"福生市茶室「福庵」","province":"東京都","city":"福生市","address":"福生市熊川854-3","lat":35.731689,"lon":139.337662},{"name":"福生市民会館","province":"東京都","city":"福生市","address":"福生市福生2455","lat":35.734283,"lon":139.337967},{"name":"株式会社セレサポート","province":"東京都","city":"福生市","address":"東京都福生市武蔵野台2丁目25-5","lat":35.74972941,"lon":139.32824293},{"name":"株式会社 多摩祭典","province":"東京都","city":"福生市","address":"東京都福生市福生（大字）2350","lat":35.73898372,"lon":139.33776209},{"name":"株式会社 セレサポート","province":"東京都","city":"福生市","address":"東京都福生市武蔵野台2丁目25-5","lat":35.74972941,"lon":139.32824293},{"name":"愛和セレモニー","province":"東京都","city":"福生市","address":"東京都福生市熊川（大字）888","lat":35.72984032,"lon":139.33577366},{"name":"有限会社島田屋","province":"東京都","city":"福生市","address":"東京都福生市本町134","lat":35.7410471,"lon":139.32819327},{"name":"株式会社セレモア","province":"東京都","city":"福生市","address":"東京都福生市熊川（大字）1311","lat":35.72801848,"lon":139.34267597},{"name":"セレモニーホール福生","province":"東京都","city":"福生市","address":"東京都福生市加美平1丁目19-5","lat":35.74983486,"lon":139.32494595},{"name":"ファミリアホール創友社","province":"東京都","city":"福生市","address":"東京都福生市福生（大字）1983-40","lat":35.74859646,"lon":139.33708673},{"name":"株式会社多摩祭典","province":"東京都","city":"福生市","address":"東京都福生市福生（大字）2350","lat":35.73898372,"lon":139.33776209},{"name":"JAにしたま葬祭センター","province":"東京都","city":"福生市","address":"東京都福生市本町16","lat":35.73854461,"lon":139.32766007},{"name":"そうしんフレールホール福生","province":"東京都","city":"福生市","address":"東京都福生市南田園2丁目15-3","lat":35.72696557,"lon":139.33109909},{"name":"葬儀・終活相談センターフィーネ","province":"東京都","city":"福生市","address":"東京都福生市加美平2丁目3-2","lat":35.74649082,"lon":139.32587934},{"name":"福生市公民館","province":"東京都","city":"福生市","address":"福生市福生2455","lat":35.734283,"lon":139.337967},{"name":"福生市公民館松林分館","province":"東京都","city":"福生市","address":"福生市武蔵野台1-15-1","lat":35.746574,"lon":139.332214},{"name":"福生市公民館白梅分館","province":"東京都","city":"福生市","address":"福生市熊川559-1","lat":35.72414,"lon":139.33786},{"name":"福生市立わかぎり図書館","province":"東京都","city":"福生市","address":"福生市福生1280-1","lat":35.74604,"lon":139.321091},{"name":"福生市立わかたけ図書館","province":"東京都","city":"福生市","address":"福生市熊川199-1","lat":35.718021,"lon":139.335327},{"name":"福生市立中央図書館","province":"東京都","city":"福生市","address":"福生市熊川850-1","lat":35.731689,"lon":139.337662},{"name":"福生市立武蔵野台図書館","province":"東京都","city":"福生市","address":"福生市武蔵野台1-12-2","lat":35.74699,"lon":139.333954},{"name":"福生市郷土資料室","province":"東京都","city":"福生市","address":"福生市熊川850-1","lat":35.731689,"lon":139.337662},{"name":"かえで会館","province":"東京都","city":"福生市","address":"福生市加美平1-20-6","lat":35.750492,"lon":139.325958},{"name":"さくら会館","province":"東京都","city":"福生市","address":"福生市牛浜163","lat":35.733948,"lon":139.336945},{"name":"扶桑会館","province":"東京都","city":"福生市","address":"福生市福生1069-1","lat":35.744026,"lon":139.324768},{"name":"福生市茶室「福庵」","province":"東京都","city":"福生市","address":"福生市熊川854-3","lat":35.731689,"lon":139.337662},{"name":"福生市民会館","province":"東京都","city":"福生市","address":"福生市福生2455","lat":35.734283,"lon":139.337967},{"name":"株式会社セレサポート","province":"東京都","city":"福生市","address":"東京都福生市武蔵野台2丁目25-5","lat":35.74972941,"lon":139.32824293},{"name":"株式会社 多摩祭典","province":"東京都","city":"福生市","address":"東京都福生市福生（大字）2350","lat":35.73898372,"lon":139.33776209},{"name":"株式会社 セレサポート","province":"東京都","city":"福生市","address":"東京都福生市武蔵野台2丁目25-5","lat":35.74972941,"lon":139.32824293},{"name":"愛和セレモニー","province":"東京都","city":"福生市","address":"東京都福生市熊川（大字）888","lat":35.72984032,"lon":139.33577366},{"name":"有限会社島田屋","province":"東京都","city":"福生市","address":"東京都福生市本町134","lat":35.7410471,"lon":139.32819327},{"name":"株式会社セレモア","province":"東京都","city":"福生市","address":"東京都福生市熊川（大字）1311","lat":35.72801848,"lon":139.34267597},{"name":"セレモニーホール福生","province":"東京都","city":"福生市","address":"東京都福生市加美平1丁目19-5","lat":35.74983486,"lon":139.32494595},{"name":"ファミリアホール創友社","province":"東京都","city":"福生市","address":"東京都福生市福生（大字）1983-40","lat":35.74859646,"lon":139.33708673},{"name":"株式会社多摩祭典","province":"東京都","city":"福生市","address":"東京都福生市福生（大字）2350","lat":35.73898372,"lon":139.33776209},{"name":"JAにしたま葬祭センター","province":"東京都","city":"福生市","address":"東京都福生市本町16","lat":35.73854461,"lon":139.32766007},{"name":"そうしんフレールホール福生","province":"東京都","city":"福生市","address":"東京都福生市南田園2丁目15-3","lat":35.72696557,"lon":139.33109909},{"name":"葬儀・終活相談センターフィーネ","province":"東京都","city":"福生市","address":"東京都福生市加美平2丁目3-2","lat":35.74649082,"lon":139.32587934},{"name":"福生市公民館","province":"東京都","city":"福生市","address":"福生市福生2455","lat":35.734283,"lon":139.337967},{"name":"福生市公民館松林分館","province":"東京都","city":"福生市","address":"福生市武蔵野台1-15-1","lat":35.746574,"lon":139.332214},{"name":"福生市公民館白梅分館","province":"東京都","city":"福生市","address":"福生市熊川559-1","lat":35.72414,"lon":139.33786},{"name":"福生市立わかぎり図書館","province":"東京都","city":"福生市","address":"福生市福生1280-1","lat":35.74604,"lon":139.321091},{"name":"福生市立わかたけ図書館","province":"東京都","city":"福生市","address":"福生市熊川199-1","lat":35.718021,"lon":139.335327},{"name":"福生市立中央図書館","province":"東京都","city":"福生市","address":"福生市熊川850-1","lat":35.731689,"lon":139.337662},{"name":"福生市立武蔵野台図書館","province":"東京都","city":"福生市","address":"福生市武蔵野台1-12-2","lat":35.74699,"lon":139.333954},{"name":"福生市郷土資料室","province":"東京都","city":"福生市","address":"福生市熊川850-1","lat":35.731689,"lon":139.337662},{"name":"かえで会館","province":"東京都","city":"福生市","address":"福生市加美平1-20-6","lat":35.750492,"lon":139.325958},{"name":"さくら会館","province":"東京都","city":"福生市","address":"福生市牛浜163","lat":35.733948,"lon":139.336945},{"name":"扶桑会館","province":"東京都","city":"福生市","address":"福生市福生1069-1","lat":35.744026,"lon":139.324768},{"name":"福生市茶室「福庵」","province":"東京都","city":"福生市","address":"福生市熊川854-3","lat":35.731689,"lon":139.337662},{"name":"福生市民会館","province":"東京都","city":"福生市","address":"福生市福生2455","lat":35.734283,"lon":139.337967},{"name":"株式会社セレサポート","province":"東京都","city":"福生市","address":"東京都福生市武蔵野台2丁目25-5","lat":35.74972941,"lon":139.32824293},{"name":"株式会社 多摩祭典","province":"東京都","city":"福生市","address":"東京都福生市福生（大字）2350","lat":35.73898372,"lon":139.33776209},{"name":"株式会社 セレサポート","province":"東京都","city":"福生市","address":"東京都福生市武蔵野台2丁目25-5","lat":35.74972941,"lon":139.32824293},{"name":"愛和セレモニー","province":"東京都","city":"福生市","address":"東京都福生市熊川（大字）888","lat":35.72984032,"lon":139.33577366},{"name":"有限会社島田屋","province":"東京都","city":"福生市","address":"東京都福生市本町134","lat":35.7410471,"lon":139.32819327},{"name":"株式会社セレモア","province":"東京都","city":"福生市","address":"東京都福生市熊川（大字）1311","lat":35.72801848,"lon":139.34267597},{"name":"セレモニーホール福生","province":"東京都","city":"福生市","address":"東京都福生市加美平1丁目19-5","lat":35.74983486,"lon":139.32494595},{"name":"ファミリアホール創友社","province":"東京都","city":"福生市","address":"東京都福生市福生（大字）1983-40","lat":35.74859646,"lon":139.33708673},{"name":"株式会社多摩祭典","province":"東京都","city":"福生市","address":"東京都福生市福生（大字）2350","lat":35.73898372,"lon":139.33776209},{"name":"JAにしたま葬祭センター","province":"東京都","city":"福生市","address":"東京都福生市本町16","lat":35.73854461,"lon":139.32766007},{"name":"そうしんフレールホール福生","province":"東京都","city":"福生市","address":"東京都福生市南田園2丁目15-3","lat":35.72696557,"lon":139.33109909},{"name":"葬儀・終活相談センターフィーネ","province":"東京都","city":"福生市","address":"東京都福生市加美平2丁目3-2","lat":35.74649082,"lon":139.32587934},{"name":"福生市公民館","province":"東京都","city":"福生市","address":"福生市福生2455","lat":35.734283,"lon":139.337967},{"name":"福生市公民館松林分館","province":"東京都","city":"福生市","address":"福生市武蔵野台1-15-1","lat":35.746574,"lon":139.332214},{"name":"福生市公民館白梅分館","province":"東京都","city":"福生市","address":"福生市熊川559-1","lat":35.72414,"lon":139.33786},{"name":"福生市立わかぎり図書館","province":"東京都","city":"福生市","address":"福生市福生1280-1","lat":35.74604,"lon":139.321091},{"name":"福生市立わかたけ図書館","province":"東京都","city":"福生市","address":"福生市熊川199-1","lat":35.718021,"lon":139.335327},{"name":"福生市立中央図書館","province":"東京都","city":"福生市","address":"福生市熊川850-1","lat":35.731689,"lon":139.337662},{"name":"福生市立武蔵野台図書館","province":"東京都","city":"福生市","address":"福生市武蔵野台1-12-2","lat":35.74699,"lon":139.333954},{"name":"福生市郷土資料室","province":"東京都","city":"福生市","address":"福生市熊川850-1","lat":35.731689,"lon":139.337662},{"name":"かえで会館","province":"東京都","city":"福生市","address":"福生市加美平1-20-6","lat":35.750492,"lon":139.325958},{"name":"さくら会館","province":"東京都","city":"福生市","address":"福生市牛浜163","lat":35.733948,"lon":139.336945},{"name":"扶桑会館","province":"東京都","city":"福生市","address":"福生市福生1069-1","lat":35.744026,"lon":139.324768},{"name":"福生市茶室「福庵」","province":"東京都","city":"福生市","address":"福生市熊川854-3","lat":35.731689,"lon":139.337662},{"name":"福生市民会館","province":"東京都","city":"福生市","address":"福生市福生2455","lat":35.734283,"lon":139.337967},{"name":"株式会社セレサポート","province":"東京都","city":"福生市","address":"東京都福生市武蔵野台2丁目25-5","lat":35.74972941,"lon":139.32824293},{"name":"株式会社 多摩祭典","province":"東京都","city":"福生市","address":"東京都福生市福生（大字）2350","lat":35.73898372,"lon":139.33776209},{"name":"株式会社 セレサポート","province":"東京都","city":"福生市","address":"東京都福生市武蔵野台2丁目25-5","lat":35.74972941,"lon":139.32824293},{"name":"愛和セレモニー","province":"東京都","city":"福生市","address":"東京都福生市熊川（大字）888","lat":35.72984032,"lon":139.33577366},{"name":"有限会社島田屋","province":"東京都","city":"福生市","address":"東京都福生市本町134","lat":35.7410471,"lon":139.32819327},{"name":"株式会社セレモア","province":"東京都","city":"福生市","address":"東京都福生市熊川（大字）1311","lat":35.72801848,"lon":139.34267597},{"name":"セレモニーホール福生","province":"東京都","city":"福生市","address":"東京都福生市加美平1丁目19-5","lat":35.74983486,"lon":139.32494595},{"name":"ファミリアホール創友社","province":"東京都","city":"福生市","address":"東京都福生市福生（大字）1983-40","lat":35.74859646,"lon":139.33708673},{"name":"株式会社多摩祭典","province":"東京都","city":"福生市","address":"東京都福生市福生（大字）2350","lat":35.73898372,"lon":139.33776209},{"name":"JAにしたま葬祭センター","province":"東京都","city":"福生市","address":"東京都福生市本町16","lat":35.73854461,"lon":139.32766007},{"name":"そうしんフレールホール福生","province":"東京都","city":"福生市","address":"東京都福生市南田園2丁目15-3","lat":35.72696557,"lon":139.33109909},{"name":"葬儀・終活相談センターフィーネ","province":"東京都","city":"福生市","address":"東京都福生市加美平2丁目3-2","lat":35.74649082,"lon":139.32587934},{"name":"福生市公民館","province":"東京都","city":"福生市","address":"福生市福生2455","lat":35.734283,"lon":139.337967},{"name":"福生市公民館松林分館","province":"東京都","city":"福生市","address":"福生市武蔵野台1-15-1","lat":35.746574,"lon":139.332214},{"name":"福生市公民館白梅分館","province":"東京都","city":"福生市","address":"福生市熊川559-1","lat":35.72414,"lon":139.33786},{"name":"福生市立わかぎり図書館","province":"東京都","city":"福生市","address":"福生市福生1280-1","lat":35.74604,"lon":139.321091},{"name":"福生市立わかたけ図書館","province":"東京都","city":"福生市","address":"福生市熊川199-1","lat":35.718021,"lon":139.335327},{"name":"福生市立中央図書館","province":"東京都","city":"福生市","address":"福生市熊川850-1","lat":35.731689,"lon":139.337662},{"name":"福生市立武蔵野台図書館","province":"東京都","city":"福生市","address":"福生市武蔵野台1-12-2","lat":35.74699,"lon":139.333954},{"name":"福生市郷土資料室","province":"東京都","city":"福生市","address":"福生市熊川850-1","lat":35.731689,"lon":139.337662},{"name":"かえで会館","province":"東京都","city":"福生市","address":"福生市加美平1-20-6","lat":35.750492,"lon":139.325958},{"name":"さくら会館","province":"東京都","city":"福生市","address":"福生市牛浜163","lat":35.733948,"lon":139.336945},{"name":"扶桑会館","province":"東京都","city":"福生市","address":"福生市福生1069-1","lat":35.744026,"lon":139.324768},{"name":"福生市茶室「福庵」","province":"東京都","city":"福生市","address":"福生市熊川854-3","lat":35.731689,"lon":139.337662},{"name":"福生市民会館","province":"東京都","city":"福生市","address":"福生市福生2455","lat":35.734283,"lon":139.337967},{"name":"株式会社セレサポート","province":"東京都","city":"福生市","address":"東京都福生市武蔵野台2丁目25-5","lat":35.74972941,"lon":139.32824293},{"name":"株式会社 多摩祭典","province":"東京都","city":"福生市","address":"東京都福生市福生（大字）2350","lat":35.73898372,"lon":139.33776209},{"name":"株式会社 セレサポート","province":"東京都","city":"福生市","address":"東京都福生市武蔵野台2丁目25-5","lat":35.74972941,"lon":139.32824293},{"name":"愛和セレモニー","province":"東京都","city":"福生市","address":"東京都福生市熊川（大字）888","lat":35.72984032,"lon":139.33577366},{"name":"有限会社島田屋","province":"東京都","city":"福生市","address":"東京都福生市本町134","lat":35.7410471,"lon":139.32819327},{"name":"株式会社セレモア","province":"東京都","city":"福生市","address":"東京都福生市熊川（大字）1311","lat":35.72801848,"lon":139.34267597},{"name":"セレモニーホール福生","province":"東京都","city":"福生市","address":"東京都福生市加美平1丁目19-5","lat":35.74983486,"lon":139.32494595},{"name":"ファミリアホール創友社","province":"東京都","city":"福生市","address":"東京都福生市福生（大字）1983-40","lat":35.74859646,"lon":139.33708673},{"name":"株式会社多摩祭典","province":"東京都","city":"福生市","address":"東京都福生市福生（大字）2350","lat":35.73898372,"lon":139.33776209},{"name":"JAにしたま葬祭センター","province":"東京都","city":"福生市","address":"東京都福生市本町16","lat":35.73854461,"lon":139.32766007},{"name":"そうしんフレールホール福生","province":"東京都","city":"福生市","address":"東京都福生市南田園2丁目15-3","lat":35.72696557,"lon":139.33109909},{"name":"葬儀・終活相談センターフィーネ","province":"東京都","city":"福生市","address":"東京都福生市加美平2丁目3-2","lat":35.74649082,"lon":139.32587934},{"name":"福生市公民館","province":"東京都","city":"福生市","address":"福生市福生2455","lat":35.734283,"lon":139.337967},{"name":"福生市公民館松林分館","province":"東京都","city":"福生市","address":"福生市武蔵野台1-15-1","lat":35.746574,"lon":139.332214},{"name":"福生市公民館白梅分館","province":"東京都","city":"福生市","address":"福生市熊川559-1","lat":35.72414,"lon":139.33786},{"name":"福生市立わかぎり図書館","province":"東京都","city":"福生市","address":"福生市福生1280-1","lat":35.74604,"lon":139.321091},{"name":"福生市立わかたけ図書館","province":"東京都","city":"福生市","address":"福生市熊川199-1","lat":35.718021,"lon":139.335327},{"name":"福生市立中央図書館","province":"東京都","city":"福生市","address":"福生市熊川850-1","lat":35.731689,"lon":139.337662},{"name":"福生市立武蔵野台図書館","province":"東京都","city":"福生市","address":"福生市武蔵野台1-12-2","lat":35.74699,"lon":139.333954},{"name":"福生市郷土資料室","province":"東京都","city":"福生市","address":"福生市熊川850-1","lat":35.731689,"lon":139.337662},{"name":"かえで会館","province":"東京都","city":"福生市","address":"福生市加美平1-20-6","lat":35.750492,"lon":139.325958},{"name":"さくら会館","province":"東京都","city":"福生市","address":"福生市牛浜163","lat":35.733948,"lon":139.336945},{"name":"扶桑会館","province":"東京都","city":"福生市","address":"福生市福生1069-1","lat":35.744026,"lon":139.324768},{"name":"福生市茶室「福庵」","province":"東京都","city":"福生市","address":"福生市熊川854-3","lat":35.731689,"lon":139.337662},{"name":"福生市民会館","province":"東京都","city":"福生市","address":"福生市福生2455","lat":35.734283,"lon":139.337967},{"name":"株式会社セレサポート","province":"東京都","city":"福生市","address":"東京都福生市武蔵野台2丁目25-5","lat":35.74972941,"lon":139.32824293},{"name":"株式会社 多摩祭典","province":"東京都","city":"福生市","address":"東京都福生市福生（大字）2350","lat":35.73898372,"lon":139.33776209},{"name":"株式会社 セレサポート","province":"東京都","city":"福生市","address":"東京都福生市武蔵野台2丁目25-5","lat":35.74972941,"lon":139.32824293},{"name":"愛和セレモニー","province":"東京都","city":"福生市","address":"東京都福生市熊川（大字）888","lat":35.72984032,"lon":139.33577366},{"name":"有限会社島田屋","province":"東京都","city":"福生市","address":"東京都福生市本町134","lat":35.7410471,"lon":139.32819327},{"name":"株式会社セレモア","province":"東京都","city":"福生市","address":"東京都福生市熊川（大字）1311","lat":35.72801848,"lon":139.34267597},{"name":"セレモニーホール福生","province":"東京都","city":"福生市","address":"東京都福生市加美平1丁目19-5","lat":35.74983486,"lon":139.32494595},{"name":"ファミリアホール創友社","province":"東京都","city":"福生市","address":"東京都福生市福生（大字）1983-40","lat":35.74859646,"lon":139.33708673},{"name":"株式会社多摩祭典","province":"東京都","city":"福生市","address":"東京都福生市福生（大字）2350","lat":35.73898372,"lon":139.33776209},{"name":"JAにしたま葬祭センター","province":"東京都","city":"福生市","address":"東京都福生市本町16","lat":35.73854461,"lon":139.32766007},{"name":"そうしんフレールホール福生","province":"東京都","city":"福生市","address":"東京都福生市南田園2丁目15-3","lat":35.72696557,"lon":139.33109909},{"name":"葬儀・終活相談センターフィーネ","province":"東京都","city":"福生市","address":"東京都福生市加美平2丁目3-2","lat":35.74649082,"lon":139.32587934},{"name":"福生市公民館","province":"東京都","city":"福生市","address":"福生市福生2455","lat":35.734283,"lon":139.337967},{"name":"福生市公民館松林分館","province":"東京都","city":"福生市","address":"福生市武蔵野台1-15-1","lat":35.746574,"lon":139.332214},{"name":"福生市公民館白梅分館","province":"東京都","city":"福生市","address":"福生市熊川559-1","lat":35.72414,"lon":139.33786},{"name":"福生市立わかぎり図書館","province":"東京都","city":"福生市","address":"福生市福生1280-1","lat":35.74604,"lon":139.321091},{"name":"福生市立わかたけ図書館","province":"東京都","city":"福生市","address":"福生市熊川199-1","lat":35.718021,"lon":139.335327},{"name":"福生市立中央図書館","province":"東京都","city":"福生市","address":"福生市熊川850-1","lat":35.731689,"lon":139.337662},{"name":"福生市立武蔵野台図書館","province":"東京都","city":"福生市","address":"福生市武蔵野台1-12-2","lat":35.74699,"lon":139.333954},{"name":"福生市郷土資料室","province":"東京都","city":"福生市","address":"福生市熊川850-1","lat":35.731689,"lon":139.337662},{"name":"かえで会館","province":"東京都","city":"福生市","address":"福生市加美平1-20-6","lat":35.750492,"lon":139.325958},{"name":"さくら会館","province":"東京都","city":"福生市","address":"福生市牛浜163","lat":35.733948,"lon":139.336945},{"name":"扶桑会館","province":"東京都","city":"福生市","address":"福生市福生1069-1","lat":35.744026,"lon":139.324768},{"name":"福生市茶室「福庵」","province":"東京都","city":"福生市","address":"福生市熊川854-3","lat":35.731689,"lon":139.337662},{"name":"福生市民会館","province":"東京都","city":"福生市","address":"福生市福生2455","lat":35.734283,"lon":139.337967},{"name":"株式会社セレサポート","province":"東京都","city":"福生市","address":"東京都福生市武蔵野台2丁目25-5","lat":35.74972941,"lon":139.32824293},{"name":"株式会社 多摩祭典","province":"東京都","city":"福生市","address":"東京都福生市福生（大字）2350","lat":35.73898372,"lon":139.33776209},{"name":"株式会社 セレサポート","province":"東京都","city":"福生市","address":"東京都福生市武蔵野台2丁目25-5","lat":35.74972941,"lon":139.32824293},{"name":"愛和セレモニー","province":"東京都","city":"福生市","address":"東京都福生市熊川（大字）888","lat":35.72984032,"lon":139.33577366},{"name":"有限会社島田屋","province":"東京都","city":"福生市","address":"東京都福生市本町134","lat":35.7410471,"lon":139.32819327},{"name":"株式会社セレモア","province":"東京都","city":"福生市","address":"東京都福生市熊川（大字）1311","lat":35.72801848,"lon":139.34267597},{"name":"セレモニーホール福生","province":"東京都","city":"福生市","address":"東京都福生市加美平1丁目19-5","lat":35.74983486,"lon":139.32494595},{"name":"ファミリアホール創友社","province":"東京都","city":"福生市","address":"東京都福生市福生（大字）1983-40","lat":35.74859646,"lon":139.33708673},{"name":"株式会社多摩祭典","province":"東京都","city":"福生市","address":"東京都福生市福生（大字）2350","lat":35.73898372,"lon":139.33776209},{"name":"JAにしたま葬祭センター","province":"東京都","city":"福生市","address":"東京都福生市本町16","lat":35.73854461,"lon":139.32766007},{"name":"そうしんフレールホール福生","province":"東京都","city":"福生市","address":"東京都福生市南田園2丁目15-3","lat":35.72696557,"lon":139.33109909},{"name":"葬儀・終活相談センターフィーネ","province":"東京都","city":"福生市","address":"東京都福生市加美平2丁目3-2","lat":35.74649082,"lon":139.32587934},{"name":"福生市公民館","province":"東京都","city":"福生市","address":"福生市福生2455","lat":35.734283,"lon":139.337967},{"name":"福生市公民館松林分館","province":"東京都","city":"福生市","address":"福生市武蔵野台1-15-1","lat":35.746574,"lon":139.332214},{"name":"福生市公民館白梅分館","province":"東京都","city":"福生市","address":"福生市熊川559-1","lat":35.72414,"lon":139.33786},{"name":"福生市立わかぎり図書館","province":"東京都","city":"福生市","address":"福生市福生1280-1","lat":35.74604,"lon":139.321091},{"name":"福生市立わかたけ図書館","province":"東京都","city":"福生市","address":"福生市熊川199-1","lat":35.718021,"lon":139.335327},{"name":"福生市立中央図書館","province":"東京都","city":"福生市","address":"福生市熊川850-1","lat":35.731689,"lon":139.337662},{"name":"福生市立武蔵野台図書館","province":"東京都","city":"福生市","address":"福生市武蔵野台1-12-2","lat":35.74699,"lon":139.333954},{"name":"福生市郷土資料室","province":"東京都","city":"福生市","address":"福生市熊川850-1","lat":35.731689,"lon":139.337662},{"name":"かえで会館","province":"東京都","city":"福生市","address":"福生市加美平1-20-6","lat":35.750492,"lon":139.325958},{"name":"さくら会館","province":"東京都","city":"福生市","address":"福生市牛浜163","lat":35.733948,"lon":139.336945},{"name":"扶桑会館","province":"東京都","city":"福生市","address":"福生市福生1069-1","lat":35.744026,"lon":139.324768},{"name":"福生市茶室「福庵」","province":"東京都","city":"福生市","address":"福生市熊川854-3","lat":35.731689,"lon":139.337662},{"name":"福生市民会館","province":"東京都","city":"福生市","address":"福生市福生2455","lat":35.734283,"lon":139.337967},{"name":"株式会社セレサポート","province":"東京都","city":"福生市","address":"東京都福生市武蔵野台2丁目25-5","lat":35.74972941,"lon":139.32824293},{"name":"株式会社 多摩祭典","province":"東京都","city":"福生市","address":"東京都福生市福生（大字）2350","lat":35.73898372,"lon":139.33776209},{"name":"株式会社 セレサポート","province":"東京都","city":"福生市","address":"東京都福生市武蔵野台2丁目25-5","lat":35.74972941,"lon":139.32824293},{"name":"愛和セレモニー","province":"東京都","city":"福生市","address":"東京都福生市熊川（大字）888","lat":35.72984032,"lon":139.33577366},{"name":"有限会社島田屋","province":"東京都","city":"福生市","address":"東京都福生市本町134","lat":35.7410471,"lon":139.32819327},{"name":"株式会社セレモア","province":"東京都","city":"福生市","address":"東京都福生市熊川（大字）1311","lat":35.72801848,"lon":139.34267597},{"name":"セレモニーホール福生","province":"東京都","city":"福生市","address":"東京都福生市加美平1丁目19-5","lat":35.74983486,"lon":139.32494595},{"name":"ファミリアホール創友社","province":"東京都","city":"福生市","address":"東京都福生市福生（大字）1983-40","lat":35.74859646,"lon":139.33708673},{"name":"株式会社多摩祭典","province":"東京都","city":"福生市","address":"東京都福生市福生（大字）2350","lat":35.73898372,"lon":139.33776209},{"name":"JAにしたま葬祭センター","province":"東京都","city":"福生市","address":"東京都福生市本町16","lat":35.73854461,"lon":139.32766007},{"name":"そうしんフレールホール福生","province":"東京都","city":"福生市","address":"東京都福生市南田園2丁目15-3","lat":35.72696557,"lon":139.33109909},{"name":"葬儀・終活相談センターフィーネ","province":"東京都","city":"福生市","address":"東京都福生市加美平2丁目3-2","lat":35.74649082,"lon":139.32587934},{"name":"福生市公民館","province":"東京都","city":"福生市","address":"福生市福生2455","lat":35.734283,"lon":139.337967},{"name":"福生市公民館松林分館","province":"東京都","city":"福生市","address":"福生市武蔵野台1-15-1","lat":35.746574,"lon":139.332214},{"name":"福生市公民館白梅分館","province":"東京都","city":"福生市","address":"福生市熊川559-1","lat":35.72414,"lon":139.33786},{"name":"福生市立わかぎり図書館","province":"東京都","city":"福生市","address":"福生市福生1280-1","lat":35.74604,"lon":139.321091},{"name":"福生市立わかたけ図書館","province":"東京都","city":"福生市","address":"福生市熊川199-1","lat":35.718021,"lon":139.335327},{"name":"福生市立中央図書館","province":"東京都","city":"福生市","address":"福生市熊川850-1","lat":35.731689,"lon":139.337662},{"name":"福生市立武蔵野台図書館","province":"東京都","city":"福生市","address":"福生市武蔵野台1-12-2","lat":35.74699,"lon":139.333954},{"name":"福生市郷土資料室","province":"東京都","city":"福生市","address":"福生市熊川850-1","lat":35.731689,"lon":139.337662},{"name":"かえで会館","province":"東京都","city":"福生市","address":"福生市加美平1-20-6","lat":35.750492,"lon":139.325958},{"name":"さくら会館","province":"東京都","city":"福生市","address":"福生市牛浜163","lat":35.733948,"lon":139.336945},{"name":"扶桑会館","province":"東京都","city":"福生市","address":"福生市福生1069-1","lat":35.744026,"lon":139.324768},{"name":"福生市茶室「福庵」","province":"東京都","city":"福生市","address":"福生市熊川854-3","lat":35.731689,"lon":139.337662},{"name":"福生市民会館","province":"東京都","city":"福生市","address":"福生市福生2455","lat":35.734283,"lon":139.337967},{"name":"株式会社セレサポート","province":"東京都","city":"福生市","address":"東京都福生市武蔵野台2丁目25-5","lat":35.74972941,"lon":139.32824293},{"name":"株式会社 多摩祭典","province":"東京都","city":"福生市","address":"東京都福生市福生（大字）2350","lat":35.73898372,"lon":139.33776209},{"name":"株式会社 セレサポート","province":"東京都","city":"福生市","address":"東京都福生市武蔵野台2丁目25-5","lat":35.74972941,"lon":139.32824293},{"name":"愛和セレモニー","province":"東京都","city":"福生市","address":"東京都福生市熊川（大字）888","lat":35.72984032,"lon":139.33577366},{"name":"有限会社島田屋","province":"東京都","city":"福生市","address":"東京都福生市本町134","lat":35.7410471,"lon":139.32819327},{"name":"株式会社セレモア","province":"東京都","city":"福生市","address":"東京都福生市熊川（大字）1311","lat":35.72801848,"lon":139.34267597},{"name":"セレモニーホール福生","province":"東京都","city":"福生市","address":"東京都福生市加美平1丁目19-5","lat":35.74983486,"lon":139.32494595},{"name":"ファミリアホール創友社","province":"東京都","city":"福生市","address":"東京都福生市福生（大字）1983-40","lat":35.74859646,"lon":139.33708673},{"name":"株式会社多摩祭典","province":"東京都","city":"福生市","address":"東京都福生市福生（大字）2350","lat":35.73898372,"lon":139.33776209},{"name":"JAにしたま葬祭センター","province":"東京都","city":"福生市","address":"東京都福生市本町16","lat":35.73854461,"lon":139.32766007},{"name":"そうしんフレールホール福生","province":"東京都","city":"福生市","address":"東京都福生市南田園2丁目15-3","lat":35.72696557,"lon":139.33109909},{"name":"葬儀・終活相談センターフィーネ","province":"東京都","city":"福生市","address":"東京都福生市加美平2丁目3-2","lat":35.74649082,"lon":139.32587934},{"name":"福生市公民館","province":"東京都","city":"福生市","address":"福生市福生2455","lat":35.734283,"lon":139.337967},{"name":"福生市公民館松林分館","province":"東京都","city":"福生市","address":"福生市武蔵野台1-15-1","lat":35.746574,"lon":139.332214},{"name":"福生市公民館白梅分館","province":"東京都","city":"福生市","address":"福生市熊川559-1","lat":35.72414,"lon":139.33786},{"name":"福生市立わかぎり図書館","province":"東京都","city":"福生市","address":"福生市福生1280-1","lat":35.74604,"lon":139.321091},{"name":"福生市立わかたけ図書館","province":"東京都","city":"福生市","address":"福生市熊川199-1","lat":35.718021,"lon":139.335327},{"name":"福生市立中央図書館","province":"東京都","city":"福生市","address":"福生市熊川850-1","lat":35.731689,"lon":139.337662},{"name":"福生市立武蔵野台図書館","province":"東京都","city":"福生市","address":"福生市武蔵野台1-12-2","lat":35.74699,"lon":139.333954},{"name":"福生市郷土資料室","province":"東京都","city":"福生市","address":"福生市熊川850-1","lat":35.731689,"lon":139.337662},{"name":"かえで会館","province":"東京都","city":"福生市","address":"福生市加美平1-20-6","lat":35.750492,"lon":139.325958},{"name":"さくら会館","province":"東京都","city":"福生市","address":"福生市牛浜163","lat":35.733948,"lon":139.336945},{"name":"扶桑会館","province":"東京都","city":"福生市","address":"福生市福生1069-1","lat":35.744026,"lon":139.324768},{"name":"福生市茶室「福庵」","province":"東京都","city":"福生市","address":"福生市熊川854-3","lat":35.731689,"lon":139.337662},{"name":"福生市民会館","province":"東京都","city":"福生市","address":"福生市福生2455","lat":35.734283,"lon":139.337967},{"name":"株式会社セレサポート","province":"東京都","city":"福生市","address":"東京都福生市武蔵野台2丁目25-5","lat":35.74972941,"lon":139.32824293},{"name":"株式会社 多摩祭典","province":"東京都","city":"福生市","address":"東京都福生市福生（大字）2350","lat":35.73898372,"lon":139.33776209},{"name":"株式会社 セレサポート","province":"東京都","city":"福生市","address":"東京都福生市武蔵野台2丁目25-5","lat":35.74972941,"lon":139.32824293},{"name":"愛和セレモニー","province":"東京都","city":"福生市","address":"東京都福生市熊川（大字）888","lat":35.72984032,"lon":139.33577366},{"name":"有限会社島田屋","province":"東京都","city":"福生市","address":"東京都福生市本町134","lat":35.7410471,"lon":139.32819327},{"name":"株式会社セレモア","province":"東京都","city":"福生市","address":"東京都福生市熊川（大字）1311","lat":35.72801848,"lon":139.34267597},{"name":"セレモニーホール福生","province":"東京都","city":"福生市","address":"東京都福生市加美平1丁目19-5","lat":35.74983486,"lon":139.32494595},{"name":"ファミリアホール創友社","province":"東京都","city":"福生市","address":"東京都福生市福生（大字）1983-40","lat":35.74859646,"lon":139.33708673},{"name":"株式会社多摩祭典","province":"東京都","city":"福生市","address":"東京都福生市福生（大字）2350","lat":35.73898372,"lon":139.33776209},{"name":"JAにしたま葬祭センター","province":"東京都","city":"福生市","address":"東京都福生市本町16","lat":35.73854461,"lon":139.32766007},{"name":"そうしんフレールホール福生","province":"東京都","city":"福生市","address":"東京都福生市南田園2丁目15-3","lat":35.72696557,"lon":139.33109909},{"name":"葬儀・終活相談センターフィーネ","province":"東京都","city":"福生市","address":"東京都福生市加美平2丁目3-2","lat":35.74649082,"lon":139.32587934},{"name":"福生市公民館","province":"東京都","city":"福生市","address":"福生市福生2455","lat":35.734283,"lon":139.337967},{"name":"福生市公民館松林分館","province":"東京都","city":"福生市","address":"福生市武蔵野台1-15-1","lat":35.746574,"lon":139.332214},{"name":"福生市公民館白梅分館","province":"東京都","city":"福生市","address":"福生市熊川559-1","lat":35.72414,"lon":139.33786},{"name":"福生市立わかぎり図書館","province":"東京都","city":"福生市","address":"福生市福生1280-1","lat":35.74604,"lon":139.321091},{"name":"福生市立わかたけ図書館","province":"東京都","city":"福生市","address":"福生市熊川199-1","lat":35.718021,"lon":139.335327},{"name":"福生市立中央図書館","province":"東京都","city":"福生市","address":"福生市熊川850-1","lat":35.731689,"lon":139.337662},{"name":"福生市立武蔵野台図書館","province":"東京都","city":"福生市","address":"福生市武蔵野台1-12-2","lat":35.74699,"lon":139.333954},{"name":"福生市郷土資料室","province":"東京都","city":"福生市","address":"福生市熊川850-1","lat":35.731689,"lon":139.337662},{"name":"かえで会館","province":"東京都","city":"福生市","address":"福生市加美平1-20-6","lat":35.750492,"lon":139.325958},{"name":"さくら会館","province":"東京都","city":"福生市","address":"福生市牛浜163","lat":35.733948,"lon":139.336945},{"name":"扶桑会館","province":"東京都","city":"福生市","address":"福生市福生1069-1","lat":35.744026,"lon":139.324768},{"name":"福生市茶室「福庵」","province":"東京都","city":"福生市","address":"福生市熊川854-3","lat":35.731689,"lon":139.337662},{"name":"福生市民会館","province":"東京都","city":"福生市","address":"福生市福生2455","lat":35.734283,"lon":139.337967},{"name":"株式会社セレサポート","province":"東京都","city":"福生市","address":"東京都福生市武蔵野台2丁目25-5","lat":35.74972941,"lon":139.32824293},{"name":"株式会社 多摩祭典","province":"東京都","city":"福生市","address":"東京都福生市福生（大字）2350","lat":35.73898372,"lon":139.33776209},{"name":"株式会社 セレサポート","province":"東京都","city":"福生市","address":"東京都福生市武蔵野台2丁目25-5","lat":35.74972941,"lon":139.32824293},{"name":"愛和セレモニー","province":"東京都","city":"福生市","address":"東京都福生市熊川（大字）888","lat":35.72984032,"lon":139.33577366},{"name":"有限会社島田屋","province":"東京都","city":"福生市","address":"東京都福生市本町134","lat":35.7410471,"lon":139.32819327},{"name":"株式会社セレモア","province":"東京都","city":"福生市","address":"東京都福生市熊川（大字）1311","lat":35.72801848,"lon":139.34267597},{"name":"セレモニーホール福生","province":"東京都","city":"福生市","address":"東京都福生市加美平1丁目19-5","lat":35.74983486,"lon":139.32494595},{"name":"ファミリアホール創友社","province":"東京都","city":"福生市","address":"東京都福生市福生（大字）1983-40","lat":35.74859646,"lon":139.33708673},{"name":"株式会社多摩祭典","province":"東京都","city":"福生市","address":"東京都福生市福生（大字）2350","lat":35.73898372,"lon":139.33776209},{"name":"JAにしたま葬祭センター","province":"東京都","city":"福生市","address":"東京都福生市本町16","lat":35.73854461,"lon":139.32766007},{"name":"そうしんフレールホール福生","province":"東京都","city":"福生市","address":"東京都福生市南田園2丁目15-3","lat":35.72696557,"lon":139.33109909},{"name":"葬儀・終活相談センターフィーネ","province":"東京都","city":"福生市","address":"東京都福生市加美平2丁目3-2","lat":35.74649082,"lon":139.32587934},{"name":"福生市公民館","province":"東京都","city":"福生市","address":"福生市福生2455","lat":35.734283,"lon":139.337967},{"name":"福生市公民館松林分館","province":"東京都","city":"福生市","address":"福生市武蔵野台1-15-1","lat":35.746574,"lon":139.332214},{"name":"福生市公民館白梅分館","province":"東京都","city":"福生市","address":"福生市熊川559-1","lat":35.72414,"lon":139.33786},{"name":"福生市立わかぎり図書館","province":"東京都","city":"福生市","address":"福生市福生1280-1","lat":35.74604,"lon":139.321091},{"name":"福生市立わかたけ図書館","province":"東京都","city":"福生市","address":"福生市熊川199-1","lat":35.718021,"lon":139.335327},{"name":"福生市立中央図書館","province":"東京都","city":"福生市","address":"福生市熊川850-1","lat":35.731689,"lon":139.337662},{"name":"福生市立武蔵野台図書館","province":"東京都","city":"福生市","address":"福生市武蔵野台1-12-2","lat":35.74699,"lon":139.333954},{"name":"福生市郷土資料室","province":"東京都","city":"福生市","address":"福生市熊川850-1","lat":35.731689,"lon":139.337662},{"name":"かえで会館","province":"東京都","city":"福生市","address":"福生市加美平1-20-6","lat":35.750492,"lon":139.325958},{"name":"さくら会館","province":"東京都","city":"福生市","address":"福生市牛浜163","lat":35.733948,"lon":139.336945},{"name":"扶桑会館","province":"東京都","city":"福生市","address":"福生市福生1069-1","lat":35.744026,"lon":139.324768},{"name":"福生市茶室「福庵」","province":"東京都","city":"福生市","address":"福生市熊川854-3","lat":35.731689,"lon":139.337662},{"name":"福生市民会館","province":"東京都","city":"福生市","address":"福生市福生2455","lat":35.734283,"lon":139.337967},{"name":"株式会社セレサポート","province":"東京都","city":"福生市","address":"東京都福生市武蔵野台2丁目25-5","lat":35.74972941,"lon":139.32824293},{"name":"株式会社 多摩祭典","province":"東京都","city":"福生市","address":"東京都福生市福生（大字）2350","lat":35.73898372,"lon":139.33776209},{"name":"株式会社 セレサポート","province":"東京都","city":"福生市","address":"東京都福生市武蔵野台2丁目25-5","lat":35.74972941,"lon":139.32824293},{"name":"愛和セレモニー","province":"東京都","city":"福生市","address":"東京都福生市熊川（大字）888","lat":35.72984032,"lon":139.33577366},{"name":"有限会社島田屋","province":"東京都","city":"福生市","address":"東京都福生市本町134","lat":35.7410471,"lon":139.32819327},{"name":"株式会社セレモア","province":"東京都","city":"福生市","address":"東京都福生市熊川（大字）1311","lat":35.72801848,"lon":139.34267597},{"name":"セレモニーホール福生","province":"東京都","city":"福生市","address":"東京都福生市加美平1丁目19-5","lat":35.74983486,"lon":139.32494595},{"name":"ファミリアホール創友社","province":"東京都","city":"福生市","address":"東京都福生市福生（大字）1983-40","lat":35.74859646,"lon":139.33708673},{"name":"株式会社多摩祭典","province":"東京都","city":"福生市","address":"東京都福生市福生（大字）2350","lat":35.73898372,"lon":139.33776209},{"name":"JAにしたま葬祭センター","province":"東京都","city":"福生市","address":"東京都福生市本町16","lat":35.73854461,"lon":139.32766007},{"name":"そうしんフレールホール福生","province":"東京都","city":"福生市","address":"東京都福生市南田園2丁目15-3","lat":35.72696557,"lon":139.33109909},{"name":"葬儀・終活相談センターフィーネ","province":"東京都","city":"福生市","address":"東京都福生市加美平2丁目3-2","lat":35.74649082,"lon":139.32587934},{"name":"福生市公民館","province":"東京都","city":"福生市","address":"福生市福生2455","lat":35.734283,"lon":139.337967},{"name":"福生市公民館松林分館","province":"東京都","city":"福生市","address":"福生市武蔵野台1-15-1","lat":35.746574,"lon":139.332214},{"name":"福生市公民館白梅分館","province":"東京都","city":"福生市","address":"福生市熊川559-1","lat":35.72414,"lon":139.33786},{"name":"福生市立わかぎり図書館","province":"東京都","city":"福生市","address":"福生市福生1280-1","lat":35.74604,"lon":139.321091},{"name":"福生市立わかたけ図書館","province":"東京都","city":"福生市","address":"福生市熊川199-1","lat":35.718021,"lon":139.335327},{"name":"福生市立中央図書館","province":"東京都","city":"福生市","address":"福生市熊川850-1","lat":35.731689,"lon":139.337662},{"name":"福生市立武蔵野台図書館","province":"東京都","city":"福生市","address":"福生市武蔵野台1-12-2","lat":35.74699,"lon":139.333954},{"name":"福生市郷土資料室","province":"東京都","city":"福生市","address":"福生市熊川850-1","lat":35.731689,"lon":139.337662},{"name":"かえで会館","province":"東京都","city":"福生市","address":"福生市加美平1-20-6","lat":35.750492,"lon":139.325958},{"name":"さくら会館","province":"東京都","city":"福生市","address":"福生市牛浜163","lat":35.733948,"lon":139.336945},{"name":"扶桑会館","province":"東京都","city":"福生市","address":"福生市福生1069-1","lat":35.744026,"lon":139.324768},{"name":"福生市茶室「福庵」","province":"東京都","city":"福生市","address":"福生市熊川854-3","lat":35.731689,"lon":139.337662},{"name":"福生市民会館","province":"東京都","city":"福生市","address":"福生市福生2455","lat":35.734283,"lon":139.337967}]}