{"keyword":"男女","data":[{"name":"若葉保育園","province":"東京都","city":"福生市","address":"福生市大字熊川1430番地","lat":35.726099,"lon":139.342148},{"name":"杉ノ子第三保育園","province":"東京都","city":"福生市","address":"福生市大字熊川373番地1","lat":35.721664,"lon":139.336377},{"name":"熊川保育園","province":"東京都","city":"福生市","address":"福生市大字熊川597番地1","lat":35.726416,"lon":139.337118},{"name":"杉ノ子第二保育園","province":"東京都","city":"福生市","address":"福生市南田園三丁目4番地2","lat":35.729276,"lon":139.329632},{"name":"わらべつくし保育園","province":"東京都","city":"福生市","address":"福生市南田園一丁目4番地12","lat":35.721066,"lon":139.330502},{"name":"東福保育園","province":"東京都","city":"福生市","address":"福生市大字福生209番地","lat":35.738817,"lon":139.334851},{"name":"福生保育園","province":"東京都","city":"福生市","address":"福生市大字福生1058番地11","lat":35.742827,"lon":139.325488},{"name":"福生本町保育園","province":"東京都","city":"福生市","address":"福生市大字福生2143番地11","lat":35.743097,"lon":139.332637},{"name":"すみれ保育園","province":"東京都","city":"福生市","address":"福生市大字福生959番地8","lat":35.746519,"lon":139.328532},{"name":"加美平保育園","province":"東京都","city":"福生市","address":"福生市加美平四丁目1番地1","lat":35.753743,"lon":139.326279},{"name":"彌生保育園","province":"東京都","city":"福生市","address":"福生市加美平三丁目37番地13","lat":35.748774,"lon":139.319071},{"name":"ありんこ保育園","province":"東京都","city":"福生市","address":"福生市加美平一丁目17番地7","lat":35.750177,"lon":139.327335},{"name":"福生杉ノ子保育園","province":"東京都","city":"福生市","address":"福生市志茂47番地3","lat":35.735962,"lon":139.329404},{"name":"牛浜こども園","province":"東京都","city":"福生市","address":"福生市牛浜121番地4","lat":35.735004,"lon":139.334076},{"name":"森田助産院","province":"東京都","city":"福生市","address":"福生市志茂83番地","lat":35.737145,"lon":139.330054},{"name":"公立福生病院","province":"東京都","city":"福生市","address":"福生市加美平1-6-1","lat":35.747013,"lon":139.326699},{"name":"ドリームボックス拝島","province":"東京都","city":"福生市","address":"福生市大字熊川202-1ホワイトパレス1階","lat":35.716614,"lon":139.336693},{"name":"あそぼーよ","province":"東京都","city":"福生市","address":"福生市南田園3-5-21森田ビルA号","lat":35.729482,"lon":139.330405},{"name":"つなごーよ","province":"東京都","city":"福生市","address":"福生市南田園3-18-15ユタカビル1階","lat":35.731323,"lon":139.328238},{"name":"ぶどうの木","province":"東京都","city":"福生市","address":"福生市福生1062-12AMTビル2階203号","lat":35.742922,"lon":139.32483},{"name":"ＦＵＳＳＡ地域福祉事業所　歩っ歩","province":"東京都","city":"福生市","address":"福生市武蔵野台2-3-20","lat":35.745391,"lon":139.331032},{"name":"福生学園","province":"東京都","city":"福生市","address":"福生市大字熊川字武蔵野1600-2","lat":35.72499,"lon":139.350929},{"name":"福生市保健センター","province":"東京都","city":"福生市","address":"福生市大字福生2125-3","lat":35.744127,"lon":139.334232},{"name":"福生消防署","province":"東京都","city":"福生市","address":"東京都福生市大字福生1072","lat":35.744017,"lon":139.324547},{"name":"福生駅前公衆便所","province":"東京都","city":"福生市","address":"東京都福生市本町137","lat":35.742376,"lon":139.328144},{"name":"福生市役所本庁舎","province":"東京都","city":"福生市","address":"東京都福生市本町5","lat":35.738431,"lon":139.327049},{"name":"福生市役所本庁舎","province":"東京都","city":"福生市","address":"東京都福生市本町","lat":35.738959,"lon":139.326424},{"name":"福生市役所本庁舎","province":"東京都","city":"福生市","address":"東京都福生市本町5","lat":35.738482,"lon":139.32702},{"name":"福生市役所本庁舎","province":"東京都","city":"福生市","address":"東京都福生市本町5","lat":35.738837,"lon":139.326536},{"name":"福生市役所本庁舎","province":"東京都","city":"福生市","address":"東京都福生市本町5","lat":35.738449,"lon":139.327039},{"name":"福生市もくせい会館","province":"東京都","city":"福生市","address":"東京都福生市本町","lat":35.738964,"lon":139.327268},{"name":"白梅会館","province":"東京都","city":"福生市","address":"東京都福生市大字熊川559-1","lat":35.724161,"lon":139.337642},{"name":"松林会館","province":"東京都","city":"福生市","address":"東京都福生市武蔵野台1丁目15-1","lat":35.746452,"lon":139.332484},{"name":"さくら会館","province":"東京都","city":"福生市","address":"東京都福生市牛浜163","lat":35.733772,"lon":139.337251},{"name":"かえで会館","province":"東京都","city":"福生市","address":"東京都福生市加美平1丁目20-6","lat":35.750408,"lon":139.32541},{"name":"福東会館","province":"東京都","city":"福生市","address":"東京都福生市大字熊川1662-7","lat":35.722486,"lon":139.345902},{"name":"扶桑会館","province":"東京都","city":"福生市","address":"東京都福生市本町","lat":35.740759,"lon":139.326319},{"name":"扶桑会館","province":"東京都","city":"福生市","address":"東京都福生市本町","lat":35.740734,"lon":139.326329},{"name":"福生市保健センター","province":"東京都","city":"福生市","address":"東京都福生市大字福生2125-3","lat":35.744267,"lon":139.334302},{"name":"福生市立中央図書館","province":"東京都","city":"福生市","address":"東京都福生市大字熊川850-1","lat":35.732037,"lon":139.3374},{"name":"福生市わかぎり会館・図書館","province":"東京都","city":"福生市","address":"東京都福生市大字福生1280-1","lat":35.746218,"lon":139.32078},{"name":"福生市立わかたけ会館・図書館","province":"東京都","city":"福生市","address":"東京都福生市大字熊川199-1","lat":35.718175,"lon":139.335083},{"name":"福生市立武蔵野台図書館","province":"東京都","city":"福生市","address":"東京都福生市武蔵野台1丁目12-2","lat":35.746757,"lon":139.333935},{"name":"福生市民会館","province":"東京都","city":"福生市","address":"東京都福生市大字福生2455","lat":35.734178,"lon":139.337832},{"name":"福生市民会館","province":"東京都","city":"福生市","address":"東京都福生市大字福生2455","lat":35.733711,"lon":139.33776},{"name":"福生市民会館","province":"東京都","city":"福生市","address":"東京都福生市大字福生2455","lat":35.733854,"lon":139.337726},{"name":"福生市民会館","province":"東京都","city":"福生市","address":"東京都福生市大字福生2455","lat":35.733963,"lon":139.337918},{"name":"福生市民会館","province":"東京都","city":"福生市","address":"東京都福生市大字福生2455","lat":35.733982,"lon":139.337857},{"name":"茶室福庵","province":"東京都","city":"福生市","address":"東京都福生市大字熊川854-3","lat":35.732597,"lon":139.337537},{"name":"プチギャラリー","province":"東京都","city":"福生市","address":"東京都福生市大字福生1014-10","lat":35.742342,"lon":139.327689},{"name":"熊川公園","province":"東京都","city":"福生市","address":"東京都福生市大字熊川","lat":35.723912,"lon":139.334279},{"name":"もくせい公園","province":"東京都","city":"福生市","address":"東京都福生市大字福生","lat":35.743277,"lon":139.335737},{"name":"加美平北公園","province":"東京都","city":"福生市","address":"東京都福生市加美平2丁目12","lat":35.750081,"lon":139.323358},{"name":"加美平南公園","province":"東京都","city":"福生市","address":"東京都福生市加美平3丁目10","lat":35.746586,"lon":139.324396},{"name":"東町公園","province":"東京都","city":"福生市","address":"東京都福生市東町8","lat":35.743961,"lon":139.326806},{"name":"金堀公園","province":"東京都","city":"福生市","address":"東京都福生市北田園1丁目9","lat":35.733438,"lon":139.326899},{"name":"鍋ヶ谷戸児童公園","province":"東京都","city":"福生市","address":"東京都福生市大字熊川","lat":35.724884,"lon":139.337226},{"name":"明神下公園","province":"東京都","city":"福生市","address":"東京都福生市南田園1丁目12","lat":35.724002,"lon":139.330306},{"name":"わらつけ公園","province":"東京都","city":"福生市","address":"東京都福生市大字福生","lat":35.744096,"lon":139.336231},{"name":"熊牛公園","province":"東京都","city":"福生市","address":"東京都福生市大字熊川","lat":35.731818,"lon":139.334997},{"name":"長沢公園","province":"東京都","city":"福生市","address":"東京都福生市大字福生","lat":35.741727,"lon":139.322795},{"name":"鍋二公園","province":"東京都","city":"福生市","address":"東京都福生市大字熊川","lat":35.726374,"lon":139.334646},{"name":"睦公園","province":"東京都","city":"福生市","address":"東京都福生市大字熊川","lat":35.720352,"lon":139.338618},{"name":"武蔵野橋公園","province":"東京都","city":"福生市","address":"東京都福生市大字熊川","lat":35.72205,"lon":139.341404},{"name":"福生駅西口公園","province":"東京都","city":"福生市","address":"東京都福生市大字福生","lat":35.741715,"lon":139.328134},{"name":"東福生駅東口公園","province":"東京都","city":"福生市","address":"東京都福生市大字福生","lat":35.745699,"lon":139.336085},{"name":"フレンドシップパーク","province":"東京都","city":"福生市","address":"東京都福生市大字福生","lat":35.738872,"lon":139.338459},{"name":"牛一公園","province":"東京都","city":"福生市","address":"東京都福生市牛浜","lat":35.734837,"lon":139.331404},{"name":"牛浜駅東口公園","province":"東京都","city":"福生市","address":"東京都福生市牛浜","lat":35.734736,"lon":139.333725},{"name":"ひふみ公園","province":"東京都","city":"福生市","address":"東京都福生市本町","lat":35.739569,"lon":139.329448},{"name":"牛二公園","province":"東京都","city":"福生市","address":"東京都福生市大字福生","lat":35.736717,"lon":139.33902},{"name":"田園広場公園","province":"東京都","city":"福生市","address":"東京都福生市北田園1丁目54","lat":35.732352,"lon":139.323847},{"name":"福東公園","province":"東京都","city":"福生市","address":"東京都福生市大字熊川","lat":35.723006,"lon":139.349594},{"name":"福栄ミレニアムパーク","province":"東京都","city":"福生市","address":"東京都福生市大字熊川","lat":35.730503,"lon":139.341055},{"name":"加美平公園","province":"東京都","city":"福生市","address":"東京都福生市加美平1丁目21","lat":35.751441,"lon":139.327344},{"name":"中福生公園","province":"東京都","city":"福生市","address":"東京都福生市大字福生","lat":35.736927,"lon":139.325874},{"name":"武蔵野台公園","province":"東京都","city":"福生市","address":"東京都福生市武蔵野台1丁目30","lat":35.752193,"lon":139.330826},{"name":"福東トモダチ公園","province":"東京都","city":"福生市","address":"東京都福生市大字熊川","lat":35.725753,"lon":139.351785},{"name":"多摩川緑地福生柳山公園","province":"東京都","city":"福生市","address":"東京都福生市北田園2丁目8","lat":35.73788,"lon":139.319747},{"name":"多摩川緑地福生南公園","province":"東京都","city":"福生市","address":"東京都福生市大字熊川","lat":35.715897,"lon":139.33177},{"name":"多摩川緑地福生かに坂公園","province":"東京都","city":"福生市","address":"東京都福生市大字福生","lat":35.743985,"lon":139.318699},{"name":"みずくらいど公園","province":"東京都","city":"福生市","address":"東京都福生市大字熊川","lat":35.727265,"lon":139.339273},{"name":"玉川上水緑地日光橋公園","province":"東京都","city":"福生市","address":"東京都福生市大字熊川","lat":35.723162,"lon":139.34282},{"name":"下の川緑地せせらぎ遊歩道公園","province":"東京都","city":"福生市","address":"東京都福生市大字熊川","lat":35.721918,"lon":139.333609},{"name":"原ヶ谷戸どんぐり公園","province":"東京都","city":"福生市","address":"東京都福生市大字福生","lat":35.738966,"lon":139.335389},{"name":"熊牛わらつけ児童遊園","province":"東京都","city":"福生市","address":"東京都福生市大字熊川","lat":35.731951,"lon":139.339446},{"name":"多摩川緑地加美上水公園","province":"東京都","city":"福生市","address":"東京都福生市大字福生","lat":35.747119,"lon":139.318412},{"name":"福生駅西口公衆便所","province":"東京都","city":"福生市","address":"東京都福生市大字福生","lat":35.741715,"lon":139.328134},{"name":"牛浜駅東口公衆便所","province":"東京都","city":"福生市","address":"東京都福生市牛浜","lat":35.734736,"lon":139.333725},{"name":"牛浜駅西口公衆便所","province":"東京都","city":"福生市","address":"東京都福生市牛浜","lat":35.734469,"lon":139.333543},{"name":"東福生駅西口公衆便所","province":"東京都","city":"福生市","address":"東京都福生市武蔵野台1丁目1","lat":35.746013,"lon":139.335767},{"name":"福生市福祉センター","province":"東京都","city":"福生市","address":"東京都福生市南田園2丁目13-1","lat":35.727604,"lon":139.332419},{"name":"福生市福祉センター","province":"東京都","city":"福生市","address":"東京都福生市南田園2丁目13-1","lat":35.727599,"lon":139.332379},{"name":"福生市福祉センター","province":"東京都","city":"福生市","address":"東京都福生市南田園2丁目13-1","lat":35.727342,"lon":139.332273},{"name":"福生市福祉センター","province":"東京都","city":"福生市","address":"東京都福生市南田園2丁目13-1","lat":35.72762,"lon":139.332588},{"name":"福生市田園児童館","province":"東京都","city":"福生市","address":"東京都福生市南田園3丁目6-1","lat":35.730084,"lon":139.331068},{"name":"熊川児童館","province":"東京都","city":"福生市","address":"東京都福生市大字熊川","lat":35.730281,"lon":139.341304},{"name":"武蔵野台児童館","province":"東京都","city":"福生市","address":"東京都福生市武蔵野台1丁目12-2","lat":35.746745,"lon":139.333934},{"name":"子ども応援館","province":"東京都","city":"福生市","address":"東京都福生市北田園2丁目5-7","lat":35.734046,"lon":139.322685},{"name":"熊川地域体育館","province":"東京都","city":"福生市","address":"東京都福生市大字熊川380-7","lat":35.720704,"lon":139.337035},{"name":"福生地域体育館","province":"東京都","city":"福生市","address":"東京都福生市武蔵野台1丁目8-7","lat":35.746371,"lon":139.334278},{"name":"福生地域体育館","province":"東京都","city":"福生市","address":"東京都福生市武蔵野台1丁目8-7","lat":35.746198,"lon":139.334275},{"name":"福生野球場","province":"東京都","city":"福生市","address":"東京都福生市大字福生","lat":35.734848,"lon":139.337138},{"name":"市営プール","province":"東京都","city":"福生市","address":"東京都福生市北田園2丁目8-4","lat":35.734245,"lon":139.32163},{"name":"福東第二少年野球場","province":"東京都","city":"福生市","address":"東京都福生市大字熊川","lat":35.724549,"lon":139.350646},{"name":"輝き市民サポートセンター","province":"東京都","city":"福生市","address":"東京都福生市大字福生1014-10","lat":35.742342,"lon":139.327689},{"name":"市営競技場","province":"東京都","city":"福生市","address":"東京都福生市大字福生","lat":35.747622,"lon":139.317685},{"name":"市営競技場","province":"東京都","city":"福生市","address":"東京都福生市大字福生3232","lat":35.747081,"lon":139.31635},{"name":"くるみるふっさ","province":"東京都","city":"福生市","address":"東京都福生市本町23","lat":35.739415,"lon":139.328418},{"name":"熊川神社本殿","province":"東京都","city":"福生市","address":"東京都福生市熊川660","lat":35.723658,"lon":139.333882},{"name":"中央図書館","province":"東京都","city":"福生市","address":"東京都福生市熊川（大字）850-1","lat":35.73186235,"lon":139.3376679},{"name":"武蔵野台図書館","province":"東京都","city":"福生市","address":"東京都福生市武蔵野台1丁目12-2","lat":35.74680769,"lon":139.33394539},{"name":"わかたけ図書館","province":"東京都","city":"福生市","address":"東京都福生市熊川（大字）199-1","lat":35.7181112,"lon":139.33499907},{"name":"わかぎり図書館","province":"東京都","city":"福生市","address":"東京都福生市福生（大字）1280-1","lat":35.74619349,"lon":139.32083528},{"name":"福東グランド","province":"東京都","city":"福生市","address":"東京都福生市熊川（大字）1608","lat":35.72289427,"lon":139.35088939},{"name":"福東球技場","province":"東京都","city":"福生市","address":"東京都福生市熊川（大字）1608","lat":35.72289427,"lon":139.35088939},{"name":"熊川地域体育館","province":"東京都","city":"福生市","address":"東京都福生市熊川（大字）380-7","lat":35.72062204,"lon":139.33699606},{"name":"多摩川中央公園グランド","province":"東京都","city":"福生市","address":"東京都福生市北田園1丁目","lat":35.7320676,"lon":139.32653537},{"name":"中央体育館","province":"東京都","city":"福生市","address":"東京都福生市北田園2丁目9-1","lat":35.73451441,"lon":139.32237447},{"name":"福生市営プール","province":"東京都","city":"福生市","address":"東京都福生市北田園2丁目8-4","lat":35.73426998,"lon":139.32165231},{"name":"福生地域体育館","province":"東京都","city":"福生市","address":"東京都福生市武蔵野台1丁目8-7","lat":35.74622721,"lon":139.33415374},{"name":"玉川上水緑道","province":"東京都","city":"福生市","address":"東京都福生市、昭島市、立川市、小平市、三鷹市、武蔵野市、杉並区","lat":35.671987,"lon":139.664898},{"name":"福生武蔵野台給水所","province":"東京都","city":"福生市","address":"東京都福生市武蔵野台2-32","lat":35.751586,"lon":139.329512},{"name":"市立明神下公園","province":"東京都","city":"福生市","address":"東京都福生市南田園1-12-1","lat":35.723895,"lon":139.330834},{"name":"若葉保育園","province":"東京都","city":"福生市","address":"福生市大字熊川1430番地","lat":35.72628,"lon":139.34256},{"name":"杉ノ子第三保育園","province":"東京都","city":"福生市","address":"福生市大字熊川373番地1","lat":35.72161,"lon":139.33626},{"name":"熊川保育園","province":"東京都","city":"福生市","address":"福生市大字熊川597番地1","lat":35.72658,"lon":139.33719},{"name":"わらべつくし保育園","province":"東京都","city":"福生市","address":"福生市南田園一丁目4番地12","lat":35.72079,"lon":139.33043},{"name":"杉ノ子第二保育園","province":"東京都","city":"福生市","address":"福生市南田園三丁目4番地2","lat":35.72952,"lon":139.32973},{"name":"福生保育園","province":"東京都","city":"福生市","address":"福生市大字福生1058番地11","lat":35.74302,"lon":139.32541},{"name":"東福保育園","province":"東京都","city":"福生市","address":"福生市大字福生209番地","lat":35.73854,"lon":139.33534},{"name":"不動の森こども園","province":"東京都","city":"福生市","address":"福生市大字福生2143番地11","lat":35.7430454,"lon":139.3326818},{"name":"すみれ保育園","province":"東京都","city":"福生市","address":"福生市大字福生959番地8","lat":35.74628,"lon":139.32748},{"name":"ありんこ保育園","province":"東京都","city":"福生市","address":"福生市加美平一丁目17番地7","lat":35.75013,"lon":139.3275},{"name":"彌生保育園","province":"東京都","city":"福生市","address":"福生市加美平三丁目37番地13","lat":35.74911,"lon":139.31897},{"name":"加美平保育園","province":"東京都","city":"福生市","address":"福生市加美平四丁目1番地1","lat":35.75366,"lon":139.32352},{"name":"福生杉ノ子保育園","province":"東京都","city":"福生市","address":"福生市志茂47番地3","lat":35.736,"lon":139.32938},{"name":"牛浜こども園","province":"東京都","city":"福生市","address":"福生市牛浜121番地4","lat":35.7349947,"lon":139.3340896},{"name":"森田助産院","province":"東京都","city":"福生市","address":"福生市志茂83","lat":35.73696,"lon":139.33},{"name":"公立福生病院","province":"東京都","city":"福生市","address":"福生市加美平1-6-1","lat":35.74707,"lon":139.32657},{"name":"福生市","province":"東京都","city":"福生市","address":"福生市本町5","lat":35.7387,"lon":139.32678},{"name":"福生駅東口地下自転車駐車場","province":"東京都","city":"福生市","address":"東京都福生市東町5-1","lat":35.74331348,"lon":139.32803486},{"name":"牛浜駅西口自転車駐車場","province":"東京都","city":"福生市","address":"東京都福生市牛浜58-1","lat":35.73481739,"lon":139.33145717},{"name":"拝島駅北口自転車駐車場","province":"東京都","city":"福生市","address":"東京都福生市熊川（大字）1398-1","lat":35.72275246,"lon":139.34290667},{"name":"福生市地域包括支援センター福生","province":"東京都","city":"福生市","address":"福生市本町5番地","lat":35.738701,"lon":139.326782},{"name":"福生市地域包括支援センター熊川","province":"東京都","city":"福生市","address":"福生市南田園2-13-1","lat":35.727993,"lon":139.332336},{"name":"在宅介護支援センター武蔵野","province":"東京都","city":"福生市","address":"福生市福生2300-4","lat":35.740284,"lon":139.337677},{"name":"在宅介護支援センター加美","province":"東京都","city":"福生市","address":"福生市福生3244-10","lat":35.74612,"lon":139.317993},{"name":"在宅介護支援センター南田園","province":"東京都","city":"福生市","address":"福生市南田園2-9-1-103","lat":35.720776,"lon":139.330933},{"name":"福生市消費者相談室","province":"東京都","city":"福生市","address":"福生市本町18","lat":35.739086,"lon":139.327423},{"name":"医療法人社団幸悠会地域活動支援センターハッピーウイング","province":"東京都","city":"福生市","address":"東京都福生市東町6-8","lat":35.74399951,"lon":139.32778485},{"name":"社会福祉法人福生市社会福祉協議会福生市生活介護事業所はっぴい","province":"東京都","city":"福生市","address":"東京都福生市南田園2丁目13-1","lat":35.72748498,"lon":139.33227121},{"name":"デイサービスあさがお","province":"東京都","city":"福生市","address":"東京都福生市南田園1丁目6-14","lat":35.72192175,"lon":139.33107425},{"name":"株式会社友心わーくあっぷ福生西口","province":"東京都","city":"福生市","address":"東京都福生市本町123","lat":35.74141368,"lon":139.32692668},{"name":"社会福祉法人福生ひまわり会麦わら帽子","province":"東京都","city":"福生市","address":"東京都福生市福生（大字）2125-3","lat":35.74412745,"lon":139.3342316},{"name":"特定非営利活動法人青少年自立援助センタージョブスペース游","province":"東京都","city":"福生市","address":"東京都福生市福生（大字）2351-1","lat":35.73954199,"lon":139.33793983},{"name":"福生本町保育園","province":"東京都","city":"福生市","address":"福生市大字福生2143番地11","lat":35.74321,"lon":139.33192},{"name":"杉ノ子第三保育園","province":"東京都","city":"福生市","address":"福生市大字熊川373-1","lat":35.72162,"lon":139.33626},{"name":"武蔵野橋南","province":"東京都","city":"福生市","address":"東京都福生市熊川（大字）459","lat":35.72125259,"lon":139.34023747},{"name":"福生駅西","province":"東京都","city":"福生市","address":"東京都福生市福生（大字）1110","lat":35.741197,"lon":139.32506293},{"name":"鍋ヶ谷戸","province":"東京都","city":"福生市","address":"東京都福生市熊川（大字）742","lat":35.72824883,"lon":139.33455436},{"name":"福生駅前","province":"東京都","city":"福生市","address":"東京都福生市福生（大字）767","lat":35.74185531,"lon":139.32733496},{"name":"加美郵便局前","province":"東京都","city":"福生市","address":"東京都福生市加美平2丁目1-1","lat":35.74583258,"lon":139.32619323},{"name":"加美郵便局前第二","province":"東京都","city":"福生市","address":"東京都福生市東町15-1","lat":35.74577981,"lon":139.32645711},{"name":"福生市役所前","province":"東京都","city":"福生市","address":"東京都福生市本町5","lat":35.73848071,"lon":139.32691568},{"name":"公立福生病院","province":"東京都","city":"福生市","address":"東京都福生市加美平1丁目6-1","lat":35.74701301,"lon":139.3266987},{"name":"福生武蔵野台浄水所","province":"東京都","city":"福生市","address":"東京都福生市武蔵野台2丁目32","lat":35.75162088,"lon":139.329215},{"name":"福生市立多摩川緑地福生南公園","province":"東京都","city":"福生市","address":"東京都福生市南田園1丁目1-1","lat":35.71975535,"lon":139.33089655},{"name":"加美平野球場","province":"東京都","city":"福生市","address":"東京都福生市加美平1丁目21","lat":35.75075425,"lon":139.3271652},{"name":"＊?福生市郷土資料室","province":"東京都","city":"福生市","address":"福生市熊川850-1","lat":35.732073,"lon":139.337586},{"name":"＊?福生市茶室「福庵」","province":"東京都","city":"福生市","address":"福生市熊川854-3","lat":35.732557,"lon":139.337557},{"name":"＊?福生市民会館","province":"東京都","city":"福生市","address":"福生市福生2455","lat":35.733906,"lon":139.337829},{"name":"＊?さくら会館","province":"東京都","city":"福生市","address":"福生市牛浜163","lat":35.733793,"lon":139.337233},{"name":"＊?かえで会館","province":"東京都","city":"福生市","address":"福生市加美平1-20-6","lat":35.75041,"lon":139.325447},{"name":"＊?扶桑会館","province":"東京都","city":"福生市","address":"福生市福生1069-1","lat":35.743941,"lon":139.324981},{"name":"福生市","province":"東京都","city":"福生市","address":"福生市本町5","lat":35.738483,"lon":139.326868},{"name":"中央体育館","province":"東京都","city":"福生市","address":"東京都福生市北田園2丁目9-1","lat":35.73451441,"lon":139.32237447},{"name":"わかぎり会館・図書館","province":"東京都","city":"福生市","address":"東京都福生市福生（大字）1280-1","lat":35.74619349,"lon":139.32083528},{"name":"白梅会館","province":"東京都","city":"福生市","address":"東京都福生市熊川（大字）559-1","lat":35.7240883,"lon":139.33774313},{"name":"中央図書館","province":"東京都","city":"福生市","address":"東京都福生市熊川（大字）850-1","lat":35.73186235,"lon":139.3376679},{"name":"わかたけ会館・図書館","province":"東京都","city":"福生市","address":"東京都福生市熊川（大字）199-1","lat":35.7181112,"lon":139.33499907},{"name":"福生市役所庁舎","province":"東京都","city":"福生市","address":"東京都福生市本町5","lat":35.73848071,"lon":139.32691568},{"name":"福祉センター","province":"東京都","city":"福生市","address":"東京都福生市南田園2丁目13-1","lat":35.72748498,"lon":139.33227121},{"name":"武蔵野台図書館・児童館","province":"東京都","city":"福生市","address":"東京都福生市武蔵野台1丁目12-2","lat":35.74680769,"lon":139.33394539},{"name":"松林会館","province":"東京都","city":"福生市","address":"東京都福生市武蔵野台1丁目15-1","lat":35.74648547,"lon":139.33246496},{"name":"福生高等学校","province":"東京都","city":"福生市","address":"東京都福生市北田園2丁目11-3","lat":35.73671136,"lon":139.32214663},{"name":"多摩工業高等学校","province":"東京都","city":"福生市","address":"東京都福生市熊川（大字）215","lat":35.71601153,"lon":139.33874607},{"name":"福生市民会館","province":"東京都","city":"福生市","address":"東京都福生市福生（大字）2455","lat":35.73403986,"lon":139.33785671},{"name":"さくら会館","province":"東京都","city":"福生市","address":"東京都福生市牛浜163","lat":35.73379544,"lon":139.33723732},{"name":"福生市本庁舎","province":"東京都","city":"福生市","address":"福生市本町5","lat":35.738484,"lon":139.326868},{"name":"航空自衛隊横田基地","province":"東京都","city":"福生市","address":"福生市大字福生2552","lat":35.74337,"lon":139.3305},{"name":"福生警察署","province":"東京都","city":"福生市","address":"福生市加美平3-25","lat":35.74889,"lon":139.3206},{"name":"福生消防署","province":"東京都","city":"福生市","address":"福生市福生1072","lat":35.74401,"lon":139.3245},{"name":"加美平野球場","province":"東京都","city":"福生市","address":"福生市加美平1-21","lat":35.75075,"lon":139.3272},{"name":"森田助産院","province":"東京都","city":"福生市","address":"福生市志茂83番地","lat":35.737145,"lon":139.330054},{"name":"公立福生病院","province":"東京都","city":"福生市","address":"福生市加美平1-6-1","lat":35.747013,"lon":139.326699},{"name":"ドリームボックス拝島","province":"東京都","city":"福生市","address":"福生市大字熊川202-1ホワイトパレス1階","lat":35.716614,"lon":139.336693},{"name":"あそぼーよ","province":"東京都","city":"福生市","address":"福生市南田園3-5-21森田ビルA号","lat":35.729482,"lon":139.330405},{"name":"つなごーよ","province":"東京都","city":"福生市","address":"福生市南田園3-18-15ユタカビル1階","lat":35.731323,"lon":139.328238},{"name":"ぶどうの木","province":"東京都","city":"福生市","address":"福生市福生1062-12AMTビル2階203号","lat":35.742922,"lon":139.32483},{"name":"ＦＵＳＳＡ地域福祉事業所　歩っ歩","province":"東京都","city":"福生市","address":"福生市武蔵野台2-3-20","lat":35.745391,"lon":139.331032},{"name":"中央図書館","province":"東京都","city":"福生市","address":"東京都福生市熊川（大字）850-1","lat":35.73186235,"lon":139.3376679},{"name":"武蔵野台図書館","province":"東京都","city":"福生市","address":"東京都福生市武蔵野台1丁目12-2","lat":35.74680769,"lon":139.33394539},{"name":"わかたけ図書館","province":"東京都","city":"福生市","address":"東京都福生市熊川（大字）199-1","lat":35.7181112,"lon":139.33499907},{"name":"わかぎり図書館","province":"東京都","city":"福生市","address":"東京都福生市福生（大字）1280-1","lat":35.74619349,"lon":139.32083528},{"name":"福東グランド","province":"東京都","city":"福生市","address":"東京都福生市熊川（大字）1608","lat":35.72289427,"lon":139.35088939},{"name":"福東球技場","province":"東京都","city":"福生市","address":"東京都福生市熊川（大字）1608","lat":35.72289427,"lon":139.35088939},{"name":"熊川地域体育館","province":"東京都","city":"福生市","address":"東京都福生市熊川（大字）380-7","lat":35.72062204,"lon":139.33699606},{"name":"多摩川中央公園グランド","province":"東京都","city":"福生市","address":"東京都福生市北田園1丁目","lat":35.7320676,"lon":139.32653537},{"name":"中央体育館","province":"東京都","city":"福生市","address":"東京都福生市北田園2丁目9-1","lat":35.73451441,"lon":139.32237447},{"name":"福生市営プール","province":"東京都","city":"福生市","address":"東京都福生市北田園2丁目8-4","lat":35.73426998,"lon":139.32165231},{"name":"福生地域体育館","province":"東京都","city":"福生市","address":"東京都福生市武蔵野台1丁目8-7","lat":35.74622721,"lon":139.33415374},{"name":"玉川上水緑道","province":"東京都","city":"福生市","address":"東京都福生市、昭島市、立川市、小平市、三鷹市、武蔵野市、杉並区","lat":35.671987,"lon":139.664898},{"name":"福生武蔵野台給水所","province":"東京都","city":"福生市","address":"東京都福生市武蔵野台2-32","lat":35.751586,"lon":139.329512},{"name":"市立明神下公園","province":"東京都","city":"福生市","address":"東京都福生市南田園1-12-1","lat":35.723895,"lon":139.330834},{"name":"森田助産院","province":"東京都","city":"福生市","address":"福生市志茂83","lat":35.73696,"lon":139.33},{"name":"公立福生病院","province":"東京都","city":"福生市","address":"福生市加美平1-6-1","lat":35.74707,"lon":139.32657},{"name":"福生市","province":"東京都","city":"福生市","address":"福生市本町5","lat":35.7387,"lon":139.32678},{"name":"福生駅東口地下自転車駐車場","province":"東京都","city":"福生市","address":"東京都福生市東町5-1","lat":35.74331348,"lon":139.32803486},{"name":"牛浜駅西口自転車駐車場","province":"東京都","city":"福生市","address":"東京都福生市牛浜58-1","lat":35.73481739,"lon":139.33145717},{"name":"拝島駅北口自転車駐車場","province":"東京都","city":"福生市","address":"東京都福生市熊川（大字）1398-1","lat":35.72275246,"lon":139.34290667},{"name":"福生市地域包括支援センター福生","province":"東京都","city":"福生市","address":"福生市本町5番地","lat":35.738701,"lon":139.326782},{"name":"福生市地域包括支援センター熊川","province":"東京都","city":"福生市","address":"福生市南田園2-13-1","lat":35.727993,"lon":139.332336},{"name":"在宅介護支援センター武蔵野","province":"東京都","city":"福生市","address":"福生市福生2300-4","lat":35.740284,"lon":139.337677},{"name":"在宅介護支援センター加美","province":"東京都","city":"福生市","address":"福生市福生3244-10","lat":35.74612,"lon":139.317993},{"name":"在宅介護支援センター南田園","province":"東京都","city":"福生市","address":"福生市南田園2-9-1-103","lat":35.720776,"lon":139.330933},{"name":"福生市消費者相談室","province":"東京都","city":"福生市","address":"福生市本町18","lat":35.739086,"lon":139.327423},{"name":"武蔵野橋南","province":"東京都","city":"福生市","address":"東京都福生市熊川（大字）459","lat":35.72125259,"lon":139.34023747},{"name":"福生駅西","province":"東京都","city":"福生市","address":"東京都福生市福生（大字）1110","lat":35.741197,"lon":139.32506293},{"name":"鍋ヶ谷戸","province":"東京都","city":"福生市","address":"東京都福生市熊川（大字）742","lat":35.72824883,"lon":139.33455436},{"name":"福生駅前","province":"東京都","city":"福生市","address":"東京都福生市福生（大字）767","lat":35.74185531,"lon":139.32733496},{"name":"加美郵便局前","province":"東京都","city":"福生市","address":"東京都福生市加美平2丁目1-1","lat":35.74583258,"lon":139.32619323},{"name":"加美郵便局前第二","province":"東京都","city":"福生市","address":"東京都福生市東町15-1","lat":35.74577981,"lon":139.32645711},{"name":"福生市役所前","province":"東京都","city":"福生市","address":"東京都福生市本町5","lat":35.73848071,"lon":139.32691568},{"name":"＊?福生市郷土資料室","province":"東京都","city":"福生市","address":"福生市熊川850-1","lat":35.732073,"lon":139.337586},{"name":"＊?福生市茶室「福庵」","province":"東京都","city":"福生市","address":"福生市熊川854-3","lat":35.732557,"lon":139.337557},{"name":"＊?福生市民会館","province":"東京都","city":"福生市","address":"福生市福生2455","lat":35.733906,"lon":139.337829},{"name":"＊?さくら会館","province":"東京都","city":"福生市","address":"福生市牛浜163","lat":35.733793,"lon":139.337233},{"name":"＊?かえで会館","province":"東京都","city":"福生市","address":"福生市加美平1-20-6","lat":35.75041,"lon":139.325447},{"name":"＊?扶桑会館","province":"東京都","city":"福生市","address":"福生市福生1069-1","lat":35.743941,"lon":139.324981},{"name":"福生市","province":"東京都","city":"福生市","address":"福生市本町5","lat":35.738483,"lon":139.326868},{"name":"中央体育館","province":"東京都","city":"福生市","address":"東京都福生市北田園2丁目9-1","lat":35.73451441,"lon":139.32237447},{"name":"わかぎり会館・図書館","province":"東京都","city":"福生市","address":"東京都福生市福生（大字）1280-1","lat":35.74619349,"lon":139.32083528},{"name":"白梅会館","province":"東京都","city":"福生市","address":"東京都福生市熊川（大字）559-1","lat":35.7240883,"lon":139.33774313},{"name":"中央図書館","province":"東京都","city":"福生市","address":"東京都福生市熊川（大字）850-1","lat":35.73186235,"lon":139.3376679},{"name":"わかたけ会館・図書館","province":"東京都","city":"福生市","address":"東京都福生市熊川（大字）199-1","lat":35.7181112,"lon":139.33499907},{"name":"福生市役所庁舎","province":"東京都","city":"福生市","address":"東京都福生市本町5","lat":35.73848071,"lon":139.32691568},{"name":"福祉センター","province":"東京都","city":"福生市","address":"東京都福生市南田園2丁目13-1","lat":35.72748498,"lon":139.33227121},{"name":"武蔵野台図書館・児童館","province":"東京都","city":"福生市","address":"東京都福生市武蔵野台1丁目12-2","lat":35.74680769,"lon":139.33394539},{"name":"松林会館","province":"東京都","city":"福生市","address":"東京都福生市武蔵野台1丁目15-1","lat":35.74648547,"lon":139.33246496},{"name":"航空自衛隊横田基地","province":"東京都","city":"福生市","address":"福生市大字福生2552","lat":35.74337,"lon":139.3305},{"name":"福生警察署","province":"東京都","city":"福生市","address":"福生市加美平3-25","lat":35.74889,"lon":139.3206},{"name":"福生消防署","province":"東京都","city":"福生市","address":"福生市福生1072","lat":35.74401,"lon":139.3245},{"name":"加美平野球場","province":"東京都","city":"福生市","address":"福生市加美平1-21","lat":35.75075,"lon":139.3272},{"name":"森田助産院","province":"東京都","city":"福生市","address":"福生市志茂83番地","lat":35.737145,"lon":139.330054},{"name":"公立福生病院","province":"東京都","city":"福生市","address":"福生市加美平1-6-1","lat":35.747013,"lon":139.326699},{"name":"ドリームボックス拝島","province":"東京都","city":"福生市","address":"福生市大字熊川202-1ホワイトパレス1階","lat":35.716614,"lon":139.336693},{"name":"あそぼーよ","province":"東京都","city":"福生市","address":"福生市南田園3-5-21森田ビルA号","lat":35.729482,"lon":139.330405},{"name":"つなごーよ","province":"東京都","city":"福生市","address":"福生市南田園3-18-15ユタカビル1階","lat":35.731323,"lon":139.328238},{"name":"ぶどうの木","province":"東京都","city":"福生市","address":"福生市福生1062-12AMTビル2階203号","lat":35.742922,"lon":139.32483},{"name":"ＦＵＳＳＡ地域福祉事業所　歩っ歩","province":"東京都","city":"福生市","address":"福生市武蔵野台2-3-20","lat":35.745391,"lon":139.331032},{"name":"中央図書館","province":"東京都","city":"福生市","address":"東京都福生市熊川（大字）850-1","lat":35.73186235,"lon":139.3376679},{"name":"武蔵野台図書館","province":"東京都","city":"福生市","address":"東京都福生市武蔵野台1丁目12-2","lat":35.74680769,"lon":139.33394539},{"name":"わかたけ図書館","province":"東京都","city":"福生市","address":"東京都福生市熊川（大字）199-1","lat":35.7181112,"lon":139.33499907},{"name":"わかぎり図書館","province":"東京都","city":"福生市","address":"東京都福生市福生（大字）1280-1","lat":35.74619349,"lon":139.32083528},{"name":"福東グランド","province":"東京都","city":"福生市","address":"東京都福生市熊川（大字）1608","lat":35.72289427,"lon":139.35088939},{"name":"福東球技場","province":"東京都","city":"福生市","address":"東京都福生市熊川（大字）1608","lat":35.72289427,"lon":139.35088939},{"name":"熊川地域体育館","province":"東京都","city":"福生市","address":"東京都福生市熊川（大字）380-7","lat":35.72062204,"lon":139.33699606},{"name":"多摩川中央公園グランド","province":"東京都","city":"福生市","address":"東京都福生市北田園1丁目","lat":35.7320676,"lon":139.32653537},{"name":"中央体育館","province":"東京都","city":"福生市","address":"東京都福生市北田園2丁目9-1","lat":35.73451441,"lon":139.32237447},{"name":"福生市営プール","province":"東京都","city":"福生市","address":"東京都福生市北田園2丁目8-4","lat":35.73426998,"lon":139.32165231},{"name":"福生地域体育館","province":"東京都","city":"福生市","address":"東京都福生市武蔵野台1丁目8-7","lat":35.74622721,"lon":139.33415374},{"name":"玉川上水緑道","province":"東京都","city":"福生市","address":"東京都福生市、昭島市、立川市、小平市、三鷹市、武蔵野市、杉並区","lat":35.671987,"lon":139.664898},{"name":"福生武蔵野台給水所","province":"東京都","city":"福生市","address":"東京都福生市武蔵野台2-32","lat":35.751586,"lon":139.329512},{"name":"市立明神下公園","province":"東京都","city":"福生市","address":"東京都福生市南田園1-12-1","lat":35.723895,"lon":139.330834},{"name":"森田助産院","province":"東京都","city":"福生市","address":"福生市志茂83","lat":35.73696,"lon":139.33},{"name":"公立福生病院","province":"東京都","city":"福生市","address":"福生市加美平1-6-1","lat":35.74707,"lon":139.32657},{"name":"福生駅東口地下自転車駐車場","province":"東京都","city":"福生市","address":"東京都福生市東町5-1","lat":35.74331348,"lon":139.32803486},{"name":"牛浜駅西口自転車駐車場","province":"東京都","city":"福生市","address":"東京都福生市牛浜58-1","lat":35.73481739,"lon":139.33145717},{"name":"拝島駅北口自転車駐車場","province":"東京都","city":"福生市","address":"東京都福生市熊川（大字）1398-1","lat":35.72275246,"lon":139.34290667},{"name":"福生市地域包括支援センター福生","province":"東京都","city":"福生市","address":"福生市本町5番地","lat":35.738701,"lon":139.326782},{"name":"福生市地域包括支援センター熊川","province":"東京都","city":"福生市","address":"福生市南田園2-13-1","lat":35.727993,"lon":139.332336},{"name":"在宅介護支援センター武蔵野","province":"東京都","city":"福生市","address":"福生市福生2300-4","lat":35.740284,"lon":139.337677},{"name":"在宅介護支援センター加美","province":"東京都","city":"福生市","address":"福生市福生3244-10","lat":35.74612,"lon":139.317993},{"name":"在宅介護支援センター南田園","province":"東京都","city":"福生市","address":"福生市南田園2-9-1-103","lat":35.720776,"lon":139.330933},{"name":"福生市消費者相談室","province":"東京都","city":"福生市","address":"福生市本町18","lat":35.739086,"lon":139.327423},{"name":"武蔵野橋南","province":"東京都","city":"福生市","address":"東京都福生市熊川（大字）459","lat":35.72125259,"lon":139.34023747},{"name":"福生駅西","province":"東京都","city":"福生市","address":"東京都福生市福生（大字）1110","lat":35.741197,"lon":139.32506293},{"name":"鍋ヶ谷戸","province":"東京都","city":"福生市","address":"東京都福生市熊川（大字）742","lat":35.72824883,"lon":139.33455436},{"name":"福生駅前","province":"東京都","city":"福生市","address":"東京都福生市福生（大字）767","lat":35.74185531,"lon":139.32733496},{"name":"加美郵便局前","province":"東京都","city":"福生市","address":"東京都福生市加美平2丁目1-1","lat":35.74583258,"lon":139.32619323},{"name":"加美郵便局前第二","province":"東京都","city":"福生市","address":"東京都福生市東町15-1","lat":35.74577981,"lon":139.32645711},{"name":"福生市役所前","province":"東京都","city":"福生市","address":"東京都福生市本町5","lat":35.73848071,"lon":139.32691568},{"name":"＊?福生市郷土資料室","province":"東京都","city":"福生市","address":"福生市熊川850-1","lat":35.732073,"lon":139.337586},{"name":"＊?福生市茶室「福庵」","province":"東京都","city":"福生市","address":"福生市熊川854-3","lat":35.732557,"lon":139.337557},{"name":"＊?福生市民会館","province":"東京都","city":"福生市","address":"福生市福生2455","lat":35.733906,"lon":139.337829},{"name":"＊?さくら会館","province":"東京都","city":"福生市","address":"福生市牛浜163","lat":35.733793,"lon":139.337233},{"name":"＊?かえで会館","province":"東京都","city":"福生市","address":"福生市加美平1-20-6","lat":35.75041,"lon":139.325447},{"name":"＊?扶桑会館","province":"東京都","city":"福生市","address":"福生市福生1069-1","lat":35.743941,"lon":139.324981},{"name":"中央体育館","province":"東京都","city":"福生市","address":"東京都福生市北田園2丁目9-1","lat":35.73451441,"lon":139.32237447},{"name":"わかぎり会館・図書館","province":"東京都","city":"福生市","address":"東京都福生市福生（大字）1280-1","lat":35.74619349,"lon":139.32083528},{"name":"白梅会館","province":"東京都","city":"福生市","address":"東京都福生市熊川（大字）559-1","lat":35.7240883,"lon":139.33774313},{"name":"中央図書館","province":"東京都","city":"福生市","address":"東京都福生市熊川（大字）850-1","lat":35.73186235,"lon":139.3376679},{"name":"わかたけ会館・図書館","province":"東京都","city":"福生市","address":"東京都福生市熊川（大字）199-1","lat":35.7181112,"lon":139.33499907},{"name":"福生市役所庁舎","province":"東京都","city":"福生市","address":"東京都福生市本町5","lat":35.73848071,"lon":139.32691568},{"name":"福祉センター","province":"東京都","city":"福生市","address":"東京都福生市南田園2丁目13-1","lat":35.72748498,"lon":139.33227121},{"name":"武蔵野台図書館・児童館","province":"東京都","city":"福生市","address":"東京都福生市武蔵野台1丁目12-2","lat":35.74680769,"lon":139.33394539},{"name":"松林会館","province":"東京都","city":"福生市","address":"東京都福生市武蔵野台1丁目15-1","lat":35.74648547,"lon":139.33246496},{"name":"森田助産院","province":"東京都","city":"福生市","address":"福生市志茂83番地","lat":35.737145,"lon":139.330054},{"name":"公立福生病院","province":"東京都","city":"福生市","address":"福生市加美平1-6-1","lat":35.747013,"lon":139.326699},{"name":"ドリームボックス拝島","province":"東京都","city":"福生市","address":"福生市大字熊川202-1ホワイトパレス1階","lat":35.716614,"lon":139.336693},{"name":"あそぼーよ","province":"東京都","city":"福生市","address":"福生市南田園3-5-21森田ビルA号","lat":35.729482,"lon":139.330405},{"name":"つなごーよ","province":"東京都","city":"福生市","address":"福生市南田園3-18-15ユタカビル1階","lat":35.731323,"lon":139.328238},{"name":"ぶどうの木","province":"東京都","city":"福生市","address":"福生市福生1062-12AMTビル2階203号","lat":35.742922,"lon":139.32483},{"name":"ＦＵＳＳＡ地域福祉事業所　歩っ歩","province":"東京都","city":"福生市","address":"福生市武蔵野台2-3-20","lat":35.745391,"lon":139.331032},{"name":"中央図書館","province":"東京都","city":"福生市","address":"東京都福生市熊川（大字）850-1","lat":35.73186235,"lon":139.3376679},{"name":"武蔵野台図書館","province":"東京都","city":"福生市","address":"東京都福生市武蔵野台1丁目12-2","lat":35.74680769,"lon":139.33394539},{"name":"わかたけ図書館","province":"東京都","city":"福生市","address":"東京都福生市熊川（大字）199-1","lat":35.7181112,"lon":139.33499907},{"name":"わかぎり図書館","province":"東京都","city":"福生市","address":"東京都福生市福生（大字）1280-1","lat":35.74619349,"lon":139.32083528},{"name":"福東グランド","province":"東京都","city":"福生市","address":"東京都福生市熊川（大字）1608","lat":35.72289427,"lon":139.35088939},{"name":"福東球技場","province":"東京都","city":"福生市","address":"東京都福生市熊川（大字）1608","lat":35.72289427,"lon":139.35088939},{"name":"熊川地域体育館","province":"東京都","city":"福生市","address":"東京都福生市熊川（大字）380-7","lat":35.72062204,"lon":139.33699606},{"name":"多摩川中央公園グランド","province":"東京都","city":"福生市","address":"東京都福生市北田園1丁目","lat":35.7320676,"lon":139.32653537},{"name":"中央体育館","province":"東京都","city":"福生市","address":"東京都福生市北田園2丁目9-1","lat":35.73451441,"lon":139.32237447},{"name":"福生市営プール","province":"東京都","city":"福生市","address":"東京都福生市北田園2丁目8-4","lat":35.73426998,"lon":139.32165231},{"name":"福生地域体育館","province":"東京都","city":"福生市","address":"東京都福生市武蔵野台1丁目8-7","lat":35.74622721,"lon":139.33415374},{"name":"玉川上水緑道","province":"東京都","city":"福生市","address":"東京都福生市、昭島市、立川市、小平市、三鷹市、武蔵野市、杉並区","lat":35.671987,"lon":139.664898},{"name":"福生武蔵野台給水所","province":"東京都","city":"福生市","address":"東京都福生市武蔵野台2-32","lat":35.751586,"lon":139.329512},{"name":"市立明神下公園","province":"東京都","city":"福生市","address":"東京都福生市南田園1-12-1","lat":35.723895,"lon":139.330834},{"name":"森田助産院","province":"東京都","city":"福生市","address":"福生市志茂83","lat":35.73696,"lon":139.33},{"name":"公立福生病院","province":"東京都","city":"福生市","address":"福生市加美平1-6-1","lat":35.74707,"lon":139.32657},{"name":"福生駅東口地下自転車駐車場","province":"東京都","city":"福生市","address":"東京都福生市東町5-1","lat":35.74331348,"lon":139.32803486},{"name":"牛浜駅西口自転車駐車場","province":"東京都","city":"福生市","address":"東京都福生市牛浜58-1","lat":35.73481739,"lon":139.33145717},{"name":"拝島駅北口自転車駐車場","province":"東京都","city":"福生市","address":"東京都福生市熊川（大字）1398-1","lat":35.72275246,"lon":139.34290667},{"name":"武蔵野橋南","province":"東京都","city":"福生市","address":"東京都福生市熊川（大字）459","lat":35.72125259,"lon":139.34023747},{"name":"福生駅西","province":"東京都","city":"福生市","address":"東京都福生市福生（大字）1110","lat":35.741197,"lon":139.32506293},{"name":"鍋ヶ谷戸","province":"東京都","city":"福生市","address":"東京都福生市熊川（大字）742","lat":35.72824883,"lon":139.33455436},{"name":"福生駅前","province":"東京都","city":"福生市","address":"東京都福生市福生（大字）767","lat":35.74185531,"lon":139.32733496},{"name":"加美郵便局前","province":"東京都","city":"福生市","address":"東京都福生市加美平2丁目1-1","lat":35.74583258,"lon":139.32619323},{"name":"加美郵便局前第二","province":"東京都","city":"福生市","address":"東京都福生市東町15-1","lat":35.74577981,"lon":139.32645711},{"name":"福生市役所前","province":"東京都","city":"福生市","address":"東京都福生市本町5","lat":35.73848071,"lon":139.32691568},{"name":"＊?福生市郷土資料室","province":"東京都","city":"福生市","address":"福生市熊川850-1","lat":35.732073,"lon":139.337586},{"name":"＊?福生市茶室「福庵」","province":"東京都","city":"福生市","address":"福生市熊川854-3","lat":35.732557,"lon":139.337557},{"name":"＊?福生市民会館","province":"東京都","city":"福生市","address":"福生市福生2455","lat":35.733906,"lon":139.337829},{"name":"＊?さくら会館","province":"東京都","city":"福生市","address":"福生市牛浜163","lat":35.733793,"lon":139.337233},{"name":"＊?かえで会館","province":"東京都","city":"福生市","address":"福生市加美平1-20-6","lat":35.75041,"lon":139.325447},{"name":"＊?扶桑会館","province":"東京都","city":"福生市","address":"福生市福生1069-1","lat":35.743941,"lon":139.324981},{"name":"中央体育館","province":"東京都","city":"福生市","address":"東京都福生市北田園2丁目9-1","lat":35.73451441,"lon":139.32237447},{"name":"わかぎり会館・図書館","province":"東京都","city":"福生市","address":"東京都福生市福生（大字）1280-1","lat":35.74619349,"lon":139.32083528},{"name":"白梅会館","province":"東京都","city":"福生市","address":"東京都福生市熊川（大字）559-1","lat":35.7240883,"lon":139.33774313},{"name":"中央図書館","province":"東京都","city":"福生市","address":"東京都福生市熊川（大字）850-1","lat":35.73186235,"lon":139.3376679},{"name":"わかたけ会館・図書館","province":"東京都","city":"福生市","address":"東京都福生市熊川（大字）199-1","lat":35.7181112,"lon":139.33499907},{"name":"福生市役所庁舎","province":"東京都","city":"福生市","address":"東京都福生市本町5","lat":35.73848071,"lon":139.32691568},{"name":"福祉センター","province":"東京都","city":"福生市","address":"東京都福生市南田園2丁目13-1","lat":35.72748498,"lon":139.33227121},{"name":"武蔵野台図書館・児童館","province":"東京都","city":"福生市","address":"東京都福生市武蔵野台1丁目12-2","lat":35.74680769,"lon":139.33394539},{"name":"松林会館","province":"東京都","city":"福生市","address":"東京都福生市武蔵野台1丁目15-1","lat":35.74648547,"lon":139.33246496},{"name":"森田助産院","province":"東京都","city":"福生市","address":"福生市志茂83番地","lat":35.737145,"lon":139.330054},{"name":"公立福生病院","province":"東京都","city":"福生市","address":"福生市加美平1-6-1","lat":35.747013,"lon":139.326699},{"name":"ドリームボックス拝島","province":"東京都","city":"福生市","address":"福生市大字熊川202-1ホワイトパレス1階","lat":35.716614,"lon":139.336693},{"name":"あそぼーよ","province":"東京都","city":"福生市","address":"福生市南田園3-5-21森田ビルA号","lat":35.729482,"lon":139.330405},{"name":"つなごーよ","province":"東京都","city":"福生市","address":"福生市南田園3-18-15ユタカビル1階","lat":35.731323,"lon":139.328238},{"name":"ぶどうの木","province":"東京都","city":"福生市","address":"福生市福生1062-12AMTビル2階203号","lat":35.742922,"lon":139.32483},{"name":"ＦＵＳＳＡ地域福祉事業所　歩っ歩","province":"東京都","city":"福生市","address":"福生市武蔵野台2-3-20","lat":35.745391,"lon":139.331032},{"name":"中央図書館","province":"東京都","city":"福生市","address":"東京都福生市熊川（大字）850-1","lat":35.73186235,"lon":139.3376679},{"name":"武蔵野台図書館","province":"東京都","city":"福生市","address":"東京都福生市武蔵野台1丁目12-2","lat":35.74680769,"lon":139.33394539},{"name":"わかたけ図書館","province":"東京都","city":"福生市","address":"東京都福生市熊川（大字）199-1","lat":35.7181112,"lon":139.33499907},{"name":"わかぎり図書館","province":"東京都","city":"福生市","address":"東京都福生市福生（大字）1280-1","lat":35.74619349,"lon":139.32083528},{"name":"福東グランド","province":"東京都","city":"福生市","address":"東京都福生市熊川（大字）1608","lat":35.72289427,"lon":139.35088939},{"name":"福東球技場","province":"東京都","city":"福生市","address":"東京都福生市熊川（大字）1608","lat":35.72289427,"lon":139.35088939},{"name":"熊川地域体育館","province":"東京都","city":"福生市","address":"東京都福生市熊川（大字）380-7","lat":35.72062204,"lon":139.33699606},{"name":"多摩川中央公園グランド","province":"東京都","city":"福生市","address":"東京都福生市北田園1丁目","lat":35.7320676,"lon":139.32653537},{"name":"中央体育館","province":"東京都","city":"福生市","address":"東京都福生市北田園2丁目9-1","lat":35.73451441,"lon":139.32237447},{"name":"福生市営プール","province":"東京都","city":"福生市","address":"東京都福生市北田園2丁目8-4","lat":35.73426998,"lon":139.32165231},{"name":"福生地域体育館","province":"東京都","city":"福生市","address":"東京都福生市武蔵野台1丁目8-7","lat":35.74622721,"lon":139.33415374},{"name":"玉川上水緑道","province":"東京都","city":"福生市","address":"東京都福生市、昭島市、立川市、小平市、三鷹市、武蔵野市、杉並区","lat":35.671987,"lon":139.664898},{"name":"福生武蔵野台給水所","province":"東京都","city":"福生市","address":"東京都福生市武蔵野台2-32","lat":35.751586,"lon":139.329512},{"name":"市立明神下公園","province":"東京都","city":"福生市","address":"東京都福生市南田園1-12-1","lat":35.723895,"lon":139.330834},{"name":"森田助産院","province":"東京都","city":"福生市","address":"福生市志茂83","lat":35.73696,"lon":139.33},{"name":"公立福生病院","province":"東京都","city":"福生市","address":"福生市加美平1-6-1","lat":35.74707,"lon":139.32657},{"name":"福生駅東口地下自転車駐車場","province":"東京都","city":"福生市","address":"東京都福生市東町5-1","lat":35.74331348,"lon":139.32803486},{"name":"牛浜駅西口自転車駐車場","province":"東京都","city":"福生市","address":"東京都福生市牛浜58-1","lat":35.73481739,"lon":139.33145717},{"name":"拝島駅北口自転車駐車場","province":"東京都","city":"福生市","address":"東京都福生市熊川（大字）1398-1","lat":35.72275246,"lon":139.34290667},{"name":"武蔵野橋南","province":"東京都","city":"福生市","address":"東京都福生市熊川（大字）459","lat":35.72125259,"lon":139.34023747},{"name":"福生駅西","province":"東京都","city":"福生市","address":"東京都福生市福生（大字）1110","lat":35.741197,"lon":139.32506293},{"name":"鍋ヶ谷戸","province":"東京都","city":"福生市","address":"東京都福生市熊川（大字）742","lat":35.72824883,"lon":139.33455436},{"name":"福生駅前","province":"東京都","city":"福生市","address":"東京都福生市福生（大字）767","lat":35.74185531,"lon":139.32733496},{"name":"加美郵便局前","province":"東京都","city":"福生市","address":"東京都福生市加美平2丁目1-1","lat":35.74583258,"lon":139.32619323},{"name":"加美郵便局前第二","province":"東京都","city":"福生市","address":"東京都福生市東町15-1","lat":35.74577981,"lon":139.32645711},{"name":"福生市役所前","province":"東京都","city":"福生市","address":"東京都福生市本町5","lat":35.73848071,"lon":139.32691568},{"name":"＊?福生市郷土資料室","province":"東京都","city":"福生市","address":"福生市熊川850-1","lat":35.732073,"lon":139.337586},{"name":"＊?福生市茶室「福庵」","province":"東京都","city":"福生市","address":"福生市熊川854-3","lat":35.732557,"lon":139.337557},{"name":"＊?福生市民会館","province":"東京都","city":"福生市","address":"福生市福生2455","lat":35.733906,"lon":139.337829},{"name":"＊?さくら会館","province":"東京都","city":"福生市","address":"福生市牛浜163","lat":35.733793,"lon":139.337233},{"name":"＊?かえで会館","province":"東京都","city":"福生市","address":"福生市加美平1-20-6","lat":35.75041,"lon":139.325447},{"name":"＊?扶桑会館","province":"東京都","city":"福生市","address":"福生市福生1069-1","lat":35.743941,"lon":139.324981},{"name":"中央体育館","province":"東京都","city":"福生市","address":"東京都福生市北田園2丁目9-1","lat":35.73451441,"lon":139.32237447},{"name":"わかぎり会館・図書館","province":"東京都","city":"福生市","address":"東京都福生市福生（大字）1280-1","lat":35.74619349,"lon":139.32083528},{"name":"白梅会館","province":"東京都","city":"福生市","address":"東京都福生市熊川（大字）559-1","lat":35.7240883,"lon":139.33774313},{"name":"中央図書館","province":"東京都","city":"福生市","address":"東京都福生市熊川（大字）850-1","lat":35.73186235,"lon":139.3376679},{"name":"わかたけ会館・図書館","province":"東京都","city":"福生市","address":"東京都福生市熊川（大字）199-1","lat":35.7181112,"lon":139.33499907},{"name":"福生市役所庁舎","province":"東京都","city":"福生市","address":"東京都福生市本町5","lat":35.73848071,"lon":139.32691568},{"name":"福祉センター","province":"東京都","city":"福生市","address":"東京都福生市南田園2丁目13-1","lat":35.72748498,"lon":139.33227121},{"name":"武蔵野台図書館・児童館","province":"東京都","city":"福生市","address":"東京都福生市武蔵野台1丁目12-2","lat":35.74680769,"lon":139.33394539},{"name":"松林会館","province":"東京都","city":"福生市","address":"東京都福生市武蔵野台1丁目15-1","lat":35.74648547,"lon":139.33246496},{"name":"森田助産院","province":"東京都","city":"福生市","address":"福生市志茂83番地","lat":35.737145,"lon":139.330054},{"name":"公立福生病院","province":"東京都","city":"福生市","address":"福生市加美平1-6-1","lat":35.747013,"lon":139.326699},{"name":"ドリームボックス拝島","province":"東京都","city":"福生市","address":"福生市大字熊川202-1ホワイトパレス1階","lat":35.716614,"lon":139.336693},{"name":"あそぼーよ","province":"東京都","city":"福生市","address":"福生市南田園3-5-21森田ビルA号","lat":35.729482,"lon":139.330405},{"name":"つなごーよ","province":"東京都","city":"福生市","address":"福生市南田園3-18-15ユタカビル1階","lat":35.731323,"lon":139.328238},{"name":"ぶどうの木","province":"東京都","city":"福生市","address":"福生市福生1062-12AMTビル2階203号","lat":35.742922,"lon":139.32483},{"name":"ＦＵＳＳＡ地域福祉事業所　歩っ歩","province":"東京都","city":"福生市","address":"福生市武蔵野台2-3-20","lat":35.745391,"lon":139.331032},{"name":"玉川上水緑道","province":"東京都","city":"福生市","address":"東京都福生市、昭島市、立川市、小平市、三鷹市、武蔵野市、杉並区","lat":35.671987,"lon":139.664898},{"name":"福生武蔵野台給水所","province":"東京都","city":"福生市","address":"東京都福生市武蔵野台2-32","lat":35.751586,"lon":139.329512},{"name":"市立明神下公園","province":"東京都","city":"福生市","address":"東京都福生市南田園1-12-1","lat":35.723895,"lon":139.330834},{"name":"森田助産院","province":"東京都","city":"福生市","address":"福生市志茂83","lat":35.73696,"lon":139.33},{"name":"公立福生病院","province":"東京都","city":"福生市","address":"福生市加美平1-6-1","lat":35.74707,"lon":139.32657},{"name":"福生駅東口地下自転車駐車場","province":"東京都","city":"福生市","address":"東京都福生市東町5-1","lat":35.74331348,"lon":139.32803486},{"name":"牛浜駅西口自転車駐車場","province":"東京都","city":"福生市","address":"東京都福生市牛浜58-1","lat":35.73481739,"lon":139.33145717},{"name":"拝島駅北口自転車駐車場","province":"東京都","city":"福生市","address":"東京都福生市熊川（大字）1398-1","lat":35.72275246,"lon":139.34290667},{"name":"武蔵野橋南","province":"東京都","city":"福生市","address":"東京都福生市熊川（大字）459","lat":35.72125259,"lon":139.34023747},{"name":"福生駅西","province":"東京都","city":"福生市","address":"東京都福生市福生（大字）1110","lat":35.741197,"lon":139.32506293},{"name":"鍋ヶ谷戸","province":"東京都","city":"福生市","address":"東京都福生市熊川（大字）742","lat":35.72824883,"lon":139.33455436},{"name":"福生駅前","province":"東京都","city":"福生市","address":"東京都福生市福生（大字）767","lat":35.74185531,"lon":139.32733496},{"name":"加美郵便局前","province":"東京都","city":"福生市","address":"東京都福生市加美平2丁目1-1","lat":35.74583258,"lon":139.32619323},{"name":"加美郵便局前第二","province":"東京都","city":"福生市","address":"東京都福生市東町15-1","lat":35.74577981,"lon":139.32645711},{"name":"福生市役所前","province":"東京都","city":"福生市","address":"東京都福生市本町5","lat":35.73848071,"lon":139.32691568},{"name":"＊?福生市茶室「福庵」","province":"東京都","city":"福生市","address":"福生市熊川854-3","lat":35.732557,"lon":139.337557},{"name":"＊?福生市民会館","province":"東京都","city":"福生市","address":"福生市福生2455","lat":35.733906,"lon":139.337829},{"name":"＊?さくら会館","province":"東京都","city":"福生市","address":"福生市牛浜163","lat":35.733793,"lon":139.337233},{"name":"＊?かえで会館","province":"東京都","city":"福生市","address":"福生市加美平1-20-6","lat":35.75041,"lon":139.325447},{"name":"＊?扶桑会館","province":"東京都","city":"福生市","address":"福生市福生1069-1","lat":35.743941,"lon":139.324981},{"name":"中央体育館","province":"東京都","city":"福生市","address":"東京都福生市北田園2丁目9-1","lat":35.73451441,"lon":139.32237447},{"name":"わかぎり会館・図書館","province":"東京都","city":"福生市","address":"東京都福生市福生（大字）1280-1","lat":35.74619349,"lon":139.32083528},{"name":"白梅会館","province":"東京都","city":"福生市","address":"東京都福生市熊川（大字）559-1","lat":35.7240883,"lon":139.33774313},{"name":"中央図書館","province":"東京都","city":"福生市","address":"東京都福生市熊川（大字）850-1","lat":35.73186235,"lon":139.3376679},{"name":"わかたけ会館・図書館","province":"東京都","city":"福生市","address":"東京都福生市熊川（大字）199-1","lat":35.7181112,"lon":139.33499907},{"name":"福生市役所庁舎","province":"東京都","city":"福生市","address":"東京都福生市本町5","lat":35.73848071,"lon":139.32691568},{"name":"福祉センター","province":"東京都","city":"福生市","address":"東京都福生市南田園2丁目13-1","lat":35.72748498,"lon":139.33227121},{"name":"武蔵野台図書館・児童館","province":"東京都","city":"福生市","address":"東京都福生市武蔵野台1丁目12-2","lat":35.74680769,"lon":139.33394539},{"name":"松林会館","province":"東京都","city":"福生市","address":"東京都福生市武蔵野台1丁目15-1","lat":35.74648547,"lon":139.33246496},{"name":"森田助産院","province":"東京都","city":"福生市","address":"福生市志茂83番地","lat":35.737145,"lon":139.330054},{"name":"公立福生病院","province":"東京都","city":"福生市","address":"福生市加美平1-6-1","lat":35.747013,"lon":139.326699},{"name":"ドリームボックス拝島","province":"東京都","city":"福生市","address":"福生市大字熊川202-1ホワイトパレス1階","lat":35.716614,"lon":139.336693},{"name":"あそぼーよ","province":"東京都","city":"福生市","address":"福生市南田園3-5-21森田ビルA号","lat":35.729482,"lon":139.330405},{"name":"つなごーよ","province":"東京都","city":"福生市","address":"福生市南田園3-18-15ユタカビル1階","lat":35.731323,"lon":139.328238},{"name":"ぶどうの木","province":"東京都","city":"福生市","address":"福生市福生1062-12AMTビル2階203号","lat":35.742922,"lon":139.32483},{"name":"ＦＵＳＳＡ地域福祉事業所　歩っ歩","province":"東京都","city":"福生市","address":"福生市武蔵野台2-3-20","lat":35.745391,"lon":139.331032},{"name":"玉川上水緑道","province":"東京都","city":"福生市","address":"東京都福生市、昭島市、立川市、小平市、三鷹市、武蔵野市、杉並区","lat":35.671987,"lon":139.664898},{"name":"福生武蔵野台給水所","province":"東京都","city":"福生市","address":"東京都福生市武蔵野台2-32","lat":35.751586,"lon":139.329512},{"name":"市立明神下公園","province":"東京都","city":"福生市","address":"東京都福生市南田園1-12-1","lat":35.723895,"lon":139.330834},{"name":"森田助産院","province":"東京都","city":"福生市","address":"福生市志茂83","lat":35.73696,"lon":139.33},{"name":"公立福生病院","province":"東京都","city":"福生市","address":"福生市加美平1-6-1","lat":35.74707,"lon":139.32657},{"name":"福生駅東口地下自転車駐車場","province":"東京都","city":"福生市","address":"東京都福生市東町5-1","lat":35.74331348,"lon":139.32803486},{"name":"牛浜駅西口自転車駐車場","province":"東京都","city":"福生市","address":"東京都福生市牛浜58-1","lat":35.73481739,"lon":139.33145717},{"name":"拝島駅北口自転車駐車場","province":"東京都","city":"福生市","address":"東京都福生市熊川（大字）1398-1","lat":35.72275246,"lon":139.34290667},{"name":"武蔵野橋南","province":"東京都","city":"福生市","address":"東京都福生市熊川（大字）459","lat":35.72125259,"lon":139.34023747},{"name":"福生駅西","province":"東京都","city":"福生市","address":"東京都福生市福生（大字）1110","lat":35.741197,"lon":139.32506293},{"name":"鍋ヶ谷戸","province":"東京都","city":"福生市","address":"東京都福生市熊川（大字）742","lat":35.72824883,"lon":139.33455436},{"name":"福生駅前","province":"東京都","city":"福生市","address":"東京都福生市福生（大字）767","lat":35.74185531,"lon":139.32733496},{"name":"加美郵便局前","province":"東京都","city":"福生市","address":"東京都福生市加美平2丁目1-1","lat":35.74583258,"lon":139.32619323},{"name":"加美郵便局前第二","province":"東京都","city":"福生市","address":"東京都福生市東町15-1","lat":35.74577981,"lon":139.32645711},{"name":"福生市役所前","province":"東京都","city":"福生市","address":"東京都福生市本町5","lat":35.73848071,"lon":139.32691568},{"name":"中央体育館","province":"東京都","city":"福生市","address":"東京都福生市北田園2丁目9-1","lat":35.73451441,"lon":139.32237447},{"name":"わかぎり会館・図書館","province":"東京都","city":"福生市","address":"東京都福生市福生（大字）1280-1","lat":35.74619349,"lon":139.32083528},{"name":"白梅会館","province":"東京都","city":"福生市","address":"東京都福生市熊川（大字）559-1","lat":35.7240883,"lon":139.33774313},{"name":"中央図書館","province":"東京都","city":"福生市","address":"東京都福生市熊川（大字）850-1","lat":35.73186235,"lon":139.3376679},{"name":"わかたけ会館・図書館","province":"東京都","city":"福生市","address":"東京都福生市熊川（大字）199-1","lat":35.7181112,"lon":139.33499907},{"name":"福生市役所庁舎","province":"東京都","city":"福生市","address":"東京都福生市本町5","lat":35.73848071,"lon":139.32691568},{"name":"福祉センター","province":"東京都","city":"福生市","address":"東京都福生市南田園2丁目13-1","lat":35.72748498,"lon":139.33227121},{"name":"武蔵野台図書館・児童館","province":"東京都","city":"福生市","address":"東京都福生市武蔵野台1丁目12-2","lat":35.74680769,"lon":139.33394539},{"name":"松林会館","province":"東京都","city":"福生市","address":"東京都福生市武蔵野台1丁目15-1","lat":35.74648547,"lon":139.33246496},{"name":"森田助産院","province":"東京都","city":"福生市","address":"福生市志茂83番地","lat":35.737145,"lon":139.330054},{"name":"公立福生病院","province":"東京都","city":"福生市","address":"福生市加美平1-6-1","lat":35.747013,"lon":139.326699},{"name":"玉川上水緑道","province":"東京都","city":"福生市","address":"東京都福生市、昭島市、立川市、小平市、三鷹市、武蔵野市、杉並区","lat":35.671987,"lon":139.664898},{"name":"福生武蔵野台給水所","province":"東京都","city":"福生市","address":"東京都福生市武蔵野台2-32","lat":35.751586,"lon":139.329512},{"name":"市立明神下公園","province":"東京都","city":"福生市","address":"東京都福生市南田園1-12-1","lat":35.723895,"lon":139.330834},{"name":"森田助産院","province":"東京都","city":"福生市","address":"福生市志茂83","lat":35.73696,"lon":139.33},{"name":"公立福生病院","province":"東京都","city":"福生市","address":"福生市加美平1-6-1","lat":35.74707,"lon":139.32657},{"name":"福生駅東口地下自転車駐車場","province":"東京都","city":"福生市","address":"東京都福生市東町5-1","lat":35.74331348,"lon":139.32803486},{"name":"牛浜駅西口自転車駐車場","province":"東京都","city":"福生市","address":"東京都福生市牛浜58-1","lat":35.73481739,"lon":139.33145717},{"name":"拝島駅北口自転車駐車場","province":"東京都","city":"福生市","address":"東京都福生市熊川（大字）1398-1","lat":35.72275246,"lon":139.34290667},{"name":"中央体育館","province":"東京都","city":"福生市","address":"東京都福生市北田園2丁目9-1","lat":35.73451441,"lon":139.32237447},{"name":"わかぎり会館・図書館","province":"東京都","city":"福生市","address":"東京都福生市福生（大字）1280-1","lat":35.74619349,"lon":139.32083528},{"name":"白梅会館","province":"東京都","city":"福生市","address":"東京都福生市熊川（大字）559-1","lat":35.7240883,"lon":139.33774313},{"name":"中央図書館","province":"東京都","city":"福生市","address":"東京都福生市熊川（大字）850-1","lat":35.73186235,"lon":139.3376679},{"name":"わかたけ会館・図書館","province":"東京都","city":"福生市","address":"東京都福生市熊川（大字）199-1","lat":35.7181112,"lon":139.33499907},{"name":"福生市役所庁舎","province":"東京都","city":"福生市","address":"東京都福生市本町5","lat":35.73848071,"lon":139.32691568},{"name":"福祉センター","province":"東京都","city":"福生市","address":"東京都福生市南田園2丁目13-1","lat":35.72748498,"lon":139.33227121},{"name":"武蔵野台図書館・児童館","province":"東京都","city":"福生市","address":"東京都福生市武蔵野台1丁目12-2","lat":35.74680769,"lon":139.33394539},{"name":"松林会館","province":"東京都","city":"福生市","address":"東京都福生市武蔵野台1丁目15-1","lat":35.74648547,"lon":139.33246496},{"name":"森田助産院","province":"東京都","city":"福生市","address":"福生市志茂83番地","lat":35.737145,"lon":139.330054},{"name":"公立福生病院","province":"東京都","city":"福生市","address":"福生市加美平1-6-1","lat":35.747013,"lon":139.326699},{"name":"玉川上水緑道","province":"東京都","city":"福生市","address":"東京都福生市、昭島市、立川市、小平市、三鷹市、武蔵野市、杉並区","lat":35.671987,"lon":139.664898},{"name":"福生武蔵野台給水所","province":"東京都","city":"福生市","address":"東京都福生市武蔵野台2-32","lat":35.751586,"lon":139.329512},{"name":"市立明神下公園","province":"東京都","city":"福生市","address":"東京都福生市南田園1-12-1","lat":35.723895,"lon":139.330834},{"name":"森田助産院","province":"東京都","city":"福生市","address":"福生市志茂83","lat":35.73696,"lon":139.33},{"name":"公立福生病院","province":"東京都","city":"福生市","address":"福生市加美平1-6-1","lat":35.74707,"lon":139.32657},{"name":"福生駅東口地下自転車駐車場","province":"東京都","city":"福生市","address":"東京都福生市東町5-1","lat":35.74331348,"lon":139.32803486},{"name":"牛浜駅西口自転車駐車場","province":"東京都","city":"福生市","address":"東京都福生市牛浜58-1","lat":35.73481739,"lon":139.33145717},{"name":"拝島駅北口自転車駐車場","province":"東京都","city":"福生市","address":"東京都福生市熊川（大字）1398-1","lat":35.72275246,"lon":139.34290667},{"name":"中央体育館","province":"東京都","city":"福生市","address":"東京都福生市北田園2丁目9-1","lat":35.73451441,"lon":139.32237447},{"name":"わかぎり会館・図書館","province":"東京都","city":"福生市","address":"東京都福生市福生（大字）1280-1","lat":35.74619349,"lon":139.32083528},{"name":"白梅会館","province":"東京都","city":"福生市","address":"東京都福生市熊川（大字）559-1","lat":35.7240883,"lon":139.33774313},{"name":"中央図書館","province":"東京都","city":"福生市","address":"東京都福生市熊川（大字）850-1","lat":35.73186235,"lon":139.3376679},{"name":"わかたけ会館・図書館","province":"東京都","city":"福生市","address":"東京都福生市熊川（大字）199-1","lat":35.7181112,"lon":139.33499907},{"name":"福生市役所庁舎","province":"東京都","city":"福生市","address":"東京都福生市本町5","lat":35.73848071,"lon":139.32691568},{"name":"福祉センター","province":"東京都","city":"福生市","address":"東京都福生市南田園2丁目13-1","lat":35.72748498,"lon":139.33227121},{"name":"武蔵野台図書館・児童館","province":"東京都","city":"福生市","address":"東京都福生市武蔵野台1丁目12-2","lat":35.74680769,"lon":139.33394539},{"name":"松林会館","province":"東京都","city":"福生市","address":"東京都福生市武蔵野台1丁目15-1","lat":35.74648547,"lon":139.33246496},{"name":"玉川上水緑道","province":"東京都","city":"福生市","address":"東京都福生市、昭島市、立川市、小平市、三鷹市、武蔵野市、杉並区","lat":35.671987,"lon":139.664898},{"name":"福生武蔵野台給水所","province":"東京都","city":"福生市","address":"東京都福生市武蔵野台2-32","lat":35.751586,"lon":139.329512},{"name":"市立明神下公園","province":"東京都","city":"福生市","address":"東京都福生市南田園1-12-1","lat":35.723895,"lon":139.330834},{"name":"福生駅東口地下自転車駐車場","province":"東京都","city":"福生市","address":"東京都福生市東町5-1","lat":35.74331348,"lon":139.32803486},{"name":"牛浜駅西口自転車駐車場","province":"東京都","city":"福生市","address":"東京都福生市牛浜58-1","lat":35.73481739,"lon":139.33145717},{"name":"拝島駅北口自転車駐車場","province":"東京都","city":"福生市","address":"東京都福生市熊川（大字）1398-1","lat":35.72275246,"lon":139.34290667},{"name":"中央体育館","province":"東京都","city":"福生市","address":"東京都福生市北田園2丁目9-1","lat":35.73451441,"lon":139.32237447},{"name":"わかぎり会館・図書館","province":"東京都","city":"福生市","address":"東京都福生市福生（大字）1280-1","lat":35.74619349,"lon":139.32083528},{"name":"白梅会館","province":"東京都","city":"福生市","address":"東京都福生市熊川（大字）559-1","lat":35.7240883,"lon":139.33774313},{"name":"中央図書館","province":"東京都","city":"福生市","address":"東京都福生市熊川（大字）850-1","lat":35.73186235,"lon":139.3376679},{"name":"わかたけ会館・図書館","province":"東京都","city":"福生市","address":"東京都福生市熊川（大字）199-1","lat":35.7181112,"lon":139.33499907},{"name":"福生市役所庁舎","province":"東京都","city":"福生市","address":"東京都福生市本町5","lat":35.73848071,"lon":139.32691568},{"name":"福祉センター","province":"東京都","city":"福生市","address":"東京都福生市南田園2丁目13-1","lat":35.72748498,"lon":139.33227121},{"name":"武蔵野台図書館・児童館","province":"東京都","city":"福生市","address":"東京都福生市武蔵野台1丁目12-2","lat":35.74680769,"lon":139.33394539},{"name":"松林会館","province":"東京都","city":"福生市","address":"東京都福生市武蔵野台1丁目15-1","lat":35.74648547,"lon":139.33246496},{"name":"玉川上水緑道","province":"東京都","city":"福生市","address":"東京都福生市、昭島市、立川市、小平市、三鷹市、武蔵野市、杉並区","lat":35.671987,"lon":139.664898},{"name":"中央体育館","province":"東京都","city":"福生市","address":"東京都福生市北田園2丁目9-1","lat":35.73451441,"lon":139.32237447},{"name":"わかぎり会館・図書館","province":"東京都","city":"福生市","address":"東京都福生市福生（大字）1280-1","lat":35.74619349,"lon":139.32083528},{"name":"白梅会館","province":"東京都","city":"福生市","address":"東京都福生市熊川（大字）559-1","lat":35.7240883,"lon":139.33774313},{"name":"中央図書館","province":"東京都","city":"福生市","address":"東京都福生市熊川（大字）850-1","lat":35.73186235,"lon":139.3376679},{"name":"わかたけ会館・図書館","province":"東京都","city":"福生市","address":"東京都福生市熊川（大字）199-1","lat":35.7181112,"lon":139.33499907},{"name":"福生市役所庁舎","province":"東京都","city":"福生市","address":"東京都福生市本町5","lat":35.73848071,"lon":139.32691568},{"name":"福祉センター","province":"東京都","city":"福生市","address":"東京都福生市南田園2丁目13-1","lat":35.72748498,"lon":139.33227121},{"name":"武蔵野台図書館・児童館","province":"東京都","city":"福生市","address":"東京都福生市武蔵野台1丁目12-2","lat":35.74680769,"lon":139.33394539},{"name":"松林会館","province":"東京都","city":"福生市","address":"東京都福生市武蔵野台1丁目15-1","lat":35.74648547,"lon":139.33246496},{"name":"中央体育館","province":"東京都","city":"福生市","address":"東京都福生市北田園2丁目9-1","lat":35.73451441,"lon":139.32237447},{"name":"わかぎり会館・図書館","province":"東京都","city":"福生市","address":"東京都福生市福生（大字）1280-1","lat":35.74619349,"lon":139.32083528},{"name":"白梅会館","province":"東京都","city":"福生市","address":"東京都福生市熊川（大字）559-1","lat":35.7240883,"lon":139.33774313},{"name":"中央図書館","province":"東京都","city":"福生市","address":"東京都福生市熊川（大字）850-1","lat":35.73186235,"lon":139.3376679},{"name":"わかたけ会館・図書館","province":"東京都","city":"福生市","address":"東京都福生市熊川（大字）199-1","lat":35.7181112,"lon":139.33499907},{"name":"福生市役所庁舎","province":"東京都","city":"福生市","address":"東京都福生市本町5","lat":35.73848071,"lon":139.32691568},{"name":"福祉センター","province":"東京都","city":"福生市","address":"東京都福生市南田園2丁目13-1","lat":35.72748498,"lon":139.33227121},{"name":"武蔵野台図書館・児童館","province":"東京都","city":"福生市","address":"東京都福生市武蔵野台1丁目12-2","lat":35.74680769,"lon":139.33394539},{"name":"松林会館","province":"東京都","city":"福生市","address":"東京都福生市武蔵野台1丁目15-1","lat":35.74648547,"lon":139.33246496},{"name":"中央体育館","province":"東京都","city":"福生市","address":"東京都福生市北田園2丁目9-1","lat":35.73451441,"lon":139.32237447},{"name":"わかぎり会館・図書館","province":"東京都","city":"福生市","address":"東京都福生市福生（大字）1280-1","lat":35.74619349,"lon":139.32083528},{"name":"白梅会館","province":"東京都","city":"福生市","address":"東京都福生市熊川（大字）559-1","lat":35.7240883,"lon":139.33774313},{"name":"中央図書館","province":"東京都","city":"福生市","address":"東京都福生市熊川（大字）850-1","lat":35.73186235,"lon":139.3376679},{"name":"わかたけ会館・図書館","province":"東京都","city":"福生市","address":"東京都福生市熊川（大字）199-1","lat":35.7181112,"lon":139.33499907},{"name":"福生市役所庁舎","province":"東京都","city":"福生市","address":"東京都福生市本町5","lat":35.73848071,"lon":139.32691568},{"name":"福祉センター","province":"東京都","city":"福生市","address":"東京都福生市南田園2丁目13-1","lat":35.72748498,"lon":139.33227121},{"name":"武蔵野台図書館・児童館","province":"東京都","city":"福生市","address":"東京都福生市武蔵野台1丁目12-2","lat":35.74680769,"lon":139.33394539},{"name":"松林会館","province":"東京都","city":"福生市","address":"東京都福生市武蔵野台1丁目15-1","lat":35.74648547,"lon":139.33246496},{"name":"中央体育館","province":"東京都","city":"福生市","address":"東京都福生市北田園2丁目9-1","lat":35.73451441,"lon":139.32237447},{"name":"わかぎり会館・図書館","province":"東京都","city":"福生市","address":"東京都福生市福生（大字）1280-1","lat":35.74619349,"lon":139.32083528},{"name":"白梅会館","province":"東京都","city":"福生市","address":"東京都福生市熊川（大字）559-1","lat":35.7240883,"lon":139.33774313},{"name":"中央図書館","province":"東京都","city":"福生市","address":"東京都福生市熊川（大字）850-1","lat":35.73186235,"lon":139.3376679},{"name":"わかたけ会館・図書館","province":"東京都","city":"福生市","address":"東京都福生市熊川（大字）199-1","lat":35.7181112,"lon":139.33499907},{"name":"福生市役所庁舎","province":"東京都","city":"福生市","address":"東京都福生市本町5","lat":35.73848071,"lon":139.32691568},{"name":"福祉センター","province":"東京都","city":"福生市","address":"東京都福生市南田園2丁目13-1","lat":35.72748498,"lon":139.33227121},{"name":"武蔵野台図書館・児童館","province":"東京都","city":"福生市","address":"東京都福生市武蔵野台1丁目12-2","lat":35.74680769,"lon":139.33394539},{"name":"松林会館","province":"東京都","city":"福生市","address":"東京都福生市武蔵野台1丁目15-1","lat":35.74648547,"lon":139.33246496},{"name":"中央体育館","province":"東京都","city":"福生市","address":"東京都福生市北田園2丁目9-1","lat":35.73451441,"lon":139.32237447},{"name":"わかぎり会館・図書館","province":"東京都","city":"福生市","address":"東京都福生市福生（大字）1280-1","lat":35.74619349,"lon":139.32083528},{"name":"白梅会館","province":"東京都","city":"福生市","address":"東京都福生市熊川（大字）559-1","lat":35.7240883,"lon":139.33774313},{"name":"中央図書館","province":"東京都","city":"福生市","address":"東京都福生市熊川（大字）850-1","lat":35.73186235,"lon":139.3376679},{"name":"わかたけ会館・図書館","province":"東京都","city":"福生市","address":"東京都福生市熊川（大字）199-1","lat":35.7181112,"lon":139.33499907},{"name":"福生市役所庁舎","province":"東京都","city":"福生市","address":"東京都福生市本町5","lat":35.73848071,"lon":139.32691568},{"name":"福祉センター","province":"東京都","city":"福生市","address":"東京都福生市南田園2丁目13-1","lat":35.72748498,"lon":139.33227121},{"name":"武蔵野台図書館・児童館","province":"東京都","city":"福生市","address":"東京都福生市武蔵野台1丁目12-2","lat":35.74680769,"lon":139.33394539},{"name":"松林会館","province":"東京都","city":"福生市","address":"東京都福生市武蔵野台1丁目15-1","lat":35.74648547,"lon":139.33246496},{"name":"中央体育館","province":"東京都","city":"福生市","address":"東京都福生市北田園2丁目9-1","lat":35.73451441,"lon":139.32237447},{"name":"わかぎり会館・図書館","province":"東京都","city":"福生市","address":"東京都福生市福生（大字）1280-1","lat":35.74619349,"lon":139.32083528},{"name":"白梅会館","province":"東京都","city":"福生市","address":"東京都福生市熊川（大字）559-1","lat":35.7240883,"lon":139.33774313},{"name":"中央図書館","province":"東京都","city":"福生市","address":"東京都福生市熊川（大字）850-1","lat":35.73186235,"lon":139.3376679},{"name":"わかたけ会館・図書館","province":"東京都","city":"福生市","address":"東京都福生市熊川（大字）199-1","lat":35.7181112,"lon":139.33499907},{"name":"福生市役所庁舎","province":"東京都","city":"福生市","address":"東京都福生市本町5","lat":35.73848071,"lon":139.32691568},{"name":"福祉センター","province":"東京都","city":"福生市","address":"東京都福生市南田園2丁目13-1","lat":35.72748498,"lon":139.33227121},{"name":"武蔵野台図書館・児童館","province":"東京都","city":"福生市","address":"東京都福生市武蔵野台1丁目12-2","lat":35.74680769,"lon":139.33394539},{"name":"松林会館","province":"東京都","city":"福生市","address":"東京都福生市武蔵野台1丁目15-1","lat":35.74648547,"lon":139.33246496},{"name":"中央体育館","province":"東京都","city":"福生市","address":"東京都福生市北田園2丁目9-1","lat":35.73451441,"lon":139.32237447},{"name":"わかぎり会館・図書館","province":"東京都","city":"福生市","address":"東京都福生市福生（大字）1280-1","lat":35.74619349,"lon":139.32083528},{"name":"白梅会館","province":"東京都","city":"福生市","address":"東京都福生市熊川（大字）559-1","lat":35.7240883,"lon":139.33774313},{"name":"中央図書館","province":"東京都","city":"福生市","address":"東京都福生市熊川（大字）850-1","lat":35.73186235,"lon":139.3376679},{"name":"わかたけ会館・図書館","province":"東京都","city":"福生市","address":"東京都福生市熊川（大字）199-1","lat":35.7181112,"lon":139.33499907},{"name":"福生市役所庁舎","province":"東京都","city":"福生市","address":"東京都福生市本町5","lat":35.73848071,"lon":139.32691568},{"name":"福祉センター","province":"東京都","city":"福生市","address":"東京都福生市南田園2丁目13-1","lat":35.72748498,"lon":139.33227121},{"name":"武蔵野台図書館・児童館","province":"東京都","city":"福生市","address":"東京都福生市武蔵野台1丁目12-2","lat":35.74680769,"lon":139.33394539},{"name":"松林会館","province":"東京都","city":"福生市","address":"東京都福生市武蔵野台1丁目15-1","lat":35.74648547,"lon":139.33246496},{"name":"中央体育館","province":"東京都","city":"福生市","address":"東京都福生市北田園2丁目9-1","lat":35.73451441,"lon":139.32237447},{"name":"わかぎり会館・図書館","province":"東京都","city":"福生市","address":"東京都福生市福生（大字）1280-1","lat":35.74619349,"lon":139.32083528},{"name":"白梅会館","province":"東京都","city":"福生市","address":"東京都福生市熊川（大字）559-1","lat":35.7240883,"lon":139.33774313},{"name":"中央図書館","province":"東京都","city":"福生市","address":"東京都福生市熊川（大字）850-1","lat":35.73186235,"lon":139.3376679},{"name":"わかたけ会館・図書館","province":"東京都","city":"福生市","address":"東京都福生市熊川（大字）199-1","lat":35.7181112,"lon":139.33499907},{"name":"福生市役所庁舎","province":"東京都","city":"福生市","address":"東京都福生市本町5","lat":35.73848071,"lon":139.32691568},{"name":"福祉センター","province":"東京都","city":"福生市","address":"東京都福生市南田園2丁目13-1","lat":35.72748498,"lon":139.33227121},{"name":"武蔵野台図書館・児童館","province":"東京都","city":"福生市","address":"東京都福生市武蔵野台1丁目12-2","lat":35.74680769,"lon":139.33394539},{"name":"松林会館","province":"東京都","city":"福生市","address":"東京都福生市武蔵野台1丁目15-1","lat":35.74648547,"lon":139.33246496},{"name":"中央体育館","province":"東京都","city":"福生市","address":"東京都福生市北田園2丁目9-1","lat":35.73451441,"lon":139.32237447},{"name":"わかぎり会館・図書館","province":"東京都","city":"福生市","address":"東京都福生市福生（大字）1280-1","lat":35.74619349,"lon":139.32083528},{"name":"白梅会館","province":"東京都","city":"福生市","address":"東京都福生市熊川（大字）559-1","lat":35.7240883,"lon":139.33774313},{"name":"中央図書館","province":"東京都","city":"福生市","address":"東京都福生市熊川（大字）850-1","lat":35.73186235,"lon":139.3376679},{"name":"わかたけ会館・図書館","province":"東京都","city":"福生市","address":"東京都福生市熊川（大字）199-1","lat":35.7181112,"lon":139.33499907},{"name":"福生市役所庁舎","province":"東京都","city":"福生市","address":"東京都福生市本町5","lat":35.73848071,"lon":139.32691568},{"name":"福祉センター","province":"東京都","city":"福生市","address":"東京都福生市南田園2丁目13-1","lat":35.72748498,"lon":139.33227121},{"name":"武蔵野台図書館・児童館","province":"東京都","city":"福生市","address":"東京都福生市武蔵野台1丁目12-2","lat":35.74680769,"lon":139.33394539},{"name":"松林会館","province":"東京都","city":"福生市","address":"東京都福生市武蔵野台1丁目15-1","lat":35.74648547,"lon":139.33246496},{"name":"中央体育館","province":"東京都","city":"福生市","address":"東京都福生市北田園2丁目9-1","lat":35.73451441,"lon":139.32237447},{"name":"わかぎり会館・図書館","province":"東京都","city":"福生市","address":"東京都福生市福生（大字）1280-1","lat":35.74619349,"lon":139.32083528},{"name":"白梅会館","province":"東京都","city":"福生市","address":"東京都福生市熊川（大字）559-1","lat":35.7240883,"lon":139.33774313},{"name":"中央図書館","province":"東京都","city":"福生市","address":"東京都福生市熊川（大字）850-1","lat":35.73186235,"lon":139.3376679},{"name":"わかたけ会館・図書館","province":"東京都","city":"福生市","address":"東京都福生市熊川（大字）199-1","lat":35.7181112,"lon":139.33499907},{"name":"福生市役所庁舎","province":"東京都","city":"福生市","address":"東京都福生市本町5","lat":35.73848071,"lon":139.32691568},{"name":"福祉センター","province":"東京都","city":"福生市","address":"東京都福生市南田園2丁目13-1","lat":35.72748498,"lon":139.33227121},{"name":"武蔵野台図書館・児童館","province":"東京都","city":"福生市","address":"東京都福生市武蔵野台1丁目12-2","lat":35.74680769,"lon":139.33394539},{"name":"松林会館","province":"東京都","city":"福生市","address":"東京都福生市武蔵野台1丁目15-1","lat":35.74648547,"lon":139.33246496},{"name":"中央体育館","province":"東京都","city":"福生市","address":"東京都福生市北田園2丁目9-1","lat":35.73451441,"lon":139.32237447},{"name":"わかぎり会館・図書館","province":"東京都","city":"福生市","address":"東京都福生市福生（大字）1280-1","lat":35.74619349,"lon":139.32083528},{"name":"白梅会館","province":"東京都","city":"福生市","address":"東京都福生市熊川（大字）559-1","lat":35.7240883,"lon":139.33774313},{"name":"中央図書館","province":"東京都","city":"福生市","address":"東京都福生市熊川（大字）850-1","lat":35.73186235,"lon":139.3376679},{"name":"わかたけ会館・図書館","province":"東京都","city":"福生市","address":"東京都福生市熊川（大字）199-1","lat":35.7181112,"lon":139.33499907},{"name":"福生市役所庁舎","province":"東京都","city":"福生市","address":"東京都福生市本町5","lat":35.73848071,"lon":139.32691568},{"name":"福祉センター","province":"東京都","city":"福生市","address":"東京都福生市南田園2丁目13-1","lat":35.72748498,"lon":139.33227121},{"name":"武蔵野台図書館・児童館","province":"東京都","city":"福生市","address":"東京都福生市武蔵野台1丁目12-2","lat":35.74680769,"lon":139.33394539},{"name":"松林会館","province":"東京都","city":"福生市","address":"東京都福生市武蔵野台1丁目15-1","lat":35.74648547,"lon":139.33246496},{"name":"中央体育館","province":"東京都","city":"福生市","address":"東京都福生市北田園2丁目9-1","lat":35.73451441,"lon":139.32237447},{"name":"わかぎり会館・図書館","province":"東京都","city":"福生市","address":"東京都福生市福生（大字）1280-1","lat":35.74619349,"lon":139.32083528},{"name":"白梅会館","province":"東京都","city":"福生市","address":"東京都福生市熊川（大字）559-1","lat":35.7240883,"lon":139.33774313},{"name":"中央図書館","province":"東京都","city":"福生市","address":"東京都福生市熊川（大字）850-1","lat":35.73186235,"lon":139.3376679},{"name":"わかたけ会館・図書館","province":"東京都","city":"福生市","address":"東京都福生市熊川（大字）199-1","lat":35.7181112,"lon":139.33499907},{"name":"福生市役所庁舎","province":"東京都","city":"福生市","address":"東京都福生市本町5","lat":35.73848071,"lon":139.32691568},{"name":"福祉センター","province":"東京都","city":"福生市","address":"東京都福生市南田園2丁目13-1","lat":35.72748498,"lon":139.33227121},{"name":"武蔵野台図書館・児童館","province":"東京都","city":"福生市","address":"東京都福生市武蔵野台1丁目12-2","lat":35.74680769,"lon":139.33394539},{"name":"松林会館","province":"東京都","city":"福生市","address":"東京都福生市武蔵野台1丁目15-1","lat":35.74648547,"lon":139.33246496},{"name":"中央体育館","province":"東京都","city":"福生市","address":"東京都福生市北田園2丁目9-1","lat":35.73451441,"lon":139.32237447},{"name":"わかぎり会館・図書館","province":"東京都","city":"福生市","address":"東京都福生市福生（大字）1280-1","lat":35.74619349,"lon":139.32083528},{"name":"白梅会館","province":"東京都","city":"福生市","address":"東京都福生市熊川（大字）559-1","lat":35.7240883,"lon":139.33774313},{"name":"中央図書館","province":"東京都","city":"福生市","address":"東京都福生市熊川（大字）850-1","lat":35.73186235,"lon":139.3376679},{"name":"わかたけ会館・図書館","province":"東京都","city":"福生市","address":"東京都福生市熊川（大字）199-1","lat":35.7181112,"lon":139.33499907},{"name":"福生市役所庁舎","province":"東京都","city":"福生市","address":"東京都福生市本町5","lat":35.73848071,"lon":139.32691568},{"name":"福祉センター","province":"東京都","city":"福生市","address":"東京都福生市南田園2丁目13-1","lat":35.72748498,"lon":139.33227121},{"name":"武蔵野台図書館・児童館","province":"東京都","city":"福生市","address":"東京都福生市武蔵野台1丁目12-2","lat":35.74680769,"lon":139.33394539},{"name":"松林会館","province":"東京都","city":"福生市","address":"東京都福生市武蔵野台1丁目15-1","lat":35.74648547,"lon":139.33246496},{"name":"中央体育館","province":"東京都","city":"福生市","address":"東京都福生市北田園2丁目9-1","lat":35.73451441,"lon":139.32237447},{"name":"わかぎり会館・図書館","province":"東京都","city":"福生市","address":"東京都福生市福生（大字）1280-1","lat":35.74619349,"lon":139.32083528},{"name":"白梅会館","province":"東京都","city":"福生市","address":"東京都福生市熊川（大字）559-1","lat":35.7240883,"lon":139.33774313},{"name":"中央図書館","province":"東京都","city":"福生市","address":"東京都福生市熊川（大字）850-1","lat":35.73186235,"lon":139.3376679},{"name":"わかたけ会館・図書館","province":"東京都","city":"福生市","address":"東京都福生市熊川（大字）199-1","lat":35.7181112,"lon":139.33499907},{"name":"福生市役所庁舎","province":"東京都","city":"福生市","address":"東京都福生市本町5","lat":35.73848071,"lon":139.32691568},{"name":"福祉センター","province":"東京都","city":"福生市","address":"東京都福生市南田園2丁目13-1","lat":35.72748498,"lon":139.33227121},{"name":"武蔵野台図書館・児童館","province":"東京都","city":"福生市","address":"東京都福生市武蔵野台1丁目12-2","lat":35.74680769,"lon":139.33394539},{"name":"松林会館","province":"東京都","city":"福生市","address":"東京都福生市武蔵野台1丁目15-1","lat":35.74648547,"lon":139.33246496},{"name":"中央体育館","province":"東京都","city":"福生市","address":"東京都福生市北田園2丁目9-1","lat":35.73451441,"lon":139.32237447},{"name":"わかぎり会館・図書館","province":"東京都","city":"福生市","address":"東京都福生市福生（大字）1280-1","lat":35.74619349,"lon":139.32083528},{"name":"白梅会館","province":"東京都","city":"福生市","address":"東京都福生市熊川（大字）559-1","lat":35.7240883,"lon":139.33774313},{"name":"中央図書館","province":"東京都","city":"福生市","address":"東京都福生市熊川（大字）850-1","lat":35.73186235,"lon":139.3376679},{"name":"わかたけ会館・図書館","province":"東京都","city":"福生市","address":"東京都福生市熊川（大字）199-1","lat":35.7181112,"lon":139.33499907},{"name":"福生市役所庁舎","province":"東京都","city":"福生市","address":"東京都福生市本町5","lat":35.73848071,"lon":139.32691568},{"name":"福祉センター","province":"東京都","city":"福生市","address":"東京都福生市南田園2丁目13-1","lat":35.72748498,"lon":139.33227121},{"name":"武蔵野台図書館・児童館","province":"東京都","city":"福生市","address":"東京都福生市武蔵野台1丁目12-2","lat":35.74680769,"lon":139.33394539},{"name":"松林会館","province":"東京都","city":"福生市","address":"東京都福生市武蔵野台1丁目15-1","lat":35.74648547,"lon":139.33246496},{"name":"中央体育館","province":"東京都","city":"福生市","address":"東京都福生市北田園2丁目9-1","lat":35.73451441,"lon":139.32237447},{"name":"わかぎり会館・図書館","province":"東京都","city":"福生市","address":"東京都福生市福生（大字）1280-1","lat":35.74619349,"lon":139.32083528},{"name":"白梅会館","province":"東京都","city":"福生市","address":"東京都福生市熊川（大字）559-1","lat":35.7240883,"lon":139.33774313},{"name":"中央図書館","province":"東京都","city":"福生市","address":"東京都福生市熊川（大字）850-1","lat":35.73186235,"lon":139.3376679},{"name":"わかたけ会館・図書館","province":"東京都","city":"福生市","address":"東京都福生市熊川（大字）199-1","lat":35.7181112,"lon":139.33499907},{"name":"福生市役所庁舎","province":"東京都","city":"福生市","address":"東京都福生市本町5","lat":35.73848071,"lon":139.32691568},{"name":"福祉センター","province":"東京都","city":"福生市","address":"東京都福生市南田園2丁目13-1","lat":35.72748498,"lon":139.33227121},{"name":"武蔵野台図書館・児童館","province":"東京都","city":"福生市","address":"東京都福生市武蔵野台1丁目12-2","lat":35.74680769,"lon":139.33394539},{"name":"松林会館","province":"東京都","city":"福生市","address":"東京都福生市武蔵野台1丁目15-1","lat":35.74648547,"lon":139.33246496},{"name":"中央体育館","province":"東京都","city":"福生市","address":"東京都福生市北田園2丁目9-1","lat":35.73451441,"lon":139.32237447},{"name":"わかぎり会館・図書館","province":"東京都","city":"福生市","address":"東京都福生市福生（大字）1280-1","lat":35.74619349,"lon":139.32083528},{"name":"白梅会館","province":"東京都","city":"福生市","address":"東京都福生市熊川（大字）559-1","lat":35.7240883,"lon":139.33774313},{"name":"中央図書館","province":"東京都","city":"福生市","address":"東京都福生市熊川（大字）850-1","lat":35.73186235,"lon":139.3376679},{"name":"わかたけ会館・図書館","province":"東京都","city":"福生市","address":"東京都福生市熊川（大字）199-1","lat":35.7181112,"lon":139.33499907},{"name":"福生市役所庁舎","province":"東京都","city":"福生市","address":"東京都福生市本町5","lat":35.73848071,"lon":139.32691568},{"name":"福祉センター","province":"東京都","city":"福生市","address":"東京都福生市南田園2丁目13-1","lat":35.72748498,"lon":139.33227121},{"name":"武蔵野台図書館・児童館","province":"東京都","city":"福生市","address":"東京都福生市武蔵野台1丁目12-2","lat":35.74680769,"lon":139.33394539},{"name":"松林会館","province":"東京都","city":"福生市","address":"東京都福生市武蔵野台1丁目15-1","lat":35.74648547,"lon":139.33246496},{"name":"中央体育館","province":"東京都","city":"福生市","address":"東京都福生市北田園2丁目9-1","lat":35.73451441,"lon":139.32237447},{"name":"わかぎり会館・図書館","province":"東京都","city":"福生市","address":"東京都福生市福生（大字）1280-1","lat":35.74619349,"lon":139.32083528},{"name":"白梅会館","province":"東京都","city":"福生市","address":"東京都福生市熊川（大字）559-1","lat":35.7240883,"lon":139.33774313},{"name":"中央図書館","province":"東京都","city":"福生市","address":"東京都福生市熊川（大字）850-1","lat":35.73186235,"lon":139.3376679},{"name":"わかたけ会館・図書館","province":"東京都","city":"福生市","address":"東京都福生市熊川（大字）199-1","lat":35.7181112,"lon":139.33499907},{"name":"福生市役所庁舎","province":"東京都","city":"福生市","address":"東京都福生市本町5","lat":35.73848071,"lon":139.32691568},{"name":"福祉センター","province":"東京都","city":"福生市","address":"東京都福生市南田園2丁目13-1","lat":35.72748498,"lon":139.33227121},{"name":"武蔵野台図書館・児童館","province":"東京都","city":"福生市","address":"東京都福生市武蔵野台1丁目12-2","lat":35.74680769,"lon":139.33394539},{"name":"松林会館","province":"東京都","city":"福生市","address":"東京都福生市武蔵野台1丁目15-1","lat":35.74648547,"lon":139.33246496},{"name":"中央体育館","province":"東京都","city":"福生市","address":"東京都福生市北田園2丁目9-1","lat":35.73451441,"lon":139.32237447},{"name":"わかぎり会館・図書館","province":"東京都","city":"福生市","address":"東京都福生市福生（大字）1280-1","lat":35.74619349,"lon":139.32083528},{"name":"白梅会館","province":"東京都","city":"福生市","address":"東京都福生市熊川（大字）559-1","lat":35.7240883,"lon":139.33774313},{"name":"中央図書館","province":"東京都","city":"福生市","address":"東京都福生市熊川（大字）850-1","lat":35.73186235,"lon":139.3376679},{"name":"わかたけ会館・図書館","province":"東京都","city":"福生市","address":"東京都福生市熊川（大字）199-1","lat":35.7181112,"lon":139.33499907},{"name":"福生市役所庁舎","province":"東京都","city":"福生市","address":"東京都福生市本町5","lat":35.73848071,"lon":139.32691568},{"name":"福祉センター","province":"東京都","city":"福生市","address":"東京都福生市南田園2丁目13-1","lat":35.72748498,"lon":139.33227121},{"name":"武蔵野台図書館・児童館","province":"東京都","city":"福生市","address":"東京都福生市武蔵野台1丁目12-2","lat":35.74680769,"lon":139.33394539},{"name":"松林会館","province":"東京都","city":"福生市","address":"東京都福生市武蔵野台1丁目15-1","lat":35.74648547,"lon":139.33246496},{"name":"中央体育館","province":"東京都","city":"福生市","address":"東京都福生市北田園2丁目9-1","lat":35.73451441,"lon":139.32237447},{"name":"わかぎり会館・図書館","province":"東京都","city":"福生市","address":"東京都福生市福生（大字）1280-1","lat":35.74619349,"lon":139.32083528},{"name":"白梅会館","province":"東京都","city":"福生市","address":"東京都福生市熊川（大字）559-1","lat":35.7240883,"lon":139.33774313},{"name":"中央図書館","province":"東京都","city":"福生市","address":"東京都福生市熊川（大字）850-1","lat":35.73186235,"lon":139.3376679},{"name":"わかたけ会館・図書館","province":"東京都","city":"福生市","address":"東京都福生市熊川（大字）199-1","lat":35.7181112,"lon":139.33499907},{"name":"福生市役所庁舎","province":"東京都","city":"福生市","address":"東京都福生市本町5","lat":35.73848071,"lon":139.32691568},{"name":"福祉センター","province":"東京都","city":"福生市","address":"東京都福生市南田園2丁目13-1","lat":35.72748498,"lon":139.33227121},{"name":"武蔵野台図書館・児童館","province":"東京都","city":"福生市","address":"東京都福生市武蔵野台1丁目12-2","lat":35.74680769,"lon":139.33394539},{"name":"松林会館","province":"東京都","city":"福生市","address":"東京都福生市武蔵野台1丁目15-1","lat":35.74648547,"lon":139.33246496},{"name":"中央体育館","province":"東京都","city":"福生市","address":"東京都福生市北田園2丁目9-1","lat":35.73451441,"lon":139.32237447},{"name":"わかぎり会館・図書館","province":"東京都","city":"福生市","address":"東京都福生市福生（大字）1280-1","lat":35.74619349,"lon":139.32083528},{"name":"白梅会館","province":"東京都","city":"福生市","address":"東京都福生市熊川（大字）559-1","lat":35.7240883,"lon":139.33774313},{"name":"中央図書館","province":"東京都","city":"福生市","address":"東京都福生市熊川（大字）850-1","lat":35.73186235,"lon":139.3376679},{"name":"わかたけ会館・図書館","province":"東京都","city":"福生市","address":"東京都福生市熊川（大字）199-1","lat":35.7181112,"lon":139.33499907},{"name":"福生市役所庁舎","province":"東京都","city":"福生市","address":"東京都福生市本町5","lat":35.73848071,"lon":139.32691568},{"name":"福祉センター","province":"東京都","city":"福生市","address":"東京都福生市南田園2丁目13-1","lat":35.72748498,"lon":139.33227121},{"name":"武蔵野台図書館・児童館","province":"東京都","city":"福生市","address":"東京都福生市武蔵野台1丁目12-2","lat":35.74680769,"lon":139.33394539},{"name":"松林会館","province":"東京都","city":"福生市","address":"東京都福生市武蔵野台1丁目15-1","lat":35.74648547,"lon":139.33246496},{"name":"中央体育館","province":"東京都","city":"福生市","address":"東京都福生市北田園2丁目9-1","lat":35.73451441,"lon":139.32237447},{"name":"わかぎり会館・図書館","province":"東京都","city":"福生市","address":"東京都福生市福生（大字）1280-1","lat":35.74619349,"lon":139.32083528},{"name":"白梅会館","province":"東京都","city":"福生市","address":"東京都福生市熊川（大字）559-1","lat":35.7240883,"lon":139.33774313},{"name":"中央図書館","province":"東京都","city":"福生市","address":"東京都福生市熊川（大字）850-1","lat":35.73186235,"lon":139.3376679},{"name":"わかたけ会館・図書館","province":"東京都","city":"福生市","address":"東京都福生市熊川（大字）199-1","lat":35.7181112,"lon":139.33499907},{"name":"福生市役所庁舎","province":"東京都","city":"福生市","address":"東京都福生市本町5","lat":35.73848071,"lon":139.32691568},{"name":"福祉センター","province":"東京都","city":"福生市","address":"東京都福生市南田園2丁目13-1","lat":35.72748498,"lon":139.33227121},{"name":"武蔵野台図書館・児童館","province":"東京都","city":"福生市","address":"東京都福生市武蔵野台1丁目12-2","lat":35.74680769,"lon":139.33394539},{"name":"松林会館","province":"東京都","city":"福生市","address":"東京都福生市武蔵野台1丁目15-1","lat":35.74648547,"lon":139.33246496},{"name":"中央体育館","province":"東京都","city":"福生市","address":"東京都福生市北田園2丁目9-1","lat":35.73451441,"lon":139.32237447},{"name":"わかぎり会館・図書館","province":"東京都","city":"福生市","address":"東京都福生市福生（大字）1280-1","lat":35.74619349,"lon":139.32083528},{"name":"白梅会館","province":"東京都","city":"福生市","address":"東京都福生市熊川（大字）559-1","lat":35.7240883,"lon":139.33774313},{"name":"中央図書館","province":"東京都","city":"福生市","address":"東京都福生市熊川（大字）850-1","lat":35.73186235,"lon":139.3376679},{"name":"わかたけ会館・図書館","province":"東京都","city":"福生市","address":"東京都福生市熊川（大字）199-1","lat":35.7181112,"lon":139.33499907},{"name":"福生市役所庁舎","province":"東京都","city":"福生市","address":"東京都福生市本町5","lat":35.73848071,"lon":139.32691568},{"name":"福祉センター","province":"東京都","city":"福生市","address":"東京都福生市南田園2丁目13-1","lat":35.72748498,"lon":139.33227121},{"name":"武蔵野台図書館・児童館","province":"東京都","city":"福生市","address":"東京都福生市武蔵野台1丁目12-2","lat":35.74680769,"lon":139.33394539},{"name":"松林会館","province":"東京都","city":"福生市","address":"東京都福生市武蔵野台1丁目15-1","lat":35.74648547,"lon":139.33246496},{"name":"中央体育館","province":"東京都","city":"福生市","address":"東京都福生市北田園2丁目9-1","lat":35.73451441,"lon":139.32237447},{"name":"わかぎり会館・図書館","province":"東京都","city":"福生市","address":"東京都福生市福生（大字）1280-1","lat":35.74619349,"lon":139.32083528},{"name":"白梅会館","province":"東京都","city":"福生市","address":"東京都福生市熊川（大字）559-1","lat":35.7240883,"lon":139.33774313},{"name":"中央図書館","province":"東京都","city":"福生市","address":"東京都福生市熊川（大字）850-1","lat":35.73186235,"lon":139.3376679},{"name":"わかたけ会館・図書館","province":"東京都","city":"福生市","address":"東京都福生市熊川（大字）199-1","lat":35.7181112,"lon":139.33499907},{"name":"福生市役所庁舎","province":"東京都","city":"福生市","address":"東京都福生市本町5","lat":35.73848071,"lon":139.32691568},{"name":"福祉センター","province":"東京都","city":"福生市","address":"東京都福生市南田園2丁目13-1","lat":35.72748498,"lon":139.33227121},{"name":"武蔵野台図書館・児童館","province":"東京都","city":"福生市","address":"東京都福生市武蔵野台1丁目12-2","lat":35.74680769,"lon":139.33394539},{"name":"松林会館","province":"東京都","city":"福生市","address":"東京都福生市武蔵野台1丁目15-1","lat":35.74648547,"lon":139.33246496},{"name":"中央体育館","province":"東京都","city":"福生市","address":"東京都福生市北田園2丁目9-1","lat":35.73451441,"lon":139.32237447},{"name":"わかぎり会館・図書館","province":"東京都","city":"福生市","address":"東京都福生市福生（大字）1280-1","lat":35.74619349,"lon":139.32083528},{"name":"白梅会館","province":"東京都","city":"福生市","address":"東京都福生市熊川（大字）559-1","lat":35.7240883,"lon":139.33774313},{"name":"中央図書館","province":"東京都","city":"福生市","address":"東京都福生市熊川（大字）850-1","lat":35.73186235,"lon":139.3376679},{"name":"わかたけ会館・図書館","province":"東京都","city":"福生市","address":"東京都福生市熊川（大字）199-1","lat":35.7181112,"lon":139.33499907},{"name":"福生市役所庁舎","province":"東京都","city":"福生市","address":"東京都福生市本町5","lat":35.73848071,"lon":139.32691568},{"name":"福祉センター","province":"東京都","city":"福生市","address":"東京都福生市南田園2丁目13-1","lat":35.72748498,"lon":139.33227121},{"name":"武蔵野台図書館・児童館","province":"東京都","city":"福生市","address":"東京都福生市武蔵野台1丁目12-2","lat":35.74680769,"lon":139.33394539},{"name":"松林会館","province":"東京都","city":"福生市","address":"東京都福生市武蔵野台1丁目15-1","lat":35.74648547,"lon":139.33246496},{"name":"中央体育館","province":"東京都","city":"福生市","address":"東京都福生市北田園2丁目9-1","lat":35.73451441,"lon":139.32237447},{"name":"わかぎり会館・図書館","province":"東京都","city":"福生市","address":"東京都福生市福生（大字）1280-1","lat":35.74619349,"lon":139.32083528},{"name":"白梅会館","province":"東京都","city":"福生市","address":"東京都福生市熊川（大字）559-1","lat":35.7240883,"lon":139.33774313},{"name":"中央図書館","province":"東京都","city":"福生市","address":"東京都福生市熊川（大字）850-1","lat":35.73186235,"lon":139.3376679},{"name":"わかたけ会館・図書館","province":"東京都","city":"福生市","address":"東京都福生市熊川（大字）199-1","lat":35.7181112,"lon":139.33499907},{"name":"福生市役所庁舎","province":"東京都","city":"福生市","address":"東京都福生市本町5","lat":35.73848071,"lon":139.32691568},{"name":"福祉センター","province":"東京都","city":"福生市","address":"東京都福生市南田園2丁目13-1","lat":35.72748498,"lon":139.33227121},{"name":"武蔵野台図書館・児童館","province":"東京都","city":"福生市","address":"東京都福生市武蔵野台1丁目12-2","lat":35.74680769,"lon":139.33394539},{"name":"松林会館","province":"東京都","city":"福生市","address":"東京都福生市武蔵野台1丁目15-1","lat":35.74648547,"lon":139.33246496},{"name":"中央体育館","province":"東京都","city":"福生市","address":"東京都福生市北田園2丁目9-1","lat":35.73451441,"lon":139.32237447},{"name":"わかぎり会館・図書館","province":"東京都","city":"福生市","address":"東京都福生市福生（大字）1280-1","lat":35.74619349,"lon":139.32083528},{"name":"白梅会館","province":"東京都","city":"福生市","address":"東京都福生市熊川（大字）559-1","lat":35.7240883,"lon":139.33774313},{"name":"中央図書館","province":"東京都","city":"福生市","address":"東京都福生市熊川（大字）850-1","lat":35.73186235,"lon":139.3376679},{"name":"わかたけ会館・図書館","province":"東京都","city":"福生市","address":"東京都福生市熊川（大字）199-1","lat":35.7181112,"lon":139.33499907},{"name":"福生市役所庁舎","province":"東京都","city":"福生市","address":"東京都福生市本町5","lat":35.73848071,"lon":139.32691568},{"name":"福祉センター","province":"東京都","city":"福生市","address":"東京都福生市南田園2丁目13-1","lat":35.72748498,"lon":139.33227121},{"name":"武蔵野台図書館・児童館","province":"東京都","city":"福生市","address":"東京都福生市武蔵野台1丁目12-2","lat":35.74680769,"lon":139.33394539},{"name":"松林会館","province":"東京都","city":"福生市","address":"東京都福生市武蔵野台1丁目15-1","lat":35.74648547,"lon":139.33246496},{"name":"中央体育館","province":"東京都","city":"福生市","address":"東京都福生市北田園2丁目9-1","lat":35.73451441,"lon":139.32237447},{"name":"わかぎり会館・図書館","province":"東京都","city":"福生市","address":"東京都福生市福生（大字）1280-1","lat":35.74619349,"lon":139.32083528},{"name":"白梅会館","province":"東京都","city":"福生市","address":"東京都福生市熊川（大字）559-1","lat":35.7240883,"lon":139.33774313},{"name":"中央図書館","province":"東京都","city":"福生市","address":"東京都福生市熊川（大字）850-1","lat":35.73186235,"lon":139.3376679},{"name":"わかたけ会館・図書館","province":"東京都","city":"福生市","address":"東京都福生市熊川（大字）199-1","lat":35.7181112,"lon":139.33499907},{"name":"福生市役所庁舎","province":"東京都","city":"福生市","address":"東京都福生市本町5","lat":35.73848071,"lon":139.32691568},{"name":"福祉センター","province":"東京都","city":"福生市","address":"東京都福生市南田園2丁目13-1","lat":35.72748498,"lon":139.33227121},{"name":"武蔵野台図書館・児童館","province":"東京都","city":"福生市","address":"東京都福生市武蔵野台1丁目12-2","lat":35.74680769,"lon":139.33394539},{"name":"松林会館","province":"東京都","city":"福生市","address":"東京都福生市武蔵野台1丁目15-1","lat":35.74648547,"lon":139.33246496},{"name":"中央体育館","province":"東京都","city":"福生市","address":"東京都福生市北田園2丁目9-1","lat":35.73451441,"lon":139.32237447},{"name":"わかぎり会館・図書館","province":"東京都","city":"福生市","address":"東京都福生市福生（大字）1280-1","lat":35.74619349,"lon":139.32083528},{"name":"白梅会館","province":"東京都","city":"福生市","address":"東京都福生市熊川（大字）559-1","lat":35.7240883,"lon":139.33774313},{"name":"中央図書館","province":"東京都","city":"福生市","address":"東京都福生市熊川（大字）850-1","lat":35.73186235,"lon":139.3376679},{"name":"わかたけ会館・図書館","province":"東京都","city":"福生市","address":"東京都福生市熊川（大字）199-1","lat":35.7181112,"lon":139.33499907},{"name":"福生市役所庁舎","province":"東京都","city":"福生市","address":"東京都福生市本町5","lat":35.73848071,"lon":139.32691568},{"name":"福祉センター","province":"東京都","city":"福生市","address":"東京都福生市南田園2丁目13-1","lat":35.72748498,"lon":139.33227121},{"name":"武蔵野台図書館・児童館","province":"東京都","city":"福生市","address":"東京都福生市武蔵野台1丁目12-2","lat":35.74680769,"lon":139.33394539},{"name":"松林会館","province":"東京都","city":"福生市","address":"東京都福生市武蔵野台1丁目15-1","lat":35.74648547,"lon":139.33246496},{"name":"中央体育館","province":"東京都","city":"福生市","address":"東京都福生市北田園2丁目9-1","lat":35.73451441,"lon":139.32237447},{"name":"わかぎり会館・図書館","province":"東京都","city":"福生市","address":"東京都福生市福生（大字）1280-1","lat":35.74619349,"lon":139.32083528},{"name":"白梅会館","province":"東京都","city":"福生市","address":"東京都福生市熊川（大字）559-1","lat":35.7240883,"lon":139.33774313},{"name":"中央図書館","province":"東京都","city":"福生市","address":"東京都福生市熊川（大字）850-1","lat":35.73186235,"lon":139.3376679},{"name":"わかたけ会館・図書館","province":"東京都","city":"福生市","address":"東京都福生市熊川（大字）199-1","lat":35.7181112,"lon":139.33499907},{"name":"福生市役所庁舎","province":"東京都","city":"福生市","address":"東京都福生市本町5","lat":35.73848071,"lon":139.32691568},{"name":"福祉センター","province":"東京都","city":"福生市","address":"東京都福生市南田園2丁目13-1","lat":35.72748498,"lon":139.33227121},{"name":"武蔵野台図書館・児童館","province":"東京都","city":"福生市","address":"東京都福生市武蔵野台1丁目12-2","lat":35.74680769,"lon":139.33394539},{"name":"松林会館","province":"東京都","city":"福生市","address":"東京都福生市武蔵野台1丁目15-1","lat":35.74648547,"lon":139.33246496},{"name":"中央体育館","province":"東京都","city":"福生市","address":"東京都福生市北田園2丁目9-1","lat":35.73451441,"lon":139.32237447},{"name":"わかぎり会館・図書館","province":"東京都","city":"福生市","address":"東京都福生市福生（大字）1280-1","lat":35.74619349,"lon":139.32083528},{"name":"白梅会館","province":"東京都","city":"福生市","address":"東京都福生市熊川（大字）559-1","lat":35.7240883,"lon":139.33774313},{"name":"中央図書館","province":"東京都","city":"福生市","address":"東京都福生市熊川（大字）850-1","lat":35.73186235,"lon":139.3376679},{"name":"わかたけ会館・図書館","province":"東京都","city":"福生市","address":"東京都福生市熊川（大字）199-1","lat":35.7181112,"lon":139.33499907},{"name":"福生市役所庁舎","province":"東京都","city":"福生市","address":"東京都福生市本町5","lat":35.73848071,"lon":139.32691568},{"name":"福祉センター","province":"東京都","city":"福生市","address":"東京都福生市南田園2丁目13-1","lat":35.72748498,"lon":139.33227121},{"name":"武蔵野台図書館・児童館","province":"東京都","city":"福生市","address":"東京都福生市武蔵野台1丁目12-2","lat":35.74680769,"lon":139.33394539},{"name":"松林会館","province":"東京都","city":"福生市","address":"東京都福生市武蔵野台1丁目15-1","lat":35.74648547,"lon":139.33246496},{"name":"中央体育館","province":"東京都","city":"福生市","address":"東京都福生市北田園2丁目9-1","lat":35.73451441,"lon":139.32237447},{"name":"わかぎり会館・図書館","province":"東京都","city":"福生市","address":"東京都福生市福生（大字）1280-1","lat":35.74619349,"lon":139.32083528},{"name":"白梅会館","province":"東京都","city":"福生市","address":"東京都福生市熊川（大字）559-1","lat":35.7240883,"lon":139.33774313},{"name":"中央図書館","province":"東京都","city":"福生市","address":"東京都福生市熊川（大字）850-1","lat":35.73186235,"lon":139.3376679},{"name":"わかたけ会館・図書館","province":"東京都","city":"福生市","address":"東京都福生市熊川（大字）199-1","lat":35.7181112,"lon":139.33499907},{"name":"福生市役所庁舎","province":"東京都","city":"福生市","address":"東京都福生市本町5","lat":35.73848071,"lon":139.32691568},{"name":"福祉センター","province":"東京都","city":"福生市","address":"東京都福生市南田園2丁目13-1","lat":35.72748498,"lon":139.33227121},{"name":"武蔵野台図書館・児童館","province":"東京都","city":"福生市","address":"東京都福生市武蔵野台1丁目12-2","lat":35.74680769,"lon":139.33394539},{"name":"松林会館","province":"東京都","city":"福生市","address":"東京都福生市武蔵野台1丁目15-1","lat":35.74648547,"lon":139.33246496},{"name":"中央体育館","province":"東京都","city":"福生市","address":"東京都福生市北田園2丁目9-1","lat":35.73451441,"lon":139.32237447},{"name":"わかぎり会館・図書館","province":"東京都","city":"福生市","address":"東京都福生市福生（大字）1280-1","lat":35.74619349,"lon":139.32083528},{"name":"白梅会館","province":"東京都","city":"福生市","address":"東京都福生市熊川（大字）559-1","lat":35.7240883,"lon":139.33774313},{"name":"中央図書館","province":"東京都","city":"福生市","address":"東京都福生市熊川（大字）850-1","lat":35.73186235,"lon":139.3376679},{"name":"わかたけ会館・図書館","province":"東京都","city":"福生市","address":"東京都福生市熊川（大字）199-1","lat":35.7181112,"lon":139.33499907},{"name":"福生市役所庁舎","province":"東京都","city":"福生市","address":"東京都福生市本町5","lat":35.73848071,"lon":139.32691568},{"name":"福祉センター","province":"東京都","city":"福生市","address":"東京都福生市南田園2丁目13-1","lat":35.72748498,"lon":139.33227121},{"name":"武蔵野台図書館・児童館","province":"東京都","city":"福生市","address":"東京都福生市武蔵野台1丁目12-2","lat":35.74680769,"lon":139.33394539},{"name":"松林会館","province":"東京都","city":"福生市","address":"東京都福生市武蔵野台1丁目15-1","lat":35.74648547,"lon":139.33246496},{"name":"中央体育館","province":"東京都","city":"福生市","address":"東京都福生市北田園2丁目9-1","lat":35.73451441,"lon":139.32237447},{"name":"わかぎり会館・図書館","province":"東京都","city":"福生市","address":"東京都福生市福生（大字）1280-1","lat":35.74619349,"lon":139.32083528},{"name":"白梅会館","province":"東京都","city":"福生市","address":"東京都福生市熊川（大字）559-1","lat":35.7240883,"lon":139.33774313},{"name":"中央図書館","province":"東京都","city":"福生市","address":"東京都福生市熊川（大字）850-1","lat":35.73186235,"lon":139.3376679},{"name":"わかたけ会館・図書館","province":"東京都","city":"福生市","address":"東京都福生市熊川（大字）199-1","lat":35.7181112,"lon":139.33499907},{"name":"福生市役所庁舎","province":"東京都","city":"福生市","address":"東京都福生市本町5","lat":35.73848071,"lon":139.32691568},{"name":"福祉センター","province":"東京都","city":"福生市","address":"東京都福生市南田園2丁目13-1","lat":35.72748498,"lon":139.33227121},{"name":"武蔵野台図書館・児童館","province":"東京都","city":"福生市","address":"東京都福生市武蔵野台1丁目12-2","lat":35.74680769,"lon":139.33394539},{"name":"松林会館","province":"東京都","city":"福生市","address":"東京都福生市武蔵野台1丁目15-1","lat":35.74648547,"lon":139.33246496},{"name":"中央体育館","province":"東京都","city":"福生市","address":"東京都福生市北田園2丁目9-1","lat":35.73451441,"lon":139.32237447},{"name":"わかぎり会館・図書館","province":"東京都","city":"福生市","address":"東京都福生市福生（大字）1280-1","lat":35.74619349,"lon":139.32083528},{"name":"白梅会館","province":"東京都","city":"福生市","address":"東京都福生市熊川（大字）559-1","lat":35.7240883,"lon":139.33774313},{"name":"中央図書館","province":"東京都","city":"福生市","address":"東京都福生市熊川（大字）850-1","lat":35.73186235,"lon":139.3376679},{"name":"わかたけ会館・図書館","province":"東京都","city":"福生市","address":"東京都福生市熊川（大字）199-1","lat":35.7181112,"lon":139.33499907},{"name":"福生市役所庁舎","province":"東京都","city":"福生市","address":"東京都福生市本町5","lat":35.73848071,"lon":139.32691568},{"name":"福祉センター","province":"東京都","city":"福生市","address":"東京都福生市南田園2丁目13-1","lat":35.72748498,"lon":139.33227121},{"name":"武蔵野台図書館・児童館","province":"東京都","city":"福生市","address":"東京都福生市武蔵野台1丁目12-2","lat":35.74680769,"lon":139.33394539},{"name":"松林会館","province":"東京都","city":"福生市","address":"東京都福生市武蔵野台1丁目15-1","lat":35.74648547,"lon":139.33246496},{"name":"中央体育館","province":"東京都","city":"福生市","address":"東京都福生市北田園2丁目9-1","lat":35.73451441,"lon":139.32237447},{"name":"わかぎり会館・図書館","province":"東京都","city":"福生市","address":"東京都福生市福生（大字）1280-1","lat":35.74619349,"lon":139.32083528},{"name":"白梅会館","province":"東京都","city":"福生市","address":"東京都福生市熊川（大字）559-1","lat":35.7240883,"lon":139.33774313},{"name":"中央図書館","province":"東京都","city":"福生市","address":"東京都福生市熊川（大字）850-1","lat":35.73186235,"lon":139.3376679},{"name":"わかたけ会館・図書館","province":"東京都","city":"福生市","address":"東京都福生市熊川（大字）199-1","lat":35.7181112,"lon":139.33499907},{"name":"福生市役所庁舎","province":"東京都","city":"福生市","address":"東京都福生市本町5","lat":35.73848071,"lon":139.32691568},{"name":"福祉センター","province":"東京都","city":"福生市","address":"東京都福生市南田園2丁目13-1","lat":35.72748498,"lon":139.33227121},{"name":"武蔵野台図書館・児童館","province":"東京都","city":"福生市","address":"東京都福生市武蔵野台1丁目12-2","lat":35.74680769,"lon":139.33394539},{"name":"松林会館","province":"東京都","city":"福生市","address":"東京都福生市武蔵野台1丁目15-1","lat":35.74648547,"lon":139.33246496},{"name":"中央体育館","province":"東京都","city":"福生市","address":"東京都福生市北田園2丁目9-1","lat":35.73451441,"lon":139.32237447},{"name":"わかぎり会館・図書館","province":"東京都","city":"福生市","address":"東京都福生市福生（大字）1280-1","lat":35.74619349,"lon":139.32083528},{"name":"白梅会館","province":"東京都","city":"福生市","address":"東京都福生市熊川（大字）559-1","lat":35.7240883,"lon":139.33774313},{"name":"中央図書館","province":"東京都","city":"福生市","address":"東京都福生市熊川（大字）850-1","lat":35.73186235,"lon":139.3376679},{"name":"わかたけ会館・図書館","province":"東京都","city":"福生市","address":"東京都福生市熊川（大字）199-1","lat":35.7181112,"lon":139.33499907},{"name":"福生市役所庁舎","province":"東京都","city":"福生市","address":"東京都福生市本町5","lat":35.73848071,"lon":139.32691568},{"name":"福祉センター","province":"東京都","city":"福生市","address":"東京都福生市南田園2丁目13-1","lat":35.72748498,"lon":139.33227121},{"name":"武蔵野台図書館・児童館","province":"東京都","city":"福生市","address":"東京都福生市武蔵野台1丁目12-2","lat":35.74680769,"lon":139.33394539},{"name":"松林会館","province":"東京都","city":"福生市","address":"東京都福生市武蔵野台1丁目15-1","lat":35.74648547,"lon":139.33246496},{"name":"中央体育館","province":"東京都","city":"福生市","address":"東京都福生市北田園2丁目9-1","lat":35.73451441,"lon":139.32237447},{"name":"わかぎり会館・図書館","province":"東京都","city":"福生市","address":"東京都福生市福生（大字）1280-1","lat":35.74619349,"lon":139.32083528},{"name":"白梅会館","province":"東京都","city":"福生市","address":"東京都福生市熊川（大字）559-1","lat":35.7240883,"lon":139.33774313},{"name":"中央図書館","province":"東京都","city":"福生市","address":"東京都福生市熊川（大字）850-1","lat":35.73186235,"lon":139.3376679},{"name":"わかたけ会館・図書館","province":"東京都","city":"福生市","address":"東京都福生市熊川（大字）199-1","lat":35.7181112,"lon":139.33499907},{"name":"福生市役所庁舎","province":"東京都","city":"福生市","address":"東京都福生市本町5","lat":35.73848071,"lon":139.32691568},{"name":"福祉センター","province":"東京都","city":"福生市","address":"東京都福生市南田園2丁目13-1","lat":35.72748498,"lon":139.33227121},{"name":"武蔵野台図書館・児童館","province":"東京都","city":"福生市","address":"東京都福生市武蔵野台1丁目12-2","lat":35.74680769,"lon":139.33394539},{"name":"松林会館","province":"東京都","city":"福生市","address":"東京都福生市武蔵野台1丁目15-1","lat":35.74648547,"lon":139.33246496},{"name":"中央体育館","province":"東京都","city":"福生市","address":"東京都福生市北田園2丁目9-1","lat":35.73451441,"lon":139.32237447},{"name":"わかぎり会館・図書館","province":"東京都","city":"福生市","address":"東京都福生市福生（大字）1280-1","lat":35.74619349,"lon":139.32083528},{"name":"白梅会館","province":"東京都","city":"福生市","address":"東京都福生市熊川（大字）559-1","lat":35.7240883,"lon":139.33774313},{"name":"中央図書館","province":"東京都","city":"福生市","address":"東京都福生市熊川（大字）850-1","lat":35.73186235,"lon":139.3376679},{"name":"わかたけ会館・図書館","province":"東京都","city":"福生市","address":"東京都福生市熊川（大字）199-1","lat":35.7181112,"lon":139.33499907},{"name":"福生市役所庁舎","province":"東京都","city":"福生市","address":"東京都福生市本町5","lat":35.73848071,"lon":139.32691568},{"name":"福祉センター","province":"東京都","city":"福生市","address":"東京都福生市南田園2丁目13-1","lat":35.72748498,"lon":139.33227121},{"name":"武蔵野台図書館・児童館","province":"東京都","city":"福生市","address":"東京都福生市武蔵野台1丁目12-2","lat":35.74680769,"lon":139.33394539},{"name":"松林会館","province":"東京都","city":"福生市","address":"東京都福生市武蔵野台1丁目15-1","lat":35.74648547,"lon":139.33246496},{"name":"中央体育館","province":"東京都","city":"福生市","address":"東京都福生市北田園2丁目9-1","lat":35.73451441,"lon":139.32237447},{"name":"わかぎり会館・図書館","province":"東京都","city":"福生市","address":"東京都福生市福生（大字）1280-1","lat":35.74619349,"lon":139.32083528},{"name":"白梅会館","province":"東京都","city":"福生市","address":"東京都福生市熊川（大字）559-1","lat":35.7240883,"lon":139.33774313},{"name":"中央図書館","province":"東京都","city":"福生市","address":"東京都福生市熊川（大字）850-1","lat":35.73186235,"lon":139.3376679},{"name":"わかたけ会館・図書館","province":"東京都","city":"福生市","address":"東京都福生市熊川（大字）199-1","lat":35.7181112,"lon":139.33499907},{"name":"福生市役所庁舎","province":"東京都","city":"福生市","address":"東京都福生市本町5","lat":35.73848071,"lon":139.32691568},{"name":"福祉センター","province":"東京都","city":"福生市","address":"東京都福生市南田園2丁目13-1","lat":35.72748498,"lon":139.33227121},{"name":"武蔵野台図書館・児童館","province":"東京都","city":"福生市","address":"東京都福生市武蔵野台1丁目12-2","lat":35.74680769,"lon":139.33394539},{"name":"松林会館","province":"東京都","city":"福生市","address":"東京都福生市武蔵野台1丁目15-1","lat":35.74648547,"lon":139.33246496},{"name":"中央体育館","province":"東京都","city":"福生市","address":"東京都福生市北田園2丁目9-1","lat":35.73451441,"lon":139.32237447},{"name":"わかぎり会館・図書館","province":"東京都","city":"福生市","address":"東京都福生市福生（大字）1280-1","lat":35.74619349,"lon":139.32083528},{"name":"白梅会館","province":"東京都","city":"福生市","address":"東京都福生市熊川（大字）559-1","lat":35.7240883,"lon":139.33774313},{"name":"中央図書館","province":"東京都","city":"福生市","address":"東京都福生市熊川（大字）850-1","lat":35.73186235,"lon":139.3376679},{"name":"わかたけ会館・図書館","province":"東京都","city":"福生市","address":"東京都福生市熊川（大字）199-1","lat":35.7181112,"lon":139.33499907},{"name":"福生市役所庁舎","province":"東京都","city":"福生市","address":"東京都福生市本町5","lat":35.73848071,"lon":139.32691568},{"name":"福祉センター","province":"東京都","city":"福生市","address":"東京都福生市南田園2丁目13-1","lat":35.72748498,"lon":139.33227121},{"name":"武蔵野台図書館・児童館","province":"東京都","city":"福生市","address":"東京都福生市武蔵野台1丁目12-2","lat":35.74680769,"lon":139.33394539},{"name":"松林会館","province":"東京都","city":"福生市","address":"東京都福生市武蔵野台1丁目15-1","lat":35.74648547,"lon":139.33246496},{"name":"中央体育館","province":"東京都","city":"福生市","address":"東京都福生市北田園2丁目9-1","lat":35.73451441,"lon":139.32237447},{"name":"わかぎり会館・図書館","province":"東京都","city":"福生市","address":"東京都福生市福生（大字）1280-1","lat":35.74619349,"lon":139.32083528},{"name":"白梅会館","province":"東京都","city":"福生市","address":"東京都福生市熊川（大字）559-1","lat":35.7240883,"lon":139.33774313},{"name":"中央図書館","province":"東京都","city":"福生市","address":"東京都福生市熊川（大字）850-1","lat":35.73186235,"lon":139.3376679},{"name":"わかたけ会館・図書館","province":"東京都","city":"福生市","address":"東京都福生市熊川（大字）199-1","lat":35.7181112,"lon":139.33499907},{"name":"福生市役所庁舎","province":"東京都","city":"福生市","address":"東京都福生市本町5","lat":35.73848071,"lon":139.32691568},{"name":"福祉センター","province":"東京都","city":"福生市","address":"東京都福生市南田園2丁目13-1","lat":35.72748498,"lon":139.33227121},{"name":"武蔵野台図書館・児童館","province":"東京都","city":"福生市","address":"東京都福生市武蔵野台1丁目12-2","lat":35.74680769,"lon":139.33394539},{"name":"松林会館","province":"東京都","city":"福生市","address":"東京都福生市武蔵野台1丁目15-1","lat":35.74648547,"lon":139.33246496},{"name":"中央体育館","province":"東京都","city":"福生市","address":"東京都福生市北田園2丁目9-1","lat":35.73451441,"lon":139.32237447},{"name":"わかぎり会館・図書館","province":"東京都","city":"福生市","address":"東京都福生市福生（大字）1280-1","lat":35.74619349,"lon":139.32083528},{"name":"白梅会館","province":"東京都","city":"福生市","address":"東京都福生市熊川（大字）559-1","lat":35.7240883,"lon":139.33774313},{"name":"中央図書館","province":"東京都","city":"福生市","address":"東京都福生市熊川（大字）850-1","lat":35.73186235,"lon":139.3376679},{"name":"わかたけ会館・図書館","province":"東京都","city":"福生市","address":"東京都福生市熊川（大字）199-1","lat":35.7181112,"lon":139.33499907},{"name":"福生市役所庁舎","province":"東京都","city":"福生市","address":"東京都福生市本町5","lat":35.73848071,"lon":139.32691568},{"name":"福祉センター","province":"東京都","city":"福生市","address":"東京都福生市南田園2丁目13-1","lat":35.72748498,"lon":139.33227121},{"name":"武蔵野台図書館・児童館","province":"東京都","city":"福生市","address":"東京都福生市武蔵野台1丁目12-2","lat":35.74680769,"lon":139.33394539},{"name":"松林会館","province":"東京都","city":"福生市","address":"東京都福生市武蔵野台1丁目15-1","lat":35.74648547,"lon":139.33246496},{"name":"中央体育館","province":"東京都","city":"福生市","address":"東京都福生市北田園2丁目9-1","lat":35.73451441,"lon":139.32237447},{"name":"わかぎり会館・図書館","province":"東京都","city":"福生市","address":"東京都福生市福生（大字）1280-1","lat":35.74619349,"lon":139.32083528},{"name":"白梅会館","province":"東京都","city":"福生市","address":"東京都福生市熊川（大字）559-1","lat":35.7240883,"lon":139.33774313},{"name":"中央図書館","province":"東京都","city":"福生市","address":"東京都福生市熊川（大字）850-1","lat":35.73186235,"lon":139.3376679},{"name":"わかたけ会館・図書館","province":"東京都","city":"福生市","address":"東京都福生市熊川（大字）199-1","lat":35.7181112,"lon":139.33499907},{"name":"福生市役所庁舎","province":"東京都","city":"福生市","address":"東京都福生市本町5","lat":35.73848071,"lon":139.32691568},{"name":"福祉センター","province":"東京都","city":"福生市","address":"東京都福生市南田園2丁目13-1","lat":35.72748498,"lon":139.33227121},{"name":"武蔵野台図書館・児童館","province":"東京都","city":"福生市","address":"東京都福生市武蔵野台1丁目12-2","lat":35.74680769,"lon":139.33394539},{"name":"松林会館","province":"東京都","city":"福生市","address":"東京都福生市武蔵野台1丁目15-1","lat":35.74648547,"lon":139.33246496},{"name":"中央体育館","province":"東京都","city":"福生市","address":"東京都福生市北田園2丁目9-1","lat":35.73451441,"lon":139.32237447},{"name":"わかぎり会館・図書館","province":"東京都","city":"福生市","address":"東京都福生市福生（大字）1280-1","lat":35.74619349,"lon":139.32083528},{"name":"白梅会館","province":"東京都","city":"福生市","address":"東京都福生市熊川（大字）559-1","lat":35.7240883,"lon":139.33774313},{"name":"中央図書館","province":"東京都","city":"福生市","address":"東京都福生市熊川（大字）850-1","lat":35.73186235,"lon":139.3376679},{"name":"わかたけ会館・図書館","province":"東京都","city":"福生市","address":"東京都福生市熊川（大字）199-1","lat":35.7181112,"lon":139.33499907},{"name":"福生市役所庁舎","province":"東京都","city":"福生市","address":"東京都福生市本町5","lat":35.73848071,"lon":139.32691568},{"name":"福祉センター","province":"東京都","city":"福生市","address":"東京都福生市南田園2丁目13-1","lat":35.72748498,"lon":139.33227121},{"name":"武蔵野台図書館・児童館","province":"東京都","city":"福生市","address":"東京都福生市武蔵野台1丁目12-2","lat":35.74680769,"lon":139.33394539},{"name":"松林会館","province":"東京都","city":"福生市","address":"東京都福生市武蔵野台1丁目15-1","lat":35.74648547,"lon":139.33246496},{"name":"中央体育館","province":"東京都","city":"福生市","address":"東京都福生市北田園2丁目9-1","lat":35.73451441,"lon":139.32237447},{"name":"わかぎり会館・図書館","province":"東京都","city":"福生市","address":"東京都福生市福生（大字）1280-1","lat":35.74619349,"lon":139.32083528},{"name":"白梅会館","province":"東京都","city":"福生市","address":"東京都福生市熊川（大字）559-1","lat":35.7240883,"lon":139.33774313},{"name":"中央図書館","province":"東京都","city":"福生市","address":"東京都福生市熊川（大字）850-1","lat":35.73186235,"lon":139.3376679},{"name":"わかたけ会館・図書館","province":"東京都","city":"福生市","address":"東京都福生市熊川（大字）199-1","lat":35.7181112,"lon":139.33499907},{"name":"福生市役所庁舎","province":"東京都","city":"福生市","address":"東京都福生市本町5","lat":35.73848071,"lon":139.32691568},{"name":"福祉センター","province":"東京都","city":"福生市","address":"東京都福生市南田園2丁目13-1","lat":35.72748498,"lon":139.33227121},{"name":"武蔵野台図書館・児童館","province":"東京都","city":"福生市","address":"東京都福生市武蔵野台1丁目12-2","lat":35.74680769,"lon":139.33394539},{"name":"松林会館","province":"東京都","city":"福生市","address":"東京都福生市武蔵野台1丁目15-1","lat":35.74648547,"lon":139.33246496},{"name":"中央体育館","province":"東京都","city":"福生市","address":"東京都福生市北田園2丁目9-1","lat":35.73451441,"lon":139.32237447},{"name":"わかぎり会館・図書館","province":"東京都","city":"福生市","address":"東京都福生市福生（大字）1280-1","lat":35.74619349,"lon":139.32083528},{"name":"白梅会館","province":"東京都","city":"福生市","address":"東京都福生市熊川（大字）559-1","lat":35.7240883,"lon":139.33774313},{"name":"中央図書館","province":"東京都","city":"福生市","address":"東京都福生市熊川（大字）850-1","lat":35.73186235,"lon":139.3376679},{"name":"わかたけ会館・図書館","province":"東京都","city":"福生市","address":"東京都福生市熊川（大字）199-1","lat":35.7181112,"lon":139.33499907},{"name":"福生市役所庁舎","province":"東京都","city":"福生市","address":"東京都福生市本町5","lat":35.73848071,"lon":139.32691568},{"name":"福祉センター","province":"東京都","city":"福生市","address":"東京都福生市南田園2丁目13-1","lat":35.72748498,"lon":139.33227121},{"name":"武蔵野台図書館・児童館","province":"東京都","city":"福生市","address":"東京都福生市武蔵野台1丁目12-2","lat":35.74680769,"lon":139.33394539},{"name":"松林会館","province":"東京都","city":"福生市","address":"東京都福生市武蔵野台1丁目15-1","lat":35.74648547,"lon":139.33246496}]}