{"keyword":"福生","data":[{"name":"福生市公民館","province":"東京都","city":"福生市","address":"福生市福生2455","lat":35.734283,"lon":139.337967},{"name":"福生市公民館松林分館","province":"東京都","city":"福生市","address":"福生市武蔵野台1-15-1","lat":35.746574,"lon":139.332214},{"name":"福生市公民館白梅分館","province":"東京都","city":"福生市","address":"福生市熊川559-1","lat":35.72414,"lon":139.33786},{"name":"福生市立わかぎり図書館","province":"東京都","city":"福生市","address":"福生市福生1280-1","lat":35.74604,"lon":139.321091},{"name":"福生市立わかたけ図書館","province":"東京都","city":"福生市","address":"福生市熊川199-1","lat":35.718021,"lon":139.335327},{"name":"福生市立中央図書館","province":"東京都","city":"福生市","address":"福生市熊川850-1","lat":35.731689,"lon":139.337662},{"name":"福生市立武蔵野台図書館","province":"東京都","city":"福生市","address":"福生市武蔵野台1-12-2","lat":35.74699,"lon":139.333954},{"name":"福生市郷土資料室","province":"東京都","city":"福生市","address":"福生市熊川850-1","lat":35.731689,"lon":139.337662},{"name":"かえで会館","province":"東京都","city":"福生市","address":"福生市加美平1-20-6","lat":35.750492,"lon":139.325958},{"name":"さくら会館","province":"東京都","city":"福生市","address":"福生市牛浜163","lat":35.733948,"lon":139.336945},{"name":"扶桑会館","province":"東京都","city":"福生市","address":"福生市福生1069-1","lat":35.744026,"lon":139.324768},{"name":"福生市茶室「福庵」","province":"東京都","city":"福生市","address":"福生市熊川854-3","lat":35.731689,"lon":139.337662},{"name":"福生市民会館","province":"東京都","city":"福生市","address":"福生市福生2455","lat":35.734283,"lon":139.337967}]}