{"keyword":"週","data":[{"name":"福生市熊川児童館","province":"東京都","city":"福生市","address":"福生市熊川1143-1","lat":35.730213,"lon":139.341137},{"name":"福生市田園児童館","province":"東京都","city":"福生市","address":"福生市南田園3-6-1","lat":35.730087,"lon":139.331124},{"name":"福生市武蔵野台児童館","province":"東京都","city":"福生市","address":"福生市武蔵野台1-12-2","lat":35.746808,"lon":139.333945},{"name":"福生市社会福祉協議会","province":"東京都","city":"福生市","address":"福生市南田園2-13-1福生市福祉センター内","lat":35.727485,"lon":139.332271},{"name":"熊川神社本殿","province":"東京都","city":"福生市","address":"東京都福生市熊川660","lat":35.723658,"lon":139.333882},{"name":"中央図書館","province":"東京都","city":"福生市","address":"東京都福生市熊川（大字）850-1","lat":35.73186235,"lon":139.3376679},{"name":"武蔵野台図書館","province":"東京都","city":"福生市","address":"東京都福生市武蔵野台1丁目12-2","lat":35.74680769,"lon":139.33394539},{"name":"わかたけ図書館","province":"東京都","city":"福生市","address":"東京都福生市熊川（大字）199-1","lat":35.7181112,"lon":139.33499907},{"name":"わかぎり図書館","province":"東京都","city":"福生市","address":"東京都福生市福生（大字）1280-1","lat":35.74619349,"lon":139.32083528},{"name":"福東グランド","province":"東京都","city":"福生市","address":"東京都福生市熊川（大字）1608","lat":35.72289427,"lon":139.35088939},{"name":"福東球技場","province":"東京都","city":"福生市","address":"東京都福生市熊川（大字）1608","lat":35.72289427,"lon":139.35088939},{"name":"熊川地域体育館","province":"東京都","city":"福生市","address":"東京都福生市熊川（大字）380-7","lat":35.72062204,"lon":139.33699606},{"name":"多摩川中央公園グランド","province":"東京都","city":"福生市","address":"東京都福生市北田園1丁目","lat":35.7320676,"lon":139.32653537},{"name":"中央体育館","province":"東京都","city":"福生市","address":"東京都福生市北田園2丁目9-1","lat":35.73451441,"lon":139.32237447},{"name":"福生市営プール","province":"東京都","city":"福生市","address":"東京都福生市北田園2丁目8-4","lat":35.73426998,"lon":139.32165231},{"name":"福生地域体育館","province":"東京都","city":"福生市","address":"東京都福生市武蔵野台1丁目8-7","lat":35.74622721,"lon":139.33415374},{"name":"福生市熊川児童館","province":"東京都","city":"福生市","address":"福生市熊川1143-1","lat":35.72989,"lon":139.34109},{"name":"福生市田園児童館","province":"東京都","city":"福生市","address":"福生市南田園3-6-1","lat":35.73012,"lon":139.33104},{"name":"福生市武蔵野台児童館","province":"東京都","city":"福生市","address":"福生市武蔵野台1-12-2","lat":35.74699,"lon":139.33395},{"name":"福生市社会福祉協議会","province":"東京都","city":"福生市","address":"福生市南田園2-13-1福生市福祉センター内","lat":35.72799,"lon":139.33234},{"name":"福生市熊川児童館","province":"東京都","city":"福生市","address":"福生市熊川1143-1","lat":35.72989,"lon":139.3411},{"name":"福生武蔵野台浄水所","province":"東京都","city":"福生市","address":"東京都福生市武蔵野台2丁目32","lat":35.75162088,"lon":139.329215},{"name":"福生市立多摩川緑地福生南公園","province":"東京都","city":"福生市","address":"東京都福生市南田園1丁目1-1","lat":35.71975535,"lon":139.33089655},{"name":"加美平野球場","province":"東京都","city":"福生市","address":"東京都福生市加美平1丁目21","lat":35.75075425,"lon":139.3271652},{"name":"＊?福生市公民館","province":"東京都","city":"福生市","address":"福生市福生2455","lat":35.733906,"lon":139.337829},{"name":"＊?福生市公民館松林分館","province":"東京都","city":"福生市","address":"福生市武蔵野台1-15-1","lat":35.746445,"lon":139.332546},{"name":"＊?福生市公民館白梅分館","province":"東京都","city":"福生市","address":"福生市熊川559-1","lat":35.724133,"lon":139.337724},{"name":"＊?福生市郷土資料室","province":"東京都","city":"福生市","address":"福生市熊川850-1","lat":35.732073,"lon":139.337586},{"name":"＊?福生市立わかたけ図書館","province":"東京都","city":"福生市","address":"福生市熊川199-1","lat":35.718119,"lon":139.335002},{"name":"＊?福生市立わかぎり図書館","province":"東京都","city":"福生市","address":"福生市福生1280-1","lat":35.746199,"lon":139.320912},{"name":"＊?福生市立中央図書館","province":"東京都","city":"福生市","address":"福生市熊川850-1","lat":35.732073,"lon":139.337586},{"name":"＊?福生市立武蔵野台図書館","province":"東京都","city":"福生市","address":"福生市武蔵野台1-12-2","lat":35.746833,"lon":139.333943},{"name":"福生市本庁舎","province":"東京都","city":"福生市","address":"福生市本町5","lat":35.738484,"lon":139.326868},{"name":"航空自衛隊横田基地","province":"東京都","city":"福生市","address":"福生市大字福生2552","lat":35.74337,"lon":139.3305},{"name":"福生警察署","province":"東京都","city":"福生市","address":"福生市加美平3-25","lat":35.74889,"lon":139.3206},{"name":"福生消防署","province":"東京都","city":"福生市","address":"福生市福生1072","lat":35.74401,"lon":139.3245},{"name":"加美平野球場","province":"東京都","city":"福生市","address":"福生市加美平1-21","lat":35.75075,"lon":139.3272},{"name":"福生市熊川児童館","province":"東京都","city":"福生市","address":"福生市熊川1143-1","lat":35.730213,"lon":139.341137},{"name":"福生市田園児童館","province":"東京都","city":"福生市","address":"福生市南田園3-6-1","lat":35.730087,"lon":139.331124},{"name":"福生市武蔵野台児童館","province":"東京都","city":"福生市","address":"福生市武蔵野台1-12-2","lat":35.746808,"lon":139.333945},{"name":"福生市社会福祉協議会","province":"東京都","city":"福生市","address":"福生市南田園2-13-1福生市福祉センター内","lat":35.727485,"lon":139.332271},{"name":"熊川神社本殿","province":"東京都","city":"福生市","address":"東京都福生市熊川660","lat":35.723658,"lon":139.333882},{"name":"中央図書館","province":"東京都","city":"福生市","address":"東京都福生市熊川（大字）850-1","lat":35.73186235,"lon":139.3376679},{"name":"武蔵野台図書館","province":"東京都","city":"福生市","address":"東京都福生市武蔵野台1丁目12-2","lat":35.74680769,"lon":139.33394539},{"name":"わかたけ図書館","province":"東京都","city":"福生市","address":"東京都福生市熊川（大字）199-1","lat":35.7181112,"lon":139.33499907},{"name":"わかぎり図書館","province":"東京都","city":"福生市","address":"東京都福生市福生（大字）1280-1","lat":35.74619349,"lon":139.32083528},{"name":"福東グランド","province":"東京都","city":"福生市","address":"東京都福生市熊川（大字）1608","lat":35.72289427,"lon":139.35088939},{"name":"福東球技場","province":"東京都","city":"福生市","address":"東京都福生市熊川（大字）1608","lat":35.72289427,"lon":139.35088939},{"name":"熊川地域体育館","province":"東京都","city":"福生市","address":"東京都福生市熊川（大字）380-7","lat":35.72062204,"lon":139.33699606},{"name":"多摩川中央公園グランド","province":"東京都","city":"福生市","address":"東京都福生市北田園1丁目","lat":35.7320676,"lon":139.32653537},{"name":"中央体育館","province":"東京都","city":"福生市","address":"東京都福生市北田園2丁目9-1","lat":35.73451441,"lon":139.32237447},{"name":"福生市営プール","province":"東京都","city":"福生市","address":"東京都福生市北田園2丁目8-4","lat":35.73426998,"lon":139.32165231},{"name":"福生地域体育館","province":"東京都","city":"福生市","address":"東京都福生市武蔵野台1丁目8-7","lat":35.74622721,"lon":139.33415374},{"name":"福生市熊川児童館","province":"東京都","city":"福生市","address":"福生市熊川1143-1","lat":35.72989,"lon":139.34109},{"name":"福生市田園児童館","province":"東京都","city":"福生市","address":"福生市南田園3-6-1","lat":35.73012,"lon":139.33104},{"name":"福生市武蔵野台児童館","province":"東京都","city":"福生市","address":"福生市武蔵野台1-12-2","lat":35.74699,"lon":139.33395},{"name":"福生市社会福祉協議会","province":"東京都","city":"福生市","address":"福生市南田園2-13-1福生市福祉センター内","lat":35.72799,"lon":139.33234},{"name":"福生市熊川児童館","province":"東京都","city":"福生市","address":"福生市熊川1143-1","lat":35.72989,"lon":139.3411},{"name":"福生武蔵野台浄水所","province":"東京都","city":"福生市","address":"東京都福生市武蔵野台2丁目32","lat":35.75162088,"lon":139.329215},{"name":"＊?福生市公民館","province":"東京都","city":"福生市","address":"福生市福生2455","lat":35.733906,"lon":139.337829},{"name":"＊?福生市公民館松林分館","province":"東京都","city":"福生市","address":"福生市武蔵野台1-15-1","lat":35.746445,"lon":139.332546},{"name":"＊?福生市公民館白梅分館","province":"東京都","city":"福生市","address":"福生市熊川559-1","lat":35.724133,"lon":139.337724},{"name":"＊?福生市郷土資料室","province":"東京都","city":"福生市","address":"福生市熊川850-1","lat":35.732073,"lon":139.337586},{"name":"＊?福生市立わかたけ図書館","province":"東京都","city":"福生市","address":"福生市熊川199-1","lat":35.718119,"lon":139.335002},{"name":"＊?福生市立わかぎり図書館","province":"東京都","city":"福生市","address":"福生市福生1280-1","lat":35.746199,"lon":139.320912},{"name":"＊?福生市立中央図書館","province":"東京都","city":"福生市","address":"福生市熊川850-1","lat":35.732073,"lon":139.337586},{"name":"＊?福生市立武蔵野台図書館","province":"東京都","city":"福生市","address":"福生市武蔵野台1-12-2","lat":35.746833,"lon":139.333943},{"name":"福生市本庁舎","province":"東京都","city":"福生市","address":"福生市本町5","lat":35.738484,"lon":139.326868},{"name":"航空自衛隊横田基地","province":"東京都","city":"福生市","address":"福生市大字福生2552","lat":35.74337,"lon":139.3305},{"name":"福生警察署","province":"東京都","city":"福生市","address":"福生市加美平3-25","lat":35.74889,"lon":139.3206},{"name":"福生消防署","province":"東京都","city":"福生市","address":"福生市福生1072","lat":35.74401,"lon":139.3245},{"name":"加美平野球場","province":"東京都","city":"福生市","address":"福生市加美平1-21","lat":35.75075,"lon":139.3272},{"name":"福生市熊川児童館","province":"東京都","city":"福生市","address":"福生市熊川1143-1","lat":35.730213,"lon":139.341137},{"name":"福生市田園児童館","province":"東京都","city":"福生市","address":"福生市南田園3-6-1","lat":35.730087,"lon":139.331124},{"name":"福生市武蔵野台児童館","province":"東京都","city":"福生市","address":"福生市武蔵野台1-12-2","lat":35.746808,"lon":139.333945},{"name":"福生市社会福祉協議会","province":"東京都","city":"福生市","address":"福生市南田園2-13-1福生市福祉センター内","lat":35.727485,"lon":139.332271},{"name":"熊川神社本殿","province":"東京都","city":"福生市","address":"東京都福生市熊川660","lat":35.723658,"lon":139.333882},{"name":"中央図書館","province":"東京都","city":"福生市","address":"東京都福生市熊川（大字）850-1","lat":35.73186235,"lon":139.3376679},{"name":"武蔵野台図書館","province":"東京都","city":"福生市","address":"東京都福生市武蔵野台1丁目12-2","lat":35.74680769,"lon":139.33394539},{"name":"わかたけ図書館","province":"東京都","city":"福生市","address":"東京都福生市熊川（大字）199-1","lat":35.7181112,"lon":139.33499907},{"name":"わかぎり図書館","province":"東京都","city":"福生市","address":"東京都福生市福生（大字）1280-1","lat":35.74619349,"lon":139.32083528},{"name":"福東グランド","province":"東京都","city":"福生市","address":"東京都福生市熊川（大字）1608","lat":35.72289427,"lon":139.35088939},{"name":"福東球技場","province":"東京都","city":"福生市","address":"東京都福生市熊川（大字）1608","lat":35.72289427,"lon":139.35088939},{"name":"熊川地域体育館","province":"東京都","city":"福生市","address":"東京都福生市熊川（大字）380-7","lat":35.72062204,"lon":139.33699606},{"name":"多摩川中央公園グランド","province":"東京都","city":"福生市","address":"東京都福生市北田園1丁目","lat":35.7320676,"lon":139.32653537},{"name":"中央体育館","province":"東京都","city":"福生市","address":"東京都福生市北田園2丁目9-1","lat":35.73451441,"lon":139.32237447},{"name":"福生市営プール","province":"東京都","city":"福生市","address":"東京都福生市北田園2丁目8-4","lat":35.73426998,"lon":139.32165231},{"name":"福生地域体育館","province":"東京都","city":"福生市","address":"東京都福生市武蔵野台1丁目8-7","lat":35.74622721,"lon":139.33415374},{"name":"福生市熊川児童館","province":"東京都","city":"福生市","address":"福生市熊川1143-1","lat":35.72989,"lon":139.34109},{"name":"福生市田園児童館","province":"東京都","city":"福生市","address":"福生市南田園3-6-1","lat":35.73012,"lon":139.33104},{"name":"福生市武蔵野台児童館","province":"東京都","city":"福生市","address":"福生市武蔵野台1-12-2","lat":35.74699,"lon":139.33395},{"name":"福生市社会福祉協議会","province":"東京都","city":"福生市","address":"福生市南田園2-13-1福生市福祉センター内","lat":35.72799,"lon":139.33234},{"name":"福生市熊川児童館","province":"東京都","city":"福生市","address":"福生市熊川1143-1","lat":35.72989,"lon":139.3411},{"name":"＊?福生市公民館","province":"東京都","city":"福生市","address":"福生市福生2455","lat":35.733906,"lon":139.337829},{"name":"＊?福生市公民館松林分館","province":"東京都","city":"福生市","address":"福生市武蔵野台1-15-1","lat":35.746445,"lon":139.332546},{"name":"＊?福生市公民館白梅分館","province":"東京都","city":"福生市","address":"福生市熊川559-1","lat":35.724133,"lon":139.337724},{"name":"＊?福生市郷土資料室","province":"東京都","city":"福生市","address":"福生市熊川850-1","lat":35.732073,"lon":139.337586},{"name":"＊?福生市立わかたけ図書館","province":"東京都","city":"福生市","address":"福生市熊川199-1","lat":35.718119,"lon":139.335002},{"name":"＊?福生市立わかぎり図書館","province":"東京都","city":"福生市","address":"福生市福生1280-1","lat":35.746199,"lon":139.320912},{"name":"＊?福生市立中央図書館","province":"東京都","city":"福生市","address":"福生市熊川850-1","lat":35.732073,"lon":139.337586},{"name":"＊?福生市立武蔵野台図書館","province":"東京都","city":"福生市","address":"福生市武蔵野台1-12-2","lat":35.746833,"lon":139.333943},{"name":"福生市熊川児童館","province":"東京都","city":"福生市","address":"福生市熊川1143-1","lat":35.730213,"lon":139.341137},{"name":"福生市田園児童館","province":"東京都","city":"福生市","address":"福生市南田園3-6-1","lat":35.730087,"lon":139.331124},{"name":"福生市武蔵野台児童館","province":"東京都","city":"福生市","address":"福生市武蔵野台1-12-2","lat":35.746808,"lon":139.333945},{"name":"福生市社会福祉協議会","province":"東京都","city":"福生市","address":"福生市南田園2-13-1福生市福祉センター内","lat":35.727485,"lon":139.332271},{"name":"熊川神社本殿","province":"東京都","city":"福生市","address":"東京都福生市熊川660","lat":35.723658,"lon":139.333882},{"name":"中央図書館","province":"東京都","city":"福生市","address":"東京都福生市熊川（大字）850-1","lat":35.73186235,"lon":139.3376679},{"name":"武蔵野台図書館","province":"東京都","city":"福生市","address":"東京都福生市武蔵野台1丁目12-2","lat":35.74680769,"lon":139.33394539},{"name":"わかたけ図書館","province":"東京都","city":"福生市","address":"東京都福生市熊川（大字）199-1","lat":35.7181112,"lon":139.33499907},{"name":"わかぎり図書館","province":"東京都","city":"福生市","address":"東京都福生市福生（大字）1280-1","lat":35.74619349,"lon":139.32083528},{"name":"福東グランド","province":"東京都","city":"福生市","address":"東京都福生市熊川（大字）1608","lat":35.72289427,"lon":139.35088939},{"name":"福東球技場","province":"東京都","city":"福生市","address":"東京都福生市熊川（大字）1608","lat":35.72289427,"lon":139.35088939},{"name":"熊川地域体育館","province":"東京都","city":"福生市","address":"東京都福生市熊川（大字）380-7","lat":35.72062204,"lon":139.33699606},{"name":"多摩川中央公園グランド","province":"東京都","city":"福生市","address":"東京都福生市北田園1丁目","lat":35.7320676,"lon":139.32653537},{"name":"中央体育館","province":"東京都","city":"福生市","address":"東京都福生市北田園2丁目9-1","lat":35.73451441,"lon":139.32237447},{"name":"福生市営プール","province":"東京都","city":"福生市","address":"東京都福生市北田園2丁目8-4","lat":35.73426998,"lon":139.32165231},{"name":"福生地域体育館","province":"東京都","city":"福生市","address":"東京都福生市武蔵野台1丁目8-7","lat":35.74622721,"lon":139.33415374},{"name":"福生市熊川児童館","province":"東京都","city":"福生市","address":"福生市熊川1143-1","lat":35.72989,"lon":139.34109},{"name":"福生市田園児童館","province":"東京都","city":"福生市","address":"福生市南田園3-6-1","lat":35.73012,"lon":139.33104},{"name":"福生市武蔵野台児童館","province":"東京都","city":"福生市","address":"福生市武蔵野台1-12-2","lat":35.74699,"lon":139.33395},{"name":"福生市社会福祉協議会","province":"東京都","city":"福生市","address":"福生市南田園2-13-1福生市福祉センター内","lat":35.72799,"lon":139.33234},{"name":"福生市熊川児童館","province":"東京都","city":"福生市","address":"福生市熊川1143-1","lat":35.72989,"lon":139.3411},{"name":"＊?福生市公民館","province":"東京都","city":"福生市","address":"福生市福生2455","lat":35.733906,"lon":139.337829},{"name":"＊?福生市公民館松林分館","province":"東京都","city":"福生市","address":"福生市武蔵野台1-15-1","lat":35.746445,"lon":139.332546},{"name":"＊?福生市公民館白梅分館","province":"東京都","city":"福生市","address":"福生市熊川559-1","lat":35.724133,"lon":139.337724},{"name":"＊?福生市郷土資料室","province":"東京都","city":"福生市","address":"福生市熊川850-1","lat":35.732073,"lon":139.337586},{"name":"＊?福生市立わかたけ図書館","province":"東京都","city":"福生市","address":"福生市熊川199-1","lat":35.718119,"lon":139.335002},{"name":"＊?福生市立わかぎり図書館","province":"東京都","city":"福生市","address":"福生市福生1280-1","lat":35.746199,"lon":139.320912},{"name":"＊?福生市立中央図書館","province":"東京都","city":"福生市","address":"福生市熊川850-1","lat":35.732073,"lon":139.337586},{"name":"＊?福生市立武蔵野台図書館","province":"東京都","city":"福生市","address":"福生市武蔵野台1-12-2","lat":35.746833,"lon":139.333943},{"name":"福生市熊川児童館","province":"東京都","city":"福生市","address":"福生市熊川1143-1","lat":35.730213,"lon":139.341137},{"name":"福生市田園児童館","province":"東京都","city":"福生市","address":"福生市南田園3-6-1","lat":35.730087,"lon":139.331124},{"name":"福生市武蔵野台児童館","province":"東京都","city":"福生市","address":"福生市武蔵野台1-12-2","lat":35.746808,"lon":139.333945},{"name":"熊川神社本殿","province":"東京都","city":"福生市","address":"東京都福生市熊川660","lat":35.723658,"lon":139.333882},{"name":"中央図書館","province":"東京都","city":"福生市","address":"東京都福生市熊川（大字）850-1","lat":35.73186235,"lon":139.3376679},{"name":"武蔵野台図書館","province":"東京都","city":"福生市","address":"東京都福生市武蔵野台1丁目12-2","lat":35.74680769,"lon":139.33394539},{"name":"わかたけ図書館","province":"東京都","city":"福生市","address":"東京都福生市熊川（大字）199-1","lat":35.7181112,"lon":139.33499907},{"name":"わかぎり図書館","province":"東京都","city":"福生市","address":"東京都福生市福生（大字）1280-1","lat":35.74619349,"lon":139.32083528},{"name":"福東グランド","province":"東京都","city":"福生市","address":"東京都福生市熊川（大字）1608","lat":35.72289427,"lon":139.35088939},{"name":"福東球技場","province":"東京都","city":"福生市","address":"東京都福生市熊川（大字）1608","lat":35.72289427,"lon":139.35088939},{"name":"熊川地域体育館","province":"東京都","city":"福生市","address":"東京都福生市熊川（大字）380-7","lat":35.72062204,"lon":139.33699606},{"name":"多摩川中央公園グランド","province":"東京都","city":"福生市","address":"東京都福生市北田園1丁目","lat":35.7320676,"lon":139.32653537},{"name":"中央体育館","province":"東京都","city":"福生市","address":"東京都福生市北田園2丁目9-1","lat":35.73451441,"lon":139.32237447},{"name":"福生市営プール","province":"東京都","city":"福生市","address":"東京都福生市北田園2丁目8-4","lat":35.73426998,"lon":139.32165231},{"name":"福生地域体育館","province":"東京都","city":"福生市","address":"東京都福生市武蔵野台1丁目8-7","lat":35.74622721,"lon":139.33415374},{"name":"福生市熊川児童館","province":"東京都","city":"福生市","address":"福生市熊川1143-1","lat":35.72989,"lon":139.34109},{"name":"福生市田園児童館","province":"東京都","city":"福生市","address":"福生市南田園3-6-1","lat":35.73012,"lon":139.33104},{"name":"福生市武蔵野台児童館","province":"東京都","city":"福生市","address":"福生市武蔵野台1-12-2","lat":35.74699,"lon":139.33395},{"name":"福生市熊川児童館","province":"東京都","city":"福生市","address":"福生市熊川1143-1","lat":35.72989,"lon":139.3411},{"name":"＊?福生市公民館","province":"東京都","city":"福生市","address":"福生市福生2455","lat":35.733906,"lon":139.337829},{"name":"＊?福生市公民館松林分館","province":"東京都","city":"福生市","address":"福生市武蔵野台1-15-1","lat":35.746445,"lon":139.332546},{"name":"＊?福生市公民館白梅分館","province":"東京都","city":"福生市","address":"福生市熊川559-1","lat":35.724133,"lon":139.337724},{"name":"＊?福生市郷土資料室","province":"東京都","city":"福生市","address":"福生市熊川850-1","lat":35.732073,"lon":139.337586},{"name":"＊?福生市立わかたけ図書館","province":"東京都","city":"福生市","address":"福生市熊川199-1","lat":35.718119,"lon":139.335002},{"name":"＊?福生市立わかぎり図書館","province":"東京都","city":"福生市","address":"福生市福生1280-1","lat":35.746199,"lon":139.320912},{"name":"＊?福生市立中央図書館","province":"東京都","city":"福生市","address":"福生市熊川850-1","lat":35.732073,"lon":139.337586},{"name":"＊?福生市立武蔵野台図書館","province":"東京都","city":"福生市","address":"福生市武蔵野台1-12-2","lat":35.746833,"lon":139.333943},{"name":"福生市熊川児童館","province":"東京都","city":"福生市","address":"福生市熊川1143-1","lat":35.730213,"lon":139.341137},{"name":"福生市田園児童館","province":"東京都","city":"福生市","address":"福生市南田園3-6-1","lat":35.730087,"lon":139.331124},{"name":"福生市武蔵野台児童館","province":"東京都","city":"福生市","address":"福生市武蔵野台1-12-2","lat":35.746808,"lon":139.333945},{"name":"熊川神社本殿","province":"東京都","city":"福生市","address":"東京都福生市熊川660","lat":35.723658,"lon":139.333882},{"name":"中央図書館","province":"東京都","city":"福生市","address":"東京都福生市熊川（大字）850-1","lat":35.73186235,"lon":139.3376679},{"name":"武蔵野台図書館","province":"東京都","city":"福生市","address":"東京都福生市武蔵野台1丁目12-2","lat":35.74680769,"lon":139.33394539},{"name":"わかたけ図書館","province":"東京都","city":"福生市","address":"東京都福生市熊川（大字）199-1","lat":35.7181112,"lon":139.33499907},{"name":"わかぎり図書館","province":"東京都","city":"福生市","address":"東京都福生市福生（大字）1280-1","lat":35.74619349,"lon":139.32083528},{"name":"福東グランド","province":"東京都","city":"福生市","address":"東京都福生市熊川（大字）1608","lat":35.72289427,"lon":139.35088939},{"name":"福東球技場","province":"東京都","city":"福生市","address":"東京都福生市熊川（大字）1608","lat":35.72289427,"lon":139.35088939},{"name":"熊川地域体育館","province":"東京都","city":"福生市","address":"東京都福生市熊川（大字）380-7","lat":35.72062204,"lon":139.33699606},{"name":"多摩川中央公園グランド","province":"東京都","city":"福生市","address":"東京都福生市北田園1丁目","lat":35.7320676,"lon":139.32653537},{"name":"中央体育館","province":"東京都","city":"福生市","address":"東京都福生市北田園2丁目9-1","lat":35.73451441,"lon":139.32237447},{"name":"福生市営プール","province":"東京都","city":"福生市","address":"東京都福生市北田園2丁目8-4","lat":35.73426998,"lon":139.32165231},{"name":"福生地域体育館","province":"東京都","city":"福生市","address":"東京都福生市武蔵野台1丁目8-7","lat":35.74622721,"lon":139.33415374},{"name":"福生市熊川児童館","province":"東京都","city":"福生市","address":"福生市熊川1143-1","lat":35.72989,"lon":139.34109},{"name":"福生市田園児童館","province":"東京都","city":"福生市","address":"福生市南田園3-6-1","lat":35.73012,"lon":139.33104},{"name":"福生市武蔵野台児童館","province":"東京都","city":"福生市","address":"福生市武蔵野台1-12-2","lat":35.74699,"lon":139.33395},{"name":"福生市熊川児童館","province":"東京都","city":"福生市","address":"福生市熊川1143-1","lat":35.72989,"lon":139.3411},{"name":"＊?福生市公民館","province":"東京都","city":"福生市","address":"福生市福生2455","lat":35.733906,"lon":139.337829},{"name":"＊?福生市公民館松林分館","province":"東京都","city":"福生市","address":"福生市武蔵野台1-15-1","lat":35.746445,"lon":139.332546},{"name":"＊?福生市公民館白梅分館","province":"東京都","city":"福生市","address":"福生市熊川559-1","lat":35.724133,"lon":139.337724},{"name":"＊?福生市郷土資料室","province":"東京都","city":"福生市","address":"福生市熊川850-1","lat":35.732073,"lon":139.337586},{"name":"＊?福生市立わかたけ図書館","province":"東京都","city":"福生市","address":"福生市熊川199-1","lat":35.718119,"lon":139.335002},{"name":"＊?福生市立わかぎり図書館","province":"東京都","city":"福生市","address":"福生市福生1280-1","lat":35.746199,"lon":139.320912},{"name":"＊?福生市立中央図書館","province":"東京都","city":"福生市","address":"福生市熊川850-1","lat":35.732073,"lon":139.337586},{"name":"＊?福生市立武蔵野台図書館","province":"東京都","city":"福生市","address":"福生市武蔵野台1-12-2","lat":35.746833,"lon":139.333943},{"name":"福生市熊川児童館","province":"東京都","city":"福生市","address":"福生市熊川1143-1","lat":35.730213,"lon":139.341137},{"name":"福生市田園児童館","province":"東京都","city":"福生市","address":"福生市南田園3-6-1","lat":35.730087,"lon":139.331124},{"name":"福生市武蔵野台児童館","province":"東京都","city":"福生市","address":"福生市武蔵野台1-12-2","lat":35.746808,"lon":139.333945},{"name":"熊川神社本殿","province":"東京都","city":"福生市","address":"東京都福生市熊川660","lat":35.723658,"lon":139.333882},{"name":"中央図書館","province":"東京都","city":"福生市","address":"東京都福生市熊川（大字）850-1","lat":35.73186235,"lon":139.3376679},{"name":"武蔵野台図書館","province":"東京都","city":"福生市","address":"東京都福生市武蔵野台1丁目12-2","lat":35.74680769,"lon":139.33394539},{"name":"わかたけ図書館","province":"東京都","city":"福生市","address":"東京都福生市熊川（大字）199-1","lat":35.7181112,"lon":139.33499907},{"name":"わかぎり図書館","province":"東京都","city":"福生市","address":"東京都福生市福生（大字）1280-1","lat":35.74619349,"lon":139.32083528},{"name":"福東グランド","province":"東京都","city":"福生市","address":"東京都福生市熊川（大字）1608","lat":35.72289427,"lon":139.35088939},{"name":"福東球技場","province":"東京都","city":"福生市","address":"東京都福生市熊川（大字）1608","lat":35.72289427,"lon":139.35088939},{"name":"熊川地域体育館","province":"東京都","city":"福生市","address":"東京都福生市熊川（大字）380-7","lat":35.72062204,"lon":139.33699606},{"name":"多摩川中央公園グランド","province":"東京都","city":"福生市","address":"東京都福生市北田園1丁目","lat":35.7320676,"lon":139.32653537},{"name":"中央体育館","province":"東京都","city":"福生市","address":"東京都福生市北田園2丁目9-1","lat":35.73451441,"lon":139.32237447},{"name":"福生市営プール","province":"東京都","city":"福生市","address":"東京都福生市北田園2丁目8-4","lat":35.73426998,"lon":139.32165231},{"name":"福生地域体育館","province":"東京都","city":"福生市","address":"東京都福生市武蔵野台1丁目8-7","lat":35.74622721,"lon":139.33415374},{"name":"福生市熊川児童館","province":"東京都","city":"福生市","address":"福生市熊川1143-1","lat":35.72989,"lon":139.34109},{"name":"福生市田園児童館","province":"東京都","city":"福生市","address":"福生市南田園3-6-1","lat":35.73012,"lon":139.33104},{"name":"福生市武蔵野台児童館","province":"東京都","city":"福生市","address":"福生市武蔵野台1-12-2","lat":35.74699,"lon":139.33395},{"name":"福生市熊川児童館","province":"東京都","city":"福生市","address":"福生市熊川1143-1","lat":35.72989,"lon":139.3411},{"name":"＊?福生市公民館","province":"東京都","city":"福生市","address":"福生市福生2455","lat":35.733906,"lon":139.337829},{"name":"＊?福生市公民館松林分館","province":"東京都","city":"福生市","address":"福生市武蔵野台1-15-1","lat":35.746445,"lon":139.332546},{"name":"＊?福生市公民館白梅分館","province":"東京都","city":"福生市","address":"福生市熊川559-1","lat":35.724133,"lon":139.337724},{"name":"＊?福生市郷土資料室","province":"東京都","city":"福生市","address":"福生市熊川850-1","lat":35.732073,"lon":139.337586},{"name":"＊?福生市立わかたけ図書館","province":"東京都","city":"福生市","address":"福生市熊川199-1","lat":35.718119,"lon":139.335002},{"name":"＊?福生市立わかぎり図書館","province":"東京都","city":"福生市","address":"福生市福生1280-1","lat":35.746199,"lon":139.320912},{"name":"＊?福生市立中央図書館","province":"東京都","city":"福生市","address":"福生市熊川850-1","lat":35.732073,"lon":139.337586},{"name":"＊?福生市立武蔵野台図書館","province":"東京都","city":"福生市","address":"福生市武蔵野台1-12-2","lat":35.746833,"lon":139.333943},{"name":"福生市熊川児童館","province":"東京都","city":"福生市","address":"福生市熊川1143-1","lat":35.730213,"lon":139.341137},{"name":"福生市田園児童館","province":"東京都","city":"福生市","address":"福生市南田園3-6-1","lat":35.730087,"lon":139.331124},{"name":"福生市武蔵野台児童館","province":"東京都","city":"福生市","address":"福生市武蔵野台1-12-2","lat":35.746808,"lon":139.333945},{"name":"熊川神社本殿","province":"東京都","city":"福生市","address":"東京都福生市熊川660","lat":35.723658,"lon":139.333882},{"name":"中央図書館","province":"東京都","city":"福生市","address":"東京都福生市熊川（大字）850-1","lat":35.73186235,"lon":139.3376679},{"name":"武蔵野台図書館","province":"東京都","city":"福生市","address":"東京都福生市武蔵野台1丁目12-2","lat":35.74680769,"lon":139.33394539},{"name":"わかたけ図書館","province":"東京都","city":"福生市","address":"東京都福生市熊川（大字）199-1","lat":35.7181112,"lon":139.33499907},{"name":"わかぎり図書館","province":"東京都","city":"福生市","address":"東京都福生市福生（大字）1280-1","lat":35.74619349,"lon":139.32083528},{"name":"福東グランド","province":"東京都","city":"福生市","address":"東京都福生市熊川（大字）1608","lat":35.72289427,"lon":139.35088939},{"name":"福東球技場","province":"東京都","city":"福生市","address":"東京都福生市熊川（大字）1608","lat":35.72289427,"lon":139.35088939},{"name":"熊川地域体育館","province":"東京都","city":"福生市","address":"東京都福生市熊川（大字）380-7","lat":35.72062204,"lon":139.33699606},{"name":"多摩川中央公園グランド","province":"東京都","city":"福生市","address":"東京都福生市北田園1丁目","lat":35.7320676,"lon":139.32653537},{"name":"中央体育館","province":"東京都","city":"福生市","address":"東京都福生市北田園2丁目9-1","lat":35.73451441,"lon":139.32237447},{"name":"福生市営プール","province":"東京都","city":"福生市","address":"東京都福生市北田園2丁目8-4","lat":35.73426998,"lon":139.32165231},{"name":"福生地域体育館","province":"東京都","city":"福生市","address":"東京都福生市武蔵野台1丁目8-7","lat":35.74622721,"lon":139.33415374},{"name":"福生市熊川児童館","province":"東京都","city":"福生市","address":"福生市熊川1143-1","lat":35.72989,"lon":139.34109},{"name":"福生市田園児童館","province":"東京都","city":"福生市","address":"福生市南田園3-6-1","lat":35.73012,"lon":139.33104},{"name":"福生市武蔵野台児童館","province":"東京都","city":"福生市","address":"福生市武蔵野台1-12-2","lat":35.74699,"lon":139.33395},{"name":"福生市熊川児童館","province":"東京都","city":"福生市","address":"福生市熊川1143-1","lat":35.72989,"lon":139.3411},{"name":"＊?福生市郷土資料室","province":"東京都","city":"福生市","address":"福生市熊川850-1","lat":35.732073,"lon":139.337586},{"name":"＊?福生市立わかたけ図書館","province":"東京都","city":"福生市","address":"福生市熊川199-1","lat":35.718119,"lon":139.335002},{"name":"＊?福生市立わかぎり図書館","province":"東京都","city":"福生市","address":"福生市福生1280-1","lat":35.746199,"lon":139.320912},{"name":"＊?福生市立中央図書館","province":"東京都","city":"福生市","address":"福生市熊川850-1","lat":35.732073,"lon":139.337586},{"name":"＊?福生市立武蔵野台図書館","province":"東京都","city":"福生市","address":"福生市武蔵野台1-12-2","lat":35.746833,"lon":139.333943},{"name":"福生市熊川児童館","province":"東京都","city":"福生市","address":"福生市熊川1143-1","lat":35.730213,"lon":139.341137},{"name":"福生市田園児童館","province":"東京都","city":"福生市","address":"福生市南田園3-6-1","lat":35.730087,"lon":139.331124},{"name":"福生市武蔵野台児童館","province":"東京都","city":"福生市","address":"福生市武蔵野台1-12-2","lat":35.746808,"lon":139.333945},{"name":"熊川神社本殿","province":"東京都","city":"福生市","address":"東京都福生市熊川660","lat":35.723658,"lon":139.333882},{"name":"中央図書館","province":"東京都","city":"福生市","address":"東京都福生市熊川（大字）850-1","lat":35.73186235,"lon":139.3376679},{"name":"武蔵野台図書館","province":"東京都","city":"福生市","address":"東京都福生市武蔵野台1丁目12-2","lat":35.74680769,"lon":139.33394539},{"name":"わかたけ図書館","province":"東京都","city":"福生市","address":"東京都福生市熊川（大字）199-1","lat":35.7181112,"lon":139.33499907},{"name":"わかぎり図書館","province":"東京都","city":"福生市","address":"東京都福生市福生（大字）1280-1","lat":35.74619349,"lon":139.32083528},{"name":"福東グランド","province":"東京都","city":"福生市","address":"東京都福生市熊川（大字）1608","lat":35.72289427,"lon":139.35088939},{"name":"福東球技場","province":"東京都","city":"福生市","address":"東京都福生市熊川（大字）1608","lat":35.72289427,"lon":139.35088939},{"name":"熊川地域体育館","province":"東京都","city":"福生市","address":"東京都福生市熊川（大字）380-7","lat":35.72062204,"lon":139.33699606},{"name":"多摩川中央公園グランド","province":"東京都","city":"福生市","address":"東京都福生市北田園1丁目","lat":35.7320676,"lon":139.32653537},{"name":"中央体育館","province":"東京都","city":"福生市","address":"東京都福生市北田園2丁目9-1","lat":35.73451441,"lon":139.32237447},{"name":"福生市営プール","province":"東京都","city":"福生市","address":"東京都福生市北田園2丁目8-4","lat":35.73426998,"lon":139.32165231},{"name":"福生地域体育館","province":"東京都","city":"福生市","address":"東京都福生市武蔵野台1丁目8-7","lat":35.74622721,"lon":139.33415374},{"name":"福生市熊川児童館","province":"東京都","city":"福生市","address":"福生市熊川1143-1","lat":35.72989,"lon":139.34109},{"name":"福生市田園児童館","province":"東京都","city":"福生市","address":"福生市南田園3-6-1","lat":35.73012,"lon":139.33104},{"name":"福生市武蔵野台児童館","province":"東京都","city":"福生市","address":"福生市武蔵野台1-12-2","lat":35.74699,"lon":139.33395},{"name":"福生市熊川児童館","province":"東京都","city":"福生市","address":"福生市熊川1143-1","lat":35.72989,"lon":139.3411},{"name":"＊?福生市郷土資料室","province":"東京都","city":"福生市","address":"福生市熊川850-1","lat":35.732073,"lon":139.337586},{"name":"＊?福生市立わかたけ図書館","province":"東京都","city":"福生市","address":"福生市熊川199-1","lat":35.718119,"lon":139.335002},{"name":"＊?福生市立わかぎり図書館","province":"東京都","city":"福生市","address":"福生市福生1280-1","lat":35.746199,"lon":139.320912},{"name":"＊?福生市立中央図書館","province":"東京都","city":"福生市","address":"福生市熊川850-1","lat":35.732073,"lon":139.337586},{"name":"＊?福生市立武蔵野台図書館","province":"東京都","city":"福生市","address":"福生市武蔵野台1-12-2","lat":35.746833,"lon":139.333943},{"name":"福生市熊川児童館","province":"東京都","city":"福生市","address":"福生市熊川1143-1","lat":35.730213,"lon":139.341137},{"name":"福生市田園児童館","province":"東京都","city":"福生市","address":"福生市南田園3-6-1","lat":35.730087,"lon":139.331124},{"name":"福生市武蔵野台児童館","province":"東京都","city":"福生市","address":"福生市武蔵野台1-12-2","lat":35.746808,"lon":139.333945},{"name":"熊川神社本殿","province":"東京都","city":"福生市","address":"東京都福生市熊川660","lat":35.723658,"lon":139.333882},{"name":"中央図書館","province":"東京都","city":"福生市","address":"東京都福生市熊川（大字）850-1","lat":35.73186235,"lon":139.3376679},{"name":"武蔵野台図書館","province":"東京都","city":"福生市","address":"東京都福生市武蔵野台1丁目12-2","lat":35.74680769,"lon":139.33394539},{"name":"わかたけ図書館","province":"東京都","city":"福生市","address":"東京都福生市熊川（大字）199-1","lat":35.7181112,"lon":139.33499907},{"name":"わかぎり図書館","province":"東京都","city":"福生市","address":"東京都福生市福生（大字）1280-1","lat":35.74619349,"lon":139.32083528},{"name":"福東グランド","province":"東京都","city":"福生市","address":"東京都福生市熊川（大字）1608","lat":35.72289427,"lon":139.35088939},{"name":"福東球技場","province":"東京都","city":"福生市","address":"東京都福生市熊川（大字）1608","lat":35.72289427,"lon":139.35088939},{"name":"熊川地域体育館","province":"東京都","city":"福生市","address":"東京都福生市熊川（大字）380-7","lat":35.72062204,"lon":139.33699606},{"name":"多摩川中央公園グランド","province":"東京都","city":"福生市","address":"東京都福生市北田園1丁目","lat":35.7320676,"lon":139.32653537},{"name":"中央体育館","province":"東京都","city":"福生市","address":"東京都福生市北田園2丁目9-1","lat":35.73451441,"lon":139.32237447},{"name":"福生市営プール","province":"東京都","city":"福生市","address":"東京都福生市北田園2丁目8-4","lat":35.73426998,"lon":139.32165231},{"name":"福生地域体育館","province":"東京都","city":"福生市","address":"東京都福生市武蔵野台1丁目8-7","lat":35.74622721,"lon":139.33415374},{"name":"福生市熊川児童館","province":"東京都","city":"福生市","address":"福生市熊川1143-1","lat":35.72989,"lon":139.34109},{"name":"福生市田園児童館","province":"東京都","city":"福生市","address":"福生市南田園3-6-1","lat":35.73012,"lon":139.33104},{"name":"福生市武蔵野台児童館","province":"東京都","city":"福生市","address":"福生市武蔵野台1-12-2","lat":35.74699,"lon":139.33395},{"name":"福生市熊川児童館","province":"東京都","city":"福生市","address":"福生市熊川1143-1","lat":35.72989,"lon":139.3411},{"name":"＊?福生市立わかたけ図書館","province":"東京都","city":"福生市","address":"福生市熊川199-1","lat":35.718119,"lon":139.335002},{"name":"＊?福生市立わかぎり図書館","province":"東京都","city":"福生市","address":"福生市福生1280-1","lat":35.746199,"lon":139.320912},{"name":"＊?福生市立中央図書館","province":"東京都","city":"福生市","address":"福生市熊川850-1","lat":35.732073,"lon":139.337586},{"name":"＊?福生市立武蔵野台図書館","province":"東京都","city":"福生市","address":"福生市武蔵野台1-12-2","lat":35.746833,"lon":139.333943},{"name":"福生市熊川児童館","province":"東京都","city":"福生市","address":"福生市熊川1143-1","lat":35.730213,"lon":139.341137},{"name":"福生市田園児童館","province":"東京都","city":"福生市","address":"福生市南田園3-6-1","lat":35.730087,"lon":139.331124},{"name":"福生市武蔵野台児童館","province":"東京都","city":"福生市","address":"福生市武蔵野台1-12-2","lat":35.746808,"lon":139.333945},{"name":"熊川神社本殿","province":"東京都","city":"福生市","address":"東京都福生市熊川660","lat":35.723658,"lon":139.333882},{"name":"中央図書館","province":"東京都","city":"福生市","address":"東京都福生市熊川（大字）850-1","lat":35.73186235,"lon":139.3376679},{"name":"武蔵野台図書館","province":"東京都","city":"福生市","address":"東京都福生市武蔵野台1丁目12-2","lat":35.74680769,"lon":139.33394539},{"name":"わかたけ図書館","province":"東京都","city":"福生市","address":"東京都福生市熊川（大字）199-1","lat":35.7181112,"lon":139.33499907},{"name":"わかぎり図書館","province":"東京都","city":"福生市","address":"東京都福生市福生（大字）1280-1","lat":35.74619349,"lon":139.32083528},{"name":"福東グランド","province":"東京都","city":"福生市","address":"東京都福生市熊川（大字）1608","lat":35.72289427,"lon":139.35088939},{"name":"福東球技場","province":"東京都","city":"福生市","address":"東京都福生市熊川（大字）1608","lat":35.72289427,"lon":139.35088939},{"name":"熊川地域体育館","province":"東京都","city":"福生市","address":"東京都福生市熊川（大字）380-7","lat":35.72062204,"lon":139.33699606},{"name":"多摩川中央公園グランド","province":"東京都","city":"福生市","address":"東京都福生市北田園1丁目","lat":35.7320676,"lon":139.32653537},{"name":"中央体育館","province":"東京都","city":"福生市","address":"東京都福生市北田園2丁目9-1","lat":35.73451441,"lon":139.32237447},{"name":"福生市営プール","province":"東京都","city":"福生市","address":"東京都福生市北田園2丁目8-4","lat":35.73426998,"lon":139.32165231},{"name":"福生地域体育館","province":"東京都","city":"福生市","address":"東京都福生市武蔵野台1丁目8-7","lat":35.74622721,"lon":139.33415374},{"name":"福生市熊川児童館","province":"東京都","city":"福生市","address":"福生市熊川1143-1","lat":35.72989,"lon":139.34109},{"name":"福生市田園児童館","province":"東京都","city":"福生市","address":"福生市南田園3-6-1","lat":35.73012,"lon":139.33104},{"name":"福生市武蔵野台児童館","province":"東京都","city":"福生市","address":"福生市武蔵野台1-12-2","lat":35.74699,"lon":139.33395},{"name":"福生市熊川児童館","province":"東京都","city":"福生市","address":"福生市熊川1143-1","lat":35.72989,"lon":139.3411},{"name":"＊?福生市立わかたけ図書館","province":"東京都","city":"福生市","address":"福生市熊川199-1","lat":35.718119,"lon":139.335002},{"name":"＊?福生市立わかぎり図書館","province":"東京都","city":"福生市","address":"福生市福生1280-1","lat":35.746199,"lon":139.320912},{"name":"＊?福生市立中央図書館","province":"東京都","city":"福生市","address":"福生市熊川850-1","lat":35.732073,"lon":139.337586},{"name":"＊?福生市立武蔵野台図書館","province":"東京都","city":"福生市","address":"福生市武蔵野台1-12-2","lat":35.746833,"lon":139.333943},{"name":"福生市熊川児童館","province":"東京都","city":"福生市","address":"福生市熊川1143-1","lat":35.730213,"lon":139.341137},{"name":"福生市田園児童館","province":"東京都","city":"福生市","address":"福生市南田園3-6-1","lat":35.730087,"lon":139.331124},{"name":"福生市武蔵野台児童館","province":"東京都","city":"福生市","address":"福生市武蔵野台1-12-2","lat":35.746808,"lon":139.333945},{"name":"熊川神社本殿","province":"東京都","city":"福生市","address":"東京都福生市熊川660","lat":35.723658,"lon":139.333882},{"name":"中央図書館","province":"東京都","city":"福生市","address":"東京都福生市熊川（大字）850-1","lat":35.73186235,"lon":139.3376679},{"name":"武蔵野台図書館","province":"東京都","city":"福生市","address":"東京都福生市武蔵野台1丁目12-2","lat":35.74680769,"lon":139.33394539},{"name":"わかたけ図書館","province":"東京都","city":"福生市","address":"東京都福生市熊川（大字）199-1","lat":35.7181112,"lon":139.33499907},{"name":"わかぎり図書館","province":"東京都","city":"福生市","address":"東京都福生市福生（大字）1280-1","lat":35.74619349,"lon":139.32083528},{"name":"福東グランド","province":"東京都","city":"福生市","address":"東京都福生市熊川（大字）1608","lat":35.72289427,"lon":139.35088939},{"name":"福東球技場","province":"東京都","city":"福生市","address":"東京都福生市熊川（大字）1608","lat":35.72289427,"lon":139.35088939},{"name":"熊川地域体育館","province":"東京都","city":"福生市","address":"東京都福生市熊川（大字）380-7","lat":35.72062204,"lon":139.33699606},{"name":"多摩川中央公園グランド","province":"東京都","city":"福生市","address":"東京都福生市北田園1丁目","lat":35.7320676,"lon":139.32653537},{"name":"中央体育館","province":"東京都","city":"福生市","address":"東京都福生市北田園2丁目9-1","lat":35.73451441,"lon":139.32237447},{"name":"福生市営プール","province":"東京都","city":"福生市","address":"東京都福生市北田園2丁目8-4","lat":35.73426998,"lon":139.32165231},{"name":"福生地域体育館","province":"東京都","city":"福生市","address":"東京都福生市武蔵野台1丁目8-7","lat":35.74622721,"lon":139.33415374},{"name":"福生市熊川児童館","province":"東京都","city":"福生市","address":"福生市熊川1143-1","lat":35.72989,"lon":139.34109},{"name":"福生市田園児童館","province":"東京都","city":"福生市","address":"福生市南田園3-6-1","lat":35.73012,"lon":139.33104},{"name":"福生市武蔵野台児童館","province":"東京都","city":"福生市","address":"福生市武蔵野台1-12-2","lat":35.74699,"lon":139.33395},{"name":"福生市熊川児童館","province":"東京都","city":"福生市","address":"福生市熊川1143-1","lat":35.72989,"lon":139.3411},{"name":"＊?福生市立わかたけ図書館","province":"東京都","city":"福生市","address":"福生市熊川199-1","lat":35.718119,"lon":139.335002},{"name":"＊?福生市立わかぎり図書館","province":"東京都","city":"福生市","address":"福生市福生1280-1","lat":35.746199,"lon":139.320912},{"name":"＊?福生市立中央図書館","province":"東京都","city":"福生市","address":"福生市熊川850-1","lat":35.732073,"lon":139.337586},{"name":"＊?福生市立武蔵野台図書館","province":"東京都","city":"福生市","address":"福生市武蔵野台1-12-2","lat":35.746833,"lon":139.333943},{"name":"福生市熊川児童館","province":"東京都","city":"福生市","address":"福生市熊川1143-1","lat":35.730213,"lon":139.341137},{"name":"福生市田園児童館","province":"東京都","city":"福生市","address":"福生市南田園3-6-1","lat":35.730087,"lon":139.331124},{"name":"福生市武蔵野台児童館","province":"東京都","city":"福生市","address":"福生市武蔵野台1-12-2","lat":35.746808,"lon":139.333945},{"name":"熊川神社本殿","province":"東京都","city":"福生市","address":"東京都福生市熊川660","lat":35.723658,"lon":139.333882},{"name":"中央図書館","province":"東京都","city":"福生市","address":"東京都福生市熊川（大字）850-1","lat":35.73186235,"lon":139.3376679},{"name":"武蔵野台図書館","province":"東京都","city":"福生市","address":"東京都福生市武蔵野台1丁目12-2","lat":35.74680769,"lon":139.33394539},{"name":"わかたけ図書館","province":"東京都","city":"福生市","address":"東京都福生市熊川（大字）199-1","lat":35.7181112,"lon":139.33499907},{"name":"わかぎり図書館","province":"東京都","city":"福生市","address":"東京都福生市福生（大字）1280-1","lat":35.74619349,"lon":139.32083528},{"name":"福東グランド","province":"東京都","city":"福生市","address":"東京都福生市熊川（大字）1608","lat":35.72289427,"lon":139.35088939},{"name":"福東球技場","province":"東京都","city":"福生市","address":"東京都福生市熊川（大字）1608","lat":35.72289427,"lon":139.35088939},{"name":"熊川地域体育館","province":"東京都","city":"福生市","address":"東京都福生市熊川（大字）380-7","lat":35.72062204,"lon":139.33699606},{"name":"多摩川中央公園グランド","province":"東京都","city":"福生市","address":"東京都福生市北田園1丁目","lat":35.7320676,"lon":139.32653537},{"name":"中央体育館","province":"東京都","city":"福生市","address":"東京都福生市北田園2丁目9-1","lat":35.73451441,"lon":139.32237447},{"name":"福生市営プール","province":"東京都","city":"福生市","address":"東京都福生市北田園2丁目8-4","lat":35.73426998,"lon":139.32165231},{"name":"福生地域体育館","province":"東京都","city":"福生市","address":"東京都福生市武蔵野台1丁目8-7","lat":35.74622721,"lon":139.33415374},{"name":"福生市熊川児童館","province":"東京都","city":"福生市","address":"福生市熊川1143-1","lat":35.72989,"lon":139.34109},{"name":"福生市田園児童館","province":"東京都","city":"福生市","address":"福生市南田園3-6-1","lat":35.73012,"lon":139.33104},{"name":"福生市武蔵野台児童館","province":"東京都","city":"福生市","address":"福生市武蔵野台1-12-2","lat":35.74699,"lon":139.33395},{"name":"福生市熊川児童館","province":"東京都","city":"福生市","address":"福生市熊川1143-1","lat":35.72989,"lon":139.3411},{"name":"＊?福生市立わかたけ図書館","province":"東京都","city":"福生市","address":"福生市熊川199-1","lat":35.718119,"lon":139.335002},{"name":"＊?福生市立わかぎり図書館","province":"東京都","city":"福生市","address":"福生市福生1280-1","lat":35.746199,"lon":139.320912},{"name":"＊?福生市立中央図書館","province":"東京都","city":"福生市","address":"福生市熊川850-1","lat":35.732073,"lon":139.337586},{"name":"＊?福生市立武蔵野台図書館","province":"東京都","city":"福生市","address":"福生市武蔵野台1-12-2","lat":35.746833,"lon":139.333943},{"name":"福生市熊川児童館","province":"東京都","city":"福生市","address":"福生市熊川1143-1","lat":35.730213,"lon":139.341137},{"name":"福生市田園児童館","province":"東京都","city":"福生市","address":"福生市南田園3-6-1","lat":35.730087,"lon":139.331124},{"name":"福生市武蔵野台児童館","province":"東京都","city":"福生市","address":"福生市武蔵野台1-12-2","lat":35.746808,"lon":139.333945},{"name":"熊川神社本殿","province":"東京都","city":"福生市","address":"東京都福生市熊川660","lat":35.723658,"lon":139.333882},{"name":"中央図書館","province":"東京都","city":"福生市","address":"東京都福生市熊川（大字）850-1","lat":35.73186235,"lon":139.3376679},{"name":"武蔵野台図書館","province":"東京都","city":"福生市","address":"東京都福生市武蔵野台1丁目12-2","lat":35.74680769,"lon":139.33394539},{"name":"わかたけ図書館","province":"東京都","city":"福生市","address":"東京都福生市熊川（大字）199-1","lat":35.7181112,"lon":139.33499907},{"name":"わかぎり図書館","province":"東京都","city":"福生市","address":"東京都福生市福生（大字）1280-1","lat":35.74619349,"lon":139.32083528},{"name":"福東グランド","province":"東京都","city":"福生市","address":"東京都福生市熊川（大字）1608","lat":35.72289427,"lon":139.35088939},{"name":"福東球技場","province":"東京都","city":"福生市","address":"東京都福生市熊川（大字）1608","lat":35.72289427,"lon":139.35088939},{"name":"熊川地域体育館","province":"東京都","city":"福生市","address":"東京都福生市熊川（大字）380-7","lat":35.72062204,"lon":139.33699606},{"name":"多摩川中央公園グランド","province":"東京都","city":"福生市","address":"東京都福生市北田園1丁目","lat":35.7320676,"lon":139.32653537},{"name":"中央体育館","province":"東京都","city":"福生市","address":"東京都福生市北田園2丁目9-1","lat":35.73451441,"lon":139.32237447},{"name":"福生市営プール","province":"東京都","city":"福生市","address":"東京都福生市北田園2丁目8-4","lat":35.73426998,"lon":139.32165231},{"name":"福生地域体育館","province":"東京都","city":"福生市","address":"東京都福生市武蔵野台1丁目8-7","lat":35.74622721,"lon":139.33415374},{"name":"福生市熊川児童館","province":"東京都","city":"福生市","address":"福生市熊川1143-1","lat":35.72989,"lon":139.34109},{"name":"福生市田園児童館","province":"東京都","city":"福生市","address":"福生市南田園3-6-1","lat":35.73012,"lon":139.33104},{"name":"福生市武蔵野台児童館","province":"東京都","city":"福生市","address":"福生市武蔵野台1-12-2","lat":35.74699,"lon":139.33395},{"name":"福生市熊川児童館","province":"東京都","city":"福生市","address":"福生市熊川1143-1","lat":35.72989,"lon":139.3411},{"name":"＊?福生市立わかたけ図書館","province":"東京都","city":"福生市","address":"福生市熊川199-1","lat":35.718119,"lon":139.335002},{"name":"＊?福生市立わかぎり図書館","province":"東京都","city":"福生市","address":"福生市福生1280-1","lat":35.746199,"lon":139.320912},{"name":"＊?福生市立中央図書館","province":"東京都","city":"福生市","address":"福生市熊川850-1","lat":35.732073,"lon":139.337586},{"name":"＊?福生市立武蔵野台図書館","province":"東京都","city":"福生市","address":"福生市武蔵野台1-12-2","lat":35.746833,"lon":139.333943},{"name":"福生市熊川児童館","province":"東京都","city":"福生市","address":"福生市熊川1143-1","lat":35.730213,"lon":139.341137},{"name":"福生市田園児童館","province":"東京都","city":"福生市","address":"福生市南田園3-6-1","lat":35.730087,"lon":139.331124},{"name":"福生市武蔵野台児童館","province":"東京都","city":"福生市","address":"福生市武蔵野台1-12-2","lat":35.746808,"lon":139.333945},{"name":"熊川神社本殿","province":"東京都","city":"福生市","address":"東京都福生市熊川660","lat":35.723658,"lon":139.333882},{"name":"中央図書館","province":"東京都","city":"福生市","address":"東京都福生市熊川（大字）850-1","lat":35.73186235,"lon":139.3376679},{"name":"武蔵野台図書館","province":"東京都","city":"福生市","address":"東京都福生市武蔵野台1丁目12-2","lat":35.74680769,"lon":139.33394539},{"name":"わかたけ図書館","province":"東京都","city":"福生市","address":"東京都福生市熊川（大字）199-1","lat":35.7181112,"lon":139.33499907},{"name":"わかぎり図書館","province":"東京都","city":"福生市","address":"東京都福生市福生（大字）1280-1","lat":35.74619349,"lon":139.32083528},{"name":"福東グランド","province":"東京都","city":"福生市","address":"東京都福生市熊川（大字）1608","lat":35.72289427,"lon":139.35088939},{"name":"福東球技場","province":"東京都","city":"福生市","address":"東京都福生市熊川（大字）1608","lat":35.72289427,"lon":139.35088939},{"name":"熊川地域体育館","province":"東京都","city":"福生市","address":"東京都福生市熊川（大字）380-7","lat":35.72062204,"lon":139.33699606},{"name":"多摩川中央公園グランド","province":"東京都","city":"福生市","address":"東京都福生市北田園1丁目","lat":35.7320676,"lon":139.32653537},{"name":"中央体育館","province":"東京都","city":"福生市","address":"東京都福生市北田園2丁目9-1","lat":35.73451441,"lon":139.32237447},{"name":"福生市営プール","province":"東京都","city":"福生市","address":"東京都福生市北田園2丁目8-4","lat":35.73426998,"lon":139.32165231},{"name":"福生地域体育館","province":"東京都","city":"福生市","address":"東京都福生市武蔵野台1丁目8-7","lat":35.74622721,"lon":139.33415374},{"name":"福生市熊川児童館","province":"東京都","city":"福生市","address":"福生市熊川1143-1","lat":35.72989,"lon":139.34109},{"name":"福生市田園児童館","province":"東京都","city":"福生市","address":"福生市南田園3-6-1","lat":35.73012,"lon":139.33104},{"name":"福生市武蔵野台児童館","province":"東京都","city":"福生市","address":"福生市武蔵野台1-12-2","lat":35.74699,"lon":139.33395},{"name":"福生市熊川児童館","province":"東京都","city":"福生市","address":"福生市熊川1143-1","lat":35.72989,"lon":139.3411},{"name":"＊?福生市立わかたけ図書館","province":"東京都","city":"福生市","address":"福生市熊川199-1","lat":35.718119,"lon":139.335002},{"name":"＊?福生市立わかぎり図書館","province":"東京都","city":"福生市","address":"福生市福生1280-1","lat":35.746199,"lon":139.320912},{"name":"＊?福生市立中央図書館","province":"東京都","city":"福生市","address":"福生市熊川850-1","lat":35.732073,"lon":139.337586},{"name":"＊?福生市立武蔵野台図書館","province":"東京都","city":"福生市","address":"福生市武蔵野台1-12-2","lat":35.746833,"lon":139.333943},{"name":"福生市熊川児童館","province":"東京都","city":"福生市","address":"福生市熊川1143-1","lat":35.730213,"lon":139.341137},{"name":"福生市田園児童館","province":"東京都","city":"福生市","address":"福生市南田園3-6-1","lat":35.730087,"lon":139.331124},{"name":"福生市武蔵野台児童館","province":"東京都","city":"福生市","address":"福生市武蔵野台1-12-2","lat":35.746808,"lon":139.333945},{"name":"熊川神社本殿","province":"東京都","city":"福生市","address":"東京都福生市熊川660","lat":35.723658,"lon":139.333882},{"name":"中央図書館","province":"東京都","city":"福生市","address":"東京都福生市熊川（大字）850-1","lat":35.73186235,"lon":139.3376679},{"name":"武蔵野台図書館","province":"東京都","city":"福生市","address":"東京都福生市武蔵野台1丁目12-2","lat":35.74680769,"lon":139.33394539},{"name":"わかたけ図書館","province":"東京都","city":"福生市","address":"東京都福生市熊川（大字）199-1","lat":35.7181112,"lon":139.33499907},{"name":"わかぎり図書館","province":"東京都","city":"福生市","address":"東京都福生市福生（大字）1280-1","lat":35.74619349,"lon":139.32083528},{"name":"福東グランド","province":"東京都","city":"福生市","address":"東京都福生市熊川（大字）1608","lat":35.72289427,"lon":139.35088939},{"name":"福東球技場","province":"東京都","city":"福生市","address":"東京都福生市熊川（大字）1608","lat":35.72289427,"lon":139.35088939},{"name":"熊川地域体育館","province":"東京都","city":"福生市","address":"東京都福生市熊川（大字）380-7","lat":35.72062204,"lon":139.33699606},{"name":"多摩川中央公園グランド","province":"東京都","city":"福生市","address":"東京都福生市北田園1丁目","lat":35.7320676,"lon":139.32653537},{"name":"中央体育館","province":"東京都","city":"福生市","address":"東京都福生市北田園2丁目9-1","lat":35.73451441,"lon":139.32237447},{"name":"福生市営プール","province":"東京都","city":"福生市","address":"東京都福生市北田園2丁目8-4","lat":35.73426998,"lon":139.32165231},{"name":"福生地域体育館","province":"東京都","city":"福生市","address":"東京都福生市武蔵野台1丁目8-7","lat":35.74622721,"lon":139.33415374},{"name":"福生市熊川児童館","province":"東京都","city":"福生市","address":"福生市熊川1143-1","lat":35.72989,"lon":139.34109},{"name":"福生市田園児童館","province":"東京都","city":"福生市","address":"福生市南田園3-6-1","lat":35.73012,"lon":139.33104},{"name":"福生市武蔵野台児童館","province":"東京都","city":"福生市","address":"福生市武蔵野台1-12-2","lat":35.74699,"lon":139.33395},{"name":"福生市熊川児童館","province":"東京都","city":"福生市","address":"福生市熊川1143-1","lat":35.72989,"lon":139.3411},{"name":"＊?福生市立わかたけ図書館","province":"東京都","city":"福生市","address":"福生市熊川199-1","lat":35.718119,"lon":139.335002},{"name":"＊?福生市立わかぎり図書館","province":"東京都","city":"福生市","address":"福生市福生1280-1","lat":35.746199,"lon":139.320912},{"name":"＊?福生市立中央図書館","province":"東京都","city":"福生市","address":"福生市熊川850-1","lat":35.732073,"lon":139.337586},{"name":"＊?福生市立武蔵野台図書館","province":"東京都","city":"福生市","address":"福生市武蔵野台1-12-2","lat":35.746833,"lon":139.333943},{"name":"福生市熊川児童館","province":"東京都","city":"福生市","address":"福生市熊川1143-1","lat":35.730213,"lon":139.341137},{"name":"福生市田園児童館","province":"東京都","city":"福生市","address":"福生市南田園3-6-1","lat":35.730087,"lon":139.331124},{"name":"福生市武蔵野台児童館","province":"東京都","city":"福生市","address":"福生市武蔵野台1-12-2","lat":35.746808,"lon":139.333945},{"name":"熊川神社本殿","province":"東京都","city":"福生市","address":"東京都福生市熊川660","lat":35.723658,"lon":139.333882},{"name":"中央図書館","province":"東京都","city":"福生市","address":"東京都福生市熊川（大字）850-1","lat":35.73186235,"lon":139.3376679},{"name":"武蔵野台図書館","province":"東京都","city":"福生市","address":"東京都福生市武蔵野台1丁目12-2","lat":35.74680769,"lon":139.33394539},{"name":"わかたけ図書館","province":"東京都","city":"福生市","address":"東京都福生市熊川（大字）199-1","lat":35.7181112,"lon":139.33499907},{"name":"わかぎり図書館","province":"東京都","city":"福生市","address":"東京都福生市福生（大字）1280-1","lat":35.74619349,"lon":139.32083528},{"name":"福東グランド","province":"東京都","city":"福生市","address":"東京都福生市熊川（大字）1608","lat":35.72289427,"lon":139.35088939},{"name":"福東球技場","province":"東京都","city":"福生市","address":"東京都福生市熊川（大字）1608","lat":35.72289427,"lon":139.35088939},{"name":"熊川地域体育館","province":"東京都","city":"福生市","address":"東京都福生市熊川（大字）380-7","lat":35.72062204,"lon":139.33699606},{"name":"多摩川中央公園グランド","province":"東京都","city":"福生市","address":"東京都福生市北田園1丁目","lat":35.7320676,"lon":139.32653537},{"name":"中央体育館","province":"東京都","city":"福生市","address":"東京都福生市北田園2丁目9-1","lat":35.73451441,"lon":139.32237447},{"name":"福生市営プール","province":"東京都","city":"福生市","address":"東京都福生市北田園2丁目8-4","lat":35.73426998,"lon":139.32165231},{"name":"福生地域体育館","province":"東京都","city":"福生市","address":"東京都福生市武蔵野台1丁目8-7","lat":35.74622721,"lon":139.33415374},{"name":"福生市熊川児童館","province":"東京都","city":"福生市","address":"福生市熊川1143-1","lat":35.72989,"lon":139.34109},{"name":"福生市田園児童館","province":"東京都","city":"福生市","address":"福生市南田園3-6-1","lat":35.73012,"lon":139.33104},{"name":"福生市武蔵野台児童館","province":"東京都","city":"福生市","address":"福生市武蔵野台1-12-2","lat":35.74699,"lon":139.33395},{"name":"福生市熊川児童館","province":"東京都","city":"福生市","address":"福生市熊川1143-1","lat":35.72989,"lon":139.3411},{"name":"＊?福生市立わかたけ図書館","province":"東京都","city":"福生市","address":"福生市熊川199-1","lat":35.718119,"lon":139.335002},{"name":"＊?福生市立わかぎり図書館","province":"東京都","city":"福生市","address":"福生市福生1280-1","lat":35.746199,"lon":139.320912},{"name":"＊?福生市立中央図書館","province":"東京都","city":"福生市","address":"福生市熊川850-1","lat":35.732073,"lon":139.337586},{"name":"＊?福生市立武蔵野台図書館","province":"東京都","city":"福生市","address":"福生市武蔵野台1-12-2","lat":35.746833,"lon":139.333943},{"name":"福生市熊川児童館","province":"東京都","city":"福生市","address":"福生市熊川1143-1","lat":35.730213,"lon":139.341137},{"name":"福生市田園児童館","province":"東京都","city":"福生市","address":"福生市南田園3-6-1","lat":35.730087,"lon":139.331124},{"name":"福生市武蔵野台児童館","province":"東京都","city":"福生市","address":"福生市武蔵野台1-12-2","lat":35.746808,"lon":139.333945},{"name":"熊川神社本殿","province":"東京都","city":"福生市","address":"東京都福生市熊川660","lat":35.723658,"lon":139.333882},{"name":"中央図書館","province":"東京都","city":"福生市","address":"東京都福生市熊川（大字）850-1","lat":35.73186235,"lon":139.3376679},{"name":"武蔵野台図書館","province":"東京都","city":"福生市","address":"東京都福生市武蔵野台1丁目12-2","lat":35.74680769,"lon":139.33394539},{"name":"わかたけ図書館","province":"東京都","city":"福生市","address":"東京都福生市熊川（大字）199-1","lat":35.7181112,"lon":139.33499907},{"name":"わかぎり図書館","province":"東京都","city":"福生市","address":"東京都福生市福生（大字）1280-1","lat":35.74619349,"lon":139.32083528},{"name":"福東グランド","province":"東京都","city":"福生市","address":"東京都福生市熊川（大字）1608","lat":35.72289427,"lon":139.35088939},{"name":"福東球技場","province":"東京都","city":"福生市","address":"東京都福生市熊川（大字）1608","lat":35.72289427,"lon":139.35088939},{"name":"熊川地域体育館","province":"東京都","city":"福生市","address":"東京都福生市熊川（大字）380-7","lat":35.72062204,"lon":139.33699606},{"name":"多摩川中央公園グランド","province":"東京都","city":"福生市","address":"東京都福生市北田園1丁目","lat":35.7320676,"lon":139.32653537},{"name":"中央体育館","province":"東京都","city":"福生市","address":"東京都福生市北田園2丁目9-1","lat":35.73451441,"lon":139.32237447},{"name":"福生市営プール","province":"東京都","city":"福生市","address":"東京都福生市北田園2丁目8-4","lat":35.73426998,"lon":139.32165231},{"name":"福生地域体育館","province":"東京都","city":"福生市","address":"東京都福生市武蔵野台1丁目8-7","lat":35.74622721,"lon":139.33415374},{"name":"福生市熊川児童館","province":"東京都","city":"福生市","address":"福生市熊川1143-1","lat":35.72989,"lon":139.34109},{"name":"福生市田園児童館","province":"東京都","city":"福生市","address":"福生市南田園3-6-1","lat":35.73012,"lon":139.33104},{"name":"福生市武蔵野台児童館","province":"東京都","city":"福生市","address":"福生市武蔵野台1-12-2","lat":35.74699,"lon":139.33395},{"name":"福生市熊川児童館","province":"東京都","city":"福生市","address":"福生市熊川1143-1","lat":35.72989,"lon":139.3411},{"name":"＊?福生市立わかたけ図書館","province":"東京都","city":"福生市","address":"福生市熊川199-1","lat":35.718119,"lon":139.335002},{"name":"＊?福生市立わかぎり図書館","province":"東京都","city":"福生市","address":"福生市福生1280-1","lat":35.746199,"lon":139.320912},{"name":"＊?福生市立中央図書館","province":"東京都","city":"福生市","address":"福生市熊川850-1","lat":35.732073,"lon":139.337586},{"name":"＊?福生市立武蔵野台図書館","province":"東京都","city":"福生市","address":"福生市武蔵野台1-12-2","lat":35.746833,"lon":139.333943},{"name":"福生市熊川児童館","province":"東京都","city":"福生市","address":"福生市熊川1143-1","lat":35.730213,"lon":139.341137},{"name":"福生市田園児童館","province":"東京都","city":"福生市","address":"福生市南田園3-6-1","lat":35.730087,"lon":139.331124},{"name":"福生市武蔵野台児童館","province":"東京都","city":"福生市","address":"福生市武蔵野台1-12-2","lat":35.746808,"lon":139.333945},{"name":"熊川神社本殿","province":"東京都","city":"福生市","address":"東京都福生市熊川660","lat":35.723658,"lon":139.333882},{"name":"中央図書館","province":"東京都","city":"福生市","address":"東京都福生市熊川（大字）850-1","lat":35.73186235,"lon":139.3376679},{"name":"武蔵野台図書館","province":"東京都","city":"福生市","address":"東京都福生市武蔵野台1丁目12-2","lat":35.74680769,"lon":139.33394539},{"name":"わかたけ図書館","province":"東京都","city":"福生市","address":"東京都福生市熊川（大字）199-1","lat":35.7181112,"lon":139.33499907},{"name":"わかぎり図書館","province":"東京都","city":"福生市","address":"東京都福生市福生（大字）1280-1","lat":35.74619349,"lon":139.32083528},{"name":"福東グランド","province":"東京都","city":"福生市","address":"東京都福生市熊川（大字）1608","lat":35.72289427,"lon":139.35088939},{"name":"福東球技場","province":"東京都","city":"福生市","address":"東京都福生市熊川（大字）1608","lat":35.72289427,"lon":139.35088939},{"name":"熊川地域体育館","province":"東京都","city":"福生市","address":"東京都福生市熊川（大字）380-7","lat":35.72062204,"lon":139.33699606},{"name":"多摩川中央公園グランド","province":"東京都","city":"福生市","address":"東京都福生市北田園1丁目","lat":35.7320676,"lon":139.32653537},{"name":"中央体育館","province":"東京都","city":"福生市","address":"東京都福生市北田園2丁目9-1","lat":35.73451441,"lon":139.32237447},{"name":"福生市営プール","province":"東京都","city":"福生市","address":"東京都福生市北田園2丁目8-4","lat":35.73426998,"lon":139.32165231},{"name":"福生地域体育館","province":"東京都","city":"福生市","address":"東京都福生市武蔵野台1丁目8-7","lat":35.74622721,"lon":139.33415374},{"name":"福生市熊川児童館","province":"東京都","city":"福生市","address":"福生市熊川1143-1","lat":35.72989,"lon":139.34109},{"name":"福生市田園児童館","province":"東京都","city":"福生市","address":"福生市南田園3-6-1","lat":35.73012,"lon":139.33104},{"name":"福生市武蔵野台児童館","province":"東京都","city":"福生市","address":"福生市武蔵野台1-12-2","lat":35.74699,"lon":139.33395},{"name":"福生市熊川児童館","province":"東京都","city":"福生市","address":"福生市熊川1143-1","lat":35.72989,"lon":139.3411},{"name":"＊?福生市立わかたけ図書館","province":"東京都","city":"福生市","address":"福生市熊川199-1","lat":35.718119,"lon":139.335002},{"name":"＊?福生市立わかぎり図書館","province":"東京都","city":"福生市","address":"福生市福生1280-1","lat":35.746199,"lon":139.320912},{"name":"＊?福生市立中央図書館","province":"東京都","city":"福生市","address":"福生市熊川850-1","lat":35.732073,"lon":139.337586},{"name":"＊?福生市立武蔵野台図書館","province":"東京都","city":"福生市","address":"福生市武蔵野台1-12-2","lat":35.746833,"lon":139.333943},{"name":"福生市熊川児童館","province":"東京都","city":"福生市","address":"福生市熊川1143-1","lat":35.730213,"lon":139.341137},{"name":"福生市田園児童館","province":"東京都","city":"福生市","address":"福生市南田園3-6-1","lat":35.730087,"lon":139.331124},{"name":"福生市武蔵野台児童館","province":"東京都","city":"福生市","address":"福生市武蔵野台1-12-2","lat":35.746808,"lon":139.333945},{"name":"熊川神社本殿","province":"東京都","city":"福生市","address":"東京都福生市熊川660","lat":35.723658,"lon":139.333882},{"name":"中央図書館","province":"東京都","city":"福生市","address":"東京都福生市熊川（大字）850-1","lat":35.73186235,"lon":139.3376679},{"name":"武蔵野台図書館","province":"東京都","city":"福生市","address":"東京都福生市武蔵野台1丁目12-2","lat":35.74680769,"lon":139.33394539},{"name":"わかたけ図書館","province":"東京都","city":"福生市","address":"東京都福生市熊川（大字）199-1","lat":35.7181112,"lon":139.33499907},{"name":"わかぎり図書館","province":"東京都","city":"福生市","address":"東京都福生市福生（大字）1280-1","lat":35.74619349,"lon":139.32083528},{"name":"福東グランド","province":"東京都","city":"福生市","address":"東京都福生市熊川（大字）1608","lat":35.72289427,"lon":139.35088939},{"name":"福東球技場","province":"東京都","city":"福生市","address":"東京都福生市熊川（大字）1608","lat":35.72289427,"lon":139.35088939},{"name":"熊川地域体育館","province":"東京都","city":"福生市","address":"東京都福生市熊川（大字）380-7","lat":35.72062204,"lon":139.33699606},{"name":"多摩川中央公園グランド","province":"東京都","city":"福生市","address":"東京都福生市北田園1丁目","lat":35.7320676,"lon":139.32653537},{"name":"中央体育館","province":"東京都","city":"福生市","address":"東京都福生市北田園2丁目9-1","lat":35.73451441,"lon":139.32237447},{"name":"福生市営プール","province":"東京都","city":"福生市","address":"東京都福生市北田園2丁目8-4","lat":35.73426998,"lon":139.32165231},{"name":"福生地域体育館","province":"東京都","city":"福生市","address":"東京都福生市武蔵野台1丁目8-7","lat":35.74622721,"lon":139.33415374},{"name":"福生市熊川児童館","province":"東京都","city":"福生市","address":"福生市熊川1143-1","lat":35.72989,"lon":139.34109},{"name":"福生市田園児童館","province":"東京都","city":"福生市","address":"福生市南田園3-6-1","lat":35.73012,"lon":139.33104},{"name":"福生市武蔵野台児童館","province":"東京都","city":"福生市","address":"福生市武蔵野台1-12-2","lat":35.74699,"lon":139.33395},{"name":"福生市熊川児童館","province":"東京都","city":"福生市","address":"福生市熊川1143-1","lat":35.72989,"lon":139.3411},{"name":"＊?福生市立わかたけ図書館","province":"東京都","city":"福生市","address":"福生市熊川199-1","lat":35.718119,"lon":139.335002},{"name":"＊?福生市立わかぎり図書館","province":"東京都","city":"福生市","address":"福生市福生1280-1","lat":35.746199,"lon":139.320912},{"name":"＊?福生市立中央図書館","province":"東京都","city":"福生市","address":"福生市熊川850-1","lat":35.732073,"lon":139.337586},{"name":"＊?福生市立武蔵野台図書館","province":"東京都","city":"福生市","address":"福生市武蔵野台1-12-2","lat":35.746833,"lon":139.333943},{"name":"福生市熊川児童館","province":"東京都","city":"福生市","address":"福生市熊川1143-1","lat":35.730213,"lon":139.341137},{"name":"福生市田園児童館","province":"東京都","city":"福生市","address":"福生市南田園3-6-1","lat":35.730087,"lon":139.331124},{"name":"福生市武蔵野台児童館","province":"東京都","city":"福生市","address":"福生市武蔵野台1-12-2","lat":35.746808,"lon":139.333945},{"name":"熊川神社本殿","province":"東京都","city":"福生市","address":"東京都福生市熊川660","lat":35.723658,"lon":139.333882},{"name":"中央図書館","province":"東京都","city":"福生市","address":"東京都福生市熊川（大字）850-1","lat":35.73186235,"lon":139.3376679},{"name":"武蔵野台図書館","province":"東京都","city":"福生市","address":"東京都福生市武蔵野台1丁目12-2","lat":35.74680769,"lon":139.33394539},{"name":"わかたけ図書館","province":"東京都","city":"福生市","address":"東京都福生市熊川（大字）199-1","lat":35.7181112,"lon":139.33499907},{"name":"わかぎり図書館","province":"東京都","city":"福生市","address":"東京都福生市福生（大字）1280-1","lat":35.74619349,"lon":139.32083528},{"name":"福東グランド","province":"東京都","city":"福生市","address":"東京都福生市熊川（大字）1608","lat":35.72289427,"lon":139.35088939},{"name":"福東球技場","province":"東京都","city":"福生市","address":"東京都福生市熊川（大字）1608","lat":35.72289427,"lon":139.35088939},{"name":"熊川地域体育館","province":"東京都","city":"福生市","address":"東京都福生市熊川（大字）380-7","lat":35.72062204,"lon":139.33699606},{"name":"多摩川中央公園グランド","province":"東京都","city":"福生市","address":"東京都福生市北田園1丁目","lat":35.7320676,"lon":139.32653537},{"name":"中央体育館","province":"東京都","city":"福生市","address":"東京都福生市北田園2丁目9-1","lat":35.73451441,"lon":139.32237447},{"name":"福生市営プール","province":"東京都","city":"福生市","address":"東京都福生市北田園2丁目8-4","lat":35.73426998,"lon":139.32165231},{"name":"福生地域体育館","province":"東京都","city":"福生市","address":"東京都福生市武蔵野台1丁目8-7","lat":35.74622721,"lon":139.33415374},{"name":"福生市熊川児童館","province":"東京都","city":"福生市","address":"福生市熊川1143-1","lat":35.72989,"lon":139.34109},{"name":"福生市田園児童館","province":"東京都","city":"福生市","address":"福生市南田園3-6-1","lat":35.73012,"lon":139.33104},{"name":"福生市武蔵野台児童館","province":"東京都","city":"福生市","address":"福生市武蔵野台1-12-2","lat":35.74699,"lon":139.33395},{"name":"福生市熊川児童館","province":"東京都","city":"福生市","address":"福生市熊川1143-1","lat":35.72989,"lon":139.3411},{"name":"＊?福生市立わかたけ図書館","province":"東京都","city":"福生市","address":"福生市熊川199-1","lat":35.718119,"lon":139.335002},{"name":"＊?福生市立わかぎり図書館","province":"東京都","city":"福生市","address":"福生市福生1280-1","lat":35.746199,"lon":139.320912},{"name":"＊?福生市立中央図書館","province":"東京都","city":"福生市","address":"福生市熊川850-1","lat":35.732073,"lon":139.337586},{"name":"＊?福生市立武蔵野台図書館","province":"東京都","city":"福生市","address":"福生市武蔵野台1-12-2","lat":35.746833,"lon":139.333943},{"name":"福生市熊川児童館","province":"東京都","city":"福生市","address":"福生市熊川1143-1","lat":35.730213,"lon":139.341137},{"name":"福生市田園児童館","province":"東京都","city":"福生市","address":"福生市南田園3-6-1","lat":35.730087,"lon":139.331124},{"name":"福生市武蔵野台児童館","province":"東京都","city":"福生市","address":"福生市武蔵野台1-12-2","lat":35.746808,"lon":139.333945},{"name":"熊川神社本殿","province":"東京都","city":"福生市","address":"東京都福生市熊川660","lat":35.723658,"lon":139.333882},{"name":"中央図書館","province":"東京都","city":"福生市","address":"東京都福生市熊川（大字）850-1","lat":35.73186235,"lon":139.3376679},{"name":"武蔵野台図書館","province":"東京都","city":"福生市","address":"東京都福生市武蔵野台1丁目12-2","lat":35.74680769,"lon":139.33394539},{"name":"わかたけ図書館","province":"東京都","city":"福生市","address":"東京都福生市熊川（大字）199-1","lat":35.7181112,"lon":139.33499907},{"name":"わかぎり図書館","province":"東京都","city":"福生市","address":"東京都福生市福生（大字）1280-1","lat":35.74619349,"lon":139.32083528},{"name":"福東グランド","province":"東京都","city":"福生市","address":"東京都福生市熊川（大字）1608","lat":35.72289427,"lon":139.35088939},{"name":"福東球技場","province":"東京都","city":"福生市","address":"東京都福生市熊川（大字）1608","lat":35.72289427,"lon":139.35088939},{"name":"熊川地域体育館","province":"東京都","city":"福生市","address":"東京都福生市熊川（大字）380-7","lat":35.72062204,"lon":139.33699606},{"name":"多摩川中央公園グランド","province":"東京都","city":"福生市","address":"東京都福生市北田園1丁目","lat":35.7320676,"lon":139.32653537},{"name":"中央体育館","province":"東京都","city":"福生市","address":"東京都福生市北田園2丁目9-1","lat":35.73451441,"lon":139.32237447},{"name":"福生市営プール","province":"東京都","city":"福生市","address":"東京都福生市北田園2丁目8-4","lat":35.73426998,"lon":139.32165231},{"name":"福生地域体育館","province":"東京都","city":"福生市","address":"東京都福生市武蔵野台1丁目8-7","lat":35.74622721,"lon":139.33415374},{"name":"福生市熊川児童館","province":"東京都","city":"福生市","address":"福生市熊川1143-1","lat":35.72989,"lon":139.34109},{"name":"福生市田園児童館","province":"東京都","city":"福生市","address":"福生市南田園3-6-1","lat":35.73012,"lon":139.33104},{"name":"福生市武蔵野台児童館","province":"東京都","city":"福生市","address":"福生市武蔵野台1-12-2","lat":35.74699,"lon":139.33395},{"name":"福生市熊川児童館","province":"東京都","city":"福生市","address":"福生市熊川1143-1","lat":35.72989,"lon":139.3411},{"name":"＊?福生市立わかたけ図書館","province":"東京都","city":"福生市","address":"福生市熊川199-1","lat":35.718119,"lon":139.335002},{"name":"＊?福生市立わかぎり図書館","province":"東京都","city":"福生市","address":"福生市福生1280-1","lat":35.746199,"lon":139.320912},{"name":"＊?福生市立中央図書館","province":"東京都","city":"福生市","address":"福生市熊川850-1","lat":35.732073,"lon":139.337586},{"name":"＊?福生市立武蔵野台図書館","province":"東京都","city":"福生市","address":"福生市武蔵野台1-12-2","lat":35.746833,"lon":139.333943},{"name":"福生市熊川児童館","province":"東京都","city":"福生市","address":"福生市熊川1143-1","lat":35.730213,"lon":139.341137},{"name":"福生市田園児童館","province":"東京都","city":"福生市","address":"福生市南田園3-6-1","lat":35.730087,"lon":139.331124},{"name":"福生市武蔵野台児童館","province":"東京都","city":"福生市","address":"福生市武蔵野台1-12-2","lat":35.746808,"lon":139.333945},{"name":"熊川神社本殿","province":"東京都","city":"福生市","address":"東京都福生市熊川660","lat":35.723658,"lon":139.333882},{"name":"中央図書館","province":"東京都","city":"福生市","address":"東京都福生市熊川（大字）850-1","lat":35.73186235,"lon":139.3376679},{"name":"武蔵野台図書館","province":"東京都","city":"福生市","address":"東京都福生市武蔵野台1丁目12-2","lat":35.74680769,"lon":139.33394539},{"name":"わかたけ図書館","province":"東京都","city":"福生市","address":"東京都福生市熊川（大字）199-1","lat":35.7181112,"lon":139.33499907},{"name":"わかぎり図書館","province":"東京都","city":"福生市","address":"東京都福生市福生（大字）1280-1","lat":35.74619349,"lon":139.32083528},{"name":"福東グランド","province":"東京都","city":"福生市","address":"東京都福生市熊川（大字）1608","lat":35.72289427,"lon":139.35088939},{"name":"福東球技場","province":"東京都","city":"福生市","address":"東京都福生市熊川（大字）1608","lat":35.72289427,"lon":139.35088939},{"name":"熊川地域体育館","province":"東京都","city":"福生市","address":"東京都福生市熊川（大字）380-7","lat":35.72062204,"lon":139.33699606},{"name":"多摩川中央公園グランド","province":"東京都","city":"福生市","address":"東京都福生市北田園1丁目","lat":35.7320676,"lon":139.32653537},{"name":"中央体育館","province":"東京都","city":"福生市","address":"東京都福生市北田園2丁目9-1","lat":35.73451441,"lon":139.32237447},{"name":"福生市営プール","province":"東京都","city":"福生市","address":"東京都福生市北田園2丁目8-4","lat":35.73426998,"lon":139.32165231},{"name":"福生地域体育館","province":"東京都","city":"福生市","address":"東京都福生市武蔵野台1丁目8-7","lat":35.74622721,"lon":139.33415374},{"name":"福生市熊川児童館","province":"東京都","city":"福生市","address":"福生市熊川1143-1","lat":35.72989,"lon":139.34109},{"name":"福生市田園児童館","province":"東京都","city":"福生市","address":"福生市南田園3-6-1","lat":35.73012,"lon":139.33104},{"name":"福生市武蔵野台児童館","province":"東京都","city":"福生市","address":"福生市武蔵野台1-12-2","lat":35.74699,"lon":139.33395},{"name":"福生市熊川児童館","province":"東京都","city":"福生市","address":"福生市熊川1143-1","lat":35.72989,"lon":139.3411},{"name":"＊?福生市立わかたけ図書館","province":"東京都","city":"福生市","address":"福生市熊川199-1","lat":35.718119,"lon":139.335002},{"name":"＊?福生市立わかぎり図書館","province":"東京都","city":"福生市","address":"福生市福生1280-1","lat":35.746199,"lon":139.320912},{"name":"＊?福生市立中央図書館","province":"東京都","city":"福生市","address":"福生市熊川850-1","lat":35.732073,"lon":139.337586},{"name":"＊?福生市立武蔵野台図書館","province":"東京都","city":"福生市","address":"福生市武蔵野台1-12-2","lat":35.746833,"lon":139.333943},{"name":"福生市熊川児童館","province":"東京都","city":"福生市","address":"福生市熊川1143-1","lat":35.730213,"lon":139.341137},{"name":"福生市田園児童館","province":"東京都","city":"福生市","address":"福生市南田園3-6-1","lat":35.730087,"lon":139.331124},{"name":"福生市武蔵野台児童館","province":"東京都","city":"福生市","address":"福生市武蔵野台1-12-2","lat":35.746808,"lon":139.333945},{"name":"熊川神社本殿","province":"東京都","city":"福生市","address":"東京都福生市熊川660","lat":35.723658,"lon":139.333882},{"name":"中央図書館","province":"東京都","city":"福生市","address":"東京都福生市熊川（大字）850-1","lat":35.73186235,"lon":139.3376679},{"name":"武蔵野台図書館","province":"東京都","city":"福生市","address":"東京都福生市武蔵野台1丁目12-2","lat":35.74680769,"lon":139.33394539},{"name":"わかたけ図書館","province":"東京都","city":"福生市","address":"東京都福生市熊川（大字）199-1","lat":35.7181112,"lon":139.33499907},{"name":"わかぎり図書館","province":"東京都","city":"福生市","address":"東京都福生市福生（大字）1280-1","lat":35.74619349,"lon":139.32083528},{"name":"福東グランド","province":"東京都","city":"福生市","address":"東京都福生市熊川（大字）1608","lat":35.72289427,"lon":139.35088939},{"name":"福東球技場","province":"東京都","city":"福生市","address":"東京都福生市熊川（大字）1608","lat":35.72289427,"lon":139.35088939},{"name":"熊川地域体育館","province":"東京都","city":"福生市","address":"東京都福生市熊川（大字）380-7","lat":35.72062204,"lon":139.33699606},{"name":"多摩川中央公園グランド","province":"東京都","city":"福生市","address":"東京都福生市北田園1丁目","lat":35.7320676,"lon":139.32653537},{"name":"中央体育館","province":"東京都","city":"福生市","address":"東京都福生市北田園2丁目9-1","lat":35.73451441,"lon":139.32237447},{"name":"福生市営プール","province":"東京都","city":"福生市","address":"東京都福生市北田園2丁目8-4","lat":35.73426998,"lon":139.32165231},{"name":"福生地域体育館","province":"東京都","city":"福生市","address":"東京都福生市武蔵野台1丁目8-7","lat":35.74622721,"lon":139.33415374},{"name":"福生市熊川児童館","province":"東京都","city":"福生市","address":"福生市熊川1143-1","lat":35.72989,"lon":139.34109},{"name":"福生市田園児童館","province":"東京都","city":"福生市","address":"福生市南田園3-6-1","lat":35.73012,"lon":139.33104},{"name":"福生市武蔵野台児童館","province":"東京都","city":"福生市","address":"福生市武蔵野台1-12-2","lat":35.74699,"lon":139.33395},{"name":"福生市熊川児童館","province":"東京都","city":"福生市","address":"福生市熊川1143-1","lat":35.72989,"lon":139.3411},{"name":"＊?福生市立わかたけ図書館","province":"東京都","city":"福生市","address":"福生市熊川199-1","lat":35.718119,"lon":139.335002},{"name":"＊?福生市立わかぎり図書館","province":"東京都","city":"福生市","address":"福生市福生1280-1","lat":35.746199,"lon":139.320912},{"name":"＊?福生市立中央図書館","province":"東京都","city":"福生市","address":"福生市熊川850-1","lat":35.732073,"lon":139.337586},{"name":"＊?福生市立武蔵野台図書館","province":"東京都","city":"福生市","address":"福生市武蔵野台1-12-2","lat":35.746833,"lon":139.333943},{"name":"福生市熊川児童館","province":"東京都","city":"福生市","address":"福生市熊川1143-1","lat":35.730213,"lon":139.341137},{"name":"福生市田園児童館","province":"東京都","city":"福生市","address":"福生市南田園3-6-1","lat":35.730087,"lon":139.331124},{"name":"福生市武蔵野台児童館","province":"東京都","city":"福生市","address":"福生市武蔵野台1-12-2","lat":35.746808,"lon":139.333945},{"name":"熊川神社本殿","province":"東京都","city":"福生市","address":"東京都福生市熊川660","lat":35.723658,"lon":139.333882},{"name":"中央図書館","province":"東京都","city":"福生市","address":"東京都福生市熊川（大字）850-1","lat":35.73186235,"lon":139.3376679},{"name":"武蔵野台図書館","province":"東京都","city":"福生市","address":"東京都福生市武蔵野台1丁目12-2","lat":35.74680769,"lon":139.33394539},{"name":"わかたけ図書館","province":"東京都","city":"福生市","address":"東京都福生市熊川（大字）199-1","lat":35.7181112,"lon":139.33499907},{"name":"わかぎり図書館","province":"東京都","city":"福生市","address":"東京都福生市福生（大字）1280-1","lat":35.74619349,"lon":139.32083528},{"name":"福東グランド","province":"東京都","city":"福生市","address":"東京都福生市熊川（大字）1608","lat":35.72289427,"lon":139.35088939},{"name":"福東球技場","province":"東京都","city":"福生市","address":"東京都福生市熊川（大字）1608","lat":35.72289427,"lon":139.35088939},{"name":"熊川地域体育館","province":"東京都","city":"福生市","address":"東京都福生市熊川（大字）380-7","lat":35.72062204,"lon":139.33699606},{"name":"多摩川中央公園グランド","province":"東京都","city":"福生市","address":"東京都福生市北田園1丁目","lat":35.7320676,"lon":139.32653537},{"name":"中央体育館","province":"東京都","city":"福生市","address":"東京都福生市北田園2丁目9-1","lat":35.73451441,"lon":139.32237447},{"name":"福生市営プール","province":"東京都","city":"福生市","address":"東京都福生市北田園2丁目8-4","lat":35.73426998,"lon":139.32165231},{"name":"福生地域体育館","province":"東京都","city":"福生市","address":"東京都福生市武蔵野台1丁目8-7","lat":35.74622721,"lon":139.33415374},{"name":"福生市熊川児童館","province":"東京都","city":"福生市","address":"福生市熊川1143-1","lat":35.72989,"lon":139.34109},{"name":"福生市田園児童館","province":"東京都","city":"福生市","address":"福生市南田園3-6-1","lat":35.73012,"lon":139.33104},{"name":"福生市武蔵野台児童館","province":"東京都","city":"福生市","address":"福生市武蔵野台1-12-2","lat":35.74699,"lon":139.33395},{"name":"福生市熊川児童館","province":"東京都","city":"福生市","address":"福生市熊川1143-1","lat":35.72989,"lon":139.3411},{"name":"＊?福生市立わかたけ図書館","province":"東京都","city":"福生市","address":"福生市熊川199-1","lat":35.718119,"lon":139.335002},{"name":"＊?福生市立わかぎり図書館","province":"東京都","city":"福生市","address":"福生市福生1280-1","lat":35.746199,"lon":139.320912},{"name":"＊?福生市立中央図書館","province":"東京都","city":"福生市","address":"福生市熊川850-1","lat":35.732073,"lon":139.337586},{"name":"＊?福生市立武蔵野台図書館","province":"東京都","city":"福生市","address":"福生市武蔵野台1-12-2","lat":35.746833,"lon":139.333943},{"name":"福生市熊川児童館","province":"東京都","city":"福生市","address":"福生市熊川1143-1","lat":35.730213,"lon":139.341137},{"name":"福生市田園児童館","province":"東京都","city":"福生市","address":"福生市南田園3-6-1","lat":35.730087,"lon":139.331124},{"name":"福生市武蔵野台児童館","province":"東京都","city":"福生市","address":"福生市武蔵野台1-12-2","lat":35.746808,"lon":139.333945},{"name":"熊川神社本殿","province":"東京都","city":"福生市","address":"東京都福生市熊川660","lat":35.723658,"lon":139.333882},{"name":"中央図書館","province":"東京都","city":"福生市","address":"東京都福生市熊川（大字）850-1","lat":35.73186235,"lon":139.3376679},{"name":"武蔵野台図書館","province":"東京都","city":"福生市","address":"東京都福生市武蔵野台1丁目12-2","lat":35.74680769,"lon":139.33394539},{"name":"わかたけ図書館","province":"東京都","city":"福生市","address":"東京都福生市熊川（大字）199-1","lat":35.7181112,"lon":139.33499907},{"name":"わかぎり図書館","province":"東京都","city":"福生市","address":"東京都福生市福生（大字）1280-1","lat":35.74619349,"lon":139.32083528},{"name":"福東グランド","province":"東京都","city":"福生市","address":"東京都福生市熊川（大字）1608","lat":35.72289427,"lon":139.35088939},{"name":"福東球技場","province":"東京都","city":"福生市","address":"東京都福生市熊川（大字）1608","lat":35.72289427,"lon":139.35088939},{"name":"熊川地域体育館","province":"東京都","city":"福生市","address":"東京都福生市熊川（大字）380-7","lat":35.72062204,"lon":139.33699606},{"name":"多摩川中央公園グランド","province":"東京都","city":"福生市","address":"東京都福生市北田園1丁目","lat":35.7320676,"lon":139.32653537},{"name":"中央体育館","province":"東京都","city":"福生市","address":"東京都福生市北田園2丁目9-1","lat":35.73451441,"lon":139.32237447},{"name":"福生市営プール","province":"東京都","city":"福生市","address":"東京都福生市北田園2丁目8-4","lat":35.73426998,"lon":139.32165231},{"name":"福生地域体育館","province":"東京都","city":"福生市","address":"東京都福生市武蔵野台1丁目8-7","lat":35.74622721,"lon":139.33415374},{"name":"福生市熊川児童館","province":"東京都","city":"福生市","address":"福生市熊川1143-1","lat":35.72989,"lon":139.34109},{"name":"福生市田園児童館","province":"東京都","city":"福生市","address":"福生市南田園3-6-1","lat":35.73012,"lon":139.33104},{"name":"福生市武蔵野台児童館","province":"東京都","city":"福生市","address":"福生市武蔵野台1-12-2","lat":35.74699,"lon":139.33395},{"name":"福生市熊川児童館","province":"東京都","city":"福生市","address":"福生市熊川1143-1","lat":35.72989,"lon":139.3411},{"name":"＊?福生市立わかたけ図書館","province":"東京都","city":"福生市","address":"福生市熊川199-1","lat":35.718119,"lon":139.335002},{"name":"＊?福生市立わかぎり図書館","province":"東京都","city":"福生市","address":"福生市福生1280-1","lat":35.746199,"lon":139.320912},{"name":"＊?福生市立中央図書館","province":"東京都","city":"福生市","address":"福生市熊川850-1","lat":35.732073,"lon":139.337586},{"name":"＊?福生市立武蔵野台図書館","province":"東京都","city":"福生市","address":"福生市武蔵野台1-12-2","lat":35.746833,"lon":139.333943},{"name":"福生市熊川児童館","province":"東京都","city":"福生市","address":"福生市熊川1143-1","lat":35.730213,"lon":139.341137},{"name":"福生市田園児童館","province":"東京都","city":"福生市","address":"福生市南田園3-6-1","lat":35.730087,"lon":139.331124},{"name":"福生市武蔵野台児童館","province":"東京都","city":"福生市","address":"福生市武蔵野台1-12-2","lat":35.746808,"lon":139.333945},{"name":"熊川神社本殿","province":"東京都","city":"福生市","address":"東京都福生市熊川660","lat":35.723658,"lon":139.333882},{"name":"中央図書館","province":"東京都","city":"福生市","address":"東京都福生市熊川（大字）850-1","lat":35.73186235,"lon":139.3376679},{"name":"武蔵野台図書館","province":"東京都","city":"福生市","address":"東京都福生市武蔵野台1丁目12-2","lat":35.74680769,"lon":139.33394539},{"name":"わかたけ図書館","province":"東京都","city":"福生市","address":"東京都福生市熊川（大字）199-1","lat":35.7181112,"lon":139.33499907},{"name":"わかぎり図書館","province":"東京都","city":"福生市","address":"東京都福生市福生（大字）1280-1","lat":35.74619349,"lon":139.32083528},{"name":"福東グランド","province":"東京都","city":"福生市","address":"東京都福生市熊川（大字）1608","lat":35.72289427,"lon":139.35088939},{"name":"福東球技場","province":"東京都","city":"福生市","address":"東京都福生市熊川（大字）1608","lat":35.72289427,"lon":139.35088939},{"name":"熊川地域体育館","province":"東京都","city":"福生市","address":"東京都福生市熊川（大字）380-7","lat":35.72062204,"lon":139.33699606},{"name":"多摩川中央公園グランド","province":"東京都","city":"福生市","address":"東京都福生市北田園1丁目","lat":35.7320676,"lon":139.32653537},{"name":"中央体育館","province":"東京都","city":"福生市","address":"東京都福生市北田園2丁目9-1","lat":35.73451441,"lon":139.32237447},{"name":"福生市営プール","province":"東京都","city":"福生市","address":"東京都福生市北田園2丁目8-4","lat":35.73426998,"lon":139.32165231},{"name":"福生地域体育館","province":"東京都","city":"福生市","address":"東京都福生市武蔵野台1丁目8-7","lat":35.74622721,"lon":139.33415374},{"name":"福生市熊川児童館","province":"東京都","city":"福生市","address":"福生市熊川1143-1","lat":35.72989,"lon":139.34109},{"name":"福生市田園児童館","province":"東京都","city":"福生市","address":"福生市南田園3-6-1","lat":35.73012,"lon":139.33104},{"name":"福生市武蔵野台児童館","province":"東京都","city":"福生市","address":"福生市武蔵野台1-12-2","lat":35.74699,"lon":139.33395},{"name":"福生市熊川児童館","province":"東京都","city":"福生市","address":"福生市熊川1143-1","lat":35.72989,"lon":139.3411},{"name":"＊?福生市立わかたけ図書館","province":"東京都","city":"福生市","address":"福生市熊川199-1","lat":35.718119,"lon":139.335002},{"name":"＊?福生市立わかぎり図書館","province":"東京都","city":"福生市","address":"福生市福生1280-1","lat":35.746199,"lon":139.320912},{"name":"＊?福生市立中央図書館","province":"東京都","city":"福生市","address":"福生市熊川850-1","lat":35.732073,"lon":139.337586},{"name":"＊?福生市立武蔵野台図書館","province":"東京都","city":"福生市","address":"福生市武蔵野台1-12-2","lat":35.746833,"lon":139.333943},{"name":"福生市熊川児童館","province":"東京都","city":"福生市","address":"福生市熊川1143-1","lat":35.730213,"lon":139.341137},{"name":"福生市田園児童館","province":"東京都","city":"福生市","address":"福生市南田園3-6-1","lat":35.730087,"lon":139.331124},{"name":"福生市武蔵野台児童館","province":"東京都","city":"福生市","address":"福生市武蔵野台1-12-2","lat":35.746808,"lon":139.333945},{"name":"熊川神社本殿","province":"東京都","city":"福生市","address":"東京都福生市熊川660","lat":35.723658,"lon":139.333882},{"name":"中央図書館","province":"東京都","city":"福生市","address":"東京都福生市熊川（大字）850-1","lat":35.73186235,"lon":139.3376679},{"name":"武蔵野台図書館","province":"東京都","city":"福生市","address":"東京都福生市武蔵野台1丁目12-2","lat":35.74680769,"lon":139.33394539},{"name":"わかたけ図書館","province":"東京都","city":"福生市","address":"東京都福生市熊川（大字）199-1","lat":35.7181112,"lon":139.33499907},{"name":"わかぎり図書館","province":"東京都","city":"福生市","address":"東京都福生市福生（大字）1280-1","lat":35.74619349,"lon":139.32083528},{"name":"福東グランド","province":"東京都","city":"福生市","address":"東京都福生市熊川（大字）1608","lat":35.72289427,"lon":139.35088939},{"name":"福東球技場","province":"東京都","city":"福生市","address":"東京都福生市熊川（大字）1608","lat":35.72289427,"lon":139.35088939},{"name":"熊川地域体育館","province":"東京都","city":"福生市","address":"東京都福生市熊川（大字）380-7","lat":35.72062204,"lon":139.33699606},{"name":"多摩川中央公園グランド","province":"東京都","city":"福生市","address":"東京都福生市北田園1丁目","lat":35.7320676,"lon":139.32653537},{"name":"中央体育館","province":"東京都","city":"福生市","address":"東京都福生市北田園2丁目9-1","lat":35.73451441,"lon":139.32237447},{"name":"福生市営プール","province":"東京都","city":"福生市","address":"東京都福生市北田園2丁目8-4","lat":35.73426998,"lon":139.32165231},{"name":"福生地域体育館","province":"東京都","city":"福生市","address":"東京都福生市武蔵野台1丁目8-7","lat":35.74622721,"lon":139.33415374},{"name":"福生市熊川児童館","province":"東京都","city":"福生市","address":"福生市熊川1143-1","lat":35.72989,"lon":139.34109},{"name":"福生市田園児童館","province":"東京都","city":"福生市","address":"福生市南田園3-6-1","lat":35.73012,"lon":139.33104},{"name":"福生市武蔵野台児童館","province":"東京都","city":"福生市","address":"福生市武蔵野台1-12-2","lat":35.74699,"lon":139.33395},{"name":"福生市熊川児童館","province":"東京都","city":"福生市","address":"福生市熊川1143-1","lat":35.72989,"lon":139.3411},{"name":"＊?福生市立わかたけ図書館","province":"東京都","city":"福生市","address":"福生市熊川199-1","lat":35.718119,"lon":139.335002},{"name":"＊?福生市立わかぎり図書館","province":"東京都","city":"福生市","address":"福生市福生1280-1","lat":35.746199,"lon":139.320912},{"name":"＊?福生市立中央図書館","province":"東京都","city":"福生市","address":"福生市熊川850-1","lat":35.732073,"lon":139.337586},{"name":"＊?福生市立武蔵野台図書館","province":"東京都","city":"福生市","address":"福生市武蔵野台1-12-2","lat":35.746833,"lon":139.333943},{"name":"福生市熊川児童館","province":"東京都","city":"福生市","address":"福生市熊川1143-1","lat":35.730213,"lon":139.341137},{"name":"福生市田園児童館","province":"東京都","city":"福生市","address":"福生市南田園3-6-1","lat":35.730087,"lon":139.331124},{"name":"福生市武蔵野台児童館","province":"東京都","city":"福生市","address":"福生市武蔵野台1-12-2","lat":35.746808,"lon":139.333945},{"name":"熊川神社本殿","province":"東京都","city":"福生市","address":"東京都福生市熊川660","lat":35.723658,"lon":139.333882},{"name":"中央図書館","province":"東京都","city":"福生市","address":"東京都福生市熊川（大字）850-1","lat":35.73186235,"lon":139.3376679},{"name":"武蔵野台図書館","province":"東京都","city":"福生市","address":"東京都福生市武蔵野台1丁目12-2","lat":35.74680769,"lon":139.33394539},{"name":"わかたけ図書館","province":"東京都","city":"福生市","address":"東京都福生市熊川（大字）199-1","lat":35.7181112,"lon":139.33499907},{"name":"わかぎり図書館","province":"東京都","city":"福生市","address":"東京都福生市福生（大字）1280-1","lat":35.74619349,"lon":139.32083528},{"name":"福東グランド","province":"東京都","city":"福生市","address":"東京都福生市熊川（大字）1608","lat":35.72289427,"lon":139.35088939},{"name":"福東球技場","province":"東京都","city":"福生市","address":"東京都福生市熊川（大字）1608","lat":35.72289427,"lon":139.35088939},{"name":"熊川地域体育館","province":"東京都","city":"福生市","address":"東京都福生市熊川（大字）380-7","lat":35.72062204,"lon":139.33699606},{"name":"多摩川中央公園グランド","province":"東京都","city":"福生市","address":"東京都福生市北田園1丁目","lat":35.7320676,"lon":139.32653537},{"name":"中央体育館","province":"東京都","city":"福生市","address":"東京都福生市北田園2丁目9-1","lat":35.73451441,"lon":139.32237447},{"name":"福生市営プール","province":"東京都","city":"福生市","address":"東京都福生市北田園2丁目8-4","lat":35.73426998,"lon":139.32165231},{"name":"福生地域体育館","province":"東京都","city":"福生市","address":"東京都福生市武蔵野台1丁目8-7","lat":35.74622721,"lon":139.33415374},{"name":"福生市熊川児童館","province":"東京都","city":"福生市","address":"福生市熊川1143-1","lat":35.72989,"lon":139.34109},{"name":"福生市田園児童館","province":"東京都","city":"福生市","address":"福生市南田園3-6-1","lat":35.73012,"lon":139.33104},{"name":"福生市武蔵野台児童館","province":"東京都","city":"福生市","address":"福生市武蔵野台1-12-2","lat":35.74699,"lon":139.33395},{"name":"福生市熊川児童館","province":"東京都","city":"福生市","address":"福生市熊川1143-1","lat":35.72989,"lon":139.3411},{"name":"＊?福生市立わかたけ図書館","province":"東京都","city":"福生市","address":"福生市熊川199-1","lat":35.718119,"lon":139.335002},{"name":"＊?福生市立わかぎり図書館","province":"東京都","city":"福生市","address":"福生市福生1280-1","lat":35.746199,"lon":139.320912},{"name":"＊?福生市立中央図書館","province":"東京都","city":"福生市","address":"福生市熊川850-1","lat":35.732073,"lon":139.337586},{"name":"＊?福生市立武蔵野台図書館","province":"東京都","city":"福生市","address":"福生市武蔵野台1-12-2","lat":35.746833,"lon":139.333943},{"name":"福生市熊川児童館","province":"東京都","city":"福生市","address":"福生市熊川1143-1","lat":35.730213,"lon":139.341137},{"name":"福生市田園児童館","province":"東京都","city":"福生市","address":"福生市南田園3-6-1","lat":35.730087,"lon":139.331124},{"name":"福生市武蔵野台児童館","province":"東京都","city":"福生市","address":"福生市武蔵野台1-12-2","lat":35.746808,"lon":139.333945},{"name":"熊川神社本殿","province":"東京都","city":"福生市","address":"東京都福生市熊川660","lat":35.723658,"lon":139.333882},{"name":"中央図書館","province":"東京都","city":"福生市","address":"東京都福生市熊川（大字）850-1","lat":35.73186235,"lon":139.3376679},{"name":"武蔵野台図書館","province":"東京都","city":"福生市","address":"東京都福生市武蔵野台1丁目12-2","lat":35.74680769,"lon":139.33394539},{"name":"わかたけ図書館","province":"東京都","city":"福生市","address":"東京都福生市熊川（大字）199-1","lat":35.7181112,"lon":139.33499907},{"name":"わかぎり図書館","province":"東京都","city":"福生市","address":"東京都福生市福生（大字）1280-1","lat":35.74619349,"lon":139.32083528},{"name":"福東グランド","province":"東京都","city":"福生市","address":"東京都福生市熊川（大字）1608","lat":35.72289427,"lon":139.35088939},{"name":"福東球技場","province":"東京都","city":"福生市","address":"東京都福生市熊川（大字）1608","lat":35.72289427,"lon":139.35088939},{"name":"熊川地域体育館","province":"東京都","city":"福生市","address":"東京都福生市熊川（大字）380-7","lat":35.72062204,"lon":139.33699606},{"name":"多摩川中央公園グランド","province":"東京都","city":"福生市","address":"東京都福生市北田園1丁目","lat":35.7320676,"lon":139.32653537},{"name":"中央体育館","province":"東京都","city":"福生市","address":"東京都福生市北田園2丁目9-1","lat":35.73451441,"lon":139.32237447},{"name":"福生市営プール","province":"東京都","city":"福生市","address":"東京都福生市北田園2丁目8-4","lat":35.73426998,"lon":139.32165231},{"name":"福生地域体育館","province":"東京都","city":"福生市","address":"東京都福生市武蔵野台1丁目8-7","lat":35.74622721,"lon":139.33415374},{"name":"福生市熊川児童館","province":"東京都","city":"福生市","address":"福生市熊川1143-1","lat":35.72989,"lon":139.34109},{"name":"福生市田園児童館","province":"東京都","city":"福生市","address":"福生市南田園3-6-1","lat":35.73012,"lon":139.33104},{"name":"福生市武蔵野台児童館","province":"東京都","city":"福生市","address":"福生市武蔵野台1-12-2","lat":35.74699,"lon":139.33395},{"name":"福生市熊川児童館","province":"東京都","city":"福生市","address":"福生市熊川1143-1","lat":35.72989,"lon":139.3411},{"name":"＊?福生市立わかたけ図書館","province":"東京都","city":"福生市","address":"福生市熊川199-1","lat":35.718119,"lon":139.335002},{"name":"＊?福生市立わかぎり図書館","province":"東京都","city":"福生市","address":"福生市福生1280-1","lat":35.746199,"lon":139.320912},{"name":"＊?福生市立中央図書館","province":"東京都","city":"福生市","address":"福生市熊川850-1","lat":35.732073,"lon":139.337586},{"name":"＊?福生市立武蔵野台図書館","province":"東京都","city":"福生市","address":"福生市武蔵野台1-12-2","lat":35.746833,"lon":139.333943},{"name":"福生市熊川児童館","province":"東京都","city":"福生市","address":"福生市熊川1143-1","lat":35.730213,"lon":139.341137},{"name":"福生市田園児童館","province":"東京都","city":"福生市","address":"福生市南田園3-6-1","lat":35.730087,"lon":139.331124},{"name":"福生市武蔵野台児童館","province":"東京都","city":"福生市","address":"福生市武蔵野台1-12-2","lat":35.746808,"lon":139.333945},{"name":"熊川神社本殿","province":"東京都","city":"福生市","address":"東京都福生市熊川660","lat":35.723658,"lon":139.333882},{"name":"中央図書館","province":"東京都","city":"福生市","address":"東京都福生市熊川（大字）850-1","lat":35.73186235,"lon":139.3376679},{"name":"武蔵野台図書館","province":"東京都","city":"福生市","address":"東京都福生市武蔵野台1丁目12-2","lat":35.74680769,"lon":139.33394539},{"name":"わかたけ図書館","province":"東京都","city":"福生市","address":"東京都福生市熊川（大字）199-1","lat":35.7181112,"lon":139.33499907},{"name":"わかぎり図書館","province":"東京都","city":"福生市","address":"東京都福生市福生（大字）1280-1","lat":35.74619349,"lon":139.32083528},{"name":"福東グランド","province":"東京都","city":"福生市","address":"東京都福生市熊川（大字）1608","lat":35.72289427,"lon":139.35088939},{"name":"福東球技場","province":"東京都","city":"福生市","address":"東京都福生市熊川（大字）1608","lat":35.72289427,"lon":139.35088939},{"name":"熊川地域体育館","province":"東京都","city":"福生市","address":"東京都福生市熊川（大字）380-7","lat":35.72062204,"lon":139.33699606},{"name":"多摩川中央公園グランド","province":"東京都","city":"福生市","address":"東京都福生市北田園1丁目","lat":35.7320676,"lon":139.32653537},{"name":"中央体育館","province":"東京都","city":"福生市","address":"東京都福生市北田園2丁目9-1","lat":35.73451441,"lon":139.32237447},{"name":"福生市営プール","province":"東京都","city":"福生市","address":"東京都福生市北田園2丁目8-4","lat":35.73426998,"lon":139.32165231},{"name":"福生地域体育館","province":"東京都","city":"福生市","address":"東京都福生市武蔵野台1丁目8-7","lat":35.74622721,"lon":139.33415374},{"name":"福生市熊川児童館","province":"東京都","city":"福生市","address":"福生市熊川1143-1","lat":35.72989,"lon":139.34109},{"name":"福生市田園児童館","province":"東京都","city":"福生市","address":"福生市南田園3-6-1","lat":35.73012,"lon":139.33104},{"name":"福生市武蔵野台児童館","province":"東京都","city":"福生市","address":"福生市武蔵野台1-12-2","lat":35.74699,"lon":139.33395},{"name":"福生市熊川児童館","province":"東京都","city":"福生市","address":"福生市熊川1143-1","lat":35.72989,"lon":139.3411},{"name":"＊?福生市立わかたけ図書館","province":"東京都","city":"福生市","address":"福生市熊川199-1","lat":35.718119,"lon":139.335002},{"name":"＊?福生市立わかぎり図書館","province":"東京都","city":"福生市","address":"福生市福生1280-1","lat":35.746199,"lon":139.320912},{"name":"＊?福生市立中央図書館","province":"東京都","city":"福生市","address":"福生市熊川850-1","lat":35.732073,"lon":139.337586},{"name":"＊?福生市立武蔵野台図書館","province":"東京都","city":"福生市","address":"福生市武蔵野台1-12-2","lat":35.746833,"lon":139.333943},{"name":"福生市熊川児童館","province":"東京都","city":"福生市","address":"福生市熊川1143-1","lat":35.730213,"lon":139.341137},{"name":"福生市田園児童館","province":"東京都","city":"福生市","address":"福生市南田園3-6-1","lat":35.730087,"lon":139.331124},{"name":"福生市武蔵野台児童館","province":"東京都","city":"福生市","address":"福生市武蔵野台1-12-2","lat":35.746808,"lon":139.333945},{"name":"熊川神社本殿","province":"東京都","city":"福生市","address":"東京都福生市熊川660","lat":35.723658,"lon":139.333882},{"name":"中央図書館","province":"東京都","city":"福生市","address":"東京都福生市熊川（大字）850-1","lat":35.73186235,"lon":139.3376679},{"name":"武蔵野台図書館","province":"東京都","city":"福生市","address":"東京都福生市武蔵野台1丁目12-2","lat":35.74680769,"lon":139.33394539},{"name":"わかたけ図書館","province":"東京都","city":"福生市","address":"東京都福生市熊川（大字）199-1","lat":35.7181112,"lon":139.33499907},{"name":"わかぎり図書館","province":"東京都","city":"福生市","address":"東京都福生市福生（大字）1280-1","lat":35.74619349,"lon":139.32083528},{"name":"福東グランド","province":"東京都","city":"福生市","address":"東京都福生市熊川（大字）1608","lat":35.72289427,"lon":139.35088939},{"name":"福東球技場","province":"東京都","city":"福生市","address":"東京都福生市熊川（大字）1608","lat":35.72289427,"lon":139.35088939},{"name":"熊川地域体育館","province":"東京都","city":"福生市","address":"東京都福生市熊川（大字）380-7","lat":35.72062204,"lon":139.33699606},{"name":"多摩川中央公園グランド","province":"東京都","city":"福生市","address":"東京都福生市北田園1丁目","lat":35.7320676,"lon":139.32653537},{"name":"中央体育館","province":"東京都","city":"福生市","address":"東京都福生市北田園2丁目9-1","lat":35.73451441,"lon":139.32237447},{"name":"福生市営プール","province":"東京都","city":"福生市","address":"東京都福生市北田園2丁目8-4","lat":35.73426998,"lon":139.32165231},{"name":"福生地域体育館","province":"東京都","city":"福生市","address":"東京都福生市武蔵野台1丁目8-7","lat":35.74622721,"lon":139.33415374},{"name":"福生市熊川児童館","province":"東京都","city":"福生市","address":"福生市熊川1143-1","lat":35.72989,"lon":139.34109},{"name":"福生市田園児童館","province":"東京都","city":"福生市","address":"福生市南田園3-6-1","lat":35.73012,"lon":139.33104},{"name":"福生市武蔵野台児童館","province":"東京都","city":"福生市","address":"福生市武蔵野台1-12-2","lat":35.74699,"lon":139.33395},{"name":"福生市熊川児童館","province":"東京都","city":"福生市","address":"福生市熊川1143-1","lat":35.72989,"lon":139.3411},{"name":"＊?福生市立わかたけ図書館","province":"東京都","city":"福生市","address":"福生市熊川199-1","lat":35.718119,"lon":139.335002},{"name":"＊?福生市立わかぎり図書館","province":"東京都","city":"福生市","address":"福生市福生1280-1","lat":35.746199,"lon":139.320912},{"name":"＊?福生市立中央図書館","province":"東京都","city":"福生市","address":"福生市熊川850-1","lat":35.732073,"lon":139.337586},{"name":"＊?福生市立武蔵野台図書館","province":"東京都","city":"福生市","address":"福生市武蔵野台1-12-2","lat":35.746833,"lon":139.333943},{"name":"福生市熊川児童館","province":"東京都","city":"福生市","address":"福生市熊川1143-1","lat":35.730213,"lon":139.341137},{"name":"福生市田園児童館","province":"東京都","city":"福生市","address":"福生市南田園3-6-1","lat":35.730087,"lon":139.331124},{"name":"福生市武蔵野台児童館","province":"東京都","city":"福生市","address":"福生市武蔵野台1-12-2","lat":35.746808,"lon":139.333945},{"name":"熊川神社本殿","province":"東京都","city":"福生市","address":"東京都福生市熊川660","lat":35.723658,"lon":139.333882},{"name":"中央図書館","province":"東京都","city":"福生市","address":"東京都福生市熊川（大字）850-1","lat":35.73186235,"lon":139.3376679},{"name":"武蔵野台図書館","province":"東京都","city":"福生市","address":"東京都福生市武蔵野台1丁目12-2","lat":35.74680769,"lon":139.33394539},{"name":"わかたけ図書館","province":"東京都","city":"福生市","address":"東京都福生市熊川（大字）199-1","lat":35.7181112,"lon":139.33499907},{"name":"わかぎり図書館","province":"東京都","city":"福生市","address":"東京都福生市福生（大字）1280-1","lat":35.74619349,"lon":139.32083528},{"name":"福東グランド","province":"東京都","city":"福生市","address":"東京都福生市熊川（大字）1608","lat":35.72289427,"lon":139.35088939},{"name":"福東球技場","province":"東京都","city":"福生市","address":"東京都福生市熊川（大字）1608","lat":35.72289427,"lon":139.35088939},{"name":"熊川地域体育館","province":"東京都","city":"福生市","address":"東京都福生市熊川（大字）380-7","lat":35.72062204,"lon":139.33699606},{"name":"多摩川中央公園グランド","province":"東京都","city":"福生市","address":"東京都福生市北田園1丁目","lat":35.7320676,"lon":139.32653537},{"name":"中央体育館","province":"東京都","city":"福生市","address":"東京都福生市北田園2丁目9-1","lat":35.73451441,"lon":139.32237447},{"name":"福生市営プール","province":"東京都","city":"福生市","address":"東京都福生市北田園2丁目8-4","lat":35.73426998,"lon":139.32165231},{"name":"福生地域体育館","province":"東京都","city":"福生市","address":"東京都福生市武蔵野台1丁目8-7","lat":35.74622721,"lon":139.33415374},{"name":"福生市熊川児童館","province":"東京都","city":"福生市","address":"福生市熊川1143-1","lat":35.72989,"lon":139.34109},{"name":"福生市田園児童館","province":"東京都","city":"福生市","address":"福生市南田園3-6-1","lat":35.73012,"lon":139.33104},{"name":"福生市武蔵野台児童館","province":"東京都","city":"福生市","address":"福生市武蔵野台1-12-2","lat":35.74699,"lon":139.33395},{"name":"福生市熊川児童館","province":"東京都","city":"福生市","address":"福生市熊川1143-1","lat":35.72989,"lon":139.3411},{"name":"＊?福生市立わかたけ図書館","province":"東京都","city":"福生市","address":"福生市熊川199-1","lat":35.718119,"lon":139.335002},{"name":"＊?福生市立わかぎり図書館","province":"東京都","city":"福生市","address":"福生市福生1280-1","lat":35.746199,"lon":139.320912},{"name":"＊?福生市立中央図書館","province":"東京都","city":"福生市","address":"福生市熊川850-1","lat":35.732073,"lon":139.337586},{"name":"＊?福生市立武蔵野台図書館","province":"東京都","city":"福生市","address":"福生市武蔵野台1-12-2","lat":35.746833,"lon":139.333943},{"name":"福生市熊川児童館","province":"東京都","city":"福生市","address":"福生市熊川1143-1","lat":35.730213,"lon":139.341137},{"name":"福生市田園児童館","province":"東京都","city":"福生市","address":"福生市南田園3-6-1","lat":35.730087,"lon":139.331124},{"name":"福生市武蔵野台児童館","province":"東京都","city":"福生市","address":"福生市武蔵野台1-12-2","lat":35.746808,"lon":139.333945},{"name":"熊川神社本殿","province":"東京都","city":"福生市","address":"東京都福生市熊川660","lat":35.723658,"lon":139.333882},{"name":"中央図書館","province":"東京都","city":"福生市","address":"東京都福生市熊川（大字）850-1","lat":35.73186235,"lon":139.3376679},{"name":"武蔵野台図書館","province":"東京都","city":"福生市","address":"東京都福生市武蔵野台1丁目12-2","lat":35.74680769,"lon":139.33394539},{"name":"わかたけ図書館","province":"東京都","city":"福生市","address":"東京都福生市熊川（大字）199-1","lat":35.7181112,"lon":139.33499907},{"name":"わかぎり図書館","province":"東京都","city":"福生市","address":"東京都福生市福生（大字）1280-1","lat":35.74619349,"lon":139.32083528},{"name":"福東グランド","province":"東京都","city":"福生市","address":"東京都福生市熊川（大字）1608","lat":35.72289427,"lon":139.35088939},{"name":"福東球技場","province":"東京都","city":"福生市","address":"東京都福生市熊川（大字）1608","lat":35.72289427,"lon":139.35088939},{"name":"熊川地域体育館","province":"東京都","city":"福生市","address":"東京都福生市熊川（大字）380-7","lat":35.72062204,"lon":139.33699606},{"name":"多摩川中央公園グランド","province":"東京都","city":"福生市","address":"東京都福生市北田園1丁目","lat":35.7320676,"lon":139.32653537},{"name":"中央体育館","province":"東京都","city":"福生市","address":"東京都福生市北田園2丁目9-1","lat":35.73451441,"lon":139.32237447},{"name":"福生市営プール","province":"東京都","city":"福生市","address":"東京都福生市北田園2丁目8-4","lat":35.73426998,"lon":139.32165231},{"name":"福生地域体育館","province":"東京都","city":"福生市","address":"東京都福生市武蔵野台1丁目8-7","lat":35.74622721,"lon":139.33415374},{"name":"福生市熊川児童館","province":"東京都","city":"福生市","address":"福生市熊川1143-1","lat":35.72989,"lon":139.34109},{"name":"福生市田園児童館","province":"東京都","city":"福生市","address":"福生市南田園3-6-1","lat":35.73012,"lon":139.33104},{"name":"福生市武蔵野台児童館","province":"東京都","city":"福生市","address":"福生市武蔵野台1-12-2","lat":35.74699,"lon":139.33395},{"name":"福生市熊川児童館","province":"東京都","city":"福生市","address":"福生市熊川1143-1","lat":35.72989,"lon":139.3411},{"name":"＊?福生市立わかたけ図書館","province":"東京都","city":"福生市","address":"福生市熊川199-1","lat":35.718119,"lon":139.335002},{"name":"＊?福生市立わかぎり図書館","province":"東京都","city":"福生市","address":"福生市福生1280-1","lat":35.746199,"lon":139.320912},{"name":"＊?福生市立中央図書館","province":"東京都","city":"福生市","address":"福生市熊川850-1","lat":35.732073,"lon":139.337586},{"name":"＊?福生市立武蔵野台図書館","province":"東京都","city":"福生市","address":"福生市武蔵野台1-12-2","lat":35.746833,"lon":139.333943},{"name":"福生市熊川児童館","province":"東京都","city":"福生市","address":"福生市熊川1143-1","lat":35.730213,"lon":139.341137},{"name":"福生市田園児童館","province":"東京都","city":"福生市","address":"福生市南田園3-6-1","lat":35.730087,"lon":139.331124},{"name":"福生市武蔵野台児童館","province":"東京都","city":"福生市","address":"福生市武蔵野台1-12-2","lat":35.746808,"lon":139.333945},{"name":"熊川神社本殿","province":"東京都","city":"福生市","address":"東京都福生市熊川660","lat":35.723658,"lon":139.333882},{"name":"中央図書館","province":"東京都","city":"福生市","address":"東京都福生市熊川（大字）850-1","lat":35.73186235,"lon":139.3376679},{"name":"武蔵野台図書館","province":"東京都","city":"福生市","address":"東京都福生市武蔵野台1丁目12-2","lat":35.74680769,"lon":139.33394539},{"name":"わかたけ図書館","province":"東京都","city":"福生市","address":"東京都福生市熊川（大字）199-1","lat":35.7181112,"lon":139.33499907},{"name":"わかぎり図書館","province":"東京都","city":"福生市","address":"東京都福生市福生（大字）1280-1","lat":35.74619349,"lon":139.32083528},{"name":"福東グランド","province":"東京都","city":"福生市","address":"東京都福生市熊川（大字）1608","lat":35.72289427,"lon":139.35088939},{"name":"福東球技場","province":"東京都","city":"福生市","address":"東京都福生市熊川（大字）1608","lat":35.72289427,"lon":139.35088939},{"name":"熊川地域体育館","province":"東京都","city":"福生市","address":"東京都福生市熊川（大字）380-7","lat":35.72062204,"lon":139.33699606},{"name":"多摩川中央公園グランド","province":"東京都","city":"福生市","address":"東京都福生市北田園1丁目","lat":35.7320676,"lon":139.32653537},{"name":"中央体育館","province":"東京都","city":"福生市","address":"東京都福生市北田園2丁目9-1","lat":35.73451441,"lon":139.32237447},{"name":"福生市営プール","province":"東京都","city":"福生市","address":"東京都福生市北田園2丁目8-4","lat":35.73426998,"lon":139.32165231},{"name":"福生地域体育館","province":"東京都","city":"福生市","address":"東京都福生市武蔵野台1丁目8-7","lat":35.74622721,"lon":139.33415374},{"name":"福生市熊川児童館","province":"東京都","city":"福生市","address":"福生市熊川1143-1","lat":35.72989,"lon":139.34109},{"name":"福生市田園児童館","province":"東京都","city":"福生市","address":"福生市南田園3-6-1","lat":35.73012,"lon":139.33104},{"name":"福生市武蔵野台児童館","province":"東京都","city":"福生市","address":"福生市武蔵野台1-12-2","lat":35.74699,"lon":139.33395},{"name":"福生市熊川児童館","province":"東京都","city":"福生市","address":"福生市熊川1143-1","lat":35.72989,"lon":139.3411},{"name":"＊?福生市立わかたけ図書館","province":"東京都","city":"福生市","address":"福生市熊川199-1","lat":35.718119,"lon":139.335002},{"name":"＊?福生市立わかぎり図書館","province":"東京都","city":"福生市","address":"福生市福生1280-1","lat":35.746199,"lon":139.320912},{"name":"＊?福生市立中央図書館","province":"東京都","city":"福生市","address":"福生市熊川850-1","lat":35.732073,"lon":139.337586},{"name":"＊?福生市立武蔵野台図書館","province":"東京都","city":"福生市","address":"福生市武蔵野台1-12-2","lat":35.746833,"lon":139.333943},{"name":"福生市熊川児童館","province":"東京都","city":"福生市","address":"福生市熊川1143-1","lat":35.730213,"lon":139.341137},{"name":"福生市田園児童館","province":"東京都","city":"福生市","address":"福生市南田園3-6-1","lat":35.730087,"lon":139.331124},{"name":"福生市武蔵野台児童館","province":"東京都","city":"福生市","address":"福生市武蔵野台1-12-2","lat":35.746808,"lon":139.333945},{"name":"熊川神社本殿","province":"東京都","city":"福生市","address":"東京都福生市熊川660","lat":35.723658,"lon":139.333882},{"name":"中央図書館","province":"東京都","city":"福生市","address":"東京都福生市熊川（大字）850-1","lat":35.73186235,"lon":139.3376679},{"name":"武蔵野台図書館","province":"東京都","city":"福生市","address":"東京都福生市武蔵野台1丁目12-2","lat":35.74680769,"lon":139.33394539},{"name":"わかたけ図書館","province":"東京都","city":"福生市","address":"東京都福生市熊川（大字）199-1","lat":35.7181112,"lon":139.33499907},{"name":"わかぎり図書館","province":"東京都","city":"福生市","address":"東京都福生市福生（大字）1280-1","lat":35.74619349,"lon":139.32083528},{"name":"福東グランド","province":"東京都","city":"福生市","address":"東京都福生市熊川（大字）1608","lat":35.72289427,"lon":139.35088939},{"name":"福東球技場","province":"東京都","city":"福生市","address":"東京都福生市熊川（大字）1608","lat":35.72289427,"lon":139.35088939},{"name":"熊川地域体育館","province":"東京都","city":"福生市","address":"東京都福生市熊川（大字）380-7","lat":35.72062204,"lon":139.33699606},{"name":"多摩川中央公園グランド","province":"東京都","city":"福生市","address":"東京都福生市北田園1丁目","lat":35.7320676,"lon":139.32653537},{"name":"中央体育館","province":"東京都","city":"福生市","address":"東京都福生市北田園2丁目9-1","lat":35.73451441,"lon":139.32237447},{"name":"福生市営プール","province":"東京都","city":"福生市","address":"東京都福生市北田園2丁目8-4","lat":35.73426998,"lon":139.32165231},{"name":"福生地域体育館","province":"東京都","city":"福生市","address":"東京都福生市武蔵野台1丁目8-7","lat":35.74622721,"lon":139.33415374},{"name":"福生市熊川児童館","province":"東京都","city":"福生市","address":"福生市熊川1143-1","lat":35.72989,"lon":139.34109},{"name":"福生市田園児童館","province":"東京都","city":"福生市","address":"福生市南田園3-6-1","lat":35.73012,"lon":139.33104},{"name":"福生市武蔵野台児童館","province":"東京都","city":"福生市","address":"福生市武蔵野台1-12-2","lat":35.74699,"lon":139.33395},{"name":"福生市熊川児童館","province":"東京都","city":"福生市","address":"福生市熊川1143-1","lat":35.72989,"lon":139.3411},{"name":"＊?福生市立わかたけ図書館","province":"東京都","city":"福生市","address":"福生市熊川199-1","lat":35.718119,"lon":139.335002},{"name":"＊?福生市立わかぎり図書館","province":"東京都","city":"福生市","address":"福生市福生1280-1","lat":35.746199,"lon":139.320912},{"name":"＊?福生市立中央図書館","province":"東京都","city":"福生市","address":"福生市熊川850-1","lat":35.732073,"lon":139.337586},{"name":"＊?福生市立武蔵野台図書館","province":"東京都","city":"福生市","address":"福生市武蔵野台1-12-2","lat":35.746833,"lon":139.333943},{"name":"福生市熊川児童館","province":"東京都","city":"福生市","address":"福生市熊川1143-1","lat":35.730213,"lon":139.341137},{"name":"福生市田園児童館","province":"東京都","city":"福生市","address":"福生市南田園3-6-1","lat":35.730087,"lon":139.331124},{"name":"福生市武蔵野台児童館","province":"東京都","city":"福生市","address":"福生市武蔵野台1-12-2","lat":35.746808,"lon":139.333945},{"name":"熊川神社本殿","province":"東京都","city":"福生市","address":"東京都福生市熊川660","lat":35.723658,"lon":139.333882},{"name":"中央図書館","province":"東京都","city":"福生市","address":"東京都福生市熊川（大字）850-1","lat":35.73186235,"lon":139.3376679},{"name":"武蔵野台図書館","province":"東京都","city":"福生市","address":"東京都福生市武蔵野台1丁目12-2","lat":35.74680769,"lon":139.33394539},{"name":"わかたけ図書館","province":"東京都","city":"福生市","address":"東京都福生市熊川（大字）199-1","lat":35.7181112,"lon":139.33499907},{"name":"わかぎり図書館","province":"東京都","city":"福生市","address":"東京都福生市福生（大字）1280-1","lat":35.74619349,"lon":139.32083528},{"name":"福東グランド","province":"東京都","city":"福生市","address":"東京都福生市熊川（大字）1608","lat":35.72289427,"lon":139.35088939},{"name":"福東球技場","province":"東京都","city":"福生市","address":"東京都福生市熊川（大字）1608","lat":35.72289427,"lon":139.35088939},{"name":"熊川地域体育館","province":"東京都","city":"福生市","address":"東京都福生市熊川（大字）380-7","lat":35.72062204,"lon":139.33699606},{"name":"多摩川中央公園グランド","province":"東京都","city":"福生市","address":"東京都福生市北田園1丁目","lat":35.7320676,"lon":139.32653537},{"name":"中央体育館","province":"東京都","city":"福生市","address":"東京都福生市北田園2丁目9-1","lat":35.73451441,"lon":139.32237447},{"name":"福生市営プール","province":"東京都","city":"福生市","address":"東京都福生市北田園2丁目8-4","lat":35.73426998,"lon":139.32165231},{"name":"福生地域体育館","province":"東京都","city":"福生市","address":"東京都福生市武蔵野台1丁目8-7","lat":35.74622721,"lon":139.33415374},{"name":"福生市熊川児童館","province":"東京都","city":"福生市","address":"福生市熊川1143-1","lat":35.72989,"lon":139.34109},{"name":"福生市田園児童館","province":"東京都","city":"福生市","address":"福生市南田園3-6-1","lat":35.73012,"lon":139.33104},{"name":"福生市武蔵野台児童館","province":"東京都","city":"福生市","address":"福生市武蔵野台1-12-2","lat":35.74699,"lon":139.33395},{"name":"福生市熊川児童館","province":"東京都","city":"福生市","address":"福生市熊川1143-1","lat":35.72989,"lon":139.3411},{"name":"＊?福生市立わかたけ図書館","province":"東京都","city":"福生市","address":"福生市熊川199-1","lat":35.718119,"lon":139.335002},{"name":"＊?福生市立わかぎり図書館","province":"東京都","city":"福生市","address":"福生市福生1280-1","lat":35.746199,"lon":139.320912},{"name":"＊?福生市立中央図書館","province":"東京都","city":"福生市","address":"福生市熊川850-1","lat":35.732073,"lon":139.337586},{"name":"＊?福生市立武蔵野台図書館","province":"東京都","city":"福生市","address":"福生市武蔵野台1-12-2","lat":35.746833,"lon":139.333943},{"name":"福生市熊川児童館","province":"東京都","city":"福生市","address":"福生市熊川1143-1","lat":35.730213,"lon":139.341137},{"name":"福生市田園児童館","province":"東京都","city":"福生市","address":"福生市南田園3-6-1","lat":35.730087,"lon":139.331124},{"name":"福生市武蔵野台児童館","province":"東京都","city":"福生市","address":"福生市武蔵野台1-12-2","lat":35.746808,"lon":139.333945},{"name":"熊川神社本殿","province":"東京都","city":"福生市","address":"東京都福生市熊川660","lat":35.723658,"lon":139.333882},{"name":"中央図書館","province":"東京都","city":"福生市","address":"東京都福生市熊川（大字）850-1","lat":35.73186235,"lon":139.3376679},{"name":"武蔵野台図書館","province":"東京都","city":"福生市","address":"東京都福生市武蔵野台1丁目12-2","lat":35.74680769,"lon":139.33394539},{"name":"わかたけ図書館","province":"東京都","city":"福生市","address":"東京都福生市熊川（大字）199-1","lat":35.7181112,"lon":139.33499907},{"name":"わかぎり図書館","province":"東京都","city":"福生市","address":"東京都福生市福生（大字）1280-1","lat":35.74619349,"lon":139.32083528},{"name":"福東グランド","province":"東京都","city":"福生市","address":"東京都福生市熊川（大字）1608","lat":35.72289427,"lon":139.35088939},{"name":"福東球技場","province":"東京都","city":"福生市","address":"東京都福生市熊川（大字）1608","lat":35.72289427,"lon":139.35088939},{"name":"熊川地域体育館","province":"東京都","city":"福生市","address":"東京都福生市熊川（大字）380-7","lat":35.72062204,"lon":139.33699606},{"name":"多摩川中央公園グランド","province":"東京都","city":"福生市","address":"東京都福生市北田園1丁目","lat":35.7320676,"lon":139.32653537},{"name":"中央体育館","province":"東京都","city":"福生市","address":"東京都福生市北田園2丁目9-1","lat":35.73451441,"lon":139.32237447},{"name":"福生市営プール","province":"東京都","city":"福生市","address":"東京都福生市北田園2丁目8-4","lat":35.73426998,"lon":139.32165231},{"name":"福生地域体育館","province":"東京都","city":"福生市","address":"東京都福生市武蔵野台1丁目8-7","lat":35.74622721,"lon":139.33415374},{"name":"福生市熊川児童館","province":"東京都","city":"福生市","address":"福生市熊川1143-1","lat":35.72989,"lon":139.34109},{"name":"福生市田園児童館","province":"東京都","city":"福生市","address":"福生市南田園3-6-1","lat":35.73012,"lon":139.33104},{"name":"福生市武蔵野台児童館","province":"東京都","city":"福生市","address":"福生市武蔵野台1-12-2","lat":35.74699,"lon":139.33395},{"name":"福生市熊川児童館","province":"東京都","city":"福生市","address":"福生市熊川1143-1","lat":35.72989,"lon":139.3411},{"name":"＊?福生市立わかたけ図書館","province":"東京都","city":"福生市","address":"福生市熊川199-1","lat":35.718119,"lon":139.335002},{"name":"＊?福生市立わかぎり図書館","province":"東京都","city":"福生市","address":"福生市福生1280-1","lat":35.746199,"lon":139.320912},{"name":"＊?福生市立中央図書館","province":"東京都","city":"福生市","address":"福生市熊川850-1","lat":35.732073,"lon":139.337586},{"name":"＊?福生市立武蔵野台図書館","province":"東京都","city":"福生市","address":"福生市武蔵野台1-12-2","lat":35.746833,"lon":139.333943},{"name":"福生市熊川児童館","province":"東京都","city":"福生市","address":"福生市熊川1143-1","lat":35.730213,"lon":139.341137},{"name":"福生市田園児童館","province":"東京都","city":"福生市","address":"福生市南田園3-6-1","lat":35.730087,"lon":139.331124},{"name":"福生市武蔵野台児童館","province":"東京都","city":"福生市","address":"福生市武蔵野台1-12-2","lat":35.746808,"lon":139.333945},{"name":"熊川神社本殿","province":"東京都","city":"福生市","address":"東京都福生市熊川660","lat":35.723658,"lon":139.333882},{"name":"中央図書館","province":"東京都","city":"福生市","address":"東京都福生市熊川（大字）850-1","lat":35.73186235,"lon":139.3376679},{"name":"武蔵野台図書館","province":"東京都","city":"福生市","address":"東京都福生市武蔵野台1丁目12-2","lat":35.74680769,"lon":139.33394539},{"name":"わかたけ図書館","province":"東京都","city":"福生市","address":"東京都福生市熊川（大字）199-1","lat":35.7181112,"lon":139.33499907},{"name":"わかぎり図書館","province":"東京都","city":"福生市","address":"東京都福生市福生（大字）1280-1","lat":35.74619349,"lon":139.32083528},{"name":"福東グランド","province":"東京都","city":"福生市","address":"東京都福生市熊川（大字）1608","lat":35.72289427,"lon":139.35088939},{"name":"福東球技場","province":"東京都","city":"福生市","address":"東京都福生市熊川（大字）1608","lat":35.72289427,"lon":139.35088939},{"name":"熊川地域体育館","province":"東京都","city":"福生市","address":"東京都福生市熊川（大字）380-7","lat":35.72062204,"lon":139.33699606},{"name":"多摩川中央公園グランド","province":"東京都","city":"福生市","address":"東京都福生市北田園1丁目","lat":35.7320676,"lon":139.32653537},{"name":"中央体育館","province":"東京都","city":"福生市","address":"東京都福生市北田園2丁目9-1","lat":35.73451441,"lon":139.32237447},{"name":"福生市営プール","province":"東京都","city":"福生市","address":"東京都福生市北田園2丁目8-4","lat":35.73426998,"lon":139.32165231},{"name":"福生地域体育館","province":"東京都","city":"福生市","address":"東京都福生市武蔵野台1丁目8-7","lat":35.74622721,"lon":139.33415374},{"name":"福生市熊川児童館","province":"東京都","city":"福生市","address":"福生市熊川1143-1","lat":35.72989,"lon":139.34109},{"name":"福生市田園児童館","province":"東京都","city":"福生市","address":"福生市南田園3-6-1","lat":35.73012,"lon":139.33104},{"name":"福生市武蔵野台児童館","province":"東京都","city":"福生市","address":"福生市武蔵野台1-12-2","lat":35.74699,"lon":139.33395},{"name":"福生市熊川児童館","province":"東京都","city":"福生市","address":"福生市熊川1143-1","lat":35.72989,"lon":139.3411},{"name":"＊?福生市立わかたけ図書館","province":"東京都","city":"福生市","address":"福生市熊川199-1","lat":35.718119,"lon":139.335002},{"name":"＊?福生市立わかぎり図書館","province":"東京都","city":"福生市","address":"福生市福生1280-1","lat":35.746199,"lon":139.320912},{"name":"＊?福生市立中央図書館","province":"東京都","city":"福生市","address":"福生市熊川850-1","lat":35.732073,"lon":139.337586},{"name":"＊?福生市立武蔵野台図書館","province":"東京都","city":"福生市","address":"福生市武蔵野台1-12-2","lat":35.746833,"lon":139.333943},{"name":"福生市熊川児童館","province":"東京都","city":"福生市","address":"福生市熊川1143-1","lat":35.730213,"lon":139.341137},{"name":"福生市田園児童館","province":"東京都","city":"福生市","address":"福生市南田園3-6-1","lat":35.730087,"lon":139.331124},{"name":"福生市武蔵野台児童館","province":"東京都","city":"福生市","address":"福生市武蔵野台1-12-2","lat":35.746808,"lon":139.333945},{"name":"熊川神社本殿","province":"東京都","city":"福生市","address":"東京都福生市熊川660","lat":35.723658,"lon":139.333882},{"name":"中央図書館","province":"東京都","city":"福生市","address":"東京都福生市熊川（大字）850-1","lat":35.73186235,"lon":139.3376679},{"name":"武蔵野台図書館","province":"東京都","city":"福生市","address":"東京都福生市武蔵野台1丁目12-2","lat":35.74680769,"lon":139.33394539},{"name":"わかたけ図書館","province":"東京都","city":"福生市","address":"東京都福生市熊川（大字）199-1","lat":35.7181112,"lon":139.33499907},{"name":"わかぎり図書館","province":"東京都","city":"福生市","address":"東京都福生市福生（大字）1280-1","lat":35.74619349,"lon":139.32083528},{"name":"福東グランド","province":"東京都","city":"福生市","address":"東京都福生市熊川（大字）1608","lat":35.72289427,"lon":139.35088939},{"name":"福東球技場","province":"東京都","city":"福生市","address":"東京都福生市熊川（大字）1608","lat":35.72289427,"lon":139.35088939},{"name":"熊川地域体育館","province":"東京都","city":"福生市","address":"東京都福生市熊川（大字）380-7","lat":35.72062204,"lon":139.33699606},{"name":"多摩川中央公園グランド","province":"東京都","city":"福生市","address":"東京都福生市北田園1丁目","lat":35.7320676,"lon":139.32653537},{"name":"中央体育館","province":"東京都","city":"福生市","address":"東京都福生市北田園2丁目9-1","lat":35.73451441,"lon":139.32237447},{"name":"福生市営プール","province":"東京都","city":"福生市","address":"東京都福生市北田園2丁目8-4","lat":35.73426998,"lon":139.32165231},{"name":"福生地域体育館","province":"東京都","city":"福生市","address":"東京都福生市武蔵野台1丁目8-7","lat":35.74622721,"lon":139.33415374},{"name":"福生市熊川児童館","province":"東京都","city":"福生市","address":"福生市熊川1143-1","lat":35.72989,"lon":139.34109},{"name":"福生市田園児童館","province":"東京都","city":"福生市","address":"福生市南田園3-6-1","lat":35.73012,"lon":139.33104},{"name":"福生市武蔵野台児童館","province":"東京都","city":"福生市","address":"福生市武蔵野台1-12-2","lat":35.74699,"lon":139.33395},{"name":"福生市熊川児童館","province":"東京都","city":"福生市","address":"福生市熊川1143-1","lat":35.72989,"lon":139.3411},{"name":"＊?福生市立わかたけ図書館","province":"東京都","city":"福生市","address":"福生市熊川199-1","lat":35.718119,"lon":139.335002},{"name":"＊?福生市立わかぎり図書館","province":"東京都","city":"福生市","address":"福生市福生1280-1","lat":35.746199,"lon":139.320912},{"name":"＊?福生市立中央図書館","province":"東京都","city":"福生市","address":"福生市熊川850-1","lat":35.732073,"lon":139.337586},{"name":"＊?福生市立武蔵野台図書館","province":"東京都","city":"福生市","address":"福生市武蔵野台1-12-2","lat":35.746833,"lon":139.333943},{"name":"福生市熊川児童館","province":"東京都","city":"福生市","address":"福生市熊川1143-1","lat":35.730213,"lon":139.341137},{"name":"福生市田園児童館","province":"東京都","city":"福生市","address":"福生市南田園3-6-1","lat":35.730087,"lon":139.331124},{"name":"福生市武蔵野台児童館","province":"東京都","city":"福生市","address":"福生市武蔵野台1-12-2","lat":35.746808,"lon":139.333945},{"name":"熊川神社本殿","province":"東京都","city":"福生市","address":"東京都福生市熊川660","lat":35.723658,"lon":139.333882},{"name":"中央図書館","province":"東京都","city":"福生市","address":"東京都福生市熊川（大字）850-1","lat":35.73186235,"lon":139.3376679},{"name":"武蔵野台図書館","province":"東京都","city":"福生市","address":"東京都福生市武蔵野台1丁目12-2","lat":35.74680769,"lon":139.33394539},{"name":"わかたけ図書館","province":"東京都","city":"福生市","address":"東京都福生市熊川（大字）199-1","lat":35.7181112,"lon":139.33499907},{"name":"わかぎり図書館","province":"東京都","city":"福生市","address":"東京都福生市福生（大字）1280-1","lat":35.74619349,"lon":139.32083528},{"name":"福東グランド","province":"東京都","city":"福生市","address":"東京都福生市熊川（大字）1608","lat":35.72289427,"lon":139.35088939},{"name":"福東球技場","province":"東京都","city":"福生市","address":"東京都福生市熊川（大字）1608","lat":35.72289427,"lon":139.35088939},{"name":"熊川地域体育館","province":"東京都","city":"福生市","address":"東京都福生市熊川（大字）380-7","lat":35.72062204,"lon":139.33699606},{"name":"多摩川中央公園グランド","province":"東京都","city":"福生市","address":"東京都福生市北田園1丁目","lat":35.7320676,"lon":139.32653537},{"name":"中央体育館","province":"東京都","city":"福生市","address":"東京都福生市北田園2丁目9-1","lat":35.73451441,"lon":139.32237447},{"name":"福生市営プール","province":"東京都","city":"福生市","address":"東京都福生市北田園2丁目8-4","lat":35.73426998,"lon":139.32165231},{"name":"福生地域体育館","province":"東京都","city":"福生市","address":"東京都福生市武蔵野台1丁目8-7","lat":35.74622721,"lon":139.33415374},{"name":"福生市熊川児童館","province":"東京都","city":"福生市","address":"福生市熊川1143-1","lat":35.72989,"lon":139.34109},{"name":"福生市田園児童館","province":"東京都","city":"福生市","address":"福生市南田園3-6-1","lat":35.73012,"lon":139.33104},{"name":"福生市武蔵野台児童館","province":"東京都","city":"福生市","address":"福生市武蔵野台1-12-2","lat":35.74699,"lon":139.33395},{"name":"福生市熊川児童館","province":"東京都","city":"福生市","address":"福生市熊川1143-1","lat":35.72989,"lon":139.3411},{"name":"＊?福生市立わかたけ図書館","province":"東京都","city":"福生市","address":"福生市熊川199-1","lat":35.718119,"lon":139.335002},{"name":"＊?福生市立わかぎり図書館","province":"東京都","city":"福生市","address":"福生市福生1280-1","lat":35.746199,"lon":139.320912},{"name":"＊?福生市立中央図書館","province":"東京都","city":"福生市","address":"福生市熊川850-1","lat":35.732073,"lon":139.337586},{"name":"＊?福生市立武蔵野台図書館","province":"東京都","city":"福生市","address":"福生市武蔵野台1-12-2","lat":35.746833,"lon":139.333943},{"name":"福生市熊川児童館","province":"東京都","city":"福生市","address":"福生市熊川1143-1","lat":35.730213,"lon":139.341137},{"name":"福生市田園児童館","province":"東京都","city":"福生市","address":"福生市南田園3-6-1","lat":35.730087,"lon":139.331124},{"name":"福生市武蔵野台児童館","province":"東京都","city":"福生市","address":"福生市武蔵野台1-12-2","lat":35.746808,"lon":139.333945},{"name":"熊川神社本殿","province":"東京都","city":"福生市","address":"東京都福生市熊川660","lat":35.723658,"lon":139.333882},{"name":"中央図書館","province":"東京都","city":"福生市","address":"東京都福生市熊川（大字）850-1","lat":35.73186235,"lon":139.3376679},{"name":"武蔵野台図書館","province":"東京都","city":"福生市","address":"東京都福生市武蔵野台1丁目12-2","lat":35.74680769,"lon":139.33394539},{"name":"わかたけ図書館","province":"東京都","city":"福生市","address":"東京都福生市熊川（大字）199-1","lat":35.7181112,"lon":139.33499907},{"name":"わかぎり図書館","province":"東京都","city":"福生市","address":"東京都福生市福生（大字）1280-1","lat":35.74619349,"lon":139.32083528},{"name":"福東グランド","province":"東京都","city":"福生市","address":"東京都福生市熊川（大字）1608","lat":35.72289427,"lon":139.35088939},{"name":"福東球技場","province":"東京都","city":"福生市","address":"東京都福生市熊川（大字）1608","lat":35.72289427,"lon":139.35088939},{"name":"熊川地域体育館","province":"東京都","city":"福生市","address":"東京都福生市熊川（大字）380-7","lat":35.72062204,"lon":139.33699606},{"name":"多摩川中央公園グランド","province":"東京都","city":"福生市","address":"東京都福生市北田園1丁目","lat":35.7320676,"lon":139.32653537},{"name":"中央体育館","province":"東京都","city":"福生市","address":"東京都福生市北田園2丁目9-1","lat":35.73451441,"lon":139.32237447},{"name":"福生市営プール","province":"東京都","city":"福生市","address":"東京都福生市北田園2丁目8-4","lat":35.73426998,"lon":139.32165231},{"name":"福生地域体育館","province":"東京都","city":"福生市","address":"東京都福生市武蔵野台1丁目8-7","lat":35.74622721,"lon":139.33415374},{"name":"福生市熊川児童館","province":"東京都","city":"福生市","address":"福生市熊川1143-1","lat":35.72989,"lon":139.34109},{"name":"福生市田園児童館","province":"東京都","city":"福生市","address":"福生市南田園3-6-1","lat":35.73012,"lon":139.33104},{"name":"福生市武蔵野台児童館","province":"東京都","city":"福生市","address":"福生市武蔵野台1-12-2","lat":35.74699,"lon":139.33395},{"name":"福生市熊川児童館","province":"東京都","city":"福生市","address":"福生市熊川1143-1","lat":35.72989,"lon":139.3411},{"name":"＊?福生市立わかたけ図書館","province":"東京都","city":"福生市","address":"福生市熊川199-1","lat":35.718119,"lon":139.335002},{"name":"＊?福生市立わかぎり図書館","province":"東京都","city":"福生市","address":"福生市福生1280-1","lat":35.746199,"lon":139.320912},{"name":"＊?福生市立中央図書館","province":"東京都","city":"福生市","address":"福生市熊川850-1","lat":35.732073,"lon":139.337586},{"name":"＊?福生市立武蔵野台図書館","province":"東京都","city":"福生市","address":"福生市武蔵野台1-12-2","lat":35.746833,"lon":139.333943},{"name":"福生市熊川児童館","province":"東京都","city":"福生市","address":"福生市熊川1143-1","lat":35.730213,"lon":139.341137},{"name":"福生市田園児童館","province":"東京都","city":"福生市","address":"福生市南田園3-6-1","lat":35.730087,"lon":139.331124},{"name":"福生市武蔵野台児童館","province":"東京都","city":"福生市","address":"福生市武蔵野台1-12-2","lat":35.746808,"lon":139.333945},{"name":"熊川神社本殿","province":"東京都","city":"福生市","address":"東京都福生市熊川660","lat":35.723658,"lon":139.333882},{"name":"中央図書館","province":"東京都","city":"福生市","address":"東京都福生市熊川（大字）850-1","lat":35.73186235,"lon":139.3376679},{"name":"武蔵野台図書館","province":"東京都","city":"福生市","address":"東京都福生市武蔵野台1丁目12-2","lat":35.74680769,"lon":139.33394539},{"name":"わかたけ図書館","province":"東京都","city":"福生市","address":"東京都福生市熊川（大字）199-1","lat":35.7181112,"lon":139.33499907},{"name":"わかぎり図書館","province":"東京都","city":"福生市","address":"東京都福生市福生（大字）1280-1","lat":35.74619349,"lon":139.32083528},{"name":"福東グランド","province":"東京都","city":"福生市","address":"東京都福生市熊川（大字）1608","lat":35.72289427,"lon":139.35088939},{"name":"福東球技場","province":"東京都","city":"福生市","address":"東京都福生市熊川（大字）1608","lat":35.72289427,"lon":139.35088939},{"name":"熊川地域体育館","province":"東京都","city":"福生市","address":"東京都福生市熊川（大字）380-7","lat":35.72062204,"lon":139.33699606},{"name":"多摩川中央公園グランド","province":"東京都","city":"福生市","address":"東京都福生市北田園1丁目","lat":35.7320676,"lon":139.32653537},{"name":"中央体育館","province":"東京都","city":"福生市","address":"東京都福生市北田園2丁目9-1","lat":35.73451441,"lon":139.32237447},{"name":"福生市営プール","province":"東京都","city":"福生市","address":"東京都福生市北田園2丁目8-4","lat":35.73426998,"lon":139.32165231},{"name":"福生地域体育館","province":"東京都","city":"福生市","address":"東京都福生市武蔵野台1丁目8-7","lat":35.74622721,"lon":139.33415374},{"name":"福生市熊川児童館","province":"東京都","city":"福生市","address":"福生市熊川1143-1","lat":35.72989,"lon":139.34109},{"name":"福生市田園児童館","province":"東京都","city":"福生市","address":"福生市南田園3-6-1","lat":35.73012,"lon":139.33104},{"name":"福生市武蔵野台児童館","province":"東京都","city":"福生市","address":"福生市武蔵野台1-12-2","lat":35.74699,"lon":139.33395},{"name":"福生市熊川児童館","province":"東京都","city":"福生市","address":"福生市熊川1143-1","lat":35.72989,"lon":139.3411},{"name":"＊?福生市立わかたけ図書館","province":"東京都","city":"福生市","address":"福生市熊川199-1","lat":35.718119,"lon":139.335002},{"name":"＊?福生市立わかぎり図書館","province":"東京都","city":"福生市","address":"福生市福生1280-1","lat":35.746199,"lon":139.320912},{"name":"＊?福生市立中央図書館","province":"東京都","city":"福生市","address":"福生市熊川850-1","lat":35.732073,"lon":139.337586},{"name":"＊?福生市立武蔵野台図書館","province":"東京都","city":"福生市","address":"福生市武蔵野台1-12-2","lat":35.746833,"lon":139.333943},{"name":"福生市熊川児童館","province":"東京都","city":"福生市","address":"福生市熊川1143-1","lat":35.730213,"lon":139.341137},{"name":"福生市田園児童館","province":"東京都","city":"福生市","address":"福生市南田園3-6-1","lat":35.730087,"lon":139.331124},{"name":"福生市武蔵野台児童館","province":"東京都","city":"福生市","address":"福生市武蔵野台1-12-2","lat":35.746808,"lon":139.333945},{"name":"熊川神社本殿","province":"東京都","city":"福生市","address":"東京都福生市熊川660","lat":35.723658,"lon":139.333882},{"name":"中央図書館","province":"東京都","city":"福生市","address":"東京都福生市熊川（大字）850-1","lat":35.73186235,"lon":139.3376679},{"name":"武蔵野台図書館","province":"東京都","city":"福生市","address":"東京都福生市武蔵野台1丁目12-2","lat":35.74680769,"lon":139.33394539},{"name":"わかたけ図書館","province":"東京都","city":"福生市","address":"東京都福生市熊川（大字）199-1","lat":35.7181112,"lon":139.33499907},{"name":"わかぎり図書館","province":"東京都","city":"福生市","address":"東京都福生市福生（大字）1280-1","lat":35.74619349,"lon":139.32083528},{"name":"福東グランド","province":"東京都","city":"福生市","address":"東京都福生市熊川（大字）1608","lat":35.72289427,"lon":139.35088939},{"name":"福東球技場","province":"東京都","city":"福生市","address":"東京都福生市熊川（大字）1608","lat":35.72289427,"lon":139.35088939},{"name":"熊川地域体育館","province":"東京都","city":"福生市","address":"東京都福生市熊川（大字）380-7","lat":35.72062204,"lon":139.33699606},{"name":"多摩川中央公園グランド","province":"東京都","city":"福生市","address":"東京都福生市北田園1丁目","lat":35.7320676,"lon":139.32653537},{"name":"中央体育館","province":"東京都","city":"福生市","address":"東京都福生市北田園2丁目9-1","lat":35.73451441,"lon":139.32237447},{"name":"福生市営プール","province":"東京都","city":"福生市","address":"東京都福生市北田園2丁目8-4","lat":35.73426998,"lon":139.32165231},{"name":"福生地域体育館","province":"東京都","city":"福生市","address":"東京都福生市武蔵野台1丁目8-7","lat":35.74622721,"lon":139.33415374},{"name":"福生市熊川児童館","province":"東京都","city":"福生市","address":"福生市熊川1143-1","lat":35.72989,"lon":139.34109},{"name":"福生市田園児童館","province":"東京都","city":"福生市","address":"福生市南田園3-6-1","lat":35.73012,"lon":139.33104},{"name":"福生市武蔵野台児童館","province":"東京都","city":"福生市","address":"福生市武蔵野台1-12-2","lat":35.74699,"lon":139.33395},{"name":"福生市熊川児童館","province":"東京都","city":"福生市","address":"福生市熊川1143-1","lat":35.72989,"lon":139.3411},{"name":"＊?福生市立わかたけ図書館","province":"東京都","city":"福生市","address":"福生市熊川199-1","lat":35.718119,"lon":139.335002},{"name":"＊?福生市立わかぎり図書館","province":"東京都","city":"福生市","address":"福生市福生1280-1","lat":35.746199,"lon":139.320912},{"name":"＊?福生市立中央図書館","province":"東京都","city":"福生市","address":"福生市熊川850-1","lat":35.732073,"lon":139.337586},{"name":"＊?福生市立武蔵野台図書館","province":"東京都","city":"福生市","address":"福生市武蔵野台1-12-2","lat":35.746833,"lon":139.333943},{"name":"福生市熊川児童館","province":"東京都","city":"福生市","address":"福生市熊川1143-1","lat":35.730213,"lon":139.341137},{"name":"福生市田園児童館","province":"東京都","city":"福生市","address":"福生市南田園3-6-1","lat":35.730087,"lon":139.331124},{"name":"福生市武蔵野台児童館","province":"東京都","city":"福生市","address":"福生市武蔵野台1-12-2","lat":35.746808,"lon":139.333945},{"name":"熊川神社本殿","province":"東京都","city":"福生市","address":"東京都福生市熊川660","lat":35.723658,"lon":139.333882},{"name":"中央図書館","province":"東京都","city":"福生市","address":"東京都福生市熊川（大字）850-1","lat":35.73186235,"lon":139.3376679},{"name":"武蔵野台図書館","province":"東京都","city":"福生市","address":"東京都福生市武蔵野台1丁目12-2","lat":35.74680769,"lon":139.33394539},{"name":"わかたけ図書館","province":"東京都","city":"福生市","address":"東京都福生市熊川（大字）199-1","lat":35.7181112,"lon":139.33499907},{"name":"わかぎり図書館","province":"東京都","city":"福生市","address":"東京都福生市福生（大字）1280-1","lat":35.74619349,"lon":139.32083528},{"name":"福東グランド","province":"東京都","city":"福生市","address":"東京都福生市熊川（大字）1608","lat":35.72289427,"lon":139.35088939},{"name":"福東球技場","province":"東京都","city":"福生市","address":"東京都福生市熊川（大字）1608","lat":35.72289427,"lon":139.35088939},{"name":"熊川地域体育館","province":"東京都","city":"福生市","address":"東京都福生市熊川（大字）380-7","lat":35.72062204,"lon":139.33699606},{"name":"多摩川中央公園グランド","province":"東京都","city":"福生市","address":"東京都福生市北田園1丁目","lat":35.7320676,"lon":139.32653537},{"name":"中央体育館","province":"東京都","city":"福生市","address":"東京都福生市北田園2丁目9-1","lat":35.73451441,"lon":139.32237447},{"name":"福生市営プール","province":"東京都","city":"福生市","address":"東京都福生市北田園2丁目8-4","lat":35.73426998,"lon":139.32165231},{"name":"福生地域体育館","province":"東京都","city":"福生市","address":"東京都福生市武蔵野台1丁目8-7","lat":35.74622721,"lon":139.33415374},{"name":"福生市熊川児童館","province":"東京都","city":"福生市","address":"福生市熊川1143-1","lat":35.72989,"lon":139.34109},{"name":"福生市田園児童館","province":"東京都","city":"福生市","address":"福生市南田園3-6-1","lat":35.73012,"lon":139.33104},{"name":"福生市武蔵野台児童館","province":"東京都","city":"福生市","address":"福生市武蔵野台1-12-2","lat":35.74699,"lon":139.33395},{"name":"福生市熊川児童館","province":"東京都","city":"福生市","address":"福生市熊川1143-1","lat":35.72989,"lon":139.3411},{"name":"＊?福生市立わかたけ図書館","province":"東京都","city":"福生市","address":"福生市熊川199-1","lat":35.718119,"lon":139.335002},{"name":"＊?福生市立わかぎり図書館","province":"東京都","city":"福生市","address":"福生市福生1280-1","lat":35.746199,"lon":139.320912},{"name":"＊?福生市立中央図書館","province":"東京都","city":"福生市","address":"福生市熊川850-1","lat":35.732073,"lon":139.337586},{"name":"＊?福生市立武蔵野台図書館","province":"東京都","city":"福生市","address":"福生市武蔵野台1-12-2","lat":35.746833,"lon":139.333943},{"name":"福生市熊川児童館","province":"東京都","city":"福生市","address":"福生市熊川1143-1","lat":35.730213,"lon":139.341137},{"name":"福生市田園児童館","province":"東京都","city":"福生市","address":"福生市南田園3-6-1","lat":35.730087,"lon":139.331124},{"name":"福生市武蔵野台児童館","province":"東京都","city":"福生市","address":"福生市武蔵野台1-12-2","lat":35.746808,"lon":139.333945},{"name":"熊川神社本殿","province":"東京都","city":"福生市","address":"東京都福生市熊川660","lat":35.723658,"lon":139.333882},{"name":"中央図書館","province":"東京都","city":"福生市","address":"東京都福生市熊川（大字）850-1","lat":35.73186235,"lon":139.3376679},{"name":"武蔵野台図書館","province":"東京都","city":"福生市","address":"東京都福生市武蔵野台1丁目12-2","lat":35.74680769,"lon":139.33394539},{"name":"わかたけ図書館","province":"東京都","city":"福生市","address":"東京都福生市熊川（大字）199-1","lat":35.7181112,"lon":139.33499907},{"name":"わかぎり図書館","province":"東京都","city":"福生市","address":"東京都福生市福生（大字）1280-1","lat":35.74619349,"lon":139.32083528},{"name":"福東グランド","province":"東京都","city":"福生市","address":"東京都福生市熊川（大字）1608","lat":35.72289427,"lon":139.35088939},{"name":"福東球技場","province":"東京都","city":"福生市","address":"東京都福生市熊川（大字）1608","lat":35.72289427,"lon":139.35088939},{"name":"熊川地域体育館","province":"東京都","city":"福生市","address":"東京都福生市熊川（大字）380-7","lat":35.72062204,"lon":139.33699606},{"name":"多摩川中央公園グランド","province":"東京都","city":"福生市","address":"東京都福生市北田園1丁目","lat":35.7320676,"lon":139.32653537},{"name":"中央体育館","province":"東京都","city":"福生市","address":"東京都福生市北田園2丁目9-1","lat":35.73451441,"lon":139.32237447},{"name":"福生市営プール","province":"東京都","city":"福生市","address":"東京都福生市北田園2丁目8-4","lat":35.73426998,"lon":139.32165231},{"name":"福生地域体育館","province":"東京都","city":"福生市","address":"東京都福生市武蔵野台1丁目8-7","lat":35.74622721,"lon":139.33415374},{"name":"福生市熊川児童館","province":"東京都","city":"福生市","address":"福生市熊川1143-1","lat":35.72989,"lon":139.34109},{"name":"福生市田園児童館","province":"東京都","city":"福生市","address":"福生市南田園3-6-1","lat":35.73012,"lon":139.33104},{"name":"福生市武蔵野台児童館","province":"東京都","city":"福生市","address":"福生市武蔵野台1-12-2","lat":35.74699,"lon":139.33395},{"name":"福生市熊川児童館","province":"東京都","city":"福生市","address":"福生市熊川1143-1","lat":35.72989,"lon":139.3411},{"name":"＊?福生市立わかたけ図書館","province":"東京都","city":"福生市","address":"福生市熊川199-1","lat":35.718119,"lon":139.335002},{"name":"＊?福生市立わかぎり図書館","province":"東京都","city":"福生市","address":"福生市福生1280-1","lat":35.746199,"lon":139.320912},{"name":"＊?福生市立中央図書館","province":"東京都","city":"福生市","address":"福生市熊川850-1","lat":35.732073,"lon":139.337586},{"name":"＊?福生市立武蔵野台図書館","province":"東京都","city":"福生市","address":"福生市武蔵野台1-12-2","lat":35.746833,"lon":139.333943},{"name":"福生市熊川児童館","province":"東京都","city":"福生市","address":"福生市熊川1143-1","lat":35.730213,"lon":139.341137},{"name":"福生市田園児童館","province":"東京都","city":"福生市","address":"福生市南田園3-6-1","lat":35.730087,"lon":139.331124},{"name":"福生市武蔵野台児童館","province":"東京都","city":"福生市","address":"福生市武蔵野台1-12-2","lat":35.746808,"lon":139.333945},{"name":"熊川神社本殿","province":"東京都","city":"福生市","address":"東京都福生市熊川660","lat":35.723658,"lon":139.333882},{"name":"中央図書館","province":"東京都","city":"福生市","address":"東京都福生市熊川（大字）850-1","lat":35.73186235,"lon":139.3376679},{"name":"武蔵野台図書館","province":"東京都","city":"福生市","address":"東京都福生市武蔵野台1丁目12-2","lat":35.74680769,"lon":139.33394539},{"name":"わかたけ図書館","province":"東京都","city":"福生市","address":"東京都福生市熊川（大字）199-1","lat":35.7181112,"lon":139.33499907},{"name":"わかぎり図書館","province":"東京都","city":"福生市","address":"東京都福生市福生（大字）1280-1","lat":35.74619349,"lon":139.32083528},{"name":"福東グランド","province":"東京都","city":"福生市","address":"東京都福生市熊川（大字）1608","lat":35.72289427,"lon":139.35088939},{"name":"福東球技場","province":"東京都","city":"福生市","address":"東京都福生市熊川（大字）1608","lat":35.72289427,"lon":139.35088939},{"name":"熊川地域体育館","province":"東京都","city":"福生市","address":"東京都福生市熊川（大字）380-7","lat":35.72062204,"lon":139.33699606},{"name":"多摩川中央公園グランド","province":"東京都","city":"福生市","address":"東京都福生市北田園1丁目","lat":35.7320676,"lon":139.32653537},{"name":"中央体育館","province":"東京都","city":"福生市","address":"東京都福生市北田園2丁目9-1","lat":35.73451441,"lon":139.32237447},{"name":"福生市営プール","province":"東京都","city":"福生市","address":"東京都福生市北田園2丁目8-4","lat":35.73426998,"lon":139.32165231},{"name":"福生地域体育館","province":"東京都","city":"福生市","address":"東京都福生市武蔵野台1丁目8-7","lat":35.74622721,"lon":139.33415374},{"name":"福生市熊川児童館","province":"東京都","city":"福生市","address":"福生市熊川1143-1","lat":35.72989,"lon":139.34109},{"name":"福生市田園児童館","province":"東京都","city":"福生市","address":"福生市南田園3-6-1","lat":35.73012,"lon":139.33104},{"name":"福生市武蔵野台児童館","province":"東京都","city":"福生市","address":"福生市武蔵野台1-12-2","lat":35.74699,"lon":139.33395},{"name":"福生市熊川児童館","province":"東京都","city":"福生市","address":"福生市熊川1143-1","lat":35.72989,"lon":139.3411},{"name":"＊?福生市立わかたけ図書館","province":"東京都","city":"福生市","address":"福生市熊川199-1","lat":35.718119,"lon":139.335002},{"name":"＊?福生市立わかぎり図書館","province":"東京都","city":"福生市","address":"福生市福生1280-1","lat":35.746199,"lon":139.320912},{"name":"＊?福生市立中央図書館","province":"東京都","city":"福生市","address":"福生市熊川850-1","lat":35.732073,"lon":139.337586},{"name":"＊?福生市立武蔵野台図書館","province":"東京都","city":"福生市","address":"福生市武蔵野台1-12-2","lat":35.746833,"lon":139.333943},{"name":"福生市熊川児童館","province":"東京都","city":"福生市","address":"福生市熊川1143-1","lat":35.730213,"lon":139.341137},{"name":"福生市田園児童館","province":"東京都","city":"福生市","address":"福生市南田園3-6-1","lat":35.730087,"lon":139.331124},{"name":"福生市武蔵野台児童館","province":"東京都","city":"福生市","address":"福生市武蔵野台1-12-2","lat":35.746808,"lon":139.333945},{"name":"熊川神社本殿","province":"東京都","city":"福生市","address":"東京都福生市熊川660","lat":35.723658,"lon":139.333882},{"name":"中央図書館","province":"東京都","city":"福生市","address":"東京都福生市熊川（大字）850-1","lat":35.73186235,"lon":139.3376679},{"name":"武蔵野台図書館","province":"東京都","city":"福生市","address":"東京都福生市武蔵野台1丁目12-2","lat":35.74680769,"lon":139.33394539},{"name":"わかたけ図書館","province":"東京都","city":"福生市","address":"東京都福生市熊川（大字）199-1","lat":35.7181112,"lon":139.33499907},{"name":"わかぎり図書館","province":"東京都","city":"福生市","address":"東京都福生市福生（大字）1280-1","lat":35.74619349,"lon":139.32083528},{"name":"福東グランド","province":"東京都","city":"福生市","address":"東京都福生市熊川（大字）1608","lat":35.72289427,"lon":139.35088939},{"name":"福東球技場","province":"東京都","city":"福生市","address":"東京都福生市熊川（大字）1608","lat":35.72289427,"lon":139.35088939},{"name":"熊川地域体育館","province":"東京都","city":"福生市","address":"東京都福生市熊川（大字）380-7","lat":35.72062204,"lon":139.33699606},{"name":"多摩川中央公園グランド","province":"東京都","city":"福生市","address":"東京都福生市北田園1丁目","lat":35.7320676,"lon":139.32653537},{"name":"中央体育館","province":"東京都","city":"福生市","address":"東京都福生市北田園2丁目9-1","lat":35.73451441,"lon":139.32237447},{"name":"福生市営プール","province":"東京都","city":"福生市","address":"東京都福生市北田園2丁目8-4","lat":35.73426998,"lon":139.32165231},{"name":"福生地域体育館","province":"東京都","city":"福生市","address":"東京都福生市武蔵野台1丁目8-7","lat":35.74622721,"lon":139.33415374},{"name":"福生市熊川児童館","province":"東京都","city":"福生市","address":"福生市熊川1143-1","lat":35.72989,"lon":139.34109},{"name":"福生市田園児童館","province":"東京都","city":"福生市","address":"福生市南田園3-6-1","lat":35.73012,"lon":139.33104},{"name":"福生市武蔵野台児童館","province":"東京都","city":"福生市","address":"福生市武蔵野台1-12-2","lat":35.74699,"lon":139.33395},{"name":"福生市熊川児童館","province":"東京都","city":"福生市","address":"福生市熊川1143-1","lat":35.72989,"lon":139.3411},{"name":"＊?福生市立わかたけ図書館","province":"東京都","city":"福生市","address":"福生市熊川199-1","lat":35.718119,"lon":139.335002},{"name":"＊?福生市立わかぎり図書館","province":"東京都","city":"福生市","address":"福生市福生1280-1","lat":35.746199,"lon":139.320912},{"name":"＊?福生市立中央図書館","province":"東京都","city":"福生市","address":"福生市熊川850-1","lat":35.732073,"lon":139.337586},{"name":"＊?福生市立武蔵野台図書館","province":"東京都","city":"福生市","address":"福生市武蔵野台1-12-2","lat":35.746833,"lon":139.333943},{"name":"福生市熊川児童館","province":"東京都","city":"福生市","address":"福生市熊川1143-1","lat":35.730213,"lon":139.341137},{"name":"福生市田園児童館","province":"東京都","city":"福生市","address":"福生市南田園3-6-1","lat":35.730087,"lon":139.331124},{"name":"福生市武蔵野台児童館","province":"東京都","city":"福生市","address":"福生市武蔵野台1-12-2","lat":35.746808,"lon":139.333945},{"name":"熊川神社本殿","province":"東京都","city":"福生市","address":"東京都福生市熊川660","lat":35.723658,"lon":139.333882},{"name":"中央図書館","province":"東京都","city":"福生市","address":"東京都福生市熊川（大字）850-1","lat":35.73186235,"lon":139.3376679},{"name":"武蔵野台図書館","province":"東京都","city":"福生市","address":"東京都福生市武蔵野台1丁目12-2","lat":35.74680769,"lon":139.33394539},{"name":"わかたけ図書館","province":"東京都","city":"福生市","address":"東京都福生市熊川（大字）199-1","lat":35.7181112,"lon":139.33499907},{"name":"わかぎり図書館","province":"東京都","city":"福生市","address":"東京都福生市福生（大字）1280-1","lat":35.74619349,"lon":139.32083528},{"name":"福東グランド","province":"東京都","city":"福生市","address":"東京都福生市熊川（大字）1608","lat":35.72289427,"lon":139.35088939},{"name":"福東球技場","province":"東京都","city":"福生市","address":"東京都福生市熊川（大字）1608","lat":35.72289427,"lon":139.35088939},{"name":"熊川地域体育館","province":"東京都","city":"福生市","address":"東京都福生市熊川（大字）380-7","lat":35.72062204,"lon":139.33699606},{"name":"多摩川中央公園グランド","province":"東京都","city":"福生市","address":"東京都福生市北田園1丁目","lat":35.7320676,"lon":139.32653537},{"name":"中央体育館","province":"東京都","city":"福生市","address":"東京都福生市北田園2丁目9-1","lat":35.73451441,"lon":139.32237447},{"name":"福生市営プール","province":"東京都","city":"福生市","address":"東京都福生市北田園2丁目8-4","lat":35.73426998,"lon":139.32165231},{"name":"福生地域体育館","province":"東京都","city":"福生市","address":"東京都福生市武蔵野台1丁目8-7","lat":35.74622721,"lon":139.33415374},{"name":"福生市熊川児童館","province":"東京都","city":"福生市","address":"福生市熊川1143-1","lat":35.72989,"lon":139.34109},{"name":"福生市田園児童館","province":"東京都","city":"福生市","address":"福生市南田園3-6-1","lat":35.73012,"lon":139.33104},{"name":"福生市武蔵野台児童館","province":"東京都","city":"福生市","address":"福生市武蔵野台1-12-2","lat":35.74699,"lon":139.33395},{"name":"福生市熊川児童館","province":"東京都","city":"福生市","address":"福生市熊川1143-1","lat":35.72989,"lon":139.3411},{"name":"＊?福生市立わかたけ図書館","province":"東京都","city":"福生市","address":"福生市熊川199-1","lat":35.718119,"lon":139.335002},{"name":"＊?福生市立わかぎり図書館","province":"東京都","city":"福生市","address":"福生市福生1280-1","lat":35.746199,"lon":139.320912},{"name":"＊?福生市立中央図書館","province":"東京都","city":"福生市","address":"福生市熊川850-1","lat":35.732073,"lon":139.337586},{"name":"＊?福生市立武蔵野台図書館","province":"東京都","city":"福生市","address":"福生市武蔵野台1-12-2","lat":35.746833,"lon":139.333943},{"name":"福生市熊川児童館","province":"東京都","city":"福生市","address":"福生市熊川1143-1","lat":35.730213,"lon":139.341137},{"name":"福生市田園児童館","province":"東京都","city":"福生市","address":"福生市南田園3-6-1","lat":35.730087,"lon":139.331124},{"name":"福生市武蔵野台児童館","province":"東京都","city":"福生市","address":"福生市武蔵野台1-12-2","lat":35.746808,"lon":139.333945},{"name":"熊川神社本殿","province":"東京都","city":"福生市","address":"東京都福生市熊川660","lat":35.723658,"lon":139.333882},{"name":"中央図書館","province":"東京都","city":"福生市","address":"東京都福生市熊川（大字）850-1","lat":35.73186235,"lon":139.3376679},{"name":"武蔵野台図書館","province":"東京都","city":"福生市","address":"東京都福生市武蔵野台1丁目12-2","lat":35.74680769,"lon":139.33394539},{"name":"わかたけ図書館","province":"東京都","city":"福生市","address":"東京都福生市熊川（大字）199-1","lat":35.7181112,"lon":139.33499907},{"name":"わかぎり図書館","province":"東京都","city":"福生市","address":"東京都福生市福生（大字）1280-1","lat":35.74619349,"lon":139.32083528},{"name":"福東グランド","province":"東京都","city":"福生市","address":"東京都福生市熊川（大字）1608","lat":35.72289427,"lon":139.35088939},{"name":"福東球技場","province":"東京都","city":"福生市","address":"東京都福生市熊川（大字）1608","lat":35.72289427,"lon":139.35088939},{"name":"熊川地域体育館","province":"東京都","city":"福生市","address":"東京都福生市熊川（大字）380-7","lat":35.72062204,"lon":139.33699606},{"name":"多摩川中央公園グランド","province":"東京都","city":"福生市","address":"東京都福生市北田園1丁目","lat":35.7320676,"lon":139.32653537},{"name":"中央体育館","province":"東京都","city":"福生市","address":"東京都福生市北田園2丁目9-1","lat":35.73451441,"lon":139.32237447},{"name":"福生市営プール","province":"東京都","city":"福生市","address":"東京都福生市北田園2丁目8-4","lat":35.73426998,"lon":139.32165231},{"name":"福生地域体育館","province":"東京都","city":"福生市","address":"東京都福生市武蔵野台1丁目8-7","lat":35.74622721,"lon":139.33415374},{"name":"福生市熊川児童館","province":"東京都","city":"福生市","address":"福生市熊川1143-1","lat":35.72989,"lon":139.34109},{"name":"福生市田園児童館","province":"東京都","city":"福生市","address":"福生市南田園3-6-1","lat":35.73012,"lon":139.33104},{"name":"福生市武蔵野台児童館","province":"東京都","city":"福生市","address":"福生市武蔵野台1-12-2","lat":35.74699,"lon":139.33395},{"name":"福生市熊川児童館","province":"東京都","city":"福生市","address":"福生市熊川1143-1","lat":35.72989,"lon":139.3411},{"name":"＊?福生市立わかたけ図書館","province":"東京都","city":"福生市","address":"福生市熊川199-1","lat":35.718119,"lon":139.335002},{"name":"＊?福生市立わかぎり図書館","province":"東京都","city":"福生市","address":"福生市福生1280-1","lat":35.746199,"lon":139.320912},{"name":"＊?福生市立中央図書館","province":"東京都","city":"福生市","address":"福生市熊川850-1","lat":35.732073,"lon":139.337586},{"name":"＊?福生市立武蔵野台図書館","province":"東京都","city":"福生市","address":"福生市武蔵野台1-12-2","lat":35.746833,"lon":139.333943},{"name":"福生市熊川児童館","province":"東京都","city":"福生市","address":"福生市熊川1143-1","lat":35.730213,"lon":139.341137},{"name":"福生市田園児童館","province":"東京都","city":"福生市","address":"福生市南田園3-6-1","lat":35.730087,"lon":139.331124},{"name":"福生市武蔵野台児童館","province":"東京都","city":"福生市","address":"福生市武蔵野台1-12-2","lat":35.746808,"lon":139.333945},{"name":"熊川神社本殿","province":"東京都","city":"福生市","address":"東京都福生市熊川660","lat":35.723658,"lon":139.333882},{"name":"中央図書館","province":"東京都","city":"福生市","address":"東京都福生市熊川（大字）850-1","lat":35.73186235,"lon":139.3376679},{"name":"武蔵野台図書館","province":"東京都","city":"福生市","address":"東京都福生市武蔵野台1丁目12-2","lat":35.74680769,"lon":139.33394539},{"name":"わかたけ図書館","province":"東京都","city":"福生市","address":"東京都福生市熊川（大字）199-1","lat":35.7181112,"lon":139.33499907},{"name":"わかぎり図書館","province":"東京都","city":"福生市","address":"東京都福生市福生（大字）1280-1","lat":35.74619349,"lon":139.32083528},{"name":"福東グランド","province":"東京都","city":"福生市","address":"東京都福生市熊川（大字）1608","lat":35.72289427,"lon":139.35088939},{"name":"福東球技場","province":"東京都","city":"福生市","address":"東京都福生市熊川（大字）1608","lat":35.72289427,"lon":139.35088939},{"name":"熊川地域体育館","province":"東京都","city":"福生市","address":"東京都福生市熊川（大字）380-7","lat":35.72062204,"lon":139.33699606},{"name":"多摩川中央公園グランド","province":"東京都","city":"福生市","address":"東京都福生市北田園1丁目","lat":35.7320676,"lon":139.32653537},{"name":"中央体育館","province":"東京都","city":"福生市","address":"東京都福生市北田園2丁目9-1","lat":35.73451441,"lon":139.32237447},{"name":"福生市営プール","province":"東京都","city":"福生市","address":"東京都福生市北田園2丁目8-4","lat":35.73426998,"lon":139.32165231},{"name":"福生地域体育館","province":"東京都","city":"福生市","address":"東京都福生市武蔵野台1丁目8-7","lat":35.74622721,"lon":139.33415374},{"name":"福生市熊川児童館","province":"東京都","city":"福生市","address":"福生市熊川1143-1","lat":35.72989,"lon":139.34109},{"name":"福生市田園児童館","province":"東京都","city":"福生市","address":"福生市南田園3-6-1","lat":35.73012,"lon":139.33104},{"name":"福生市武蔵野台児童館","province":"東京都","city":"福生市","address":"福生市武蔵野台1-12-2","lat":35.74699,"lon":139.33395},{"name":"福生市熊川児童館","province":"東京都","city":"福生市","address":"福生市熊川1143-1","lat":35.72989,"lon":139.3411},{"name":"＊?福生市立わかたけ図書館","province":"東京都","city":"福生市","address":"福生市熊川199-1","lat":35.718119,"lon":139.335002},{"name":"＊?福生市立わかぎり図書館","province":"東京都","city":"福生市","address":"福生市福生1280-1","lat":35.746199,"lon":139.320912},{"name":"＊?福生市立中央図書館","province":"東京都","city":"福生市","address":"福生市熊川850-1","lat":35.732073,"lon":139.337586},{"name":"＊?福生市立武蔵野台図書館","province":"東京都","city":"福生市","address":"福生市武蔵野台1-12-2","lat":35.746833,"lon":139.333943},{"name":"福生市熊川児童館","province":"東京都","city":"福生市","address":"福生市熊川1143-1","lat":35.730213,"lon":139.341137},{"name":"福生市田園児童館","province":"東京都","city":"福生市","address":"福生市南田園3-6-1","lat":35.730087,"lon":139.331124},{"name":"福生市武蔵野台児童館","province":"東京都","city":"福生市","address":"福生市武蔵野台1-12-2","lat":35.746808,"lon":139.333945},{"name":"熊川神社本殿","province":"東京都","city":"福生市","address":"東京都福生市熊川660","lat":35.723658,"lon":139.333882},{"name":"中央図書館","province":"東京都","city":"福生市","address":"東京都福生市熊川（大字）850-1","lat":35.73186235,"lon":139.3376679},{"name":"武蔵野台図書館","province":"東京都","city":"福生市","address":"東京都福生市武蔵野台1丁目12-2","lat":35.74680769,"lon":139.33394539},{"name":"わかたけ図書館","province":"東京都","city":"福生市","address":"東京都福生市熊川（大字）199-1","lat":35.7181112,"lon":139.33499907},{"name":"わかぎり図書館","province":"東京都","city":"福生市","address":"東京都福生市福生（大字）1280-1","lat":35.74619349,"lon":139.32083528},{"name":"福東グランド","province":"東京都","city":"福生市","address":"東京都福生市熊川（大字）1608","lat":35.72289427,"lon":139.35088939},{"name":"福東球技場","province":"東京都","city":"福生市","address":"東京都福生市熊川（大字）1608","lat":35.72289427,"lon":139.35088939},{"name":"熊川地域体育館","province":"東京都","city":"福生市","address":"東京都福生市熊川（大字）380-7","lat":35.72062204,"lon":139.33699606},{"name":"多摩川中央公園グランド","province":"東京都","city":"福生市","address":"東京都福生市北田園1丁目","lat":35.7320676,"lon":139.32653537},{"name":"中央体育館","province":"東京都","city":"福生市","address":"東京都福生市北田園2丁目9-1","lat":35.73451441,"lon":139.32237447},{"name":"福生市営プール","province":"東京都","city":"福生市","address":"東京都福生市北田園2丁目8-4","lat":35.73426998,"lon":139.32165231},{"name":"福生地域体育館","province":"東京都","city":"福生市","address":"東京都福生市武蔵野台1丁目8-7","lat":35.74622721,"lon":139.33415374},{"name":"福生市熊川児童館","province":"東京都","city":"福生市","address":"福生市熊川1143-1","lat":35.72989,"lon":139.34109},{"name":"福生市田園児童館","province":"東京都","city":"福生市","address":"福生市南田園3-6-1","lat":35.73012,"lon":139.33104},{"name":"福生市武蔵野台児童館","province":"東京都","city":"福生市","address":"福生市武蔵野台1-12-2","lat":35.74699,"lon":139.33395},{"name":"福生市熊川児童館","province":"東京都","city":"福生市","address":"福生市熊川1143-1","lat":35.72989,"lon":139.3411},{"name":"＊?福生市立わかたけ図書館","province":"東京都","city":"福生市","address":"福生市熊川199-1","lat":35.718119,"lon":139.335002},{"name":"＊?福生市立わかぎり図書館","province":"東京都","city":"福生市","address":"福生市福生1280-1","lat":35.746199,"lon":139.320912},{"name":"＊?福生市立中央図書館","province":"東京都","city":"福生市","address":"福生市熊川850-1","lat":35.732073,"lon":139.337586},{"name":"＊?福生市立武蔵野台図書館","province":"東京都","city":"福生市","address":"福生市武蔵野台1-12-2","lat":35.746833,"lon":139.333943}]}