{"keyword":"館","data":[{"name":"福生市熊川児童館","province":"東京都","city":"福生市","address":"福生市熊川1143-1","lat":35.730213,"lon":139.341137},{"name":"福生市田園児童館","province":"東京都","city":"福生市","address":"福生市南田園3-6-1","lat":35.730087,"lon":139.331124},{"name":"福生市武蔵野台児童館","province":"東京都","city":"福生市","address":"福生市武蔵野台1-12-2","lat":35.746808,"lon":139.333945},{"name":"中央図書館","province":"東京都","city":"福生市","address":"東京都福生市熊川（大字）850-1","lat":35.73186235,"lon":139.3376679},{"name":"武蔵野台図書館","province":"東京都","city":"福生市","address":"東京都福生市武蔵野台1丁目12-2","lat":35.74680769,"lon":139.33394539},{"name":"わかたけ図書館","province":"東京都","city":"福生市","address":"東京都福生市熊川（大字）199-1","lat":35.7181112,"lon":139.33499907},{"name":"わかぎり図書館","province":"東京都","city":"福生市","address":"東京都福生市福生（大字）1280-1","lat":35.74619349,"lon":139.32083528},{"name":"福生市熊川児童館","province":"東京都","city":"福生市","address":"福生市熊川1143-1","lat":35.72989,"lon":139.34109},{"name":"福生市田園児童館","province":"東京都","city":"福生市","address":"福生市南田園3-6-1","lat":35.73012,"lon":139.33104},{"name":"福生市武蔵野台児童館","province":"東京都","city":"福生市","address":"福生市武蔵野台1-12-2","lat":35.74699,"lon":139.33395},{"name":"福生市熊川児童館","province":"東京都","city":"福生市","address":"福生市熊川1143-1","lat":35.72989,"lon":139.3411},{"name":"＊?福生市立わかたけ図書館","province":"東京都","city":"福生市","address":"福生市熊川199-1","lat":35.718119,"lon":139.335002},{"name":"＊?福生市立わかぎり図書館","province":"東京都","city":"福生市","address":"福生市福生1280-1","lat":35.746199,"lon":139.320912},{"name":"＊?福生市立中央図書館","province":"東京都","city":"福生市","address":"福生市熊川850-1","lat":35.732073,"lon":139.337586},{"name":"＊?福生市立武蔵野台図書館","province":"東京都","city":"福生市","address":"福生市武蔵野台1-12-2","lat":35.746833,"lon":139.333943}]}