{"keyword":"高井戸","data":[{"name":"航空自衛隊横田基地","province":"東京都","city":"福生市","address":"福生市大字福生2552","lat":35.74337,"lon":139.3305},{"name":"航空自衛隊横田基地","province":"東京都","city":"福生市","address":"福生市大字福生2552","lat":35.74337,"lon":139.3305},{"name":"航空自衛隊横田基地","province":"東京都","city":"福生市","address":"福生市大字福生2552","lat":35.74337,"lon":139.3305},{"name":"航空自衛隊横田基地","province":"東京都","city":"福生市","address":"福生市大字福生2552","lat":35.74337,"lon":139.3305},{"name":"航空自衛隊横田基地","province":"東京都","city":"福生市","address":"福生市大字福生2552","lat":35.74337,"lon":139.3305},{"name":"航空自衛隊横田基地","province":"東京都","city":"福生市","address":"福生市大字福生2552","lat":35.74337,"lon":139.3305},{"name":"航空自衛隊横田基地","province":"東京都","city":"福生市","address":"福生市大字福生2552","lat":35.74337,"lon":139.3305},{"name":"航空自衛隊横田基地","province":"東京都","city":"福生市","address":"福生市大字福生2552","lat":35.74337,"lon":139.3305},{"name":"航空自衛隊横田基地","province":"東京都","city":"福生市","address":"福生市大字福生2552","lat":35.74337,"lon":139.3305},{"name":"航空自衛隊横田基地","province":"東京都","city":"福生市","address":"福生市大字福生2552","lat":35.74337,"lon":139.3305},{"name":"航空自衛隊横田基地","province":"東京都","city":"福生市","address":"福生市大字福生2552","lat":35.74337,"lon":139.3305},{"name":"航空自衛隊横田基地","province":"東京都","city":"福生市","address":"福生市大字福生2552","lat":35.74337,"lon":139.3305},{"name":"航空自衛隊横田基地","province":"東京都","city":"福生市","address":"福生市大字福生2552","lat":35.74337,"lon":139.3305},{"name":"航空自衛隊横田基地","province":"東京都","city":"福生市","address":"福生市大字福生2552","lat":35.74337,"lon":139.3305},{"name":"航空自衛隊横田基地","province":"東京都","city":"福生市","address":"福生市大字福生2552","lat":35.74337,"lon":139.3305},{"name":"航空自衛隊横田基地","province":"東京都","city":"福生市","address":"福生市大字福生2552","lat":35.74337,"lon":139.3305},{"name":"航空自衛隊横田基地","province":"東京都","city":"福生市","address":"福生市大字福生2552","lat":35.74337,"lon":139.3305},{"name":"航空自衛隊横田基地","province":"東京都","city":"福生市","address":"福生市大字福生2552","lat":35.74337,"lon":139.3305},{"name":"航空自衛隊横田基地","province":"東京都","city":"福生市","address":"福生市大字福生2552","lat":35.74337,"lon":139.3305},{"name":"航空自衛隊横田基地","province":"東京都","city":"福生市","address":"福生市大字福生2552","lat":35.74337,"lon":139.3305},{"name":"航空自衛隊横田基地","province":"東京都","city":"福生市","address":"福生市大字福生2552","lat":35.74337,"lon":139.3305},{"name":"航空自衛隊横田基地","province":"東京都","city":"福生市","address":"福生市大字福生2552","lat":35.74337,"lon":139.3305},{"name":"航空自衛隊横田基地","province":"東京都","city":"福生市","address":"福生市大字福生2552","lat":35.74337,"lon":139.3305}]}