{"keyword":"焼却","data":[{"name":"大田第一清掃工場","province":"東京都","city":"大田区","address":"東京都大田区京浜島3丁目6-1","lat":35.573784,"lon":139.767761},{"name":"有明清掃工場","province":"東京都","city":"江東区","address":"東京都江東区有明2丁目3","lat":35.633038,"lon":139.784119},{"name":"千歳清掃工場","province":"東京都","city":"世田谷区","address":"東京都世田谷区八幡山2丁目7-1","lat":35.659866,"lon":139.616623},{"name":"墨田清掃工場","province":"東京都","city":"墨田区","address":"東京都墨田区東墨田1丁目10","lat":35.716927,"lon":139.831985},{"name":"北清掃工場","province":"東京都","city":"北区","address":"東京都北区志茂1丁目2","lat":35.77573,"lon":139.731857},{"name":"新江東清掃工場","province":"東京都","city":"江東区","address":"東京都江東区夢の島3丁目1-1","lat":35.649376,"lon":139.834442},{"name":"港清掃工場","province":"東京都","city":"港区","address":"東京都港区港南5丁目7-1","lat":35.631493,"lon":139.756073},{"name":"豊島清掃工場","province":"東京都","city":"豊島区","address":"東京都豊島区上池袋2丁目5-1","lat":35.734802,"lon":139.714752},{"name":"渋谷清掃工場","province":"東京都","city":"渋谷区","address":"東京都渋谷区東1丁目35-1","lat":35.653358,"lon":139.70639},{"name":"中央清掃工場","province":"東京都","city":"中央区","address":"東京都中央区晴海5丁目2-1","lat":35.652134,"lon":139.775604},{"name":"板橋清掃工場","province":"東京都","city":"板橋区","address":"東京都板橋区高島平9丁目48-1","lat":35.791698,"lon":139.666687},{"name":"多摩川清掃工場","province":"東京都","city":"大田区","address":"東京都大田区下丸子2丁目33-1","lat":35.561691,"lon":139.686996},{"name":"足立清掃工場","province":"東京都","city":"足立区","address":"東京都足立区西保木間4丁目7-1","lat":35.803345,"lon":139.795105},{"name":"品川清掃工場","province":"東京都","city":"品川区","address":"東京都品川区八潮1丁目4","lat":35.60878,"lon":139.753891},{"name":"葛飾清掃工場","province":"東京都","city":"葛飾区","address":"東京都葛飾区水元1丁目20-1","lat":35.780766,"lon":139.856613},{"name":"世田谷清掃工場","province":"東京都","city":"世田谷区","address":"東京都世田谷区大蔵1丁目1-1","lat":35.633347,"lon":139.62291},{"name":"大田清掃工場","province":"東京都","city":"大田区","address":"東京都大田区京浜島3丁目6-1","lat":35.573784,"lon":139.767761},{"name":"練馬清掃工場","province":"東京都","city":"練馬区","address":"東京都練馬区谷原6丁目10-11","lat":35.756371,"lon":139.608582},{"name":"杉並清掃工場","province":"東京都","city":"杉並区","address":"東京都杉並区高井戸東3丁目7-4","lat":35.683449,"lon":139.615952},{"name":"光が丘清掃工場","province":"東京都","city":"練馬区","address":"東京都練馬区光が丘5丁目3-1","lat":35.761639,"lon":139.628296},{"name":"目黒清掃工場","province":"東京都","city":"目黒区","address":"東京都目黒区三田2丁目19","lat":35.637733,"lon":139.70755},{"name":"破砕ごみ処理施設","province":"東京都","city":"江東区","address":"東京都江東区海辺10","lat":35.681076,"lon":139.818878},{"name":"中防灰溶融施設","province":"東京都","city":"江東区","address":"東京都江東区海辺10","lat":35.681076,"lon":139.818878},{"name":"立川市清掃工場","province":"東京都","city":"立川市","address":"東京都立川市若葉町4丁目11","lat":35.72504,"lon":139.433701},{"name":"立川市新清掃工場","province":"東京都","city":"立川市","address":"東京都立川市泉町","lat":35.715893,"lon":139.404343},{"name":"武蔵野クリーンセンター","province":"東京都","city":"武蔵野市","address":"東京都武蔵野市緑町3丁目1","lat":35.719227,"lon":139.566376},{"name":"昭島市清掃センター","province":"東京都","city":"昭島市","address":"東京都昭島市田中町4丁目3","lat":35.69331,"lon":139.348755},{"name":"町田ﾘｻｲｸﾙ文化ｾﾝﾀｰ","province":"東京都","city":"町田市","address":"東京都町田市図師町","lat":35.587688,"lon":139.412216},{"name":"ごみ処理施設（熱回収施設）","province":"東京都","city":"町田市","address":"東京都町田市図師町","lat":35.587688,"lon":139.412216},{"name":"日野市クリーンセンター","province":"東京都","city":"日野市","address":"東京都日野市石田1丁目","lat":35.666538,"lon":139.427689},{"name":"東村山市秋水園","province":"東京都","city":"東村山市","address":"東京都東村山市秋津町4丁目17","lat":35.780079,"lon":139.485489},{"name":"国分寺市清掃センター","province":"東京都","city":"国分寺市","address":"東京都国分寺市西恋ヶ窪4丁目9-8","lat":35.706036,"lon":139.465652},{"name":"クリーンプラザふじみ","province":"東京都","city":"調布市","address":"東京都調布市深大寺東町7丁目50-30","lat":35.681793,"lon":139.56073},{"name":"柳泉園クリーンポート","province":"東京都","city":"東久留米市","address":"東京都東久留米市下里4丁目3","lat":35.754902,"lon":139.494705},{"name":"環境センター","province":"東京都","city":"羽村市","address":"東京都羽村市羽","lat":35.758251,"lon":139.298889},{"name":"クリーンセンター多摩川","province":"東京都","city":"稲城市","address":"東京都稲城市大丸","lat":35.649818,"lon":139.48172},{"name":"小平・村山・大和衛生組合ごみ焼却施設","province":"東京都","city":"小平市","address":"東京都小平市中島町2","lat":35.729443,"lon":139.427826},{"name":"西秋川衛生組合熱回収施設","province":"東京都","city":"あきる野市","address":"東京都あきる野市高尾","lat":35.717209,"lon":139.239532},{"name":"多摩ニュータウン環境組合多摩清掃工場","province":"東京都","city":"多摩市","address":"東京都多摩市唐木田2丁目1-1","lat":35.612419,"lon":139.409958},{"name":"新可燃ごみ処理施設","province":"東京都","city":"日野市","address":"東京都日野市石田1丁目","lat":35.666538,"lon":139.427689},{"name":"大島町千波環境美化センター（焼却施設）","province":"東京都","city":"大島町","address":"東京都大島町野増","lat":34.7169,"lon":139.377228},{"name":"利島村清掃センター","province":"東京都","city":"","address":"東京都利島村","lat":34.529991,"lon":139.278015},{"name":"新島村清掃センター","province":"東京都","city":"新島村","address":"東京都新島村本村1丁目6","lat":34.377769,"lon":139.253525},{"name":"式根島クリーンセンター","province":"東京都","city":"新島村","address":"東京都新島村式根島","lat":34.326527,"lon":139.213501},{"name":"神津島村清掃センター","province":"東京都","city":"神津島村","address":"東京都神津島村字鍛治山","lat":34.21719,"lon":139.140686},{"name":"御蔵島村じん芥処理施設","province":"東京都","city":"御蔵島村","address":"東京都御蔵島村","lat":33.864521,"lon":139.587952},{"name":"八丈町クリーンセンター","province":"東京都","city":"八丈町","address":"東京都八丈町大賀郷","lat":33.120907,"lon":139.766235},{"name":"父島クリーンセンター","province":"東京都","city":"小笠原村","address":"東京都小笠原村父島","lat":27.071243,"lon":142.20961},{"name":"焼却施設","province":"東京都","city":"足立区","address":"東京都足立区入谷9丁目30-21","lat":35.806484,"lon":139.75383},{"name":"シンシア品川R・Cセンター","province":"東京都","city":"品川区","address":"東京都品川区八潮3丁目2","lat":35.591099,"lon":139.756607},{"name":"エアポートクリーンセンター","province":"東京都","city":"大田区","address":"東京都大田区羽田空港3丁目5","lat":35.533062,"lon":139.793991},{"name":"焼却施設","province":"東京都","city":"国分寺市","address":"東京都国分寺市戸倉1丁目15","lat":35.712482,"lon":139.462402},{"name":"焼却施設","province":"東京都","city":"国立市","address":"東京都国立市泉1丁目8-3","lat":35.675488,"lon":139.43605},{"name":"焼却施設","province":"東京都","city":"国立市","address":"東京都国立市泉1丁目14","lat":35.672302,"lon":139.439758}]}