{"keyword":"博物","data":[{"name":"＊?新宿区立新宿歴史博物館","province":"東京都","city":"新宿区","address":"新宿区三栄町22","lat":35.689939,"lon":139.725701},{"name":"＊?すみだ郷土文化資料館","province":"東京都","city":"墨田区","address":"墨田区向島2-3-5","lat":35.713933,"lon":139.805883},{"name":"＊?大田区立郷土博物館","province":"東京都","city":"大田区","address":"大田区南馬込5-11-13","lat":35.588544,"lon":139.710657},{"name":"＊?郷土資料館","province":"東京都","city":"世田谷区","address":"世田谷区世田谷1-29-18","lat":35.64131,"lon":139.647183},{"name":"＊?世田谷美術館","province":"東京都","city":"世田谷区","address":"世田谷区砧公園1-2","lat":35.63184,"lon":139.62203},{"name":"＊?世田谷文学館","province":"東京都","city":"世田谷区","address":"世田谷区南烏山1-10-10","lat":35.667036,"lon":139.608907},{"name":"＊?杉並区立郷土博物館","province":"東京都","city":"杉並区","address":"杉並区大宮1-20-8","lat":35.685999,"lon":139.645498},{"name":"＊?杉並区立郷土博物館分館","province":"東京都","city":"杉並区","address":"杉並区天沼3-23-1","lat":35.708819,"lon":139.621154},{"name":"＊?練馬区立美術館","province":"東京都","city":"練馬区","address":"練馬区貫井1-36-16","lat":35.736971,"lon":139.636105},{"name":"＊?郷土博物館","province":"東京都","city":"足立区","address":"足立区大谷田5-20-1","lat":35.784462,"lon":139.841403},{"name":"＊?葛飾区郷土と天文の博物館","province":"東京都","city":"葛飾区","address":"葛飾区白鳥3-25-1","lat":35.752868,"lon":139.843365},{"name":"＊?八王子市郷土資料館","province":"東京都","city":"八王子市","address":"八王子市上野町33","lat":35.65592,"lon":139.32614},{"name":"＊?青梅市郷土博物館","province":"東京都","city":"青梅市","address":"青梅市駒木町1-684","lat":35.783794,"lon":139.25672},{"name":"＊?青梅市立美術館","province":"東京都","city":"青梅市","address":"青梅市滝ノ上町1346-1","lat":35.787547,"lon":139.255959},{"name":"＊?府中市美術館","province":"東京都","city":"府中市","address":"府中市浅間町1-3","lat":35.678885,"lon":139.492177},{"name":"＊?府中市郷土の森博物館","province":"東京都","city":"府中市","address":"府中市南町6-32","lat":35.656682,"lon":139.473166},{"name":"＊?調布市郷土博物館","province":"東京都","city":"調布市","address":"調布市小島町3-26-2","lat":35.646888,"lon":139.536198},{"name":"＊?調布市郷土博物館分室","province":"東京都","city":"調布市","address":"調布市布田6-61","lat":35.643715,"lon":139.548462},{"name":"＊?東村山ふるさと歴史館","province":"東京都","city":"東村山市","address":"東村山市諏訪町1-6-3","lat":35.766694,"lon":139.466322},{"name":"＊?東大和市立郷土博物館","province":"東京都","city":"東大和市","address":"東大和市奈良橋1-260-2","lat":35.755184,"lon":139.42297},{"name":"＊?清瀬市郷土博物館","province":"東京都","city":"清瀬市","address":"清瀬市上清戸2-6-41","lat":35.779761,"lon":139.520928},{"name":"＊?歴史民俗資料館","province":"東京都","city":"武蔵村山市","address":"武蔵村山市本町5-21-1","lat":35.762357,"lon":139.387322},{"name":"＊?羽村市郷土博物館","province":"東京都","city":"羽村市","address":"羽村市羽741","lat":35.755144,"lon":139.303426},{"name":"軟式野球資料室","province":"東京都","city":"墨田区","address":"墨田区墨田二丁目34番9号","lat":35.730422,"lon":139.818366},{"name":"江戸小紋博物館","province":"東京都","city":"墨田区","address":"墨田区八広二丁目27番10号","lat":35.717538,"lon":139.825997},{"name":"藍染博物館","province":"東京都","city":"墨田区","address":"墨田区京島一丁目29番1号","lat":35.716808,"lon":139.821071},{"name":"羽子板資料館","province":"東京都","city":"墨田区","address":"墨田区向島五丁目43番25号","lat":35.719107,"lon":139.812307},{"name":"江戸木目込人形博物館","province":"東京都","city":"墨田区","address":"墨田区向島二丁目11番7号","lat":35.715962,"lon":139.809533},{"name":"漆工博物館","province":"東京都","city":"墨田区","address":"墨田区向島三丁目38番10号","lat":35.713849,"lon":139.81184},{"name":"屏風博物館","province":"東京都","city":"墨田区","address":"墨田区向島一丁目31番6号","lat":35.710437,"lon":139.807704},{"name":"ちいさな硝子の本の博物館","province":"東京都","city":"墨田区","address":"墨田区吾妻橋一丁目19番8号","lat":35.708883,"lon":139.802089},{"name":"乾燥木材工芸資料館","province":"東京都","city":"墨田区","address":"墨田区錦糸二丁目9番11号","lat":35.698896,"lon":139.812921},{"name":"ブレーキ博物館","province":"東京都","city":"墨田区","address":"墨田区堤通一丁目7番9号","lat":35.724391,"lon":139.811212},{"name":"NTTドコモ歴史展示スクエア","province":"東京都","city":"墨田区","address":"墨田区横網一丁目9番2号NTTドコモ墨田ビル1階","lat":35.698257,"lon":139.795749},{"name":"相撲写真資料館","province":"東京都","city":"墨田区","address":"墨田区両国三丁目13番2号","lat":35.693513,"lon":139.793794},{"name":"桐の博物館","province":"東京都","city":"墨田区","address":"墨田区両国四丁目1番8号","lat":35.692315,"lon":139.797088},{"name":"袋物博物館","province":"東京都","city":"墨田区","address":"墨田区両国一丁目1番7号","lat":35.692014,"lon":139.790718},{"name":"折箱博物館「木具輪」","province":"東京都","city":"墨田区","address":"墨田区立川一丁目3番5号","lat":35.690411,"lon":139.798381},{"name":"金庫と鍵の博物館","province":"東京都","city":"墨田区","address":"墨田区千歳三丁目4番1号","lat":35.689187,"lon":139.797345},{"name":"建築道具・木組資料館","province":"東京都","city":"墨田区","address":"墨田区菊川一丁目5番3号","lat":35.689156,"lon":139.800433},{"name":"名刺と紙製品の博物館","province":"東京都","city":"墨田区","address":"墨田区立川三丁目1番7号3階","lat":35.690237,"lon":139.803858},{"name":"指物博物館","province":"東京都","city":"墨田区","address":"墨田区立川四丁目6番5号1階","lat":35.690838,"lon":139.806897},{"name":"フットマークギャラリー","province":"東京都","city":"墨田区","address":"墨田区緑二丁目7番12号","lat":35.693308,"lon":139.800993},{"name":"江戸表具博物館","province":"東京都","city":"墨田区","address":"墨田区千歳三丁目5番11号","lat":35.689525,"lon":139.797925},{"name":"錺かんざし博物館","province":"東京都","city":"墨田区","address":"墨田区東駒形三丁目22番7号","lat":35.707898,"lon":139.802987},{"name":"鍼灸あん摩博物館","province":"東京都","city":"墨田区","address":"墨田区千歳一丁目8番2号杉山和一記念館内","lat":35.691437,"lon":139.792693},{"name":"やさしい革の博物館","province":"東京都","city":"墨田区","address":"墨田区東墨田3-11-10RUSSETYFACTORY1階","lat":35.722973,"lon":139.834799}]}