{"keyword":"時点","data":[{"name":"本覚寺の版木〈非公開〉","province":"東京都","city":"練馬区","address":"東京都練馬区旭町1-26","lat":35.764561,"lon":139.621394},{"name":"丸彫聖観音立像廻国供養塔","province":"東京都","city":"練馬区","address":"東京都練馬区旭町2-28","lat":35.773035,"lon":139.626716},{"name":"小美濃英男家文書〈非公開〉","province":"東京都","city":"練馬区","address":"東京都練馬区大泉学園町2丁目","lat":35.75599643,"lon":139.58529538},{"name":"旧大泉村役場跡","province":"東京都","city":"練馬区","address":"東京都練馬区大泉学園町2-2","lat":35.754467,"lon":139.584362},{"name":"力持ち惣兵衛の馬頭観音","province":"東京都","city":"練馬区","address":"東京都練馬区大泉学園町2-27地先","lat":35.755912,"lon":139.58419},{"name":"カタクリ群落","province":"東京都","city":"練馬区","address":"東京都練馬区大泉町1-6","lat":35.764592,"lon":139.608034},{"name":"中里の富士塚","province":"東京都","city":"練馬区","address":"東京都練馬区大泉町1-44","lat":35.767382,"lon":139.606514},{"name":"尾張殿鷹場碑","province":"東京都","city":"練馬区","address":"東京都練馬区大泉町3-16","lat":35.765875,"lon":139.599791},{"name":"伊賀衆奉納の水盤・鳥居","province":"東京都","city":"練馬区","address":"東京都練馬区大泉町5-15","lat":35.758389,"lon":139.594667},{"name":"閻魔・十王像と檀拏幢","province":"東京都","city":"練馬区","address":"東京都練馬区大泉町6-24","lat":35.756652,"lon":139.592524},{"name":"練馬東小学校のフジ","province":"東京都","city":"練馬区","address":"東京都練馬区春日町1-30","lat":35.752358,"lon":139.647464},{"name":"河野鎮平筆子碑","province":"東京都","city":"練馬区","address":"東京都練馬区春日町3-2","lat":35.748088,"lon":139.643857},{"name":"長谷川家文書〈非公開〉","province":"東京都","city":"練馬区","address":"東京都練馬区春日町3丁目","lat":35.75114291,"lon":139.6426769},{"name":"愛染院の梵鐘","province":"東京都","city":"練馬区","address":"東京都練馬区春日町4-17","lat":35.753536,"lon":139.639957},{"name":"愛染院文書〈非公開〉","province":"東京都","city":"練馬区","address":"東京都練馬区春日町4-17","lat":35.753536,"lon":139.639957},{"name":"尾崎遺跡","province":"東京都","city":"練馬区","address":"東京都練馬区春日町5-12","lat":35.747028,"lon":139.639928},{"name":"尾崎遺跡出土品","province":"東京都","city":"練馬区","address":"東京都練馬区春日町5-12","lat":35.747028,"lon":139.639928},{"name":"相原正太郎家住宅〈非公開〉","province":"東京都","city":"練馬区","address":"東京都練馬区春日町5丁目","lat":35.74575174,"lon":139.6382386},{"name":"圓淨法師塚","province":"東京都","city":"練馬区","address":"東京都練馬区春日町5-35","lat":35.749922,"lon":139.636568},{"name":"上石神井立野の庚申塔","province":"東京都","city":"練馬区","address":"東京都練馬区上石神井1-11","lat":35.723495,"lon":139.59162},{"name":"出羽三山・百八十八ヶ所観音供養塔","province":"東京都","city":"練馬区","address":"東京都練馬区上石神井1-11","lat":35.723495,"lon":139.59162},{"name":"下練馬の大山道道標","province":"東京都","city":"練馬区","address":"東京都練馬区北町1-25地先","lat":35.76573,"lon":139.667023},{"name":"千川家の墓","province":"東京都","city":"練馬区","address":"東京都練馬区北町2丁目18","lat":35.76637772,"lon":139.66274675},{"name":"阿弥陀堂の半鐘","province":"東京都","city":"練馬区","address":"東京都練馬区北町2-18","lat":35.763836,"lon":139.643385},{"name":"北町聖観音座像","province":"東京都","city":"練馬区","address":"東京都練馬区北町2-38","lat":35.768005,"lon":139.662011},{"name":"北町の仁王像","province":"東京都","city":"練馬区","address":"東京都練馬区北町2-38","lat":35.768005,"lon":139.662011},{"name":"下練馬の富士塚","province":"東京都","city":"練馬区","address":"東京都練馬区北町2-41","lat":35.767568,"lon":139.663802},{"name":"ちがや馬飾り","province":"東京都","city":"練馬区","address":"東京都練馬区北町3丁目","lat":35.76762458,"lon":139.65306144},{"name":"田中家資料〈非公開〉","province":"東京都","city":"練馬区","address":"東京都練馬区北町5丁目","lat":35.76469165,"lon":139.65584465},{"name":"氷川神社富士塚","province":"東京都","city":"練馬区","address":"東京都練馬区北町8-22","lat":35.766334,"lon":139.650969},{"name":"練馬城跡","province":"東京都","city":"練馬区","address":"東京都練馬区向山3丁目25","lat":35.74492974,"lon":139.64310489},{"name":"千川堤植櫻楓碑","province":"東京都","city":"練馬区","address":"東京都練馬区小竹町1-59","lat":35.738321,"lon":139.672346},{"name":"江古田の富士塚〈外観の見学可〉","province":"東京都","city":"練馬区","address":"東京都練馬区小竹町1-59","lat":35.738321,"lon":139.672346},{"name":"江古田の富士講関係資料〈非公開〉","province":"東京都","city":"練馬区","address":"東京都練馬区小竹町1-59","lat":35.738321,"lon":139.672346},{"name":"篠家文書〈非公開〉","province":"東京都","city":"練馬区","address":"東京都練馬区桜台2丁目","lat":35.74308877,"lon":139.66260331},{"name":"新井家文書〈非公開〉","province":"東京都","city":"練馬区","address":"東京都練馬区桜台3丁目","lat":35.7461219,"lon":139.66827489},{"name":"小林家住宅〈非公開〉","province":"東京都","city":"練馬区","address":"東京都練馬区桜台5丁目","lat":35.74363301,"lon":139.65661492},{"name":"紙本着色以天宗清像〈非公開〉","province":"東京都","city":"練馬区","address":"東京都練馬区桜台6-20","lat":35.747898,"lon":139.656176},{"name":"絹本着色明叟宗普像〈非公開〉","province":"東京都","city":"練馬区","address":"東京都練馬区桜台6-20","lat":35.747898,"lon":139.656176},{"name":"紙本墨画淡彩希叟宗罕像〈非公開〉","province":"東京都","city":"練馬区","address":"東京都練馬区桜台6-20","lat":35.747898,"lon":139.656176},{"name":"明叟宗普の墨跡〈非公開〉","province":"東京都","city":"練馬区","address":"東京都練馬区桜台6-20","lat":35.747898,"lon":139.656176},{"name":"絹本着色釈迦十六善神像〈非公開〉","province":"東京都","city":"練馬区","address":"東京都練馬区桜台6-20","lat":35.747898,"lon":139.656176},{"name":"正親町天皇綸旨〈非公開〉","province":"東京都","city":"練馬区","address":"東京都練馬区桜台6-20","lat":35.747898,"lon":139.656176},{"name":"明叟宗普道号頌〈非公開〉","province":"東京都","city":"練馬区","address":"東京都練馬区桜台6-20","lat":35.747898,"lon":139.656176},{"name":"明叟宗普書状〈非公開〉","province":"東京都","city":"練馬区","address":"東京都練馬区桜台6-20","lat":35.747898,"lon":139.656176},{"name":"大山講灯籠立て行事","province":"東京都","city":"練馬区","address":"東京都練馬区下石神井1丁目","lat":35.73157203,"lon":139.6104776},{"name":"丸彫青面金剛庚申塔","province":"東京都","city":"練馬区","address":"東京都練馬区下石神井5-7-11","lat":35.732882,"lon":139.602225},{"name":"二十三夜待供養塔","province":"東京都","city":"練馬区","address":"東京都練馬区下石神井6-1","lat":35.732518,"lon":139.60549},{"name":"三宝寺の梵鐘","province":"東京都","city":"練馬区","address":"東京都練馬区石神井台1-15","lat":35.736244,"lon":139.597684},{"name":"三宝寺山門","province":"東京都","city":"練馬区","address":"東京都練馬区石神井台1-15","lat":35.736244,"lon":139.597684},{"name":"弥陀三尊来迎画像板碑","province":"東京都","city":"練馬区","address":"東京都練馬区石神井台1-15","lat":35.736244,"lon":139.597684},{"name":"永享八年の夜念仏板碑","province":"東京都","city":"練馬区","address":"東京都練馬区石神井台1-15","lat":35.736244,"lon":139.597684},{"name":"北条氏康印判状〈非公開〉","province":"東京都","city":"練馬区","address":"東京都練馬区石神井台1-16","lat":35.736382,"lon":139.598558},{"name":"文応元年の弥陀板碑〈非公開〉","province":"東京都","city":"練馬区","address":"東京都練馬区石神井台1-16","lat":35.736382,"lon":139.598558},{"name":"豊島氏奉納の石燈籠","province":"東京都","city":"練馬区","address":"東京都練馬区石神井台1-18","lat":35.736782,"lon":139.595874},{"name":"氷川神社の水盤","province":"東京都","city":"練馬区","address":"東京都練馬区石神井台1-18","lat":35.736782,"lon":139.595874},{"name":"三宝寺池沼沢植物群落","province":"東京都","city":"練馬区","address":"東京都練馬区石神井台1-27","lat":35.737659,"lon":139.596733},{"name":"石神井城跡","province":"東京都","city":"練馬区","address":"東京都練馬区石神井台1-18","lat":35.737501,"lon":139.596628},{"name":"田柄用水跡","province":"東京都","city":"練馬区","address":"東京都練馬区石神井台8-21","lat":35.737416,"lon":139.582139},{"name":"石神井火車站之碑","province":"東京都","city":"練馬区","address":"東京都練馬区石神井町3-23","lat":35.743367,"lon":139.60675},{"name":"小島家文書","province":"東京都","city":"練馬区","address":"東京都練馬区石神井町5-12","lat":35.737466,"lon":139.599614},{"name":"春日町出土の壺形土器","province":"東京都","city":"練馬区","address":"東京都練馬区石神井町5-12","lat":35.737466,"lon":139.599614},{"name":"縄文時代の竹カゴ","province":"東京都","city":"練馬区","address":"東京都練馬区石神井町5-12","lat":35.737466,"lon":139.599614},{"name":"金銅製飾具","province":"東京都","city":"練馬区","address":"東京都練馬区石神井町5-12","lat":35.737466,"lon":139.599614},{"name":"尾張殿鷹場碑","province":"東京都","city":"練馬区","address":"東京都練馬区石神井町5-12","lat":35.737466,"lon":139.599614},{"name":"荘家文書","province":"東京都","city":"練馬区","address":"東京都練馬区石神井町5-12","lat":35.737466,"lon":139.599614},{"name":"比丘尼橋遺跡出土の旧石器","province":"東京都","city":"練馬区","address":"東京都練馬区石神井町5-12","lat":35.737466,"lon":139.599614},{"name":"武蔵関遺跡出土の大型槍先形石器","province":"東京都","city":"練馬区","address":"東京都練馬区石神井町5-12","lat":35.737466,"lon":139.599614},{"name":"高稲荷遺跡出土の旧石器","province":"東京都","city":"練馬区","address":"東京都練馬区石神井町5-12","lat":35.737466,"lon":139.599614},{"name":"丸山東遺跡出土の木製品","province":"東京都","city":"練馬区","address":"東京都練馬区石神井町5-12","lat":35.737466,"lon":139.599614},{"name":"中宮遺跡5号住居址の盛土状遺構出土品","province":"東京都","city":"練馬区","address":"東京都練馬区石神井町5-12","lat":35.737466,"lon":139.599614},{"name":"千川家文書","province":"東京都","city":"練馬区","address":"東京都練馬区石神井町5-12","lat":35.737466,"lon":139.599614},{"name":"八ヶ谷戸遺跡出土の大形把手付縄文土器","province":"東京都","city":"練馬区","address":"東京都練馬区石神井町5-12","lat":35.737466,"lon":139.599614},{"name":"中野屋商店文書","province":"東京都","city":"練馬区","address":"東京都練馬区石神井町5-12","lat":35.737466,"lon":139.599614},{"name":"石神井城跡出土小刀","province":"東京都","city":"練馬区","address":"東京都練馬区石神井町5-12","lat":35.737466,"lon":139.599614},{"name":"石神井西尋常小学校のリードオルガン","province":"東京都","city":"練馬区","address":"東京都練馬区石神井町5-12","lat":35.737466,"lon":139.599614},{"name":"木下家文書","province":"東京都","city":"練馬区","address":"東京都練馬区石神井町5-12","lat":35.737466,"lon":139.599614},{"name":"栗原家文書","province":"東京都","city":"練馬区","address":"東京都練馬区石神井町5-12","lat":35.737466,"lon":139.599614},{"name":"小竹遺跡出土の大珠","province":"東京都","city":"練馬区","address":"東京都練馬区石神井町5-12","lat":35.737466,"lon":139.599614},{"name":"丸山東遺跡方形周溝墓出土品","province":"東京都","city":"練馬区","address":"東京都練馬区石神井町5-12","lat":35.737466,"lon":139.599614},{"name":"千川上水の記録フィルム","province":"東京都","city":"練馬区","address":"東京都練馬区石神井町5-12","lat":35.737466,"lon":139.599614},{"name":"内国勧業博覧会褒状","province":"東京都","city":"練馬区","address":"東京都練馬区石神井町5-12","lat":35.737466,"lon":139.599614},{"name":"東早淵遺跡出土の局部磨製石斧","province":"東京都","city":"練馬区","address":"東京都練馬区石神井町5-12","lat":35.737466,"lon":139.599614},{"name":"大泉井頭遺跡出土の有孔鍔付土器","province":"東京都","city":"練馬区","address":"東京都練馬区石神井町5-12","lat":35.737466,"lon":139.599614},{"name":"丸山東遺跡出土の石棒","province":"東京都","city":"練馬区","address":"東京都練馬区石神井町5-12","lat":35.737466,"lon":139.599614},{"name":"武内家資料","province":"東京都","city":"練馬区","address":"東京都練馬区石神井町5-12","lat":35.737466,"lon":139.599614},{"name":"天祖神社東遺跡出土の石核","province":"東京都","city":"練馬区","address":"東京都練馬区石神井町5-12","lat":35.737466,"lon":139.599614},{"name":"北新井遺跡出土の土偶","province":"東京都","city":"練馬区","address":"東京都練馬区石神井町5-12","lat":35.737466,"lon":139.599614},{"name":"森田家資料","province":"東京都","city":"練馬区","address":"東京都練馬区石神井町5-12","lat":35.737466,"lon":139.599614},{"name":"丸山東遺跡出土の片口土器","province":"東京都","city":"練馬区","address":"東京都練馬区石神井町5-12","lat":35.737466,"lon":139.599614},{"name":"アニメーション撮影台","province":"東京都","city":"練馬区","address":"東京都練馬区石神井町5-12","lat":35.737466,"lon":139.599614},{"name":"五十嵐家文書","province":"東京都","city":"練馬区","address":"東京都練馬区石神井町5-12","lat":35.737466,"lon":139.599614},{"name":"山口家資料","province":"東京都","city":"練馬区","address":"東京都練馬区石神井町5-12","lat":35.737466,"lon":139.599614},{"name":"大八車","province":"東京都","city":"練馬区","address":"東京都練馬区石神井町5-12","lat":35.737466,"lon":139.599614},{"name":"沢庵漬製造用具","province":"東京都","city":"練馬区","address":"東京都練馬区石神井町5-12","lat":35.737466,"lon":139.599614},{"name":"長享二年の申待板碑","province":"東京都","city":"練馬区","address":"東京都練馬区石神井町5-12","lat":35.737466,"lon":139.599614},{"name":"富士講巡拝装束","province":"東京都","city":"練馬区","address":"東京都練馬区石神井町5-12","lat":35.737466,"lon":139.599614},{"name":"棒屋資料","province":"東京都","city":"練馬区","address":"東京都練馬区石神井町5-12","lat":35.737466,"lon":139.599614},{"name":"井戸替え用具","province":"東京都","city":"練馬区","address":"東京都練馬区石神井町5-12","lat":35.737466,"lon":139.599614},{"name":"醤油醸造業用具","province":"東京都","city":"練馬区","address":"東京都練馬区石神井町5-12","lat":35.737466,"lon":139.599614},{"name":"池淵遺跡","province":"東京都","city":"練馬区","address":"東京都練馬区石神井町5-13","lat":35.737692,"lon":139.600557},{"name":"旧内田家住宅","province":"東京都","city":"練馬区","address":"東京都練馬区石神井町5-13","lat":35.737692,"lon":139.600557},{"name":"橘紋椿几帳柄鏡〈非公開〉","province":"東京都","city":"練馬区","address":"東京都練馬区石神井町5-19","lat":35.737635,"lon":139.604647},{"name":"石幢六面六地蔵","province":"東京都","city":"練馬区","address":"東京都練馬区石神井町5-19","lat":35.737635,"lon":139.604647},{"name":"織部燈籠","province":"東京都","city":"練馬区","address":"東京都練馬区石神井町5-19","lat":35.737635,"lon":139.604647},{"name":"井口家文書〈非公開〉","province":"東京都","city":"練馬区","address":"東京都練馬区関町北2丁目","lat":35.72670781,"lon":139.57620288},{"name":"関のぼろ市","province":"東京都","city":"練馬区","address":"東京都練馬区関町北4-16","lat":35.728468,"lon":139.574693},{"name":"関のかんかん地蔵","province":"東京都","city":"練馬区","address":"東京都練馬区関町東1-18地先","lat":35.723146,"lon":139.583566},{"name":"井口家文書〈非公開〉","province":"東京都","city":"練馬区","address":"東京都練馬区関町南4丁目","lat":35.7217722,"lon":139.57417825},{"name":"千川上水跡","province":"東京都","city":"練馬区","address":"東京都練馬区関町南2丁目","lat":35.71940324,"lon":139.58375531},{"name":"横山家文書〈非公開〉","province":"東京都","city":"練馬区","address":"東京都練馬区高野台1丁目","lat":35.74405972,"lon":139.61761816},{"name":"東高野山奥之院","province":"東京都","city":"練馬区","address":"東京都練馬区高野台3-10","lat":35.743821,"lon":139.614376},{"name":"長命寺の梵鐘","province":"東京都","city":"練馬区","address":"東京都練馬区高野台3-10","lat":35.743821,"lon":139.614376},{"name":"牛若丸・弁慶図絵馬〈非公開〉","province":"東京都","city":"練馬区","address":"東京都練馬区高野台3-10","lat":35.743821,"lon":139.614376},{"name":"長命寺仁王門","province":"東京都","city":"練馬区","address":"東京都練馬区高野台3-10","lat":35.743821,"lon":139.614376},{"name":"八幡神社の石造大山不動明王像","province":"東京都","city":"練馬区","address":"東京都練馬区高松1-16","lat":35.747057,"lon":139.633593},{"name":"高松の板碑型庚申塔","province":"東京都","city":"練馬区","address":"東京都練馬区高松1-22","lat":35.747037,"lon":139.636608},{"name":"宮田橋敷石供養塔","province":"東京都","city":"練馬区","address":"東京都練馬区高松2-3","lat":35.745963,"lon":139.632051},{"name":"高松の庚申塔","province":"東京都","city":"練馬区","address":"東京都練馬区高松2-3","lat":35.745963,"lon":139.632051},{"name":"織部燈籠〈非公開〉","province":"東京都","city":"練馬区","address":"東京都練馬区高松3丁目","lat":35.74985657,"lon":139.62790874},{"name":"服部半蔵奉納の仁王像","province":"東京都","city":"練馬区","address":"東京都練馬区高松3-19","lat":35.749768,"lon":139.627861},{"name":"高松の御嶽講関係資料〈非公開〉","province":"東京都","city":"練馬区","address":"東京都練馬区高松6-34","lat":35.760364,"lon":139.619838},{"name":"田柄用水記念碑","province":"東京都","city":"練馬区","address":"東京都練馬区田柄4-27","lat":35.764066,"lon":139.641899},{"name":"相原好吉家文書〈非公開〉","province":"東京都","city":"練馬区","address":"東京都練馬区田柄5丁目","lat":35.75990559,"lon":139.63295513},{"name":"相原家薬医門〈路上見学可〉","province":"東京都","city":"練馬区","address":"東京都練馬区田柄5丁目","lat":35.75990559,"lon":139.63295513},{"name":"井口家の屋敷林〈路上見学可〉","province":"東京都","city":"練馬区","address":"東京都練馬区立野町","lat":35.71660071,"lon":139.58106121},{"name":"関口家文書〈非公開〉","province":"東京都","city":"練馬区","address":"東京都練馬区土支田3丁目","lat":35.76034643,"lon":139.60719622},{"name":"旧見留家納屋","province":"東京都","city":"練馬区","address":"東京都練馬区土支田3-34","lat":35.760488,"lon":139.609491},{"name":"加藤家文書〈非公開〉","province":"東京都","city":"練馬区","address":"東京都練馬区土支田4丁目","lat":35.7678903,"lon":139.61647569},{"name":"土支田八幡宮の半鐘〈非公開〉","province":"東京都","city":"練馬区","address":"東京都練馬区土支田4-28","lat":35.768158,"lon":139.61331},{"name":"土支田八幡宮の社叢","province":"東京都","city":"練馬区","address":"東京都練馬区土支田4-28","lat":35.768158,"lon":139.61331},{"name":"千川上水調査アルバム","province":"東京都","city":"練馬区","address":"東京都練馬区豊玉上1-26","lat":35.736435,"lon":139.667936},{"name":"武蔵学園大講堂","province":"東京都","city":"練馬区","address":"東京都練馬区豊玉上1-26","lat":35.73784,"lon":139.666988},{"name":"武蔵大学3号館","province":"東京都","city":"練馬区","address":"東京都練馬区豊玉上1-26","lat":35.737036,"lon":139.668159},{"name":"林稲荷神社の庚申塔","province":"東京都","city":"練馬区","address":"東京都練馬区豊玉北1-7","lat":35.732248,"lon":139.668294},{"name":"氷川神社の旧拝殿","province":"東京都","city":"練馬区","address":"東京都練馬区豊玉南2-15","lat":35.728719,"lon":139.656331},{"name":"氷川神社の神輿〈非公開〉","province":"東京都","city":"練馬区","address":"東京都練馬区豊玉南2-15","lat":35.728719,"lon":139.656331},{"name":"氷川神社の力石","province":"東京都","city":"練馬区","address":"東京都練馬区豊玉南2-15","lat":35.728719,"lon":139.656331},{"name":"南蔵院鐘楼門","province":"東京都","city":"練馬区","address":"東京都練馬区中村1-15","lat":35.73087,"lon":139.64636},{"name":"探湯の儀","province":"東京都","city":"練馬区","address":"東京都練馬区中村3-8","lat":35.73119,"lon":139.640017},{"name":"石幢七面六観音勢至道しるべ〈路上見学可〉","province":"東京都","city":"練馬区","address":"東京都練馬区中村3-11","lat":35.732699,"lon":139.640624},{"name":"中村南遺跡第2地点5号住居址出土土器","province":"東京都","city":"練馬区","address":"東京都練馬区中村南1-2","lat":35.72921,"lon":139.648835},{"name":"八幡神社の本殿〈非公開〉","province":"東京都","city":"練馬区","address":"東京都練馬区中村南3-2","lat":35.72979,"lon":139.641302},{"name":"八幡神社の水盤","province":"東京都","city":"練馬区","address":"東京都練馬区中村南3-2","lat":35.72979,"lon":139.641302},{"name":"狐の大根取り入れ図絵馬〈非公開〉","province":"東京都","city":"練馬区","address":"東京都練馬区西大泉3-13","lat":35.755853,"lon":139.580516},{"name":"西大泉の稲荷神社本殿〈非公開〉","province":"東京都","city":"練馬区","address":"東京都練馬区西大泉5-1","lat":35.760714,"lon":139.574859},{"name":"ちがや馬飾り","province":"東京都","city":"練馬区","address":"東京都練馬区錦1丁目","lat":35.76025082,"lon":139.66914918},{"name":"関東大震災犠牲者慰霊碑","province":"東京都","city":"練馬区","address":"東京都練馬区錦1-19","lat":35.758517,"lon":139.668797},{"name":"文明十七年の月待板碑〈非公開〉","province":"東京都","city":"練馬区","address":"東京都練馬区錦1-19","lat":35.758517,"lon":139.668797},{"name":"文亀元年の月待板碑〈非公開〉","province":"東京都","city":"練馬区","address":"東京都練馬区錦1-19","lat":35.758517,"lon":139.668797},{"name":"金乗院の一石六地蔵","province":"東京都","city":"練馬区","address":"東京都練馬区錦2-4","lat":35.760944,"lon":139.666665},{"name":"金乗院の大イチョウ","province":"東京都","city":"練馬区","address":"東京都練馬区錦2-4","lat":35.760944,"lon":139.666665},{"name":"金乗院御朱印状〈非公開〉","province":"東京都","city":"練馬区","address":"東京都練馬区錦2-4","lat":35.760944,"lon":139.666665},{"name":"金乗院山門","province":"東京都","city":"練馬区","address":"東京都練馬区錦2-4","lat":35.760944,"lon":139.666665},{"name":"絵馬制作","province":"東京都","city":"練馬区","address":"東京都練馬区貫井5丁目","lat":35.74499615,"lon":139.63333348},{"name":"子ノ聖観世音碑","province":"東京都","city":"練馬区","address":"東京都練馬区貫井5-7","lat":35.742772,"lon":139.635146},{"name":"貫井の東高野山道道標","province":"東京都","city":"練馬区","address":"東京都練馬区貫井5-17","lat":35.742373,"lon":139.633607},{"name":"阿弥陀寺の半鐘〈非公開〉","province":"東京都","city":"練馬区","address":"東京都練馬区練馬1-44","lat":35.739972,"lon":139.650809},{"name":"阿弥陀寺の伏せ鉦〈非公開〉","province":"東京都","city":"練馬区","address":"東京都練馬区練馬1-44","lat":35.739972,"lon":139.650809},{"name":"広川松五郎関係資料〈非公開〉","province":"東京都","city":"練馬区","address":"東京都練馬区練馬4丁目","lat":35.7406276,"lon":139.64924067},{"name":"練馬白山神社の大ケヤキ","province":"東京都","city":"練馬区","address":"東京都練馬区練馬4-2","lat":35.740344,"lon":139.650398},{"name":"池永道雲墓","province":"東京都","city":"練馬区","address":"東京都練馬区練馬4-27","lat":35.742003,"lon":139.650709},{"name":"青柳家住宅主屋〈路上見学可〉","province":"東京都","city":"練馬区","address":"東京都練馬区羽沢1丁目","lat":35.74084759,"lon":139.67124152},{"name":"開進第一小学校のクスノキ","province":"東京都","city":"練馬区","address":"東京都練馬区早宮2-1","lat":35.75469,"lon":139.658539},{"name":"本寿院の賽銭箱〈非公開〉","province":"東京都","city":"練馬区","address":"東京都練馬区早宮2-26","lat":35.755681,"lon":139.64996},{"name":"僧形馬頭観音","province":"東京都","city":"練馬区","address":"東京都練馬区早宮2-26","lat":35.755681,"lon":139.64996},{"name":"本寿院のみくじ道具〈非公開〉","province":"東京都","city":"練馬区","address":"東京都練馬区早宮2-26","lat":35.755681,"lon":139.64996},{"name":"内田家の屋敷林〈路上見学可〉","province":"東京都","city":"練馬区","address":"東京都練馬区早宮3丁目","lat":35.75007942,"lon":139.65368433},{"name":"八の釜の湧き水","province":"東京都","city":"練馬区","address":"東京都練馬区東大泉2丁目27","lat":35.75608558,"lon":139.59866932},{"name":"牧野記念庭園","province":"東京都","city":"練馬区","address":"東京都練馬区東大泉6-34","lat":35.746336,"lon":139.58555},{"name":"町田家文書〈非公開〉","province":"東京都","city":"練馬区","address":"東京都練馬区東大泉7丁目","lat":35.74028415,"lon":139.58015757},{"name":"井頭のヤナギ","province":"東京都","city":"練馬区","address":"東京都練馬区東大泉7-34","lat":35.744896,"lon":139.576955},{"name":"栗原遺跡の竪穴住居跡","province":"東京都","city":"練馬区","address":"東京都練馬区氷川台1-7","lat":35.754707,"lon":139.672353},{"name":"十一面観音懸仏〈非公開〉","province":"東京都","city":"練馬区","address":"東京都練馬区氷川台3-24","lat":35.752123,"lon":139.667809},{"name":"光伝寺の地蔵菩薩立像および閻魔十王像〈非公開〉","province":"東京都","city":"練馬区","address":"東京都練馬区氷川台3-24","lat":35.752123,"lon":139.667809},{"name":"下練馬の三十三所観音菩薩像〈非公開〉","province":"東京都","city":"練馬区","address":"東京都練馬区氷川台3-24","lat":35.752123,"lon":139.667809},{"name":"光伝寺のコウヤマキ","province":"東京都","city":"練馬区","address":"東京都練馬区氷川台3-24","lat":35.752123,"lon":139.667809},{"name":"角柱型水盤","province":"東京都","city":"練馬区","address":"東京都練馬区氷川台4-47","lat":35.75224,"lon":139.664828},{"name":"氷川神社の狛犬","province":"東京都","city":"練馬区","address":"東京都練馬区氷川台4-47","lat":35.75224,"lon":139.664828},{"name":"草摺引図絵馬〈非公開〉","province":"東京都","city":"練馬区","address":"東京都練馬区氷川台4-47","lat":35.75224,"lon":139.664828},{"name":"神輿渡御行列図絵馬〈非公開〉","province":"東京都","city":"練馬区","address":"東京都練馬区氷川台4-47","lat":35.75224,"lon":139.664828},{"name":"大氷川の力石","province":"東京都","city":"練馬区","address":"東京都練馬区氷川台4-47","lat":35.75224,"lon":139.664828},{"name":"鶴の舞","province":"東京都","city":"練馬区","address":"東京都練馬区氷川台4-47","lat":35.75224,"lon":139.664828},{"name":"神輿渡御の御供道中歌","province":"東京都","city":"練馬区","address":"東京都練馬区氷川台4-47","lat":35.75224,"lon":139.664828},{"name":"御嶽講奉納の水盤","province":"東京都","city":"練馬区","address":"東京都練馬区富士見台3-42","lat":35.741168,"lon":139.620551},{"name":"谷原の庚申塔","province":"東京都","city":"練馬区","address":"東京都練馬区富士見台4-36地先","lat":35.741453,"lon":139.620483},{"name":"御府内并村方旧記〈非公開〉","province":"東京都","city":"練馬区","address":"東京都練馬区平和台1丁目","lat":35.75898147,"lon":139.66652448},{"name":"加藤家文書〈非公開〉","province":"東京都","city":"練馬区","address":"東京都練馬区南大泉3丁目","lat":35.74159214,"lon":139.57198598},{"name":"妙福寺の梵鐘","province":"東京都","city":"練馬区","address":"東京都練馬区南大泉5-6","lat":35.751021,"lon":139.578302},{"name":"妙福寺文書〈非公開〉","province":"東京都","city":"練馬区","address":"東京都練馬区南大泉5-6","lat":35.751184,"lon":139.577841},{"name":"妙福寺の駕籠〈非公開〉","province":"東京都","city":"練馬区","address":"東京都練馬区南大泉5-6","lat":35.751184,"lon":139.577841},{"name":"福徳元年の月待板碑〈非公開〉","province":"東京都","city":"練馬区","address":"東京都練馬区南大泉5-6","lat":35.751184,"lon":139.577841},{"name":"斎藤水車用具〈非公開〉","province":"東京都","city":"練馬区","address":"東京都練馬区南田中1丁目","lat":35.73091391,"lon":139.61503555},{"name":"榎本家長屋門〈路上見学可〉","province":"東京都","city":"練馬区","address":"東京都練馬区南田中4","lat":35.449066,"lon":139.365058},{"name":"観蔵院の筆子碑","province":"東京都","city":"練馬区","address":"東京都練馬区南田中4-15","lat":35.736128,"lon":139.612872},{"name":"石製絵馬〈非公開〉","province":"東京都","city":"練馬区","address":"東京都練馬区南田中5-14","lat":35.738209,"lon":139.611399},{"name":"三原台の馬頭観音","province":"東京都","city":"練馬区","address":"東京都練馬区三原台2-6","lat":35.755271,"lon":139.605856},{"name":"増島家薬医門〈路上見学可〉","province":"東京都","city":"練馬区","address":"東京都練馬区谷原3丁目","lat":35.75475855,"lon":139.61882597},{"name":"谷原延命地蔵","province":"東京都","city":"練馬区","address":"東京都練馬区谷原1-17地先","lat":35.750545,"lon":139.623292},{"name":"鴨下家文書","province":"東京都","city":"練馬区","address":"東京都練馬区石神井町5-12","lat":35.737466,"lon":139.599614},{"name":"佐々木家住宅主屋〈非公開〉","province":"東京都","city":"練馬区","address":"東京都練馬区小竹町1丁目","lat":35.74038663,"lon":139.67453015},{"name":"銀板写真（黒川嘉兵衛像）〈エリファレット・ブラウン・ジュニア撮影／1859年〉","province":"東京都","city":"練馬区","address":"東京都練馬区旭丘2-42-1","lat":35.73747,"lon":139.67483},{"name":"光傳寺の半鐘〈非公開〉","province":"東京都","city":"練馬区","address":"東京都練馬区氷川台3-24","lat":35.752123,"lon":139.667809},{"name":"妙福寺の半鐘","province":"東京都","city":"練馬区","address":"東京都練馬区南大泉5-6","lat":35.751184,"lon":139.577841},{"name":"産業・観光情報コーナー","province":"東京都","city":"練馬区","address":"東京都練馬区練馬1-17-1","lat":35.738248,"lon":139.65336},{"name":"石神井観光案内所","province":"東京都","city":"練馬区","address":"東京都練馬区石神井町3-23-8","lat":35.743631,"lon":139.606268},{"name":"都立石神井公園","province":"東京都","city":"練馬区","address":"東京都練馬区石神井町5-1087-11ほか","lat":35.738382,"lon":139.598103},{"name":"都立光が丘公園","province":"東京都","city":"練馬区","address":"東京都練馬区光が丘4-25-2","lat":35.766383,"lon":139.629486},{"name":"牧野記念庭園","province":"東京都","city":"練馬区","address":"東京都練馬区東大泉6-34-4","lat":35.746344,"lon":139.585551},{"name":"四季の香ローズガーデン","province":"東京都","city":"練馬区","address":"東京都練馬区光が丘5-2-6","lat":35.760772,"lon":139.625751},{"name":"土支田農業公園","province":"東京都","city":"練馬区","address":"東京都練馬区土支田3-34-26","lat":35.760586,"lon":139.609566},{"name":"こどもの森","province":"東京都","city":"練馬区","address":"東京都練馬区羽沢2-32-7","lat":35.748792,"lon":139.672507},{"name":"中里郷土の森","province":"東京都","city":"練馬区","address":"東京都練馬区大泉町1-51-2","lat":35.769186,"lon":139.604088},{"name":"石神井松の風文化公園","province":"東京都","city":"練馬区","address":"東京都練馬区石神井台1-33-44","lat":35.739351,"lon":139.594103},{"name":"都立城北中央公園","province":"東京都","city":"練馬区","address":"東京都練馬区羽沢3-15-13ほか","lat":35.75593,"lon":139.67404},{"name":"都立大泉中央公園","province":"東京都","city":"練馬区","address":"東京都練馬区大泉学園町9-538-17","lat":35.775157,"lon":139.598236},{"name":"大泉交通公園","province":"東京都","city":"練馬区","address":"東京都練馬区南大泉6-16-1","lat":35.753451,"lon":139.572246},{"name":"平成つつじ公園","province":"東京都","city":"練馬区","address":"東京都練馬区練馬1-17-6","lat":35.738805,"lon":139.6535},{"name":"向山庭園","province":"東京都","city":"練馬区","address":"東京都練馬区向山3-1-21","lat":35.742124,"lon":139.64673},{"name":"田柄梅林公園","province":"東京都","city":"練馬区","address":"東京都練馬区田柄5-5-2","lat":35.755203,"lon":139.632582},{"name":"武蔵関公園","province":"東京都","city":"練馬区","address":"東京都練馬区関町北3-45-1","lat":35.727666,"lon":139.567786},{"name":"石神井公園ふるさと文化館","province":"東京都","city":"練馬区","address":"東京都練馬区石神井町5-12-16","lat":35.737444,"lon":139.599429},{"name":"石神井公園ふるさと文化館分室","province":"東京都","city":"練馬区","address":"東京都練馬区石神井台1-33-44","lat":35.739385,"lon":139.594178},{"name":"旧内田家住宅","province":"東京都","city":"練馬区","address":"東京都練馬区石神井町5-13","lat":35.737672,"lon":139.600303},{"name":"稲荷山図書館　昆虫コーナー","province":"東京都","city":"練馬区","address":"東京都練馬区大泉町1-3-18","lat":35.76535,"lon":139.609184},{"name":"練馬文化センター","province":"東京都","city":"練馬区","address":"東京都練馬区練馬1-17-37","lat":35.739169,"lon":139.653962},{"name":"練馬区立美術館","province":"東京都","city":"練馬区","address":"東京都練馬区貫井1-36-16","lat":35.737047,"lon":139.636048},{"name":"大泉学園ゆめりあホール","province":"東京都","city":"練馬区","address":"東京都練馬区東大泉1-29-1","lat":35.75024,"lon":139.58571},{"name":"清水山の森","province":"東京都","city":"練馬区","address":"東京都練馬区大泉町1-6","lat":35.765734,"lon":139.608193},{"name":"稲荷山憩いの森","province":"東京都","city":"練馬区","address":"東京都練馬区土支田4-14","lat":35.765769,"lon":139.610399},{"name":"旭丘小","province":"","city":"","address":"旭丘2-21-1","lat":35.73615903,"lon":139.6772026},{"name":"小竹小","province":"福岡県","city":"鞍手郡小竹町","address":"小竹町2-6-7","lat":35.74369425,"lon":139.680369},{"name":"豊玉小","province":"","city":"","address":"豊玉中4-2-20","lat":35.73244262,"lon":139.6518827},{"name":"豊玉第二小","province":"","city":"","address":"豊玉上2-16-1","lat":35.73702576,"lon":139.6620826},{"name":"豊玉東小","province":"","city":"","address":"豊玉北1-16-1","lat":35.73211368,"lon":139.6679331},{"name":"豊玉南小","province":"","city":"","address":"豊玉南2-14-1","lat":35.7271081,"lon":139.6562528},{"name":"中村小","province":"","city":"","address":"中村2-8-1","lat":35.73049614,"lon":139.6436555},{"name":"中村西小","province":"","city":"","address":"中村北4-17-1","lat":35.73354847,"lon":139.6353414},{"name":"練馬第三小","province":"","city":"","address":"貫井1-36-15","lat":35.73673709,"lon":139.635319},{"name":"早宮小","province":"","city":"","address":"早宮4-10-17","lat":35.75174869,"lon":139.6507508},{"name":"開進第一小","province":"","city":"","address":"早宮2-1-31","lat":35.75413622,"lon":139.6578997},{"name":"開進第二小","province":"","city":"","address":"桜台5-10-5","lat":35.74161575,"lon":139.6581924},{"name":"開進第三小","province":"","city":"","address":"桜台2-18-1","lat":35.74330379,"lon":139.6663473},{"name":"開進第四小","province":"","city":"","address":"羽沢2-33-1","lat":35.74737068,"lon":139.6720613},{"name":"仲町小","province":"","city":"","address":"氷川台2-18-24","lat":35.7574945,"lon":139.6680879},{"name":"南町小","province":"","city":"","address":"練馬2-7-5","lat":35.74010934,"lon":139.6530862},{"name":"北町小","province":"","city":"","address":"北町1-14-11","lat":35.76445877,"lon":139.6643963},{"name":"北町西小","province":"","city":"","address":"北町7-3-8","lat":35.7611845,"lon":139.6540604},{"name":"練馬小","province":"","city":"","address":"春日町6-11-36","lat":35.75197278,"lon":139.6365225},{"name":"練馬第二小","province":"","city":"","address":"貫井2-31-13","lat":35.74082218,"lon":139.6337549},{"name":"練馬東小","province":"","city":"","address":"春日町1-30-11","lat":35.75153593,"lon":139.6476642},{"name":"田柄小","province":"","city":"","address":"田柄2-19-19","lat":35.76535342,"lon":139.6439159},{"name":"田柄第二小","province":"","city":"","address":"田柄1-5-27","lat":35.75858434,"lon":139.6430224},{"name":"光が丘秋の陽小","province":"","city":"","address":"光が丘2-1-1","lat":35.76115379,"lon":139.635122},{"name":"向山小","province":"","city":"","address":"向山2-14-11","lat":35.74013114,"lon":139.6405187},{"name":"高松小","province":"","city":"","address":"高松3-16-1","lat":35.74909835,"lon":139.6272153},{"name":"春日小","province":"","city":"","address":"春日町5-12-1","lat":35.74645363,"lon":139.6402318},{"name":"光が丘四季の香小","province":"","city":"","address":"高松5-24-1","lat":35.76114498,"lon":139.6249988},{"name":"光が丘春の風小","province":"","city":"","address":"光が丘7-2-1","lat":35.75515161,"lon":139.6258509},{"name":"光が丘夏の雲小","province":"","city":"","address":"光が丘3-6-1","lat":35.75681275,"lon":139.6319157},{"name":"光が丘第八小","province":"","city":"","address":"光が丘1-4-1","lat":35.7677163,"lon":139.6374841},{"name":"石神井東小","province":"","city":"","address":"南田中3-9-1","lat":35.73690604,"lon":139.6200495},{"name":"下石神井小","province":"","city":"","address":"下石神井2-20-18","lat":35.73174669,"lon":139.6059918},{"name":"光和小","province":"","city":"","address":"石神井町2-16-34","lat":35.74564351,"lon":139.6071877},{"name":"谷原小","province":"","city":"","address":"谷原2-9-26","lat":35.75020789,"lon":139.6139438},{"name":"南田中小","province":"","city":"","address":"南田中5-15-37","lat":35.73650659,"lon":139.6112507},{"name":"南が丘小","province":"","city":"","address":"南田中2-13-1","lat":35.73336545,"lon":139.617299},{"name":"富士見台小","province":"","city":"","address":"富士見台4-16-10","lat":35.74421405,"lon":139.6232012},{"name":"石神井小","province":"","city":"","address":"石神井台1-1-25","lat":35.73503153,"lon":139.5993673},{"name":"石神井西小","province":"","city":"","address":"関町北1-1-5","lat":35.72350868,"lon":139.5806814},{"name":"石神井台小","province":"","city":"","address":"石神井台8-6-33","lat":35.73471969,"lon":139.5814778},{"name":"上石神井小","province":"","city":"","address":"上石神井4-10-9","lat":35.72716307,"lon":139.5890621},{"name":"上石神井北小","province":"","city":"","address":"石神井台5-1-32","lat":35.73524761,"lon":139.5888153},{"name":"立野小","province":"","city":"","address":"立野町17-13","lat":35.71768322,"lon":139.5808333},{"name":"関町小","province":"","city":"","address":"関町北3-23-34","lat":35.72456978,"lon":139.5716185},{"name":"関町北小","province":"","city":"","address":"関町北5-13-40","lat":35.73184295,"lon":139.5737374},{"name":"豊溪小","province":"","city":"","address":"土支田2-26-28","lat":35.76239115,"lon":139.6158573},{"name":"旭町小","province":"","city":"","address":"旭町2-29-1","lat":35.77222042,"lon":139.6273649},{"name":"大泉第一小","province":"群馬県","city":"邑楽郡大泉町","address":"大泉町3-16-23","lat":35.76532802,"lon":139.599555},{"name":"大泉東小","province":"","city":"","address":"東大泉1-22-1","lat":35.74821521,"lon":139.5914501},{"name":"大泉北小","province":"群馬県","city":"邑楽郡大泉町","address":"大泉町4-28-22","lat":35.76172853,"lon":139.5961881},{"name":"大泉学園小","province":"","city":"","address":"大泉学園町4-7-1","lat":35.76528324,"lon":139.5932959},{"name":"泉新小","province":"","city":"","address":"三原台3-18-30","lat":35.75393784,"lon":139.6008602},{"name":"橋戸小","province":"群馬県","city":"邑楽郡大泉町","address":"大泉町2-11-25","lat":35.75849673,"lon":139.6023585},{"name":"八坂小","province":"","city":"","address":"土支田4-48-1","lat":35.76834943,"lon":139.6117342},{"name":"大泉小","province":"","city":"","address":"東大泉4-25-1","lat":35.75273022,"lon":139.5839093},{"name":"大泉第二小","province":"","city":"","address":"南大泉4-29-11","lat":35.74393535,"lon":139.5737061},{"name":"大泉第三小","province":"","city":"","address":"大泉学園町3-22-1","lat":35.76260749,"lon":139.5794345},{"name":"大泉第四小","province":"","city":"","address":"西大泉1-24-1","lat":35.7550255,"lon":139.5741313},{"name":"大泉第六小","province":"","city":"","address":"南大泉5-25-29","lat":35.75141342,"lon":139.5717676},{"name":"大泉西小","province":"","city":"","address":"西大泉4-25-1","lat":35.76485206,"lon":139.5722383},{"name":"大泉南小","province":"","city":"","address":"東大泉6-28-1","lat":35.74424492,"lon":139.5812259},{"name":"大泉学園緑小","province":"","city":"","address":"大泉学園町5-11-47","lat":35.76584784,"lon":139.58525},{"name":"大泉桜学園（大泉学園桜小）","province":"","city":"","address":"大泉学園町9-2-2","lat":35.77637148,"lon":139.5916925},{"name":"旭丘中","province":"","city":"","address":"旭丘2-40-1","lat":35.73750996,"lon":139.6779457},{"name":"豊玉中","province":"","city":"","address":"豊玉南2-1-20","lat":35.7285104,"lon":139.6577628},{"name":"豊玉第二中","province":"","city":"","address":"豊玉北2-24-5","lat":35.73558929,"lon":139.6638882},{"name":"中村中","province":"","city":"","address":"中村南1-32-21","lat":35.72735567,"lon":139.645358},{"name":"開進第一中","province":"","city":"","address":"早宮1-16-50","lat":35.75148432,"lon":139.6588251},{"name":"開進第二中","province":"","city":"","address":"練馬2-27-28","lat":35.74316943,"lon":139.6534293},{"name":"開進第三中","province":"","city":"","address":"桜台3-28ー1","lat":35.74516621,"lon":139.6656521},{"name":"開進第四中","province":"","city":"","address":"羽沢3-24-1","lat":35.75043875,"lon":139.6743103},{"name":"北町中","province":"","city":"","address":"北町3-1-34","lat":35.76658743,"lon":139.6568088},{"name":"練馬中","province":"","city":"","address":"高松1-24-1","lat":35.74668644,"lon":139.6352877},{"name":"練馬東中","province":"","city":"","address":"春日町2-14-22","lat":35.75688345,"lon":139.6482663},{"name":"貫井中","province":"","city":"","address":"貫井2-14-13","lat":35.73870753,"lon":139.632745},{"name":"田柄中","province":"","city":"","address":"田柄3-3-1","lat":35.75894362,"lon":139.641265},{"name":"豊溪中","province":"","city":"","address":"旭町3-5-10","lat":35.7735822,"lon":139.6282645},{"name":"光が丘第一中","province":"","city":"","address":"光が丘6-5-1","lat":35.75908787,"lon":139.6223456},{"name":"光が丘第二中","province":"","city":"","address":"光が丘7-1-1","lat":35.75399537,"lon":139.6257635},{"name":"光が丘第三中","province":"","city":"","address":"光が丘3-2-1","lat":35.75548451,"lon":139.6307889},{"name":"石神井中","province":"","city":"","address":"石神井台1-32-1","lat":35.74063745,"lon":139.5960069},{"name":"石神井東中","province":"","city":"","address":"高野台1-8-34","lat":35.74192454,"lon":139.6171131},{"name":"石神井西中","province":"","city":"","address":"関町南3-10-3","lat":35.71994334,"lon":139.5805927},{"name":"石神井南中","province":"","city":"","address":"下石神井2-7-23","lat":35.72982022,"lon":139.6086874},{"name":"上石神井中","province":"","city":"","address":"上石神井4-15-27","lat":35.72798129,"lon":139.5883307},{"name":"南が丘中","province":"","city":"","address":"南田中4-8-23","lat":35.73328547,"lon":139.6133022},{"name":"谷原中","province":"","city":"","address":"谷原4-10-5","lat":35.75570666,"lon":139.6153507},{"name":"三原台中","province":"","city":"","address":"三原台3-13-41","lat":35.75432356,"lon":139.5992983},{"name":"大泉中","province":"","city":"","address":"東大泉4-27-35","lat":35.75328119,"lon":139.5855083},{"name":"大泉第二中","province":"","city":"","address":"東大泉6-21-1","lat":35.74449233,"lon":139.5831227},{"name":"大泉西中","province":"","city":"","address":"西大泉3-19-27","lat":35.75789666,"lon":139.5795287},{"name":"大泉北中","province":"群馬県","city":"邑楽郡大泉町","address":"大泉町5-4-32","lat":35.75915291,"lon":139.5968809},{"name":"大泉学園中","province":"","city":"","address":"大泉学園町4-17-32","lat":35.7660552,"lon":139.5897265},{"name":"大泉桜学園（大泉学園桜中）","province":"","city":"","address":"大泉学園町9-2-1","lat":35.77682505,"lon":139.5904884},{"name":"関中","province":"","city":"","address":"関町北4-34-23","lat":35.73032402,"lon":139.574973},{"name":"八坂中","province":"","city":"","address":"土支田4-47-21","lat":35.76921585,"lon":139.6126357},{"name":"北原小","province":"","city":"","address":"谷原4-9-1","lat":35.75536262,"lon":139.6137677},{"name":"緑小学校","province":"広島県","city":"広島市佐伯区","address":"広島県広島市佐伯区美鈴が丘緑2丁目12-12","lat":34.39338957,"lon":132.37679687},{"name":"外手小学校","province":"東京都","city":"墨田区","address":"東京都墨田区本所2丁目1-16","lat":35.7025968,"lon":139.80059167},{"name":"二葉小学校","province":"東京都","city":"墨田区","address":"東京都墨田区石原2丁目1-5","lat":35.69926388,"lon":139.80008668},{"name":"錦糸小学校","province":"東京都","city":"墨田区","address":"東京都墨田区錦糸1丁目9-12","lat":35.69876937,"lon":139.81137701},{"name":"中和小学校","province":"東京都","city":"墨田区","address":"東京都墨田区菊川1丁目18-10","lat":35.6901567,"lon":139.80272644},{"name":"言問小学校","province":"東京都","city":"墨田区","address":"東京都墨田区向島5丁目40-14","lat":35.71843549,"lon":139.81134557},{"name":"小梅小学校","province":"東京都","city":"墨田区","address":"東京都墨田区向島2丁目4-10","lat":35.71444608,"lon":139.8059344},{"name":"柳島小学校","province":"東京都","city":"墨田区","address":"東京都墨田区横川5丁目2-30","lat":35.70359917,"lon":139.81754005},{"name":"業平小学校","province":"東京都","city":"墨田区","address":"東京都墨田区業平2丁目4-8","lat":35.70627427,"lon":139.81149546},{"name":"両国小学校","province":"東京都","city":"墨田区","address":"東京都墨田区両国4丁目26-6","lat":35.69372012,"lon":139.79519078},{"name":"横川小学校","province":"東京都","city":"墨田区","address":"東京都墨田区東駒形4丁目18-4","lat":35.70716582,"lon":139.80624308},{"name":"菊川小学校","province":"東京都","city":"墨田区","address":"東京都墨田区立川4丁目12-15","lat":35.69164531,"lon":139.8076726},{"name":"第三吾嬬小学校","province":"東京都","city":"墨田区","address":"東京都墨田区八広2丁目36-3","lat":35.71717161,"lon":139.82774891},{"name":"第四吾小学校","province":"東京都","city":"墨田区","address":"東京都墨田区京島3丁目64-9","lat":35.7131389,"lon":139.82518538},{"name":"第一寺島小学校","province":"東京都","city":"墨田区","address":"東京都墨田区東向島1丁目16-2","lat":35.72158271,"lon":139.81445099},{"name":"第二寺島小学校","province":"東京都","city":"墨田区","address":"東京都墨田区東向島4丁目30-2","lat":35.72470754,"lon":139.81845881},{"name":"第三寺島小学校","province":"東京都","city":"墨田区","address":"東京都墨田区東向島6丁目8-1","lat":35.72140784,"lon":139.82042783},{"name":"曳舟小学校","province":"東京都","city":"墨田区","address":"東京都墨田区京島1丁目28-2","lat":35.71662214,"lon":139.82089427},{"name":"中川小学校","province":"東京都","city":"墨田区","address":"東京都墨田区立花5丁目49-4","lat":35.71334666,"lon":139.83150135},{"name":"東吾嬬小学校","province":"東京都","city":"墨田区","address":"東京都墨田区立花4丁目22-11","lat":35.70854692,"lon":139.83205434},{"name":"押上小学校","province":"東京都","city":"墨田区","address":"東京都墨田区押上3丁目46-17","lat":35.71201677,"lon":139.81932198},{"name":"八広小学校","province":"東京都","city":"墨田区","address":"東京都墨田区八広5丁目12-15","lat":35.72710192,"lon":139.82632158},{"name":"隅田小学校","province":"東京都","city":"墨田区","address":"東京都墨田区墨田4丁目6-5","lat":35.73392317,"lon":139.82186348},{"name":"立花吾嬬の森小学校","province":"東京都","city":"墨田区","address":"東京都墨田区立花1丁目18-6","lat":35.70622472,"lon":139.82971319},{"name":"梅若小学校","province":"東京都","city":"墨田区","address":"東京都墨田区墨田2丁目25-1","lat":35.73053185,"lon":139.81560645},{"name":"旧隅田小学校","province":"東京都","city":"墨田区","address":"東京都墨田区墨田5丁目49-5","lat":35.73603672,"lon":139.82065239},{"name":"墨田中学校","province":"東京都","city":"墨田区","address":"東京都墨田区向島4丁目25-22","lat":35.71493535,"lon":139.81152561},{"name":"本所中学校","province":"東京都","city":"墨田区","address":"東京都墨田区東駒形3丁目1-10","lat":35.70526321,"lon":139.80276048},{"name":"竪川中学校","province":"東京都","city":"墨田区","address":"東京都墨田区亀沢4丁目11-15","lat":35.69700853,"lon":139.80583069},{"name":"錦糸中学校","province":"東京都","city":"墨田区","address":"東京都墨田区石原4丁目33-14","lat":35.70140523,"lon":139.80693828},{"name":"吾嬬第二中学校","province":"東京都","city":"墨田区","address":"東京都墨田区八広4丁目4-4","lat":35.72149362,"lon":139.8271268},{"name":"寺島中学校","province":"東京都","city":"墨田区","address":"東京都墨田区八広1丁目17-15","lat":35.72013008,"lon":139.82316626},{"name":"文花中学校","province":"東京都","city":"墨田区","address":"東京都墨田区文花1丁目22-7","lat":35.71015294,"lon":139.82236367},{"name":"桜堤中学校","province":"東京都","city":"墨田区","address":"東京都墨田区堤通2丁目19-1","lat":35.73056511,"lon":139.81190987},{"name":"吾嬬立花中学校","province":"東京都","city":"墨田区","address":"東京都墨田区立花4丁目30-18","lat":35.71013005,"lon":139.83468174},{"name":"旧向島中学校","province":"東京都","city":"墨田区","address":"東京都墨田区東向島4丁目18-9","lat":35.72607962,"lon":139.81685083},{"name":"緑幼稚園","province":"愛知県","city":"一宮市","address":"愛知県一宮市緑2丁目11-5","lat":35.30085146,"lon":136.81552495},{"name":"柳島幼稚園","province":"東京都","city":"墨田区","address":"東京都墨田区横川5丁目2-30","lat":35.70359917,"lon":139.81754005},{"name":"菊川幼稚園","province":"東京都","city":"墨田区","address":"東京都墨田区立川4丁目12-15","lat":35.69164531,"lon":139.8076726},{"name":"第三寺島幼稚園","province":"東京都","city":"墨田区","address":"東京都墨田区東向島6丁目8-1","lat":35.72140784,"lon":139.82042783},{"name":"曳舟幼稚園","province":"東京都","city":"墨田区","address":"東京都墨田区京島1丁目28-2","lat":35.71662214,"lon":139.82089427},{"name":"八広幼稚園","province":"東京都","city":"墨田区","address":"東京都墨田区八広5丁目12-15","lat":35.72710192,"lon":139.82632158},{"name":"立花幼稚園","province":"東京都","city":"墨田区","address":"東京都墨田区立花1丁目25-9","lat":35.70481094,"lon":139.83169354},{"name":"墨田児童会館","province":"東京都","city":"墨田区","address":"東京都墨田区墨田2丁目30-15","lat":35.72926266,"lon":139.81890044},{"name":"八広児童館","province":"東京都","city":"墨田区","address":"東京都墨田区八広2丁目38-14","lat":35.71586062,"lon":139.82792391},{"name":"江東橋児童館","province":"東京都","city":"墨田区","address":"東京都墨田区江東橋1丁目15-4","lat":35.69591418,"lon":139.80968586},{"name":"東向島児童館","province":"東京都","city":"墨田区","address":"東京都墨田区東向島6丁目6-12","lat":35.72145228,"lon":139.81971127},{"name":"立花児童館","province":"大阪府","city":"大阪市中央区","address":"大阪府大阪市中央区","lat":34.68107502,"lon":135.50978711},{"name":"立川児童館","province":"東京都","city":"墨田区","address":"東京都墨田区立花1丁目27-9","lat":35.70555246,"lon":139.82881617},{"name":"文花児童館","province":"東京都","city":"墨田区","address":"東京都墨田区立川1丁目5-2","lat":35.69046226,"lon":139.79950201},{"name":"中川児童館","province":"東京都","city":"墨田区","address":"東京都墨田区文花1丁目32-11","lat":35.70871099,"lon":139.82437198},{"name":"外手児童館","province":"東京都","city":"墨田区","address":"東京都墨田区立花5丁目18-9","lat":35.71294397,"lon":139.83097086},{"name":"八広はなみずき児童館","province":"新潟県","city":"見附市","address":"新潟県見附市本所2丁目6-9","lat":37.53984423,"lon":138.90652521},{"name":"さくら橋コミュニティセンター","province":"東京都","city":"墨田区","address":"東京都墨田区八広4丁目27-8","lat":35.72456579,"lon":139.82940716},{"name":"江東橋保育園分園","province":"東京都","city":"墨田区","address":"東京都墨田区向島2丁目3-8","lat":35.71368772,"lon":139.80584268},{"name":"横川橋保育園","province":"東京都","city":"墨田区","address":"東京都墨田区亀沢3丁目12-5","lat":35.69713075,"lon":139.80450307},{"name":"中川保育園","province":"静岡県","city":"","address":"静岡県浜松市中央区大平台1丁目27-13","lat":34.71790727,"lon":137.68503136},{"name":"花園保育園","province":"東京都","city":"墨田区","address":"東京都墨田区東墨田2丁目1-15","lat":35.71870454,"lon":139.83058735},{"name":"福神橋保育園","province":"東京都","city":"墨田区","address":"東京都墨田区東向島3丁目16-2","lat":35.72466858,"lon":139.81462615},{"name":"すみだ保育園","province":"東京都","city":"墨田区","address":"東京都墨田区立花3丁目21-16","lat":35.707097,"lon":139.83429579},{"name":"東駒形保育園","province":"東京都","city":"墨田区","address":"東京都墨田区八広3丁目7-5","lat":35.72091034,"lon":139.82649354},{"name":"鐘ケ淵北保育園","province":"沖縄県","city":"浦添市","address":"沖縄県浦添市大平1丁目13-10","lat":26.24984841,"lon":127.71356551},{"name":"立川保育園","province":"東京都","city":"墨田区","address":"東京都墨田区墨田2丁目38-13","lat":35.7309485,"lon":139.8175894},{"name":"中川南保育園","province":"東京都","city":"墨田区","address":"東京都墨田区立川1丁目5-2","lat":35.69046226,"lon":139.79950201},{"name":"水神保育園","province":"東京都","city":"墨田区","address":"東京都墨田区東向島1丁目23-10","lat":35.72018834,"lon":139.81260395},{"name":"あおやぎ保育園","province":"東京都","city":"墨田区","address":"東京都墨田区押上2丁目10-17","lat":35.71131304,"lon":139.81179184},{"name":"ひきふね保育園","province":"東京都","city":"墨田区","address":"東京都墨田区東向島4丁目37-17","lat":35.72583524,"lon":139.81916983},{"name":"横川さくら保育園","province":"東京都","city":"墨田区","address":"東京都墨田区八広1丁目1-18","lat":35.72004964,"lon":139.82087495},{"name":"横川さくら保育園分園","province":"東京都","city":"墨田区","address":"東京都墨田区横川5丁目9-1","lat":35.70517431,"lon":139.81750923},{"name":"いきいきプラザ","province":"東京都","city":"墨田区","address":"東京都墨田区江東橋4丁目30-2","lat":35.69664455,"lon":139.81885963},{"name":"墨田区子育て支援総合センター","province":"東京都","city":"墨田区","address":"東京都墨田区文花1丁目32-2","lat":35.70754973,"lon":139.82345005},{"name":"梅若橋コミュニティ会館","province":"東京都","city":"墨田区","address":"東京都墨田区東駒形4丁目14-1","lat":35.70547984,"lon":139.80774036},{"name":"横川コミュニティ会館","province":"東京都","city":"墨田区","address":"東京都墨田区堤通2丁目9-1","lat":35.73539223,"lon":139.81675295},{"name":"すみだふれあいセンター","province":"東京都","city":"墨田区","address":"東京都墨田区横川5丁目9-1","lat":35.70517431,"lon":139.81750923},{"name":"すみだ障害者就労支援総合センター","province":"東京都","city":"墨田区","address":"東京都墨田区緑4丁目35-6","lat":35.69579476,"lon":139.80748896},{"name":"向島ことぶき作業所","province":"東京都","city":"墨田区","address":"東京都墨田区緑4丁目25-4","lat":35.69554202,"lon":139.80767785},{"name":"亀沢のぞみの家","province":"東京都","city":"墨田区","address":"東京都墨田区東向島1丁目17-11","lat":35.72082724,"lon":139.81544246},{"name":"ステップ学級","province":"東京都","city":"墨田区","address":"東京都墨田区亀沢4丁目18-11","lat":35.69903328,"lon":139.80824676},{"name":"文花子育てひろば","province":"東京都","city":"墨田区","address":"東京都墨田区吾妻橋2丁目18-12","lat":35.71039053,"lon":139.80252647},{"name":"みどりコミュニティセンター","province":"東京都","city":"墨田区","address":"東京都墨田区文花1丁目20-3","lat":35.7104113,"lon":139.82265804},{"name":"すみだ福祉保健センター","province":"東京都","city":"墨田区","address":"東京都墨田区緑3丁目7-3","lat":35.69361455,"lon":139.8032676},{"name":"スマイルホームすみだ","province":"東京都","city":"墨田区","address":"東京都墨田区向島3丁目36-7","lat":35.71329353,"lon":139.81075044},{"name":"立花ゆうゆう館","province":"東京都","city":"墨田区","address":"東京都墨田区文花1丁目24-3","lat":35.70976395,"lon":139.8231803},{"name":"たちばなホーム","province":"東京都","city":"墨田区","address":"東京都墨田区八広3丁目22-14","lat":35.71843814,"lon":139.82793219},{"name":"なりひらホーム","province":"東京都","city":"墨田区","address":"東京都墨田区立花3丁目10-1","lat":35.70530821,"lon":139.83305996},{"name":"はなみずき高齢者在宅サービスセンター","province":"東京都","city":"墨田区","address":"東京都墨田区業平5丁目6-2","lat":35.70709118,"lon":139.81802555},{"name":"施設名称","province":"東京都","city":"墨田区","address":"東京都墨田区八広3丁目22-14","lat":35.71843814,"lon":139.82793219},{"name":"たちばな高齢者在宅サービスセンター","province":"東京都","city":"墨田区","address":"東京都墨田区立花3丁目2-9","lat":35.70523875,"lon":139.83257393},{"name":"なりひら高齢者在宅サービスセンター","province":"東京都","city":"墨田区","address":"東京都墨田区業平5丁目6-2","lat":35.70709118,"lon":139.81802555},{"name":"シルバープラザ梅若","province":"東京都","city":"墨田区","address":"東京都墨田区墨田1丁目4-4","lat":35.72923761,"lon":139.81523723},{"name":"梅若ゆうゆう館","province":"東京都","city":"墨田区","address":"東京都墨田区墨田1丁目4-4","lat":35.72923761,"lon":139.81523723},{"name":"うめわか高齢者在宅サービスセンター","province":"東京都","city":"墨田区","address":"東京都墨田区墨田1丁目4-4","lat":35.72923761,"lon":139.81523723},{"name":"墨田区役所","province":"東京都","city":"墨田区","address":"東京都墨田区吾妻橋1丁目23-20","lat":35.71072382,"lon":139.80149602},{"name":"ステップハウスおおぞら","province":"東京都","city":"墨田区","address":"東京都墨田区文花1丁目32-7","lat":35.70823594,"lon":139.82381101},{"name":"墨田区総合体育館","province":"東京都","city":"墨田区","address":"東京都墨田区錦糸4丁目15-1","lat":35.69947749,"lon":139.8171875},{"name":"東京清風園","province":"東京都","city":"墨田区","address":"東京都墨田区立花1丁目25-12","lat":35.70498312,"lon":139.8311103},{"name":"八広地域プラザ","province":"東京都","city":"墨田区","address":"東京都墨田区八広4丁目35-17","lat":35.72349353,"lon":139.82925713},{"name":"本所地域プラザ","province":"東京都","city":"墨田区","address":"東京都墨田区本所1丁目13-4","lat":35.70316063,"lon":139.79876681},{"name":"亀沢保育園","province":"東京都","city":"墨田区","address":"東京都墨田区亀沢1丁目27-5","lat":35.69856397,"lon":139.79949242},{"name":"木下川吾亦紅","province":"東京都","city":"墨田区","address":"東京都墨田区東墨田2丁目15-2","lat":35.72196826,"lon":139.83312869},{"name":"東向島児童館分館","province":"東京都","city":"墨田区","address":"東京都墨田区京島1丁目44-21","lat":35.71921638,"lon":139.82102212},{"name":"吾嬬立花中学校","province":"東京都","city":"墨田区","address":"東京都墨田区立花4丁目30-18","lat":35.71013005,"lon":139.83468174},{"name":"旧鐘淵中学校","province":"東京都","city":"墨田区","address":"東京都墨田区堤通2丁目11-1","lat":35.73905274,"lon":139.81669975},{"name":"旧吾嬬第一中学校","province":"東京都","city":"墨田区","address":"東京都墨田区立花5丁目48-9","lat":35.71260785,"lon":139.83140139},{"name":"緑幼稚園","province":"東京都","city":"墨田区","address":"東京都墨田区緑2丁目11-5","lat":35.69411171,"lon":139.80202883},{"name":"柳島幼稚園","province":"東京都","city":"墨田区","address":"東京都墨田区横川5丁目2-30","lat":35.70359917,"lon":139.81754005},{"name":"菊川幼稚園","province":"東京都","city":"墨田区","address":"東京都墨田区立川4丁目12-15","lat":35.69164531,"lon":139.8076726},{"name":"第三寺島幼稚園","province":"東京都","city":"墨田区","address":"東京都墨田区東向島6丁目8-1","lat":35.72140784,"lon":139.82042783},{"name":"曳舟幼稚園","province":"東京都","city":"墨田区","address":"東京都墨田区京島1丁目28-2","lat":35.71662214,"lon":139.82089427},{"name":"八広幼稚園","province":"東京都","city":"墨田区","address":"東京都墨田区八広5丁目12-15","lat":35.72710192,"lon":139.82632158},{"name":"立花幼稚園","province":"東京都","city":"墨田区","address":"東京都墨田区立花1丁目25-9","lat":35.70481094,"lon":139.83169354},{"name":"墨田児童会館","province":"東京都","city":"墨田区","address":"東京都墨田区墨田2丁目30-15","lat":35.72926266,"lon":139.81890044},{"name":"八広児童館","province":"東京都","city":"墨田区","address":"東京都墨田区八広2丁目38-14","lat":35.71586062,"lon":139.82792391},{"name":"江東橋児童館","province":"東京都","city":"墨田区","address":"東京都墨田区江東橋1丁目15-4","lat":35.69591418,"lon":139.80968586},{"name":"東向島児童館","province":"東京都","city":"墨田区","address":"東京都墨田区東向島6丁目6-12","lat":35.72145228,"lon":139.81971127},{"name":"立花児童館","province":"東京都","city":"墨田区","address":"東京都墨田区立花1丁目27-9","lat":35.70555246,"lon":139.82881617},{"name":"立川児童館","province":"東京都","city":"墨田区","address":"東京都墨田区立川1丁目5-2","lat":35.69046226,"lon":139.79950201},{"name":"文花児童館","province":"東京都","city":"墨田区","address":"東京都墨田区文花1丁目32-11","lat":35.70871099,"lon":139.82437198},{"name":"中川児童館","province":"東京都","city":"墨田区","address":"東京都墨田区立花5丁目18-9","lat":35.71294397,"lon":139.83097086},{"name":"外手児童館","province":"東京都","city":"墨田区","address":"東京都墨田区本所2丁目6-9","lat":35.70300508,"lon":139.8007777},{"name":"八広はなみずき児童館","province":"東京都","city":"墨田区","address":"東京都墨田区八広4丁目27-8","lat":35.72456579,"lon":139.82940716},{"name":"さくら橋コミュニティセンター","province":"東京都","city":"墨田区","address":"東京都墨田区向島2丁目3-8","lat":35.71368772,"lon":139.80584268},{"name":"江東橋保育園分園","province":"東京都","city":"墨田区","address":"東京都墨田区亀沢3丁目12-5","lat":35.69713075,"lon":139.80450307},{"name":"中川保育園","province":"東京都","city":"墨田区","address":"東京都墨田区東墨田2丁目1-15","lat":35.71870454,"lon":139.83058735},{"name":"花園保育園","province":"東京都","city":"墨田区","address":"東京都墨田区東向島3丁目16-2","lat":35.72466858,"lon":139.81462615},{"name":"たちばな保育園","province":"東京都","city":"墨田区","address":"東京都墨田区立花3丁目21-16","lat":35.707097,"lon":139.83429579},{"name":"八広保育園","province":"東京都","city":"墨田区","address":"東京都墨田区八広3丁目7-5","lat":35.72091034,"lon":139.82649354},{"name":"亀沢保育園","province":"東京都","city":"墨田区","address":"東京都墨田区亀沢1丁目27-5","lat":35.69856397,"lon":139.79949242},{"name":"梅若保育園","province":"東京都","city":"墨田区","address":"東京都墨田区墨田2丁目38-13","lat":35.7309485,"lon":139.8175894},{"name":"立川保育園","province":"東京都","city":"墨田区","address":"東京都墨田区立川1丁目5-2","lat":35.69046226,"lon":139.79950201},{"name":"寺島保育園","province":"東京都","city":"墨田区","address":"東京都墨田区東向島1丁目23-10","lat":35.72018834,"lon":139.81260395},{"name":"押上保育園","province":"東京都","city":"墨田区","address":"東京都墨田区押上2丁目10-17","lat":35.71131304,"lon":139.81179184},{"name":"あおやぎ保育園","province":"東京都","city":"墨田区","address":"東京都墨田区東向島4丁目37-17","lat":35.72583524,"lon":139.81916983},{"name":"ひきふね保育園","province":"東京都","city":"墨田区","address":"東京都墨田区八広1丁目1-18","lat":35.72004964,"lon":139.82087495},{"name":"横川さくら保育園","province":"東京都","city":"墨田区","address":"東京都墨田区横川5丁目9-1","lat":35.70517431,"lon":139.81750923},{"name":"いきいきプラザ","province":"東京都","city":"墨田区","address":"東京都墨田区文花1丁目32-2","lat":35.70754973,"lon":139.82345005},{"name":"東駒形コミュニティ会館","province":"東京都","city":"墨田区","address":"東京都墨田区東駒形4丁目14-1","lat":35.70547984,"lon":139.80774036},{"name":"梅若橋コミュニティ会館","province":"東京都","city":"墨田区","address":"東京都墨田区堤通2丁目9-1","lat":35.73539223,"lon":139.81675295},{"name":"横川コミュニティ会館","province":"東京都","city":"墨田区","address":"東京都墨田区横川5丁目9-1","lat":35.70517431,"lon":139.81750923},{"name":"すみだふれあいセンター","province":"東京都","city":"墨田区","address":"東京都墨田区緑4丁目35-6","lat":35.69579476,"lon":139.80748896},{"name":"すみだ障害者就労支援総合センター","province":"東京都","city":"墨田区","address":"東京都墨田区緑4丁目25-4","lat":35.69554202,"lon":139.80767785},{"name":"向島ことぶき作業所","province":"東京都","city":"墨田区","address":"東京都墨田区東向島1丁目17-11","lat":35.72082724,"lon":139.81544246},{"name":"墨田福祉作業所","province":"東京都","city":"墨田区","address":"東京都墨田区八広1丁目16-22","lat":35.71964411,"lon":139.82205531},{"name":"亀沢のぞみの家","province":"東京都","city":"墨田区","address":"東京都墨田区亀沢4丁目18-11","lat":35.69903328,"lon":139.80824676},{"name":"ステップ学級","province":"東京都","city":"墨田区","address":"東京都墨田区吾妻橋2丁目18-12","lat":35.71039053,"lon":139.80252647},{"name":"文花子育てひろば","province":"東京都","city":"墨田区","address":"東京都墨田区文花1丁目20-3","lat":35.7104113,"lon":139.82265804},{"name":"両国シティコア","province":"東京都","city":"墨田区","address":"墨田区両国二丁目10番14号","lat":35.693887,"lon":139.79269},{"name":"スポーツクラブルネサンス両国","province":"東京都","city":"墨田区","address":"墨田区両国二丁目10番14号両国シティコア4階","lat":35.693879,"lon":139.792769},{"name":"財団法人東京都結核予防会","province":"東京都","city":"墨田区","address":"墨田区両国四丁目5番9号","lat":35.692559,"lon":139.796028},{"name":"両国小学校","province":"東京都","city":"墨田区","address":"墨田区両国四丁目26番6号","lat":35.69372,"lon":139.79519},{"name":"両国交番","province":"東京都","city":"墨田区","address":"墨田区両国四丁目29番3号","lat":35.694312,"lon":139.79595},{"name":"東京東信用金庫ハロープラザ","province":"東京都","city":"墨田区","address":"墨田区両国四丁目31番16号","lat":35.694804,"lon":139.796614},{"name":"医療法人社団慶翔会　両国眼科クリニック","province":"東京都","city":"墨田区","address":"墨田区両国四丁目33番12号グラン・アルブル両国1階","lat":35.694964,"lon":139.795925},{"name":"大和物産株式会社　両国LPガススタンド","province":"東京都","city":"墨田区","address":"墨田区千歳一丁目2番1号","lat":35.689974,"lon":139.791629},{"name":"東京都水道局墨田営業所","province":"東京都","city":"墨田区","address":"墨田区千歳二丁目2番21号","lat":35.690511,"lon":139.795697},{"name":"墨東化成工業株式会社","province":"東京都","city":"墨田区","address":"墨田区千歳一丁目8番14号","lat":35.691512,"lon":139.793252},{"name":"緑小学校","province":"東京都","city":"墨田区","address":"墨田区緑二丁目12番12号","lat":35.694026,"lon":139.801342},{"name":"緑図書館","province":"東京都","city":"墨田区","address":"墨田区緑二丁目24番5号","lat":35.695759,"lon":139.800608},{"name":"みどりコミュニティセンター","province":"東京都","city":"墨田区","address":"墨田区緑三丁目7番3号","lat":35.693615,"lon":139.803267},{"name":"本所消防署緑出張所","province":"東京都","city":"墨田区","address":"墨田区緑四丁目1番8号","lat":35.69286,"lon":139.806827},{"name":"江東橋交番","province":"東京都","city":"墨田区","address":"墨田区緑四丁目22番13号","lat":35.694948,"lon":139.80858},{"name":"すみだ障害者就労支援総合センター","province":"東京都","city":"墨田区","address":"墨田区緑四丁目25番4号","lat":35.69556,"lon":139.807702},{"name":"すみだふれあいセンター福祉作業所","province":"東京都","city":"墨田区","address":"墨田区緑四丁目35番6号","lat":35.695803,"lon":139.807656},{"name":"立川児童館","province":"東京都","city":"墨田区","address":"墨田区立川一丁目5番2号","lat":35.69051,"lon":139.799481},{"name":"日本年金機構　墨田年金事務所","province":"東京都","city":"墨田区","address":"墨田区立川三丁目8番12号","lat":35.691037,"lon":139.804786},{"name":"菊川小学校","province":"東京都","city":"墨田区","address":"墨田区立川四丁目12番15号","lat":35.691629,"lon":139.807591},{"name":"中和小学校","province":"東京都","city":"墨田区","address":"墨田区菊川一丁目18番10号","lat":35.690157,"lon":139.802725},{"name":"医療法人社団菊川橋クリニック","province":"東京都","city":"墨田区","address":"墨田区菊川二丁目11番1号","lat":35.68889,"lon":139.803558},{"name":"菊川二丁目交番","province":"東京都","city":"墨田区","address":"墨田区菊川二丁目19番7号","lat":35.689979,"lon":139.805647},{"name":"都営地下鉄菊川駅","province":"東京都","city":"墨田区","address":"墨田区菊川三丁目16番2号","lat":35.688385,"lon":139.80602},{"name":"東京都立両国高等学校","province":"東京都","city":"墨田区","address":"墨田区江東橋一丁目7番14号","lat":35.69454,"lon":139.810088},{"name":"大横川親水公園テニスコート","province":"東京都","city":"墨田区","address":"墨田区江東橋一丁目、緑四丁目地先","lat":35.694018,"lon":139.808868},{"name":"医療法人社団三恵寿会　3Sメディカルクリニック","province":"東京都","city":"墨田区","address":"墨田区江東橋二丁目19番7号富士ソフトビル2階","lat":35.696285,"lon":139.812308},{"name":"独立行政法人高齢・障害･求職者雇用支援機構　東京職業訓練支援センター","province":"東京都","city":"墨田区","address":"墨田区江東橋二丁目19番12号","lat":35.696262,"lon":139.811377},{"name":"すみだ産業会館","province":"東京都","city":"墨田区","address":"墨田区江東橋三丁目9番10号","lat":35.695045,"lon":139.813668},{"name":"丸井錦糸町店","province":"東京都","city":"墨田区","address":"墨田区江東橋三丁目9番10号","lat":35.695045,"lon":139.813668},{"name":"KS15ビル","province":"東京都","city":"墨田区","address":"墨田区江東橋三丁目13番1号","lat":35.695867,"lon":139.813624},{"name":"錦糸町駅南口交番","province":"東京都","city":"墨田区","address":"墨田区江東橋三丁目14番3号","lat":35.696012,"lon":139.814793},{"name":"JR錦糸町駅","province":"東京都","city":"墨田区","address":"墨田区江東橋三丁目14番5号","lat":35.696395,"lon":139.814185},{"name":"東京メトロ錦糸町駅","province":"東京都","city":"墨田区","address":"墨田区江東橋三丁目14番6号先","lat":35.697386,"lon":139.814984},{"name":"小倉歯科","province":"東京都","city":"墨田区","address":"墨田区江東橋四丁目16番5号","lat":35.694728,"lon":139.817152},{"name":"墨東病院","province":"東京都","city":"墨田区","address":"墨田区江東橋四丁目23番15号","lat":35.694659,"lon":139.818398},{"name":"楽天地ビル","province":"東京都","city":"墨田区","address":"墨田区江東橋四丁目27番14号","lat":35.696289,"lon":139.815686},{"name":"楽天地フットサルコート錦糸町","province":"東京都","city":"墨田区","address":"墨田区江東橋四丁目27番14号LIVIN8階","lat":35.696498,"lon":139.815807},{"name":"竪川親水公園管理事務所","province":"東京都","city":"墨田区","address":"墨田区江東橋五丁目16番15号","lat":35.692613,"lon":139.810817},{"name":"東京都下水道局東部第一下水道事務所墨田出張所","province":"東京都","city":"墨田区","address":"墨田区横綱一丁目4番12号","lat":35.696742,"lon":139.795123},{"name":"都営地下鉄両国駅","province":"東京都","city":"墨田区","address":"墨田区横網一丁目4番29号","lat":35.69682,"lon":139.797275},{"name":"両国屋内プール","province":"東京都","city":"墨田区","address":"墨田区横網一丁目8番1号両国中学校内","lat":35.697806,"lon":139.796274},{"name":"両国中学校","province":"東京都","city":"墨田区","address":"墨田区横網一丁目8番1号","lat":35.697488,"lon":139.796151},{"name":"安田学園中学校・高等学校","province":"東京都","city":"墨田区","address":"墨田区横綱二丁目2番25号","lat":35.699995,"lon":139.795887},{"name":"横網交番","province":"東京都","city":"墨田区","address":"墨田区横網二丁目3番18号","lat":35.700075,"lon":139.796964},{"name":"株式会社ケアサービス　デイサービスセンター両国","province":"東京都","city":"墨田区","address":"墨田区亀沢二丁目14番8号","lat":35.697885,"lon":139.801105},{"name":"社会福祉法人緑栄会　墨田みどり保育園","province":"東京都","city":"墨田区","address":"墨田区亀沢三丁目7番11号","lat":35.696426,"lon":139.8034},{"name":"すみだボランティアセンター分館","province":"東京都","city":"墨田区","address":"墨田区亀沢三丁目20番11号","lat":35.697478,"lon":139.803416},{"name":"亀沢のぞみの家","province":"東京都","city":"墨田区","address":"墨田区亀沢四丁目18番11号","lat":35.699034,"lon":139.808247},{"name":"サミットストア両国石原店","province":"東京都","city":"墨田区","address":"墨田区石原一丁目40番6号","lat":35.701747,"lon":139.79875},{"name":"朝日信用金庫本所支店","province":"東京都","city":"墨田区","address":"墨田区石原一丁目41番8号","lat":35.701914,"lon":139.799686},{"name":"石原三丁目交番","province":"東京都","city":"墨田区","address":"墨田区石原三丁目16番1号ハイネス壱番館1階","lat":35.70049,"lon":139.803928},{"name":"本所地域プラザ（BIG SHIP）","province":"東京都","city":"墨田区","address":"墨田区本所一丁目13番4号","lat":35.703121,"lon":139.798799},{"name":"厩橋地域安全センター","province":"東京都","city":"墨田区","address":"墨田区本所一丁目25番9号","lat":35.703847,"lon":139.799797},{"name":"クレヴィア墨田本所","province":"東京都","city":"墨田区","address":"墨田区本所一丁目36番7号","lat":35.704655,"lon":139.796684},{"name":"篠塚歯科医院","province":"東京都","city":"墨田区","address":"墨田区東駒形一丁目19番7号","lat":35.706416,"lon":139.799486},{"name":"本所消防署東駒形出張所","province":"東京都","city":"墨田区","address":"墨田区東駒形三丁目5番8号","lat":35.706386,"lon":139.804322},{"name":"駒形橋地域安全センター","province":"東京都","city":"墨田区","address":"墨田区吾妻橋一丁目12番15号","lat":35.708086,"lon":139.798237},{"name":"墨田区役所1階東側エレベーター前","province":"東京都","city":"墨田区","address":"墨田区吾妻橋一丁目23番20号","lat":35.710722,"lon":139.801497},{"name":"墨田区役所8階東側エレベーター前","province":"東京都","city":"墨田区","address":"墨田区吾妻橋一丁目23番20号","lat":35.710722,"lon":139.801497},{"name":"ステップ学級","province":"東京都","city":"墨田区","address":"墨田区吾妻橋二丁目18番2号白玉ビル2階","lat":35.71038,"lon":139.802522},{"name":"吾妻橋交番","province":"東京都","city":"墨田区","address":"墨田区吾妻橋三丁目7番1号","lat":35.708858,"lon":139.804441},{"name":"都営地下鉄本所吾妻橋駅","province":"東京都","city":"墨田区","address":"墨田区吾妻橋三丁目7番16号","lat":35.708566,"lon":139.804363},{"name":"株式会社 小森コーポレーション","province":"東京都","city":"墨田区","address":"墨田区吾妻橋三丁目11番1号","lat":35.709355,"lon":139.805716},{"name":"すみだトリフォニーホール","province":"東京都","city":"墨田区","address":"墨田区錦糸一丁目2番3号","lat":35.697212,"lon":139.81011},{"name":"錦糸町駅北口交番","province":"東京都","city":"墨田区","address":"墨田区錦糸二丁目2番3号","lat":35.697632,"lon":139.813333},{"name":"アルカイースト歯科クリニック","province":"東京都","city":"墨田区","address":"墨田区錦糸三丁目2番1号アルカイースト3階","lat":35.697496,"lon":139.814347},{"name":"墨田区総合体育館","province":"東京都","city":"墨田区","address":"墨田区錦糸四丁目15番1号錦糸公園内","lat":35.699525,"lon":139.817187},{"name":"株式会社 阪上製作所","province":"東京都","city":"墨田区","address":"墨田区錦糸四丁目17番6号","lat":35.699278,"lon":139.818134},{"name":"学校法人立志舎 立志舎高等学校","province":"東京都","city":"墨田区","address":"墨田区太平二丁目9番6号","lat":35.700845,"lon":139.812885},{"name":"東京東信用金庫錦糸町支店","province":"東京都","city":"墨田区","address":"墨田区太平三丁目3番8号","lat":35.699756,"lon":139.814515},{"name":"社会福祉法人賛育会賛育会病院","province":"東京都","city":"墨田区","address":"墨田区太平三丁目20番2号","lat":35.702589,"lon":139.813967},{"name":"一般財団法人保安通信協会","province":"東京都","city":"墨田区","address":"墨田区太平四丁目1番3号オリナスタワー15階","lat":35.70075,"lon":139.815306},{"name":"富安株式会社東京本社","province":"東京都","city":"墨田区","address":"墨田区太平四丁目5番15号","lat":35.701573,"lon":139.817984},{"name":"日本たばこ産業株式会社生産技術センター","province":"東京都","city":"墨田区","address":"墨田区横川一丁目17番7号","lat":35.704794,"lon":139.810724},{"name":"本所消防署","province":"東京都","city":"墨田区","address":"墨田区横川四丁目6番6号","lat":35.70395,"lon":139.815188},{"name":"横川交番","province":"東京都","city":"墨田区","address":"墨田区横川四丁目7番2号","lat":35.704347,"lon":139.814608},{"name":"プリメール柳島管理組合","province":"東京都","city":"墨田区","address":"墨田区横川五丁目10番1号管理事務所","lat":35.705911,"lon":139.816341},{"name":"業平橋住宅自治会","province":"東京都","city":"墨田区","address":"墨田区業平一丁目6番3号","lat":35.707357,"lon":139.808412},{"name":"医療法人財団南葛勤医協クリニック柳島","province":"東京都","city":"墨田区","address":"墨田区業平二丁目9番9号","lat":35.70778,"lon":139.812508},{"name":"なりひら高齢者在宅サービスセンター","province":"東京都","city":"墨田区","address":"墨田区業平五丁目6番2号","lat":35.707069,"lon":139.817933},{"name":"言問交番","province":"東京都","city":"墨田区","address":"墨田区向島三丁目1番1号","lat":35.712894,"lon":139.806066},{"name":"朝日信用金庫向島支店","province":"東京都","city":"墨田区","address":"墨田区向島三丁目23番8号","lat":35.71246,"lon":139.808382},{"name":"すみだ福祉保健センター","province":"東京都","city":"墨田区","address":"墨田区向島三丁目36番7号","lat":35.713323,"lon":139.810781},{"name":"すみだ休日応急診療所","province":"東京都","city":"墨田区","address":"墨田区向島三丁目36番7号","lat":35.7136,"lon":139.810774},{"name":"本所消防署小梅出張所","province":"東京都","city":"墨田区","address":"墨田区向島三丁目36番12号","lat":35.713016,"lon":139.810724},{"name":"東京都立本所高等学校","province":"東京都","city":"墨田区","address":"墨田区向島三丁目37番25号","lat":35.714604,"lon":139.811228},{"name":"なりひら橋クリニック","province":"東京都","city":"墨田区","address":"墨田区向島三丁目46番10号2階","lat":35.711373,"lon":139.80929},{"name":"向島交番","province":"東京都","city":"墨田区","address":"墨田区向島四丁目1番5号","lat":35.716154,"lon":139.810854},{"name":"墨田中学校","province":"東京都","city":"墨田区","address":"墨田区向島四丁目25番22号","lat":35.714949,"lon":139.811531},{"name":"医療法人社団尽誠会 三浦内科医院","province":"東京都","city":"墨田区","address":"墨田区東向島一丁目26番10号","lat":35.718985,"lon":139.81299},{"name":"向島税務署","province":"東京都","city":"墨田区","address":"墨田区東向島二丁目7番14号","lat":35.716959,"lon":139.815591},{"name":"曳舟交番","province":"東京都","city":"墨田区","address":"墨田区東向島二丁目26番1号","lat":35.717734,"lon":139.816438},{"name":"東武曳舟駅","province":"東京都","city":"墨田区","address":"墨田区東向島二丁目26番6号","lat":35.718032,"lon":139.816526},{"name":"東京曳舟病院","province":"東京都","city":"墨田区","address":"墨田区東向島二丁目27番1号","lat":35.71791,"lon":139.816979},{"name":"東京東信用金庫本店","province":"東京都","city":"墨田区","address":"墨田区東向島二丁目36番10号","lat":35.721379,"lon":139.817628},{"name":"東京都立墨田川高等学校","province":"東京都","city":"墨田区","address":"墨田区東向島三丁目34番14号","lat":35.721853,"lon":139.816253},{"name":"東向島交番","province":"東京都","city":"墨田区","address":"墨田区東向島四丁目26番7号","lat":35.722729,"lon":139.818431},{"name":"東武東向島駅","province":"東京都","city":"墨田区","address":"墨田区東向島四丁目29番7号","lat":35.724937,"lon":139.819436},{"name":"朝日信用金庫東向島支店","province":"東京都","city":"墨田区","address":"墨田区東向島四丁目43番9号","lat":35.727001,"lon":139.819453},{"name":"向島保健センター","province":"東京都","city":"墨田区","address":"墨田区東向島五丁目16番2号","lat":35.72587,"lon":139.821151},{"name":"こくほ内科クリニック","province":"東京都","city":"墨田区","address":"墨田区東向島六丁目11番9号","lat":35.721488,"lon":139.821553},{"name":"向島消防署","province":"東京都","city":"墨田区","address":"墨田区東向島六丁目22番3号","lat":35.723621,"lon":139.820026},{"name":"堤通公園テニスコート","province":"東京都","city":"墨田区","address":"墨田区堤通一丁目8番1号","lat":35.724532,"lon":139.810782},{"name":"墨田区総合運動場","province":"東京都","city":"墨田区","address":"墨田区堤通二丁目11番1号","lat":35.738941,"lon":139.816432},{"name":"桜堤中学校","province":"東京都","city":"墨田区","address":"墨田区堤通二丁目19番1号","lat":35.730387,"lon":139.811917},{"name":"白鬚橋交番","province":"東京都","city":"墨田区","address":"墨田区墨田一丁目4番1号","lat":35.728531,"lon":139.813637},{"name":"スポーツプラザ梅若","province":"東京都","city":"墨田区","address":"墨田区墨田一丁目4番4号","lat":35.729065,"lon":139.815838},{"name":"株式会社ケアサービス デイサービスセンター墨田","province":"東京都","city":"墨田区","address":"墨田区墨田一丁目7番2号","lat":35.728276,"lon":139.816558},{"name":"鐘ヶ淵駅前交番","province":"東京都","city":"墨田区","address":"墨田区墨田二丁目10番15号","lat":35.733181,"lon":139.819628},{"name":"墨田三丁目交番","province":"東京都","city":"墨田区","address":"墨田区墨田三丁目6番17号","lat":35.727948,"lon":139.820617},{"name":"医療法人財団南葛勤医協 すみだ共立診療所","province":"東京都","city":"墨田区","address":"墨田区墨田三丁目41番15号","lat":35.730109,"lon":139.823033},{"name":"墨田地域安全センター","province":"東京都","city":"墨田区","address":"墨田区墨田四丁目22番9号","lat":35.732123,"lon":139.823369},{"name":"墨田野球場","province":"東京都","city":"墨田区","address":"墨田区墨田四丁目地先","lat":35.732135,"lon":139.825934},{"name":"向島警察署堤通駐在所","province":"東京都","city":"墨田区","address":"墨田区墨田五丁目16番1号","lat":35.737012,"lon":139.818183},{"name":"向島消防署墨田出張所","province":"東京都","city":"墨田区","address":"墨田区墨田五丁目16番2号","lat":35.737228,"lon":139.818125},{"name":"株式会社KCロジスティクス　カネボウ化粧品　すみだ北ロジスティクスセンター","province":"東京都","city":"墨田区","address":"墨田区墨田五丁目17番4号","lat":35.739667,"lon":139.817358},{"name":"旧隅田小学校","province":"東京都","city":"墨田区","address":"墨田区墨田五丁目49番5号","lat":35.736036,"lon":139.820653},{"name":"東武鐘ヶ淵駅","province":"東京都","city":"墨田区","address":"墨田区墨田五丁目50番2号","lat":35.733426,"lon":139.820028},{"name":"すみだ水族館","province":"東京都","city":"墨田区","address":"墨田区押上一丁目1番2号東京スカイツリータウン・ソラマチ5階・6階","lat":35.710007,"lon":139.80984},{"name":"東武とうきょうスカイツリー駅","province":"東京都","city":"墨田区","address":"墨田区押上一丁目1番4号","lat":35.71043,"lon":139.809268},{"name":"押上駅前交番","province":"東京都","city":"墨田区","address":"墨田区押上一丁目10番1号","lat":35.710853,"lon":139.813141},{"name":"東京メトロ押上駅","province":"東京都","city":"墨田区","address":"墨田区押上一丁目1番65号","lat":35.710328,"lon":139.81329},{"name":"京成押上駅","province":"東京都","city":"墨田区","address":"墨田区押上一丁目10番2号","lat":35.710328,"lon":139.81329},{"name":"曳舟小学校","province":"東京都","city":"墨田区","address":"墨田区京島一丁目28番2号","lat":35.716608,"lon":139.820806},{"name":"子育て支援総合センター","province":"東京都","city":"墨田区","address":"墨田区京島一丁目35番9号103号室マークゼロワン曳舟タワー棟1階","lat":35.716758,"lon":139.819754},{"name":"京成曳舟駅","province":"東京都","city":"墨田区","address":"墨田区京島一丁目39番1号","lat":35.718058,"lon":139.819624},{"name":"東向島児童館　分館","province":"東京都","city":"墨田区","address":"墨田区京島一丁目44番21号","lat":35.7193,"lon":139.820973},{"name":"スポーツクラブ＆スパルネサンス曳舟","province":"東京都","city":"墨田区","address":"墨田区京島一丁目46番2号","lat":35.71818,"lon":139.820928},{"name":"京島二丁目交番","province":"東京都","city":"墨田区","address":"墨田区京島二丁目9番4号","lat":35.715024,"lon":139.819912},{"name":"小林歯科医院","province":"東京都","city":"墨田区","address":"墨田区京島三丁目62番2号","lat":35.712734,"lon":139.824238},{"name":"東京東信用金庫吾嬬支店","province":"東京都","city":"墨田区","address":"墨田区京島三丁目68番8号","lat":35.713291,"lon":139.826875},{"name":"東京東信用金庫押上支店","province":"東京都","city":"墨田区","address":"墨田区文花一丁目7番4号","lat":35.710332,"lon":139.820292},{"name":"ぶんか高齢者支援総合センター","province":"東京都","city":"墨田区","address":"墨田区文花一丁目29番5号","lat":35.708407,"lon":139.820031},{"name":"吉田テクノワークス株式会社","province":"東京都","city":"墨田区","address":"墨田区文花二丁目11番12号","lat":35.709583,"lon":139.826186},{"name":"東武小村井駅","province":"東京都","city":"墨田区","address":"墨田区文花二丁目20番1号","lat":35.710133,"lon":139.828042},{"name":"株式会社 本所介護サービス","province":"東京都","city":"墨田区","address":"墨田区文花三丁目14番4号","lat":35.712022,"lon":139.825947},{"name":"向島警察署","province":"東京都","city":"墨田区","address":"墨田区文花三丁目18番9号","lat":35.711724,"lon":139.827261},{"name":"株式会社イナゲ","province":"東京都","city":"墨田区","address":"墨田区文花三丁目21番17号","lat":35.711255,"lon":139.827672},{"name":"中村病院","province":"東京都","city":"墨田区","address":"墨田区八広二丁目1番1号","lat":35.717399,"lon":139.82362},{"name":"第三吾嬬小学校","province":"東京都","city":"墨田区","address":"墨田区八広二丁目36番3号","lat":35.717171,"lon":139.82775},{"name":"朝日信用金庫八広支店","province":"東京都","city":"墨田区","address":"墨田区八広二丁目46番8号","lat":35.714733,"lon":139.826036},{"name":"八広四丁目交番","province":"東京都","city":"墨田区","address":"墨田区八広四丁目12番3号","lat":35.722618,"lon":139.826564},{"name":"八広地域プラザ（吾嬬の里）","province":"東京都","city":"墨田区","address":"墨田区八広四丁目35番17号","lat":35.723165,"lon":139.829377},{"name":"東京都立墨田特別支援学校","province":"東京都","city":"墨田区","address":"墨田区八広五丁目10番2号","lat":35.72519,"lon":139.825211},{"name":"八広はなみずき高齢者支援総合センター","province":"東京都","city":"墨田区","address":"墨田区八広五丁目18番23号","lat":35.725186,"lon":139.826327},{"name":"四ツ木橋交番","province":"東京都","city":"墨田区","address":"墨田区八広六丁目1番1号","lat":35.728743,"lon":139.82538},{"name":"京成八広駅","province":"東京都","city":"墨田区","address":"墨田区八広六丁目25番20号","lat":35.727237,"lon":139.828353},{"name":"医療法人社団緑翠会小山医院","province":"東京都","city":"墨田区","address":"墨田区立花一丁目23番5号116号室サンタウン立花","lat":35.706644,"lon":139.831219},{"name":"立花体育館","province":"東京都","city":"墨田区","address":"墨田区立花一丁目25番10号","lat":35.705488,"lon":139.832054},{"name":"たちばなホーム","province":"東京都","city":"墨田区","address":"墨田区立花三丁目10番1号","lat":35.705338,"lon":139.833116},{"name":"平井橋交番","province":"東京都","city":"墨田区","address":"墨田区立花三丁目29番12号","lat":35.708528,"lon":139.837241},{"name":"小村井交番","province":"東京都","city":"墨田区","address":"墨田区立花四丁目2番1号","lat":35.710294,"lon":139.828533},{"name":"東武東あずま駅","province":"東京都","city":"墨田区","address":"墨田区立花四丁目23番8号","lat":35.707083,"lon":139.831905},{"name":"東京都立橘高等学校","province":"東京都","city":"墨田区","address":"墨田区立花四丁目29番7号","lat":35.709339,"lon":139.833663},{"name":"吾嬬立花中学校","province":"東京都","city":"墨田区","address":"墨田区立花四丁目30番18号","lat":35.709949,"lon":139.834786},{"name":"向島消防署立花出張所","province":"東京都","city":"墨田区","address":"墨田区立花五丁目9番3号","lat":35.715016,"lon":139.828833},{"name":"中川児童館","province":"東京都","city":"墨田区","address":"墨田区立花五丁目18番9号","lat":35.712981,"lon":139.831},{"name":"医療法人社団立圭会平野医院","province":"東京都","city":"墨田区","address":"墨田区立花六丁目1番14号","lat":35.71063,"lon":139.833238},{"name":"立花ゆうゆう館","province":"東京都","city":"墨田区","address":"墨田区立花六丁目8番号102号室","lat":35.710595,"lon":139.834744},{"name":"株式会社大東マーク工業","province":"東京都","city":"墨田区","address":"墨田区東墨田二丁目17番9号","lat":35.722704,"lon":139.832752},{"name":"荒川四ツ木橋緑地少年野球場","province":"東京都","city":"墨田区","address":"墨田区東墨田三丁目先","lat":35.721291,"lon":139.837284},{"name":"株式会社杉田製線第二工場","province":"東京都","city":"墨田区","address":"墨田区東墨田三丁目1番12号","lat":35.718485,"lon":139.834016}]}