{"keyword":"公","data":[{"name":"東京都三宅支庁／総務課","province":"東京都","city":"","address":"東京都三宅島三宅村伊豆642","lat":34.117651,"lon":139.508487},{"name":"東京都三宅支庁／産業課","province":"東京都","city":"","address":"東京都三宅島三宅村伊豆642","lat":34.117651,"lon":139.508487},{"name":"東京都三宅支庁／土木港湾課","province":"東京都","city":"","address":"東京都三宅島三宅村伊豆642","lat":34.117651,"lon":139.508487},{"name":"東京都三宅島港湾空港／管理事務所","province":"東京都","city":"","address":"東京都三宅島三宅村坪田1378","lat":34.071718,"lon":139.558434},{"name":"東京都島しょ保健所／三宅出張所","province":"東京都","city":"","address":"東京都三宅島三宅村伊豆1004","lat":34.118182,"lon":139.504096},{"name":"東京都教育庁／三宅出張所","province":"東京都","city":"","address":"東京都三宅島三宅村伊豆642","lat":34.117651,"lon":139.508487},{"name":"東京都島しょ農林水産総合センター／三宅事業所","province":"東京都","city":"","address":"東京都三宅島三宅村坪田4357","lat":34.07652,"lon":139.553588},{"name":"東京都立三宅高等学校","province":"東京都","city":"","address":"東京都三宅島三宅村坪田4586","lat":34.058837,"lon":139.537831},{"name":"東京都島部海区漁業／調整委員会三宅分室","province":"東京都","city":"","address":"東京都三宅島三宅村伊豆642","lat":34.117651,"lon":139.508487},{"name":"警視庁三宅島警察署","province":"東京都","city":"","address":"東京都三宅島三宅村伊豆640","lat":34.119266,"lon":139.518026},{"name":"警視庁御蔵島警察署","province":"東京都","city":"御蔵島村","address":"東京都御蔵島村","lat":33.897366,"lon":139.596116},{"name":"三宅村役場／臨時庁舎","province":"東京都","city":"","address":"東京都三宅島三宅村阿古497","lat":34.075779,"lon":139.479747},{"name":"神着出張所（神着老人福祉館）","province":"東京都","city":"","address":"東京都三宅島三宅村神着197","lat":34.120475,"lon":139.522023},{"name":"伊豆出張所（伊豆老人福祉館）","province":"東京都","city":"","address":"東京都三宅島三宅村伊豆1054","lat":34.114243,"lon":139.501023},{"name":"伊ヶ谷出張所（三宅村コミュニティセンター）","province":"東京都","city":"","address":"東京都三宅島三宅村伊ヶ谷330","lat":34.100081,"lon":139.49092},{"name":"坪田出張所（三宅村文化会館）","province":"東京都","city":"","address":"東京都三宅島三宅村坪田3050","lat":34.05992,"lon":139.544956},{"name":"御蔵島村役場","province":"東京都","city":"御蔵島村","address":"東京都御蔵島村","lat":33.897366,"lon":139.596116},{"name":"東京法務局","province":"東京都","city":"千代田区","address":"東京都千代田区九段南1-1-15/九段第2合同庁舎内","lat":35.693728,"lon":139.754478},{"name":"火山監視・情報センター／三宅島火山防災連絡事務所","province":"東京都","city":"","address":"東京都三宅島三宅村阿古497/(三宅村役場臨時庁舎内)","lat":34.075779,"lon":139.479747},{"name":"下田海上保安部交通課／（旧三宅島航路標識事務所）","province":"静岡県","city":"下田市","address":"静岡県下田市3-18-23","lat":34.669832,"lon":138.948805},{"name":"三宅島郵便局","province":"東京都","city":"","address":"東京都三宅島三宅村神着222","lat":34.117874,"lon":139.539621},{"name":"坪田郵便局","province":"東京都","city":"","address":"東京都三宅島三宅村坪田3050","lat":34.059875,"lon":139.54484},{"name":"三宅島阿古郵便局","province":"東京都","city":"","address":"東京都三宅島三宅村阿古700-6","lat":34.064613,"lon":139.482895},{"name":"三宅島伊豆郵便局","province":"東京都","city":"","address":"東京都三宅島三宅村伊豆1054","lat":34.117651,"lon":139.508487},{"name":"三宅島伊ヶ谷郵便局","province":"東京都","city":"","address":"東京都三宅島三宅村伊ヶ谷432","lat":34.097358,"lon":139.493689},{"name":"御蔵島郵便局","province":"東京都","city":"御蔵島村","address":"東京都御蔵島村","lat":33.897366,"lon":139.596116},{"name":"ＮＴＴ東日本－東京","province":"東京都","city":"","address":"東京都三宅島三宅村伊豆627-2","lat":34.117648,"lon":139.508488},{"name":"三宅島農業振興会","province":"東京都","city":"","address":"東京都三宅島三宅村坪田3036-5","lat":34.117849,"lon":139.539632},{"name":"御蔵島村農業協同組合","province":"東京都","city":"御蔵島村","address":"東京都御蔵島村","lat":33.897366,"lon":139.596116},{"name":"三宅島漁業協同組合","province":"東京都","city":"","address":"東京都三宅島三宅村阿古680","lat":34.065889,"lon":139.484644},{"name":"御蔵島村漁業協同組合","province":"東京都","city":"御蔵島村","address":"東京都御蔵島村","lat":33.897366,"lon":139.596116},{"name":"東京電力パワーグリッド株式会社／東京総支社島嶼業務センター／三宅島事務所","province":"東京都","city":"","address":"東京都三宅島三宅村伊豆991","lat":34.117648,"lon":139.508488},{"name":"七島信用組合／三宅島支店","province":"東京都","city":"","address":"東京都三宅島三宅村神着239-1","lat":34.121215,"lon":139.526667},{"name":"東海汽船株式会社／錆ケ浜待合所","province":"東京都","city":"","address":"東京都三宅島三宅村阿古672-3","lat":34.068204,"lon":139.480746},{"name":"新中央航空株式会社三宅島営業所","province":"東京都","city":"","address":"東京都三宅島三宅村坪田1378(三宅島空港内)","lat":34.072136,"lon":139.558401},{"name":"東京愛らんどシャトル三宅島空港内ヘリカウンター","province":"東京都","city":"","address":"東京都三宅島三宅村坪田1378(三宅島空港内)","lat":34.072136,"lon":139.558401},{"name":"三宅島観光協会","province":"東京都","city":"","address":"東京都三宅島三宅村阿古672-3","lat":34.068204,"lon":139.480746},{"name":"御蔵島観光協会（みくらしま観光案内所）","province":"東京都","city":"御蔵島村","address":"東京都御蔵島村","lat":33.897366,"lon":139.596116},{"name":"三宅村商工会／臨時事務所","province":"東京都","city":"","address":"東京都三宅島三宅村神着894","lat":34.117874,"lon":139.539621},{"name":"三宅村シルバー人材センター","province":"東京都","city":"","address":"東京都三宅島三宅村坪田3007","lat":34.070173,"lon":139.554458},{"name":"三宅島あじさいの里","province":"東京都","city":"","address":"東京都三宅島三宅村阿古807-1","lat":34.058455,"lon":139.481113},{"name":"三宅島社会福祉協議会","province":"東京都","city":"","address":"東京都三宅島三宅村坪田3053(三宅村社会福祉会館内)","lat":34.059794,"lon":139.545456},{"name":"ＮＴＴ東日本[sanitize]東京","province":"東京都","city":"","address":"東京都三宅島三宅村伊豆627[sanitize]2","lat":34.117648,"lon":139.508488},{"name":"東京都三宅支庁総務課","province":"東京都","city":"三宅村","address":"東京都三宅村伊豆642","lat":34.11866657,"lon":139.51731695},{"name":"東京都三宅支庁産業課","province":"東京都","city":"三宅村","address":"東京都三宅村伊豆642","lat":34.11866657,"lon":139.51731695},{"name":"東京都三宅支庁土木港湾課","province":"東京都","city":"三宅村","address":"東京都三宅村伊豆642","lat":34.11866657,"lon":139.51731695},{"name":"東京都三宅島空港管理事務所","province":"東京都","city":"三宅村","address":"東京都三宅村坪田1378","lat":34.07199247,"lon":139.55850383},{"name":"東京都島しょ保健所三宅出張所","province":"東京都","city":"三宅村","address":"東京都三宅村伊豆1004","lat":34.11763858,"lon":139.50389598},{"name":"東京都教育庁三宅出張所","province":"東京都","city":"三宅村","address":"東京都三宅村伊豆642","lat":34.11866657,"lon":139.51731695},{"name":"東京都島しょ農林水産総合センター三宅事業所","province":"東京都","city":"三宅村","address":"東京都三宅村坪田4357","lat":34.05625753,"lon":139.53406243},{"name":"東京都家畜保健衛生所三宅支所","province":"東京都","city":"三宅村","address":"東京都三宅村坪田4357","lat":34.05625753,"lon":139.53406243},{"name":"東京都立三宅高等学校","province":"東京都","city":"三宅村","address":"東京都三宅村坪田4586","lat":34.0588101,"lon":139.53781195},{"name":"東京都島部海区漁業調整委員会三宅分室","province":"東京都","city":"三宅村","address":"東京都三宅村伊豆642","lat":34.11866657,"lon":139.51731695},{"name":"警視庁三宅島警察署","province":"東京都","city":"三宅村","address":"東京都三宅村伊豆640","lat":34.1191971,"lon":139.51826684},{"name":"三宅勤労福祉会館","province":"東京都","city":"三宅村","address":"東京都三宅村神着1062","lat":34.12083365,"lon":139.53890937},{"name":"御蔵島村役場","province":"東京都","city":"御蔵島村","address":"東京都御蔵島村","lat":33.89736534,"lon":139.59611904},{"name":"東京法務局三宅島出張所","province":"東京都","city":"三宅村","address":"東京都三宅村神着240","lat":34.12126933,"lon":139.5263938},{"name":"下田海上保安部航行援助センター（旧三宅島航路標識事務所）","province":"静岡県","city":"下田市","address":"静岡県下田市三丁目18-23","lat":34.66981503,"lon":138.94880986},{"name":"三宅島郵便局","province":"東京都","city":"三宅村","address":"東京都三宅村神着222","lat":34.12142761,"lon":139.52502448},{"name":"三宅島阿古郵便局","province":"東京都","city":"三宅村","address":"東京都三宅村阿古700-6","lat":34.06458034,"lon":139.48294973},{"name":"三宅島伊豆郵便局","province":"東京都","city":"三宅村","address":"東京都三宅村伊豆1016","lat":34.11660532,"lon":139.50228229},{"name":"三宅島伊ヶ谷郵便局","province":"東京都","city":"三宅村","address":"東京都三宅村伊ヶ谷432","lat":34.10030423,"lon":139.49261997},{"name":"御蔵島郵便局","province":"東京都","city":"御蔵島村","address":"東京都御蔵島村","lat":33.89736534,"lon":139.59611904},{"name":"東京島しょ農業協同組合三宅島支店","province":"東京都","city":"三宅村","address":"東京都三宅村神着313-1","lat":34.12021379,"lon":139.52294415},{"name":"御蔵島村農業協同組合","province":"東京都","city":"御蔵島村","address":"東京都御蔵島村","lat":33.89736534,"lon":139.59611904},{"name":"三宅村森林組合","province":"東京都","city":"三宅村","address":"東京都三宅村阿古497","lat":34.07594562,"lon":139.47916639},{"name":"三宅島漁業協同組合","province":"東京都","city":"三宅村","address":"東京都三宅村阿古680","lat":34.06866594,"lon":139.48114144},{"name":"御蔵島村漁業協同組合","province":"東京都","city":"御蔵島村","address":"東京都御蔵島村","lat":33.89736534,"lon":139.59611904},{"name":"東京電力株式会社東京支店三宅島事務所","province":"東京都","city":"三宅村","address":"東京都三宅村伊豆991","lat":34.11883848,"lon":139.50542357},{"name":"株式会社みずほ銀行東京中央支店三宅島出張所","province":"東京都","city":"三宅村","address":"東京都三宅村伊豆642","lat":34.11866657,"lon":139.51731695},{"name":"七島信用組合三宅島支店","province":"東京都","city":"三宅村","address":"東京都三宅村神着239-1","lat":34.12122491,"lon":139.52664656},{"name":"東海汽船株式会社三宅島支店","province":"東京都","city":"三宅村","address":"東京都三宅村阿古672-3","lat":34.06829375,"lon":139.48046651},{"name":"三宅島観光協会","province":"東京都","city":"三宅村","address":"東京都三宅村坪田1362","lat":34.07718075,"lon":139.55781755},{"name":"三宅村シルバー人材センター","province":"東京都","city":"三宅村","address":"東京都三宅村坪田3050","lat":34.05983793,"lon":139.54508898},{"name":"三宅島社会福祉協議会","province":"東京都","city":"三宅村","address":"東京都三宅村阿古497","lat":34.07594562,"lon":139.47916639},{"name":"東京上野税務署","province":"","city":"","address":"池之端1丁目2番22号上野合同庁舎","lat":35.70962441,"lon":139.7686653},{"name":"浅草税務署","province":"","city":"","address":"蔵前2丁目8番12号","lat":35.70302561,"lon":139.7924045},{"name":"台東都税事務所","province":"","city":"","address":"雷門1丁目6番1号","lat":35.70986492,"lon":139.7921639},{"name":"日本堤消防署","province":"","city":"","address":"千束4丁目1番1号","lat":35.7233337,"lon":139.7981124},{"name":"上野警察署","province":"","city":"","address":"東上野4丁目2番4号","lat":35.71229446,"lon":139.7792946},{"name":"浅草警察署","province":"","city":"","address":"浅草4丁目47番11号","lat":35.71890426,"lon":139.7980128},{"name":"蔵前警察署","province":"","city":"","address":"蔵前1丁目3番24号","lat":35.7011058,"lon":139.7900249},{"name":"上野消防署","province":"","city":"","address":"東上野5丁目2番9号","lat":35.71205452,"lon":139.7810845},{"name":"浅草消防署","province":"","city":"","address":"駒形1丁目5番8号","lat":35.70750518,"lon":139.793974},{"name":"浅草公証役場","province":"","city":"","address":"雷門2丁目4番8号あいおい損保台東ビル2F","lat":35.70928503,"lon":139.7958337},{"name":"東京法務局台東出張所（登記所）","province":"","city":"","address":"台東1丁目26番2号","lat":35.70161548,"lon":139.7771953},{"name":"上野公証役場","province":"","city":"","address":"東上野1丁目7番2号富田ビル","lat":35.70736495,"lon":139.7797049},{"name":"警視庁第六方面本部","province":"東京都","city":"台東区","address":"台東区東浅草2丁目27番12号","lat":35.72453376,"lon":139.7978665},{"name":"下谷警察署","province":"","city":"","address":"下谷3丁目15番9号","lat":35.72585568,"lon":139.7879967},{"name":"品川都税事務所","province":"東京都","city":"品川区","address":"東京都品川区広町2-1-36","lat":35.6089834,"lon":139.7302954},{"name":"鮫洲運転免許試験場","province":"東京都","city":"品川区","address":"東京都品川区東大井1-12-5","lat":35.6033213,"lon":139.7464659},{"name":"品川児童相談所","province":"東京都","city":"品川区","address":"東京都品川区北品川3-7-21","lat":35.6175581,"lon":139.7404569},{"name":"品川警察署","province":"東京都","city":"品川区","address":"東京都品川区東品川3-14-32","lat":35.6139521,"lon":139.7454043},{"name":"大崎警察署","province":"東京都","city":"品川区","address":"東京都品川区大崎4-2-10","lat":35.6217304,"lon":139.7241517},{"name":"大井警察署","province":"東京都","city":"品川区","address":"東京都品川区大井5-10-2","lat":35.5987968,"lon":139.7298873},{"name":"荏原警察署","province":"東京都","city":"品川区","address":"東京都品川区荏原6-19-10","lat":35.6120733,"lon":139.7061891},{"name":"東京水上警察署","province":"東京都","city":"品川区","address":"東京都品川区港区港南5-8-36","lat":35.6323499,"lon":139.7550883},{"name":"品川消防署","province":"東京都","city":"品川区","address":"東京都品川区北品川3-7-31","lat":35.6171422,"lon":139.7398073},{"name":"品川消防署東品川出張所","province":"東京都","city":"品川区","address":"東京都品川区東品川3-25-11","lat":35.6128705,"lon":139.7473344},{"name":"品川消防署大崎出張所","province":"東京都","city":"品川区","address":"東京都品川区大崎2-8-27","lat":35.6133836,"lon":139.731659},{"name":"品川消防署五反田出張所","province":"東京都","city":"品川区","address":"東京都品川区西五反田7-25-14","lat":35.6200165,"lon":139.7187382},{"name":"大井消防署","province":"東京都","city":"品川区","address":"東京都品川区東大井3-6-12","lat":35.6034742,"lon":139.7401437},{"name":"大井消防署滝王子出張所","province":"東京都","city":"品川区","address":"東京都品川区大井5-17-9","lat":35.5983307,"lon":139.7281165},{"name":"大井消防署八潮出張所","province":"東京都","city":"品川区","address":"東京都品川区八潮5-8-3","lat":35.5971201,"lon":139.7515991},{"name":"荏原消防署","province":"東京都","city":"品川区","address":"東京都品川区平塚3-16-20","lat":35.6148569,"lon":139.7105344},{"name":"荏原消防署戸越出張所","province":"東京都","city":"品川区","address":"東京都品川区戸越5-20-15","lat":35.6083098,"lon":139.7187484},{"name":"荏原消防署小山出張所","province":"東京都","city":"品川区","address":"東京都品川区小山5-12-11","lat":35.6160664,"lon":139.7022552},{"name":"荏原消防署旗の台出張所","province":"東京都","city":"品川区","address":"東京都品川区旗の台6-24-11","lat":35.60578,"lon":139.7000222},{"name":"品川税務署","province":"東京都","city":"品川区","address":"東京都品川区港区高輪3-13-22","lat":35.6296746,"lon":139.734836},{"name":"荏原税務署","province":"東京都","city":"品川区","address":"東京都品川区中延1-1-5","lat":35.613837,"lon":139.7097508},{"name":"品川自動車税事務所","province":"東京都","city":"品川区","address":"東京都品川区東大井1-12-18","lat":35.60493,"lon":139.7473986},{"name":"関東運輸局東京陸運支局","province":"東京都","city":"品川区","address":"東京都品川区東大井1-12-17","lat":35.6046993,"lon":139.7469919},{"name":"品川郵便局","province":"東京都","city":"品川区","address":"東京都品川区東大井5-23-34","lat":35.6050717,"lon":139.7361881},{"name":"大崎郵便局","province":"東京都","city":"品川区","address":"東京都品川区西五反田2-32-7","lat":35.6252595,"lon":139.7189457},{"name":"荏原郵便局","province":"東京都","city":"品川区","address":"東京都品川区西中延1-7-23","lat":35.612713,"lon":139.7073544},{"name":"水道局品川営業所","province":"東京都","city":"品川区","address":"東京都品川区西中延1-9-10","lat":35.6116016,"lon":139.7078304},{"name":"下水道局南部下水道事務所品川出張所","province":"東京都","city":"品川区","address":"東京都品川区西品川1-8-1","lat":35.6129282,"lon":139.7301521},{"name":"品川年金事務所","province":"東京都","city":"品川区","address":"東京都品川区大崎5-1-5高徳ビル","lat":35.6236396,"lon":139.7248636},{"name":"品川労働基準監督署","province":"東京都","city":"品川区","address":"東京都品川区東五反田2-6-17","lat":35.6296077,"lon":139.7190353},{"name":"東京法務局品川出張所（登記所）","province":"東京都","city":"品川区","address":"東京都品川区広町2-1-36品川区総合庁舎","lat":35.6090951,"lon":139.7302296},{"name":"五反田公証役場","province":"東京都","city":"品川区","address":"東京都品川区東五反田5-27-6","lat":35.6270162,"lon":139.7234544},{"name":"目黒公証役場","province":"東京都","city":"品川区","address":"東京都品川区上大崎2-17-5","lat":35.6355392,"lon":139.7150243},{"name":"大森公証役場","province":"東京都","city":"品川区","address":"東京都品川区南大井6-12-12","lat":35.5871233,"lon":139.7301537},{"name":"五反田駅","province":"東京都","city":"品川区","address":"東京都品川区東五反田1丁目26-2","lat":35.6260453,"lon":139.7235869},{"name":"大崎駅","province":"東京都","city":"品川区","address":"東京都品川区大崎1丁目21-4","lat":35.6190999,"lon":139.7285802},{"name":"大井町駅","province":"東京都","city":"品川区","address":"東京都品川区大井1丁目2-12","lat":35.607536,"lon":139.7349666},{"name":"西大井町駅","province":"東京都","city":"品川区","address":"東京都品川区西大井1丁目3-2","lat":35.601478,"lon":139.721434},{"name":"不動前駅","province":"東京都","city":"品川区","address":"東京都品川区西五反田5丁目12-1","lat":35.6254279,"lon":139.7132457},{"name":"武蔵小山駅","province":"東京都","city":"品川区","address":"東京都品川区小山3丁目4-8","lat":35.6206461,"lon":139.7047325},{"name":"大崎広小路駅","province":"東京都","city":"品川区","address":"東京都品川区大崎4丁目1-1","lat":35.6224256,"lon":139.722493},{"name":"荏原中延駅","province":"東京都","city":"品川区","address":"東京都品川区中延2丁目8-1","lat":35.6098891,"lon":139.7119465},{"name":"旗の台駅","province":"東京都","city":"品川区","address":"東京都品川区旗の台2丁目13-1","lat":35.604834,"lon":139.7027961},{"name":"下神明駅","province":"東京都","city":"品川区","address":"東京都品川区西品川1丁目29-6","lat":35.6087526,"lon":139.7264653},{"name":"戸越公園駅","province":"東京都","city":"品川区","address":"東京都品川区戸越5丁目10-15","lat":35.6089987,"lon":139.7184968},{"name":"東急中延駅","province":"東京都","city":"品川区","address":"東京都品川区東中延2丁目9-12","lat":35.6057842,"lon":139.7126428},{"name":"北品川駅","province":"東京都","city":"品川区","address":"東京都品川区北品川1丁目1-4","lat":35.6225433,"lon":139.7392315},{"name":"新馬場駅","province":"東京都","city":"品川区","address":"東京都品川区北品川2丁目18-1","lat":35.6170364,"lon":139.7414247},{"name":"青物横丁駅","province":"東京都","city":"品川区","address":"東京都品川区南品川3丁目1-20","lat":35.6090709,"lon":139.7431279},{"name":"鮫洲駅","province":"東京都","city":"品川区","address":"東京都品川区東大井1丁目2-20","lat":35.6051498,"lon":139.7424961},{"name":"立会川駅","province":"東京都","city":"品川区","address":"東京都品川区東大井2丁目23-1","lat":35.5986501,"lon":139.7389746},{"name":"大森海岸駅","province":"東京都","city":"品川区","address":"東京都品川区南大井3丁目32-1","lat":35.5874923,"lon":139.7352991},{"name":"戸越駅","province":"東京都","city":"品川区","address":"東京都品川区戸越3丁目4-17","lat":35.6143511,"lon":139.716256},{"name":"都営中延駅","province":"東京都","city":"品川区","address":"東京都品川区東中延2丁目9-12","lat":35.6055999,"lon":139.7135855},{"name":"天王洲アイル駅（りんかい線）","province":"東京都","city":"品川区","address":"東京都品川区東品川2-5-8","lat":35.6216148,"lon":139.7508566},{"name":"品川シーサイド駅","province":"東京都","city":"品川区","address":"東京都品川区東品川4丁目12","lat":35.6103127,"lon":139.7498309},{"name":"大井競馬場前駅","province":"東京都","city":"品川区","address":"東京都品川区勝島2丁目2","lat":35.5949348,"lon":139.7471756},{"name":"品川駅","province":"東京都","city":"港区","address":"東京都港区港南2丁目","lat":35.6287472,"lon":139.7393921},{"name":"荏原町駅","province":"東京都","city":"品川区","address":"東京都品川区中延5-2-1","lat":35.6039899,"lon":139.7076062},{"name":"西小山駅","province":"東京都","city":"品川区","address":"東京都品川区小山6-3-9","lat":35.6158275,"lon":139.6989315},{"name":"戸越銀座駅","province":"東京都","city":"品川区","address":"東京都品川区平塚2-16-1","lat":35.6158834,"lon":139.7148438},{"name":"都営浅草線五反田駅「定期券販売所」","province":"東京都","city":"品川区","address":"東京都品川区東五反田1-26-2","lat":35.626418,"lon":139.7236661},{"name":"五反田駅(東急)","province":"東京都","city":"品川区","address":"東京都品川区東五反田2-1-1","lat":35.625404,"lon":139.7242969},{"name":"目黒駅(東急)","province":"東京都","city":"品川区","address":"東京都品川区上大崎4-2-1","lat":35.633395,"lon":139.715439},{"name":"洗足駅(目黒区)(東急)","province":"東京都","city":"目黒区","address":"東京都目黒区洗足2-21-1","lat":35.60995,"lon":139.694},{"name":"大井町駅(ＪＲ)","province":"東京都","city":"品川区","address":"東京都品川区大井1-2-12","lat":35.606221,"lon":139.734833},{"name":"目黒駅(ＪＲ)","province":"東京都","city":"品川区","address":"東京都品川区上大崎2-16-9","lat":35.634114,"lon":139.715767},{"name":"都営バス「品川自動車営業所」","province":"東京都","city":"品川区","address":"東京都品川区北品川1-5-12","lat":35.623274,"lon":139.740748},{"name":"都営バス「品川自動車営業所目黒支所」","province":"東京都","city":"品川区","address":"東京都品川区上大崎3-1-2","lat":35.632837,"lon":139.716783},{"name":"東急バス「荏原営業所」","province":"東京都","city":"品川区","address":"東京都品川区二葉4-27-1","lat":35.602427,"lon":139.713326},{"name":"西大井駅(JR横須賀線)","province":"東京都","city":"品川区","address":"東京都品川区","lat":35.602127,"lon":139.7219446},{"name":"大森駅(JR京浜東北線)","province":"東京都","city":"品川区","address":"東京都品川区","lat":35.5889869,"lon":139.7281534},{"name":"天王洲アイル駅（東京モノレール）","province":"東京都","city":"品川区","address":"東京都品川区東品川2-3-8","lat":35.6231178,"lon":139.7503428},{"name":"大井警察署八潮団地交番","province":"東京都","city":"品川区","address":"東京都品川区八潮5-5-5","lat":35.5988304,"lon":139.7508339},{"name":"本所警察署","province":"東京都","city":"墨田区","address":"墨田区横川四丁目8番9号","lat":35.704847,"lon":139.815074},{"name":"向島警察署","province":"東京都","city":"墨田区","address":"墨田区文花三丁目18番9号","lat":35.711729,"lon":139.82726},{"name":"本所消防署","province":"東京都","city":"墨田区","address":"墨田区横川四丁目6番6号","lat":35.703922,"lon":139.815226},{"name":"本所防災館","province":"東京都","city":"墨田区","address":"墨田区横川四丁目6番6号","lat":35.703922,"lon":139.815226},{"name":"向島消防署","province":"東京都","city":"墨田区","address":"墨田区東向島六丁目22番3号","lat":35.723625,"lon":139.820023},{"name":"墨田都税事務所","province":"東京都","city":"墨田区","address":"墨田区業平一丁目7番4号","lat":35.707803,"lon":139.809041},{"name":"本所税務署","province":"東京都","city":"墨田区","address":"墨田区業平一丁目7番2号","lat":35.707541,"lon":139.809207},{"name":"向島税務署","province":"東京都","city":"墨田区","address":"墨田区東向島二丁目7番14号","lat":35.716957,"lon":139.815593},{"name":"水道局墨田営業所","province":"東京都","city":"墨田区","address":"墨田区千歳二丁目2番11号","lat":35.69051,"lon":139.795701},{"name":"下水道局東部第一下水道事務所墨田出張所","province":"東京都","city":"墨田区","address":"墨田区横網一丁目4番12号","lat":35.69702,"lon":139.795017},{"name":"向島郵便局","province":"東京都","city":"墨田区","address":"墨田区東向島二丁目32番25号","lat":35.719767,"lon":139.817301},{"name":"本所郵便局","province":"東京都","city":"墨田区","address":"墨田区太平四丁目21番2号","lat":35.702642,"lon":139.817771},{"name":"東京法務局墨田出張所","province":"東京都","city":"墨田区","address":"墨田区菊川一丁目17番13号","lat":35.68987,"lon":139.801716},{"name":"東京簡易裁判所墨田庁舎","province":"東京都","city":"墨田区","address":"墨田区錦糸四丁目16番7号","lat":35.698318,"lon":139.818312},{"name":"東京区検察庁墨田分室","province":"東京都","city":"墨田区","address":"墨田区錦糸四丁目16番7号","lat":35.698318,"lon":139.818312},{"name":"警視庁交通執行課墨田分室","province":"東京都","city":"墨田区","address":"墨田区錦糸四丁目16番7号","lat":35.698318,"lon":139.818312},{"name":"錦糸町公証役場","province":"東京都","city":"墨田区","address":"墨田区江東橋三丁目9番7号","lat":35.695082,"lon":139.813206},{"name":"向島公証役場","province":"東京都","city":"墨田区","address":"墨田区東向島六丁目1番3号","lat":35.722318,"lon":139.818681},{"name":"東京都第五建設事務所墨田工区","province":"東京都","city":"墨田区","address":"墨田区堤通一丁目16番4号","lat":35.725814,"lon":139.810888},{"name":"墨田年金事務所","province":"東京都","city":"墨田区","address":"墨田区立川三丁目8番12号","lat":35.691042,"lon":139.804712},{"name":"一般財団法人墨田まちづくり公社","province":"東京都","city":"墨田区","address":"墨田区東向島二丁目36番10号","lat":35.721369,"lon":139.817609},{"name":"一般財団法人墨田まちづくり公社京島事務所","province":"東京都","city":"墨田区","address":"墨田区京島二丁目15番5号","lat":35.713242,"lon":139.821051},{"name":"一般財団法人墨田まちづくり公社鐘ヶ淵事務所","province":"東京都","city":"墨田区","address":"墨田区墨田三丁目40番3号","lat":35.730741,"lon":139.822325},{"name":"社会福祉法人墨田区社会福祉事業団","province":"東京都","city":"墨田区","address":"墨田区向島三丁目36番7号","lat":35.71338,"lon":139.810876},{"name":"一般社団法人墨田区観光協会","province":"東京都","city":"墨田区","address":"墨田区押上一丁目1番2号東京スカイツリータウン・ソラマチ5階まち処内","lat":35.710434,"lon":139.812014},{"name":"公益財団法人墨田区文化振興財団","province":"東京都","city":"墨田区","address":"墨田区錦糸一丁目2番3号","lat":35.697304,"lon":139.810052},{"name":"ハローワーク墨田","province":"東京都","city":"墨田区","address":"墨田区江東橋二丁目19番12号","lat":35.696235,"lon":139.811413},{"name":"向島労働基準監督署","province":"東京都","city":"墨田区","address":"墨田区東向島四丁目33番13号","lat":35.725511,"lon":139.818772},{"name":"独立行政法人高齢・障害・求職者雇用支援機構東京支部","province":"東京都","city":"墨田区","address":"墨田区江東橋二丁目19番12号","lat":35.696235,"lon":139.811413},{"name":"公益社団法人墨田区シルバー人材センター","province":"東京都","city":"墨田区","address":"墨田区文花一丁目32番1号101","lat":35.708509,"lon":139.824936},{"name":"墨田区シルバー人材センター向島作業所","province":"東京都","city":"墨田区","address":"墨田区東向島一丁目17番11号","lat":35.720828,"lon":139.815445},{"name":"墨田区シルバー人材センター緑作業所","province":"東京都","city":"墨田区","address":"墨田区緑四丁目35番6号","lat":35.695825,"lon":139.807408},{"name":"公益社団法人墨田区勤労者福祉サービスセンター","province":"東京都","city":"墨田区","address":"墨田区押上二丁目12番7号215号室","lat":35.712706,"lon":139.811982},{"name":"国際ファッションセンター株式会社","province":"東京都","city":"墨田区","address":"墨田区横網一丁目6番1号","lat":35.698175,"lon":139.796902},{"name":"一般財団法人ファッション産業人材育成機構","province":"東京都","city":"墨田区","address":"墨田区横網一丁目6番1号KFCビル11階","lat":35.698175,"lon":139.796902},{"name":"東京都立皮革技術センター","province":"東京都","city":"墨田区","address":"墨田区東墨田三丁目3番14号","lat":35.720127,"lon":139.83351},{"name":"東京都立産業技術研究センター墨田支所","province":"東京都","city":"墨田区","address":"墨田区横網一丁目6番1号KFCビル12階","lat":35.698175,"lon":139.796902},{"name":"東京都江東児童相談所","province":"東京都","city":"江東区","address":"江東区枝川三丁目6番9号","lat":35.658688,"lon":139.810647},{"name":"東京法務局品川出張所(登記所)","province":"東京都","city":"品川区","address":"東京都品川区広町2-1-36品川区総合庁舎","lat":35.6090951,"lon":139.7302296,"備考":"品川区広町2-1-36品川区総合庁舎1階","経度":"139.7302296","緯度":"35.6090951"},{"name":"大井町駅(JR)","province":"東京都","city":"品川区","address":"東京都品川区大井1-2-12","lat":35.606221,"lon":139.734833,"備考":"東京都品川区大井1-2-12","経度":"139.734833","緯度":"35.606221"},{"name":"目黒駅(JR)","province":"東京都","city":"品川区","address":"東京都品川区上大崎2-16-9","lat":35.634114,"lon":139.715767,"備考":"東京都品川区上大崎2-16-9","経度":"139.715767","緯度":"35.634114"},{"name":"都立城南職業能力開発センター","province":"東京都","city":"品川区","address":"東京都品川区東品川3-31-16","lat":35.6119765,"lon":139.7497704,"備考":"東品川3-31-16\n電話 3472-3411","経度":"139.7497704","緯度":"35.6119765"}]}