{"keyword":"生涯","data":[{"name":"男女平等推進プラザ","province":"","city":"","address":"西浅草3丁目25番16号","lat":35.7173742,"lon":139.7897736},{"name":"少年自然の家霧ヶ峰学園","province":"長野県","city":"諏訪市","address":"長野県諏訪市大字上諏訪字角間沢東13338番地100","lat":36.09989085,"lon":138.1643393},{"name":"教育支援館","province":"","city":"","address":"西浅草3丁目25番16号","lat":35.7173142,"lon":139.7898335},{"name":"生涯学習センター","province":"","city":"","address":"西浅草3丁目25番16号","lat":35.71749418,"lon":139.7896536},{"name":"学習館","province":"","city":"","address":"西浅草3丁目25番16号","lat":35.71743419,"lon":139.7897136},{"name":"小島社会教育館（休館中）","province":"","city":"","address":"小島1丁目5番2号","lat":35.70399534,"lon":139.781635},{"name":"社会教育センター","province":"","city":"","address":"東上野6丁目16番8号","lat":35.71358444,"lon":139.7832243},{"name":"今戸社会教育館","province":"","city":"","address":"今戸2丁目26番12号","lat":35.72192514,"lon":139.8075529},{"name":"千束社会教育館","province":"","city":"","address":"浅草4丁目24番13号","lat":35.7189541,"lon":139.7939331},{"name":"根岸社会教育館","province":"","city":"","address":"根岸5丁目18番13号","lat":35.72916307,"lon":139.7905328},{"name":"ミレニアムホール","province":"","city":"","address":"西浅草3丁目25番16号","lat":35.7172351,"lon":139.7898264},{"name":"＊?生涯学習センター","province":"東京都","city":"港区","address":"港区新橋3-16-3","lat":35.665582,"lon":139.757069},{"name":"＊?青山生涯学習館","province":"東京都","city":"港区","address":"港区南青山4-18-17","lat":35.663546,"lon":139.717009},{"name":"＊?台東区生涯学習センター","province":"東京都","city":"台東区","address":"台東区西浅草3-25-16","lat":35.717295,"lon":139.789885},{"name":"＊?台東区生涯学習センター??学習館","province":"東京都","city":"台東区","address":"台東区西浅草3-25-16","lat":35.717284,"lon":139.789931},{"name":"＊?すみだ生涯学習センター（ユートリヤ）","province":"東京都","city":"墨田区","address":"墨田区東向島2-38-7","lat":35.721048,"lon":139.818446},{"name":"＊?すみだ生涯学習センター別館","province":"東京都","city":"墨田区","address":"墨田区東向島2-28-5","lat":35.719009,"lon":139.81701},{"name":"＊?荒川区立生涯学習センター","province":"東京都","city":"荒川区","address":"荒川区荒川3-49-1","lat":35.734873,"lon":139.779837},{"name":"＊?大原生涯学習センター","province":"東京都","city":"板橋区","address":"板橋区大原町5-18","lat":35.769703,"lon":139.700118},{"name":"＊?成増生涯学習センター","province":"東京都","city":"板橋区","address":"板橋区成増1-12-4","lat":35.77466,"lon":139.63277},{"name":"＊?生涯学習センター","province":"東京都","city":"練馬区","address":"練馬区豊玉北6-8-1","lat":35.734202,"lon":139.651886},{"name":"＊?生涯学習センター分館","province":"東京都","city":"練馬区","address":"練馬区高野台2-25-1","lat":35.748057,"lon":139.621158},{"name":"＊?生涯学習センター","province":"東京都","city":"足立区","address":"足立区千住5-13-5","lat":35.756577,"lon":139.802512},{"name":"＊?八王子市生涯学習センター","province":"東京都","city":"八王子市","address":"八王子市東町5-6クリエイトホール内","lat":35.658531,"lon":139.339976},{"name":"＊?八王子市生涯学習センター川口分館","province":"東京都","city":"八王子市","address":"八王子市川口町3838","lat":35.686523,"lon":139.299031},{"name":"＊?八王子市生涯学習センター南大沢分館","province":"東京都","city":"八王子市","address":"八王子市南大沢2-27","lat":35.611658,"lon":139.379434},{"name":"＊?生涯学習センター（三鷹中央防災公園・元気創造プラザ??４階）","province":"東京都","city":"三鷹市","address":"三鷹市新川6-37-1","lat":35.68173,"lon":139.561673},{"name":"＊?府中市生涯学習センター","province":"東京都","city":"府中市","address":"府中市浅間町1-7","lat":35.679002,"lon":139.49645},{"name":"＊?調布市文化会館たづくり","province":"東京都","city":"調布市","address":"調布市小島町2-33-1","lat":35.650998,"lon":139.541309},{"name":"＊?町田市生涯学習センター","province":"東京都","city":"町田市","address":"町田市原町田6-8-1","lat":35.542981,"lon":139.447266},{"name":"＊?清瀬市生涯学習センター","province":"東京都","city":"清瀬市","address":"清瀬市元町1-2-11アミューー5~7階","lat":35.772216,"lon":139.521175},{"name":"＊?東久留米市立生涯学習センター","province":"東京都","city":"東久留米市","address":"東久留米市中央町2-6-23","lat":35.755517,"lon":139.522346},{"name":"＊?生涯学習センターゆとろぎ","province":"東京都","city":"羽村市","address":"羽村市緑ヶ丘1-11-5","lat":35.763908,"lon":139.316152},{"name":"＊?瑞穂町生涯学習センター","province":"東京都","city":"西多摩郡瑞穂町","address":"瑞穂町箱根ケ崎2287","lat":35.769284,"lon":139.352739}]}