{"keyword":"堺","data":[{"name":"小山ヶ丘こもれび公園","province":"東京都","city":"町田市","address":"東京都町田市小山ヶ丘6丁目1","lat":35.607629,"lon":139.347306},{"name":"上小山田はなみずき公園","province":"東京都","city":"町田市","address":"東京都町田市上小山田町","lat":35.594908,"lon":139.400502},{"name":"武蔵岡住宅","province":"東京都","city":"町田市","address":"東京都町田市相原町","lat":35.60869495,"lon":139.2979704},{"name":"ヴィラ町田","province":"東京都","city":"町田市","address":"東京都町田市相原町4391-7","lat":35.6123723,"lon":139.2942066},{"name":"ゆくのき学園前","province":"東京都","city":"町田市","address":"東京都町田市相原町","lat":35.60951523,"lon":139.3037209},{"name":"小山ヶ丘一丁目","province":"東京都","city":"町田市","address":"東京都町田市小山ヶ丘1丁目11","lat":35.5977662,"lon":139.3867074},{"name":"小山ヶ丘小学校前","province":"東京都","city":"町田市","address":"東京都町田市小山ヶ丘5丁目37","lat":35.60574586,"lon":139.3546372},{"name":"小山観音谷戸","province":"東京都","city":"町田市","address":"東京都町田市小山町","lat":35.60180775,"lon":139.3565418},{"name":"マイライフ尾根道","province":"東京都","city":"町田市","address":"東京都町田市常盤町3547-2","lat":35.584699,"lon":139.4037226},{"name":"常盤団地","province":"東京都","city":"町田市","address":"東京都町田市常盤町","lat":35.59195119,"lon":139.3937162},{"name":"馬場児童公園前","province":"東京都","city":"町田市","address":"東京都町田市小山町","lat":35.59046928,"lon":139.3876037},{"name":"小山小学校前","province":"東京都","city":"町田市","address":"東京都町田市小山町","lat":35.59321258,"lon":139.3778703},{"name":"小山中央小学校前","province":"東京都","city":"町田市","address":"東京都町田市小山ヶ丘3丁目7","lat":35.60220925,"lon":139.372516},{"name":"町田荘","province":"東京都","city":"町田市","address":"東京都町田市図師町","lat":35.58976228,"lon":139.4353341},{"name":"都営八幡平","province":"東京都","city":"町田市","address":"東京都町田市下小山田町","lat":35.58359464,"lon":139.4086134},{"name":"福音会","province":"東京都","city":"町田市","address":"東京都町田市野津田町","lat":35.58752755,"lon":139.435021},{"name":"矢部八幡","province":"東京都","city":"町田市","address":"東京都町田市矢部町","lat":35.57865989,"lon":139.4051454},{"name":"小山白山公園","province":"東京都","city":"町田市","address":"東京都町田市小山ヶ丘5丁目4","lat":35.60278994,"lon":139.3638869},{"name":"小山田桜台","province":"東京都","city":"町田市","address":"東京都町田市小山田桜台1丁目20","lat":35.58997139,"lon":139.4024037},{"name":"鶴川さくら病院前","province":"東京都","city":"町田市","address":"東京都町田市小野路町","lat":35.59597492,"lon":139.4457946},{"name":"山崎第二スポーツ広場","province":"東京都","city":"町田市","address":"東京都町田市山崎町","lat":35.58211024,"lon":139.4345436},{"name":"シーアイハイツ町田","province":"東京都","city":"町田市","address":"東京都町田市山崎町","lat":35.57710112,"lon":139.4369711}]}