{"keyword":"認可","data":[{"name":"あい保育園東神田","province":"東京都","city":"千代田区","address":"千代田区東神田2-6-5東神田ビル2・3階","lat":35.69564,"lon":139.78027},{"name":"AIAI NURSERY 三番町","province":"東京都","city":"千代田区","address":"千代田区三番町14-6","lat":35.6905,"lon":139.74158},{"name":"麹町保育園","province":"東京都","city":"千代田区","address":"千代田区一番町4","lat":35.68758,"lon":139.74217},{"name":"あい保育園日本橋","province":"東京都","city":"中央区","address":"中央区日本橋富沢町9-10稲村ビル1階","lat":35.6892,"lon":139.78236},{"name":"AIAI NURSERY 日本橋浜町","province":"東京都","city":"中央区","address":"中央区日本橋浜町1-9-12日本橋プラヤビル2階","lat":35.6903,"lon":139.7877},{"name":"あい保育園水天宮","province":"東京都","city":"中央区","address":"中央区日本橋蛎殻町1-29-9ネオテック水天宮ビル1・2階","lat":35.68326,"lon":139.78365},{"name":"THREE　STAR　NURSERY蛎殻町園","province":"東京都","city":"中央区","address":"中央区日本橋蛎殻町2-15-5水天宮CPビル1~4F","lat":35.68425,"lon":139.78699},{"name":"あい保育園新川","province":"東京都","city":"中央区","address":"中央区新川1-26-9新川イワデビル1.2階","lat":35.67604,"lon":139.78358},{"name":"汐留サーノ保育園","province":"東京都","city":"港区","address":"港区浜松町一丁目1番11号","lat":35.66024098,"lon":139.7553959},{"name":"AIAI NURSERY麻布十番","province":"東京都","city":"港区","address":"港区東麻布二丁目32番7号麻布アコービル2階","lat":35.6559,"lon":139.7402},{"name":"あい保育園元麻布","province":"東京都","city":"港区","address":"港区元麻布三丁目2番19号MOMON六本木ビル2階","lat":35.65738,"lon":139.72783},{"name":"あい保育園南麻布","province":"東京都","city":"港区","address":"港区南麻布二丁目11番10号OJビル3階","lat":35.64766,"lon":139.73599},{"name":"あい保育園青山一丁目","province":"東京都","city":"港区","address":"港区南青山一丁目3番1号パークアクシス青山一丁目タワー2階","lat":35.67149,"lon":139.72536},{"name":"あい保育園白金台","province":"東京都","city":"港区","address":"港区白金台3-13-18","lat":35.63581,"lon":139.72485},{"name":"あい保育園赤羽橋","province":"東京都","city":"港区","address":"港区三田一丁目3番31号Forecast三田2階","lat":35.6546,"lon":139.74344},{"name":"台場保育園","province":"東京都","city":"港区","address":"港区台場一丁目5番1号","lat":35.63018,"lon":139.77794},{"name":"あい保育園西新宿","province":"東京都","city":"新宿区","address":"新宿区西新宿6-11-3Dタワー西新宿2F","lat":35.69478,"lon":139.68979},{"name":"ルーチェ保育園西新宿","province":"東京都","city":"新宿区","address":"新宿区西新宿7-18-1TOMOEビル2F","lat":35.69614,"lon":139.69653},{"name":"あい保育園落合","province":"東京都","city":"新宿区","address":"新宿区上落合1-5-2羽場ビル","lat":35.71143,"lon":139.69115},{"name":"大空と大地のなーさりぃ茗荷谷園","province":"東京都","city":"文京区","address":"文京区大塚3丁目27番1号","lat":35.72286409,"lon":139.7359083},{"name":"AIAI NURSERY 新大塚","province":"東京都","city":"文京区","address":"文京区大塚6丁目23番9号","lat":35.72403,"lon":139.7258},{"name":"八千代保育園（休園中）","province":"東京都","city":"文京区","address":"文京区音羽1-19-18","lat":35.71568,"lon":139.72856},{"name":"慈愛会保育園","province":"東京都","city":"文京区","address":"文京区本郷6-12-5","lat":35.71312,"lon":139.757},{"name":"こころおちゃのみず第一保育園","province":"東京都","city":"文京区","address":"文京区湯島1丁目10番5号湯島D&Aビル1階","lat":35.70279933,"lon":139.7655},{"name":"チェリッシュ上野の森保育園","province":"東京都","city":"台東区","address":"台東区上野桜木2-1-3","lat":35.72374,"lon":139.77533},{"name":"AIAI NURSERY 入谷","province":"東京都","city":"台東区","address":"台東区竜泉1-19-7K・Kビル1~2階","lat":35.72347,"lon":139.78966},{"name":"AIAI NURSERY 浅草","province":"東京都","city":"台東区","address":"台東区駒形1-7-11東武浅草駒形1~2階","lat":35.70771,"lon":139.79497},{"name":"AIAI NURSERY 石原","province":"東京都","city":"墨田区","address":"墨田区石原4-37-4","lat":35.70196,"lon":139.8053},{"name":"墨田わんぱく保育園","province":"東京都","city":"墨田区","address":"墨田区亀沢3-24-1","lat":35.69862,"lon":139.80426},{"name":"AIAI NURSERY 錦糸町","province":"東京都","city":"墨田区","address":"墨田区亀沢4-5-4","lat":35.69693,"lon":139.80852},{"name":"アソシエ住吉扇橋","province":"東京都","city":"江東区","address":"江東区扇橋3-5-2","lat":35.68236,"lon":139.81961},{"name":"もんなかほうゆう","province":"東京都","city":"江東区","address":"江東区冬木11-17","lat":35.67359,"lon":139.80013},{"name":"江東区辰巳第二保育園","province":"東京都","city":"江東区","address":"江東区辰巳1-10-65-101","lat":35.64898,"lon":139.81},{"name":"あい保育園豊洲","province":"東京都","city":"江東区","address":"江東区豊洲5-6-521階","lat":35.65074,"lon":139.79779},{"name":"小学館アカデミーしんとよす","province":"東京都","city":"江東区","address":"江東区豊洲6-2-10","lat":35.64788,"lon":139.79082},{"name":"京進のほいくえん　ビーフェアおおじまタウン","province":"東京都","city":"江東区","address":"江東区大島5-30-12","lat":35.68789,"lon":139.83496},{"name":"大井保育園","province":"東京都","city":"品川区","address":"品川区東大井6-14-16","lat":35.60114,"lon":139.73528},{"name":"AIAI NURSERY 大崎","province":"東京都","city":"品川区","address":"品川区大崎2-1-1ThinkParkPlaza1階","lat":35.61837,"lon":139.72736},{"name":"三ツ木保育園","province":"東京都","city":"品川区","address":"品川区豊町2-1-30","lat":35.61019,"lon":139.72151},{"name":"日本音楽学校保育園","province":"東京都","city":"品川区","address":"品川区豊町2-16-12","lat":35.61028,"lon":139.72488},{"name":"あい保育園東が丘","province":"東京都","city":"目黒区","address":"目黒区東が丘1-17-24","lat":35.62707,"lon":139.66925},{"name":"ＡＩＡＩ ＮＵＲＳＥＲＹ 祐天寺","province":"東京都","city":"目黒区","address":"目黒区五本木1-26-2","lat":35.63757,"lon":139.68823},{"name":"あい保育園大森西","province":"東京都","city":"大田区","address":"大田区大森西4-11-5コンフォリア1階","lat":35.57291,"lon":139.72426},{"name":"Gakkenほいくえん 馬込","province":"東京都","city":"大田区","address":"大田区北馬込2-30-2","lat":35.59617,"lon":139.71161},{"name":"AIAI NURSERY 大森","province":"東京都","city":"大田区","address":"大田区山王1-26-4","lat":35.59206,"lon":139.72569},{"name":"簡野学園ふぞく仲六郷保育園","province":"東京都","city":"大田区","address":"大田区本羽田一丁目4番1号","lat":35.54952,"lon":139.72798},{"name":"大森南保育園","province":"東京都","city":"大田区","address":"大田区4-14-5","lat":35.56126,"lon":139.71599},{"name":"蒲田音楽学園第Ⅱ保育園","province":"東京都","city":"大田区","address":"大田区西蒲田4-11-5","lat":35.56955,"lon":139.71233},{"name":"新蒲田保育園","province":"東京都","city":"大田区","address":"大田区新蒲田1-18-16","lat":35.55513,"lon":139.70851},{"name":"キッズラボ千束こどもの家北千束園","province":"東京都","city":"大田区","address":"大田区北千束2-15-10","lat":35.60581,"lon":139.69324},{"name":"わらべうた桜新町保育園","province":"東京都","city":"世田谷区","address":"世田谷区桜新町1-1-6","lat":35.62799022,"lon":139.6454453},{"name":"さくらしんまち保育園","province":"東京都","city":"世田谷区","address":"世田谷区桜新町2-29-3","lat":35.63235612,"lon":139.6390324},{"name":"松原保育園","province":"東京都","city":"世田谷区","address":"世田谷区代田3-27-20","lat":35.65531727,"lon":139.6584602},{"name":"すこやか園","province":"東京都","city":"世田谷区","address":"世田谷区船橋1-30-9","lat":35.64822338,"lon":139.6208535},{"name":"にじいろ保育園給田","province":"東京都","city":"世田谷区","address":"世田谷区給田4-1-8","lat":35.66856482,"lon":139.5928061},{"name":"ChaCha Children Soshigayakoen","province":"東京都","city":"世田谷区","address":"世田谷区上祖師谷3-10-3","lat":35.65429,"lon":139.60005},{"name":"生活クラブ保育園ぽむ・砧","province":"東京都","city":"世田谷区","address":"世田谷区砧4-38-4グランドテラス1階","lat":35.64427459,"lon":139.6147257},{"name":"Gakkenほいくえん　砧","province":"東京都","city":"世田谷区","address":"世田谷区砧5-20-14","lat":35.63951,"lon":139.60985},{"name":"Gakkenほいくえん　等々力","province":"東京都","city":"世田谷区","address":"世田谷区等々力4-2-12","lat":35.60778,"lon":139.65192},{"name":"ChaCha Children Todoroki","province":"東京都","city":"世田谷区","address":"世田谷区等々力7-7-9","lat":35.61155,"lon":139.65274},{"name":"ＲＩＳＳＨＯ　ＫＩＤ’Ｓ　きらり　岡本","province":"東京都","city":"世田谷区","address":"世田谷区玉川4-11-2","lat":35.6171103,"lon":139.625431},{"name":"ChaCha Children Daikanyama","province":"東京都","city":"渋谷区","address":"渋谷区恵比寿西2-13-5","lat":35.65088,"lon":139.70628},{"name":"AIAI　NURSERY　初台本町","province":"東京都","city":"渋谷区","address":"渋谷区本町2-6-32階","lat":35.68312,"lon":139.68343},{"name":"AIAI NURSERY 中野坂上","province":"東京都","city":"中野区","address":"中野区中央2-2-3","lat":35.69766,"lon":139.68187},{"name":"コンビプラザ弥生町保育園","province":"東京都","city":"中野区","address":"中野区弥生町2-41-2","lat":35.69180505,"lon":139.6727677},{"name":"中野みなみ保育園","province":"東京都","city":"中野区","address":"中野区南台5-29-9","lat":35.68157,"lon":139.66032},{"name":"七海保育園","province":"東京都","city":"中野区","address":"中野区大和町4-12-10","lat":35.71541,"lon":139.64725},{"name":"京進のほいくえんビーフェア阿佐谷南","province":"東京都","city":"杉並区","address":"杉並区阿佐谷南1-9-81階","lat":35.69911,"lon":139.63843},{"name":"成田保育園","province":"東京都","city":"杉並区","address":"杉並区成田東2-16-5","lat":35.68923,"lon":139.63403},{"name":"Ａｇａｐｅ井草保育園","province":"東京都","city":"杉並区","address":"杉並区井草1-31-9","lat":35.72699,"lon":139.6223},{"name":"あい保育園下井草","province":"東京都","city":"杉並区","address":"杉並区下井草3-13-5","lat":35.71944,"lon":139.62474},{"name":"Gakken ほいくえん　桃井","province":"東京都","city":"杉並区","address":"杉並区桃井4-7-17","lat":35.71438,"lon":139.60028},{"name":"ベネッセ 西荻窪保育園","province":"東京都","city":"杉並区","address":"杉並区西荻北1-5-7","lat":35.70457,"lon":139.60562},{"name":"AIAI NURSERY　荻窪","province":"東京都","city":"杉並区","address":"杉並区荻窪5-15-21トライアード2階","lat":35.70366,"lon":139.61659},{"name":"AIAI NURSERY　西荻窪","province":"東京都","city":"杉並区","address":"杉並区松庵3-15-3","lat":35.70126,"lon":139.59386},{"name":"大宮保育園","province":"東京都","city":"杉並区","address":"杉並区永福3-51-17","lat":35.67857,"lon":139.63792},{"name":"Gakken ほいくえん　浜田山","province":"東京都","city":"杉並区","address":"杉並区浜田山3-18-8ケイワンビル1階","lat":35.68251,"lon":139.63042},{"name":"久我山東保育園","province":"東京都","city":"杉並区","address":"杉並区久我山5-24-19","lat":35.68682,"lon":139.60718},{"name":"あい保育園久我山","province":"東京都","city":"杉並区","address":"杉並区久我山5-28-13","lat":35.68851,"lon":139.6062},{"name":"豊島区立東池袋第一保育園","province":"東京都","city":"豊島区","address":"豊島区東池袋2-60-19","lat":35.73359,"lon":139.7177},{"name":"AIAI NURSERY 第一東池袋","province":"東京都","city":"豊島区","address":"豊島区東池袋3-22-17東池袋セントラルプレイス1階","lat":35.73102,"lon":139.72078},{"name":"AIAI NURSERY 第二東池袋","province":"東京都","city":"豊島区","address":"豊島区東池袋四丁目2番1-201号プラウドタワー東池袋ステーションアリーナ","lat":35.7256,"lon":139.72032},{"name":"AIAI NURSERY 要町","province":"東京都","city":"豊島区","address":"豊島区要町1-8-112階","lat":35.7338,"lon":139.6955},{"name":"あい保育園王子","province":"東京都","city":"北区","address":"北区王子1-27-8","lat":35.75546,"lon":139.74046},{"name":"Gakkenほいくえん 田端","province":"東京都","city":"北区","address":"北区田端1-12-17","lat":35.73376,"lon":139.75951},{"name":"清水坂つぼみ保育園","province":"東京都","city":"北区","address":"北区中十条4-16-27","lat":35.76979,"lon":139.72247},{"name":"ピノキオ幼児舎南千住保育園","province":"東京都","city":"荒川区","address":"荒川区南千住8-4-5けやき通り北参番館204","lat":35.73752,"lon":139.80653},{"name":"AIAI　NURSERY　新三河島","province":"東京都","city":"荒川区","address":"荒川区東尾久1-1-4小澤ビル3階4階","lat":35.73801,"lon":139.77281},{"name":"西尾久保育園","province":"東京都","city":"荒川区","address":"荒川区東尾久8-45-24","lat":35.75112,"lon":139.76639},{"name":"AIAI　NURSERY　西日暮里一丁目","province":"東京都","city":"荒川区","address":"荒川区西日暮里1-1-1パレス石川2階","lat":35.73687,"lon":139.77606},{"name":"Gakkenほいくえん志村坂上","province":"東京都","city":"板橋区","address":"板橋区小豆沢2-21-12","lat":35.77706,"lon":139.69826},{"name":"貫井第二保育園","province":"東京都","city":"練馬区","address":"練馬区貫井4-13-4","lat":35.74229,"lon":139.62772},{"name":"あい保育園高野台","province":"東京都","city":"練馬区","address":"練馬区高野台2-9-9","lat":35.74586,"lon":139.62054},{"name":"富士見台こぶし保育園","province":"東京都","city":"練馬区","address":"練馬区富士見台3-10-1","lat":35.73643,"lon":139.62506},{"name":"ChaCha Children Musashiseki","province":"東京都","city":"練馬区","address":"練馬区関町東2-9-11","lat":35.72844,"lon":139.58017},{"name":"大泉学園保育園","province":"東京都","city":"練馬区","address":"練馬区大泉学園町8-9-5","lat":35.77134,"lon":139.59509},{"name":"ChaCha Children Oizumi","province":"東京都","city":"練馬区","address":"練馬区西大泉5-30-13","lat":35.75895,"lon":139.56694},{"name":"ビーフェア東和親水保育園","province":"東京都","city":"足立区","address":"足立区東和2-26-9","lat":35.77027,"lon":139.84279},{"name":"AIAI NURSERY 綾瀬六丁目","province":"東京都","city":"足立区","address":"足立区綾瀬6-7-13","lat":35.7706,"lon":139.82414},{"name":"AIAI NURSERY 北綾瀬","province":"東京都","city":"足立区","address":"足立区谷中4-12-7","lat":35.77843,"lon":139.83263},{"name":"あい保育園千住大橋","province":"東京都","city":"足立区","address":"足立区千住河原町6-12","lat":35.74475,"lon":139.79579},{"name":"AIAI NURSERY 高野","province":"東京都","city":"足立区","address":"足立区扇2-27-3","lat":35.76659,"lon":139.77036},{"name":"西亀有保育園","province":"東京都","city":"葛飾区","address":"葛飾区西亀有1-18-6","lat":35.75827,"lon":139.83905},{"name":"京進のほいくえんビーフェア堀切菖蒲園","province":"東京都","city":"葛飾区","address":"葛飾区堀切4‐49‐6","lat":35.74774,"lon":139.82436},{"name":"そあ保育園","province":"東京都","city":"葛飾区","address":"葛飾区水元3-13-20","lat":35.7826,"lon":139.86394},{"name":"京進のほいくえんビーフェア京成小岩駅","province":"東京都","city":"葛飾区","address":"葛飾区鎌倉1‐4‐15","lat":35.74273,"lon":139.87573},{"name":"AIAI NURSERY 高砂","province":"東京都","city":"葛飾区","address":"葛飾区高砂2-31-5","lat":35.74712,"lon":139.86676},{"name":"Gakkenほいくえん瑞江","province":"東京都","city":"江戸川区","address":"江戸川区瑞江1-28-9","lat":35.69963,"lon":139.89767},{"name":"松島おひさま保育園","province":"東京都","city":"江戸川区","address":"江戸川区松島2-30-17","lat":35.7081936,"lon":139.8637662},{"name":"クオリスキッズ南小岩保育園","province":"東京都","city":"江戸川区","address":"江戸川区南小岩5-16-13","lat":35.72734913,"lon":139.8809376},{"name":"キッズガーデン南小岩","province":"東京都","city":"江戸川区","address":"江戸川区南小岩6-31-10-3F","lat":35.73237902,"lon":139.8812353},{"name":"AIAI NURSERY 西小岩","province":"東京都","city":"江戸川区","address":"江戸川区西小岩2-10-7","lat":35.7341,"lon":139.87421},{"name":"Gakkenほいくえん篠崎","province":"東京都","city":"江戸川区","address":"江戸川区鹿骨2-29-10","lat":35.70554,"lon":139.89508},{"name":"中葛西おひさま保育園","province":"東京都","city":"江戸川区","address":"江戸川区中葛西6-17-15","lat":35.66058756,"lon":139.8682446},{"name":"AIAI NURSERY 東葛西","province":"東京都","city":"江戸川区","address":"江戸川区東葛西7-20-15","lat":35.65788,"lon":139.87724},{"name":"光明第七保育園","province":"東京都","city":"八王子市","address":"八王子市宮下町354","lat":35.70843,"lon":139.31017},{"name":"光明第八保育園","province":"東京都","city":"八王子市","address":"八王子市上柚木3-13-2","lat":35.61348,"lon":139.3689},{"name":"光明第三保育園","province":"東京都","city":"八王子市","address":"八王子市楢原町971","lat":35.68226,"lon":139.31018},{"name":"光明第四保育園","province":"東京都","city":"八王子市","address":"八王子市横川町603","lat":35.66293,"lon":139.30379},{"name":"館ケ丘保育園","province":"東京都","city":"八王子市","address":"八王子市館町1097","lat":35.62996,"lon":139.28412},{"name":"マミー吉祥寺東保育園","province":"東京都","city":"武蔵野市","address":"武蔵野市吉祥寺東町3-1-2","lat":35.70466,"lon":139.58682},{"name":"キッズいながき保育園吉祥寺","province":"東京都","city":"武蔵野市","address":"武蔵野市吉祥寺南町5-3-9","lat":35.70364693,"lon":139.5907649},{"name":"むくむくみらい保育園","province":"東京都","city":"武蔵野市","address":"武蔵野市中町2-5-9","lat":35.70853019,"lon":139.5620033},{"name":"ビーフェア北野けやきの里","province":"東京都","city":"三鷹市","address":"三鷹市北野4-8-25","lat":35.67241,"lon":139.58315},{"name":"ココファン・ナーサリー三鷹","province":"東京都","city":"三鷹市","address":"三鷹市上連雀1-5-12","lat":35.70336,"lon":139.55737},{"name":"青梅ゆりかご保育園","province":"東京都","city":"青梅市","address":"青梅市師岡町3-10-5","lat":35.7913,"lon":139.28293},{"name":"青梅ゆりかご第二保育園","province":"東京都","city":"青梅市","address":"青梅市東青梅5-22-2","lat":35.79052,"lon":139.27948},{"name":"四谷保育所","province":"東京都","city":"府中市","address":"府中市四谷5-3-1","lat":35.66475,"lon":139.44295},{"name":"美好保育所","province":"東京都","city":"府中市","address":"府中市美好町2-4","lat":35.67918063,"lon":139.4661707},{"name":"のぞみ保育園","province":"東京都","city":"昭島市","address":"昭島市松原町5-7-17","lat":35.71848,"lon":139.34224},{"name":"昭島ナオミ保育園","province":"東京都","city":"昭島市","address":"昭島市玉川町1-10-4","lat":35.70533,"lon":139.38281},{"name":"Gakkenほいくえん国領","province":"東京都","city":"調布市","address":"調布市国領町7-17-3","lat":35.64498,"lon":139.55867},{"name":"ココファン・ナーサリー東小金井","province":"東京都","city":"小金井市","address":"小金井市緑町1-2-39","lat":35.70198,"lon":139.5199},{"name":"Gakkenほいくえん花小金井","province":"東京都","city":"小平市","address":"小平市花小金井3-1-21-1","lat":35.73568,"lon":139.51393},{"name":"福生本町保育園","province":"東京都","city":"福生市","address":"福生市大字福生2143番地11","lat":35.74321,"lon":139.33192},{"name":"大和南保育園","province":"東京都","city":"東大和市","address":"東大和市清原3-1","lat":35.74162,"lon":139.44804},{"name":"清瀬駅前乳児保育園","province":"東京都","city":"清瀬市","address":"清瀬市元町1-4-17","lat":35.77325,"lon":139.52049},{"name":"育成会ひまわり保育園","province":"東京都","city":"武蔵村山市","address":"武蔵村山市大南3-71-1","lat":35.73524,"lon":139.40349},{"name":"みどり保育園","province":"東京都","city":"西東京市","address":"西東京市緑町2-15-12","lat":35.74203,"lon":139.53615},{"name":"ＴＨＲＥＥ　　ＳＴＡＲ　ＮＵＲＳＥＲＹ蛎殻町園","province":"東京都","city":"中央区","address":"中央区日本橋蛎殻町2-15-5水天宮CPビル1~4F","lat":35.68425,"lon":139.78699},{"name":"にじいろ保育園高田馬場南","province":"東京都","city":"新宿区","address":"新宿区大久保三丁目8番4号新宿ガーデンタワーアネックス2階","lat":35.70868,"lon":139.70309},{"name":"八千代保育園","province":"東京都","city":"文京区","address":"文京区音羽1-19-18","lat":35.71568,"lon":139.72856},{"name":"墨田区ひきふね保育園","province":"東京都","city":"墨田区","address":"墨田区八広1-1-18","lat":35.72014,"lon":139.82109},{"name":"東大井保育園","province":"東京都","city":"品川区","address":"品川区東大井3-4-4","lat":35.60338,"lon":139.73846},{"name":"品川区立五反田第二保育園","province":"東京都","city":"品川区","address":"品川区北品川五丁目3番1号","lat":35.62237,"lon":139.73167},{"name":"さくらしんまち保育園","province":"東京都","city":"世田谷区","address":"世田谷区桜新町2-29-3","lat":35.63235,"lon":139.63904},{"name":"羽根木のぞみ保育園","province":"東京都","city":"世田谷区","address":"世田谷区羽根木1-7-11","lat":35.66513,"lon":139.66048},{"name":"松原保育園","province":"東京都","city":"世田谷区","address":"世田谷区松原5-33-16","lat":35.66279,"lon":139.65013},{"name":"すこやか園","province":"東京都","city":"世田谷区","address":"世田谷区船橋1-30-9","lat":35.64836,"lon":139.62111},{"name":"にじいろ保育園給田","province":"東京都","city":"世田谷区","address":"世田谷区給田4-1-8","lat":35.66854,"lon":139.59294},{"name":"AIAI NURSERY中野坂上","province":"東京都","city":"中野区","address":"中野区中央2-2-3","lat":35.69766,"lon":139.68187},{"name":"コンビプラザ弥生町保育園","province":"東京都","city":"中野区","address":"中野区弥生町2-41-2","lat":35.69136,"lon":139.67195},{"name":"中野松が丘すきっぷ保育園３１","province":"東京都","city":"中野区","address":"中野区松が丘1-26-2","lat":35.71957,"lon":139.67067},{"name":"Ｇａｋｋｅｎほいくえん　桃井","province":"東京都","city":"杉並区","address":"杉並区桃井4-7-17","lat":35.71438,"lon":139.60028},{"name":"Ｇａｋｋｅｎほいくえん　浜田山","province":"東京都","city":"杉並区","address":"杉並区浜田山3-18-8ケイワンビル1階","lat":35.68251,"lon":139.63042},{"name":"グローバルキッズ志茂第二保育園","province":"東京都","city":"北区","address":"北区志茂3-12-3","lat":35.77708,"lon":139.73386},{"name":"AIAI NURSERY 新三河島","province":"東京都","city":"荒川区","address":"荒川区東尾久1-1-4小澤ビル3階4階","lat":35.73801,"lon":139.77281},{"name":"AIAI NURSERY 西日暮里一丁目","province":"東京都","city":"荒川区","address":"荒川区西日暮里1-1-1パレス石川2階","lat":35.73687,"lon":139.77606},{"name":"東日暮里わんぱく保育園","province":"東京都","city":"荒川区","address":"荒川区東日暮里3-9-10","lat":35.72863,"lon":139.78262},{"name":"Ｇａｋｋｅｎほいくえん瑞江","province":"東京都","city":"江戸川区","address":"江戸川区瑞江1-28-9","lat":35.69963,"lon":139.89767},{"name":"松島おひさま保育園","province":"東京都","city":"江戸川区","address":"江戸川区松島2-30-17","lat":35.70788,"lon":139.86301},{"name":"東小岩わんぱく保育園","province":"東京都","city":"江戸川区","address":"江戸川区東小岩1-7-4","lat":35.72197,"lon":139.89035},{"name":"クオリスキッズ南小岩保育園","province":"東京都","city":"江戸川区","address":"江戸川区南小岩5-16-13","lat":35.72661,"lon":139.88048},{"name":"篠崎わんぱく保育園","province":"東京都","city":"江戸川区","address":"江戸川区篠崎町2-19-21","lat":35.70563,"lon":139.90584},{"name":"Ｇａｋｋｅｎほいくえん篠崎","province":"東京都","city":"江戸川区","address":"江戸川区鹿骨2-29-10","lat":35.70554,"lon":139.89508},{"name":"中葛西おひさま保育園","province":"東京都","city":"江戸川区","address":"江戸川区中葛西6-17-15","lat":35.66025,"lon":139.868},{"name":"船堀わんぱく保育園","province":"東京都","city":"江戸川区","address":"江戸川区船堀5-11-15","lat":35.68097,"lon":139.87035},{"name":"幼保連携型認定こども園　まごころ保育園","province":"東京都","city":"八王子市","address":"八王子市館町1097-96","lat":35.62996,"lon":139.28412},{"name":"キッズいながき保育園吉祥寺","province":"東京都","city":"武蔵野市","address":"武蔵野市吉祥寺南町5丁目3番9号","lat":35.70284,"lon":139.59019},{"name":"むくむくみらい保育園","province":"東京都","city":"武蔵野市","address":"武蔵野市中町2-5-9","lat":35.70788,"lon":139.56203},{"name":"西府保育所","province":"東京都","city":"府中市","address":"府中市西府町3-32-12","lat":35.67768,"lon":139.45592},{"name":"あい・あい保育園　三番町園","province":"東京都","city":"千代田区","address":"千代田区三番町14-6","lat":35.6905,"lon":139.74158},{"name":"あい・あい保育園日本橋浜町園","province":"東京都","city":"中央区","address":"中央区日本橋浜町1-9-12日本橋プラヤビル2階","lat":35.6903,"lon":139.7877},{"name":"学栄ナーサリー日本橋蛎殻町保育園","province":"東京都","city":"中央区","address":"中央区日本橋蛎殻町2-15-5","lat":35.68425,"lon":139.78699},{"name":"小鳩ナーサリースクール浜離宮","province":"東京都","city":"港区","address":"港区浜松町1-3、4、5","lat":35.65979,"lon":139.75726},{"name":"あい・あい保育園麻布十番園","province":"東京都","city":"港区","address":"港区東麻布2-32-7","lat":35.6559,"lon":139.7402},{"name":"太陽の子芝浦二丁目保育園","province":"東京都","city":"港区","address":"港区芝浦2-17-9大友ビル1階","lat":35.64512,"lon":139.75261},{"name":"マリー保育園白金高輪","province":"東京都","city":"港区","address":"港区白金3-2-3","lat":35.6465,"lon":139.73122},{"name":"キッズソフィア・白山保育園","province":"東京都","city":"文京区","address":"文京区白山4-36-13","lat":35.72227,"lon":139.74788},{"name":"あい・あい保育園　新大塚園","province":"東京都","city":"文京区","address":"文京区大塚6-23-9","lat":35.72403,"lon":139.7258},{"name":"日生湯島保育園ひびき","province":"東京都","city":"文京区","address":"文京区湯島4-1-12","lat":35.70805,"lon":139.76439},{"name":"あい・あい保育園　入谷園","province":"東京都","city":"台東区","address":"台東区竜泉1-19-7K・Kビル1~2階","lat":35.72347,"lon":139.78966},{"name":"マリー保育園浅草","province":"東京都","city":"台東区","address":"台東区西浅草3-19-3","lat":35.71613,"lon":139.79114},{"name":"あい・あい保育園　浅草園","province":"東京都","city":"台東区","address":"台東区駒形1-7-11T&Tビル1~2階","lat":35.70771,"lon":139.79497},{"name":"あい・あい保育園石原園","province":"東京都","city":"墨田区","address":"墨田区石原4-37-4","lat":35.70196,"lon":139.8053},{"name":"あい・あい保育園錦糸町園","province":"東京都","city":"墨田区","address":"墨田区亀沢4-5-4","lat":35.69693,"lon":139.80852},{"name":"さゆり保育園","province":"東京都","city":"墨田区","address":"墨田区東向島6-7-8","lat":35.72155,"lon":139.82021},{"name":"日生曳舟駅前保育園ひびき","province":"東京都","city":"墨田区","address":"墨田区東向島2-42-5","lat":35.72065,"lon":139.81804},{"name":"興望館保育園","province":"東京都","city":"墨田区","address":"墨田区京島1-11-6","lat":35.71526,"lon":139.81757},{"name":"江東区豊洲保育園","province":"東京都","city":"江東区","address":"江東区豊洲4-8-12","lat":35.65593,"lon":139.79901},{"name":"シンフォニア保育園（本園）","province":"東京都","city":"江東区","address":"江東区豊洲2-5-3-101","lat":35.65802,"lon":139.79153},{"name":"日生豊洲駅前保育園ひびき","province":"東京都","city":"江東区","address":"江東区豊洲4-1-24","lat":35.65458,"lon":139.79686},{"name":"若葉インターナショナルナーサリー大島園","province":"東京都","city":"江東区","address":"江東区大島6-22-8","lat":35.69304,"lon":139.83707},{"name":"八潮北保育園","province":"東京都","city":"品川区","address":"品川区八潮5-1-3","lat":35.59703,"lon":139.75186},{"name":"ひろまち保育園","province":"東京都","city":"品川区","address":"品川区広町2-1-18","lat":35.6083,"lon":139.73096},{"name":"しなおおコスモ保育園","province":"東京都","city":"品川区","address":"品川区大井1-31-1シティタワー大井町1階","lat":35.60583,"lon":139.73064},{"name":"ココファン・ナーサリー大崎","province":"東京都","city":"品川区","address":"品川区大崎3-6-32","lat":35.6199,"lon":139.72702},{"name":"南ゆたか保育園","province":"東京都","city":"品川区","address":"品川区豊町3-5-31","lat":35.60881,"lon":139.72163},{"name":"大井町のぞみ保育園","province":"東京都","city":"品川区","address":"品川区二葉1-12-18","lat":35.60663,"lon":139.72699},{"name":"ニチイキッズむさしこやま保育園","province":"東京都","city":"品川区","address":"品川区小山3-15-1パークシティ武蔵小山ザモール","lat":35.62044,"lon":139.7049},{"name":"さくらさくみらい碑文谷","province":"東京都","city":"目黒区","address":"目黒区碑文谷5-10-11","lat":35.62425,"lon":139.68343},{"name":"さくらさくみらい学芸大","province":"東京都","city":"目黒区","address":"目黒区鷹番3-4-17","lat":35.6273,"lon":139.68539},{"name":"さくらさくみらい鷹番","province":"東京都","city":"目黒区","address":"目黒区鷹番3-24-1","lat":35.62907,"lon":139.68135},{"name":"スクルドエンジェル保育園柿の木坂","province":"東京都","city":"目黒区","address":"目黒区柿の木坂1-33-18","lat":35.62102,"lon":139.67458},{"name":"双葉の園ひがしやま保育園","province":"東京都","city":"目黒区","address":"目黒区東山2-20-16","lat":35.64779,"lon":139.69064},{"name":"キッズハウス池尻大橋保育園","province":"東京都","city":"目黒区","address":"目黒区大橋2-3-5","lat":35.65383,"lon":139.68941},{"name":"さくらさくみらい目黒","province":"東京都","city":"目黒区","address":"目黒区目黒3-6-19","lat":35.63369,"lon":139.70625},{"name":"このえ大森北","province":"東京都","city":"大田区","address":"大田区大森北4-9-7","lat":35.58426,"lon":139.72958},{"name":"美奈見ここわ","province":"東京都","city":"大田区","address":"大田区中央1-1-7","lat":35.58269,"lon":139.71971},{"name":"グローバルキッズ　西馬込園","province":"東京都","city":"大田区","address":"大田区南馬込5-30-2","lat":35.58744,"lon":139.7068},{"name":"このえ南馬込","province":"東京都","city":"大田区","address":"大田区南馬込5-18-18","lat":35.58839,"lon":139.70868},{"name":"蒲田保育専門学校ふぞく北糀谷保育園","province":"東京都","city":"大田区","address":"大田区北糀谷1-14-10","lat":35.56289,"lon":139.73485},{"name":"蒲田保育専門学校ふぞく糀谷駅前","province":"東京都","city":"大田区","address":"大田区西糀谷4-29-16","lat":35.55468,"lon":139.72891},{"name":"蒲田保育専門学校ふぞく六郷保育園","province":"東京都","city":"大田区","address":"大田区南六郷3-10-11","lat":35.54388,"lon":139.71448},{"name":"東六郷保育園","province":"東京都","city":"大田区","address":"大田区東六郷1-13-25","lat":35.55288,"lon":139.7189},{"name":"グローバルキッズ　蒲田園","province":"東京都","city":"大田区","address":"大田区西蒲田8-20-8","lat":35.55992,"lon":139.71346},{"name":"わおわお蒲田本町","province":"東京都","city":"大田区","address":"大田区蒲田本町1-1-10","lat":35.55804,"lon":139.71494},{"name":"第三蒲田保育園","province":"東京都","city":"大田区","address":"大田区仲六郷1-49-2","lat":35.55221,"lon":139.71681},{"name":"仲六郷保育園","province":"東京都","city":"大田区","address":"大田区仲六郷1-29-10","lat":35.55333,"lon":139.71518},{"name":"グローバルキッズ雑色園","province":"東京都","city":"大田区","address":"大田区仲六郷2-43-11","lat":35.55023,"lon":139.71581},{"name":"ベネッセ　雪が谷大塚保育園","province":"東京都","city":"大田区","address":"大田区南雪谷3-11-20","lat":35.59181,"lon":139.68719},{"name":"みらいく田園調布本町","province":"東京都","city":"大田区","address":"大田区田園調布本町21-12","lat":35.58388,"lon":139.67552},{"name":"天才キッズクラブ楽学館仲池上","province":"東京都","city":"大田区","address":"大田区仲池上1-25-4","lat":35.58662,"lon":139.69696},{"name":"ケンパ池上保育園","province":"東京都","city":"大田区","address":"大田区池上4-25-9","lat":35.57484,"lon":139.70395},{"name":"アスクみなみ久が原","province":"東京都","city":"大田区","address":"大田区南久が原1-24-16","lat":35.57468,"lon":139.687},{"name":"ベビーステーション下丸子","province":"東京都","city":"大田区","address":"大田区下丸子3-9-9","lat":35.57053,"lon":139.68567},{"name":"キッズラボ矢口渡駅前園","province":"東京都","city":"大田区","address":"大田区多摩川1-7-16","lat":35.56335,"lon":139.6993},{"name":"日生上馬保育園ひびき","province":"東京都","city":"世田谷区","address":"世田谷区上馬4-31-9サニーサイド上馬1階","lat":35.63823,"lon":139.66063},{"name":"梅丘至誠保育園","province":"東京都","city":"世田谷区","address":"世田谷区梅丘1-31-36","lat":35.65648,"lon":139.65416},{"name":"茶々そしがやこうえん保育園","province":"東京都","city":"世田谷区","address":"世田谷区上祖師谷3-10-3","lat":35.65429,"lon":139.60005},{"name":"ココファン・ナーサリー砧","province":"東京都","city":"世田谷区","address":"世田谷区砧5-20-14","lat":35.63951,"lon":139.60985},{"name":"生活クラブ保育園ぽむ・砧","province":"東京都","city":"世田谷区","address":"世田谷区砧4-38-4グランドテラス1階","lat":35.64261,"lon":139.61826},{"name":"大蔵ふたば保育園","province":"東京都","city":"世田谷区","address":"世田谷区大蔵3-1-20","lat":35.634,"lon":139.60928},{"name":"ココファン・ナーサリー等々力","province":"東京都","city":"世田谷区","address":"世田谷区等々力4-2-12","lat":35.60778,"lon":139.65192},{"name":"茶々とどろき保育園","province":"東京都","city":"世田谷区","address":"世田谷区等々力7-7-9","lat":35.61155,"lon":139.65274},{"name":"あい・あい保育園初台本町園","province":"東京都","city":"渋谷区","address":"渋谷区本町2-6-3","lat":35.68312,"lon":139.68343},{"name":"もみじやま保育園","province":"東京都","city":"中野区","address":"中野区中野1-58-9","lat":35.70449,"lon":139.67328},{"name":"あさひ保育園","province":"東京都","city":"中野区","address":"中野区上高田1-45-8","lat":35.7117,"lon":139.67497},{"name":"仲町保育園","province":"東京都","city":"中野区","address":"中野区中央2-52-15","lat":35.6994,"lon":139.67627},{"name":"あい・あい保育園　中野坂上園","province":"東京都","city":"中野区","address":"中野区中央2-2-3","lat":35.69766,"lon":139.68187},{"name":"宮の台保育園","province":"東京都","city":"中野区","address":"中野区本町4-14-13","lat":35.69454,"lon":139.67267},{"name":"大和東保育園","province":"東京都","city":"中野区","address":"中野区大和町1-37-4","lat":35.71192,"lon":139.65106},{"name":"高円寺北保育園","province":"東京都","city":"杉並区","address":"杉並区高円寺北2-32-7","lat":35.70815,"lon":139.65302},{"name":"ココファン・ナーサリー桃井","province":"東京都","city":"杉並区","address":"杉並区桃井4-7-17","lat":35.71438,"lon":139.60028},{"name":"あい・あい保育園荻窪園","province":"東京都","city":"杉並区","address":"杉並区荻窪5-15-21トライアード2階","lat":35.70366,"lon":139.61659},{"name":"あい・あい保育園　西荻窪園","province":"東京都","city":"杉並区","address":"杉並区松庵3-15-3","lat":35.70126,"lon":139.59386},{"name":"日生永福町駅前保育園ひびき","province":"東京都","city":"杉並区","address":"杉並区永福2-54-8","lat":35.67597,"lon":139.64177},{"name":"ココファン・ナーサリー浜田山","province":"東京都","city":"杉並区","address":"杉並区浜田山3-18-8ケイワンビル1階","lat":35.68251,"lon":139.63042},{"name":"アウル宮前保育園","province":"東京都","city":"杉並区","address":"杉並区宮前2-11-11","lat":35.692796,"lon":139.610251},{"name":"上高井戸保育園","province":"東京都","city":"杉並区","address":"杉並区久我山1-4-15","lat":35.68256,"lon":139.59962},{"name":"Ｐｉｃｏナーサリ玉川上水公園","province":"東京都","city":"杉並区","address":"杉並区久我山1-6-12","lat":35.68336,"lon":139.59882},{"name":"豊島区立駒込第二保育園","province":"東京都","city":"豊島区","address":"豊島区駒込5-1-3","lat":35.7362,"lon":139.73834},{"name":"キッズガーデン南大塚","province":"東京都","city":"豊島区","address":"豊島区南大塚5-20-6大塚FTビル3階","lat":35.728012,"lon":139.730715},{"name":"あい・あい保育園　東池袋園","province":"東京都","city":"豊島区","address":"豊島区東池袋3-22-17東池袋セントラルプレイス1階","lat":35.73102,"lon":139.72078},{"name":"豊島区立池袋第三保育園","province":"東京都","city":"豊島区","address":"豊島区池袋3-58-15","lat":35.73514,"lon":139.7075},{"name":"あい・あい保育園　要町園","province":"東京都","city":"豊島区","address":"豊島区要町1-8-11","lat":35.7338,"lon":139.6955},{"name":"MＩＷＡたばた保育園","province":"東京都","city":"北区","address":"北区田端5-11-8","lat":35.73903,"lon":139.75623},{"name":"ココファン・ナーサリー田端","province":"東京都","city":"北区","address":"北区田端1-12-17","lat":35.73376,"lon":139.75951},{"name":"志茂保育園","province":"東京都","city":"北区","address":"北区志茂4-44-1","lat":35.77999,"lon":139.73538},{"name":"にじいろ保育園志茂","province":"東京都","city":"北区","address":"北区志茂3-41-5","lat":35.77999,"lon":139.73538},{"name":"西尾久保育園","province":"東京都","city":"荒川区","address":"荒川区西尾久5-3-17","lat":35.74855,"lon":139.76099},{"name":"小台橋保育園","province":"東京都","city":"荒川区","address":"荒川区西尾久6-9-7","lat":35.75112,"lon":139.76639},{"name":"あいあい保育園新三河島園","province":"東京都","city":"荒川区","address":"荒川区東尾久1-1-4小澤ビル3・4階","lat":35.73801,"lon":139.77281},{"name":"あい・あい保育園　西日暮里一丁目園","province":"東京都","city":"荒川区","address":"荒川区西日暮里1-1-1パレス石川2階","lat":35.73687,"lon":139.77606},{"name":"わかたけ保育園","province":"東京都","city":"板橋区","address":"板橋区仲町45-4","lat":35.7531,"lon":139.69595},{"name":"ココファン・ナーサリー志村坂上","province":"東京都","city":"板橋区","address":"板橋区小豆沢2-21-12","lat":35.77706,"lon":139.69826},{"name":"しらさぎ保育園","province":"東京都","city":"板橋区","address":"板橋区成増5-19-40","lat":35.78682,"lon":139.63248},{"name":"神の教会保育園","province":"東京都","city":"練馬区","address":"練馬区羽沢2-26-15","lat":35.74669,"lon":139.67125},{"name":"貫井第二保育園","province":"東京都","city":"練馬区","address":"練馬区貫井4-13-4","lat":35.74184,"lon":139.63165},{"name":"富士見台こぶし保育園","province":"東京都","city":"練馬区","address":"練馬区富士見台3-2-3","lat":35.73891,"lon":139.62424},{"name":"ベビーステーション石神井公園","province":"東京都","city":"練馬区","address":"練馬区石神井町2-15-4-102","lat":35.74538,"lon":139.60635},{"name":"ベビーステーション石神井第２","province":"東京都","city":"練馬区","address":"練馬区石神井町2-13-15","lat":35.74459,"lon":139.60854},{"name":"茶々むさしせき保育園","province":"東京都","city":"練馬区","address":"練馬区関町東2-9-11","lat":35.72844,"lon":139.58017},{"name":"大泉学園保育園","province":"東京都","city":"練馬区","address":"練馬区大泉学園町8-5-8","lat":35.77337,"lon":139.59219},{"name":"東大泉保育園","province":"東京都","city":"練馬区","address":"練馬区東大泉3-60-2-101","lat":35.7561,"lon":139.59047},{"name":"茶々おおいずみ保育園","province":"東京都","city":"練馬区","address":"練馬区西大泉5-30-13","lat":35.75895,"lon":139.56694},{"name":"あい・あい保育園綾瀬六丁目園","province":"東京都","city":"足立区","address":"足立区綾瀬6-7-13","lat":35.7706,"lon":139.82414},{"name":"あい・あい保育園北綾瀬園","province":"東京都","city":"足立区","address":"足立区谷中4-12-7","lat":35.77843,"lon":139.83263},{"name":"チェリッシュやなか保育園","province":"東京都","city":"足立区","address":"足立区谷中4-20-15","lat":35.78415,"lon":139.83321},{"name":"日生梅島第二保育園ひびき","province":"東京都","city":"足立区","address":"足立区梅島3-17-20","lat":35.77434,"lon":139.79507},{"name":"日生梅島保育園ひびき","province":"東京都","city":"足立区","address":"足立区梅田5-25-33ロイヤルパークス梅島1階","lat":35.76984,"lon":139.79543},{"name":"あい・あい保育園高野園","province":"東京都","city":"足立区","address":"足立区扇2-27-3","lat":35.76659,"lon":139.77036},{"name":"東立石保育園","province":"東京都","city":"葛飾区","address":"葛飾区東立石3-3-15","lat":35.73583,"lon":139.84317},{"name":"渋江保育園","province":"東京都","city":"葛飾区","address":"葛飾区東四つ木2-15-11","lat":35.7308,"lon":139.84355},{"name":"砂原保育園","province":"東京都","city":"葛飾区","address":"葛飾区西亀有4-8-19","lat":35.76472,"lon":139.83917},{"name":"西亀有保育園","province":"東京都","city":"葛飾区","address":"葛飾区西亀有3-31-9","lat":35.76076,"lon":139.84007},{"name":"金町駅前さくらんぼ保育園","province":"東京都","city":"葛飾区","address":"葛飾区金町6-4-1金町木下ビル2階","lat":35.76902,"lon":139.87135},{"name":"キッズハーモニー・かなまち","province":"東京都","city":"葛飾区","address":"葛飾区金町6-4-2ルミナス金町2階","lat":35.76902,"lon":139.87135},{"name":"南鎌倉保育園","province":"東京都","city":"葛飾区","address":"葛飾区鎌倉1-7-3","lat":35.74445,"lon":139.87607},{"name":"あい・あい保育園　高砂園","province":"東京都","city":"葛飾区","address":"葛飾区高砂2-31-5","lat":35.74712,"lon":139.86676},{"name":"ココファン・ナーサリー瑞江","province":"東京都","city":"江戸川区","address":"江戸川区瑞江1-28-9","lat":35.69963,"lon":139.89767},{"name":"若葉インターナショナルナーサリー","province":"東京都","city":"江戸川区","address":"江戸川区瑞江3-30-13","lat":35.69438,"lon":139.89709},{"name":"江戸川二丁目保育園","province":"東京都","city":"江戸川区","address":"江戸川区江戸川2-31","lat":35.68449,"lon":139.90097},{"name":"江戸川保育園","province":"東京都","city":"江戸川区","address":"江戸川区江戸川1-46","lat":35.68827,"lon":139.90305},{"name":"みどりの郷保育園","province":"東京都","city":"江戸川区","address":"江戸川区江戸川2-15-22","lat":35.68462,"lon":139.90283},{"name":"若葉インターナショナル幼保園瑞江園","province":"東京都","city":"江戸川区","address":"江戸川区東瑞江3-55-21-101","lat":35.694638,"lon":139.910515},{"name":"あい・あい保育園西小岩園","province":"東京都","city":"江戸川区","address":"江戸川区西小岩2-10-7","lat":35.70563,"lon":139.90584},{"name":"篠崎わんぱく保育園","province":"東京都","city":"江戸川区","address":"江戸川区篠崎町2-19-21","lat":35.7037,"lon":139.90273},{"name":"さくらさくみらい篠崎","province":"東京都","city":"江戸川区","address":"江戸川区篠崎町7-13-18","lat":35.70272,"lon":139.9032},{"name":"篠崎ちとせ保育園","province":"東京都","city":"江戸川区","address":"江戸川区篠崎町6-4-20","lat":35.69664,"lon":139.91451},{"name":"南篠崎おひさま保育園","province":"東京都","city":"江戸川区","address":"江戸川区南篠崎5-13-40","lat":35.694931,"lon":139.91061},{"name":"ココファン・ナーサリー篠崎","province":"東京都","city":"江戸川区","address":"江戸川区鹿骨2-29-10","lat":35.70554,"lon":139.89508},{"name":"グローバルキッズ宇喜田町園","province":"東京都","city":"江戸川区","address":"江戸川区宇喜田町1279","lat":35.674889,"lon":139.862532},{"name":"敬愛高倉保育園","province":"東京都","city":"八王子市","address":"八王子市高倉町47-2","lat":35.66639,"lon":139.36888},{"name":"誠美保育園","province":"東京都","city":"八王子市","address":"八王子市南大沢5-12","lat":35.61143,"lon":139.37079},{"name":"長房みなみ保育園","province":"東京都","city":"八王子市","address":"八王子市長房町355-4","lat":35.653923,"lon":139.296684},{"name":"由井さゆり保育園","province":"東京都","city":"八王子市","address":"八王子市片倉町2436","lat":35.64114,"lon":139.33768},{"name":"さゆりの丘保育園","province":"東京都","city":"八王子市","address":"八王子市宇津貫町945","lat":35.62589,"lon":139.33417},{"name":"みなみ野さゆり保育園","province":"東京都","city":"八王子市","address":"八王子市七国5-14-1","lat":35.62302,"lon":139.31944},{"name":"まごころ保育園","province":"東京都","city":"八王子市","address":"八王子市館町1097-96","lat":35.62996,"lon":139.28412},{"name":"森の子保育園","province":"東京都","city":"立川市","address":"立川市砂川町8-30-7","lat":35.73216,"lon":139.39951},{"name":"第二小羊チャイルドセンター","province":"東京都","city":"三鷹市","address":"三鷹市北野3-10-14","lat":35.67986,"lon":139.5807},{"name":"あかね保育園","province":"東京都","city":"三鷹市","address":"三鷹市下連雀2-18-12","lat":35.69226,"lon":139.56496},{"name":"調布市立仙川保育園","province":"東京都","city":"調布市","address":"調布市仙川町1-21-5","lat":35.66085,"lon":139.5867},{"name":"調布市立上布田保育園","province":"東京都","city":"調布市","address":"調布市調布ケ丘1-20-1","lat":35.65609,"lon":139.54594},{"name":"ココファン・ナーサリー国領","province":"東京都","city":"調布市","address":"調布市国領町7-17-3","lat":35.64498,"lon":139.55867},{"name":"調布市立ひまわり保育園","province":"東京都","city":"調布市","address":"調布市小島町2-53-5","lat":35.64981,"lon":139.54283},{"name":"まちっこ保育園","province":"東京都","city":"町田市","address":"町田市南大谷1400-1","lat":35.552225,"lon":139.453961},{"name":"草笛保育園","province":"東京都","city":"町田市","address":"町田市本町田3133-5","lat":35.57003,"lon":139.44914},{"name":"東平ひまわり保育園","province":"東京都","city":"町田市","address":"町田市広袴町543-1","lat":35.59363,"lon":139.47562},{"name":"ゆうき山保育園","province":"東京都","city":"町田市","address":"町田市金井町2938-14","lat":35.56812,"lon":139.4547},{"name":"ココファン・ナーサリー花小金井","province":"東京都","city":"小平市","address":"小平市花小金井3-1-21-1","lat":35.73568,"lon":139.51393},{"name":"よつぎ日野保育園","province":"東京都","city":"日野市","address":"日野市大字日野1367","lat":35.680186,"lon":139.404851},{"name":"あらい保育園","province":"東京都","city":"日野市","address":"日野市新井842-6","lat":35.66531,"lon":139.41447},{"name":"豊田保育園","province":"東京都","city":"日野市","address":"日野市豊田4-10-3","lat":35.658312,"lon":139.384654},{"name":"たまだいら保育園","province":"東京都","city":"日野市","address":"日野市多摩平4-4-2","lat":35.66707,"lon":139.38065},{"name":"まなびの森保育園国分寺","province":"東京都","city":"国分寺市","address":"国分寺市光町2-5-1","lat":35.7009,"lon":139.44336},{"name":"国立市立矢川保育園","province":"東京都","city":"国立市","address":"国立市谷保6800-2","lat":35.68364,"lon":139.42963},{"name":"国立あゆみ保育園","province":"東京都","city":"国立市","address":"国立市矢川3-20-24","lat":35.68162,"lon":139.430331},{"name":"国立あおいとり保育園","province":"東京都","city":"国立市","address":"国立市泉5-2-1","lat":35.6792,"lon":139.42868},{"name":"中里どろんこ保育園","province":"東京都","city":"清瀬市","address":"清瀬市中里6-23-1","lat":35.790082,"lon":139.527966},{"name":"駅前乳児保育園","province":"東京都","city":"清瀬市","address":"清瀬市元町1-4-17","lat":35.77325,"lon":139.52049},{"name":"清瀬市立乳児保育園","province":"東京都","city":"清瀬市","address":"清瀬市梅園2-9-38","lat":35.77246,"lon":139.50479},{"name":"みらい保育園","province":"東京都","city":"武蔵村山市","address":"武蔵村山市大南1-8-1","lat":35.74248,"lon":139.39426},{"name":"あおぞらぱれっと保育園","province":"東京都","city":"多摩市","address":"多摩市鶴牧1-11-10","lat":35.62288,"lon":139.41719},{"name":"稲城市立第六保育園","province":"東京都","city":"稲城市","address":"稲城市大丸82-4","lat":35.64479,"lon":139.49928},{"name":"いなぎのぞみ保育園","province":"東京都","city":"稲城市","address":"稲城市大丸593-14","lat":35.64568,"lon":139.495502},{"name":"にじいろ保育園矢野口","province":"東京都","city":"稲城市","address":"稲城市矢野口3030-1","lat":35.635925,"lon":139.508416},{"name":"稲城市立第三保育園","province":"東京都","city":"稲城市","address":"稲城市坂浜1012-2","lat":35.62013,"lon":139.48767},{"name":"稲城市立第五保育園","province":"東京都","city":"稲城市","address":"稲城市平尾4-45-2","lat":35.61173,"lon":139.48526},{"name":"よつぎ第二保育園","province":"東京都","city":"あきる野市","address":"あきる野市上代継218-1","lat":35.727583,"lon":139.279001},{"name":"sakura保育園六本木","province":"東京都","city":"港区","address":"港区六本木4-5-11","lat":35.665,"lon":139.73247},{"name":"おはよう保育園　 ののあおやま","province":"東京都","city":"港区","address":"港区北青山3-4-3","lat":35.66728,"lon":139.7123},{"name":"弁天町保育園","province":"","city":"","address":"仮園舎:〒162-0042新宿区早稲田町78新園舎:新宿区弁天町50(令和6年完成予定)","lat":35.70606,"lon":139.72235},{"name":"立川保育園","province":"東京都","city":"墨田区","address":"墨田区亀沢2-24-6(仮園舎)","lat":35.69829,"lon":139.80232},{"name":"東あずま保育園","province":"東京都","city":"墨田区","address":"墨田区立花2-32-12(仮園舎)","lat":35.70808,"lon":139.83066},{"name":"さくらさくみらい　富岡","province":"東京都","city":"江東区","address":"江東区富岡2-11-14","lat":35.67037,"lon":139.80144},{"name":"MIWAシンフォニア保育園","province":"東京都","city":"江東区","address":"江東区豊洲2-5-3-101号","lat":35.65802,"lon":139.79153},{"name":"ＭｉｌｋｙＷａｙ　Ｉｎｔｅｒｎａｔｉｏｎａｌ　Ｎｕｒｓｅｒｙ　Ｓｃｈｏｏｌ　北砂校","province":"東京都","city":"江東区","address":"江東区北砂5-1-28","lat":35.68037,"lon":139.83208},{"name":"さくらさくみらい　御殿山","province":"東京都","city":"品川区","address":"品川区北品川3-6-1","lat":35.61952,"lon":139.73944},{"name":"さくらさくみらい　武蔵小山","province":"東京都","city":"品川区","address":"品川区荏原3-1-18","lat":35.61885,"lon":139.70769},{"name":"ココファン・ナーサリー旗の台","province":"東京都","city":"品川区","address":"品川区旗の台3-3-20","lat":35.60509,"lon":139.70715},{"name":"あい・あい保育園　祐天寺園","province":"東京都","city":"目黒区","address":"目黒区五本木1-26-2","lat":35.63757,"lon":139.68823},{"name":"あい・あい保育園大森園","province":"東京都","city":"大田区","address":"大田区山王1-26-4","lat":35.59206,"lon":139.72569},{"name":"蒲田保育専門学校ふぞく東六郷保育園","province":"東京都","city":"大田区","address":"大田区東六郷1-13-25","lat":35.55288,"lon":139.7189},{"name":"にじいろ保育園給田","province":"東京都","city":"世田谷区","address":"世田谷区給田4-4-14","lat":35.66955,"lon":139.59331},{"name":"ナオミ保育園","province":"東京都","city":"世田谷区","address":"世田谷区等々力8-21-9","lat":35.61625,"lon":139.65115},{"name":"ＲＩＳＳＨＯ　ＫＩＤ’Ｓ　きらり　岡本","province":"東京都","city":"世田谷区","address":"世田谷区岡本2-33-22","lat":35.62389,"lon":139.61679},{"name":"茶々だいかんやま保育園","province":"東京都","city":"渋谷区","address":"渋谷区恵比寿西2-13-5","lat":35.65088,"lon":139.70628},{"name":"大和東保育園","province":"東京都","city":"中野区","address":"中野区若宮1-1-2(仮設)","lat":35.71608,"lon":139.64978},{"name":"うきま絆第二","province":"東京都","city":"北区","address":"北区浮間3-1-55河野ビル2階","lat":35.78671,"lon":139.70158},{"name":"成美保育園","province":"東京都","city":"板橋区","address":"板橋区成増4-28-16","lat":35.78551,"lon":139.63712},{"name":"ぶどうの木保育園","province":"東京都","city":"練馬区","address":"練馬区羽沢2-12-9","lat":35.74514,"lon":139.6714},{"name":"ベビーステーション東大泉","province":"東京都","city":"練馬区","address":"練馬区東大泉6-51-3","lat":35.74912,"lon":139.58453},{"name":"ココロラボインターナショナル平井3丁目","province":"東京都","city":"江戸川区","address":"江戸川区平井3-13-11","lat":35.70379,"lon":139.84164},{"name":"あい・あい保育園西小岩園","province":"東京都","city":"江戸川区","address":"江戸川区西小岩2-10-7","lat":35.7341,"lon":139.87421},{"name":"あい・あい保育園東葛西園","province":"東京都","city":"江戸川区","address":"江戸川区東葛西7-20-15","lat":35.65788,"lon":139.87724},{"name":"八王子隣保館保育園","province":"東京都","city":"八王子市","address":"八王子市叶谷町1133","lat":35.67188,"lon":139.30234},{"name":"中町すみれ保育園","province":"東京都","city":"武蔵野市","address":"武蔵野市中町2-5-5クロフトコテージ1階","lat":35.70788,"lon":139.56203},{"name":"二番町ちとせ保育園","province":"東京都","city":"千代田区","address":"千代田区二番町7-5","lat":35.68514,"lon":139.73497},{"name":"グローバルキッズ六番町園","province":"東京都","city":"千代田区","address":"千代田区六番町5-16","lat":35.68704,"lon":139.73384},{"name":"十思保育園","province":"東京都","city":"中央区","address":"中央区日本橋小伝馬町5-1","lat":35.69107,"lon":139.77741},{"name":"にじいろ保育園小伝馬町","province":"東京都","city":"中央区","address":"中央区日本橋小伝馬町13-7銀泉日本橋小伝馬町ビル1~4F","lat":35.691,"lon":139.77947},{"name":"人形町保育園","province":"東京都","city":"中央区","address":"中央区日本橋人形町2-14-5","lat":35.68449,"lon":139.78507},{"name":"グローバルキッズかきがら園","province":"東京都","city":"中央区","address":"中央区日本橋蛎殻町1-16-11EDGE日本橋蛎殻町1・2階","lat":35.68313,"lon":139.78267},{"name":"コビープリスクールはこざき","province":"東京都","city":"中央区","address":"中央区日本橋箱崎町17ー9箱崎升喜ビル1・2階","lat":35.68049,"lon":139.78513},{"name":"ＥＤＯ日本橋保育園","province":"東京都","city":"中央区","address":"中央区日本橋3-15-10","lat":35.67888,"lon":139.77507},{"name":"太陽の子新川保育園","province":"東京都","city":"中央区","address":"中央区新川1-24-1ユニゾ新川永代通りビル2階","lat":35.67662,"lon":139.78536},{"name":"あい保育園新川","province":"東京都","city":"中央区","address":"中央区新川1-26-9新川イワデビル1.2階","lat":35.67604,"lon":139.78359},{"name":"桜川保育園","province":"東京都","city":"中央区","address":"中央区入船1-1-13","lat":35.67357,"lon":139.77757},{"name":"保育所ま?anitize]む月島駅前園","province":"東京都","city":"中央区","address":"中央区佃2-10-9ライオンズタワー月島1F","lat":35.66609,"lon":139.78441},{"name":"太陽の子月島保育園","province":"東京都","city":"中央区","address":"中央区月島1-5-2キャピタルゲートプレイス2階","lat":35.66377,"lon":139.78331},{"name":"小学館アカデミー晴海保育園","province":"東京都","city":"中央区","address":"中央区晴海3-6-8スカイリンクタワー2F","lat":35.65558,"lon":139.77844},{"name":"アスク勝どき保育園","province":"東京都","city":"中央区","address":"中央区勝どき4-8-14","lat":35.65673,"lon":139.77564},{"name":"ほっぺるランド勝どき","province":"東京都","city":"中央区","address":"中央区勝どき3-4-4","lat":35.65895,"lon":139.77535},{"name":"グローバルキッズ虎ノ門保育園","province":"東京都","city":"港区","address":"港区虎ノ門3-19-13虎ノ門スピリットビル3階","lat":35.66276,"lon":139.74645},{"name":"小鳩ナーサリースクール浜離宮","province":"東京都","city":"港区","address":"港区浜松町1-3-1","lat":35.65957,"lon":139.75742},{"name":"sakura保育園六本木","province":"東京都","city":"港区","address":"港区六本木4-5-11","lat":35.66501,"lon":139.73247},{"name":"麻布十番ちとせ保育園","province":"東京都","city":"港区","address":"港区麻布十番1-3-2","lat":35.65682,"lon":139.73583},{"name":"にじのいるか保育園芝浦","province":"東京都","city":"港区","address":"港区芝浦2-3-31第二高取ビル2階","lat":35.64409,"lon":139.7545},{"name":"みなと保育園","province":"東京都","city":"港区","address":"港区高輪1-6-9","lat":35.6423,"lon":139.73554},{"name":"愛星保育園","province":"東京都","city":"港区","address":"港区高輪1-27-40","lat":35.63656,"lon":139.73232},{"name":"こうなん保育園","province":"東京都","city":"港区","address":"港区港南4-2-3-101","lat":35.62911,"lon":139.74774},{"name":"ゆらりんは?anitize]と保育園","province":"東京都","city":"港区","address":"港区港南1-8-23ShinagawaHEART2階","lat":35.63012,"lon":139.74399},{"name":"グローバルキッズ若葉園","province":"東京都","city":"新宿区","address":"新宿区若葉1-9","lat":35.6857,"lon":139.72582},{"name":"新宿三つの木保育園もりさんかくしかく","province":"東京都","city":"新宿区","address":"新宿区大京町29","lat":35.68197,"lon":139.71548},{"name":"保育所ま?anitize]む高田馬場駅前園","province":"東京都","city":"新宿区","address":"新宿区高田馬場3-1-5花川第2ビル1・2F","lat":35.7146,"lon":139.70346},{"name":"文京ガーデンひかり保育園","province":"東京都","city":"文京区","address":"文京区小石川1-1-7","lat":35.70878,"lon":139.75291},{"name":"小石川ちとせ保育園","province":"東京都","city":"文京区","address":"文京区小石川2-4-12","lat":35.70931,"lon":139.75041},{"name":"文京区立千石保育園","province":"東京都","city":"文京区","address":"文京区千石1-4-3","lat":35.72475,"lon":139.7432},{"name":"テンダーラビング保育園茗荷谷園","province":"東京都","city":"文京区","address":"文京区大塚4-41-12","lat":35.72206,"lon":139.73377},{"name":"保育所ま?anitize]む東大前園","province":"東京都","city":"文京区","address":"文京区向丘1-16-26","lat":35.71851,"lon":139.75633},{"name":"こころの保育園文京西片","province":"東京都","city":"文京区","address":"文京区西片2-1-1","lat":35.71396,"lon":139.75693},{"name":"キッズガーデン文京春日","province":"東京都","city":"文京区","address":"文京区西片1-17-8","lat":35.71364,"lon":139.75263},{"name":"立華学苑","province":"東京都","city":"台東区","address":"台東区谷中5-4-19","lat":35.72434,"lon":139.76677},{"name":"こどもヶ丘保育園根岸園","province":"東京都","city":"台東区","address":"台東区根岸3-1-10","lat":35.72139,"lon":139.78153},{"name":"台東区立東上野保育園","province":"東京都","city":"台東区","address":"台東区東上野2-25-12","lat":35.70953,"lon":139.78124},{"name":"ミアヘルサ保育園ひびき御徒町","province":"東京都","city":"台東区","address":"台東区東上野1-11-11","lat":35.70783,"lon":139.77826},{"name":"台東区立千束保育園","province":"東京都","city":"台東区","address":"台東区千束3-20-6","lat":35.72279,"lon":139.79273},{"name":"台東区立松が谷保育園","province":"東京都","city":"台東区","address":"台東区松が谷4-15-11","lat":35.71858,"lon":139.78609},{"name":"こひつじ保育園","province":"東京都","city":"墨田区","address":"墨田区緑2-23-3","lat":35.69581,"lon":139.80118},{"name":"たんぽぽ保育所八広園","province":"東京都","city":"墨田区","address":"墨田区八広5-20-5","lat":35.72277,"lon":139.82459},{"name":"おむらい保育園","province":"東京都","city":"墨田区","address":"墨田区文花1-32-1-103","lat":35.70822,"lon":139.82427},{"name":"江東区千田保育園","province":"東京都","city":"江東区","address":"江東区千田22番8号","lat":35.68033,"lon":139.81636},{"name":"グローバルキッズ平野園","province":"東京都","city":"江東区","address":"江東区平野1-3-10","lat":35.67754,"lon":139.8001},{"name":"ほっぺるランド東陽町","province":"東京都","city":"江東区","address":"江東区東陽2-4-452階","lat":35.66871,"lon":139.81809},{"name":"マミー保育園東陽町","province":"東京都","city":"江東区","address":"江東区東陽2-2-14","lat":35.66646,"lon":139.81603},{"name":"さくらさくみらい東陽二丁目","province":"東京都","city":"江東区","address":"江東区東陽2-4-8","lat":35.66871,"lon":139.81809},{"name":"江東区深川一丁目保育園","province":"東京都","city":"江東区","address":"江東区深川1-6-15-101","lat":35.67739,"lon":139.79648},{"name":"まこと保育園","province":"東京都","city":"江東区","address":"江東区冬木16-7","lat":35.67481,"lon":139.80154},{"name":"ＭＩＷＡ木場公園保育園","province":"東京都","city":"江東区","address":"江東区木場4-1-65","lat":35.6737,"lon":139.80826},{"name":"キッズスマイル江東塩浜","province":"東京都","city":"江東区","address":"江東区塩浜2-14-5","lat":35.66279,"lon":139.8091},{"name":"アスク豊洲保育園","province":"東京都","city":"江東区","address":"江東区豊洲3-6-81階","lat":35.65915,"lon":139.79717},{"name":"江東区亀戸第四保育園","province":"東京都","city":"江東区","address":"江東区亀戸4-21-13","lat":35.70258,"lon":139.82636},{"name":"保育園ミルキーウェイ亀戸園","province":"東京都","city":"江東区","address":"江東区亀戸7-38-121・2階","lat":35.6975,"lon":139.83931},{"name":"こころこうとう保育園","province":"東京都","city":"江東区","address":"江東区亀戸6-42-13","lat":35.69655,"lon":139.8317},{"name":"かがやき保育園","province":"東京都","city":"江東区","address":"江東区大島7-37-13","lat":35.69199,"lon":139.84197},{"name":"江東区北砂保育園","province":"東京都","city":"江東区","address":"江東区北砂1-1-4-101","lat":35.68345,"lon":139.82163},{"name":"マミー保育園東砂","province":"東京都","city":"江東区","address":"江東区東砂3-28-1","lat":35.67935,"lon":139.84432},{"name":"南砂町保育園","province":"東京都","city":"江東区","address":"江東区南砂3-10-8","lat":35.66979,"lon":139.82983},{"name":"グローバルキッズ南砂園","province":"東京都","city":"江東区","address":"江東区南砂3-14-6","lat":35.66913,"lon":139.83186},{"name":"南砂あら川保育園","province":"東京都","city":"江東区","address":"江東区南砂2-2-11","lat":35.66958,"lon":139.82352},{"name":"台場保育園","province":"東京都","city":"品川区","address":"品川区東品川1-8-30","lat":35.62124,"lon":139.74362},{"name":"アイ保育園","province":"東京都","city":"品川区","address":"品川区東品川1-36-11","lat":35.61754,"lon":139.74608},{"name":"八潮西保育園","province":"東京都","city":"品川区","address":"品川区八潮5-8-41","lat":35.59703,"lon":139.75186},{"name":"八潮中央保育園","province":"東京都","city":"品川区","address":"品川区八潮5-10-60-101","lat":35.59938,"lon":139.75263},{"name":"さくらさくみらい　東大井","province":"東京都","city":"品川区","address":"品川区東大井2-11-4","lat":35.60222,"lon":139.74052},{"name":"アソシエ東大井公園保育園","province":"東京都","city":"品川区","address":"品川区東大井3-1-11","lat":35.60456,"lon":139.73821},{"name":"にじいろ保育園勝島","province":"東京都","city":"品川区","address":"品川区勝島3-2-2","lat":35.58901,"lon":139.7376},{"name":"クオリスキッズ大井町第２保育園","province":"東京都","city":"品川区","address":"品川区大井3-26-7","lat":35.60066,"lon":139.7301},{"name":"キッズタウンにしおおい","province":"東京都","city":"品川区","address":"品川区西大井2-5-21","lat":35.59926,"lon":139.72263},{"name":"大崎保育園","province":"東京都","city":"品川区","address":"品川区大崎5-2-1","lat":35.62174,"lon":139.72644},{"name":"二葉つぼみ保育園","province":"東京都","city":"品川区","address":"品川区二葉1-3-40","lat":35.60692,"lon":139.72572},{"name":"源氏前保育園","province":"東京都","city":"品川区","address":"品川区中延4-14-19","lat":35.60547,"lon":139.71014},{"name":"グローバルキッズ荏原町保育園","province":"東京都","city":"品川区","address":"品川区中延5-2-1","lat":35.6037,"lon":139.70773},{"name":"荏原西第二保育園","province":"東京都","city":"品川区","address":"品川区荏原4-5-22","lat":35.61527,"lon":139.70793},{"name":"ココファン・ナーサリー旗の台","province":"東京都","city":"品川区","address":"品川区旗の台3-3-20","lat":35.6051,"lon":139.70715},{"name":"碑文谷もみじの森保育園","province":"東京都","city":"目黒区","address":"目黒区碑文谷6-13-1","lat":35.62631,"lon":139.68004},{"name":"にじいろ保育園原町","province":"東京都","city":"目黒区","address":"目黒区原町1-5-5","lat":35.6163,"lon":139.6978},{"name":"グローバルキッズ大岡山園","province":"東京都","city":"目黒区","address":"目黒区南1-22-9","lat":35.61429,"lon":139.68782},{"name":"アソシエ柿の木坂マミー保育園","province":"東京都","city":"目黒区","address":"目黒区柿の木坂1-31-14","lat":35.61918,"lon":139.67503},{"name":"ポピンズナーサリースクール都立大学","province":"東京都","city":"目黒区","address":"目黒区平町1-25-21","lat":35.61704,"lon":139.6768},{"name":"大森駅前保育園","province":"東京都","city":"大田区","address":"大田区大森北1-6-6","lat":35.58877,"lon":139.72846},{"name":"メリーポピンズアトレ大森ルーム","province":"東京都","city":"大田区","address":"大田区大森北1-6-16アトレ大森23F","lat":35.58877,"lon":139.72846},{"name":"えがおの森保育園・おおもり駅前","province":"東京都","city":"大田区","address":"大田区大森北1-6-8ウィラ大森ビル1階","lat":35.58877,"lon":139.72846},{"name":"キッズガーデン大森駅前","province":"東京都","city":"大田区","address":"大田区大森北1-2-3大森御幸ビル4階","lat":35.58775,"lon":139.72907},{"name":"はぐはぐドンキａｄｖｅｎｔｕｒｅ保育園","province":"東京都","city":"大田区","address":"大田区山王3-6-3","lat":35.58284,"lon":139.72347},{"name":"馬込保育園","province":"東京都","city":"大田区","address":"大田区中馬込3-25-2","lat":35.59354,"lon":139.70989},{"name":"レイモンド南蒲田保育園","province":"東京都","city":"大田区","address":"大田区南蒲田2-16-2","lat":35.55565,"lon":139.72232},{"name":"えがおの森保育園・かまた駅前","province":"東京都","city":"大田区","address":"大田区南蒲田1-1-25","lat":35.56027,"lon":139.72444},{"name":"本羽田保育園","province":"東京都","city":"大田区","address":"大田区本羽田3-17-20-108","lat":35.54791,"lon":139.73427},{"name":"第三蒲田保育園","province":"東京都","city":"大田区","address":"大田区萩中2-13-16","lat":35.54995,"lon":139.7329},{"name":"大森南保育園","province":"東京都","city":"大田区","address":"大田区4-14-5","lat":35.56134,"lon":139.71629},{"name":"アスク蒲田一丁目保育園","province":"東京都","city":"大田区","address":"大田区蒲田1-2-13","lat":35.56876,"lon":139.71993},{"name":"矢口保育園","province":"東京都","city":"大田区","address":"大田区新蒲田2-12-18","lat":35.56014,"lon":139.70372},{"name":"ベネッセ　雪が谷大塚保育園","province":"東京都","city":"大田区","address":"大田区南雪谷3-11-20","lat":35.59181,"lon":139.6872},{"name":"うれしい保育園南雪谷","province":"東京都","city":"大田区","address":"大田区南雪谷3-11-9","lat":35.59181,"lon":139.6872},{"name":"にじいろ保育園南雪谷","province":"東京都","city":"大田区","address":"大田区南雪谷5-10-12","lat":35.58859,"lon":139.68729},{"name":"田園調布二丁目保育園","province":"東京都","city":"大田区","address":"大田区田園調布2-17-2","lat":35.59512,"lon":139.67275},{"name":"田園調布保育園","province":"東京都","city":"大田区","address":"大田区田園調布本町7-15","lat":35.5874,"lon":139.6768},{"name":"久が原ハーモニー保育園","province":"東京都","city":"大田区","address":"大田区久が原1-1-9","lat":35.58761,"lon":139.69235},{"name":"さくらさくみらい　鵜の木","province":"東京都","city":"大田区","address":"大田区鵜の木1-16-14","lat":35.57517,"lon":139.68184},{"name":"キッズスマイル世田谷上馬","province":"東京都","city":"世田谷区","address":"世田谷区上馬5-16-19","lat":35.63974,"lon":139.65476},{"name":"世田谷１丁目ゆたか園","province":"東京都","city":"世田谷区","address":"世田谷区世田谷1-17-3","lat":35.64195,"lon":139.64981},{"name":"グローバルキッズ若林園","province":"東京都","city":"世田谷区","address":"世田谷区若林2-21-10","lat":35.6492,"lon":139.66065},{"name":"つむぎ保育園","province":"東京都","city":"世田谷区","address":"世田谷区若林4-37-2","lat":35.6477,"lon":139.65682},{"name":"三軒茶屋保育園","province":"東京都","city":"世田谷区","address":"世田谷区三軒茶屋1-23-4","lat":35.64053,"lon":139.66979},{"name":"赤堤保育園","province":"東京都","city":"世田谷区","address":"世田谷区赤堤4-1-10","lat":35.66013,"lon":139.6415},{"name":"わらべうた経堂保育園","province":"東京都","city":"世田谷区","address":"世田谷区桜上水1-7-10クールセリシエ1階","lat":35.65698,"lon":139.63159},{"name":"桜ヶ丘保育園","province":"東京都","city":"世田谷区","address":"世田谷区桜丘4-19-33","lat":35.6428,"lon":139.62116},{"name":"桜の詩保育園","province":"東京都","city":"世田谷区","address":"世田谷区桜丘4-26-22","lat":35.63815,"lon":139.62087},{"name":"せたがや小鳥の森保育園","province":"東京都","city":"世田谷区","address":"世田谷区北烏山8-9-13","lat":35.67572,"lon":139.58933},{"name":"芦花保育園","province":"東京都","city":"世田谷区","address":"世田谷区南烏山2-30-17-101","lat":35.66889,"lon":139.60613},{"name":"烏山保育園","province":"東京都","city":"世田谷区","address":"世田谷区南烏山6-22-14","lat":35.66956,"lon":139.59815},{"name":"第二いちご保育園","province":"東京都","city":"世田谷区","address":"世田谷区南烏山2-33-3","lat":35.66918,"lon":139.60848},{"name":"給田保育園","province":"東京都","city":"世田谷区","address":"世田谷区給田2-13-6","lat":35.66509,"lon":139.59317},{"name":"喜多見保育園","province":"東京都","city":"世田谷区","address":"世田谷区成城3-18-20","lat":35.63368,"lon":139.5983},{"name":"はあと保育園成城","province":"東京都","city":"世田谷区","address":"世田谷区成城3-2-9","lat":35.63472,"lon":139.59963},{"name":"喜多見バオバブ保育園","province":"東京都","city":"世田谷区","address":"世田谷区喜多見1-4-7","lat":35.62264,"lon":139.59818},{"name":"喜多見野の花保育園","province":"東京都","city":"世田谷区","address":"世田谷区喜多見3-21-22","lat":35.62697,"lon":139.59958},{"name":"千歳なないろ保育園","province":"東京都","city":"世田谷区","address":"世田谷区千歳台3-17-5","lat":35.6522,"lon":139.6153},{"name":"太陽の子めぐりさわ保育園","province":"東京都","city":"世田谷区","address":"世田谷区千歳台4-14-1","lat":35.65649,"lon":139.6126},{"name":"にじいろ保育園千歳台","province":"東京都","city":"世田谷区","address":"世田谷区千歳台5-21-17","lat":35.65813,"lon":139.61112},{"name":"ぽこころ保育園祖師谷","province":"東京都","city":"世田谷区","address":"世田谷区祖師谷4-4-16","lat":35.64792,"lon":139.6069},{"name":"生活クラブ保育園ぽむ・砧","province":"東京都","city":"世田谷区","address":"世田谷区砧4-38-4グランドテラス1階","lat":35.64414,"lon":139.61475},{"name":"ふかさわミル保育園","province":"東京都","city":"世田谷区","address":"世田谷区深沢1-32-24","lat":35.61947,"lon":139.66483},{"name":"等々力保育園","province":"東京都","city":"世田谷区","address":"世田谷区等々力5-22-22","lat":35.60906,"lon":139.65787},{"name":"東玉川善隣保育園","province":"東京都","city":"世田谷区","address":"世田谷区東玉川2-35-16","lat":35.59898,"lon":139.67275},{"name":"キッド・ステイ世田谷南保育園","province":"東京都","city":"世田谷区","address":"世田谷区玉川田園調布2-4-14","lat":35.60033,"lon":139.66802},{"name":"世田谷仁慈保幼園","province":"東京都","city":"世田谷区","address":"世田谷区玉堤2-13-11","lat":35.60002,"lon":139.64623},{"name":"空の鳥保育園","province":"東京都","city":"世田谷区","address":"世田谷区野毛1-19-13","lat":35.6051,"lon":139.64377},{"name":"用賀みこころ保育園","province":"東京都","city":"世田谷区","address":"世田谷区用賀3-6-3グレイプス用賀1階","lat":35.63053,"lon":139.63767},{"name":"上用賀保育園","province":"東京都","city":"世田谷区","address":"世田谷区上用賀4-2-10","lat":35.63448,"lon":139.63059},{"name":"渋谷東ちとせ保育園","province":"東京都","city":"渋谷区","address":"渋谷区東4-7-8","lat":35.65596,"lon":139.71343},{"name":"元代々木保育園","province":"東京都","city":"渋谷区","address":"渋谷区元代々木町51-19","lat":35.67316,"lon":139.68662},{"name":"富ヶ谷保育園","province":"東京都","city":"渋谷区","address":"渋谷区富ヶ谷2-30-8","lat":35.6651,"lon":139.68514},{"name":"西原保育園ゆめ","province":"東京都","city":"渋谷区","address":"渋谷区西原1-22-20","lat":35.67657,"lon":139.67835},{"name":"さくらさくみらい西原","province":"東京都","city":"渋谷区","address":"渋谷区西原2-33-17","lat":35.67452,"lon":139.67685},{"name":"笹塚保育園","province":"東京都","city":"渋谷区","address":"渋谷区笹塚3-36-13","lat":35.67729,"lon":139.66625},{"name":"笹幡保育園","province":"東京都","city":"渋谷区","address":"渋谷区笹塚2-34-12","lat":35.67507,"lon":139.6648},{"name":"コンビプラザ中野保育園","province":"東京都","city":"中野区","address":"中野区中野4-6-20","lat":35.70915,"lon":139.6639},{"name":"中野ここわ保育園","province":"東京都","city":"中野区","address":"中野区中野5-4-7","lat":35.70906,"lon":139.67217},{"name":"中野南台ちとせ保育園","province":"東京都","city":"中野区","address":"中野区南台2-1-5","lat":35.68312,"lon":139.67304},{"name":"ピオニイ保育園","province":"東京都","city":"中野区","address":"中野区新井2-40-3","lat":35.71285,"lon":139.66301},{"name":"キッズフォレ平和の森","province":"東京都","city":"中野区","address":"中野区新井3-35-20","lat":35.71584,"lon":139.66036},{"name":"野方さくら保育園","province":"東京都","city":"中野区","address":"中野区野方4-41-7","lat":35.72207,"lon":139.65683},{"name":"こどもヶ丘保育園野方園","province":"東京都","city":"中野区","address":"中野区野方6-38-2","lat":35.72157,"lon":139.64916},{"name":"ぽけっとランドさぎのみや保育園","province":"東京都","city":"中野区","address":"中野区鷺宮4-33-1","lat":35.72426,"lon":139.6375},{"name":"田中ナースリー大和保育園","province":"東京都","city":"中野区","address":"中野区大和町4-42-4","lat":35.71491,"lon":139.64217},{"name":"白鷺保育園","province":"東京都","city":"中野区","address":"中野区白鷺3-3-24","lat":35.72163,"lon":139.63355},{"name":"えがおの森保育園・あさがや","province":"東京都","city":"杉並区","address":"杉並区阿佐谷北4-21-9","lat":35.7124,"lon":139.63429},{"name":"ピノキオ幼児舎阿佐谷北保育園","province":"東京都","city":"杉並区","address":"杉並区阿佐谷北6-26-13","lat":35.71451,"lon":139.63854},{"name":"高円寺りとるぱんぷきんず","province":"東京都","city":"杉並区","address":"杉並区高円寺北1-27-3","lat":35.70886,"lon":139.65718},{"name":"高円寺南保育園","province":"東京都","city":"杉並区","address":"杉並区高円寺南4-44-11","lat":35.7048,"lon":139.65122},{"name":"大空と大地のなーさりぃ高円寺南園","province":"東京都","city":"杉並区","address":"杉並区高円寺南4-37-23","lat":35.70445,"lon":139.6536},{"name":"エンジェル高円寺保育園","province":"東京都","city":"杉並区","address":"杉並区高円寺南3-38-14","lat":35.70281,"lon":139.64552},{"name":"和田ここわ保育園","province":"東京都","city":"杉並区","address":"杉並区和田1-5-7","lat":35.68918,"lon":139.66295},{"name":"キッズガーデン杉並堀ノ内","province":"東京都","city":"杉並区","address":"杉並区堀ノ内3-16-1","lat":35.69259,"lon":139.64845},{"name":"成田コスモ保育園","province":"東京都","city":"杉並区","address":"杉並区成田西3-8-12","lat":35.69412,"lon":139.6311},{"name":"四宮保育園","province":"東京都","city":"杉並区","address":"杉並区上井草2-28-3","lat":35.72281,"lon":139.60877},{"name":"天沼保育園","province":"東京都","city":"杉並区","address":"杉並区天沼2-42-9","lat":35.71055,"lon":139.62598},{"name":"聖心保育園","province":"東京都","city":"杉並区","address":"杉並区桃井2-24-18","lat":35.71446,"lon":139.61075},{"name":"コンビプラザ桃井保育園","province":"東京都","city":"杉並区","address":"杉並区桃井3-7-3プロムナード荻窪3号棟1階","lat":35.71272,"lon":139.60613},{"name":"頌栄しらゆり保育園","province":"東京都","city":"杉並区","address":"杉並区桃井2-19-2","lat":35.71426,"lon":139.60848},{"name":"杉並井荻雲母保育園","province":"東京都","city":"杉並区","address":"杉並区今川1-15-16","lat":35.71764,"lon":139.61144},{"name":"善福寺保育園","province":"東京都","city":"杉並区","address":"杉並区善福寺2-26-18","lat":35.71285,"lon":139.58902},{"name":"杉並西荻窪雲母保育園","province":"東京都","city":"杉並区","address":"杉並区西荻南1-1-27","lat":35.69597,"lon":139.60352},{"name":"グローバルキッズ松庵園","province":"東京都","city":"杉並区","address":"杉並区松庵2-23-6","lat":35.69964,"lon":139.59293},{"name":"松庵保育園","province":"東京都","city":"杉並区","address":"杉並区松庵2-23-34","lat":35.69964,"lon":139.59293},{"name":"ポピンズナーサリースクール方南町","province":"東京都","city":"杉並区","address":"杉並区方南2-14-1","lat":35.68345,"lon":139.6592},{"name":"まなびの森保育園永福町","province":"東京都","city":"杉並区","address":"杉並区和泉4-13-2","lat":35.67781,"lon":139.65093},{"name":"永福北保育園","province":"東京都","city":"杉並区","address":"杉並区永福4-25-4","lat":35.68097,"lon":139.64121},{"name":"下高井戸保育園","province":"東京都","city":"杉並区","address":"杉並区下高井戸3-31-11","lat":35.67442,"lon":139.63178},{"name":"宮前おおぞら保育園","province":"東京都","city":"杉並区","address":"杉並区宮前2-24-22","lat":35.69282,"lon":139.61437},{"name":"宮前保育園","province":"東京都","city":"杉並区","address":"杉並区宮前2-24-38","lat":35.69282,"lon":139.61437},{"name":"Ｐｉｃｏナーサリ久我山駅前","province":"東京都","city":"杉並区","address":"杉並区久我山4-2-15","lat":35.68873,"lon":139.59935},{"name":"あい保育園久我山","province":"東京都","city":"杉並区","address":"杉並区久我山5-28-13","lat":35.68852,"lon":139.6062},{"name":"久我山東保育園","province":"東京都","city":"杉並区","address":"杉並区久我山5-24-19","lat":35.68683,"lon":139.60718},{"name":"西巣鴨・学びの保育園","province":"東京都","city":"豊島区","address":"豊島区西巣鴨4-13-5朝日シティパリオ西巣鴨2階","lat":35.74433,"lon":139.72875},{"name":"うぃず巣鴨駅前保育園","province":"東京都","city":"豊島区","address":"豊島区巣鴨3-23-12","lat":35.73348,"lon":139.73669},{"name":"大空と大地のなーさりぃ第一南大塚園","province":"東京都","city":"豊島区","address":"豊島区南大塚2-26-15南大塚ビル2階","lat":35.72788,"lon":139.73009},{"name":"大空と大地のなーさりぃ第二南大塚園","province":"東京都","city":"豊島区","address":"豊島区南大塚2-26-15南大塚ビル3階","lat":35.72788,"lon":139.73009},{"name":"めぐみ保育園","province":"東京都","city":"豊島区","address":"豊島区池袋本町4-1-14","lat":35.74195,"lon":139.71668},{"name":"豊島区立池袋第一保育園","province":"東京都","city":"豊島区","address":"豊島区上池袋3-39-11","lat":35.73916,"lon":139.72083},{"name":"クオリスキッズ東池袋保育園","province":"東京都","city":"豊島区","address":"豊島区東池袋4-34-9","lat":35.72686,"lon":139.72257},{"name":"グローバルキッズ西池袋園","province":"東京都","city":"豊島区","address":"豊島区西池袋2-19-5ラクレーシュ目白","lat":35.7259,"lon":139.7066},{"name":"クオリスキッズ王子","province":"東京都","city":"北区","address":"北区王子3-10-14","lat":35.75942,"lon":139.73624},{"name":"豊川保育園","province":"東京都","city":"北区","address":"北区王子6-4-10","lat":35.76094,"lon":139.74204},{"name":"ココファン・ナーサリー田端","province":"東京都","city":"北区","address":"北区田端1-12-17","lat":35.73377,"lon":139.75951},{"name":"中里保育園","province":"東京都","city":"北区","address":"北区中里3-11-18","lat":35.74097,"lon":139.75295},{"name":"うぃず滝野川保育園","province":"東京都","city":"北区","address":"北区滝野川6-9-4","lat":35.74242,"lon":139.72582},{"name":"西ケ原保育園","province":"東京都","city":"北区","address":"北区西ケ原4-44-10","lat":35.74484,"lon":139.73406},{"name":"西ケ原南保育園","province":"東京都","city":"北区","address":"北区西ケ原4-51-28","lat":35.74217,"lon":139.73605},{"name":"グローバルキッズ　コトニア赤羽園","province":"東京都","city":"北区","address":"北区中十条4-17-1","lat":35.77119,"lon":139.72228},{"name":"志茂保育園","province":"東京都","city":"北区","address":"北区志茂4-44-1","lat":35.77991,"lon":139.73377},{"name":"赤羽北保育園","province":"東京都","city":"北区","address":"北区赤羽北1-5-5","lat":35.78613,"lon":139.71491},{"name":"北赤羽せせらぎ保育園","province":"東京都","city":"北区","address":"北区赤羽北2-14-13","lat":35.78484,"lon":139.70635},{"name":"桐ケ丘南保育園","province":"東京都","city":"北区","address":"北区赤羽西5-5-7-101","lat":35.77527,"lon":139.70989},{"name":"フレーベル西が丘みらい園","province":"東京都","city":"北区","address":"北区赤羽西6-2-20","lat":35.77126,"lon":139.70754},{"name":"原保育園","province":"東京都","city":"荒川区","address":"荒川区町屋5-11-16","lat":35.7511,"lon":139.77882},{"name":"にじの森保育園","province":"東京都","city":"荒川区","address":"荒川区南千住8-13-1","lat":35.73654,"lon":139.80866},{"name":"熊野前保育園","province":"東京都","city":"荒川区","address":"荒川区東尾久8-23-9","lat":35.75176,"lon":139.76941},{"name":"西日暮里保育園","province":"東京都","city":"荒川区","address":"荒川区西日暮里6-25-3","lat":35.73668,"lon":139.77062},{"name":"日暮里保育園","province":"東京都","city":"荒川区","address":"荒川区西日暮里2-2-7","lat":35.73327,"lon":139.77374},{"name":"ポポラー東京東日暮里園","province":"東京都","city":"荒川区","address":"荒川区東日暮里6-1-1アトラスブランズタワー三河島2F","lat":35.73275,"lon":139.77828},{"name":"やまと保育園","province":"東京都","city":"板橋区","address":"板橋区大和町2-2","lat":35.75643,"lon":139.70635},{"name":"弥生保育園","province":"東京都","city":"板橋区","address":"板橋区弥生町16-3","lat":35.75316,"lon":139.6946},{"name":"さいわい保育園","province":"東京都","city":"板橋区","address":"板橋区幸町45-4","lat":35.74455,"lon":139.69515},{"name":"茂呂塾保育園","province":"東京都","city":"板橋区","address":"板橋区小茂根4-4-7","lat":35.74929,"lon":139.67687},{"name":"は?anitize]もにぃ保育園","province":"東京都","city":"板橋区","address":"板橋区舟渡1-14-23","lat":35.79209,"lon":139.69025},{"name":"相生保育園","province":"東京都","city":"板橋区","address":"板橋区相生町24-3-101","lat":35.7786,"lon":139.67879},{"name":"同援みどり保育園","province":"東京都","city":"板橋区","address":"板橋区蓮根3-15-6","lat":35.78869,"lon":139.67647},{"name":"にじいろ保育園蓮根","province":"東京都","city":"板橋区","address":"板橋区蓮根2-19-3","lat":35.78366,"lon":139.67806},{"name":"前野保育園","province":"東京都","city":"板橋区","address":"板橋区前野町4-6-7","lat":35.76946,"lon":139.6889},{"name":"西前野保育園","province":"東京都","city":"板橋区","address":"板橋区前野町6-10-7","lat":35.76459,"lon":139.68308},{"name":"若木保育園","province":"東京都","city":"板橋区","address":"板橋区若木2-11-6","lat":35.77115,"lon":139.67418},{"name":"にじいろ保育園上板橋","province":"東京都","city":"板橋区","address":"板橋区上板橋2-2-15","lat":35.762,"lon":139.67423},{"name":"こじか保育園","province":"東京都","city":"板橋区","address":"板橋区高島平2-28-7","lat":35.78679,"lon":139.66538},{"name":"高島平すみれ保育園","province":"東京都","city":"板橋区","address":"板橋区高島平2-28-6-101","lat":35.78679,"lon":139.66538},{"name":"高島平あやめ保育園","province":"東京都","city":"板橋区","address":"板橋区高島平8-30-1","lat":35.79231,"lon":139.66435},{"name":"にじいろ保育園徳丸","province":"東京都","city":"板橋区","address":"板橋区徳丸3-38-19","lat":35.77511,"lon":139.65849},{"name":"赤塚保育園","province":"東京都","city":"板橋区","address":"板橋区赤塚6-30-1","lat":35.77704,"lon":139.64403},{"name":"うぃず成増保育園","province":"東京都","city":"板橋区","address":"板橋区赤塚3-19-4","lat":35.77675,"lon":139.63689},{"name":"成増保育園","province":"東京都","city":"板橋区","address":"板橋区成増2-24-7","lat":35.77949,"lon":139.62972},{"name":"グローバルキッズ成増園","province":"東京都","city":"板橋区","address":"板橋区成増2-8-10","lat":35.77625,"lon":139.63413},{"name":"ソラスト成増保育園","province":"東京都","city":"板橋区","address":"板橋区成増3-13-1アリエスビル1階","lat":35.77877,"lon":139.63236},{"name":"ナーサリールームベリーベアー練馬","province":"東京都","city":"練馬区","address":"練馬区練馬1-17-14階","lat":35.73934,"lon":139.6536},{"name":"練馬駅前おひさま保育園","province":"東京都","city":"練馬区","address":"練馬区練馬3-18-5","lat":35.73797,"lon":139.65033},{"name":"Ｎｉｃｏｔ練馬","province":"東京都","city":"練馬区","address":"練馬区練馬1-11-1","lat":35.73802,"lon":139.65122},{"name":"アスクねりま三丁目保育園","province":"東京都","city":"練馬区","address":"練馬区練馬3-4-5","lat":35.73813,"lon":139.64725},{"name":"アスクとよたま一丁目保育園","province":"東京都","city":"練馬区","address":"練馬区豊玉中1-5-10","lat":35.72928,"lon":139.66222},{"name":"豊玉第三保育園","province":"東京都","city":"練馬区","address":"練馬区豊玉南3-32-37","lat":35.72961,"lon":139.64945},{"name":"保育所ま?anitize]む中村橋駅前園","province":"東京都","city":"練馬区","address":"練馬区貫井1-17-4","lat":35.7384,"lon":139.6344},{"name":"みらいく中村橋園","province":"東京都","city":"練馬区","address":"練馬区中村北3-17-10","lat":35.73525,"lon":139.63966},{"name":"あい保育園高野台","province":"東京都","city":"練馬区","address":"練馬区高野台2-9-9","lat":35.74587,"lon":139.62054},{"name":"ベビーステーション石神井第２","province":"東京都","city":"練馬区","address":"練馬区石神井町2-13-151階","lat":35.7446,"lon":139.60854},{"name":"上石神井保育園","province":"東京都","city":"練馬区","address":"練馬区上石神井4-21-3","lat":35.73052,"lon":139.5869},{"name":"ソラスト関町保育園","province":"東京都","city":"練馬区","address":"練馬区関町東2-14-2","lat":35.72825,"lon":139.57851},{"name":"おはよう保育園関町南","province":"東京都","city":"練馬区","address":"練馬区関町南4-19-61階","lat":35.72096,"lon":139.56928},{"name":"マーガレット保育園","province":"東京都","city":"練馬区","address":"練馬区大泉学園町6-15-34","lat":35.76948,"lon":139.57842},{"name":"そあ季の花保育園","province":"東京都","city":"練馬区","address":"練馬区大泉学園町2-22-14","lat":35.7614,"lon":139.58751},{"name":"グローバルキッズ大泉園","province":"東京都","city":"練馬区","address":"練馬区大泉学園町7-6-27","lat":35.77033,"lon":139.58752},{"name":"田柄保育園","province":"東京都","city":"練馬区","address":"練馬区田柄4-36-4","lat":35.76679,"lon":139.63677},{"name":"さくらさくみらい　田柄","province":"東京都","city":"練馬区","address":"練馬区田柄2-50-2","lat":35.76983,"lon":139.64368},{"name":"最勝寺みのり保育園","province":"東京都","city":"練馬区","address":"練馬区北町6-16-14","lat":35.76,"lon":139.65424},{"name":"にじいろ保育園平和台","province":"東京都","city":"練馬区","address":"練馬区平和台1-31-9","lat":35.75732,"lon":139.66303},{"name":"大谷田第一保育園","province":"東京都","city":"足立区","address":"足立区大谷田1-1-5-101","lat":35.77963,"lon":139.84354},{"name":"ナーサリースクールいずみ大谷田","province":"東京都","city":"足立区","address":"足立区大谷田1-1-9-101","lat":35.77963,"lon":139.84354},{"name":"あやせ保育園","province":"東京都","city":"足立区","address":"足立区東綾瀬2-9-18","lat":35.76671,"lon":139.83225},{"name":"キッズガーデン足立綾瀬","province":"東京都","city":"足立区","address":"足立区綾瀬4-17-4","lat":35.7651,"lon":139.82343},{"name":"キッズガーデン足立青井","province":"東京都","city":"足立区","address":"足立区青井2-18-12","lat":35.77231,"lon":139.81407},{"name":"西綾瀬りりおっこ保育園","province":"東京都","city":"足立区","address":"足立区西綾瀬4-2-4","lat":35.76259,"lon":139.81848},{"name":"子ひばり保育園","province":"東京都","city":"足立区","address":"足立区足立2-33-2","lat":35.76087,"lon":139.8122},{"name":"まなびの森保育園千住大橋","province":"東京都","city":"足立区","address":"足立区千住緑町2-5-10","lat":35.74526,"lon":139.79466},{"name":"きたあやせこころ保育園","province":"東京都","city":"足立区","address":"足立区加平3-12-8","lat":35.78079,"lon":139.82831},{"name":"未来っ子保育園北加平町園","province":"東京都","city":"足立区","address":"足立区北加平町5-2","lat":35.78322,"lon":139.82832},{"name":"レイモンド花畑保育園","province":"東京都","city":"足立区","address":"足立区花畑3-42-8","lat":35.80607,"lon":139.81488},{"name":"北保木間保育園","province":"東京都","city":"足立区","address":"足立区南花畑5-15-3-101","lat":35.79561,"lon":139.8112},{"name":"たんぽぽ保育所六町園","province":"東京都","city":"足立区","address":"足立区六町3-7-47フェルックス1F","lat":35.78618,"lon":139.81928},{"name":"西保木間保育園","province":"東京都","city":"足立区","address":"足立区西保木間2-17-5-101","lat":35.80216,"lon":139.79877},{"name":"渕江保育園","province":"東京都","city":"足立区","address":"足立区竹の塚2-9-3","lat":35.78927,"lon":139.79648},{"name":"伊興大境保育園","province":"東京都","city":"足立区","address":"足立区西竹の塚1-10-5-101","lat":35.79078,"lon":139.78803},{"name":"ｉ-保育園","province":"東京都","city":"足立区","address":"足立区西新井4-28-7","lat":35.78819,"lon":139.77646},{"name":"西新井保育園","province":"東京都","city":"足立区","address":"足立区西新井2-21-2","lat":35.78494,"lon":139.77966},{"name":"ちゃいれっく西新井駅前保育園","province":"東京都","city":"足立区","address":"足立区西新井栄町2-3-7","lat":35.77646,"lon":139.78964},{"name":"アスク扇保育園","province":"東京都","city":"足立区","address":"足立区扇3-5-12","lat":35.76756,"lon":139.77239},{"name":"小谷野しょうぶ保育園","province":"東京都","city":"葛飾区","address":"葛飾区堀切4-60-1","lat":35.74933,"lon":139.82596},{"name":"たけのこ第２保育園","province":"東京都","city":"葛飾区","address":"葛飾区堀切8-5-7","lat":35.75734,"lon":139.83225},{"name":"梅田保育園","province":"東京都","city":"葛飾区","address":"葛飾区立石3-26-10","lat":35.74092,"lon":139.84522},{"name":"木下の保育園青砥","province":"東京都","city":"葛飾区","address":"葛飾区立石6-35-14","lat":35.74297,"lon":139.85375},{"name":"ほっぺるランド東立石","province":"東京都","city":"葛飾区","address":"葛飾区東立石2-3-10","lat":35.7334,"lon":139.84432},{"name":"日の出保育園","province":"東京都","city":"葛飾区","address":"葛飾区細田5-24-1","lat":35.74066,"lon":139.87499},{"name":"無二保育園","province":"東京都","city":"葛飾区","address":"葛飾区細田3-16-5","lat":35.74242,"lon":139.86762},{"name":"グローバルキッズ奥戸園","province":"東京都","city":"葛飾区","address":"葛飾区奥戸8-2-4","lat":35.73451,"lon":139.86751},{"name":"かみこまつ保育園","province":"東京都","city":"葛飾区","address":"葛飾区東新小岩3-14-1","lat":35.7236,"lon":139.86173},{"name":"東新小岩保育園","province":"東京都","city":"葛飾区","address":"葛飾区東新小岩4-7-13","lat":35.72735,"lon":139.86202},{"name":"砂原保育園","province":"東京都","city":"葛飾区","address":"葛飾区西亀有4-8-19","lat":35.76473,"lon":139.83917},{"name":"新水元保育園","province":"東京都","city":"葛飾区","address":"葛飾区東水元3-5-7","lat":35.78404,"lon":139.86614},{"name":"水元保育園","province":"東京都","city":"葛飾区","address":"葛飾区南水元4-18-11","lat":35.78042,"lon":139.86581},{"name":"金町ひまわり保育園","province":"東京都","city":"葛飾区","address":"葛飾区東金町1-3-1","lat":35.77033,"lon":139.86525},{"name":"金町どんぐり保育園","province":"東京都","city":"葛飾区","address":"葛飾区東金町1-14-5","lat":35.77102,"lon":139.86762},{"name":"鎌倉保育園","province":"東京都","city":"葛飾区","address":"葛飾区鎌倉3-39-15","lat":35.74788,"lon":139.87911},{"name":"亀青保育園","province":"東京都","city":"葛飾区","address":"葛飾区亀有2-32-28","lat":35.76001,"lon":139.84905},{"name":"青戸もも保育園","province":"東京都","city":"葛飾区","address":"葛飾区青戸4-23-1","lat":35.74942,"lon":139.85169},{"name":"こはるび保育園","province":"東京都","city":"葛飾区","address":"葛飾区青戸7-34-6","lat":35.75609,"lon":139.85642},{"name":"木下の保育園青砥第２","province":"東京都","city":"葛飾区","address":"葛飾区青戸3-33-7","lat":35.74666,"lon":139.85536},{"name":"白鳥保育園","province":"東京都","city":"葛飾区","address":"葛飾区白鳥3-32-6","lat":35.75538,"lon":139.84432},{"name":"春江第二保育園","province":"東京都","city":"江戸川区","address":"江戸川区春江町2-4-2","lat":35.70025,"lon":139.88669},{"name":"ココファン・ナーサリー瑞江","province":"東京都","city":"江戸川区","address":"江戸川区瑞江1-28-9","lat":35.69963,"lon":139.89768},{"name":"南松島保育園","province":"東京都","city":"江戸川区","address":"江戸川区松島1-19-15","lat":35.7028,"lon":139.8635},{"name":"小松川おひさま保育園","province":"東京都","city":"江戸川区","address":"江戸川区小松川1-2-2-116","lat":35.68807,"lon":139.84895},{"name":"松本おひさま保育園","province":"東京都","city":"江戸川区","address":"江戸川区松本1-9-3","lat":35.7138,"lon":139.87708},{"name":"ベルカント保育園","province":"東京都","city":"江戸川区","address":"江戸川区東小岩4-4-2","lat":35.72557,"lon":139.88915},{"name":"南小岩保育園","province":"東京都","city":"江戸川区","address":"江戸川区南小岩4-5-8","lat":35.72096,"lon":139.88564},{"name":"南篠崎保育園","province":"東京都","city":"江戸川区","address":"江戸川区南篠崎町3-12-8","lat":35.69663,"lon":139.89914},{"name":"グローバルキッズ宇喜田町園","province":"東京都","city":"江戸川区","address":"江戸川区宇喜田町1279","lat":35.67631,"lon":139.86321},{"name":"アスク東葛西保育園","province":"東京都","city":"江戸川区","address":"江戸川区東葛西6-28-6","lat":35.66008,"lon":139.87647},{"name":"キッズラボ東葛西園","province":"東京都","city":"江戸川区","address":"江戸川区東葛西9-3-14","lat":35.65336,"lon":139.88069},{"name":"堀江第三保育園","province":"東京都","city":"江戸川区","address":"江戸川区南葛西7-2-5","lat":35.64702,"lon":139.88001},{"name":"グローバルキッズ南葛西園","province":"東京都","city":"江戸川区","address":"江戸川区南葛西6-19-131階","lat":35.64776,"lon":139.87711},{"name":"清新第一保育園","province":"東京都","city":"江戸川区","address":"江戸川区清新町1-3-2-103","lat":35.66126,"lon":139.85623},{"name":"ソラスト船堀保育園","province":"東京都","city":"江戸川区","address":"江戸川区船堀3-15-151F","lat":35.68078,"lon":139.86589},{"name":"多摩小ばと保育園","province":"東京都","city":"八王子市","address":"八王子市石川町3279","lat":35.67612,"lon":139.37557},{"name":"中野保育園","province":"東京都","city":"八王子市","address":"八王子市中野上町1-22-11","lat":35.66678,"lon":139.32468},{"name":"白百合ベビーホーム","province":"東京都","city":"八王子市","address":"八王子市元本郷町2-6-20","lat":35.6634,"lon":139.31888},{"name":"大塚保育園","province":"東京都","city":"八王子市","address":"八王子市鹿島15","lat":35.63466,"lon":139.42401},{"name":"なみのり第二保育園","province":"東京都","city":"八王子市","address":"八王子市下柚木3-5","lat":35.62063,"lon":139.37972},{"name":"星の子保育園","province":"東京都","city":"八王子市","address":"八王子市片倉町704-14","lat":35.64116,"lon":139.3411},{"name":"からまつ保育園","province":"東京都","city":"八王子市","address":"八王子市川口町1543","lat":35.68366,"lon":139.29678},{"name":"城山保育園","province":"東京都","city":"八王子市","address":"八王子市元八王子町2-2025-2","lat":35.65581,"lon":139.28005},{"name":"山田保育園","province":"東京都","city":"八王子市","address":"八王子市散田町2-46-11","lat":35.64808,"lon":139.3169},{"name":"敬愛たかお保育園","province":"東京都","city":"八王子市","address":"八王子市東浅川町550-32","lat":35.64354,"lon":139.28919},{"name":"めじろ保育園","province":"東京都","city":"八王子市","address":"八王子市山田町1888-6","lat":35.64185,"lon":139.31397},{"name":"たかのみち保育園","province":"東京都","city":"立川市","address":"立川市幸町6-32-1","lat":35.72841,"lon":139.42619},{"name":"愛光あけぼの保育園","province":"東京都","city":"立川市","address":"立川市曙町3-17-22","lat":35.69987,"lon":139.42481},{"name":"見影橋保育園","province":"東京都","city":"立川市","address":"立川市砂川町3-23-2","lat":35.72735,"lon":139.39879},{"name":"西武立川きらり保育園","province":"東京都","city":"立川市","address":"立川市西砂町1-2-127","lat":35.72545,"lon":139.37288},{"name":"吉祥寺保育園","province":"東京都","city":"武蔵野市","address":"武蔵野市吉祥寺北町5-11-51","lat":35.71742,"lon":139.56822},{"name":"南保育園","province":"東京都","city":"武蔵野市","address":"武蔵野市吉祥寺南町3-6-15","lat":35.69912,"lon":139.58579},{"name":"うぃず吉祥寺第一保育園","province":"東京都","city":"武蔵野市","address":"武蔵野市吉祥寺本町2-35-12","lat":35.70347,"lon":139.57388},{"name":"ピノキオ幼児舎吉祥寺保育園","province":"東京都","city":"武蔵野市","address":"武蔵野市吉祥寺本町4-10-10","lat":35.7087,"lon":139.57427},{"name":"境南第２保育園","province":"東京都","city":"武蔵野市","address":"武蔵野市境南町2-20-17","lat":35.69758,"lon":139.5416},{"name":"三鷹どろんこ保育園","province":"東京都","city":"三鷹市","address":"三鷹市井口1-23-9","lat":35.69486,"lon":139.54677},{"name":"南浦東保育園","province":"東京都","city":"三鷹市","address":"三鷹市下連雀6-12-1","lat":35.6877,"lon":139.56479},{"name":"にじいろ保育園三鷹下連雀","province":"東京都","city":"三鷹市","address":"三鷹市下連雀1-4-22","lat":35.69132,"lon":139.57129},{"name":"あゆみ保育園","province":"東京都","city":"青梅市","address":"青梅市新町9-2153-3","lat":35.77963,"lon":139.32077},{"name":"青梅梨の木保育園","province":"東京都","city":"青梅市","address":"青梅市河辺町6-12-3","lat":35.7791,"lon":139.29117},{"name":"畑中保育園","province":"東京都","city":"青梅市","address":"青梅市畑中2-593","lat":35.78322,"lon":139.24114},{"name":"梅郷保育園","province":"東京都","city":"青梅市","address":"青梅市梅郷3-776-7","lat":35.78766,"lon":139.22337},{"name":"キッズエイド武蔵保育園","province":"東京都","city":"府中市","address":"府中市若松町4-9-12","lat":35.67613,"lon":139.49927},{"name":"ソラスト府中保育園","province":"東京都","city":"府中市","address":"府中市小柳町2-11-2TENSBUILDING3階","lat":35.66229,"lon":139.50205},{"name":"是政保育園","province":"東京都","city":"府中市","address":"府中市是政3-6","lat":35.65994,"lon":139.4885},{"name":"キッズルームこっこ保育園","province":"東京都","city":"府中市","address":"府中市清水が丘3-21-25","lat":35.66699,"lon":139.50388},{"name":"アスク府中本町保育園","province":"東京都","city":"府中市","address":"府中市本町2-35-4","lat":35.66493,"lon":139.47693},{"name":"明桜保育園","province":"東京都","city":"府中市","address":"府中市四谷2-31-1","lat":35.66583,"lon":139.44862},{"name":"晴見保育園","province":"東京都","city":"府中市","address":"府中市晴見町1-13-5","lat":35.68041,"lon":139.47936},{"name":"昭和保育園","province":"東京都","city":"昭島市","address":"昭島市宮沢町2-28-18","lat":35.70083,"lon":139.36589},{"name":"パイオニアキッズ菊野台園","province":"東京都","city":"調布市","address":"調布市菊野台3-26-17","lat":35.65336,"lon":139.57152},{"name":"調布クオレ保育園","province":"東京都","city":"調布市","address":"調布市国領町4-13-42","lat":35.648,"lon":139.55638},{"name":"木下の保育園調布駅前","province":"東京都","city":"調布市","address":"調布市布田3-4-3","lat":35.65027,"lon":139.54741},{"name":"調布そらいろ保育園","province":"東京都","city":"調布市","address":"調布市小島町1-16-3","lat":35.65432,"lon":139.54215},{"name":"調布市立宮の下保育園","province":"東京都","city":"調布市","address":"調布市上石原3-34-10","lat":35.65151,"lon":139.52477},{"name":"草笛保育園","province":"東京都","city":"町田市","address":"町田市藤の台1-1-56","lat":35.54816,"lon":139.44646},{"name":"町田わかくさ保育園","province":"東京都","city":"町田市","address":"町田市成瀬7-10-7","lat":35.54265,"lon":139.47153},{"name":"クローバー保育園","province":"東京都","city":"町田市","address":"町田市相原町3338-1","lat":35.60972,"lon":139.29712},{"name":"小山保育園","province":"東京都","city":"町田市","address":"町田市小山町954","lat":35.59565,"lon":139.37705},{"name":"かえで保育園","province":"東京都","city":"町田市","address":"町田市小山町775","lat":35.59115,"lon":139.38059},{"name":"もみの木保育園","province":"東京都","city":"町田市","address":"町田市小山ヶ丘1-3-2","lat":35.59722,"lon":139.38355},{"name":"みどりの森保育園","province":"東京都","city":"町田市","address":"町田市能ヶ谷4-7-19","lat":35.58753,"lon":139.482},{"name":"おひさま共同保育園","province":"東京都","city":"町田市","address":"町田市野津田町498-1","lat":35.58629,"lon":139.44051},{"name":"ひなぎく保育園","province":"東京都","city":"小金井市","address":"小金井市梶野町2-7-5","lat":35.70606,"lon":139.52826},{"name":"十八コスモ保育園","province":"東京都","city":"小金井市","address":"小金井市梶野町5-10-29イーストヒルズ小金井1階","lat":35.70355,"lon":139.52632},{"name":"まなびの森保育園武蔵小金井","province":"東京都","city":"小金井市","address":"小金井市本町3-12-13","lat":35.70828,"lon":139.50945},{"name":"くりのみ保育園","province":"東京都","city":"小金井市","address":"小金井市東町3-1-16","lat":35.69737,"lon":139.52779},{"name":"ひまわり保育園","province":"東京都","city":"小金井市","address":"小金井市中町1-5-21","lat":35.69454,"lon":139.51209},{"name":"光明第二保育園","province":"東京都","city":"小金井市","address":"小金井市貫井南町1-13-17","lat":35.68982,"lon":139.49468},{"name":"小金井なないろ保育園","province":"東京都","city":"小金井市","address":"小金井市貫井北町2-2-22","lat":35.70429,"lon":139.49905},{"name":"花小金井愛育園","province":"東京都","city":"小平市","address":"小平市花小金井1-26-10","lat":35.72847,"lon":139.51473},{"name":"ひめゆり保育園","province":"東京都","city":"小平市","address":"小平市天神町2-6-1","lat":35.73332,"lon":139.49348},{"name":"上水南保育園","province":"東京都","city":"小平市","address":"小平市上水南町3-8-2","lat":35.71195,"lon":139.48909},{"name":"小川保育園","province":"東京都","city":"小平市","address":"小平市小川町1-983","lat":35.72582,"lon":139.45819},{"name":"美園おひさま保育園","province":"東京都","city":"小平市","address":"小平市美園町3-18-11","lat":35.7385,"lon":139.4906},{"name":"至誠いしだ保育園","province":"東京都","city":"日野市","address":"日野市万願寺1-22-1","lat":35.67481,"lon":139.4196},{"name":"たかはた台保育園","province":"東京都","city":"日野市","address":"日野市程久保650","lat":35.65072,"lon":139.41092},{"name":"天王森保育園","province":"東京都","city":"東村山市","address":"東村山市久米川町4-4-10","lat":35.76112,"lon":139.47257},{"name":"八国山保育園","province":"東京都","city":"東村山市","address":"東村山市野口町1-5-6","lat":35.76415,"lon":139.46578},{"name":"千春第二保育園","province":"東京都","city":"国分寺市","address":"国分寺市戸倉1-22-2","lat":35.71409,"lon":139.46019},{"name":"えがおの森保育園","province":"東京都","city":"国分寺市","address":"国分寺市西恋ヶ窪4-17-18","lat":35.70849,"lon":139.46588},{"name":"明国保育園","province":"東京都","city":"国分寺市","address":"国分寺市東恋ヶ窪3-5-7","lat":35.70544,"lon":139.47315},{"name":"恋ヶ窪保育園","province":"東京都","city":"国分寺市","address":"国分寺市東恋ヶ窪2-613","lat":35.70804,"lon":139.47559},{"name":"こもれびの森保育園","province":"東京都","city":"国分寺市","address":"国分寺市東恋ヶ窪5-8-3","lat":35.70976,"lon":139.46558},{"name":"明美保育園","province":"東京都","city":"国分寺市","address":"国分寺市南町3-13-18","lat":35.69801,"lon":139.4796},{"name":"ナーサリースクール　クオーレにしこく","province":"東京都","city":"国分寺市","address":"国分寺市泉町3-37-23マーベラスパレス1階","lat":35.69934,"lon":139.46343},{"name":"たんぽぽ保育所西国分寺園","province":"東京都","city":"国分寺市","address":"国分寺市泉町3-37-23マーベラスパレス2階","lat":35.69934,"lon":139.46343},{"name":"やなぎ保育園","province":"東京都","city":"国分寺市","address":"国分寺市日吉町1-46-7","lat":35.70112,"lon":139.45606},{"name":"キッズガーデン国立駅前","province":"東京都","city":"国分寺市","address":"国分寺市光町1-43-17","lat":35.70099,"lon":139.44547},{"name":"国立保育園","province":"東京都","city":"国立市","address":"国立市北2-30-1","lat":35.70104,"lon":139.43453},{"name":"さくらっこ保育園","province":"東京都","city":"国立市","address":"国立市中1-16-25シャトレクインテスビル2F","lat":35.69709,"lon":139.44515},{"name":"向陽保育園","province":"東京都","city":"国立市","address":"国立市谷保6746","lat":35.68467,"lon":139.42893},{"name":"杉ノ子第三保育園","province":"東京都","city":"福生市","address":"福生市大字熊川373-1","lat":35.72162,"lon":139.33626},{"name":"虹のひかり保育園","province":"東京都","city":"狛江市","address":"狛江市東和泉1-32-18","lat":35.63038,"lon":139.5768},{"name":"かおり保育園","province":"東京都","city":"多摩市","address":"多摩市落合4-15","lat":35.61519,"lon":139.43019},{"name":"おだ学園保育園","province":"東京都","city":"多摩市","address":"多摩市永山1-5ベルブ永山209号","lat":35.62847,"lon":139.44869},{"name":"いなぎのぞみ保育園","province":"東京都","city":"稲城市","address":"稲城市大丸593-14","lat":35.64459,"lon":139.47774},{"name":"しおどめ保育園稲城","province":"東京都","city":"稲城市","address":"稲城市坂浜943","lat":35.62441,"lon":139.48799},{"name":"羽村しらうめ保育園","province":"東京都","city":"羽村市","address":"羽村市羽東1-29-16","lat":35.76214,"lon":139.31235},{"name":"東秋留保育園","province":"東京都","city":"あきる野市","address":"あきる野市野辺1104","lat":35.72417,"lon":139.3057},{"name":"ぽけっとランド西東京保育園","province":"東京都","city":"西東京市","address":"西東京市谷戸町2-3-73階","lat":35.74469,"lon":139.54244},{"name":"田無保育園","province":"東京都","city":"西東京市","address":"西東京市緑町1-2-26","lat":35.73364,"lon":139.53914},{"name":"みどり保育園","province":"東京都","city":"西東京市","address":"西東京市緑町2-15-12","lat":35.74204,"lon":139.53615},{"name":"レイモンド田無保育園","province":"東京都","city":"西東京市","address":"西東京市田無町2-14-15","lat":35.72807,"lon":139.54273},{"name":"田無すくすく保育園","province":"東京都","city":"西東京市","address":"西東京市南町1-3-28","lat":35.72743,"lon":139.54684},{"name":"ポポラー東京ひばりが丘園","province":"東京都","city":"西東京市","address":"西東京市ひばりが丘3-4-2シティテラスひばりが丘共用棟1・2階","lat":35.74424,"lon":139.53301},{"name":"武蔵野どろんこ保育園","province":"東京都","city":"西東京市","address":"西東京市新町5-14-14","lat":35.71488,"lon":139.53388},{"name":"しもほうや保育園","province":"東京都","city":"西東京市","address":"西東京市下保谷3-8-15","lat":35.75458,"lon":139.56574},{"name":"みずほひじり保育園","province":"東京都","city":"西多摩郡瑞穂町","address":"西多摩郡瑞穂町大字箱根ケ崎2515-1","lat":35.7758,"lon":139.35388},{"name":"ぴよぴよ保育園","province":"東京都","city":"西多摩郡瑞穂町","address":"西多摩郡瑞穂町大字箱根ケ崎363-1","lat":35.77144,"lon":139.34474},{"name":"ひのはら保育園","province":"東京都","city":"西多摩郡檜原村","address":"西多摩郡檜原村357","lat":35.72683,"lon":139.16281},{"name":"氷川保育園","province":"東京都","city":"西多摩郡奥多摩町","address":"西多摩郡奥多摩町氷川1416","lat":35.82361,"lon":139.09345},{"name":"波浮保育園","province":"東京都","city":"大島町","address":"大島町波浮港17","lat":34.6855,"lon":139.44074},{"name":"利島村立利島保育園","province":"","city":"","address":"利島村1542","lat":34.52999,"lon":139.27802},{"name":"ほっぺるランド西神田","province":"東京都","city":"千代田区","address":"千代田区西神田3-5-2千代田ファーストビル西館1階","lat":35.68366,"lon":139.75409},{"name":"グローバルキッズ飯田橋園","province":"東京都","city":"千代田区","address":"千代田区富士見2-14-36富士見ウエスト2・3階","lat":35.69362,"lon":140.17978},{"name":"クレアナーサリー市ヶ谷","province":"東京都","city":"千代田区","address":"千代田区九段北4-2-29セブンアネックス1~3階","lat":35.6944,"lon":139.74579},{"name":"ポピンズナーサリースクール一番町","province":"東京都","city":"千代田区","address":"千代田区一番町10-8一番町ウエストビル3・4階","lat":35.6878,"lon":139.74327},{"name":"アスク二番町保育園","province":"東京都","city":"千代田区","address":"千代田区二番町2-1二番町TSビル1~3階","lat":35.68593,"lon":139.73779},{"name":"テンダーラビング保育園東日本橋","province":"東京都","city":"中央区","address":"中央区東日本橋1-4-6東日本橋一丁目ビル1・2階","lat":35.69075,"lon":139.78493},{"name":"かふう保育園日本橋","province":"東京都","city":"中央区","address":"中央区日本橋富沢町10-18日本橋富沢町スクエアビル2階","lat":35.68782,"lon":139.78362},{"name":"太陽の子新川保育園","province":"東京都","city":"中央区","address":"中央区新川一丁目24番1号ユニゾ新川永代通りビル2階","lat":43.06157,"lon":141.77623},{"name":"あい保育園新川","province":"東京都","city":"中央区","address":"中央区新川1-26-9新川イワデビル1・2階","lat":40.82233,"lon":140.74895},{"name":"ぽけっとランド明石町保育園","province":"東京都","city":"中央区","address":"中央区明石町7-15ぱぱす明石町ビル2・3階","lat":35.669,"lon":139.7774},{"name":"晴海保育園","province":"東京都","city":"中央区","address":"中央区晴海1-5-15","lat":35.64951,"lon":139.77505},{"name":"さくらさくみらい晴海","province":"東京都","city":"中央区","address":"中央区晴海2-5-24晴海センタービル1階","lat":35.65195,"lon":139.77342},{"name":"ベネッセ勝どき保育園","province":"東京都","city":"中央区","address":"中央区勝どき5-1-17勝どきザ・リバーフロント2階","lat":35.66142,"lon":139.77658},{"name":"グローバルキッズ虎ノ門保育園","province":"東京都","city":"港区","address":"港区虎ノ門三丁目19番13号虎ノ門スピリットビル3階","lat":35.66431,"lon":139.74707},{"name":"太陽の子芝浦一丁目保育園","province":"東京都","city":"港区","address":"港区芝浦一丁目9番7号芝浦おもだかビル2階、3階","lat":35.64431,"lon":139.75383},{"name":"あい保育園青山一丁目","province":"東京都","city":"港区","address":"港区南青山一丁目3番1号パークアクシス青山一丁目タワー2階","lat":35.67211,"lon":139.72522},{"name":"ゆらりん白金保育園","province":"東京都","city":"港区","address":"港区白金一丁目26番10号白金K-FLAT1階、2階の一部","lat":35.64508,"lon":139.73341},{"name":"太陽の子三田五丁目保育園","province":"東京都","city":"港区","address":"港区三田五丁目4番3号三田プラザビル3階","lat":35.644,"lon":139.74289},{"name":"にじいろ保育園四ツ谷","province":"東京都","city":"新宿区","address":"新宿区四谷1-6-1","lat":35.68541,"lon":139.72891},{"name":"フロンティアキッズ新宿","province":"東京都","city":"新宿区","address":"新宿区新宿6-27-56新宿スクエアビル2階","lat":35.69828,"lon":139.71304},{"name":"ほっぺるランド神楽坂","province":"東京都","city":"新宿区","address":"新宿区榎町43-1ユニゾ神楽坂ビル2階、3階","lat":35.70067,"lon":139.74167},{"name":"グローバルキッズ神楽坂園","province":"東京都","city":"新宿区","address":"新宿区神楽坂4-8神楽坂プラザビル1階","lat":35.68591,"lon":139.72881},{"name":"にじいろ保育園高田馬場南","province":"東京都","city":"新宿区","address":"新宿区大久保三丁目8番4号住友不動産新宿ガーデンタワーアネックス2階","lat":35.76077,"lon":139.8622},{"name":"東京母子愛育会保育園","province":"東京都","city":"新宿区","address":"新宿区北新宿四丁目21番14号","lat":35.68906,"lon":139.70476},{"name":"こころおちゃのみず第一保育園","province":"東京都","city":"文京区","address":"文京区湯島1-10-5湯島D&Aビル1階","lat":35.70141,"lon":139.76462},{"name":"こころおちゃのみず第二保育園","province":"東京都","city":"文京区","address":"文京区湯島1-10-5湯島D&Aビル2階","lat":35.7052,"lon":139.76591},{"name":"チェリッシュ浅草保育園","province":"東京都","city":"台東区","address":"台東区浅草3-11-7ウィスタリア1~2階","lat":35.72804,"lon":139.79268},{"name":"えがおの森保育園・あさくさ","province":"東京都","city":"台東区","address":"台東区寿3-15-12","lat":35.7295,"lon":139.79326},{"name":"鐘ヶ淵北保育園","province":"東京都","city":"墨田区","address":"墨田区堤通2-8-15-109","lat":35.73496,"lon":139.81551},{"name":"水神保育園","province":"東京都","city":"墨田区","address":"墨田区堤通2-6-9-103","lat":35.73567,"lon":139.81668},{"name":"太陽の子　森下三丁目保育園","province":"東京都","city":"江東区","address":"江東区森下3-5-26","lat":35.68566,"lon":139.80792},{"name":"江東区東陽保育園","province":"東京都","city":"江東区","address":"江東区東陽3-22-1-101","lat":35.67975,"lon":139.79932},{"name":"あい保育園豊洲","province":"東京都","city":"江東区","address":"江東区豊洲5-6-521階","lat":35.65033,"lon":139.79021},{"name":"グローバルキッズ豊洲五丁目保育園","province":"東京都","city":"江東区","address":"江東区豊洲5-6-29","lat":35.64668,"lon":139.78609},{"name":"江東区亀高保育園","province":"東京都","city":"江東区","address":"江東区北砂5-20-9-101","lat":35.68036,"lon":139.83398},{"name":"江東区東砂第四保育園","province":"東京都","city":"江東区","address":"江東区東砂7-17-35-101","lat":35.67012,"lon":139.83835},{"name":"アスク南大井保育園","province":"東京都","city":"品川区","address":"品川区南大井6-22-7大森ベルポートE館1階","lat":35.6068,"lon":139.72672},{"name":"キッズガーデン品川上大崎","province":"東京都","city":"品川区","address":"品川区上大崎4-5-37本多電機ビル1・2階","lat":35.62355,"lon":139.72507},{"name":"桑の実中目黒保育園","province":"東京都","city":"目黒区","address":"目黒区上目黒3-37-24","lat":35.63459,"lon":139.70592},{"name":"キッズガーデン上目黒","province":"東京都","city":"目黒区","address":"目黒区上目黒5-19-33","lat":35.6338,"lon":139.70535},{"name":"不動保育園","province":"東京都","city":"目黒区","address":"目黒区下目黒6-11-20","lat":35.63613,"lon":139.71094},{"name":"ゆらりん下目黒保育園","province":"東京都","city":"目黒区","address":"目黒区下目黒6-18-11","lat":35.63609,"lon":139.71094},{"name":"おはよう保育園マチノマ大森","province":"東京都","city":"大田区","address":"大田区大森西3-1-38マチノマ大森3階","lat":35.57875,"lon":139.72369},{"name":"南八幡山保育園","province":"東京都","city":"世田谷区","address":"世田谷区八幡山3-9-20-101","lat":35.6412,"lon":139.67149},{"name":"グリーンホーム東玉川保育園","province":"東京都","city":"世田谷区","address":"世田谷区東玉川1-21-13","lat":35.60914,"lon":139.62976},{"name":"用賀みこころ保育園","province":"東京都","city":"世田谷区","address":"世田谷区用賀3-6-3グレイプス用賀1階","lat":35.6412,"lon":139.67149},{"name":"ふじみ保育園","province":"東京都","city":"世田谷区","address":"世田谷区上用賀5-19-6","lat":35.62336,"lon":139.63971},{"name":"上用賀青い空保育園","province":"東京都","city":"世田谷区","address":"世田谷区上用賀6-8-17","lat":35.62336,"lon":139.63971},{"name":"元代々木保育園","province":"東京都","city":"渋谷区","address":"渋谷区元代々木町51-19","lat":35.68075,"lon":139.70139},{"name":"もみじやま保育園","province":"東京都","city":"中野区","address":"中野区中野1-58-9","lat":35.70391,"lon":139.67265},{"name":"荻窪コスモ保育園","province":"東京都","city":"杉並区","address":"杉並区荻窪5-6-5ガーデニア荻窪1階","lat":35.70037,"lon":139.61755},{"name":"アウル宮前保育園","province":"東京都","city":"杉並区","address":"杉並区宮前2-11-11","lat":35.69055,"lon":139.61612},{"name":"豊島区立駒込第一保育園","province":"東京都","city":"豊島区","address":"豊島区駒込7-7-22","lat":35.74037,"lon":139.73886},{"name":"キッズガーデン南大塚","province":"東京都","city":"豊島区","address":"豊島区南大塚5-20-6大塚FTビル3階","lat":35.72912,"lon":139.72707},{"name":"あい・あい保育園　東池袋園","province":"東京都","city":"豊島区","address":"豊島区東池袋3-22-17東池袋セントラルプレイス1階","lat":35.73137,"lon":139.7153},{"name":"豊島東保育園","province":"東京都","city":"北区","address":"北区豊島5-6-12-101","lat":35.76558,"lon":139.74651},{"name":"たばた絆保育園","province":"東京都","city":"北区","address":"北区田端新町1-8-15-101","lat":35.73812,"lon":139.76642},{"name":"ポピンズナーサリースクール田端","province":"東京都","city":"北区","address":"北区田端6-1-1田端ASUKAタワー2階","lat":35.23727,"lon":136.92764},{"name":"赤羽台保育園","province":"東京都","city":"北区","address":"北区赤羽台1-4-11-105","lat":35.78387,"lon":139.71272},{"name":"桐ケ丘保育園","province":"東京都","city":"北区","address":"北区桐ヶ丘1-3-9-101","lat":35.77633,"lon":139.7083},{"name":"桐ケ丘南保育園","province":"東京都","city":"北区","address":"北区赤羽西5-5-7-101","lat":35.77599,"lon":139.71019},{"name":"太陽の子わかば保育園","province":"東京都","city":"荒川区","address":"荒川区南千住5-44-16ライオンズマンション1階","lat":35.73289,"lon":139.80272},{"name":"さくらさくみらい　中板橋","province":"東京都","city":"板橋区","address":"板橋区中板橋20-1モダ・ビエント中板橋プラシア203","lat":35.75574,"lon":139.69974},{"name":"ひまわりベビールーム小竹向原","province":"東京都","city":"板橋区","address":"板橋区小茂根1-27-7小茂根サンハイツ1階","lat":35.74607,"lon":139.67984},{"name":"坂下三丁目保育園","province":"東京都","city":"板橋区","address":"板橋区坂下3-14-6-101","lat":35.75128,"lon":139.71231},{"name":"相生保育園","province":"東京都","city":"板橋区","address":"板橋区相生町24-3-101","lat":35.74915,"lon":139.71985},{"name":"グローバルキッズ板橋園","province":"東京都","city":"板橋区","address":"板橋区清水町44-3ロイヤルガーデン2階","lat":35.7822,"lon":139.6523},{"name":"メリーポピンズ東武練馬ルーム","province":"東京都","city":"板橋区","address":"板橋区徳丸2-3-1徳丸スクウェア1階","lat":35.74672,"lon":139.71353},{"name":"ゆりの木保育園","province":"東京都","city":"板橋区","address":"板橋区赤塚新町3-32-11-102","lat":35.78677,"lon":139.64264},{"name":"妙福寺保育園","province":"東京都","city":"練馬区","address":"練馬区南大泉5-6-47","lat":35.75315,"lon":139.5733},{"name":"光が丘第十保育園","province":"東京都","city":"練馬区","address":"練馬区光が丘3-7-3-101","lat":35.75076,"lon":139.60182},{"name":"光が丘第十一保育園","province":"東京都","city":"練馬区","address":"練馬区光が丘2-4-11-101","lat":35.76376,"lon":139.62857},{"name":"光が丘わかば保育園","province":"東京都","city":"練馬区","address":"練馬区光が丘7-6-19-101","lat":35.75848,"lon":139.62454},{"name":"どんぐり山保育園","province":"東京都","city":"練馬区","address":"練馬区春日町4-1-13","lat":35.75312,"lon":139.64072},{"name":"ナーサリースクールいずみ大谷田","province":"東京都","city":"足立区","address":"足立区大谷田1-1-9-101","lat":35.77782,"lon":139.84604},{"name":"東保育園","province":"東京都","city":"足立区","address":"足立区東和5-5-23","lat":35.77523,"lon":139.83823},{"name":"宮城保育園","province":"東京都","city":"足立区","address":"足立区宮城1-5-6-101","lat":35.76225,"lon":139.80421},{"name":"六木保育園","province":"東京都","city":"足立区","address":"足立区六木1-5-10-101","lat":35.76384,"lon":139.80453},{"name":"花畑桑袋保育園","province":"東京都","city":"足立区","address":"足立区花畑8-5-15-101","lat":35.81347,"lon":139.8237},{"name":"南保木間保育園","province":"東京都","city":"足立区","address":"足立区東保木間1-5-16-101","lat":35.78814,"lon":139.81482},{"name":"竹の塚保育園","province":"東京都","city":"足立区","address":"足立区竹の塚3-7-33-106","lat":35.79954,"lon":139.79588},{"name":"いりや第一保育園","province":"東京都","city":"足立区","address":"足立区舎人6-12-5-101","lat":35.76134,"lon":139.80788},{"name":"いりや第二保育園","province":"東京都","city":"足立区","address":"足立区舎人6-11-2-101","lat":35.78562,"lon":139.79744},{"name":"日生梅島保育園ひびき","province":"東京都","city":"足立区","address":"足立区梅田5-25-33ロイヤルパークス梅島1階","lat":35.76652,"lon":139.79333},{"name":"新田さくら保育園","province":"東京都","city":"足立区","address":"足立区新田1-14-12-101","lat":35.78218,"lon":139.81114},{"name":"さつき保育園","province":"東京都","city":"足立区","address":"足立区江北1-15-3-103","lat":35.77936,"lon":139.81206},{"name":"金町駅前さくらんぼ保育園","province":"東京都","city":"葛飾区","address":"葛飾区金町6-4-1金町木下ビル2階","lat":35.76414,"lon":139.87032},{"name":"若葉インターナショナル幼保園瑞江園","province":"東京都","city":"江戸川区","address":"江戸川区東瑞江3-55-21-101","lat":35.69016,"lon":139.89732},{"name":"みのりのわかば保育園","province":"東京都","city":"江戸川区","address":"江戸川区東小松川3-24-16","lat":35.69702,"lon":139.84932},{"name":"平井第二保育園","province":"東京都","city":"江戸川区","address":"江戸川区平井6-1-23-101","lat":35.70799,"lon":139.84041},{"name":"堀之内プチ・クレイシュ","province":"東京都","city":"八王子市","address":"八王子市別所2-2-1クレヴィア京王堀之内パークナードII2階","lat":35.62971,"lon":139.40219},{"name":"長房みなみ保育園","province":"東京都","city":"八王子市","address":"八王子市長房町355-4","lat":35.66176,"lon":139.30832},{"name":"わらべふじ森保育園","province":"東京都","city":"八王子市","address":"八王子市台町1-62-3","lat":35.65175,"lon":139.33031},{"name":"東台保育園","province":"東京都","city":"三鷹市","address":"三鷹市中原2-17-39","lat":35.66735,"lon":139.57179},{"name":"大沢台保育園","province":"東京都","city":"三鷹市","address":"三鷹市大沢2-2-52","lat":35.68069,"lon":139.53706},{"name":"西府の森保育園","province":"東京都","city":"府中市","address":"府中市本宿町1-46-7","lat":35.67117,"lon":139.46002},{"name":"グラン仙川ちとせ保育園","province":"東京都","city":"調布市","address":"調布市仙川町3-3-21","lat":35.6641,"lon":139.5851},{"name":"まちっこ保育園","province":"東京都","city":"町田市","address":"町田市南大谷1400-1","lat":35.55603,"lon":139.45334},{"name":"草笛保育園","province":"東京都","city":"町田市","address":"町田市藤の台1-1-56","lat":40.63493,"lon":140.45834},{"name":"ゆうき山保育園","province":"東京都","city":"町田市","address":"町田市金井ヶ丘1-10-24","lat":35.57394,"lon":139.45464},{"name":"第六コスモ保育園","province":"東京都","city":"小金井市","address":"小金井市梶野町5-3-25-211","lat":35.7112,"lon":139.52663},{"name":"小金井保育園","province":"東京都","city":"小金井市","address":"小金井市本町5-6-19","lat":35.69989,"lon":139.50316},{"name":"ココファン・ナーサリー花小金井","province":"東京都","city":"小平市","address":"小平市花小金井3-1-21-1","lat":35.73739,"lon":139.51396},{"name":"やさしい森保育園","province":"東京都","city":"小平市","address":"小平市鈴木町1-463-1","lat":35.721,"lon":139.49171},{"name":"小平なみき保育園","province":"東京都","city":"小平市","address":"小平市仲町304-1","lat":35.73157,"lon":139.47917},{"name":"東村山市立第一保育園","province":"東京都","city":"東村山市","address":"東村山市本町4-15-16都営本町アパート6号棟1階","lat":35.75492,"lon":139.46719},{"name":"きたひだまり保育園","province":"東京都","city":"国立市","address":"国立市北3-42-1","lat":35.69912,"lon":139.43164},{"name":"国立あゆみ保育園","province":"東京都","city":"国立市","address":"国立市矢川3丁目20番地の24","lat":35.68147,"lon":139.42723},{"name":"れんげ桜が丘保育園","province":"東京都","city":"東大和市","address":"東大和市桜が丘3-44-1817-1","lat":35.73589,"lon":139.41541},{"name":"上の原さくら保育園","province":"東京都","city":"東久留米市","address":"東久留米市上の原1-2-44","lat":35.77181,"lon":139.54579},{"name":"あすのき保育園","province":"東京都","city":"多摩市","address":"多摩市諏訪2-2-B-001ブリリア多摩ニュータウン","lat":35.62708,"lon":139.45039},{"name":"いなぎのぞみ保育園","province":"東京都","city":"稲城市","address":"稲城市大丸593-14","lat":35.64153,"lon":139.49802},{"name":"本郷ゆうし保育園","province":"東京都","city":"稲城市","address":"稲城市東長沼2115-2","lat":35.6487,"lon":139.50085},{"name":"にじいろ保育園矢野口","province":"東京都","city":"稲城市","address":"稲城市矢野口3030-1","lat":35.64457,"lon":139.51242},{"name":"稲城市立第五保育園","province":"東京都","city":"稲城市","address":"稲城市平尾4-45-2","lat":35.60762,"lon":139.49544},{"name":"富士見第二保育園","province":"東京都","city":"羽村市","address":"羽村市富士見平2-3-16","lat":35.7654,"lon":139.32941},{"name":"よつぎ第二保育園","province":"東京都","city":"あきる野市","address":"あきる野市上代継218-1","lat":35.72861,"lon":139.28226},{"name":"けやき保育園","province":"東京都","city":"西東京市","address":"西東京市西原町4-5-96","lat":35.73921,"lon":139.53331},{"name":"さくらぎこぱん","province":"東京都","city":"西多摩郡日の出町","address":"西多摩郡日の出町平井673-1","lat":35.74148,"lon":139.27971},{"name":"元町保育園","province":"東京都","city":"大島町","address":"大島町元町字長沢344-1","lat":34.75058,"lon":139.35626},{"name":"小金井プチ・クレイシュ","province":"東京都","city":"小金井市","address":"東京都小金井市本町1丁目8-14","lat":35.69950376,"lon":139.50749608},{"name":"にじいろ保育園武蔵小金井","province":"東京都","city":"小金井市","address":"東京都小金井市本町6丁目14-45","lat":35.7001731,"lon":139.50662947},{"name":"回帰船保育所","province":"東京都","city":"小金井市","address":"東京都小金井市中町2丁目24-16","lat":35.69981236,"lon":139.51858961},{"name":"東京学芸大　学芸の森保育園","province":"東京都","city":"小金井市","address":"東京都小金井市貫井北町4丁目1-1","lat":35.7051444,"lon":139.49334425},{"name":"ココファン・ナーサリー東小金井","province":"東京都","city":"小金井市","address":"東京都小金井市緑町1丁目2-39","lat":35.70142609,"lon":139.51924227},{"name":"こどもの家保育園","province":"東京都","city":"小金井市","address":"東京都小金井市貫井南町4丁目20-31","lat":35.69679813,"lon":139.4938501},{"name":"どろんこ保育所","province":"東京都","city":"小金井市","address":"東京都小金井市本町3丁目12-30","lat":35.70830006,"lon":139.50971498},{"name":"瀧川　依子","province":"東京都","city":"小金井市","address":"東京都小金井市東町2丁目22-25","lat":35.69676306,"lon":139.53358291},{"name":"加藤　文乃","province":"東京都","city":"小金井市","address":"東京都小金井市貫井南町3丁目6-24","lat":35.69991726,"lon":139.49524153},{"name":"小針　紀子","province":"東京都","city":"小金井市","address":"東京都小金井市緑町5丁目15-20","lat":35.7028009,"lon":139.51775067},{"name":"平島　るみ子","province":"東京都","city":"小金井市","address":"東京都小金井市本町2丁目13-3","lat":35.70360894,"lon":139.51021514},{"name":"くるみ保育室","province":"東京都","city":"小金井市","address":"東京都小金井市梶野町4丁目20-3","lat":35.70821719,"lon":139.52651915},{"name":"ぬくいのもりほいくえん","province":"東京都","city":"小金井市","address":"東京都小金井市貫井北町3丁目4-8","lat":35.70743038,"lon":139.49780767},{"name":"プリンセスプリンス保育園小金井","province":"東京都","city":"小金井市","address":"東京都小金井市前原町3丁目18-20","lat":35.69532084,"lon":139.50532421}]}