{"keyword":"標準","data":[{"name":"私立駒沢学園女子中学校","province":"東京都","city":"稲城市","address":"東京都稲城市坂浜238","lat":35.62772728,"lon":139.49342328},{"name":"都立若葉総合高等学校","province":"東京都","city":"稲城市","address":"東京都稲城市坂浜1434-3","lat":35.61828624,"lon":139.47916351},{"name":"私立駒沢学園女子高等学校","province":"東京都","city":"稲城市","address":"東京都稲城市坂浜238","lat":35.62772728,"lon":139.49342328},{"name":"私立駒沢女子短期大学","province":"東京都","city":"稲城市","address":"東京都稲城市坂浜238","lat":35.62772728,"lon":139.49342328},{"name":"私立駒沢女子大学","province":"東京都","city":"稲城市","address":"東京都稲城市坂浜238","lat":35.62772728,"lon":139.49342328},{"name":"東京南看護専門学校","province":"東京都","city":"稲城市","address":"東京都稲城市若葉台3丁目8-2","lat":35.62472836,"lon":139.46421102},{"name":"東長沼自治会館","province":"東京都","city":"稲城市","address":"東京都稲城市東長沼1055","lat":35.64270267,"lon":139.50097156},{"name":"百村自治会館","province":"東京都","city":"稲城市","address":"東京都稲城市百村1606-12","lat":35.63667024,"lon":139.49758892},{"name":"平尾自治会館","province":"東京都","city":"稲城市","address":"東京都稲城市平尾3丁目7-1","lat":35.61098056,"lon":139.49202198},{"name":"平尾宅地分譲自治会館","province":"東京都","city":"稲城市","address":"東京都稲城市平尾2丁目77-7","lat":35.60560658,"lon":139.49148351},{"name":"平尾住宅自治会事務所","province":"東京都","city":"稲城市","address":"東京都稲城市平尾3丁目1-1","lat":35.61050507,"lon":139.4861694},{"name":"平尾分譲住宅自治会事務所","province":"東京都","city":"稲城市","address":"東京都稲城市平尾3丁目7-5","lat":35.60873352,"lon":139.489475},{"name":"平尾住宅管理事務所","province":"東京都","city":"稲城市","address":"東京都稲城市平尾3丁目1-1","lat":35.61050507,"lon":139.4861694},{"name":"ゆうとあい平尾管理組合","province":"東京都","city":"稲城市","address":"東京都稲城市平尾3丁目7-5","lat":35.60873352,"lon":139.489475},{"name":"上平尾ひなた自治会クラブハウスひなたコテージ","province":"東京都","city":"稲城市","address":"東京都稲城市平尾4丁目68-16","lat":35.6123821,"lon":139.48236383},{"name":"押立自治会館","province":"東京都","city":"稲城市","address":"東京都稲城市押立692-3","lat":35.64945767,"lon":139.51382019},{"name":"ファインヒル向陽台自治会館","province":"東京都","city":"稲城市","address":"東京都稲城市向陽台3丁目12-3","lat":35.64016618,"lon":139.48943345},{"name":"長峰西地区自治会館","province":"東京都","city":"稲城市","address":"東京都稲城市長峰2丁目11-1","lat":35.62829571,"lon":139.48199593},{"name":"長峰東部合同自治会館","province":"東京都","city":"稲城市","address":"東京都稲城市長峰1丁目2-111","lat":35.63014281,"lon":139.48513173},{"name":"若葉台自治会集会所","province":"東京都","city":"稲城市","address":"東京都稲城市若葉台4丁目11-5","lat":35.62896125,"lon":139.46776332},{"name":"稲城市松葉集会所","province":"東京都","city":"稲城市","address":"東京都稲城市矢野口1892","lat":35.63645779,"lon":139.52051555},{"name":"稲城市大丸地区会館","province":"東京都","city":"稲城市","address":"東京都稲城市大丸251","lat":35.64733504,"lon":139.49877685},{"name":"稲城市押立ふれあい会館","province":"東京都","city":"稲城市","address":"東京都稲城市押立663","lat":35.64970195,"lon":139.51108701},{"name":"矢野口コミュニティ防災センター","province":"東京都","city":"稲城市","address":"東京都稲城市矢野口2271-1","lat":35.63361091,"lon":139.51571892},{"name":"百村コミュニティ防災センター","province":"東京都","city":"稲城市","address":"東京都稲城市百村2017","lat":35.63848934,"lon":139.49741099},{"name":"坂浜コミュニティ防災センター","province":"東京都","city":"稲城市","address":"東京都稲城市坂浜974","lat":35.6247106,"lon":139.48589606},{"name":"長峰コミュニティ防災センター","province":"東京都","city":"稲城市","address":"東京都稲城市長峰2丁目31-1","lat":35.62843431,"lon":139.47843777},{"name":"長峰ふれあい会館（長峰オアシス）","province":"東京都","city":"稲城市","address":"東京都稲城市長峰2丁目1-1","lat":35.63196463,"lon":139.48466493},{"name":"稲城市商工会","province":"東京都","city":"稲城市","address":"東京都稲城市東長沼2112-1","lat":35.63785392,"lon":139.5057551},{"name":"稲城市中小企業勤労者福祉サービスセンター（ICS）","province":"東京都","city":"稲城市","address":"東京都稲城市東長沼2112-1","lat":35.63785392,"lon":139.5057551},{"name":"東京南農業協同組合稲城支店","province":"東京都","city":"稲城市","address":"東京都稲城市東長沼2110-1","lat":35.63857854,"lon":139.50219131},{"name":"東京南農業協同組合　平尾農産物直売所　ハーベスト","province":"東京都","city":"稲城市","address":"東京都稲城市平尾1丁目49-5","lat":35.61100576,"lon":139.49401636},{"name":"小泉八雲旧居跡","province":"東京都","city":"新宿区","address":"東京都新宿区富久町7-30","lat":35.691418,"lon":139.717239},{"name":"服部半蔵の墓","province":"東京都","city":"新宿区","address":"東京都新宿区若葉2-9","lat":35.684599,"lon":139.725659},{"name":"三遊亭円朝旧居跡","province":"東京都","city":"新宿区","address":"東京都新宿区新宿1-21","lat":35.688881,"lon":136.713079},{"name":"林芙美子終焉の地","province":"東京都","city":"新宿区","address":"東京都新宿区中井2-20-1","lat":35.715782,"lon":139.684141},{"name":"新宿駅西口　地下タクシー乗り場前","province":"東京都","city":"新宿区","address":"東京都新宿区西新宿1","lat":35.6911,"lon":139.69777},{"name":"新宿駅東口　アルタ前（２基設置）","province":"東京都","city":"新宿区","address":"東京都新宿区新宿3-24-3","lat":35.69267,"lon":139.70139},{"name":"歌舞伎町　交差点","province":"東京都","city":"新宿区","address":"東京都新宿区歌舞伎町1-17-13","lat":35.69409,"lon":139.70135},{"name":"歌舞伎町　セントラルロード","province":"東京都","city":"新宿区","address":"東京都新宿区歌舞伎町1-14-3","lat":35.69452,"lon":139.70206},{"name":"歌舞伎町　一番街","province":"東京都","city":"新宿区","address":"東京都新宿区歌舞伎町1-23-10","lat":35.69426,"lon":139.70093},{"name":"新宿西口駅　思い出横丁南","province":"東京都","city":"新宿区","address":"東京都新宿区西新宿1-4-2","lat":35.69304,"lon":139.69801},{"name":"新宿駅東口　モア２番街南","province":"東京都","city":"新宿区","address":"東京都新宿区新宿3-23-17","lat":35.69327,"lon":139.70085},{"name":"新宿駅東口　モア４番街南","province":"東京都","city":"新宿区","address":"東京都新宿区新宿3-26-11","lat":35.69154,"lon":139.70186},{"name":"新宿駅東南口　広場前","province":"東京都","city":"新宿区","address":"東京都新宿区新宿3-37","lat":35.69017,"lon":139.70145},{"name":"新宿駅南口　バスタ新宿前","province":"東京都","city":"新宿区","address":"東京都新宿区新宿3-38-2","lat":35.69214,"lon":139.70129},{"name":"西新宿一丁目交差点","province":"東京都","city":"新宿区","address":"東京都新宿区西新宿1-1-5","lat":35.69027,"lon":139.69939},{"name":"京王百貨店前（２基設置）","province":"東京都","city":"新宿区","address":"東京都新宿区西新宿1-1-4","lat":35.69027,"lon":139.69939},{"name":"新宿駅東口　タクシー乗り場前","province":"東京都","city":"新宿区","address":"東京都新宿区新宿3-38-1","lat":35.69214,"lon":139.70129},{"name":"新宿駅東南口　Flags前","province":"東京都","city":"新宿区","address":"東京都新宿区新宿3-36-6","lat":35.69034,"lon":139.7019},{"name":"伊勢丹本館前","province":"東京都","city":"新宿区","address":"東京都新宿区新宿3-14-1","lat":35.69234,"lon":139.70471},{"name":"新宿三丁目交差点","province":"東京都","city":"新宿区","address":"東京都新宿区新宿3-4-4","lat":35.69087,"lon":139.7054},{"name":"高田馬場駅早稲田口　西","province":"東京都","city":"新宿区","address":"東京都新宿区高田馬場3-1-4","lat":35.714317,"lon":139.703598},{"name":"高田馬場駅早稲田口　ロータリー","province":"東京都","city":"新宿区","address":"東京都新宿区高田馬場1-26-5","lat":35.712883,"lon":139.704865},{"name":"高田馬場駅戸山口　東","province":"東京都","city":"新宿区","address":"東京都新宿区高田馬場1-28-4","lat":35.71159,"lon":139.704315},{"name":"大久保駅北口","province":"東京都","city":"新宿区","address":"東京都新宿区百人町2-23-1","lat":35.70179,"lon":139.696976},{"name":"新大久保駅北口　西","province":"東京都","city":"新宿区","address":"東京都新宿区百人町2-4-1","lat":35.70155,"lon":139.700104},{"name":"新大久保駅北口　東","province":"東京都","city":"新宿区","address":"東京都新宿区百人町2-3-23","lat":35.701492,"lon":139.701004},{"name":"信濃町駅","province":"東京都","city":"新宿区","address":"東京都新宿区南元町19","lat":35.679428,"lon":139.720978},{"name":"JR四ツ谷駅四ツ谷口","province":"東京都","city":"新宿区","address":"東京都新宿区四谷1-4-2","lat":35.686832,"lon":139.728683},{"name":"JR四ツ谷駅赤坂口","province":"東京都","city":"新宿区","address":"東京都新宿区四谷1-2","lat":35.68578,"lon":139.728958},{"name":"西武線中井駅","province":"東京都","city":"新宿区","address":"東京都新宿区中落合1-20-15","lat":35.714939,"lon":139.687393},{"name":"大江戸線中井駅A2出口","province":"東京都","city":"新宿区","address":"東京都新宿区上落合2-20-6","lat":35.714153,"lon":139.686829},{"name":"神楽坂下交差点","province":"東京都","city":"新宿区","address":"東京都新宿区神楽坂2-1","lat":35.700607,"lon":139.741806},{"name":"地下鉄早稲田駅前交差点","province":"東京都","city":"新宿区","address":"東京都新宿区馬場下町3","lat":35.70573,"lon":139.720551}]}