{"keyword":"公私","data":[{"name":"三鷹西野保育園","province":"東京都","city":"三鷹市","address":"東京都三鷹市深大寺3丁目3-10","lat":35.69181091,"lon":139.53664118},{"name":"三鷹駅前保育園","province":"東京都","city":"三鷹市","address":"東京都三鷹市下連雀3丁目30-12","lat":35.69813016,"lon":139.56127759},{"name":"認定こども園　三鷹ちどりこども園","province":"東京都","city":"三鷹市","address":"東京都三鷹市上連雀4丁目12-26","lat":35.69533874,"lon":139.55718365},{"name":"三鷹赤とんぼ保育園","province":"東京都","city":"三鷹市","address":"東京都三鷹市牟礼3丁目9-3","lat":35.68829832,"lon":139.58072621},{"name":"三鷹南浦西保育園","province":"東京都","city":"三鷹市","address":"東京都三鷹市下連雀7丁目2-1","lat":35.68902841,"lon":139.56369158},{"name":"中央保育園","province":"東京都","city":"三鷹市","address":"東京都三鷹市上連雀6丁目11-16","lat":35.69236409,"lon":139.55898357},{"name":"南浦東保育園","province":"東京都","city":"三鷹市","address":"東京都三鷹市下連雀6丁目12-1","lat":35.6875786,"lon":139.5655248},{"name":"あけぼの保育園","province":"東京都","city":"三鷹市","address":"東京都三鷹市上連雀4丁目11-21","lat":35.69414442,"lon":139.5570948},{"name":"新川保育園","province":"東京都","city":"三鷹市","address":"東京都三鷹市新川5丁目7-2","lat":35.67547453,"lon":139.57025535},{"name":"下連雀保育園","province":"東京都","city":"三鷹市","address":"東京都三鷹市下連雀4丁目19-4","lat":35.69619704,"lon":139.56026944},{"name":"上連雀保育園","province":"東京都","city":"三鷹市","address":"東京都三鷹市上連雀5丁目1-27","lat":35.69870217,"lon":139.55390325},{"name":"野崎保育園","province":"東京都","city":"三鷹市","address":"東京都三鷹市野崎3丁目12-11","lat":35.68591446,"lon":139.5433991},{"name":"東台保育園","province":"東京都","city":"三鷹市","address":"東京都三鷹市中原2丁目17-39","lat":35.66774493,"lon":139.57228604},{"name":"牟礼保育園","province":"東京都","city":"三鷹市","address":"東京都三鷹市牟礼7丁目4-52","lat":35.68340705,"lon":139.57462691},{"name":"大沢台保育園","province":"東京都","city":"三鷹市","address":"東京都三鷹市大沢2丁目2-52","lat":35.68073718,"lon":139.53707491},{"name":"こじか保育園","province":"東京都","city":"三鷹市","address":"東京都三鷹市新川6丁目7-8","lat":35.679674,"lon":139.56842758}]}