{"keyword":"スポーツ","data":[{"name":"東京都障害者総合スポーツセンター","province":"東京都","city":"北区","address":"北区十条台1-2-2","lat":35.753696,"lon":139.724018},{"name":"東京都多摩障害者スポーツセンター","province":"東京都","city":"国立市","address":"国立市富士見台2-1-1","lat":35.686521,"lon":139.446565},{"name":"清島温水プール","province":"","city":"","address":"東上野6丁目16番8号","lat":35.71349445,"lon":139.7834343},{"name":"柳北スポーツプラザ","province":"","city":"","address":"浅草橋5丁目1番8号(旧柳北小学校体育館)","lat":35.69927587,"lon":139.7822653},{"name":"台東リバーサイドスポーツセンター","province":"","city":"","address":"今戸1丁目1番10号","lat":35.71740493,"lon":139.8045826},{"name":"生涯学習センタートレーニングルーム","province":"","city":"","address":"西浅草3丁目25番16号生涯学習センター3階","lat":35.71723755,"lon":139.7896974},{"name":"荒川河川敷運動公園運動場","province":"東京都","city":"足立区","address":"足立区千住大川町12番1号先(荒川河川敷)","lat":35.75817776,"lon":139.800661},{"name":"江戸川河川敷野球場","province":"埼玉県","city":"三郷市","address":"埼玉県三郷市新和地先(江戸川河川敷)","lat":35.81915282,"lon":139.8887614},{"name":"たなかスポーツプラザ","province":"","city":"","address":"日本堤2丁目25番4号","lat":35.72787927,"lon":139.7972566},{"name":"都立浅草高等学校温水プール(区民開放期間のみ）","province":"","city":"","address":"今戸1丁目8番13号都立浅草高等学校体育館棟地下1階","lat":35.71935628,"lon":139.8024865},{"name":"メインアリーナ","province":"東京都","city":"渋谷区","address":"渋谷区千駄ヶ谷1-17-1","lat":35.679396,"lon":139.711963},{"name":"サブアリーナ","province":"東京都","city":"渋谷区","address":"渋谷区千駄ヶ谷1-17-1","lat":35.679396,"lon":139.711963},{"name":"50mプール","province":"東京都","city":"渋谷区","address":"渋谷区千駄ヶ谷1-17-1","lat":35.679396,"lon":139.711963},{"name":"25mプール","province":"東京都","city":"渋谷区","address":"渋谷区千駄ヶ谷1-17-1","lat":35.679396,"lon":139.711963},{"name":"陸上競技場","province":"東京都","city":"渋谷区","address":"渋谷区千駄ヶ谷1-17-1","lat":35.679396,"lon":139.711963},{"name":"トレーニングルーム","province":"東京都","city":"渋谷区","address":"渋谷区千駄ヶ谷1-17-1","lat":35.679396,"lon":139.711963},{"name":"健康体力相談室","province":"東京都","city":"渋谷区","address":"渋谷区千駄ヶ谷1-17-1","lat":35.679396,"lon":139.711963},{"name":"陸上競技場","province":"東京都","city":"世田谷区","address":"世田谷区駒沢公園1-1","lat":35.625574,"lon":139.663655},{"name":"屋内球技場","province":"東京都","city":"世田谷区","address":"世田谷区駒沢公園1-1","lat":35.625574,"lon":139.663655},{"name":"体育館","province":"東京都","city":"世田谷区","address":"世田谷区駒沢公園1-1","lat":35.625574,"lon":139.663655},{"name":"第一球技場","province":"東京都","city":"世田谷区","address":"世田谷区駒沢公園1-1","lat":35.625574,"lon":139.663655},{"name":"第二球技場","province":"東京都","city":"世田谷区","address":"世田谷区駒沢公園1-1","lat":35.625574,"lon":139.663655},{"name":"テニスコート","province":"東京都","city":"世田谷区","address":"世田谷区駒沢公園1-1","lat":35.625574,"lon":139.663655},{"name":"補助競技場","province":"東京都","city":"世田谷区","address":"世田谷区駒沢公園1-1","lat":35.625574,"lon":139.663655},{"name":"軟式野球場","province":"東京都","city":"世田谷区","address":"世田谷区駒沢公園1-1","lat":35.625574,"lon":139.663655},{"name":"硬式野球場","province":"東京都","city":"世田谷区","address":"世田谷区駒沢公園1-1","lat":35.625574,"lon":139.663655},{"name":"弓道場","province":"東京都","city":"世田谷区","address":"世田谷区駒沢公園1-1","lat":35.625574,"lon":139.663655},{"name":"トレーニングルーム","province":"東京都","city":"世田谷区","address":"世田谷区駒沢公園1-1","lat":35.625574,"lon":139.663655},{"name":"大武道場","province":"東京都","city":"足立区","address":"足立区綾瀬3-20-1","lat":35.765779,"lon":139.825792},{"name":"第一武道場","province":"東京都","city":"足立区","address":"足立区綾瀬3-20-1","lat":35.765779,"lon":139.825792},{"name":"第二武道場","province":"東京都","city":"足立区","address":"足立区綾瀬3-20-1","lat":35.765779,"lon":139.825792},{"name":"弓道場","province":"東京都","city":"足立区","address":"足立区綾瀬3-20-1","lat":35.765779,"lon":139.825792},{"name":"トレーニングルーム","province":"東京都","city":"足立区","address":"足立区綾瀬3-20-1","lat":35.765779,"lon":139.825792},{"name":"メインプール","province":"東京都","city":"江東区","address":"江東区辰巳2-8-10","lat":35.647651,"lon":139.818932},{"name":"ダイビングプール","province":"東京都","city":"江東区","address":"江東区辰巳2-8-10","lat":35.647651,"lon":139.818932},{"name":"サブプール","province":"東京都","city":"江東区","address":"江東区辰巳2-8-10","lat":35.647651,"lon":139.818932},{"name":"体育館","province":"東京都","city":"北区","address":"北区十条台1-2-2","lat":35.753929,"lon":139.724256},{"name":"トレーニング室","province":"東京都","city":"北区","address":"北区十条台1-2-2","lat":35.753929,"lon":139.724256},{"name":"卓球室","province":"東京都","city":"北区","address":"北区十条台1-2-2","lat":35.753929,"lon":139.724256},{"name":"芝生広場","province":"東京都","city":"北区","address":"北区十条台1-2-2","lat":35.753929,"lon":139.724256},{"name":"体育館","province":"東京都","city":"国立市","address":"国立市富士見台2-1-1","lat":35.686681,"lon":139.446549},{"name":"トレーニング室","province":"東京都","city":"国立市","address":"国立市富士見台2-1-1","lat":35.686681,"lon":139.446549},{"name":"屋内温水プール","province":"東京都","city":"国立市","address":"国立市富士見台2-1-1","lat":35.686681,"lon":139.446549},{"name":"卓球室","province":"東京都","city":"国立市","address":"国立市富士見台2-1-1","lat":35.686681,"lon":139.446549},{"name":"サウンドテーブルテニス室","province":"東京都","city":"国立市","address":"国立市富士見台2-1-1","lat":35.686681,"lon":139.446549},{"name":"健康体力相談室","province":"東京都","city":"国立市","address":"国立市富士見台2-1-1","lat":35.686681,"lon":139.446549},{"name":"テニスコート（Ａコート）","province":"東京都","city":"江東区","address":"東京都江東区有明2-2-22","lat":35.63467,"lon":139.788526},{"name":"テニスコート（Ｂコート）","province":"東京都","city":"江東区","address":"東京都江東区有明2-2-22","lat":35.63467,"lon":139.788526},{"name":"テニスコート（Ｃコート）","province":"東京都","city":"江東区","address":"東京都江東区有明2-2-22","lat":35.63467,"lon":139.788526},{"name":"有明コロシアム","province":"東京都","city":"江東区","address":"東京都江東区有明2-2-22","lat":35.63467,"lon":139.788526},{"name":"若洲ヨット訓練所","province":"東京都","city":"江東区","address":"江東区若洲3-1-1","lat":35.630652,"lon":139.837654},{"name":"アミノバイタルフィールド","province":"東京都","city":"調布市","address":"調布市西町376番地3","lat":35.664235,"lon":139.527162},{"name":"ミズノフットサルプラザ調布","province":"東京都","city":"調布市","address":"調布市西町376番地3","lat":35.664235,"lon":139.527162},{"name":"味の素スタジアム西競技場","province":"東京都","city":"調布市","address":"調布市西町376番地3","lat":35.664235,"lon":139.527162},{"name":"墨田区総合体育館","province":"東京都","city":"墨田区","address":"墨田区錦糸四丁目15番1号","lat":35.699416,"lon":139.817188},{"name":"スポーツプラザ梅若","province":"東京都","city":"墨田区","address":"墨田区墨田一丁目4番4号","lat":35.729064,"lon":139.815837},{"name":"立花体育館","province":"東京都","city":"墨田区","address":"墨田区立花一丁目25番10号","lat":35.705186,"lon":139.83202},{"name":"両国屋内プール","province":"東京都","city":"墨田区","address":"墨田区横網一丁目8番1号両国中学校内","lat":35.697809,"lon":139.796259},{"name":"弓道場","province":"東京都","city":"墨田区","address":"墨田区江東橋四丁目1番3号","lat":35.693357,"lon":139.817402},{"name":"屋外体育施設管理事務所八広支所","province":"東京都","city":"墨田区","address":"墨田区八広六丁目35番1号","lat":35.726546,"lon":139.829392},{"name":"屋外体育施設管理事務所錦糸支所","province":"東京都","city":"墨田区","address":"墨田区錦糸四丁目15番1号","lat":35.699416,"lon":139.817188},{"name":"錦糸公園野球場","province":"東京都","city":"墨田区","address":"墨田区錦糸四丁目15番1号","lat":35.699468,"lon":139.816995},{"name":"八広野球場","province":"東京都","city":"墨田区","address":"墨田区八広六丁目地先","lat":35.729774,"lon":139.828899},{"name":"墨田野球場","province":"東京都","city":"墨田区","address":"墨田区墨田四丁目地先","lat":35.733249,"lon":139.825283},{"name":"荒川四ツ木橋緑地野球場","province":"東京都","city":"墨田区","address":"墨田区墨田四・五丁目地先","lat":35.737301,"lon":139.821909},{"name":"鐘淵野球場","province":"東京都","city":"墨田区","address":"墨田区墨田五丁目地先","lat":35.73864,"lon":139.821174},{"name":"荒川四ツ木橋緑地少年野球場","province":"東京都","city":"墨田区","address":"墨田区東墨田二丁目地先","lat":35.72555,"lon":139.83304},{"name":"東墨田公園少年野球場","province":"東京都","city":"墨田区","address":"墨田区東墨田三丁目4番14号","lat":35.719965,"lon":139.835041},{"name":"隅田公園少年野球場","province":"東京都","city":"墨田区","address":"墨田区向島五丁目6番13号","lat":35.718826,"lon":139.809372},{"name":"江戸川河川敷野球場","province":"埼玉県","city":"三郷市","address":"三郷市新和四丁目地先","lat":35.817844,"lon":139.889423},{"name":"錦糸公園テニスコート","province":"東京都","city":"墨田区","address":"墨田区錦糸四丁目15番1号","lat":35.69963,"lon":139.815499},{"name":"文花テニスコート","province":"東京都","city":"墨田区","address":"墨田区文花一丁目19番12号","lat":35.709693,"lon":139.823985},{"name":"緑町公園テニスコート","province":"東京都","city":"墨田区","address":"墨田区亀沢二丁目7番7号","lat":35.696358,"lon":139.801007},{"name":"東墨田テニスコート","province":"東京都","city":"墨田区","address":"墨田区東墨田三丁目19番6号","lat":35.718387,"lon":139.837146},{"name":"堤通公園テニスコート","province":"東京都","city":"墨田区","address":"墨田区堤通一丁目8番1号","lat":35.723939,"lon":139.810789},{"name":"大横川親水公園テニスコート","province":"東京都","city":"墨田区","address":"墨田区緑四丁目22番、墨田区江東橋一丁目8番先","lat":35.69438975,"lon":139.808936},{"name":"墨田競技場","province":"東京都","city":"墨田区","address":"墨田区墨田四丁目地先","lat":35.73325,"lon":139.8253},{"name":"荒川四ツ木橋緑地競技場","province":"東京都","city":"墨田区","address":"墨田区墨田四・五丁目地先","lat":35.735975,"lon":139.822977},{"name":"荒川四ツ木橋緑地球技場","province":"東京都","city":"墨田区","address":"墨田区墨田四丁目地先","lat":35.734591,"lon":139.824082},{"name":"鐘淵球技場","province":"東京都","city":"墨田区","address":"墨田区墨田五丁目地先","lat":35.739293,"lon":139.820831},{"name":"荒川四ツ木橋緑地少年サッカー場","province":"東京都","city":"墨田区","address":"墨田区東墨田二丁目地先","lat":35.722998,"lon":139.835637},{"name":"荒川緑地フィールドハウス","province":"東京都","city":"墨田区","address":"墨田区墨田四丁目32番10号","lat":35.732701,"lon":139.823903},{"name":"東白鬚公園サービスセンター","province":"東京都","city":"墨田区","address":"墨田区堤通二丁目2番","lat":35.733289,"lon":139.813482},{"name":"東白鬚公園テニスコート","province":"東京都","city":"墨田区","address":"墨田区堤通二丁目2番","lat":35.732339,"lon":139.813541},{"name":"東白鬚公園少年野球場","province":"東京都","city":"墨田区","address":"墨田区堤通二丁目2番","lat":35.733036,"lon":139.814324},{"name":"フクシ・エンタープライズ墨田フィールド（墨田区総合運動場）","province":"東京都","city":"墨田区","address":"墨田区堤通二丁目11番1号","lat":35.738941,"lon":139.816432}]}