{"keyword":"心身","data":[{"name":"東京都心身障害者福祉センター","province":"東京都","city":"新宿区","address":"新宿区神楽河岸1-1","lat":35.700951,"lon":139.743579},{"name":"東京都心身障害者福祉センター多摩支所","province":"東京都","city":"立川市","address":"立川市曙町3-7-10","lat":35.69916,"lon":139.423556},{"name":"東京都心身障害者福祉センター","province":"東京都","city":"新宿区","address":"新宿区神楽河岸1-1","lat":35.70095,"lon":139.74342},{"name":"東京都心身障害者福祉センター多摩支所","province":"東京都","city":"国立市","address":"国立市富士見台2-1-1","lat":35.6866,"lon":139.44635},{"name":"東京都心身障害者福祉センター多摩支所","province":"東京都","city":"国立市","address":"国立市富士見台2-1-1","lat":35.686521,"lon":139.446565},{"name":"墨田福祉作業所","province":"東京都","city":"墨田区","address":"東京都墨田区八広1丁目16-22","lat":35.71964411,"lon":139.82205531},{"name":"すみだふれあいセンター福祉作業所","province":"東京都","city":"墨田区","address":"東京都墨田区緑4丁目35-6","lat":35.69579476,"lon":139.80748896},{"name":"すみだふれあいセンター福祉作業所","province":"東京都","city":"墨田区","address":"東京都墨田区緑4丁目35-6","lat":35.69579476,"lon":139.80748896},{"name":"すみだふれあいセンター福祉作業所","province":"東京都","city":"墨田区","address":"東京都墨田区緑4丁目35-6","lat":35.69579476,"lon":139.80748896},{"name":"すみだふれあいセンター福祉作業所","province":"東京都","city":"墨田区","address":"東京都墨田区緑4丁目35-6","lat":35.69579476,"lon":139.80748896},{"name":"すみだふれあいセンター福祉作業所","province":"東京都","city":"墨田区","address":"東京都墨田区緑4丁目35-6","lat":35.69579476,"lon":139.80748896},{"name":"すみだふれあいセンター福祉作業所","province":"東京都","city":"墨田区","address":"東京都墨田区緑4丁目35-6","lat":35.69579476,"lon":139.80748896},{"name":"すみだ障害者就労支援総合センター","province":"東京都","city":"墨田区","address":"東京都墨田区緑4丁目25-4","lat":35.69554202,"lon":139.80767785},{"name":"就労移行支援施設","province":"東京都","city":"墨田区","address":"東京都墨田区緑4丁目25-4","lat":35.69554202,"lon":139.80767785},{"name":"亀沢のぞみの家","province":"東京都","city":"墨田区","address":"東京都墨田区亀沢4丁目18-11","lat":35.69903328,"lon":139.80824676},{"name":"亀沢のぞみの家・肢体不自由児者通所訓練所","province":"東京都","city":"墨田区","address":"東京都墨田区亀沢4丁目18-11","lat":35.69903328,"lon":139.80824676},{"name":"すみだステップハウスおおぞら　ひだまり","province":"東京都","city":"墨田区","address":"東京都墨田区文花1丁目32-7","lat":35.70823594,"lon":139.82381101},{"name":"すみだステップハウスおおぞら　にじの子","province":"東京都","city":"墨田区","address":"東京都墨田区文花1丁目32-7","lat":35.70823594,"lon":139.82381101},{"name":"墨田さんさんプラザ","province":"東京都","city":"墨田区","address":"東京都墨田区立花4丁目30-16","lat":35.71011895,"lon":139.8343651},{"name":"空ゆけ未来工房","province":"東京都","city":"墨田区","address":"東京都墨田区横川4丁目11-2","lat":35.70546043,"lon":139.81520375},{"name":"向島七福福祉作業所","province":"東京都","city":"墨田区","address":"東京都墨田区向島3丁目30-7","lat":35.7132379,"lon":139.81006714},{"name":"ワクワク工房デイサービス","province":"東京都","city":"墨田区","address":"東京都墨田区墨田2丁目12-12","lat":35.73280379,"lon":139.81856961},{"name":"墨田えがおの家","province":"東京都","city":"墨田区","address":"東京都墨田区八広4丁目10-4","lat":35.72282136,"lon":139.82780453},{"name":"キッズサポートりま","province":"東京都","city":"墨田区","address":"東京都墨田区立川1丁目16-20","lat":35.69159543,"lon":139.79942684},{"name":"スマートキッズプラス錦糸町","province":"東京都","city":"墨田区","address":"東京都墨田区太平4丁目24-10","lat":35.70291303,"lon":139.81860395},{"name":"スマートキッズプラス平井北","province":"東京都","city":"墨田区","address":"東京都墨田区八広4丁目48-5","lat":35.72077394,"lon":139.83025129},{"name":"チャイルドデイケアほわわ吾妻橋","province":"東京都","city":"墨田区","address":"東京都墨田区吾妻橋1丁目17-4","lat":35.70893787,"lon":139.80034366},{"name":"アルファキッズ菊川駅前","province":"東京都","city":"墨田区","address":"東京都墨田区菊川3丁目7-4","lat":35.68822915,"lon":139.80626202},{"name":"コラゾン菊川","province":"東京都","city":"墨田区","address":"東京都墨田区立川4丁目3-13","lat":35.69030106,"lon":139.80786988},{"name":"コラゾン吾妻橋浅草","province":"東京都","city":"墨田区","address":"東京都墨田区吾妻橋1丁目4-4","lat":35.70805739,"lon":139.80095479},{"name":"コラゾン両国","province":"東京都","city":"墨田区","address":"東京都墨田区亀沢1丁目19-1","lat":35.69785016,"lon":139.79933977},{"name":"ゆうゆうライフアカデミー","province":"東京都","city":"墨田区","address":"東京都墨田区亀沢1丁目20-2","lat":35.69821123,"lon":139.79935082},{"name":"チームひまわりっ子","province":"東京都","city":"墨田区","address":"東京都墨田区東向島3丁目31-4","lat":35.72318536,"lon":139.81418168}]}