{"category":"wireless","data":[{"name":"駿河台日本大学病院","province":"東京都","city":"千代田区","address":"東京都千代田区神田駿河台1丁目8-13","lat":35.69821877,"lon":139.76340494},{"name":"三井記念病院","province":"東京都","city":"千代田区","address":"東京都千代田区神田和泉町1","lat":35.69901632,"lon":139.77742103},{"name":"東京都漬物事業協同組合","province":"東京都","city":"千代田区","address":"東京都千代田区外神田2丁目2-17","lat":35.69964098,"lon":139.76772134},{"name":"都立日比谷公園","province":"東京都","city":"千代田区","address":"東京都千代田区日比谷公園1","lat":35.67461838,"lon":139.75677845},{"name":"都立一橋高等学校","province":"東京都","city":"千代田区","address":"東京都千代田区東神田1丁目12-13","lat":35.69458357,"lon":139.78104065},{"name":"東京都漬物事業協同組合","province":"東京都","city":"千代田区","address":"東京都千代田区外神田2丁目2-17","lat":35.69964098,"lon":139.76772134},{"name":"千代田都税事務所","province":"東京都","city":"千代田区","address":"東京都千代田区内神田2丁目1-12","lat":35.689081,"lon":139.76828274},{"name":"東京都中小企業振興公社","province":"東京都","city":"千代田区","address":"東京都千代田区神田佐久間町1丁目9","lat":35.69726364,"lon":139.77425451},{"name":"東京しごとセンター","province":"東京都","city":"千代田区","address":"東京都千代田区飯田橋3丁目10-3","lat":35.70055702,"lon":139.74957525},{"name":"日比谷グリーンサロン","province":"東京都","city":"千代田区","address":"東京都千代田区日比谷公園1-5","lat":35.67282684,"lon":139.75432594},{"name":"「緑と水」の市民カレッジ","province":"東京都","city":"千代田区","address":"東京都千代田区日比谷公園1-5","lat":35.67282684,"lon":139.75432594},{"name":"一橋高等学校","province":"東京都","city":"千代田区","address":"東京都千代田区東神田1丁目12-13","lat":35.69458357,"lon":139.78104065},{"name":"日比谷高等学校","province":"東京都","city":"千代田区","address":"東京都千代田区永田町2丁目16-1","lat":35.67628721,"lon":139.73974095},{"name":"スクワール麹町","province":"東京都","city":"千代田区","address":"東京都千代田区麹町6丁目6","lat":35.68555823,"lon":139.73222458},{"name":"東京交通会館","province":"東京都","city":"千代田区","address":"東京都千代田区有楽町2丁目10-1","lat":35.67498242,"lon":139.76429726},{"name":"宝田橋","province":"東京都","city":"千代田区","address":"東京都千代田区九段南1丁目2-1","lat":35.69407451,"lon":139.75364744},{"name":"九段中等教育学校","province":"東京都","city":"千代田区","address":"東京都千代田区九段北2丁目2-1","lat":35.69609634,"lon":139.74728118}]}