{"keyword":"し尿","data":[{"name":"千代田区児童・家庭支援センター","province":"東京都","city":"千代田区","address":"千代田区神田司町2-16神田さくら館6階","lat":35.693178,"lon":139.768394},{"name":"千代田保健所","province":"東京都","city":"千代田区","address":"千代田区九段北1-2-14","lat":35.696071,"lon":139.752142},{"name":"千代田区","province":"東京都","city":"千代田区","address":"千代田区九段南1-2-1","lat":35.6940028,"lon":139.7536339},{"name":"千代田合同庁舎","province":"東京都","city":"千代田区","address":"東京都千代田区内神田2丁目1-12","lat":35.688985,"lon":139.768232},{"name":"東京しごとセンター","province":"東京都","city":"千代田区","address":"東京都千代田区飯田橋3丁目10-1","lat":35.700311,"lon":139.749855},{"name":"東京国際フォーラム","province":"東京都","city":"千代田区","address":"東京都千代田区丸の内3丁目5-1","lat":35.676314,"lon":139.764174},{"name":"東京国際フォーラム","province":"東京都","city":"千代田区","address":"東京都千代田区丸の内3丁目5-1","lat":35.676352,"lon":139.764309},{"name":"東京国際フォーラム","province":"東京都","city":"千代田区","address":"東京都千代田区丸の内3丁目5","lat":35.676086,"lon":139.763027},{"name":"東京国際フォーラム","province":"東京都","city":"千代田区","address":"東京都千代田区丸の内3丁目5-1","lat":35.677562,"lon":139.763923},{"name":"日比谷公園","province":"東京都","city":"千代田区","address":"東京都千代田区日比谷公園1","lat":35.674014,"lon":139.754432},{"name":"日比谷公園","province":"東京都","city":"千代田区","address":"東京都千代田区日比谷公園1","lat":35.67456,"lon":139.756784},{"name":"日比谷公園","province":"東京都","city":"千代田区","address":"東京都千代田区日比谷公園1","lat":35.672179,"lon":139.755556},{"name":"日比谷公園","province":"東京都","city":"千代田区","address":"東京都千代田区日比谷公園1","lat":35.675722,"lon":139.757134},{"name":"日比谷公園","province":"東京都","city":"千代田区","address":"東京都千代田区日比谷公園1","lat":35.67432,"lon":139.756837},{"name":"日比谷公園","province":"東京都","city":"千代田区","address":"東京都千代田区日比谷公園1","lat":35.674892,"lon":139.755673},{"name":"日比谷公園","province":"東京都","city":"千代田区","address":"東京都千代田区日比谷公園1-5","lat":35.672404,"lon":139.75393},{"name":"日比谷公園","province":"東京都","city":"千代田区","address":"東京都千代田区日比谷公園1","lat":35.672365,"lon":139.754034},{"name":"日比谷公園","province":"東京都","city":"千代田区","address":"東京都千代田区日比谷公園1-5","lat":35.673155,"lon":139.753984},{"name":"日比谷公園","province":"東京都","city":"千代田区","address":"東京都千代田区日比谷公園1","lat":35.672811,"lon":139.753939},{"name":"日比谷公園","province":"東京都","city":"千代田区","address":"東京都千代田区日比谷公園1","lat":35.672811,"lon":139.753954},{"name":"都営三田線駅内幸町駅","province":"東京都","city":"千代田区","address":"東京都千代田区内幸町2丁目2","lat":35.669176,"lon":139.755244},{"name":"都営三田線駅日比谷駅","province":"東京都","city":"千代田区","address":"東京都千代田区有楽町1丁目13","lat":35.675739,"lon":139.759879},{"name":"都営三田線駅大手町駅","province":"東京都","city":"千代田区","address":"東京都千代田区丸の内1丁目2","lat":35.683028,"lon":139.762534},{"name":"都営三田線駅神保町駅","province":"東京都","city":"千代田区","address":"東京都千代田区一ツ橋2丁目3","lat":35.693965,"lon":139.758481},{"name":"都営新宿線市ヶ谷駅","province":"東京都","city":"千代田区","address":"東京都千代田区九段南4丁目8","lat":35.691167,"lon":139.736429},{"name":"都営新宿線市ヶ谷駅","province":"東京都","city":"千代田区","address":"東京都千代田区九段南4丁目7","lat":35.691942,"lon":139.739051},{"name":"都営新宿線九段下駅","province":"東京都","city":"千代田区","address":"東京都千代田区九段北1丁目2","lat":35.69564,"lon":139.751905},{"name":"都営新宿線神保町駅","province":"東京都","city":"千代田区","address":"東京都千代田区神田神保町2丁目","lat":35.696018,"lon":139.757721},{"name":"都営新宿線神保町駅","province":"東京都","city":"千代田区","address":"東京都千代田区神田神保町2丁目","lat":35.695857,"lon":139.757728},{"name":"都営新宿線小川町駅","province":"東京都","city":"千代田区","address":"東京都千代田区神田須田町1丁目","lat":35.695526,"lon":139.767686},{"name":"都営新宿線岩本町駅","province":"東京都","city":"千代田区","address":"東京都千代田区神田岩本町","lat":35.695646,"lon":139.774739},{"name":"東京消防庁本部庁舎","province":"東京都","city":"千代田区","address":"東京都千代田区大手町1丁目3-5","lat":35.688894,"lon":139.761545},{"name":"東京消防庁本部庁舎","province":"東京都","city":"千代田区","address":"東京都千代田区大手町1丁目3-5","lat":35.688926,"lon":139.761479},{"name":"麹町消防署永田町出張所","province":"東京都","city":"千代田区","address":"東京都千代田区永田町1丁目8-3","lat":35.678963,"lon":139.745898},{"name":"神田消防署三崎町出張所","province":"東京都","city":"千代田区","address":"東京都千代田区神田三崎町3丁目3-9","lat":35.700008,"lon":139.752161},{"name":"千代田区役所本庁舎","province":"東京都","city":"千代田区","address":"東京都千代田区九段南1丁目2-1","lat":35.694068,"lon":139.753463},{"name":"千代田区役所本庁舎","province":"東京都","city":"千代田区","address":"東京都千代田区九段南1丁目2-1","lat":35.693969,"lon":139.753566},{"name":"万世橋出張所・区民館","province":"東京都","city":"千代田区","address":"東京都千代田区外神田1丁目1-13","lat":35.697583,"lon":139.770668},{"name":"麹町出張所・区民館","province":"東京都","city":"千代田区","address":"東京都千代田区麹町2丁目8","lat":35.685583,"lon":139.739954},{"name":"富士見出張所・区民館","province":"東京都","city":"千代田区","address":"東京都千代田区富士見1丁目6-7","lat":35.699099,"lon":139.746385},{"name":"神保町出張所・区民館","province":"東京都","city":"千代田区","address":"東京都千代田区神田神保町2丁目40","lat":35.697652,"lon":139.755409},{"name":"神保町出張所・区民館","province":"東京都","city":"千代田区","address":"東京都千代田区神田神保町2丁目40","lat":35.697619,"lon":139.755397},{"name":"神田公園出張所・区民館","province":"東京都","city":"千代田区","address":"東京都千代田区神田司町2丁目2","lat":35.692748,"lon":139.768155},{"name":"和泉橋出張所・区民館","province":"東京都","city":"千代田区","address":"東京都千代田区神田佐久間町1丁目11-7","lat":35.69739,"lon":139.774998},{"name":"和泉橋出張所・区民館","province":"東京都","city":"千代田区","address":"東京都千代田区神田佐久間町1丁目11-7","lat":35.69739,"lon":139.774983},{"name":"和泉橋出張所・区民館","province":"東京都","city":"千代田区","address":"東京都千代田区神田佐久間町1丁目11-7","lat":35.697392,"lon":139.774949},{"name":"千代田万世会館","province":"東京都","city":"千代田区","address":"東京都千代田区外神田1丁目1","lat":35.697729,"lon":139.770534},{"name":"一番町集会室","province":"東京都","city":"千代田区","address":"東京都千代田区一番町10-22","lat":35.686428,"lon":139.73921},{"name":"千代田区立スポーツセンター","province":"東京都","city":"千代田区","address":"東京都千代田区内神田2丁目1-8","lat":35.689174,"lon":139.767634},{"name":"九段生涯学習館","province":"東京都","city":"千代田区","address":"東京都千代田区九段南1丁目5-10","lat":35.695214,"lon":139.752124},{"name":"千代田保健所","province":"東京都","city":"千代田区","address":"東京都千代田区九段北1丁目2-14","lat":35.69595,"lon":139.752142},{"name":"千代田保健所","province":"東京都","city":"千代田区","address":"東京都千代田区九段北1丁目2-14","lat":35.695949,"lon":139.752125},{"name":"日比谷図書文化館","province":"東京都","city":"千代田区","address":"東京都千代田区日比谷公園1-4","lat":35.671809,"lon":139.754312},{"name":"日比谷図書文化館","province":"東京都","city":"千代田区","address":"東京都千代田区日比谷公園1-4","lat":35.671816,"lon":139.754417},{"name":"日比谷図書文化館","province":"東京都","city":"千代田区","address":"東京都千代田区日比谷公園1-4","lat":35.671698,"lon":139.754708},{"name":"日比谷図書文化館","province":"東京都","city":"千代田区","address":"東京都千代田区日比谷公園1-4","lat":35.671891,"lon":139.754702},{"name":"千代田区立四番町図書館","province":"東京都","city":"千代田区","address":"東京都千代田区三番町14-7","lat":35.6905,"lon":139.741564},{"name":"昌平まちかど図書館","province":"東京都","city":"千代田区","address":"東京都千代田区外神田3丁目4-7","lat":35.701285,"lon":139.769885},{"name":"神田まちかど図書館","province":"東京都","city":"千代田区","address":"東京都千代田区神田司町2丁目16","lat":35.693338,"lon":139.76835},{"name":"ちよだパークサイドプラザ区民図書室","province":"東京都","city":"千代田区","address":"東京都千代田区神田和泉町","lat":35.699253,"lon":139.778826},{"name":"千代田区立内幸町ホール","province":"東京都","city":"千代田区","address":"東京都千代田区内幸町1丁目5","lat":35.669667,"lon":139.757558},{"name":"千代田区立高齢者総合サポートセンター（かがやきプラザ）","province":"東京都","city":"千代田区","address":"東京都千代田区九段南1丁目6-12","lat":35.693872,"lon":139.752078},{"name":"東京法務局","province":"東京都","city":"千代田区","address":"東京都千代田区九段南1-1-15/九段第2合同庁舎内","lat":35.693728,"lon":139.754478},{"name":"有限会社石川生造花店","province":"東京都","city":"千代田区","address":"東京都千代田区神田須田町2丁目8-3","lat":35.69532495,"lon":139.77404071},{"name":"有限会社黒澤商店","province":"東京都","city":"千代田区","address":"東京都千代田区外神田3丁目7-7","lat":35.70275738,"lon":139.7702322},{"name":"博善株式会社","province":"東京都","city":"千代田区","address":"東京都千代田区神田錦町1丁目13","lat":35.69157506,"lon":139.76364961},{"name":"有限会社よしだ","province":"東京都","city":"千代田区","address":"東京都千代田区神田司町2丁目6","lat":35.69388604,"lon":139.76784654},{"name":"千代田保健所","province":"東京都","city":"千代田区","address":"東京都千代田区九段北1丁目2-14","lat":35.69607147,"lon":139.75213913},{"name":"千代田保健所","province":"東京都","city":"千代田区","address":"千代田区九段北1-2-14","lat":35.69598,"lon":139.75204},{"name":"千代田区立児童・家庭支援センター","province":"東京都","city":"千代田区","address":"千代田区神田司町2-16神田さくら館6階","lat":35.69305,"lon":139.76849},{"name":"千代田区児童・家庭支援センター","province":"東京都","city":"千代田区","address":"千代田区神田司町2-16神田さくら館6階","lat":35.69305,"lon":139.76849},{"name":"千代田保健所","province":"東京都","city":"千代田区","address":"千代田区九段北1-2-14","lat":35.69598,"lon":139.75205},{"name":"千代田区児童・家庭支援センター","province":"東京都","city":"千代田区","address":"千代田区神田司町2-16神田さくら館6階","lat":35.6865,"lon":139.73579},{"name":"日高工業(株)","province":"東京都","city":"千代田区","address":"千代田区飯田橋2-12-1","lat":35.699402,"lon":139.749771},{"name":"千代田区リサイクル事業(協)","province":"東京都","city":"千代田区","address":"千代田区飯田橋2-12-1","lat":35.699402,"lon":139.749771},{"name":"千代田区選挙管理委員会","province":"東京都","city":"千代田区","address":"千代田区九段南1-2-1","lat":35.694001,"lon":139.753608},{"name":"千代田区本庁舎","province":"東京都","city":"千代田区","address":"千代田区九段南1-2-1","lat":35.694003,"lon":139.753634},{"name":"※警視庁","province":"東京都","city":"千代田区","address":"千代田区霞ヶ関2-1-1","lat":35.67684,"lon":139.7521},{"name":"第一機動隊","province":"東京都","city":"千代田区","address":"千代田区北の丸公園4-1","lat":35.69146,"lon":139.7548},{"name":"第一方面本部","province":"東京都","city":"千代田区","address":"千代田区霞が関2-1-1","lat":35.676841,"lon":139.752068},{"name":"神田警察署","province":"東京都","city":"千代田区","address":"千代田区神田錦町2-2","lat":35.69328,"lon":139.7628},{"name":"麹町警察署","province":"東京都","city":"千代田区","address":"千代田区麹町1-4","lat":35.68436,"lon":139.7437},{"name":"丸の内警察署","province":"東京都","city":"千代田区","address":"千代田区有楽町1-9-2","lat":35.67539,"lon":139.7603},{"name":"万世橋警察署","province":"東京都","city":"千代田区","address":"千代田区外神田1-16-5","lat":35.6973,"lon":139.7718},{"name":"東京消防庁","province":"東京都","city":"千代田区","address":"千代田区大手町1-3-5","lat":35.68855,"lon":139.7617},{"name":"第一消防方面本部","province":"東京都","city":"千代田区","address":"千代田区麹町1-12","lat":35.68479,"lon":139.7439},{"name":"神田消防署","province":"東京都","city":"千代田区","address":"千代田区外神田4-14-3","lat":35.70144,"lon":139.773},{"name":"麹町消防署","province":"東京都","city":"千代田区","address":"千代田区麹町1-12","lat":35.68479,"lon":139.7439},{"name":"丸の内消防署","province":"東京都","city":"千代田区","address":"千代田区大手町1-3-5","lat":35.68855,"lon":139.7617},{"name":"千代田区立外濠公園総合グラウンド","province":"東京都","city":"千代田区","address":"千代田区5番町先","lat":35.70472,"lon":139.773},{"name":"北の丸公園第三駐車場","province":"東京都","city":"千代田区","address":"千代田区北の丸公園1-1","lat":35.69224,"lon":139.7495},{"name":"新三崎橋","province":"東京都","city":"千代田区","address":"千代田区飯田橋3丁目","lat":35.70082,"lon":139.7485},{"name":"和泉橋","province":"東京都","city":"千代田区","address":"千代田区神田佐久間町","lat":35.69756,"lon":139.7761},{"name":"千代田区児童・家庭支援センター","province":"東京都","city":"千代田区","address":"千代田区神田司町2-16神田さくら館6階","lat":35.693178,"lon":139.768394},{"name":"千代田保健所","province":"東京都","city":"千代田区","address":"千代田区九段北1-2-14","lat":35.696071,"lon":139.752142},{"name":"千代田区","province":"東京都","city":"千代田区","address":"千代田区九段南1-2-1","lat":35.6940028,"lon":139.7536339},{"name":"千代田合同庁舎","province":"東京都","city":"千代田区","address":"東京都千代田区内神田2丁目1-12","lat":35.688985,"lon":139.768232},{"name":"東京しごとセンター","province":"東京都","city":"千代田区","address":"東京都千代田区飯田橋3丁目10-1","lat":35.700311,"lon":139.749855},{"name":"東京国際フォーラム","province":"東京都","city":"千代田区","address":"東京都千代田区丸の内3丁目5-1","lat":35.676314,"lon":139.764174},{"name":"東京国際フォーラム","province":"東京都","city":"千代田区","address":"東京都千代田区丸の内3丁目5-1","lat":35.676352,"lon":139.764309},{"name":"東京国際フォーラム","province":"東京都","city":"千代田区","address":"東京都千代田区丸の内3丁目5","lat":35.676086,"lon":139.763027},{"name":"東京国際フォーラム","province":"東京都","city":"千代田区","address":"東京都千代田区丸の内3丁目5-1","lat":35.677562,"lon":139.763923},{"name":"日比谷公園","province":"東京都","city":"千代田区","address":"東京都千代田区日比谷公園1","lat":35.674014,"lon":139.754432},{"name":"日比谷公園","province":"東京都","city":"千代田区","address":"東京都千代田区日比谷公園1","lat":35.67456,"lon":139.756784},{"name":"日比谷公園","province":"東京都","city":"千代田区","address":"東京都千代田区日比谷公園1","lat":35.672179,"lon":139.755556},{"name":"日比谷公園","province":"東京都","city":"千代田区","address":"東京都千代田区日比谷公園1","lat":35.675722,"lon":139.757134},{"name":"日比谷公園","province":"東京都","city":"千代田区","address":"東京都千代田区日比谷公園1","lat":35.67432,"lon":139.756837},{"name":"日比谷公園","province":"東京都","city":"千代田区","address":"東京都千代田区日比谷公園1","lat":35.674892,"lon":139.755673},{"name":"日比谷公園","province":"東京都","city":"千代田区","address":"東京都千代田区日比谷公園1-5","lat":35.672404,"lon":139.75393},{"name":"日比谷公園","province":"東京都","city":"千代田区","address":"東京都千代田区日比谷公園1","lat":35.672365,"lon":139.754034},{"name":"日比谷公園","province":"東京都","city":"千代田区","address":"東京都千代田区日比谷公園1-5","lat":35.673155,"lon":139.753984},{"name":"日比谷公園","province":"東京都","city":"千代田区","address":"東京都千代田区日比谷公園1","lat":35.672811,"lon":139.753939},{"name":"日比谷公園","province":"東京都","city":"千代田区","address":"東京都千代田区日比谷公園1","lat":35.672811,"lon":139.753954},{"name":"都営三田線駅内幸町駅","province":"東京都","city":"千代田区","address":"東京都千代田区内幸町2丁目2","lat":35.669176,"lon":139.755244},{"name":"都営三田線駅日比谷駅","province":"東京都","city":"千代田区","address":"東京都千代田区有楽町1丁目13","lat":35.675739,"lon":139.759879},{"name":"都営三田線駅大手町駅","province":"東京都","city":"千代田区","address":"東京都千代田区丸の内1丁目2","lat":35.683028,"lon":139.762534},{"name":"都営三田線駅神保町駅","province":"東京都","city":"千代田区","address":"東京都千代田区一ツ橋2丁目3","lat":35.693965,"lon":139.758481},{"name":"都営新宿線市ヶ谷駅","province":"東京都","city":"千代田区","address":"東京都千代田区九段南4丁目8","lat":35.691167,"lon":139.736429},{"name":"都営新宿線市ヶ谷駅","province":"東京都","city":"千代田区","address":"東京都千代田区九段南4丁目7","lat":35.691942,"lon":139.739051},{"name":"都営新宿線九段下駅","province":"東京都","city":"千代田区","address":"東京都千代田区九段北1丁目2","lat":35.69564,"lon":139.751905},{"name":"都営新宿線神保町駅","province":"東京都","city":"千代田区","address":"東京都千代田区神田神保町2丁目","lat":35.696018,"lon":139.757721},{"name":"都営新宿線神保町駅","province":"東京都","city":"千代田区","address":"東京都千代田区神田神保町2丁目","lat":35.695857,"lon":139.757728},{"name":"都営新宿線小川町駅","province":"東京都","city":"千代田区","address":"東京都千代田区神田須田町1丁目","lat":35.695526,"lon":139.767686},{"name":"都営新宿線岩本町駅","province":"東京都","city":"千代田区","address":"東京都千代田区神田岩本町","lat":35.695646,"lon":139.774739},{"name":"東京消防庁本部庁舎","province":"東京都","city":"千代田区","address":"東京都千代田区大手町1丁目3-5","lat":35.688894,"lon":139.761545},{"name":"東京消防庁本部庁舎","province":"東京都","city":"千代田区","address":"東京都千代田区大手町1丁目3-5","lat":35.688926,"lon":139.761479},{"name":"麹町消防署永田町出張所","province":"東京都","city":"千代田区","address":"東京都千代田区永田町1丁目8-3","lat":35.678963,"lon":139.745898},{"name":"神田消防署三崎町出張所","province":"東京都","city":"千代田区","address":"東京都千代田区神田三崎町3丁目3-9","lat":35.700008,"lon":139.752161},{"name":"千代田区役所本庁舎","province":"東京都","city":"千代田区","address":"東京都千代田区九段南1丁目2-1","lat":35.694068,"lon":139.753463},{"name":"千代田区役所本庁舎","province":"東京都","city":"千代田区","address":"東京都千代田区九段南1丁目2-1","lat":35.693969,"lon":139.753566},{"name":"万世橋出張所・区民館","province":"東京都","city":"千代田区","address":"東京都千代田区外神田1丁目1-13","lat":35.697583,"lon":139.770668},{"name":"麹町出張所・区民館","province":"東京都","city":"千代田区","address":"東京都千代田区麹町2丁目8","lat":35.685583,"lon":139.739954},{"name":"富士見出張所・区民館","province":"東京都","city":"千代田区","address":"東京都千代田区富士見1丁目6-7","lat":35.699099,"lon":139.746385},{"name":"神保町出張所・区民館","province":"東京都","city":"千代田区","address":"東京都千代田区神田神保町2丁目40","lat":35.697652,"lon":139.755409},{"name":"神保町出張所・区民館","province":"東京都","city":"千代田区","address":"東京都千代田区神田神保町2丁目40","lat":35.697619,"lon":139.755397},{"name":"神田公園出張所・区民館","province":"東京都","city":"千代田区","address":"東京都千代田区神田司町2丁目2","lat":35.692748,"lon":139.768155},{"name":"和泉橋出張所・区民館","province":"東京都","city":"千代田区","address":"東京都千代田区神田佐久間町1丁目11-7","lat":35.69739,"lon":139.774998},{"name":"和泉橋出張所・区民館","province":"東京都","city":"千代田区","address":"東京都千代田区神田佐久間町1丁目11-7","lat":35.69739,"lon":139.774983},{"name":"和泉橋出張所・区民館","province":"東京都","city":"千代田区","address":"東京都千代田区神田佐久間町1丁目11-7","lat":35.697392,"lon":139.774949},{"name":"千代田万世会館","province":"東京都","city":"千代田区","address":"東京都千代田区外神田1丁目1","lat":35.697729,"lon":139.770534},{"name":"一番町集会室","province":"東京都","city":"千代田区","address":"東京都千代田区一番町10-22","lat":35.686428,"lon":139.73921},{"name":"千代田区立スポーツセンター","province":"東京都","city":"千代田区","address":"東京都千代田区内神田2丁目1-8","lat":35.689174,"lon":139.767634},{"name":"九段生涯学習館","province":"東京都","city":"千代田区","address":"東京都千代田区九段南1丁目5-10","lat":35.695214,"lon":139.752124},{"name":"千代田保健所","province":"東京都","city":"千代田区","address":"東京都千代田区九段北1丁目2-14","lat":35.69595,"lon":139.752142},{"name":"千代田保健所","province":"東京都","city":"千代田区","address":"東京都千代田区九段北1丁目2-14","lat":35.695949,"lon":139.752125},{"name":"日比谷図書文化館","province":"東京都","city":"千代田区","address":"東京都千代田区日比谷公園1-4","lat":35.671809,"lon":139.754312},{"name":"日比谷図書文化館","province":"東京都","city":"千代田区","address":"東京都千代田区日比谷公園1-4","lat":35.671816,"lon":139.754417},{"name":"日比谷図書文化館","province":"東京都","city":"千代田区","address":"東京都千代田区日比谷公園1-4","lat":35.671698,"lon":139.754708},{"name":"日比谷図書文化館","province":"東京都","city":"千代田区","address":"東京都千代田区日比谷公園1-4","lat":35.671891,"lon":139.754702},{"name":"千代田区立四番町図書館","province":"東京都","city":"千代田区","address":"東京都千代田区三番町14-7","lat":35.6905,"lon":139.741564},{"name":"昌平まちかど図書館","province":"東京都","city":"千代田区","address":"東京都千代田区外神田3丁目4-7","lat":35.701285,"lon":139.769885},{"name":"神田まちかど図書館","province":"東京都","city":"千代田区","address":"東京都千代田区神田司町2丁目16","lat":35.693338,"lon":139.76835},{"name":"ちよだパークサイドプラザ区民図書室","province":"東京都","city":"千代田区","address":"東京都千代田区神田和泉町","lat":35.699253,"lon":139.778826},{"name":"千代田区立内幸町ホール","province":"東京都","city":"千代田区","address":"東京都千代田区内幸町1丁目5","lat":35.669667,"lon":139.757558},{"name":"千代田区立高齢者総合サポートセンター（かがやきプラザ）","province":"東京都","city":"千代田区","address":"東京都千代田区九段南1丁目6-12","lat":35.693872,"lon":139.752078},{"name":"東京法務局","province":"東京都","city":"千代田区","address":"東京都千代田区九段南1-1-15/九段第2合同庁舎内","lat":35.693728,"lon":139.754478},{"name":"有限会社石川生造花店","province":"東京都","city":"千代田区","address":"東京都千代田区神田須田町2丁目8-3","lat":35.69532495,"lon":139.77404071},{"name":"有限会社黒澤商店","province":"東京都","city":"千代田区","address":"東京都千代田区外神田3丁目7-7","lat":35.70275738,"lon":139.7702322},{"name":"博善株式会社","province":"東京都","city":"千代田区","address":"東京都千代田区神田錦町1丁目13","lat":35.69157506,"lon":139.76364961},{"name":"有限会社よしだ","province":"東京都","city":"千代田区","address":"東京都千代田区神田司町2丁目6","lat":35.69388604,"lon":139.76784654},{"name":"千代田保健所","province":"東京都","city":"千代田区","address":"東京都千代田区九段北1丁目2-14","lat":35.69607147,"lon":139.75213913},{"name":"千代田保健所","province":"東京都","city":"千代田区","address":"千代田区九段北1-2-14","lat":35.69598,"lon":139.75204},{"name":"千代田区立児童・家庭支援センター","province":"東京都","city":"千代田区","address":"千代田区神田司町2-16神田さくら館6階","lat":35.69305,"lon":139.76849},{"name":"千代田区児童・家庭支援センター","province":"東京都","city":"千代田区","address":"千代田区神田司町2-16神田さくら館6階","lat":35.69305,"lon":139.76849},{"name":"千代田保健所","province":"東京都","city":"千代田区","address":"千代田区九段北1-2-14","lat":35.69598,"lon":139.75205},{"name":"千代田区児童・家庭支援センター","province":"東京都","city":"千代田区","address":"千代田区神田司町2-16神田さくら館6階","lat":35.6865,"lon":139.73579},{"name":"日高工業(株)","province":"東京都","city":"千代田区","address":"千代田区飯田橋2-12-1","lat":35.699402,"lon":139.749771},{"name":"千代田区リサイクル事業(協)","province":"東京都","city":"千代田区","address":"千代田区飯田橋2-12-1","lat":35.699402,"lon":139.749771},{"name":"千代田区選挙管理委員会","province":"東京都","city":"千代田区","address":"千代田区九段南1-2-1","lat":35.694001,"lon":139.753608},{"name":"千代田区児童・家庭支援センター","province":"東京都","city":"千代田区","address":"千代田区神田司町2-16神田さくら館6階","lat":35.693178,"lon":139.768394},{"name":"千代田保健所","province":"東京都","city":"千代田区","address":"千代田区九段北1-2-14","lat":35.696071,"lon":139.752142},{"name":"千代田区","province":"東京都","city":"千代田区","address":"千代田区九段南1-2-1","lat":35.6940028,"lon":139.7536339},{"name":"東京法務局","province":"東京都","city":"千代田区","address":"東京都千代田区九段南1-1-15/九段第2合同庁舎内","lat":35.693728,"lon":139.754478},{"name":"有限会社石川生造花店","province":"東京都","city":"千代田区","address":"東京都千代田区神田須田町2丁目8-3","lat":35.69532495,"lon":139.77404071},{"name":"有限会社黒澤商店","province":"東京都","city":"千代田区","address":"東京都千代田区外神田3丁目7-7","lat":35.70275738,"lon":139.7702322},{"name":"博善株式会社","province":"東京都","city":"千代田区","address":"東京都千代田区神田錦町1丁目13","lat":35.69157506,"lon":139.76364961},{"name":"有限会社よしだ","province":"東京都","city":"千代田区","address":"東京都千代田区神田司町2丁目6","lat":35.69388604,"lon":139.76784654},{"name":"千代田保健所","province":"東京都","city":"千代田区","address":"東京都千代田区九段北1丁目2-14","lat":35.69607147,"lon":139.75213913},{"name":"千代田保健所","province":"東京都","city":"千代田区","address":"千代田区九段北1-2-14","lat":35.69598,"lon":139.75204},{"name":"千代田区立児童・家庭支援センター","province":"東京都","city":"千代田区","address":"千代田区神田司町2-16神田さくら館6階","lat":35.69305,"lon":139.76849},{"name":"千代田区児童・家庭支援センター","province":"東京都","city":"千代田区","address":"千代田区神田司町2-16神田さくら館6階","lat":35.69305,"lon":139.76849},{"name":"千代田保健所","province":"東京都","city":"千代田区","address":"千代田区九段北1-2-14","lat":35.69598,"lon":139.75205},{"name":"千代田区児童・家庭支援センター","province":"東京都","city":"千代田区","address":"千代田区神田司町2-16神田さくら館6階","lat":35.6865,"lon":139.73579},{"name":"日高工業(株)","province":"東京都","city":"千代田区","address":"千代田区飯田橋2-12-1","lat":35.699402,"lon":139.749771},{"name":"千代田区リサイクル事業(協)","province":"東京都","city":"千代田区","address":"千代田区飯田橋2-12-1","lat":35.699402,"lon":139.749771},{"name":"千代田区選挙管理委員会","province":"東京都","city":"千代田区","address":"千代田区九段南1-2-1","lat":35.694001,"lon":139.753608},{"name":"千代田保健所","province":"東京都","city":"千代田区","address":"千代田区九段北1-2-14","lat":35.696071,"lon":139.752142},{"name":"千代田区","province":"東京都","city":"千代田区","address":"千代田区九段南1-2-1","lat":35.6940028,"lon":139.7536339},{"name":"東京法務局","province":"東京都","city":"千代田区","address":"東京都千代田区九段南1-1-15/九段第2合同庁舎内","lat":35.693728,"lon":139.754478},{"name":"有限会社石川生造花店","province":"東京都","city":"千代田区","address":"東京都千代田区神田須田町2丁目8-3","lat":35.69532495,"lon":139.77404071},{"name":"有限会社黒澤商店","province":"東京都","city":"千代田区","address":"東京都千代田区外神田3丁目7-7","lat":35.70275738,"lon":139.7702322},{"name":"博善株式会社","province":"東京都","city":"千代田区","address":"東京都千代田区神田錦町1丁目13","lat":35.69157506,"lon":139.76364961},{"name":"有限会社よしだ","province":"東京都","city":"千代田区","address":"東京都千代田区神田司町2丁目6","lat":35.69388604,"lon":139.76784654},{"name":"千代田保健所","province":"東京都","city":"千代田区","address":"東京都千代田区九段北1丁目2-14","lat":35.69607147,"lon":139.75213913},{"name":"千代田保健所","province":"東京都","city":"千代田区","address":"千代田区九段北1-2-14","lat":35.69598,"lon":139.75204},{"name":"千代田保健所","province":"東京都","city":"千代田区","address":"千代田区九段北1-2-14","lat":35.69598,"lon":139.75205},{"name":"日高工業(株)","province":"東京都","city":"千代田区","address":"千代田区飯田橋2-12-1","lat":35.699402,"lon":139.749771},{"name":"千代田区リサイクル事業(協)","province":"東京都","city":"千代田区","address":"千代田区飯田橋2-12-1","lat":35.699402,"lon":139.749771},{"name":"千代田区選挙管理委員会","province":"東京都","city":"千代田区","address":"千代田区九段南1-2-1","lat":35.694001,"lon":139.753608},{"name":"千代田保健所","province":"東京都","city":"千代田区","address":"千代田区九段北1-2-14","lat":35.696071,"lon":139.752142},{"name":"千代田区","province":"東京都","city":"千代田区","address":"千代田区九段南1-2-1","lat":35.6940028,"lon":139.7536339},{"name":"東京法務局","province":"東京都","city":"千代田区","address":"東京都千代田区九段南1-1-15/九段第2合同庁舎内","lat":35.693728,"lon":139.754478},{"name":"有限会社石川生造花店","province":"東京都","city":"千代田区","address":"東京都千代田区神田須田町2丁目8-3","lat":35.69532495,"lon":139.77404071},{"name":"有限会社黒澤商店","province":"東京都","city":"千代田区","address":"東京都千代田区外神田3丁目7-7","lat":35.70275738,"lon":139.7702322},{"name":"博善株式会社","province":"東京都","city":"千代田区","address":"東京都千代田区神田錦町1丁目13","lat":35.69157506,"lon":139.76364961},{"name":"有限会社よしだ","province":"東京都","city":"千代田区","address":"東京都千代田区神田司町2丁目6","lat":35.69388604,"lon":139.76784654},{"name":"千代田保健所","province":"東京都","city":"千代田区","address":"東京都千代田区九段北1丁目2-14","lat":35.69607147,"lon":139.75213913},{"name":"千代田保健所","province":"東京都","city":"千代田区","address":"千代田区九段北1-2-14","lat":35.69598,"lon":139.75204},{"name":"千代田保健所","province":"東京都","city":"千代田区","address":"千代田区九段北1-2-14","lat":35.69598,"lon":139.75205},{"name":"日高工業(株)","province":"東京都","city":"千代田区","address":"千代田区飯田橋2-12-1","lat":35.699402,"lon":139.749771},{"name":"千代田区リサイクル事業(協)","province":"東京都","city":"千代田区","address":"千代田区飯田橋2-12-1","lat":35.699402,"lon":139.749771},{"name":"千代田区選挙管理委員会","province":"東京都","city":"千代田区","address":"千代田区九段南1-2-1","lat":35.694001,"lon":139.753608},{"name":"千代田保健所","province":"東京都","city":"千代田区","address":"千代田区九段北1-2-14","lat":35.696071,"lon":139.752142},{"name":"千代田区","province":"東京都","city":"千代田区","address":"千代田区九段南1-2-1","lat":35.6940028,"lon":139.7536339},{"name":"東京法務局","province":"東京都","city":"千代田区","address":"東京都千代田区九段南1-1-15/九段第2合同庁舎内","lat":35.693728,"lon":139.754478},{"name":"千代田保健所","province":"東京都","city":"千代田区","address":"東京都千代田区九段北1丁目2-14","lat":35.69607147,"lon":139.75213913},{"name":"千代田保健所","province":"東京都","city":"千代田区","address":"千代田区九段北1-2-14","lat":35.69598,"lon":139.75204},{"name":"千代田保健所","province":"東京都","city":"千代田区","address":"千代田区九段北1-2-14","lat":35.69598,"lon":139.75205},{"name":"日高工業(株)","province":"東京都","city":"千代田区","address":"千代田区飯田橋2-12-1","lat":35.699402,"lon":139.749771},{"name":"千代田区リサイクル事業(協)","province":"東京都","city":"千代田区","address":"千代田区飯田橋2-12-1","lat":35.699402,"lon":139.749771},{"name":"千代田区選挙管理委員会","province":"東京都","city":"千代田区","address":"千代田区九段南1-2-1","lat":35.694001,"lon":139.753608},{"name":"千代田保健所","province":"東京都","city":"千代田区","address":"千代田区九段北1-2-14","lat":35.696071,"lon":139.752142},{"name":"東京法務局","province":"東京都","city":"千代田区","address":"東京都千代田区九段南1-1-15/九段第2合同庁舎内","lat":35.693728,"lon":139.754478},{"name":"千代田保健所","province":"東京都","city":"千代田区","address":"東京都千代田区九段北1丁目2-14","lat":35.69607147,"lon":139.75213913},{"name":"千代田保健所","province":"東京都","city":"千代田区","address":"千代田区九段北1-2-14","lat":35.69598,"lon":139.75204},{"name":"千代田保健所","province":"東京都","city":"千代田区","address":"千代田区九段北1-2-14","lat":35.69598,"lon":139.75205},{"name":"日高工業(株)","province":"東京都","city":"千代田区","address":"千代田区飯田橋2-12-1","lat":35.699402,"lon":139.749771},{"name":"千代田区リサイクル事業(協)","province":"東京都","city":"千代田区","address":"千代田区飯田橋2-12-1","lat":35.699402,"lon":139.749771},{"name":"千代田区選挙管理委員会","province":"東京都","city":"千代田区","address":"千代田区九段南1-2-1","lat":35.694001,"lon":139.753608},{"name":"千代田保健所","province":"東京都","city":"千代田区","address":"千代田区九段北1-2-14","lat":35.696071,"lon":139.752142},{"name":"東京法務局","province":"東京都","city":"千代田区","address":"東京都千代田区九段南1-1-15/九段第2合同庁舎内","lat":35.693728,"lon":139.754478},{"name":"千代田保健所","province":"東京都","city":"千代田区","address":"東京都千代田区九段北1丁目2-14","lat":35.69607147,"lon":139.75213913},{"name":"千代田保健所","province":"東京都","city":"千代田区","address":"千代田区九段北1-2-14","lat":35.69598,"lon":139.75204},{"name":"千代田保健所","province":"東京都","city":"千代田区","address":"千代田区九段北1-2-14","lat":35.69598,"lon":139.75205},{"name":"千代田区選挙管理委員会","province":"東京都","city":"千代田区","address":"千代田区九段南1-2-1","lat":35.694001,"lon":139.753608},{"name":"千代田保健所","province":"東京都","city":"千代田区","address":"千代田区九段北1-2-14","lat":35.696071,"lon":139.752142},{"name":"東京法務局","province":"東京都","city":"千代田区","address":"東京都千代田区九段南1-1-15/九段第2合同庁舎内","lat":35.693728,"lon":139.754478},{"name":"千代田保健所","province":"東京都","city":"千代田区","address":"東京都千代田区九段北1丁目2-14","lat":35.69607147,"lon":139.75213913},{"name":"千代田保健所","province":"東京都","city":"千代田区","address":"千代田区九段北1-2-14","lat":35.69598,"lon":139.75204},{"name":"千代田保健所","province":"東京都","city":"千代田区","address":"千代田区九段北1-2-14","lat":35.69598,"lon":139.75205},{"name":"千代田区選挙管理委員会","province":"東京都","city":"千代田区","address":"千代田区九段南1-2-1","lat":35.694001,"lon":139.753608},{"name":"千代田保健所","province":"東京都","city":"千代田区","address":"千代田区九段北1-2-14","lat":35.696071,"lon":139.752142},{"name":"東京法務局","province":"東京都","city":"千代田区","address":"東京都千代田区九段南1-1-15/九段第2合同庁舎内","lat":35.693728,"lon":139.754478},{"name":"千代田保健所","province":"東京都","city":"千代田区","address":"東京都千代田区九段北1丁目2-14","lat":35.69607147,"lon":139.75213913},{"name":"千代田保健所","province":"東京都","city":"千代田区","address":"千代田区九段北1-2-14","lat":35.69598,"lon":139.75204},{"name":"千代田保健所","province":"東京都","city":"千代田区","address":"千代田区九段北1-2-14","lat":35.69598,"lon":139.75205},{"name":"千代田区選挙管理委員会","province":"東京都","city":"千代田区","address":"千代田区九段南1-2-1","lat":35.694001,"lon":139.753608},{"name":"千代田保健所","province":"東京都","city":"千代田区","address":"千代田区九段北1-2-14","lat":35.696071,"lon":139.752142},{"name":"東京法務局","province":"東京都","city":"千代田区","address":"東京都千代田区九段南1-1-15/九段第2合同庁舎内","lat":35.693728,"lon":139.754478},{"name":"千代田保健所","province":"東京都","city":"千代田区","address":"東京都千代田区九段北1丁目2-14","lat":35.69607147,"lon":139.75213913},{"name":"千代田保健所","province":"東京都","city":"千代田区","address":"千代田区九段北1-2-14","lat":35.69598,"lon":139.75204},{"name":"千代田保健所","province":"東京都","city":"千代田区","address":"千代田区九段北1-2-14","lat":35.69598,"lon":139.75205},{"name":"千代田区選挙管理委員会","province":"東京都","city":"千代田区","address":"千代田区九段南1-2-1","lat":35.694001,"lon":139.753608},{"name":"千代田保健所","province":"東京都","city":"千代田区","address":"千代田区九段北1-2-14","lat":35.696071,"lon":139.752142},{"name":"東京法務局","province":"東京都","city":"千代田区","address":"東京都千代田区九段南1-1-15/九段第2合同庁舎内","lat":35.693728,"lon":139.754478},{"name":"千代田保健所","province":"東京都","city":"千代田区","address":"東京都千代田区九段北1丁目2-14","lat":35.69607147,"lon":139.75213913},{"name":"千代田保健所","province":"東京都","city":"千代田区","address":"千代田区九段北1-2-14","lat":35.69598,"lon":139.75204},{"name":"千代田保健所","province":"東京都","city":"千代田区","address":"千代田区九段北1-2-14","lat":35.69598,"lon":139.75205},{"name":"千代田区選挙管理委員会","province":"東京都","city":"千代田区","address":"千代田区九段南1-2-1","lat":35.694001,"lon":139.753608},{"name":"千代田保健所","province":"東京都","city":"千代田区","address":"千代田区九段北1-2-14","lat":35.696071,"lon":139.752142},{"name":"東京法務局","province":"東京都","city":"千代田区","address":"東京都千代田区九段南1-1-15/九段第2合同庁舎内","lat":35.693728,"lon":139.754478},{"name":"千代田保健所","province":"東京都","city":"千代田区","address":"東京都千代田区九段北1丁目2-14","lat":35.69607147,"lon":139.75213913},{"name":"千代田保健所","province":"東京都","city":"千代田区","address":"千代田区九段北1-2-14","lat":35.69598,"lon":139.75204},{"name":"千代田保健所","province":"東京都","city":"千代田区","address":"千代田区九段北1-2-14","lat":35.69598,"lon":139.75205},{"name":"千代田区選挙管理委員会","province":"東京都","city":"千代田区","address":"千代田区九段南1-2-1","lat":35.694001,"lon":139.753608},{"name":"千代田保健所","province":"東京都","city":"千代田区","address":"千代田区九段北1-2-14","lat":35.696071,"lon":139.752142},{"name":"東京法務局","province":"東京都","city":"千代田区","address":"東京都千代田区九段南1-1-15/九段第2合同庁舎内","lat":35.693728,"lon":139.754478},{"name":"千代田保健所","province":"東京都","city":"千代田区","address":"東京都千代田区九段北1丁目2-14","lat":35.69607147,"lon":139.75213913},{"name":"千代田保健所","province":"東京都","city":"千代田区","address":"千代田区九段北1-2-14","lat":35.69598,"lon":139.75204},{"name":"千代田保健所","province":"東京都","city":"千代田区","address":"千代田区九段北1-2-14","lat":35.69598,"lon":139.75205},{"name":"千代田区選挙管理委員会","province":"東京都","city":"千代田区","address":"千代田区九段南1-2-1","lat":35.694001,"lon":139.753608},{"name":"千代田保健所","province":"東京都","city":"千代田区","address":"千代田区九段北1-2-14","lat":35.696071,"lon":139.752142},{"name":"東京法務局","province":"東京都","city":"千代田区","address":"東京都千代田区九段南1-1-15/九段第2合同庁舎内","lat":35.693728,"lon":139.754478},{"name":"千代田保健所","province":"東京都","city":"千代田区","address":"東京都千代田区九段北1丁目2-14","lat":35.69607147,"lon":139.75213913},{"name":"千代田保健所","province":"東京都","city":"千代田区","address":"千代田区九段北1-2-14","lat":35.69598,"lon":139.75204},{"name":"千代田保健所","province":"東京都","city":"千代田区","address":"千代田区九段北1-2-14","lat":35.69598,"lon":139.75205},{"name":"千代田区選挙管理委員会","province":"東京都","city":"千代田区","address":"千代田区九段南1-2-1","lat":35.694001,"lon":139.753608},{"name":"千代田保健所","province":"東京都","city":"千代田区","address":"千代田区九段北1-2-14","lat":35.696071,"lon":139.752142},{"name":"東京法務局","province":"東京都","city":"千代田区","address":"東京都千代田区九段南1-1-15/九段第2合同庁舎内","lat":35.693728,"lon":139.754478},{"name":"千代田保健所","province":"東京都","city":"千代田区","address":"東京都千代田区九段北1丁目2-14","lat":35.69607147,"lon":139.75213913},{"name":"千代田保健所","province":"東京都","city":"千代田区","address":"千代田区九段北1-2-14","lat":35.69598,"lon":139.75204},{"name":"千代田保健所","province":"東京都","city":"千代田区","address":"千代田区九段北1-2-14","lat":35.69598,"lon":139.75205},{"name":"千代田区選挙管理委員会","province":"東京都","city":"千代田区","address":"千代田区九段南1-2-1","lat":35.694001,"lon":139.753608},{"name":"千代田保健所","province":"東京都","city":"千代田区","address":"千代田区九段北1-2-14","lat":35.696071,"lon":139.752142},{"name":"東京法務局","province":"東京都","city":"千代田区","address":"東京都千代田区九段南1-1-15/九段第2合同庁舎内","lat":35.693728,"lon":139.754478},{"name":"千代田保健所","province":"東京都","city":"千代田区","address":"東京都千代田区九段北1丁目2-14","lat":35.69607147,"lon":139.75213913},{"name":"千代田保健所","province":"東京都","city":"千代田区","address":"千代田区九段北1-2-14","lat":35.69598,"lon":139.75204},{"name":"千代田保健所","province":"東京都","city":"千代田区","address":"千代田区九段北1-2-14","lat":35.69598,"lon":139.75205},{"name":"千代田区選挙管理委員会","province":"東京都","city":"千代田区","address":"千代田区九段南1-2-1","lat":35.694001,"lon":139.753608},{"name":"千代田保健所","province":"東京都","city":"千代田区","address":"千代田区九段北1-2-14","lat":35.696071,"lon":139.752142},{"name":"東京法務局","province":"東京都","city":"千代田区","address":"東京都千代田区九段南1-1-15/九段第2合同庁舎内","lat":35.693728,"lon":139.754478},{"name":"千代田保健所","province":"東京都","city":"千代田区","address":"東京都千代田区九段北1丁目2-14","lat":35.69607147,"lon":139.75213913},{"name":"千代田保健所","province":"東京都","city":"千代田区","address":"千代田区九段北1-2-14","lat":35.69598,"lon":139.75204},{"name":"千代田保健所","province":"東京都","city":"千代田区","address":"千代田区九段北1-2-14","lat":35.69598,"lon":139.75205},{"name":"千代田区選挙管理委員会","province":"東京都","city":"千代田区","address":"千代田区九段南1-2-1","lat":35.694001,"lon":139.753608},{"name":"千代田保健所","province":"東京都","city":"千代田区","address":"千代田区九段北1-2-14","lat":35.696071,"lon":139.752142},{"name":"千代田保健所","province":"東京都","city":"千代田区","address":"東京都千代田区九段北1丁目2-14","lat":35.69607147,"lon":139.75213913},{"name":"千代田保健所","province":"東京都","city":"千代田区","address":"千代田区九段北1-2-14","lat":35.69598,"lon":139.75204},{"name":"千代田保健所","province":"東京都","city":"千代田区","address":"千代田区九段北1-2-14","lat":35.69598,"lon":139.75205},{"name":"千代田区選挙管理委員会","province":"東京都","city":"千代田区","address":"千代田区九段南1-2-1","lat":35.694001,"lon":139.753608},{"name":"千代田保健所","province":"東京都","city":"千代田区","address":"千代田区九段北1-2-14","lat":35.696071,"lon":139.752142},{"name":"千代田保健所","province":"東京都","city":"千代田区","address":"東京都千代田区九段北1丁目2-14","lat":35.69607147,"lon":139.75213913},{"name":"千代田保健所","province":"東京都","city":"千代田区","address":"千代田区九段北1-2-14","lat":35.69598,"lon":139.75204},{"name":"千代田保健所","province":"東京都","city":"千代田区","address":"千代田区九段北1-2-14","lat":35.69598,"lon":139.75205},{"name":"千代田区選挙管理委員会","province":"東京都","city":"千代田区","address":"千代田区九段南1-2-1","lat":35.694001,"lon":139.753608},{"name":"千代田保健所","province":"東京都","city":"千代田区","address":"千代田区九段北1-2-14","lat":35.696071,"lon":139.752142},{"name":"千代田保健所","province":"東京都","city":"千代田区","address":"東京都千代田区九段北1丁目2-14","lat":35.69607147,"lon":139.75213913},{"name":"千代田保健所","province":"東京都","city":"千代田区","address":"千代田区九段北1-2-14","lat":35.69598,"lon":139.75204},{"name":"千代田保健所","province":"東京都","city":"千代田区","address":"千代田区九段北1-2-14","lat":35.69598,"lon":139.75205},{"name":"千代田区選挙管理委員会","province":"東京都","city":"千代田区","address":"千代田区九段南1-2-1","lat":35.694001,"lon":139.753608},{"name":"千代田保健所","province":"東京都","city":"千代田区","address":"千代田区九段北1-2-14","lat":35.696071,"lon":139.752142},{"name":"千代田保健所","province":"東京都","city":"千代田区","address":"東京都千代田区九段北1丁目2-14","lat":35.69607147,"lon":139.75213913},{"name":"千代田保健所","province":"東京都","city":"千代田区","address":"千代田区九段北1-2-14","lat":35.69598,"lon":139.75204},{"name":"千代田保健所","province":"東京都","city":"千代田区","address":"千代田区九段北1-2-14","lat":35.69598,"lon":139.75205},{"name":"千代田区選挙管理委員会","province":"東京都","city":"千代田区","address":"千代田区九段南1-2-1","lat":35.694001,"lon":139.753608},{"name":"千代田保健所","province":"東京都","city":"千代田区","address":"千代田区九段北1-2-14","lat":35.696071,"lon":139.752142},{"name":"千代田保健所","province":"東京都","city":"千代田区","address":"東京都千代田区九段北1丁目2-14","lat":35.69607147,"lon":139.75213913},{"name":"千代田保健所","province":"東京都","city":"千代田区","address":"千代田区九段北1-2-14","lat":35.69598,"lon":139.75204},{"name":"千代田保健所","province":"東京都","city":"千代田区","address":"千代田区九段北1-2-14","lat":35.69598,"lon":139.75205},{"name":"千代田区選挙管理委員会","province":"東京都","city":"千代田区","address":"千代田区九段南1-2-1","lat":35.694001,"lon":139.753608},{"name":"千代田保健所","province":"東京都","city":"千代田区","address":"千代田区九段北1-2-14","lat":35.696071,"lon":139.752142},{"name":"千代田保健所","province":"東京都","city":"千代田区","address":"東京都千代田区九段北1丁目2-14","lat":35.69607147,"lon":139.75213913},{"name":"千代田保健所","province":"東京都","city":"千代田区","address":"千代田区九段北1-2-14","lat":35.69598,"lon":139.75204},{"name":"千代田保健所","province":"東京都","city":"千代田区","address":"千代田区九段北1-2-14","lat":35.69598,"lon":139.75205},{"name":"千代田区選挙管理委員会","province":"東京都","city":"千代田区","address":"千代田区九段南1-2-1","lat":35.694001,"lon":139.753608},{"name":"千代田保健所","province":"東京都","city":"千代田区","address":"千代田区九段北1-2-14","lat":35.696071,"lon":139.752142},{"name":"千代田保健所","province":"東京都","city":"千代田区","address":"東京都千代田区九段北1丁目2-14","lat":35.69607147,"lon":139.75213913},{"name":"千代田保健所","province":"東京都","city":"千代田区","address":"千代田区九段北1-2-14","lat":35.69598,"lon":139.75204},{"name":"千代田保健所","province":"東京都","city":"千代田区","address":"千代田区九段北1-2-14","lat":35.69598,"lon":139.75205},{"name":"千代田区選挙管理委員会","province":"東京都","city":"千代田区","address":"千代田区九段南1-2-1","lat":35.694001,"lon":139.753608},{"name":"千代田保健所","province":"東京都","city":"千代田区","address":"千代田区九段北1-2-14","lat":35.696071,"lon":139.752142},{"name":"千代田保健所","province":"東京都","city":"千代田区","address":"東京都千代田区九段北1丁目2-14","lat":35.69607147,"lon":139.75213913},{"name":"千代田保健所","province":"東京都","city":"千代田区","address":"千代田区九段北1-2-14","lat":35.69598,"lon":139.75204},{"name":"千代田保健所","province":"東京都","city":"千代田区","address":"千代田区九段北1-2-14","lat":35.69598,"lon":139.75205},{"name":"千代田区選挙管理委員会","province":"東京都","city":"千代田区","address":"千代田区九段南1-2-1","lat":35.694001,"lon":139.753608},{"name":"千代田保健所","province":"東京都","city":"千代田区","address":"千代田区九段北1-2-14","lat":35.696071,"lon":139.752142},{"name":"千代田保健所","province":"東京都","city":"千代田区","address":"東京都千代田区九段北1丁目2-14","lat":35.69607147,"lon":139.75213913},{"name":"千代田保健所","province":"東京都","city":"千代田区","address":"千代田区九段北1-2-14","lat":35.69598,"lon":139.75204},{"name":"千代田保健所","province":"東京都","city":"千代田区","address":"千代田区九段北1-2-14","lat":35.69598,"lon":139.75205},{"name":"千代田区選挙管理委員会","province":"東京都","city":"千代田区","address":"千代田区九段南1-2-1","lat":35.694001,"lon":139.753608},{"name":"千代田保健所","province":"東京都","city":"千代田区","address":"千代田区九段北1-2-14","lat":35.696071,"lon":139.752142},{"name":"千代田保健所","province":"東京都","city":"千代田区","address":"東京都千代田区九段北1丁目2-14","lat":35.69607147,"lon":139.75213913},{"name":"千代田保健所","province":"東京都","city":"千代田区","address":"千代田区九段北1-2-14","lat":35.69598,"lon":139.75204},{"name":"千代田保健所","province":"東京都","city":"千代田区","address":"千代田区九段北1-2-14","lat":35.69598,"lon":139.75205},{"name":"千代田区選挙管理委員会","province":"東京都","city":"千代田区","address":"千代田区九段南1-2-1","lat":35.694001,"lon":139.753608},{"name":"千代田保健所","province":"東京都","city":"千代田区","address":"千代田区九段北1-2-14","lat":35.696071,"lon":139.752142},{"name":"千代田保健所","province":"東京都","city":"千代田区","address":"東京都千代田区九段北1丁目2-14","lat":35.69607147,"lon":139.75213913},{"name":"千代田保健所","province":"東京都","city":"千代田区","address":"千代田区九段北1-2-14","lat":35.69598,"lon":139.75204},{"name":"千代田保健所","province":"東京都","city":"千代田区","address":"千代田区九段北1-2-14","lat":35.69598,"lon":139.75205},{"name":"千代田区選挙管理委員会","province":"東京都","city":"千代田区","address":"千代田区九段南1-2-1","lat":35.694001,"lon":139.753608},{"name":"千代田保健所","province":"東京都","city":"千代田区","address":"千代田区九段北1-2-14","lat":35.696071,"lon":139.752142},{"name":"千代田保健所","province":"東京都","city":"千代田区","address":"東京都千代田区九段北1丁目2-14","lat":35.69607147,"lon":139.75213913},{"name":"千代田保健所","province":"東京都","city":"千代田区","address":"千代田区九段北1-2-14","lat":35.69598,"lon":139.75204},{"name":"千代田保健所","province":"東京都","city":"千代田区","address":"千代田区九段北1-2-14","lat":35.69598,"lon":139.75205},{"name":"千代田区選挙管理委員会","province":"東京都","city":"千代田区","address":"千代田区九段南1-2-1","lat":35.694001,"lon":139.753608},{"name":"千代田保健所","province":"東京都","city":"千代田区","address":"千代田区九段北1-2-14","lat":35.696071,"lon":139.752142},{"name":"千代田保健所","province":"東京都","city":"千代田区","address":"東京都千代田区九段北1丁目2-14","lat":35.69607147,"lon":139.75213913},{"name":"千代田保健所","province":"東京都","city":"千代田区","address":"千代田区九段北1-2-14","lat":35.69598,"lon":139.75204},{"name":"千代田保健所","province":"東京都","city":"千代田区","address":"千代田区九段北1-2-14","lat":35.69598,"lon":139.75205},{"name":"千代田区選挙管理委員会","province":"東京都","city":"千代田区","address":"千代田区九段南1-2-1","lat":35.694001,"lon":139.753608},{"name":"千代田保健所","province":"東京都","city":"千代田区","address":"千代田区九段北1-2-14","lat":35.696071,"lon":139.752142},{"name":"千代田保健所","province":"東京都","city":"千代田区","address":"東京都千代田区九段北1丁目2-14","lat":35.69607147,"lon":139.75213913},{"name":"千代田保健所","province":"東京都","city":"千代田区","address":"千代田区九段北1-2-14","lat":35.69598,"lon":139.75204},{"name":"千代田保健所","province":"東京都","city":"千代田区","address":"千代田区九段北1-2-14","lat":35.69598,"lon":139.75205},{"name":"千代田区選挙管理委員会","province":"東京都","city":"千代田区","address":"千代田区九段南1-2-1","lat":35.694001,"lon":139.753608},{"name":"千代田保健所","province":"東京都","city":"千代田区","address":"千代田区九段北1-2-14","lat":35.696071,"lon":139.752142},{"name":"千代田保健所","province":"東京都","city":"千代田区","address":"東京都千代田区九段北1丁目2-14","lat":35.69607147,"lon":139.75213913},{"name":"千代田保健所","province":"東京都","city":"千代田区","address":"千代田区九段北1-2-14","lat":35.69598,"lon":139.75204},{"name":"千代田保健所","province":"東京都","city":"千代田区","address":"千代田区九段北1-2-14","lat":35.69598,"lon":139.75205},{"name":"千代田区選挙管理委員会","province":"東京都","city":"千代田区","address":"千代田区九段南1-2-1","lat":35.694001,"lon":139.753608},{"name":"千代田保健所","province":"東京都","city":"千代田区","address":"千代田区九段北1-2-14","lat":35.696071,"lon":139.752142},{"name":"千代田保健所","province":"東京都","city":"千代田区","address":"東京都千代田区九段北1丁目2-14","lat":35.69607147,"lon":139.75213913},{"name":"千代田保健所","province":"東京都","city":"千代田区","address":"千代田区九段北1-2-14","lat":35.69598,"lon":139.75204},{"name":"千代田保健所","province":"東京都","city":"千代田区","address":"千代田区九段北1-2-14","lat":35.69598,"lon":139.75205},{"name":"千代田区選挙管理委員会","province":"東京都","city":"千代田区","address":"千代田区九段南1-2-1","lat":35.694001,"lon":139.753608},{"name":"千代田保健所","province":"東京都","city":"千代田区","address":"千代田区九段北1-2-14","lat":35.696071,"lon":139.752142},{"name":"千代田保健所","province":"東京都","city":"千代田区","address":"東京都千代田区九段北1丁目2-14","lat":35.69607147,"lon":139.75213913},{"name":"千代田保健所","province":"東京都","city":"千代田区","address":"千代田区九段北1-2-14","lat":35.69598,"lon":139.75204},{"name":"千代田保健所","province":"東京都","city":"千代田区","address":"千代田区九段北1-2-14","lat":35.69598,"lon":139.75205},{"name":"千代田区選挙管理委員会","province":"東京都","city":"千代田区","address":"千代田区九段南1-2-1","lat":35.694001,"lon":139.753608},{"name":"千代田保健所","province":"東京都","city":"千代田区","address":"千代田区九段北1-2-14","lat":35.696071,"lon":139.752142},{"name":"千代田保健所","province":"東京都","city":"千代田区","address":"東京都千代田区九段北1丁目2-14","lat":35.69607147,"lon":139.75213913},{"name":"千代田保健所","province":"東京都","city":"千代田区","address":"千代田区九段北1-2-14","lat":35.69598,"lon":139.75204},{"name":"千代田保健所","province":"東京都","city":"千代田区","address":"千代田区九段北1-2-14","lat":35.69598,"lon":139.75205},{"name":"千代田区選挙管理委員会","province":"東京都","city":"千代田区","address":"千代田区九段南1-2-1","lat":35.694001,"lon":139.753608},{"name":"千代田保健所","province":"東京都","city":"千代田区","address":"千代田区九段北1-2-14","lat":35.696071,"lon":139.752142},{"name":"千代田保健所","province":"東京都","city":"千代田区","address":"東京都千代田区九段北1丁目2-14","lat":35.69607147,"lon":139.75213913},{"name":"千代田保健所","province":"東京都","city":"千代田区","address":"千代田区九段北1-2-14","lat":35.69598,"lon":139.75204},{"name":"千代田保健所","province":"東京都","city":"千代田区","address":"千代田区九段北1-2-14","lat":35.69598,"lon":139.75205},{"name":"千代田区選挙管理委員会","province":"東京都","city":"千代田区","address":"千代田区九段南1-2-1","lat":35.694001,"lon":139.753608},{"name":"千代田保健所","province":"東京都","city":"千代田区","address":"千代田区九段北1-2-14","lat":35.696071,"lon":139.752142},{"name":"千代田保健所","province":"東京都","city":"千代田区","address":"東京都千代田区九段北1丁目2-14","lat":35.69607147,"lon":139.75213913},{"name":"千代田保健所","province":"東京都","city":"千代田区","address":"千代田区九段北1-2-14","lat":35.69598,"lon":139.75204},{"name":"千代田保健所","province":"東京都","city":"千代田区","address":"千代田区九段北1-2-14","lat":35.69598,"lon":139.75205},{"name":"千代田区選挙管理委員会","province":"東京都","city":"千代田区","address":"千代田区九段南1-2-1","lat":35.694001,"lon":139.753608},{"name":"千代田保健所","province":"東京都","city":"千代田区","address":"千代田区九段北1-2-14","lat":35.696071,"lon":139.752142},{"name":"千代田保健所","province":"東京都","city":"千代田区","address":"東京都千代田区九段北1丁目2-14","lat":35.69607147,"lon":139.75213913},{"name":"千代田保健所","province":"東京都","city":"千代田区","address":"千代田区九段北1-2-14","lat":35.69598,"lon":139.75204},{"name":"千代田保健所","province":"東京都","city":"千代田区","address":"千代田区九段北1-2-14","lat":35.69598,"lon":139.75205},{"name":"千代田区選挙管理委員会","province":"東京都","city":"千代田区","address":"千代田区九段南1-2-1","lat":35.694001,"lon":139.753608},{"name":"千代田保健所","province":"東京都","city":"千代田区","address":"千代田区九段北1-2-14","lat":35.696071,"lon":139.752142},{"name":"千代田保健所","province":"東京都","city":"千代田区","address":"東京都千代田区九段北1丁目2-14","lat":35.69607147,"lon":139.75213913},{"name":"千代田保健所","province":"東京都","city":"千代田区","address":"千代田区九段北1-2-14","lat":35.69598,"lon":139.75204},{"name":"千代田保健所","province":"東京都","city":"千代田区","address":"千代田区九段北1-2-14","lat":35.69598,"lon":139.75205},{"name":"千代田区選挙管理委員会","province":"東京都","city":"千代田区","address":"千代田区九段南1-2-1","lat":35.694001,"lon":139.753608},{"name":"千代田保健所","province":"東京都","city":"千代田区","address":"千代田区九段北1-2-14","lat":35.696071,"lon":139.752142},{"name":"千代田保健所","province":"東京都","city":"千代田区","address":"東京都千代田区九段北1丁目2-14","lat":35.69607147,"lon":139.75213913},{"name":"千代田保健所","province":"東京都","city":"千代田区","address":"千代田区九段北1-2-14","lat":35.69598,"lon":139.75204},{"name":"千代田保健所","province":"東京都","city":"千代田区","address":"千代田区九段北1-2-14","lat":35.69598,"lon":139.75205},{"name":"千代田区選挙管理委員会","province":"東京都","city":"千代田区","address":"千代田区九段南1-2-1","lat":35.694001,"lon":139.753608},{"name":"千代田保健所","province":"東京都","city":"千代田区","address":"千代田区九段北1-2-14","lat":35.696071,"lon":139.752142},{"name":"千代田保健所","province":"東京都","city":"千代田区","address":"東京都千代田区九段北1丁目2-14","lat":35.69607147,"lon":139.75213913},{"name":"千代田保健所","province":"東京都","city":"千代田区","address":"千代田区九段北1-2-14","lat":35.69598,"lon":139.75204},{"name":"千代田保健所","province":"東京都","city":"千代田区","address":"千代田区九段北1-2-14","lat":35.69598,"lon":139.75205},{"name":"千代田区選挙管理委員会","province":"東京都","city":"千代田区","address":"千代田区九段南1-2-1","lat":35.694001,"lon":139.753608},{"name":"千代田保健所","province":"東京都","city":"千代田区","address":"千代田区九段北1-2-14","lat":35.696071,"lon":139.752142},{"name":"千代田保健所","province":"東京都","city":"千代田区","address":"東京都千代田区九段北1丁目2-14","lat":35.69607147,"lon":139.75213913},{"name":"千代田保健所","province":"東京都","city":"千代田区","address":"千代田区九段北1-2-14","lat":35.69598,"lon":139.75204},{"name":"千代田保健所","province":"東京都","city":"千代田区","address":"千代田区九段北1-2-14","lat":35.69598,"lon":139.75205},{"name":"千代田区選挙管理委員会","province":"東京都","city":"千代田区","address":"千代田区九段南1-2-1","lat":35.694001,"lon":139.753608},{"name":"千代田保健所","province":"東京都","city":"千代田区","address":"千代田区九段北1-2-14","lat":35.696071,"lon":139.752142},{"name":"千代田保健所","province":"東京都","city":"千代田区","address":"東京都千代田区九段北1丁目2-14","lat":35.69607147,"lon":139.75213913},{"name":"千代田保健所","province":"東京都","city":"千代田区","address":"千代田区九段北1-2-14","lat":35.69598,"lon":139.75204},{"name":"千代田保健所","province":"東京都","city":"千代田区","address":"千代田区九段北1-2-14","lat":35.69598,"lon":139.75205},{"name":"千代田区選挙管理委員会","province":"東京都","city":"千代田区","address":"千代田区九段南1-2-1","lat":35.694001,"lon":139.753608},{"name":"千代田保健所","province":"東京都","city":"千代田区","address":"千代田区九段北1-2-14","lat":35.696071,"lon":139.752142},{"name":"千代田保健所","province":"東京都","city":"千代田区","address":"東京都千代田区九段北1丁目2-14","lat":35.69607147,"lon":139.75213913},{"name":"千代田保健所","province":"東京都","city":"千代田区","address":"千代田区九段北1-2-14","lat":35.69598,"lon":139.75204},{"name":"千代田保健所","province":"東京都","city":"千代田区","address":"千代田区九段北1-2-14","lat":35.69598,"lon":139.75205},{"name":"千代田区選挙管理委員会","province":"東京都","city":"千代田区","address":"千代田区九段南1-2-1","lat":35.694001,"lon":139.753608},{"name":"千代田保健所","province":"東京都","city":"千代田区","address":"千代田区九段北1-2-14","lat":35.696071,"lon":139.752142},{"name":"千代田保健所","province":"東京都","city":"千代田区","address":"東京都千代田区九段北1丁目2-14","lat":35.69607147,"lon":139.75213913},{"name":"千代田保健所","province":"東京都","city":"千代田区","address":"千代田区九段北1-2-14","lat":35.69598,"lon":139.75204},{"name":"千代田保健所","province":"東京都","city":"千代田区","address":"千代田区九段北1-2-14","lat":35.69598,"lon":139.75205},{"name":"千代田区選挙管理委員会","province":"東京都","city":"千代田区","address":"千代田区九段南1-2-1","lat":35.694001,"lon":139.753608},{"name":"千代田保健所","province":"東京都","city":"千代田区","address":"千代田区九段北1-2-14","lat":35.696071,"lon":139.752142},{"name":"千代田保健所","province":"東京都","city":"千代田区","address":"東京都千代田区九段北1丁目2-14","lat":35.69607147,"lon":139.75213913},{"name":"千代田保健所","province":"東京都","city":"千代田区","address":"千代田区九段北1-2-14","lat":35.69598,"lon":139.75204},{"name":"千代田保健所","province":"東京都","city":"千代田区","address":"千代田区九段北1-2-14","lat":35.69598,"lon":139.75205},{"name":"千代田区選挙管理委員会","province":"東京都","city":"千代田区","address":"千代田区九段南1-2-1","lat":35.694001,"lon":139.753608},{"name":"千代田保健所","province":"東京都","city":"千代田区","address":"千代田区九段北1-2-14","lat":35.696071,"lon":139.752142},{"name":"千代田保健所","province":"東京都","city":"千代田区","address":"東京都千代田区九段北1丁目2-14","lat":35.69607147,"lon":139.75213913},{"name":"千代田保健所","province":"東京都","city":"千代田区","address":"千代田区九段北1-2-14","lat":35.69598,"lon":139.75204},{"name":"千代田保健所","province":"東京都","city":"千代田区","address":"千代田区九段北1-2-14","lat":35.69598,"lon":139.75205},{"name":"千代田区選挙管理委員会","province":"東京都","city":"千代田区","address":"千代田区九段南1-2-1","lat":35.694001,"lon":139.753608},{"name":"千代田保健所","province":"東京都","city":"千代田区","address":"千代田区九段北1-2-14","lat":35.696071,"lon":139.752142},{"name":"千代田保健所","province":"東京都","city":"千代田区","address":"東京都千代田区九段北1丁目2-14","lat":35.69607147,"lon":139.75213913},{"name":"千代田保健所","province":"東京都","city":"千代田区","address":"千代田区九段北1-2-14","lat":35.69598,"lon":139.75204},{"name":"千代田保健所","province":"東京都","city":"千代田区","address":"千代田区九段北1-2-14","lat":35.69598,"lon":139.75205},{"name":"千代田区選挙管理委員会","province":"東京都","city":"千代田区","address":"千代田区九段南1-2-1","lat":35.694001,"lon":139.753608},{"name":"千代田保健所","province":"東京都","city":"千代田区","address":"千代田区九段北1-2-14","lat":35.696071,"lon":139.752142},{"name":"千代田保健所","province":"東京都","city":"千代田区","address":"東京都千代田区九段北1丁目2-14","lat":35.69607147,"lon":139.75213913},{"name":"千代田保健所","province":"東京都","city":"千代田区","address":"千代田区九段北1-2-14","lat":35.69598,"lon":139.75204},{"name":"千代田保健所","province":"東京都","city":"千代田区","address":"千代田区九段北1-2-14","lat":35.69598,"lon":139.75205},{"name":"千代田保健所","province":"東京都","city":"千代田区","address":"千代田区九段北1-2-14","lat":35.696071,"lon":139.752142},{"name":"千代田保健所","province":"東京都","city":"千代田区","address":"東京都千代田区九段北1丁目2-14","lat":35.69607147,"lon":139.75213913},{"name":"千代田保健所","province":"東京都","city":"千代田区","address":"千代田区九段北1-2-14","lat":35.69598,"lon":139.75204},{"name":"千代田保健所","province":"東京都","city":"千代田区","address":"千代田区九段北1-2-14","lat":35.69598,"lon":139.75205},{"name":"千代田保健所","province":"東京都","city":"千代田区","address":"千代田区九段北1-2-14","lat":35.696071,"lon":139.752142},{"name":"千代田保健所","province":"東京都","city":"千代田区","address":"東京都千代田区九段北1丁目2-14","lat":35.69607147,"lon":139.75213913},{"name":"千代田保健所","province":"東京都","city":"千代田区","address":"千代田区九段北1-2-14","lat":35.69598,"lon":139.75204},{"name":"千代田保健所","province":"東京都","city":"千代田区","address":"千代田区九段北1-2-14","lat":35.69598,"lon":139.75205},{"name":"千代田保健所","province":"東京都","city":"千代田区","address":"千代田区九段北1-2-14","lat":35.696071,"lon":139.752142},{"name":"千代田保健所","province":"東京都","city":"千代田区","address":"東京都千代田区九段北1丁目2-14","lat":35.69607147,"lon":139.75213913},{"name":"千代田保健所","province":"東京都","city":"千代田区","address":"千代田区九段北1-2-14","lat":35.69598,"lon":139.75204},{"name":"千代田保健所","province":"東京都","city":"千代田区","address":"千代田区九段北1-2-14","lat":35.69598,"lon":139.75205}]}