{"keyword":"スモッグ","data":[{"name":"日比谷公園","province":"東京都","city":"千代田区","address":"東京都千代田区日比谷公園","lat":35.674439,"lon":139.755388},{"name":"皇居前広場","province":"東京都","city":"千代田区","address":"東京都千代田区皇居外苑1","lat":35.67806805,"lon":139.7588226},{"name":"都立日比谷公園（第二花壇）","province":"東京都","city":"千代田区","address":"東京都千代田区日比谷公園1","lat":35.67461838,"lon":139.75677845},{"name":"上智大学運動場","province":"東京都","city":"千代田区","address":"東京都千代田区紀尾井町5","lat":35.6830057,"lon":139.73098034},{"name":"北の丸公園第２駐車場","province":"東京都","city":"千代田区","address":"東京都千代田区北の丸公園2","lat":35.6932523,"lon":139.75056715},{"name":"北の丸公園第３駐車場","province":"東京都","city":"千代田区","address":"東京都千代田区北の丸公園1-1","lat":35.69242736,"lon":139.74948116},{"name":"日高工業(株)","province":"東京都","city":"千代田区","address":"千代田区飯田橋2-12-1","lat":35.699402,"lon":139.749771},{"name":"千代田区リサイクル事業(協)","province":"東京都","city":"千代田区","address":"千代田区飯田橋2-12-1","lat":35.699402,"lon":139.749771},{"name":"日比谷公園","province":"東京都","city":"千代田区","address":"東京都千代田区日比谷公園","lat":35.674439,"lon":139.755388},{"name":"日高工業(株)","province":"東京都","city":"千代田区","address":"千代田区飯田橋2-12-1","lat":35.699402,"lon":139.749771},{"name":"千代田区リサイクル事業(協)","province":"東京都","city":"千代田区","address":"千代田区飯田橋2-12-1","lat":35.699402,"lon":139.749771},{"name":"日比谷公園","province":"東京都","city":"千代田区","address":"東京都千代田区日比谷公園","lat":35.674439,"lon":139.755388},{"name":"日高工業(株)","province":"東京都","city":"千代田区","address":"千代田区飯田橋2-12-1","lat":35.699402,"lon":139.749771},{"name":"千代田区リサイクル事業(協)","province":"東京都","city":"千代田区","address":"千代田区飯田橋2-12-1","lat":35.699402,"lon":139.749771},{"name":"日比谷公園","province":"東京都","city":"千代田区","address":"東京都千代田区日比谷公園","lat":35.674439,"lon":139.755388},{"name":"日高工業(株)","province":"東京都","city":"千代田区","address":"千代田区飯田橋2-12-1","lat":35.699402,"lon":139.749771},{"name":"千代田区リサイクル事業(協)","province":"東京都","city":"千代田区","address":"千代田区飯田橋2-12-1","lat":35.699402,"lon":139.749771},{"name":"日比谷公園","province":"東京都","city":"千代田区","address":"東京都千代田区日比谷公園","lat":35.674439,"lon":139.755388},{"name":"日高工業(株)","province":"東京都","city":"千代田区","address":"千代田区飯田橋2-12-1","lat":35.699402,"lon":139.749771},{"name":"千代田区リサイクル事業(協)","province":"東京都","city":"千代田区","address":"千代田区飯田橋2-12-1","lat":35.699402,"lon":139.749771},{"name":"日比谷公園","province":"東京都","city":"千代田区","address":"東京都千代田区日比谷公園","lat":35.674439,"lon":139.755388},{"name":"日高工業(株)","province":"東京都","city":"千代田区","address":"千代田区飯田橋2-12-1","lat":35.699402,"lon":139.749771},{"name":"千代田区リサイクル事業(協)","province":"東京都","city":"千代田区","address":"千代田区飯田橋2-12-1","lat":35.699402,"lon":139.749771},{"name":"日比谷公園","province":"東京都","city":"千代田区","address":"東京都千代田区日比谷公園","lat":35.674439,"lon":139.755388},{"name":"日高工業(株)","province":"東京都","city":"千代田区","address":"千代田区飯田橋2-12-1","lat":35.699402,"lon":139.749771},{"name":"千代田区リサイクル事業(協)","province":"東京都","city":"千代田区","address":"千代田区飯田橋2-12-1","lat":35.699402,"lon":139.749771},{"name":"日比谷公園","province":"東京都","city":"千代田区","address":"東京都千代田区日比谷公園","lat":35.674439,"lon":139.755388},{"name":"日高工業(株)","province":"東京都","city":"千代田区","address":"千代田区飯田橋2-12-1","lat":35.699402,"lon":139.749771},{"name":"千代田区リサイクル事業(協)","province":"東京都","city":"千代田区","address":"千代田区飯田橋2-12-1","lat":35.699402,"lon":139.749771},{"name":"日比谷公園","province":"東京都","city":"千代田区","address":"東京都千代田区日比谷公園","lat":35.674439,"lon":139.755388},{"name":"日高工業(株)","province":"東京都","city":"千代田区","address":"千代田区飯田橋2-12-1","lat":35.699402,"lon":139.749771},{"name":"千代田区リサイクル事業(協)","province":"東京都","city":"千代田区","address":"千代田区飯田橋2-12-1","lat":35.699402,"lon":139.749771},{"name":"日比谷公園","province":"東京都","city":"千代田区","address":"東京都千代田区日比谷公園","lat":35.674439,"lon":139.755388},{"name":"日高工業(株)","province":"東京都","city":"千代田区","address":"千代田区飯田橋2-12-1","lat":35.699402,"lon":139.749771},{"name":"千代田区リサイクル事業(協)","province":"東京都","city":"千代田区","address":"千代田区飯田橋2-12-1","lat":35.699402,"lon":139.749771},{"name":"日比谷公園","province":"東京都","city":"千代田区","address":"東京都千代田区日比谷公園","lat":35.674439,"lon":139.755388},{"name":"日高工業(株)","province":"東京都","city":"千代田区","address":"千代田区飯田橋2-12-1","lat":35.699402,"lon":139.749771},{"name":"千代田区リサイクル事業(協)","province":"東京都","city":"千代田区","address":"千代田区飯田橋2-12-1","lat":35.699402,"lon":139.749771},{"name":"日比谷公園","province":"東京都","city":"千代田区","address":"東京都千代田区日比谷公園","lat":35.674439,"lon":139.755388},{"name":"日高工業(株)","province":"東京都","city":"千代田区","address":"千代田区飯田橋2-12-1","lat":35.699402,"lon":139.749771},{"name":"千代田区リサイクル事業(協)","province":"東京都","city":"千代田区","address":"千代田区飯田橋2-12-1","lat":35.699402,"lon":139.749771},{"name":"日比谷公園","province":"東京都","city":"千代田区","address":"東京都千代田区日比谷公園","lat":35.674439,"lon":139.755388},{"name":"日高工業(株)","province":"東京都","city":"千代田区","address":"千代田区飯田橋2-12-1","lat":35.699402,"lon":139.749771},{"name":"千代田区リサイクル事業(協)","province":"東京都","city":"千代田区","address":"千代田区飯田橋2-12-1","lat":35.699402,"lon":139.749771},{"name":"日比谷公園","province":"東京都","city":"千代田区","address":"東京都千代田区日比谷公園","lat":35.674439,"lon":139.755388},{"name":"日高工業(株)","province":"東京都","city":"千代田区","address":"千代田区飯田橋2-12-1","lat":35.699402,"lon":139.749771},{"name":"千代田区リサイクル事業(協)","province":"東京都","city":"千代田区","address":"千代田区飯田橋2-12-1","lat":35.699402,"lon":139.749771},{"name":"日比谷公園","province":"東京都","city":"千代田区","address":"東京都千代田区日比谷公園","lat":35.674439,"lon":139.755388},{"name":"日高工業(株)","province":"東京都","city":"千代田区","address":"千代田区飯田橋2-12-1","lat":35.699402,"lon":139.749771},{"name":"千代田区リサイクル事業(協)","province":"東京都","city":"千代田区","address":"千代田区飯田橋2-12-1","lat":35.699402,"lon":139.749771},{"name":"日比谷公園","province":"東京都","city":"千代田区","address":"東京都千代田区日比谷公園","lat":35.674439,"lon":139.755388},{"name":"日高工業(株)","province":"東京都","city":"千代田区","address":"千代田区飯田橋2-12-1","lat":35.699402,"lon":139.749771},{"name":"千代田区リサイクル事業(協)","province":"東京都","city":"千代田区","address":"千代田区飯田橋2-12-1","lat":35.699402,"lon":139.749771},{"name":"日比谷公園","province":"東京都","city":"千代田区","address":"東京都千代田区日比谷公園","lat":35.674439,"lon":139.755388},{"name":"日高工業(株)","province":"東京都","city":"千代田区","address":"千代田区飯田橋2-12-1","lat":35.699402,"lon":139.749771},{"name":"千代田区リサイクル事業(協)","province":"東京都","city":"千代田区","address":"千代田区飯田橋2-12-1","lat":35.699402,"lon":139.749771},{"name":"日比谷公園","province":"東京都","city":"千代田区","address":"東京都千代田区日比谷公園","lat":35.674439,"lon":139.755388},{"name":"日高工業(株)","province":"東京都","city":"千代田区","address":"千代田区飯田橋2-12-1","lat":35.699402,"lon":139.749771},{"name":"千代田区リサイクル事業(協)","province":"東京都","city":"千代田区","address":"千代田区飯田橋2-12-1","lat":35.699402,"lon":139.749771},{"name":"日比谷公園","province":"東京都","city":"千代田区","address":"東京都千代田区日比谷公園","lat":35.674439,"lon":139.755388},{"name":"日高工業(株)","province":"東京都","city":"千代田区","address":"千代田区飯田橋2-12-1","lat":35.699402,"lon":139.749771},{"name":"千代田区リサイクル事業(協)","province":"東京都","city":"千代田区","address":"千代田区飯田橋2-12-1","lat":35.699402,"lon":139.749771},{"name":"日比谷公園","province":"東京都","city":"千代田区","address":"東京都千代田区日比谷公園","lat":35.674439,"lon":139.755388},{"name":"日高工業(株)","province":"東京都","city":"千代田区","address":"千代田区飯田橋2-12-1","lat":35.699402,"lon":139.749771},{"name":"千代田区リサイクル事業(協)","province":"東京都","city":"千代田区","address":"千代田区飯田橋2-12-1","lat":35.699402,"lon":139.749771},{"name":"日比谷公園","province":"東京都","city":"千代田区","address":"東京都千代田区日比谷公園","lat":35.674439,"lon":139.755388},{"name":"日高工業(株)","province":"東京都","city":"千代田区","address":"千代田区飯田橋2-12-1","lat":35.699402,"lon":139.749771},{"name":"千代田区リサイクル事業(協)","province":"東京都","city":"千代田区","address":"千代田区飯田橋2-12-1","lat":35.699402,"lon":139.749771},{"name":"日比谷公園","province":"東京都","city":"千代田区","address":"東京都千代田区日比谷公園","lat":35.674439,"lon":139.755388},{"name":"日高工業(株)","province":"東京都","city":"千代田区","address":"千代田区飯田橋2-12-1","lat":35.699402,"lon":139.749771},{"name":"千代田区リサイクル事業(協)","province":"東京都","city":"千代田区","address":"千代田区飯田橋2-12-1","lat":35.699402,"lon":139.749771},{"name":"日比谷公園","province":"東京都","city":"千代田区","address":"東京都千代田区日比谷公園","lat":35.674439,"lon":139.755388},{"name":"日高工業(株)","province":"東京都","city":"千代田区","address":"千代田区飯田橋2-12-1","lat":35.699402,"lon":139.749771},{"name":"千代田区リサイクル事業(協)","province":"東京都","city":"千代田区","address":"千代田区飯田橋2-12-1","lat":35.699402,"lon":139.749771},{"name":"日比谷公園","province":"東京都","city":"千代田区","address":"東京都千代田区日比谷公園","lat":35.674439,"lon":139.755388},{"name":"日高工業(株)","province":"東京都","city":"千代田区","address":"千代田区飯田橋2-12-1","lat":35.699402,"lon":139.749771},{"name":"千代田区リサイクル事業(協)","province":"東京都","city":"千代田区","address":"千代田区飯田橋2-12-1","lat":35.699402,"lon":139.749771},{"name":"日比谷公園","province":"東京都","city":"千代田区","address":"東京都千代田区日比谷公園","lat":35.674439,"lon":139.755388},{"name":"日高工業(株)","province":"東京都","city":"千代田区","address":"千代田区飯田橋2-12-1","lat":35.699402,"lon":139.749771},{"name":"千代田区リサイクル事業(協)","province":"東京都","city":"千代田区","address":"千代田区飯田橋2-12-1","lat":35.699402,"lon":139.749771},{"name":"日比谷公園","province":"東京都","city":"千代田区","address":"東京都千代田区日比谷公園","lat":35.674439,"lon":139.755388},{"name":"日高工業(株)","province":"東京都","city":"千代田区","address":"千代田区飯田橋2-12-1","lat":35.699402,"lon":139.749771},{"name":"千代田区リサイクル事業(協)","province":"東京都","city":"千代田区","address":"千代田区飯田橋2-12-1","lat":35.699402,"lon":139.749771},{"name":"日比谷公園","province":"東京都","city":"千代田区","address":"東京都千代田区日比谷公園","lat":35.674439,"lon":139.755388},{"name":"日高工業(株)","province":"東京都","city":"千代田区","address":"千代田区飯田橋2-12-1","lat":35.699402,"lon":139.749771},{"name":"千代田区リサイクル事業(協)","province":"東京都","city":"千代田区","address":"千代田区飯田橋2-12-1","lat":35.699402,"lon":139.749771},{"name":"日比谷公園","province":"東京都","city":"千代田区","address":"東京都千代田区日比谷公園","lat":35.674439,"lon":139.755388},{"name":"日高工業(株)","province":"東京都","city":"千代田区","address":"千代田区飯田橋2-12-1","lat":35.699402,"lon":139.749771},{"name":"千代田区リサイクル事業(協)","province":"東京都","city":"千代田区","address":"千代田区飯田橋2-12-1","lat":35.699402,"lon":139.749771},{"name":"日比谷公園","province":"東京都","city":"千代田区","address":"東京都千代田区日比谷公園","lat":35.674439,"lon":139.755388},{"name":"日高工業(株)","province":"東京都","city":"千代田区","address":"千代田区飯田橋2-12-1","lat":35.699402,"lon":139.749771},{"name":"千代田区リサイクル事業(協)","province":"東京都","city":"千代田区","address":"千代田区飯田橋2-12-1","lat":35.699402,"lon":139.749771},{"name":"日比谷公園","province":"東京都","city":"千代田区","address":"東京都千代田区日比谷公園","lat":35.674439,"lon":139.755388},{"name":"日高工業(株)","province":"東京都","city":"千代田区","address":"千代田区飯田橋2-12-1","lat":35.699402,"lon":139.749771},{"name":"千代田区リサイクル事業(協)","province":"東京都","city":"千代田区","address":"千代田区飯田橋2-12-1","lat":35.699402,"lon":139.749771},{"name":"日比谷公園","province":"東京都","city":"千代田区","address":"東京都千代田区日比谷公園","lat":35.674439,"lon":139.755388},{"name":"日高工業(株)","province":"東京都","city":"千代田区","address":"千代田区飯田橋2-12-1","lat":35.699402,"lon":139.749771},{"name":"千代田区リサイクル事業(協)","province":"東京都","city":"千代田区","address":"千代田区飯田橋2-12-1","lat":35.699402,"lon":139.749771},{"name":"日比谷公園","province":"東京都","city":"千代田区","address":"東京都千代田区日比谷公園","lat":35.674439,"lon":139.755388},{"name":"日高工業(株)","province":"東京都","city":"千代田区","address":"千代田区飯田橋2-12-1","lat":35.699402,"lon":139.749771},{"name":"千代田区リサイクル事業(協)","province":"東京都","city":"千代田区","address":"千代田区飯田橋2-12-1","lat":35.699402,"lon":139.749771},{"name":"日比谷公園","province":"東京都","city":"千代田区","address":"東京都千代田区日比谷公園","lat":35.674439,"lon":139.755388},{"name":"日高工業(株)","province":"東京都","city":"千代田区","address":"千代田区飯田橋2-12-1","lat":35.699402,"lon":139.749771},{"name":"千代田区リサイクル事業(協)","province":"東京都","city":"千代田区","address":"千代田区飯田橋2-12-1","lat":35.699402,"lon":139.749771},{"name":"日比谷公園","province":"東京都","city":"千代田区","address":"東京都千代田区日比谷公園","lat":35.674439,"lon":139.755388},{"name":"日高工業(株)","province":"東京都","city":"千代田区","address":"千代田区飯田橋2-12-1","lat":35.699402,"lon":139.749771},{"name":"千代田区リサイクル事業(協)","province":"東京都","city":"千代田区","address":"千代田区飯田橋2-12-1","lat":35.699402,"lon":139.749771},{"name":"日比谷公園","province":"東京都","city":"千代田区","address":"東京都千代田区日比谷公園","lat":35.674439,"lon":139.755388},{"name":"日高工業(株)","province":"東京都","city":"千代田区","address":"千代田区飯田橋2-12-1","lat":35.699402,"lon":139.749771},{"name":"千代田区リサイクル事業(協)","province":"東京都","city":"千代田区","address":"千代田区飯田橋2-12-1","lat":35.699402,"lon":139.749771},{"name":"日比谷公園","province":"東京都","city":"千代田区","address":"東京都千代田区日比谷公園","lat":35.674439,"lon":139.755388},{"name":"日高工業(株)","province":"東京都","city":"千代田区","address":"千代田区飯田橋2-12-1","lat":35.699402,"lon":139.749771},{"name":"千代田区リサイクル事業(協)","province":"東京都","city":"千代田区","address":"千代田区飯田橋2-12-1","lat":35.699402,"lon":139.749771},{"name":"日比谷公園","province":"東京都","city":"千代田区","address":"東京都千代田区日比谷公園","lat":35.674439,"lon":139.755388},{"name":"日高工業(株)","province":"東京都","city":"千代田区","address":"千代田区飯田橋2-12-1","lat":35.699402,"lon":139.749771},{"name":"千代田区リサイクル事業(協)","province":"東京都","city":"千代田区","address":"千代田区飯田橋2-12-1","lat":35.699402,"lon":139.749771},{"name":"日比谷公園","province":"東京都","city":"千代田区","address":"東京都千代田区日比谷公園","lat":35.674439,"lon":139.755388},{"name":"日高工業(株)","province":"東京都","city":"千代田区","address":"千代田区飯田橋2-12-1","lat":35.699402,"lon":139.749771},{"name":"千代田区リサイクル事業(協)","province":"東京都","city":"千代田区","address":"千代田区飯田橋2-12-1","lat":35.699402,"lon":139.749771},{"name":"日比谷公園","province":"東京都","city":"千代田区","address":"東京都千代田区日比谷公園","lat":35.674439,"lon":139.755388},{"name":"日高工業(株)","province":"東京都","city":"千代田区","address":"千代田区飯田橋2-12-1","lat":35.699402,"lon":139.749771},{"name":"千代田区リサイクル事業(協)","province":"東京都","city":"千代田区","address":"千代田区飯田橋2-12-1","lat":35.699402,"lon":139.749771},{"name":"日比谷公園","province":"東京都","city":"千代田区","address":"東京都千代田区日比谷公園","lat":35.674439,"lon":139.755388},{"name":"日高工業(株)","province":"東京都","city":"千代田区","address":"千代田区飯田橋2-12-1","lat":35.699402,"lon":139.749771},{"name":"千代田区リサイクル事業(協)","province":"東京都","city":"千代田区","address":"千代田区飯田橋2-12-1","lat":35.699402,"lon":139.749771},{"name":"日比谷公園","province":"東京都","city":"千代田区","address":"東京都千代田区日比谷公園","lat":35.674439,"lon":139.755388},{"name":"日高工業(株)","province":"東京都","city":"千代田区","address":"千代田区飯田橋2-12-1","lat":35.699402,"lon":139.749771},{"name":"千代田区リサイクル事業(協)","province":"東京都","city":"千代田区","address":"千代田区飯田橋2-12-1","lat":35.699402,"lon":139.749771},{"name":"日比谷公園","province":"東京都","city":"千代田区","address":"東京都千代田区日比谷公園","lat":35.674439,"lon":139.755388},{"name":"日高工業(株)","province":"東京都","city":"千代田区","address":"千代田区飯田橋2-12-1","lat":35.699402,"lon":139.749771},{"name":"千代田区リサイクル事業(協)","province":"東京都","city":"千代田区","address":"千代田区飯田橋2-12-1","lat":35.699402,"lon":139.749771},{"name":"日比谷公園","province":"東京都","city":"千代田区","address":"東京都千代田区日比谷公園","lat":35.674439,"lon":139.755388},{"name":"日高工業(株)","province":"東京都","city":"千代田区","address":"千代田区飯田橋2-12-1","lat":35.699402,"lon":139.749771},{"name":"千代田区リサイクル事業(協)","province":"東京都","city":"千代田区","address":"千代田区飯田橋2-12-1","lat":35.699402,"lon":139.749771},{"name":"日比谷公園","province":"東京都","city":"千代田区","address":"東京都千代田区日比谷公園","lat":35.674439,"lon":139.755388},{"name":"日高工業(株)","province":"東京都","city":"千代田区","address":"千代田区飯田橋2-12-1","lat":35.699402,"lon":139.749771},{"name":"千代田区リサイクル事業(協)","province":"東京都","city":"千代田区","address":"千代田区飯田橋2-12-1","lat":35.699402,"lon":139.749771},{"name":"日比谷公園","province":"東京都","city":"千代田区","address":"東京都千代田区日比谷公園","lat":35.674439,"lon":139.755388},{"name":"日高工業(株)","province":"東京都","city":"千代田区","address":"千代田区飯田橋2-12-1","lat":35.699402,"lon":139.749771},{"name":"千代田区リサイクル事業(協)","province":"東京都","city":"千代田区","address":"千代田区飯田橋2-12-1","lat":35.699402,"lon":139.749771},{"name":"日比谷公園","province":"東京都","city":"千代田区","address":"東京都千代田区日比谷公園","lat":35.674439,"lon":139.755388},{"name":"日高工業(株)","province":"東京都","city":"千代田区","address":"千代田区飯田橋2-12-1","lat":35.699402,"lon":139.749771},{"name":"千代田区リサイクル事業(協)","province":"東京都","city":"千代田区","address":"千代田区飯田橋2-12-1","lat":35.699402,"lon":139.749771}]}