{"keyword":"一覧","data":[{"name":"千代田合同庁舎（水道局千代田営業所）","province":"東京都","city":"千代田区","address":"東京都千代田区内神田2丁目1-12","lat":35.689081,"lon":139.76828274},{"name":"内幸町駅（都営三田線）","province":"東京都","city":"千代田区","address":"東京都千代田区内幸町2丁目2-3","lat":35.67037711,"lon":139.75435659},{"name":"岩本町駅（都営新宿線）","province":"東京都","city":"千代田区","address":"東京都千代田区神田岩本町1","lat":35.69606101,"lon":139.77481567},{"name":"小川町駅（都営新宿線）","province":"東京都","city":"千代田区","address":"東京都千代田区神田小川町1丁目6","lat":35.69523862,"lon":139.76614104},{"name":"神保町駅（都営三田線）","province":"東京都","city":"千代田区","address":"東京都千代田区神田神保町2丁目1","lat":35.69562723,"lon":139.75779427},{"name":"神保町駅（都営新宿線）","province":"東京都","city":"千代田区","address":"東京都千代田区神田神保町2丁目7","lat":35.69563273,"lon":139.75592497},{"name":"千代田区役所本庁舎","province":"東京都","city":"千代田区","address":"東京都千代田区九段南1丁目2-1","lat":35.69407451,"lon":139.75364744},{"name":"大手町駅（都営三田線）","province":"東京都","city":"千代田区","address":"東京都千代田区丸の内1丁目3-1","lat":35.6840814,"lon":139.76328874},{"name":"東京国際フォーラム","province":"東京都","city":"千代田区","address":"東京都千代田区丸の内3丁目5-1","lat":35.67694607,"lon":139.7635028},{"name":"日比谷駅（都営三田線）","province":"東京都","city":"千代田区","address":"東京都千代田区有楽町1丁目13-1","lat":35.67591278,"lon":139.76074196}]}