{"keyword":"保健","data":[{"name":"いずみこども園","province":"東京都","city":"千代田区","address":"千代田区神田和泉町1","lat":35.699016,"lon":139.777421},{"name":"あい保育園東神田","province":"東京都","city":"千代田区","address":"千代田区東神田2-6-5東神田ビル2・3階","lat":35.695814,"lon":139.780435},{"name":"神田保育園","province":"東京都","city":"千代田区","address":"千代田区神田淡路町2-109","lat":35.69685,"lon":139.767002},{"name":"神田淡路町保育園大きなおうち","province":"東京都","city":"千代田区","address":"千代田区神田淡路町2-12","lat":35.697805,"lon":139.76878},{"name":"西神田保育園","province":"東京都","city":"千代田区","address":"千代田区西神田2-6-2","lat":35.698918,"lon":139.754755},{"name":"ほっぺるランド西神田","province":"東京都","city":"千代田区","address":"千代田区西神田3-5-2千代田ファーストビル西館1階","lat":35.698227,"lon":139.752953},{"name":"グローバルキッズ飯田橋こども園","province":"東京都","city":"千代田区","address":"千代田区富士見2-14-37富士見EAST1・2階","lat":35.697163,"lon":139.743773},{"name":"ふじみこども園","province":"東京都","city":"千代田区","address":"千代田区富士見1-10-3","lat":35.697316,"lon":139.74622},{"name":"グローバルキッズ飯田橋園","province":"東京都","city":"千代田区","address":"千代田区富士見2-14-36富士見ウエスト2・3階","lat":35.697307,"lon":139.74364},{"name":"クレアナーサリー市ヶ谷","province":"東京都","city":"千代田区","address":"千代田区九段北4-2-29セブンアネックス1~3階","lat":35.692344,"lon":139.738182},{"name":"四番町保育園","province":"東京都","city":"千代田区","address":"千代田区四番町5-8","lat":35.688436,"lon":139.736499},{"name":"麹町保育園","province":"東京都","city":"千代田区","address":"千代田区一番町4","lat":35.688003,"lon":139.742601},{"name":"ポピンズナーサリースクール一番町","province":"東京都","city":"千代田区","address":"千代田区一番町10-8一番町ウエストビル","lat":35.686525,"lon":139.739749},{"name":"アスク二番町保育園","province":"東京都","city":"千代田区","address":"千代田区二番町2-1二番町TSビル","lat":35.686958,"lon":139.737971},{"name":"グローバルキッズ六番町園","province":"東京都","city":"千代田区","address":"千代田区六番町5-16","lat":35.686969,"lon":139.734669},{"name":"千代田保健所","province":"東京都","city":"千代田区","address":"千代田区九段北1-2-14","lat":35.696071,"lon":139.752142},{"name":"千代田合同庁舎","province":"東京都","city":"千代田区","address":"東京都千代田区内神田2丁目1-12","lat":35.688985,"lon":139.768232},{"name":"東京しごとセンター","province":"東京都","city":"千代田区","address":"東京都千代田区飯田橋3丁目10-1","lat":35.700311,"lon":139.749855},{"name":"東京国際フォーラム","province":"東京都","city":"千代田区","address":"東京都千代田区丸の内3丁目5-1","lat":35.676314,"lon":139.764174},{"name":"東京国際フォーラム","province":"東京都","city":"千代田区","address":"東京都千代田区丸の内3丁目5-1","lat":35.676352,"lon":139.764309},{"name":"東京国際フォーラム","province":"東京都","city":"千代田区","address":"東京都千代田区丸の内3丁目5","lat":35.676086,"lon":139.763027},{"name":"東京国際フォーラム","province":"東京都","city":"千代田区","address":"東京都千代田区丸の内3丁目5-1","lat":35.677562,"lon":139.763923},{"name":"日比谷公園","province":"東京都","city":"千代田区","address":"東京都千代田区日比谷公園1","lat":35.674014,"lon":139.754432},{"name":"日比谷公園","province":"東京都","city":"千代田区","address":"東京都千代田区日比谷公園1","lat":35.67456,"lon":139.756784},{"name":"日比谷公園","province":"東京都","city":"千代田区","address":"東京都千代田区日比谷公園1","lat":35.672179,"lon":139.755556},{"name":"日比谷公園","province":"東京都","city":"千代田区","address":"東京都千代田区日比谷公園1","lat":35.675722,"lon":139.757134},{"name":"日比谷公園","province":"東京都","city":"千代田区","address":"東京都千代田区日比谷公園1","lat":35.67432,"lon":139.756837},{"name":"日比谷公園","province":"東京都","city":"千代田区","address":"東京都千代田区日比谷公園1","lat":35.674892,"lon":139.755673},{"name":"日比谷公園","province":"東京都","city":"千代田区","address":"東京都千代田区日比谷公園1-5","lat":35.672404,"lon":139.75393},{"name":"日比谷公園","province":"東京都","city":"千代田区","address":"東京都千代田区日比谷公園1","lat":35.672365,"lon":139.754034},{"name":"日比谷公園","province":"東京都","city":"千代田区","address":"東京都千代田区日比谷公園1-5","lat":35.673155,"lon":139.753984},{"name":"日比谷公園","province":"東京都","city":"千代田区","address":"東京都千代田区日比谷公園1","lat":35.672811,"lon":139.753939},{"name":"日比谷公園","province":"東京都","city":"千代田区","address":"東京都千代田区日比谷公園1","lat":35.672811,"lon":139.753954},{"name":"都営三田線駅内幸町駅","province":"東京都","city":"千代田区","address":"東京都千代田区内幸町2丁目2","lat":35.669176,"lon":139.755244},{"name":"都営三田線駅日比谷駅","province":"東京都","city":"千代田区","address":"東京都千代田区有楽町1丁目13","lat":35.675739,"lon":139.759879},{"name":"都営三田線駅大手町駅","province":"東京都","city":"千代田区","address":"東京都千代田区丸の内1丁目2","lat":35.683028,"lon":139.762534},{"name":"都営三田線駅神保町駅","province":"東京都","city":"千代田区","address":"東京都千代田区一ツ橋2丁目3","lat":35.693965,"lon":139.758481},{"name":"都営新宿線市ヶ谷駅","province":"東京都","city":"千代田区","address":"東京都千代田区九段南4丁目8","lat":35.691167,"lon":139.736429},{"name":"都営新宿線市ヶ谷駅","province":"東京都","city":"千代田区","address":"東京都千代田区九段南4丁目7","lat":35.691942,"lon":139.739051},{"name":"都営新宿線九段下駅","province":"東京都","city":"千代田区","address":"東京都千代田区九段北1丁目2","lat":35.69564,"lon":139.751905},{"name":"都営新宿線神保町駅","province":"東京都","city":"千代田区","address":"東京都千代田区神田神保町2丁目","lat":35.696018,"lon":139.757721},{"name":"都営新宿線神保町駅","province":"東京都","city":"千代田区","address":"東京都千代田区神田神保町2丁目","lat":35.695857,"lon":139.757728},{"name":"都営新宿線小川町駅","province":"東京都","city":"千代田区","address":"東京都千代田区神田須田町1丁目","lat":35.695526,"lon":139.767686},{"name":"都営新宿線岩本町駅","province":"東京都","city":"千代田区","address":"東京都千代田区神田岩本町","lat":35.695646,"lon":139.774739},{"name":"東京消防庁本部庁舎","province":"東京都","city":"千代田区","address":"東京都千代田区大手町1丁目3-5","lat":35.688894,"lon":139.761545},{"name":"東京消防庁本部庁舎","province":"東京都","city":"千代田区","address":"東京都千代田区大手町1丁目3-5","lat":35.688926,"lon":139.761479},{"name":"麹町消防署永田町出張所","province":"東京都","city":"千代田区","address":"東京都千代田区永田町1丁目8-3","lat":35.678963,"lon":139.745898},{"name":"神田消防署三崎町出張所","province":"東京都","city":"千代田区","address":"東京都千代田区神田三崎町3丁目3-9","lat":35.700008,"lon":139.752161},{"name":"千代田区役所本庁舎","province":"東京都","city":"千代田区","address":"東京都千代田区九段南1丁目2-1","lat":35.694068,"lon":139.753463},{"name":"千代田区役所本庁舎","province":"東京都","city":"千代田区","address":"東京都千代田区九段南1丁目2-1","lat":35.693969,"lon":139.753566},{"name":"万世橋出張所・区民館","province":"東京都","city":"千代田区","address":"東京都千代田区外神田1丁目1-13","lat":35.697583,"lon":139.770668},{"name":"麹町出張所・区民館","province":"東京都","city":"千代田区","address":"東京都千代田区麹町2丁目8","lat":35.685583,"lon":139.739954},{"name":"富士見出張所・区民館","province":"東京都","city":"千代田区","address":"東京都千代田区富士見1丁目6-7","lat":35.699099,"lon":139.746385},{"name":"神保町出張所・区民館","province":"東京都","city":"千代田区","address":"東京都千代田区神田神保町2丁目40","lat":35.697652,"lon":139.755409},{"name":"神保町出張所・区民館","province":"東京都","city":"千代田区","address":"東京都千代田区神田神保町2丁目40","lat":35.697619,"lon":139.755397},{"name":"神田公園出張所・区民館","province":"東京都","city":"千代田区","address":"東京都千代田区神田司町2丁目2","lat":35.692748,"lon":139.768155},{"name":"和泉橋出張所・区民館","province":"東京都","city":"千代田区","address":"東京都千代田区神田佐久間町1丁目11-7","lat":35.69739,"lon":139.774998},{"name":"和泉橋出張所・区民館","province":"東京都","city":"千代田区","address":"東京都千代田区神田佐久間町1丁目11-7","lat":35.69739,"lon":139.774983},{"name":"和泉橋出張所・区民館","province":"東京都","city":"千代田区","address":"東京都千代田区神田佐久間町1丁目11-7","lat":35.697392,"lon":139.774949},{"name":"千代田万世会館","province":"東京都","city":"千代田区","address":"東京都千代田区外神田1丁目1","lat":35.697729,"lon":139.770534},{"name":"一番町集会室","province":"東京都","city":"千代田区","address":"東京都千代田区一番町10-22","lat":35.686428,"lon":139.73921},{"name":"千代田区立スポーツセンター","province":"東京都","city":"千代田区","address":"東京都千代田区内神田2丁目1-8","lat":35.689174,"lon":139.767634},{"name":"九段生涯学習館","province":"東京都","city":"千代田区","address":"東京都千代田区九段南1丁目5-10","lat":35.695214,"lon":139.752124},{"name":"千代田保健所","province":"東京都","city":"千代田区","address":"東京都千代田区九段北1丁目2-14","lat":35.69595,"lon":139.752142},{"name":"千代田保健所","province":"東京都","city":"千代田区","address":"東京都千代田区九段北1丁目2-14","lat":35.695949,"lon":139.752125},{"name":"日比谷図書文化館","province":"東京都","city":"千代田区","address":"東京都千代田区日比谷公園1-4","lat":35.671809,"lon":139.754312},{"name":"日比谷図書文化館","province":"東京都","city":"千代田区","address":"東京都千代田区日比谷公園1-4","lat":35.671816,"lon":139.754417},{"name":"日比谷図書文化館","province":"東京都","city":"千代田区","address":"東京都千代田区日比谷公園1-4","lat":35.671698,"lon":139.754708},{"name":"日比谷図書文化館","province":"東京都","city":"千代田区","address":"東京都千代田区日比谷公園1-4","lat":35.671891,"lon":139.754702},{"name":"千代田区立四番町図書館","province":"東京都","city":"千代田区","address":"東京都千代田区三番町14-7","lat":35.6905,"lon":139.741564},{"name":"昌平まちかど図書館","province":"東京都","city":"千代田区","address":"東京都千代田区外神田3丁目4-7","lat":35.701285,"lon":139.769885},{"name":"神田まちかど図書館","province":"東京都","city":"千代田区","address":"東京都千代田区神田司町2丁目16","lat":35.693338,"lon":139.76835},{"name":"ちよだパークサイドプラザ区民図書室","province":"東京都","city":"千代田区","address":"東京都千代田区神田和泉町","lat":35.699253,"lon":139.778826},{"name":"千代田区立内幸町ホール","province":"東京都","city":"千代田区","address":"東京都千代田区内幸町1丁目5","lat":35.669667,"lon":139.757558},{"name":"千代田区立高齢者総合サポートセンター（かがやきプラザ）","province":"東京都","city":"千代田区","address":"東京都千代田区九段南1丁目6-12","lat":35.693872,"lon":139.752078},{"name":"将門塚","province":"東京都","city":"千代田区","address":"東京都千代田区大手町1-2","lat":35.687353,"lon":139.762519},{"name":"千代田保健所","province":"東京都","city":"千代田区","address":"東京都千代田区九段北1丁目2-14","lat":35.69607147,"lon":139.75213913},{"name":"ほっぺるランド外神田","province":"東京都","city":"千代田区","address":"千代田区外神田4-8-6","lat":35.70233,"lon":139.7726},{"name":"外神田かなりや保育園","province":"東京都","city":"千代田区","address":"千代田区外神田3-6-13","lat":35.70255,"lon":139.76976},{"name":"いずみこども園","province":"東京都","city":"千代田区","address":"千代田区神田和泉町1","lat":35.69919,"lon":139.77597},{"name":"アイグラン保育園東神田","province":"東京都","city":"千代田区","address":"千代田区東神田2-6-5東神田ビル2・3階","lat":35.69564,"lon":139.78027},{"name":"岩本町ちとせ保育園","province":"東京都","city":"千代田区","address":"千代田区岩本町2-10-12","lat":35.69344,"lon":139.77722},{"name":"千代田せいが保育園","province":"東京都","city":"千代田区","address":"千代田区神田岩本町15-7","lat":35.69666,"lon":139.77502},{"name":"保育園神田ベアーズ","province":"東京都","city":"千代田区","address":"千代田区神田美倉町10-2","lat":35.69081,"lon":139.77431},{"name":"ベネッセ内神田保育園","province":"東京都","city":"千代田区","address":"千代田区内神田2-1-13","lat":35.68909,"lon":139.76772},{"name":"まなびの森保育園神保町","province":"東京都","city":"千代田区","address":"千代田区神田神保町2-20-31","lat":35.6971139,"lon":139.756543},{"name":"神田保育園","province":"東京都","city":"千代田区","address":"千代田区神田淡路町2-109","lat":35.69673,"lon":139.76709},{"name":"神田淡路町保育園大きなおうち","province":"東京都","city":"千代田区","address":"千代田区神田淡路町2-12","lat":35.69763,"lon":139.7688},{"name":"西神田保育園","province":"東京都","city":"千代田区","address":"千代田区西神田2-6-2西神田コスモス館","lat":35.69904,"lon":139.75476},{"name":"ほっぺるランド西神田","province":"東京都","city":"千代田区","address":"千代田区西神田3-5-2千代田ファーストビル西館1階","lat":35.69835,"lon":139.75301},{"name":"ふじみこども園","province":"東京都","city":"千代田区","address":"千代田区富士見1-10-3","lat":35.69703,"lon":139.74649},{"name":"グローバルキッズ飯田橋園","province":"東京都","city":"千代田区","address":"千代田区富士見2-14-36富士見ウエスト2・3階","lat":35.6969,"lon":139.74379},{"name":"グローバルキッズ飯田橋こども園","province":"東京都","city":"千代田区","address":"千代田区富士見2-14-37富士見EAST1・2階","lat":35.6972364,"lon":139.7438872},{"name":"クレアナーサリー市ヶ谷","province":"東京都","city":"千代田区","address":"千代田区九段北4-2-29セブンアネックス1~3階","lat":35.69206,"lon":139.73798},{"name":"ＡＩＡＩ　ＮＵＲＳＥＲＹ　三番町","province":"東京都","city":"千代田区","address":"千代田区三番町14-6","lat":35.6905,"lon":139.74158},{"name":"四番町保育園","province":"東京都","city":"千代田区","address":"千代田区四番町5-8","lat":35.68855,"lon":139.73807},{"name":"ポピンズナーサリースクール一番町","province":"東京都","city":"千代田区","address":"千代田区一番町10-8一番町ウエストビル3・4階","lat":35.68676,"lon":139.7394},{"name":"千代田区立麹町保育園","province":"東京都","city":"千代田区","address":"千代田区一番町4","lat":35.68758,"lon":139.74217},{"name":"アスク二番町保育園","province":"東京都","city":"千代田区","address":"千代田区二番町2-1二番町TSビル1~3階","lat":35.68705,"lon":139.73729},{"name":"二番町ちとせ保育園","province":"東京都","city":"千代田区","address":"千代田区二番町7-5","lat":35.68513,"lon":139.73497},{"name":"グローバルキッズ六番町園","province":"東京都","city":"千代田区","address":"千代田区六番町5-16","lat":35.68703,"lon":139.73384},{"name":"平河町ちとせ保育園","province":"東京都","city":"千代田区","address":"千代田区平河町2-10-3","lat":35.68117,"lon":139.74098},{"name":"千代田保健所","province":"東京都","city":"千代田区","address":"千代田区九段北1-2-14","lat":35.69598,"lon":139.75204},{"name":"千代田区立障害者福祉センターえみふる","province":"東京都","city":"千代田区","address":"東京都千代田区神田駿河台2丁目5","lat":35.70039345,"lon":139.76083553},{"name":"あい保育園東神田","province":"東京都","city":"千代田区","address":"千代田区東神田2-6-5東神田ビル2・3階","lat":35.69564,"lon":139.78027},{"name":"AIAI NURSERY 三番町","province":"東京都","city":"千代田区","address":"千代田区三番町14-6","lat":35.6905,"lon":139.74158},{"name":"麹町保育園","province":"東京都","city":"千代田区","address":"千代田区一番町4","lat":35.68758,"lon":139.74217},{"name":"あい・あい保育園　三番町園","province":"東京都","city":"千代田区","address":"千代田区三番町14-6","lat":35.6905,"lon":139.74158},{"name":"二番町ちとせ保育園","province":"東京都","city":"千代田区","address":"千代田区二番町7-5","lat":35.68514,"lon":139.73497},{"name":"グローバルキッズ六番町園","province":"東京都","city":"千代田区","address":"千代田区六番町5-16","lat":35.68704,"lon":139.73384},{"name":"千代田保健所","province":"東京都","city":"千代田区","address":"千代田区九段北1-2-14","lat":35.69598,"lon":139.75205},{"name":"ほっぺるランド西神田","province":"東京都","city":"千代田区","address":"千代田区西神田3-5-2千代田ファーストビル西館1階","lat":35.68366,"lon":139.75409},{"name":"グローバルキッズ飯田橋園","province":"東京都","city":"千代田区","address":"千代田区富士見2-14-36富士見ウエスト2・3階","lat":35.69362,"lon":140.17978},{"name":"クレアナーサリー市ヶ谷","province":"東京都","city":"千代田区","address":"千代田区九段北4-2-29セブンアネックス1~3階","lat":35.6944,"lon":139.74579},{"name":"ポピンズナーサリースクール一番町","province":"東京都","city":"千代田区","address":"千代田区一番町10-8一番町ウエストビル3・4階","lat":35.6878,"lon":139.74327},{"name":"アスク二番町保育園","province":"東京都","city":"千代田区","address":"千代田区二番町2-1二番町TSビル1~3階","lat":35.68593,"lon":139.73779},{"name":"出光美術館","province":"東京都","city":"千代田区","address":"千代田区丸の内3-1-1帝劇ビル9階","lat":35.676755,"lon":139.7608481},{"name":"三菱一号館美術館","province":"東京都","city":"千代田区","address":"東京都千代田区丸の内2丁目6-2","lat":35.67849868,"lon":139.76336665},{"name":"駿河台日本大学病院","province":"東京都","city":"千代田区","address":"東京都千代田区神田駿河台1丁目8-13","lat":35.69821877,"lon":139.76340494},{"name":"三井記念病院","province":"東京都","city":"千代田区","address":"東京都千代田区神田和泉町1","lat":35.69901632,"lon":139.77742103},{"name":"東京都漬物事業協同組合","province":"東京都","city":"千代田区","address":"東京都千代田区外神田2丁目2-17","lat":35.69964098,"lon":139.76772134},{"name":"都立日比谷公園","province":"東京都","city":"千代田区","address":"東京都千代田区日比谷公園1","lat":35.67461838,"lon":139.75677845},{"name":"都立一橋高等学校","province":"東京都","city":"千代田区","address":"東京都千代田区東神田1丁目12-13","lat":35.69458357,"lon":139.78104065},{"name":"東京都漬物事業協同組合","province":"東京都","city":"千代田区","address":"東京都千代田区外神田2丁目2-17","lat":35.69964098,"lon":139.76772134},{"name":"皇居前広場","province":"東京都","city":"千代田区","address":"東京都千代田区皇居外苑1","lat":35.67806805,"lon":139.7588226},{"name":"都立日比谷公園（第二花壇）","province":"東京都","city":"千代田区","address":"東京都千代田区日比谷公園1","lat":35.67461838,"lon":139.75677845},{"name":"上智大学運動場","province":"東京都","city":"千代田区","address":"東京都千代田区紀尾井町5","lat":35.6830057,"lon":139.73098034},{"name":"北の丸公園第２駐車場","province":"東京都","city":"千代田区","address":"東京都千代田区北の丸公園2","lat":35.6932523,"lon":139.75056715},{"name":"北の丸公園第３駐車場","province":"東京都","city":"千代田区","address":"東京都千代田区北の丸公園1-1","lat":35.69242736,"lon":139.74948116},{"name":"千代田区選挙管理委員会","province":"東京都","city":"千代田区","address":"千代田区九段南1-2-1","lat":35.694001,"lon":139.753608},{"name":"千代田都税事務所","province":"東京都","city":"千代田区","address":"東京都千代田区内神田2丁目1-12","lat":35.689081,"lon":139.76828274},{"name":"東京都中小企業振興公社","province":"東京都","city":"千代田区","address":"東京都千代田区神田佐久間町1丁目9","lat":35.69726364,"lon":139.77425451},{"name":"東京しごとセンター","province":"東京都","city":"千代田区","address":"東京都千代田区飯田橋3丁目10-3","lat":35.70055702,"lon":139.74957525},{"name":"日比谷グリーンサロン","province":"東京都","city":"千代田区","address":"東京都千代田区日比谷公園1-5","lat":35.67282684,"lon":139.75432594},{"name":"「緑と水」の市民カレッジ","province":"東京都","city":"千代田区","address":"東京都千代田区日比谷公園1-5","lat":35.67282684,"lon":139.75432594},{"name":"一橋高等学校","province":"東京都","city":"千代田区","address":"東京都千代田区東神田1丁目12-13","lat":35.69458357,"lon":139.78104065},{"name":"日比谷高等学校","province":"東京都","city":"千代田区","address":"東京都千代田区永田町2丁目16-1","lat":35.67628721,"lon":139.73974095},{"name":"スクワール麹町","province":"東京都","city":"千代田区","address":"東京都千代田区麹町6丁目6","lat":35.68555823,"lon":139.73222458},{"name":"東京交通会館","province":"東京都","city":"千代田区","address":"東京都千代田区有楽町2丁目10-1","lat":35.67498242,"lon":139.76429726},{"name":"九段中等教育学校","province":"東京都","city":"千代田区","address":"東京都千代田区九段北2丁目2-1","lat":35.69609634,"lon":139.74728118},{"name":"千代田区本庁舎","province":"東京都","city":"千代田区","address":"千代田区九段南1-2-1","lat":35.694003,"lon":139.753634},{"name":"中部下水道事務所","province":"東京都","city":"千代田区","address":"東京都千代田区大手町2丁目6-2","lat":35.68539531,"lon":139.76895777},{"name":"いずみこども園","province":"東京都","city":"千代田区","address":"千代田区神田和泉町1","lat":35.699016,"lon":139.777421},{"name":"あい保育園東神田","province":"東京都","city":"千代田区","address":"千代田区東神田2-6-5東神田ビル2・3階","lat":35.695814,"lon":139.780435},{"name":"神田保育園","province":"東京都","city":"千代田区","address":"千代田区神田淡路町2-109","lat":35.69685,"lon":139.767002},{"name":"神田淡路町保育園大きなおうち","province":"東京都","city":"千代田区","address":"千代田区神田淡路町2-12","lat":35.697805,"lon":139.76878},{"name":"西神田保育園","province":"東京都","city":"千代田区","address":"千代田区西神田2-6-2","lat":35.698918,"lon":139.754755},{"name":"ほっぺるランド西神田","province":"東京都","city":"千代田区","address":"千代田区西神田3-5-2千代田ファーストビル西館1階","lat":35.698227,"lon":139.752953},{"name":"グローバルキッズ飯田橋こども園","province":"東京都","city":"千代田区","address":"千代田区富士見2-14-37富士見EAST1・2階","lat":35.697163,"lon":139.743773},{"name":"ふじみこども園","province":"東京都","city":"千代田区","address":"千代田区富士見1-10-3","lat":35.697316,"lon":139.74622},{"name":"グローバルキッズ飯田橋園","province":"東京都","city":"千代田区","address":"千代田区富士見2-14-36富士見ウエスト2・3階","lat":35.697307,"lon":139.74364},{"name":"クレアナーサリー市ヶ谷","province":"東京都","city":"千代田区","address":"千代田区九段北4-2-29セブンアネックス1~3階","lat":35.692344,"lon":139.738182},{"name":"四番町保育園","province":"東京都","city":"千代田区","address":"千代田区四番町5-8","lat":35.688436,"lon":139.736499},{"name":"麹町保育園","province":"東京都","city":"千代田区","address":"千代田区一番町4","lat":35.688003,"lon":139.742601},{"name":"ポピンズナーサリースクール一番町","province":"東京都","city":"千代田区","address":"千代田区一番町10-8一番町ウエストビル","lat":35.686525,"lon":139.739749},{"name":"アスク二番町保育園","province":"東京都","city":"千代田区","address":"千代田区二番町2-1二番町TSビル","lat":35.686958,"lon":139.737971},{"name":"グローバルキッズ六番町園","province":"東京都","city":"千代田区","address":"千代田区六番町5-16","lat":35.686969,"lon":139.734669},{"name":"千代田保健所","province":"東京都","city":"千代田区","address":"千代田区九段北1-2-14","lat":35.696071,"lon":139.752142},{"name":"将門塚","province":"東京都","city":"千代田区","address":"東京都千代田区大手町1-2","lat":35.687353,"lon":139.762519},{"name":"ほっぺるランド外神田","province":"東京都","city":"千代田区","address":"千代田区外神田4-8-6","lat":35.70233,"lon":139.7726},{"name":"外神田かなりや保育園","province":"東京都","city":"千代田区","address":"千代田区外神田3-6-13","lat":35.70255,"lon":139.76976},{"name":"いずみこども園","province":"東京都","city":"千代田区","address":"千代田区神田和泉町1","lat":35.69919,"lon":139.77597},{"name":"アイグラン保育園東神田","province":"東京都","city":"千代田区","address":"千代田区東神田2-6-5東神田ビル2・3階","lat":35.69564,"lon":139.78027},{"name":"岩本町ちとせ保育園","province":"東京都","city":"千代田区","address":"千代田区岩本町2-10-12","lat":35.69344,"lon":139.77722},{"name":"千代田せいが保育園","province":"東京都","city":"千代田区","address":"千代田区神田岩本町15-7","lat":35.69666,"lon":139.77502},{"name":"保育園神田ベアーズ","province":"東京都","city":"千代田区","address":"千代田区神田美倉町10-2","lat":35.69081,"lon":139.77431},{"name":"ベネッセ内神田保育園","province":"東京都","city":"千代田区","address":"千代田区内神田2-1-13","lat":35.68909,"lon":139.76772},{"name":"まなびの森保育園神保町","province":"東京都","city":"千代田区","address":"千代田区神田神保町2-20-31","lat":35.6971139,"lon":139.756543},{"name":"神田保育園","province":"東京都","city":"千代田区","address":"千代田区神田淡路町2-109","lat":35.69673,"lon":139.76709},{"name":"神田淡路町保育園大きなおうち","province":"東京都","city":"千代田区","address":"千代田区神田淡路町2-12","lat":35.69763,"lon":139.7688},{"name":"西神田保育園","province":"東京都","city":"千代田区","address":"千代田区西神田2-6-2西神田コスモス館","lat":35.69904,"lon":139.75476},{"name":"ほっぺるランド西神田","province":"東京都","city":"千代田区","address":"千代田区西神田3-5-2千代田ファーストビル西館1階","lat":35.69835,"lon":139.75301},{"name":"ふじみこども園","province":"東京都","city":"千代田区","address":"千代田区富士見1-10-3","lat":35.69703,"lon":139.74649},{"name":"グローバルキッズ飯田橋園","province":"東京都","city":"千代田区","address":"千代田区富士見2-14-36富士見ウエスト2・3階","lat":35.6969,"lon":139.74379},{"name":"グローバルキッズ飯田橋こども園","province":"東京都","city":"千代田区","address":"千代田区富士見2-14-37富士見EAST1・2階","lat":35.6972364,"lon":139.7438872},{"name":"クレアナーサリー市ヶ谷","province":"東京都","city":"千代田区","address":"千代田区九段北4-2-29セブンアネックス1~3階","lat":35.69206,"lon":139.73798},{"name":"ＡＩＡＩ　ＮＵＲＳＥＲＹ　三番町","province":"東京都","city":"千代田区","address":"千代田区三番町14-6","lat":35.6905,"lon":139.74158},{"name":"四番町保育園","province":"東京都","city":"千代田区","address":"千代田区四番町5-8","lat":35.68855,"lon":139.73807},{"name":"ポピンズナーサリースクール一番町","province":"東京都","city":"千代田区","address":"千代田区一番町10-8一番町ウエストビル3・4階","lat":35.68676,"lon":139.7394},{"name":"千代田区立麹町保育園","province":"東京都","city":"千代田区","address":"千代田区一番町4","lat":35.68758,"lon":139.74217},{"name":"アスク二番町保育園","province":"東京都","city":"千代田区","address":"千代田区二番町2-1二番町TSビル1~3階","lat":35.68705,"lon":139.73729},{"name":"二番町ちとせ保育園","province":"東京都","city":"千代田区","address":"千代田区二番町7-5","lat":35.68513,"lon":139.73497},{"name":"グローバルキッズ六番町園","province":"東京都","city":"千代田区","address":"千代田区六番町5-16","lat":35.68703,"lon":139.73384},{"name":"平河町ちとせ保育園","province":"東京都","city":"千代田区","address":"千代田区平河町2-10-3","lat":35.68117,"lon":139.74098},{"name":"千代田区立障害者福祉センターえみふる","province":"東京都","city":"千代田区","address":"東京都千代田区神田駿河台2丁目5","lat":35.70039345,"lon":139.76083553},{"name":"あい保育園東神田","province":"東京都","city":"千代田区","address":"千代田区東神田2-6-5東神田ビル2・3階","lat":35.69564,"lon":139.78027},{"name":"AIAI NURSERY 三番町","province":"東京都","city":"千代田区","address":"千代田区三番町14-6","lat":35.6905,"lon":139.74158},{"name":"麹町保育園","province":"東京都","city":"千代田区","address":"千代田区一番町4","lat":35.68758,"lon":139.74217},{"name":"あい・あい保育園　三番町園","province":"東京都","city":"千代田区","address":"千代田区三番町14-6","lat":35.6905,"lon":139.74158},{"name":"二番町ちとせ保育園","province":"東京都","city":"千代田区","address":"千代田区二番町7-5","lat":35.68514,"lon":139.73497},{"name":"グローバルキッズ六番町園","province":"東京都","city":"千代田区","address":"千代田区六番町5-16","lat":35.68704,"lon":139.73384},{"name":"ほっぺるランド西神田","province":"東京都","city":"千代田区","address":"千代田区西神田3-5-2千代田ファーストビル西館1階","lat":35.68366,"lon":139.75409},{"name":"グローバルキッズ飯田橋園","province":"東京都","city":"千代田区","address":"千代田区富士見2-14-36富士見ウエスト2・3階","lat":35.69362,"lon":140.17978},{"name":"クレアナーサリー市ヶ谷","province":"東京都","city":"千代田区","address":"千代田区九段北4-2-29セブンアネックス1~3階","lat":35.6944,"lon":139.74579},{"name":"ポピンズナーサリースクール一番町","province":"東京都","city":"千代田区","address":"千代田区一番町10-8一番町ウエストビル3・4階","lat":35.6878,"lon":139.74327},{"name":"アスク二番町保育園","province":"東京都","city":"千代田区","address":"千代田区二番町2-1二番町TSビル1~3階","lat":35.68593,"lon":139.73779},{"name":"出光美術館","province":"東京都","city":"千代田区","address":"千代田区丸の内3-1-1帝劇ビル9階","lat":35.676755,"lon":139.7608481},{"name":"三菱一号館美術館","province":"東京都","city":"千代田区","address":"東京都千代田区丸の内2丁目6-2","lat":35.67849868,"lon":139.76336665},{"name":"都立日比谷公園","province":"東京都","city":"千代田区","address":"東京都千代田区日比谷公園1","lat":35.67461838,"lon":139.75677845},{"name":"都立一橋高等学校","province":"東京都","city":"千代田区","address":"東京都千代田区東神田1丁目12-13","lat":35.69458357,"lon":139.78104065},{"name":"皇居前広場","province":"東京都","city":"千代田区","address":"東京都千代田区皇居外苑1","lat":35.67806805,"lon":139.7588226},{"name":"都立日比谷公園（第二花壇）","province":"東京都","city":"千代田区","address":"東京都千代田区日比谷公園1","lat":35.67461838,"lon":139.75677845},{"name":"上智大学運動場","province":"東京都","city":"千代田区","address":"東京都千代田区紀尾井町5","lat":35.6830057,"lon":139.73098034},{"name":"北の丸公園第２駐車場","province":"東京都","city":"千代田区","address":"東京都千代田区北の丸公園2","lat":35.6932523,"lon":139.75056715},{"name":"北の丸公園第３駐車場","province":"東京都","city":"千代田区","address":"東京都千代田区北の丸公園1-1","lat":35.69242736,"lon":139.74948116},{"name":"千代田区選挙管理委員会","province":"東京都","city":"千代田区","address":"千代田区九段南1-2-1","lat":35.694001,"lon":139.753608},{"name":"千代田都税事務所","province":"東京都","city":"千代田区","address":"東京都千代田区内神田2丁目1-12","lat":35.689081,"lon":139.76828274},{"name":"東京都中小企業振興公社","province":"東京都","city":"千代田区","address":"東京都千代田区神田佐久間町1丁目9","lat":35.69726364,"lon":139.77425451},{"name":"東京しごとセンター","province":"東京都","city":"千代田区","address":"東京都千代田区飯田橋3丁目10-3","lat":35.70055702,"lon":139.74957525},{"name":"日比谷グリーンサロン","province":"東京都","city":"千代田区","address":"東京都千代田区日比谷公園1-5","lat":35.67282684,"lon":139.75432594},{"name":"「緑と水」の市民カレッジ","province":"東京都","city":"千代田区","address":"東京都千代田区日比谷公園1-5","lat":35.67282684,"lon":139.75432594},{"name":"一橋高等学校","province":"東京都","city":"千代田区","address":"東京都千代田区東神田1丁目12-13","lat":35.69458357,"lon":139.78104065},{"name":"日比谷高等学校","province":"東京都","city":"千代田区","address":"東京都千代田区永田町2丁目16-1","lat":35.67628721,"lon":139.73974095},{"name":"スクワール麹町","province":"東京都","city":"千代田区","address":"東京都千代田区麹町6丁目6","lat":35.68555823,"lon":139.73222458},{"name":"東京交通会館","province":"東京都","city":"千代田区","address":"東京都千代田区有楽町2丁目10-1","lat":35.67498242,"lon":139.76429726},{"name":"九段中等教育学校","province":"東京都","city":"千代田区","address":"東京都千代田区九段北2丁目2-1","lat":35.69609634,"lon":139.74728118},{"name":"千代田区本庁舎","province":"東京都","city":"千代田区","address":"千代田区九段南1-2-1","lat":35.694003,"lon":139.753634},{"name":"中部下水道事務所","province":"東京都","city":"千代田区","address":"東京都千代田区大手町2丁目6-2","lat":35.68539531,"lon":139.76895777},{"name":"いずみこども園","province":"東京都","city":"千代田区","address":"千代田区神田和泉町1","lat":35.699016,"lon":139.777421},{"name":"あい保育園東神田","province":"東京都","city":"千代田区","address":"千代田区東神田2-6-5東神田ビル2・3階","lat":35.695814,"lon":139.780435},{"name":"神田保育園","province":"東京都","city":"千代田区","address":"千代田区神田淡路町2-109","lat":35.69685,"lon":139.767002},{"name":"神田淡路町保育園大きなおうち","province":"東京都","city":"千代田区","address":"千代田区神田淡路町2-12","lat":35.697805,"lon":139.76878},{"name":"西神田保育園","province":"東京都","city":"千代田区","address":"千代田区西神田2-6-2","lat":35.698918,"lon":139.754755},{"name":"ほっぺるランド西神田","province":"東京都","city":"千代田区","address":"千代田区西神田3-5-2千代田ファーストビル西館1階","lat":35.698227,"lon":139.752953},{"name":"グローバルキッズ飯田橋こども園","province":"東京都","city":"千代田区","address":"千代田区富士見2-14-37富士見EAST1・2階","lat":35.697163,"lon":139.743773},{"name":"ふじみこども園","province":"東京都","city":"千代田区","address":"千代田区富士見1-10-3","lat":35.697316,"lon":139.74622},{"name":"グローバルキッズ飯田橋園","province":"東京都","city":"千代田区","address":"千代田区富士見2-14-36富士見ウエスト2・3階","lat":35.697307,"lon":139.74364},{"name":"クレアナーサリー市ヶ谷","province":"東京都","city":"千代田区","address":"千代田区九段北4-2-29セブンアネックス1~3階","lat":35.692344,"lon":139.738182},{"name":"四番町保育園","province":"東京都","city":"千代田区","address":"千代田区四番町5-8","lat":35.688436,"lon":139.736499},{"name":"麹町保育園","province":"東京都","city":"千代田区","address":"千代田区一番町4","lat":35.688003,"lon":139.742601},{"name":"ポピンズナーサリースクール一番町","province":"東京都","city":"千代田区","address":"千代田区一番町10-8一番町ウエストビル","lat":35.686525,"lon":139.739749},{"name":"アスク二番町保育園","province":"東京都","city":"千代田区","address":"千代田区二番町2-1二番町TSビル","lat":35.686958,"lon":139.737971},{"name":"グローバルキッズ六番町園","province":"東京都","city":"千代田区","address":"千代田区六番町5-16","lat":35.686969,"lon":139.734669},{"name":"千代田保健所","province":"東京都","city":"千代田区","address":"千代田区九段北1-2-14","lat":35.696071,"lon":139.752142},{"name":"将門塚","province":"東京都","city":"千代田区","address":"東京都千代田区大手町1-2","lat":35.687353,"lon":139.762519},{"name":"ほっぺるランド外神田","province":"東京都","city":"千代田区","address":"千代田区外神田4-8-6","lat":35.70233,"lon":139.7726},{"name":"外神田かなりや保育園","province":"東京都","city":"千代田区","address":"千代田区外神田3-6-13","lat":35.70255,"lon":139.76976},{"name":"いずみこども園","province":"東京都","city":"千代田区","address":"千代田区神田和泉町1","lat":35.69919,"lon":139.77597},{"name":"アイグラン保育園東神田","province":"東京都","city":"千代田区","address":"千代田区東神田2-6-5東神田ビル2・3階","lat":35.69564,"lon":139.78027},{"name":"岩本町ちとせ保育園","province":"東京都","city":"千代田区","address":"千代田区岩本町2-10-12","lat":35.69344,"lon":139.77722},{"name":"千代田せいが保育園","province":"東京都","city":"千代田区","address":"千代田区神田岩本町15-7","lat":35.69666,"lon":139.77502},{"name":"保育園神田ベアーズ","province":"東京都","city":"千代田区","address":"千代田区神田美倉町10-2","lat":35.69081,"lon":139.77431},{"name":"ベネッセ内神田保育園","province":"東京都","city":"千代田区","address":"千代田区内神田2-1-13","lat":35.68909,"lon":139.76772},{"name":"まなびの森保育園神保町","province":"東京都","city":"千代田区","address":"千代田区神田神保町2-20-31","lat":35.6971139,"lon":139.756543},{"name":"神田保育園","province":"東京都","city":"千代田区","address":"千代田区神田淡路町2-109","lat":35.69673,"lon":139.76709},{"name":"神田淡路町保育園大きなおうち","province":"東京都","city":"千代田区","address":"千代田区神田淡路町2-12","lat":35.69763,"lon":139.7688},{"name":"西神田保育園","province":"東京都","city":"千代田区","address":"千代田区西神田2-6-2西神田コスモス館","lat":35.69904,"lon":139.75476},{"name":"ほっぺるランド西神田","province":"東京都","city":"千代田区","address":"千代田区西神田3-5-2千代田ファーストビル西館1階","lat":35.69835,"lon":139.75301},{"name":"ふじみこども園","province":"東京都","city":"千代田区","address":"千代田区富士見1-10-3","lat":35.69703,"lon":139.74649},{"name":"グローバルキッズ飯田橋園","province":"東京都","city":"千代田区","address":"千代田区富士見2-14-36富士見ウエスト2・3階","lat":35.6969,"lon":139.74379},{"name":"グローバルキッズ飯田橋こども園","province":"東京都","city":"千代田区","address":"千代田区富士見2-14-37富士見EAST1・2階","lat":35.6972364,"lon":139.7438872},{"name":"クレアナーサリー市ヶ谷","province":"東京都","city":"千代田区","address":"千代田区九段北4-2-29セブンアネックス1~3階","lat":35.69206,"lon":139.73798},{"name":"ＡＩＡＩ　ＮＵＲＳＥＲＹ　三番町","province":"東京都","city":"千代田区","address":"千代田区三番町14-6","lat":35.6905,"lon":139.74158},{"name":"四番町保育園","province":"東京都","city":"千代田区","address":"千代田区四番町5-8","lat":35.68855,"lon":139.73807},{"name":"ポピンズナーサリースクール一番町","province":"東京都","city":"千代田区","address":"千代田区一番町10-8一番町ウエストビル3・4階","lat":35.68676,"lon":139.7394},{"name":"千代田区立麹町保育園","province":"東京都","city":"千代田区","address":"千代田区一番町4","lat":35.68758,"lon":139.74217},{"name":"アスク二番町保育園","province":"東京都","city":"千代田区","address":"千代田区二番町2-1二番町TSビル1~3階","lat":35.68705,"lon":139.73729},{"name":"二番町ちとせ保育園","province":"東京都","city":"千代田区","address":"千代田区二番町7-5","lat":35.68513,"lon":139.73497},{"name":"グローバルキッズ六番町園","province":"東京都","city":"千代田区","address":"千代田区六番町5-16","lat":35.68703,"lon":139.73384},{"name":"平河町ちとせ保育園","province":"東京都","city":"千代田区","address":"千代田区平河町2-10-3","lat":35.68117,"lon":139.74098},{"name":"千代田区立障害者福祉センターえみふる","province":"東京都","city":"千代田区","address":"東京都千代田区神田駿河台2丁目5","lat":35.70039345,"lon":139.76083553},{"name":"あい保育園東神田","province":"東京都","city":"千代田区","address":"千代田区東神田2-6-5東神田ビル2・3階","lat":35.69564,"lon":139.78027},{"name":"AIAI NURSERY 三番町","province":"東京都","city":"千代田区","address":"千代田区三番町14-6","lat":35.6905,"lon":139.74158},{"name":"麹町保育園","province":"東京都","city":"千代田区","address":"千代田区一番町4","lat":35.68758,"lon":139.74217},{"name":"あい・あい保育園　三番町園","province":"東京都","city":"千代田区","address":"千代田区三番町14-6","lat":35.6905,"lon":139.74158},{"name":"二番町ちとせ保育園","province":"東京都","city":"千代田区","address":"千代田区二番町7-5","lat":35.68514,"lon":139.73497},{"name":"グローバルキッズ六番町園","province":"東京都","city":"千代田区","address":"千代田区六番町5-16","lat":35.68704,"lon":139.73384},{"name":"ほっぺるランド西神田","province":"東京都","city":"千代田区","address":"千代田区西神田3-5-2千代田ファーストビル西館1階","lat":35.68366,"lon":139.75409},{"name":"グローバルキッズ飯田橋園","province":"東京都","city":"千代田区","address":"千代田区富士見2-14-36富士見ウエスト2・3階","lat":35.69362,"lon":140.17978},{"name":"クレアナーサリー市ヶ谷","province":"東京都","city":"千代田区","address":"千代田区九段北4-2-29セブンアネックス1~3階","lat":35.6944,"lon":139.74579},{"name":"ポピンズナーサリースクール一番町","province":"東京都","city":"千代田区","address":"千代田区一番町10-8一番町ウエストビル3・4階","lat":35.6878,"lon":139.74327},{"name":"アスク二番町保育園","province":"東京都","city":"千代田区","address":"千代田区二番町2-1二番町TSビル1~3階","lat":35.68593,"lon":139.73779},{"name":"出光美術館","province":"東京都","city":"千代田区","address":"千代田区丸の内3-1-1帝劇ビル9階","lat":35.676755,"lon":139.7608481},{"name":"三菱一号館美術館","province":"東京都","city":"千代田区","address":"東京都千代田区丸の内2丁目6-2","lat":35.67849868,"lon":139.76336665},{"name":"九段中等教育学校","province":"東京都","city":"千代田区","address":"東京都千代田区九段北2丁目2-1","lat":35.69609634,"lon":139.74728118},{"name":"千代田区本庁舎","province":"東京都","city":"千代田区","address":"千代田区九段南1-2-1","lat":35.694003,"lon":139.753634},{"name":"中部下水道事務所","province":"東京都","city":"千代田区","address":"東京都千代田区大手町2丁目6-2","lat":35.68539531,"lon":139.76895777},{"name":"いずみこども園","province":"東京都","city":"千代田区","address":"千代田区神田和泉町1","lat":35.699016,"lon":139.777421},{"name":"あい保育園東神田","province":"東京都","city":"千代田区","address":"千代田区東神田2-6-5東神田ビル2・3階","lat":35.695814,"lon":139.780435},{"name":"神田保育園","province":"東京都","city":"千代田区","address":"千代田区神田淡路町2-109","lat":35.69685,"lon":139.767002},{"name":"神田淡路町保育園大きなおうち","province":"東京都","city":"千代田区","address":"千代田区神田淡路町2-12","lat":35.697805,"lon":139.76878},{"name":"西神田保育園","province":"東京都","city":"千代田区","address":"千代田区西神田2-6-2","lat":35.698918,"lon":139.754755},{"name":"ほっぺるランド西神田","province":"東京都","city":"千代田区","address":"千代田区西神田3-5-2千代田ファーストビル西館1階","lat":35.698227,"lon":139.752953},{"name":"グローバルキッズ飯田橋こども園","province":"東京都","city":"千代田区","address":"千代田区富士見2-14-37富士見EAST1・2階","lat":35.697163,"lon":139.743773},{"name":"ふじみこども園","province":"東京都","city":"千代田区","address":"千代田区富士見1-10-3","lat":35.697316,"lon":139.74622},{"name":"グローバルキッズ飯田橋園","province":"東京都","city":"千代田区","address":"千代田区富士見2-14-36富士見ウエスト2・3階","lat":35.697307,"lon":139.74364},{"name":"クレアナーサリー市ヶ谷","province":"東京都","city":"千代田区","address":"千代田区九段北4-2-29セブンアネックス1~3階","lat":35.692344,"lon":139.738182},{"name":"四番町保育園","province":"東京都","city":"千代田区","address":"千代田区四番町5-8","lat":35.688436,"lon":139.736499},{"name":"麹町保育園","province":"東京都","city":"千代田区","address":"千代田区一番町4","lat":35.688003,"lon":139.742601},{"name":"ポピンズナーサリースクール一番町","province":"東京都","city":"千代田区","address":"千代田区一番町10-8一番町ウエストビル","lat":35.686525,"lon":139.739749},{"name":"アスク二番町保育園","province":"東京都","city":"千代田区","address":"千代田区二番町2-1二番町TSビル","lat":35.686958,"lon":139.737971},{"name":"グローバルキッズ六番町園","province":"東京都","city":"千代田区","address":"千代田区六番町5-16","lat":35.686969,"lon":139.734669},{"name":"将門塚","province":"東京都","city":"千代田区","address":"東京都千代田区大手町1-2","lat":35.687353,"lon":139.762519},{"name":"ほっぺるランド外神田","province":"東京都","city":"千代田区","address":"千代田区外神田4-8-6","lat":35.70233,"lon":139.7726},{"name":"外神田かなりや保育園","province":"東京都","city":"千代田区","address":"千代田区外神田3-6-13","lat":35.70255,"lon":139.76976},{"name":"いずみこども園","province":"東京都","city":"千代田区","address":"千代田区神田和泉町1","lat":35.69919,"lon":139.77597},{"name":"アイグラン保育園東神田","province":"東京都","city":"千代田区","address":"千代田区東神田2-6-5東神田ビル2・3階","lat":35.69564,"lon":139.78027},{"name":"岩本町ちとせ保育園","province":"東京都","city":"千代田区","address":"千代田区岩本町2-10-12","lat":35.69344,"lon":139.77722},{"name":"千代田せいが保育園","province":"東京都","city":"千代田区","address":"千代田区神田岩本町15-7","lat":35.69666,"lon":139.77502},{"name":"保育園神田ベアーズ","province":"東京都","city":"千代田区","address":"千代田区神田美倉町10-2","lat":35.69081,"lon":139.77431},{"name":"ベネッセ内神田保育園","province":"東京都","city":"千代田区","address":"千代田区内神田2-1-13","lat":35.68909,"lon":139.76772},{"name":"まなびの森保育園神保町","province":"東京都","city":"千代田区","address":"千代田区神田神保町2-20-31","lat":35.6971139,"lon":139.756543},{"name":"神田保育園","province":"東京都","city":"千代田区","address":"千代田区神田淡路町2-109","lat":35.69673,"lon":139.76709},{"name":"神田淡路町保育園大きなおうち","province":"東京都","city":"千代田区","address":"千代田区神田淡路町2-12","lat":35.69763,"lon":139.7688},{"name":"西神田保育園","province":"東京都","city":"千代田区","address":"千代田区西神田2-6-2西神田コスモス館","lat":35.69904,"lon":139.75476},{"name":"ほっぺるランド西神田","province":"東京都","city":"千代田区","address":"千代田区西神田3-5-2千代田ファーストビル西館1階","lat":35.69835,"lon":139.75301},{"name":"ふじみこども園","province":"東京都","city":"千代田区","address":"千代田区富士見1-10-3","lat":35.69703,"lon":139.74649},{"name":"グローバルキッズ飯田橋園","province":"東京都","city":"千代田区","address":"千代田区富士見2-14-36富士見ウエスト2・3階","lat":35.6969,"lon":139.74379},{"name":"グローバルキッズ飯田橋こども園","province":"東京都","city":"千代田区","address":"千代田区富士見2-14-37富士見EAST1・2階","lat":35.6972364,"lon":139.7438872},{"name":"クレアナーサリー市ヶ谷","province":"東京都","city":"千代田区","address":"千代田区九段北4-2-29セブンアネックス1~3階","lat":35.69206,"lon":139.73798},{"name":"ＡＩＡＩ　ＮＵＲＳＥＲＹ　三番町","province":"東京都","city":"千代田区","address":"千代田区三番町14-6","lat":35.6905,"lon":139.74158},{"name":"四番町保育園","province":"東京都","city":"千代田区","address":"千代田区四番町5-8","lat":35.68855,"lon":139.73807},{"name":"ポピンズナーサリースクール一番町","province":"東京都","city":"千代田区","address":"千代田区一番町10-8一番町ウエストビル3・4階","lat":35.68676,"lon":139.7394},{"name":"千代田区立麹町保育園","province":"東京都","city":"千代田区","address":"千代田区一番町4","lat":35.68758,"lon":139.74217},{"name":"アスク二番町保育園","province":"東京都","city":"千代田区","address":"千代田区二番町2-1二番町TSビル1~3階","lat":35.68705,"lon":139.73729},{"name":"二番町ちとせ保育園","province":"東京都","city":"千代田区","address":"千代田区二番町7-5","lat":35.68513,"lon":139.73497},{"name":"グローバルキッズ六番町園","province":"東京都","city":"千代田区","address":"千代田区六番町5-16","lat":35.68703,"lon":139.73384},{"name":"平河町ちとせ保育園","province":"東京都","city":"千代田区","address":"千代田区平河町2-10-3","lat":35.68117,"lon":139.74098},{"name":"千代田区立障害者福祉センターえみふる","province":"東京都","city":"千代田区","address":"東京都千代田区神田駿河台2丁目5","lat":35.70039345,"lon":139.76083553},{"name":"あい保育園東神田","province":"東京都","city":"千代田区","address":"千代田区東神田2-6-5東神田ビル2・3階","lat":35.69564,"lon":139.78027},{"name":"AIAI NURSERY 三番町","province":"東京都","city":"千代田区","address":"千代田区三番町14-6","lat":35.6905,"lon":139.74158},{"name":"麹町保育園","province":"東京都","city":"千代田区","address":"千代田区一番町4","lat":35.68758,"lon":139.74217},{"name":"あい・あい保育園　三番町園","province":"東京都","city":"千代田区","address":"千代田区三番町14-6","lat":35.6905,"lon":139.74158},{"name":"二番町ちとせ保育園","province":"東京都","city":"千代田区","address":"千代田区二番町7-5","lat":35.68514,"lon":139.73497},{"name":"グローバルキッズ六番町園","province":"東京都","city":"千代田区","address":"千代田区六番町5-16","lat":35.68704,"lon":139.73384},{"name":"ほっぺるランド西神田","province":"東京都","city":"千代田区","address":"千代田区西神田3-5-2千代田ファーストビル西館1階","lat":35.68366,"lon":139.75409},{"name":"グローバルキッズ飯田橋園","province":"東京都","city":"千代田区","address":"千代田区富士見2-14-36富士見ウエスト2・3階","lat":35.69362,"lon":140.17978},{"name":"クレアナーサリー市ヶ谷","province":"東京都","city":"千代田区","address":"千代田区九段北4-2-29セブンアネックス1~3階","lat":35.6944,"lon":139.74579},{"name":"ポピンズナーサリースクール一番町","province":"東京都","city":"千代田区","address":"千代田区一番町10-8一番町ウエストビル3・4階","lat":35.6878,"lon":139.74327},{"name":"アスク二番町保育園","province":"東京都","city":"千代田区","address":"千代田区二番町2-1二番町TSビル1~3階","lat":35.68593,"lon":139.73779},{"name":"出光美術館","province":"東京都","city":"千代田区","address":"千代田区丸の内3-1-1帝劇ビル9階","lat":35.676755,"lon":139.7608481},{"name":"三菱一号館美術館","province":"東京都","city":"千代田区","address":"東京都千代田区丸の内2丁目6-2","lat":35.67849868,"lon":139.76336665},{"name":"九段中等教育学校","province":"東京都","city":"千代田区","address":"東京都千代田区九段北2丁目2-1","lat":35.69609634,"lon":139.74728118},{"name":"中部下水道事務所","province":"東京都","city":"千代田区","address":"東京都千代田区大手町2丁目6-2","lat":35.68539531,"lon":139.76895777},{"name":"いずみこども園","province":"東京都","city":"千代田区","address":"千代田区神田和泉町1","lat":35.699016,"lon":139.777421},{"name":"あい保育園東神田","province":"東京都","city":"千代田区","address":"千代田区東神田2-6-5東神田ビル2・3階","lat":35.695814,"lon":139.780435},{"name":"神田保育園","province":"東京都","city":"千代田区","address":"千代田区神田淡路町2-109","lat":35.69685,"lon":139.767002},{"name":"神田淡路町保育園大きなおうち","province":"東京都","city":"千代田区","address":"千代田区神田淡路町2-12","lat":35.697805,"lon":139.76878},{"name":"西神田保育園","province":"東京都","city":"千代田区","address":"千代田区西神田2-6-2","lat":35.698918,"lon":139.754755},{"name":"ほっぺるランド西神田","province":"東京都","city":"千代田区","address":"千代田区西神田3-5-2千代田ファーストビル西館1階","lat":35.698227,"lon":139.752953},{"name":"グローバルキッズ飯田橋こども園","province":"東京都","city":"千代田区","address":"千代田区富士見2-14-37富士見EAST1・2階","lat":35.697163,"lon":139.743773},{"name":"ふじみこども園","province":"東京都","city":"千代田区","address":"千代田区富士見1-10-3","lat":35.697316,"lon":139.74622},{"name":"グローバルキッズ飯田橋園","province":"東京都","city":"千代田区","address":"千代田区富士見2-14-36富士見ウエスト2・3階","lat":35.697307,"lon":139.74364},{"name":"クレアナーサリー市ヶ谷","province":"東京都","city":"千代田区","address":"千代田区九段北4-2-29セブンアネックス1~3階","lat":35.692344,"lon":139.738182},{"name":"四番町保育園","province":"東京都","city":"千代田区","address":"千代田区四番町5-8","lat":35.688436,"lon":139.736499},{"name":"麹町保育園","province":"東京都","city":"千代田区","address":"千代田区一番町4","lat":35.688003,"lon":139.742601},{"name":"ポピンズナーサリースクール一番町","province":"東京都","city":"千代田区","address":"千代田区一番町10-8一番町ウエストビル","lat":35.686525,"lon":139.739749},{"name":"アスク二番町保育園","province":"東京都","city":"千代田区","address":"千代田区二番町2-1二番町TSビル","lat":35.686958,"lon":139.737971},{"name":"グローバルキッズ六番町園","province":"東京都","city":"千代田区","address":"千代田区六番町5-16","lat":35.686969,"lon":139.734669},{"name":"ほっぺるランド外神田","province":"東京都","city":"千代田区","address":"千代田区外神田4-8-6","lat":35.70233,"lon":139.7726},{"name":"外神田かなりや保育園","province":"東京都","city":"千代田区","address":"千代田区外神田3-6-13","lat":35.70255,"lon":139.76976},{"name":"いずみこども園","province":"東京都","city":"千代田区","address":"千代田区神田和泉町1","lat":35.69919,"lon":139.77597},{"name":"アイグラン保育園東神田","province":"東京都","city":"千代田区","address":"千代田区東神田2-6-5東神田ビル2・3階","lat":35.69564,"lon":139.78027},{"name":"岩本町ちとせ保育園","province":"東京都","city":"千代田区","address":"千代田区岩本町2-10-12","lat":35.69344,"lon":139.77722},{"name":"千代田せいが保育園","province":"東京都","city":"千代田区","address":"千代田区神田岩本町15-7","lat":35.69666,"lon":139.77502},{"name":"保育園神田ベアーズ","province":"東京都","city":"千代田区","address":"千代田区神田美倉町10-2","lat":35.69081,"lon":139.77431},{"name":"ベネッセ内神田保育園","province":"東京都","city":"千代田区","address":"千代田区内神田2-1-13","lat":35.68909,"lon":139.76772},{"name":"まなびの森保育園神保町","province":"東京都","city":"千代田区","address":"千代田区神田神保町2-20-31","lat":35.6971139,"lon":139.756543},{"name":"神田保育園","province":"東京都","city":"千代田区","address":"千代田区神田淡路町2-109","lat":35.69673,"lon":139.76709},{"name":"神田淡路町保育園大きなおうち","province":"東京都","city":"千代田区","address":"千代田区神田淡路町2-12","lat":35.69763,"lon":139.7688},{"name":"西神田保育園","province":"東京都","city":"千代田区","address":"千代田区西神田2-6-2西神田コスモス館","lat":35.69904,"lon":139.75476},{"name":"ほっぺるランド西神田","province":"東京都","city":"千代田区","address":"千代田区西神田3-5-2千代田ファーストビル西館1階","lat":35.69835,"lon":139.75301},{"name":"ふじみこども園","province":"東京都","city":"千代田区","address":"千代田区富士見1-10-3","lat":35.69703,"lon":139.74649},{"name":"グローバルキッズ飯田橋園","province":"東京都","city":"千代田区","address":"千代田区富士見2-14-36富士見ウエスト2・3階","lat":35.6969,"lon":139.74379},{"name":"グローバルキッズ飯田橋こども園","province":"東京都","city":"千代田区","address":"千代田区富士見2-14-37富士見EAST1・2階","lat":35.6972364,"lon":139.7438872},{"name":"クレアナーサリー市ヶ谷","province":"東京都","city":"千代田区","address":"千代田区九段北4-2-29セブンアネックス1~3階","lat":35.69206,"lon":139.73798},{"name":"ＡＩＡＩ　ＮＵＲＳＥＲＹ　三番町","province":"東京都","city":"千代田区","address":"千代田区三番町14-6","lat":35.6905,"lon":139.74158},{"name":"四番町保育園","province":"東京都","city":"千代田区","address":"千代田区四番町5-8","lat":35.68855,"lon":139.73807},{"name":"ポピンズナーサリースクール一番町","province":"東京都","city":"千代田区","address":"千代田区一番町10-8一番町ウエストビル3・4階","lat":35.68676,"lon":139.7394},{"name":"千代田区立麹町保育園","province":"東京都","city":"千代田区","address":"千代田区一番町4","lat":35.68758,"lon":139.74217},{"name":"アスク二番町保育園","province":"東京都","city":"千代田区","address":"千代田区二番町2-1二番町TSビル1~3階","lat":35.68705,"lon":139.73729},{"name":"二番町ちとせ保育園","province":"東京都","city":"千代田区","address":"千代田区二番町7-5","lat":35.68513,"lon":139.73497},{"name":"グローバルキッズ六番町園","province":"東京都","city":"千代田区","address":"千代田区六番町5-16","lat":35.68703,"lon":139.73384},{"name":"平河町ちとせ保育園","province":"東京都","city":"千代田区","address":"千代田区平河町2-10-3","lat":35.68117,"lon":139.74098},{"name":"千代田区立障害者福祉センターえみふる","province":"東京都","city":"千代田区","address":"東京都千代田区神田駿河台2丁目5","lat":35.70039345,"lon":139.76083553},{"name":"あい保育園東神田","province":"東京都","city":"千代田区","address":"千代田区東神田2-6-5東神田ビル2・3階","lat":35.69564,"lon":139.78027},{"name":"AIAI NURSERY 三番町","province":"東京都","city":"千代田区","address":"千代田区三番町14-6","lat":35.6905,"lon":139.74158},{"name":"麹町保育園","province":"東京都","city":"千代田区","address":"千代田区一番町4","lat":35.68758,"lon":139.74217},{"name":"あい・あい保育園　三番町園","province":"東京都","city":"千代田区","address":"千代田区三番町14-6","lat":35.6905,"lon":139.74158},{"name":"二番町ちとせ保育園","province":"東京都","city":"千代田区","address":"千代田区二番町7-5","lat":35.68514,"lon":139.73497},{"name":"グローバルキッズ六番町園","province":"東京都","city":"千代田区","address":"千代田区六番町5-16","lat":35.68704,"lon":139.73384},{"name":"ほっぺるランド西神田","province":"東京都","city":"千代田区","address":"千代田区西神田3-5-2千代田ファーストビル西館1階","lat":35.68366,"lon":139.75409},{"name":"グローバルキッズ飯田橋園","province":"東京都","city":"千代田区","address":"千代田区富士見2-14-36富士見ウエスト2・3階","lat":35.69362,"lon":140.17978},{"name":"クレアナーサリー市ヶ谷","province":"東京都","city":"千代田区","address":"千代田区九段北4-2-29セブンアネックス1~3階","lat":35.6944,"lon":139.74579},{"name":"ポピンズナーサリースクール一番町","province":"東京都","city":"千代田区","address":"千代田区一番町10-8一番町ウエストビル3・4階","lat":35.6878,"lon":139.74327},{"name":"アスク二番町保育園","province":"東京都","city":"千代田区","address":"千代田区二番町2-1二番町TSビル1~3階","lat":35.68593,"lon":139.73779},{"name":"九段中等教育学校","province":"東京都","city":"千代田区","address":"東京都千代田区九段北2丁目2-1","lat":35.69609634,"lon":139.74728118},{"name":"いずみこども園","province":"東京都","city":"千代田区","address":"千代田区神田和泉町1","lat":35.699016,"lon":139.777421},{"name":"あい保育園東神田","province":"東京都","city":"千代田区","address":"千代田区東神田2-6-5東神田ビル2・3階","lat":35.695814,"lon":139.780435},{"name":"神田保育園","province":"東京都","city":"千代田区","address":"千代田区神田淡路町2-109","lat":35.69685,"lon":139.767002},{"name":"神田淡路町保育園大きなおうち","province":"東京都","city":"千代田区","address":"千代田区神田淡路町2-12","lat":35.697805,"lon":139.76878},{"name":"西神田保育園","province":"東京都","city":"千代田区","address":"千代田区西神田2-6-2","lat":35.698918,"lon":139.754755},{"name":"ほっぺるランド西神田","province":"東京都","city":"千代田区","address":"千代田区西神田3-5-2千代田ファーストビル西館1階","lat":35.698227,"lon":139.752953},{"name":"グローバルキッズ飯田橋こども園","province":"東京都","city":"千代田区","address":"千代田区富士見2-14-37富士見EAST1・2階","lat":35.697163,"lon":139.743773},{"name":"ふじみこども園","province":"東京都","city":"千代田区","address":"千代田区富士見1-10-3","lat":35.697316,"lon":139.74622},{"name":"グローバルキッズ飯田橋園","province":"東京都","city":"千代田区","address":"千代田区富士見2-14-36富士見ウエスト2・3階","lat":35.697307,"lon":139.74364},{"name":"クレアナーサリー市ヶ谷","province":"東京都","city":"千代田区","address":"千代田区九段北4-2-29セブンアネックス1~3階","lat":35.692344,"lon":139.738182},{"name":"四番町保育園","province":"東京都","city":"千代田区","address":"千代田区四番町5-8","lat":35.688436,"lon":139.736499},{"name":"麹町保育園","province":"東京都","city":"千代田区","address":"千代田区一番町4","lat":35.688003,"lon":139.742601},{"name":"ポピンズナーサリースクール一番町","province":"東京都","city":"千代田区","address":"千代田区一番町10-8一番町ウエストビル","lat":35.686525,"lon":139.739749},{"name":"アスク二番町保育園","province":"東京都","city":"千代田区","address":"千代田区二番町2-1二番町TSビル","lat":35.686958,"lon":139.737971},{"name":"グローバルキッズ六番町園","province":"東京都","city":"千代田区","address":"千代田区六番町5-16","lat":35.686969,"lon":139.734669},{"name":"ほっぺるランド外神田","province":"東京都","city":"千代田区","address":"千代田区外神田4-8-6","lat":35.70233,"lon":139.7726},{"name":"外神田かなりや保育園","province":"東京都","city":"千代田区","address":"千代田区外神田3-6-13","lat":35.70255,"lon":139.76976},{"name":"いずみこども園","province":"東京都","city":"千代田区","address":"千代田区神田和泉町1","lat":35.69919,"lon":139.77597},{"name":"アイグラン保育園東神田","province":"東京都","city":"千代田区","address":"千代田区東神田2-6-5東神田ビル2・3階","lat":35.69564,"lon":139.78027},{"name":"岩本町ちとせ保育園","province":"東京都","city":"千代田区","address":"千代田区岩本町2-10-12","lat":35.69344,"lon":139.77722},{"name":"千代田せいが保育園","province":"東京都","city":"千代田区","address":"千代田区神田岩本町15-7","lat":35.69666,"lon":139.77502},{"name":"保育園神田ベアーズ","province":"東京都","city":"千代田区","address":"千代田区神田美倉町10-2","lat":35.69081,"lon":139.77431},{"name":"ベネッセ内神田保育園","province":"東京都","city":"千代田区","address":"千代田区内神田2-1-13","lat":35.68909,"lon":139.76772},{"name":"まなびの森保育園神保町","province":"東京都","city":"千代田区","address":"千代田区神田神保町2-20-31","lat":35.6971139,"lon":139.756543},{"name":"神田保育園","province":"東京都","city":"千代田区","address":"千代田区神田淡路町2-109","lat":35.69673,"lon":139.76709},{"name":"神田淡路町保育園大きなおうち","province":"東京都","city":"千代田区","address":"千代田区神田淡路町2-12","lat":35.69763,"lon":139.7688},{"name":"西神田保育園","province":"東京都","city":"千代田区","address":"千代田区西神田2-6-2西神田コスモス館","lat":35.69904,"lon":139.75476},{"name":"ほっぺるランド西神田","province":"東京都","city":"千代田区","address":"千代田区西神田3-5-2千代田ファーストビル西館1階","lat":35.69835,"lon":139.75301},{"name":"ふじみこども園","province":"東京都","city":"千代田区","address":"千代田区富士見1-10-3","lat":35.69703,"lon":139.74649},{"name":"グローバルキッズ飯田橋園","province":"東京都","city":"千代田区","address":"千代田区富士見2-14-36富士見ウエスト2・3階","lat":35.6969,"lon":139.74379},{"name":"グローバルキッズ飯田橋こども園","province":"東京都","city":"千代田区","address":"千代田区富士見2-14-37富士見EAST1・2階","lat":35.6972364,"lon":139.7438872},{"name":"クレアナーサリー市ヶ谷","province":"東京都","city":"千代田区","address":"千代田区九段北4-2-29セブンアネックス1~3階","lat":35.69206,"lon":139.73798},{"name":"ＡＩＡＩ　ＮＵＲＳＥＲＹ　三番町","province":"東京都","city":"千代田区","address":"千代田区三番町14-6","lat":35.6905,"lon":139.74158},{"name":"四番町保育園","province":"東京都","city":"千代田区","address":"千代田区四番町5-8","lat":35.68855,"lon":139.73807},{"name":"ポピンズナーサリースクール一番町","province":"東京都","city":"千代田区","address":"千代田区一番町10-8一番町ウエストビル3・4階","lat":35.68676,"lon":139.7394},{"name":"千代田区立麹町保育園","province":"東京都","city":"千代田区","address":"千代田区一番町4","lat":35.68758,"lon":139.74217},{"name":"アスク二番町保育園","province":"東京都","city":"千代田区","address":"千代田区二番町2-1二番町TSビル1~3階","lat":35.68705,"lon":139.73729},{"name":"二番町ちとせ保育園","province":"東京都","city":"千代田区","address":"千代田区二番町7-5","lat":35.68513,"lon":139.73497},{"name":"グローバルキッズ六番町園","province":"東京都","city":"千代田区","address":"千代田区六番町5-16","lat":35.68703,"lon":139.73384},{"name":"平河町ちとせ保育園","province":"東京都","city":"千代田区","address":"千代田区平河町2-10-3","lat":35.68117,"lon":139.74098},{"name":"千代田区立障害者福祉センターえみふる","province":"東京都","city":"千代田区","address":"東京都千代田区神田駿河台2丁目5","lat":35.70039345,"lon":139.76083553},{"name":"あい保育園東神田","province":"東京都","city":"千代田区","address":"千代田区東神田2-6-5東神田ビル2・3階","lat":35.69564,"lon":139.78027},{"name":"AIAI NURSERY 三番町","province":"東京都","city":"千代田区","address":"千代田区三番町14-6","lat":35.6905,"lon":139.74158},{"name":"麹町保育園","province":"東京都","city":"千代田区","address":"千代田区一番町4","lat":35.68758,"lon":139.74217},{"name":"あい・あい保育園　三番町園","province":"東京都","city":"千代田区","address":"千代田区三番町14-6","lat":35.6905,"lon":139.74158},{"name":"二番町ちとせ保育園","province":"東京都","city":"千代田区","address":"千代田区二番町7-5","lat":35.68514,"lon":139.73497},{"name":"グローバルキッズ六番町園","province":"東京都","city":"千代田区","address":"千代田区六番町5-16","lat":35.68704,"lon":139.73384},{"name":"ほっぺるランド西神田","province":"東京都","city":"千代田区","address":"千代田区西神田3-5-2千代田ファーストビル西館1階","lat":35.68366,"lon":139.75409},{"name":"グローバルキッズ飯田橋園","province":"東京都","city":"千代田区","address":"千代田区富士見2-14-36富士見ウエスト2・3階","lat":35.69362,"lon":140.17978},{"name":"クレアナーサリー市ヶ谷","province":"東京都","city":"千代田区","address":"千代田区九段北4-2-29セブンアネックス1~3階","lat":35.6944,"lon":139.74579},{"name":"ポピンズナーサリースクール一番町","province":"東京都","city":"千代田区","address":"千代田区一番町10-8一番町ウエストビル3・4階","lat":35.6878,"lon":139.74327},{"name":"アスク二番町保育園","province":"東京都","city":"千代田区","address":"千代田区二番町2-1二番町TSビル1~3階","lat":35.68593,"lon":139.73779},{"name":"いずみこども園","province":"東京都","city":"千代田区","address":"千代田区神田和泉町1","lat":35.699016,"lon":139.777421},{"name":"あい保育園東神田","province":"東京都","city":"千代田区","address":"千代田区東神田2-6-5東神田ビル2・3階","lat":35.695814,"lon":139.780435},{"name":"神田保育園","province":"東京都","city":"千代田区","address":"千代田区神田淡路町2-109","lat":35.69685,"lon":139.767002},{"name":"神田淡路町保育園大きなおうち","province":"東京都","city":"千代田区","address":"千代田区神田淡路町2-12","lat":35.697805,"lon":139.76878},{"name":"西神田保育園","province":"東京都","city":"千代田区","address":"千代田区西神田2-6-2","lat":35.698918,"lon":139.754755},{"name":"ほっぺるランド西神田","province":"東京都","city":"千代田区","address":"千代田区西神田3-5-2千代田ファーストビル西館1階","lat":35.698227,"lon":139.752953},{"name":"グローバルキッズ飯田橋こども園","province":"東京都","city":"千代田区","address":"千代田区富士見2-14-37富士見EAST1・2階","lat":35.697163,"lon":139.743773},{"name":"ふじみこども園","province":"東京都","city":"千代田区","address":"千代田区富士見1-10-3","lat":35.697316,"lon":139.74622},{"name":"グローバルキッズ飯田橋園","province":"東京都","city":"千代田区","address":"千代田区富士見2-14-36富士見ウエスト2・3階","lat":35.697307,"lon":139.74364},{"name":"クレアナーサリー市ヶ谷","province":"東京都","city":"千代田区","address":"千代田区九段北4-2-29セブンアネックス1~3階","lat":35.692344,"lon":139.738182},{"name":"四番町保育園","province":"東京都","city":"千代田区","address":"千代田区四番町5-8","lat":35.688436,"lon":139.736499},{"name":"麹町保育園","province":"東京都","city":"千代田区","address":"千代田区一番町4","lat":35.688003,"lon":139.742601},{"name":"ポピンズナーサリースクール一番町","province":"東京都","city":"千代田区","address":"千代田区一番町10-8一番町ウエストビル","lat":35.686525,"lon":139.739749},{"name":"アスク二番町保育園","province":"東京都","city":"千代田区","address":"千代田区二番町2-1二番町TSビル","lat":35.686958,"lon":139.737971},{"name":"グローバルキッズ六番町園","province":"東京都","city":"千代田区","address":"千代田区六番町5-16","lat":35.686969,"lon":139.734669},{"name":"ほっぺるランド外神田","province":"東京都","city":"千代田区","address":"千代田区外神田4-8-6","lat":35.70233,"lon":139.7726},{"name":"外神田かなりや保育園","province":"東京都","city":"千代田区","address":"千代田区外神田3-6-13","lat":35.70255,"lon":139.76976},{"name":"いずみこども園","province":"東京都","city":"千代田区","address":"千代田区神田和泉町1","lat":35.69919,"lon":139.77597},{"name":"アイグラン保育園東神田","province":"東京都","city":"千代田区","address":"千代田区東神田2-6-5東神田ビル2・3階","lat":35.69564,"lon":139.78027},{"name":"岩本町ちとせ保育園","province":"東京都","city":"千代田区","address":"千代田区岩本町2-10-12","lat":35.69344,"lon":139.77722},{"name":"千代田せいが保育園","province":"東京都","city":"千代田区","address":"千代田区神田岩本町15-7","lat":35.69666,"lon":139.77502},{"name":"保育園神田ベアーズ","province":"東京都","city":"千代田区","address":"千代田区神田美倉町10-2","lat":35.69081,"lon":139.77431},{"name":"ベネッセ内神田保育園","province":"東京都","city":"千代田区","address":"千代田区内神田2-1-13","lat":35.68909,"lon":139.76772},{"name":"まなびの森保育園神保町","province":"東京都","city":"千代田区","address":"千代田区神田神保町2-20-31","lat":35.6971139,"lon":139.756543},{"name":"神田保育園","province":"東京都","city":"千代田区","address":"千代田区神田淡路町2-109","lat":35.69673,"lon":139.76709},{"name":"神田淡路町保育園大きなおうち","province":"東京都","city":"千代田区","address":"千代田区神田淡路町2-12","lat":35.69763,"lon":139.7688},{"name":"西神田保育園","province":"東京都","city":"千代田区","address":"千代田区西神田2-6-2西神田コスモス館","lat":35.69904,"lon":139.75476},{"name":"ほっぺるランド西神田","province":"東京都","city":"千代田区","address":"千代田区西神田3-5-2千代田ファーストビル西館1階","lat":35.69835,"lon":139.75301},{"name":"ふじみこども園","province":"東京都","city":"千代田区","address":"千代田区富士見1-10-3","lat":35.69703,"lon":139.74649},{"name":"グローバルキッズ飯田橋園","province":"東京都","city":"千代田区","address":"千代田区富士見2-14-36富士見ウエスト2・3階","lat":35.6969,"lon":139.74379},{"name":"グローバルキッズ飯田橋こども園","province":"東京都","city":"千代田区","address":"千代田区富士見2-14-37富士見EAST1・2階","lat":35.6972364,"lon":139.7438872},{"name":"クレアナーサリー市ヶ谷","province":"東京都","city":"千代田区","address":"千代田区九段北4-2-29セブンアネックス1~3階","lat":35.69206,"lon":139.73798},{"name":"ＡＩＡＩ　ＮＵＲＳＥＲＹ　三番町","province":"東京都","city":"千代田区","address":"千代田区三番町14-6","lat":35.6905,"lon":139.74158},{"name":"四番町保育園","province":"東京都","city":"千代田区","address":"千代田区四番町5-8","lat":35.68855,"lon":139.73807},{"name":"ポピンズナーサリースクール一番町","province":"東京都","city":"千代田区","address":"千代田区一番町10-8一番町ウエストビル3・4階","lat":35.68676,"lon":139.7394},{"name":"千代田区立麹町保育園","province":"東京都","city":"千代田区","address":"千代田区一番町4","lat":35.68758,"lon":139.74217},{"name":"アスク二番町保育園","province":"東京都","city":"千代田区","address":"千代田区二番町2-1二番町TSビル1~3階","lat":35.68705,"lon":139.73729},{"name":"二番町ちとせ保育園","province":"東京都","city":"千代田区","address":"千代田区二番町7-5","lat":35.68513,"lon":139.73497},{"name":"グローバルキッズ六番町園","province":"東京都","city":"千代田区","address":"千代田区六番町5-16","lat":35.68703,"lon":139.73384},{"name":"平河町ちとせ保育園","province":"東京都","city":"千代田区","address":"千代田区平河町2-10-3","lat":35.68117,"lon":139.74098},{"name":"千代田区立障害者福祉センターえみふる","province":"東京都","city":"千代田区","address":"東京都千代田区神田駿河台2丁目5","lat":35.70039345,"lon":139.76083553},{"name":"あい保育園東神田","province":"東京都","city":"千代田区","address":"千代田区東神田2-6-5東神田ビル2・3階","lat":35.69564,"lon":139.78027},{"name":"AIAI NURSERY 三番町","province":"東京都","city":"千代田区","address":"千代田区三番町14-6","lat":35.6905,"lon":139.74158},{"name":"麹町保育園","province":"東京都","city":"千代田区","address":"千代田区一番町4","lat":35.68758,"lon":139.74217},{"name":"あい・あい保育園　三番町園","province":"東京都","city":"千代田区","address":"千代田区三番町14-6","lat":35.6905,"lon":139.74158},{"name":"二番町ちとせ保育園","province":"東京都","city":"千代田区","address":"千代田区二番町7-5","lat":35.68514,"lon":139.73497},{"name":"グローバルキッズ六番町園","province":"東京都","city":"千代田区","address":"千代田区六番町5-16","lat":35.68704,"lon":139.73384},{"name":"ほっぺるランド西神田","province":"東京都","city":"千代田区","address":"千代田区西神田3-5-2千代田ファーストビル西館1階","lat":35.68366,"lon":139.75409},{"name":"グローバルキッズ飯田橋園","province":"東京都","city":"千代田区","address":"千代田区富士見2-14-36富士見ウエスト2・3階","lat":35.69362,"lon":140.17978},{"name":"クレアナーサリー市ヶ谷","province":"東京都","city":"千代田区","address":"千代田区九段北4-2-29セブンアネックス1~3階","lat":35.6944,"lon":139.74579},{"name":"ポピンズナーサリースクール一番町","province":"東京都","city":"千代田区","address":"千代田区一番町10-8一番町ウエストビル3・4階","lat":35.6878,"lon":139.74327},{"name":"アスク二番町保育園","province":"東京都","city":"千代田区","address":"千代田区二番町2-1二番町TSビル1~3階","lat":35.68593,"lon":139.73779},{"name":"いずみこども園","province":"東京都","city":"千代田区","address":"千代田区神田和泉町1","lat":35.699016,"lon":139.777421},{"name":"あい保育園東神田","province":"東京都","city":"千代田区","address":"千代田区東神田2-6-5東神田ビル2・3階","lat":35.695814,"lon":139.780435},{"name":"神田保育園","province":"東京都","city":"千代田区","address":"千代田区神田淡路町2-109","lat":35.69685,"lon":139.767002},{"name":"神田淡路町保育園大きなおうち","province":"東京都","city":"千代田区","address":"千代田区神田淡路町2-12","lat":35.697805,"lon":139.76878},{"name":"西神田保育園","province":"東京都","city":"千代田区","address":"千代田区西神田2-6-2","lat":35.698918,"lon":139.754755},{"name":"ほっぺるランド西神田","province":"東京都","city":"千代田区","address":"千代田区西神田3-5-2千代田ファーストビル西館1階","lat":35.698227,"lon":139.752953},{"name":"グローバルキッズ飯田橋こども園","province":"東京都","city":"千代田区","address":"千代田区富士見2-14-37富士見EAST1・2階","lat":35.697163,"lon":139.743773},{"name":"ふじみこども園","province":"東京都","city":"千代田区","address":"千代田区富士見1-10-3","lat":35.697316,"lon":139.74622},{"name":"グローバルキッズ飯田橋園","province":"東京都","city":"千代田区","address":"千代田区富士見2-14-36富士見ウエスト2・3階","lat":35.697307,"lon":139.74364},{"name":"クレアナーサリー市ヶ谷","province":"東京都","city":"千代田区","address":"千代田区九段北4-2-29セブンアネックス1~3階","lat":35.692344,"lon":139.738182},{"name":"四番町保育園","province":"東京都","city":"千代田区","address":"千代田区四番町5-8","lat":35.688436,"lon":139.736499},{"name":"麹町保育園","province":"東京都","city":"千代田区","address":"千代田区一番町4","lat":35.688003,"lon":139.742601},{"name":"ポピンズナーサリースクール一番町","province":"東京都","city":"千代田区","address":"千代田区一番町10-8一番町ウエストビル","lat":35.686525,"lon":139.739749},{"name":"アスク二番町保育園","province":"東京都","city":"千代田区","address":"千代田区二番町2-1二番町TSビル","lat":35.686958,"lon":139.737971},{"name":"グローバルキッズ六番町園","province":"東京都","city":"千代田区","address":"千代田区六番町5-16","lat":35.686969,"lon":139.734669},{"name":"千代田区立障害者福祉センターえみふる","province":"東京都","city":"千代田区","address":"東京都千代田区神田駿河台2丁目5","lat":35.70039345,"lon":139.76083553},{"name":"いずみこども園","province":"東京都","city":"千代田区","address":"千代田区神田和泉町1","lat":35.699016,"lon":139.777421},{"name":"あい保育園東神田","province":"東京都","city":"千代田区","address":"千代田区東神田2-6-5東神田ビル2・3階","lat":35.695814,"lon":139.780435},{"name":"神田保育園","province":"東京都","city":"千代田区","address":"千代田区神田淡路町2-109","lat":35.69685,"lon":139.767002},{"name":"神田淡路町保育園大きなおうち","province":"東京都","city":"千代田区","address":"千代田区神田淡路町2-12","lat":35.697805,"lon":139.76878},{"name":"西神田保育園","province":"東京都","city":"千代田区","address":"千代田区西神田2-6-2","lat":35.698918,"lon":139.754755},{"name":"ほっぺるランド西神田","province":"東京都","city":"千代田区","address":"千代田区西神田3-5-2千代田ファーストビル西館1階","lat":35.698227,"lon":139.752953},{"name":"グローバルキッズ飯田橋こども園","province":"東京都","city":"千代田区","address":"千代田区富士見2-14-37富士見EAST1・2階","lat":35.697163,"lon":139.743773},{"name":"ふじみこども園","province":"東京都","city":"千代田区","address":"千代田区富士見1-10-3","lat":35.697316,"lon":139.74622},{"name":"グローバルキッズ飯田橋園","province":"東京都","city":"千代田区","address":"千代田区富士見2-14-36富士見ウエスト2・3階","lat":35.697307,"lon":139.74364},{"name":"クレアナーサリー市ヶ谷","province":"東京都","city":"千代田区","address":"千代田区九段北4-2-29セブンアネックス1~3階","lat":35.692344,"lon":139.738182},{"name":"四番町保育園","province":"東京都","city":"千代田区","address":"千代田区四番町5-8","lat":35.688436,"lon":139.736499},{"name":"麹町保育園","province":"東京都","city":"千代田区","address":"千代田区一番町4","lat":35.688003,"lon":139.742601},{"name":"ポピンズナーサリースクール一番町","province":"東京都","city":"千代田区","address":"千代田区一番町10-8一番町ウエストビル","lat":35.686525,"lon":139.739749},{"name":"アスク二番町保育園","province":"東京都","city":"千代田区","address":"千代田区二番町2-1二番町TSビル","lat":35.686958,"lon":139.737971},{"name":"グローバルキッズ六番町園","province":"東京都","city":"千代田区","address":"千代田区六番町5-16","lat":35.686969,"lon":139.734669},{"name":"いずみこども園","province":"東京都","city":"千代田区","address":"千代田区神田和泉町1","lat":35.699016,"lon":139.777421},{"name":"あい保育園東神田","province":"東京都","city":"千代田区","address":"千代田区東神田2-6-5東神田ビル2・3階","lat":35.695814,"lon":139.780435},{"name":"神田保育園","province":"東京都","city":"千代田区","address":"千代田区神田淡路町2-109","lat":35.69685,"lon":139.767002},{"name":"神田淡路町保育園大きなおうち","province":"東京都","city":"千代田区","address":"千代田区神田淡路町2-12","lat":35.697805,"lon":139.76878},{"name":"西神田保育園","province":"東京都","city":"千代田区","address":"千代田区西神田2-6-2","lat":35.698918,"lon":139.754755},{"name":"ほっぺるランド西神田","province":"東京都","city":"千代田区","address":"千代田区西神田3-5-2千代田ファーストビル西館1階","lat":35.698227,"lon":139.752953},{"name":"グローバルキッズ飯田橋こども園","province":"東京都","city":"千代田区","address":"千代田区富士見2-14-37富士見EAST1・2階","lat":35.697163,"lon":139.743773},{"name":"ふじみこども園","province":"東京都","city":"千代田区","address":"千代田区富士見1-10-3","lat":35.697316,"lon":139.74622},{"name":"グローバルキッズ飯田橋園","province":"東京都","city":"千代田区","address":"千代田区富士見2-14-36富士見ウエスト2・3階","lat":35.697307,"lon":139.74364},{"name":"クレアナーサリー市ヶ谷","province":"東京都","city":"千代田区","address":"千代田区九段北4-2-29セブンアネックス1~3階","lat":35.692344,"lon":139.738182},{"name":"四番町保育園","province":"東京都","city":"千代田区","address":"千代田区四番町5-8","lat":35.688436,"lon":139.736499},{"name":"麹町保育園","province":"東京都","city":"千代田区","address":"千代田区一番町4","lat":35.688003,"lon":139.742601},{"name":"ポピンズナーサリースクール一番町","province":"東京都","city":"千代田区","address":"千代田区一番町10-8一番町ウエストビル","lat":35.686525,"lon":139.739749},{"name":"アスク二番町保育園","province":"東京都","city":"千代田区","address":"千代田区二番町2-1二番町TSビル","lat":35.686958,"lon":139.737971},{"name":"グローバルキッズ六番町園","province":"東京都","city":"千代田区","address":"千代田区六番町5-16","lat":35.686969,"lon":139.734669},{"name":"いずみこども園","province":"東京都","city":"千代田区","address":"千代田区神田和泉町1","lat":35.699016,"lon":139.777421},{"name":"あい保育園東神田","province":"東京都","city":"千代田区","address":"千代田区東神田2-6-5東神田ビル2・3階","lat":35.695814,"lon":139.780435},{"name":"神田保育園","province":"東京都","city":"千代田区","address":"千代田区神田淡路町2-109","lat":35.69685,"lon":139.767002},{"name":"神田淡路町保育園大きなおうち","province":"東京都","city":"千代田区","address":"千代田区神田淡路町2-12","lat":35.697805,"lon":139.76878},{"name":"西神田保育園","province":"東京都","city":"千代田区","address":"千代田区西神田2-6-2","lat":35.698918,"lon":139.754755},{"name":"ほっぺるランド西神田","province":"東京都","city":"千代田区","address":"千代田区西神田3-5-2千代田ファーストビル西館1階","lat":35.698227,"lon":139.752953},{"name":"グローバルキッズ飯田橋こども園","province":"東京都","city":"千代田区","address":"千代田区富士見2-14-37富士見EAST1・2階","lat":35.697163,"lon":139.743773},{"name":"ふじみこども園","province":"東京都","city":"千代田区","address":"千代田区富士見1-10-3","lat":35.697316,"lon":139.74622},{"name":"グローバルキッズ飯田橋園","province":"東京都","city":"千代田区","address":"千代田区富士見2-14-36富士見ウエスト2・3階","lat":35.697307,"lon":139.74364},{"name":"クレアナーサリー市ヶ谷","province":"東京都","city":"千代田区","address":"千代田区九段北4-2-29セブンアネックス1~3階","lat":35.692344,"lon":139.738182},{"name":"四番町保育園","province":"東京都","city":"千代田区","address":"千代田区四番町5-8","lat":35.688436,"lon":139.736499},{"name":"麹町保育園","province":"東京都","city":"千代田区","address":"千代田区一番町4","lat":35.688003,"lon":139.742601},{"name":"ポピンズナーサリースクール一番町","province":"東京都","city":"千代田区","address":"千代田区一番町10-8一番町ウエストビル","lat":35.686525,"lon":139.739749},{"name":"アスク二番町保育園","province":"東京都","city":"千代田区","address":"千代田区二番町2-1二番町TSビル","lat":35.686958,"lon":139.737971},{"name":"グローバルキッズ六番町園","province":"東京都","city":"千代田区","address":"千代田区六番町5-16","lat":35.686969,"lon":139.734669},{"name":"いずみこども園","province":"東京都","city":"千代田区","address":"千代田区神田和泉町1","lat":35.699016,"lon":139.777421},{"name":"あい保育園東神田","province":"東京都","city":"千代田区","address":"千代田区東神田2-6-5東神田ビル2・3階","lat":35.695814,"lon":139.780435},{"name":"神田保育園","province":"東京都","city":"千代田区","address":"千代田区神田淡路町2-109","lat":35.69685,"lon":139.767002},{"name":"神田淡路町保育園大きなおうち","province":"東京都","city":"千代田区","address":"千代田区神田淡路町2-12","lat":35.697805,"lon":139.76878},{"name":"西神田保育園","province":"東京都","city":"千代田区","address":"千代田区西神田2-6-2","lat":35.698918,"lon":139.754755},{"name":"ほっぺるランド西神田","province":"東京都","city":"千代田区","address":"千代田区西神田3-5-2千代田ファーストビル西館1階","lat":35.698227,"lon":139.752953},{"name":"グローバルキッズ飯田橋こども園","province":"東京都","city":"千代田区","address":"千代田区富士見2-14-37富士見EAST1・2階","lat":35.697163,"lon":139.743773},{"name":"ふじみこども園","province":"東京都","city":"千代田区","address":"千代田区富士見1-10-3","lat":35.697316,"lon":139.74622},{"name":"グローバルキッズ飯田橋園","province":"東京都","city":"千代田区","address":"千代田区富士見2-14-36富士見ウエスト2・3階","lat":35.697307,"lon":139.74364},{"name":"クレアナーサリー市ヶ谷","province":"東京都","city":"千代田区","address":"千代田区九段北4-2-29セブンアネックス1~3階","lat":35.692344,"lon":139.738182},{"name":"四番町保育園","province":"東京都","city":"千代田区","address":"千代田区四番町5-8","lat":35.688436,"lon":139.736499},{"name":"麹町保育園","province":"東京都","city":"千代田区","address":"千代田区一番町4","lat":35.688003,"lon":139.742601},{"name":"ポピンズナーサリースクール一番町","province":"東京都","city":"千代田区","address":"千代田区一番町10-8一番町ウエストビル","lat":35.686525,"lon":139.739749},{"name":"アスク二番町保育園","province":"東京都","city":"千代田区","address":"千代田区二番町2-1二番町TSビル","lat":35.686958,"lon":139.737971},{"name":"グローバルキッズ六番町園","province":"東京都","city":"千代田区","address":"千代田区六番町5-16","lat":35.686969,"lon":139.734669},{"name":"いずみこども園","province":"東京都","city":"千代田区","address":"千代田区神田和泉町1","lat":35.699016,"lon":139.777421},{"name":"あい保育園東神田","province":"東京都","city":"千代田区","address":"千代田区東神田2-6-5東神田ビル2・3階","lat":35.695814,"lon":139.780435},{"name":"神田保育園","province":"東京都","city":"千代田区","address":"千代田区神田淡路町2-109","lat":35.69685,"lon":139.767002},{"name":"神田淡路町保育園大きなおうち","province":"東京都","city":"千代田区","address":"千代田区神田淡路町2-12","lat":35.697805,"lon":139.76878},{"name":"西神田保育園","province":"東京都","city":"千代田区","address":"千代田区西神田2-6-2","lat":35.698918,"lon":139.754755},{"name":"ほっぺるランド西神田","province":"東京都","city":"千代田区","address":"千代田区西神田3-5-2千代田ファーストビル西館1階","lat":35.698227,"lon":139.752953},{"name":"グローバルキッズ飯田橋こども園","province":"東京都","city":"千代田区","address":"千代田区富士見2-14-37富士見EAST1・2階","lat":35.697163,"lon":139.743773},{"name":"ふじみこども園","province":"東京都","city":"千代田区","address":"千代田区富士見1-10-3","lat":35.697316,"lon":139.74622},{"name":"グローバルキッズ飯田橋園","province":"東京都","city":"千代田区","address":"千代田区富士見2-14-36富士見ウエスト2・3階","lat":35.697307,"lon":139.74364},{"name":"クレアナーサリー市ヶ谷","province":"東京都","city":"千代田区","address":"千代田区九段北4-2-29セブンアネックス1~3階","lat":35.692344,"lon":139.738182},{"name":"四番町保育園","province":"東京都","city":"千代田区","address":"千代田区四番町5-8","lat":35.688436,"lon":139.736499},{"name":"麹町保育園","province":"東京都","city":"千代田区","address":"千代田区一番町4","lat":35.688003,"lon":139.742601},{"name":"ポピンズナーサリースクール一番町","province":"東京都","city":"千代田区","address":"千代田区一番町10-8一番町ウエストビル","lat":35.686525,"lon":139.739749},{"name":"アスク二番町保育園","province":"東京都","city":"千代田区","address":"千代田区二番町2-1二番町TSビル","lat":35.686958,"lon":139.737971},{"name":"グローバルキッズ六番町園","province":"東京都","city":"千代田区","address":"千代田区六番町5-16","lat":35.686969,"lon":139.734669},{"name":"いずみこども園","province":"東京都","city":"千代田区","address":"千代田区神田和泉町1","lat":35.699016,"lon":139.777421},{"name":"あい保育園東神田","province":"東京都","city":"千代田区","address":"千代田区東神田2-6-5東神田ビル2・3階","lat":35.695814,"lon":139.780435},{"name":"神田保育園","province":"東京都","city":"千代田区","address":"千代田区神田淡路町2-109","lat":35.69685,"lon":139.767002},{"name":"神田淡路町保育園大きなおうち","province":"東京都","city":"千代田区","address":"千代田区神田淡路町2-12","lat":35.697805,"lon":139.76878},{"name":"西神田保育園","province":"東京都","city":"千代田区","address":"千代田区西神田2-6-2","lat":35.698918,"lon":139.754755},{"name":"ほっぺるランド西神田","province":"東京都","city":"千代田区","address":"千代田区西神田3-5-2千代田ファーストビル西館1階","lat":35.698227,"lon":139.752953},{"name":"グローバルキッズ飯田橋こども園","province":"東京都","city":"千代田区","address":"千代田区富士見2-14-37富士見EAST1・2階","lat":35.697163,"lon":139.743773},{"name":"ふじみこども園","province":"東京都","city":"千代田区","address":"千代田区富士見1-10-3","lat":35.697316,"lon":139.74622},{"name":"グローバルキッズ飯田橋園","province":"東京都","city":"千代田区","address":"千代田区富士見2-14-36富士見ウエスト2・3階","lat":35.697307,"lon":139.74364},{"name":"クレアナーサリー市ヶ谷","province":"東京都","city":"千代田区","address":"千代田区九段北4-2-29セブンアネックス1~3階","lat":35.692344,"lon":139.738182},{"name":"四番町保育園","province":"東京都","city":"千代田区","address":"千代田区四番町5-8","lat":35.688436,"lon":139.736499},{"name":"麹町保育園","province":"東京都","city":"千代田区","address":"千代田区一番町4","lat":35.688003,"lon":139.742601},{"name":"ポピンズナーサリースクール一番町","province":"東京都","city":"千代田区","address":"千代田区一番町10-8一番町ウエストビル","lat":35.686525,"lon":139.739749},{"name":"アスク二番町保育園","province":"東京都","city":"千代田区","address":"千代田区二番町2-1二番町TSビル","lat":35.686958,"lon":139.737971},{"name":"グローバルキッズ六番町園","province":"東京都","city":"千代田区","address":"千代田区六番町5-16","lat":35.686969,"lon":139.734669},{"name":"いずみこども園","province":"東京都","city":"千代田区","address":"千代田区神田和泉町1","lat":35.699016,"lon":139.777421},{"name":"あい保育園東神田","province":"東京都","city":"千代田区","address":"千代田区東神田2-6-5東神田ビル2・3階","lat":35.695814,"lon":139.780435},{"name":"神田保育園","province":"東京都","city":"千代田区","address":"千代田区神田淡路町2-109","lat":35.69685,"lon":139.767002},{"name":"神田淡路町保育園大きなおうち","province":"東京都","city":"千代田区","address":"千代田区神田淡路町2-12","lat":35.697805,"lon":139.76878},{"name":"西神田保育園","province":"東京都","city":"千代田区","address":"千代田区西神田2-6-2","lat":35.698918,"lon":139.754755},{"name":"ほっぺるランド西神田","province":"東京都","city":"千代田区","address":"千代田区西神田3-5-2千代田ファーストビル西館1階","lat":35.698227,"lon":139.752953},{"name":"グローバルキッズ飯田橋こども園","province":"東京都","city":"千代田区","address":"千代田区富士見2-14-37富士見EAST1・2階","lat":35.697163,"lon":139.743773},{"name":"ふじみこども園","province":"東京都","city":"千代田区","address":"千代田区富士見1-10-3","lat":35.697316,"lon":139.74622},{"name":"グローバルキッズ飯田橋園","province":"東京都","city":"千代田区","address":"千代田区富士見2-14-36富士見ウエスト2・3階","lat":35.697307,"lon":139.74364},{"name":"クレアナーサリー市ヶ谷","province":"東京都","city":"千代田区","address":"千代田区九段北4-2-29セブンアネックス1~3階","lat":35.692344,"lon":139.738182},{"name":"四番町保育園","province":"東京都","city":"千代田区","address":"千代田区四番町5-8","lat":35.688436,"lon":139.736499},{"name":"麹町保育園","province":"東京都","city":"千代田区","address":"千代田区一番町4","lat":35.688003,"lon":139.742601},{"name":"ポピンズナーサリースクール一番町","province":"東京都","city":"千代田区","address":"千代田区一番町10-8一番町ウエストビル","lat":35.686525,"lon":139.739749},{"name":"アスク二番町保育園","province":"東京都","city":"千代田区","address":"千代田区二番町2-1二番町TSビル","lat":35.686958,"lon":139.737971},{"name":"グローバルキッズ六番町園","province":"東京都","city":"千代田区","address":"千代田区六番町5-16","lat":35.686969,"lon":139.734669},{"name":"いずみこども園","province":"東京都","city":"千代田区","address":"千代田区神田和泉町1","lat":35.699016,"lon":139.777421},{"name":"あい保育園東神田","province":"東京都","city":"千代田区","address":"千代田区東神田2-6-5東神田ビル2・3階","lat":35.695814,"lon":139.780435},{"name":"神田保育園","province":"東京都","city":"千代田区","address":"千代田区神田淡路町2-109","lat":35.69685,"lon":139.767002},{"name":"神田淡路町保育園大きなおうち","province":"東京都","city":"千代田区","address":"千代田区神田淡路町2-12","lat":35.697805,"lon":139.76878},{"name":"西神田保育園","province":"東京都","city":"千代田区","address":"千代田区西神田2-6-2","lat":35.698918,"lon":139.754755},{"name":"ほっぺるランド西神田","province":"東京都","city":"千代田区","address":"千代田区西神田3-5-2千代田ファーストビル西館1階","lat":35.698227,"lon":139.752953},{"name":"グローバルキッズ飯田橋こども園","province":"東京都","city":"千代田区","address":"千代田区富士見2-14-37富士見EAST1・2階","lat":35.697163,"lon":139.743773},{"name":"ふじみこども園","province":"東京都","city":"千代田区","address":"千代田区富士見1-10-3","lat":35.697316,"lon":139.74622},{"name":"グローバルキッズ飯田橋園","province":"東京都","city":"千代田区","address":"千代田区富士見2-14-36富士見ウエスト2・3階","lat":35.697307,"lon":139.74364},{"name":"クレアナーサリー市ヶ谷","province":"東京都","city":"千代田区","address":"千代田区九段北4-2-29セブンアネックス1~3階","lat":35.692344,"lon":139.738182},{"name":"四番町保育園","province":"東京都","city":"千代田区","address":"千代田区四番町5-8","lat":35.688436,"lon":139.736499},{"name":"麹町保育園","province":"東京都","city":"千代田区","address":"千代田区一番町4","lat":35.688003,"lon":139.742601},{"name":"ポピンズナーサリースクール一番町","province":"東京都","city":"千代田区","address":"千代田区一番町10-8一番町ウエストビル","lat":35.686525,"lon":139.739749},{"name":"アスク二番町保育園","province":"東京都","city":"千代田区","address":"千代田区二番町2-1二番町TSビル","lat":35.686958,"lon":139.737971},{"name":"グローバルキッズ六番町園","province":"東京都","city":"千代田区","address":"千代田区六番町5-16","lat":35.686969,"lon":139.734669},{"name":"いずみこども園","province":"東京都","city":"千代田区","address":"千代田区神田和泉町1","lat":35.699016,"lon":139.777421},{"name":"あい保育園東神田","province":"東京都","city":"千代田区","address":"千代田区東神田2-6-5東神田ビル2・3階","lat":35.695814,"lon":139.780435},{"name":"神田保育園","province":"東京都","city":"千代田区","address":"千代田区神田淡路町2-109","lat":35.69685,"lon":139.767002},{"name":"神田淡路町保育園大きなおうち","province":"東京都","city":"千代田区","address":"千代田区神田淡路町2-12","lat":35.697805,"lon":139.76878},{"name":"西神田保育園","province":"東京都","city":"千代田区","address":"千代田区西神田2-6-2","lat":35.698918,"lon":139.754755},{"name":"ほっぺるランド西神田","province":"東京都","city":"千代田区","address":"千代田区西神田3-5-2千代田ファーストビル西館1階","lat":35.698227,"lon":139.752953},{"name":"グローバルキッズ飯田橋こども園","province":"東京都","city":"千代田区","address":"千代田区富士見2-14-37富士見EAST1・2階","lat":35.697163,"lon":139.743773},{"name":"ふじみこども園","province":"東京都","city":"千代田区","address":"千代田区富士見1-10-3","lat":35.697316,"lon":139.74622},{"name":"グローバルキッズ飯田橋園","province":"東京都","city":"千代田区","address":"千代田区富士見2-14-36富士見ウエスト2・3階","lat":35.697307,"lon":139.74364},{"name":"クレアナーサリー市ヶ谷","province":"東京都","city":"千代田区","address":"千代田区九段北4-2-29セブンアネックス1~3階","lat":35.692344,"lon":139.738182},{"name":"四番町保育園","province":"東京都","city":"千代田区","address":"千代田区四番町5-8","lat":35.688436,"lon":139.736499},{"name":"麹町保育園","province":"東京都","city":"千代田区","address":"千代田区一番町4","lat":35.688003,"lon":139.742601},{"name":"ポピンズナーサリースクール一番町","province":"東京都","city":"千代田区","address":"千代田区一番町10-8一番町ウエストビル","lat":35.686525,"lon":139.739749},{"name":"アスク二番町保育園","province":"東京都","city":"千代田区","address":"千代田区二番町2-1二番町TSビル","lat":35.686958,"lon":139.737971},{"name":"グローバルキッズ六番町園","province":"東京都","city":"千代田区","address":"千代田区六番町5-16","lat":35.686969,"lon":139.734669},{"name":"いずみこども園","province":"東京都","city":"千代田区","address":"千代田区神田和泉町1","lat":35.699016,"lon":139.777421},{"name":"あい保育園東神田","province":"東京都","city":"千代田区","address":"千代田区東神田2-6-5東神田ビル2・3階","lat":35.695814,"lon":139.780435},{"name":"神田保育園","province":"東京都","city":"千代田区","address":"千代田区神田淡路町2-109","lat":35.69685,"lon":139.767002},{"name":"神田淡路町保育園大きなおうち","province":"東京都","city":"千代田区","address":"千代田区神田淡路町2-12","lat":35.697805,"lon":139.76878},{"name":"西神田保育園","province":"東京都","city":"千代田区","address":"千代田区西神田2-6-2","lat":35.698918,"lon":139.754755},{"name":"ほっぺるランド西神田","province":"東京都","city":"千代田区","address":"千代田区西神田3-5-2千代田ファーストビル西館1階","lat":35.698227,"lon":139.752953},{"name":"グローバルキッズ飯田橋こども園","province":"東京都","city":"千代田区","address":"千代田区富士見2-14-37富士見EAST1・2階","lat":35.697163,"lon":139.743773},{"name":"ふじみこども園","province":"東京都","city":"千代田区","address":"千代田区富士見1-10-3","lat":35.697316,"lon":139.74622},{"name":"グローバルキッズ飯田橋園","province":"東京都","city":"千代田区","address":"千代田区富士見2-14-36富士見ウエスト2・3階","lat":35.697307,"lon":139.74364},{"name":"クレアナーサリー市ヶ谷","province":"東京都","city":"千代田区","address":"千代田区九段北4-2-29セブンアネックス1~3階","lat":35.692344,"lon":139.738182},{"name":"四番町保育園","province":"東京都","city":"千代田区","address":"千代田区四番町5-8","lat":35.688436,"lon":139.736499},{"name":"麹町保育園","province":"東京都","city":"千代田区","address":"千代田区一番町4","lat":35.688003,"lon":139.742601},{"name":"ポピンズナーサリースクール一番町","province":"東京都","city":"千代田区","address":"千代田区一番町10-8一番町ウエストビル","lat":35.686525,"lon":139.739749},{"name":"アスク二番町保育園","province":"東京都","city":"千代田区","address":"千代田区二番町2-1二番町TSビル","lat":35.686958,"lon":139.737971},{"name":"グローバルキッズ六番町園","province":"東京都","city":"千代田区","address":"千代田区六番町5-16","lat":35.686969,"lon":139.734669},{"name":"いずみこども園","province":"東京都","city":"千代田区","address":"千代田区神田和泉町1","lat":35.699016,"lon":139.777421},{"name":"あい保育園東神田","province":"東京都","city":"千代田区","address":"千代田区東神田2-6-5東神田ビル2・3階","lat":35.695814,"lon":139.780435},{"name":"神田保育園","province":"東京都","city":"千代田区","address":"千代田区神田淡路町2-109","lat":35.69685,"lon":139.767002},{"name":"神田淡路町保育園大きなおうち","province":"東京都","city":"千代田区","address":"千代田区神田淡路町2-12","lat":35.697805,"lon":139.76878},{"name":"西神田保育園","province":"東京都","city":"千代田区","address":"千代田区西神田2-6-2","lat":35.698918,"lon":139.754755},{"name":"ほっぺるランド西神田","province":"東京都","city":"千代田区","address":"千代田区西神田3-5-2千代田ファーストビル西館1階","lat":35.698227,"lon":139.752953},{"name":"グローバルキッズ飯田橋こども園","province":"東京都","city":"千代田区","address":"千代田区富士見2-14-37富士見EAST1・2階","lat":35.697163,"lon":139.743773},{"name":"ふじみこども園","province":"東京都","city":"千代田区","address":"千代田区富士見1-10-3","lat":35.697316,"lon":139.74622},{"name":"グローバルキッズ飯田橋園","province":"東京都","city":"千代田区","address":"千代田区富士見2-14-36富士見ウエスト2・3階","lat":35.697307,"lon":139.74364},{"name":"クレアナーサリー市ヶ谷","province":"東京都","city":"千代田区","address":"千代田区九段北4-2-29セブンアネックス1~3階","lat":35.692344,"lon":139.738182},{"name":"四番町保育園","province":"東京都","city":"千代田区","address":"千代田区四番町5-8","lat":35.688436,"lon":139.736499},{"name":"麹町保育園","province":"東京都","city":"千代田区","address":"千代田区一番町4","lat":35.688003,"lon":139.742601},{"name":"ポピンズナーサリースクール一番町","province":"東京都","city":"千代田区","address":"千代田区一番町10-8一番町ウエストビル","lat":35.686525,"lon":139.739749},{"name":"アスク二番町保育園","province":"東京都","city":"千代田区","address":"千代田区二番町2-1二番町TSビル","lat":35.686958,"lon":139.737971},{"name":"グローバルキッズ六番町園","province":"東京都","city":"千代田区","address":"千代田区六番町5-16","lat":35.686969,"lon":139.734669},{"name":"いずみこども園","province":"東京都","city":"千代田区","address":"千代田区神田和泉町1","lat":35.699016,"lon":139.777421},{"name":"あい保育園東神田","province":"東京都","city":"千代田区","address":"千代田区東神田2-6-5東神田ビル2・3階","lat":35.695814,"lon":139.780435},{"name":"神田保育園","province":"東京都","city":"千代田区","address":"千代田区神田淡路町2-109","lat":35.69685,"lon":139.767002},{"name":"神田淡路町保育園大きなおうち","province":"東京都","city":"千代田区","address":"千代田区神田淡路町2-12","lat":35.697805,"lon":139.76878},{"name":"西神田保育園","province":"東京都","city":"千代田区","address":"千代田区西神田2-6-2","lat":35.698918,"lon":139.754755},{"name":"ほっぺるランド西神田","province":"東京都","city":"千代田区","address":"千代田区西神田3-5-2千代田ファーストビル西館1階","lat":35.698227,"lon":139.752953},{"name":"グローバルキッズ飯田橋こども園","province":"東京都","city":"千代田区","address":"千代田区富士見2-14-37富士見EAST1・2階","lat":35.697163,"lon":139.743773},{"name":"ふじみこども園","province":"東京都","city":"千代田区","address":"千代田区富士見1-10-3","lat":35.697316,"lon":139.74622},{"name":"グローバルキッズ飯田橋園","province":"東京都","city":"千代田区","address":"千代田区富士見2-14-36富士見ウエスト2・3階","lat":35.697307,"lon":139.74364},{"name":"クレアナーサリー市ヶ谷","province":"東京都","city":"千代田区","address":"千代田区九段北4-2-29セブンアネックス1~3階","lat":35.692344,"lon":139.738182},{"name":"四番町保育園","province":"東京都","city":"千代田区","address":"千代田区四番町5-8","lat":35.688436,"lon":139.736499},{"name":"麹町保育園","province":"東京都","city":"千代田区","address":"千代田区一番町4","lat":35.688003,"lon":139.742601},{"name":"ポピンズナーサリースクール一番町","province":"東京都","city":"千代田区","address":"千代田区一番町10-8一番町ウエストビル","lat":35.686525,"lon":139.739749},{"name":"アスク二番町保育園","province":"東京都","city":"千代田区","address":"千代田区二番町2-1二番町TSビル","lat":35.686958,"lon":139.737971},{"name":"グローバルキッズ六番町園","province":"東京都","city":"千代田区","address":"千代田区六番町5-16","lat":35.686969,"lon":139.734669},{"name":"いずみこども園","province":"東京都","city":"千代田区","address":"千代田区神田和泉町1","lat":35.699016,"lon":139.777421},{"name":"あい保育園東神田","province":"東京都","city":"千代田区","address":"千代田区東神田2-6-5東神田ビル2・3階","lat":35.695814,"lon":139.780435},{"name":"神田保育園","province":"東京都","city":"千代田区","address":"千代田区神田淡路町2-109","lat":35.69685,"lon":139.767002},{"name":"神田淡路町保育園大きなおうち","province":"東京都","city":"千代田区","address":"千代田区神田淡路町2-12","lat":35.697805,"lon":139.76878},{"name":"西神田保育園","province":"東京都","city":"千代田区","address":"千代田区西神田2-6-2","lat":35.698918,"lon":139.754755},{"name":"ほっぺるランド西神田","province":"東京都","city":"千代田区","address":"千代田区西神田3-5-2千代田ファーストビル西館1階","lat":35.698227,"lon":139.752953},{"name":"グローバルキッズ飯田橋こども園","province":"東京都","city":"千代田区","address":"千代田区富士見2-14-37富士見EAST1・2階","lat":35.697163,"lon":139.743773},{"name":"ふじみこども園","province":"東京都","city":"千代田区","address":"千代田区富士見1-10-3","lat":35.697316,"lon":139.74622},{"name":"グローバルキッズ飯田橋園","province":"東京都","city":"千代田区","address":"千代田区富士見2-14-36富士見ウエスト2・3階","lat":35.697307,"lon":139.74364},{"name":"クレアナーサリー市ヶ谷","province":"東京都","city":"千代田区","address":"千代田区九段北4-2-29セブンアネックス1~3階","lat":35.692344,"lon":139.738182},{"name":"四番町保育園","province":"東京都","city":"千代田区","address":"千代田区四番町5-8","lat":35.688436,"lon":139.736499},{"name":"麹町保育園","province":"東京都","city":"千代田区","address":"千代田区一番町4","lat":35.688003,"lon":139.742601},{"name":"ポピンズナーサリースクール一番町","province":"東京都","city":"千代田区","address":"千代田区一番町10-8一番町ウエストビル","lat":35.686525,"lon":139.739749},{"name":"アスク二番町保育園","province":"東京都","city":"千代田区","address":"千代田区二番町2-1二番町TSビル","lat":35.686958,"lon":139.737971},{"name":"グローバルキッズ六番町園","province":"東京都","city":"千代田区","address":"千代田区六番町5-16","lat":35.686969,"lon":139.734669},{"name":"いずみこども園","province":"東京都","city":"千代田区","address":"千代田区神田和泉町1","lat":35.699016,"lon":139.777421},{"name":"あい保育園東神田","province":"東京都","city":"千代田区","address":"千代田区東神田2-6-5東神田ビル2・3階","lat":35.695814,"lon":139.780435},{"name":"神田保育園","province":"東京都","city":"千代田区","address":"千代田区神田淡路町2-109","lat":35.69685,"lon":139.767002},{"name":"神田淡路町保育園大きなおうち","province":"東京都","city":"千代田区","address":"千代田区神田淡路町2-12","lat":35.697805,"lon":139.76878},{"name":"西神田保育園","province":"東京都","city":"千代田区","address":"千代田区西神田2-6-2","lat":35.698918,"lon":139.754755},{"name":"ほっぺるランド西神田","province":"東京都","city":"千代田区","address":"千代田区西神田3-5-2千代田ファーストビル西館1階","lat":35.698227,"lon":139.752953},{"name":"グローバルキッズ飯田橋こども園","province":"東京都","city":"千代田区","address":"千代田区富士見2-14-37富士見EAST1・2階","lat":35.697163,"lon":139.743773},{"name":"ふじみこども園","province":"東京都","city":"千代田区","address":"千代田区富士見1-10-3","lat":35.697316,"lon":139.74622},{"name":"グローバルキッズ飯田橋園","province":"東京都","city":"千代田区","address":"千代田区富士見2-14-36富士見ウエスト2・3階","lat":35.697307,"lon":139.74364},{"name":"クレアナーサリー市ヶ谷","province":"東京都","city":"千代田区","address":"千代田区九段北4-2-29セブンアネックス1~3階","lat":35.692344,"lon":139.738182},{"name":"四番町保育園","province":"東京都","city":"千代田区","address":"千代田区四番町5-8","lat":35.688436,"lon":139.736499},{"name":"麹町保育園","province":"東京都","city":"千代田区","address":"千代田区一番町4","lat":35.688003,"lon":139.742601},{"name":"ポピンズナーサリースクール一番町","province":"東京都","city":"千代田区","address":"千代田区一番町10-8一番町ウエストビル","lat":35.686525,"lon":139.739749},{"name":"アスク二番町保育園","province":"東京都","city":"千代田区","address":"千代田区二番町2-1二番町TSビル","lat":35.686958,"lon":139.737971},{"name":"グローバルキッズ六番町園","province":"東京都","city":"千代田区","address":"千代田区六番町5-16","lat":35.686969,"lon":139.734669},{"name":"いずみこども園","province":"東京都","city":"千代田区","address":"千代田区神田和泉町1","lat":35.699016,"lon":139.777421},{"name":"あい保育園東神田","province":"東京都","city":"千代田区","address":"千代田区東神田2-6-5東神田ビル2・3階","lat":35.695814,"lon":139.780435},{"name":"神田保育園","province":"東京都","city":"千代田区","address":"千代田区神田淡路町2-109","lat":35.69685,"lon":139.767002},{"name":"神田淡路町保育園大きなおうち","province":"東京都","city":"千代田区","address":"千代田区神田淡路町2-12","lat":35.697805,"lon":139.76878},{"name":"西神田保育園","province":"東京都","city":"千代田区","address":"千代田区西神田2-6-2","lat":35.698918,"lon":139.754755},{"name":"ほっぺるランド西神田","province":"東京都","city":"千代田区","address":"千代田区西神田3-5-2千代田ファーストビル西館1階","lat":35.698227,"lon":139.752953},{"name":"グローバルキッズ飯田橋こども園","province":"東京都","city":"千代田区","address":"千代田区富士見2-14-37富士見EAST1・2階","lat":35.697163,"lon":139.743773},{"name":"ふじみこども園","province":"東京都","city":"千代田区","address":"千代田区富士見1-10-3","lat":35.697316,"lon":139.74622},{"name":"グローバルキッズ飯田橋園","province":"東京都","city":"千代田区","address":"千代田区富士見2-14-36富士見ウエスト2・3階","lat":35.697307,"lon":139.74364},{"name":"クレアナーサリー市ヶ谷","province":"東京都","city":"千代田区","address":"千代田区九段北4-2-29セブンアネックス1~3階","lat":35.692344,"lon":139.738182},{"name":"四番町保育園","province":"東京都","city":"千代田区","address":"千代田区四番町5-8","lat":35.688436,"lon":139.736499},{"name":"麹町保育園","province":"東京都","city":"千代田区","address":"千代田区一番町4","lat":35.688003,"lon":139.742601},{"name":"ポピンズナーサリースクール一番町","province":"東京都","city":"千代田区","address":"千代田区一番町10-8一番町ウエストビル","lat":35.686525,"lon":139.739749},{"name":"アスク二番町保育園","province":"東京都","city":"千代田区","address":"千代田区二番町2-1二番町TSビル","lat":35.686958,"lon":139.737971},{"name":"グローバルキッズ六番町園","province":"東京都","city":"千代田区","address":"千代田区六番町5-16","lat":35.686969,"lon":139.734669},{"name":"いずみこども園","province":"東京都","city":"千代田区","address":"千代田区神田和泉町1","lat":35.699016,"lon":139.777421},{"name":"あい保育園東神田","province":"東京都","city":"千代田区","address":"千代田区東神田2-6-5東神田ビル2・3階","lat":35.695814,"lon":139.780435},{"name":"神田保育園","province":"東京都","city":"千代田区","address":"千代田区神田淡路町2-109","lat":35.69685,"lon":139.767002},{"name":"神田淡路町保育園大きなおうち","province":"東京都","city":"千代田区","address":"千代田区神田淡路町2-12","lat":35.697805,"lon":139.76878},{"name":"西神田保育園","province":"東京都","city":"千代田区","address":"千代田区西神田2-6-2","lat":35.698918,"lon":139.754755},{"name":"ほっぺるランド西神田","province":"東京都","city":"千代田区","address":"千代田区西神田3-5-2千代田ファーストビル西館1階","lat":35.698227,"lon":139.752953},{"name":"グローバルキッズ飯田橋こども園","province":"東京都","city":"千代田区","address":"千代田区富士見2-14-37富士見EAST1・2階","lat":35.697163,"lon":139.743773},{"name":"ふじみこども園","province":"東京都","city":"千代田区","address":"千代田区富士見1-10-3","lat":35.697316,"lon":139.74622},{"name":"グローバルキッズ飯田橋園","province":"東京都","city":"千代田区","address":"千代田区富士見2-14-36富士見ウエスト2・3階","lat":35.697307,"lon":139.74364},{"name":"クレアナーサリー市ヶ谷","province":"東京都","city":"千代田区","address":"千代田区九段北4-2-29セブンアネックス1~3階","lat":35.692344,"lon":139.738182},{"name":"四番町保育園","province":"東京都","city":"千代田区","address":"千代田区四番町5-8","lat":35.688436,"lon":139.736499},{"name":"麹町保育園","province":"東京都","city":"千代田区","address":"千代田区一番町4","lat":35.688003,"lon":139.742601},{"name":"ポピンズナーサリースクール一番町","province":"東京都","city":"千代田区","address":"千代田区一番町10-8一番町ウエストビル","lat":35.686525,"lon":139.739749},{"name":"アスク二番町保育園","province":"東京都","city":"千代田区","address":"千代田区二番町2-1二番町TSビル","lat":35.686958,"lon":139.737971},{"name":"グローバルキッズ六番町園","province":"東京都","city":"千代田区","address":"千代田区六番町5-16","lat":35.686969,"lon":139.734669},{"name":"いずみこども園","province":"東京都","city":"千代田区","address":"千代田区神田和泉町1","lat":35.699016,"lon":139.777421},{"name":"あい保育園東神田","province":"東京都","city":"千代田区","address":"千代田区東神田2-6-5東神田ビル2・3階","lat":35.695814,"lon":139.780435},{"name":"神田保育園","province":"東京都","city":"千代田区","address":"千代田区神田淡路町2-109","lat":35.69685,"lon":139.767002},{"name":"神田淡路町保育園大きなおうち","province":"東京都","city":"千代田区","address":"千代田区神田淡路町2-12","lat":35.697805,"lon":139.76878},{"name":"西神田保育園","province":"東京都","city":"千代田区","address":"千代田区西神田2-6-2","lat":35.698918,"lon":139.754755},{"name":"ほっぺるランド西神田","province":"東京都","city":"千代田区","address":"千代田区西神田3-5-2千代田ファーストビル西館1階","lat":35.698227,"lon":139.752953},{"name":"グローバルキッズ飯田橋こども園","province":"東京都","city":"千代田区","address":"千代田区富士見2-14-37富士見EAST1・2階","lat":35.697163,"lon":139.743773},{"name":"ふじみこども園","province":"東京都","city":"千代田区","address":"千代田区富士見1-10-3","lat":35.697316,"lon":139.74622},{"name":"グローバルキッズ飯田橋園","province":"東京都","city":"千代田区","address":"千代田区富士見2-14-36富士見ウエスト2・3階","lat":35.697307,"lon":139.74364},{"name":"クレアナーサリー市ヶ谷","province":"東京都","city":"千代田区","address":"千代田区九段北4-2-29セブンアネックス1~3階","lat":35.692344,"lon":139.738182},{"name":"四番町保育園","province":"東京都","city":"千代田区","address":"千代田区四番町5-8","lat":35.688436,"lon":139.736499},{"name":"麹町保育園","province":"東京都","city":"千代田区","address":"千代田区一番町4","lat":35.688003,"lon":139.742601},{"name":"ポピンズナーサリースクール一番町","province":"東京都","city":"千代田区","address":"千代田区一番町10-8一番町ウエストビル","lat":35.686525,"lon":139.739749},{"name":"アスク二番町保育園","province":"東京都","city":"千代田区","address":"千代田区二番町2-1二番町TSビル","lat":35.686958,"lon":139.737971},{"name":"グローバルキッズ六番町園","province":"東京都","city":"千代田区","address":"千代田区六番町5-16","lat":35.686969,"lon":139.734669},{"name":"いずみこども園","province":"東京都","city":"千代田区","address":"千代田区神田和泉町1","lat":35.699016,"lon":139.777421},{"name":"あい保育園東神田","province":"東京都","city":"千代田区","address":"千代田区東神田2-6-5東神田ビル2・3階","lat":35.695814,"lon":139.780435},{"name":"神田保育園","province":"東京都","city":"千代田区","address":"千代田区神田淡路町2-109","lat":35.69685,"lon":139.767002},{"name":"神田淡路町保育園大きなおうち","province":"東京都","city":"千代田区","address":"千代田区神田淡路町2-12","lat":35.697805,"lon":139.76878},{"name":"西神田保育園","province":"東京都","city":"千代田区","address":"千代田区西神田2-6-2","lat":35.698918,"lon":139.754755},{"name":"ほっぺるランド西神田","province":"東京都","city":"千代田区","address":"千代田区西神田3-5-2千代田ファーストビル西館1階","lat":35.698227,"lon":139.752953},{"name":"グローバルキッズ飯田橋こども園","province":"東京都","city":"千代田区","address":"千代田区富士見2-14-37富士見EAST1・2階","lat":35.697163,"lon":139.743773},{"name":"ふじみこども園","province":"東京都","city":"千代田区","address":"千代田区富士見1-10-3","lat":35.697316,"lon":139.74622},{"name":"グローバルキッズ飯田橋園","province":"東京都","city":"千代田区","address":"千代田区富士見2-14-36富士見ウエスト2・3階","lat":35.697307,"lon":139.74364},{"name":"クレアナーサリー市ヶ谷","province":"東京都","city":"千代田区","address":"千代田区九段北4-2-29セブンアネックス1~3階","lat":35.692344,"lon":139.738182},{"name":"四番町保育園","province":"東京都","city":"千代田区","address":"千代田区四番町5-8","lat":35.688436,"lon":139.736499},{"name":"麹町保育園","province":"東京都","city":"千代田区","address":"千代田区一番町4","lat":35.688003,"lon":139.742601},{"name":"ポピンズナーサリースクール一番町","province":"東京都","city":"千代田区","address":"千代田区一番町10-8一番町ウエストビル","lat":35.686525,"lon":139.739749},{"name":"アスク二番町保育園","province":"東京都","city":"千代田区","address":"千代田区二番町2-1二番町TSビル","lat":35.686958,"lon":139.737971},{"name":"グローバルキッズ六番町園","province":"東京都","city":"千代田区","address":"千代田区六番町5-16","lat":35.686969,"lon":139.734669},{"name":"いずみこども園","province":"東京都","city":"千代田区","address":"千代田区神田和泉町1","lat":35.699016,"lon":139.777421},{"name":"あい保育園東神田","province":"東京都","city":"千代田区","address":"千代田区東神田2-6-5東神田ビル2・3階","lat":35.695814,"lon":139.780435},{"name":"神田保育園","province":"東京都","city":"千代田区","address":"千代田区神田淡路町2-109","lat":35.69685,"lon":139.767002},{"name":"神田淡路町保育園大きなおうち","province":"東京都","city":"千代田区","address":"千代田区神田淡路町2-12","lat":35.697805,"lon":139.76878},{"name":"西神田保育園","province":"東京都","city":"千代田区","address":"千代田区西神田2-6-2","lat":35.698918,"lon":139.754755},{"name":"ほっぺるランド西神田","province":"東京都","city":"千代田区","address":"千代田区西神田3-5-2千代田ファーストビル西館1階","lat":35.698227,"lon":139.752953},{"name":"グローバルキッズ飯田橋こども園","province":"東京都","city":"千代田区","address":"千代田区富士見2-14-37富士見EAST1・2階","lat":35.697163,"lon":139.743773},{"name":"ふじみこども園","province":"東京都","city":"千代田区","address":"千代田区富士見1-10-3","lat":35.697316,"lon":139.74622},{"name":"グローバルキッズ飯田橋園","province":"東京都","city":"千代田区","address":"千代田区富士見2-14-36富士見ウエスト2・3階","lat":35.697307,"lon":139.74364},{"name":"クレアナーサリー市ヶ谷","province":"東京都","city":"千代田区","address":"千代田区九段北4-2-29セブンアネックス1~3階","lat":35.692344,"lon":139.738182},{"name":"四番町保育園","province":"東京都","city":"千代田区","address":"千代田区四番町5-8","lat":35.688436,"lon":139.736499},{"name":"麹町保育園","province":"東京都","city":"千代田区","address":"千代田区一番町4","lat":35.688003,"lon":139.742601},{"name":"ポピンズナーサリースクール一番町","province":"東京都","city":"千代田区","address":"千代田区一番町10-8一番町ウエストビル","lat":35.686525,"lon":139.739749},{"name":"アスク二番町保育園","province":"東京都","city":"千代田区","address":"千代田区二番町2-1二番町TSビル","lat":35.686958,"lon":139.737971},{"name":"グローバルキッズ六番町園","province":"東京都","city":"千代田区","address":"千代田区六番町5-16","lat":35.686969,"lon":139.734669},{"name":"いずみこども園","province":"東京都","city":"千代田区","address":"千代田区神田和泉町1","lat":35.699016,"lon":139.777421},{"name":"あい保育園東神田","province":"東京都","city":"千代田区","address":"千代田区東神田2-6-5東神田ビル2・3階","lat":35.695814,"lon":139.780435},{"name":"神田保育園","province":"東京都","city":"千代田区","address":"千代田区神田淡路町2-109","lat":35.69685,"lon":139.767002},{"name":"神田淡路町保育園大きなおうち","province":"東京都","city":"千代田区","address":"千代田区神田淡路町2-12","lat":35.697805,"lon":139.76878},{"name":"西神田保育園","province":"東京都","city":"千代田区","address":"千代田区西神田2-6-2","lat":35.698918,"lon":139.754755},{"name":"ほっぺるランド西神田","province":"東京都","city":"千代田区","address":"千代田区西神田3-5-2千代田ファーストビル西館1階","lat":35.698227,"lon":139.752953},{"name":"グローバルキッズ飯田橋こども園","province":"東京都","city":"千代田区","address":"千代田区富士見2-14-37富士見EAST1・2階","lat":35.697163,"lon":139.743773},{"name":"ふじみこども園","province":"東京都","city":"千代田区","address":"千代田区富士見1-10-3","lat":35.697316,"lon":139.74622},{"name":"グローバルキッズ飯田橋園","province":"東京都","city":"千代田区","address":"千代田区富士見2-14-36富士見ウエスト2・3階","lat":35.697307,"lon":139.74364},{"name":"クレアナーサリー市ヶ谷","province":"東京都","city":"千代田区","address":"千代田区九段北4-2-29セブンアネックス1~3階","lat":35.692344,"lon":139.738182},{"name":"四番町保育園","province":"東京都","city":"千代田区","address":"千代田区四番町5-8","lat":35.688436,"lon":139.736499},{"name":"麹町保育園","province":"東京都","city":"千代田区","address":"千代田区一番町4","lat":35.688003,"lon":139.742601},{"name":"ポピンズナーサリースクール一番町","province":"東京都","city":"千代田区","address":"千代田区一番町10-8一番町ウエストビル","lat":35.686525,"lon":139.739749},{"name":"アスク二番町保育園","province":"東京都","city":"千代田区","address":"千代田区二番町2-1二番町TSビル","lat":35.686958,"lon":139.737971},{"name":"グローバルキッズ六番町園","province":"東京都","city":"千代田区","address":"千代田区六番町5-16","lat":35.686969,"lon":139.734669},{"name":"いずみこども園","province":"東京都","city":"千代田区","address":"千代田区神田和泉町1","lat":35.699016,"lon":139.777421},{"name":"あい保育園東神田","province":"東京都","city":"千代田区","address":"千代田区東神田2-6-5東神田ビル2・3階","lat":35.695814,"lon":139.780435},{"name":"神田保育園","province":"東京都","city":"千代田区","address":"千代田区神田淡路町2-109","lat":35.69685,"lon":139.767002},{"name":"神田淡路町保育園大きなおうち","province":"東京都","city":"千代田区","address":"千代田区神田淡路町2-12","lat":35.697805,"lon":139.76878},{"name":"西神田保育園","province":"東京都","city":"千代田区","address":"千代田区西神田2-6-2","lat":35.698918,"lon":139.754755},{"name":"ほっぺるランド西神田","province":"東京都","city":"千代田区","address":"千代田区西神田3-5-2千代田ファーストビル西館1階","lat":35.698227,"lon":139.752953},{"name":"グローバルキッズ飯田橋こども園","province":"東京都","city":"千代田区","address":"千代田区富士見2-14-37富士見EAST1・2階","lat":35.697163,"lon":139.743773},{"name":"ふじみこども園","province":"東京都","city":"千代田区","address":"千代田区富士見1-10-3","lat":35.697316,"lon":139.74622},{"name":"グローバルキッズ飯田橋園","province":"東京都","city":"千代田区","address":"千代田区富士見2-14-36富士見ウエスト2・3階","lat":35.697307,"lon":139.74364},{"name":"クレアナーサリー市ヶ谷","province":"東京都","city":"千代田区","address":"千代田区九段北4-2-29セブンアネックス1~3階","lat":35.692344,"lon":139.738182},{"name":"四番町保育園","province":"東京都","city":"千代田区","address":"千代田区四番町5-8","lat":35.688436,"lon":139.736499},{"name":"麹町保育園","province":"東京都","city":"千代田区","address":"千代田区一番町4","lat":35.688003,"lon":139.742601},{"name":"ポピンズナーサリースクール一番町","province":"東京都","city":"千代田区","address":"千代田区一番町10-8一番町ウエストビル","lat":35.686525,"lon":139.739749},{"name":"アスク二番町保育園","province":"東京都","city":"千代田区","address":"千代田区二番町2-1二番町TSビル","lat":35.686958,"lon":139.737971},{"name":"グローバルキッズ六番町園","province":"東京都","city":"千代田区","address":"千代田区六番町5-16","lat":35.686969,"lon":139.734669},{"name":"いずみこども園","province":"東京都","city":"千代田区","address":"千代田区神田和泉町1","lat":35.699016,"lon":139.777421},{"name":"あい保育園東神田","province":"東京都","city":"千代田区","address":"千代田区東神田2-6-5東神田ビル2・3階","lat":35.695814,"lon":139.780435},{"name":"神田保育園","province":"東京都","city":"千代田区","address":"千代田区神田淡路町2-109","lat":35.69685,"lon":139.767002},{"name":"神田淡路町保育園大きなおうち","province":"東京都","city":"千代田区","address":"千代田区神田淡路町2-12","lat":35.697805,"lon":139.76878},{"name":"西神田保育園","province":"東京都","city":"千代田区","address":"千代田区西神田2-6-2","lat":35.698918,"lon":139.754755},{"name":"ほっぺるランド西神田","province":"東京都","city":"千代田区","address":"千代田区西神田3-5-2千代田ファーストビル西館1階","lat":35.698227,"lon":139.752953},{"name":"グローバルキッズ飯田橋こども園","province":"東京都","city":"千代田区","address":"千代田区富士見2-14-37富士見EAST1・2階","lat":35.697163,"lon":139.743773},{"name":"ふじみこども園","province":"東京都","city":"千代田区","address":"千代田区富士見1-10-3","lat":35.697316,"lon":139.74622},{"name":"グローバルキッズ飯田橋園","province":"東京都","city":"千代田区","address":"千代田区富士見2-14-36富士見ウエスト2・3階","lat":35.697307,"lon":139.74364},{"name":"クレアナーサリー市ヶ谷","province":"東京都","city":"千代田区","address":"千代田区九段北4-2-29セブンアネックス1~3階","lat":35.692344,"lon":139.738182},{"name":"四番町保育園","province":"東京都","city":"千代田区","address":"千代田区四番町5-8","lat":35.688436,"lon":139.736499},{"name":"麹町保育園","province":"東京都","city":"千代田区","address":"千代田区一番町4","lat":35.688003,"lon":139.742601},{"name":"ポピンズナーサリースクール一番町","province":"東京都","city":"千代田区","address":"千代田区一番町10-8一番町ウエストビル","lat":35.686525,"lon":139.739749},{"name":"アスク二番町保育園","province":"東京都","city":"千代田区","address":"千代田区二番町2-1二番町TSビル","lat":35.686958,"lon":139.737971},{"name":"グローバルキッズ六番町園","province":"東京都","city":"千代田区","address":"千代田区六番町5-16","lat":35.686969,"lon":139.734669},{"name":"いずみこども園","province":"東京都","city":"千代田区","address":"千代田区神田和泉町1","lat":35.699016,"lon":139.777421},{"name":"あい保育園東神田","province":"東京都","city":"千代田区","address":"千代田区東神田2-6-5東神田ビル2・3階","lat":35.695814,"lon":139.780435},{"name":"神田保育園","province":"東京都","city":"千代田区","address":"千代田区神田淡路町2-109","lat":35.69685,"lon":139.767002},{"name":"神田淡路町保育園大きなおうち","province":"東京都","city":"千代田区","address":"千代田区神田淡路町2-12","lat":35.697805,"lon":139.76878},{"name":"西神田保育園","province":"東京都","city":"千代田区","address":"千代田区西神田2-6-2","lat":35.698918,"lon":139.754755},{"name":"ほっぺるランド西神田","province":"東京都","city":"千代田区","address":"千代田区西神田3-5-2千代田ファーストビル西館1階","lat":35.698227,"lon":139.752953},{"name":"グローバルキッズ飯田橋こども園","province":"東京都","city":"千代田区","address":"千代田区富士見2-14-37富士見EAST1・2階","lat":35.697163,"lon":139.743773},{"name":"ふじみこども園","province":"東京都","city":"千代田区","address":"千代田区富士見1-10-3","lat":35.697316,"lon":139.74622},{"name":"グローバルキッズ飯田橋園","province":"東京都","city":"千代田区","address":"千代田区富士見2-14-36富士見ウエスト2・3階","lat":35.697307,"lon":139.74364},{"name":"クレアナーサリー市ヶ谷","province":"東京都","city":"千代田区","address":"千代田区九段北4-2-29セブンアネックス1~3階","lat":35.692344,"lon":139.738182},{"name":"四番町保育園","province":"東京都","city":"千代田区","address":"千代田区四番町5-8","lat":35.688436,"lon":139.736499},{"name":"麹町保育園","province":"東京都","city":"千代田区","address":"千代田区一番町4","lat":35.688003,"lon":139.742601},{"name":"ポピンズナーサリースクール一番町","province":"東京都","city":"千代田区","address":"千代田区一番町10-8一番町ウエストビル","lat":35.686525,"lon":139.739749},{"name":"アスク二番町保育園","province":"東京都","city":"千代田区","address":"千代田区二番町2-1二番町TSビル","lat":35.686958,"lon":139.737971},{"name":"グローバルキッズ六番町園","province":"東京都","city":"千代田区","address":"千代田区六番町5-16","lat":35.686969,"lon":139.734669},{"name":"いずみこども園","province":"東京都","city":"千代田区","address":"千代田区神田和泉町1","lat":35.699016,"lon":139.777421},{"name":"あい保育園東神田","province":"東京都","city":"千代田区","address":"千代田区東神田2-6-5東神田ビル2・3階","lat":35.695814,"lon":139.780435},{"name":"神田保育園","province":"東京都","city":"千代田区","address":"千代田区神田淡路町2-109","lat":35.69685,"lon":139.767002},{"name":"神田淡路町保育園大きなおうち","province":"東京都","city":"千代田区","address":"千代田区神田淡路町2-12","lat":35.697805,"lon":139.76878},{"name":"西神田保育園","province":"東京都","city":"千代田区","address":"千代田区西神田2-6-2","lat":35.698918,"lon":139.754755},{"name":"ほっぺるランド西神田","province":"東京都","city":"千代田区","address":"千代田区西神田3-5-2千代田ファーストビル西館1階","lat":35.698227,"lon":139.752953},{"name":"グローバルキッズ飯田橋こども園","province":"東京都","city":"千代田区","address":"千代田区富士見2-14-37富士見EAST1・2階","lat":35.697163,"lon":139.743773},{"name":"ふじみこども園","province":"東京都","city":"千代田区","address":"千代田区富士見1-10-3","lat":35.697316,"lon":139.74622},{"name":"グローバルキッズ飯田橋園","province":"東京都","city":"千代田区","address":"千代田区富士見2-14-36富士見ウエスト2・3階","lat":35.697307,"lon":139.74364},{"name":"クレアナーサリー市ヶ谷","province":"東京都","city":"千代田区","address":"千代田区九段北4-2-29セブンアネックス1~3階","lat":35.692344,"lon":139.738182},{"name":"四番町保育園","province":"東京都","city":"千代田区","address":"千代田区四番町5-8","lat":35.688436,"lon":139.736499},{"name":"麹町保育園","province":"東京都","city":"千代田区","address":"千代田区一番町4","lat":35.688003,"lon":139.742601},{"name":"ポピンズナーサリースクール一番町","province":"東京都","city":"千代田区","address":"千代田区一番町10-8一番町ウエストビル","lat":35.686525,"lon":139.739749},{"name":"アスク二番町保育園","province":"東京都","city":"千代田区","address":"千代田区二番町2-1二番町TSビル","lat":35.686958,"lon":139.737971},{"name":"グローバルキッズ六番町園","province":"東京都","city":"千代田区","address":"千代田区六番町5-16","lat":35.686969,"lon":139.734669},{"name":"いずみこども園","province":"東京都","city":"千代田区","address":"千代田区神田和泉町1","lat":35.699016,"lon":139.777421},{"name":"あい保育園東神田","province":"東京都","city":"千代田区","address":"千代田区東神田2-6-5東神田ビル2・3階","lat":35.695814,"lon":139.780435},{"name":"神田保育園","province":"東京都","city":"千代田区","address":"千代田区神田淡路町2-109","lat":35.69685,"lon":139.767002},{"name":"神田淡路町保育園大きなおうち","province":"東京都","city":"千代田区","address":"千代田区神田淡路町2-12","lat":35.697805,"lon":139.76878},{"name":"西神田保育園","province":"東京都","city":"千代田区","address":"千代田区西神田2-6-2","lat":35.698918,"lon":139.754755},{"name":"ほっぺるランド西神田","province":"東京都","city":"千代田区","address":"千代田区西神田3-5-2千代田ファーストビル西館1階","lat":35.698227,"lon":139.752953},{"name":"グローバルキッズ飯田橋こども園","province":"東京都","city":"千代田区","address":"千代田区富士見2-14-37富士見EAST1・2階","lat":35.697163,"lon":139.743773},{"name":"ふじみこども園","province":"東京都","city":"千代田区","address":"千代田区富士見1-10-3","lat":35.697316,"lon":139.74622},{"name":"グローバルキッズ飯田橋園","province":"東京都","city":"千代田区","address":"千代田区富士見2-14-36富士見ウエスト2・3階","lat":35.697307,"lon":139.74364},{"name":"クレアナーサリー市ヶ谷","province":"東京都","city":"千代田区","address":"千代田区九段北4-2-29セブンアネックス1~3階","lat":35.692344,"lon":139.738182},{"name":"四番町保育園","province":"東京都","city":"千代田区","address":"千代田区四番町5-8","lat":35.688436,"lon":139.736499},{"name":"麹町保育園","province":"東京都","city":"千代田区","address":"千代田区一番町4","lat":35.688003,"lon":139.742601},{"name":"ポピンズナーサリースクール一番町","province":"東京都","city":"千代田区","address":"千代田区一番町10-8一番町ウエストビル","lat":35.686525,"lon":139.739749},{"name":"アスク二番町保育園","province":"東京都","city":"千代田区","address":"千代田区二番町2-1二番町TSビル","lat":35.686958,"lon":139.737971},{"name":"グローバルキッズ六番町園","province":"東京都","city":"千代田区","address":"千代田区六番町5-16","lat":35.686969,"lon":139.734669},{"name":"いずみこども園","province":"東京都","city":"千代田区","address":"千代田区神田和泉町1","lat":35.699016,"lon":139.777421},{"name":"あい保育園東神田","province":"東京都","city":"千代田区","address":"千代田区東神田2-6-5東神田ビル2・3階","lat":35.695814,"lon":139.780435},{"name":"神田保育園","province":"東京都","city":"千代田区","address":"千代田区神田淡路町2-109","lat":35.69685,"lon":139.767002},{"name":"神田淡路町保育園大きなおうち","province":"東京都","city":"千代田区","address":"千代田区神田淡路町2-12","lat":35.697805,"lon":139.76878},{"name":"西神田保育園","province":"東京都","city":"千代田区","address":"千代田区西神田2-6-2","lat":35.698918,"lon":139.754755},{"name":"ほっぺるランド西神田","province":"東京都","city":"千代田区","address":"千代田区西神田3-5-2千代田ファーストビル西館1階","lat":35.698227,"lon":139.752953},{"name":"グローバルキッズ飯田橋こども園","province":"東京都","city":"千代田区","address":"千代田区富士見2-14-37富士見EAST1・2階","lat":35.697163,"lon":139.743773},{"name":"ふじみこども園","province":"東京都","city":"千代田区","address":"千代田区富士見1-10-3","lat":35.697316,"lon":139.74622},{"name":"グローバルキッズ飯田橋園","province":"東京都","city":"千代田区","address":"千代田区富士見2-14-36富士見ウエスト2・3階","lat":35.697307,"lon":139.74364},{"name":"クレアナーサリー市ヶ谷","province":"東京都","city":"千代田区","address":"千代田区九段北4-2-29セブンアネックス1~3階","lat":35.692344,"lon":139.738182},{"name":"四番町保育園","province":"東京都","city":"千代田区","address":"千代田区四番町5-8","lat":35.688436,"lon":139.736499},{"name":"麹町保育園","province":"東京都","city":"千代田区","address":"千代田区一番町4","lat":35.688003,"lon":139.742601},{"name":"ポピンズナーサリースクール一番町","province":"東京都","city":"千代田区","address":"千代田区一番町10-8一番町ウエストビル","lat":35.686525,"lon":139.739749},{"name":"アスク二番町保育園","province":"東京都","city":"千代田区","address":"千代田区二番町2-1二番町TSビル","lat":35.686958,"lon":139.737971},{"name":"グローバルキッズ六番町園","province":"東京都","city":"千代田区","address":"千代田区六番町5-16","lat":35.686969,"lon":139.734669},{"name":"いずみこども園","province":"東京都","city":"千代田区","address":"千代田区神田和泉町1","lat":35.699016,"lon":139.777421},{"name":"あい保育園東神田","province":"東京都","city":"千代田区","address":"千代田区東神田2-6-5東神田ビル2・3階","lat":35.695814,"lon":139.780435},{"name":"神田保育園","province":"東京都","city":"千代田区","address":"千代田区神田淡路町2-109","lat":35.69685,"lon":139.767002},{"name":"神田淡路町保育園大きなおうち","province":"東京都","city":"千代田区","address":"千代田区神田淡路町2-12","lat":35.697805,"lon":139.76878},{"name":"西神田保育園","province":"東京都","city":"千代田区","address":"千代田区西神田2-6-2","lat":35.698918,"lon":139.754755},{"name":"ほっぺるランド西神田","province":"東京都","city":"千代田区","address":"千代田区西神田3-5-2千代田ファーストビル西館1階","lat":35.698227,"lon":139.752953},{"name":"グローバルキッズ飯田橋こども園","province":"東京都","city":"千代田区","address":"千代田区富士見2-14-37富士見EAST1・2階","lat":35.697163,"lon":139.743773},{"name":"ふじみこども園","province":"東京都","city":"千代田区","address":"千代田区富士見1-10-3","lat":35.697316,"lon":139.74622},{"name":"グローバルキッズ飯田橋園","province":"東京都","city":"千代田区","address":"千代田区富士見2-14-36富士見ウエスト2・3階","lat":35.697307,"lon":139.74364},{"name":"クレアナーサリー市ヶ谷","province":"東京都","city":"千代田区","address":"千代田区九段北4-2-29セブンアネックス1~3階","lat":35.692344,"lon":139.738182},{"name":"四番町保育園","province":"東京都","city":"千代田区","address":"千代田区四番町5-8","lat":35.688436,"lon":139.736499},{"name":"麹町保育園","province":"東京都","city":"千代田区","address":"千代田区一番町4","lat":35.688003,"lon":139.742601},{"name":"ポピンズナーサリースクール一番町","province":"東京都","city":"千代田区","address":"千代田区一番町10-8一番町ウエストビル","lat":35.686525,"lon":139.739749},{"name":"アスク二番町保育園","province":"東京都","city":"千代田区","address":"千代田区二番町2-1二番町TSビル","lat":35.686958,"lon":139.737971},{"name":"グローバルキッズ六番町園","province":"東京都","city":"千代田区","address":"千代田区六番町5-16","lat":35.686969,"lon":139.734669},{"name":"いずみこども園","province":"東京都","city":"千代田区","address":"千代田区神田和泉町1","lat":35.699016,"lon":139.777421},{"name":"あい保育園東神田","province":"東京都","city":"千代田区","address":"千代田区東神田2-6-5東神田ビル2・3階","lat":35.695814,"lon":139.780435},{"name":"神田保育園","province":"東京都","city":"千代田区","address":"千代田区神田淡路町2-109","lat":35.69685,"lon":139.767002},{"name":"神田淡路町保育園大きなおうち","province":"東京都","city":"千代田区","address":"千代田区神田淡路町2-12","lat":35.697805,"lon":139.76878},{"name":"西神田保育園","province":"東京都","city":"千代田区","address":"千代田区西神田2-6-2","lat":35.698918,"lon":139.754755},{"name":"ほっぺるランド西神田","province":"東京都","city":"千代田区","address":"千代田区西神田3-5-2千代田ファーストビル西館1階","lat":35.698227,"lon":139.752953},{"name":"グローバルキッズ飯田橋こども園","province":"東京都","city":"千代田区","address":"千代田区富士見2-14-37富士見EAST1・2階","lat":35.697163,"lon":139.743773},{"name":"ふじみこども園","province":"東京都","city":"千代田区","address":"千代田区富士見1-10-3","lat":35.697316,"lon":139.74622},{"name":"グローバルキッズ飯田橋園","province":"東京都","city":"千代田区","address":"千代田区富士見2-14-36富士見ウエスト2・3階","lat":35.697307,"lon":139.74364},{"name":"クレアナーサリー市ヶ谷","province":"東京都","city":"千代田区","address":"千代田区九段北4-2-29セブンアネックス1~3階","lat":35.692344,"lon":139.738182},{"name":"四番町保育園","province":"東京都","city":"千代田区","address":"千代田区四番町5-8","lat":35.688436,"lon":139.736499},{"name":"麹町保育園","province":"東京都","city":"千代田区","address":"千代田区一番町4","lat":35.688003,"lon":139.742601},{"name":"ポピンズナーサリースクール一番町","province":"東京都","city":"千代田区","address":"千代田区一番町10-8一番町ウエストビル","lat":35.686525,"lon":139.739749},{"name":"アスク二番町保育園","province":"東京都","city":"千代田区","address":"千代田区二番町2-1二番町TSビル","lat":35.686958,"lon":139.737971},{"name":"グローバルキッズ六番町園","province":"東京都","city":"千代田区","address":"千代田区六番町5-16","lat":35.686969,"lon":139.734669},{"name":"いずみこども園","province":"東京都","city":"千代田区","address":"千代田区神田和泉町1","lat":35.699016,"lon":139.777421},{"name":"あい保育園東神田","province":"東京都","city":"千代田区","address":"千代田区東神田2-6-5東神田ビル2・3階","lat":35.695814,"lon":139.780435},{"name":"神田保育園","province":"東京都","city":"千代田区","address":"千代田区神田淡路町2-109","lat":35.69685,"lon":139.767002},{"name":"神田淡路町保育園大きなおうち","province":"東京都","city":"千代田区","address":"千代田区神田淡路町2-12","lat":35.697805,"lon":139.76878},{"name":"西神田保育園","province":"東京都","city":"千代田区","address":"千代田区西神田2-6-2","lat":35.698918,"lon":139.754755},{"name":"ほっぺるランド西神田","province":"東京都","city":"千代田区","address":"千代田区西神田3-5-2千代田ファーストビル西館1階","lat":35.698227,"lon":139.752953},{"name":"グローバルキッズ飯田橋こども園","province":"東京都","city":"千代田区","address":"千代田区富士見2-14-37富士見EAST1・2階","lat":35.697163,"lon":139.743773},{"name":"ふじみこども園","province":"東京都","city":"千代田区","address":"千代田区富士見1-10-3","lat":35.697316,"lon":139.74622},{"name":"グローバルキッズ飯田橋園","province":"東京都","city":"千代田区","address":"千代田区富士見2-14-36富士見ウエスト2・3階","lat":35.697307,"lon":139.74364},{"name":"クレアナーサリー市ヶ谷","province":"東京都","city":"千代田区","address":"千代田区九段北4-2-29セブンアネックス1~3階","lat":35.692344,"lon":139.738182},{"name":"四番町保育園","province":"東京都","city":"千代田区","address":"千代田区四番町5-8","lat":35.688436,"lon":139.736499},{"name":"麹町保育園","province":"東京都","city":"千代田区","address":"千代田区一番町4","lat":35.688003,"lon":139.742601},{"name":"ポピンズナーサリースクール一番町","province":"東京都","city":"千代田区","address":"千代田区一番町10-8一番町ウエストビル","lat":35.686525,"lon":139.739749},{"name":"アスク二番町保育園","province":"東京都","city":"千代田区","address":"千代田区二番町2-1二番町TSビル","lat":35.686958,"lon":139.737971},{"name":"グローバルキッズ六番町園","province":"東京都","city":"千代田区","address":"千代田区六番町5-16","lat":35.686969,"lon":139.734669},{"name":"いずみこども園","province":"東京都","city":"千代田区","address":"千代田区神田和泉町1","lat":35.699016,"lon":139.777421},{"name":"あい保育園東神田","province":"東京都","city":"千代田区","address":"千代田区東神田2-6-5東神田ビル2・3階","lat":35.695814,"lon":139.780435},{"name":"神田保育園","province":"東京都","city":"千代田区","address":"千代田区神田淡路町2-109","lat":35.69685,"lon":139.767002},{"name":"神田淡路町保育園大きなおうち","province":"東京都","city":"千代田区","address":"千代田区神田淡路町2-12","lat":35.697805,"lon":139.76878},{"name":"西神田保育園","province":"東京都","city":"千代田区","address":"千代田区西神田2-6-2","lat":35.698918,"lon":139.754755},{"name":"ほっぺるランド西神田","province":"東京都","city":"千代田区","address":"千代田区西神田3-5-2千代田ファーストビル西館1階","lat":35.698227,"lon":139.752953},{"name":"グローバルキッズ飯田橋こども園","province":"東京都","city":"千代田区","address":"千代田区富士見2-14-37富士見EAST1・2階","lat":35.697163,"lon":139.743773},{"name":"ふじみこども園","province":"東京都","city":"千代田区","address":"千代田区富士見1-10-3","lat":35.697316,"lon":139.74622},{"name":"グローバルキッズ飯田橋園","province":"東京都","city":"千代田区","address":"千代田区富士見2-14-36富士見ウエスト2・3階","lat":35.697307,"lon":139.74364},{"name":"クレアナーサリー市ヶ谷","province":"東京都","city":"千代田区","address":"千代田区九段北4-2-29セブンアネックス1~3階","lat":35.692344,"lon":139.738182},{"name":"四番町保育園","province":"東京都","city":"千代田区","address":"千代田区四番町5-8","lat":35.688436,"lon":139.736499},{"name":"麹町保育園","province":"東京都","city":"千代田区","address":"千代田区一番町4","lat":35.688003,"lon":139.742601},{"name":"ポピンズナーサリースクール一番町","province":"東京都","city":"千代田区","address":"千代田区一番町10-8一番町ウエストビル","lat":35.686525,"lon":139.739749},{"name":"アスク二番町保育園","province":"東京都","city":"千代田区","address":"千代田区二番町2-1二番町TSビル","lat":35.686958,"lon":139.737971},{"name":"グローバルキッズ六番町園","province":"東京都","city":"千代田区","address":"千代田区六番町5-16","lat":35.686969,"lon":139.734669},{"name":"いずみこども園","province":"東京都","city":"千代田区","address":"千代田区神田和泉町1","lat":35.699016,"lon":139.777421},{"name":"あい保育園東神田","province":"東京都","city":"千代田区","address":"千代田区東神田2-6-5東神田ビル2・3階","lat":35.695814,"lon":139.780435},{"name":"神田保育園","province":"東京都","city":"千代田区","address":"千代田区神田淡路町2-109","lat":35.69685,"lon":139.767002},{"name":"神田淡路町保育園大きなおうち","province":"東京都","city":"千代田区","address":"千代田区神田淡路町2-12","lat":35.697805,"lon":139.76878},{"name":"西神田保育園","province":"東京都","city":"千代田区","address":"千代田区西神田2-6-2","lat":35.698918,"lon":139.754755},{"name":"ほっぺるランド西神田","province":"東京都","city":"千代田区","address":"千代田区西神田3-5-2千代田ファーストビル西館1階","lat":35.698227,"lon":139.752953},{"name":"グローバルキッズ飯田橋こども園","province":"東京都","city":"千代田区","address":"千代田区富士見2-14-37富士見EAST1・2階","lat":35.697163,"lon":139.743773},{"name":"ふじみこども園","province":"東京都","city":"千代田区","address":"千代田区富士見1-10-3","lat":35.697316,"lon":139.74622},{"name":"グローバルキッズ飯田橋園","province":"東京都","city":"千代田区","address":"千代田区富士見2-14-36富士見ウエスト2・3階","lat":35.697307,"lon":139.74364},{"name":"クレアナーサリー市ヶ谷","province":"東京都","city":"千代田区","address":"千代田区九段北4-2-29セブンアネックス1~3階","lat":35.692344,"lon":139.738182},{"name":"四番町保育園","province":"東京都","city":"千代田区","address":"千代田区四番町5-8","lat":35.688436,"lon":139.736499},{"name":"麹町保育園","province":"東京都","city":"千代田区","address":"千代田区一番町4","lat":35.688003,"lon":139.742601},{"name":"ポピンズナーサリースクール一番町","province":"東京都","city":"千代田区","address":"千代田区一番町10-8一番町ウエストビル","lat":35.686525,"lon":139.739749},{"name":"アスク二番町保育園","province":"東京都","city":"千代田区","address":"千代田区二番町2-1二番町TSビル","lat":35.686958,"lon":139.737971},{"name":"グローバルキッズ六番町園","province":"東京都","city":"千代田区","address":"千代田区六番町5-16","lat":35.686969,"lon":139.734669},{"name":"いずみこども園","province":"東京都","city":"千代田区","address":"千代田区神田和泉町1","lat":35.699016,"lon":139.777421},{"name":"あい保育園東神田","province":"東京都","city":"千代田区","address":"千代田区東神田2-6-5東神田ビル2・3階","lat":35.695814,"lon":139.780435},{"name":"神田保育園","province":"東京都","city":"千代田区","address":"千代田区神田淡路町2-109","lat":35.69685,"lon":139.767002},{"name":"神田淡路町保育園大きなおうち","province":"東京都","city":"千代田区","address":"千代田区神田淡路町2-12","lat":35.697805,"lon":139.76878},{"name":"西神田保育園","province":"東京都","city":"千代田区","address":"千代田区西神田2-6-2","lat":35.698918,"lon":139.754755},{"name":"ほっぺるランド西神田","province":"東京都","city":"千代田区","address":"千代田区西神田3-5-2千代田ファーストビル西館1階","lat":35.698227,"lon":139.752953},{"name":"グローバルキッズ飯田橋こども園","province":"東京都","city":"千代田区","address":"千代田区富士見2-14-37富士見EAST1・2階","lat":35.697163,"lon":139.743773},{"name":"ふじみこども園","province":"東京都","city":"千代田区","address":"千代田区富士見1-10-3","lat":35.697316,"lon":139.74622},{"name":"グローバルキッズ飯田橋園","province":"東京都","city":"千代田区","address":"千代田区富士見2-14-36富士見ウエスト2・3階","lat":35.697307,"lon":139.74364},{"name":"クレアナーサリー市ヶ谷","province":"東京都","city":"千代田区","address":"千代田区九段北4-2-29セブンアネックス1~3階","lat":35.692344,"lon":139.738182},{"name":"四番町保育園","province":"東京都","city":"千代田区","address":"千代田区四番町5-8","lat":35.688436,"lon":139.736499},{"name":"麹町保育園","province":"東京都","city":"千代田区","address":"千代田区一番町4","lat":35.688003,"lon":139.742601},{"name":"ポピンズナーサリースクール一番町","province":"東京都","city":"千代田区","address":"千代田区一番町10-8一番町ウエストビル","lat":35.686525,"lon":139.739749},{"name":"アスク二番町保育園","province":"東京都","city":"千代田区","address":"千代田区二番町2-1二番町TSビル","lat":35.686958,"lon":139.737971},{"name":"グローバルキッズ六番町園","province":"東京都","city":"千代田区","address":"千代田区六番町5-16","lat":35.686969,"lon":139.734669},{"name":"いずみこども園","province":"東京都","city":"千代田区","address":"千代田区神田和泉町1","lat":35.699016,"lon":139.777421},{"name":"あい保育園東神田","province":"東京都","city":"千代田区","address":"千代田区東神田2-6-5東神田ビル2・3階","lat":35.695814,"lon":139.780435},{"name":"神田保育園","province":"東京都","city":"千代田区","address":"千代田区神田淡路町2-109","lat":35.69685,"lon":139.767002},{"name":"神田淡路町保育園大きなおうち","province":"東京都","city":"千代田区","address":"千代田区神田淡路町2-12","lat":35.697805,"lon":139.76878},{"name":"西神田保育園","province":"東京都","city":"千代田区","address":"千代田区西神田2-6-2","lat":35.698918,"lon":139.754755},{"name":"ほっぺるランド西神田","province":"東京都","city":"千代田区","address":"千代田区西神田3-5-2千代田ファーストビル西館1階","lat":35.698227,"lon":139.752953},{"name":"グローバルキッズ飯田橋こども園","province":"東京都","city":"千代田区","address":"千代田区富士見2-14-37富士見EAST1・2階","lat":35.697163,"lon":139.743773},{"name":"ふじみこども園","province":"東京都","city":"千代田区","address":"千代田区富士見1-10-3","lat":35.697316,"lon":139.74622},{"name":"グローバルキッズ飯田橋園","province":"東京都","city":"千代田区","address":"千代田区富士見2-14-36富士見ウエスト2・3階","lat":35.697307,"lon":139.74364},{"name":"クレアナーサリー市ヶ谷","province":"東京都","city":"千代田区","address":"千代田区九段北4-2-29セブンアネックス1~3階","lat":35.692344,"lon":139.738182},{"name":"四番町保育園","province":"東京都","city":"千代田区","address":"千代田区四番町5-8","lat":35.688436,"lon":139.736499},{"name":"麹町保育園","province":"東京都","city":"千代田区","address":"千代田区一番町4","lat":35.688003,"lon":139.742601},{"name":"ポピンズナーサリースクール一番町","province":"東京都","city":"千代田区","address":"千代田区一番町10-8一番町ウエストビル","lat":35.686525,"lon":139.739749},{"name":"アスク二番町保育園","province":"東京都","city":"千代田区","address":"千代田区二番町2-1二番町TSビル","lat":35.686958,"lon":139.737971},{"name":"グローバルキッズ六番町園","province":"東京都","city":"千代田区","address":"千代田区六番町5-16","lat":35.686969,"lon":139.734669},{"name":"いずみこども園","province":"東京都","city":"千代田区","address":"千代田区神田和泉町1","lat":35.699016,"lon":139.777421},{"name":"あい保育園東神田","province":"東京都","city":"千代田区","address":"千代田区東神田2-6-5東神田ビル2・3階","lat":35.695814,"lon":139.780435},{"name":"神田保育園","province":"東京都","city":"千代田区","address":"千代田区神田淡路町2-109","lat":35.69685,"lon":139.767002},{"name":"神田淡路町保育園大きなおうち","province":"東京都","city":"千代田区","address":"千代田区神田淡路町2-12","lat":35.697805,"lon":139.76878},{"name":"西神田保育園","province":"東京都","city":"千代田区","address":"千代田区西神田2-6-2","lat":35.698918,"lon":139.754755},{"name":"ほっぺるランド西神田","province":"東京都","city":"千代田区","address":"千代田区西神田3-5-2千代田ファーストビル西館1階","lat":35.698227,"lon":139.752953},{"name":"グローバルキッズ飯田橋こども園","province":"東京都","city":"千代田区","address":"千代田区富士見2-14-37富士見EAST1・2階","lat":35.697163,"lon":139.743773},{"name":"ふじみこども園","province":"東京都","city":"千代田区","address":"千代田区富士見1-10-3","lat":35.697316,"lon":139.74622},{"name":"グローバルキッズ飯田橋園","province":"東京都","city":"千代田区","address":"千代田区富士見2-14-36富士見ウエスト2・3階","lat":35.697307,"lon":139.74364},{"name":"クレアナーサリー市ヶ谷","province":"東京都","city":"千代田区","address":"千代田区九段北4-2-29セブンアネックス1~3階","lat":35.692344,"lon":139.738182},{"name":"四番町保育園","province":"東京都","city":"千代田区","address":"千代田区四番町5-8","lat":35.688436,"lon":139.736499},{"name":"麹町保育園","province":"東京都","city":"千代田区","address":"千代田区一番町4","lat":35.688003,"lon":139.742601},{"name":"ポピンズナーサリースクール一番町","province":"東京都","city":"千代田区","address":"千代田区一番町10-8一番町ウエストビル","lat":35.686525,"lon":139.739749},{"name":"アスク二番町保育園","province":"東京都","city":"千代田区","address":"千代田区二番町2-1二番町TSビル","lat":35.686958,"lon":139.737971},{"name":"グローバルキッズ六番町園","province":"東京都","city":"千代田区","address":"千代田区六番町5-16","lat":35.686969,"lon":139.734669},{"name":"いずみこども園","province":"東京都","city":"千代田区","address":"千代田区神田和泉町1","lat":35.699016,"lon":139.777421},{"name":"あい保育園東神田","province":"東京都","city":"千代田区","address":"千代田区東神田2-6-5東神田ビル2・3階","lat":35.695814,"lon":139.780435},{"name":"神田保育園","province":"東京都","city":"千代田区","address":"千代田区神田淡路町2-109","lat":35.69685,"lon":139.767002},{"name":"神田淡路町保育園大きなおうち","province":"東京都","city":"千代田区","address":"千代田区神田淡路町2-12","lat":35.697805,"lon":139.76878},{"name":"西神田保育園","province":"東京都","city":"千代田区","address":"千代田区西神田2-6-2","lat":35.698918,"lon":139.754755},{"name":"ほっぺるランド西神田","province":"東京都","city":"千代田区","address":"千代田区西神田3-5-2千代田ファーストビル西館1階","lat":35.698227,"lon":139.752953},{"name":"グローバルキッズ飯田橋こども園","province":"東京都","city":"千代田区","address":"千代田区富士見2-14-37富士見EAST1・2階","lat":35.697163,"lon":139.743773},{"name":"ふじみこども園","province":"東京都","city":"千代田区","address":"千代田区富士見1-10-3","lat":35.697316,"lon":139.74622},{"name":"グローバルキッズ飯田橋園","province":"東京都","city":"千代田区","address":"千代田区富士見2-14-36富士見ウエスト2・3階","lat":35.697307,"lon":139.74364},{"name":"クレアナーサリー市ヶ谷","province":"東京都","city":"千代田区","address":"千代田区九段北4-2-29セブンアネックス1~3階","lat":35.692344,"lon":139.738182},{"name":"四番町保育園","province":"東京都","city":"千代田区","address":"千代田区四番町5-8","lat":35.688436,"lon":139.736499},{"name":"麹町保育園","province":"東京都","city":"千代田区","address":"千代田区一番町4","lat":35.688003,"lon":139.742601},{"name":"ポピンズナーサリースクール一番町","province":"東京都","city":"千代田区","address":"千代田区一番町10-8一番町ウエストビル","lat":35.686525,"lon":139.739749},{"name":"アスク二番町保育園","province":"東京都","city":"千代田区","address":"千代田区二番町2-1二番町TSビル","lat":35.686958,"lon":139.737971},{"name":"グローバルキッズ六番町園","province":"東京都","city":"千代田区","address":"千代田区六番町5-16","lat":35.686969,"lon":139.734669},{"name":"いずみこども園","province":"東京都","city":"千代田区","address":"千代田区神田和泉町1","lat":35.699016,"lon":139.777421},{"name":"あい保育園東神田","province":"東京都","city":"千代田区","address":"千代田区東神田2-6-5東神田ビル2・3階","lat":35.695814,"lon":139.780435},{"name":"神田保育園","province":"東京都","city":"千代田区","address":"千代田区神田淡路町2-109","lat":35.69685,"lon":139.767002},{"name":"神田淡路町保育園大きなおうち","province":"東京都","city":"千代田区","address":"千代田区神田淡路町2-12","lat":35.697805,"lon":139.76878},{"name":"西神田保育園","province":"東京都","city":"千代田区","address":"千代田区西神田2-6-2","lat":35.698918,"lon":139.754755},{"name":"ほっぺるランド西神田","province":"東京都","city":"千代田区","address":"千代田区西神田3-5-2千代田ファーストビル西館1階","lat":35.698227,"lon":139.752953},{"name":"グローバルキッズ飯田橋こども園","province":"東京都","city":"千代田区","address":"千代田区富士見2-14-37富士見EAST1・2階","lat":35.697163,"lon":139.743773},{"name":"ふじみこども園","province":"東京都","city":"千代田区","address":"千代田区富士見1-10-3","lat":35.697316,"lon":139.74622},{"name":"グローバルキッズ飯田橋園","province":"東京都","city":"千代田区","address":"千代田区富士見2-14-36富士見ウエスト2・3階","lat":35.697307,"lon":139.74364},{"name":"クレアナーサリー市ヶ谷","province":"東京都","city":"千代田区","address":"千代田区九段北4-2-29セブンアネックス1~3階","lat":35.692344,"lon":139.738182},{"name":"四番町保育園","province":"東京都","city":"千代田区","address":"千代田区四番町5-8","lat":35.688436,"lon":139.736499},{"name":"麹町保育園","province":"東京都","city":"千代田区","address":"千代田区一番町4","lat":35.688003,"lon":139.742601},{"name":"ポピンズナーサリースクール一番町","province":"東京都","city":"千代田区","address":"千代田区一番町10-8一番町ウエストビル","lat":35.686525,"lon":139.739749},{"name":"アスク二番町保育園","province":"東京都","city":"千代田区","address":"千代田区二番町2-1二番町TSビル","lat":35.686958,"lon":139.737971},{"name":"グローバルキッズ六番町園","province":"東京都","city":"千代田区","address":"千代田区六番町5-16","lat":35.686969,"lon":139.734669},{"name":"いずみこども園","province":"東京都","city":"千代田区","address":"千代田区神田和泉町1","lat":35.699016,"lon":139.777421},{"name":"あい保育園東神田","province":"東京都","city":"千代田区","address":"千代田区東神田2-6-5東神田ビル2・3階","lat":35.695814,"lon":139.780435},{"name":"神田保育園","province":"東京都","city":"千代田区","address":"千代田区神田淡路町2-109","lat":35.69685,"lon":139.767002},{"name":"神田淡路町保育園大きなおうち","province":"東京都","city":"千代田区","address":"千代田区神田淡路町2-12","lat":35.697805,"lon":139.76878},{"name":"西神田保育園","province":"東京都","city":"千代田区","address":"千代田区西神田2-6-2","lat":35.698918,"lon":139.754755},{"name":"ほっぺるランド西神田","province":"東京都","city":"千代田区","address":"千代田区西神田3-5-2千代田ファーストビル西館1階","lat":35.698227,"lon":139.752953},{"name":"グローバルキッズ飯田橋こども園","province":"東京都","city":"千代田区","address":"千代田区富士見2-14-37富士見EAST1・2階","lat":35.697163,"lon":139.743773},{"name":"ふじみこども園","province":"東京都","city":"千代田区","address":"千代田区富士見1-10-3","lat":35.697316,"lon":139.74622},{"name":"グローバルキッズ飯田橋園","province":"東京都","city":"千代田区","address":"千代田区富士見2-14-36富士見ウエスト2・3階","lat":35.697307,"lon":139.74364},{"name":"クレアナーサリー市ヶ谷","province":"東京都","city":"千代田区","address":"千代田区九段北4-2-29セブンアネックス1~3階","lat":35.692344,"lon":139.738182},{"name":"四番町保育園","province":"東京都","city":"千代田区","address":"千代田区四番町5-8","lat":35.688436,"lon":139.736499},{"name":"麹町保育園","province":"東京都","city":"千代田区","address":"千代田区一番町4","lat":35.688003,"lon":139.742601},{"name":"ポピンズナーサリースクール一番町","province":"東京都","city":"千代田区","address":"千代田区一番町10-8一番町ウエストビル","lat":35.686525,"lon":139.739749},{"name":"アスク二番町保育園","province":"東京都","city":"千代田区","address":"千代田区二番町2-1二番町TSビル","lat":35.686958,"lon":139.737971},{"name":"グローバルキッズ六番町園","province":"東京都","city":"千代田区","address":"千代田区六番町5-16","lat":35.686969,"lon":139.734669},{"name":"いずみこども園","province":"東京都","city":"千代田区","address":"千代田区神田和泉町1","lat":35.699016,"lon":139.777421},{"name":"あい保育園東神田","province":"東京都","city":"千代田区","address":"千代田区東神田2-6-5東神田ビル2・3階","lat":35.695814,"lon":139.780435},{"name":"神田保育園","province":"東京都","city":"千代田区","address":"千代田区神田淡路町2-109","lat":35.69685,"lon":139.767002},{"name":"神田淡路町保育園大きなおうち","province":"東京都","city":"千代田区","address":"千代田区神田淡路町2-12","lat":35.697805,"lon":139.76878},{"name":"西神田保育園","province":"東京都","city":"千代田区","address":"千代田区西神田2-6-2","lat":35.698918,"lon":139.754755},{"name":"ほっぺるランド西神田","province":"東京都","city":"千代田区","address":"千代田区西神田3-5-2千代田ファーストビル西館1階","lat":35.698227,"lon":139.752953},{"name":"グローバルキッズ飯田橋こども園","province":"東京都","city":"千代田区","address":"千代田区富士見2-14-37富士見EAST1・2階","lat":35.697163,"lon":139.743773},{"name":"ふじみこども園","province":"東京都","city":"千代田区","address":"千代田区富士見1-10-3","lat":35.697316,"lon":139.74622},{"name":"グローバルキッズ飯田橋園","province":"東京都","city":"千代田区","address":"千代田区富士見2-14-36富士見ウエスト2・3階","lat":35.697307,"lon":139.74364},{"name":"クレアナーサリー市ヶ谷","province":"東京都","city":"千代田区","address":"千代田区九段北4-2-29セブンアネックス1~3階","lat":35.692344,"lon":139.738182},{"name":"四番町保育園","province":"東京都","city":"千代田区","address":"千代田区四番町5-8","lat":35.688436,"lon":139.736499},{"name":"麹町保育園","province":"東京都","city":"千代田区","address":"千代田区一番町4","lat":35.688003,"lon":139.742601},{"name":"ポピンズナーサリースクール一番町","province":"東京都","city":"千代田区","address":"千代田区一番町10-8一番町ウエストビル","lat":35.686525,"lon":139.739749},{"name":"アスク二番町保育園","province":"東京都","city":"千代田区","address":"千代田区二番町2-1二番町TSビル","lat":35.686958,"lon":139.737971},{"name":"グローバルキッズ六番町園","province":"東京都","city":"千代田区","address":"千代田区六番町5-16","lat":35.686969,"lon":139.734669},{"name":"いずみこども園","province":"東京都","city":"千代田区","address":"千代田区神田和泉町1","lat":35.699016,"lon":139.777421},{"name":"あい保育園東神田","province":"東京都","city":"千代田区","address":"千代田区東神田2-6-5東神田ビル2・3階","lat":35.695814,"lon":139.780435},{"name":"神田保育園","province":"東京都","city":"千代田区","address":"千代田区神田淡路町2-109","lat":35.69685,"lon":139.767002},{"name":"神田淡路町保育園大きなおうち","province":"東京都","city":"千代田区","address":"千代田区神田淡路町2-12","lat":35.697805,"lon":139.76878},{"name":"西神田保育園","province":"東京都","city":"千代田区","address":"千代田区西神田2-6-2","lat":35.698918,"lon":139.754755},{"name":"ほっぺるランド西神田","province":"東京都","city":"千代田区","address":"千代田区西神田3-5-2千代田ファーストビル西館1階","lat":35.698227,"lon":139.752953},{"name":"グローバルキッズ飯田橋こども園","province":"東京都","city":"千代田区","address":"千代田区富士見2-14-37富士見EAST1・2階","lat":35.697163,"lon":139.743773},{"name":"ふじみこども園","province":"東京都","city":"千代田区","address":"千代田区富士見1-10-3","lat":35.697316,"lon":139.74622},{"name":"グローバルキッズ飯田橋園","province":"東京都","city":"千代田区","address":"千代田区富士見2-14-36富士見ウエスト2・3階","lat":35.697307,"lon":139.74364},{"name":"クレアナーサリー市ヶ谷","province":"東京都","city":"千代田区","address":"千代田区九段北4-2-29セブンアネックス1~3階","lat":35.692344,"lon":139.738182},{"name":"四番町保育園","province":"東京都","city":"千代田区","address":"千代田区四番町5-8","lat":35.688436,"lon":139.736499},{"name":"麹町保育園","province":"東京都","city":"千代田区","address":"千代田区一番町4","lat":35.688003,"lon":139.742601},{"name":"ポピンズナーサリースクール一番町","province":"東京都","city":"千代田区","address":"千代田区一番町10-8一番町ウエストビル","lat":35.686525,"lon":139.739749},{"name":"アスク二番町保育園","province":"東京都","city":"千代田区","address":"千代田区二番町2-1二番町TSビル","lat":35.686958,"lon":139.737971},{"name":"グローバルキッズ六番町園","province":"東京都","city":"千代田区","address":"千代田区六番町5-16","lat":35.686969,"lon":139.734669},{"name":"いずみこども園","province":"東京都","city":"千代田区","address":"千代田区神田和泉町1","lat":35.699016,"lon":139.777421},{"name":"あい保育園東神田","province":"東京都","city":"千代田区","address":"千代田区東神田2-6-5東神田ビル2・3階","lat":35.695814,"lon":139.780435},{"name":"神田保育園","province":"東京都","city":"千代田区","address":"千代田区神田淡路町2-109","lat":35.69685,"lon":139.767002},{"name":"神田淡路町保育園大きなおうち","province":"東京都","city":"千代田区","address":"千代田区神田淡路町2-12","lat":35.697805,"lon":139.76878},{"name":"西神田保育園","province":"東京都","city":"千代田区","address":"千代田区西神田2-6-2","lat":35.698918,"lon":139.754755},{"name":"ほっぺるランド西神田","province":"東京都","city":"千代田区","address":"千代田区西神田3-5-2千代田ファーストビル西館1階","lat":35.698227,"lon":139.752953},{"name":"グローバルキッズ飯田橋こども園","province":"東京都","city":"千代田区","address":"千代田区富士見2-14-37富士見EAST1・2階","lat":35.697163,"lon":139.743773},{"name":"ふじみこども園","province":"東京都","city":"千代田区","address":"千代田区富士見1-10-3","lat":35.697316,"lon":139.74622},{"name":"グローバルキッズ飯田橋園","province":"東京都","city":"千代田区","address":"千代田区富士見2-14-36富士見ウエスト2・3階","lat":35.697307,"lon":139.74364},{"name":"クレアナーサリー市ヶ谷","province":"東京都","city":"千代田区","address":"千代田区九段北4-2-29セブンアネックス1~3階","lat":35.692344,"lon":139.738182},{"name":"四番町保育園","province":"東京都","city":"千代田区","address":"千代田区四番町5-8","lat":35.688436,"lon":139.736499},{"name":"麹町保育園","province":"東京都","city":"千代田区","address":"千代田区一番町4","lat":35.688003,"lon":139.742601},{"name":"ポピンズナーサリースクール一番町","province":"東京都","city":"千代田区","address":"千代田区一番町10-8一番町ウエストビル","lat":35.686525,"lon":139.739749},{"name":"アスク二番町保育園","province":"東京都","city":"千代田区","address":"千代田区二番町2-1二番町TSビル","lat":35.686958,"lon":139.737971},{"name":"グローバルキッズ六番町園","province":"東京都","city":"千代田区","address":"千代田区六番町5-16","lat":35.686969,"lon":139.734669},{"name":"いずみこども園","province":"東京都","city":"千代田区","address":"千代田区神田和泉町1","lat":35.699016,"lon":139.777421},{"name":"あい保育園東神田","province":"東京都","city":"千代田区","address":"千代田区東神田2-6-5東神田ビル2・3階","lat":35.695814,"lon":139.780435},{"name":"神田保育園","province":"東京都","city":"千代田区","address":"千代田区神田淡路町2-109","lat":35.69685,"lon":139.767002},{"name":"神田淡路町保育園大きなおうち","province":"東京都","city":"千代田区","address":"千代田区神田淡路町2-12","lat":35.697805,"lon":139.76878},{"name":"西神田保育園","province":"東京都","city":"千代田区","address":"千代田区西神田2-6-2","lat":35.698918,"lon":139.754755},{"name":"ほっぺるランド西神田","province":"東京都","city":"千代田区","address":"千代田区西神田3-5-2千代田ファーストビル西館1階","lat":35.698227,"lon":139.752953},{"name":"グローバルキッズ飯田橋こども園","province":"東京都","city":"千代田区","address":"千代田区富士見2-14-37富士見EAST1・2階","lat":35.697163,"lon":139.743773},{"name":"ふじみこども園","province":"東京都","city":"千代田区","address":"千代田区富士見1-10-3","lat":35.697316,"lon":139.74622},{"name":"グローバルキッズ飯田橋園","province":"東京都","city":"千代田区","address":"千代田区富士見2-14-36富士見ウエスト2・3階","lat":35.697307,"lon":139.74364},{"name":"クレアナーサリー市ヶ谷","province":"東京都","city":"千代田区","address":"千代田区九段北4-2-29セブンアネックス1~3階","lat":35.692344,"lon":139.738182},{"name":"四番町保育園","province":"東京都","city":"千代田区","address":"千代田区四番町5-8","lat":35.688436,"lon":139.736499},{"name":"麹町保育園","province":"東京都","city":"千代田区","address":"千代田区一番町4","lat":35.688003,"lon":139.742601},{"name":"ポピンズナーサリースクール一番町","province":"東京都","city":"千代田区","address":"千代田区一番町10-8一番町ウエストビル","lat":35.686525,"lon":139.739749},{"name":"アスク二番町保育園","province":"東京都","city":"千代田区","address":"千代田区二番町2-1二番町TSビル","lat":35.686958,"lon":139.737971},{"name":"グローバルキッズ六番町園","province":"東京都","city":"千代田区","address":"千代田区六番町5-16","lat":35.686969,"lon":139.734669},{"name":"いずみこども園","province":"東京都","city":"千代田区","address":"千代田区神田和泉町1","lat":35.699016,"lon":139.777421},{"name":"あい保育園東神田","province":"東京都","city":"千代田区","address":"千代田区東神田2-6-5東神田ビル2・3階","lat":35.695814,"lon":139.780435},{"name":"神田保育園","province":"東京都","city":"千代田区","address":"千代田区神田淡路町2-109","lat":35.69685,"lon":139.767002},{"name":"神田淡路町保育園大きなおうち","province":"東京都","city":"千代田区","address":"千代田区神田淡路町2-12","lat":35.697805,"lon":139.76878},{"name":"西神田保育園","province":"東京都","city":"千代田区","address":"千代田区西神田2-6-2","lat":35.698918,"lon":139.754755},{"name":"ほっぺるランド西神田","province":"東京都","city":"千代田区","address":"千代田区西神田3-5-2千代田ファーストビル西館1階","lat":35.698227,"lon":139.752953},{"name":"グローバルキッズ飯田橋こども園","province":"東京都","city":"千代田区","address":"千代田区富士見2-14-37富士見EAST1・2階","lat":35.697163,"lon":139.743773},{"name":"ふじみこども園","province":"東京都","city":"千代田区","address":"千代田区富士見1-10-3","lat":35.697316,"lon":139.74622},{"name":"グローバルキッズ飯田橋園","province":"東京都","city":"千代田区","address":"千代田区富士見2-14-36富士見ウエスト2・3階","lat":35.697307,"lon":139.74364},{"name":"クレアナーサリー市ヶ谷","province":"東京都","city":"千代田区","address":"千代田区九段北4-2-29セブンアネックス1~3階","lat":35.692344,"lon":139.738182},{"name":"四番町保育園","province":"東京都","city":"千代田区","address":"千代田区四番町5-8","lat":35.688436,"lon":139.736499},{"name":"麹町保育園","province":"東京都","city":"千代田区","address":"千代田区一番町4","lat":35.688003,"lon":139.742601},{"name":"ポピンズナーサリースクール一番町","province":"東京都","city":"千代田区","address":"千代田区一番町10-8一番町ウエストビル","lat":35.686525,"lon":139.739749},{"name":"アスク二番町保育園","province":"東京都","city":"千代田区","address":"千代田区二番町2-1二番町TSビル","lat":35.686958,"lon":139.737971},{"name":"グローバルキッズ六番町園","province":"東京都","city":"千代田区","address":"千代田区六番町5-16","lat":35.686969,"lon":139.734669},{"name":"いずみこども園","province":"東京都","city":"千代田区","address":"千代田区神田和泉町1","lat":35.699016,"lon":139.777421},{"name":"あい保育園東神田","province":"東京都","city":"千代田区","address":"千代田区東神田2-6-5東神田ビル2・3階","lat":35.695814,"lon":139.780435},{"name":"神田保育園","province":"東京都","city":"千代田区","address":"千代田区神田淡路町2-109","lat":35.69685,"lon":139.767002},{"name":"神田淡路町保育園大きなおうち","province":"東京都","city":"千代田区","address":"千代田区神田淡路町2-12","lat":35.697805,"lon":139.76878},{"name":"西神田保育園","province":"東京都","city":"千代田区","address":"千代田区西神田2-6-2","lat":35.698918,"lon":139.754755},{"name":"ほっぺるランド西神田","province":"東京都","city":"千代田区","address":"千代田区西神田3-5-2千代田ファーストビル西館1階","lat":35.698227,"lon":139.752953},{"name":"グローバルキッズ飯田橋こども園","province":"東京都","city":"千代田区","address":"千代田区富士見2-14-37富士見EAST1・2階","lat":35.697163,"lon":139.743773},{"name":"ふじみこども園","province":"東京都","city":"千代田区","address":"千代田区富士見1-10-3","lat":35.697316,"lon":139.74622},{"name":"グローバルキッズ飯田橋園","province":"東京都","city":"千代田区","address":"千代田区富士見2-14-36富士見ウエスト2・3階","lat":35.697307,"lon":139.74364},{"name":"クレアナーサリー市ヶ谷","province":"東京都","city":"千代田区","address":"千代田区九段北4-2-29セブンアネックス1~3階","lat":35.692344,"lon":139.738182},{"name":"四番町保育園","province":"東京都","city":"千代田区","address":"千代田区四番町5-8","lat":35.688436,"lon":139.736499},{"name":"麹町保育園","province":"東京都","city":"千代田区","address":"千代田区一番町4","lat":35.688003,"lon":139.742601},{"name":"ポピンズナーサリースクール一番町","province":"東京都","city":"千代田区","address":"千代田区一番町10-8一番町ウエストビル","lat":35.686525,"lon":139.739749},{"name":"アスク二番町保育園","province":"東京都","city":"千代田区","address":"千代田区二番町2-1二番町TSビル","lat":35.686958,"lon":139.737971},{"name":"グローバルキッズ六番町園","province":"東京都","city":"千代田区","address":"千代田区六番町5-16","lat":35.686969,"lon":139.734669},{"name":"いずみこども園","province":"東京都","city":"千代田区","address":"千代田区神田和泉町1","lat":35.699016,"lon":139.777421},{"name":"あい保育園東神田","province":"東京都","city":"千代田区","address":"千代田区東神田2-6-5東神田ビル2・3階","lat":35.695814,"lon":139.780435},{"name":"神田保育園","province":"東京都","city":"千代田区","address":"千代田区神田淡路町2-109","lat":35.69685,"lon":139.767002},{"name":"神田淡路町保育園大きなおうち","province":"東京都","city":"千代田区","address":"千代田区神田淡路町2-12","lat":35.697805,"lon":139.76878},{"name":"西神田保育園","province":"東京都","city":"千代田区","address":"千代田区西神田2-6-2","lat":35.698918,"lon":139.754755},{"name":"ほっぺるランド西神田","province":"東京都","city":"千代田区","address":"千代田区西神田3-5-2千代田ファーストビル西館1階","lat":35.698227,"lon":139.752953},{"name":"グローバルキッズ飯田橋こども園","province":"東京都","city":"千代田区","address":"千代田区富士見2-14-37富士見EAST1・2階","lat":35.697163,"lon":139.743773},{"name":"ふじみこども園","province":"東京都","city":"千代田区","address":"千代田区富士見1-10-3","lat":35.697316,"lon":139.74622},{"name":"グローバルキッズ飯田橋園","province":"東京都","city":"千代田区","address":"千代田区富士見2-14-36富士見ウエスト2・3階","lat":35.697307,"lon":139.74364},{"name":"クレアナーサリー市ヶ谷","province":"東京都","city":"千代田区","address":"千代田区九段北4-2-29セブンアネックス1~3階","lat":35.692344,"lon":139.738182},{"name":"四番町保育園","province":"東京都","city":"千代田区","address":"千代田区四番町5-8","lat":35.688436,"lon":139.736499},{"name":"麹町保育園","province":"東京都","city":"千代田区","address":"千代田区一番町4","lat":35.688003,"lon":139.742601},{"name":"ポピンズナーサリースクール一番町","province":"東京都","city":"千代田区","address":"千代田区一番町10-8一番町ウエストビル","lat":35.686525,"lon":139.739749},{"name":"アスク二番町保育園","province":"東京都","city":"千代田区","address":"千代田区二番町2-1二番町TSビル","lat":35.686958,"lon":139.737971},{"name":"グローバルキッズ六番町園","province":"東京都","city":"千代田区","address":"千代田区六番町5-16","lat":35.686969,"lon":139.734669},{"name":"いずみこども園","province":"東京都","city":"千代田区","address":"千代田区神田和泉町1","lat":35.699016,"lon":139.777421},{"name":"あい保育園東神田","province":"東京都","city":"千代田区","address":"千代田区東神田2-6-5東神田ビル2・3階","lat":35.695814,"lon":139.780435},{"name":"神田保育園","province":"東京都","city":"千代田区","address":"千代田区神田淡路町2-109","lat":35.69685,"lon":139.767002},{"name":"神田淡路町保育園大きなおうち","province":"東京都","city":"千代田区","address":"千代田区神田淡路町2-12","lat":35.697805,"lon":139.76878},{"name":"西神田保育園","province":"東京都","city":"千代田区","address":"千代田区西神田2-6-2","lat":35.698918,"lon":139.754755},{"name":"ほっぺるランド西神田","province":"東京都","city":"千代田区","address":"千代田区西神田3-5-2千代田ファーストビル西館1階","lat":35.698227,"lon":139.752953},{"name":"グローバルキッズ飯田橋こども園","province":"東京都","city":"千代田区","address":"千代田区富士見2-14-37富士見EAST1・2階","lat":35.697163,"lon":139.743773},{"name":"ふじみこども園","province":"東京都","city":"千代田区","address":"千代田区富士見1-10-3","lat":35.697316,"lon":139.74622},{"name":"グローバルキッズ飯田橋園","province":"東京都","city":"千代田区","address":"千代田区富士見2-14-36富士見ウエスト2・3階","lat":35.697307,"lon":139.74364},{"name":"クレアナーサリー市ヶ谷","province":"東京都","city":"千代田区","address":"千代田区九段北4-2-29セブンアネックス1~3階","lat":35.692344,"lon":139.738182},{"name":"四番町保育園","province":"東京都","city":"千代田区","address":"千代田区四番町5-8","lat":35.688436,"lon":139.736499},{"name":"麹町保育園","province":"東京都","city":"千代田区","address":"千代田区一番町4","lat":35.688003,"lon":139.742601},{"name":"ポピンズナーサリースクール一番町","province":"東京都","city":"千代田区","address":"千代田区一番町10-8一番町ウエストビル","lat":35.686525,"lon":139.739749},{"name":"アスク二番町保育園","province":"東京都","city":"千代田区","address":"千代田区二番町2-1二番町TSビル","lat":35.686958,"lon":139.737971},{"name":"グローバルキッズ六番町園","province":"東京都","city":"千代田区","address":"千代田区六番町5-16","lat":35.686969,"lon":139.734669},{"name":"いずみこども園","province":"東京都","city":"千代田区","address":"千代田区神田和泉町1","lat":35.699016,"lon":139.777421},{"name":"あい保育園東神田","province":"東京都","city":"千代田区","address":"千代田区東神田2-6-5東神田ビル2・3階","lat":35.695814,"lon":139.780435},{"name":"神田保育園","province":"東京都","city":"千代田区","address":"千代田区神田淡路町2-109","lat":35.69685,"lon":139.767002},{"name":"神田淡路町保育園大きなおうち","province":"東京都","city":"千代田区","address":"千代田区神田淡路町2-12","lat":35.697805,"lon":139.76878},{"name":"西神田保育園","province":"東京都","city":"千代田区","address":"千代田区西神田2-6-2","lat":35.698918,"lon":139.754755},{"name":"ほっぺるランド西神田","province":"東京都","city":"千代田区","address":"千代田区西神田3-5-2千代田ファーストビル西館1階","lat":35.698227,"lon":139.752953},{"name":"グローバルキッズ飯田橋こども園","province":"東京都","city":"千代田区","address":"千代田区富士見2-14-37富士見EAST1・2階","lat":35.697163,"lon":139.743773},{"name":"ふじみこども園","province":"東京都","city":"千代田区","address":"千代田区富士見1-10-3","lat":35.697316,"lon":139.74622},{"name":"グローバルキッズ飯田橋園","province":"東京都","city":"千代田区","address":"千代田区富士見2-14-36富士見ウエスト2・3階","lat":35.697307,"lon":139.74364},{"name":"クレアナーサリー市ヶ谷","province":"東京都","city":"千代田区","address":"千代田区九段北4-2-29セブンアネックス1~3階","lat":35.692344,"lon":139.738182},{"name":"四番町保育園","province":"東京都","city":"千代田区","address":"千代田区四番町5-8","lat":35.688436,"lon":139.736499},{"name":"麹町保育園","province":"東京都","city":"千代田区","address":"千代田区一番町4","lat":35.688003,"lon":139.742601},{"name":"ポピンズナーサリースクール一番町","province":"東京都","city":"千代田区","address":"千代田区一番町10-8一番町ウエストビル","lat":35.686525,"lon":139.739749},{"name":"アスク二番町保育園","province":"東京都","city":"千代田区","address":"千代田区二番町2-1二番町TSビル","lat":35.686958,"lon":139.737971},{"name":"グローバルキッズ六番町園","province":"東京都","city":"千代田区","address":"千代田区六番町5-16","lat":35.686969,"lon":139.734669},{"name":"いずみこども園","province":"東京都","city":"千代田区","address":"千代田区神田和泉町1","lat":35.699016,"lon":139.777421},{"name":"あい保育園東神田","province":"東京都","city":"千代田区","address":"千代田区東神田2-6-5東神田ビル2・3階","lat":35.695814,"lon":139.780435},{"name":"神田保育園","province":"東京都","city":"千代田区","address":"千代田区神田淡路町2-109","lat":35.69685,"lon":139.767002},{"name":"神田淡路町保育園大きなおうち","province":"東京都","city":"千代田区","address":"千代田区神田淡路町2-12","lat":35.697805,"lon":139.76878},{"name":"西神田保育園","province":"東京都","city":"千代田区","address":"千代田区西神田2-6-2","lat":35.698918,"lon":139.754755},{"name":"ほっぺるランド西神田","province":"東京都","city":"千代田区","address":"千代田区西神田3-5-2千代田ファーストビル西館1階","lat":35.698227,"lon":139.752953},{"name":"グローバルキッズ飯田橋こども園","province":"東京都","city":"千代田区","address":"千代田区富士見2-14-37富士見EAST1・2階","lat":35.697163,"lon":139.743773},{"name":"ふじみこども園","province":"東京都","city":"千代田区","address":"千代田区富士見1-10-3","lat":35.697316,"lon":139.74622},{"name":"グローバルキッズ飯田橋園","province":"東京都","city":"千代田区","address":"千代田区富士見2-14-36富士見ウエスト2・3階","lat":35.697307,"lon":139.74364},{"name":"クレアナーサリー市ヶ谷","province":"東京都","city":"千代田区","address":"千代田区九段北4-2-29セブンアネックス1~3階","lat":35.692344,"lon":139.738182},{"name":"四番町保育園","province":"東京都","city":"千代田区","address":"千代田区四番町5-8","lat":35.688436,"lon":139.736499},{"name":"麹町保育園","province":"東京都","city":"千代田区","address":"千代田区一番町4","lat":35.688003,"lon":139.742601},{"name":"ポピンズナーサリースクール一番町","province":"東京都","city":"千代田区","address":"千代田区一番町10-8一番町ウエストビル","lat":35.686525,"lon":139.739749},{"name":"アスク二番町保育園","province":"東京都","city":"千代田区","address":"千代田区二番町2-1二番町TSビル","lat":35.686958,"lon":139.737971},{"name":"グローバルキッズ六番町園","province":"東京都","city":"千代田区","address":"千代田区六番町5-16","lat":35.686969,"lon":139.734669},{"name":"いずみこども園","province":"東京都","city":"千代田区","address":"千代田区神田和泉町1","lat":35.699016,"lon":139.777421},{"name":"あい保育園東神田","province":"東京都","city":"千代田区","address":"千代田区東神田2-6-5東神田ビル2・3階","lat":35.695814,"lon":139.780435},{"name":"神田保育園","province":"東京都","city":"千代田区","address":"千代田区神田淡路町2-109","lat":35.69685,"lon":139.767002},{"name":"神田淡路町保育園大きなおうち","province":"東京都","city":"千代田区","address":"千代田区神田淡路町2-12","lat":35.697805,"lon":139.76878},{"name":"西神田保育園","province":"東京都","city":"千代田区","address":"千代田区西神田2-6-2","lat":35.698918,"lon":139.754755},{"name":"ほっぺるランド西神田","province":"東京都","city":"千代田区","address":"千代田区西神田3-5-2千代田ファーストビル西館1階","lat":35.698227,"lon":139.752953},{"name":"グローバルキッズ飯田橋こども園","province":"東京都","city":"千代田区","address":"千代田区富士見2-14-37富士見EAST1・2階","lat":35.697163,"lon":139.743773},{"name":"ふじみこども園","province":"東京都","city":"千代田区","address":"千代田区富士見1-10-3","lat":35.697316,"lon":139.74622},{"name":"グローバルキッズ飯田橋園","province":"東京都","city":"千代田区","address":"千代田区富士見2-14-36富士見ウエスト2・3階","lat":35.697307,"lon":139.74364},{"name":"クレアナーサリー市ヶ谷","province":"東京都","city":"千代田区","address":"千代田区九段北4-2-29セブンアネックス1~3階","lat":35.692344,"lon":139.738182},{"name":"四番町保育園","province":"東京都","city":"千代田区","address":"千代田区四番町5-8","lat":35.688436,"lon":139.736499},{"name":"麹町保育園","province":"東京都","city":"千代田区","address":"千代田区一番町4","lat":35.688003,"lon":139.742601},{"name":"ポピンズナーサリースクール一番町","province":"東京都","city":"千代田区","address":"千代田区一番町10-8一番町ウエストビル","lat":35.686525,"lon":139.739749},{"name":"アスク二番町保育園","province":"東京都","city":"千代田区","address":"千代田区二番町2-1二番町TSビル","lat":35.686958,"lon":139.737971},{"name":"グローバルキッズ六番町園","province":"東京都","city":"千代田区","address":"千代田区六番町5-16","lat":35.686969,"lon":139.734669}]}