{"keyword":"保育","data":[{"name":"いずみこども園","province":"東京都","city":"千代田区","address":"千代田区神田和泉町1","lat":35.699016,"lon":139.777421},{"name":"あい保育園東神田","province":"東京都","city":"千代田区","address":"千代田区東神田2-6-5東神田ビル2・3階","lat":35.695814,"lon":139.780435},{"name":"神田保育園","province":"東京都","city":"千代田区","address":"千代田区神田淡路町2-109","lat":35.69685,"lon":139.767002},{"name":"神田淡路町保育園大きなおうち","province":"東京都","city":"千代田区","address":"千代田区神田淡路町2-12","lat":35.697805,"lon":139.76878},{"name":"西神田保育園","province":"東京都","city":"千代田区","address":"千代田区西神田2-6-2","lat":35.698918,"lon":139.754755},{"name":"ほっぺるランド西神田","province":"東京都","city":"千代田区","address":"千代田区西神田3-5-2千代田ファーストビル西館1階","lat":35.698227,"lon":139.752953},{"name":"グローバルキッズ飯田橋こども園","province":"東京都","city":"千代田区","address":"千代田区富士見2-14-37富士見EAST1・2階","lat":35.697163,"lon":139.743773},{"name":"ふじみこども園","province":"東京都","city":"千代田区","address":"千代田区富士見1-10-3","lat":35.697316,"lon":139.74622},{"name":"グローバルキッズ飯田橋園","province":"東京都","city":"千代田区","address":"千代田区富士見2-14-36富士見ウエスト2・3階","lat":35.697307,"lon":139.74364},{"name":"クレアナーサリー市ヶ谷","province":"東京都","city":"千代田区","address":"千代田区九段北4-2-29セブンアネックス1~3階","lat":35.692344,"lon":139.738182},{"name":"四番町保育園","province":"東京都","city":"千代田区","address":"千代田区四番町5-8","lat":35.688436,"lon":139.736499},{"name":"麹町保育園","province":"東京都","city":"千代田区","address":"千代田区一番町4","lat":35.688003,"lon":139.742601},{"name":"ポピンズナーサリースクール一番町","province":"東京都","city":"千代田区","address":"千代田区一番町10-8一番町ウエストビル","lat":35.686525,"lon":139.739749},{"name":"アスク二番町保育園","province":"東京都","city":"千代田区","address":"千代田区二番町2-1二番町TSビル","lat":35.686958,"lon":139.737971},{"name":"グローバルキッズ六番町園","province":"東京都","city":"千代田区","address":"千代田区六番町5-16","lat":35.686969,"lon":139.734669}]}