{"keyword":"初動","data":[{"name":"※警視庁","province":"東京都","city":"千代田区","address":"千代田区霞ヶ関2-1-1","lat":35.67684,"lon":139.7521},{"name":"第一機動隊","province":"東京都","city":"千代田区","address":"千代田区北の丸公園4-1","lat":35.69146,"lon":139.7548},{"name":"第一方面本部","province":"東京都","city":"千代田区","address":"千代田区霞が関2-1-1","lat":35.676841,"lon":139.752068},{"name":"神田警察署","province":"東京都","city":"千代田区","address":"千代田区神田錦町2-2","lat":35.69328,"lon":139.7628},{"name":"麹町警察署","province":"東京都","city":"千代田区","address":"千代田区麹町1-4","lat":35.68436,"lon":139.7437},{"name":"丸の内警察署","province":"東京都","city":"千代田区","address":"千代田区有楽町1-9-2","lat":35.67539,"lon":139.7603},{"name":"万世橋警察署","province":"東京都","city":"千代田区","address":"千代田区外神田1-16-5","lat":35.6973,"lon":139.7718},{"name":"東京消防庁","province":"東京都","city":"千代田区","address":"千代田区大手町1-3-5","lat":35.68855,"lon":139.7617},{"name":"第一消防方面本部","province":"東京都","city":"千代田区","address":"千代田区麹町1-12","lat":35.68479,"lon":139.7439},{"name":"神田消防署","province":"東京都","city":"千代田区","address":"千代田区外神田4-14-3","lat":35.70144,"lon":139.773},{"name":"麹町消防署","province":"東京都","city":"千代田区","address":"千代田区麹町1-12","lat":35.68479,"lon":139.7439},{"name":"丸の内消防署","province":"東京都","city":"千代田区","address":"千代田区大手町1-3-5","lat":35.68855,"lon":139.7617},{"name":"千代田区","province":"東京都","city":"千代田区","address":"千代田区九段北1-2-14B1","lat":35.696072,"lon":139.752143}]}