{"keyword":"収蔵","data":[{"name":"区立東郷元帥記念公園","province":"東京都","city":"千代田区","address":"東京都千代田区三番町18","lat":35.690219,"lon":139.74026},{"name":"都立日比谷公園","province":"東京都","city":"千代田区","address":"東京都千代田区日比谷公園1","lat":35.676068,"lon":139.756192},{"name":"都立一橋高等学校","province":"東京都","city":"千代田区","address":"東京都千代田区東神田1-12-13","lat":35.6945844,"lon":139.781041},{"name":"駿河台日本大学病院","province":"東京都","city":"千代田区","address":"東京都千代田区神田駿河台1丁目8-13","lat":35.69821877,"lon":139.76340494},{"name":"三井記念病院","province":"東京都","city":"千代田区","address":"東京都千代田区神田和泉町1","lat":35.69901632,"lon":139.77742103},{"name":"都立日比谷公園","province":"東京都","city":"千代田区","address":"東京都千代田区日比谷公園1","lat":35.67461838,"lon":139.75677845},{"name":"都立一橋高等学校","province":"東京都","city":"千代田区","address":"東京都千代田区東神田1丁目12-13","lat":35.69458357,"lon":139.78104065},{"name":"皇居前広場","province":"東京都","city":"千代田区","address":"東京都千代田区皇居外苑1","lat":35.67806805,"lon":139.7588226},{"name":"都立日比谷公園（第二花壇）","province":"東京都","city":"千代田区","address":"東京都千代田区日比谷公園1","lat":35.67461838,"lon":139.75677845},{"name":"上智大学運動場","province":"東京都","city":"千代田区","address":"東京都千代田区紀尾井町5","lat":35.6830057,"lon":139.73098034},{"name":"北の丸公園第２駐車場","province":"東京都","city":"千代田区","address":"東京都千代田区北の丸公園2","lat":35.6932523,"lon":139.75056715},{"name":"北の丸公園第３駐車場","province":"東京都","city":"千代田区","address":"東京都千代田区北の丸公園1-1","lat":35.69242736,"lon":139.74948116},{"name":"千代田区","province":"東京都","city":"千代田区","address":"千代田区九段北1-2-14B1","lat":35.696072,"lon":139.752143},{"name":"区立東郷元帥記念公園","province":"東京都","city":"千代田区","address":"東京都千代田区三番町18","lat":35.690219,"lon":139.74026},{"name":"都立日比谷公園","province":"東京都","city":"千代田区","address":"東京都千代田区日比谷公園1","lat":35.676068,"lon":139.756192},{"name":"都立一橋高等学校","province":"東京都","city":"千代田区","address":"東京都千代田区東神田1-12-13","lat":35.6945844,"lon":139.781041},{"name":"駿河台日本大学病院","province":"東京都","city":"千代田区","address":"東京都千代田区神田駿河台1丁目8-13","lat":35.69821877,"lon":139.76340494},{"name":"三井記念病院","province":"東京都","city":"千代田区","address":"東京都千代田区神田和泉町1","lat":35.69901632,"lon":139.77742103},{"name":"都立日比谷公園","province":"東京都","city":"千代田区","address":"東京都千代田区日比谷公園1","lat":35.67461838,"lon":139.75677845},{"name":"都立一橋高等学校","province":"東京都","city":"千代田区","address":"東京都千代田区東神田1丁目12-13","lat":35.69458357,"lon":139.78104065},{"name":"皇居前広場","province":"東京都","city":"千代田区","address":"東京都千代田区皇居外苑1","lat":35.67806805,"lon":139.7588226},{"name":"都立日比谷公園（第二花壇）","province":"東京都","city":"千代田区","address":"東京都千代田区日比谷公園1","lat":35.67461838,"lon":139.75677845},{"name":"上智大学運動場","province":"東京都","city":"千代田区","address":"東京都千代田区紀尾井町5","lat":35.6830057,"lon":139.73098034},{"name":"北の丸公園第２駐車場","province":"東京都","city":"千代田区","address":"東京都千代田区北の丸公園2","lat":35.6932523,"lon":139.75056715},{"name":"北の丸公園第３駐車場","province":"東京都","city":"千代田区","address":"東京都千代田区北の丸公園1-1","lat":35.69242736,"lon":139.74948116},{"name":"千代田区","province":"東京都","city":"千代田区","address":"千代田区九段北1-2-14B1","lat":35.696072,"lon":139.752143},{"name":"区立東郷元帥記念公園","province":"東京都","city":"千代田区","address":"東京都千代田区三番町18","lat":35.690219,"lon":139.74026},{"name":"都立日比谷公園","province":"東京都","city":"千代田区","address":"東京都千代田区日比谷公園1","lat":35.676068,"lon":139.756192},{"name":"都立一橋高等学校","province":"東京都","city":"千代田区","address":"東京都千代田区東神田1-12-13","lat":35.6945844,"lon":139.781041},{"name":"駿河台日本大学病院","province":"東京都","city":"千代田区","address":"東京都千代田区神田駿河台1丁目8-13","lat":35.69821877,"lon":139.76340494},{"name":"三井記念病院","province":"東京都","city":"千代田区","address":"東京都千代田区神田和泉町1","lat":35.69901632,"lon":139.77742103},{"name":"都立日比谷公園","province":"東京都","city":"千代田区","address":"東京都千代田区日比谷公園1","lat":35.67461838,"lon":139.75677845},{"name":"都立一橋高等学校","province":"東京都","city":"千代田区","address":"東京都千代田区東神田1丁目12-13","lat":35.69458357,"lon":139.78104065},{"name":"皇居前広場","province":"東京都","city":"千代田区","address":"東京都千代田区皇居外苑1","lat":35.67806805,"lon":139.7588226},{"name":"都立日比谷公園（第二花壇）","province":"東京都","city":"千代田区","address":"東京都千代田区日比谷公園1","lat":35.67461838,"lon":139.75677845},{"name":"上智大学運動場","province":"東京都","city":"千代田区","address":"東京都千代田区紀尾井町5","lat":35.6830057,"lon":139.73098034},{"name":"北の丸公園第２駐車場","province":"東京都","city":"千代田区","address":"東京都千代田区北の丸公園2","lat":35.6932523,"lon":139.75056715},{"name":"北の丸公園第３駐車場","province":"東京都","city":"千代田区","address":"東京都千代田区北の丸公園1-1","lat":35.69242736,"lon":139.74948116},{"name":"千代田区","province":"東京都","city":"千代田区","address":"千代田区九段北1-2-14B1","lat":35.696072,"lon":139.752143},{"name":"区立東郷元帥記念公園","province":"東京都","city":"千代田区","address":"東京都千代田区三番町18","lat":35.690219,"lon":139.74026},{"name":"都立日比谷公園","province":"東京都","city":"千代田区","address":"東京都千代田区日比谷公園1","lat":35.676068,"lon":139.756192},{"name":"都立一橋高等学校","province":"東京都","city":"千代田区","address":"東京都千代田区東神田1-12-13","lat":35.6945844,"lon":139.781041},{"name":"駿河台日本大学病院","province":"東京都","city":"千代田区","address":"東京都千代田区神田駿河台1丁目8-13","lat":35.69821877,"lon":139.76340494},{"name":"三井記念病院","province":"東京都","city":"千代田区","address":"東京都千代田区神田和泉町1","lat":35.69901632,"lon":139.77742103},{"name":"皇居前広場","province":"東京都","city":"千代田区","address":"東京都千代田区皇居外苑1","lat":35.67806805,"lon":139.7588226},{"name":"都立日比谷公園（第二花壇）","province":"東京都","city":"千代田区","address":"東京都千代田区日比谷公園1","lat":35.67461838,"lon":139.75677845},{"name":"上智大学運動場","province":"東京都","city":"千代田区","address":"東京都千代田区紀尾井町5","lat":35.6830057,"lon":139.73098034},{"name":"北の丸公園第２駐車場","province":"東京都","city":"千代田区","address":"東京都千代田区北の丸公園2","lat":35.6932523,"lon":139.75056715},{"name":"北の丸公園第３駐車場","province":"東京都","city":"千代田区","address":"東京都千代田区北の丸公園1-1","lat":35.69242736,"lon":139.74948116},{"name":"千代田区","province":"東京都","city":"千代田区","address":"千代田区九段北1-2-14B1","lat":35.696072,"lon":139.752143},{"name":"区立東郷元帥記念公園","province":"東京都","city":"千代田区","address":"東京都千代田区三番町18","lat":35.690219,"lon":139.74026},{"name":"都立日比谷公園","province":"東京都","city":"千代田区","address":"東京都千代田区日比谷公園1","lat":35.676068,"lon":139.756192},{"name":"都立一橋高等学校","province":"東京都","city":"千代田区","address":"東京都千代田区東神田1-12-13","lat":35.6945844,"lon":139.781041},{"name":"駿河台日本大学病院","province":"東京都","city":"千代田区","address":"東京都千代田区神田駿河台1丁目8-13","lat":35.69821877,"lon":139.76340494},{"name":"三井記念病院","province":"東京都","city":"千代田区","address":"東京都千代田区神田和泉町1","lat":35.69901632,"lon":139.77742103},{"name":"千代田区","province":"東京都","city":"千代田区","address":"千代田区九段北1-2-14B1","lat":35.696072,"lon":139.752143},{"name":"区立東郷元帥記念公園","province":"東京都","city":"千代田区","address":"東京都千代田区三番町18","lat":35.690219,"lon":139.74026},{"name":"都立日比谷公園","province":"東京都","city":"千代田区","address":"東京都千代田区日比谷公園1","lat":35.676068,"lon":139.756192},{"name":"都立一橋高等学校","province":"東京都","city":"千代田区","address":"東京都千代田区東神田1-12-13","lat":35.6945844,"lon":139.781041},{"name":"駿河台日本大学病院","province":"東京都","city":"千代田区","address":"東京都千代田区神田駿河台1丁目8-13","lat":35.69821877,"lon":139.76340494},{"name":"三井記念病院","province":"東京都","city":"千代田区","address":"東京都千代田区神田和泉町1","lat":35.69901632,"lon":139.77742103},{"name":"千代田区","province":"東京都","city":"千代田区","address":"千代田区九段北1-2-14B1","lat":35.696072,"lon":139.752143},{"name":"区立東郷元帥記念公園","province":"東京都","city":"千代田区","address":"東京都千代田区三番町18","lat":35.690219,"lon":139.74026},{"name":"都立日比谷公園","province":"東京都","city":"千代田区","address":"東京都千代田区日比谷公園1","lat":35.676068,"lon":139.756192},{"name":"都立一橋高等学校","province":"東京都","city":"千代田区","address":"東京都千代田区東神田1-12-13","lat":35.6945844,"lon":139.781041},{"name":"駿河台日本大学病院","province":"東京都","city":"千代田区","address":"東京都千代田区神田駿河台1丁目8-13","lat":35.69821877,"lon":139.76340494},{"name":"三井記念病院","province":"東京都","city":"千代田区","address":"東京都千代田区神田和泉町1","lat":35.69901632,"lon":139.77742103},{"name":"千代田区","province":"東京都","city":"千代田区","address":"千代田区九段北1-2-14B1","lat":35.696072,"lon":139.752143},{"name":"区立東郷元帥記念公園","province":"東京都","city":"千代田区","address":"東京都千代田区三番町18","lat":35.690219,"lon":139.74026},{"name":"都立日比谷公園","province":"東京都","city":"千代田区","address":"東京都千代田区日比谷公園1","lat":35.676068,"lon":139.756192},{"name":"都立一橋高等学校","province":"東京都","city":"千代田区","address":"東京都千代田区東神田1-12-13","lat":35.6945844,"lon":139.781041},{"name":"駿河台日本大学病院","province":"東京都","city":"千代田区","address":"東京都千代田区神田駿河台1丁目8-13","lat":35.69821877,"lon":139.76340494},{"name":"三井記念病院","province":"東京都","city":"千代田区","address":"東京都千代田区神田和泉町1","lat":35.69901632,"lon":139.77742103},{"name":"千代田区","province":"東京都","city":"千代田区","address":"千代田区九段北1-2-14B1","lat":35.696072,"lon":139.752143},{"name":"区立東郷元帥記念公園","province":"東京都","city":"千代田区","address":"東京都千代田区三番町18","lat":35.690219,"lon":139.74026},{"name":"都立日比谷公園","province":"東京都","city":"千代田区","address":"東京都千代田区日比谷公園1","lat":35.676068,"lon":139.756192},{"name":"都立一橋高等学校","province":"東京都","city":"千代田区","address":"東京都千代田区東神田1-12-13","lat":35.6945844,"lon":139.781041},{"name":"駿河台日本大学病院","province":"東京都","city":"千代田区","address":"東京都千代田区神田駿河台1丁目8-13","lat":35.69821877,"lon":139.76340494},{"name":"三井記念病院","province":"東京都","city":"千代田区","address":"東京都千代田区神田和泉町1","lat":35.69901632,"lon":139.77742103},{"name":"千代田区","province":"東京都","city":"千代田区","address":"千代田区九段北1-2-14B1","lat":35.696072,"lon":139.752143},{"name":"区立東郷元帥記念公園","province":"東京都","city":"千代田区","address":"東京都千代田区三番町18","lat":35.690219,"lon":139.74026},{"name":"都立日比谷公園","province":"東京都","city":"千代田区","address":"東京都千代田区日比谷公園1","lat":35.676068,"lon":139.756192},{"name":"都立一橋高等学校","province":"東京都","city":"千代田区","address":"東京都千代田区東神田1-12-13","lat":35.6945844,"lon":139.781041},{"name":"駿河台日本大学病院","province":"東京都","city":"千代田区","address":"東京都千代田区神田駿河台1丁目8-13","lat":35.69821877,"lon":139.76340494},{"name":"三井記念病院","province":"東京都","city":"千代田区","address":"東京都千代田区神田和泉町1","lat":35.69901632,"lon":139.77742103},{"name":"千代田区","province":"東京都","city":"千代田区","address":"千代田区九段北1-2-14B1","lat":35.696072,"lon":139.752143},{"name":"区立東郷元帥記念公園","province":"東京都","city":"千代田区","address":"東京都千代田区三番町18","lat":35.690219,"lon":139.74026},{"name":"都立日比谷公園","province":"東京都","city":"千代田区","address":"東京都千代田区日比谷公園1","lat":35.676068,"lon":139.756192},{"name":"都立一橋高等学校","province":"東京都","city":"千代田区","address":"東京都千代田区東神田1-12-13","lat":35.6945844,"lon":139.781041},{"name":"千代田区","province":"東京都","city":"千代田区","address":"千代田区九段北1-2-14B1","lat":35.696072,"lon":139.752143},{"name":"区立東郷元帥記念公園","province":"東京都","city":"千代田区","address":"東京都千代田区三番町18","lat":35.690219,"lon":139.74026},{"name":"都立日比谷公園","province":"東京都","city":"千代田区","address":"東京都千代田区日比谷公園1","lat":35.676068,"lon":139.756192},{"name":"都立一橋高等学校","province":"東京都","city":"千代田区","address":"東京都千代田区東神田1-12-13","lat":35.6945844,"lon":139.781041},{"name":"千代田区","province":"東京都","city":"千代田区","address":"千代田区九段北1-2-14B1","lat":35.696072,"lon":139.752143},{"name":"区立東郷元帥記念公園","province":"東京都","city":"千代田区","address":"東京都千代田区三番町18","lat":35.690219,"lon":139.74026},{"name":"都立日比谷公園","province":"東京都","city":"千代田区","address":"東京都千代田区日比谷公園1","lat":35.676068,"lon":139.756192},{"name":"都立一橋高等学校","province":"東京都","city":"千代田区","address":"東京都千代田区東神田1-12-13","lat":35.6945844,"lon":139.781041},{"name":"千代田区","province":"東京都","city":"千代田区","address":"千代田区九段北1-2-14B1","lat":35.696072,"lon":139.752143},{"name":"区立東郷元帥記念公園","province":"東京都","city":"千代田区","address":"東京都千代田区三番町18","lat":35.690219,"lon":139.74026},{"name":"都立日比谷公園","province":"東京都","city":"千代田区","address":"東京都千代田区日比谷公園1","lat":35.676068,"lon":139.756192},{"name":"都立一橋高等学校","province":"東京都","city":"千代田区","address":"東京都千代田区東神田1-12-13","lat":35.6945844,"lon":139.781041},{"name":"千代田区","province":"東京都","city":"千代田区","address":"千代田区九段北1-2-14B1","lat":35.696072,"lon":139.752143},{"name":"区立東郷元帥記念公園","province":"東京都","city":"千代田区","address":"東京都千代田区三番町18","lat":35.690219,"lon":139.74026},{"name":"都立日比谷公園","province":"東京都","city":"千代田区","address":"東京都千代田区日比谷公園1","lat":35.676068,"lon":139.756192},{"name":"都立一橋高等学校","province":"東京都","city":"千代田区","address":"東京都千代田区東神田1-12-13","lat":35.6945844,"lon":139.781041},{"name":"千代田区","province":"東京都","city":"千代田区","address":"千代田区九段北1-2-14B1","lat":35.696072,"lon":139.752143},{"name":"区立東郷元帥記念公園","province":"東京都","city":"千代田区","address":"東京都千代田区三番町18","lat":35.690219,"lon":139.74026},{"name":"都立日比谷公園","province":"東京都","city":"千代田区","address":"東京都千代田区日比谷公園1","lat":35.676068,"lon":139.756192},{"name":"都立一橋高等学校","province":"東京都","city":"千代田区","address":"東京都千代田区東神田1-12-13","lat":35.6945844,"lon":139.781041},{"name":"千代田区","province":"東京都","city":"千代田区","address":"千代田区九段北1-2-14B1","lat":35.696072,"lon":139.752143},{"name":"区立東郷元帥記念公園","province":"東京都","city":"千代田区","address":"東京都千代田区三番町18","lat":35.690219,"lon":139.74026},{"name":"都立日比谷公園","province":"東京都","city":"千代田区","address":"東京都千代田区日比谷公園1","lat":35.676068,"lon":139.756192},{"name":"都立一橋高等学校","province":"東京都","city":"千代田区","address":"東京都千代田区東神田1-12-13","lat":35.6945844,"lon":139.781041},{"name":"千代田区","province":"東京都","city":"千代田区","address":"千代田区九段北1-2-14B1","lat":35.696072,"lon":139.752143},{"name":"区立東郷元帥記念公園","province":"東京都","city":"千代田区","address":"東京都千代田区三番町18","lat":35.690219,"lon":139.74026},{"name":"都立日比谷公園","province":"東京都","city":"千代田区","address":"東京都千代田区日比谷公園1","lat":35.676068,"lon":139.756192},{"name":"都立一橋高等学校","province":"東京都","city":"千代田区","address":"東京都千代田区東神田1-12-13","lat":35.6945844,"lon":139.781041},{"name":"千代田区","province":"東京都","city":"千代田区","address":"千代田区九段北1-2-14B1","lat":35.696072,"lon":139.752143},{"name":"区立東郷元帥記念公園","province":"東京都","city":"千代田区","address":"東京都千代田区三番町18","lat":35.690219,"lon":139.74026},{"name":"都立日比谷公園","province":"東京都","city":"千代田区","address":"東京都千代田区日比谷公園1","lat":35.676068,"lon":139.756192},{"name":"都立一橋高等学校","province":"東京都","city":"千代田区","address":"東京都千代田区東神田1-12-13","lat":35.6945844,"lon":139.781041},{"name":"千代田区","province":"東京都","city":"千代田区","address":"千代田区九段北1-2-14B1","lat":35.696072,"lon":139.752143},{"name":"区立東郷元帥記念公園","province":"東京都","city":"千代田区","address":"東京都千代田区三番町18","lat":35.690219,"lon":139.74026},{"name":"都立日比谷公園","province":"東京都","city":"千代田区","address":"東京都千代田区日比谷公園1","lat":35.676068,"lon":139.756192},{"name":"都立一橋高等学校","province":"東京都","city":"千代田区","address":"東京都千代田区東神田1-12-13","lat":35.6945844,"lon":139.781041},{"name":"千代田区","province":"東京都","city":"千代田区","address":"千代田区九段北1-2-14B1","lat":35.696072,"lon":139.752143},{"name":"区立東郷元帥記念公園","province":"東京都","city":"千代田区","address":"東京都千代田区三番町18","lat":35.690219,"lon":139.74026},{"name":"都立日比谷公園","province":"東京都","city":"千代田区","address":"東京都千代田区日比谷公園1","lat":35.676068,"lon":139.756192},{"name":"都立一橋高等学校","province":"東京都","city":"千代田区","address":"東京都千代田区東神田1-12-13","lat":35.6945844,"lon":139.781041},{"name":"千代田区","province":"東京都","city":"千代田区","address":"千代田区九段北1-2-14B1","lat":35.696072,"lon":139.752143},{"name":"区立東郷元帥記念公園","province":"東京都","city":"千代田区","address":"東京都千代田区三番町18","lat":35.690219,"lon":139.74026},{"name":"都立日比谷公園","province":"東京都","city":"千代田区","address":"東京都千代田区日比谷公園1","lat":35.676068,"lon":139.756192},{"name":"都立一橋高等学校","province":"東京都","city":"千代田区","address":"東京都千代田区東神田1-12-13","lat":35.6945844,"lon":139.781041},{"name":"千代田区","province":"東京都","city":"千代田区","address":"千代田区九段北1-2-14B1","lat":35.696072,"lon":139.752143},{"name":"区立東郷元帥記念公園","province":"東京都","city":"千代田区","address":"東京都千代田区三番町18","lat":35.690219,"lon":139.74026},{"name":"都立日比谷公園","province":"東京都","city":"千代田区","address":"東京都千代田区日比谷公園1","lat":35.676068,"lon":139.756192},{"name":"都立一橋高等学校","province":"東京都","city":"千代田区","address":"東京都千代田区東神田1-12-13","lat":35.6945844,"lon":139.781041},{"name":"千代田区","province":"東京都","city":"千代田区","address":"千代田区九段北1-2-14B1","lat":35.696072,"lon":139.752143},{"name":"区立東郷元帥記念公園","province":"東京都","city":"千代田区","address":"東京都千代田区三番町18","lat":35.690219,"lon":139.74026},{"name":"都立日比谷公園","province":"東京都","city":"千代田区","address":"東京都千代田区日比谷公園1","lat":35.676068,"lon":139.756192},{"name":"都立一橋高等学校","province":"東京都","city":"千代田区","address":"東京都千代田区東神田1-12-13","lat":35.6945844,"lon":139.781041},{"name":"千代田区","province":"東京都","city":"千代田区","address":"千代田区九段北1-2-14B1","lat":35.696072,"lon":139.752143},{"name":"区立東郷元帥記念公園","province":"東京都","city":"千代田区","address":"東京都千代田区三番町18","lat":35.690219,"lon":139.74026},{"name":"都立日比谷公園","province":"東京都","city":"千代田区","address":"東京都千代田区日比谷公園1","lat":35.676068,"lon":139.756192},{"name":"都立一橋高等学校","province":"東京都","city":"千代田区","address":"東京都千代田区東神田1-12-13","lat":35.6945844,"lon":139.781041},{"name":"千代田区","province":"東京都","city":"千代田区","address":"千代田区九段北1-2-14B1","lat":35.696072,"lon":139.752143},{"name":"区立東郷元帥記念公園","province":"東京都","city":"千代田区","address":"東京都千代田区三番町18","lat":35.690219,"lon":139.74026},{"name":"都立日比谷公園","province":"東京都","city":"千代田区","address":"東京都千代田区日比谷公園1","lat":35.676068,"lon":139.756192},{"name":"都立一橋高等学校","province":"東京都","city":"千代田区","address":"東京都千代田区東神田1-12-13","lat":35.6945844,"lon":139.781041},{"name":"千代田区","province":"東京都","city":"千代田区","address":"千代田区九段北1-2-14B1","lat":35.696072,"lon":139.752143},{"name":"区立東郷元帥記念公園","province":"東京都","city":"千代田区","address":"東京都千代田区三番町18","lat":35.690219,"lon":139.74026},{"name":"都立日比谷公園","province":"東京都","city":"千代田区","address":"東京都千代田区日比谷公園1","lat":35.676068,"lon":139.756192},{"name":"都立一橋高等学校","province":"東京都","city":"千代田区","address":"東京都千代田区東神田1-12-13","lat":35.6945844,"lon":139.781041},{"name":"千代田区","province":"東京都","city":"千代田区","address":"千代田区九段北1-2-14B1","lat":35.696072,"lon":139.752143},{"name":"区立東郷元帥記念公園","province":"東京都","city":"千代田区","address":"東京都千代田区三番町18","lat":35.690219,"lon":139.74026},{"name":"都立日比谷公園","province":"東京都","city":"千代田区","address":"東京都千代田区日比谷公園1","lat":35.676068,"lon":139.756192},{"name":"都立一橋高等学校","province":"東京都","city":"千代田区","address":"東京都千代田区東神田1-12-13","lat":35.6945844,"lon":139.781041},{"name":"千代田区","province":"東京都","city":"千代田区","address":"千代田区九段北1-2-14B1","lat":35.696072,"lon":139.752143},{"name":"区立東郷元帥記念公園","province":"東京都","city":"千代田区","address":"東京都千代田区三番町18","lat":35.690219,"lon":139.74026},{"name":"都立日比谷公園","province":"東京都","city":"千代田区","address":"東京都千代田区日比谷公園1","lat":35.676068,"lon":139.756192},{"name":"都立一橋高等学校","province":"東京都","city":"千代田区","address":"東京都千代田区東神田1-12-13","lat":35.6945844,"lon":139.781041},{"name":"千代田区","province":"東京都","city":"千代田区","address":"千代田区九段北1-2-14B1","lat":35.696072,"lon":139.752143},{"name":"区立東郷元帥記念公園","province":"東京都","city":"千代田区","address":"東京都千代田区三番町18","lat":35.690219,"lon":139.74026},{"name":"都立日比谷公園","province":"東京都","city":"千代田区","address":"東京都千代田区日比谷公園1","lat":35.676068,"lon":139.756192},{"name":"都立一橋高等学校","province":"東京都","city":"千代田区","address":"東京都千代田区東神田1-12-13","lat":35.6945844,"lon":139.781041},{"name":"千代田区","province":"東京都","city":"千代田区","address":"千代田区九段北1-2-14B1","lat":35.696072,"lon":139.752143},{"name":"区立東郷元帥記念公園","province":"東京都","city":"千代田区","address":"東京都千代田区三番町18","lat":35.690219,"lon":139.74026},{"name":"都立日比谷公園","province":"東京都","city":"千代田区","address":"東京都千代田区日比谷公園1","lat":35.676068,"lon":139.756192},{"name":"都立一橋高等学校","province":"東京都","city":"千代田区","address":"東京都千代田区東神田1-12-13","lat":35.6945844,"lon":139.781041},{"name":"千代田区","province":"東京都","city":"千代田区","address":"千代田区九段北1-2-14B1","lat":35.696072,"lon":139.752143},{"name":"区立東郷元帥記念公園","province":"東京都","city":"千代田区","address":"東京都千代田区三番町18","lat":35.690219,"lon":139.74026},{"name":"都立日比谷公園","province":"東京都","city":"千代田区","address":"東京都千代田区日比谷公園1","lat":35.676068,"lon":139.756192},{"name":"都立一橋高等学校","province":"東京都","city":"千代田区","address":"東京都千代田区東神田1-12-13","lat":35.6945844,"lon":139.781041},{"name":"千代田区","province":"東京都","city":"千代田区","address":"千代田区九段北1-2-14B1","lat":35.696072,"lon":139.752143},{"name":"区立東郷元帥記念公園","province":"東京都","city":"千代田区","address":"東京都千代田区三番町18","lat":35.690219,"lon":139.74026},{"name":"都立日比谷公園","province":"東京都","city":"千代田区","address":"東京都千代田区日比谷公園1","lat":35.676068,"lon":139.756192},{"name":"都立一橋高等学校","province":"東京都","city":"千代田区","address":"東京都千代田区東神田1-12-13","lat":35.6945844,"lon":139.781041},{"name":"区立東郷元帥記念公園","province":"東京都","city":"千代田区","address":"東京都千代田区三番町18","lat":35.690219,"lon":139.74026},{"name":"都立日比谷公園","province":"東京都","city":"千代田区","address":"東京都千代田区日比谷公園1","lat":35.676068,"lon":139.756192},{"name":"都立一橋高等学校","province":"東京都","city":"千代田区","address":"東京都千代田区東神田1-12-13","lat":35.6945844,"lon":139.781041},{"name":"区立東郷元帥記念公園","province":"東京都","city":"千代田区","address":"東京都千代田区三番町18","lat":35.690219,"lon":139.74026},{"name":"都立日比谷公園","province":"東京都","city":"千代田区","address":"東京都千代田区日比谷公園1","lat":35.676068,"lon":139.756192},{"name":"都立一橋高等学校","province":"東京都","city":"千代田区","address":"東京都千代田区東神田1-12-13","lat":35.6945844,"lon":139.781041},{"name":"区立東郷元帥記念公園","province":"東京都","city":"千代田区","address":"東京都千代田区三番町18","lat":35.690219,"lon":139.74026},{"name":"都立日比谷公園","province":"東京都","city":"千代田区","address":"東京都千代田区日比谷公園1","lat":35.676068,"lon":139.756192},{"name":"都立一橋高等学校","province":"東京都","city":"千代田区","address":"東京都千代田区東神田1-12-13","lat":35.6945844,"lon":139.781041},{"name":"区立東郷元帥記念公園","province":"東京都","city":"千代田区","address":"東京都千代田区三番町18","lat":35.690219,"lon":139.74026},{"name":"都立日比谷公園","province":"東京都","city":"千代田区","address":"東京都千代田区日比谷公園1","lat":35.676068,"lon":139.756192},{"name":"都立一橋高等学校","province":"東京都","city":"千代田区","address":"東京都千代田区東神田1-12-13","lat":35.6945844,"lon":139.781041},{"name":"区立東郷元帥記念公園","province":"東京都","city":"千代田区","address":"東京都千代田区三番町18","lat":35.690219,"lon":139.74026},{"name":"都立日比谷公園","province":"東京都","city":"千代田区","address":"東京都千代田区日比谷公園1","lat":35.676068,"lon":139.756192},{"name":"都立一橋高等学校","province":"東京都","city":"千代田区","address":"東京都千代田区東神田1-12-13","lat":35.6945844,"lon":139.781041},{"name":"区立東郷元帥記念公園","province":"東京都","city":"千代田区","address":"東京都千代田区三番町18","lat":35.690219,"lon":139.74026},{"name":"都立日比谷公園","province":"東京都","city":"千代田区","address":"東京都千代田区日比谷公園1","lat":35.676068,"lon":139.756192},{"name":"都立一橋高等学校","province":"東京都","city":"千代田区","address":"東京都千代田区東神田1-12-13","lat":35.6945844,"lon":139.781041},{"name":"区立東郷元帥記念公園","province":"東京都","city":"千代田区","address":"東京都千代田区三番町18","lat":35.690219,"lon":139.74026},{"name":"都立日比谷公園","province":"東京都","city":"千代田区","address":"東京都千代田区日比谷公園1","lat":35.676068,"lon":139.756192},{"name":"都立一橋高等学校","province":"東京都","city":"千代田区","address":"東京都千代田区東神田1-12-13","lat":35.6945844,"lon":139.781041},{"name":"区立東郷元帥記念公園","province":"東京都","city":"千代田区","address":"東京都千代田区三番町18","lat":35.690219,"lon":139.74026},{"name":"都立日比谷公園","province":"東京都","city":"千代田区","address":"東京都千代田区日比谷公園1","lat":35.676068,"lon":139.756192},{"name":"都立一橋高等学校","province":"東京都","city":"千代田区","address":"東京都千代田区東神田1-12-13","lat":35.6945844,"lon":139.781041},{"name":"区立東郷元帥記念公園","province":"東京都","city":"千代田区","address":"東京都千代田区三番町18","lat":35.690219,"lon":139.74026},{"name":"都立日比谷公園","province":"東京都","city":"千代田区","address":"東京都千代田区日比谷公園1","lat":35.676068,"lon":139.756192},{"name":"都立一橋高等学校","province":"東京都","city":"千代田区","address":"東京都千代田区東神田1-12-13","lat":35.6945844,"lon":139.781041},{"name":"区立東郷元帥記念公園","province":"東京都","city":"千代田区","address":"東京都千代田区三番町18","lat":35.690219,"lon":139.74026},{"name":"都立日比谷公園","province":"東京都","city":"千代田区","address":"東京都千代田区日比谷公園1","lat":35.676068,"lon":139.756192},{"name":"都立一橋高等学校","province":"東京都","city":"千代田区","address":"東京都千代田区東神田1-12-13","lat":35.6945844,"lon":139.781041},{"name":"区立東郷元帥記念公園","province":"東京都","city":"千代田区","address":"東京都千代田区三番町18","lat":35.690219,"lon":139.74026},{"name":"都立日比谷公園","province":"東京都","city":"千代田区","address":"東京都千代田区日比谷公園1","lat":35.676068,"lon":139.756192},{"name":"都立一橋高等学校","province":"東京都","city":"千代田区","address":"東京都千代田区東神田1-12-13","lat":35.6945844,"lon":139.781041},{"name":"区立東郷元帥記念公園","province":"東京都","city":"千代田区","address":"東京都千代田区三番町18","lat":35.690219,"lon":139.74026},{"name":"都立日比谷公園","province":"東京都","city":"千代田区","address":"東京都千代田区日比谷公園1","lat":35.676068,"lon":139.756192},{"name":"都立一橋高等学校","province":"東京都","city":"千代田区","address":"東京都千代田区東神田1-12-13","lat":35.6945844,"lon":139.781041}]}