{"keyword":"子ども","data":[{"name":"水道橋A","province":"東京都","city":"千代田区","address":"東京都千代田区神田三崎町2丁目22","lat":35.702111,"lon":139.75513},{"name":"千代田合同庁舎","province":"東京都","city":"千代田区","address":"東京都千代田区内神田2丁目1-12","lat":35.688985,"lon":139.768232},{"name":"東京しごとセンター","province":"東京都","city":"千代田区","address":"東京都千代田区飯田橋3丁目10-1","lat":35.700311,"lon":139.749855},{"name":"東京国際フォーラム","province":"東京都","city":"千代田区","address":"東京都千代田区丸の内3丁目5-1","lat":35.676314,"lon":139.764174},{"name":"東京国際フォーラム","province":"東京都","city":"千代田区","address":"東京都千代田区丸の内3丁目5-1","lat":35.676352,"lon":139.764309},{"name":"東京国際フォーラム","province":"東京都","city":"千代田区","address":"東京都千代田区丸の内3丁目5","lat":35.676086,"lon":139.763027},{"name":"東京国際フォーラム","province":"東京都","city":"千代田区","address":"東京都千代田区丸の内3丁目5-1","lat":35.677562,"lon":139.763923},{"name":"日比谷公園","province":"東京都","city":"千代田区","address":"東京都千代田区日比谷公園1","lat":35.674014,"lon":139.754432},{"name":"日比谷公園","province":"東京都","city":"千代田区","address":"東京都千代田区日比谷公園1","lat":35.67456,"lon":139.756784},{"name":"日比谷公園","province":"東京都","city":"千代田区","address":"東京都千代田区日比谷公園1","lat":35.672179,"lon":139.755556},{"name":"日比谷公園","province":"東京都","city":"千代田区","address":"東京都千代田区日比谷公園1","lat":35.675722,"lon":139.757134},{"name":"日比谷公園","province":"東京都","city":"千代田区","address":"東京都千代田区日比谷公園1","lat":35.67432,"lon":139.756837},{"name":"日比谷公園","province":"東京都","city":"千代田区","address":"東京都千代田区日比谷公園1","lat":35.674892,"lon":139.755673},{"name":"日比谷公園","province":"東京都","city":"千代田区","address":"東京都千代田区日比谷公園1-5","lat":35.672404,"lon":139.75393},{"name":"日比谷公園","province":"東京都","city":"千代田区","address":"東京都千代田区日比谷公園1","lat":35.672365,"lon":139.754034},{"name":"日比谷公園","province":"東京都","city":"千代田区","address":"東京都千代田区日比谷公園1-5","lat":35.673155,"lon":139.753984},{"name":"日比谷公園","province":"東京都","city":"千代田区","address":"東京都千代田区日比谷公園1","lat":35.672811,"lon":139.753939},{"name":"日比谷公園","province":"東京都","city":"千代田区","address":"東京都千代田区日比谷公園1","lat":35.672811,"lon":139.753954},{"name":"都営三田線駅内幸町駅","province":"東京都","city":"千代田区","address":"東京都千代田区内幸町2丁目2","lat":35.669176,"lon":139.755244},{"name":"都営三田線駅日比谷駅","province":"東京都","city":"千代田区","address":"東京都千代田区有楽町1丁目13","lat":35.675739,"lon":139.759879},{"name":"都営三田線駅大手町駅","province":"東京都","city":"千代田区","address":"東京都千代田区丸の内1丁目2","lat":35.683028,"lon":139.762534},{"name":"都営三田線駅神保町駅","province":"東京都","city":"千代田区","address":"東京都千代田区一ツ橋2丁目3","lat":35.693965,"lon":139.758481},{"name":"都営新宿線市ヶ谷駅","province":"東京都","city":"千代田区","address":"東京都千代田区九段南4丁目8","lat":35.691167,"lon":139.736429},{"name":"都営新宿線市ヶ谷駅","province":"東京都","city":"千代田区","address":"東京都千代田区九段南4丁目7","lat":35.691942,"lon":139.739051},{"name":"都営新宿線九段下駅","province":"東京都","city":"千代田区","address":"東京都千代田区九段北1丁目2","lat":35.69564,"lon":139.751905},{"name":"都営新宿線神保町駅","province":"東京都","city":"千代田区","address":"東京都千代田区神田神保町2丁目","lat":35.696018,"lon":139.757721},{"name":"都営新宿線神保町駅","province":"東京都","city":"千代田区","address":"東京都千代田区神田神保町2丁目","lat":35.695857,"lon":139.757728},{"name":"都営新宿線小川町駅","province":"東京都","city":"千代田区","address":"東京都千代田区神田須田町1丁目","lat":35.695526,"lon":139.767686},{"name":"都営新宿線岩本町駅","province":"東京都","city":"千代田区","address":"東京都千代田区神田岩本町","lat":35.695646,"lon":139.774739},{"name":"東京消防庁本部庁舎","province":"東京都","city":"千代田区","address":"東京都千代田区大手町1丁目3-5","lat":35.688894,"lon":139.761545},{"name":"東京消防庁本部庁舎","province":"東京都","city":"千代田区","address":"東京都千代田区大手町1丁目3-5","lat":35.688926,"lon":139.761479},{"name":"麹町消防署永田町出張所","province":"東京都","city":"千代田区","address":"東京都千代田区永田町1丁目8-3","lat":35.678963,"lon":139.745898},{"name":"神田消防署三崎町出張所","province":"東京都","city":"千代田区","address":"東京都千代田区神田三崎町3丁目3-9","lat":35.700008,"lon":139.752161},{"name":"千代田区役所本庁舎","province":"東京都","city":"千代田区","address":"東京都千代田区九段南1丁目2-1","lat":35.694068,"lon":139.753463},{"name":"千代田区役所本庁舎","province":"東京都","city":"千代田区","address":"東京都千代田区九段南1丁目2-1","lat":35.693969,"lon":139.753566},{"name":"万世橋出張所・区民館","province":"東京都","city":"千代田区","address":"東京都千代田区外神田1丁目1-13","lat":35.697583,"lon":139.770668},{"name":"麹町出張所・区民館","province":"東京都","city":"千代田区","address":"東京都千代田区麹町2丁目8","lat":35.685583,"lon":139.739954},{"name":"富士見出張所・区民館","province":"東京都","city":"千代田区","address":"東京都千代田区富士見1丁目6-7","lat":35.699099,"lon":139.746385},{"name":"神保町出張所・区民館","province":"東京都","city":"千代田区","address":"東京都千代田区神田神保町2丁目40","lat":35.697652,"lon":139.755409},{"name":"神保町出張所・区民館","province":"東京都","city":"千代田区","address":"東京都千代田区神田神保町2丁目40","lat":35.697619,"lon":139.755397},{"name":"神田公園出張所・区民館","province":"東京都","city":"千代田区","address":"東京都千代田区神田司町2丁目2","lat":35.692748,"lon":139.768155},{"name":"和泉橋出張所・区民館","province":"東京都","city":"千代田区","address":"東京都千代田区神田佐久間町1丁目11-7","lat":35.69739,"lon":139.774998},{"name":"和泉橋出張所・区民館","province":"東京都","city":"千代田区","address":"東京都千代田区神田佐久間町1丁目11-7","lat":35.69739,"lon":139.774983},{"name":"和泉橋出張所・区民館","province":"東京都","city":"千代田区","address":"東京都千代田区神田佐久間町1丁目11-7","lat":35.697392,"lon":139.774949},{"name":"千代田万世会館","province":"東京都","city":"千代田区","address":"東京都千代田区外神田1丁目1","lat":35.697729,"lon":139.770534},{"name":"一番町集会室","province":"東京都","city":"千代田区","address":"東京都千代田区一番町10-22","lat":35.686428,"lon":139.73921},{"name":"千代田区立スポーツセンター","province":"東京都","city":"千代田区","address":"東京都千代田区内神田2丁目1-8","lat":35.689174,"lon":139.767634},{"name":"九段生涯学習館","province":"東京都","city":"千代田区","address":"東京都千代田区九段南1丁目5-10","lat":35.695214,"lon":139.752124},{"name":"千代田保健所","province":"東京都","city":"千代田区","address":"東京都千代田区九段北1丁目2-14","lat":35.69595,"lon":139.752142},{"name":"千代田保健所","province":"東京都","city":"千代田区","address":"東京都千代田区九段北1丁目2-14","lat":35.695949,"lon":139.752125},{"name":"日比谷図書文化館","province":"東京都","city":"千代田区","address":"東京都千代田区日比谷公園1-4","lat":35.671809,"lon":139.754312},{"name":"日比谷図書文化館","province":"東京都","city":"千代田区","address":"東京都千代田区日比谷公園1-4","lat":35.671816,"lon":139.754417},{"name":"日比谷図書文化館","province":"東京都","city":"千代田区","address":"東京都千代田区日比谷公園1-4","lat":35.671698,"lon":139.754708},{"name":"日比谷図書文化館","province":"東京都","city":"千代田区","address":"東京都千代田区日比谷公園1-4","lat":35.671891,"lon":139.754702},{"name":"千代田区立四番町図書館","province":"東京都","city":"千代田区","address":"東京都千代田区三番町14-7","lat":35.6905,"lon":139.741564},{"name":"昌平まちかど図書館","province":"東京都","city":"千代田区","address":"東京都千代田区外神田3丁目4-7","lat":35.701285,"lon":139.769885},{"name":"神田まちかど図書館","province":"東京都","city":"千代田区","address":"東京都千代田区神田司町2丁目16","lat":35.693338,"lon":139.76835},{"name":"ちよだパークサイドプラザ区民図書室","province":"東京都","city":"千代田区","address":"東京都千代田区神田和泉町","lat":35.699253,"lon":139.778826},{"name":"千代田区立内幸町ホール","province":"東京都","city":"千代田区","address":"東京都千代田区内幸町1丁目5","lat":35.669667,"lon":139.757558},{"name":"千代田区立高齢者総合サポートセンター（かがやきプラザ）","province":"東京都","city":"千代田区","address":"東京都千代田区九段南1丁目6-12","lat":35.693872,"lon":139.752078},{"name":"皇居前広場","province":"東京都","city":"千代田区","address":"東京都千代田区皇居外苑1","lat":35.67806805,"lon":139.7588226},{"name":"都立日比谷公園（第二花壇）","province":"東京都","city":"千代田区","address":"東京都千代田区日比谷公園1","lat":35.67461838,"lon":139.75677845},{"name":"上智大学運動場","province":"東京都","city":"千代田区","address":"東京都千代田区紀尾井町5","lat":35.6830057,"lon":139.73098034},{"name":"北の丸公園第２駐車場","province":"東京都","city":"千代田区","address":"東京都千代田区北の丸公園2","lat":35.6932523,"lon":139.75056715},{"name":"北の丸公園第３駐車場","province":"東京都","city":"千代田区","address":"東京都千代田区北の丸公園1-1","lat":35.69242736,"lon":139.74948116},{"name":"＊?九段生涯学習館","province":"東京都","city":"千代田区","address":"千代田区九段南1-5-10","lat":35.695164,"lon":139.75206},{"name":"＊?スポーツセンター(7･8階生涯学習施設部分）","province":"東京都","city":"千代田区","address":"千代田区内神田2-1-8","lat":35.689135,"lon":139.767584},{"name":"宝田橋","province":"東京都","city":"千代田区","address":"東京都千代田区九段南1丁目2-1","lat":35.69407451,"lon":139.75364744},{"name":"九段中等教育学校","province":"東京都","city":"千代田区","address":"東京都千代田区九段北2丁目2-1","lat":35.69609634,"lon":139.74728118},{"name":"東京国道事務所","province":"東京都","city":"千代田区","address":"千代田区九段南1-2-1","lat":35.694003,"lon":139.753634},{"name":"警視庁","province":"東京都","city":"千代田区","address":"千代田区霞が関2-1-1","lat":35.676841,"lon":139.752068},{"name":"西東京管理局","province":"東京都","city":"千代田区","address":"千代田区平河町2-16-3","lat":35.67951,"lon":139.742},{"name":"西東京管理局三宅坂分室","province":"東京都","city":"千代田区","address":"千代田区永田町1-8-2","lat":35.67919,"lon":139.7458},{"name":"千代田区","province":"東京都","city":"千代田区","address":"千代田区九段北1-2-14B1","lat":35.696072,"lon":139.752143},{"name":"東京駅","province":"東京都","city":"千代田区","address":"東京都千代田区丸の内1丁目9-1","lat":35.68183174,"lon":139.76677464},{"name":"秋葉原駅","province":"東京都","city":"千代田区","address":"東京都千代田区外神田1丁目17-6","lat":35.6986329,"lon":139.77284615},{"name":"水道橋A","province":"東京都","city":"千代田区","address":"東京都千代田区神田三崎町2丁目22","lat":35.702111,"lon":139.75513},{"name":"千代田合同庁舎","province":"東京都","city":"千代田区","address":"東京都千代田区内神田2丁目1-12","lat":35.688985,"lon":139.768232},{"name":"東京しごとセンター","province":"東京都","city":"千代田区","address":"東京都千代田区飯田橋3丁目10-1","lat":35.700311,"lon":139.749855},{"name":"東京国際フォーラム","province":"東京都","city":"千代田区","address":"東京都千代田区丸の内3丁目5-1","lat":35.676314,"lon":139.764174},{"name":"東京国際フォーラム","province":"東京都","city":"千代田区","address":"東京都千代田区丸の内3丁目5-1","lat":35.676352,"lon":139.764309},{"name":"東京国際フォーラム","province":"東京都","city":"千代田区","address":"東京都千代田区丸の内3丁目5","lat":35.676086,"lon":139.763027},{"name":"東京国際フォーラム","province":"東京都","city":"千代田区","address":"東京都千代田区丸の内3丁目5-1","lat":35.677562,"lon":139.763923},{"name":"日比谷公園","province":"東京都","city":"千代田区","address":"東京都千代田区日比谷公園1","lat":35.674014,"lon":139.754432},{"name":"日比谷公園","province":"東京都","city":"千代田区","address":"東京都千代田区日比谷公園1","lat":35.67456,"lon":139.756784},{"name":"日比谷公園","province":"東京都","city":"千代田区","address":"東京都千代田区日比谷公園1","lat":35.672179,"lon":139.755556},{"name":"日比谷公園","province":"東京都","city":"千代田区","address":"東京都千代田区日比谷公園1","lat":35.675722,"lon":139.757134},{"name":"日比谷公園","province":"東京都","city":"千代田区","address":"東京都千代田区日比谷公園1","lat":35.67432,"lon":139.756837},{"name":"日比谷公園","province":"東京都","city":"千代田区","address":"東京都千代田区日比谷公園1","lat":35.674892,"lon":139.755673},{"name":"日比谷公園","province":"東京都","city":"千代田区","address":"東京都千代田区日比谷公園1-5","lat":35.672404,"lon":139.75393},{"name":"日比谷公園","province":"東京都","city":"千代田区","address":"東京都千代田区日比谷公園1","lat":35.672365,"lon":139.754034},{"name":"日比谷公園","province":"東京都","city":"千代田区","address":"東京都千代田区日比谷公園1-5","lat":35.673155,"lon":139.753984},{"name":"日比谷公園","province":"東京都","city":"千代田区","address":"東京都千代田区日比谷公園1","lat":35.672811,"lon":139.753939},{"name":"日比谷公園","province":"東京都","city":"千代田区","address":"東京都千代田区日比谷公園1","lat":35.672811,"lon":139.753954},{"name":"都営三田線駅内幸町駅","province":"東京都","city":"千代田区","address":"東京都千代田区内幸町2丁目2","lat":35.669176,"lon":139.755244},{"name":"都営三田線駅日比谷駅","province":"東京都","city":"千代田区","address":"東京都千代田区有楽町1丁目13","lat":35.675739,"lon":139.759879},{"name":"都営三田線駅大手町駅","province":"東京都","city":"千代田区","address":"東京都千代田区丸の内1丁目2","lat":35.683028,"lon":139.762534},{"name":"都営三田線駅神保町駅","province":"東京都","city":"千代田区","address":"東京都千代田区一ツ橋2丁目3","lat":35.693965,"lon":139.758481},{"name":"都営新宿線市ヶ谷駅","province":"東京都","city":"千代田区","address":"東京都千代田区九段南4丁目8","lat":35.691167,"lon":139.736429},{"name":"都営新宿線市ヶ谷駅","province":"東京都","city":"千代田区","address":"東京都千代田区九段南4丁目7","lat":35.691942,"lon":139.739051},{"name":"都営新宿線九段下駅","province":"東京都","city":"千代田区","address":"東京都千代田区九段北1丁目2","lat":35.69564,"lon":139.751905},{"name":"都営新宿線神保町駅","province":"東京都","city":"千代田区","address":"東京都千代田区神田神保町2丁目","lat":35.696018,"lon":139.757721},{"name":"都営新宿線神保町駅","province":"東京都","city":"千代田区","address":"東京都千代田区神田神保町2丁目","lat":35.695857,"lon":139.757728},{"name":"都営新宿線小川町駅","province":"東京都","city":"千代田区","address":"東京都千代田区神田須田町1丁目","lat":35.695526,"lon":139.767686},{"name":"都営新宿線岩本町駅","province":"東京都","city":"千代田区","address":"東京都千代田区神田岩本町","lat":35.695646,"lon":139.774739},{"name":"東京消防庁本部庁舎","province":"東京都","city":"千代田区","address":"東京都千代田区大手町1丁目3-5","lat":35.688894,"lon":139.761545},{"name":"東京消防庁本部庁舎","province":"東京都","city":"千代田区","address":"東京都千代田区大手町1丁目3-5","lat":35.688926,"lon":139.761479},{"name":"麹町消防署永田町出張所","province":"東京都","city":"千代田区","address":"東京都千代田区永田町1丁目8-3","lat":35.678963,"lon":139.745898},{"name":"神田消防署三崎町出張所","province":"東京都","city":"千代田区","address":"東京都千代田区神田三崎町3丁目3-9","lat":35.700008,"lon":139.752161},{"name":"千代田区役所本庁舎","province":"東京都","city":"千代田区","address":"東京都千代田区九段南1丁目2-1","lat":35.694068,"lon":139.753463},{"name":"千代田区役所本庁舎","province":"東京都","city":"千代田区","address":"東京都千代田区九段南1丁目2-1","lat":35.693969,"lon":139.753566},{"name":"万世橋出張所・区民館","province":"東京都","city":"千代田区","address":"東京都千代田区外神田1丁目1-13","lat":35.697583,"lon":139.770668},{"name":"麹町出張所・区民館","province":"東京都","city":"千代田区","address":"東京都千代田区麹町2丁目8","lat":35.685583,"lon":139.739954},{"name":"富士見出張所・区民館","province":"東京都","city":"千代田区","address":"東京都千代田区富士見1丁目6-7","lat":35.699099,"lon":139.746385},{"name":"神保町出張所・区民館","province":"東京都","city":"千代田区","address":"東京都千代田区神田神保町2丁目40","lat":35.697652,"lon":139.755409},{"name":"神保町出張所・区民館","province":"東京都","city":"千代田区","address":"東京都千代田区神田神保町2丁目40","lat":35.697619,"lon":139.755397},{"name":"神田公園出張所・区民館","province":"東京都","city":"千代田区","address":"東京都千代田区神田司町2丁目2","lat":35.692748,"lon":139.768155},{"name":"和泉橋出張所・区民館","province":"東京都","city":"千代田区","address":"東京都千代田区神田佐久間町1丁目11-7","lat":35.69739,"lon":139.774998},{"name":"和泉橋出張所・区民館","province":"東京都","city":"千代田区","address":"東京都千代田区神田佐久間町1丁目11-7","lat":35.69739,"lon":139.774983},{"name":"和泉橋出張所・区民館","province":"東京都","city":"千代田区","address":"東京都千代田区神田佐久間町1丁目11-7","lat":35.697392,"lon":139.774949},{"name":"千代田万世会館","province":"東京都","city":"千代田区","address":"東京都千代田区外神田1丁目1","lat":35.697729,"lon":139.770534},{"name":"一番町集会室","province":"東京都","city":"千代田区","address":"東京都千代田区一番町10-22","lat":35.686428,"lon":139.73921},{"name":"千代田区立スポーツセンター","province":"東京都","city":"千代田区","address":"東京都千代田区内神田2丁目1-8","lat":35.689174,"lon":139.767634},{"name":"九段生涯学習館","province":"東京都","city":"千代田区","address":"東京都千代田区九段南1丁目5-10","lat":35.695214,"lon":139.752124},{"name":"千代田保健所","province":"東京都","city":"千代田区","address":"東京都千代田区九段北1丁目2-14","lat":35.69595,"lon":139.752142},{"name":"千代田保健所","province":"東京都","city":"千代田区","address":"東京都千代田区九段北1丁目2-14","lat":35.695949,"lon":139.752125},{"name":"日比谷図書文化館","province":"東京都","city":"千代田区","address":"東京都千代田区日比谷公園1-4","lat":35.671809,"lon":139.754312},{"name":"日比谷図書文化館","province":"東京都","city":"千代田区","address":"東京都千代田区日比谷公園1-4","lat":35.671816,"lon":139.754417},{"name":"日比谷図書文化館","province":"東京都","city":"千代田区","address":"東京都千代田区日比谷公園1-4","lat":35.671698,"lon":139.754708},{"name":"日比谷図書文化館","province":"東京都","city":"千代田区","address":"東京都千代田区日比谷公園1-4","lat":35.671891,"lon":139.754702},{"name":"千代田区立四番町図書館","province":"東京都","city":"千代田区","address":"東京都千代田区三番町14-7","lat":35.6905,"lon":139.741564},{"name":"昌平まちかど図書館","province":"東京都","city":"千代田区","address":"東京都千代田区外神田3丁目4-7","lat":35.701285,"lon":139.769885},{"name":"神田まちかど図書館","province":"東京都","city":"千代田区","address":"東京都千代田区神田司町2丁目16","lat":35.693338,"lon":139.76835},{"name":"ちよだパークサイドプラザ区民図書室","province":"東京都","city":"千代田区","address":"東京都千代田区神田和泉町","lat":35.699253,"lon":139.778826},{"name":"千代田区立内幸町ホール","province":"東京都","city":"千代田区","address":"東京都千代田区内幸町1丁目5","lat":35.669667,"lon":139.757558},{"name":"千代田区立高齢者総合サポートセンター（かがやきプラザ）","province":"東京都","city":"千代田区","address":"東京都千代田区九段南1丁目6-12","lat":35.693872,"lon":139.752078},{"name":"＊?九段生涯学習館","province":"東京都","city":"千代田区","address":"千代田区九段南1-5-10","lat":35.695164,"lon":139.75206},{"name":"＊?スポーツセンター(7･8階生涯学習施設部分）","province":"東京都","city":"千代田区","address":"千代田区内神田2-1-8","lat":35.689135,"lon":139.767584},{"name":"水道橋A","province":"東京都","city":"千代田区","address":"東京都千代田区神田三崎町2丁目22","lat":35.702111,"lon":139.75513},{"name":"千代田合同庁舎","province":"東京都","city":"千代田区","address":"東京都千代田区内神田2丁目1-12","lat":35.688985,"lon":139.768232},{"name":"東京しごとセンター","province":"東京都","city":"千代田区","address":"東京都千代田区飯田橋3丁目10-1","lat":35.700311,"lon":139.749855},{"name":"東京国際フォーラム","province":"東京都","city":"千代田区","address":"東京都千代田区丸の内3丁目5-1","lat":35.676314,"lon":139.764174},{"name":"東京国際フォーラム","province":"東京都","city":"千代田区","address":"東京都千代田区丸の内3丁目5-1","lat":35.676352,"lon":139.764309},{"name":"東京国際フォーラム","province":"東京都","city":"千代田区","address":"東京都千代田区丸の内3丁目5","lat":35.676086,"lon":139.763027},{"name":"東京国際フォーラム","province":"東京都","city":"千代田区","address":"東京都千代田区丸の内3丁目5-1","lat":35.677562,"lon":139.763923},{"name":"日比谷公園","province":"東京都","city":"千代田区","address":"東京都千代田区日比谷公園1","lat":35.674014,"lon":139.754432},{"name":"日比谷公園","province":"東京都","city":"千代田区","address":"東京都千代田区日比谷公園1","lat":35.67456,"lon":139.756784},{"name":"日比谷公園","province":"東京都","city":"千代田区","address":"東京都千代田区日比谷公園1","lat":35.672179,"lon":139.755556},{"name":"日比谷公園","province":"東京都","city":"千代田区","address":"東京都千代田区日比谷公園1","lat":35.675722,"lon":139.757134},{"name":"日比谷公園","province":"東京都","city":"千代田区","address":"東京都千代田区日比谷公園1","lat":35.67432,"lon":139.756837},{"name":"日比谷公園","province":"東京都","city":"千代田区","address":"東京都千代田区日比谷公園1","lat":35.674892,"lon":139.755673},{"name":"日比谷公園","province":"東京都","city":"千代田区","address":"東京都千代田区日比谷公園1-5","lat":35.672404,"lon":139.75393},{"name":"日比谷公園","province":"東京都","city":"千代田区","address":"東京都千代田区日比谷公園1","lat":35.672365,"lon":139.754034},{"name":"日比谷公園","province":"東京都","city":"千代田区","address":"東京都千代田区日比谷公園1-5","lat":35.673155,"lon":139.753984},{"name":"日比谷公園","province":"東京都","city":"千代田区","address":"東京都千代田区日比谷公園1","lat":35.672811,"lon":139.753939},{"name":"日比谷公園","province":"東京都","city":"千代田区","address":"東京都千代田区日比谷公園1","lat":35.672811,"lon":139.753954},{"name":"都営三田線駅内幸町駅","province":"東京都","city":"千代田区","address":"東京都千代田区内幸町2丁目2","lat":35.669176,"lon":139.755244},{"name":"都営三田線駅日比谷駅","province":"東京都","city":"千代田区","address":"東京都千代田区有楽町1丁目13","lat":35.675739,"lon":139.759879},{"name":"都営三田線駅大手町駅","province":"東京都","city":"千代田区","address":"東京都千代田区丸の内1丁目2","lat":35.683028,"lon":139.762534},{"name":"都営三田線駅神保町駅","province":"東京都","city":"千代田区","address":"東京都千代田区一ツ橋2丁目3","lat":35.693965,"lon":139.758481},{"name":"都営新宿線市ヶ谷駅","province":"東京都","city":"千代田区","address":"東京都千代田区九段南4丁目8","lat":35.691167,"lon":139.736429},{"name":"都営新宿線市ヶ谷駅","province":"東京都","city":"千代田区","address":"東京都千代田区九段南4丁目7","lat":35.691942,"lon":139.739051},{"name":"都営新宿線九段下駅","province":"東京都","city":"千代田区","address":"東京都千代田区九段北1丁目2","lat":35.69564,"lon":139.751905},{"name":"都営新宿線神保町駅","province":"東京都","city":"千代田区","address":"東京都千代田区神田神保町2丁目","lat":35.696018,"lon":139.757721},{"name":"都営新宿線神保町駅","province":"東京都","city":"千代田区","address":"東京都千代田区神田神保町2丁目","lat":35.695857,"lon":139.757728},{"name":"都営新宿線小川町駅","province":"東京都","city":"千代田区","address":"東京都千代田区神田須田町1丁目","lat":35.695526,"lon":139.767686},{"name":"都営新宿線岩本町駅","province":"東京都","city":"千代田区","address":"東京都千代田区神田岩本町","lat":35.695646,"lon":139.774739},{"name":"東京消防庁本部庁舎","province":"東京都","city":"千代田区","address":"東京都千代田区大手町1丁目3-5","lat":35.688894,"lon":139.761545},{"name":"東京消防庁本部庁舎","province":"東京都","city":"千代田区","address":"東京都千代田区大手町1丁目3-5","lat":35.688926,"lon":139.761479},{"name":"麹町消防署永田町出張所","province":"東京都","city":"千代田区","address":"東京都千代田区永田町1丁目8-3","lat":35.678963,"lon":139.745898},{"name":"神田消防署三崎町出張所","province":"東京都","city":"千代田区","address":"東京都千代田区神田三崎町3丁目3-9","lat":35.700008,"lon":139.752161},{"name":"千代田区役所本庁舎","province":"東京都","city":"千代田区","address":"東京都千代田区九段南1丁目2-1","lat":35.694068,"lon":139.753463},{"name":"千代田区役所本庁舎","province":"東京都","city":"千代田区","address":"東京都千代田区九段南1丁目2-1","lat":35.693969,"lon":139.753566},{"name":"万世橋出張所・区民館","province":"東京都","city":"千代田区","address":"東京都千代田区外神田1丁目1-13","lat":35.697583,"lon":139.770668},{"name":"麹町出張所・区民館","province":"東京都","city":"千代田区","address":"東京都千代田区麹町2丁目8","lat":35.685583,"lon":139.739954},{"name":"富士見出張所・区民館","province":"東京都","city":"千代田区","address":"東京都千代田区富士見1丁目6-7","lat":35.699099,"lon":139.746385},{"name":"神保町出張所・区民館","province":"東京都","city":"千代田区","address":"東京都千代田区神田神保町2丁目40","lat":35.697652,"lon":139.755409},{"name":"神保町出張所・区民館","province":"東京都","city":"千代田区","address":"東京都千代田区神田神保町2丁目40","lat":35.697619,"lon":139.755397},{"name":"神田公園出張所・区民館","province":"東京都","city":"千代田区","address":"東京都千代田区神田司町2丁目2","lat":35.692748,"lon":139.768155},{"name":"和泉橋出張所・区民館","province":"東京都","city":"千代田区","address":"東京都千代田区神田佐久間町1丁目11-7","lat":35.69739,"lon":139.774998},{"name":"和泉橋出張所・区民館","province":"東京都","city":"千代田区","address":"東京都千代田区神田佐久間町1丁目11-7","lat":35.69739,"lon":139.774983},{"name":"和泉橋出張所・区民館","province":"東京都","city":"千代田区","address":"東京都千代田区神田佐久間町1丁目11-7","lat":35.697392,"lon":139.774949},{"name":"千代田万世会館","province":"東京都","city":"千代田区","address":"東京都千代田区外神田1丁目1","lat":35.697729,"lon":139.770534},{"name":"一番町集会室","province":"東京都","city":"千代田区","address":"東京都千代田区一番町10-22","lat":35.686428,"lon":139.73921},{"name":"千代田区立スポーツセンター","province":"東京都","city":"千代田区","address":"東京都千代田区内神田2丁目1-8","lat":35.689174,"lon":139.767634},{"name":"九段生涯学習館","province":"東京都","city":"千代田区","address":"東京都千代田区九段南1丁目5-10","lat":35.695214,"lon":139.752124},{"name":"千代田保健所","province":"東京都","city":"千代田区","address":"東京都千代田区九段北1丁目2-14","lat":35.69595,"lon":139.752142},{"name":"千代田保健所","province":"東京都","city":"千代田区","address":"東京都千代田区九段北1丁目2-14","lat":35.695949,"lon":139.752125},{"name":"日比谷図書文化館","province":"東京都","city":"千代田区","address":"東京都千代田区日比谷公園1-4","lat":35.671809,"lon":139.754312},{"name":"日比谷図書文化館","province":"東京都","city":"千代田区","address":"東京都千代田区日比谷公園1-4","lat":35.671816,"lon":139.754417},{"name":"日比谷図書文化館","province":"東京都","city":"千代田区","address":"東京都千代田区日比谷公園1-4","lat":35.671698,"lon":139.754708},{"name":"日比谷図書文化館","province":"東京都","city":"千代田区","address":"東京都千代田区日比谷公園1-4","lat":35.671891,"lon":139.754702},{"name":"千代田区立四番町図書館","province":"東京都","city":"千代田区","address":"東京都千代田区三番町14-7","lat":35.6905,"lon":139.741564},{"name":"昌平まちかど図書館","province":"東京都","city":"千代田区","address":"東京都千代田区外神田3丁目4-7","lat":35.701285,"lon":139.769885},{"name":"神田まちかど図書館","province":"東京都","city":"千代田区","address":"東京都千代田区神田司町2丁目16","lat":35.693338,"lon":139.76835},{"name":"ちよだパークサイドプラザ区民図書室","province":"東京都","city":"千代田区","address":"東京都千代田区神田和泉町","lat":35.699253,"lon":139.778826},{"name":"千代田区立内幸町ホール","province":"東京都","city":"千代田区","address":"東京都千代田区内幸町1丁目5","lat":35.669667,"lon":139.757558},{"name":"千代田区立高齢者総合サポートセンター（かがやきプラザ）","province":"東京都","city":"千代田区","address":"東京都千代田区九段南1丁目6-12","lat":35.693872,"lon":139.752078},{"name":"＊?九段生涯学習館","province":"東京都","city":"千代田区","address":"千代田区九段南1-5-10","lat":35.695164,"lon":139.75206},{"name":"＊?スポーツセンター(7･8階生涯学習施設部分）","province":"東京都","city":"千代田区","address":"千代田区内神田2-1-8","lat":35.689135,"lon":139.767584},{"name":"水道橋A","province":"東京都","city":"千代田区","address":"東京都千代田区神田三崎町2丁目22","lat":35.702111,"lon":139.75513},{"name":"千代田合同庁舎","province":"東京都","city":"千代田区","address":"東京都千代田区内神田2丁目1-12","lat":35.688985,"lon":139.768232},{"name":"東京しごとセンター","province":"東京都","city":"千代田区","address":"東京都千代田区飯田橋3丁目10-1","lat":35.700311,"lon":139.749855},{"name":"東京国際フォーラム","province":"東京都","city":"千代田区","address":"東京都千代田区丸の内3丁目5-1","lat":35.676314,"lon":139.764174},{"name":"東京国際フォーラム","province":"東京都","city":"千代田区","address":"東京都千代田区丸の内3丁目5-1","lat":35.676352,"lon":139.764309},{"name":"東京国際フォーラム","province":"東京都","city":"千代田区","address":"東京都千代田区丸の内3丁目5","lat":35.676086,"lon":139.763027},{"name":"東京国際フォーラム","province":"東京都","city":"千代田区","address":"東京都千代田区丸の内3丁目5-1","lat":35.677562,"lon":139.763923},{"name":"日比谷公園","province":"東京都","city":"千代田区","address":"東京都千代田区日比谷公園1","lat":35.674014,"lon":139.754432},{"name":"日比谷公園","province":"東京都","city":"千代田区","address":"東京都千代田区日比谷公園1","lat":35.67456,"lon":139.756784},{"name":"日比谷公園","province":"東京都","city":"千代田区","address":"東京都千代田区日比谷公園1","lat":35.672179,"lon":139.755556},{"name":"日比谷公園","province":"東京都","city":"千代田区","address":"東京都千代田区日比谷公園1","lat":35.675722,"lon":139.757134},{"name":"日比谷公園","province":"東京都","city":"千代田区","address":"東京都千代田区日比谷公園1","lat":35.67432,"lon":139.756837},{"name":"日比谷公園","province":"東京都","city":"千代田区","address":"東京都千代田区日比谷公園1","lat":35.674892,"lon":139.755673},{"name":"日比谷公園","province":"東京都","city":"千代田区","address":"東京都千代田区日比谷公園1-5","lat":35.672404,"lon":139.75393},{"name":"日比谷公園","province":"東京都","city":"千代田区","address":"東京都千代田区日比谷公園1","lat":35.672365,"lon":139.754034},{"name":"日比谷公園","province":"東京都","city":"千代田区","address":"東京都千代田区日比谷公園1-5","lat":35.673155,"lon":139.753984},{"name":"日比谷公園","province":"東京都","city":"千代田区","address":"東京都千代田区日比谷公園1","lat":35.672811,"lon":139.753939},{"name":"日比谷公園","province":"東京都","city":"千代田区","address":"東京都千代田区日比谷公園1","lat":35.672811,"lon":139.753954},{"name":"都営三田線駅内幸町駅","province":"東京都","city":"千代田区","address":"東京都千代田区内幸町2丁目2","lat":35.669176,"lon":139.755244},{"name":"都営三田線駅日比谷駅","province":"東京都","city":"千代田区","address":"東京都千代田区有楽町1丁目13","lat":35.675739,"lon":139.759879},{"name":"都営三田線駅大手町駅","province":"東京都","city":"千代田区","address":"東京都千代田区丸の内1丁目2","lat":35.683028,"lon":139.762534},{"name":"都営三田線駅神保町駅","province":"東京都","city":"千代田区","address":"東京都千代田区一ツ橋2丁目3","lat":35.693965,"lon":139.758481},{"name":"都営新宿線市ヶ谷駅","province":"東京都","city":"千代田区","address":"東京都千代田区九段南4丁目8","lat":35.691167,"lon":139.736429},{"name":"都営新宿線市ヶ谷駅","province":"東京都","city":"千代田区","address":"東京都千代田区九段南4丁目7","lat":35.691942,"lon":139.739051},{"name":"都営新宿線九段下駅","province":"東京都","city":"千代田区","address":"東京都千代田区九段北1丁目2","lat":35.69564,"lon":139.751905},{"name":"都営新宿線神保町駅","province":"東京都","city":"千代田区","address":"東京都千代田区神田神保町2丁目","lat":35.696018,"lon":139.757721},{"name":"都営新宿線神保町駅","province":"東京都","city":"千代田区","address":"東京都千代田区神田神保町2丁目","lat":35.695857,"lon":139.757728},{"name":"都営新宿線小川町駅","province":"東京都","city":"千代田区","address":"東京都千代田区神田須田町1丁目","lat":35.695526,"lon":139.767686},{"name":"都営新宿線岩本町駅","province":"東京都","city":"千代田区","address":"東京都千代田区神田岩本町","lat":35.695646,"lon":139.774739},{"name":"東京消防庁本部庁舎","province":"東京都","city":"千代田区","address":"東京都千代田区大手町1丁目3-5","lat":35.688894,"lon":139.761545},{"name":"東京消防庁本部庁舎","province":"東京都","city":"千代田区","address":"東京都千代田区大手町1丁目3-5","lat":35.688926,"lon":139.761479},{"name":"麹町消防署永田町出張所","province":"東京都","city":"千代田区","address":"東京都千代田区永田町1丁目8-3","lat":35.678963,"lon":139.745898},{"name":"神田消防署三崎町出張所","province":"東京都","city":"千代田区","address":"東京都千代田区神田三崎町3丁目3-9","lat":35.700008,"lon":139.752161},{"name":"千代田区役所本庁舎","province":"東京都","city":"千代田区","address":"東京都千代田区九段南1丁目2-1","lat":35.694068,"lon":139.753463},{"name":"千代田区役所本庁舎","province":"東京都","city":"千代田区","address":"東京都千代田区九段南1丁目2-1","lat":35.693969,"lon":139.753566},{"name":"万世橋出張所・区民館","province":"東京都","city":"千代田区","address":"東京都千代田区外神田1丁目1-13","lat":35.697583,"lon":139.770668},{"name":"麹町出張所・区民館","province":"東京都","city":"千代田区","address":"東京都千代田区麹町2丁目8","lat":35.685583,"lon":139.739954},{"name":"富士見出張所・区民館","province":"東京都","city":"千代田区","address":"東京都千代田区富士見1丁目6-7","lat":35.699099,"lon":139.746385},{"name":"神保町出張所・区民館","province":"東京都","city":"千代田区","address":"東京都千代田区神田神保町2丁目40","lat":35.697652,"lon":139.755409},{"name":"神保町出張所・区民館","province":"東京都","city":"千代田区","address":"東京都千代田区神田神保町2丁目40","lat":35.697619,"lon":139.755397},{"name":"神田公園出張所・区民館","province":"東京都","city":"千代田区","address":"東京都千代田区神田司町2丁目2","lat":35.692748,"lon":139.768155},{"name":"和泉橋出張所・区民館","province":"東京都","city":"千代田区","address":"東京都千代田区神田佐久間町1丁目11-7","lat":35.69739,"lon":139.774998},{"name":"和泉橋出張所・区民館","province":"東京都","city":"千代田区","address":"東京都千代田区神田佐久間町1丁目11-7","lat":35.69739,"lon":139.774983},{"name":"和泉橋出張所・区民館","province":"東京都","city":"千代田区","address":"東京都千代田区神田佐久間町1丁目11-7","lat":35.697392,"lon":139.774949},{"name":"千代田万世会館","province":"東京都","city":"千代田区","address":"東京都千代田区外神田1丁目1","lat":35.697729,"lon":139.770534},{"name":"一番町集会室","province":"東京都","city":"千代田区","address":"東京都千代田区一番町10-22","lat":35.686428,"lon":139.73921},{"name":"千代田区立スポーツセンター","province":"東京都","city":"千代田区","address":"東京都千代田区内神田2丁目1-8","lat":35.689174,"lon":139.767634},{"name":"九段生涯学習館","province":"東京都","city":"千代田区","address":"東京都千代田区九段南1丁目5-10","lat":35.695214,"lon":139.752124},{"name":"千代田保健所","province":"東京都","city":"千代田区","address":"東京都千代田区九段北1丁目2-14","lat":35.69595,"lon":139.752142},{"name":"千代田保健所","province":"東京都","city":"千代田区","address":"東京都千代田区九段北1丁目2-14","lat":35.695949,"lon":139.752125},{"name":"日比谷図書文化館","province":"東京都","city":"千代田区","address":"東京都千代田区日比谷公園1-4","lat":35.671809,"lon":139.754312},{"name":"日比谷図書文化館","province":"東京都","city":"千代田区","address":"東京都千代田区日比谷公園1-4","lat":35.671816,"lon":139.754417},{"name":"日比谷図書文化館","province":"東京都","city":"千代田区","address":"東京都千代田区日比谷公園1-4","lat":35.671698,"lon":139.754708},{"name":"日比谷図書文化館","province":"東京都","city":"千代田区","address":"東京都千代田区日比谷公園1-4","lat":35.671891,"lon":139.754702},{"name":"千代田区立四番町図書館","province":"東京都","city":"千代田区","address":"東京都千代田区三番町14-7","lat":35.6905,"lon":139.741564},{"name":"昌平まちかど図書館","province":"東京都","city":"千代田区","address":"東京都千代田区外神田3丁目4-7","lat":35.701285,"lon":139.769885},{"name":"神田まちかど図書館","province":"東京都","city":"千代田区","address":"東京都千代田区神田司町2丁目16","lat":35.693338,"lon":139.76835},{"name":"ちよだパークサイドプラザ区民図書室","province":"東京都","city":"千代田区","address":"東京都千代田区神田和泉町","lat":35.699253,"lon":139.778826},{"name":"千代田区立内幸町ホール","province":"東京都","city":"千代田区","address":"東京都千代田区内幸町1丁目5","lat":35.669667,"lon":139.757558},{"name":"千代田区立高齢者総合サポートセンター（かがやきプラザ）","province":"東京都","city":"千代田区","address":"東京都千代田区九段南1丁目6-12","lat":35.693872,"lon":139.752078},{"name":"＊?九段生涯学習館","province":"東京都","city":"千代田区","address":"千代田区九段南1-5-10","lat":35.695164,"lon":139.75206},{"name":"＊?スポーツセンター(7･8階生涯学習施設部分）","province":"東京都","city":"千代田区","address":"千代田区内神田2-1-8","lat":35.689135,"lon":139.767584},{"name":"＊?九段生涯学習館","province":"東京都","city":"千代田区","address":"千代田区九段南1-5-10","lat":35.695164,"lon":139.75206},{"name":"＊?スポーツセンター(7･8階生涯学習施設部分）","province":"東京都","city":"千代田区","address":"千代田区内神田2-1-8","lat":35.689135,"lon":139.767584},{"name":"＊?九段生涯学習館","province":"東京都","city":"千代田区","address":"千代田区九段南1-5-10","lat":35.695164,"lon":139.75206},{"name":"＊?スポーツセンター(7･8階生涯学習施設部分）","province":"東京都","city":"千代田区","address":"千代田区内神田2-1-8","lat":35.689135,"lon":139.767584},{"name":"＊?九段生涯学習館","province":"東京都","city":"千代田区","address":"千代田区九段南1-5-10","lat":35.695164,"lon":139.75206},{"name":"＊?スポーツセンター(7･8階生涯学習施設部分）","province":"東京都","city":"千代田区","address":"千代田区内神田2-1-8","lat":35.689135,"lon":139.767584},{"name":"＊?九段生涯学習館","province":"東京都","city":"千代田区","address":"千代田区九段南1-5-10","lat":35.695164,"lon":139.75206},{"name":"＊?スポーツセンター(7･8階生涯学習施設部分）","province":"東京都","city":"千代田区","address":"千代田区内神田2-1-8","lat":35.689135,"lon":139.767584},{"name":"＊?九段生涯学習館","province":"東京都","city":"千代田区","address":"千代田区九段南1-5-10","lat":35.695164,"lon":139.75206},{"name":"＊?スポーツセンター(7･8階生涯学習施設部分）","province":"東京都","city":"千代田区","address":"千代田区内神田2-1-8","lat":35.689135,"lon":139.767584},{"name":"＊?九段生涯学習館","province":"東京都","city":"千代田区","address":"千代田区九段南1-5-10","lat":35.695164,"lon":139.75206},{"name":"＊?スポーツセンター(7･8階生涯学習施設部分）","province":"東京都","city":"千代田区","address":"千代田区内神田2-1-8","lat":35.689135,"lon":139.767584},{"name":"＊?九段生涯学習館","province":"東京都","city":"千代田区","address":"千代田区九段南1-5-10","lat":35.695164,"lon":139.75206},{"name":"＊?スポーツセンター(7･8階生涯学習施設部分）","province":"東京都","city":"千代田区","address":"千代田区内神田2-1-8","lat":35.689135,"lon":139.767584},{"name":"＊?九段生涯学習館","province":"東京都","city":"千代田区","address":"千代田区九段南1-5-10","lat":35.695164,"lon":139.75206},{"name":"＊?スポーツセンター(7･8階生涯学習施設部分）","province":"東京都","city":"千代田区","address":"千代田区内神田2-1-8","lat":35.689135,"lon":139.767584},{"name":"＊?九段生涯学習館","province":"東京都","city":"千代田区","address":"千代田区九段南1-5-10","lat":35.695164,"lon":139.75206},{"name":"＊?スポーツセンター(7･8階生涯学習施設部分）","province":"東京都","city":"千代田区","address":"千代田区内神田2-1-8","lat":35.689135,"lon":139.767584},{"name":"＊?九段生涯学習館","province":"東京都","city":"千代田区","address":"千代田区九段南1-5-10","lat":35.695164,"lon":139.75206},{"name":"＊?スポーツセンター(7･8階生涯学習施設部分）","province":"東京都","city":"千代田区","address":"千代田区内神田2-1-8","lat":35.689135,"lon":139.767584},{"name":"＊?九段生涯学習館","province":"東京都","city":"千代田区","address":"千代田区九段南1-5-10","lat":35.695164,"lon":139.75206},{"name":"＊?スポーツセンター(7･8階生涯学習施設部分）","province":"東京都","city":"千代田区","address":"千代田区内神田2-1-8","lat":35.689135,"lon":139.767584},{"name":"＊?九段生涯学習館","province":"東京都","city":"千代田区","address":"千代田区九段南1-5-10","lat":35.695164,"lon":139.75206},{"name":"＊?スポーツセンター(7･8階生涯学習施設部分）","province":"東京都","city":"千代田区","address":"千代田区内神田2-1-8","lat":35.689135,"lon":139.767584},{"name":"＊?九段生涯学習館","province":"東京都","city":"千代田区","address":"千代田区九段南1-5-10","lat":35.695164,"lon":139.75206},{"name":"＊?スポーツセンター(7･8階生涯学習施設部分）","province":"東京都","city":"千代田区","address":"千代田区内神田2-1-8","lat":35.689135,"lon":139.767584},{"name":"＊?九段生涯学習館","province":"東京都","city":"千代田区","address":"千代田区九段南1-5-10","lat":35.695164,"lon":139.75206},{"name":"＊?スポーツセンター(7･8階生涯学習施設部分）","province":"東京都","city":"千代田区","address":"千代田区内神田2-1-8","lat":35.689135,"lon":139.767584},{"name":"＊?九段生涯学習館","province":"東京都","city":"千代田区","address":"千代田区九段南1-5-10","lat":35.695164,"lon":139.75206},{"name":"＊?スポーツセンター(7･8階生涯学習施設部分）","province":"東京都","city":"千代田区","address":"千代田区内神田2-1-8","lat":35.689135,"lon":139.767584},{"name":"＊?九段生涯学習館","province":"東京都","city":"千代田区","address":"千代田区九段南1-5-10","lat":35.695164,"lon":139.75206},{"name":"＊?スポーツセンター(7･8階生涯学習施設部分）","province":"東京都","city":"千代田区","address":"千代田区内神田2-1-8","lat":35.689135,"lon":139.767584},{"name":"＊?九段生涯学習館","province":"東京都","city":"千代田区","address":"千代田区九段南1-5-10","lat":35.695164,"lon":139.75206},{"name":"＊?スポーツセンター(7･8階生涯学習施設部分）","province":"東京都","city":"千代田区","address":"千代田区内神田2-1-8","lat":35.689135,"lon":139.767584},{"name":"＊?九段生涯学習館","province":"東京都","city":"千代田区","address":"千代田区九段南1-5-10","lat":35.695164,"lon":139.75206},{"name":"＊?スポーツセンター(7･8階生涯学習施設部分）","province":"東京都","city":"千代田区","address":"千代田区内神田2-1-8","lat":35.689135,"lon":139.767584},{"name":"＊?九段生涯学習館","province":"東京都","city":"千代田区","address":"千代田区九段南1-5-10","lat":35.695164,"lon":139.75206},{"name":"＊?スポーツセンター(7･8階生涯学習施設部分）","province":"東京都","city":"千代田区","address":"千代田区内神田2-1-8","lat":35.689135,"lon":139.767584},{"name":"＊?九段生涯学習館","province":"東京都","city":"千代田区","address":"千代田区九段南1-5-10","lat":35.695164,"lon":139.75206},{"name":"＊?スポーツセンター(7･8階生涯学習施設部分）","province":"東京都","city":"千代田区","address":"千代田区内神田2-1-8","lat":35.689135,"lon":139.767584},{"name":"＊?九段生涯学習館","province":"東京都","city":"千代田区","address":"千代田区九段南1-5-10","lat":35.695164,"lon":139.75206},{"name":"＊?スポーツセンター(7･8階生涯学習施設部分）","province":"東京都","city":"千代田区","address":"千代田区内神田2-1-8","lat":35.689135,"lon":139.767584},{"name":"＊?九段生涯学習館","province":"東京都","city":"千代田区","address":"千代田区九段南1-5-10","lat":35.695164,"lon":139.75206},{"name":"＊?スポーツセンター(7･8階生涯学習施設部分）","province":"東京都","city":"千代田区","address":"千代田区内神田2-1-8","lat":35.689135,"lon":139.767584},{"name":"＊?九段生涯学習館","province":"東京都","city":"千代田区","address":"千代田区九段南1-5-10","lat":35.695164,"lon":139.75206},{"name":"＊?スポーツセンター(7･8階生涯学習施設部分）","province":"東京都","city":"千代田区","address":"千代田区内神田2-1-8","lat":35.689135,"lon":139.767584},{"name":"＊?九段生涯学習館","province":"東京都","city":"千代田区","address":"千代田区九段南1-5-10","lat":35.695164,"lon":139.75206},{"name":"＊?スポーツセンター(7･8階生涯学習施設部分）","province":"東京都","city":"千代田区","address":"千代田区内神田2-1-8","lat":35.689135,"lon":139.767584},{"name":"＊?九段生涯学習館","province":"東京都","city":"千代田区","address":"千代田区九段南1-5-10","lat":35.695164,"lon":139.75206},{"name":"＊?スポーツセンター(7･8階生涯学習施設部分）","province":"東京都","city":"千代田区","address":"千代田区内神田2-1-8","lat":35.689135,"lon":139.767584},{"name":"＊?九段生涯学習館","province":"東京都","city":"千代田区","address":"千代田区九段南1-5-10","lat":35.695164,"lon":139.75206},{"name":"＊?スポーツセンター(7･8階生涯学習施設部分）","province":"東京都","city":"千代田区","address":"千代田区内神田2-1-8","lat":35.689135,"lon":139.767584},{"name":"＊?九段生涯学習館","province":"東京都","city":"千代田区","address":"千代田区九段南1-5-10","lat":35.695164,"lon":139.75206},{"name":"＊?スポーツセンター(7･8階生涯学習施設部分）","province":"東京都","city":"千代田区","address":"千代田区内神田2-1-8","lat":35.689135,"lon":139.767584},{"name":"＊?九段生涯学習館","province":"東京都","city":"千代田区","address":"千代田区九段南1-5-10","lat":35.695164,"lon":139.75206},{"name":"＊?スポーツセンター(7･8階生涯学習施設部分）","province":"東京都","city":"千代田区","address":"千代田区内神田2-1-8","lat":35.689135,"lon":139.767584},{"name":"＊?九段生涯学習館","province":"東京都","city":"千代田区","address":"千代田区九段南1-5-10","lat":35.695164,"lon":139.75206},{"name":"＊?スポーツセンター(7･8階生涯学習施設部分）","province":"東京都","city":"千代田区","address":"千代田区内神田2-1-8","lat":35.689135,"lon":139.767584},{"name":"＊?九段生涯学習館","province":"東京都","city":"千代田区","address":"千代田区九段南1-5-10","lat":35.695164,"lon":139.75206},{"name":"＊?スポーツセンター(7･8階生涯学習施設部分）","province":"東京都","city":"千代田区","address":"千代田区内神田2-1-8","lat":35.689135,"lon":139.767584},{"name":"＊?九段生涯学習館","province":"東京都","city":"千代田区","address":"千代田区九段南1-5-10","lat":35.695164,"lon":139.75206},{"name":"＊?スポーツセンター(7･8階生涯学習施設部分）","province":"東京都","city":"千代田区","address":"千代田区内神田2-1-8","lat":35.689135,"lon":139.767584},{"name":"＊?九段生涯学習館","province":"東京都","city":"千代田区","address":"千代田区九段南1-5-10","lat":35.695164,"lon":139.75206},{"name":"＊?スポーツセンター(7･8階生涯学習施設部分）","province":"東京都","city":"千代田区","address":"千代田区内神田2-1-8","lat":35.689135,"lon":139.767584},{"name":"＊?九段生涯学習館","province":"東京都","city":"千代田区","address":"千代田区九段南1-5-10","lat":35.695164,"lon":139.75206},{"name":"＊?スポーツセンター(7･8階生涯学習施設部分）","province":"東京都","city":"千代田区","address":"千代田区内神田2-1-8","lat":35.689135,"lon":139.767584},{"name":"＊?九段生涯学習館","province":"東京都","city":"千代田区","address":"千代田区九段南1-5-10","lat":35.695164,"lon":139.75206},{"name":"＊?スポーツセンター(7･8階生涯学習施設部分）","province":"東京都","city":"千代田区","address":"千代田区内神田2-1-8","lat":35.689135,"lon":139.767584},{"name":"＊?九段生涯学習館","province":"東京都","city":"千代田区","address":"千代田区九段南1-5-10","lat":35.695164,"lon":139.75206},{"name":"＊?スポーツセンター(7･8階生涯学習施設部分）","province":"東京都","city":"千代田区","address":"千代田区内神田2-1-8","lat":35.689135,"lon":139.767584},{"name":"＊?九段生涯学習館","province":"東京都","city":"千代田区","address":"千代田区九段南1-5-10","lat":35.695164,"lon":139.75206},{"name":"＊?スポーツセンター(7･8階生涯学習施設部分）","province":"東京都","city":"千代田区","address":"千代田区内神田2-1-8","lat":35.689135,"lon":139.767584},{"name":"＊?九段生涯学習館","province":"東京都","city":"千代田区","address":"千代田区九段南1-5-10","lat":35.695164,"lon":139.75206},{"name":"＊?スポーツセンター(7･8階生涯学習施設部分）","province":"東京都","city":"千代田区","address":"千代田区内神田2-1-8","lat":35.689135,"lon":139.767584},{"name":"＊?九段生涯学習館","province":"東京都","city":"千代田区","address":"千代田区九段南1-5-10","lat":35.695164,"lon":139.75206},{"name":"＊?スポーツセンター(7･8階生涯学習施設部分）","province":"東京都","city":"千代田区","address":"千代田区内神田2-1-8","lat":35.689135,"lon":139.767584},{"name":"＊?九段生涯学習館","province":"東京都","city":"千代田区","address":"千代田区九段南1-5-10","lat":35.695164,"lon":139.75206},{"name":"＊?スポーツセンター(7･8階生涯学習施設部分）","province":"東京都","city":"千代田区","address":"千代田区内神田2-1-8","lat":35.689135,"lon":139.767584},{"name":"＊?九段生涯学習館","province":"東京都","city":"千代田区","address":"千代田区九段南1-5-10","lat":35.695164,"lon":139.75206},{"name":"＊?スポーツセンター(7･8階生涯学習施設部分）","province":"東京都","city":"千代田区","address":"千代田区内神田2-1-8","lat":35.689135,"lon":139.767584},{"name":"＊?九段生涯学習館","province":"東京都","city":"千代田区","address":"千代田区九段南1-5-10","lat":35.695164,"lon":139.75206},{"name":"＊?スポーツセンター(7･8階生涯学習施設部分）","province":"東京都","city":"千代田区","address":"千代田区内神田2-1-8","lat":35.689135,"lon":139.767584},{"name":"＊?九段生涯学習館","province":"東京都","city":"千代田区","address":"千代田区九段南1-5-10","lat":35.695164,"lon":139.75206},{"name":"＊?スポーツセンター(7･8階生涯学習施設部分）","province":"東京都","city":"千代田区","address":"千代田区内神田2-1-8","lat":35.689135,"lon":139.767584},{"name":"＊?九段生涯学習館","province":"東京都","city":"千代田区","address":"千代田区九段南1-5-10","lat":35.695164,"lon":139.75206},{"name":"＊?スポーツセンター(7･8階生涯学習施設部分）","province":"東京都","city":"千代田区","address":"千代田区内神田2-1-8","lat":35.689135,"lon":139.767584},{"name":"＊?九段生涯学習館","province":"東京都","city":"千代田区","address":"千代田区九段南1-5-10","lat":35.695164,"lon":139.75206},{"name":"＊?スポーツセンター(7･8階生涯学習施設部分）","province":"東京都","city":"千代田区","address":"千代田区内神田2-1-8","lat":35.689135,"lon":139.767584},{"name":"＊?九段生涯学習館","province":"東京都","city":"千代田区","address":"千代田区九段南1-5-10","lat":35.695164,"lon":139.75206},{"name":"＊?スポーツセンター(7･8階生涯学習施設部分）","province":"東京都","city":"千代田区","address":"千代田区内神田2-1-8","lat":35.689135,"lon":139.767584},{"name":"＊?九段生涯学習館","province":"東京都","city":"千代田区","address":"千代田区九段南1-5-10","lat":35.695164,"lon":139.75206},{"name":"＊?スポーツセンター(7･8階生涯学習施設部分）","province":"東京都","city":"千代田区","address":"千代田区内神田2-1-8","lat":35.689135,"lon":139.767584},{"name":"＊?九段生涯学習館","province":"東京都","city":"千代田区","address":"千代田区九段南1-5-10","lat":35.695164,"lon":139.75206},{"name":"＊?スポーツセンター(7･8階生涯学習施設部分）","province":"東京都","city":"千代田区","address":"千代田区内神田2-1-8","lat":35.689135,"lon":139.767584}]}