{"keyword":"戸数","data":[{"name":"千代田区社会福祉協議会","province":"東京都","city":"千代田区","address":"千代田区九段南1-6-10かがやきプラザ4階","lat":35.695088,"lon":139.749373},{"name":"全国社会福祉協議会","province":"東京都","city":"千代田区","address":"千代田区霞が関3-3-2新霞が関ビル","lat":35.671896,"lon":139.746288},{"name":"千代田区","province":"東京都","city":"千代田区","address":"千代田区九段南1-2-1","lat":35.6940028,"lon":139.7536339},{"name":"有限会社石川生造花店","province":"東京都","city":"千代田区","address":"東京都千代田区神田須田町2丁目8-3","lat":35.69532495,"lon":139.77404071},{"name":"有限会社黒澤商店","province":"東京都","city":"千代田区","address":"東京都千代田区外神田3丁目7-7","lat":35.70275738,"lon":139.7702322},{"name":"博善株式会社","province":"東京都","city":"千代田区","address":"東京都千代田区神田錦町1丁目13","lat":35.69157506,"lon":139.76364961},{"name":"有限会社よしだ","province":"東京都","city":"千代田区","address":"東京都千代田区神田司町2丁目6","lat":35.69388604,"lon":139.76784654},{"name":"全国社会福祉協議会","province":"東京都","city":"千代田区","address":"千代田区霞が関3-3-2新霞が関ビル","lat":35.67212,"lon":139.74648},{"name":"千代田区社会福祉協議会","province":"東京都","city":"千代田区","address":"千代田区九段南1-6-10かがやきプラザ4階","lat":35.69438,"lon":139.75159},{"name":"駿河台日本大学病院","province":"東京都","city":"千代田区","address":"東京都千代田区神田駿河台1丁目8-13","lat":35.69821877,"lon":139.76340494},{"name":"三井記念病院","province":"東京都","city":"千代田区","address":"東京都千代田区神田和泉町1","lat":35.69901632,"lon":139.77742103},{"name":"東京都漬物事業協同組合","province":"東京都","city":"千代田区","address":"東京都千代田区外神田2丁目2-17","lat":35.69964098,"lon":139.76772134},{"name":"都立日比谷公園","province":"東京都","city":"千代田区","address":"東京都千代田区日比谷公園1","lat":35.67461838,"lon":139.75677845},{"name":"都立一橋高等学校","province":"東京都","city":"千代田区","address":"東京都千代田区東神田1丁目12-13","lat":35.69458357,"lon":139.78104065},{"name":"東京都漬物事業協同組合","province":"東京都","city":"千代田区","address":"東京都千代田区外神田2丁目2-17","lat":35.69964098,"lon":139.76772134},{"name":"皇居前広場","province":"東京都","city":"千代田区","address":"東京都千代田区皇居外苑1","lat":35.67806805,"lon":139.7588226},{"name":"都立日比谷公園（第二花壇）","province":"東京都","city":"千代田区","address":"東京都千代田区日比谷公園1","lat":35.67461838,"lon":139.75677845},{"name":"上智大学運動場","province":"東京都","city":"千代田区","address":"東京都千代田区紀尾井町5","lat":35.6830057,"lon":139.73098034},{"name":"北の丸公園第２駐車場","province":"東京都","city":"千代田区","address":"東京都千代田区北の丸公園2","lat":35.6932523,"lon":139.75056715},{"name":"北の丸公園第３駐車場","province":"東京都","city":"千代田区","address":"東京都千代田区北の丸公園1-1","lat":35.69242736,"lon":139.74948116},{"name":"千代田区選挙管理委員会","province":"東京都","city":"千代田区","address":"千代田区九段南1-2-1","lat":35.694001,"lon":139.753608},{"name":"千代田都税事務所","province":"東京都","city":"千代田区","address":"東京都千代田区内神田2丁目1-12","lat":35.689081,"lon":139.76828274},{"name":"東京都中小企業振興公社","province":"東京都","city":"千代田区","address":"東京都千代田区神田佐久間町1丁目9","lat":35.69726364,"lon":139.77425451},{"name":"東京しごとセンター","province":"東京都","city":"千代田区","address":"東京都千代田区飯田橋3丁目10-3","lat":35.70055702,"lon":139.74957525},{"name":"日比谷グリーンサロン","province":"東京都","city":"千代田区","address":"東京都千代田区日比谷公園1-5","lat":35.67282684,"lon":139.75432594},{"name":"「緑と水」の市民カレッジ","province":"東京都","city":"千代田区","address":"東京都千代田区日比谷公園1-5","lat":35.67282684,"lon":139.75432594},{"name":"一橋高等学校","province":"東京都","city":"千代田区","address":"東京都千代田区東神田1丁目12-13","lat":35.69458357,"lon":139.78104065},{"name":"日比谷高等学校","province":"東京都","city":"千代田区","address":"東京都千代田区永田町2丁目16-1","lat":35.67628721,"lon":139.73974095},{"name":"スクワール麹町","province":"東京都","city":"千代田区","address":"東京都千代田区麹町6丁目6","lat":35.68555823,"lon":139.73222458},{"name":"東京交通会館","province":"東京都","city":"千代田区","address":"東京都千代田区有楽町2丁目10-1","lat":35.67498242,"lon":139.76429726},{"name":"東京国道事務所","province":"東京都","city":"千代田区","address":"千代田区九段南1-2-1","lat":35.694003,"lon":139.753634},{"name":"警視庁","province":"東京都","city":"千代田区","address":"千代田区霞が関2-1-1","lat":35.676841,"lon":139.752068},{"name":"西東京管理局","province":"東京都","city":"千代田区","address":"千代田区平河町2-16-3","lat":35.67951,"lon":139.742},{"name":"西東京管理局三宅坂分室","province":"東京都","city":"千代田区","address":"千代田区永田町1-8-2","lat":35.67919,"lon":139.7458},{"name":"（株）ニッポン放送","province":"東京都","city":"千代田区","address":"千代田区有楽町1-9-3","lat":35.67521,"lon":139.7606},{"name":"（株）エフエム東京","province":"東京都","city":"千代田区","address":"千代田区麹町1-7","lat":35.6835,"lon":139.7429},{"name":"東京メトロポリタンテレビジョン（株）","province":"東京都","city":"千代田区","address":"千代田区麹町1-12","lat":35.68479,"lon":139.7439},{"name":"千代田区","province":"東京都","city":"千代田区","address":"千代田区九段北1-2-14B1","lat":35.696072,"lon":139.752143},{"name":"東日本電信電話（株）霞ヶ関ビル","province":"東京都","city":"千代田区","address":"千代田区内幸町1-1-6","lat":35.67091,"lon":139.7577},{"name":"（株）ＮＴＴドコモ","province":"東京都","city":"千代田区","address":"千代田区永田町2-11-1","lat":35.67357,"lon":139.7404},{"name":"ＮＴＴコミュニケーションズ（株）日比谷ビル","province":"東京都","city":"千代田区","address":"千代田区内幸町1-1-6","lat":35.67091,"lon":139.7577},{"name":"ＮＴＴコミュニケーションズ（株）大手町ビル","province":"東京都","city":"千代田区","address":"千代田区大手町2-3-5","lat":35.68797,"lon":139.7673},{"name":"千代田区社会福祉協議会","province":"東京都","city":"千代田区","address":"千代田区九段南1-6-10かがやきプラザ4階","lat":35.695088,"lon":139.749373},{"name":"全国社会福祉協議会","province":"東京都","city":"千代田区","address":"千代田区霞が関3-3-2新霞が関ビル","lat":35.671896,"lon":139.746288},{"name":"全国社会福祉協議会","province":"東京都","city":"千代田区","address":"千代田区霞が関3-3-2新霞が関ビル","lat":35.67212,"lon":139.74648},{"name":"千代田区社会福祉協議会","province":"東京都","city":"千代田区","address":"千代田区九段南1-6-10かがやきプラザ4階","lat":35.69438,"lon":139.75159},{"name":"駿河台日本大学病院","province":"東京都","city":"千代田区","address":"東京都千代田区神田駿河台1丁目8-13","lat":35.69821877,"lon":139.76340494},{"name":"三井記念病院","province":"東京都","city":"千代田区","address":"東京都千代田区神田和泉町1","lat":35.69901632,"lon":139.77742103},{"name":"東京都漬物事業協同組合","province":"東京都","city":"千代田区","address":"東京都千代田区外神田2丁目2-17","lat":35.69964098,"lon":139.76772134},{"name":"都立日比谷公園","province":"東京都","city":"千代田区","address":"東京都千代田区日比谷公園1","lat":35.67461838,"lon":139.75677845},{"name":"都立一橋高等学校","province":"東京都","city":"千代田区","address":"東京都千代田区東神田1丁目12-13","lat":35.69458357,"lon":139.78104065},{"name":"東京都漬物事業協同組合","province":"東京都","city":"千代田区","address":"東京都千代田区外神田2丁目2-17","lat":35.69964098,"lon":139.76772134},{"name":"皇居前広場","province":"東京都","city":"千代田区","address":"東京都千代田区皇居外苑1","lat":35.67806805,"lon":139.7588226},{"name":"都立日比谷公園（第二花壇）","province":"東京都","city":"千代田区","address":"東京都千代田区日比谷公園1","lat":35.67461838,"lon":139.75677845},{"name":"上智大学運動場","province":"東京都","city":"千代田区","address":"東京都千代田区紀尾井町5","lat":35.6830057,"lon":139.73098034},{"name":"北の丸公園第２駐車場","province":"東京都","city":"千代田区","address":"東京都千代田区北の丸公園2","lat":35.6932523,"lon":139.75056715},{"name":"北の丸公園第３駐車場","province":"東京都","city":"千代田区","address":"東京都千代田区北の丸公園1-1","lat":35.69242736,"lon":139.74948116},{"name":"千代田都税事務所","province":"東京都","city":"千代田区","address":"東京都千代田区内神田2丁目1-12","lat":35.689081,"lon":139.76828274},{"name":"東京都中小企業振興公社","province":"東京都","city":"千代田区","address":"東京都千代田区神田佐久間町1丁目9","lat":35.69726364,"lon":139.77425451},{"name":"東京しごとセンター","province":"東京都","city":"千代田区","address":"東京都千代田区飯田橋3丁目10-3","lat":35.70055702,"lon":139.74957525},{"name":"日比谷グリーンサロン","province":"東京都","city":"千代田区","address":"東京都千代田区日比谷公園1-5","lat":35.67282684,"lon":139.75432594},{"name":"「緑と水」の市民カレッジ","province":"東京都","city":"千代田区","address":"東京都千代田区日比谷公園1-5","lat":35.67282684,"lon":139.75432594},{"name":"一橋高等学校","province":"東京都","city":"千代田区","address":"東京都千代田区東神田1丁目12-13","lat":35.69458357,"lon":139.78104065},{"name":"日比谷高等学校","province":"東京都","city":"千代田区","address":"東京都千代田区永田町2丁目16-1","lat":35.67628721,"lon":139.73974095},{"name":"スクワール麹町","province":"東京都","city":"千代田区","address":"東京都千代田区麹町6丁目6","lat":35.68555823,"lon":139.73222458},{"name":"東京交通会館","province":"東京都","city":"千代田区","address":"東京都千代田区有楽町2丁目10-1","lat":35.67498242,"lon":139.76429726},{"name":"東京国道事務所","province":"東京都","city":"千代田区","address":"千代田区九段南1-2-1","lat":35.694003,"lon":139.753634},{"name":"警視庁","province":"東京都","city":"千代田区","address":"千代田区霞が関2-1-1","lat":35.676841,"lon":139.752068},{"name":"西東京管理局","province":"東京都","city":"千代田区","address":"千代田区平河町2-16-3","lat":35.67951,"lon":139.742},{"name":"西東京管理局三宅坂分室","province":"東京都","city":"千代田区","address":"千代田区永田町1-8-2","lat":35.67919,"lon":139.7458},{"name":"（株）ニッポン放送","province":"東京都","city":"千代田区","address":"千代田区有楽町1-9-3","lat":35.67521,"lon":139.7606},{"name":"（株）エフエム東京","province":"東京都","city":"千代田区","address":"千代田区麹町1-7","lat":35.6835,"lon":139.7429},{"name":"東京メトロポリタンテレビジョン（株）","province":"東京都","city":"千代田区","address":"千代田区麹町1-12","lat":35.68479,"lon":139.7439},{"name":"千代田区","province":"東京都","city":"千代田区","address":"千代田区九段北1-2-14B1","lat":35.696072,"lon":139.752143},{"name":"東日本電信電話（株）霞ヶ関ビル","province":"東京都","city":"千代田区","address":"千代田区内幸町1-1-6","lat":35.67091,"lon":139.7577},{"name":"（株）ＮＴＴドコモ","province":"東京都","city":"千代田区","address":"千代田区永田町2-11-1","lat":35.67357,"lon":139.7404},{"name":"ＮＴＴコミュニケーションズ（株）日比谷ビル","province":"東京都","city":"千代田区","address":"千代田区内幸町1-1-6","lat":35.67091,"lon":139.7577},{"name":"ＮＴＴコミュニケーションズ（株）大手町ビル","province":"東京都","city":"千代田区","address":"千代田区大手町2-3-5","lat":35.68797,"lon":139.7673},{"name":"駿河台日本大学病院","province":"東京都","city":"千代田区","address":"東京都千代田区神田駿河台1丁目8-13","lat":35.69821877,"lon":139.76340494},{"name":"三井記念病院","province":"東京都","city":"千代田区","address":"東京都千代田区神田和泉町1","lat":35.69901632,"lon":139.77742103},{"name":"東京都漬物事業協同組合","province":"東京都","city":"千代田区","address":"東京都千代田区外神田2丁目2-17","lat":35.69964098,"lon":139.76772134},{"name":"東京都漬物事業協同組合","province":"東京都","city":"千代田区","address":"東京都千代田区外神田2丁目2-17","lat":35.69964098,"lon":139.76772134},{"name":"千代田都税事務所","province":"東京都","city":"千代田区","address":"東京都千代田区内神田2丁目1-12","lat":35.689081,"lon":139.76828274},{"name":"東京都中小企業振興公社","province":"東京都","city":"千代田区","address":"東京都千代田区神田佐久間町1丁目9","lat":35.69726364,"lon":139.77425451},{"name":"東京しごとセンター","province":"東京都","city":"千代田区","address":"東京都千代田区飯田橋3丁目10-3","lat":35.70055702,"lon":139.74957525},{"name":"日比谷グリーンサロン","province":"東京都","city":"千代田区","address":"東京都千代田区日比谷公園1-5","lat":35.67282684,"lon":139.75432594},{"name":"「緑と水」の市民カレッジ","province":"東京都","city":"千代田区","address":"東京都千代田区日比谷公園1-5","lat":35.67282684,"lon":139.75432594},{"name":"一橋高等学校","province":"東京都","city":"千代田区","address":"東京都千代田区東神田1丁目12-13","lat":35.69458357,"lon":139.78104065},{"name":"日比谷高等学校","province":"東京都","city":"千代田区","address":"東京都千代田区永田町2丁目16-1","lat":35.67628721,"lon":139.73974095},{"name":"スクワール麹町","province":"東京都","city":"千代田区","address":"東京都千代田区麹町6丁目6","lat":35.68555823,"lon":139.73222458},{"name":"東京交通会館","province":"東京都","city":"千代田区","address":"東京都千代田区有楽町2丁目10-1","lat":35.67498242,"lon":139.76429726},{"name":"駿河台日本大学病院","province":"東京都","city":"千代田区","address":"東京都千代田区神田駿河台1丁目8-13","lat":35.69821877,"lon":139.76340494},{"name":"三井記念病院","province":"東京都","city":"千代田区","address":"東京都千代田区神田和泉町1","lat":35.69901632,"lon":139.77742103},{"name":"東京都漬物事業協同組合","province":"東京都","city":"千代田区","address":"東京都千代田区外神田2丁目2-17","lat":35.69964098,"lon":139.76772134},{"name":"東京都漬物事業協同組合","province":"東京都","city":"千代田区","address":"東京都千代田区外神田2丁目2-17","lat":35.69964098,"lon":139.76772134},{"name":"千代田都税事務所","province":"東京都","city":"千代田区","address":"東京都千代田区内神田2丁目1-12","lat":35.689081,"lon":139.76828274},{"name":"東京都中小企業振興公社","province":"東京都","city":"千代田区","address":"東京都千代田区神田佐久間町1丁目9","lat":35.69726364,"lon":139.77425451},{"name":"東京しごとセンター","province":"東京都","city":"千代田区","address":"東京都千代田区飯田橋3丁目10-3","lat":35.70055702,"lon":139.74957525},{"name":"日比谷グリーンサロン","province":"東京都","city":"千代田区","address":"東京都千代田区日比谷公園1-5","lat":35.67282684,"lon":139.75432594},{"name":"「緑と水」の市民カレッジ","province":"東京都","city":"千代田区","address":"東京都千代田区日比谷公園1-5","lat":35.67282684,"lon":139.75432594},{"name":"一橋高等学校","province":"東京都","city":"千代田区","address":"東京都千代田区東神田1丁目12-13","lat":35.69458357,"lon":139.78104065},{"name":"日比谷高等学校","province":"東京都","city":"千代田区","address":"東京都千代田区永田町2丁目16-1","lat":35.67628721,"lon":139.73974095},{"name":"スクワール麹町","province":"東京都","city":"千代田区","address":"東京都千代田区麹町6丁目6","lat":35.68555823,"lon":139.73222458},{"name":"東京交通会館","province":"東京都","city":"千代田区","address":"東京都千代田区有楽町2丁目10-1","lat":35.67498242,"lon":139.76429726}]}