{"keyword":"自転車","data":[{"name":"水道橋A","province":"東京都","city":"千代田区","address":"東京都千代田区神田三崎町2丁目22","lat":35.702111,"lon":139.75513},{"name":"秋葉原駅東口第１自転車駐車場","province":"東京都","city":"千代田区","address":"東京都千代田区神田平河町4","lat":35.69845522,"lon":139.77585442},{"name":"飯田橋駅東口第１自転車駐車場","province":"東京都","city":"千代田区","address":"東京都千代田区飯田橋3丁目12","lat":35.70230121,"lon":139.74678096},{"name":"飯田橋駅東口第２自転車駐車場","province":"東京都","city":"千代田区","address":"東京都千代田区飯田橋3丁目11-30","lat":35.70249838,"lon":139.74547828},{"name":"秋葉原駅東口第２自転車駐車場","province":"東京都","city":"千代田区","address":"東京都千代田区神田和泉町1","lat":35.69901632,"lon":139.77742103},{"name":"水道橋駅自転車駐車場","province":"東京都","city":"千代田区","address":"東京都千代田区神田三崎町2丁目20","lat":35.70188196,"lon":139.75277494},{"name":"神田駅第１自転車駐車場","province":"東京都","city":"千代田区","address":"東京都千代田区鍛冶町2丁目13","lat":35.69148638,"lon":139.77078531},{"name":"神田駅第２自転車駐車場","province":"東京都","city":"千代田区","address":"東京都千代田区鍛冶町2丁目11","lat":35.69396947,"lon":139.77166578},{"name":"市ヶ谷駅自転車駐車場","province":"東京都","city":"千代田区","address":"東京都千代田区九段北4丁目4","lat":35.6918771,"lon":139.73680726},{"name":"飯田橋駅第３自転車駐車場","province":"東京都","city":"千代田区","address":"東京都千代田区飯田橋4丁目10","lat":35.70184842,"lon":139.74433119},{"name":"岩本町駅臨時自転車駐車場","province":"東京都","city":"千代田区","address":"東京都千代田区神田岩本町15","lat":35.69671094,"lon":139.77489896},{"name":"御茶ノ水駅自転車駐車場","province":"東京都","city":"千代田区","address":"東京都千代田区神田駿河台4丁目3","lat":35.6987771,"lon":139.76501595},{"name":"四ツ谷駅自転車駐車場","province":"東京都","city":"千代田区","address":"東京都千代田区六番町14","lat":35.68711361,"lon":139.73188566},{"name":"九段下駅第１自転車駐車場","province":"東京都","city":"千代田区","address":"東京都千代田区九段北1丁目2","lat":35.69606036,"lon":139.75183361},{"name":"九段下駅第２自転車駐車場","province":"東京都","city":"千代田区","address":"東京都千代田区神田神保町3丁目7","lat":35.69553268,"lon":139.75344462},{"name":"有楽町駅第一高架下自転車駐車場","province":"東京都","city":"千代田区","address":"東京都千代田区有楽町2丁目1","lat":35.67285755,"lon":139.76071707},{"name":"秋葉原駅東側駅前広場自転車駐車場","province":"東京都","city":"千代田区","address":"東京都千代田区神田花岡町1","lat":35.69858014,"lon":139.77358224},{"name":"秋葉原駅西側高架下自転車駐車場","province":"東京都","city":"千代田区","address":"東京都千代田区神田相生町1","lat":35.69930507,"lon":139.77386554},{"name":"秋葉原駅中央口高架下自転車駐車場","province":"東京都","city":"千代田区","address":"東京都千代田区神田花岡町1","lat":35.69858014,"lon":139.77358224},{"name":"水道橋駅東口自転車駐車場","province":"東京都","city":"千代田区","address":"東京都千代田区神田三崎町2丁目20","lat":35.70188196,"lon":139.75277494},{"name":"鍛冶橋高架下自転車駐車場","province":"東京都","city":"千代田区","address":"東京都千代田区丸の内1丁目10","lat":35.67803211,"lon":139.7654165},{"name":"大手町自転車駐車場","province":"東京都","city":"千代田区","address":"東京都千代田区大手町2丁目2","lat":35.68547025,"lon":139.7672801},{"name":"和泉橋出張所横自転車駐車場","province":"東京都","city":"千代田区","address":"東京都千代田区神田佐久間町1丁目11","lat":35.69724421,"lon":139.77470728},{"name":"秋葉原公園自転車駐車場","province":"東京都","city":"千代田区","address":"東京都千代田区神田佐久間町1丁目18","lat":35.69785525,"lon":139.77471558},{"name":"神保町交差点自転車駐車場","province":"東京都","city":"千代田区","address":"東京都千代田区神田神保町2丁目3-10","lat":35.69562722,"lon":139.75747485},{"name":"大手町高架下自転車駐車場","province":"東京都","city":"千代田区","address":"東京都千代田区大手町2丁目5-25","lat":35.68481758,"lon":139.76842447},{"name":"大手町江戸通り自転車駐車場","province":"東京都","city":"千代田区","address":"東京都千代田区大手町2丁目5","lat":35.68552584,"lon":139.76845502},{"name":"秋葉原駅西側歩道橋下自転車駐車場","province":"東京都","city":"千代田区","address":"東京都千代田区外神田4丁目14-1","lat":35.70054658,"lon":139.77253496},{"name":"丸ノ内鍛冶橋駐輪場","province":"東京都","city":"千代田区","address":"東京都千代田区丸の内3丁目8-2","lat":35.67684587,"lon":139.76593844},{"name":"神田駅東自転車駐車場","province":"東京都","city":"千代田区","address":"東京都千代田区鍛冶町2丁目7","lat":35.69290293,"lon":139.77178801},{"name":"有楽町駅自転車駐車場","province":"東京都","city":"千代田区","address":"東京都千代田区丸の内3丁目6","lat":35.67608508,"lon":139.76463885},{"name":"神田花岡町自転車駐車場","province":"東京都","city":"千代田区","address":"東京都千代田区神田花岡町1","lat":35.69858014,"lon":139.77358224},{"name":"神田駅北自転車駐車場","province":"東京都","city":"千代田区","address":"東京都千代田区内神田3丁目21-6","lat":35.69284734,"lon":139.77065196}]}