{"keyword":"認可","data":[{"name":"あい保育園東神田","province":"東京都","city":"千代田区","address":"千代田区東神田2-6-5東神田ビル2・3階","lat":35.69564,"lon":139.78027},{"name":"AIAI NURSERY 三番町","province":"東京都","city":"千代田区","address":"千代田区三番町14-6","lat":35.6905,"lon":139.74158},{"name":"麹町保育園","province":"東京都","city":"千代田区","address":"千代田区一番町4","lat":35.68758,"lon":139.74217},{"name":"あい・あい保育園　三番町園","province":"東京都","city":"千代田区","address":"千代田区三番町14-6","lat":35.6905,"lon":139.74158},{"name":"二番町ちとせ保育園","province":"東京都","city":"千代田区","address":"千代田区二番町7-5","lat":35.68514,"lon":139.73497},{"name":"グローバルキッズ六番町園","province":"東京都","city":"千代田区","address":"千代田区六番町5-16","lat":35.68704,"lon":139.73384},{"name":"ほっぺるランド西神田","province":"東京都","city":"千代田区","address":"千代田区西神田3-5-2千代田ファーストビル西館1階","lat":35.68366,"lon":139.75409},{"name":"グローバルキッズ飯田橋園","province":"東京都","city":"千代田区","address":"千代田区富士見2-14-36富士見ウエスト2・3階","lat":35.69362,"lon":140.17978},{"name":"クレアナーサリー市ヶ谷","province":"東京都","city":"千代田区","address":"千代田区九段北4-2-29セブンアネックス1~3階","lat":35.6944,"lon":139.74579},{"name":"ポピンズナーサリースクール一番町","province":"東京都","city":"千代田区","address":"千代田区一番町10-8一番町ウエストビル3・4階","lat":35.6878,"lon":139.74327},{"name":"アスク二番町保育園","province":"東京都","city":"千代田区","address":"千代田区二番町2-1二番町TSビル1~3階","lat":35.68593,"lon":139.73779}]}