{"keyword":"財団","data":[{"name":"リージャス 丸の内パシフィックセンチュリープレイスビジネスセンター","province":"東京都","city":"千代田区","address":"東京都千代田区丸の内1丁目11-1","lat":35.67810437,"lon":139.76683582},{"name":"NewWork赤坂見附","province":"東京都","city":"千代田区","address":"東京都千代田区永田町2丁目13-1","lat":35.67483178,"lon":139.73868831},{"name":"H1T大手町","province":"東京都","city":"千代田区","address":"東京都千代田区大手町2丁目1-1","lat":35.68524248,"lon":139.76623296},{"name":"東京電力（株）本店","province":"東京都","city":"千代田区","address":"千代田区内幸町1-1-3","lat":35.67027,"lon":139.7585},{"name":"リージャス 丸の内パシフィックセンチュリープレイスビジネスセンター","province":"東京都","city":"千代田区","address":"東京都千代田区丸の内1丁目11-1","lat":35.67810437,"lon":139.76683582},{"name":"NewWork赤坂見附","province":"東京都","city":"千代田区","address":"東京都千代田区永田町2丁目13-1","lat":35.67483178,"lon":139.73868831},{"name":"H1T大手町","province":"東京都","city":"千代田区","address":"東京都千代田区大手町2丁目1-1","lat":35.68524248,"lon":139.76623296},{"name":"東京電力（株）本店","province":"東京都","city":"千代田区","address":"千代田区内幸町1-1-3","lat":35.67027,"lon":139.7585},{"name":"リージャス 丸の内パシフィックセンチュリープレイスビジネスセンター","province":"東京都","city":"千代田区","address":"東京都千代田区丸の内1丁目11-1","lat":35.67810437,"lon":139.76683582},{"name":"NewWork赤坂見附","province":"東京都","city":"千代田区","address":"東京都千代田区永田町2丁目13-1","lat":35.67483178,"lon":139.73868831},{"name":"H1T大手町","province":"東京都","city":"千代田区","address":"東京都千代田区大手町2丁目1-1","lat":35.68524248,"lon":139.76623296},{"name":"東京電力（株）本店","province":"東京都","city":"千代田区","address":"千代田区内幸町1-1-3","lat":35.67027,"lon":139.7585},{"name":"リージャス 丸の内パシフィックセンチュリープレイスビジネスセンター","province":"東京都","city":"千代田区","address":"東京都千代田区丸の内1丁目11-1","lat":35.67810437,"lon":139.76683582},{"name":"NewWork赤坂見附","province":"東京都","city":"千代田区","address":"東京都千代田区永田町2丁目13-1","lat":35.67483178,"lon":139.73868831},{"name":"H1T大手町","province":"東京都","city":"千代田区","address":"東京都千代田区大手町2丁目1-1","lat":35.68524248,"lon":139.76623296},{"name":"東京電力（株）本店","province":"東京都","city":"千代田区","address":"千代田区内幸町1-1-3","lat":35.67027,"lon":139.7585},{"name":"東京電力（株）本店","province":"東京都","city":"千代田区","address":"千代田区内幸町1-1-3","lat":35.67027,"lon":139.7585},{"name":"東京電力（株）本店","province":"東京都","city":"千代田区","address":"千代田区内幸町1-1-3","lat":35.67027,"lon":139.7585},{"name":"東京電力（株）本店","province":"東京都","city":"千代田区","address":"千代田区内幸町1-1-3","lat":35.67027,"lon":139.7585},{"name":"東京電力（株）本店","province":"東京都","city":"千代田区","address":"千代田区内幸町1-1-3","lat":35.67027,"lon":139.7585},{"name":"東京電力（株）本店","province":"東京都","city":"千代田区","address":"千代田区内幸町1-1-3","lat":35.67027,"lon":139.7585},{"name":"東京電力（株）本店","province":"東京都","city":"千代田区","address":"千代田区内幸町1-1-3","lat":35.67027,"lon":139.7585},{"name":"東京電力（株）本店","province":"東京都","city":"千代田区","address":"千代田区内幸町1-1-3","lat":35.67027,"lon":139.7585},{"name":"東京電力（株）本店","province":"東京都","city":"千代田区","address":"千代田区内幸町1-1-3","lat":35.67027,"lon":139.7585},{"name":"東京電力（株）本店","province":"東京都","city":"千代田区","address":"千代田区内幸町1-1-3","lat":35.67027,"lon":139.7585},{"name":"東京電力（株）本店","province":"東京都","city":"千代田区","address":"千代田区内幸町1-1-3","lat":35.67027,"lon":139.7585},{"name":"東京電力（株）本店","province":"東京都","city":"千代田区","address":"千代田区内幸町1-1-3","lat":35.67027,"lon":139.7585},{"name":"東京電力（株）本店","province":"東京都","city":"千代田区","address":"千代田区内幸町1-1-3","lat":35.67027,"lon":139.7585},{"name":"東京電力（株）本店","province":"東京都","city":"千代田区","address":"千代田区内幸町1-1-3","lat":35.67027,"lon":139.7585},{"name":"東京電力（株）本店","province":"東京都","city":"千代田区","address":"千代田区内幸町1-1-3","lat":35.67027,"lon":139.7585},{"name":"東京電力（株）本店","province":"東京都","city":"千代田区","address":"千代田区内幸町1-1-3","lat":35.67027,"lon":139.7585},{"name":"東京電力（株）本店","province":"東京都","city":"千代田区","address":"千代田区内幸町1-1-3","lat":35.67027,"lon":139.7585},{"name":"東京電力（株）本店","province":"東京都","city":"千代田区","address":"千代田区内幸町1-1-3","lat":35.67027,"lon":139.7585},{"name":"東京電力（株）本店","province":"東京都","city":"千代田区","address":"千代田区内幸町1-1-3","lat":35.67027,"lon":139.7585},{"name":"東京電力（株）本店","province":"東京都","city":"千代田区","address":"千代田区内幸町1-1-3","lat":35.67027,"lon":139.7585},{"name":"東京電力（株）本店","province":"東京都","city":"千代田区","address":"千代田区内幸町1-1-3","lat":35.67027,"lon":139.7585},{"name":"東京電力（株）本店","province":"東京都","city":"千代田区","address":"千代田区内幸町1-1-3","lat":35.67027,"lon":139.7585},{"name":"東京電力（株）本店","province":"東京都","city":"千代田区","address":"千代田区内幸町1-1-3","lat":35.67027,"lon":139.7585},{"name":"東京電力（株）本店","province":"東京都","city":"千代田区","address":"千代田区内幸町1-1-3","lat":35.67027,"lon":139.7585},{"name":"東京電力（株）本店","province":"東京都","city":"千代田区","address":"千代田区内幸町1-1-3","lat":35.67027,"lon":139.7585},{"name":"東京電力（株）本店","province":"東京都","city":"千代田区","address":"千代田区内幸町1-1-3","lat":35.67027,"lon":139.7585},{"name":"東京電力（株）本店","province":"東京都","city":"千代田区","address":"千代田区内幸町1-1-3","lat":35.67027,"lon":139.7585},{"name":"東京電力（株）本店","province":"東京都","city":"千代田区","address":"千代田区内幸町1-1-3","lat":35.67027,"lon":139.7585}]}