{"keyword":"週","data":[{"name":"水道橋A","province":"東京都","city":"千代田区","address":"東京都千代田区神田三崎町2丁目22","lat":35.702111,"lon":139.75513},{"name":"神田児童館","province":"東京都","city":"千代田区","address":"千代田区外神田3-4-7","lat":35.701221,"lon":139.769793},{"name":"千代田区立児童・家庭支援センター西神田分館","province":"東京都","city":"千代田区","address":"千代田区西神田2-6-2","lat":35.698918,"lon":139.754755},{"name":"四番町児童館","province":"東京都","city":"千代田区","address":"千代田区四番町11","lat":35.689022,"lon":139.739404},{"name":"一番町児童館","province":"東京都","city":"千代田区","address":"千代田区一番町10-22","lat":35.686444,"lon":139.739324},{"name":"千代田区社会福祉協議会","province":"東京都","city":"千代田区","address":"千代田区九段南1-6-10かがやきプラザ4階","lat":35.695088,"lon":139.749373},{"name":"全国社会福祉協議会","province":"東京都","city":"千代田区","address":"千代田区霞が関3-3-2新霞が関ビル","lat":35.671896,"lon":139.746288},{"name":"将門塚","province":"東京都","city":"千代田区","address":"東京都千代田区大手町1-2","lat":35.687353,"lon":139.762519},{"name":"千代田図書館","province":"東京都","city":"千代田区","address":"東京都千代田区九段南1丁目2-1","lat":35.69407451,"lon":139.75364744},{"name":"日比谷図書文化館","province":"東京都","city":"千代田区","address":"東京都千代田区日比谷公園1-4","lat":35.67175752,"lon":139.75458985},{"name":"四番町図書館","province":"東京都","city":"千代田区","address":"東京都千代田区三番町14-7","lat":35.69048014,"lon":139.74157634},{"name":"昌平まちかど図書館","province":"東京都","city":"千代田区","address":"東京都千代田区外神田3丁目4-7","lat":35.70122142,"lon":139.76979339},{"name":"神田まちかど図書館","province":"東京都","city":"千代田区","address":"東京都千代田区神田司町2丁目16","lat":35.69333055,"lon":139.76842708},{"name":"神田児童館","province":"東京都","city":"千代田区","address":"千代田区外神田3-4-7","lat":35.70119,"lon":139.76988},{"name":"千代田区立児童・家庭支援センター西神田分館","province":"東京都","city":"千代田区","address":"千代田区西神田2-6-2","lat":35.69904,"lon":139.75476},{"name":"四番町児童館","province":"東京都","city":"千代田区","address":"千代田区四番町5-8","lat":35.68855,"lon":139.73807},{"name":"一番町児童館","province":"東京都","city":"千代田区","address":"千代田区一番町10-22","lat":35.68676,"lon":139.7394},{"name":"全国社会福祉協議会","province":"東京都","city":"千代田区","address":"千代田区霞が関3-3-2新霞が関ビル","lat":35.67212,"lon":139.74648},{"name":"千代田区社会福祉協議会","province":"東京都","city":"千代田区","address":"千代田区九段南1-6-10かがやきプラザ4階","lat":35.69438,"lon":139.75159},{"name":"西神田児童センター","province":"東京都","city":"千代田区","address":"千代田区西神田2-6-2","lat":35.69904,"lon":139.75476},{"name":"出光美術館","province":"東京都","city":"千代田区","address":"千代田区丸の内3-1-1帝劇ビル9階","lat":35.676755,"lon":139.7608481},{"name":"三菱一号館美術館","province":"東京都","city":"千代田区","address":"東京都千代田区丸の内2丁目6-2","lat":35.67849868,"lon":139.76336665},{"name":"都立日比谷公園","province":"東京都","city":"千代田区","address":"東京都千代田区日比谷公園1","lat":35.67461838,"lon":139.75677845},{"name":"都立一橋高等学校","province":"東京都","city":"千代田区","address":"東京都千代田区東神田1丁目12-13","lat":35.69458357,"lon":139.78104065},{"name":"皇居前広場","province":"東京都","city":"千代田区","address":"東京都千代田区皇居外苑1","lat":35.67806805,"lon":139.7588226},{"name":"都立日比谷公園（第二花壇）","province":"東京都","city":"千代田区","address":"東京都千代田区日比谷公園1","lat":35.67461838,"lon":139.75677845},{"name":"上智大学運動場","province":"東京都","city":"千代田区","address":"東京都千代田区紀尾井町5","lat":35.6830057,"lon":139.73098034},{"name":"北の丸公園第２駐車場","province":"東京都","city":"千代田区","address":"東京都千代田区北の丸公園2","lat":35.6932523,"lon":139.75056715},{"name":"北の丸公園第３駐車場","province":"東京都","city":"千代田区","address":"東京都千代田区北の丸公園1-1","lat":35.69242736,"lon":139.74948116},{"name":"＊?日比谷図書文化館??文化財事務室","province":"東京都","city":"千代田区","address":"千代田区日比谷公園1-4","lat":35.671866,"lon":139.754602},{"name":"＊?昌平まちかど図書館","province":"東京都","city":"千代田区","address":"千代田区外神田3-4-7","lat":35.701223,"lon":139.769873},{"name":"＊?神田まちかど図書館","province":"東京都","city":"千代田区","address":"千代田区神田司町2-16","lat":35.693357,"lon":139.768304},{"name":"＊?四番町図書館","province":"東京都","city":"千代田区","address":"千代田区四番町1","lat":35.690453,"lon":139.741601},{"name":"＊?千代田図書館","province":"東京都","city":"千代田区","address":"千代田区九段南1-2-1千代田区役所9・10階","lat":35.693997,"lon":139.753585},{"name":"＊?日比谷図書文化館","province":"東京都","city":"千代田区","address":"千代田区日比谷公園1-4","lat":35.671872,"lon":139.754602},{"name":"宝田橋","province":"東京都","city":"千代田区","address":"東京都千代田区九段南1丁目2-1","lat":35.69407451,"lon":139.75364744},{"name":"千代田区本庁舎","province":"東京都","city":"千代田区","address":"千代田区九段南1-2-1","lat":35.694003,"lon":139.753634},{"name":"東京国道事務所","province":"東京都","city":"千代田区","address":"千代田区九段南1-2-1","lat":35.694003,"lon":139.753634},{"name":"警視庁","province":"東京都","city":"千代田区","address":"千代田区霞が関2-1-1","lat":35.676841,"lon":139.752068},{"name":"西東京管理局","province":"東京都","city":"千代田区","address":"千代田区平河町2-16-3","lat":35.67951,"lon":139.742},{"name":"西東京管理局三宅坂分室","province":"東京都","city":"千代田区","address":"千代田区永田町1-8-2","lat":35.67919,"lon":139.7458},{"name":"（株）ニッポン放送","province":"東京都","city":"千代田区","address":"千代田区有楽町1-9-3","lat":35.67521,"lon":139.7606},{"name":"（株）エフエム東京","province":"東京都","city":"千代田区","address":"千代田区麹町1-7","lat":35.6835,"lon":139.7429},{"name":"東京メトロポリタンテレビジョン（株）","province":"東京都","city":"千代田区","address":"千代田区麹町1-12","lat":35.68479,"lon":139.7439},{"name":"※警視庁","province":"東京都","city":"千代田区","address":"千代田区霞ヶ関2-1-1","lat":35.67684,"lon":139.7521},{"name":"第一機動隊","province":"東京都","city":"千代田区","address":"千代田区北の丸公園4-1","lat":35.69146,"lon":139.7548},{"name":"第一方面本部","province":"東京都","city":"千代田区","address":"千代田区霞が関2-1-1","lat":35.676841,"lon":139.752068},{"name":"神田警察署","province":"東京都","city":"千代田区","address":"千代田区神田錦町2-2","lat":35.69328,"lon":139.7628},{"name":"麹町警察署","province":"東京都","city":"千代田区","address":"千代田区麹町1-4","lat":35.68436,"lon":139.7437},{"name":"丸の内警察署","province":"東京都","city":"千代田区","address":"千代田区有楽町1-9-2","lat":35.67539,"lon":139.7603},{"name":"万世橋警察署","province":"東京都","city":"千代田区","address":"千代田区外神田1-16-5","lat":35.6973,"lon":139.7718},{"name":"東京消防庁","province":"東京都","city":"千代田区","address":"千代田区大手町1-3-5","lat":35.68855,"lon":139.7617},{"name":"第一消防方面本部","province":"東京都","city":"千代田区","address":"千代田区麹町1-12","lat":35.68479,"lon":139.7439},{"name":"神田消防署","province":"東京都","city":"千代田区","address":"千代田区外神田4-14-3","lat":35.70144,"lon":139.773},{"name":"麹町消防署","province":"東京都","city":"千代田区","address":"千代田区麹町1-12","lat":35.68479,"lon":139.7439},{"name":"丸の内消防署","province":"東京都","city":"千代田区","address":"千代田区大手町1-3-5","lat":35.68855,"lon":139.7617},{"name":"千代田区","province":"東京都","city":"千代田区","address":"千代田区九段北1-2-14B1","lat":35.696072,"lon":139.752143},{"name":"千代田区立外濠公園総合グラウンド","province":"東京都","city":"千代田区","address":"千代田区5番町先","lat":35.70472,"lon":139.773},{"name":"北の丸公園第三駐車場","province":"東京都","city":"千代田区","address":"千代田区北の丸公園1-1","lat":35.69224,"lon":139.7495},{"name":"新三崎橋","province":"東京都","city":"千代田区","address":"千代田区飯田橋3丁目","lat":35.70082,"lon":139.7485},{"name":"和泉橋","province":"東京都","city":"千代田区","address":"千代田区神田佐久間町","lat":35.69756,"lon":139.7761},{"name":"東日本電信電話（株）霞ヶ関ビル","province":"東京都","city":"千代田区","address":"千代田区内幸町1-1-6","lat":35.67091,"lon":139.7577},{"name":"（株）ＮＴＴドコモ","province":"東京都","city":"千代田区","address":"千代田区永田町2-11-1","lat":35.67357,"lon":139.7404},{"name":"ＮＴＴコミュニケーションズ（株）日比谷ビル","province":"東京都","city":"千代田区","address":"千代田区内幸町1-1-6","lat":35.67091,"lon":139.7577},{"name":"ＮＴＴコミュニケーションズ（株）大手町ビル","province":"東京都","city":"千代田区","address":"千代田区大手町2-3-5","lat":35.68797,"lon":139.7673},{"name":"東京電力（株）本店","province":"東京都","city":"千代田区","address":"千代田区内幸町1-1-3","lat":35.67027,"lon":139.7585},{"name":"水道局中央支所","province":"東京都","city":"千代田区","address":"千代田区内神田2-1-12","lat":35.68903,"lon":139.7682},{"name":"中部下水道事務所","province":"東京都","city":"千代田区","address":"東京都千代田区大手町2丁目6-2","lat":35.68539531,"lon":139.76895777},{"name":"東京駅","province":"東京都","city":"千代田区","address":"東京都千代田区丸の内1丁目9-1","lat":35.68183174,"lon":139.76677464},{"name":"秋葉原駅","province":"東京都","city":"千代田区","address":"東京都千代田区外神田1丁目17-6","lat":35.6986329,"lon":139.77284615},{"name":"神田児童館","province":"東京都","city":"千代田区","address":"千代田区外神田3-4-7","lat":35.701221,"lon":139.769793},{"name":"千代田区立児童・家庭支援センター西神田分館","province":"東京都","city":"千代田区","address":"千代田区西神田2-6-2","lat":35.698918,"lon":139.754755},{"name":"四番町児童館","province":"東京都","city":"千代田区","address":"千代田区四番町11","lat":35.689022,"lon":139.739404},{"name":"一番町児童館","province":"東京都","city":"千代田区","address":"千代田区一番町10-22","lat":35.686444,"lon":139.739324},{"name":"千代田区社会福祉協議会","province":"東京都","city":"千代田区","address":"千代田区九段南1-6-10かがやきプラザ4階","lat":35.695088,"lon":139.749373},{"name":"全国社会福祉協議会","province":"東京都","city":"千代田区","address":"千代田区霞が関3-3-2新霞が関ビル","lat":35.671896,"lon":139.746288},{"name":"将門塚","province":"東京都","city":"千代田区","address":"東京都千代田区大手町1-2","lat":35.687353,"lon":139.762519},{"name":"千代田図書館","province":"東京都","city":"千代田区","address":"東京都千代田区九段南1丁目2-1","lat":35.69407451,"lon":139.75364744},{"name":"日比谷図書文化館","province":"東京都","city":"千代田区","address":"東京都千代田区日比谷公園1-4","lat":35.67175752,"lon":139.75458985},{"name":"四番町図書館","province":"東京都","city":"千代田区","address":"東京都千代田区三番町14-7","lat":35.69048014,"lon":139.74157634},{"name":"昌平まちかど図書館","province":"東京都","city":"千代田区","address":"東京都千代田区外神田3丁目4-7","lat":35.70122142,"lon":139.76979339},{"name":"神田まちかど図書館","province":"東京都","city":"千代田区","address":"東京都千代田区神田司町2丁目16","lat":35.69333055,"lon":139.76842708},{"name":"神田児童館","province":"東京都","city":"千代田区","address":"千代田区外神田3-4-7","lat":35.70119,"lon":139.76988},{"name":"千代田区立児童・家庭支援センター西神田分館","province":"東京都","city":"千代田区","address":"千代田区西神田2-6-2","lat":35.69904,"lon":139.75476},{"name":"四番町児童館","province":"東京都","city":"千代田区","address":"千代田区四番町5-8","lat":35.68855,"lon":139.73807},{"name":"一番町児童館","province":"東京都","city":"千代田区","address":"千代田区一番町10-22","lat":35.68676,"lon":139.7394},{"name":"全国社会福祉協議会","province":"東京都","city":"千代田区","address":"千代田区霞が関3-3-2新霞が関ビル","lat":35.67212,"lon":139.74648},{"name":"千代田区社会福祉協議会","province":"東京都","city":"千代田区","address":"千代田区九段南1-6-10かがやきプラザ4階","lat":35.69438,"lon":139.75159},{"name":"西神田児童センター","province":"東京都","city":"千代田区","address":"千代田区西神田2-6-2","lat":35.69904,"lon":139.75476},{"name":"出光美術館","province":"東京都","city":"千代田区","address":"千代田区丸の内3-1-1帝劇ビル9階","lat":35.676755,"lon":139.7608481},{"name":"三菱一号館美術館","province":"東京都","city":"千代田区","address":"東京都千代田区丸の内2丁目6-2","lat":35.67849868,"lon":139.76336665},{"name":"都立日比谷公園","province":"東京都","city":"千代田区","address":"東京都千代田区日比谷公園1","lat":35.67461838,"lon":139.75677845},{"name":"都立一橋高等学校","province":"東京都","city":"千代田区","address":"東京都千代田区東神田1丁目12-13","lat":35.69458357,"lon":139.78104065},{"name":"＊?日比谷図書文化館??文化財事務室","province":"東京都","city":"千代田区","address":"千代田区日比谷公園1-4","lat":35.671866,"lon":139.754602},{"name":"＊?昌平まちかど図書館","province":"東京都","city":"千代田区","address":"千代田区外神田3-4-7","lat":35.701223,"lon":139.769873},{"name":"＊?神田まちかど図書館","province":"東京都","city":"千代田区","address":"千代田区神田司町2-16","lat":35.693357,"lon":139.768304},{"name":"＊?四番町図書館","province":"東京都","city":"千代田区","address":"千代田区四番町1","lat":35.690453,"lon":139.741601},{"name":"＊?千代田図書館","province":"東京都","city":"千代田区","address":"千代田区九段南1-2-1千代田区役所9・10階","lat":35.693997,"lon":139.753585},{"name":"＊?日比谷図書文化館","province":"東京都","city":"千代田区","address":"千代田区日比谷公園1-4","lat":35.671872,"lon":139.754602},{"name":"千代田区本庁舎","province":"東京都","city":"千代田区","address":"千代田区九段南1-2-1","lat":35.694003,"lon":139.753634},{"name":"（株）ニッポン放送","province":"東京都","city":"千代田区","address":"千代田区有楽町1-9-3","lat":35.67521,"lon":139.7606},{"name":"（株）エフエム東京","province":"東京都","city":"千代田区","address":"千代田区麹町1-7","lat":35.6835,"lon":139.7429},{"name":"東京メトロポリタンテレビジョン（株）","province":"東京都","city":"千代田区","address":"千代田区麹町1-12","lat":35.68479,"lon":139.7439},{"name":"※警視庁","province":"東京都","city":"千代田区","address":"千代田区霞ヶ関2-1-1","lat":35.67684,"lon":139.7521},{"name":"第一機動隊","province":"東京都","city":"千代田区","address":"千代田区北の丸公園4-1","lat":35.69146,"lon":139.7548},{"name":"第一方面本部","province":"東京都","city":"千代田区","address":"千代田区霞が関2-1-1","lat":35.676841,"lon":139.752068},{"name":"神田警察署","province":"東京都","city":"千代田区","address":"千代田区神田錦町2-2","lat":35.69328,"lon":139.7628},{"name":"麹町警察署","province":"東京都","city":"千代田区","address":"千代田区麹町1-4","lat":35.68436,"lon":139.7437},{"name":"丸の内警察署","province":"東京都","city":"千代田区","address":"千代田区有楽町1-9-2","lat":35.67539,"lon":139.7603},{"name":"万世橋警察署","province":"東京都","city":"千代田区","address":"千代田区外神田1-16-5","lat":35.6973,"lon":139.7718},{"name":"東京消防庁","province":"東京都","city":"千代田区","address":"千代田区大手町1-3-5","lat":35.68855,"lon":139.7617},{"name":"第一消防方面本部","province":"東京都","city":"千代田区","address":"千代田区麹町1-12","lat":35.68479,"lon":139.7439},{"name":"神田消防署","province":"東京都","city":"千代田区","address":"千代田区外神田4-14-3","lat":35.70144,"lon":139.773},{"name":"麹町消防署","province":"東京都","city":"千代田区","address":"千代田区麹町1-12","lat":35.68479,"lon":139.7439},{"name":"丸の内消防署","province":"東京都","city":"千代田区","address":"千代田区大手町1-3-5","lat":35.68855,"lon":139.7617},{"name":"千代田区立外濠公園総合グラウンド","province":"東京都","city":"千代田区","address":"千代田区5番町先","lat":35.70472,"lon":139.773},{"name":"北の丸公園第三駐車場","province":"東京都","city":"千代田区","address":"千代田区北の丸公園1-1","lat":35.69224,"lon":139.7495},{"name":"新三崎橋","province":"東京都","city":"千代田区","address":"千代田区飯田橋3丁目","lat":35.70082,"lon":139.7485},{"name":"和泉橋","province":"東京都","city":"千代田区","address":"千代田区神田佐久間町","lat":35.69756,"lon":139.7761},{"name":"東日本電信電話（株）霞ヶ関ビル","province":"東京都","city":"千代田区","address":"千代田区内幸町1-1-6","lat":35.67091,"lon":139.7577},{"name":"（株）ＮＴＴドコモ","province":"東京都","city":"千代田区","address":"千代田区永田町2-11-1","lat":35.67357,"lon":139.7404},{"name":"ＮＴＴコミュニケーションズ（株）日比谷ビル","province":"東京都","city":"千代田区","address":"千代田区内幸町1-1-6","lat":35.67091,"lon":139.7577},{"name":"ＮＴＴコミュニケーションズ（株）大手町ビル","province":"東京都","city":"千代田区","address":"千代田区大手町2-3-5","lat":35.68797,"lon":139.7673},{"name":"東京電力（株）本店","province":"東京都","city":"千代田区","address":"千代田区内幸町1-1-3","lat":35.67027,"lon":139.7585},{"name":"水道局中央支所","province":"東京都","city":"千代田区","address":"千代田区内神田2-1-12","lat":35.68903,"lon":139.7682},{"name":"中部下水道事務所","province":"東京都","city":"千代田区","address":"東京都千代田区大手町2丁目6-2","lat":35.68539531,"lon":139.76895777},{"name":"神田児童館","province":"東京都","city":"千代田区","address":"千代田区外神田3-4-7","lat":35.701221,"lon":139.769793},{"name":"千代田区立児童・家庭支援センター西神田分館","province":"東京都","city":"千代田区","address":"千代田区西神田2-6-2","lat":35.698918,"lon":139.754755},{"name":"四番町児童館","province":"東京都","city":"千代田区","address":"千代田区四番町11","lat":35.689022,"lon":139.739404},{"name":"一番町児童館","province":"東京都","city":"千代田区","address":"千代田区一番町10-22","lat":35.686444,"lon":139.739324},{"name":"千代田区社会福祉協議会","province":"東京都","city":"千代田区","address":"千代田区九段南1-6-10かがやきプラザ4階","lat":35.695088,"lon":139.749373},{"name":"全国社会福祉協議会","province":"東京都","city":"千代田区","address":"千代田区霞が関3-3-2新霞が関ビル","lat":35.671896,"lon":139.746288},{"name":"将門塚","province":"東京都","city":"千代田区","address":"東京都千代田区大手町1-2","lat":35.687353,"lon":139.762519},{"name":"千代田図書館","province":"東京都","city":"千代田区","address":"東京都千代田区九段南1丁目2-1","lat":35.69407451,"lon":139.75364744},{"name":"日比谷図書文化館","province":"東京都","city":"千代田区","address":"東京都千代田区日比谷公園1-4","lat":35.67175752,"lon":139.75458985},{"name":"四番町図書館","province":"東京都","city":"千代田区","address":"東京都千代田区三番町14-7","lat":35.69048014,"lon":139.74157634},{"name":"昌平まちかど図書館","province":"東京都","city":"千代田区","address":"東京都千代田区外神田3丁目4-7","lat":35.70122142,"lon":139.76979339},{"name":"神田まちかど図書館","province":"東京都","city":"千代田区","address":"東京都千代田区神田司町2丁目16","lat":35.69333055,"lon":139.76842708},{"name":"神田児童館","province":"東京都","city":"千代田区","address":"千代田区外神田3-4-7","lat":35.70119,"lon":139.76988},{"name":"千代田区立児童・家庭支援センター西神田分館","province":"東京都","city":"千代田区","address":"千代田区西神田2-6-2","lat":35.69904,"lon":139.75476},{"name":"四番町児童館","province":"東京都","city":"千代田区","address":"千代田区四番町5-8","lat":35.68855,"lon":139.73807},{"name":"一番町児童館","province":"東京都","city":"千代田区","address":"千代田区一番町10-22","lat":35.68676,"lon":139.7394},{"name":"全国社会福祉協議会","province":"東京都","city":"千代田区","address":"千代田区霞が関3-3-2新霞が関ビル","lat":35.67212,"lon":139.74648},{"name":"千代田区社会福祉協議会","province":"東京都","city":"千代田区","address":"千代田区九段南1-6-10かがやきプラザ4階","lat":35.69438,"lon":139.75159},{"name":"西神田児童センター","province":"東京都","city":"千代田区","address":"千代田区西神田2-6-2","lat":35.69904,"lon":139.75476},{"name":"出光美術館","province":"東京都","city":"千代田区","address":"千代田区丸の内3-1-1帝劇ビル9階","lat":35.676755,"lon":139.7608481},{"name":"三菱一号館美術館","province":"東京都","city":"千代田区","address":"東京都千代田区丸の内2丁目6-2","lat":35.67849868,"lon":139.76336665},{"name":"＊?日比谷図書文化館??文化財事務室","province":"東京都","city":"千代田区","address":"千代田区日比谷公園1-4","lat":35.671866,"lon":139.754602},{"name":"＊?昌平まちかど図書館","province":"東京都","city":"千代田区","address":"千代田区外神田3-4-7","lat":35.701223,"lon":139.769873},{"name":"＊?神田まちかど図書館","province":"東京都","city":"千代田区","address":"千代田区神田司町2-16","lat":35.693357,"lon":139.768304},{"name":"＊?四番町図書館","province":"東京都","city":"千代田区","address":"千代田区四番町1","lat":35.690453,"lon":139.741601},{"name":"＊?千代田図書館","province":"東京都","city":"千代田区","address":"千代田区九段南1-2-1千代田区役所9・10階","lat":35.693997,"lon":139.753585},{"name":"＊?日比谷図書文化館","province":"東京都","city":"千代田区","address":"千代田区日比谷公園1-4","lat":35.671872,"lon":139.754602},{"name":"神田児童館","province":"東京都","city":"千代田区","address":"千代田区外神田3-4-7","lat":35.701221,"lon":139.769793},{"name":"千代田区立児童・家庭支援センター西神田分館","province":"東京都","city":"千代田区","address":"千代田区西神田2-6-2","lat":35.698918,"lon":139.754755},{"name":"四番町児童館","province":"東京都","city":"千代田区","address":"千代田区四番町11","lat":35.689022,"lon":139.739404},{"name":"一番町児童館","province":"東京都","city":"千代田区","address":"千代田区一番町10-22","lat":35.686444,"lon":139.739324},{"name":"千代田区社会福祉協議会","province":"東京都","city":"千代田区","address":"千代田区九段南1-6-10かがやきプラザ4階","lat":35.695088,"lon":139.749373},{"name":"全国社会福祉協議会","province":"東京都","city":"千代田区","address":"千代田区霞が関3-3-2新霞が関ビル","lat":35.671896,"lon":139.746288},{"name":"将門塚","province":"東京都","city":"千代田区","address":"東京都千代田区大手町1-2","lat":35.687353,"lon":139.762519},{"name":"千代田図書館","province":"東京都","city":"千代田区","address":"東京都千代田区九段南1丁目2-1","lat":35.69407451,"lon":139.75364744},{"name":"日比谷図書文化館","province":"東京都","city":"千代田区","address":"東京都千代田区日比谷公園1-4","lat":35.67175752,"lon":139.75458985},{"name":"四番町図書館","province":"東京都","city":"千代田区","address":"東京都千代田区三番町14-7","lat":35.69048014,"lon":139.74157634},{"name":"昌平まちかど図書館","province":"東京都","city":"千代田区","address":"東京都千代田区外神田3丁目4-7","lat":35.70122142,"lon":139.76979339},{"name":"神田まちかど図書館","province":"東京都","city":"千代田区","address":"東京都千代田区神田司町2丁目16","lat":35.69333055,"lon":139.76842708},{"name":"神田児童館","province":"東京都","city":"千代田区","address":"千代田区外神田3-4-7","lat":35.70119,"lon":139.76988},{"name":"千代田区立児童・家庭支援センター西神田分館","province":"東京都","city":"千代田区","address":"千代田区西神田2-6-2","lat":35.69904,"lon":139.75476},{"name":"四番町児童館","province":"東京都","city":"千代田区","address":"千代田区四番町5-8","lat":35.68855,"lon":139.73807},{"name":"一番町児童館","province":"東京都","city":"千代田区","address":"千代田区一番町10-22","lat":35.68676,"lon":139.7394},{"name":"全国社会福祉協議会","province":"東京都","city":"千代田区","address":"千代田区霞が関3-3-2新霞が関ビル","lat":35.67212,"lon":139.74648},{"name":"千代田区社会福祉協議会","province":"東京都","city":"千代田区","address":"千代田区九段南1-6-10かがやきプラザ4階","lat":35.69438,"lon":139.75159},{"name":"西神田児童センター","province":"東京都","city":"千代田区","address":"千代田区西神田2-6-2","lat":35.69904,"lon":139.75476},{"name":"出光美術館","province":"東京都","city":"千代田区","address":"千代田区丸の内3-1-1帝劇ビル9階","lat":35.676755,"lon":139.7608481},{"name":"三菱一号館美術館","province":"東京都","city":"千代田区","address":"東京都千代田区丸の内2丁目6-2","lat":35.67849868,"lon":139.76336665},{"name":"＊?日比谷図書文化館??文化財事務室","province":"東京都","city":"千代田区","address":"千代田区日比谷公園1-4","lat":35.671866,"lon":139.754602},{"name":"＊?昌平まちかど図書館","province":"東京都","city":"千代田区","address":"千代田区外神田3-4-7","lat":35.701223,"lon":139.769873},{"name":"＊?神田まちかど図書館","province":"東京都","city":"千代田区","address":"千代田区神田司町2-16","lat":35.693357,"lon":139.768304},{"name":"＊?四番町図書館","province":"東京都","city":"千代田区","address":"千代田区四番町1","lat":35.690453,"lon":139.741601},{"name":"＊?千代田図書館","province":"東京都","city":"千代田区","address":"千代田区九段南1-2-1千代田区役所9・10階","lat":35.693997,"lon":139.753585},{"name":"＊?日比谷図書文化館","province":"東京都","city":"千代田区","address":"千代田区日比谷公園1-4","lat":35.671872,"lon":139.754602},{"name":"神田児童館","province":"東京都","city":"千代田区","address":"千代田区外神田3-4-7","lat":35.701221,"lon":139.769793},{"name":"千代田区立児童・家庭支援センター西神田分館","province":"東京都","city":"千代田区","address":"千代田区西神田2-6-2","lat":35.698918,"lon":139.754755},{"name":"四番町児童館","province":"東京都","city":"千代田区","address":"千代田区四番町11","lat":35.689022,"lon":139.739404},{"name":"一番町児童館","province":"東京都","city":"千代田区","address":"千代田区一番町10-22","lat":35.686444,"lon":139.739324},{"name":"将門塚","province":"東京都","city":"千代田区","address":"東京都千代田区大手町1-2","lat":35.687353,"lon":139.762519},{"name":"千代田図書館","province":"東京都","city":"千代田区","address":"東京都千代田区九段南1丁目2-1","lat":35.69407451,"lon":139.75364744},{"name":"日比谷図書文化館","province":"東京都","city":"千代田区","address":"東京都千代田区日比谷公園1-4","lat":35.67175752,"lon":139.75458985},{"name":"四番町図書館","province":"東京都","city":"千代田区","address":"東京都千代田区三番町14-7","lat":35.69048014,"lon":139.74157634},{"name":"昌平まちかど図書館","province":"東京都","city":"千代田区","address":"東京都千代田区外神田3丁目4-7","lat":35.70122142,"lon":139.76979339},{"name":"神田まちかど図書館","province":"東京都","city":"千代田区","address":"東京都千代田区神田司町2丁目16","lat":35.69333055,"lon":139.76842708},{"name":"神田児童館","province":"東京都","city":"千代田区","address":"千代田区外神田3-4-7","lat":35.70119,"lon":139.76988},{"name":"千代田区立児童・家庭支援センター西神田分館","province":"東京都","city":"千代田区","address":"千代田区西神田2-6-2","lat":35.69904,"lon":139.75476},{"name":"四番町児童館","province":"東京都","city":"千代田区","address":"千代田区四番町5-8","lat":35.68855,"lon":139.73807},{"name":"一番町児童館","province":"東京都","city":"千代田区","address":"千代田区一番町10-22","lat":35.68676,"lon":139.7394},{"name":"西神田児童センター","province":"東京都","city":"千代田区","address":"千代田区西神田2-6-2","lat":35.69904,"lon":139.75476},{"name":"出光美術館","province":"東京都","city":"千代田区","address":"千代田区丸の内3-1-1帝劇ビル9階","lat":35.676755,"lon":139.7608481},{"name":"三菱一号館美術館","province":"東京都","city":"千代田区","address":"東京都千代田区丸の内2丁目6-2","lat":35.67849868,"lon":139.76336665},{"name":"＊?日比谷図書文化館??文化財事務室","province":"東京都","city":"千代田区","address":"千代田区日比谷公園1-4","lat":35.671866,"lon":139.754602},{"name":"＊?昌平まちかど図書館","province":"東京都","city":"千代田区","address":"千代田区外神田3-4-7","lat":35.701223,"lon":139.769873},{"name":"＊?神田まちかど図書館","province":"東京都","city":"千代田区","address":"千代田区神田司町2-16","lat":35.693357,"lon":139.768304},{"name":"＊?四番町図書館","province":"東京都","city":"千代田区","address":"千代田区四番町1","lat":35.690453,"lon":139.741601},{"name":"＊?千代田図書館","province":"東京都","city":"千代田区","address":"千代田区九段南1-2-1千代田区役所9・10階","lat":35.693997,"lon":139.753585},{"name":"＊?日比谷図書文化館","province":"東京都","city":"千代田区","address":"千代田区日比谷公園1-4","lat":35.671872,"lon":139.754602},{"name":"神田児童館","province":"東京都","city":"千代田区","address":"千代田区外神田3-4-7","lat":35.701221,"lon":139.769793},{"name":"千代田区立児童・家庭支援センター西神田分館","province":"東京都","city":"千代田区","address":"千代田区西神田2-6-2","lat":35.698918,"lon":139.754755},{"name":"四番町児童館","province":"東京都","city":"千代田区","address":"千代田区四番町11","lat":35.689022,"lon":139.739404},{"name":"一番町児童館","province":"東京都","city":"千代田区","address":"千代田区一番町10-22","lat":35.686444,"lon":139.739324},{"name":"将門塚","province":"東京都","city":"千代田区","address":"東京都千代田区大手町1-2","lat":35.687353,"lon":139.762519},{"name":"千代田図書館","province":"東京都","city":"千代田区","address":"東京都千代田区九段南1丁目2-1","lat":35.69407451,"lon":139.75364744},{"name":"日比谷図書文化館","province":"東京都","city":"千代田区","address":"東京都千代田区日比谷公園1-4","lat":35.67175752,"lon":139.75458985},{"name":"四番町図書館","province":"東京都","city":"千代田区","address":"東京都千代田区三番町14-7","lat":35.69048014,"lon":139.74157634},{"name":"昌平まちかど図書館","province":"東京都","city":"千代田区","address":"東京都千代田区外神田3丁目4-7","lat":35.70122142,"lon":139.76979339},{"name":"神田まちかど図書館","province":"東京都","city":"千代田区","address":"東京都千代田区神田司町2丁目16","lat":35.69333055,"lon":139.76842708},{"name":"神田児童館","province":"東京都","city":"千代田区","address":"千代田区外神田3-4-7","lat":35.70119,"lon":139.76988},{"name":"千代田区立児童・家庭支援センター西神田分館","province":"東京都","city":"千代田区","address":"千代田区西神田2-6-2","lat":35.69904,"lon":139.75476},{"name":"四番町児童館","province":"東京都","city":"千代田区","address":"千代田区四番町5-8","lat":35.68855,"lon":139.73807},{"name":"一番町児童館","province":"東京都","city":"千代田区","address":"千代田区一番町10-22","lat":35.68676,"lon":139.7394},{"name":"西神田児童センター","province":"東京都","city":"千代田区","address":"千代田区西神田2-6-2","lat":35.69904,"lon":139.75476},{"name":"出光美術館","province":"東京都","city":"千代田区","address":"千代田区丸の内3-1-1帝劇ビル9階","lat":35.676755,"lon":139.7608481},{"name":"三菱一号館美術館","province":"東京都","city":"千代田区","address":"東京都千代田区丸の内2丁目6-2","lat":35.67849868,"lon":139.76336665},{"name":"＊?日比谷図書文化館??文化財事務室","province":"東京都","city":"千代田区","address":"千代田区日比谷公園1-4","lat":35.671866,"lon":139.754602},{"name":"＊?昌平まちかど図書館","province":"東京都","city":"千代田区","address":"千代田区外神田3-4-7","lat":35.701223,"lon":139.769873},{"name":"＊?神田まちかど図書館","province":"東京都","city":"千代田区","address":"千代田区神田司町2-16","lat":35.693357,"lon":139.768304},{"name":"＊?四番町図書館","province":"東京都","city":"千代田区","address":"千代田区四番町1","lat":35.690453,"lon":139.741601},{"name":"＊?千代田図書館","province":"東京都","city":"千代田区","address":"千代田区九段南1-2-1千代田区役所9・10階","lat":35.693997,"lon":139.753585},{"name":"＊?日比谷図書文化館","province":"東京都","city":"千代田区","address":"千代田区日比谷公園1-4","lat":35.671872,"lon":139.754602},{"name":"神田児童館","province":"東京都","city":"千代田区","address":"千代田区外神田3-4-7","lat":35.701221,"lon":139.769793},{"name":"千代田区立児童・家庭支援センター西神田分館","province":"東京都","city":"千代田区","address":"千代田区西神田2-6-2","lat":35.698918,"lon":139.754755},{"name":"四番町児童館","province":"東京都","city":"千代田区","address":"千代田区四番町11","lat":35.689022,"lon":139.739404},{"name":"一番町児童館","province":"東京都","city":"千代田区","address":"千代田区一番町10-22","lat":35.686444,"lon":139.739324},{"name":"将門塚","province":"東京都","city":"千代田区","address":"東京都千代田区大手町1-2","lat":35.687353,"lon":139.762519},{"name":"千代田図書館","province":"東京都","city":"千代田区","address":"東京都千代田区九段南1丁目2-1","lat":35.69407451,"lon":139.75364744},{"name":"日比谷図書文化館","province":"東京都","city":"千代田区","address":"東京都千代田区日比谷公園1-4","lat":35.67175752,"lon":139.75458985},{"name":"四番町図書館","province":"東京都","city":"千代田区","address":"東京都千代田区三番町14-7","lat":35.69048014,"lon":139.74157634},{"name":"昌平まちかど図書館","province":"東京都","city":"千代田区","address":"東京都千代田区外神田3丁目4-7","lat":35.70122142,"lon":139.76979339},{"name":"神田まちかど図書館","province":"東京都","city":"千代田区","address":"東京都千代田区神田司町2丁目16","lat":35.69333055,"lon":139.76842708},{"name":"神田児童館","province":"東京都","city":"千代田区","address":"千代田区外神田3-4-7","lat":35.70119,"lon":139.76988},{"name":"千代田区立児童・家庭支援センター西神田分館","province":"東京都","city":"千代田区","address":"千代田区西神田2-6-2","lat":35.69904,"lon":139.75476},{"name":"四番町児童館","province":"東京都","city":"千代田区","address":"千代田区四番町5-8","lat":35.68855,"lon":139.73807},{"name":"一番町児童館","province":"東京都","city":"千代田区","address":"千代田区一番町10-22","lat":35.68676,"lon":139.7394},{"name":"西神田児童センター","province":"東京都","city":"千代田区","address":"千代田区西神田2-6-2","lat":35.69904,"lon":139.75476},{"name":"出光美術館","province":"東京都","city":"千代田区","address":"千代田区丸の内3-1-1帝劇ビル9階","lat":35.676755,"lon":139.7608481},{"name":"三菱一号館美術館","province":"東京都","city":"千代田区","address":"東京都千代田区丸の内2丁目6-2","lat":35.67849868,"lon":139.76336665},{"name":"＊?日比谷図書文化館??文化財事務室","province":"東京都","city":"千代田区","address":"千代田区日比谷公園1-4","lat":35.671866,"lon":139.754602},{"name":"＊?昌平まちかど図書館","province":"東京都","city":"千代田区","address":"千代田区外神田3-4-7","lat":35.701223,"lon":139.769873},{"name":"＊?神田まちかど図書館","province":"東京都","city":"千代田区","address":"千代田区神田司町2-16","lat":35.693357,"lon":139.768304},{"name":"＊?四番町図書館","province":"東京都","city":"千代田区","address":"千代田区四番町1","lat":35.690453,"lon":139.741601},{"name":"＊?千代田図書館","province":"東京都","city":"千代田区","address":"千代田区九段南1-2-1千代田区役所9・10階","lat":35.693997,"lon":139.753585},{"name":"＊?日比谷図書文化館","province":"東京都","city":"千代田区","address":"千代田区日比谷公園1-4","lat":35.671872,"lon":139.754602},{"name":"神田児童館","province":"東京都","city":"千代田区","address":"千代田区外神田3-4-7","lat":35.701221,"lon":139.769793},{"name":"千代田区立児童・家庭支援センター西神田分館","province":"東京都","city":"千代田区","address":"千代田区西神田2-6-2","lat":35.698918,"lon":139.754755},{"name":"四番町児童館","province":"東京都","city":"千代田区","address":"千代田区四番町11","lat":35.689022,"lon":139.739404},{"name":"一番町児童館","province":"東京都","city":"千代田区","address":"千代田区一番町10-22","lat":35.686444,"lon":139.739324},{"name":"将門塚","province":"東京都","city":"千代田区","address":"東京都千代田区大手町1-2","lat":35.687353,"lon":139.762519},{"name":"千代田図書館","province":"東京都","city":"千代田区","address":"東京都千代田区九段南1丁目2-1","lat":35.69407451,"lon":139.75364744},{"name":"日比谷図書文化館","province":"東京都","city":"千代田区","address":"東京都千代田区日比谷公園1-4","lat":35.67175752,"lon":139.75458985},{"name":"四番町図書館","province":"東京都","city":"千代田区","address":"東京都千代田区三番町14-7","lat":35.69048014,"lon":139.74157634},{"name":"昌平まちかど図書館","province":"東京都","city":"千代田区","address":"東京都千代田区外神田3丁目4-7","lat":35.70122142,"lon":139.76979339},{"name":"神田まちかど図書館","province":"東京都","city":"千代田区","address":"東京都千代田区神田司町2丁目16","lat":35.69333055,"lon":139.76842708},{"name":"神田児童館","province":"東京都","city":"千代田区","address":"千代田区外神田3-4-7","lat":35.70119,"lon":139.76988},{"name":"千代田区立児童・家庭支援センター西神田分館","province":"東京都","city":"千代田区","address":"千代田区西神田2-6-2","lat":35.69904,"lon":139.75476},{"name":"四番町児童館","province":"東京都","city":"千代田区","address":"千代田区四番町5-8","lat":35.68855,"lon":139.73807},{"name":"一番町児童館","province":"東京都","city":"千代田区","address":"千代田区一番町10-22","lat":35.68676,"lon":139.7394},{"name":"西神田児童センター","province":"東京都","city":"千代田区","address":"千代田区西神田2-6-2","lat":35.69904,"lon":139.75476},{"name":"出光美術館","province":"東京都","city":"千代田区","address":"千代田区丸の内3-1-1帝劇ビル9階","lat":35.676755,"lon":139.7608481},{"name":"三菱一号館美術館","province":"東京都","city":"千代田区","address":"東京都千代田区丸の内2丁目6-2","lat":35.67849868,"lon":139.76336665},{"name":"＊?日比谷図書文化館??文化財事務室","province":"東京都","city":"千代田区","address":"千代田区日比谷公園1-4","lat":35.671866,"lon":139.754602},{"name":"＊?昌平まちかど図書館","province":"東京都","city":"千代田区","address":"千代田区外神田3-4-7","lat":35.701223,"lon":139.769873},{"name":"＊?神田まちかど図書館","province":"東京都","city":"千代田区","address":"千代田区神田司町2-16","lat":35.693357,"lon":139.768304},{"name":"＊?四番町図書館","province":"東京都","city":"千代田区","address":"千代田区四番町1","lat":35.690453,"lon":139.741601},{"name":"＊?千代田図書館","province":"東京都","city":"千代田区","address":"千代田区九段南1-2-1千代田区役所9・10階","lat":35.693997,"lon":139.753585},{"name":"＊?日比谷図書文化館","province":"東京都","city":"千代田区","address":"千代田区日比谷公園1-4","lat":35.671872,"lon":139.754602},{"name":"神田児童館","province":"東京都","city":"千代田区","address":"千代田区外神田3-4-7","lat":35.701221,"lon":139.769793},{"name":"千代田区立児童・家庭支援センター西神田分館","province":"東京都","city":"千代田区","address":"千代田区西神田2-6-2","lat":35.698918,"lon":139.754755},{"name":"四番町児童館","province":"東京都","city":"千代田区","address":"千代田区四番町11","lat":35.689022,"lon":139.739404},{"name":"一番町児童館","province":"東京都","city":"千代田区","address":"千代田区一番町10-22","lat":35.686444,"lon":139.739324},{"name":"将門塚","province":"東京都","city":"千代田区","address":"東京都千代田区大手町1-2","lat":35.687353,"lon":139.762519},{"name":"千代田図書館","province":"東京都","city":"千代田区","address":"東京都千代田区九段南1丁目2-1","lat":35.69407451,"lon":139.75364744},{"name":"日比谷図書文化館","province":"東京都","city":"千代田区","address":"東京都千代田区日比谷公園1-4","lat":35.67175752,"lon":139.75458985},{"name":"四番町図書館","province":"東京都","city":"千代田区","address":"東京都千代田区三番町14-7","lat":35.69048014,"lon":139.74157634},{"name":"昌平まちかど図書館","province":"東京都","city":"千代田区","address":"東京都千代田区外神田3丁目4-7","lat":35.70122142,"lon":139.76979339},{"name":"神田まちかど図書館","province":"東京都","city":"千代田区","address":"東京都千代田区神田司町2丁目16","lat":35.69333055,"lon":139.76842708},{"name":"神田児童館","province":"東京都","city":"千代田区","address":"千代田区外神田3-4-7","lat":35.70119,"lon":139.76988},{"name":"千代田区立児童・家庭支援センター西神田分館","province":"東京都","city":"千代田区","address":"千代田区西神田2-6-2","lat":35.69904,"lon":139.75476},{"name":"四番町児童館","province":"東京都","city":"千代田区","address":"千代田区四番町5-8","lat":35.68855,"lon":139.73807},{"name":"一番町児童館","province":"東京都","city":"千代田区","address":"千代田区一番町10-22","lat":35.68676,"lon":139.7394},{"name":"西神田児童センター","province":"東京都","city":"千代田区","address":"千代田区西神田2-6-2","lat":35.69904,"lon":139.75476},{"name":"出光美術館","province":"東京都","city":"千代田区","address":"千代田区丸の内3-1-1帝劇ビル9階","lat":35.676755,"lon":139.7608481},{"name":"三菱一号館美術館","province":"東京都","city":"千代田区","address":"東京都千代田区丸の内2丁目6-2","lat":35.67849868,"lon":139.76336665},{"name":"＊?日比谷図書文化館??文化財事務室","province":"東京都","city":"千代田区","address":"千代田区日比谷公園1-4","lat":35.671866,"lon":139.754602},{"name":"＊?昌平まちかど図書館","province":"東京都","city":"千代田区","address":"千代田区外神田3-4-7","lat":35.701223,"lon":139.769873},{"name":"＊?神田まちかど図書館","province":"東京都","city":"千代田区","address":"千代田区神田司町2-16","lat":35.693357,"lon":139.768304},{"name":"＊?四番町図書館","province":"東京都","city":"千代田区","address":"千代田区四番町1","lat":35.690453,"lon":139.741601},{"name":"＊?千代田図書館","province":"東京都","city":"千代田区","address":"千代田区九段南1-2-1千代田区役所9・10階","lat":35.693997,"lon":139.753585},{"name":"＊?日比谷図書文化館","province":"東京都","city":"千代田区","address":"千代田区日比谷公園1-4","lat":35.671872,"lon":139.754602},{"name":"神田児童館","province":"東京都","city":"千代田区","address":"千代田区外神田3-4-7","lat":35.701221,"lon":139.769793},{"name":"千代田区立児童・家庭支援センター西神田分館","province":"東京都","city":"千代田区","address":"千代田区西神田2-6-2","lat":35.698918,"lon":139.754755},{"name":"四番町児童館","province":"東京都","city":"千代田区","address":"千代田区四番町11","lat":35.689022,"lon":139.739404},{"name":"一番町児童館","province":"東京都","city":"千代田区","address":"千代田区一番町10-22","lat":35.686444,"lon":139.739324},{"name":"将門塚","province":"東京都","city":"千代田区","address":"東京都千代田区大手町1-2","lat":35.687353,"lon":139.762519},{"name":"千代田図書館","province":"東京都","city":"千代田区","address":"東京都千代田区九段南1丁目2-1","lat":35.69407451,"lon":139.75364744},{"name":"日比谷図書文化館","province":"東京都","city":"千代田区","address":"東京都千代田区日比谷公園1-4","lat":35.67175752,"lon":139.75458985},{"name":"四番町図書館","province":"東京都","city":"千代田区","address":"東京都千代田区三番町14-7","lat":35.69048014,"lon":139.74157634},{"name":"昌平まちかど図書館","province":"東京都","city":"千代田区","address":"東京都千代田区外神田3丁目4-7","lat":35.70122142,"lon":139.76979339},{"name":"神田まちかど図書館","province":"東京都","city":"千代田区","address":"東京都千代田区神田司町2丁目16","lat":35.69333055,"lon":139.76842708},{"name":"神田児童館","province":"東京都","city":"千代田区","address":"千代田区外神田3-4-7","lat":35.70119,"lon":139.76988},{"name":"千代田区立児童・家庭支援センター西神田分館","province":"東京都","city":"千代田区","address":"千代田区西神田2-6-2","lat":35.69904,"lon":139.75476},{"name":"四番町児童館","province":"東京都","city":"千代田区","address":"千代田区四番町5-8","lat":35.68855,"lon":139.73807},{"name":"一番町児童館","province":"東京都","city":"千代田区","address":"千代田区一番町10-22","lat":35.68676,"lon":139.7394},{"name":"西神田児童センター","province":"東京都","city":"千代田区","address":"千代田区西神田2-6-2","lat":35.69904,"lon":139.75476},{"name":"出光美術館","province":"東京都","city":"千代田区","address":"千代田区丸の内3-1-1帝劇ビル9階","lat":35.676755,"lon":139.7608481},{"name":"三菱一号館美術館","province":"東京都","city":"千代田区","address":"東京都千代田区丸の内2丁目6-2","lat":35.67849868,"lon":139.76336665},{"name":"＊?昌平まちかど図書館","province":"東京都","city":"千代田区","address":"千代田区外神田3-4-7","lat":35.701223,"lon":139.769873},{"name":"＊?神田まちかど図書館","province":"東京都","city":"千代田区","address":"千代田区神田司町2-16","lat":35.693357,"lon":139.768304},{"name":"＊?四番町図書館","province":"東京都","city":"千代田区","address":"千代田区四番町1","lat":35.690453,"lon":139.741601},{"name":"＊?千代田図書館","province":"東京都","city":"千代田区","address":"千代田区九段南1-2-1千代田区役所9・10階","lat":35.693997,"lon":139.753585},{"name":"＊?日比谷図書文化館","province":"東京都","city":"千代田区","address":"千代田区日比谷公園1-4","lat":35.671872,"lon":139.754602},{"name":"神田児童館","province":"東京都","city":"千代田区","address":"千代田区外神田3-4-7","lat":35.701221,"lon":139.769793},{"name":"千代田区立児童・家庭支援センター西神田分館","province":"東京都","city":"千代田区","address":"千代田区西神田2-6-2","lat":35.698918,"lon":139.754755},{"name":"四番町児童館","province":"東京都","city":"千代田区","address":"千代田区四番町11","lat":35.689022,"lon":139.739404},{"name":"一番町児童館","province":"東京都","city":"千代田区","address":"千代田区一番町10-22","lat":35.686444,"lon":139.739324},{"name":"将門塚","province":"東京都","city":"千代田区","address":"東京都千代田区大手町1-2","lat":35.687353,"lon":139.762519},{"name":"千代田図書館","province":"東京都","city":"千代田区","address":"東京都千代田区九段南1丁目2-1","lat":35.69407451,"lon":139.75364744},{"name":"日比谷図書文化館","province":"東京都","city":"千代田区","address":"東京都千代田区日比谷公園1-4","lat":35.67175752,"lon":139.75458985},{"name":"四番町図書館","province":"東京都","city":"千代田区","address":"東京都千代田区三番町14-7","lat":35.69048014,"lon":139.74157634},{"name":"昌平まちかど図書館","province":"東京都","city":"千代田区","address":"東京都千代田区外神田3丁目4-7","lat":35.70122142,"lon":139.76979339},{"name":"神田まちかど図書館","province":"東京都","city":"千代田区","address":"東京都千代田区神田司町2丁目16","lat":35.69333055,"lon":139.76842708},{"name":"神田児童館","province":"東京都","city":"千代田区","address":"千代田区外神田3-4-7","lat":35.70119,"lon":139.76988},{"name":"千代田区立児童・家庭支援センター西神田分館","province":"東京都","city":"千代田区","address":"千代田区西神田2-6-2","lat":35.69904,"lon":139.75476},{"name":"四番町児童館","province":"東京都","city":"千代田区","address":"千代田区四番町5-8","lat":35.68855,"lon":139.73807},{"name":"一番町児童館","province":"東京都","city":"千代田区","address":"千代田区一番町10-22","lat":35.68676,"lon":139.7394},{"name":"西神田児童センター","province":"東京都","city":"千代田区","address":"千代田区西神田2-6-2","lat":35.69904,"lon":139.75476},{"name":"出光美術館","province":"東京都","city":"千代田区","address":"千代田区丸の内3-1-1帝劇ビル9階","lat":35.676755,"lon":139.7608481},{"name":"三菱一号館美術館","province":"東京都","city":"千代田区","address":"東京都千代田区丸の内2丁目6-2","lat":35.67849868,"lon":139.76336665},{"name":"＊?昌平まちかど図書館","province":"東京都","city":"千代田区","address":"千代田区外神田3-4-7","lat":35.701223,"lon":139.769873},{"name":"＊?神田まちかど図書館","province":"東京都","city":"千代田区","address":"千代田区神田司町2-16","lat":35.693357,"lon":139.768304},{"name":"＊?四番町図書館","province":"東京都","city":"千代田区","address":"千代田区四番町1","lat":35.690453,"lon":139.741601},{"name":"＊?千代田図書館","province":"東京都","city":"千代田区","address":"千代田区九段南1-2-1千代田区役所9・10階","lat":35.693997,"lon":139.753585},{"name":"＊?日比谷図書文化館","province":"東京都","city":"千代田区","address":"千代田区日比谷公園1-4","lat":35.671872,"lon":139.754602},{"name":"神田児童館","province":"東京都","city":"千代田区","address":"千代田区外神田3-4-7","lat":35.701221,"lon":139.769793},{"name":"千代田区立児童・家庭支援センター西神田分館","province":"東京都","city":"千代田区","address":"千代田区西神田2-6-2","lat":35.698918,"lon":139.754755},{"name":"四番町児童館","province":"東京都","city":"千代田区","address":"千代田区四番町11","lat":35.689022,"lon":139.739404},{"name":"一番町児童館","province":"東京都","city":"千代田区","address":"千代田区一番町10-22","lat":35.686444,"lon":139.739324},{"name":"将門塚","province":"東京都","city":"千代田区","address":"東京都千代田区大手町1-2","lat":35.687353,"lon":139.762519},{"name":"千代田図書館","province":"東京都","city":"千代田区","address":"東京都千代田区九段南1丁目2-1","lat":35.69407451,"lon":139.75364744},{"name":"日比谷図書文化館","province":"東京都","city":"千代田区","address":"東京都千代田区日比谷公園1-4","lat":35.67175752,"lon":139.75458985},{"name":"四番町図書館","province":"東京都","city":"千代田区","address":"東京都千代田区三番町14-7","lat":35.69048014,"lon":139.74157634},{"name":"昌平まちかど図書館","province":"東京都","city":"千代田区","address":"東京都千代田区外神田3丁目4-7","lat":35.70122142,"lon":139.76979339},{"name":"神田まちかど図書館","province":"東京都","city":"千代田区","address":"東京都千代田区神田司町2丁目16","lat":35.69333055,"lon":139.76842708},{"name":"神田児童館","province":"東京都","city":"千代田区","address":"千代田区外神田3-4-7","lat":35.70119,"lon":139.76988},{"name":"千代田区立児童・家庭支援センター西神田分館","province":"東京都","city":"千代田区","address":"千代田区西神田2-6-2","lat":35.69904,"lon":139.75476},{"name":"四番町児童館","province":"東京都","city":"千代田区","address":"千代田区四番町5-8","lat":35.68855,"lon":139.73807},{"name":"一番町児童館","province":"東京都","city":"千代田区","address":"千代田区一番町10-22","lat":35.68676,"lon":139.7394},{"name":"西神田児童センター","province":"東京都","city":"千代田区","address":"千代田区西神田2-6-2","lat":35.69904,"lon":139.75476},{"name":"出光美術館","province":"東京都","city":"千代田区","address":"千代田区丸の内3-1-1帝劇ビル9階","lat":35.676755,"lon":139.7608481},{"name":"三菱一号館美術館","province":"東京都","city":"千代田区","address":"東京都千代田区丸の内2丁目6-2","lat":35.67849868,"lon":139.76336665},{"name":"＊?昌平まちかど図書館","province":"東京都","city":"千代田区","address":"千代田区外神田3-4-7","lat":35.701223,"lon":139.769873},{"name":"＊?神田まちかど図書館","province":"東京都","city":"千代田区","address":"千代田区神田司町2-16","lat":35.693357,"lon":139.768304},{"name":"＊?四番町図書館","province":"東京都","city":"千代田区","address":"千代田区四番町1","lat":35.690453,"lon":139.741601},{"name":"＊?千代田図書館","province":"東京都","city":"千代田区","address":"千代田区九段南1-2-1千代田区役所9・10階","lat":35.693997,"lon":139.753585},{"name":"＊?日比谷図書文化館","province":"東京都","city":"千代田区","address":"千代田区日比谷公園1-4","lat":35.671872,"lon":139.754602},{"name":"神田児童館","province":"東京都","city":"千代田区","address":"千代田区外神田3-4-7","lat":35.701221,"lon":139.769793},{"name":"千代田区立児童・家庭支援センター西神田分館","province":"東京都","city":"千代田区","address":"千代田区西神田2-6-2","lat":35.698918,"lon":139.754755},{"name":"四番町児童館","province":"東京都","city":"千代田区","address":"千代田区四番町11","lat":35.689022,"lon":139.739404},{"name":"一番町児童館","province":"東京都","city":"千代田区","address":"千代田区一番町10-22","lat":35.686444,"lon":139.739324},{"name":"将門塚","province":"東京都","city":"千代田区","address":"東京都千代田区大手町1-2","lat":35.687353,"lon":139.762519},{"name":"千代田図書館","province":"東京都","city":"千代田区","address":"東京都千代田区九段南1丁目2-1","lat":35.69407451,"lon":139.75364744},{"name":"日比谷図書文化館","province":"東京都","city":"千代田区","address":"東京都千代田区日比谷公園1-4","lat":35.67175752,"lon":139.75458985},{"name":"四番町図書館","province":"東京都","city":"千代田区","address":"東京都千代田区三番町14-7","lat":35.69048014,"lon":139.74157634},{"name":"昌平まちかど図書館","province":"東京都","city":"千代田区","address":"東京都千代田区外神田3丁目4-7","lat":35.70122142,"lon":139.76979339},{"name":"神田まちかど図書館","province":"東京都","city":"千代田区","address":"東京都千代田区神田司町2丁目16","lat":35.69333055,"lon":139.76842708},{"name":"神田児童館","province":"東京都","city":"千代田区","address":"千代田区外神田3-4-7","lat":35.70119,"lon":139.76988},{"name":"千代田区立児童・家庭支援センター西神田分館","province":"東京都","city":"千代田区","address":"千代田区西神田2-6-2","lat":35.69904,"lon":139.75476},{"name":"四番町児童館","province":"東京都","city":"千代田区","address":"千代田区四番町5-8","lat":35.68855,"lon":139.73807},{"name":"一番町児童館","province":"東京都","city":"千代田区","address":"千代田区一番町10-22","lat":35.68676,"lon":139.7394},{"name":"西神田児童センター","province":"東京都","city":"千代田区","address":"千代田区西神田2-6-2","lat":35.69904,"lon":139.75476},{"name":"出光美術館","province":"東京都","city":"千代田区","address":"千代田区丸の内3-1-1帝劇ビル9階","lat":35.676755,"lon":139.7608481},{"name":"三菱一号館美術館","province":"東京都","city":"千代田区","address":"東京都千代田区丸の内2丁目6-2","lat":35.67849868,"lon":139.76336665},{"name":"＊?昌平まちかど図書館","province":"東京都","city":"千代田区","address":"千代田区外神田3-4-7","lat":35.701223,"lon":139.769873},{"name":"＊?神田まちかど図書館","province":"東京都","city":"千代田区","address":"千代田区神田司町2-16","lat":35.693357,"lon":139.768304},{"name":"＊?四番町図書館","province":"東京都","city":"千代田区","address":"千代田区四番町1","lat":35.690453,"lon":139.741601},{"name":"＊?千代田図書館","province":"東京都","city":"千代田区","address":"千代田区九段南1-2-1千代田区役所9・10階","lat":35.693997,"lon":139.753585},{"name":"＊?日比谷図書文化館","province":"東京都","city":"千代田区","address":"千代田区日比谷公園1-4","lat":35.671872,"lon":139.754602},{"name":"神田児童館","province":"東京都","city":"千代田区","address":"千代田区外神田3-4-7","lat":35.701221,"lon":139.769793},{"name":"千代田区立児童・家庭支援センター西神田分館","province":"東京都","city":"千代田区","address":"千代田区西神田2-6-2","lat":35.698918,"lon":139.754755},{"name":"四番町児童館","province":"東京都","city":"千代田区","address":"千代田区四番町11","lat":35.689022,"lon":139.739404},{"name":"一番町児童館","province":"東京都","city":"千代田区","address":"千代田区一番町10-22","lat":35.686444,"lon":139.739324},{"name":"将門塚","province":"東京都","city":"千代田区","address":"東京都千代田区大手町1-2","lat":35.687353,"lon":139.762519},{"name":"千代田図書館","province":"東京都","city":"千代田区","address":"東京都千代田区九段南1丁目2-1","lat":35.69407451,"lon":139.75364744},{"name":"日比谷図書文化館","province":"東京都","city":"千代田区","address":"東京都千代田区日比谷公園1-4","lat":35.67175752,"lon":139.75458985},{"name":"四番町図書館","province":"東京都","city":"千代田区","address":"東京都千代田区三番町14-7","lat":35.69048014,"lon":139.74157634},{"name":"昌平まちかど図書館","province":"東京都","city":"千代田区","address":"東京都千代田区外神田3丁目4-7","lat":35.70122142,"lon":139.76979339},{"name":"神田まちかど図書館","province":"東京都","city":"千代田区","address":"東京都千代田区神田司町2丁目16","lat":35.69333055,"lon":139.76842708},{"name":"神田児童館","province":"東京都","city":"千代田区","address":"千代田区外神田3-4-7","lat":35.70119,"lon":139.76988},{"name":"千代田区立児童・家庭支援センター西神田分館","province":"東京都","city":"千代田区","address":"千代田区西神田2-6-2","lat":35.69904,"lon":139.75476},{"name":"四番町児童館","province":"東京都","city":"千代田区","address":"千代田区四番町5-8","lat":35.68855,"lon":139.73807},{"name":"一番町児童館","province":"東京都","city":"千代田区","address":"千代田区一番町10-22","lat":35.68676,"lon":139.7394},{"name":"西神田児童センター","province":"東京都","city":"千代田区","address":"千代田区西神田2-6-2","lat":35.69904,"lon":139.75476},{"name":"出光美術館","province":"東京都","city":"千代田区","address":"千代田区丸の内3-1-1帝劇ビル9階","lat":35.676755,"lon":139.7608481},{"name":"三菱一号館美術館","province":"東京都","city":"千代田区","address":"東京都千代田区丸の内2丁目6-2","lat":35.67849868,"lon":139.76336665},{"name":"＊?昌平まちかど図書館","province":"東京都","city":"千代田区","address":"千代田区外神田3-4-7","lat":35.701223,"lon":139.769873},{"name":"＊?神田まちかど図書館","province":"東京都","city":"千代田区","address":"千代田区神田司町2-16","lat":35.693357,"lon":139.768304},{"name":"＊?四番町図書館","province":"東京都","city":"千代田区","address":"千代田区四番町1","lat":35.690453,"lon":139.741601},{"name":"＊?千代田図書館","province":"東京都","city":"千代田区","address":"千代田区九段南1-2-1千代田区役所9・10階","lat":35.693997,"lon":139.753585},{"name":"＊?日比谷図書文化館","province":"東京都","city":"千代田区","address":"千代田区日比谷公園1-4","lat":35.671872,"lon":139.754602},{"name":"神田児童館","province":"東京都","city":"千代田区","address":"千代田区外神田3-4-7","lat":35.701221,"lon":139.769793},{"name":"千代田区立児童・家庭支援センター西神田分館","province":"東京都","city":"千代田区","address":"千代田区西神田2-6-2","lat":35.698918,"lon":139.754755},{"name":"四番町児童館","province":"東京都","city":"千代田区","address":"千代田区四番町11","lat":35.689022,"lon":139.739404},{"name":"一番町児童館","province":"東京都","city":"千代田区","address":"千代田区一番町10-22","lat":35.686444,"lon":139.739324},{"name":"将門塚","province":"東京都","city":"千代田区","address":"東京都千代田区大手町1-2","lat":35.687353,"lon":139.762519},{"name":"千代田図書館","province":"東京都","city":"千代田区","address":"東京都千代田区九段南1丁目2-1","lat":35.69407451,"lon":139.75364744},{"name":"日比谷図書文化館","province":"東京都","city":"千代田区","address":"東京都千代田区日比谷公園1-4","lat":35.67175752,"lon":139.75458985},{"name":"四番町図書館","province":"東京都","city":"千代田区","address":"東京都千代田区三番町14-7","lat":35.69048014,"lon":139.74157634},{"name":"昌平まちかど図書館","province":"東京都","city":"千代田区","address":"東京都千代田区外神田3丁目4-7","lat":35.70122142,"lon":139.76979339},{"name":"神田まちかど図書館","province":"東京都","city":"千代田区","address":"東京都千代田区神田司町2丁目16","lat":35.69333055,"lon":139.76842708},{"name":"神田児童館","province":"東京都","city":"千代田区","address":"千代田区外神田3-4-7","lat":35.70119,"lon":139.76988},{"name":"千代田区立児童・家庭支援センター西神田分館","province":"東京都","city":"千代田区","address":"千代田区西神田2-6-2","lat":35.69904,"lon":139.75476},{"name":"四番町児童館","province":"東京都","city":"千代田区","address":"千代田区四番町5-8","lat":35.68855,"lon":139.73807},{"name":"一番町児童館","province":"東京都","city":"千代田区","address":"千代田区一番町10-22","lat":35.68676,"lon":139.7394},{"name":"西神田児童センター","province":"東京都","city":"千代田区","address":"千代田区西神田2-6-2","lat":35.69904,"lon":139.75476},{"name":"出光美術館","province":"東京都","city":"千代田区","address":"千代田区丸の内3-1-1帝劇ビル9階","lat":35.676755,"lon":139.7608481},{"name":"三菱一号館美術館","province":"東京都","city":"千代田区","address":"東京都千代田区丸の内2丁目6-2","lat":35.67849868,"lon":139.76336665},{"name":"＊?昌平まちかど図書館","province":"東京都","city":"千代田区","address":"千代田区外神田3-4-7","lat":35.701223,"lon":139.769873},{"name":"＊?神田まちかど図書館","province":"東京都","city":"千代田区","address":"千代田区神田司町2-16","lat":35.693357,"lon":139.768304},{"name":"＊?四番町図書館","province":"東京都","city":"千代田区","address":"千代田区四番町1","lat":35.690453,"lon":139.741601},{"name":"＊?千代田図書館","province":"東京都","city":"千代田区","address":"千代田区九段南1-2-1千代田区役所9・10階","lat":35.693997,"lon":139.753585},{"name":"＊?日比谷図書文化館","province":"東京都","city":"千代田区","address":"千代田区日比谷公園1-4","lat":35.671872,"lon":139.754602},{"name":"神田児童館","province":"東京都","city":"千代田区","address":"千代田区外神田3-4-7","lat":35.701221,"lon":139.769793},{"name":"千代田区立児童・家庭支援センター西神田分館","province":"東京都","city":"千代田区","address":"千代田区西神田2-6-2","lat":35.698918,"lon":139.754755},{"name":"四番町児童館","province":"東京都","city":"千代田区","address":"千代田区四番町11","lat":35.689022,"lon":139.739404},{"name":"一番町児童館","province":"東京都","city":"千代田区","address":"千代田区一番町10-22","lat":35.686444,"lon":139.739324},{"name":"将門塚","province":"東京都","city":"千代田区","address":"東京都千代田区大手町1-2","lat":35.687353,"lon":139.762519},{"name":"千代田図書館","province":"東京都","city":"千代田区","address":"東京都千代田区九段南1丁目2-1","lat":35.69407451,"lon":139.75364744},{"name":"日比谷図書文化館","province":"東京都","city":"千代田区","address":"東京都千代田区日比谷公園1-4","lat":35.67175752,"lon":139.75458985},{"name":"四番町図書館","province":"東京都","city":"千代田区","address":"東京都千代田区三番町14-7","lat":35.69048014,"lon":139.74157634},{"name":"昌平まちかど図書館","province":"東京都","city":"千代田区","address":"東京都千代田区外神田3丁目4-7","lat":35.70122142,"lon":139.76979339},{"name":"神田まちかど図書館","province":"東京都","city":"千代田区","address":"東京都千代田区神田司町2丁目16","lat":35.69333055,"lon":139.76842708},{"name":"神田児童館","province":"東京都","city":"千代田区","address":"千代田区外神田3-4-7","lat":35.70119,"lon":139.76988},{"name":"千代田区立児童・家庭支援センター西神田分館","province":"東京都","city":"千代田区","address":"千代田区西神田2-6-2","lat":35.69904,"lon":139.75476},{"name":"四番町児童館","province":"東京都","city":"千代田区","address":"千代田区四番町5-8","lat":35.68855,"lon":139.73807},{"name":"一番町児童館","province":"東京都","city":"千代田区","address":"千代田区一番町10-22","lat":35.68676,"lon":139.7394},{"name":"西神田児童センター","province":"東京都","city":"千代田区","address":"千代田区西神田2-6-2","lat":35.69904,"lon":139.75476},{"name":"出光美術館","province":"東京都","city":"千代田区","address":"千代田区丸の内3-1-1帝劇ビル9階","lat":35.676755,"lon":139.7608481},{"name":"三菱一号館美術館","province":"東京都","city":"千代田区","address":"東京都千代田区丸の内2丁目6-2","lat":35.67849868,"lon":139.76336665},{"name":"＊?昌平まちかど図書館","province":"東京都","city":"千代田区","address":"千代田区外神田3-4-7","lat":35.701223,"lon":139.769873},{"name":"＊?神田まちかど図書館","province":"東京都","city":"千代田区","address":"千代田区神田司町2-16","lat":35.693357,"lon":139.768304},{"name":"＊?四番町図書館","province":"東京都","city":"千代田区","address":"千代田区四番町1","lat":35.690453,"lon":139.741601},{"name":"＊?千代田図書館","province":"東京都","city":"千代田区","address":"千代田区九段南1-2-1千代田区役所9・10階","lat":35.693997,"lon":139.753585},{"name":"＊?日比谷図書文化館","province":"東京都","city":"千代田区","address":"千代田区日比谷公園1-4","lat":35.671872,"lon":139.754602},{"name":"神田児童館","province":"東京都","city":"千代田区","address":"千代田区外神田3-4-7","lat":35.701221,"lon":139.769793},{"name":"千代田区立児童・家庭支援センター西神田分館","province":"東京都","city":"千代田区","address":"千代田区西神田2-6-2","lat":35.698918,"lon":139.754755},{"name":"四番町児童館","province":"東京都","city":"千代田区","address":"千代田区四番町11","lat":35.689022,"lon":139.739404},{"name":"一番町児童館","province":"東京都","city":"千代田区","address":"千代田区一番町10-22","lat":35.686444,"lon":139.739324},{"name":"将門塚","province":"東京都","city":"千代田区","address":"東京都千代田区大手町1-2","lat":35.687353,"lon":139.762519},{"name":"千代田図書館","province":"東京都","city":"千代田区","address":"東京都千代田区九段南1丁目2-1","lat":35.69407451,"lon":139.75364744},{"name":"日比谷図書文化館","province":"東京都","city":"千代田区","address":"東京都千代田区日比谷公園1-4","lat":35.67175752,"lon":139.75458985},{"name":"四番町図書館","province":"東京都","city":"千代田区","address":"東京都千代田区三番町14-7","lat":35.69048014,"lon":139.74157634},{"name":"昌平まちかど図書館","province":"東京都","city":"千代田区","address":"東京都千代田区外神田3丁目4-7","lat":35.70122142,"lon":139.76979339},{"name":"神田まちかど図書館","province":"東京都","city":"千代田区","address":"東京都千代田区神田司町2丁目16","lat":35.69333055,"lon":139.76842708},{"name":"神田児童館","province":"東京都","city":"千代田区","address":"千代田区外神田3-4-7","lat":35.70119,"lon":139.76988},{"name":"千代田区立児童・家庭支援センター西神田分館","province":"東京都","city":"千代田区","address":"千代田区西神田2-6-2","lat":35.69904,"lon":139.75476},{"name":"四番町児童館","province":"東京都","city":"千代田区","address":"千代田区四番町5-8","lat":35.68855,"lon":139.73807},{"name":"一番町児童館","province":"東京都","city":"千代田区","address":"千代田区一番町10-22","lat":35.68676,"lon":139.7394},{"name":"西神田児童センター","province":"東京都","city":"千代田区","address":"千代田区西神田2-6-2","lat":35.69904,"lon":139.75476},{"name":"出光美術館","province":"東京都","city":"千代田区","address":"千代田区丸の内3-1-1帝劇ビル9階","lat":35.676755,"lon":139.7608481},{"name":"三菱一号館美術館","province":"東京都","city":"千代田区","address":"東京都千代田区丸の内2丁目6-2","lat":35.67849868,"lon":139.76336665},{"name":"＊?昌平まちかど図書館","province":"東京都","city":"千代田区","address":"千代田区外神田3-4-7","lat":35.701223,"lon":139.769873},{"name":"＊?神田まちかど図書館","province":"東京都","city":"千代田区","address":"千代田区神田司町2-16","lat":35.693357,"lon":139.768304},{"name":"＊?四番町図書館","province":"東京都","city":"千代田区","address":"千代田区四番町1","lat":35.690453,"lon":139.741601},{"name":"＊?千代田図書館","province":"東京都","city":"千代田区","address":"千代田区九段南1-2-1千代田区役所9・10階","lat":35.693997,"lon":139.753585},{"name":"＊?日比谷図書文化館","province":"東京都","city":"千代田区","address":"千代田区日比谷公園1-4","lat":35.671872,"lon":139.754602},{"name":"神田児童館","province":"東京都","city":"千代田区","address":"千代田区外神田3-4-7","lat":35.701221,"lon":139.769793},{"name":"千代田区立児童・家庭支援センター西神田分館","province":"東京都","city":"千代田区","address":"千代田区西神田2-6-2","lat":35.698918,"lon":139.754755},{"name":"四番町児童館","province":"東京都","city":"千代田区","address":"千代田区四番町11","lat":35.689022,"lon":139.739404},{"name":"一番町児童館","province":"東京都","city":"千代田区","address":"千代田区一番町10-22","lat":35.686444,"lon":139.739324},{"name":"将門塚","province":"東京都","city":"千代田区","address":"東京都千代田区大手町1-2","lat":35.687353,"lon":139.762519},{"name":"千代田図書館","province":"東京都","city":"千代田区","address":"東京都千代田区九段南1丁目2-1","lat":35.69407451,"lon":139.75364744},{"name":"日比谷図書文化館","province":"東京都","city":"千代田区","address":"東京都千代田区日比谷公園1-4","lat":35.67175752,"lon":139.75458985},{"name":"四番町図書館","province":"東京都","city":"千代田区","address":"東京都千代田区三番町14-7","lat":35.69048014,"lon":139.74157634},{"name":"昌平まちかど図書館","province":"東京都","city":"千代田区","address":"東京都千代田区外神田3丁目4-7","lat":35.70122142,"lon":139.76979339},{"name":"神田まちかど図書館","province":"東京都","city":"千代田区","address":"東京都千代田区神田司町2丁目16","lat":35.69333055,"lon":139.76842708},{"name":"神田児童館","province":"東京都","city":"千代田区","address":"千代田区外神田3-4-7","lat":35.70119,"lon":139.76988},{"name":"千代田区立児童・家庭支援センター西神田分館","province":"東京都","city":"千代田区","address":"千代田区西神田2-6-2","lat":35.69904,"lon":139.75476},{"name":"四番町児童館","province":"東京都","city":"千代田区","address":"千代田区四番町5-8","lat":35.68855,"lon":139.73807},{"name":"一番町児童館","province":"東京都","city":"千代田区","address":"千代田区一番町10-22","lat":35.68676,"lon":139.7394},{"name":"西神田児童センター","province":"東京都","city":"千代田区","address":"千代田区西神田2-6-2","lat":35.69904,"lon":139.75476},{"name":"出光美術館","province":"東京都","city":"千代田区","address":"千代田区丸の内3-1-1帝劇ビル9階","lat":35.676755,"lon":139.7608481},{"name":"三菱一号館美術館","province":"東京都","city":"千代田区","address":"東京都千代田区丸の内2丁目6-2","lat":35.67849868,"lon":139.76336665},{"name":"＊?昌平まちかど図書館","province":"東京都","city":"千代田区","address":"千代田区外神田3-4-7","lat":35.701223,"lon":139.769873},{"name":"＊?神田まちかど図書館","province":"東京都","city":"千代田区","address":"千代田区神田司町2-16","lat":35.693357,"lon":139.768304},{"name":"＊?四番町図書館","province":"東京都","city":"千代田区","address":"千代田区四番町1","lat":35.690453,"lon":139.741601},{"name":"＊?千代田図書館","province":"東京都","city":"千代田区","address":"千代田区九段南1-2-1千代田区役所9・10階","lat":35.693997,"lon":139.753585},{"name":"＊?日比谷図書文化館","province":"東京都","city":"千代田区","address":"千代田区日比谷公園1-4","lat":35.671872,"lon":139.754602},{"name":"神田児童館","province":"東京都","city":"千代田区","address":"千代田区外神田3-4-7","lat":35.701221,"lon":139.769793},{"name":"千代田区立児童・家庭支援センター西神田分館","province":"東京都","city":"千代田区","address":"千代田区西神田2-6-2","lat":35.698918,"lon":139.754755},{"name":"四番町児童館","province":"東京都","city":"千代田区","address":"千代田区四番町11","lat":35.689022,"lon":139.739404},{"name":"一番町児童館","province":"東京都","city":"千代田区","address":"千代田区一番町10-22","lat":35.686444,"lon":139.739324},{"name":"将門塚","province":"東京都","city":"千代田区","address":"東京都千代田区大手町1-2","lat":35.687353,"lon":139.762519},{"name":"千代田図書館","province":"東京都","city":"千代田区","address":"東京都千代田区九段南1丁目2-1","lat":35.69407451,"lon":139.75364744},{"name":"日比谷図書文化館","province":"東京都","city":"千代田区","address":"東京都千代田区日比谷公園1-4","lat":35.67175752,"lon":139.75458985},{"name":"四番町図書館","province":"東京都","city":"千代田区","address":"東京都千代田区三番町14-7","lat":35.69048014,"lon":139.74157634},{"name":"昌平まちかど図書館","province":"東京都","city":"千代田区","address":"東京都千代田区外神田3丁目4-7","lat":35.70122142,"lon":139.76979339},{"name":"神田まちかど図書館","province":"東京都","city":"千代田区","address":"東京都千代田区神田司町2丁目16","lat":35.69333055,"lon":139.76842708},{"name":"神田児童館","province":"東京都","city":"千代田区","address":"千代田区外神田3-4-7","lat":35.70119,"lon":139.76988},{"name":"千代田区立児童・家庭支援センター西神田分館","province":"東京都","city":"千代田区","address":"千代田区西神田2-6-2","lat":35.69904,"lon":139.75476},{"name":"四番町児童館","province":"東京都","city":"千代田区","address":"千代田区四番町5-8","lat":35.68855,"lon":139.73807},{"name":"一番町児童館","province":"東京都","city":"千代田区","address":"千代田区一番町10-22","lat":35.68676,"lon":139.7394},{"name":"西神田児童センター","province":"東京都","city":"千代田区","address":"千代田区西神田2-6-2","lat":35.69904,"lon":139.75476},{"name":"出光美術館","province":"東京都","city":"千代田区","address":"千代田区丸の内3-1-1帝劇ビル9階","lat":35.676755,"lon":139.7608481},{"name":"三菱一号館美術館","province":"東京都","city":"千代田区","address":"東京都千代田区丸の内2丁目6-2","lat":35.67849868,"lon":139.76336665},{"name":"＊?昌平まちかど図書館","province":"東京都","city":"千代田区","address":"千代田区外神田3-4-7","lat":35.701223,"lon":139.769873},{"name":"＊?神田まちかど図書館","province":"東京都","city":"千代田区","address":"千代田区神田司町2-16","lat":35.693357,"lon":139.768304},{"name":"＊?四番町図書館","province":"東京都","city":"千代田区","address":"千代田区四番町1","lat":35.690453,"lon":139.741601},{"name":"＊?千代田図書館","province":"東京都","city":"千代田区","address":"千代田区九段南1-2-1千代田区役所9・10階","lat":35.693997,"lon":139.753585},{"name":"＊?日比谷図書文化館","province":"東京都","city":"千代田区","address":"千代田区日比谷公園1-4","lat":35.671872,"lon":139.754602},{"name":"神田児童館","province":"東京都","city":"千代田区","address":"千代田区外神田3-4-7","lat":35.701221,"lon":139.769793},{"name":"千代田区立児童・家庭支援センター西神田分館","province":"東京都","city":"千代田区","address":"千代田区西神田2-6-2","lat":35.698918,"lon":139.754755},{"name":"四番町児童館","province":"東京都","city":"千代田区","address":"千代田区四番町11","lat":35.689022,"lon":139.739404},{"name":"一番町児童館","province":"東京都","city":"千代田区","address":"千代田区一番町10-22","lat":35.686444,"lon":139.739324},{"name":"将門塚","province":"東京都","city":"千代田区","address":"東京都千代田区大手町1-2","lat":35.687353,"lon":139.762519},{"name":"千代田図書館","province":"東京都","city":"千代田区","address":"東京都千代田区九段南1丁目2-1","lat":35.69407451,"lon":139.75364744},{"name":"日比谷図書文化館","province":"東京都","city":"千代田区","address":"東京都千代田区日比谷公園1-4","lat":35.67175752,"lon":139.75458985},{"name":"四番町図書館","province":"東京都","city":"千代田区","address":"東京都千代田区三番町14-7","lat":35.69048014,"lon":139.74157634},{"name":"昌平まちかど図書館","province":"東京都","city":"千代田区","address":"東京都千代田区外神田3丁目4-7","lat":35.70122142,"lon":139.76979339},{"name":"神田まちかど図書館","province":"東京都","city":"千代田区","address":"東京都千代田区神田司町2丁目16","lat":35.69333055,"lon":139.76842708},{"name":"神田児童館","province":"東京都","city":"千代田区","address":"千代田区外神田3-4-7","lat":35.70119,"lon":139.76988},{"name":"千代田区立児童・家庭支援センター西神田分館","province":"東京都","city":"千代田区","address":"千代田区西神田2-6-2","lat":35.69904,"lon":139.75476},{"name":"四番町児童館","province":"東京都","city":"千代田区","address":"千代田区四番町5-8","lat":35.68855,"lon":139.73807},{"name":"一番町児童館","province":"東京都","city":"千代田区","address":"千代田区一番町10-22","lat":35.68676,"lon":139.7394},{"name":"西神田児童センター","province":"東京都","city":"千代田区","address":"千代田区西神田2-6-2","lat":35.69904,"lon":139.75476},{"name":"出光美術館","province":"東京都","city":"千代田区","address":"千代田区丸の内3-1-1帝劇ビル9階","lat":35.676755,"lon":139.7608481},{"name":"三菱一号館美術館","province":"東京都","city":"千代田区","address":"東京都千代田区丸の内2丁目6-2","lat":35.67849868,"lon":139.76336665},{"name":"＊?昌平まちかど図書館","province":"東京都","city":"千代田区","address":"千代田区外神田3-4-7","lat":35.701223,"lon":139.769873},{"name":"＊?神田まちかど図書館","province":"東京都","city":"千代田区","address":"千代田区神田司町2-16","lat":35.693357,"lon":139.768304},{"name":"＊?四番町図書館","province":"東京都","city":"千代田区","address":"千代田区四番町1","lat":35.690453,"lon":139.741601},{"name":"＊?千代田図書館","province":"東京都","city":"千代田区","address":"千代田区九段南1-2-1千代田区役所9・10階","lat":35.693997,"lon":139.753585},{"name":"＊?日比谷図書文化館","province":"東京都","city":"千代田区","address":"千代田区日比谷公園1-4","lat":35.671872,"lon":139.754602},{"name":"神田児童館","province":"東京都","city":"千代田区","address":"千代田区外神田3-4-7","lat":35.701221,"lon":139.769793},{"name":"千代田区立児童・家庭支援センター西神田分館","province":"東京都","city":"千代田区","address":"千代田区西神田2-6-2","lat":35.698918,"lon":139.754755},{"name":"四番町児童館","province":"東京都","city":"千代田区","address":"千代田区四番町11","lat":35.689022,"lon":139.739404},{"name":"一番町児童館","province":"東京都","city":"千代田区","address":"千代田区一番町10-22","lat":35.686444,"lon":139.739324},{"name":"将門塚","province":"東京都","city":"千代田区","address":"東京都千代田区大手町1-2","lat":35.687353,"lon":139.762519},{"name":"千代田図書館","province":"東京都","city":"千代田区","address":"東京都千代田区九段南1丁目2-1","lat":35.69407451,"lon":139.75364744},{"name":"日比谷図書文化館","province":"東京都","city":"千代田区","address":"東京都千代田区日比谷公園1-4","lat":35.67175752,"lon":139.75458985},{"name":"四番町図書館","province":"東京都","city":"千代田区","address":"東京都千代田区三番町14-7","lat":35.69048014,"lon":139.74157634},{"name":"昌平まちかど図書館","province":"東京都","city":"千代田区","address":"東京都千代田区外神田3丁目4-7","lat":35.70122142,"lon":139.76979339},{"name":"神田まちかど図書館","province":"東京都","city":"千代田区","address":"東京都千代田区神田司町2丁目16","lat":35.69333055,"lon":139.76842708},{"name":"神田児童館","province":"東京都","city":"千代田区","address":"千代田区外神田3-4-7","lat":35.70119,"lon":139.76988},{"name":"千代田区立児童・家庭支援センター西神田分館","province":"東京都","city":"千代田区","address":"千代田区西神田2-6-2","lat":35.69904,"lon":139.75476},{"name":"四番町児童館","province":"東京都","city":"千代田区","address":"千代田区四番町5-8","lat":35.68855,"lon":139.73807},{"name":"一番町児童館","province":"東京都","city":"千代田区","address":"千代田区一番町10-22","lat":35.68676,"lon":139.7394},{"name":"西神田児童センター","province":"東京都","city":"千代田区","address":"千代田区西神田2-6-2","lat":35.69904,"lon":139.75476},{"name":"出光美術館","province":"東京都","city":"千代田区","address":"千代田区丸の内3-1-1帝劇ビル9階","lat":35.676755,"lon":139.7608481},{"name":"三菱一号館美術館","province":"東京都","city":"千代田区","address":"東京都千代田区丸の内2丁目6-2","lat":35.67849868,"lon":139.76336665},{"name":"＊?昌平まちかど図書館","province":"東京都","city":"千代田区","address":"千代田区外神田3-4-7","lat":35.701223,"lon":139.769873},{"name":"＊?神田まちかど図書館","province":"東京都","city":"千代田区","address":"千代田区神田司町2-16","lat":35.693357,"lon":139.768304},{"name":"＊?四番町図書館","province":"東京都","city":"千代田区","address":"千代田区四番町1","lat":35.690453,"lon":139.741601},{"name":"＊?千代田図書館","province":"東京都","city":"千代田区","address":"千代田区九段南1-2-1千代田区役所9・10階","lat":35.693997,"lon":139.753585},{"name":"＊?日比谷図書文化館","province":"東京都","city":"千代田区","address":"千代田区日比谷公園1-4","lat":35.671872,"lon":139.754602},{"name":"神田児童館","province":"東京都","city":"千代田区","address":"千代田区外神田3-4-7","lat":35.701221,"lon":139.769793},{"name":"千代田区立児童・家庭支援センター西神田分館","province":"東京都","city":"千代田区","address":"千代田区西神田2-6-2","lat":35.698918,"lon":139.754755},{"name":"四番町児童館","province":"東京都","city":"千代田区","address":"千代田区四番町11","lat":35.689022,"lon":139.739404},{"name":"一番町児童館","province":"東京都","city":"千代田区","address":"千代田区一番町10-22","lat":35.686444,"lon":139.739324},{"name":"将門塚","province":"東京都","city":"千代田区","address":"東京都千代田区大手町1-2","lat":35.687353,"lon":139.762519},{"name":"千代田図書館","province":"東京都","city":"千代田区","address":"東京都千代田区九段南1丁目2-1","lat":35.69407451,"lon":139.75364744},{"name":"日比谷図書文化館","province":"東京都","city":"千代田区","address":"東京都千代田区日比谷公園1-4","lat":35.67175752,"lon":139.75458985},{"name":"四番町図書館","province":"東京都","city":"千代田区","address":"東京都千代田区三番町14-7","lat":35.69048014,"lon":139.74157634},{"name":"昌平まちかど図書館","province":"東京都","city":"千代田区","address":"東京都千代田区外神田3丁目4-7","lat":35.70122142,"lon":139.76979339},{"name":"神田まちかど図書館","province":"東京都","city":"千代田区","address":"東京都千代田区神田司町2丁目16","lat":35.69333055,"lon":139.76842708},{"name":"神田児童館","province":"東京都","city":"千代田区","address":"千代田区外神田3-4-7","lat":35.70119,"lon":139.76988},{"name":"千代田区立児童・家庭支援センター西神田分館","province":"東京都","city":"千代田区","address":"千代田区西神田2-6-2","lat":35.69904,"lon":139.75476},{"name":"四番町児童館","province":"東京都","city":"千代田区","address":"千代田区四番町5-8","lat":35.68855,"lon":139.73807},{"name":"一番町児童館","province":"東京都","city":"千代田区","address":"千代田区一番町10-22","lat":35.68676,"lon":139.7394},{"name":"西神田児童センター","province":"東京都","city":"千代田区","address":"千代田区西神田2-6-2","lat":35.69904,"lon":139.75476},{"name":"出光美術館","province":"東京都","city":"千代田区","address":"千代田区丸の内3-1-1帝劇ビル9階","lat":35.676755,"lon":139.7608481},{"name":"三菱一号館美術館","province":"東京都","city":"千代田区","address":"東京都千代田区丸の内2丁目6-2","lat":35.67849868,"lon":139.76336665},{"name":"＊?昌平まちかど図書館","province":"東京都","city":"千代田区","address":"千代田区外神田3-4-7","lat":35.701223,"lon":139.769873},{"name":"＊?神田まちかど図書館","province":"東京都","city":"千代田区","address":"千代田区神田司町2-16","lat":35.693357,"lon":139.768304},{"name":"＊?四番町図書館","province":"東京都","city":"千代田区","address":"千代田区四番町1","lat":35.690453,"lon":139.741601},{"name":"＊?千代田図書館","province":"東京都","city":"千代田区","address":"千代田区九段南1-2-1千代田区役所9・10階","lat":35.693997,"lon":139.753585},{"name":"＊?日比谷図書文化館","province":"東京都","city":"千代田区","address":"千代田区日比谷公園1-4","lat":35.671872,"lon":139.754602},{"name":"神田児童館","province":"東京都","city":"千代田区","address":"千代田区外神田3-4-7","lat":35.701221,"lon":139.769793},{"name":"千代田区立児童・家庭支援センター西神田分館","province":"東京都","city":"千代田区","address":"千代田区西神田2-6-2","lat":35.698918,"lon":139.754755},{"name":"四番町児童館","province":"東京都","city":"千代田区","address":"千代田区四番町11","lat":35.689022,"lon":139.739404},{"name":"一番町児童館","province":"東京都","city":"千代田区","address":"千代田区一番町10-22","lat":35.686444,"lon":139.739324},{"name":"将門塚","province":"東京都","city":"千代田区","address":"東京都千代田区大手町1-2","lat":35.687353,"lon":139.762519},{"name":"千代田図書館","province":"東京都","city":"千代田区","address":"東京都千代田区九段南1丁目2-1","lat":35.69407451,"lon":139.75364744},{"name":"日比谷図書文化館","province":"東京都","city":"千代田区","address":"東京都千代田区日比谷公園1-4","lat":35.67175752,"lon":139.75458985},{"name":"四番町図書館","province":"東京都","city":"千代田区","address":"東京都千代田区三番町14-7","lat":35.69048014,"lon":139.74157634},{"name":"昌平まちかど図書館","province":"東京都","city":"千代田区","address":"東京都千代田区外神田3丁目4-7","lat":35.70122142,"lon":139.76979339},{"name":"神田まちかど図書館","province":"東京都","city":"千代田区","address":"東京都千代田区神田司町2丁目16","lat":35.69333055,"lon":139.76842708},{"name":"神田児童館","province":"東京都","city":"千代田区","address":"千代田区外神田3-4-7","lat":35.70119,"lon":139.76988},{"name":"千代田区立児童・家庭支援センター西神田分館","province":"東京都","city":"千代田区","address":"千代田区西神田2-6-2","lat":35.69904,"lon":139.75476},{"name":"四番町児童館","province":"東京都","city":"千代田区","address":"千代田区四番町5-8","lat":35.68855,"lon":139.73807},{"name":"一番町児童館","province":"東京都","city":"千代田区","address":"千代田区一番町10-22","lat":35.68676,"lon":139.7394},{"name":"西神田児童センター","province":"東京都","city":"千代田区","address":"千代田区西神田2-6-2","lat":35.69904,"lon":139.75476},{"name":"出光美術館","province":"東京都","city":"千代田区","address":"千代田区丸の内3-1-1帝劇ビル9階","lat":35.676755,"lon":139.7608481},{"name":"三菱一号館美術館","province":"東京都","city":"千代田区","address":"東京都千代田区丸の内2丁目6-2","lat":35.67849868,"lon":139.76336665},{"name":"＊?昌平まちかど図書館","province":"東京都","city":"千代田区","address":"千代田区外神田3-4-7","lat":35.701223,"lon":139.769873},{"name":"＊?神田まちかど図書館","province":"東京都","city":"千代田区","address":"千代田区神田司町2-16","lat":35.693357,"lon":139.768304},{"name":"＊?四番町図書館","province":"東京都","city":"千代田区","address":"千代田区四番町1","lat":35.690453,"lon":139.741601},{"name":"＊?千代田図書館","province":"東京都","city":"千代田区","address":"千代田区九段南1-2-1千代田区役所9・10階","lat":35.693997,"lon":139.753585},{"name":"＊?日比谷図書文化館","province":"東京都","city":"千代田区","address":"千代田区日比谷公園1-4","lat":35.671872,"lon":139.754602},{"name":"神田児童館","province":"東京都","city":"千代田区","address":"千代田区外神田3-4-7","lat":35.701221,"lon":139.769793},{"name":"千代田区立児童・家庭支援センター西神田分館","province":"東京都","city":"千代田区","address":"千代田区西神田2-6-2","lat":35.698918,"lon":139.754755},{"name":"四番町児童館","province":"東京都","city":"千代田区","address":"千代田区四番町11","lat":35.689022,"lon":139.739404},{"name":"一番町児童館","province":"東京都","city":"千代田区","address":"千代田区一番町10-22","lat":35.686444,"lon":139.739324},{"name":"将門塚","province":"東京都","city":"千代田区","address":"東京都千代田区大手町1-2","lat":35.687353,"lon":139.762519},{"name":"千代田図書館","province":"東京都","city":"千代田区","address":"東京都千代田区九段南1丁目2-1","lat":35.69407451,"lon":139.75364744},{"name":"日比谷図書文化館","province":"東京都","city":"千代田区","address":"東京都千代田区日比谷公園1-4","lat":35.67175752,"lon":139.75458985},{"name":"四番町図書館","province":"東京都","city":"千代田区","address":"東京都千代田区三番町14-7","lat":35.69048014,"lon":139.74157634},{"name":"昌平まちかど図書館","province":"東京都","city":"千代田区","address":"東京都千代田区外神田3丁目4-7","lat":35.70122142,"lon":139.76979339},{"name":"神田まちかど図書館","province":"東京都","city":"千代田区","address":"東京都千代田区神田司町2丁目16","lat":35.69333055,"lon":139.76842708},{"name":"神田児童館","province":"東京都","city":"千代田区","address":"千代田区外神田3-4-7","lat":35.70119,"lon":139.76988},{"name":"千代田区立児童・家庭支援センター西神田分館","province":"東京都","city":"千代田区","address":"千代田区西神田2-6-2","lat":35.69904,"lon":139.75476},{"name":"四番町児童館","province":"東京都","city":"千代田区","address":"千代田区四番町5-8","lat":35.68855,"lon":139.73807},{"name":"一番町児童館","province":"東京都","city":"千代田区","address":"千代田区一番町10-22","lat":35.68676,"lon":139.7394},{"name":"西神田児童センター","province":"東京都","city":"千代田区","address":"千代田区西神田2-6-2","lat":35.69904,"lon":139.75476},{"name":"出光美術館","province":"東京都","city":"千代田区","address":"千代田区丸の内3-1-1帝劇ビル9階","lat":35.676755,"lon":139.7608481},{"name":"三菱一号館美術館","province":"東京都","city":"千代田区","address":"東京都千代田区丸の内2丁目6-2","lat":35.67849868,"lon":139.76336665},{"name":"＊?昌平まちかど図書館","province":"東京都","city":"千代田区","address":"千代田区外神田3-4-7","lat":35.701223,"lon":139.769873},{"name":"＊?神田まちかど図書館","province":"東京都","city":"千代田区","address":"千代田区神田司町2-16","lat":35.693357,"lon":139.768304},{"name":"＊?四番町図書館","province":"東京都","city":"千代田区","address":"千代田区四番町1","lat":35.690453,"lon":139.741601},{"name":"＊?千代田図書館","province":"東京都","city":"千代田区","address":"千代田区九段南1-2-1千代田区役所9・10階","lat":35.693997,"lon":139.753585},{"name":"＊?日比谷図書文化館","province":"東京都","city":"千代田区","address":"千代田区日比谷公園1-4","lat":35.671872,"lon":139.754602},{"name":"神田児童館","province":"東京都","city":"千代田区","address":"千代田区外神田3-4-7","lat":35.701221,"lon":139.769793},{"name":"千代田区立児童・家庭支援センター西神田分館","province":"東京都","city":"千代田区","address":"千代田区西神田2-6-2","lat":35.698918,"lon":139.754755},{"name":"四番町児童館","province":"東京都","city":"千代田区","address":"千代田区四番町11","lat":35.689022,"lon":139.739404},{"name":"一番町児童館","province":"東京都","city":"千代田区","address":"千代田区一番町10-22","lat":35.686444,"lon":139.739324},{"name":"将門塚","province":"東京都","city":"千代田区","address":"東京都千代田区大手町1-2","lat":35.687353,"lon":139.762519},{"name":"千代田図書館","province":"東京都","city":"千代田区","address":"東京都千代田区九段南1丁目2-1","lat":35.69407451,"lon":139.75364744},{"name":"日比谷図書文化館","province":"東京都","city":"千代田区","address":"東京都千代田区日比谷公園1-4","lat":35.67175752,"lon":139.75458985},{"name":"四番町図書館","province":"東京都","city":"千代田区","address":"東京都千代田区三番町14-7","lat":35.69048014,"lon":139.74157634},{"name":"昌平まちかど図書館","province":"東京都","city":"千代田区","address":"東京都千代田区外神田3丁目4-7","lat":35.70122142,"lon":139.76979339},{"name":"神田まちかど図書館","province":"東京都","city":"千代田区","address":"東京都千代田区神田司町2丁目16","lat":35.69333055,"lon":139.76842708},{"name":"神田児童館","province":"東京都","city":"千代田区","address":"千代田区外神田3-4-7","lat":35.70119,"lon":139.76988},{"name":"千代田区立児童・家庭支援センター西神田分館","province":"東京都","city":"千代田区","address":"千代田区西神田2-6-2","lat":35.69904,"lon":139.75476},{"name":"四番町児童館","province":"東京都","city":"千代田区","address":"千代田区四番町5-8","lat":35.68855,"lon":139.73807},{"name":"一番町児童館","province":"東京都","city":"千代田区","address":"千代田区一番町10-22","lat":35.68676,"lon":139.7394},{"name":"西神田児童センター","province":"東京都","city":"千代田区","address":"千代田区西神田2-6-2","lat":35.69904,"lon":139.75476},{"name":"出光美術館","province":"東京都","city":"千代田区","address":"千代田区丸の内3-1-1帝劇ビル9階","lat":35.676755,"lon":139.7608481},{"name":"三菱一号館美術館","province":"東京都","city":"千代田区","address":"東京都千代田区丸の内2丁目6-2","lat":35.67849868,"lon":139.76336665},{"name":"＊?昌平まちかど図書館","province":"東京都","city":"千代田区","address":"千代田区外神田3-4-7","lat":35.701223,"lon":139.769873},{"name":"＊?神田まちかど図書館","province":"東京都","city":"千代田区","address":"千代田区神田司町2-16","lat":35.693357,"lon":139.768304},{"name":"＊?四番町図書館","province":"東京都","city":"千代田区","address":"千代田区四番町1","lat":35.690453,"lon":139.741601},{"name":"＊?千代田図書館","province":"東京都","city":"千代田区","address":"千代田区九段南1-2-1千代田区役所9・10階","lat":35.693997,"lon":139.753585},{"name":"＊?日比谷図書文化館","province":"東京都","city":"千代田区","address":"千代田区日比谷公園1-4","lat":35.671872,"lon":139.754602},{"name":"神田児童館","province":"東京都","city":"千代田区","address":"千代田区外神田3-4-7","lat":35.701221,"lon":139.769793},{"name":"千代田区立児童・家庭支援センター西神田分館","province":"東京都","city":"千代田区","address":"千代田区西神田2-6-2","lat":35.698918,"lon":139.754755},{"name":"四番町児童館","province":"東京都","city":"千代田区","address":"千代田区四番町11","lat":35.689022,"lon":139.739404},{"name":"一番町児童館","province":"東京都","city":"千代田区","address":"千代田区一番町10-22","lat":35.686444,"lon":139.739324},{"name":"将門塚","province":"東京都","city":"千代田区","address":"東京都千代田区大手町1-2","lat":35.687353,"lon":139.762519},{"name":"千代田図書館","province":"東京都","city":"千代田区","address":"東京都千代田区九段南1丁目2-1","lat":35.69407451,"lon":139.75364744},{"name":"日比谷図書文化館","province":"東京都","city":"千代田区","address":"東京都千代田区日比谷公園1-4","lat":35.67175752,"lon":139.75458985},{"name":"四番町図書館","province":"東京都","city":"千代田区","address":"東京都千代田区三番町14-7","lat":35.69048014,"lon":139.74157634},{"name":"昌平まちかど図書館","province":"東京都","city":"千代田区","address":"東京都千代田区外神田3丁目4-7","lat":35.70122142,"lon":139.76979339},{"name":"神田まちかど図書館","province":"東京都","city":"千代田区","address":"東京都千代田区神田司町2丁目16","lat":35.69333055,"lon":139.76842708},{"name":"神田児童館","province":"東京都","city":"千代田区","address":"千代田区外神田3-4-7","lat":35.70119,"lon":139.76988},{"name":"千代田区立児童・家庭支援センター西神田分館","province":"東京都","city":"千代田区","address":"千代田区西神田2-6-2","lat":35.69904,"lon":139.75476},{"name":"四番町児童館","province":"東京都","city":"千代田区","address":"千代田区四番町5-8","lat":35.68855,"lon":139.73807},{"name":"一番町児童館","province":"東京都","city":"千代田区","address":"千代田区一番町10-22","lat":35.68676,"lon":139.7394},{"name":"西神田児童センター","province":"東京都","city":"千代田区","address":"千代田区西神田2-6-2","lat":35.69904,"lon":139.75476},{"name":"出光美術館","province":"東京都","city":"千代田区","address":"千代田区丸の内3-1-1帝劇ビル9階","lat":35.676755,"lon":139.7608481},{"name":"三菱一号館美術館","province":"東京都","city":"千代田区","address":"東京都千代田区丸の内2丁目6-2","lat":35.67849868,"lon":139.76336665},{"name":"＊?昌平まちかど図書館","province":"東京都","city":"千代田区","address":"千代田区外神田3-4-7","lat":35.701223,"lon":139.769873},{"name":"＊?神田まちかど図書館","province":"東京都","city":"千代田区","address":"千代田区神田司町2-16","lat":35.693357,"lon":139.768304},{"name":"＊?四番町図書館","province":"東京都","city":"千代田区","address":"千代田区四番町1","lat":35.690453,"lon":139.741601},{"name":"＊?千代田図書館","province":"東京都","city":"千代田区","address":"千代田区九段南1-2-1千代田区役所9・10階","lat":35.693997,"lon":139.753585},{"name":"＊?日比谷図書文化館","province":"東京都","city":"千代田区","address":"千代田区日比谷公園1-4","lat":35.671872,"lon":139.754602},{"name":"神田児童館","province":"東京都","city":"千代田区","address":"千代田区外神田3-4-7","lat":35.701221,"lon":139.769793},{"name":"千代田区立児童・家庭支援センター西神田分館","province":"東京都","city":"千代田区","address":"千代田区西神田2-6-2","lat":35.698918,"lon":139.754755},{"name":"四番町児童館","province":"東京都","city":"千代田区","address":"千代田区四番町11","lat":35.689022,"lon":139.739404},{"name":"一番町児童館","province":"東京都","city":"千代田区","address":"千代田区一番町10-22","lat":35.686444,"lon":139.739324},{"name":"将門塚","province":"東京都","city":"千代田区","address":"東京都千代田区大手町1-2","lat":35.687353,"lon":139.762519},{"name":"千代田図書館","province":"東京都","city":"千代田区","address":"東京都千代田区九段南1丁目2-1","lat":35.69407451,"lon":139.75364744},{"name":"日比谷図書文化館","province":"東京都","city":"千代田区","address":"東京都千代田区日比谷公園1-4","lat":35.67175752,"lon":139.75458985},{"name":"四番町図書館","province":"東京都","city":"千代田区","address":"東京都千代田区三番町14-7","lat":35.69048014,"lon":139.74157634},{"name":"昌平まちかど図書館","province":"東京都","city":"千代田区","address":"東京都千代田区外神田3丁目4-7","lat":35.70122142,"lon":139.76979339},{"name":"神田まちかど図書館","province":"東京都","city":"千代田区","address":"東京都千代田区神田司町2丁目16","lat":35.69333055,"lon":139.76842708},{"name":"神田児童館","province":"東京都","city":"千代田区","address":"千代田区外神田3-4-7","lat":35.70119,"lon":139.76988},{"name":"千代田区立児童・家庭支援センター西神田分館","province":"東京都","city":"千代田区","address":"千代田区西神田2-6-2","lat":35.69904,"lon":139.75476},{"name":"四番町児童館","province":"東京都","city":"千代田区","address":"千代田区四番町5-8","lat":35.68855,"lon":139.73807},{"name":"一番町児童館","province":"東京都","city":"千代田区","address":"千代田区一番町10-22","lat":35.68676,"lon":139.7394},{"name":"西神田児童センター","province":"東京都","city":"千代田区","address":"千代田区西神田2-6-2","lat":35.69904,"lon":139.75476},{"name":"出光美術館","province":"東京都","city":"千代田区","address":"千代田区丸の内3-1-1帝劇ビル9階","lat":35.676755,"lon":139.7608481},{"name":"三菱一号館美術館","province":"東京都","city":"千代田区","address":"東京都千代田区丸の内2丁目6-2","lat":35.67849868,"lon":139.76336665},{"name":"＊?昌平まちかど図書館","province":"東京都","city":"千代田区","address":"千代田区外神田3-4-7","lat":35.701223,"lon":139.769873},{"name":"＊?神田まちかど図書館","province":"東京都","city":"千代田区","address":"千代田区神田司町2-16","lat":35.693357,"lon":139.768304},{"name":"＊?四番町図書館","province":"東京都","city":"千代田区","address":"千代田区四番町1","lat":35.690453,"lon":139.741601},{"name":"＊?千代田図書館","province":"東京都","city":"千代田区","address":"千代田区九段南1-2-1千代田区役所9・10階","lat":35.693997,"lon":139.753585},{"name":"＊?日比谷図書文化館","province":"東京都","city":"千代田区","address":"千代田区日比谷公園1-4","lat":35.671872,"lon":139.754602},{"name":"神田児童館","province":"東京都","city":"千代田区","address":"千代田区外神田3-4-7","lat":35.701221,"lon":139.769793},{"name":"千代田区立児童・家庭支援センター西神田分館","province":"東京都","city":"千代田区","address":"千代田区西神田2-6-2","lat":35.698918,"lon":139.754755},{"name":"四番町児童館","province":"東京都","city":"千代田区","address":"千代田区四番町11","lat":35.689022,"lon":139.739404},{"name":"一番町児童館","province":"東京都","city":"千代田区","address":"千代田区一番町10-22","lat":35.686444,"lon":139.739324},{"name":"将門塚","province":"東京都","city":"千代田区","address":"東京都千代田区大手町1-2","lat":35.687353,"lon":139.762519},{"name":"千代田図書館","province":"東京都","city":"千代田区","address":"東京都千代田区九段南1丁目2-1","lat":35.69407451,"lon":139.75364744},{"name":"日比谷図書文化館","province":"東京都","city":"千代田区","address":"東京都千代田区日比谷公園1-4","lat":35.67175752,"lon":139.75458985},{"name":"四番町図書館","province":"東京都","city":"千代田区","address":"東京都千代田区三番町14-7","lat":35.69048014,"lon":139.74157634},{"name":"昌平まちかど図書館","province":"東京都","city":"千代田区","address":"東京都千代田区外神田3丁目4-7","lat":35.70122142,"lon":139.76979339},{"name":"神田まちかど図書館","province":"東京都","city":"千代田区","address":"東京都千代田区神田司町2丁目16","lat":35.69333055,"lon":139.76842708},{"name":"神田児童館","province":"東京都","city":"千代田区","address":"千代田区外神田3-4-7","lat":35.70119,"lon":139.76988},{"name":"千代田区立児童・家庭支援センター西神田分館","province":"東京都","city":"千代田区","address":"千代田区西神田2-6-2","lat":35.69904,"lon":139.75476},{"name":"四番町児童館","province":"東京都","city":"千代田区","address":"千代田区四番町5-8","lat":35.68855,"lon":139.73807},{"name":"一番町児童館","province":"東京都","city":"千代田区","address":"千代田区一番町10-22","lat":35.68676,"lon":139.7394},{"name":"西神田児童センター","province":"東京都","city":"千代田区","address":"千代田区西神田2-6-2","lat":35.69904,"lon":139.75476},{"name":"出光美術館","province":"東京都","city":"千代田区","address":"千代田区丸の内3-1-1帝劇ビル9階","lat":35.676755,"lon":139.7608481},{"name":"三菱一号館美術館","province":"東京都","city":"千代田区","address":"東京都千代田区丸の内2丁目6-2","lat":35.67849868,"lon":139.76336665},{"name":"＊?昌平まちかど図書館","province":"東京都","city":"千代田区","address":"千代田区外神田3-4-7","lat":35.701223,"lon":139.769873},{"name":"＊?神田まちかど図書館","province":"東京都","city":"千代田区","address":"千代田区神田司町2-16","lat":35.693357,"lon":139.768304},{"name":"＊?四番町図書館","province":"東京都","city":"千代田区","address":"千代田区四番町1","lat":35.690453,"lon":139.741601},{"name":"＊?千代田図書館","province":"東京都","city":"千代田区","address":"千代田区九段南1-2-1千代田区役所9・10階","lat":35.693997,"lon":139.753585},{"name":"＊?日比谷図書文化館","province":"東京都","city":"千代田区","address":"千代田区日比谷公園1-4","lat":35.671872,"lon":139.754602},{"name":"神田児童館","province":"東京都","city":"千代田区","address":"千代田区外神田3-4-7","lat":35.701221,"lon":139.769793},{"name":"千代田区立児童・家庭支援センター西神田分館","province":"東京都","city":"千代田区","address":"千代田区西神田2-6-2","lat":35.698918,"lon":139.754755},{"name":"四番町児童館","province":"東京都","city":"千代田区","address":"千代田区四番町11","lat":35.689022,"lon":139.739404},{"name":"一番町児童館","province":"東京都","city":"千代田区","address":"千代田区一番町10-22","lat":35.686444,"lon":139.739324},{"name":"将門塚","province":"東京都","city":"千代田区","address":"東京都千代田区大手町1-2","lat":35.687353,"lon":139.762519},{"name":"千代田図書館","province":"東京都","city":"千代田区","address":"東京都千代田区九段南1丁目2-1","lat":35.69407451,"lon":139.75364744},{"name":"日比谷図書文化館","province":"東京都","city":"千代田区","address":"東京都千代田区日比谷公園1-4","lat":35.67175752,"lon":139.75458985},{"name":"四番町図書館","province":"東京都","city":"千代田区","address":"東京都千代田区三番町14-7","lat":35.69048014,"lon":139.74157634},{"name":"昌平まちかど図書館","province":"東京都","city":"千代田区","address":"東京都千代田区外神田3丁目4-7","lat":35.70122142,"lon":139.76979339},{"name":"神田まちかど図書館","province":"東京都","city":"千代田区","address":"東京都千代田区神田司町2丁目16","lat":35.69333055,"lon":139.76842708},{"name":"神田児童館","province":"東京都","city":"千代田区","address":"千代田区外神田3-4-7","lat":35.70119,"lon":139.76988},{"name":"千代田区立児童・家庭支援センター西神田分館","province":"東京都","city":"千代田区","address":"千代田区西神田2-6-2","lat":35.69904,"lon":139.75476},{"name":"四番町児童館","province":"東京都","city":"千代田区","address":"千代田区四番町5-8","lat":35.68855,"lon":139.73807},{"name":"一番町児童館","province":"東京都","city":"千代田区","address":"千代田区一番町10-22","lat":35.68676,"lon":139.7394},{"name":"西神田児童センター","province":"東京都","city":"千代田区","address":"千代田区西神田2-6-2","lat":35.69904,"lon":139.75476},{"name":"出光美術館","province":"東京都","city":"千代田区","address":"千代田区丸の内3-1-1帝劇ビル9階","lat":35.676755,"lon":139.7608481},{"name":"三菱一号館美術館","province":"東京都","city":"千代田区","address":"東京都千代田区丸の内2丁目6-2","lat":35.67849868,"lon":139.76336665},{"name":"＊?昌平まちかど図書館","province":"東京都","city":"千代田区","address":"千代田区外神田3-4-7","lat":35.701223,"lon":139.769873},{"name":"＊?神田まちかど図書館","province":"東京都","city":"千代田区","address":"千代田区神田司町2-16","lat":35.693357,"lon":139.768304},{"name":"＊?四番町図書館","province":"東京都","city":"千代田区","address":"千代田区四番町1","lat":35.690453,"lon":139.741601},{"name":"＊?千代田図書館","province":"東京都","city":"千代田区","address":"千代田区九段南1-2-1千代田区役所9・10階","lat":35.693997,"lon":139.753585},{"name":"＊?日比谷図書文化館","province":"東京都","city":"千代田区","address":"千代田区日比谷公園1-4","lat":35.671872,"lon":139.754602},{"name":"神田児童館","province":"東京都","city":"千代田区","address":"千代田区外神田3-4-7","lat":35.701221,"lon":139.769793},{"name":"千代田区立児童・家庭支援センター西神田分館","province":"東京都","city":"千代田区","address":"千代田区西神田2-6-2","lat":35.698918,"lon":139.754755},{"name":"四番町児童館","province":"東京都","city":"千代田区","address":"千代田区四番町11","lat":35.689022,"lon":139.739404},{"name":"一番町児童館","province":"東京都","city":"千代田区","address":"千代田区一番町10-22","lat":35.686444,"lon":139.739324},{"name":"将門塚","province":"東京都","city":"千代田区","address":"東京都千代田区大手町1-2","lat":35.687353,"lon":139.762519},{"name":"千代田図書館","province":"東京都","city":"千代田区","address":"東京都千代田区九段南1丁目2-1","lat":35.69407451,"lon":139.75364744},{"name":"日比谷図書文化館","province":"東京都","city":"千代田区","address":"東京都千代田区日比谷公園1-4","lat":35.67175752,"lon":139.75458985},{"name":"四番町図書館","province":"東京都","city":"千代田区","address":"東京都千代田区三番町14-7","lat":35.69048014,"lon":139.74157634},{"name":"昌平まちかど図書館","province":"東京都","city":"千代田区","address":"東京都千代田区外神田3丁目4-7","lat":35.70122142,"lon":139.76979339},{"name":"神田まちかど図書館","province":"東京都","city":"千代田区","address":"東京都千代田区神田司町2丁目16","lat":35.69333055,"lon":139.76842708},{"name":"神田児童館","province":"東京都","city":"千代田区","address":"千代田区外神田3-4-7","lat":35.70119,"lon":139.76988},{"name":"千代田区立児童・家庭支援センター西神田分館","province":"東京都","city":"千代田区","address":"千代田区西神田2-6-2","lat":35.69904,"lon":139.75476},{"name":"四番町児童館","province":"東京都","city":"千代田区","address":"千代田区四番町5-8","lat":35.68855,"lon":139.73807},{"name":"一番町児童館","province":"東京都","city":"千代田区","address":"千代田区一番町10-22","lat":35.68676,"lon":139.7394},{"name":"西神田児童センター","province":"東京都","city":"千代田区","address":"千代田区西神田2-6-2","lat":35.69904,"lon":139.75476},{"name":"出光美術館","province":"東京都","city":"千代田区","address":"千代田区丸の内3-1-1帝劇ビル9階","lat":35.676755,"lon":139.7608481},{"name":"三菱一号館美術館","province":"東京都","city":"千代田区","address":"東京都千代田区丸の内2丁目6-2","lat":35.67849868,"lon":139.76336665},{"name":"＊?昌平まちかど図書館","province":"東京都","city":"千代田区","address":"千代田区外神田3-4-7","lat":35.701223,"lon":139.769873},{"name":"＊?神田まちかど図書館","province":"東京都","city":"千代田区","address":"千代田区神田司町2-16","lat":35.693357,"lon":139.768304},{"name":"＊?四番町図書館","province":"東京都","city":"千代田区","address":"千代田区四番町1","lat":35.690453,"lon":139.741601},{"name":"＊?千代田図書館","province":"東京都","city":"千代田区","address":"千代田区九段南1-2-1千代田区役所9・10階","lat":35.693997,"lon":139.753585},{"name":"＊?日比谷図書文化館","province":"東京都","city":"千代田区","address":"千代田区日比谷公園1-4","lat":35.671872,"lon":139.754602},{"name":"神田児童館","province":"東京都","city":"千代田区","address":"千代田区外神田3-4-7","lat":35.701221,"lon":139.769793},{"name":"千代田区立児童・家庭支援センター西神田分館","province":"東京都","city":"千代田区","address":"千代田区西神田2-6-2","lat":35.698918,"lon":139.754755},{"name":"四番町児童館","province":"東京都","city":"千代田区","address":"千代田区四番町11","lat":35.689022,"lon":139.739404},{"name":"一番町児童館","province":"東京都","city":"千代田区","address":"千代田区一番町10-22","lat":35.686444,"lon":139.739324},{"name":"将門塚","province":"東京都","city":"千代田区","address":"東京都千代田区大手町1-2","lat":35.687353,"lon":139.762519},{"name":"千代田図書館","province":"東京都","city":"千代田区","address":"東京都千代田区九段南1丁目2-1","lat":35.69407451,"lon":139.75364744},{"name":"日比谷図書文化館","province":"東京都","city":"千代田区","address":"東京都千代田区日比谷公園1-4","lat":35.67175752,"lon":139.75458985},{"name":"四番町図書館","province":"東京都","city":"千代田区","address":"東京都千代田区三番町14-7","lat":35.69048014,"lon":139.74157634},{"name":"昌平まちかど図書館","province":"東京都","city":"千代田区","address":"東京都千代田区外神田3丁目4-7","lat":35.70122142,"lon":139.76979339},{"name":"神田まちかど図書館","province":"東京都","city":"千代田区","address":"東京都千代田区神田司町2丁目16","lat":35.69333055,"lon":139.76842708},{"name":"神田児童館","province":"東京都","city":"千代田区","address":"千代田区外神田3-4-7","lat":35.70119,"lon":139.76988},{"name":"千代田区立児童・家庭支援センター西神田分館","province":"東京都","city":"千代田区","address":"千代田区西神田2-6-2","lat":35.69904,"lon":139.75476},{"name":"四番町児童館","province":"東京都","city":"千代田区","address":"千代田区四番町5-8","lat":35.68855,"lon":139.73807},{"name":"一番町児童館","province":"東京都","city":"千代田区","address":"千代田区一番町10-22","lat":35.68676,"lon":139.7394},{"name":"西神田児童センター","province":"東京都","city":"千代田区","address":"千代田区西神田2-6-2","lat":35.69904,"lon":139.75476},{"name":"出光美術館","province":"東京都","city":"千代田区","address":"千代田区丸の内3-1-1帝劇ビル9階","lat":35.676755,"lon":139.7608481},{"name":"三菱一号館美術館","province":"東京都","city":"千代田区","address":"東京都千代田区丸の内2丁目6-2","lat":35.67849868,"lon":139.76336665},{"name":"＊?昌平まちかど図書館","province":"東京都","city":"千代田区","address":"千代田区外神田3-4-7","lat":35.701223,"lon":139.769873},{"name":"＊?神田まちかど図書館","province":"東京都","city":"千代田区","address":"千代田区神田司町2-16","lat":35.693357,"lon":139.768304},{"name":"＊?四番町図書館","province":"東京都","city":"千代田区","address":"千代田区四番町1","lat":35.690453,"lon":139.741601},{"name":"＊?千代田図書館","province":"東京都","city":"千代田区","address":"千代田区九段南1-2-1千代田区役所9・10階","lat":35.693997,"lon":139.753585},{"name":"＊?日比谷図書文化館","province":"東京都","city":"千代田区","address":"千代田区日比谷公園1-4","lat":35.671872,"lon":139.754602},{"name":"神田児童館","province":"東京都","city":"千代田区","address":"千代田区外神田3-4-7","lat":35.701221,"lon":139.769793},{"name":"千代田区立児童・家庭支援センター西神田分館","province":"東京都","city":"千代田区","address":"千代田区西神田2-6-2","lat":35.698918,"lon":139.754755},{"name":"四番町児童館","province":"東京都","city":"千代田区","address":"千代田区四番町11","lat":35.689022,"lon":139.739404},{"name":"一番町児童館","province":"東京都","city":"千代田区","address":"千代田区一番町10-22","lat":35.686444,"lon":139.739324},{"name":"将門塚","province":"東京都","city":"千代田区","address":"東京都千代田区大手町1-2","lat":35.687353,"lon":139.762519},{"name":"千代田図書館","province":"東京都","city":"千代田区","address":"東京都千代田区九段南1丁目2-1","lat":35.69407451,"lon":139.75364744},{"name":"日比谷図書文化館","province":"東京都","city":"千代田区","address":"東京都千代田区日比谷公園1-4","lat":35.67175752,"lon":139.75458985},{"name":"四番町図書館","province":"東京都","city":"千代田区","address":"東京都千代田区三番町14-7","lat":35.69048014,"lon":139.74157634},{"name":"昌平まちかど図書館","province":"東京都","city":"千代田区","address":"東京都千代田区外神田3丁目4-7","lat":35.70122142,"lon":139.76979339},{"name":"神田まちかど図書館","province":"東京都","city":"千代田区","address":"東京都千代田区神田司町2丁目16","lat":35.69333055,"lon":139.76842708},{"name":"神田児童館","province":"東京都","city":"千代田区","address":"千代田区外神田3-4-7","lat":35.70119,"lon":139.76988},{"name":"千代田区立児童・家庭支援センター西神田分館","province":"東京都","city":"千代田区","address":"千代田区西神田2-6-2","lat":35.69904,"lon":139.75476},{"name":"四番町児童館","province":"東京都","city":"千代田区","address":"千代田区四番町5-8","lat":35.68855,"lon":139.73807},{"name":"一番町児童館","province":"東京都","city":"千代田区","address":"千代田区一番町10-22","lat":35.68676,"lon":139.7394},{"name":"西神田児童センター","province":"東京都","city":"千代田区","address":"千代田区西神田2-6-2","lat":35.69904,"lon":139.75476},{"name":"出光美術館","province":"東京都","city":"千代田区","address":"千代田区丸の内3-1-1帝劇ビル9階","lat":35.676755,"lon":139.7608481},{"name":"三菱一号館美術館","province":"東京都","city":"千代田区","address":"東京都千代田区丸の内2丁目6-2","lat":35.67849868,"lon":139.76336665},{"name":"＊?昌平まちかど図書館","province":"東京都","city":"千代田区","address":"千代田区外神田3-4-7","lat":35.701223,"lon":139.769873},{"name":"＊?神田まちかど図書館","province":"東京都","city":"千代田区","address":"千代田区神田司町2-16","lat":35.693357,"lon":139.768304},{"name":"＊?四番町図書館","province":"東京都","city":"千代田区","address":"千代田区四番町1","lat":35.690453,"lon":139.741601},{"name":"＊?千代田図書館","province":"東京都","city":"千代田区","address":"千代田区九段南1-2-1千代田区役所9・10階","lat":35.693997,"lon":139.753585},{"name":"＊?日比谷図書文化館","province":"東京都","city":"千代田区","address":"千代田区日比谷公園1-4","lat":35.671872,"lon":139.754602},{"name":"神田児童館","province":"東京都","city":"千代田区","address":"千代田区外神田3-4-7","lat":35.701221,"lon":139.769793},{"name":"千代田区立児童・家庭支援センター西神田分館","province":"東京都","city":"千代田区","address":"千代田区西神田2-6-2","lat":35.698918,"lon":139.754755},{"name":"四番町児童館","province":"東京都","city":"千代田区","address":"千代田区四番町11","lat":35.689022,"lon":139.739404},{"name":"一番町児童館","province":"東京都","city":"千代田区","address":"千代田区一番町10-22","lat":35.686444,"lon":139.739324},{"name":"将門塚","province":"東京都","city":"千代田区","address":"東京都千代田区大手町1-2","lat":35.687353,"lon":139.762519},{"name":"千代田図書館","province":"東京都","city":"千代田区","address":"東京都千代田区九段南1丁目2-1","lat":35.69407451,"lon":139.75364744},{"name":"日比谷図書文化館","province":"東京都","city":"千代田区","address":"東京都千代田区日比谷公園1-4","lat":35.67175752,"lon":139.75458985},{"name":"四番町図書館","province":"東京都","city":"千代田区","address":"東京都千代田区三番町14-7","lat":35.69048014,"lon":139.74157634},{"name":"昌平まちかど図書館","province":"東京都","city":"千代田区","address":"東京都千代田区外神田3丁目4-7","lat":35.70122142,"lon":139.76979339},{"name":"神田まちかど図書館","province":"東京都","city":"千代田区","address":"東京都千代田区神田司町2丁目16","lat":35.69333055,"lon":139.76842708},{"name":"神田児童館","province":"東京都","city":"千代田区","address":"千代田区外神田3-4-7","lat":35.70119,"lon":139.76988},{"name":"千代田区立児童・家庭支援センター西神田分館","province":"東京都","city":"千代田区","address":"千代田区西神田2-6-2","lat":35.69904,"lon":139.75476},{"name":"四番町児童館","province":"東京都","city":"千代田区","address":"千代田区四番町5-8","lat":35.68855,"lon":139.73807},{"name":"一番町児童館","province":"東京都","city":"千代田区","address":"千代田区一番町10-22","lat":35.68676,"lon":139.7394},{"name":"西神田児童センター","province":"東京都","city":"千代田区","address":"千代田区西神田2-6-2","lat":35.69904,"lon":139.75476},{"name":"出光美術館","province":"東京都","city":"千代田区","address":"千代田区丸の内3-1-1帝劇ビル9階","lat":35.676755,"lon":139.7608481},{"name":"三菱一号館美術館","province":"東京都","city":"千代田区","address":"東京都千代田区丸の内2丁目6-2","lat":35.67849868,"lon":139.76336665},{"name":"＊?昌平まちかど図書館","province":"東京都","city":"千代田区","address":"千代田区外神田3-4-7","lat":35.701223,"lon":139.769873},{"name":"＊?神田まちかど図書館","province":"東京都","city":"千代田区","address":"千代田区神田司町2-16","lat":35.693357,"lon":139.768304},{"name":"＊?四番町図書館","province":"東京都","city":"千代田区","address":"千代田区四番町1","lat":35.690453,"lon":139.741601},{"name":"＊?千代田図書館","province":"東京都","city":"千代田区","address":"千代田区九段南1-2-1千代田区役所9・10階","lat":35.693997,"lon":139.753585},{"name":"＊?日比谷図書文化館","province":"東京都","city":"千代田区","address":"千代田区日比谷公園1-4","lat":35.671872,"lon":139.754602},{"name":"神田児童館","province":"東京都","city":"千代田区","address":"千代田区外神田3-4-7","lat":35.701221,"lon":139.769793},{"name":"千代田区立児童・家庭支援センター西神田分館","province":"東京都","city":"千代田区","address":"千代田区西神田2-6-2","lat":35.698918,"lon":139.754755},{"name":"四番町児童館","province":"東京都","city":"千代田区","address":"千代田区四番町11","lat":35.689022,"lon":139.739404},{"name":"一番町児童館","province":"東京都","city":"千代田区","address":"千代田区一番町10-22","lat":35.686444,"lon":139.739324},{"name":"将門塚","province":"東京都","city":"千代田区","address":"東京都千代田区大手町1-2","lat":35.687353,"lon":139.762519},{"name":"千代田図書館","province":"東京都","city":"千代田区","address":"東京都千代田区九段南1丁目2-1","lat":35.69407451,"lon":139.75364744},{"name":"日比谷図書文化館","province":"東京都","city":"千代田区","address":"東京都千代田区日比谷公園1-4","lat":35.67175752,"lon":139.75458985},{"name":"四番町図書館","province":"東京都","city":"千代田区","address":"東京都千代田区三番町14-7","lat":35.69048014,"lon":139.74157634},{"name":"昌平まちかど図書館","province":"東京都","city":"千代田区","address":"東京都千代田区外神田3丁目4-7","lat":35.70122142,"lon":139.76979339},{"name":"神田まちかど図書館","province":"東京都","city":"千代田区","address":"東京都千代田区神田司町2丁目16","lat":35.69333055,"lon":139.76842708},{"name":"神田児童館","province":"東京都","city":"千代田区","address":"千代田区外神田3-4-7","lat":35.70119,"lon":139.76988},{"name":"千代田区立児童・家庭支援センター西神田分館","province":"東京都","city":"千代田区","address":"千代田区西神田2-6-2","lat":35.69904,"lon":139.75476},{"name":"四番町児童館","province":"東京都","city":"千代田区","address":"千代田区四番町5-8","lat":35.68855,"lon":139.73807},{"name":"一番町児童館","province":"東京都","city":"千代田区","address":"千代田区一番町10-22","lat":35.68676,"lon":139.7394},{"name":"西神田児童センター","province":"東京都","city":"千代田区","address":"千代田区西神田2-6-2","lat":35.69904,"lon":139.75476},{"name":"出光美術館","province":"東京都","city":"千代田区","address":"千代田区丸の内3-1-1帝劇ビル9階","lat":35.676755,"lon":139.7608481},{"name":"三菱一号館美術館","province":"東京都","city":"千代田区","address":"東京都千代田区丸の内2丁目6-2","lat":35.67849868,"lon":139.76336665},{"name":"＊?昌平まちかど図書館","province":"東京都","city":"千代田区","address":"千代田区外神田3-4-7","lat":35.701223,"lon":139.769873},{"name":"＊?神田まちかど図書館","province":"東京都","city":"千代田区","address":"千代田区神田司町2-16","lat":35.693357,"lon":139.768304},{"name":"＊?四番町図書館","province":"東京都","city":"千代田区","address":"千代田区四番町1","lat":35.690453,"lon":139.741601},{"name":"＊?千代田図書館","province":"東京都","city":"千代田区","address":"千代田区九段南1-2-1千代田区役所9・10階","lat":35.693997,"lon":139.753585},{"name":"＊?日比谷図書文化館","province":"東京都","city":"千代田区","address":"千代田区日比谷公園1-4","lat":35.671872,"lon":139.754602},{"name":"神田児童館","province":"東京都","city":"千代田区","address":"千代田区外神田3-4-7","lat":35.701221,"lon":139.769793},{"name":"千代田区立児童・家庭支援センター西神田分館","province":"東京都","city":"千代田区","address":"千代田区西神田2-6-2","lat":35.698918,"lon":139.754755},{"name":"四番町児童館","province":"東京都","city":"千代田区","address":"千代田区四番町11","lat":35.689022,"lon":139.739404},{"name":"一番町児童館","province":"東京都","city":"千代田区","address":"千代田区一番町10-22","lat":35.686444,"lon":139.739324},{"name":"将門塚","province":"東京都","city":"千代田区","address":"東京都千代田区大手町1-2","lat":35.687353,"lon":139.762519},{"name":"千代田図書館","province":"東京都","city":"千代田区","address":"東京都千代田区九段南1丁目2-1","lat":35.69407451,"lon":139.75364744},{"name":"日比谷図書文化館","province":"東京都","city":"千代田区","address":"東京都千代田区日比谷公園1-4","lat":35.67175752,"lon":139.75458985},{"name":"四番町図書館","province":"東京都","city":"千代田区","address":"東京都千代田区三番町14-7","lat":35.69048014,"lon":139.74157634},{"name":"昌平まちかど図書館","province":"東京都","city":"千代田区","address":"東京都千代田区外神田3丁目4-7","lat":35.70122142,"lon":139.76979339},{"name":"神田まちかど図書館","province":"東京都","city":"千代田区","address":"東京都千代田区神田司町2丁目16","lat":35.69333055,"lon":139.76842708},{"name":"神田児童館","province":"東京都","city":"千代田区","address":"千代田区外神田3-4-7","lat":35.70119,"lon":139.76988},{"name":"千代田区立児童・家庭支援センター西神田分館","province":"東京都","city":"千代田区","address":"千代田区西神田2-6-2","lat":35.69904,"lon":139.75476},{"name":"四番町児童館","province":"東京都","city":"千代田区","address":"千代田区四番町5-8","lat":35.68855,"lon":139.73807},{"name":"一番町児童館","province":"東京都","city":"千代田区","address":"千代田区一番町10-22","lat":35.68676,"lon":139.7394},{"name":"西神田児童センター","province":"東京都","city":"千代田区","address":"千代田区西神田2-6-2","lat":35.69904,"lon":139.75476},{"name":"出光美術館","province":"東京都","city":"千代田区","address":"千代田区丸の内3-1-1帝劇ビル9階","lat":35.676755,"lon":139.7608481},{"name":"三菱一号館美術館","province":"東京都","city":"千代田区","address":"東京都千代田区丸の内2丁目6-2","lat":35.67849868,"lon":139.76336665},{"name":"＊?昌平まちかど図書館","province":"東京都","city":"千代田区","address":"千代田区外神田3-4-7","lat":35.701223,"lon":139.769873},{"name":"＊?神田まちかど図書館","province":"東京都","city":"千代田区","address":"千代田区神田司町2-16","lat":35.693357,"lon":139.768304},{"name":"＊?四番町図書館","province":"東京都","city":"千代田区","address":"千代田区四番町1","lat":35.690453,"lon":139.741601},{"name":"＊?千代田図書館","province":"東京都","city":"千代田区","address":"千代田区九段南1-2-1千代田区役所9・10階","lat":35.693997,"lon":139.753585},{"name":"＊?日比谷図書文化館","province":"東京都","city":"千代田区","address":"千代田区日比谷公園1-4","lat":35.671872,"lon":139.754602},{"name":"神田児童館","province":"東京都","city":"千代田区","address":"千代田区外神田3-4-7","lat":35.701221,"lon":139.769793},{"name":"千代田区立児童・家庭支援センター西神田分館","province":"東京都","city":"千代田区","address":"千代田区西神田2-6-2","lat":35.698918,"lon":139.754755},{"name":"四番町児童館","province":"東京都","city":"千代田区","address":"千代田区四番町11","lat":35.689022,"lon":139.739404},{"name":"一番町児童館","province":"東京都","city":"千代田区","address":"千代田区一番町10-22","lat":35.686444,"lon":139.739324},{"name":"将門塚","province":"東京都","city":"千代田区","address":"東京都千代田区大手町1-2","lat":35.687353,"lon":139.762519},{"name":"千代田図書館","province":"東京都","city":"千代田区","address":"東京都千代田区九段南1丁目2-1","lat":35.69407451,"lon":139.75364744},{"name":"日比谷図書文化館","province":"東京都","city":"千代田区","address":"東京都千代田区日比谷公園1-4","lat":35.67175752,"lon":139.75458985},{"name":"四番町図書館","province":"東京都","city":"千代田区","address":"東京都千代田区三番町14-7","lat":35.69048014,"lon":139.74157634},{"name":"昌平まちかど図書館","province":"東京都","city":"千代田区","address":"東京都千代田区外神田3丁目4-7","lat":35.70122142,"lon":139.76979339},{"name":"神田まちかど図書館","province":"東京都","city":"千代田区","address":"東京都千代田区神田司町2丁目16","lat":35.69333055,"lon":139.76842708},{"name":"神田児童館","province":"東京都","city":"千代田区","address":"千代田区外神田3-4-7","lat":35.70119,"lon":139.76988},{"name":"千代田区立児童・家庭支援センター西神田分館","province":"東京都","city":"千代田区","address":"千代田区西神田2-6-2","lat":35.69904,"lon":139.75476},{"name":"四番町児童館","province":"東京都","city":"千代田区","address":"千代田区四番町5-8","lat":35.68855,"lon":139.73807},{"name":"一番町児童館","province":"東京都","city":"千代田区","address":"千代田区一番町10-22","lat":35.68676,"lon":139.7394},{"name":"西神田児童センター","province":"東京都","city":"千代田区","address":"千代田区西神田2-6-2","lat":35.69904,"lon":139.75476},{"name":"出光美術館","province":"東京都","city":"千代田区","address":"千代田区丸の内3-1-1帝劇ビル9階","lat":35.676755,"lon":139.7608481},{"name":"三菱一号館美術館","province":"東京都","city":"千代田区","address":"東京都千代田区丸の内2丁目6-2","lat":35.67849868,"lon":139.76336665},{"name":"＊?昌平まちかど図書館","province":"東京都","city":"千代田区","address":"千代田区外神田3-4-7","lat":35.701223,"lon":139.769873},{"name":"＊?神田まちかど図書館","province":"東京都","city":"千代田区","address":"千代田区神田司町2-16","lat":35.693357,"lon":139.768304},{"name":"＊?四番町図書館","province":"東京都","city":"千代田区","address":"千代田区四番町1","lat":35.690453,"lon":139.741601},{"name":"＊?千代田図書館","province":"東京都","city":"千代田区","address":"千代田区九段南1-2-1千代田区役所9・10階","lat":35.693997,"lon":139.753585},{"name":"＊?日比谷図書文化館","province":"東京都","city":"千代田区","address":"千代田区日比谷公園1-4","lat":35.671872,"lon":139.754602},{"name":"神田児童館","province":"東京都","city":"千代田区","address":"千代田区外神田3-4-7","lat":35.701221,"lon":139.769793},{"name":"千代田区立児童・家庭支援センター西神田分館","province":"東京都","city":"千代田区","address":"千代田区西神田2-6-2","lat":35.698918,"lon":139.754755},{"name":"四番町児童館","province":"東京都","city":"千代田区","address":"千代田区四番町11","lat":35.689022,"lon":139.739404},{"name":"一番町児童館","province":"東京都","city":"千代田区","address":"千代田区一番町10-22","lat":35.686444,"lon":139.739324},{"name":"将門塚","province":"東京都","city":"千代田区","address":"東京都千代田区大手町1-2","lat":35.687353,"lon":139.762519},{"name":"千代田図書館","province":"東京都","city":"千代田区","address":"東京都千代田区九段南1丁目2-1","lat":35.69407451,"lon":139.75364744},{"name":"日比谷図書文化館","province":"東京都","city":"千代田区","address":"東京都千代田区日比谷公園1-4","lat":35.67175752,"lon":139.75458985},{"name":"四番町図書館","province":"東京都","city":"千代田区","address":"東京都千代田区三番町14-7","lat":35.69048014,"lon":139.74157634},{"name":"昌平まちかど図書館","province":"東京都","city":"千代田区","address":"東京都千代田区外神田3丁目4-7","lat":35.70122142,"lon":139.76979339},{"name":"神田まちかど図書館","province":"東京都","city":"千代田区","address":"東京都千代田区神田司町2丁目16","lat":35.69333055,"lon":139.76842708},{"name":"神田児童館","province":"東京都","city":"千代田区","address":"千代田区外神田3-4-7","lat":35.70119,"lon":139.76988},{"name":"千代田区立児童・家庭支援センター西神田分館","province":"東京都","city":"千代田区","address":"千代田区西神田2-6-2","lat":35.69904,"lon":139.75476},{"name":"四番町児童館","province":"東京都","city":"千代田区","address":"千代田区四番町5-8","lat":35.68855,"lon":139.73807},{"name":"一番町児童館","province":"東京都","city":"千代田区","address":"千代田区一番町10-22","lat":35.68676,"lon":139.7394},{"name":"西神田児童センター","province":"東京都","city":"千代田区","address":"千代田区西神田2-6-2","lat":35.69904,"lon":139.75476},{"name":"出光美術館","province":"東京都","city":"千代田区","address":"千代田区丸の内3-1-1帝劇ビル9階","lat":35.676755,"lon":139.7608481},{"name":"三菱一号館美術館","province":"東京都","city":"千代田区","address":"東京都千代田区丸の内2丁目6-2","lat":35.67849868,"lon":139.76336665},{"name":"＊?昌平まちかど図書館","province":"東京都","city":"千代田区","address":"千代田区外神田3-4-7","lat":35.701223,"lon":139.769873},{"name":"＊?神田まちかど図書館","province":"東京都","city":"千代田区","address":"千代田区神田司町2-16","lat":35.693357,"lon":139.768304},{"name":"＊?四番町図書館","province":"東京都","city":"千代田区","address":"千代田区四番町1","lat":35.690453,"lon":139.741601},{"name":"＊?千代田図書館","province":"東京都","city":"千代田区","address":"千代田区九段南1-2-1千代田区役所9・10階","lat":35.693997,"lon":139.753585},{"name":"＊?日比谷図書文化館","province":"東京都","city":"千代田区","address":"千代田区日比谷公園1-4","lat":35.671872,"lon":139.754602},{"name":"神田児童館","province":"東京都","city":"千代田区","address":"千代田区外神田3-4-7","lat":35.701221,"lon":139.769793},{"name":"千代田区立児童・家庭支援センター西神田分館","province":"東京都","city":"千代田区","address":"千代田区西神田2-6-2","lat":35.698918,"lon":139.754755},{"name":"四番町児童館","province":"東京都","city":"千代田区","address":"千代田区四番町11","lat":35.689022,"lon":139.739404},{"name":"一番町児童館","province":"東京都","city":"千代田区","address":"千代田区一番町10-22","lat":35.686444,"lon":139.739324},{"name":"将門塚","province":"東京都","city":"千代田区","address":"東京都千代田区大手町1-2","lat":35.687353,"lon":139.762519},{"name":"千代田図書館","province":"東京都","city":"千代田区","address":"東京都千代田区九段南1丁目2-1","lat":35.69407451,"lon":139.75364744},{"name":"日比谷図書文化館","province":"東京都","city":"千代田区","address":"東京都千代田区日比谷公園1-4","lat":35.67175752,"lon":139.75458985},{"name":"四番町図書館","province":"東京都","city":"千代田区","address":"東京都千代田区三番町14-7","lat":35.69048014,"lon":139.74157634},{"name":"昌平まちかど図書館","province":"東京都","city":"千代田区","address":"東京都千代田区外神田3丁目4-7","lat":35.70122142,"lon":139.76979339},{"name":"神田まちかど図書館","province":"東京都","city":"千代田区","address":"東京都千代田区神田司町2丁目16","lat":35.69333055,"lon":139.76842708},{"name":"神田児童館","province":"東京都","city":"千代田区","address":"千代田区外神田3-4-7","lat":35.70119,"lon":139.76988},{"name":"千代田区立児童・家庭支援センター西神田分館","province":"東京都","city":"千代田区","address":"千代田区西神田2-6-2","lat":35.69904,"lon":139.75476},{"name":"四番町児童館","province":"東京都","city":"千代田区","address":"千代田区四番町5-8","lat":35.68855,"lon":139.73807},{"name":"一番町児童館","province":"東京都","city":"千代田区","address":"千代田区一番町10-22","lat":35.68676,"lon":139.7394},{"name":"西神田児童センター","province":"東京都","city":"千代田区","address":"千代田区西神田2-6-2","lat":35.69904,"lon":139.75476},{"name":"出光美術館","province":"東京都","city":"千代田区","address":"千代田区丸の内3-1-1帝劇ビル9階","lat":35.676755,"lon":139.7608481},{"name":"三菱一号館美術館","province":"東京都","city":"千代田区","address":"東京都千代田区丸の内2丁目6-2","lat":35.67849868,"lon":139.76336665},{"name":"＊?昌平まちかど図書館","province":"東京都","city":"千代田区","address":"千代田区外神田3-4-7","lat":35.701223,"lon":139.769873},{"name":"＊?神田まちかど図書館","province":"東京都","city":"千代田区","address":"千代田区神田司町2-16","lat":35.693357,"lon":139.768304},{"name":"＊?四番町図書館","province":"東京都","city":"千代田区","address":"千代田区四番町1","lat":35.690453,"lon":139.741601},{"name":"＊?千代田図書館","province":"東京都","city":"千代田区","address":"千代田区九段南1-2-1千代田区役所9・10階","lat":35.693997,"lon":139.753585},{"name":"＊?日比谷図書文化館","province":"東京都","city":"千代田区","address":"千代田区日比谷公園1-4","lat":35.671872,"lon":139.754602},{"name":"神田児童館","province":"東京都","city":"千代田区","address":"千代田区外神田3-4-7","lat":35.701221,"lon":139.769793},{"name":"千代田区立児童・家庭支援センター西神田分館","province":"東京都","city":"千代田区","address":"千代田区西神田2-6-2","lat":35.698918,"lon":139.754755},{"name":"四番町児童館","province":"東京都","city":"千代田区","address":"千代田区四番町11","lat":35.689022,"lon":139.739404},{"name":"一番町児童館","province":"東京都","city":"千代田区","address":"千代田区一番町10-22","lat":35.686444,"lon":139.739324},{"name":"将門塚","province":"東京都","city":"千代田区","address":"東京都千代田区大手町1-2","lat":35.687353,"lon":139.762519},{"name":"千代田図書館","province":"東京都","city":"千代田区","address":"東京都千代田区九段南1丁目2-1","lat":35.69407451,"lon":139.75364744},{"name":"日比谷図書文化館","province":"東京都","city":"千代田区","address":"東京都千代田区日比谷公園1-4","lat":35.67175752,"lon":139.75458985},{"name":"四番町図書館","province":"東京都","city":"千代田区","address":"東京都千代田区三番町14-7","lat":35.69048014,"lon":139.74157634},{"name":"昌平まちかど図書館","province":"東京都","city":"千代田区","address":"東京都千代田区外神田3丁目4-7","lat":35.70122142,"lon":139.76979339},{"name":"神田まちかど図書館","province":"東京都","city":"千代田区","address":"東京都千代田区神田司町2丁目16","lat":35.69333055,"lon":139.76842708},{"name":"神田児童館","province":"東京都","city":"千代田区","address":"千代田区外神田3-4-7","lat":35.70119,"lon":139.76988},{"name":"千代田区立児童・家庭支援センター西神田分館","province":"東京都","city":"千代田区","address":"千代田区西神田2-6-2","lat":35.69904,"lon":139.75476},{"name":"四番町児童館","province":"東京都","city":"千代田区","address":"千代田区四番町5-8","lat":35.68855,"lon":139.73807},{"name":"一番町児童館","province":"東京都","city":"千代田区","address":"千代田区一番町10-22","lat":35.68676,"lon":139.7394},{"name":"西神田児童センター","province":"東京都","city":"千代田区","address":"千代田区西神田2-6-2","lat":35.69904,"lon":139.75476},{"name":"出光美術館","province":"東京都","city":"千代田区","address":"千代田区丸の内3-1-1帝劇ビル9階","lat":35.676755,"lon":139.7608481},{"name":"三菱一号館美術館","province":"東京都","city":"千代田区","address":"東京都千代田区丸の内2丁目6-2","lat":35.67849868,"lon":139.76336665},{"name":"＊?昌平まちかど図書館","province":"東京都","city":"千代田区","address":"千代田区外神田3-4-7","lat":35.701223,"lon":139.769873},{"name":"＊?神田まちかど図書館","province":"東京都","city":"千代田区","address":"千代田区神田司町2-16","lat":35.693357,"lon":139.768304},{"name":"＊?四番町図書館","province":"東京都","city":"千代田区","address":"千代田区四番町1","lat":35.690453,"lon":139.741601},{"name":"＊?千代田図書館","province":"東京都","city":"千代田区","address":"千代田区九段南1-2-1千代田区役所9・10階","lat":35.693997,"lon":139.753585},{"name":"＊?日比谷図書文化館","province":"東京都","city":"千代田区","address":"千代田区日比谷公園1-4","lat":35.671872,"lon":139.754602},{"name":"神田児童館","province":"東京都","city":"千代田区","address":"千代田区外神田3-4-7","lat":35.701221,"lon":139.769793},{"name":"千代田区立児童・家庭支援センター西神田分館","province":"東京都","city":"千代田区","address":"千代田区西神田2-6-2","lat":35.698918,"lon":139.754755},{"name":"四番町児童館","province":"東京都","city":"千代田区","address":"千代田区四番町11","lat":35.689022,"lon":139.739404},{"name":"一番町児童館","province":"東京都","city":"千代田区","address":"千代田区一番町10-22","lat":35.686444,"lon":139.739324},{"name":"将門塚","province":"東京都","city":"千代田区","address":"東京都千代田区大手町1-2","lat":35.687353,"lon":139.762519},{"name":"千代田図書館","province":"東京都","city":"千代田区","address":"東京都千代田区九段南1丁目2-1","lat":35.69407451,"lon":139.75364744},{"name":"日比谷図書文化館","province":"東京都","city":"千代田区","address":"東京都千代田区日比谷公園1-4","lat":35.67175752,"lon":139.75458985},{"name":"四番町図書館","province":"東京都","city":"千代田区","address":"東京都千代田区三番町14-7","lat":35.69048014,"lon":139.74157634},{"name":"昌平まちかど図書館","province":"東京都","city":"千代田区","address":"東京都千代田区外神田3丁目4-7","lat":35.70122142,"lon":139.76979339},{"name":"神田まちかど図書館","province":"東京都","city":"千代田区","address":"東京都千代田区神田司町2丁目16","lat":35.69333055,"lon":139.76842708},{"name":"神田児童館","province":"東京都","city":"千代田区","address":"千代田区外神田3-4-7","lat":35.70119,"lon":139.76988},{"name":"千代田区立児童・家庭支援センター西神田分館","province":"東京都","city":"千代田区","address":"千代田区西神田2-6-2","lat":35.69904,"lon":139.75476},{"name":"四番町児童館","province":"東京都","city":"千代田区","address":"千代田区四番町5-8","lat":35.68855,"lon":139.73807},{"name":"一番町児童館","province":"東京都","city":"千代田区","address":"千代田区一番町10-22","lat":35.68676,"lon":139.7394},{"name":"西神田児童センター","province":"東京都","city":"千代田区","address":"千代田区西神田2-6-2","lat":35.69904,"lon":139.75476},{"name":"＊?昌平まちかど図書館","province":"東京都","city":"千代田区","address":"千代田区外神田3-4-7","lat":35.701223,"lon":139.769873},{"name":"＊?神田まちかど図書館","province":"東京都","city":"千代田区","address":"千代田区神田司町2-16","lat":35.693357,"lon":139.768304},{"name":"＊?四番町図書館","province":"東京都","city":"千代田区","address":"千代田区四番町1","lat":35.690453,"lon":139.741601},{"name":"＊?千代田図書館","province":"東京都","city":"千代田区","address":"千代田区九段南1-2-1千代田区役所9・10階","lat":35.693997,"lon":139.753585},{"name":"＊?日比谷図書文化館","province":"東京都","city":"千代田区","address":"千代田区日比谷公園1-4","lat":35.671872,"lon":139.754602},{"name":"神田児童館","province":"東京都","city":"千代田区","address":"千代田区外神田3-4-7","lat":35.701221,"lon":139.769793},{"name":"千代田区立児童・家庭支援センター西神田分館","province":"東京都","city":"千代田区","address":"千代田区西神田2-6-2","lat":35.698918,"lon":139.754755},{"name":"四番町児童館","province":"東京都","city":"千代田区","address":"千代田区四番町11","lat":35.689022,"lon":139.739404},{"name":"一番町児童館","province":"東京都","city":"千代田区","address":"千代田区一番町10-22","lat":35.686444,"lon":139.739324},{"name":"将門塚","province":"東京都","city":"千代田区","address":"東京都千代田区大手町1-2","lat":35.687353,"lon":139.762519},{"name":"千代田図書館","province":"東京都","city":"千代田区","address":"東京都千代田区九段南1丁目2-1","lat":35.69407451,"lon":139.75364744},{"name":"日比谷図書文化館","province":"東京都","city":"千代田区","address":"東京都千代田区日比谷公園1-4","lat":35.67175752,"lon":139.75458985},{"name":"四番町図書館","province":"東京都","city":"千代田区","address":"東京都千代田区三番町14-7","lat":35.69048014,"lon":139.74157634},{"name":"昌平まちかど図書館","province":"東京都","city":"千代田区","address":"東京都千代田区外神田3丁目4-7","lat":35.70122142,"lon":139.76979339},{"name":"神田まちかど図書館","province":"東京都","city":"千代田区","address":"東京都千代田区神田司町2丁目16","lat":35.69333055,"lon":139.76842708},{"name":"神田児童館","province":"東京都","city":"千代田区","address":"千代田区外神田3-4-7","lat":35.70119,"lon":139.76988},{"name":"千代田区立児童・家庭支援センター西神田分館","province":"東京都","city":"千代田区","address":"千代田区西神田2-6-2","lat":35.69904,"lon":139.75476},{"name":"四番町児童館","province":"東京都","city":"千代田区","address":"千代田区四番町5-8","lat":35.68855,"lon":139.73807},{"name":"一番町児童館","province":"東京都","city":"千代田区","address":"千代田区一番町10-22","lat":35.68676,"lon":139.7394},{"name":"西神田児童センター","province":"東京都","city":"千代田区","address":"千代田区西神田2-6-2","lat":35.69904,"lon":139.75476},{"name":"＊?昌平まちかど図書館","province":"東京都","city":"千代田区","address":"千代田区外神田3-4-7","lat":35.701223,"lon":139.769873},{"name":"＊?神田まちかど図書館","province":"東京都","city":"千代田区","address":"千代田区神田司町2-16","lat":35.693357,"lon":139.768304},{"name":"＊?四番町図書館","province":"東京都","city":"千代田区","address":"千代田区四番町1","lat":35.690453,"lon":139.741601},{"name":"＊?千代田図書館","province":"東京都","city":"千代田区","address":"千代田区九段南1-2-1千代田区役所9・10階","lat":35.693997,"lon":139.753585},{"name":"＊?日比谷図書文化館","province":"東京都","city":"千代田区","address":"千代田区日比谷公園1-4","lat":35.671872,"lon":139.754602},{"name":"神田児童館","province":"東京都","city":"千代田区","address":"千代田区外神田3-4-7","lat":35.701221,"lon":139.769793},{"name":"千代田区立児童・家庭支援センター西神田分館","province":"東京都","city":"千代田区","address":"千代田区西神田2-6-2","lat":35.698918,"lon":139.754755},{"name":"四番町児童館","province":"東京都","city":"千代田区","address":"千代田区四番町11","lat":35.689022,"lon":139.739404},{"name":"一番町児童館","province":"東京都","city":"千代田区","address":"千代田区一番町10-22","lat":35.686444,"lon":139.739324},{"name":"将門塚","province":"東京都","city":"千代田区","address":"東京都千代田区大手町1-2","lat":35.687353,"lon":139.762519},{"name":"千代田図書館","province":"東京都","city":"千代田区","address":"東京都千代田区九段南1丁目2-1","lat":35.69407451,"lon":139.75364744},{"name":"日比谷図書文化館","province":"東京都","city":"千代田区","address":"東京都千代田区日比谷公園1-4","lat":35.67175752,"lon":139.75458985},{"name":"四番町図書館","province":"東京都","city":"千代田区","address":"東京都千代田区三番町14-7","lat":35.69048014,"lon":139.74157634},{"name":"昌平まちかど図書館","province":"東京都","city":"千代田区","address":"東京都千代田区外神田3丁目4-7","lat":35.70122142,"lon":139.76979339},{"name":"神田まちかど図書館","province":"東京都","city":"千代田区","address":"東京都千代田区神田司町2丁目16","lat":35.69333055,"lon":139.76842708},{"name":"神田児童館","province":"東京都","city":"千代田区","address":"千代田区外神田3-4-7","lat":35.70119,"lon":139.76988},{"name":"千代田区立児童・家庭支援センター西神田分館","province":"東京都","city":"千代田区","address":"千代田区西神田2-6-2","lat":35.69904,"lon":139.75476},{"name":"四番町児童館","province":"東京都","city":"千代田区","address":"千代田区四番町5-8","lat":35.68855,"lon":139.73807},{"name":"一番町児童館","province":"東京都","city":"千代田区","address":"千代田区一番町10-22","lat":35.68676,"lon":139.7394},{"name":"西神田児童センター","province":"東京都","city":"千代田区","address":"千代田区西神田2-6-2","lat":35.69904,"lon":139.75476},{"name":"＊?昌平まちかど図書館","province":"東京都","city":"千代田区","address":"千代田区外神田3-4-7","lat":35.701223,"lon":139.769873},{"name":"＊?神田まちかど図書館","province":"東京都","city":"千代田区","address":"千代田区神田司町2-16","lat":35.693357,"lon":139.768304},{"name":"＊?四番町図書館","province":"東京都","city":"千代田区","address":"千代田区四番町1","lat":35.690453,"lon":139.741601},{"name":"＊?千代田図書館","province":"東京都","city":"千代田区","address":"千代田区九段南1-2-1千代田区役所9・10階","lat":35.693997,"lon":139.753585},{"name":"＊?日比谷図書文化館","province":"東京都","city":"千代田区","address":"千代田区日比谷公園1-4","lat":35.671872,"lon":139.754602},{"name":"神田児童館","province":"東京都","city":"千代田区","address":"千代田区外神田3-4-7","lat":35.701221,"lon":139.769793},{"name":"千代田区立児童・家庭支援センター西神田分館","province":"東京都","city":"千代田区","address":"千代田区西神田2-6-2","lat":35.698918,"lon":139.754755},{"name":"四番町児童館","province":"東京都","city":"千代田区","address":"千代田区四番町11","lat":35.689022,"lon":139.739404},{"name":"一番町児童館","province":"東京都","city":"千代田区","address":"千代田区一番町10-22","lat":35.686444,"lon":139.739324},{"name":"将門塚","province":"東京都","city":"千代田区","address":"東京都千代田区大手町1-2","lat":35.687353,"lon":139.762519},{"name":"千代田図書館","province":"東京都","city":"千代田区","address":"東京都千代田区九段南1丁目2-1","lat":35.69407451,"lon":139.75364744},{"name":"日比谷図書文化館","province":"東京都","city":"千代田区","address":"東京都千代田区日比谷公園1-4","lat":35.67175752,"lon":139.75458985},{"name":"四番町図書館","province":"東京都","city":"千代田区","address":"東京都千代田区三番町14-7","lat":35.69048014,"lon":139.74157634},{"name":"昌平まちかど図書館","province":"東京都","city":"千代田区","address":"東京都千代田区外神田3丁目4-7","lat":35.70122142,"lon":139.76979339},{"name":"神田まちかど図書館","province":"東京都","city":"千代田区","address":"東京都千代田区神田司町2丁目16","lat":35.69333055,"lon":139.76842708},{"name":"神田児童館","province":"東京都","city":"千代田区","address":"千代田区外神田3-4-7","lat":35.70119,"lon":139.76988},{"name":"千代田区立児童・家庭支援センター西神田分館","province":"東京都","city":"千代田区","address":"千代田区西神田2-6-2","lat":35.69904,"lon":139.75476},{"name":"四番町児童館","province":"東京都","city":"千代田区","address":"千代田区四番町5-8","lat":35.68855,"lon":139.73807},{"name":"一番町児童館","province":"東京都","city":"千代田区","address":"千代田区一番町10-22","lat":35.68676,"lon":139.7394},{"name":"西神田児童センター","province":"東京都","city":"千代田区","address":"千代田区西神田2-6-2","lat":35.69904,"lon":139.75476},{"name":"＊?昌平まちかど図書館","province":"東京都","city":"千代田区","address":"千代田区外神田3-4-7","lat":35.701223,"lon":139.769873},{"name":"＊?神田まちかど図書館","province":"東京都","city":"千代田区","address":"千代田区神田司町2-16","lat":35.693357,"lon":139.768304},{"name":"＊?四番町図書館","province":"東京都","city":"千代田区","address":"千代田区四番町1","lat":35.690453,"lon":139.741601},{"name":"＊?千代田図書館","province":"東京都","city":"千代田区","address":"千代田区九段南1-2-1千代田区役所9・10階","lat":35.693997,"lon":139.753585},{"name":"＊?日比谷図書文化館","province":"東京都","city":"千代田区","address":"千代田区日比谷公園1-4","lat":35.671872,"lon":139.754602},{"name":"神田児童館","province":"東京都","city":"千代田区","address":"千代田区外神田3-4-7","lat":35.701221,"lon":139.769793},{"name":"千代田区立児童・家庭支援センター西神田分館","province":"東京都","city":"千代田区","address":"千代田区西神田2-6-2","lat":35.698918,"lon":139.754755},{"name":"四番町児童館","province":"東京都","city":"千代田区","address":"千代田区四番町11","lat":35.689022,"lon":139.739404},{"name":"一番町児童館","province":"東京都","city":"千代田区","address":"千代田区一番町10-22","lat":35.686444,"lon":139.739324},{"name":"将門塚","province":"東京都","city":"千代田区","address":"東京都千代田区大手町1-2","lat":35.687353,"lon":139.762519},{"name":"千代田図書館","province":"東京都","city":"千代田区","address":"東京都千代田区九段南1丁目2-1","lat":35.69407451,"lon":139.75364744},{"name":"日比谷図書文化館","province":"東京都","city":"千代田区","address":"東京都千代田区日比谷公園1-4","lat":35.67175752,"lon":139.75458985},{"name":"四番町図書館","province":"東京都","city":"千代田区","address":"東京都千代田区三番町14-7","lat":35.69048014,"lon":139.74157634},{"name":"昌平まちかど図書館","province":"東京都","city":"千代田区","address":"東京都千代田区外神田3丁目4-7","lat":35.70122142,"lon":139.76979339},{"name":"神田まちかど図書館","province":"東京都","city":"千代田区","address":"東京都千代田区神田司町2丁目16","lat":35.69333055,"lon":139.76842708},{"name":"神田児童館","province":"東京都","city":"千代田区","address":"千代田区外神田3-4-7","lat":35.70119,"lon":139.76988},{"name":"千代田区立児童・家庭支援センター西神田分館","province":"東京都","city":"千代田区","address":"千代田区西神田2-6-2","lat":35.69904,"lon":139.75476},{"name":"四番町児童館","province":"東京都","city":"千代田区","address":"千代田区四番町5-8","lat":35.68855,"lon":139.73807},{"name":"一番町児童館","province":"東京都","city":"千代田区","address":"千代田区一番町10-22","lat":35.68676,"lon":139.7394},{"name":"西神田児童センター","province":"東京都","city":"千代田区","address":"千代田区西神田2-6-2","lat":35.69904,"lon":139.75476},{"name":"＊?昌平まちかど図書館","province":"東京都","city":"千代田区","address":"千代田区外神田3-4-7","lat":35.701223,"lon":139.769873},{"name":"＊?神田まちかど図書館","province":"東京都","city":"千代田区","address":"千代田区神田司町2-16","lat":35.693357,"lon":139.768304},{"name":"＊?四番町図書館","province":"東京都","city":"千代田区","address":"千代田区四番町1","lat":35.690453,"lon":139.741601},{"name":"＊?千代田図書館","province":"東京都","city":"千代田区","address":"千代田区九段南1-2-1千代田区役所9・10階","lat":35.693997,"lon":139.753585},{"name":"＊?日比谷図書文化館","province":"東京都","city":"千代田区","address":"千代田区日比谷公園1-4","lat":35.671872,"lon":139.754602},{"name":"神田児童館","province":"東京都","city":"千代田区","address":"千代田区外神田3-4-7","lat":35.701221,"lon":139.769793},{"name":"千代田区立児童・家庭支援センター西神田分館","province":"東京都","city":"千代田区","address":"千代田区西神田2-6-2","lat":35.698918,"lon":139.754755},{"name":"四番町児童館","province":"東京都","city":"千代田区","address":"千代田区四番町11","lat":35.689022,"lon":139.739404},{"name":"一番町児童館","province":"東京都","city":"千代田区","address":"千代田区一番町10-22","lat":35.686444,"lon":139.739324},{"name":"将門塚","province":"東京都","city":"千代田区","address":"東京都千代田区大手町1-2","lat":35.687353,"lon":139.762519},{"name":"千代田図書館","province":"東京都","city":"千代田区","address":"東京都千代田区九段南1丁目2-1","lat":35.69407451,"lon":139.75364744},{"name":"日比谷図書文化館","province":"東京都","city":"千代田区","address":"東京都千代田区日比谷公園1-4","lat":35.67175752,"lon":139.75458985},{"name":"四番町図書館","province":"東京都","city":"千代田区","address":"東京都千代田区三番町14-7","lat":35.69048014,"lon":139.74157634},{"name":"昌平まちかど図書館","province":"東京都","city":"千代田区","address":"東京都千代田区外神田3丁目4-7","lat":35.70122142,"lon":139.76979339},{"name":"神田まちかど図書館","province":"東京都","city":"千代田区","address":"東京都千代田区神田司町2丁目16","lat":35.69333055,"lon":139.76842708},{"name":"神田児童館","province":"東京都","city":"千代田区","address":"千代田区外神田3-4-7","lat":35.70119,"lon":139.76988},{"name":"千代田区立児童・家庭支援センター西神田分館","province":"東京都","city":"千代田区","address":"千代田区西神田2-6-2","lat":35.69904,"lon":139.75476},{"name":"四番町児童館","province":"東京都","city":"千代田区","address":"千代田区四番町5-8","lat":35.68855,"lon":139.73807},{"name":"一番町児童館","province":"東京都","city":"千代田区","address":"千代田区一番町10-22","lat":35.68676,"lon":139.7394},{"name":"西神田児童センター","province":"東京都","city":"千代田区","address":"千代田区西神田2-6-2","lat":35.69904,"lon":139.75476},{"name":"＊?昌平まちかど図書館","province":"東京都","city":"千代田区","address":"千代田区外神田3-4-7","lat":35.701223,"lon":139.769873},{"name":"＊?神田まちかど図書館","province":"東京都","city":"千代田区","address":"千代田区神田司町2-16","lat":35.693357,"lon":139.768304},{"name":"＊?四番町図書館","province":"東京都","city":"千代田区","address":"千代田区四番町1","lat":35.690453,"lon":139.741601},{"name":"＊?千代田図書館","province":"東京都","city":"千代田区","address":"千代田区九段南1-2-1千代田区役所9・10階","lat":35.693997,"lon":139.753585},{"name":"＊?日比谷図書文化館","province":"東京都","city":"千代田区","address":"千代田区日比谷公園1-4","lat":35.671872,"lon":139.754602},{"name":"神田児童館","province":"東京都","city":"千代田区","address":"千代田区外神田3-4-7","lat":35.701221,"lon":139.769793},{"name":"千代田区立児童・家庭支援センター西神田分館","province":"東京都","city":"千代田区","address":"千代田区西神田2-6-2","lat":35.698918,"lon":139.754755},{"name":"四番町児童館","province":"東京都","city":"千代田区","address":"千代田区四番町11","lat":35.689022,"lon":139.739404},{"name":"一番町児童館","province":"東京都","city":"千代田区","address":"千代田区一番町10-22","lat":35.686444,"lon":139.739324},{"name":"将門塚","province":"東京都","city":"千代田区","address":"東京都千代田区大手町1-2","lat":35.687353,"lon":139.762519},{"name":"千代田図書館","province":"東京都","city":"千代田区","address":"東京都千代田区九段南1丁目2-1","lat":35.69407451,"lon":139.75364744},{"name":"日比谷図書文化館","province":"東京都","city":"千代田区","address":"東京都千代田区日比谷公園1-4","lat":35.67175752,"lon":139.75458985},{"name":"四番町図書館","province":"東京都","city":"千代田区","address":"東京都千代田区三番町14-7","lat":35.69048014,"lon":139.74157634},{"name":"昌平まちかど図書館","province":"東京都","city":"千代田区","address":"東京都千代田区外神田3丁目4-7","lat":35.70122142,"lon":139.76979339},{"name":"神田まちかど図書館","province":"東京都","city":"千代田区","address":"東京都千代田区神田司町2丁目16","lat":35.69333055,"lon":139.76842708},{"name":"神田児童館","province":"東京都","city":"千代田区","address":"千代田区外神田3-4-7","lat":35.70119,"lon":139.76988},{"name":"千代田区立児童・家庭支援センター西神田分館","province":"東京都","city":"千代田区","address":"千代田区西神田2-6-2","lat":35.69904,"lon":139.75476},{"name":"四番町児童館","province":"東京都","city":"千代田区","address":"千代田区四番町5-8","lat":35.68855,"lon":139.73807},{"name":"一番町児童館","province":"東京都","city":"千代田区","address":"千代田区一番町10-22","lat":35.68676,"lon":139.7394},{"name":"西神田児童センター","province":"東京都","city":"千代田区","address":"千代田区西神田2-6-2","lat":35.69904,"lon":139.75476},{"name":"＊?昌平まちかど図書館","province":"東京都","city":"千代田区","address":"千代田区外神田3-4-7","lat":35.701223,"lon":139.769873},{"name":"＊?神田まちかど図書館","province":"東京都","city":"千代田区","address":"千代田区神田司町2-16","lat":35.693357,"lon":139.768304},{"name":"＊?四番町図書館","province":"東京都","city":"千代田区","address":"千代田区四番町1","lat":35.690453,"lon":139.741601},{"name":"＊?千代田図書館","province":"東京都","city":"千代田区","address":"千代田区九段南1-2-1千代田区役所9・10階","lat":35.693997,"lon":139.753585},{"name":"＊?日比谷図書文化館","province":"東京都","city":"千代田区","address":"千代田区日比谷公園1-4","lat":35.671872,"lon":139.754602},{"name":"神田児童館","province":"東京都","city":"千代田区","address":"千代田区外神田3-4-7","lat":35.701221,"lon":139.769793},{"name":"千代田区立児童・家庭支援センター西神田分館","province":"東京都","city":"千代田区","address":"千代田区西神田2-6-2","lat":35.698918,"lon":139.754755},{"name":"四番町児童館","province":"東京都","city":"千代田区","address":"千代田区四番町11","lat":35.689022,"lon":139.739404},{"name":"一番町児童館","province":"東京都","city":"千代田区","address":"千代田区一番町10-22","lat":35.686444,"lon":139.739324},{"name":"将門塚","province":"東京都","city":"千代田区","address":"東京都千代田区大手町1-2","lat":35.687353,"lon":139.762519},{"name":"千代田図書館","province":"東京都","city":"千代田区","address":"東京都千代田区九段南1丁目2-1","lat":35.69407451,"lon":139.75364744},{"name":"日比谷図書文化館","province":"東京都","city":"千代田区","address":"東京都千代田区日比谷公園1-4","lat":35.67175752,"lon":139.75458985},{"name":"四番町図書館","province":"東京都","city":"千代田区","address":"東京都千代田区三番町14-7","lat":35.69048014,"lon":139.74157634},{"name":"昌平まちかど図書館","province":"東京都","city":"千代田区","address":"東京都千代田区外神田3丁目4-7","lat":35.70122142,"lon":139.76979339},{"name":"神田まちかど図書館","province":"東京都","city":"千代田区","address":"東京都千代田区神田司町2丁目16","lat":35.69333055,"lon":139.76842708},{"name":"神田児童館","province":"東京都","city":"千代田区","address":"千代田区外神田3-4-7","lat":35.70119,"lon":139.76988},{"name":"千代田区立児童・家庭支援センター西神田分館","province":"東京都","city":"千代田区","address":"千代田区西神田2-6-2","lat":35.69904,"lon":139.75476},{"name":"四番町児童館","province":"東京都","city":"千代田区","address":"千代田区四番町5-8","lat":35.68855,"lon":139.73807},{"name":"一番町児童館","province":"東京都","city":"千代田区","address":"千代田区一番町10-22","lat":35.68676,"lon":139.7394},{"name":"西神田児童センター","province":"東京都","city":"千代田区","address":"千代田区西神田2-6-2","lat":35.69904,"lon":139.75476},{"name":"＊?昌平まちかど図書館","province":"東京都","city":"千代田区","address":"千代田区外神田3-4-7","lat":35.701223,"lon":139.769873},{"name":"＊?神田まちかど図書館","province":"東京都","city":"千代田区","address":"千代田区神田司町2-16","lat":35.693357,"lon":139.768304},{"name":"＊?四番町図書館","province":"東京都","city":"千代田区","address":"千代田区四番町1","lat":35.690453,"lon":139.741601},{"name":"＊?千代田図書館","province":"東京都","city":"千代田区","address":"千代田区九段南1-2-1千代田区役所9・10階","lat":35.693997,"lon":139.753585},{"name":"＊?日比谷図書文化館","province":"東京都","city":"千代田区","address":"千代田区日比谷公園1-4","lat":35.671872,"lon":139.754602},{"name":"神田児童館","province":"東京都","city":"千代田区","address":"千代田区外神田3-4-7","lat":35.701221,"lon":139.769793},{"name":"千代田区立児童・家庭支援センター西神田分館","province":"東京都","city":"千代田区","address":"千代田区西神田2-6-2","lat":35.698918,"lon":139.754755},{"name":"四番町児童館","province":"東京都","city":"千代田区","address":"千代田区四番町11","lat":35.689022,"lon":139.739404},{"name":"一番町児童館","province":"東京都","city":"千代田区","address":"千代田区一番町10-22","lat":35.686444,"lon":139.739324},{"name":"将門塚","province":"東京都","city":"千代田区","address":"東京都千代田区大手町1-2","lat":35.687353,"lon":139.762519},{"name":"千代田図書館","province":"東京都","city":"千代田区","address":"東京都千代田区九段南1丁目2-1","lat":35.69407451,"lon":139.75364744},{"name":"日比谷図書文化館","province":"東京都","city":"千代田区","address":"東京都千代田区日比谷公園1-4","lat":35.67175752,"lon":139.75458985},{"name":"四番町図書館","province":"東京都","city":"千代田区","address":"東京都千代田区三番町14-7","lat":35.69048014,"lon":139.74157634},{"name":"昌平まちかど図書館","province":"東京都","city":"千代田区","address":"東京都千代田区外神田3丁目4-7","lat":35.70122142,"lon":139.76979339},{"name":"神田まちかど図書館","province":"東京都","city":"千代田区","address":"東京都千代田区神田司町2丁目16","lat":35.69333055,"lon":139.76842708},{"name":"神田児童館","province":"東京都","city":"千代田区","address":"千代田区外神田3-4-7","lat":35.70119,"lon":139.76988},{"name":"千代田区立児童・家庭支援センター西神田分館","province":"東京都","city":"千代田区","address":"千代田区西神田2-6-2","lat":35.69904,"lon":139.75476},{"name":"四番町児童館","province":"東京都","city":"千代田区","address":"千代田区四番町5-8","lat":35.68855,"lon":139.73807},{"name":"一番町児童館","province":"東京都","city":"千代田区","address":"千代田区一番町10-22","lat":35.68676,"lon":139.7394},{"name":"西神田児童センター","province":"東京都","city":"千代田区","address":"千代田区西神田2-6-2","lat":35.69904,"lon":139.75476},{"name":"＊?昌平まちかど図書館","province":"東京都","city":"千代田区","address":"千代田区外神田3-4-7","lat":35.701223,"lon":139.769873},{"name":"＊?神田まちかど図書館","province":"東京都","city":"千代田区","address":"千代田区神田司町2-16","lat":35.693357,"lon":139.768304},{"name":"＊?四番町図書館","province":"東京都","city":"千代田区","address":"千代田区四番町1","lat":35.690453,"lon":139.741601},{"name":"＊?千代田図書館","province":"東京都","city":"千代田区","address":"千代田区九段南1-2-1千代田区役所9・10階","lat":35.693997,"lon":139.753585},{"name":"＊?日比谷図書文化館","province":"東京都","city":"千代田区","address":"千代田区日比谷公園1-4","lat":35.671872,"lon":139.754602},{"name":"神田児童館","province":"東京都","city":"千代田区","address":"千代田区外神田3-4-7","lat":35.701221,"lon":139.769793},{"name":"千代田区立児童・家庭支援センター西神田分館","province":"東京都","city":"千代田区","address":"千代田区西神田2-6-2","lat":35.698918,"lon":139.754755},{"name":"四番町児童館","province":"東京都","city":"千代田区","address":"千代田区四番町11","lat":35.689022,"lon":139.739404},{"name":"一番町児童館","province":"東京都","city":"千代田区","address":"千代田区一番町10-22","lat":35.686444,"lon":139.739324},{"name":"将門塚","province":"東京都","city":"千代田区","address":"東京都千代田区大手町1-2","lat":35.687353,"lon":139.762519},{"name":"千代田図書館","province":"東京都","city":"千代田区","address":"東京都千代田区九段南1丁目2-1","lat":35.69407451,"lon":139.75364744},{"name":"日比谷図書文化館","province":"東京都","city":"千代田区","address":"東京都千代田区日比谷公園1-4","lat":35.67175752,"lon":139.75458985},{"name":"四番町図書館","province":"東京都","city":"千代田区","address":"東京都千代田区三番町14-7","lat":35.69048014,"lon":139.74157634},{"name":"昌平まちかど図書館","province":"東京都","city":"千代田区","address":"東京都千代田区外神田3丁目4-7","lat":35.70122142,"lon":139.76979339},{"name":"神田まちかど図書館","province":"東京都","city":"千代田区","address":"東京都千代田区神田司町2丁目16","lat":35.69333055,"lon":139.76842708},{"name":"神田児童館","province":"東京都","city":"千代田区","address":"千代田区外神田3-4-7","lat":35.70119,"lon":139.76988},{"name":"千代田区立児童・家庭支援センター西神田分館","province":"東京都","city":"千代田区","address":"千代田区西神田2-6-2","lat":35.69904,"lon":139.75476},{"name":"四番町児童館","province":"東京都","city":"千代田区","address":"千代田区四番町5-8","lat":35.68855,"lon":139.73807},{"name":"一番町児童館","province":"東京都","city":"千代田区","address":"千代田区一番町10-22","lat":35.68676,"lon":139.7394},{"name":"西神田児童センター","province":"東京都","city":"千代田区","address":"千代田区西神田2-6-2","lat":35.69904,"lon":139.75476},{"name":"＊?昌平まちかど図書館","province":"東京都","city":"千代田区","address":"千代田区外神田3-4-7","lat":35.701223,"lon":139.769873},{"name":"＊?神田まちかど図書館","province":"東京都","city":"千代田区","address":"千代田区神田司町2-16","lat":35.693357,"lon":139.768304},{"name":"＊?四番町図書館","province":"東京都","city":"千代田区","address":"千代田区四番町1","lat":35.690453,"lon":139.741601},{"name":"＊?千代田図書館","province":"東京都","city":"千代田区","address":"千代田区九段南1-2-1千代田区役所9・10階","lat":35.693997,"lon":139.753585},{"name":"＊?日比谷図書文化館","province":"東京都","city":"千代田区","address":"千代田区日比谷公園1-4","lat":35.671872,"lon":139.754602},{"name":"神田児童館","province":"東京都","city":"千代田区","address":"千代田区外神田3-4-7","lat":35.701221,"lon":139.769793},{"name":"千代田区立児童・家庭支援センター西神田分館","province":"東京都","city":"千代田区","address":"千代田区西神田2-6-2","lat":35.698918,"lon":139.754755},{"name":"四番町児童館","province":"東京都","city":"千代田区","address":"千代田区四番町11","lat":35.689022,"lon":139.739404},{"name":"一番町児童館","province":"東京都","city":"千代田区","address":"千代田区一番町10-22","lat":35.686444,"lon":139.739324},{"name":"将門塚","province":"東京都","city":"千代田区","address":"東京都千代田区大手町1-2","lat":35.687353,"lon":139.762519},{"name":"千代田図書館","province":"東京都","city":"千代田区","address":"東京都千代田区九段南1丁目2-1","lat":35.69407451,"lon":139.75364744},{"name":"日比谷図書文化館","province":"東京都","city":"千代田区","address":"東京都千代田区日比谷公園1-4","lat":35.67175752,"lon":139.75458985},{"name":"四番町図書館","province":"東京都","city":"千代田区","address":"東京都千代田区三番町14-7","lat":35.69048014,"lon":139.74157634},{"name":"昌平まちかど図書館","province":"東京都","city":"千代田区","address":"東京都千代田区外神田3丁目4-7","lat":35.70122142,"lon":139.76979339},{"name":"神田まちかど図書館","province":"東京都","city":"千代田区","address":"東京都千代田区神田司町2丁目16","lat":35.69333055,"lon":139.76842708},{"name":"神田児童館","province":"東京都","city":"千代田区","address":"千代田区外神田3-4-7","lat":35.70119,"lon":139.76988},{"name":"千代田区立児童・家庭支援センター西神田分館","province":"東京都","city":"千代田区","address":"千代田区西神田2-6-2","lat":35.69904,"lon":139.75476},{"name":"四番町児童館","province":"東京都","city":"千代田区","address":"千代田区四番町5-8","lat":35.68855,"lon":139.73807},{"name":"一番町児童館","province":"東京都","city":"千代田区","address":"千代田区一番町10-22","lat":35.68676,"lon":139.7394},{"name":"西神田児童センター","province":"東京都","city":"千代田区","address":"千代田区西神田2-6-2","lat":35.69904,"lon":139.75476},{"name":"＊?昌平まちかど図書館","province":"東京都","city":"千代田区","address":"千代田区外神田3-4-7","lat":35.701223,"lon":139.769873},{"name":"＊?神田まちかど図書館","province":"東京都","city":"千代田区","address":"千代田区神田司町2-16","lat":35.693357,"lon":139.768304},{"name":"＊?四番町図書館","province":"東京都","city":"千代田区","address":"千代田区四番町1","lat":35.690453,"lon":139.741601},{"name":"＊?千代田図書館","province":"東京都","city":"千代田区","address":"千代田区九段南1-2-1千代田区役所9・10階","lat":35.693997,"lon":139.753585},{"name":"＊?日比谷図書文化館","province":"東京都","city":"千代田区","address":"千代田区日比谷公園1-4","lat":35.671872,"lon":139.754602},{"name":"神田児童館","province":"東京都","city":"千代田区","address":"千代田区外神田3-4-7","lat":35.701221,"lon":139.769793},{"name":"千代田区立児童・家庭支援センター西神田分館","province":"東京都","city":"千代田区","address":"千代田区西神田2-6-2","lat":35.698918,"lon":139.754755},{"name":"四番町児童館","province":"東京都","city":"千代田区","address":"千代田区四番町11","lat":35.689022,"lon":139.739404},{"name":"一番町児童館","province":"東京都","city":"千代田区","address":"千代田区一番町10-22","lat":35.686444,"lon":139.739324},{"name":"将門塚","province":"東京都","city":"千代田区","address":"東京都千代田区大手町1-2","lat":35.687353,"lon":139.762519},{"name":"千代田図書館","province":"東京都","city":"千代田区","address":"東京都千代田区九段南1丁目2-1","lat":35.69407451,"lon":139.75364744},{"name":"日比谷図書文化館","province":"東京都","city":"千代田区","address":"東京都千代田区日比谷公園1-4","lat":35.67175752,"lon":139.75458985},{"name":"四番町図書館","province":"東京都","city":"千代田区","address":"東京都千代田区三番町14-7","lat":35.69048014,"lon":139.74157634},{"name":"昌平まちかど図書館","province":"東京都","city":"千代田区","address":"東京都千代田区外神田3丁目4-7","lat":35.70122142,"lon":139.76979339},{"name":"神田まちかど図書館","province":"東京都","city":"千代田区","address":"東京都千代田区神田司町2丁目16","lat":35.69333055,"lon":139.76842708},{"name":"神田児童館","province":"東京都","city":"千代田区","address":"千代田区外神田3-4-7","lat":35.70119,"lon":139.76988},{"name":"千代田区立児童・家庭支援センター西神田分館","province":"東京都","city":"千代田区","address":"千代田区西神田2-6-2","lat":35.69904,"lon":139.75476},{"name":"四番町児童館","province":"東京都","city":"千代田区","address":"千代田区四番町5-8","lat":35.68855,"lon":139.73807},{"name":"一番町児童館","province":"東京都","city":"千代田区","address":"千代田区一番町10-22","lat":35.68676,"lon":139.7394},{"name":"西神田児童センター","province":"東京都","city":"千代田区","address":"千代田区西神田2-6-2","lat":35.69904,"lon":139.75476},{"name":"＊?昌平まちかど図書館","province":"東京都","city":"千代田区","address":"千代田区外神田3-4-7","lat":35.701223,"lon":139.769873},{"name":"＊?神田まちかど図書館","province":"東京都","city":"千代田区","address":"千代田区神田司町2-16","lat":35.693357,"lon":139.768304},{"name":"＊?四番町図書館","province":"東京都","city":"千代田区","address":"千代田区四番町1","lat":35.690453,"lon":139.741601},{"name":"＊?千代田図書館","province":"東京都","city":"千代田区","address":"千代田区九段南1-2-1千代田区役所9・10階","lat":35.693997,"lon":139.753585},{"name":"＊?日比谷図書文化館","province":"東京都","city":"千代田区","address":"千代田区日比谷公園1-4","lat":35.671872,"lon":139.754602},{"name":"神田児童館","province":"東京都","city":"千代田区","address":"千代田区外神田3-4-7","lat":35.701221,"lon":139.769793},{"name":"千代田区立児童・家庭支援センター西神田分館","province":"東京都","city":"千代田区","address":"千代田区西神田2-6-2","lat":35.698918,"lon":139.754755},{"name":"四番町児童館","province":"東京都","city":"千代田区","address":"千代田区四番町11","lat":35.689022,"lon":139.739404},{"name":"一番町児童館","province":"東京都","city":"千代田区","address":"千代田区一番町10-22","lat":35.686444,"lon":139.739324},{"name":"将門塚","province":"東京都","city":"千代田区","address":"東京都千代田区大手町1-2","lat":35.687353,"lon":139.762519},{"name":"千代田図書館","province":"東京都","city":"千代田区","address":"東京都千代田区九段南1丁目2-1","lat":35.69407451,"lon":139.75364744},{"name":"日比谷図書文化館","province":"東京都","city":"千代田区","address":"東京都千代田区日比谷公園1-4","lat":35.67175752,"lon":139.75458985},{"name":"四番町図書館","province":"東京都","city":"千代田区","address":"東京都千代田区三番町14-7","lat":35.69048014,"lon":139.74157634},{"name":"昌平まちかど図書館","province":"東京都","city":"千代田区","address":"東京都千代田区外神田3丁目4-7","lat":35.70122142,"lon":139.76979339},{"name":"神田まちかど図書館","province":"東京都","city":"千代田区","address":"東京都千代田区神田司町2丁目16","lat":35.69333055,"lon":139.76842708},{"name":"神田児童館","province":"東京都","city":"千代田区","address":"千代田区外神田3-4-7","lat":35.70119,"lon":139.76988},{"name":"千代田区立児童・家庭支援センター西神田分館","province":"東京都","city":"千代田区","address":"千代田区西神田2-6-2","lat":35.69904,"lon":139.75476},{"name":"四番町児童館","province":"東京都","city":"千代田区","address":"千代田区四番町5-8","lat":35.68855,"lon":139.73807},{"name":"一番町児童館","province":"東京都","city":"千代田区","address":"千代田区一番町10-22","lat":35.68676,"lon":139.7394},{"name":"西神田児童センター","province":"東京都","city":"千代田区","address":"千代田区西神田2-6-2","lat":35.69904,"lon":139.75476},{"name":"＊?昌平まちかど図書館","province":"東京都","city":"千代田区","address":"千代田区外神田3-4-7","lat":35.701223,"lon":139.769873},{"name":"＊?神田まちかど図書館","province":"東京都","city":"千代田区","address":"千代田区神田司町2-16","lat":35.693357,"lon":139.768304},{"name":"＊?四番町図書館","province":"東京都","city":"千代田区","address":"千代田区四番町1","lat":35.690453,"lon":139.741601},{"name":"＊?千代田図書館","province":"東京都","city":"千代田区","address":"千代田区九段南1-2-1千代田区役所9・10階","lat":35.693997,"lon":139.753585},{"name":"＊?日比谷図書文化館","province":"東京都","city":"千代田区","address":"千代田区日比谷公園1-4","lat":35.671872,"lon":139.754602}]}