{"keyword":"館","data":[{"name":"西神田児童センター","province":"東京都","city":"千代田区","address":"千代田区西神田2-6-2","lat":35.69904,"lon":139.75476},{"name":"＊?昌平まちかど図書館","province":"東京都","city":"千代田区","address":"千代田区外神田3-4-7","lat":35.701223,"lon":139.769873},{"name":"＊?神田まちかど図書館","province":"東京都","city":"千代田区","address":"千代田区神田司町2-16","lat":35.693357,"lon":139.768304},{"name":"＊?四番町図書館","province":"東京都","city":"千代田区","address":"千代田区四番町1","lat":35.690453,"lon":139.741601},{"name":"＊?千代田図書館","province":"東京都","city":"千代田区","address":"千代田区九段南1-2-1千代田区役所9・10階","lat":35.693997,"lon":139.753585},{"name":"＊?日比谷図書文化館","province":"東京都","city":"千代田区","address":"千代田区日比谷公園1-4","lat":35.671872,"lon":139.754602}]}