{"keyword":"館","data":[{"name":"神田児童館","province":"東京都","city":"千代田区","address":"千代田区外神田3-4-7","lat":35.701221,"lon":139.769793},{"name":"千代田区立児童・家庭支援センター西神田分館","province":"東京都","city":"千代田区","address":"千代田区西神田2-6-2","lat":35.698918,"lon":139.754755},{"name":"四番町児童館","province":"東京都","city":"千代田区","address":"千代田区四番町11","lat":35.689022,"lon":139.739404},{"name":"一番町児童館","province":"東京都","city":"千代田区","address":"千代田区一番町10-22","lat":35.686444,"lon":139.739324},{"name":"千代田図書館","province":"東京都","city":"千代田区","address":"東京都千代田区九段南1丁目2-1","lat":35.69407451,"lon":139.75364744},{"name":"日比谷図書文化館","province":"東京都","city":"千代田区","address":"東京都千代田区日比谷公園1-4","lat":35.67175752,"lon":139.75458985},{"name":"四番町図書館","province":"東京都","city":"千代田区","address":"東京都千代田区三番町14-7","lat":35.69048014,"lon":139.74157634},{"name":"昌平まちかど図書館","province":"東京都","city":"千代田区","address":"東京都千代田区外神田3丁目4-7","lat":35.70122142,"lon":139.76979339},{"name":"神田まちかど図書館","province":"東京都","city":"千代田区","address":"東京都千代田区神田司町2丁目16","lat":35.69333055,"lon":139.76842708},{"name":"神田児童館","province":"東京都","city":"千代田区","address":"千代田区外神田3-4-7","lat":35.70119,"lon":139.76988},{"name":"千代田区立児童・家庭支援センター西神田分館","province":"東京都","city":"千代田区","address":"千代田区西神田2-6-2","lat":35.69904,"lon":139.75476},{"name":"四番町児童館","province":"東京都","city":"千代田区","address":"千代田区四番町5-8","lat":35.68855,"lon":139.73807},{"name":"一番町児童館","province":"東京都","city":"千代田区","address":"千代田区一番町10-22","lat":35.68676,"lon":139.7394},{"name":"西神田児童センター","province":"東京都","city":"千代田区","address":"千代田区西神田2-6-2","lat":35.69904,"lon":139.75476},{"name":"＊?昌平まちかど図書館","province":"東京都","city":"千代田区","address":"千代田区外神田3-4-7","lat":35.701223,"lon":139.769873},{"name":"＊?神田まちかど図書館","province":"東京都","city":"千代田区","address":"千代田区神田司町2-16","lat":35.693357,"lon":139.768304},{"name":"＊?四番町図書館","province":"東京都","city":"千代田区","address":"千代田区四番町1","lat":35.690453,"lon":139.741601},{"name":"＊?千代田図書館","province":"東京都","city":"千代田区","address":"千代田区九段南1-2-1千代田区役所9・10階","lat":35.693997,"lon":139.753585},{"name":"＊?日比谷図書文化館","province":"東京都","city":"千代田区","address":"千代田区日比谷公園1-4","lat":35.671872,"lon":139.754602}]}