{"keyword":"授乳","data":[{"name":"市役所（本庁舎）","province":"東京都","city":"あきる野市","address":"東京都あきる野市二宮350","lat":35.729018,"lon":139.294204},{"name":"五日市保健相談センター1階子育てひろばいつかいち","province":"東京都","city":"あきる野市","address":"東京都あきる野市五日市414ー5","lat":35.729634,"lon":139.219506},{"name":"あきる野ルピア1階子育てひろばるぴああきる野っ子","province":"東京都","city":"あきる野市","address":"東京都あきる野市秋川1-8","lat":35.729977,"lon":139.287091},{"name":"あきる野ルピア2階子育てひろばここるの","province":"東京都","city":"あきる野市","address":"東京都あきる野市秋川1-8","lat":35.729977,"lon":139.287091},{"name":"中央図書館","province":"東京都","city":"あきる野市","address":"東京都あきる野市秋川1-16-2","lat":35.730707,"lon":139.288733},{"name":"東部図書館エル","province":"東京都","city":"あきる野市","address":"東京都あきる野市野辺39-27","lat":35.725255,"lon":139.315717},{"name":"秋川ふれあいセンター","province":"東京都","city":"あきる野市","address":"東京都あきる野市平沢175-4","lat":35.732611,"lon":139.301973},{"name":"あきる野とうきゅう4階ベビー休憩室","province":"東京都","city":"あきる野市","address":"東京都あきる野市秋川1-17-1","lat":35.730727,"lon":139.287063},{"name":"光明第六保育園","province":"東京都","city":"あきる野市","address":"東京都あきる野市留原50","lat":35.72325,"lon":139.234596},{"name":"五日市保育園","province":"東京都","city":"あきる野市","address":"東京都あきる野市五日市345","lat":35.731015,"lon":139.223856},{"name":"秋留台公園","province":"東京都","city":"あきる野市","address":"東京都あきる野市二宮673-1","lat":35.729404,"lon":139.301899}]}