{"category":"wireless","data":[{"name":"医療法人社団成和会西新井病院","province":"東京都","city":"足立区","address":"東京都足立区西新井本町5丁目7-14","lat":35.77566892,"lon":139.78197215},{"name":"苑田第一病院","province":"東京都","city":"足立区","address":"東京都足立区竹の塚4丁目1-12","lat":35.79351749,"lon":139.80198649},{"name":"博慈会記念総合病院","province":"東京都","city":"足立区","address":"東京都足立区鹿浜5丁目11-1","lat":35.78496118,"lon":139.74944417},{"name":"板橋給水所","province":"東京都","city":"足立区","address":"東京都足立区加賀1丁目17-1","lat":35.78938603,"lon":139.75898755},{"name":"小右衛門給水所","province":"東京都","city":"足立区","address":"東京都足立区中央本町3丁目8-1","lat":35.77219224,"lon":139.80734518},{"name":"区総合スポーツセンター","province":"東京都","city":"足立区","address":"東京都足立区東保木間2丁目27-1","lat":35.79222061,"lon":139.81364669},{"name":"区立千住スポーツ公園","province":"東京都","city":"足立区","address":"東京都足立区千住緑町2丁目1-1","lat":35.74518999,"lon":139.79567026},{"name":"区立諏訪木東公園","province":"東京都","city":"足立区","address":"東京都足立区西新井3丁目25","lat":35.78998665,"lon":139.77999121},{"name":"区立大谷田南公園","province":"東京都","city":"足立区","address":"東京都足立区中川4丁目42-1","lat":35.7717206,"lon":139.84821396},{"name":"区立北鹿浜公園","province":"東京都","city":"足立区","address":"東京都足立区鹿浜3丁目26","lat":35.78240338,"lon":139.75411604},{"name":"都立舎人公園","province":"東京都","city":"足立区","address":"東京都足立区舎人公園1-1","lat":35.79709935,"lon":139.76835863},{"name":"西新井病院","province":"東京都","city":"足立区","address":"東京都足立区西新井本町5丁目7-14","lat":35.77566892,"lon":139.78197215},{"name":"足立トラックターミナル","province":"東京都","city":"足立区","address":"東京都足立区入谷6丁目1-1","lat":35.79902128,"lon":139.7665504},{"name":"足立都税事務所","province":"東京都","city":"足立区","address":"東京都足立区西新井栄町2丁目8-15","lat":35.77795495,"lon":139.7881132},{"name":"東京武道館","province":"東京都","city":"足立区","address":"東京都足立区綾瀬3丁目20-1","lat":35.76579609,"lon":139.82580213},{"name":"足立市場","province":"東京都","city":"足立区","address":"東京都足立区千住橋戸町50","lat":35.74084336,"lon":139.79869253},{"name":"北足立市場","province":"東京都","city":"足立区","address":"東京都足立区入谷6丁目3-1","lat":35.79861847,"lon":139.7643284},{"name":"足立新田高等学校","province":"東京都","city":"足立区","address":"東京都足立区新田2丁目10-16","lat":35.7701545,"lon":139.74130933},{"name":"足立東高等学校","province":"東京都","city":"足立区","address":"東京都足立区大谷田2丁目3-5","lat":35.78134984,"lon":139.84544447},{"name":"淵江高等学校","province":"東京都","city":"足立区","address":"東京都足立区東保木間2丁目10-1","lat":35.79201507,"lon":139.81163853},{"name":"荒川商業高等学校","province":"東京都","city":"足立区","address":"東京都足立区小台2丁目1-31","lat":35.75512634,"lon":139.76149721},{"name":"青井高等学校","province":"東京都","city":"足立区","address":"東京都足立区青井1丁目7-35","lat":35.77354217,"lon":139.81205304},{"name":"足立高等学校","province":"東京都","city":"足立区","address":"東京都足立区中央本町1丁目3-9","lat":35.7702674,"lon":139.80490379},{"name":"江北高等学校","province":"東京都","city":"足立区","address":"東京都足立区西綾瀬4丁目14-30","lat":35.76672089,"lon":139.82035257},{"name":"足立工業高等学校","province":"東京都","city":"足立区","address":"東京都足立区西新井4丁目30-1","lat":35.78805347,"lon":139.77796089},{"name":"足立西高等学校","province":"東京都","city":"足立区","address":"東京都足立区江北5丁目7-1","lat":35.77654897,"lon":139.76810389},{"name":"足立トラックターミナル","province":"東京都","city":"足立区","address":"東京都足立区入谷6丁目1-1","lat":35.79902128,"lon":139.7665504},{"name":"新田緊急用船着場","province":"東京都","city":"足立区","address":"東京都足立区新田3丁目","lat":35.77048507,"lon":139.74322027},{"name":"足立緊急用船着場","province":"東京都","city":"足立区","address":"東京都足立区足立2丁目","lat":35.76116864,"lon":139.80978165},{"name":"足立区立保木間公園","province":"東京都","city":"足立区","address":"東京都足立区竹の塚3丁目8-1","lat":35.79027618,"lon":139.80209492},{"name":"都立東綾瀬公園","province":"東京都","city":"足立区","address":"東京都足立区東綾瀬3丁目4","lat":35.77023453,"lon":139.83256528},{"name":"都立舎人公園","province":"東京都","city":"足立区","address":"東京都足立区舎人公園1-1","lat":35.79709935,"lon":139.76835863}]}