{"keyword":"センター","data":[{"name":"足立区悠々会館","province":"東京都","city":"足立区","address":"足立区西保木間4-9-1","lat":35.80355,"lon":139.79671},{"name":"足立区悠々会館","province":"東京都","city":"足立区","address":"足立区西保木間4-9-1","lat":35.803394,"lon":139.796656},{"name":"大谷田悠々館","province":"東京都","city":"足立区","address":"足立区大谷田1-1-2-101","lat":35.776839,"lon":139.844536},{"name":"大谷田谷中悠々館","province":"東京都","city":"足立区","address":"足立区大谷田4-16-6","lat":35.780903,"lon":139.838417},{"name":"長門悠々館","province":"東京都","city":"足立区","address":"足立区中川2-24-2-101","lat":35.768638,"lon":139.857191},{"name":"東和悠々館","province":"東京都","city":"足立区","address":"足立区東和3-12-9","lat":35.771123,"lon":139.839515},{"name":"東綾瀬悠々館","province":"東京都","city":"足立区","address":"足立区東綾瀬1-28-7","lat":35.766246,"lon":139.833077},{"name":"綾瀬悠々館","province":"東京都","city":"足立区","address":"足立区綾瀬3-17-9","lat":35.764682,"lon":139.824547},{"name":"弘道悠々館","province":"東京都","city":"足立区","address":"足立区弘道2-16-1-101","lat":35.768601,"lon":139.816833},{"name":"五反野悠々館","province":"東京都","city":"足立区","address":"足立区西綾瀬2-1-13","lat":35.76168,"lon":139.81397},{"name":"千住あずま悠々館","province":"東京都","city":"足立区","address":"足立区千住東2-21-18","lat":35.745754,"lon":139.810255},{"name":"千住柳町悠々館","province":"東京都","city":"足立区","address":"足立区千住柳町12-5","lat":35.753764,"lon":139.796161},{"name":"千住本町悠々館","province":"東京都","city":"足立区","address":"足立区千住5-6-2","lat":35.754728,"lon":139.803688},{"name":"千住河原町悠々館","province":"東京都","city":"足立区","address":"足立区千住河原町6-4","lat":35.744643,"lon":139.796165},{"name":"江南悠々館","province":"東京都","city":"足立区","address":"足立区小台2-4-18","lat":35.755913,"lon":139.7575},{"name":"中央本町悠々館","province":"東京都","city":"足立区","address":"足立区中央本町3-15-1","lat":35.772256,"lon":139.809662},{"name":"栗島悠々館","province":"東京都","city":"足立区","address":"足立区中央本町4-5-2","lat":35.776766,"lon":139.805824},{"name":"青井悠々館","province":"東京都","city":"足立区","address":"足立区青井5-11-40-101","lat":35.777047,"lon":139.819988},{"name":"六木悠々館","province":"東京都","city":"足立区","address":"足立区六木3-39-5-101","lat":35.799695,"lon":139.839983},{"name":"佐野悠々館","province":"東京都","city":"足立区","address":"足立区佐野2-43-5","lat":35.788127,"lon":139.840264},{"name":"加平悠々館","province":"東京都","city":"足立区","address":"足立区加平1-10-6","lat":35.775014,"lon":139.828127},{"name":"神明悠々館","province":"東京都","city":"足立区","address":"足立区神明南2-6-19","lat":35.787477,"lon":139.833273},{"name":"花畑悠々館","province":"東京都","city":"足立区","address":"足立区花畑4-16-8","lat":35.802789,"lon":139.807472},{"name":"桜花悠々館","province":"東京都","city":"足立区","address":"足立区花畑6-4-16","lat":35.804827,"lon":139.81689},{"name":"南花畑悠々館","province":"東京都","city":"足立区","address":"足立区南花畑3-14-7","lat":35.790501,"lon":139.824865},{"name":"花保悠々館","province":"東京都","city":"足立区","address":"足立区東保木間1-25-4-101","lat":35.790812,"lon":139.815213},{"name":"保塚悠々館","province":"東京都","city":"足立区","address":"足立区保塚町7-16","lat":35.786893,"lon":139.815927},{"name":"平野悠々館","province":"東京都","city":"足立区","address":"足立区平野2-2-14","lat":35.78221,"lon":139.804498},{"name":"東伊興悠々館","province":"東京都","city":"足立区","address":"足立区東伊興1-5-22","lat":35.803416,"lon":139.785835},{"name":"渕江悠々館","province":"東京都","city":"足立区","address":"足立区西保木間1-2-1-101","lat":35.795128,"lon":139.80142},{"name":"竹の塚六月悠々館","province":"東京都","city":"足立区","address":"足立区六月2-26-3-101","lat":35.788226,"lon":139.796532},{"name":"島根悠々館","province":"東京都","city":"足立区","address":"足立区島根4-19-1-101","lat":35.782657,"lon":139.796565},{"name":"梅島悠々館","province":"東京都","city":"足立区","address":"足立区梅島2-14-5","lat":35.775494,"lon":139.799318},{"name":"伊興悠々館","province":"東京都","city":"足立区","address":"足立区伊興5-22-13","lat":35.798147,"lon":139.780027},{"name":"西伊興悠々館","province":"東京都","city":"足立区","address":"足立区西伊興1-12-12","lat":35.790825,"lon":139.773525},{"name":"舎人悠々館","province":"東京都","city":"足立区","address":"足立区舎人1-3-26","lat":35.806001,"lon":139.773161},{"name":"入谷悠々館","province":"東京都","city":"足立区","address":"足立区舎人6-12-4-101","lat":35.811364,"lon":139.761934},{"name":"西新井悠々館","province":"東京都","city":"足立区","address":"足立区西新井7-19-6","lat":35.781887,"lon":139.772134},{"name":"栗原北悠々館","province":"東京都","city":"足立区","address":"足立区栗原4-19-15","lat":35.786801,"lon":139.784994},{"name":"西新井栄町悠々館","province":"東京都","city":"足立区","address":"足立区西新井栄町3-1-6-101","lat":35.774869,"lon":139.783733},{"name":"西新井本町悠々館","province":"東京都","city":"足立区","address":"足立区西新井本町2-30-37","lat":35.77653,"lon":139.771367},{"name":"梅田悠々館","province":"東京都","city":"足立区","address":"足立区梅田6-26-1","lat":35.76757,"lon":139.797474},{"name":"本木関原悠々館","province":"東京都","city":"足立区","address":"足立区関原1-21-11","lat":35.764662,"lon":139.787225},{"name":"興本悠々館","province":"東京都","city":"足立区","address":"足立区本木東町17-10","lat":35.767462,"lon":139.781136},{"name":"加賀悠々館","province":"東京都","city":"足立区","address":"足立区加賀2-31-6-101","lat":35.794286,"lon":139.760615},{"name":"鹿浜いきいき館悠々館","province":"東京都","city":"足立区","address":"足立区鹿浜2-24-2","lat":35.780595,"lon":139.749153},{"name":"押皿谷悠々館","province":"東京都","city":"足立区","address":"足立区鹿浜8-27-15","lat":35.789938,"lon":139.764951},{"name":"鹿浜悠々館","province":"東京都","city":"足立区","address":"足立区鹿浜6-8-1","lat":35.783962,"lon":139.758174},{"name":"新田悠々館","province":"東京都","city":"足立区","address":"足立区新田2-2-2","lat":35.771596,"lon":139.738226},{"name":"江北悠々館","province":"東京都","city":"足立区","address":"足立区江北2-8-2","lat":35.767214,"lon":139.763177},{"name":"扇悠々館","province":"東京都","city":"足立区","address":"足立区扇1-47-38","lat":35.765678,"lon":139.775337},{"name":"大谷田悠々館","province":"東京都","city":"足立区","address":"足立区大谷田1-1-2-101","lat":35.77963,"lon":139.84354},{"name":"竹の塚六月悠々館","province":"東京都","city":"足立区","address":"足立区六月2-26-3-101","lat":35.78807,"lon":139.79656},{"name":"青井悠々館","province":"東京都","city":"足立区","address":"足立区青井5-11-40-101","lat":35.77156,"lon":139.81064},{"name":"入谷悠々館","province":"東京都","city":"足立区","address":"足立区舎人6-12-4-101","lat":35.78478,"lon":139.82129}]}