{"keyword":"一覧","data":[{"name":"足立区役所本庁舎","province":"東京都","city":"足立区","address":"東京都足立区中央本町1丁目17-1","lat":35.77489463,"lon":139.80457862},{"name":"伊興地域学習センター","province":"東京都","city":"足立区","address":"東京都足立区伊興2丁目4-22","lat":35.79120877,"lon":139.78099941},{"name":"梅田地域学習センター","province":"東京都","city":"足立区","address":"東京都足立区梅田7丁目33-1","lat":35.7706172,"lon":139.79830157},{"name":"江北地域学習センター","province":"東京都","city":"足立区","address":"東京都足立区江北3丁目39-4","lat":35.77591271,"lon":139.76014907},{"name":"興本体育館","province":"東京都","city":"足立区","address":"東京都足立区興野1丁目17-7","lat":35.76858366,"lon":139.78323345},{"name":"興本地域学習センター","province":"東京都","city":"足立区","address":"東京都足立区興野1丁目18-38","lat":35.76832532,"lon":139.78227799},{"name":"ギャラクシティ","province":"東京都","city":"足立区","address":"東京都足立区栗原1丁目3-1","lat":35.7799159,"lon":139.7903796},{"name":"都市農業公園（一時使用休止中）","province":"東京都","city":"足立区","address":"東京都足立区鹿浜2丁目44-1","lat":35.78243356,"lon":139.7446697},{"name":"佐野地域学習センター","province":"東京都","city":"足立区","address":"東京都足立区佐野2丁目43-5","lat":35.78817114,"lon":139.84024191},{"name":"竹の塚地域学習センター","province":"東京都","city":"足立区","address":"東京都足立区竹の塚2丁目25-17","lat":35.79263961,"lon":139.79461767},{"name":"水道局足立営業所","province":"東京都","city":"足立区","address":"東京都足立区中央本町3丁目8-2","lat":35.7721478,"lon":139.80782292},{"name":"中央本町地域学習センター（一時使用休止中）","province":"東京都","city":"足立区","address":"東京都足立区中央本町3丁目15-1","lat":35.7722645,"lon":139.80973108},{"name":"舎人地域学習センター","province":"東京都","city":"足立区","address":"東京都足立区舎人1丁目3-26","lat":35.80600115,"lon":139.7731607},{"name":"新田地域学習センター","province":"東京都","city":"足立区","address":"東京都足立区新田2丁目2-2","lat":35.77156533,"lon":139.73827622},{"name":"花畑地域学習センター","province":"東京都","city":"足立区","address":"東京都足立区花畑4丁目16-8","lat":35.80290549,"lon":139.80751908},{"name":"生物園","province":"東京都","city":"足立区","address":"東京都足立区保木間2丁目17-1","lat":35.79245385,"lon":139.8072361},{"name":"保塚地域学習センター","province":"東京都","city":"足立区","address":"東京都足立区保塚町7-16","lat":35.78686847,"lon":139.81597167},{"name":"鹿浜地域学習センター","province":"東京都","city":"足立区","address":"東京都足立区鹿浜6丁目8-1","lat":35.78397277,"lon":139.75817115},{"name":"足立区生涯学習センター","province":"東京都","city":"足立区","address":"東京都足立区千住5丁目13-5","lat":35.75654132,"lon":139.80267428},{"name":"東和地域学習センター","province":"東京都","city":"足立区","address":"東京都足立区東和3丁目12-9","lat":35.77112337,"lon":139.83951467}]}