{"keyword":"会館","data":[{"name":"＊?佐野地域学習センター","province":"東京都","city":"足立区","address":"足立区佐野2-43-5","lat":35.788137,"lon":139.840248},{"name":"＊?東和地域学習センター","province":"東京都","city":"足立区","address":"足立区東和3-12-9","lat":35.771113,"lon":139.839576},{"name":"＊?花畑地域学習センター","province":"東京都","city":"足立区","address":"足立区花畑4-16-8","lat":35.802827,"lon":139.807458},{"name":"＊?竹の塚地域学習センター","province":"東京都","city":"足立区","address":"足立区竹の塚2-25-17","lat":35.792631,"lon":139.794598},{"name":"＊?梅田地域学習センター","province":"東京都","city":"足立区","address":"足立区梅田7-33-1","lat":35.770641,"lon":139.798287},{"name":"＊?中央本町地域学習センター","province":"東京都","city":"足立区","address":"足立区中央本町3-15-1","lat":35.77225,"lon":139.809721},{"name":"＊?舎人地域学習センター","province":"東京都","city":"足立区","address":"足立区舎人1-3-26","lat":35.806068,"lon":139.773204},{"name":"＊?伊興地域学習センター","province":"東京都","city":"足立区","address":"足立区伊興2-4-22","lat":35.791207,"lon":139.780993},{"name":"＊?鹿浜地域学習センター","province":"東京都","city":"足立区","address":"足立区鹿浜6-8-1","lat":35.783972,"lon":139.758271},{"name":"＊?保塚地域学習センター","province":"東京都","city":"足立区","address":"足立区保塚町7-16","lat":35.786689,"lon":139.816103},{"name":"＊?興本地域学習センター","province":"東京都","city":"足立区","address":"足立区興野1-18-38","lat":35.768306,"lon":139.782379},{"name":"＊?江北地域学習センター","province":"東京都","city":"足立区","address":"足立区江北3-39-4","lat":35.775872,"lon":139.760074},{"name":"＊?新田地域学習センター","province":"東京都","city":"足立区","address":"足立区新田2-2-2","lat":35.771499,"lon":139.738115}]}