{"keyword":"保育","data":[{"name":"ナーサリースクールいずみ大谷田","province":"東京都","city":"足立区","address":"足立区大谷田1-1-9-101","lat":35.780053,"lon":139.844281},{"name":"ビーフェア東和親水保育園","province":"東京都","city":"足立区","address":"足立区東和2-26-9","lat":35.770274,"lon":139.842726},{"name":"にじいろ保育園綾瀬","province":"東京都","city":"足立区","address":"足立区綾瀬6-20-7","lat":35.769587,"lon":139.825285},{"name":"聖華こうどう保育園","province":"東京都","city":"足立区","address":"足立区弘道1-7-1","lat":35.767604,"lon":139.81422},{"name":"キッズガーデン足立柳原","province":"東京都","city":"足立区","address":"足立区柳原1-30-7","lat":35.74511,"lon":139.811825},{"name":"たんぽぽ保育所北千住園","province":"東京都","city":"足立区","address":"足立区千住宮元町31-8","lat":35.749795,"lon":139.794584},{"name":"足立梅島雲母保育園","province":"東京都","city":"足立区","address":"足立区中央本町5-1-2","lat":35.777167,"lon":139.803429},{"name":"たんぽぽ保育所第二六町園","province":"東京都","city":"足立区","address":"足立区六町2-7-32","lat":35.783563,"lon":139.818141},{"name":"野のはな保育園","province":"東京都","city":"足立区","address":"足立区西加平1-1-5","lat":35.778278,"lon":139.819827},{"name":"六町駅前保育園","province":"東京都","city":"足立区","address":"足立区西加平2-6-2","lat":35.781161,"lon":139.821621},{"name":"エーワン梅島保育園","province":"東京都","city":"足立区","address":"足立区梅島1-18-3","lat":35.772389,"lon":139.800593},{"name":"バンビ保育園　梅島園","province":"東京都","city":"足立区","address":"足立区梅島3-4-8","lat":35.774261,"lon":139.796327},{"name":"アスクとねり保育園","province":"東京都","city":"足立区","address":"足立区舎人5-1-3","lat":35.809503,"lon":139.769169},{"name":"アスク西新井保育園","province":"東京都","city":"足立区","address":"足立区西新井4-18-7","lat":35.786367,"lon":139.773145},{"name":"足立このみ保育園","province":"東京都","city":"足立区","address":"足立区江北6-29-9","lat":35.781146,"lon":139.767604},{"name":"にじいろ保育園江北","province":"東京都","city":"足立区","address":"足立区江北4-25-24","lat":35.775638,"lon":139.767668},{"name":"キッズガーデン足立扇","province":"東京都","city":"足立区","address":"足立区扇1-33-3","lat":35.763131,"lon":139.776876},{"name":"おおやたこども園","province":"東京都","city":"足立区","address":"足立区大谷田2-1-9","lat":35.7812,"lon":139.844314},{"name":"大谷田第一保育園","province":"東京都","city":"足立区","address":"足立区大谷田1-1-5-101","lat":35.778889,"lon":139.844695},{"name":"隅田学園","province":"東京都","city":"足立区","address":"足立区中川4-37-22","lat":35.770085,"lon":139.850139},{"name":"東保育園","province":"東京都","city":"足立区","address":"足立区東和5-5-23","lat":35.775473,"lon":139.841078},{"name":"聖母のさゆり保育園","province":"東京都","city":"足立区","address":"足立区東和4-10-9","lat":35.772979,"lon":139.840506},{"name":"東和保育園","province":"東京都","city":"足立区","address":"足立区東和1-11-7","lat":35.766918,"lon":139.838862},{"name":"コンビプラザ東和三丁目保育園","province":"東京都","city":"足立区","address":"足立区東和3-13-1","lat":35.772698,"lon":139.839656},{"name":"あやせ保育園","province":"東京都","city":"足立区","address":"足立区東綾瀬1-5-17","lat":35.763649,"lon":139.829913},{"name":"東綾瀬保育園","province":"東京都","city":"足立区","address":"足立区東綾瀬2-12-13","lat":35.768179,"lon":139.833907},{"name":"足立若葉保育園","province":"東京都","city":"足立区","address":"足立区東綾瀬1-16-21","lat":35.765252,"lon":139.835037},{"name":"東部若葉保育園","province":"東京都","city":"足立区","address":"足立区東綾瀬1-25-23","lat":35.765888,"lon":139.829918},{"name":"東綾瀬きらきら保育園","province":"東京都","city":"足立区","address":"足立区東綾瀬2-17-8","lat":35.768199,"lon":139.834512},{"name":"あやせババール園","province":"東京都","city":"足立区","address":"足立区東綾瀬3-9-1","lat":35.769721,"lon":139.834723},{"name":"恵・ＹＯＵ保育園","province":"東京都","city":"足立区","address":"足立区東綾瀬1-9-4プラザ白うめ","lat":35.764252,"lon":139.832091},{"name":"チェリッシュ綾瀬保育園","province":"東京都","city":"足立区","address":"足立区綾瀬3-13-1リプル綾瀬101","lat":35.764396,"lon":139.827877},{"name":"チェリー保育園","province":"東京都","city":"足立区","address":"足立区谷中2-16-16","lat":35.774626,"lon":139.832843},{"name":"北綾瀬聖華保育園","province":"東京都","city":"足立区","address":"足立区谷中1-32-9","lat":35.773842,"lon":139.834521},{"name":"やよい保育園","province":"東京都","city":"足立区","address":"足立区中央本町1-9-3-105","lat":35.771989,"lon":139.803945},{"name":"青井保育園","province":"東京都","city":"足立区","address":"足立区青井3-24-2-101","lat":35.772576,"lon":139.819702},{"name":"西綾瀬りりおっこ保育園","province":"東京都","city":"足立区","address":"足立区西綾瀬4-2-4","lat":35.762899,"lon":139.818567},{"name":"五反野保育園","province":"東京都","city":"足立区","address":"足立区足立2-26-14","lat":35.761455,"lon":139.810743},{"name":"高和保育園","province":"東京都","city":"足立区","address":"足立区足立4-31-17","lat":35.765038,"lon":139.806468},{"name":"子ひばり保育園","province":"東京都","city":"足立区","address":"足立区足立2-33-2","lat":35.760871,"lon":139.812029},{"name":"第二日ノ出町保育園","province":"東京都","city":"足立区","address":"足立区日ノ出町19-3","lat":35.75137,"lon":139.811513},{"name":"日ノ出町保育園","province":"東京都","city":"足立区","address":"足立区日ノ出町15-1","lat":35.750959,"lon":139.809982},{"name":"北千住どろんこ保育園","province":"東京都","city":"足立区","address":"足立区日ノ出町41-14","lat":35.754128,"lon":139.808391},{"name":"うぃず千住曙町保育園","province":"東京都","city":"足立区","address":"足立区千住曙町17-3","lat":35.743952,"lon":139.814722},{"name":"せきや保育園","province":"東京都","city":"足立区","address":"足立区千住関屋町16-1","lat":35.742007,"lon":139.805595},{"name":"千住あずま保育園","province":"東京都","city":"足立区","address":"足立区千住東2-20-17","lat":35.744718,"lon":139.809555},{"name":"あい保育園千住大橋","province":"東京都","city":"足立区","address":"足立区千住河原町6-12","lat":35.745104,"lon":139.796004},{"name":"うぃず千住大橋駅前保育園","province":"東京都","city":"足立区","address":"足立区千住橋戸町2ー6","lat":35.740921,"lon":139.795504},{"name":"クレアナーサリー千住大橋","province":"東京都","city":"足立区","address":"足立区千住橋戸町1-13","lat":35.742474,"lon":139.795307},{"name":"千住保育園","province":"東京都","city":"足立区","address":"足立区千住元町16-9","lat":35.754705,"lon":139.793631},{"name":"北千住もみじの森保育園","province":"東京都","city":"足立区","address":"足立区千住龍田町6-22","lat":35.751245,"lon":139.795209},{"name":"北千住こども園","province":"東京都","city":"足立区","address":"足立区千住宮元町25-5","lat":35.747901,"lon":139.796542},{"name":"緑町保育園","province":"東京都","city":"足立区","address":"足立区千住緑町2-17-11","lat":35.745445,"lon":139.792437},{"name":"まなびの森保育園千住大橋","province":"東京都","city":"足立区","address":"足立区千住緑町2-5-10","lat":35.745179,"lon":139.79444},{"name":"宮城保育園","province":"東京都","city":"足立区","address":"足立区宮城1-5-6-101","lat":35.757526,"lon":139.75312},{"name":"三星保育園","province":"東京都","city":"足立区","address":"足立区宮城1-28-7","lat":35.759034,"lon":139.757195},{"name":"中央本町保育園","province":"東京都","city":"足立区","address":"足立区中央本町4-11-39","lat":35.77392,"lon":139.807298},{"name":"明日葉保育園青井園","province":"東京都","city":"足立区","address":"足立区青井4-6-21","lat":35.774592,"lon":139.816611},{"name":"神明町保育園","province":"東京都","city":"足立区","address":"足立区神明2-10-4","lat":35.794587,"lon":139.834987},{"name":"六木保育園","province":"東京都","city":"足立区","address":"足立区六木1-5-10-101","lat":35.790315,"lon":139.838386},{"name":"辰沼保育園","province":"東京都","city":"足立区","address":"足立区辰沼1-2-7-101","lat":35.78481,"lon":139.835401},{"name":"花畑桑袋保育園","province":"東京都","city":"足立区","address":"足立区花畑8-5-15-101","lat":35.813507,"lon":139.82154},{"name":"レイモンド花畑保育園","province":"東京都","city":"足立区","address":"足立区花畑3-42-8","lat":35.806102,"lon":139.814866},{"name":"北保木間保育園","province":"東京都","city":"足立区","address":"足立区南花畑5-15-3-101","lat":35.796206,"lon":139.811111},{"name":"東花畑保育園","province":"東京都","city":"足立区","address":"足立区南花畑4-11-6-101","lat":35.794765,"lon":139.818096},{"name":"六町あづま保育園","province":"東京都","city":"足立区","address":"足立区南花畑1-13-4","lat":35.786819,"lon":139.824471},{"name":"六町保育園","province":"東京都","city":"足立区","address":"足立区南花畑2-25-11","lat":35.790151,"lon":139.821138},{"name":"南保木間保育園","province":"東京都","city":"足立区","address":"足立区東保木間1-5-16-101","lat":35.790365,"lon":139.812358},{"name":"愛隣保育園","province":"東京都","city":"足立区","address":"足立区東保木間1-10-16","lat":35.787913,"lon":139.81258},{"name":"東保木間保育園","province":"東京都","city":"足立区","address":"足立区東保木間1-25-2-101","lat":35.790032,"lon":139.815436},{"name":"保木間保育園","province":"東京都","city":"足立区","address":"足立区保木間3-25-9","lat":35.796715,"lon":139.807597},{"name":"たんぽぽ保育所六町園","province":"東京都","city":"足立区","address":"足立区六町3-7-47フェルックス1F","lat":35.78568,"lon":139.81896},{"name":"東栗原保育園","province":"東京都","city":"足立区","address":"足立区一ツ家2-15-14-101","lat":35.784258,"lon":139.81243},{"name":"クレアナーサリー足立さくら園","province":"東京都","city":"足立区","address":"足立区一ツ家3-4-4","lat":35.779911,"lon":139.811789},{"name":"平野保育園","province":"東京都","city":"足立区","address":"足立区平野3-18-1-101","lat":35.785521,"lon":139.806453},{"name":"伊興すみれ保育園","province":"東京都","city":"足立区","address":"足立区東伊興3-3-4","lat":35.798605,"lon":139.790093},{"name":"西保木間保育園","province":"東京都","city":"足立区","address":"足立区西保木間2-17-5-101","lat":35.801983,"lon":139.799767},{"name":"水神橋保育園","province":"東京都","city":"足立区","address":"足立区西保木間4-12-4","lat":35.80501,"lon":139.798334},{"name":"竹の塚北保育園","province":"東京都","city":"足立区","address":"足立区竹の塚6-18-2","lat":35.797253,"lon":139.793265},{"name":"渕江保育園","province":"東京都","city":"足立区","address":"足立区竹の塚2-9-3","lat":35.78906,"lon":139.796895},{"name":"竹の塚保育園","province":"東京都","city":"足立区","address":"足立区竹の塚3-7-33-106","lat":35.789579,"lon":139.800187},{"name":"中島根保育園","province":"東京都","city":"足立区","address":"足立区島根2-33-2","lat":35.783835,"lon":139.801634},{"name":"島根いちい保育園","province":"東京都","city":"足立区","address":"足立区島根4-26-7","lat":35.785032,"lon":139.796087},{"name":"島根保育園","province":"東京都","city":"足立区","address":"足立区梅島3-14-18","lat":35.775314,"lon":139.795552},{"name":"日生梅島第二保育園ひびき","province":"東京都","city":"足立区","address":"足立区梅島3-17-20","lat":35.774031,"lon":139.794924},{"name":"伊興大境保育園","province":"東京都","city":"足立区","address":"足立区西竹の塚1-10-5-101","lat":35.792342,"lon":139.789296},{"name":"伊興保育園","province":"東京都","city":"足立区","address":"足立区伊興4-11-25","lat":35.797778,"lon":139.783021},{"name":"いりや第一保育園","province":"東京都","city":"足立区","address":"足立区舎人6-12-5-101","lat":35.811822,"lon":139.761728},{"name":"いりや第二保育園","province":"東京都","city":"足立区","address":"足立区舎人6-11-2-101","lat":35.811417,"lon":139.763514},{"name":"聖保育園","province":"東京都","city":"足立区","address":"足立区舎人1-3-13","lat":35.806582,"lon":139.772686},{"name":"ｉ－保育園","province":"東京都","city":"足立区","address":"足立区西新井4-28-7","lat":35.78802,"lon":139.776394},{"name":"うぃず西新井保育園","province":"東京都","city":"足立区","address":"足立区西新井3-13-15","lat":35.787915,"lon":139.782633},{"name":"清水保育園","province":"東京都","city":"足立区","address":"足立区西新井4-2-1","lat":35.786851,"lon":139.779155},{"name":"西新井保育園","province":"東京都","city":"足立区","address":"足立区西新井2-21-2","lat":35.784921,"lon":139.7797},{"name":"栗原つくし保育園","province":"東京都","city":"足立区","address":"足立区栗原1-14-18","lat":35.781271,"lon":139.78878},{"name":"いづみ保育園","province":"東京都","city":"足立区","address":"足立区西新井栄町1-15-10","lat":35.7736,"lon":139.790127},{"name":"足立ひまわり保育園","province":"東京都","city":"足立区","address":"足立区西新井栄町1-7-8","lat":35.774347,"lon":139.791899},{"name":"西新井きらきら保育園","province":"東京都","city":"足立区","address":"足立区西新井栄町1-18-14","lat":35.775139,"lon":139.788388},{"name":"興野保育園","province":"東京都","city":"足立区","address":"足立区西新井本町4-19-23","lat":35.770667,"lon":139.780211},{"name":"西新井教会保育園","province":"東京都","city":"足立区","address":"足立区西新井本町1-22-5","lat":35.775336,"lon":139.778603},{"name":"西新井聖華保育園","province":"東京都","city":"足立区","address":"足立区西新井本町2-4-24","lat":35.777596,"lon":139.775662},{"name":"梅田保育園","province":"東京都","city":"足立区","address":"足立区梅田4-2-19","lat":35.762743,"lon":139.794647},{"name":"うめだ「子供の家」","province":"東京都","city":"足立区","address":"足立区梅田7-19-23","lat":35.769842,"lon":139.800035},{"name":"親隣館保育園","province":"東京都","city":"足立区","address":"足立区梅田4-29-6","lat":35.76281,"lon":139.791497},{"name":"日生梅島保育園ひびき","province":"東京都","city":"足立区","address":"足立区梅田5-25-33ロイヤルパークス梅島1F","lat":35.77105,"lon":139.79526},{"name":"中部ひまわり保育園","province":"東京都","city":"足立区","address":"足立区関原2-10-4","lat":35.767665,"lon":139.79095},{"name":"本木東保育園","province":"東京都","city":"足立区","address":"足立区本木2-13-11","lat":35.76429,"lon":139.784053},{"name":"本木保育園","province":"東京都","city":"足立区","address":"足立区本木東町18-17","lat":35.766903,"lon":139.781667},{"name":"加賀保育園","province":"東京都","city":"足立区","address":"足立区加賀2-31-5-101","lat":35.793763,"lon":139.760698},{"name":"谷在家保育園","province":"東京都","city":"足立区","address":"足立区谷在家3-22-10-101","lat":35.789606,"lon":139.768742},{"name":"太陽保育園","province":"東京都","city":"足立区","address":"足立区鹿浜5-25-17","lat":35.785422,"lon":139.755244},{"name":"新田わかば保育園","province":"東京都","city":"足立区","address":"足立区新田3-8-20","lat":35.771943,"lon":139.743479},{"name":"新田保育園","province":"東京都","city":"足立区","address":"足立区新田2-1-10","lat":35.77136,"lon":139.737393},{"name":"ココロット保育園","province":"東京都","city":"足立区","address":"足立区新田3-35-22","lat":35.770324,"lon":139.747659},{"name":"新田さくら保育園","province":"東京都","city":"足立区","address":"足立区新田1-14-12-101","lat":35.776198,"lon":139.740745},{"name":"保育園ヴィラ・ココロット","province":"東京都","city":"足立区","address":"足立区新田2-1-13","lat":35.771201,"lon":139.737576},{"name":"上沼田保育園","province":"東京都","city":"足立区","address":"足立区江北4-17-20-101","lat":35.773758,"lon":139.765124},{"name":"第三上沼田保育園","province":"東京都","city":"足立区","address":"足立区江北7-12-3-101","lat":35.779679,"lon":139.763471},{"name":"江北保育園","province":"東京都","city":"足立区","address":"足立区江北3-17-4","lat":35.773624,"lon":139.761674},{"name":"さつき保育園","province":"東京都","city":"足立区","address":"足立区江北1-15-3-103","lat":35.768167,"lon":139.768043},{"name":"興本保育園","province":"東京都","city":"足立区","address":"足立区扇3丁目24番14号","lat":35.773713,"lon":139.773226},{"name":"扇こころ保育園","province":"東京都","city":"足立区","address":"足立区扇1-22-28","lat":35.764081,"lon":139.773068}]}