{"keyword":"再生","data":[{"name":"(株)要興業  千住リサイクルセンター","province":"東京都","city":"足立区","address":"足立区千住桜木2-18-11","lat":35.755093,"lon":139.783585},{"name":"(有)古橋商事","province":"東京都","city":"足立区","address":"足立区梅田4-27-16","lat":35.761623,"lon":139.791046},{"name":"(株)トベ商事  本社作業所","province":"東京都","city":"足立区","address":"足立区入谷8-10-29","lat":35.807178,"lon":139.75679},{"name":"(株)やまたけ","province":"東京都","city":"足立区","address":"足立区西新井4-9-1","lat":35.786072,"lon":139.775604},{"name":"丸昭商事(株)","province":"東京都","city":"足立区","address":"足立区南花畑4-27-15","lat":35.798397,"lon":139.817566},{"name":"美濃紙業(株)  本社","province":"東京都","city":"足立区","address":"足立区千住緑町3-18-16","lat":35.747707,"lon":139.791321},{"name":"(株)藁科商店","province":"東京都","city":"足立区","address":"足立区関原3-1-5","lat":35.76981,"lon":139.792023},{"name":"(株)増田商店  足立営業所","province":"東京都","city":"足立区","address":"足立区東和5-2-20","lat":35.774139,"lon":139.836914},{"name":"(株)新井商店  綾瀬営業所","province":"東京都","city":"足立区","address":"足立区北加平町8-26","lat":35.782597,"lon":139.830429},{"name":"(株)新井商店  入谷営業所","province":"東京都","city":"足立区","address":"足立区入谷1-21-2","lat":35.802795,"lon":139.766159},{"name":"(株)丸忠","province":"東京都","city":"足立区","address":"足立区梅田5-27-10","lat":35.771618,"lon":139.793915},{"name":"(有)松沢紙業","province":"東京都","city":"足立区","address":"足立区保塚町6-4","lat":35.784821,"lon":139.816071},{"name":"(株)長岡商店  舎人リサイクルセンター","province":"東京都","city":"足立区","address":"足立区舎人1-22-8","lat":35.807774,"lon":139.768005},{"name":"太誠産業(株)  足立工場","province":"東京都","city":"足立区","address":"足立区南花畑4-1-21","lat":35.79422,"lon":139.817627},{"name":"(有)丸保商店","province":"東京都","city":"足立区","address":"足立区竹の塚2-32-17","lat":35.792149,"lon":139.797562},{"name":"(株)カネテツ","province":"東京都","city":"足立区","address":"足立区入谷9-5-10","lat":35.811333,"lon":139.757523},{"name":"グリーンリサイクル(株)","province":"東京都","city":"足立区","address":"足立区宮城1-4-8","lat":35.756783,"lon":139.753845},{"name":"(株)フクズミ","province":"東京都","city":"足立区","address":"足立区本木1-5-19","lat":35.762749,"lon":139.787262},{"name":"(有)つるや商店","province":"東京都","city":"足立区","address":"足立区中川4-14-6","lat":35.773075,"lon":139.845123},{"name":"(株)要興業  鹿浜リサイクルセンター","province":"東京都","city":"足立区","address":"足立区堀之内1-14-15","lat":35.776268,"lon":139.752243},{"name":"(株)要興業  入谷リサイクルセンター","province":"東京都","city":"足立区","address":"足立区入谷9-28-20","lat":35.807976,"lon":139.754227},{"name":"(株)トベ商事  第7作業所","province":"東京都","city":"足立区","address":"足立区入谷3-11-8","lat":35.811497,"lon":139.759598},{"name":"(株)トベ商事  第8作業所","province":"東京都","city":"足立区","address":"足立区入谷9-4-5","lat":35.811424,"lon":139.758392},{"name":"(株)阿部商店","province":"東京都","city":"足立区","address":"足立区柳原1-34-15","lat":35.744427,"lon":139.813644},{"name":"(株)遠藤商店","province":"東京都","city":"足立区","address":"足立区花畑1-14-1","lat":35.799843,"lon":139.812347},{"name":"石崎商店(株)  梅田工場","province":"東京都","city":"足立区","address":"足立区梅田3-20-8","lat":35.764782,"lon":139.797729},{"name":"桜サービス(株)","province":"東京都","city":"足立区","address":"足立区皿沼3-16-11","lat":35.793365,"lon":139.764557},{"name":"(株)トベ商事  第4作業所","province":"東京都","city":"足立区","address":"足立区入谷8-6-7","lat":35.80555,"lon":139.756317},{"name":"(株)丸十商店","province":"東京都","city":"足立区","address":"足立区本木2-10-1","lat":35.764347,"lon":139.785202},{"name":"美濃紙業(株)  千住東営業所","province":"東京都","city":"足立区","address":"足立区千住東2-23-23","lat":35.746174,"lon":139.81044},{"name":"(株)丸豊","province":"東京都","city":"足立区","address":"足立区入谷8-9-8","lat":35.80777,"lon":139.75795},{"name":"中村商店","province":"東京都","city":"足立区","address":"足立区綾瀬3-27-7","lat":35.764851,"lon":139.828857},{"name":"(株)東京クリアセンター  リサイクル事業所","province":"東京都","city":"足立区","address":"足立区入谷7-12-22","lat":35.801933,"lon":139.757919},{"name":"(株)トベ商事  第3作業所","province":"東京都","city":"足立区","address":"足立区入谷3-11-12","lat":35.811497,"lon":139.759598},{"name":"(有)鳥山商店","province":"東京都","city":"足立区","address":"足立区梅田3-24-4","lat":35.764477,"lon":139.796753},{"name":"(有)澤村紙業","province":"東京都","city":"足立区","address":"足立区入谷7-22-20","lat":35.796844,"lon":139.760803},{"name":"日本衛生(株)","province":"東京都","city":"足立区","address":"足立区入谷9-7-9","lat":35.809555,"lon":139.757309},{"name":"(有)丸保紙業","province":"東京都","city":"足立区","address":"足立区椿1-2-1","lat":35.777325,"lon":139.758621},{"name":"(株)斎藤商店  梅田営業所","province":"東京都","city":"足立区","address":"足立区梅田6-7-10","lat":35.767891,"lon":139.798508},{"name":"(株)利根川産業  入谷工場","province":"東京都","city":"足立区","address":"足立区入谷8-3-22","lat":35.805546,"lon":139.758591},{"name":"(株)那須商会  第二工場","province":"東京都","city":"足立区","address":"足立区入谷7-22-5","lat":35.796844,"lon":139.760803},{"name":"(株)長村紙業","province":"東京都","city":"足立区","address":"足立区千住東1-11-7","lat":35.743896,"lon":139.803513},{"name":"近藤商店","province":"東京都","city":"足立区","address":"足立区西新井4-40-11","lat":35.789562,"lon":139.772537},{"name":"(株)ヨシモリ  本社","province":"東京都","city":"足立区","address":"足立区関原1-12-2","lat":35.763634,"lon":139.789169},{"name":"(株)首都圏環境美化センター","province":"東京都","city":"足立区","address":"足立区入谷9-21-19","lat":35.810547,"lon":139.752136},{"name":"(株)東京クリアセンター  リサイクルセンター","province":"東京都","city":"足立区","address":"足立区入谷7-12-12","lat":35.801933,"lon":139.757919},{"name":"(株)協栄清水商店  鹿浜リサイクルセンター","province":"東京都","city":"足立区","address":"足立区鹿浜2-27-16","lat":35.781796,"lon":139.750793},{"name":"(株)遠藤商店  足立エコセンター","province":"東京都","city":"足立区","address":"足立区入谷8-9-1","lat":35.80777,"lon":139.75795},{"name":"(株)トベ商事  第5作業所","province":"東京都","city":"足立区","address":"足立区入谷8-12-4","lat":35.805851,"lon":139.754486},{"name":"丸澤金属(株)","province":"東京都","city":"足立区","address":"足立区栗原3-27-4","lat":35.781883,"lon":139.786011},{"name":"大谷清運(株)  リサイクルプラントリボーン","province":"東京都","city":"足立区","address":"足立区入谷9-4-13","lat":35.811424,"lon":139.758392}]}