{"keyword":"初動","data":[{"name":"第六方面交通機動隊","province":"東京都","city":"足立区","address":"足立区小台1-4-4","lat":35.75625,"lon":139.7636},{"name":"綾瀬警察署","province":"東京都","city":"足立区","address":"足立区谷中4-1-24","lat":35.77787,"lon":139.8307},{"name":"千住警察署","province":"東京都","city":"足立区","address":"足立区千住1-38-1","lat":35.747,"lon":139.8034},{"name":"西新井警察署","province":"東京都","city":"足立区","address":"足立区西新井栄町1-16-1","lat":35.77349,"lon":139.7892},{"name":"竹の塚警察署","province":"東京都","city":"足立区","address":"足立区保木間1-16-4","lat":35.790982,"lon":139.802995},{"name":"足立消防署","province":"東京都","city":"足立区","address":"足立区梅島2-1-1","lat":35.77497,"lon":139.803},{"name":"千住消防署","province":"東京都","city":"足立区","address":"足立区千住中居町9-14","lat":35.74892,"lon":139.7986},{"name":"西新井消防署","province":"東京都","city":"足立区","address":"足立区伊興2-5-11","lat":35.79099,"lon":139.7795},{"name":"足立区","province":"東京都","city":"足立区","address":"足立区綾瀬2-23-7","lat":35.76156,"lon":139.8273},{"name":"（株）星医療酸器","province":"東京都","city":"足立区","address":"足立区入谷7-11-12","lat":35.80253,"lon":139.7583}]}