{"keyword":"区","data":[{"name":"足立保健所（生活衛生課）","province":"東京都","city":"足立区","address":"足立区中央本町1-5-3","lat":35.771103,"lon":139.803976},{"name":"足立保健所（保健予防課）","province":"東京都","city":"足立区","address":"足立区中央本町1-17-1","lat":35.774892,"lon":139.804584},{"name":"足立保健所（中央本町地域・保健総合支援課）","province":"東京都","city":"足立区","address":"足立区中央本町1-5-3","lat":35.771103,"lon":139.803976},{"name":"竹の塚保健センター","province":"東京都","city":"足立区","address":"足立区西竹の塚1-11-2エミエルタワー竹の塚2階","lat":35.79352,"lon":139.789671},{"name":"江北保健センター","province":"東京都","city":"足立区","address":"足立区西新井本町2-30-40","lat":35.775921,"lon":139.771665},{"name":"千住保健センター","province":"東京都","city":"足立区","address":"足立区千住仲町19-3","lat":35.746346,"lon":139.801617},{"name":"東部保健センター","province":"東京都","city":"足立区","address":"足立区大谷田3-11-13","lat":35.779467,"lon":139.842459},{"name":"足立保健所（衛生試験所）","province":"東京都","city":"足立区","address":"足立区中央本町1-5-3","lat":35.771103,"lon":139.803976},{"name":"足立保健所（生活衛生課）","province":"東京都","city":"足立区","address":"東京都足立区中央本町1丁目5-3","lat":35.77107006,"lon":139.80388997},{"name":"足立保健所（感染症対策課）","province":"東京都","city":"足立区","address":"東京都足立区中央本町1丁目5-3","lat":35.77107006,"lon":139.80388997},{"name":"足立保健所（中央本町地域・保健総合支援課）","province":"東京都","city":"足立区","address":"東京都足立区中央本町1丁目5-3","lat":35.77107006,"lon":139.80388997},{"name":"足立保健所（衛生試験所）","province":"東京都","city":"足立区","address":"東京都足立区中央本町1丁目5-3","lat":35.77107006,"lon":139.80388997},{"name":"竹の塚保健センター","province":"東京都","city":"足立区","address":"東京都足立区西竹の塚1丁目11-2","lat":35.79335326,"lon":139.78973472},{"name":"江北保健センター","province":"東京都","city":"足立区","address":"東京都足立区西新井本町2丁目30-40","lat":35.77600747,"lon":139.77157304},{"name":"千住保健センター","province":"東京都","city":"足立区","address":"東京都足立区千住仲町19-3","lat":35.74632333,"lon":139.80160027},{"name":"東部保健センター","province":"東京都","city":"足立区","address":"東京都足立区大谷田3丁目11-13","lat":35.77948897,"lon":139.84245309},{"name":"足立保健所（生活衛生課）","province":"東京都","city":"足立区","address":"足立区中央本町1-5-3","lat":35.77107,"lon":139.80389},{"name":"足立保健所（感染症対策課）","province":"東京都","city":"足立区","address":"足立区中央本町1-5-3","lat":35.77107,"lon":139.80389},{"name":"足立保健所（中央本町地域・保健総合支援課）","province":"東京都","city":"足立区","address":"足立区中央本町1-5-3","lat":35.77107,"lon":139.80389},{"name":"足立保健所（衛生試験所）","province":"東京都","city":"足立区","address":"足立区中央本町1-5-3","lat":35.77107,"lon":139.80389},{"name":"竹の塚保健センター","province":"東京都","city":"足立区","address":"足立区西竹の塚1-11-2エミエルタワー竹の塚2階","lat":35.79345,"lon":139.78973},{"name":"江北保健センター","province":"東京都","city":"足立区","address":"足立区西新井本町2-30-40","lat":35.77583,"lon":139.77092},{"name":"千住保健センター","province":"東京都","city":"足立区","address":"足立区千住仲町19-3千住庁舎4階","lat":35.74637,"lon":139.80156},{"name":"東部保健センター","province":"東京都","city":"足立区","address":"足立区大谷田3-11-13","lat":35.77939,"lon":139.84218},{"name":"足立保健所（感染症対策課）","province":"東京都","city":"足立区","address":"足立区中央本町1-5-3","lat":35.771079,"lon":139.803906}]}