{"keyword":"収蔵","data":[{"name":"小右衛門給水所","province":"東京都","city":"足立区","address":"東京都足立区中央本町3-8-1","lat":35.7721511,"lon":139.807309},{"name":"区総合スポーツセンター","province":"東京都","city":"足立区","address":"東京都足立区東保木間2-27-1","lat":35.791311,"lon":139.8140941},{"name":"区立千住スポーツ公園","province":"東京都","city":"足立区","address":"東京都足立区千住緑町2-1-1","lat":35.7440262,"lon":139.7951426},{"name":"区立諏訪木東公園","province":"東京都","city":"足立区","address":"東京都足立区西新井3-25","lat":35.7899898,"lon":139.779992},{"name":"区立大谷田南公園","province":"東京都","city":"足立区","address":"東京都足立区中川4-42-1","lat":35.7721532,"lon":139.8493937},{"name":"区立北鹿浜公園","province":"東京都","city":"足立区","address":"東京都足立区鹿浜3-26","lat":35.7821245,"lon":139.7536455},{"name":"都立舎人公園","province":"東京都","city":"足立区","address":"東京都足立区舎人公園1-1","lat":35.7967372,"lon":139.7681512},{"name":"区立北宮城町公園","province":"東京都","city":"足立区","address":"東京都足立区扇2-37-1","lat":35.7669098,"lon":139.7702},{"name":"江北給水所","province":"東京都","city":"足立区","address":"東京都足立区江北5-5","lat":35.77803,"lon":139.76945},{"name":"医療法人社団成和会西新井病院","province":"東京都","city":"足立区","address":"東京都足立区西新井本町5丁目7-14","lat":35.77566892,"lon":139.78197215},{"name":"苑田第一病院","province":"東京都","city":"足立区","address":"東京都足立区竹の塚4丁目1-12","lat":35.79351749,"lon":139.80198649},{"name":"博慈会記念総合病院","province":"東京都","city":"足立区","address":"東京都足立区鹿浜5丁目11-1","lat":35.78496118,"lon":139.74944417},{"name":"板橋給水所","province":"東京都","city":"足立区","address":"東京都足立区加賀1丁目17-1","lat":35.78938603,"lon":139.75898755},{"name":"小右衛門給水所","province":"東京都","city":"足立区","address":"東京都足立区中央本町3丁目8-1","lat":35.77219224,"lon":139.80734518},{"name":"区総合スポーツセンター","province":"東京都","city":"足立区","address":"東京都足立区東保木間2丁目27-1","lat":35.79222061,"lon":139.81364669},{"name":"区立千住スポーツ公園","province":"東京都","city":"足立区","address":"東京都足立区千住緑町2丁目1-1","lat":35.74518999,"lon":139.79567026},{"name":"区立諏訪木東公園","province":"東京都","city":"足立区","address":"東京都足立区西新井3丁目25","lat":35.78998665,"lon":139.77999121},{"name":"区立大谷田南公園","province":"東京都","city":"足立区","address":"東京都足立区中川4丁目42-1","lat":35.7717206,"lon":139.84821396},{"name":"区立北鹿浜公園","province":"東京都","city":"足立区","address":"東京都足立区鹿浜3丁目26","lat":35.78240338,"lon":139.75411604},{"name":"都立舎人公園","province":"東京都","city":"足立区","address":"東京都足立区舎人公園1-1","lat":35.79709935,"lon":139.76835863},{"name":"西新井病院","province":"東京都","city":"足立区","address":"東京都足立区西新井本町5丁目7-14","lat":35.77566892,"lon":139.78197215},{"name":"足立トラックターミナル","province":"東京都","city":"足立区","address":"東京都足立区入谷6丁目1-1","lat":35.79902128,"lon":139.7665504},{"name":"足立区立千住新橋グラウンド（虹の広場）","province":"東京都","city":"足立区","address":"東京都足立区千住5丁目22","lat":35.75549987,"lon":139.8057852},{"name":"荒川西新井橋緑地グラウンド","province":"東京都","city":"足立区","address":"東京都足立区梅田3丁目5","lat":35.76227094,"lon":139.79617997},{"name":"都立東綾瀬公園東側野球場","province":"東京都","city":"足立区","address":"東京都足立区東綾瀬3丁目4","lat":35.77023453,"lon":139.83256528},{"name":"都立東綾瀬公園西側野球場","province":"東京都","city":"足立区","address":"東京都足立区綾瀬6丁目37","lat":35.77132878,"lon":139.82859614},{"name":"足立区立谷中公園野球場","province":"東京都","city":"足立区","address":"東京都足立区谷中2丁目23-36","lat":35.77618936,"lon":139.83499544},{"name":"足立区立平野運動場","province":"東京都","city":"足立区","address":"東京都足立区平野2丁目12-1","lat":35.78418247,"lon":139.80431995},{"name":"都立舎人公園管理事務所空地","province":"東京都","city":"足立区","address":"東京都足立区舎人公園","lat":35.79704103,"lon":139.76834198},{"name":"都立舎人公園陸上競技場","province":"東京都","city":"足立区","address":"東京都足立区舎人公園","lat":35.79704103,"lon":139.76834198},{"name":"都立舎人公園野球場","province":"東京都","city":"足立区","address":"東京都足立区舎人公園","lat":35.79704103,"lon":139.76834198},{"name":"足立区立保木間公園","province":"東京都","city":"足立区","address":"東京都足立区竹の塚","lat":35.79213976,"lon":139.79757301},{"name":"総合スポーツセンター","province":"東京都","city":"足立区","address":"東京都足立区東保木間","lat":35.79359268,"lon":139.81228565},{"name":"足立トラックターミナル","province":"東京都","city":"足立区","address":"東京都足立区入谷6丁目1-1","lat":35.79902128,"lon":139.7665504},{"name":"足立区","province":"東京都","city":"足立区","address":"足立区綾瀬2-23-7","lat":35.76156,"lon":139.8273},{"name":"（株）星医療酸器","province":"東京都","city":"足立区","address":"足立区入谷7-11-12","lat":35.80253,"lon":139.7583},{"name":"小右衛門給水所","province":"東京都","city":"足立区","address":"東京都足立区中央本町3-8-1","lat":35.7721511,"lon":139.807309},{"name":"区総合スポーツセンター","province":"東京都","city":"足立区","address":"東京都足立区東保木間2-27-1","lat":35.791311,"lon":139.8140941},{"name":"区立千住スポーツ公園","province":"東京都","city":"足立区","address":"東京都足立区千住緑町2-1-1","lat":35.7440262,"lon":139.7951426},{"name":"区立諏訪木東公園","province":"東京都","city":"足立区","address":"東京都足立区西新井3-25","lat":35.7899898,"lon":139.779992},{"name":"区立大谷田南公園","province":"東京都","city":"足立区","address":"東京都足立区中川4-42-1","lat":35.7721532,"lon":139.8493937},{"name":"区立北鹿浜公園","province":"東京都","city":"足立区","address":"東京都足立区鹿浜3-26","lat":35.7821245,"lon":139.7536455},{"name":"都立舎人公園","province":"東京都","city":"足立区","address":"東京都足立区舎人公園1-1","lat":35.7967372,"lon":139.7681512},{"name":"区立北宮城町公園","province":"東京都","city":"足立区","address":"東京都足立区扇2-37-1","lat":35.7669098,"lon":139.7702},{"name":"江北給水所","province":"東京都","city":"足立区","address":"東京都足立区江北5-5","lat":35.77803,"lon":139.76945},{"name":"医療法人社団成和会西新井病院","province":"東京都","city":"足立区","address":"東京都足立区西新井本町5丁目7-14","lat":35.77566892,"lon":139.78197215},{"name":"苑田第一病院","province":"東京都","city":"足立区","address":"東京都足立区竹の塚4丁目1-12","lat":35.79351749,"lon":139.80198649},{"name":"博慈会記念総合病院","province":"東京都","city":"足立区","address":"東京都足立区鹿浜5丁目11-1","lat":35.78496118,"lon":139.74944417},{"name":"板橋給水所","province":"東京都","city":"足立区","address":"東京都足立区加賀1丁目17-1","lat":35.78938603,"lon":139.75898755},{"name":"小右衛門給水所","province":"東京都","city":"足立区","address":"東京都足立区中央本町3丁目8-1","lat":35.77219224,"lon":139.80734518},{"name":"区総合スポーツセンター","province":"東京都","city":"足立区","address":"東京都足立区東保木間2丁目27-1","lat":35.79222061,"lon":139.81364669},{"name":"区立千住スポーツ公園","province":"東京都","city":"足立区","address":"東京都足立区千住緑町2丁目1-1","lat":35.74518999,"lon":139.79567026},{"name":"区立諏訪木東公園","province":"東京都","city":"足立区","address":"東京都足立区西新井3丁目25","lat":35.78998665,"lon":139.77999121},{"name":"区立大谷田南公園","province":"東京都","city":"足立区","address":"東京都足立区中川4丁目42-1","lat":35.7717206,"lon":139.84821396},{"name":"区立北鹿浜公園","province":"東京都","city":"足立区","address":"東京都足立区鹿浜3丁目26","lat":35.78240338,"lon":139.75411604},{"name":"都立舎人公園","province":"東京都","city":"足立区","address":"東京都足立区舎人公園1-1","lat":35.79709935,"lon":139.76835863},{"name":"西新井病院","province":"東京都","city":"足立区","address":"東京都足立区西新井本町5丁目7-14","lat":35.77566892,"lon":139.78197215},{"name":"足立区立千住新橋グラウンド（虹の広場）","province":"東京都","city":"足立区","address":"東京都足立区千住5丁目22","lat":35.75549987,"lon":139.8057852},{"name":"荒川西新井橋緑地グラウンド","province":"東京都","city":"足立区","address":"東京都足立区梅田3丁目5","lat":35.76227094,"lon":139.79617997},{"name":"都立東綾瀬公園東側野球場","province":"東京都","city":"足立区","address":"東京都足立区東綾瀬3丁目4","lat":35.77023453,"lon":139.83256528},{"name":"都立東綾瀬公園西側野球場","province":"東京都","city":"足立区","address":"東京都足立区綾瀬6丁目37","lat":35.77132878,"lon":139.82859614},{"name":"足立区立谷中公園野球場","province":"東京都","city":"足立区","address":"東京都足立区谷中2丁目23-36","lat":35.77618936,"lon":139.83499544},{"name":"足立区立平野運動場","province":"東京都","city":"足立区","address":"東京都足立区平野2丁目12-1","lat":35.78418247,"lon":139.80431995},{"name":"都立舎人公園管理事務所空地","province":"東京都","city":"足立区","address":"東京都足立区舎人公園","lat":35.79704103,"lon":139.76834198},{"name":"都立舎人公園陸上競技場","province":"東京都","city":"足立区","address":"東京都足立区舎人公園","lat":35.79704103,"lon":139.76834198},{"name":"都立舎人公園野球場","province":"東京都","city":"足立区","address":"東京都足立区舎人公園","lat":35.79704103,"lon":139.76834198},{"name":"足立区立保木間公園","province":"東京都","city":"足立区","address":"東京都足立区竹の塚","lat":35.79213976,"lon":139.79757301},{"name":"総合スポーツセンター","province":"東京都","city":"足立区","address":"東京都足立区東保木間","lat":35.79359268,"lon":139.81228565},{"name":"足立区","province":"東京都","city":"足立区","address":"足立区綾瀬2-23-7","lat":35.76156,"lon":139.8273},{"name":"（株）星医療酸器","province":"東京都","city":"足立区","address":"足立区入谷7-11-12","lat":35.80253,"lon":139.7583},{"name":"小右衛門給水所","province":"東京都","city":"足立区","address":"東京都足立区中央本町3-8-1","lat":35.7721511,"lon":139.807309},{"name":"区総合スポーツセンター","province":"東京都","city":"足立区","address":"東京都足立区東保木間2-27-1","lat":35.791311,"lon":139.8140941},{"name":"区立千住スポーツ公園","province":"東京都","city":"足立区","address":"東京都足立区千住緑町2-1-1","lat":35.7440262,"lon":139.7951426},{"name":"区立諏訪木東公園","province":"東京都","city":"足立区","address":"東京都足立区西新井3-25","lat":35.7899898,"lon":139.779992},{"name":"区立大谷田南公園","province":"東京都","city":"足立区","address":"東京都足立区中川4-42-1","lat":35.7721532,"lon":139.8493937},{"name":"区立北鹿浜公園","province":"東京都","city":"足立区","address":"東京都足立区鹿浜3-26","lat":35.7821245,"lon":139.7536455},{"name":"都立舎人公園","province":"東京都","city":"足立区","address":"東京都足立区舎人公園1-1","lat":35.7967372,"lon":139.7681512},{"name":"区立北宮城町公園","province":"東京都","city":"足立区","address":"東京都足立区扇2-37-1","lat":35.7669098,"lon":139.7702},{"name":"江北給水所","province":"東京都","city":"足立区","address":"東京都足立区江北5-5","lat":35.77803,"lon":139.76945},{"name":"医療法人社団成和会西新井病院","province":"東京都","city":"足立区","address":"東京都足立区西新井本町5丁目7-14","lat":35.77566892,"lon":139.78197215},{"name":"苑田第一病院","province":"東京都","city":"足立区","address":"東京都足立区竹の塚4丁目1-12","lat":35.79351749,"lon":139.80198649},{"name":"博慈会記念総合病院","province":"東京都","city":"足立区","address":"東京都足立区鹿浜5丁目11-1","lat":35.78496118,"lon":139.74944417},{"name":"板橋給水所","province":"東京都","city":"足立区","address":"東京都足立区加賀1丁目17-1","lat":35.78938603,"lon":139.75898755},{"name":"小右衛門給水所","province":"東京都","city":"足立区","address":"東京都足立区中央本町3丁目8-1","lat":35.77219224,"lon":139.80734518},{"name":"区総合スポーツセンター","province":"東京都","city":"足立区","address":"東京都足立区東保木間2丁目27-1","lat":35.79222061,"lon":139.81364669},{"name":"区立千住スポーツ公園","province":"東京都","city":"足立区","address":"東京都足立区千住緑町2丁目1-1","lat":35.74518999,"lon":139.79567026},{"name":"区立諏訪木東公園","province":"東京都","city":"足立区","address":"東京都足立区西新井3丁目25","lat":35.78998665,"lon":139.77999121},{"name":"区立大谷田南公園","province":"東京都","city":"足立区","address":"東京都足立区中川4丁目42-1","lat":35.7717206,"lon":139.84821396},{"name":"区立北鹿浜公園","province":"東京都","city":"足立区","address":"東京都足立区鹿浜3丁目26","lat":35.78240338,"lon":139.75411604},{"name":"都立舎人公園","province":"東京都","city":"足立区","address":"東京都足立区舎人公園1-1","lat":35.79709935,"lon":139.76835863},{"name":"西新井病院","province":"東京都","city":"足立区","address":"東京都足立区西新井本町5丁目7-14","lat":35.77566892,"lon":139.78197215},{"name":"足立区立千住新橋グラウンド（虹の広場）","province":"東京都","city":"足立区","address":"東京都足立区千住5丁目22","lat":35.75549987,"lon":139.8057852},{"name":"荒川西新井橋緑地グラウンド","province":"東京都","city":"足立区","address":"東京都足立区梅田3丁目5","lat":35.76227094,"lon":139.79617997},{"name":"都立東綾瀬公園東側野球場","province":"東京都","city":"足立区","address":"東京都足立区東綾瀬3丁目4","lat":35.77023453,"lon":139.83256528},{"name":"都立東綾瀬公園西側野球場","province":"東京都","city":"足立区","address":"東京都足立区綾瀬6丁目37","lat":35.77132878,"lon":139.82859614},{"name":"足立区立谷中公園野球場","province":"東京都","city":"足立区","address":"東京都足立区谷中2丁目23-36","lat":35.77618936,"lon":139.83499544},{"name":"足立区立平野運動場","province":"東京都","city":"足立区","address":"東京都足立区平野2丁目12-1","lat":35.78418247,"lon":139.80431995},{"name":"都立舎人公園管理事務所空地","province":"東京都","city":"足立区","address":"東京都足立区舎人公園","lat":35.79704103,"lon":139.76834198},{"name":"都立舎人公園陸上競技場","province":"東京都","city":"足立区","address":"東京都足立区舎人公園","lat":35.79704103,"lon":139.76834198},{"name":"都立舎人公園野球場","province":"東京都","city":"足立区","address":"東京都足立区舎人公園","lat":35.79704103,"lon":139.76834198},{"name":"足立区立保木間公園","province":"東京都","city":"足立区","address":"東京都足立区竹の塚","lat":35.79213976,"lon":139.79757301},{"name":"総合スポーツセンター","province":"東京都","city":"足立区","address":"東京都足立区東保木間","lat":35.79359268,"lon":139.81228565},{"name":"足立区","province":"東京都","city":"足立区","address":"足立区綾瀬2-23-7","lat":35.76156,"lon":139.8273},{"name":"（株）星医療酸器","province":"東京都","city":"足立区","address":"足立区入谷7-11-12","lat":35.80253,"lon":139.7583},{"name":"小右衛門給水所","province":"東京都","city":"足立区","address":"東京都足立区中央本町3-8-1","lat":35.7721511,"lon":139.807309},{"name":"区総合スポーツセンター","province":"東京都","city":"足立区","address":"東京都足立区東保木間2-27-1","lat":35.791311,"lon":139.8140941},{"name":"区立千住スポーツ公園","province":"東京都","city":"足立区","address":"東京都足立区千住緑町2-1-1","lat":35.7440262,"lon":139.7951426},{"name":"区立諏訪木東公園","province":"東京都","city":"足立区","address":"東京都足立区西新井3-25","lat":35.7899898,"lon":139.779992},{"name":"区立大谷田南公園","province":"東京都","city":"足立区","address":"東京都足立区中川4-42-1","lat":35.7721532,"lon":139.8493937},{"name":"区立北鹿浜公園","province":"東京都","city":"足立区","address":"東京都足立区鹿浜3-26","lat":35.7821245,"lon":139.7536455},{"name":"都立舎人公園","province":"東京都","city":"足立区","address":"東京都足立区舎人公園1-1","lat":35.7967372,"lon":139.7681512},{"name":"区立北宮城町公園","province":"東京都","city":"足立区","address":"東京都足立区扇2-37-1","lat":35.7669098,"lon":139.7702},{"name":"江北給水所","province":"東京都","city":"足立区","address":"東京都足立区江北5-5","lat":35.77803,"lon":139.76945},{"name":"医療法人社団成和会西新井病院","province":"東京都","city":"足立区","address":"東京都足立区西新井本町5丁目7-14","lat":35.77566892,"lon":139.78197215},{"name":"苑田第一病院","province":"東京都","city":"足立区","address":"東京都足立区竹の塚4丁目1-12","lat":35.79351749,"lon":139.80198649},{"name":"博慈会記念総合病院","province":"東京都","city":"足立区","address":"東京都足立区鹿浜5丁目11-1","lat":35.78496118,"lon":139.74944417},{"name":"西新井病院","province":"東京都","city":"足立区","address":"東京都足立区西新井本町5丁目7-14","lat":35.77566892,"lon":139.78197215},{"name":"足立区立千住新橋グラウンド（虹の広場）","province":"東京都","city":"足立区","address":"東京都足立区千住5丁目22","lat":35.75549987,"lon":139.8057852},{"name":"荒川西新井橋緑地グラウンド","province":"東京都","city":"足立区","address":"東京都足立区梅田3丁目5","lat":35.76227094,"lon":139.79617997},{"name":"都立東綾瀬公園東側野球場","province":"東京都","city":"足立区","address":"東京都足立区東綾瀬3丁目4","lat":35.77023453,"lon":139.83256528},{"name":"都立東綾瀬公園西側野球場","province":"東京都","city":"足立区","address":"東京都足立区綾瀬6丁目37","lat":35.77132878,"lon":139.82859614},{"name":"足立区立谷中公園野球場","province":"東京都","city":"足立区","address":"東京都足立区谷中2丁目23-36","lat":35.77618936,"lon":139.83499544},{"name":"足立区立平野運動場","province":"東京都","city":"足立区","address":"東京都足立区平野2丁目12-1","lat":35.78418247,"lon":139.80431995},{"name":"都立舎人公園管理事務所空地","province":"東京都","city":"足立区","address":"東京都足立区舎人公園","lat":35.79704103,"lon":139.76834198},{"name":"都立舎人公園陸上競技場","province":"東京都","city":"足立区","address":"東京都足立区舎人公園","lat":35.79704103,"lon":139.76834198},{"name":"都立舎人公園野球場","province":"東京都","city":"足立区","address":"東京都足立区舎人公園","lat":35.79704103,"lon":139.76834198},{"name":"足立区立保木間公園","province":"東京都","city":"足立区","address":"東京都足立区竹の塚","lat":35.79213976,"lon":139.79757301},{"name":"総合スポーツセンター","province":"東京都","city":"足立区","address":"東京都足立区東保木間","lat":35.79359268,"lon":139.81228565},{"name":"足立区","province":"東京都","city":"足立区","address":"足立区綾瀬2-23-7","lat":35.76156,"lon":139.8273},{"name":"（株）星医療酸器","province":"東京都","city":"足立区","address":"足立区入谷7-11-12","lat":35.80253,"lon":139.7583},{"name":"小右衛門給水所","province":"東京都","city":"足立区","address":"東京都足立区中央本町3-8-1","lat":35.7721511,"lon":139.807309},{"name":"区総合スポーツセンター","province":"東京都","city":"足立区","address":"東京都足立区東保木間2-27-1","lat":35.791311,"lon":139.8140941},{"name":"区立千住スポーツ公園","province":"東京都","city":"足立区","address":"東京都足立区千住緑町2-1-1","lat":35.7440262,"lon":139.7951426},{"name":"区立諏訪木東公園","province":"東京都","city":"足立区","address":"東京都足立区西新井3-25","lat":35.7899898,"lon":139.779992},{"name":"区立大谷田南公園","province":"東京都","city":"足立区","address":"東京都足立区中川4-42-1","lat":35.7721532,"lon":139.8493937},{"name":"区立北鹿浜公園","province":"東京都","city":"足立区","address":"東京都足立区鹿浜3-26","lat":35.7821245,"lon":139.7536455},{"name":"都立舎人公園","province":"東京都","city":"足立区","address":"東京都足立区舎人公園1-1","lat":35.7967372,"lon":139.7681512},{"name":"区立北宮城町公園","province":"東京都","city":"足立区","address":"東京都足立区扇2-37-1","lat":35.7669098,"lon":139.7702},{"name":"江北給水所","province":"東京都","city":"足立区","address":"東京都足立区江北5-5","lat":35.77803,"lon":139.76945},{"name":"医療法人社団成和会西新井病院","province":"東京都","city":"足立区","address":"東京都足立区西新井本町5丁目7-14","lat":35.77566892,"lon":139.78197215},{"name":"苑田第一病院","province":"東京都","city":"足立区","address":"東京都足立区竹の塚4丁目1-12","lat":35.79351749,"lon":139.80198649},{"name":"博慈会記念総合病院","province":"東京都","city":"足立区","address":"東京都足立区鹿浜5丁目11-1","lat":35.78496118,"lon":139.74944417},{"name":"西新井病院","province":"東京都","city":"足立区","address":"東京都足立区西新井本町5丁目7-14","lat":35.77566892,"lon":139.78197215},{"name":"足立区","province":"東京都","city":"足立区","address":"足立区綾瀬2-23-7","lat":35.76156,"lon":139.8273},{"name":"（株）星医療酸器","province":"東京都","city":"足立区","address":"足立区入谷7-11-12","lat":35.80253,"lon":139.7583},{"name":"小右衛門給水所","province":"東京都","city":"足立区","address":"東京都足立区中央本町3-8-1","lat":35.7721511,"lon":139.807309},{"name":"区総合スポーツセンター","province":"東京都","city":"足立区","address":"東京都足立区東保木間2-27-1","lat":35.791311,"lon":139.8140941},{"name":"区立千住スポーツ公園","province":"東京都","city":"足立区","address":"東京都足立区千住緑町2-1-1","lat":35.7440262,"lon":139.7951426},{"name":"区立諏訪木東公園","province":"東京都","city":"足立区","address":"東京都足立区西新井3-25","lat":35.7899898,"lon":139.779992},{"name":"区立大谷田南公園","province":"東京都","city":"足立区","address":"東京都足立区中川4-42-1","lat":35.7721532,"lon":139.8493937},{"name":"区立北鹿浜公園","province":"東京都","city":"足立区","address":"東京都足立区鹿浜3-26","lat":35.7821245,"lon":139.7536455},{"name":"都立舎人公園","province":"東京都","city":"足立区","address":"東京都足立区舎人公園1-1","lat":35.7967372,"lon":139.7681512},{"name":"区立北宮城町公園","province":"東京都","city":"足立区","address":"東京都足立区扇2-37-1","lat":35.7669098,"lon":139.7702},{"name":"江北給水所","province":"東京都","city":"足立区","address":"東京都足立区江北5-5","lat":35.77803,"lon":139.76945},{"name":"医療法人社団成和会西新井病院","province":"東京都","city":"足立区","address":"東京都足立区西新井本町5丁目7-14","lat":35.77566892,"lon":139.78197215},{"name":"苑田第一病院","province":"東京都","city":"足立区","address":"東京都足立区竹の塚4丁目1-12","lat":35.79351749,"lon":139.80198649},{"name":"博慈会記念総合病院","province":"東京都","city":"足立区","address":"東京都足立区鹿浜5丁目11-1","lat":35.78496118,"lon":139.74944417},{"name":"西新井病院","province":"東京都","city":"足立区","address":"東京都足立区西新井本町5丁目7-14","lat":35.77566892,"lon":139.78197215},{"name":"足立区","province":"東京都","city":"足立区","address":"足立区綾瀬2-23-7","lat":35.76156,"lon":139.8273},{"name":"（株）星医療酸器","province":"東京都","city":"足立区","address":"足立区入谷7-11-12","lat":35.80253,"lon":139.7583},{"name":"小右衛門給水所","province":"東京都","city":"足立区","address":"東京都足立区中央本町3-8-1","lat":35.7721511,"lon":139.807309},{"name":"区総合スポーツセンター","province":"東京都","city":"足立区","address":"東京都足立区東保木間2-27-1","lat":35.791311,"lon":139.8140941},{"name":"区立千住スポーツ公園","province":"東京都","city":"足立区","address":"東京都足立区千住緑町2-1-1","lat":35.7440262,"lon":139.7951426},{"name":"区立諏訪木東公園","province":"東京都","city":"足立区","address":"東京都足立区西新井3-25","lat":35.7899898,"lon":139.779992},{"name":"区立大谷田南公園","province":"東京都","city":"足立区","address":"東京都足立区中川4-42-1","lat":35.7721532,"lon":139.8493937},{"name":"区立北鹿浜公園","province":"東京都","city":"足立区","address":"東京都足立区鹿浜3-26","lat":35.7821245,"lon":139.7536455},{"name":"都立舎人公園","province":"東京都","city":"足立区","address":"東京都足立区舎人公園1-1","lat":35.7967372,"lon":139.7681512},{"name":"区立北宮城町公園","province":"東京都","city":"足立区","address":"東京都足立区扇2-37-1","lat":35.7669098,"lon":139.7702},{"name":"江北給水所","province":"東京都","city":"足立区","address":"東京都足立区江北5-5","lat":35.77803,"lon":139.76945},{"name":"医療法人社団成和会西新井病院","province":"東京都","city":"足立区","address":"東京都足立区西新井本町5丁目7-14","lat":35.77566892,"lon":139.78197215},{"name":"苑田第一病院","province":"東京都","city":"足立区","address":"東京都足立区竹の塚4丁目1-12","lat":35.79351749,"lon":139.80198649},{"name":"博慈会記念総合病院","province":"東京都","city":"足立区","address":"東京都足立区鹿浜5丁目11-1","lat":35.78496118,"lon":139.74944417},{"name":"西新井病院","province":"東京都","city":"足立区","address":"東京都足立区西新井本町5丁目7-14","lat":35.77566892,"lon":139.78197215},{"name":"足立区","province":"東京都","city":"足立区","address":"足立区綾瀬2-23-7","lat":35.76156,"lon":139.8273},{"name":"（株）星医療酸器","province":"東京都","city":"足立区","address":"足立区入谷7-11-12","lat":35.80253,"lon":139.7583},{"name":"小右衛門給水所","province":"東京都","city":"足立区","address":"東京都足立区中央本町3-8-1","lat":35.7721511,"lon":139.807309},{"name":"区総合スポーツセンター","province":"東京都","city":"足立区","address":"東京都足立区東保木間2-27-1","lat":35.791311,"lon":139.8140941},{"name":"区立千住スポーツ公園","province":"東京都","city":"足立区","address":"東京都足立区千住緑町2-1-1","lat":35.7440262,"lon":139.7951426},{"name":"区立諏訪木東公園","province":"東京都","city":"足立区","address":"東京都足立区西新井3-25","lat":35.7899898,"lon":139.779992},{"name":"区立大谷田南公園","province":"東京都","city":"足立区","address":"東京都足立区中川4-42-1","lat":35.7721532,"lon":139.8493937},{"name":"区立北鹿浜公園","province":"東京都","city":"足立区","address":"東京都足立区鹿浜3-26","lat":35.7821245,"lon":139.7536455},{"name":"都立舎人公園","province":"東京都","city":"足立区","address":"東京都足立区舎人公園1-1","lat":35.7967372,"lon":139.7681512},{"name":"区立北宮城町公園","province":"東京都","city":"足立区","address":"東京都足立区扇2-37-1","lat":35.7669098,"lon":139.7702},{"name":"江北給水所","province":"東京都","city":"足立区","address":"東京都足立区江北5-5","lat":35.77803,"lon":139.76945},{"name":"医療法人社団成和会西新井病院","province":"東京都","city":"足立区","address":"東京都足立区西新井本町5丁目7-14","lat":35.77566892,"lon":139.78197215},{"name":"苑田第一病院","province":"東京都","city":"足立区","address":"東京都足立区竹の塚4丁目1-12","lat":35.79351749,"lon":139.80198649},{"name":"博慈会記念総合病院","province":"東京都","city":"足立区","address":"東京都足立区鹿浜5丁目11-1","lat":35.78496118,"lon":139.74944417},{"name":"西新井病院","province":"東京都","city":"足立区","address":"東京都足立区西新井本町5丁目7-14","lat":35.77566892,"lon":139.78197215},{"name":"足立区","province":"東京都","city":"足立区","address":"足立区綾瀬2-23-7","lat":35.76156,"lon":139.8273},{"name":"（株）星医療酸器","province":"東京都","city":"足立区","address":"足立区入谷7-11-12","lat":35.80253,"lon":139.7583},{"name":"小右衛門給水所","province":"東京都","city":"足立区","address":"東京都足立区中央本町3-8-1","lat":35.7721511,"lon":139.807309},{"name":"区総合スポーツセンター","province":"東京都","city":"足立区","address":"東京都足立区東保木間2-27-1","lat":35.791311,"lon":139.8140941},{"name":"区立千住スポーツ公園","province":"東京都","city":"足立区","address":"東京都足立区千住緑町2-1-1","lat":35.7440262,"lon":139.7951426},{"name":"区立諏訪木東公園","province":"東京都","city":"足立区","address":"東京都足立区西新井3-25","lat":35.7899898,"lon":139.779992},{"name":"区立大谷田南公園","province":"東京都","city":"足立区","address":"東京都足立区中川4-42-1","lat":35.7721532,"lon":139.8493937},{"name":"区立北鹿浜公園","province":"東京都","city":"足立区","address":"東京都足立区鹿浜3-26","lat":35.7821245,"lon":139.7536455},{"name":"都立舎人公園","province":"東京都","city":"足立区","address":"東京都足立区舎人公園1-1","lat":35.7967372,"lon":139.7681512},{"name":"区立北宮城町公園","province":"東京都","city":"足立区","address":"東京都足立区扇2-37-1","lat":35.7669098,"lon":139.7702},{"name":"江北給水所","province":"東京都","city":"足立区","address":"東京都足立区江北5-5","lat":35.77803,"lon":139.76945},{"name":"医療法人社団成和会西新井病院","province":"東京都","city":"足立区","address":"東京都足立区西新井本町5丁目7-14","lat":35.77566892,"lon":139.78197215},{"name":"苑田第一病院","province":"東京都","city":"足立区","address":"東京都足立区竹の塚4丁目1-12","lat":35.79351749,"lon":139.80198649},{"name":"博慈会記念総合病院","province":"東京都","city":"足立区","address":"東京都足立区鹿浜5丁目11-1","lat":35.78496118,"lon":139.74944417},{"name":"西新井病院","province":"東京都","city":"足立区","address":"東京都足立区西新井本町5丁目7-14","lat":35.77566892,"lon":139.78197215},{"name":"足立区","province":"東京都","city":"足立区","address":"足立区綾瀬2-23-7","lat":35.76156,"lon":139.8273},{"name":"（株）星医療酸器","province":"東京都","city":"足立区","address":"足立区入谷7-11-12","lat":35.80253,"lon":139.7583},{"name":"小右衛門給水所","province":"東京都","city":"足立区","address":"東京都足立区中央本町3-8-1","lat":35.7721511,"lon":139.807309},{"name":"区総合スポーツセンター","province":"東京都","city":"足立区","address":"東京都足立区東保木間2-27-1","lat":35.791311,"lon":139.8140941},{"name":"区立千住スポーツ公園","province":"東京都","city":"足立区","address":"東京都足立区千住緑町2-1-1","lat":35.7440262,"lon":139.7951426},{"name":"区立諏訪木東公園","province":"東京都","city":"足立区","address":"東京都足立区西新井3-25","lat":35.7899898,"lon":139.779992},{"name":"区立大谷田南公園","province":"東京都","city":"足立区","address":"東京都足立区中川4-42-1","lat":35.7721532,"lon":139.8493937},{"name":"区立北鹿浜公園","province":"東京都","city":"足立区","address":"東京都足立区鹿浜3-26","lat":35.7821245,"lon":139.7536455},{"name":"都立舎人公園","province":"東京都","city":"足立区","address":"東京都足立区舎人公園1-1","lat":35.7967372,"lon":139.7681512},{"name":"区立北宮城町公園","province":"東京都","city":"足立区","address":"東京都足立区扇2-37-1","lat":35.7669098,"lon":139.7702},{"name":"江北給水所","province":"東京都","city":"足立区","address":"東京都足立区江北5-5","lat":35.77803,"lon":139.76945},{"name":"医療法人社団成和会西新井病院","province":"東京都","city":"足立区","address":"東京都足立区西新井本町5丁目7-14","lat":35.77566892,"lon":139.78197215},{"name":"苑田第一病院","province":"東京都","city":"足立区","address":"東京都足立区竹の塚4丁目1-12","lat":35.79351749,"lon":139.80198649},{"name":"博慈会記念総合病院","province":"東京都","city":"足立区","address":"東京都足立区鹿浜5丁目11-1","lat":35.78496118,"lon":139.74944417},{"name":"西新井病院","province":"東京都","city":"足立区","address":"東京都足立区西新井本町5丁目7-14","lat":35.77566892,"lon":139.78197215},{"name":"足立区","province":"東京都","city":"足立区","address":"足立区綾瀬2-23-7","lat":35.76156,"lon":139.8273},{"name":"（株）星医療酸器","province":"東京都","city":"足立区","address":"足立区入谷7-11-12","lat":35.80253,"lon":139.7583},{"name":"小右衛門給水所","province":"東京都","city":"足立区","address":"東京都足立区中央本町3-8-1","lat":35.7721511,"lon":139.807309},{"name":"区総合スポーツセンター","province":"東京都","city":"足立区","address":"東京都足立区東保木間2-27-1","lat":35.791311,"lon":139.8140941},{"name":"区立千住スポーツ公園","province":"東京都","city":"足立区","address":"東京都足立区千住緑町2-1-1","lat":35.7440262,"lon":139.7951426},{"name":"区立諏訪木東公園","province":"東京都","city":"足立区","address":"東京都足立区西新井3-25","lat":35.7899898,"lon":139.779992},{"name":"区立大谷田南公園","province":"東京都","city":"足立区","address":"東京都足立区中川4-42-1","lat":35.7721532,"lon":139.8493937},{"name":"区立北鹿浜公園","province":"東京都","city":"足立区","address":"東京都足立区鹿浜3-26","lat":35.7821245,"lon":139.7536455},{"name":"都立舎人公園","province":"東京都","city":"足立区","address":"東京都足立区舎人公園1-1","lat":35.7967372,"lon":139.7681512},{"name":"区立北宮城町公園","province":"東京都","city":"足立区","address":"東京都足立区扇2-37-1","lat":35.7669098,"lon":139.7702},{"name":"江北給水所","province":"東京都","city":"足立区","address":"東京都足立区江北5-5","lat":35.77803,"lon":139.76945},{"name":"足立区","province":"東京都","city":"足立区","address":"足立区綾瀬2-23-7","lat":35.76156,"lon":139.8273},{"name":"（株）星医療酸器","province":"東京都","city":"足立区","address":"足立区入谷7-11-12","lat":35.80253,"lon":139.7583},{"name":"小右衛門給水所","province":"東京都","city":"足立区","address":"東京都足立区中央本町3-8-1","lat":35.7721511,"lon":139.807309},{"name":"区総合スポーツセンター","province":"東京都","city":"足立区","address":"東京都足立区東保木間2-27-1","lat":35.791311,"lon":139.8140941},{"name":"区立千住スポーツ公園","province":"東京都","city":"足立区","address":"東京都足立区千住緑町2-1-1","lat":35.7440262,"lon":139.7951426},{"name":"区立諏訪木東公園","province":"東京都","city":"足立区","address":"東京都足立区西新井3-25","lat":35.7899898,"lon":139.779992},{"name":"区立大谷田南公園","province":"東京都","city":"足立区","address":"東京都足立区中川4-42-1","lat":35.7721532,"lon":139.8493937},{"name":"区立北鹿浜公園","province":"東京都","city":"足立区","address":"東京都足立区鹿浜3-26","lat":35.7821245,"lon":139.7536455},{"name":"都立舎人公園","province":"東京都","city":"足立区","address":"東京都足立区舎人公園1-1","lat":35.7967372,"lon":139.7681512},{"name":"区立北宮城町公園","province":"東京都","city":"足立区","address":"東京都足立区扇2-37-1","lat":35.7669098,"lon":139.7702},{"name":"江北給水所","province":"東京都","city":"足立区","address":"東京都足立区江北5-5","lat":35.77803,"lon":139.76945},{"name":"足立区","province":"東京都","city":"足立区","address":"足立区綾瀬2-23-7","lat":35.76156,"lon":139.8273},{"name":"（株）星医療酸器","province":"東京都","city":"足立区","address":"足立区入谷7-11-12","lat":35.80253,"lon":139.7583},{"name":"小右衛門給水所","province":"東京都","city":"足立区","address":"東京都足立区中央本町3-8-1","lat":35.7721511,"lon":139.807309},{"name":"区総合スポーツセンター","province":"東京都","city":"足立区","address":"東京都足立区東保木間2-27-1","lat":35.791311,"lon":139.8140941},{"name":"区立千住スポーツ公園","province":"東京都","city":"足立区","address":"東京都足立区千住緑町2-1-1","lat":35.7440262,"lon":139.7951426},{"name":"区立諏訪木東公園","province":"東京都","city":"足立区","address":"東京都足立区西新井3-25","lat":35.7899898,"lon":139.779992},{"name":"区立大谷田南公園","province":"東京都","city":"足立区","address":"東京都足立区中川4-42-1","lat":35.7721532,"lon":139.8493937},{"name":"区立北鹿浜公園","province":"東京都","city":"足立区","address":"東京都足立区鹿浜3-26","lat":35.7821245,"lon":139.7536455},{"name":"都立舎人公園","province":"東京都","city":"足立区","address":"東京都足立区舎人公園1-1","lat":35.7967372,"lon":139.7681512},{"name":"区立北宮城町公園","province":"東京都","city":"足立区","address":"東京都足立区扇2-37-1","lat":35.7669098,"lon":139.7702},{"name":"江北給水所","province":"東京都","city":"足立区","address":"東京都足立区江北5-5","lat":35.77803,"lon":139.76945},{"name":"足立区","province":"東京都","city":"足立区","address":"足立区綾瀬2-23-7","lat":35.76156,"lon":139.8273},{"name":"（株）星医療酸器","province":"東京都","city":"足立区","address":"足立区入谷7-11-12","lat":35.80253,"lon":139.7583},{"name":"小右衛門給水所","province":"東京都","city":"足立区","address":"東京都足立区中央本町3-8-1","lat":35.7721511,"lon":139.807309},{"name":"区総合スポーツセンター","province":"東京都","city":"足立区","address":"東京都足立区東保木間2-27-1","lat":35.791311,"lon":139.8140941},{"name":"区立千住スポーツ公園","province":"東京都","city":"足立区","address":"東京都足立区千住緑町2-1-1","lat":35.7440262,"lon":139.7951426},{"name":"区立諏訪木東公園","province":"東京都","city":"足立区","address":"東京都足立区西新井3-25","lat":35.7899898,"lon":139.779992},{"name":"区立大谷田南公園","province":"東京都","city":"足立区","address":"東京都足立区中川4-42-1","lat":35.7721532,"lon":139.8493937},{"name":"区立北鹿浜公園","province":"東京都","city":"足立区","address":"東京都足立区鹿浜3-26","lat":35.7821245,"lon":139.7536455},{"name":"都立舎人公園","province":"東京都","city":"足立区","address":"東京都足立区舎人公園1-1","lat":35.7967372,"lon":139.7681512},{"name":"区立北宮城町公園","province":"東京都","city":"足立区","address":"東京都足立区扇2-37-1","lat":35.7669098,"lon":139.7702},{"name":"江北給水所","province":"東京都","city":"足立区","address":"東京都足立区江北5-5","lat":35.77803,"lon":139.76945},{"name":"足立区","province":"東京都","city":"足立区","address":"足立区綾瀬2-23-7","lat":35.76156,"lon":139.8273},{"name":"（株）星医療酸器","province":"東京都","city":"足立区","address":"足立区入谷7-11-12","lat":35.80253,"lon":139.7583},{"name":"小右衛門給水所","province":"東京都","city":"足立区","address":"東京都足立区中央本町3-8-1","lat":35.7721511,"lon":139.807309},{"name":"区総合スポーツセンター","province":"東京都","city":"足立区","address":"東京都足立区東保木間2-27-1","lat":35.791311,"lon":139.8140941},{"name":"区立千住スポーツ公園","province":"東京都","city":"足立区","address":"東京都足立区千住緑町2-1-1","lat":35.7440262,"lon":139.7951426},{"name":"区立諏訪木東公園","province":"東京都","city":"足立区","address":"東京都足立区西新井3-25","lat":35.7899898,"lon":139.779992},{"name":"区立大谷田南公園","province":"東京都","city":"足立区","address":"東京都足立区中川4-42-1","lat":35.7721532,"lon":139.8493937},{"name":"区立北鹿浜公園","province":"東京都","city":"足立区","address":"東京都足立区鹿浜3-26","lat":35.7821245,"lon":139.7536455},{"name":"都立舎人公園","province":"東京都","city":"足立区","address":"東京都足立区舎人公園1-1","lat":35.7967372,"lon":139.7681512},{"name":"区立北宮城町公園","province":"東京都","city":"足立区","address":"東京都足立区扇2-37-1","lat":35.7669098,"lon":139.7702},{"name":"江北給水所","province":"東京都","city":"足立区","address":"東京都足立区江北5-5","lat":35.77803,"lon":139.76945},{"name":"足立区","province":"東京都","city":"足立区","address":"足立区綾瀬2-23-7","lat":35.76156,"lon":139.8273},{"name":"（株）星医療酸器","province":"東京都","city":"足立区","address":"足立区入谷7-11-12","lat":35.80253,"lon":139.7583},{"name":"小右衛門給水所","province":"東京都","city":"足立区","address":"東京都足立区中央本町3-8-1","lat":35.7721511,"lon":139.807309},{"name":"区総合スポーツセンター","province":"東京都","city":"足立区","address":"東京都足立区東保木間2-27-1","lat":35.791311,"lon":139.8140941},{"name":"区立千住スポーツ公園","province":"東京都","city":"足立区","address":"東京都足立区千住緑町2-1-1","lat":35.7440262,"lon":139.7951426},{"name":"区立諏訪木東公園","province":"東京都","city":"足立区","address":"東京都足立区西新井3-25","lat":35.7899898,"lon":139.779992},{"name":"区立大谷田南公園","province":"東京都","city":"足立区","address":"東京都足立区中川4-42-1","lat":35.7721532,"lon":139.8493937},{"name":"区立北鹿浜公園","province":"東京都","city":"足立区","address":"東京都足立区鹿浜3-26","lat":35.7821245,"lon":139.7536455},{"name":"都立舎人公園","province":"東京都","city":"足立区","address":"東京都足立区舎人公園1-1","lat":35.7967372,"lon":139.7681512},{"name":"区立北宮城町公園","province":"東京都","city":"足立区","address":"東京都足立区扇2-37-1","lat":35.7669098,"lon":139.7702},{"name":"江北給水所","province":"東京都","city":"足立区","address":"東京都足立区江北5-5","lat":35.77803,"lon":139.76945},{"name":"足立区","province":"東京都","city":"足立区","address":"足立区綾瀬2-23-7","lat":35.76156,"lon":139.8273},{"name":"（株）星医療酸器","province":"東京都","city":"足立区","address":"足立区入谷7-11-12","lat":35.80253,"lon":139.7583},{"name":"小右衛門給水所","province":"東京都","city":"足立区","address":"東京都足立区中央本町3-8-1","lat":35.7721511,"lon":139.807309},{"name":"区総合スポーツセンター","province":"東京都","city":"足立区","address":"東京都足立区東保木間2-27-1","lat":35.791311,"lon":139.8140941},{"name":"区立千住スポーツ公園","province":"東京都","city":"足立区","address":"東京都足立区千住緑町2-1-1","lat":35.7440262,"lon":139.7951426},{"name":"区立諏訪木東公園","province":"東京都","city":"足立区","address":"東京都足立区西新井3-25","lat":35.7899898,"lon":139.779992},{"name":"区立大谷田南公園","province":"東京都","city":"足立区","address":"東京都足立区中川4-42-1","lat":35.7721532,"lon":139.8493937},{"name":"区立北鹿浜公園","province":"東京都","city":"足立区","address":"東京都足立区鹿浜3-26","lat":35.7821245,"lon":139.7536455},{"name":"都立舎人公園","province":"東京都","city":"足立区","address":"東京都足立区舎人公園1-1","lat":35.7967372,"lon":139.7681512},{"name":"区立北宮城町公園","province":"東京都","city":"足立区","address":"東京都足立区扇2-37-1","lat":35.7669098,"lon":139.7702},{"name":"江北給水所","province":"東京都","city":"足立区","address":"東京都足立区江北5-5","lat":35.77803,"lon":139.76945},{"name":"足立区","province":"東京都","city":"足立区","address":"足立区綾瀬2-23-7","lat":35.76156,"lon":139.8273},{"name":"（株）星医療酸器","province":"東京都","city":"足立区","address":"足立区入谷7-11-12","lat":35.80253,"lon":139.7583},{"name":"小右衛門給水所","province":"東京都","city":"足立区","address":"東京都足立区中央本町3-8-1","lat":35.7721511,"lon":139.807309},{"name":"区総合スポーツセンター","province":"東京都","city":"足立区","address":"東京都足立区東保木間2-27-1","lat":35.791311,"lon":139.8140941},{"name":"区立千住スポーツ公園","province":"東京都","city":"足立区","address":"東京都足立区千住緑町2-1-1","lat":35.7440262,"lon":139.7951426},{"name":"区立諏訪木東公園","province":"東京都","city":"足立区","address":"東京都足立区西新井3-25","lat":35.7899898,"lon":139.779992},{"name":"区立大谷田南公園","province":"東京都","city":"足立区","address":"東京都足立区中川4-42-1","lat":35.7721532,"lon":139.8493937},{"name":"区立北鹿浜公園","province":"東京都","city":"足立区","address":"東京都足立区鹿浜3-26","lat":35.7821245,"lon":139.7536455},{"name":"都立舎人公園","province":"東京都","city":"足立区","address":"東京都足立区舎人公園1-1","lat":35.7967372,"lon":139.7681512},{"name":"区立北宮城町公園","province":"東京都","city":"足立区","address":"東京都足立区扇2-37-1","lat":35.7669098,"lon":139.7702},{"name":"江北給水所","province":"東京都","city":"足立区","address":"東京都足立区江北5-5","lat":35.77803,"lon":139.76945},{"name":"足立区","province":"東京都","city":"足立区","address":"足立区綾瀬2-23-7","lat":35.76156,"lon":139.8273},{"name":"（株）星医療酸器","province":"東京都","city":"足立区","address":"足立区入谷7-11-12","lat":35.80253,"lon":139.7583},{"name":"小右衛門給水所","province":"東京都","city":"足立区","address":"東京都足立区中央本町3-8-1","lat":35.7721511,"lon":139.807309},{"name":"区総合スポーツセンター","province":"東京都","city":"足立区","address":"東京都足立区東保木間2-27-1","lat":35.791311,"lon":139.8140941},{"name":"区立千住スポーツ公園","province":"東京都","city":"足立区","address":"東京都足立区千住緑町2-1-1","lat":35.7440262,"lon":139.7951426},{"name":"区立諏訪木東公園","province":"東京都","city":"足立区","address":"東京都足立区西新井3-25","lat":35.7899898,"lon":139.779992},{"name":"区立大谷田南公園","province":"東京都","city":"足立区","address":"東京都足立区中川4-42-1","lat":35.7721532,"lon":139.8493937},{"name":"区立北鹿浜公園","province":"東京都","city":"足立区","address":"東京都足立区鹿浜3-26","lat":35.7821245,"lon":139.7536455},{"name":"都立舎人公園","province":"東京都","city":"足立区","address":"東京都足立区舎人公園1-1","lat":35.7967372,"lon":139.7681512},{"name":"区立北宮城町公園","province":"東京都","city":"足立区","address":"東京都足立区扇2-37-1","lat":35.7669098,"lon":139.7702},{"name":"江北給水所","province":"東京都","city":"足立区","address":"東京都足立区江北5-5","lat":35.77803,"lon":139.76945},{"name":"足立区","province":"東京都","city":"足立区","address":"足立区綾瀬2-23-7","lat":35.76156,"lon":139.8273},{"name":"（株）星医療酸器","province":"東京都","city":"足立区","address":"足立区入谷7-11-12","lat":35.80253,"lon":139.7583},{"name":"小右衛門給水所","province":"東京都","city":"足立区","address":"東京都足立区中央本町3-8-1","lat":35.7721511,"lon":139.807309},{"name":"区総合スポーツセンター","province":"東京都","city":"足立区","address":"東京都足立区東保木間2-27-1","lat":35.791311,"lon":139.8140941},{"name":"区立千住スポーツ公園","province":"東京都","city":"足立区","address":"東京都足立区千住緑町2-1-1","lat":35.7440262,"lon":139.7951426},{"name":"区立諏訪木東公園","province":"東京都","city":"足立区","address":"東京都足立区西新井3-25","lat":35.7899898,"lon":139.779992},{"name":"区立大谷田南公園","province":"東京都","city":"足立区","address":"東京都足立区中川4-42-1","lat":35.7721532,"lon":139.8493937},{"name":"区立北鹿浜公園","province":"東京都","city":"足立区","address":"東京都足立区鹿浜3-26","lat":35.7821245,"lon":139.7536455},{"name":"都立舎人公園","province":"東京都","city":"足立区","address":"東京都足立区舎人公園1-1","lat":35.7967372,"lon":139.7681512},{"name":"区立北宮城町公園","province":"東京都","city":"足立区","address":"東京都足立区扇2-37-1","lat":35.7669098,"lon":139.7702},{"name":"江北給水所","province":"東京都","city":"足立区","address":"東京都足立区江北5-5","lat":35.77803,"lon":139.76945},{"name":"足立区","province":"東京都","city":"足立区","address":"足立区綾瀬2-23-7","lat":35.76156,"lon":139.8273},{"name":"（株）星医療酸器","province":"東京都","city":"足立区","address":"足立区入谷7-11-12","lat":35.80253,"lon":139.7583},{"name":"小右衛門給水所","province":"東京都","city":"足立区","address":"東京都足立区中央本町3-8-1","lat":35.7721511,"lon":139.807309},{"name":"区総合スポーツセンター","province":"東京都","city":"足立区","address":"東京都足立区東保木間2-27-1","lat":35.791311,"lon":139.8140941},{"name":"区立千住スポーツ公園","province":"東京都","city":"足立区","address":"東京都足立区千住緑町2-1-1","lat":35.7440262,"lon":139.7951426},{"name":"区立諏訪木東公園","province":"東京都","city":"足立区","address":"東京都足立区西新井3-25","lat":35.7899898,"lon":139.779992},{"name":"区立大谷田南公園","province":"東京都","city":"足立区","address":"東京都足立区中川4-42-1","lat":35.7721532,"lon":139.8493937},{"name":"区立北鹿浜公園","province":"東京都","city":"足立区","address":"東京都足立区鹿浜3-26","lat":35.7821245,"lon":139.7536455},{"name":"都立舎人公園","province":"東京都","city":"足立区","address":"東京都足立区舎人公園1-1","lat":35.7967372,"lon":139.7681512},{"name":"区立北宮城町公園","province":"東京都","city":"足立区","address":"東京都足立区扇2-37-1","lat":35.7669098,"lon":139.7702},{"name":"江北給水所","province":"東京都","city":"足立区","address":"東京都足立区江北5-5","lat":35.77803,"lon":139.76945},{"name":"足立区","province":"東京都","city":"足立区","address":"足立区綾瀬2-23-7","lat":35.76156,"lon":139.8273},{"name":"（株）星医療酸器","province":"東京都","city":"足立区","address":"足立区入谷7-11-12","lat":35.80253,"lon":139.7583},{"name":"小右衛門給水所","province":"東京都","city":"足立区","address":"東京都足立区中央本町3-8-1","lat":35.7721511,"lon":139.807309},{"name":"区総合スポーツセンター","province":"東京都","city":"足立区","address":"東京都足立区東保木間2-27-1","lat":35.791311,"lon":139.8140941},{"name":"区立千住スポーツ公園","province":"東京都","city":"足立区","address":"東京都足立区千住緑町2-1-1","lat":35.7440262,"lon":139.7951426},{"name":"区立諏訪木東公園","province":"東京都","city":"足立区","address":"東京都足立区西新井3-25","lat":35.7899898,"lon":139.779992},{"name":"区立大谷田南公園","province":"東京都","city":"足立区","address":"東京都足立区中川4-42-1","lat":35.7721532,"lon":139.8493937},{"name":"区立北鹿浜公園","province":"東京都","city":"足立区","address":"東京都足立区鹿浜3-26","lat":35.7821245,"lon":139.7536455},{"name":"都立舎人公園","province":"東京都","city":"足立区","address":"東京都足立区舎人公園1-1","lat":35.7967372,"lon":139.7681512},{"name":"区立北宮城町公園","province":"東京都","city":"足立区","address":"東京都足立区扇2-37-1","lat":35.7669098,"lon":139.7702},{"name":"江北給水所","province":"東京都","city":"足立区","address":"東京都足立区江北5-5","lat":35.77803,"lon":139.76945},{"name":"足立区","province":"東京都","city":"足立区","address":"足立区綾瀬2-23-7","lat":35.76156,"lon":139.8273},{"name":"（株）星医療酸器","province":"東京都","city":"足立区","address":"足立区入谷7-11-12","lat":35.80253,"lon":139.7583},{"name":"小右衛門給水所","province":"東京都","city":"足立区","address":"東京都足立区中央本町3-8-1","lat":35.7721511,"lon":139.807309},{"name":"区総合スポーツセンター","province":"東京都","city":"足立区","address":"東京都足立区東保木間2-27-1","lat":35.791311,"lon":139.8140941},{"name":"区立千住スポーツ公園","province":"東京都","city":"足立区","address":"東京都足立区千住緑町2-1-1","lat":35.7440262,"lon":139.7951426},{"name":"区立諏訪木東公園","province":"東京都","city":"足立区","address":"東京都足立区西新井3-25","lat":35.7899898,"lon":139.779992},{"name":"区立大谷田南公園","province":"東京都","city":"足立区","address":"東京都足立区中川4-42-1","lat":35.7721532,"lon":139.8493937},{"name":"区立北鹿浜公園","province":"東京都","city":"足立区","address":"東京都足立区鹿浜3-26","lat":35.7821245,"lon":139.7536455},{"name":"都立舎人公園","province":"東京都","city":"足立区","address":"東京都足立区舎人公園1-1","lat":35.7967372,"lon":139.7681512},{"name":"区立北宮城町公園","province":"東京都","city":"足立区","address":"東京都足立区扇2-37-1","lat":35.7669098,"lon":139.7702},{"name":"江北給水所","province":"東京都","city":"足立区","address":"東京都足立区江北5-5","lat":35.77803,"lon":139.76945},{"name":"足立区","province":"東京都","city":"足立区","address":"足立区綾瀬2-23-7","lat":35.76156,"lon":139.8273},{"name":"（株）星医療酸器","province":"東京都","city":"足立区","address":"足立区入谷7-11-12","lat":35.80253,"lon":139.7583},{"name":"小右衛門給水所","province":"東京都","city":"足立区","address":"東京都足立区中央本町3-8-1","lat":35.7721511,"lon":139.807309},{"name":"区総合スポーツセンター","province":"東京都","city":"足立区","address":"東京都足立区東保木間2-27-1","lat":35.791311,"lon":139.8140941},{"name":"区立千住スポーツ公園","province":"東京都","city":"足立区","address":"東京都足立区千住緑町2-1-1","lat":35.7440262,"lon":139.7951426},{"name":"区立諏訪木東公園","province":"東京都","city":"足立区","address":"東京都足立区西新井3-25","lat":35.7899898,"lon":139.779992},{"name":"区立大谷田南公園","province":"東京都","city":"足立区","address":"東京都足立区中川4-42-1","lat":35.7721532,"lon":139.8493937},{"name":"区立北鹿浜公園","province":"東京都","city":"足立区","address":"東京都足立区鹿浜3-26","lat":35.7821245,"lon":139.7536455},{"name":"都立舎人公園","province":"東京都","city":"足立区","address":"東京都足立区舎人公園1-1","lat":35.7967372,"lon":139.7681512},{"name":"区立北宮城町公園","province":"東京都","city":"足立区","address":"東京都足立区扇2-37-1","lat":35.7669098,"lon":139.7702},{"name":"江北給水所","province":"東京都","city":"足立区","address":"東京都足立区江北5-5","lat":35.77803,"lon":139.76945},{"name":"足立区","province":"東京都","city":"足立区","address":"足立区綾瀬2-23-7","lat":35.76156,"lon":139.8273},{"name":"（株）星医療酸器","province":"東京都","city":"足立区","address":"足立区入谷7-11-12","lat":35.80253,"lon":139.7583},{"name":"小右衛門給水所","province":"東京都","city":"足立区","address":"東京都足立区中央本町3-8-1","lat":35.7721511,"lon":139.807309},{"name":"区総合スポーツセンター","province":"東京都","city":"足立区","address":"東京都足立区東保木間2-27-1","lat":35.791311,"lon":139.8140941},{"name":"区立千住スポーツ公園","province":"東京都","city":"足立区","address":"東京都足立区千住緑町2-1-1","lat":35.7440262,"lon":139.7951426},{"name":"区立諏訪木東公園","province":"東京都","city":"足立区","address":"東京都足立区西新井3-25","lat":35.7899898,"lon":139.779992},{"name":"区立大谷田南公園","province":"東京都","city":"足立区","address":"東京都足立区中川4-42-1","lat":35.7721532,"lon":139.8493937},{"name":"区立北鹿浜公園","province":"東京都","city":"足立区","address":"東京都足立区鹿浜3-26","lat":35.7821245,"lon":139.7536455},{"name":"都立舎人公園","province":"東京都","city":"足立区","address":"東京都足立区舎人公園1-1","lat":35.7967372,"lon":139.7681512},{"name":"区立北宮城町公園","province":"東京都","city":"足立区","address":"東京都足立区扇2-37-1","lat":35.7669098,"lon":139.7702},{"name":"江北給水所","province":"東京都","city":"足立区","address":"東京都足立区江北5-5","lat":35.77803,"lon":139.76945},{"name":"足立区","province":"東京都","city":"足立区","address":"足立区綾瀬2-23-7","lat":35.76156,"lon":139.8273},{"name":"（株）星医療酸器","province":"東京都","city":"足立区","address":"足立区入谷7-11-12","lat":35.80253,"lon":139.7583},{"name":"小右衛門給水所","province":"東京都","city":"足立区","address":"東京都足立区中央本町3-8-1","lat":35.7721511,"lon":139.807309},{"name":"区総合スポーツセンター","province":"東京都","city":"足立区","address":"東京都足立区東保木間2-27-1","lat":35.791311,"lon":139.8140941},{"name":"区立千住スポーツ公園","province":"東京都","city":"足立区","address":"東京都足立区千住緑町2-1-1","lat":35.7440262,"lon":139.7951426},{"name":"区立諏訪木東公園","province":"東京都","city":"足立区","address":"東京都足立区西新井3-25","lat":35.7899898,"lon":139.779992},{"name":"区立大谷田南公園","province":"東京都","city":"足立区","address":"東京都足立区中川4-42-1","lat":35.7721532,"lon":139.8493937},{"name":"区立北鹿浜公園","province":"東京都","city":"足立区","address":"東京都足立区鹿浜3-26","lat":35.7821245,"lon":139.7536455},{"name":"都立舎人公園","province":"東京都","city":"足立区","address":"東京都足立区舎人公園1-1","lat":35.7967372,"lon":139.7681512},{"name":"区立北宮城町公園","province":"東京都","city":"足立区","address":"東京都足立区扇2-37-1","lat":35.7669098,"lon":139.7702},{"name":"江北給水所","province":"東京都","city":"足立区","address":"東京都足立区江北5-5","lat":35.77803,"lon":139.76945},{"name":"足立区","province":"東京都","city":"足立区","address":"足立区綾瀬2-23-7","lat":35.76156,"lon":139.8273},{"name":"（株）星医療酸器","province":"東京都","city":"足立区","address":"足立区入谷7-11-12","lat":35.80253,"lon":139.7583},{"name":"小右衛門給水所","province":"東京都","city":"足立区","address":"東京都足立区中央本町3-8-1","lat":35.7721511,"lon":139.807309},{"name":"区総合スポーツセンター","province":"東京都","city":"足立区","address":"東京都足立区東保木間2-27-1","lat":35.791311,"lon":139.8140941},{"name":"区立千住スポーツ公園","province":"東京都","city":"足立区","address":"東京都足立区千住緑町2-1-1","lat":35.7440262,"lon":139.7951426},{"name":"区立諏訪木東公園","province":"東京都","city":"足立区","address":"東京都足立区西新井3-25","lat":35.7899898,"lon":139.779992},{"name":"区立大谷田南公園","province":"東京都","city":"足立区","address":"東京都足立区中川4-42-1","lat":35.7721532,"lon":139.8493937},{"name":"区立北鹿浜公園","province":"東京都","city":"足立区","address":"東京都足立区鹿浜3-26","lat":35.7821245,"lon":139.7536455},{"name":"都立舎人公園","province":"東京都","city":"足立区","address":"東京都足立区舎人公園1-1","lat":35.7967372,"lon":139.7681512},{"name":"区立北宮城町公園","province":"東京都","city":"足立区","address":"東京都足立区扇2-37-1","lat":35.7669098,"lon":139.7702},{"name":"江北給水所","province":"東京都","city":"足立区","address":"東京都足立区江北5-5","lat":35.77803,"lon":139.76945},{"name":"足立区","province":"東京都","city":"足立区","address":"足立区綾瀬2-23-7","lat":35.76156,"lon":139.8273},{"name":"（株）星医療酸器","province":"東京都","city":"足立区","address":"足立区入谷7-11-12","lat":35.80253,"lon":139.7583},{"name":"小右衛門給水所","province":"東京都","city":"足立区","address":"東京都足立区中央本町3-8-1","lat":35.7721511,"lon":139.807309},{"name":"区総合スポーツセンター","province":"東京都","city":"足立区","address":"東京都足立区東保木間2-27-1","lat":35.791311,"lon":139.8140941},{"name":"区立千住スポーツ公園","province":"東京都","city":"足立区","address":"東京都足立区千住緑町2-1-1","lat":35.7440262,"lon":139.7951426},{"name":"区立諏訪木東公園","province":"東京都","city":"足立区","address":"東京都足立区西新井3-25","lat":35.7899898,"lon":139.779992},{"name":"区立大谷田南公園","province":"東京都","city":"足立区","address":"東京都足立区中川4-42-1","lat":35.7721532,"lon":139.8493937},{"name":"区立北鹿浜公園","province":"東京都","city":"足立区","address":"東京都足立区鹿浜3-26","lat":35.7821245,"lon":139.7536455},{"name":"都立舎人公園","province":"東京都","city":"足立区","address":"東京都足立区舎人公園1-1","lat":35.7967372,"lon":139.7681512},{"name":"区立北宮城町公園","province":"東京都","city":"足立区","address":"東京都足立区扇2-37-1","lat":35.7669098,"lon":139.7702},{"name":"江北給水所","province":"東京都","city":"足立区","address":"東京都足立区江北5-5","lat":35.77803,"lon":139.76945},{"name":"足立区","province":"東京都","city":"足立区","address":"足立区綾瀬2-23-7","lat":35.76156,"lon":139.8273},{"name":"（株）星医療酸器","province":"東京都","city":"足立区","address":"足立区入谷7-11-12","lat":35.80253,"lon":139.7583},{"name":"小右衛門給水所","province":"東京都","city":"足立区","address":"東京都足立区中央本町3-8-1","lat":35.7721511,"lon":139.807309},{"name":"区総合スポーツセンター","province":"東京都","city":"足立区","address":"東京都足立区東保木間2-27-1","lat":35.791311,"lon":139.8140941},{"name":"区立千住スポーツ公園","province":"東京都","city":"足立区","address":"東京都足立区千住緑町2-1-1","lat":35.7440262,"lon":139.7951426},{"name":"区立諏訪木東公園","province":"東京都","city":"足立区","address":"東京都足立区西新井3-25","lat":35.7899898,"lon":139.779992},{"name":"区立大谷田南公園","province":"東京都","city":"足立区","address":"東京都足立区中川4-42-1","lat":35.7721532,"lon":139.8493937},{"name":"区立北鹿浜公園","province":"東京都","city":"足立区","address":"東京都足立区鹿浜3-26","lat":35.7821245,"lon":139.7536455},{"name":"都立舎人公園","province":"東京都","city":"足立区","address":"東京都足立区舎人公園1-1","lat":35.7967372,"lon":139.7681512},{"name":"区立北宮城町公園","province":"東京都","city":"足立区","address":"東京都足立区扇2-37-1","lat":35.7669098,"lon":139.7702},{"name":"江北給水所","province":"東京都","city":"足立区","address":"東京都足立区江北5-5","lat":35.77803,"lon":139.76945},{"name":"足立区","province":"東京都","city":"足立区","address":"足立区綾瀬2-23-7","lat":35.76156,"lon":139.8273},{"name":"（株）星医療酸器","province":"東京都","city":"足立区","address":"足立区入谷7-11-12","lat":35.80253,"lon":139.7583},{"name":"小右衛門給水所","province":"東京都","city":"足立区","address":"東京都足立区中央本町3-8-1","lat":35.7721511,"lon":139.807309},{"name":"区総合スポーツセンター","province":"東京都","city":"足立区","address":"東京都足立区東保木間2-27-1","lat":35.791311,"lon":139.8140941},{"name":"区立千住スポーツ公園","province":"東京都","city":"足立区","address":"東京都足立区千住緑町2-1-1","lat":35.7440262,"lon":139.7951426},{"name":"区立諏訪木東公園","province":"東京都","city":"足立区","address":"東京都足立区西新井3-25","lat":35.7899898,"lon":139.779992},{"name":"区立大谷田南公園","province":"東京都","city":"足立区","address":"東京都足立区中川4-42-1","lat":35.7721532,"lon":139.8493937},{"name":"区立北鹿浜公園","province":"東京都","city":"足立区","address":"東京都足立区鹿浜3-26","lat":35.7821245,"lon":139.7536455},{"name":"都立舎人公園","province":"東京都","city":"足立区","address":"東京都足立区舎人公園1-1","lat":35.7967372,"lon":139.7681512},{"name":"区立北宮城町公園","province":"東京都","city":"足立区","address":"東京都足立区扇2-37-1","lat":35.7669098,"lon":139.7702},{"name":"江北給水所","province":"東京都","city":"足立区","address":"東京都足立区江北5-5","lat":35.77803,"lon":139.76945},{"name":"足立区","province":"東京都","city":"足立区","address":"足立区綾瀬2-23-7","lat":35.76156,"lon":139.8273},{"name":"（株）星医療酸器","province":"東京都","city":"足立区","address":"足立区入谷7-11-12","lat":35.80253,"lon":139.7583},{"name":"小右衛門給水所","province":"東京都","city":"足立区","address":"東京都足立区中央本町3-8-1","lat":35.7721511,"lon":139.807309},{"name":"区総合スポーツセンター","province":"東京都","city":"足立区","address":"東京都足立区東保木間2-27-1","lat":35.791311,"lon":139.8140941},{"name":"区立千住スポーツ公園","province":"東京都","city":"足立区","address":"東京都足立区千住緑町2-1-1","lat":35.7440262,"lon":139.7951426},{"name":"区立諏訪木東公園","province":"東京都","city":"足立区","address":"東京都足立区西新井3-25","lat":35.7899898,"lon":139.779992},{"name":"区立大谷田南公園","province":"東京都","city":"足立区","address":"東京都足立区中川4-42-1","lat":35.7721532,"lon":139.8493937},{"name":"区立北鹿浜公園","province":"東京都","city":"足立区","address":"東京都足立区鹿浜3-26","lat":35.7821245,"lon":139.7536455},{"name":"都立舎人公園","province":"東京都","city":"足立区","address":"東京都足立区舎人公園1-1","lat":35.7967372,"lon":139.7681512},{"name":"区立北宮城町公園","province":"東京都","city":"足立区","address":"東京都足立区扇2-37-1","lat":35.7669098,"lon":139.7702},{"name":"江北給水所","province":"東京都","city":"足立区","address":"東京都足立区江北5-5","lat":35.77803,"lon":139.76945},{"name":"足立区","province":"東京都","city":"足立区","address":"足立区綾瀬2-23-7","lat":35.76156,"lon":139.8273},{"name":"（株）星医療酸器","province":"東京都","city":"足立区","address":"足立区入谷7-11-12","lat":35.80253,"lon":139.7583},{"name":"小右衛門給水所","province":"東京都","city":"足立区","address":"東京都足立区中央本町3-8-1","lat":35.7721511,"lon":139.807309},{"name":"区総合スポーツセンター","province":"東京都","city":"足立区","address":"東京都足立区東保木間2-27-1","lat":35.791311,"lon":139.8140941},{"name":"区立千住スポーツ公園","province":"東京都","city":"足立区","address":"東京都足立区千住緑町2-1-1","lat":35.7440262,"lon":139.7951426},{"name":"区立諏訪木東公園","province":"東京都","city":"足立区","address":"東京都足立区西新井3-25","lat":35.7899898,"lon":139.779992},{"name":"区立大谷田南公園","province":"東京都","city":"足立区","address":"東京都足立区中川4-42-1","lat":35.7721532,"lon":139.8493937},{"name":"区立北鹿浜公園","province":"東京都","city":"足立区","address":"東京都足立区鹿浜3-26","lat":35.7821245,"lon":139.7536455},{"name":"都立舎人公園","province":"東京都","city":"足立区","address":"東京都足立区舎人公園1-1","lat":35.7967372,"lon":139.7681512},{"name":"区立北宮城町公園","province":"東京都","city":"足立区","address":"東京都足立区扇2-37-1","lat":35.7669098,"lon":139.7702},{"name":"江北給水所","province":"東京都","city":"足立区","address":"東京都足立区江北5-5","lat":35.77803,"lon":139.76945},{"name":"足立区","province":"東京都","city":"足立区","address":"足立区綾瀬2-23-7","lat":35.76156,"lon":139.8273},{"name":"（株）星医療酸器","province":"東京都","city":"足立区","address":"足立区入谷7-11-12","lat":35.80253,"lon":139.7583},{"name":"小右衛門給水所","province":"東京都","city":"足立区","address":"東京都足立区中央本町3-8-1","lat":35.7721511,"lon":139.807309},{"name":"区総合スポーツセンター","province":"東京都","city":"足立区","address":"東京都足立区東保木間2-27-1","lat":35.791311,"lon":139.8140941},{"name":"区立千住スポーツ公園","province":"東京都","city":"足立区","address":"東京都足立区千住緑町2-1-1","lat":35.7440262,"lon":139.7951426},{"name":"区立諏訪木東公園","province":"東京都","city":"足立区","address":"東京都足立区西新井3-25","lat":35.7899898,"lon":139.779992},{"name":"区立大谷田南公園","province":"東京都","city":"足立区","address":"東京都足立区中川4-42-1","lat":35.7721532,"lon":139.8493937},{"name":"区立北鹿浜公園","province":"東京都","city":"足立区","address":"東京都足立区鹿浜3-26","lat":35.7821245,"lon":139.7536455},{"name":"都立舎人公園","province":"東京都","city":"足立区","address":"東京都足立区舎人公園1-1","lat":35.7967372,"lon":139.7681512},{"name":"区立北宮城町公園","province":"東京都","city":"足立区","address":"東京都足立区扇2-37-1","lat":35.7669098,"lon":139.7702},{"name":"江北給水所","province":"東京都","city":"足立区","address":"東京都足立区江北5-5","lat":35.77803,"lon":139.76945},{"name":"小右衛門給水所","province":"東京都","city":"足立区","address":"東京都足立区中央本町3-8-1","lat":35.7721511,"lon":139.807309},{"name":"区総合スポーツセンター","province":"東京都","city":"足立区","address":"東京都足立区東保木間2-27-1","lat":35.791311,"lon":139.8140941},{"name":"区立千住スポーツ公園","province":"東京都","city":"足立区","address":"東京都足立区千住緑町2-1-1","lat":35.7440262,"lon":139.7951426},{"name":"区立諏訪木東公園","province":"東京都","city":"足立区","address":"東京都足立区西新井3-25","lat":35.7899898,"lon":139.779992},{"name":"区立大谷田南公園","province":"東京都","city":"足立区","address":"東京都足立区中川4-42-1","lat":35.7721532,"lon":139.8493937},{"name":"区立北鹿浜公園","province":"東京都","city":"足立区","address":"東京都足立区鹿浜3-26","lat":35.7821245,"lon":139.7536455},{"name":"都立舎人公園","province":"東京都","city":"足立区","address":"東京都足立区舎人公園1-1","lat":35.7967372,"lon":139.7681512},{"name":"区立北宮城町公園","province":"東京都","city":"足立区","address":"東京都足立区扇2-37-1","lat":35.7669098,"lon":139.7702},{"name":"江北給水所","province":"東京都","city":"足立区","address":"東京都足立区江北5-5","lat":35.77803,"lon":139.76945},{"name":"小右衛門給水所","province":"東京都","city":"足立区","address":"東京都足立区中央本町3-8-1","lat":35.7721511,"lon":139.807309},{"name":"区総合スポーツセンター","province":"東京都","city":"足立区","address":"東京都足立区東保木間2-27-1","lat":35.791311,"lon":139.8140941},{"name":"区立千住スポーツ公園","province":"東京都","city":"足立区","address":"東京都足立区千住緑町2-1-1","lat":35.7440262,"lon":139.7951426},{"name":"区立諏訪木東公園","province":"東京都","city":"足立区","address":"東京都足立区西新井3-25","lat":35.7899898,"lon":139.779992},{"name":"区立大谷田南公園","province":"東京都","city":"足立区","address":"東京都足立区中川4-42-1","lat":35.7721532,"lon":139.8493937},{"name":"区立北鹿浜公園","province":"東京都","city":"足立区","address":"東京都足立区鹿浜3-26","lat":35.7821245,"lon":139.7536455},{"name":"都立舎人公園","province":"東京都","city":"足立区","address":"東京都足立区舎人公園1-1","lat":35.7967372,"lon":139.7681512},{"name":"区立北宮城町公園","province":"東京都","city":"足立区","address":"東京都足立区扇2-37-1","lat":35.7669098,"lon":139.7702},{"name":"江北給水所","province":"東京都","city":"足立区","address":"東京都足立区江北5-5","lat":35.77803,"lon":139.76945},{"name":"小右衛門給水所","province":"東京都","city":"足立区","address":"東京都足立区中央本町3-8-1","lat":35.7721511,"lon":139.807309},{"name":"区総合スポーツセンター","province":"東京都","city":"足立区","address":"東京都足立区東保木間2-27-1","lat":35.791311,"lon":139.8140941},{"name":"区立千住スポーツ公園","province":"東京都","city":"足立区","address":"東京都足立区千住緑町2-1-1","lat":35.7440262,"lon":139.7951426},{"name":"区立諏訪木東公園","province":"東京都","city":"足立区","address":"東京都足立区西新井3-25","lat":35.7899898,"lon":139.779992},{"name":"区立大谷田南公園","province":"東京都","city":"足立区","address":"東京都足立区中川4-42-1","lat":35.7721532,"lon":139.8493937},{"name":"区立北鹿浜公園","province":"東京都","city":"足立区","address":"東京都足立区鹿浜3-26","lat":35.7821245,"lon":139.7536455},{"name":"都立舎人公園","province":"東京都","city":"足立区","address":"東京都足立区舎人公園1-1","lat":35.7967372,"lon":139.7681512},{"name":"区立北宮城町公園","province":"東京都","city":"足立区","address":"東京都足立区扇2-37-1","lat":35.7669098,"lon":139.7702},{"name":"江北給水所","province":"東京都","city":"足立区","address":"東京都足立区江北5-5","lat":35.77803,"lon":139.76945},{"name":"小右衛門給水所","province":"東京都","city":"足立区","address":"東京都足立区中央本町3-8-1","lat":35.7721511,"lon":139.807309},{"name":"区総合スポーツセンター","province":"東京都","city":"足立区","address":"東京都足立区東保木間2-27-1","lat":35.791311,"lon":139.8140941},{"name":"区立千住スポーツ公園","province":"東京都","city":"足立区","address":"東京都足立区千住緑町2-1-1","lat":35.7440262,"lon":139.7951426},{"name":"区立諏訪木東公園","province":"東京都","city":"足立区","address":"東京都足立区西新井3-25","lat":35.7899898,"lon":139.779992},{"name":"区立大谷田南公園","province":"東京都","city":"足立区","address":"東京都足立区中川4-42-1","lat":35.7721532,"lon":139.8493937},{"name":"区立北鹿浜公園","province":"東京都","city":"足立区","address":"東京都足立区鹿浜3-26","lat":35.7821245,"lon":139.7536455},{"name":"都立舎人公園","province":"東京都","city":"足立区","address":"東京都足立区舎人公園1-1","lat":35.7967372,"lon":139.7681512},{"name":"区立北宮城町公園","province":"東京都","city":"足立区","address":"東京都足立区扇2-37-1","lat":35.7669098,"lon":139.7702},{"name":"江北給水所","province":"東京都","city":"足立区","address":"東京都足立区江北5-5","lat":35.77803,"lon":139.76945},{"name":"小右衛門給水所","province":"東京都","city":"足立区","address":"東京都足立区中央本町3-8-1","lat":35.7721511,"lon":139.807309},{"name":"区総合スポーツセンター","province":"東京都","city":"足立区","address":"東京都足立区東保木間2-27-1","lat":35.791311,"lon":139.8140941},{"name":"区立千住スポーツ公園","province":"東京都","city":"足立区","address":"東京都足立区千住緑町2-1-1","lat":35.7440262,"lon":139.7951426},{"name":"区立諏訪木東公園","province":"東京都","city":"足立区","address":"東京都足立区西新井3-25","lat":35.7899898,"lon":139.779992},{"name":"区立大谷田南公園","province":"東京都","city":"足立区","address":"東京都足立区中川4-42-1","lat":35.7721532,"lon":139.8493937},{"name":"区立北鹿浜公園","province":"東京都","city":"足立区","address":"東京都足立区鹿浜3-26","lat":35.7821245,"lon":139.7536455},{"name":"都立舎人公園","province":"東京都","city":"足立区","address":"東京都足立区舎人公園1-1","lat":35.7967372,"lon":139.7681512},{"name":"区立北宮城町公園","province":"東京都","city":"足立区","address":"東京都足立区扇2-37-1","lat":35.7669098,"lon":139.7702},{"name":"江北給水所","province":"東京都","city":"足立区","address":"東京都足立区江北5-5","lat":35.77803,"lon":139.76945},{"name":"小右衛門給水所","province":"東京都","city":"足立区","address":"東京都足立区中央本町3-8-1","lat":35.7721511,"lon":139.807309},{"name":"区総合スポーツセンター","province":"東京都","city":"足立区","address":"東京都足立区東保木間2-27-1","lat":35.791311,"lon":139.8140941},{"name":"区立千住スポーツ公園","province":"東京都","city":"足立区","address":"東京都足立区千住緑町2-1-1","lat":35.7440262,"lon":139.7951426},{"name":"区立諏訪木東公園","province":"東京都","city":"足立区","address":"東京都足立区西新井3-25","lat":35.7899898,"lon":139.779992},{"name":"区立大谷田南公園","province":"東京都","city":"足立区","address":"東京都足立区中川4-42-1","lat":35.7721532,"lon":139.8493937},{"name":"区立北鹿浜公園","province":"東京都","city":"足立区","address":"東京都足立区鹿浜3-26","lat":35.7821245,"lon":139.7536455},{"name":"都立舎人公園","province":"東京都","city":"足立区","address":"東京都足立区舎人公園1-1","lat":35.7967372,"lon":139.7681512},{"name":"区立北宮城町公園","province":"東京都","city":"足立区","address":"東京都足立区扇2-37-1","lat":35.7669098,"lon":139.7702},{"name":"江北給水所","province":"東京都","city":"足立区","address":"東京都足立区江北5-5","lat":35.77803,"lon":139.76945},{"name":"小右衛門給水所","province":"東京都","city":"足立区","address":"東京都足立区中央本町3-8-1","lat":35.7721511,"lon":139.807309},{"name":"区総合スポーツセンター","province":"東京都","city":"足立区","address":"東京都足立区東保木間2-27-1","lat":35.791311,"lon":139.8140941},{"name":"区立千住スポーツ公園","province":"東京都","city":"足立区","address":"東京都足立区千住緑町2-1-1","lat":35.7440262,"lon":139.7951426},{"name":"区立諏訪木東公園","province":"東京都","city":"足立区","address":"東京都足立区西新井3-25","lat":35.7899898,"lon":139.779992},{"name":"区立大谷田南公園","province":"東京都","city":"足立区","address":"東京都足立区中川4-42-1","lat":35.7721532,"lon":139.8493937},{"name":"区立北鹿浜公園","province":"東京都","city":"足立区","address":"東京都足立区鹿浜3-26","lat":35.7821245,"lon":139.7536455},{"name":"都立舎人公園","province":"東京都","city":"足立区","address":"東京都足立区舎人公園1-1","lat":35.7967372,"lon":139.7681512},{"name":"区立北宮城町公園","province":"東京都","city":"足立区","address":"東京都足立区扇2-37-1","lat":35.7669098,"lon":139.7702},{"name":"江北給水所","province":"東京都","city":"足立区","address":"東京都足立区江北5-5","lat":35.77803,"lon":139.76945},{"name":"小右衛門給水所","province":"東京都","city":"足立区","address":"東京都足立区中央本町3-8-1","lat":35.7721511,"lon":139.807309},{"name":"区総合スポーツセンター","province":"東京都","city":"足立区","address":"東京都足立区東保木間2-27-1","lat":35.791311,"lon":139.8140941},{"name":"区立千住スポーツ公園","province":"東京都","city":"足立区","address":"東京都足立区千住緑町2-1-1","lat":35.7440262,"lon":139.7951426},{"name":"区立諏訪木東公園","province":"東京都","city":"足立区","address":"東京都足立区西新井3-25","lat":35.7899898,"lon":139.779992},{"name":"区立大谷田南公園","province":"東京都","city":"足立区","address":"東京都足立区中川4-42-1","lat":35.7721532,"lon":139.8493937},{"name":"区立北鹿浜公園","province":"東京都","city":"足立区","address":"東京都足立区鹿浜3-26","lat":35.7821245,"lon":139.7536455},{"name":"都立舎人公園","province":"東京都","city":"足立区","address":"東京都足立区舎人公園1-1","lat":35.7967372,"lon":139.7681512},{"name":"区立北宮城町公園","province":"東京都","city":"足立区","address":"東京都足立区扇2-37-1","lat":35.7669098,"lon":139.7702},{"name":"江北給水所","province":"東京都","city":"足立区","address":"東京都足立区江北5-5","lat":35.77803,"lon":139.76945},{"name":"小右衛門給水所","province":"東京都","city":"足立区","address":"東京都足立区中央本町3-8-1","lat":35.7721511,"lon":139.807309},{"name":"区総合スポーツセンター","province":"東京都","city":"足立区","address":"東京都足立区東保木間2-27-1","lat":35.791311,"lon":139.8140941},{"name":"区立千住スポーツ公園","province":"東京都","city":"足立区","address":"東京都足立区千住緑町2-1-1","lat":35.7440262,"lon":139.7951426},{"name":"区立諏訪木東公園","province":"東京都","city":"足立区","address":"東京都足立区西新井3-25","lat":35.7899898,"lon":139.779992},{"name":"区立大谷田南公園","province":"東京都","city":"足立区","address":"東京都足立区中川4-42-1","lat":35.7721532,"lon":139.8493937},{"name":"区立北鹿浜公園","province":"東京都","city":"足立区","address":"東京都足立区鹿浜3-26","lat":35.7821245,"lon":139.7536455},{"name":"都立舎人公園","province":"東京都","city":"足立区","address":"東京都足立区舎人公園1-1","lat":35.7967372,"lon":139.7681512},{"name":"区立北宮城町公園","province":"東京都","city":"足立区","address":"東京都足立区扇2-37-1","lat":35.7669098,"lon":139.7702},{"name":"江北給水所","province":"東京都","city":"足立区","address":"東京都足立区江北5-5","lat":35.77803,"lon":139.76945},{"name":"小右衛門給水所","province":"東京都","city":"足立区","address":"東京都足立区中央本町3-8-1","lat":35.7721511,"lon":139.807309},{"name":"区総合スポーツセンター","province":"東京都","city":"足立区","address":"東京都足立区東保木間2-27-1","lat":35.791311,"lon":139.8140941},{"name":"区立千住スポーツ公園","province":"東京都","city":"足立区","address":"東京都足立区千住緑町2-1-1","lat":35.7440262,"lon":139.7951426},{"name":"区立諏訪木東公園","province":"東京都","city":"足立区","address":"東京都足立区西新井3-25","lat":35.7899898,"lon":139.779992},{"name":"区立大谷田南公園","province":"東京都","city":"足立区","address":"東京都足立区中川4-42-1","lat":35.7721532,"lon":139.8493937},{"name":"区立北鹿浜公園","province":"東京都","city":"足立区","address":"東京都足立区鹿浜3-26","lat":35.7821245,"lon":139.7536455},{"name":"都立舎人公園","province":"東京都","city":"足立区","address":"東京都足立区舎人公園1-1","lat":35.7967372,"lon":139.7681512},{"name":"区立北宮城町公園","province":"東京都","city":"足立区","address":"東京都足立区扇2-37-1","lat":35.7669098,"lon":139.7702},{"name":"江北給水所","province":"東京都","city":"足立区","address":"東京都足立区江北5-5","lat":35.77803,"lon":139.76945},{"name":"小右衛門給水所","province":"東京都","city":"足立区","address":"東京都足立区中央本町3-8-1","lat":35.7721511,"lon":139.807309},{"name":"区総合スポーツセンター","province":"東京都","city":"足立区","address":"東京都足立区東保木間2-27-1","lat":35.791311,"lon":139.8140941},{"name":"区立千住スポーツ公園","province":"東京都","city":"足立区","address":"東京都足立区千住緑町2-1-1","lat":35.7440262,"lon":139.7951426},{"name":"区立諏訪木東公園","province":"東京都","city":"足立区","address":"東京都足立区西新井3-25","lat":35.7899898,"lon":139.779992},{"name":"区立大谷田南公園","province":"東京都","city":"足立区","address":"東京都足立区中川4-42-1","lat":35.7721532,"lon":139.8493937},{"name":"区立北鹿浜公園","province":"東京都","city":"足立区","address":"東京都足立区鹿浜3-26","lat":35.7821245,"lon":139.7536455},{"name":"都立舎人公園","province":"東京都","city":"足立区","address":"東京都足立区舎人公園1-1","lat":35.7967372,"lon":139.7681512},{"name":"区立北宮城町公園","province":"東京都","city":"足立区","address":"東京都足立区扇2-37-1","lat":35.7669098,"lon":139.7702},{"name":"江北給水所","province":"東京都","city":"足立区","address":"東京都足立区江北5-5","lat":35.77803,"lon":139.76945},{"name":"小右衛門給水所","province":"東京都","city":"足立区","address":"東京都足立区中央本町3-8-1","lat":35.7721511,"lon":139.807309},{"name":"区総合スポーツセンター","province":"東京都","city":"足立区","address":"東京都足立区東保木間2-27-1","lat":35.791311,"lon":139.8140941},{"name":"区立千住スポーツ公園","province":"東京都","city":"足立区","address":"東京都足立区千住緑町2-1-1","lat":35.7440262,"lon":139.7951426},{"name":"区立諏訪木東公園","province":"東京都","city":"足立区","address":"東京都足立区西新井3-25","lat":35.7899898,"lon":139.779992},{"name":"区立大谷田南公園","province":"東京都","city":"足立区","address":"東京都足立区中川4-42-1","lat":35.7721532,"lon":139.8493937},{"name":"区立北鹿浜公園","province":"東京都","city":"足立区","address":"東京都足立区鹿浜3-26","lat":35.7821245,"lon":139.7536455},{"name":"都立舎人公園","province":"東京都","city":"足立区","address":"東京都足立区舎人公園1-1","lat":35.7967372,"lon":139.7681512},{"name":"区立北宮城町公園","province":"東京都","city":"足立区","address":"東京都足立区扇2-37-1","lat":35.7669098,"lon":139.7702},{"name":"江北給水所","province":"東京都","city":"足立区","address":"東京都足立区江北5-5","lat":35.77803,"lon":139.76945}]}