{"keyword":"名木","data":[{"name":"足立区","province":"東京都","city":"足立区","address":"足立区中央本町1-17-1","lat":35.7748922,"lon":139.8045844},{"name":"足立区立千住新橋グラウンド（虹の広場）","province":"東京都","city":"足立区","address":"東京都足立区千住5丁目22","lat":35.75549987,"lon":139.8057852},{"name":"荒川西新井橋緑地グラウンド","province":"東京都","city":"足立区","address":"東京都足立区梅田3丁目5","lat":35.76227094,"lon":139.79617997},{"name":"都立東綾瀬公園東側野球場","province":"東京都","city":"足立区","address":"東京都足立区東綾瀬3丁目4","lat":35.77023453,"lon":139.83256528},{"name":"都立東綾瀬公園西側野球場","province":"東京都","city":"足立区","address":"東京都足立区綾瀬6丁目37","lat":35.77132878,"lon":139.82859614},{"name":"足立区立谷中公園野球場","province":"東京都","city":"足立区","address":"東京都足立区谷中2丁目23-36","lat":35.77618936,"lon":139.83499544},{"name":"足立区立平野運動場","province":"東京都","city":"足立区","address":"東京都足立区平野2丁目12-1","lat":35.78418247,"lon":139.80431995},{"name":"都立舎人公園管理事務所空地","province":"東京都","city":"足立区","address":"東京都足立区舎人公園","lat":35.79704103,"lon":139.76834198},{"name":"都立舎人公園陸上競技場","province":"東京都","city":"足立区","address":"東京都足立区舎人公園","lat":35.79704103,"lon":139.76834198},{"name":"都立舎人公園野球場","province":"東京都","city":"足立区","address":"東京都足立区舎人公園","lat":35.79704103,"lon":139.76834198},{"name":"足立区立保木間公園","province":"東京都","city":"足立区","address":"東京都足立区竹の塚","lat":35.79213976,"lon":139.79757301},{"name":"総合スポーツセンター","province":"東京都","city":"足立区","address":"東京都足立区東保木間","lat":35.79359268,"lon":139.81228565},{"name":"足立区","province":"東京都","city":"足立区","address":"足立区中央本町1-17-1","lat":35.7748922,"lon":139.8045844},{"name":"足立区立千住新橋グラウンド（虹の広場）","province":"東京都","city":"足立区","address":"東京都足立区千住5丁目22","lat":35.75549987,"lon":139.8057852},{"name":"荒川西新井橋緑地グラウンド","province":"東京都","city":"足立区","address":"東京都足立区梅田3丁目5","lat":35.76227094,"lon":139.79617997},{"name":"都立東綾瀬公園東側野球場","province":"東京都","city":"足立区","address":"東京都足立区東綾瀬3丁目4","lat":35.77023453,"lon":139.83256528},{"name":"都立東綾瀬公園西側野球場","province":"東京都","city":"足立区","address":"東京都足立区綾瀬6丁目37","lat":35.77132878,"lon":139.82859614},{"name":"足立区立谷中公園野球場","province":"東京都","city":"足立区","address":"東京都足立区谷中2丁目23-36","lat":35.77618936,"lon":139.83499544},{"name":"足立区立平野運動場","province":"東京都","city":"足立区","address":"東京都足立区平野2丁目12-1","lat":35.78418247,"lon":139.80431995},{"name":"都立舎人公園管理事務所空地","province":"東京都","city":"足立区","address":"東京都足立区舎人公園","lat":35.79704103,"lon":139.76834198},{"name":"都立舎人公園陸上競技場","province":"東京都","city":"足立区","address":"東京都足立区舎人公園","lat":35.79704103,"lon":139.76834198},{"name":"都立舎人公園野球場","province":"東京都","city":"足立区","address":"東京都足立区舎人公園","lat":35.79704103,"lon":139.76834198},{"name":"足立区立保木間公園","province":"東京都","city":"足立区","address":"東京都足立区竹の塚","lat":35.79213976,"lon":139.79757301},{"name":"総合スポーツセンター","province":"東京都","city":"足立区","address":"東京都足立区東保木間","lat":35.79359268,"lon":139.81228565},{"name":"足立区","province":"東京都","city":"足立区","address":"足立区中央本町1-17-1","lat":35.7748922,"lon":139.8045844},{"name":"足立区立千住新橋グラウンド（虹の広場）","province":"東京都","city":"足立区","address":"東京都足立区千住5丁目22","lat":35.75549987,"lon":139.8057852},{"name":"荒川西新井橋緑地グラウンド","province":"東京都","city":"足立区","address":"東京都足立区梅田3丁目5","lat":35.76227094,"lon":139.79617997},{"name":"都立東綾瀬公園東側野球場","province":"東京都","city":"足立区","address":"東京都足立区東綾瀬3丁目4","lat":35.77023453,"lon":139.83256528},{"name":"都立東綾瀬公園西側野球場","province":"東京都","city":"足立区","address":"東京都足立区綾瀬6丁目37","lat":35.77132878,"lon":139.82859614},{"name":"足立区立谷中公園野球場","province":"東京都","city":"足立区","address":"東京都足立区谷中2丁目23-36","lat":35.77618936,"lon":139.83499544},{"name":"足立区立平野運動場","province":"東京都","city":"足立区","address":"東京都足立区平野2丁目12-1","lat":35.78418247,"lon":139.80431995},{"name":"都立舎人公園管理事務所空地","province":"東京都","city":"足立区","address":"東京都足立区舎人公園","lat":35.79704103,"lon":139.76834198},{"name":"都立舎人公園陸上競技場","province":"東京都","city":"足立区","address":"東京都足立区舎人公園","lat":35.79704103,"lon":139.76834198},{"name":"都立舎人公園野球場","province":"東京都","city":"足立区","address":"東京都足立区舎人公園","lat":35.79704103,"lon":139.76834198},{"name":"足立区立保木間公園","province":"東京都","city":"足立区","address":"東京都足立区竹の塚","lat":35.79213976,"lon":139.79757301},{"name":"総合スポーツセンター","province":"東京都","city":"足立区","address":"東京都足立区東保木間","lat":35.79359268,"lon":139.81228565},{"name":"足立区","province":"東京都","city":"足立区","address":"足立区中央本町1-17-1","lat":35.7748922,"lon":139.8045844},{"name":"足立区立千住新橋グラウンド（虹の広場）","province":"東京都","city":"足立区","address":"東京都足立区千住5丁目22","lat":35.75549987,"lon":139.8057852},{"name":"荒川西新井橋緑地グラウンド","province":"東京都","city":"足立区","address":"東京都足立区梅田3丁目5","lat":35.76227094,"lon":139.79617997},{"name":"都立東綾瀬公園東側野球場","province":"東京都","city":"足立区","address":"東京都足立区東綾瀬3丁目4","lat":35.77023453,"lon":139.83256528},{"name":"都立東綾瀬公園西側野球場","province":"東京都","city":"足立区","address":"東京都足立区綾瀬6丁目37","lat":35.77132878,"lon":139.82859614},{"name":"足立区立谷中公園野球場","province":"東京都","city":"足立区","address":"東京都足立区谷中2丁目23-36","lat":35.77618936,"lon":139.83499544},{"name":"足立区立平野運動場","province":"東京都","city":"足立区","address":"東京都足立区平野2丁目12-1","lat":35.78418247,"lon":139.80431995},{"name":"都立舎人公園管理事務所空地","province":"東京都","city":"足立区","address":"東京都足立区舎人公園","lat":35.79704103,"lon":139.76834198},{"name":"都立舎人公園陸上競技場","province":"東京都","city":"足立区","address":"東京都足立区舎人公園","lat":35.79704103,"lon":139.76834198},{"name":"都立舎人公園野球場","province":"東京都","city":"足立区","address":"東京都足立区舎人公園","lat":35.79704103,"lon":139.76834198},{"name":"足立区立保木間公園","province":"東京都","city":"足立区","address":"東京都足立区竹の塚","lat":35.79213976,"lon":139.79757301},{"name":"総合スポーツセンター","province":"東京都","city":"足立区","address":"東京都足立区東保木間","lat":35.79359268,"lon":139.81228565},{"name":"足立区","province":"東京都","city":"足立区","address":"足立区中央本町1-17-1","lat":35.7748922,"lon":139.8045844},{"name":"足立区立千住新橋グラウンド（虹の広場）","province":"東京都","city":"足立区","address":"東京都足立区千住5丁目22","lat":35.75549987,"lon":139.8057852},{"name":"荒川西新井橋緑地グラウンド","province":"東京都","city":"足立区","address":"東京都足立区梅田3丁目5","lat":35.76227094,"lon":139.79617997},{"name":"都立東綾瀬公園東側野球場","province":"東京都","city":"足立区","address":"東京都足立区東綾瀬3丁目4","lat":35.77023453,"lon":139.83256528},{"name":"都立東綾瀬公園西側野球場","province":"東京都","city":"足立区","address":"東京都足立区綾瀬6丁目37","lat":35.77132878,"lon":139.82859614},{"name":"足立区立谷中公園野球場","province":"東京都","city":"足立区","address":"東京都足立区谷中2丁目23-36","lat":35.77618936,"lon":139.83499544},{"name":"足立区立平野運動場","province":"東京都","city":"足立区","address":"東京都足立区平野2丁目12-1","lat":35.78418247,"lon":139.80431995},{"name":"都立舎人公園管理事務所空地","province":"東京都","city":"足立区","address":"東京都足立区舎人公園","lat":35.79704103,"lon":139.76834198},{"name":"都立舎人公園陸上競技場","province":"東京都","city":"足立区","address":"東京都足立区舎人公園","lat":35.79704103,"lon":139.76834198},{"name":"都立舎人公園野球場","province":"東京都","city":"足立区","address":"東京都足立区舎人公園","lat":35.79704103,"lon":139.76834198},{"name":"足立区立保木間公園","province":"東京都","city":"足立区","address":"東京都足立区竹の塚","lat":35.79213976,"lon":139.79757301},{"name":"総合スポーツセンター","province":"東京都","city":"足立区","address":"東京都足立区東保木間","lat":35.79359268,"lon":139.81228565},{"name":"足立区","province":"東京都","city":"足立区","address":"足立区中央本町1-17-1","lat":35.7748922,"lon":139.8045844},{"name":"足立区立千住新橋グラウンド（虹の広場）","province":"東京都","city":"足立区","address":"東京都足立区千住5丁目22","lat":35.75549987,"lon":139.8057852},{"name":"荒川西新井橋緑地グラウンド","province":"東京都","city":"足立区","address":"東京都足立区梅田3丁目5","lat":35.76227094,"lon":139.79617997},{"name":"都立東綾瀬公園東側野球場","province":"東京都","city":"足立区","address":"東京都足立区東綾瀬3丁目4","lat":35.77023453,"lon":139.83256528},{"name":"都立東綾瀬公園西側野球場","province":"東京都","city":"足立区","address":"東京都足立区綾瀬6丁目37","lat":35.77132878,"lon":139.82859614},{"name":"足立区立谷中公園野球場","province":"東京都","city":"足立区","address":"東京都足立区谷中2丁目23-36","lat":35.77618936,"lon":139.83499544},{"name":"足立区立平野運動場","province":"東京都","city":"足立区","address":"東京都足立区平野2丁目12-1","lat":35.78418247,"lon":139.80431995},{"name":"都立舎人公園管理事務所空地","province":"東京都","city":"足立区","address":"東京都足立区舎人公園","lat":35.79704103,"lon":139.76834198},{"name":"都立舎人公園陸上競技場","province":"東京都","city":"足立区","address":"東京都足立区舎人公園","lat":35.79704103,"lon":139.76834198},{"name":"都立舎人公園野球場","province":"東京都","city":"足立区","address":"東京都足立区舎人公園","lat":35.79704103,"lon":139.76834198},{"name":"足立区立保木間公園","province":"東京都","city":"足立区","address":"東京都足立区竹の塚","lat":35.79213976,"lon":139.79757301},{"name":"総合スポーツセンター","province":"東京都","city":"足立区","address":"東京都足立区東保木間","lat":35.79359268,"lon":139.81228565},{"name":"足立区","province":"東京都","city":"足立区","address":"足立区中央本町1-17-1","lat":35.7748922,"lon":139.8045844},{"name":"足立区","province":"東京都","city":"足立区","address":"足立区中央本町1-17-1","lat":35.7748922,"lon":139.8045844},{"name":"足立区","province":"東京都","city":"足立区","address":"足立区中央本町1-17-1","lat":35.7748922,"lon":139.8045844},{"name":"足立区","province":"東京都","city":"足立区","address":"足立区中央本町1-17-1","lat":35.7748922,"lon":139.8045844},{"name":"足立区","province":"東京都","city":"足立区","address":"足立区中央本町1-17-1","lat":35.7748922,"lon":139.8045844},{"name":"足立区","province":"東京都","city":"足立区","address":"足立区中央本町1-17-1","lat":35.7748922,"lon":139.8045844},{"name":"足立区","province":"東京都","city":"足立区","address":"足立区中央本町1-17-1","lat":35.7748922,"lon":139.8045844},{"name":"足立区","province":"東京都","city":"足立区","address":"足立区中央本町1-17-1","lat":35.7748922,"lon":139.8045844},{"name":"足立区","province":"東京都","city":"足立区","address":"足立区中央本町1-17-1","lat":35.7748922,"lon":139.8045844},{"name":"足立区","province":"東京都","city":"足立区","address":"足立区中央本町1-17-1","lat":35.7748922,"lon":139.8045844},{"name":"足立区","province":"東京都","city":"足立区","address":"足立区中央本町1-17-1","lat":35.7748922,"lon":139.8045844},{"name":"足立区","province":"東京都","city":"足立区","address":"足立区中央本町1-17-1","lat":35.7748922,"lon":139.8045844},{"name":"足立区","province":"東京都","city":"足立区","address":"足立区中央本町1-17-1","lat":35.7748922,"lon":139.8045844},{"name":"足立区","province":"東京都","city":"足立区","address":"足立区中央本町1-17-1","lat":35.7748922,"lon":139.8045844},{"name":"足立区","province":"東京都","city":"足立区","address":"足立区中央本町1-17-1","lat":35.7748922,"lon":139.8045844},{"name":"足立区","province":"東京都","city":"足立区","address":"足立区中央本町1-17-1","lat":35.7748922,"lon":139.8045844},{"name":"足立区","province":"東京都","city":"足立区","address":"足立区中央本町1-17-1","lat":35.7748922,"lon":139.8045844},{"name":"足立区","province":"東京都","city":"足立区","address":"足立区中央本町1-17-1","lat":35.7748922,"lon":139.8045844},{"name":"足立区","province":"東京都","city":"足立区","address":"足立区中央本町1-17-1","lat":35.7748922,"lon":139.8045844},{"name":"足立区","province":"東京都","city":"足立区","address":"足立区中央本町1-17-1","lat":35.7748922,"lon":139.8045844},{"name":"足立区","province":"東京都","city":"足立区","address":"足立区中央本町1-17-1","lat":35.7748922,"lon":139.8045844},{"name":"足立区","province":"東京都","city":"足立区","address":"足立区中央本町1-17-1","lat":35.7748922,"lon":139.8045844},{"name":"足立区","province":"東京都","city":"足立区","address":"足立区中央本町1-17-1","lat":35.7748922,"lon":139.8045844},{"name":"足立区","province":"東京都","city":"足立区","address":"足立区中央本町1-17-1","lat":35.7748922,"lon":139.8045844},{"name":"足立区","province":"東京都","city":"足立区","address":"足立区中央本町1-17-1","lat":35.7748922,"lon":139.8045844},{"name":"足立区","province":"東京都","city":"足立区","address":"足立区中央本町1-17-1","lat":35.7748922,"lon":139.8045844},{"name":"足立区","province":"東京都","city":"足立区","address":"足立区中央本町1-17-1","lat":35.7748922,"lon":139.8045844},{"name":"足立区","province":"東京都","city":"足立区","address":"足立区中央本町1-17-1","lat":35.7748922,"lon":139.8045844},{"name":"足立区","province":"東京都","city":"足立区","address":"足立区中央本町1-17-1","lat":35.7748922,"lon":139.8045844},{"name":"足立区","province":"東京都","city":"足立区","address":"足立区中央本町1-17-1","lat":35.7748922,"lon":139.8045844},{"name":"足立区","province":"東京都","city":"足立区","address":"足立区中央本町1-17-1","lat":35.7748922,"lon":139.8045844},{"name":"足立区","province":"東京都","city":"足立区","address":"足立区中央本町1-17-1","lat":35.7748922,"lon":139.8045844},{"name":"足立区","province":"東京都","city":"足立区","address":"足立区中央本町1-17-1","lat":35.7748922,"lon":139.8045844},{"name":"足立区","province":"東京都","city":"足立区","address":"足立区中央本町1-17-1","lat":35.7748922,"lon":139.8045844},{"name":"足立区","province":"東京都","city":"足立区","address":"足立区中央本町1-17-1","lat":35.7748922,"lon":139.8045844}]}