{"keyword":"子ども","data":[{"name":"足立都税事務所","province":"東京都","city":"足立区","address":"東京都足立区西新井栄町2丁目8-15","lat":35.778009,"lon":139.788288},{"name":"足立自動車税事務所","province":"東京都","city":"足立区","address":"東京都足立区南花畑5丁目12-1","lat":35.797142,"lon":139.817134},{"name":"東京武道館","province":"東京都","city":"足立区","address":"東京都足立区綾瀬3丁目20","lat":35.765455,"lon":139.825328},{"name":"東京武道館","province":"東京都","city":"足立区","address":"東京都足立区綾瀬3丁目20","lat":35.765363,"lon":139.825582},{"name":"東京武道館","province":"東京都","city":"足立区","address":"東京都足立区綾瀬3丁目20","lat":35.766009,"lon":139.825394},{"name":"東京武道館","province":"東京都","city":"足立区","address":"東京都足立区綾瀬3丁目20","lat":35.765333,"lon":139.825572},{"name":"都立城東職業能力開発センター","province":"東京都","city":"足立区","address":"東京都足立区綾瀬5丁目6-1","lat":35.767273,"lon":139.824949},{"name":"都立城東職業能力開発センター","province":"東京都","city":"足立区","address":"東京都足立区綾瀬5丁目6-1","lat":35.767352,"lon":139.824455},{"name":"都立城東職業能力開発センター","province":"東京都","city":"足立区","address":"東京都足立区綾瀬5丁目6-1","lat":35.767261,"lon":139.824588},{"name":"都立城東職業能力開発センター","province":"東京都","city":"足立区","address":"東京都足立区綾瀬5丁目6-1","lat":35.767262,"lon":139.824537},{"name":"舎人公園","province":"東京都","city":"足立区","address":"東京都足立区皿沼3丁目33","lat":35.794784,"lon":139.767826},{"name":"舎人公園","province":"東京都","city":"足立区","address":"東京都足立区古千谷2丁目","lat":35.800631,"lon":139.77204},{"name":"舎人公園","province":"東京都","city":"足立区","address":"東京都足立区古千谷2丁目","lat":35.799974,"lon":139.771196},{"name":"舎人公園","province":"東京都","city":"足立区","address":"東京都足立区古千谷2丁目","lat":35.799699,"lon":139.773451},{"name":"舎人公園","province":"東京都","city":"足立区","address":"東京都足立区古千谷2丁目","lat":35.800413,"lon":139.774574},{"name":"舎人公園","province":"東京都","city":"足立区","address":"東京都足立区舎人公園1","lat":35.799748,"lon":139.769753},{"name":"舎人公園","province":"東京都","city":"足立区","address":"東京都足立区舎人公園1","lat":35.796465,"lon":139.764611},{"name":"舎人公園","province":"東京都","city":"足立区","address":"東京都足立区西伊興2丁目12","lat":35.794919,"lon":139.774384},{"name":"舎人公園","province":"東京都","city":"足立区","address":"東京都足立区舎人公園1","lat":35.799497,"lon":139.768547},{"name":"舎人公園","province":"東京都","city":"足立区","address":"東京都足立区古千谷1丁目","lat":35.795524,"lon":139.770927},{"name":"舎人公園","province":"東京都","city":"足立区","address":"東京都足立区舎人公園1","lat":35.796626,"lon":139.766832},{"name":"舎人公園","province":"東京都","city":"足立区","address":"東京都足立区舎人公園1","lat":35.801426,"lon":139.769813},{"name":"舎人公園","province":"東京都","city":"足立区","address":"東京都足立区舎人公園1","lat":35.797803,"lon":139.769233},{"name":"舎人公園","province":"東京都","city":"足立区","address":"東京都足立区古千谷1丁目","lat":35.798241,"lon":139.77184},{"name":"舎人公園","province":"東京都","city":"足立区","address":"東京都足立区古千谷2丁目","lat":35.798927,"lon":139.774699},{"name":"舎人公園","province":"東京都","city":"足立区","address":"東京都足立区西伊興3丁目16","lat":35.798419,"lon":139.775658},{"name":"舎人公園","province":"東京都","city":"足立区","address":"東京都足立区古千谷1丁目","lat":35.796122,"lon":139.773296},{"name":"舎人公園","province":"東京都","city":"足立区","address":"東京都足立区古千谷1丁目","lat":35.796158,"lon":139.773293},{"name":"舎人公園","province":"東京都","city":"足立区","address":"東京都足立区古千谷1丁目","lat":35.795269,"lon":139.770558},{"name":"舎人公園","province":"東京都","city":"足立区","address":"東京都足立区舎人公園1-1","lat":35.797023,"lon":139.768433},{"name":"舎人公園","province":"東京都","city":"足立区","address":"東京都足立区古千谷2丁目","lat":35.801123,"lon":139.773746},{"name":"舎人公園","province":"東京都","city":"足立区","address":"東京都足立区舎人公園1-1","lat":35.800639,"lon":139.768312},{"name":"舎人公園","province":"東京都","city":"足立区","address":"東京都足立区西伊興2丁目12","lat":35.794941,"lon":139.774385},{"name":"舎人公園","province":"東京都","city":"足立区","address":"東京都足立区西伊興町","lat":35.793024,"lon":139.771975},{"name":"中川公園","province":"東京都","city":"足立区","address":"東京都足立区中川5丁目1","lat":35.772447,"lon":139.852001},{"name":"東綾瀬公園","province":"東京都","city":"足立区","address":"東京都足立区東綾瀬3丁目4","lat":35.770142,"lon":139.832615},{"name":"東綾瀬公園","province":"東京都","city":"足立区","address":"東京都足立区綾瀬5丁目8","lat":35.768353,"lon":139.825335},{"name":"東綾瀬公園","province":"東京都","city":"足立区","address":"東京都足立区東綾瀬2丁目9","lat":35.766953,"lon":139.832305},{"name":"東綾瀬公園","province":"東京都","city":"足立区","address":"東京都足立区綾瀬6丁目37","lat":35.770625,"lon":139.82721},{"name":"東綾瀬公園","province":"東京都","city":"足立区","address":"東京都足立区綾瀬5丁目8","lat":35.768343,"lon":139.825339},{"name":"東綾瀬公園","province":"東京都","city":"足立区","address":"東京都足立区綾瀬3丁目10","lat":35.76276,"lon":139.82752},{"name":"東綾瀬公園","province":"東京都","city":"足立区","address":"東京都足立区東綾瀬3丁目4","lat":35.770669,"lon":139.833952},{"name":"中川公園","province":"東京都","city":"足立区","address":"東京都足立区中川5丁目1","lat":35.774988,"lon":139.845383},{"name":"日暮里・舎人ライナー足立小台駅","province":"東京都","city":"足立区","address":"東京都足立区小台1丁目20-1","lat":35.754577,"lon":139.770365},{"name":"日暮里・舎人ライナー扇大橋駅","province":"東京都","city":"足立区","address":"東京都足立区扇2丁目25-17","lat":35.763903,"lon":139.770829},{"name":"日暮里・舎人ライナー高野駅","province":"東京都","city":"足立区","address":"東京都足立区扇2丁目45-1","lat":35.76838,"lon":139.770644},{"name":"日暮里・舎人ライナー江北駅","province":"東京都","city":"足立区","address":"東京都足立区江北4丁目30-27","lat":35.773851,"lon":139.770261},{"name":"日暮里・舎人ライナー西新井大師西駅","province":"東京都","city":"足立区","address":"東京都足立区江北6丁目30-23","lat":35.781478,"lon":139.770108},{"name":"日暮里・舎人ライナー谷在家駅","province":"東京都","city":"足立区","address":"東京都足立区谷在家3丁目20","lat":35.788762,"lon":139.770108},{"name":"日暮里・舎人ライナー舎人駅","province":"東京都","city":"足立区","address":"東京都足立区舎人1丁目16-15","lat":35.805625,"lon":139.770133},{"name":"日暮里・舎人ライナー舎人公園駅","province":"東京都","city":"足立区","address":"東京都足立区舎人公園1-10","lat":35.796398,"lon":139.770164},{"name":"日暮里・舎人ライナー見沼代親水公園駅","province":"東京都","city":"足立区","address":"東京都足立区舎人2丁目21-13","lat":35.814444,"lon":139.7707},{"name":"東京都水道局足立営業所","province":"東京都","city":"足立区","address":"東京都足立区中央本町3丁目8-2","lat":35.771961,"lon":139.807747},{"name":"千住消防署","province":"東京都","city":"足立区","address":"東京都足立区千住中居町9-14","lat":35.748899,"lon":139.798688},{"name":"西新井消防署舎人出張所","province":"東京都","city":"足立区","address":"東京都足立区舎人2丁目18-12","lat":35.81161,"lon":139.770434},{"name":"少年運動場","province":"東京都","city":"足立区","address":"東京都足立区小台1丁目","lat":35.755525,"lon":139.776659},{"name":"西新井橋野球場","province":"東京都","city":"足立区","address":"東京都足立区千住元町","lat":35.757275,"lon":139.791347},{"name":"足立区役所","province":"東京都","city":"足立区","address":"東京都足立区中央本町1丁目17","lat":35.775014,"lon":139.804741},{"name":"足立区役所","province":"東京都","city":"足立区","address":"東京都足立区中央本町1丁目17-1","lat":35.774954,"lon":139.803991},{"name":"足立区役所","province":"東京都","city":"足立区","address":"東京都足立区中央本町1丁目17-1","lat":35.775554,"lon":139.804223},{"name":"足立区役所","province":"東京都","city":"足立区","address":"東京都足立区中央本町1丁目17-1","lat":35.774817,"lon":139.804001},{"name":"足立区役所","province":"東京都","city":"足立区","address":"東京都足立区中央本町1丁目17-1","lat":35.774658,"lon":139.804551},{"name":"足立区役所","province":"東京都","city":"足立区","address":"東京都足立区中央本町1丁目17-1","lat":35.774681,"lon":139.804582},{"name":"足立区役所","province":"東京都","city":"足立区","address":"東京都足立区中央本町1丁目17-1","lat":35.774781,"lon":139.804549},{"name":"足立区役所","province":"東京都","city":"足立区","address":"東京都足立区中央本町1丁目17-1","lat":35.77488,"lon":139.804356},{"name":"足立区役所","province":"東京都","city":"足立区","address":"東京都足立区梅島2丁目2-2","lat":35.775625,"lon":139.802974},{"name":"足立区役所千住庁舎","province":"東京都","city":"足立区","address":"東京都足立区千住仲町19-3","lat":35.746244,"lon":139.801592},{"name":"足立区足立福祉事務所","province":"東京都","city":"足立区","address":"東京都足立区中央本町4丁目5-2","lat":35.77711,"lon":139.805812},{"name":"綾瀬障がい福祉施設","province":"東京都","city":"足立区","address":"東京都足立区東綾瀬1丁目26-2","lat":35.765852,"lon":139.831313},{"name":"綾瀬障がい福祉施設","province":"東京都","city":"足立区","address":"東京都足立区東綾瀬1丁目26-2","lat":35.765852,"lon":139.831236},{"name":"足立区中川区民事務所","province":"東京都","city":"足立区","address":"東京都足立区中川4丁目43-4","lat":35.77178,"lon":139.850084},{"name":"足立区中川区民事務所","province":"東京都","city":"足立区","address":"東京都足立区中川4丁目43-4","lat":35.771735,"lon":139.850136},{"name":"足立区こども支援センターげんき","province":"東京都","city":"足立区","address":"東京都足立区梅島3丁目28-8","lat":35.775552,"lon":139.792662},{"name":"足立区こども支援センターげんき","province":"東京都","city":"足立区","address":"東京都足立区梅島3丁目28-8","lat":35.775601,"lon":139.792684},{"name":"東綾瀬区民事務所","province":"東京都","city":"足立区","address":"東京都足立区東綾瀬2丁目3","lat":35.767656,"lon":139.830041},{"name":"六木住区センター","province":"東京都","city":"足立区","address":"東京都足立区六木3丁目39-5","lat":35.799844,"lon":139.840191},{"name":"渕江住区センター分館","province":"東京都","city":"足立区","address":"東京都足立区西保木間3丁目14-16","lat":35.804335,"lon":139.800315},{"name":"東和住区センター","province":"東京都","city":"足立区","address":"東京都足立区東和3丁目12-9","lat":35.771161,"lon":139.83962},{"name":"江南住区センター","province":"東京都","city":"足立区","address":"東京都足立区小台2丁目45-4","lat":35.758721,"lon":139.761305},{"name":"伊興住区センター","province":"東京都","city":"足立区","address":"東京都足立区伊興5丁目22-13","lat":35.798192,"lon":139.780029},{"name":"舎人住区センター","province":"東京都","city":"足立区","address":"東京都足立区舎人1丁目3-26","lat":35.806008,"lon":139.773151},{"name":"南花畑住区センター","province":"東京都","city":"足立区","address":"東京都足立区南花畑3丁目14-7","lat":35.790519,"lon":139.824806},{"name":"綾瀬住区センター","province":"東京都","city":"足立区","address":"東京都足立区綾瀬3丁目17-9","lat":35.764748,"lon":139.82458},{"name":"千住本町住区センター","province":"東京都","city":"足立区","address":"東京都足立区千住5丁目6-2","lat":35.754741,"lon":139.803607},{"name":"加平住区センター","province":"東京都","city":"足立区","address":"東京都足立区加平1丁目10-6","lat":35.775021,"lon":139.828155},{"name":"江南住区センター","province":"東京都","city":"足立区","address":"東京都足立区小台2丁目45-4","lat":35.758801,"lon":139.761372},{"name":"長門住区センター分館","province":"東京都","city":"足立区","address":"東京都足立区中川4丁目43-4","lat":35.771771,"lon":139.850114},{"name":"栗島住区センター","province":"東京都","city":"足立区","address":"東京都足立区中央本町4丁目5-2","lat":35.776373,"lon":139.805804},{"name":"長門住区センター分館","province":"東京都","city":"足立区","address":"東京都足立区中川4丁目43-4","lat":35.771775,"lon":139.850064},{"name":"神明住区センター","province":"東京都","city":"足立区","address":"東京都足立区神明南2丁目6-18","lat":35.787825,"lon":139.833199},{"name":"平野住区センター","province":"東京都","city":"足立区","address":"東京都足立区平野2丁目2-14","lat":35.782236,"lon":139.804634},{"name":"東綾瀬住区センター","province":"東京都","city":"足立区","address":"東京都足立区東綾瀬1丁目28-7","lat":35.766138,"lon":139.832998},{"name":"千住あずま住区センター","province":"東京都","city":"足立区","address":"東京都足立区千住東2丁目21","lat":35.745558,"lon":139.810278},{"name":"千住あずま住区センター","province":"東京都","city":"足立区","address":"東京都足立区千住東2丁目21","lat":35.745573,"lon":139.810287},{"name":"押皿谷住区センター（西部福祉課を含む）","province":"東京都","city":"足立区","address":"東京都足立区鹿浜8丁目27-15","lat":35.789984,"lon":139.76502},{"name":"千住河原町住区センター","province":"東京都","city":"足立区","address":"東京都足立区千住河原町5-12","lat":35.744557,"lon":139.795768},{"name":"千住河原町住区センター","province":"東京都","city":"足立区","address":"東京都足立区千住河原町6-4","lat":35.744696,"lon":139.796084},{"name":"西伊興住区センター","province":"東京都","city":"足立区","address":"東京都足立区西伊興1丁目12-12","lat":35.790845,"lon":139.773527},{"name":"本木関原住区センター","province":"東京都","city":"足立区","address":"東京都足立区関原1丁目21-11","lat":35.764731,"lon":139.787209},{"name":"足立区鹿浜いきいき館","province":"東京都","city":"足立区","address":"東京都足立区鹿浜2丁目24-2","lat":35.780544,"lon":139.749094},{"name":"千住柳町住区センター","province":"東京都","city":"足立区","address":"東京都足立区千住柳町12-5","lat":35.753742,"lon":139.796218},{"name":"千住柳町住区センター","province":"東京都","city":"足立区","address":"東京都足立区千住柳町12-5","lat":35.753727,"lon":139.796135},{"name":"桜花住区センター","province":"東京都","city":"足立区","address":"東京都足立区花畑6丁目4","lat":35.804882,"lon":139.816929},{"name":"入谷住区センター","province":"東京都","city":"足立区","address":"東京都足立区舎人6丁目12-4","lat":35.811422,"lon":139.761986},{"name":"大谷田谷中住区センター","province":"東京都","city":"足立区","address":"東京都足立区大谷田4丁目16-6","lat":35.780824,"lon":139.838461},{"name":"西新井本町住区センター","province":"東京都","city":"足立区","address":"東京都足立区西新井本町2丁目30-37","lat":35.776549,"lon":139.77141},{"name":"興本住区センター","province":"東京都","city":"足立区","address":"東京都足立区本木東町17-10","lat":35.767462,"lon":139.781118},{"name":"保塚住区センター","province":"東京都","city":"足立区","address":"東京都足立区保塚町7","lat":35.786638,"lon":139.816178},{"name":"足立保健所東部保健センター","province":"東京都","city":"足立区","address":"東京都足立区大谷田3丁目11-13","lat":35.779774,"lon":139.842351},{"name":"西新井センター","province":"東京都","city":"足立区","address":"東京都足立区西新井1丁目4-17","lat":35.778717,"lon":139.780597},{"name":"足立区悠々会館","province":"東京都","city":"足立区","address":"東京都足立区西保木間4丁目9-1","lat":35.803399,"lon":139.796641},{"name":"足立保健所竹の塚保健センター","province":"東京都","city":"足立区","address":"東京都足立区西竹の塚1丁目11-2","lat":35.793089,"lon":139.789583},{"name":"足立区　足立保健所江北保健センター","province":"東京都","city":"足立区","address":"東京都足立区西新井本町2丁目30-40","lat":35.776024,"lon":139.771544},{"name":"足立保健所竹の塚保健センター","province":"東京都","city":"足立区","address":"東京都足立区西竹の塚1丁目11-2","lat":35.793513,"lon":139.789687},{"name":"足立保健所竹の塚保健センター","province":"東京都","city":"足立区","address":"東京都足立区西竹の塚1丁目11-2","lat":35.793446,"lon":139.789902},{"name":"足立区役所千住庁舎","province":"東京都","city":"足立区","address":"東京都足立区千住仲町19-3","lat":35.746279,"lon":139.801647},{"name":"足立保健所","province":"東京都","city":"足立区","address":"東京都足立区中央本町1丁目5-3","lat":35.771013,"lon":139.80371},{"name":"足立区立梅田図書館","province":"東京都","city":"足立区","address":"東京都足立区梅田7丁目13-1","lat":35.768414,"lon":139.800801},{"name":"足立区立中央図書館","province":"東京都","city":"足立区","address":"東京都足立区千住5丁目13-5","lat":35.756469,"lon":139.802562},{"name":"足立区立中央図書館","province":"東京都","city":"足立区","address":"東京都足立区千住5丁目13-5","lat":35.756445,"lon":139.802533},{"name":"足立区立伊興遺跡公園展示館","province":"東京都","city":"足立区","address":"東京都足立区東伊興4丁目9-1","lat":35.804406,"lon":139.786375},{"name":"足立区立郷土博物館","province":"東京都","city":"足立区","address":"東京都足立区大谷田5丁目20-1","lat":35.784524,"lon":139.841539},{"name":"足立区生涯学習センター","province":"東京都","city":"足立区","address":"東京都足立区千住5丁目13-5","lat":35.75633,"lon":139.802396},{"name":"足立区生涯学習センター","province":"東京都","city":"足立区","address":"東京都足立区千住5丁目13-5","lat":35.75667,"lon":139.802433},{"name":"足立区生涯学習センター","province":"東京都","city":"足立区","address":"東京都足立区千住5丁目13-5","lat":35.75667,"lon":139.802377},{"name":"足立区生涯学習センター","province":"東京都","city":"足立区","address":"東京都足立区千住5丁目13-5","lat":35.75637,"lon":139.802297},{"name":"足立区生涯学習センター","province":"東京都","city":"足立区","address":"東京都足立区千住5丁目13-5","lat":35.75648,"lon":139.802687},{"name":"足立区生涯学習センター","province":"東京都","city":"足立区","address":"東京都足立区千住5丁目13-5","lat":35.75643,"lon":139.802347},{"name":"足立区生涯学習センター","province":"東京都","city":"足立区","address":"東京都足立区千住5丁目13-5","lat":35.75649,"lon":139.802377},{"name":"足立区伊興地域学習センター","province":"東京都","city":"足立区","address":"東京都足立区伊興2丁目4-22","lat":35.79127,"lon":139.780976},{"name":"足立区梅田地域学習センター","province":"東京都","city":"足立区","address":"東京都足立区梅田7丁目33-1","lat":35.77058,"lon":139.798306},{"name":"足立区立興本地域学習センター","province":"東京都","city":"足立区","address":"東京都足立区興野1丁目17-7","lat":35.76838,"lon":139.783246},{"name":"足立区立興本地域学習センター","province":"東京都","city":"足立区","address":"東京都足立区興野1丁目18-38","lat":35.76836,"lon":139.782495},{"name":"足立区江北地域学習センター","province":"東京都","city":"足立区","address":"東京都足立区江北3丁目39-4","lat":35.77594,"lon":139.760134},{"name":"足立区佐野地域学習センター","province":"東京都","city":"足立区","address":"東京都足立区佐野2丁目43-5","lat":35.78818,"lon":139.840316},{"name":"足立区江北地域学習センター","province":"東京都","city":"足立区","address":"東京都足立区江北3丁目39-4","lat":35.77577,"lon":139.760289},{"name":"足立区新田地域学習センター","province":"東京都","city":"足立区","address":"東京都足立区新田2丁目2-2","lat":35.77142,"lon":139.737974},{"name":"足立区鹿浜地域学習センター","province":"東京都","city":"足立区","address":"東京都足立区鹿浜6丁目8-1","lat":35.784055,"lon":139.758271},{"name":"足立区鹿浜地域学習センター","province":"東京都","city":"足立区","address":"東京都足立区鹿浜6丁目8-1","lat":35.784204,"lon":139.75816},{"name":"足立区東和地域学習センター","province":"東京都","city":"足立区","address":"東京都足立区東和3丁目12-9","lat":35.77128,"lon":139.839527},{"name":"足立区竹の塚地域学習センター","province":"東京都","city":"足立区","address":"東京都足立区竹の塚2丁目25-17","lat":35.79266,"lon":139.794543},{"name":"足立区竹の塚地域学習センター","province":"東京都","city":"足立区","address":"東京都足立区竹の塚2丁目25-17","lat":35.7926,"lon":139.794842},{"name":"足立区竹の塚地域学習センター","province":"東京都","city":"足立区","address":"東京都足立区竹の塚2丁目25-17","lat":35.792644,"lon":139.794875},{"name":"足立区中央本町地域学習センター","province":"東京都","city":"足立区","address":"東京都足立区中央本町3丁目15-1","lat":35.77219,"lon":139.809697},{"name":"足立区中央本町地域学習センター","province":"東京都","city":"足立区","address":"東京都足立区中央本町3丁目15-1","lat":35.77221,"lon":139.809614},{"name":"足立区東和地域学習センター","province":"東京都","city":"足立区","address":"東京都足立区東和3丁目12-9","lat":35.77139,"lon":139.83948},{"name":"足立区東和地域学習センター","province":"東京都","city":"足立区","address":"東京都足立区東和3丁目12-9","lat":35.77107,"lon":139.839673},{"name":"足立区東和地域学習センター","province":"東京都","city":"足立区","address":"東京都足立区東和3丁目12-9","lat":35.771139,"lon":139.839602},{"name":"足立区こども未来創造館","province":"東京都","city":"足立区","address":"東京都足立区栗原1丁目3-1","lat":35.77952,"lon":139.790443},{"name":"足立区舎人地域学習センター","province":"東京都","city":"足立区","address":"東京都足立区舎人1丁目3-26","lat":35.80613,"lon":139.773199},{"name":"足立区花畑地域学習センター","province":"東京都","city":"足立区","address":"東京都足立区花畑4丁目16-8","lat":35.80282,"lon":139.807313},{"name":"足立区こども未来創造館","province":"東京都","city":"足立区","address":"東京都足立区栗原1丁目3-1","lat":35.77946,"lon":139.790391},{"name":"足立区こども未来創造館","province":"東京都","city":"足立区","address":"東京都足立区栗原1丁目2-1","lat":35.77942,"lon":139.790398},{"name":"足立区こども未来創造館","province":"東京都","city":"足立区","address":"東京都足立区栗原1丁目2-1","lat":35.77942,"lon":139.790436},{"name":"足立区こども未来創造館","province":"東京都","city":"足立区","address":"東京都足立区栗原1丁目3-1","lat":35.77945,"lon":139.790369},{"name":"足立区こども未来創造館","province":"東京都","city":"足立区","address":"東京都足立区栗原1丁目3-1","lat":35.77953,"lon":139.790193},{"name":"足立区西新井文化ホール","province":"東京都","city":"足立区","address":"東京都足立区栗原1丁目3-1","lat":35.77968,"lon":139.79061},{"name":"足立区保塚地域学習センター","province":"東京都","city":"足立区","address":"東京都足立区保塚町7-16","lat":35.786914,"lon":139.816268},{"name":"足立区保塚地域学習センター","province":"東京都","city":"足立区","address":"東京都足立区保塚町7","lat":35.786646,"lon":139.816089},{"name":"足立区保塚地域学習センター","province":"東京都","city":"足立区","address":"東京都足立区保塚町7","lat":35.786638,"lon":139.816178},{"name":"足立区文化芸術劇場","province":"東京都","city":"足立区","address":"東京都足立区千住3丁目92","lat":35.750553,"lon":139.804456},{"name":"足立区文化芸術劇場","province":"東京都","city":"足立区","address":"東京都足立区千住3丁目92","lat":35.750957,"lon":139.804877},{"name":"足立区文化芸術劇場","province":"東京都","city":"足立区","address":"東京都足立区千住3丁目92","lat":35.751335,"lon":139.804572},{"name":"足立区文化芸術劇場","province":"東京都","city":"足立区","address":"東京都足立区千住3丁目92","lat":35.750863,"lon":139.804842},{"name":"足立区文化芸術劇場","province":"東京都","city":"足立区","address":"東京都足立区千住3丁目92","lat":35.751145,"lon":139.804498},{"name":"大谷田南公園","province":"東京都","city":"足立区","address":"東京都足立区中川4丁目42","lat":35.771786,"lon":139.848326},{"name":"五丁田公園","province":"東京都","city":"足立区","address":"東京都足立区大谷田3丁目7","lat":35.77778,"lon":139.841427},{"name":"河添公園","province":"東京都","city":"足立区","address":"東京都足立区綾瀬2丁目46","lat":35.76168,"lon":139.83076},{"name":"大谷田公園","province":"東京都","city":"足立区","address":"東京都足立区大谷田4丁目4","lat":35.77837,"lon":139.837815},{"name":"下河原公園（東側）","province":"東京都","city":"足立区","address":"東京都足立区東綾瀬1丁目11","lat":35.763826,"lon":139.834415},{"name":"元渕江公園","province":"東京都","city":"足立区","address":"東京都足立区保木間2丁目17","lat":35.792068,"lon":139.805954},{"name":"毛長公園","province":"東京都","city":"足立区","address":"東京都足立区花畑5丁目13","lat":35.807688,"lon":139.810944},{"name":"毛長公園","province":"東京都","city":"足立区","address":"東京都足立区花畑5丁目9","lat":35.808456,"lon":139.806528},{"name":"仲組公園","province":"東京都","city":"足立区","address":"東京都足立区花畑3丁目38","lat":35.805674,"lon":139.813419},{"name":"鷲宿公園","province":"東京都","city":"足立区","address":"東京都足立区花畑7丁目9","lat":35.809506,"lon":139.81968},{"name":"しょうぶ沼公園（西側）","province":"東京都","city":"足立区","address":"東京都足立区谷中2丁目4","lat":35.775847,"lon":139.83036},{"name":"雪見公園","province":"東京都","city":"足立区","address":"東京都足立区神明南2丁目17","lat":35.79156,"lon":139.831733},{"name":"一ツ家第四公園","province":"東京都","city":"足立区","address":"東京都足立区一ツ家1丁目26","lat":35.784171,"lon":139.810068},{"name":"足立区生物園","province":"東京都","city":"足立区","address":"東京都足立区保木間2丁目17","lat":35.792138,"lon":139.806937},{"name":"花畑公園","province":"東京都","city":"足立区","address":"東京都足立区花畑4丁目40","lat":35.806228,"lon":139.807365},{"name":"一ツ家第一公園（南側）","province":"東京都","city":"足立区","address":"東京都足立区一ツ家4丁目16","lat":35.780317,"lon":139.817392},{"name":"青井公園","province":"東京都","city":"足立区","address":"東京都足立区青井1丁目11","lat":35.774725,"lon":139.813107},{"name":"平野公園","province":"東京都","city":"足立区","address":"東京都足立区平野3丁目15","lat":35.784851,"lon":139.808081},{"name":"前谷公園","province":"東京都","city":"足立区","address":"東京都足立区花畑1丁目10","lat":35.800269,"lon":139.810942},{"name":"栗島公園","province":"東京都","city":"足立区","address":"東京都足立区中央本町5丁目21","lat":35.777617,"lon":139.809964},{"name":"陣川戸公園（南側）","province":"東京都","city":"足立区","address":"東京都足立区保木間5丁目17","lat":35.801908,"lon":139.807604},{"name":"五反野コミュニティ公園","province":"東京都","city":"足立区","address":"東京都足立区西綾瀬2丁目1","lat":35.761484,"lon":139.814846},{"name":"沖谷公園","province":"東京都","city":"足立区","address":"東京都足立区谷中4丁目18","lat":35.780825,"lon":139.833073},{"name":"桜花亭","province":"東京都","city":"足立区","address":"東京都足立区花畑4丁目40-1","lat":35.806013,"lon":139.807468},{"name":"桜花亭","province":"東京都","city":"足立区","address":"東京都足立区花畑4丁目40-1","lat":35.805987,"lon":139.807356},{"name":"足立区都市農業公園","province":"東京都","city":"足立区","address":"東京都足立区鹿浜2丁目44-1","lat":35.783028,"lon":139.745408},{"name":"青井ふれあい公園","province":"東京都","city":"足立区","address":"東京都足立区青井1丁目3","lat":35.772656,"lon":139.810849},{"name":"青和コミュニティ公園","province":"東京都","city":"足立区","address":"東京都足立区青井3丁目22","lat":35.773276,"lon":139.818484},{"name":"弘道中央公園","province":"東京都","city":"足立区","address":"東京都足立区弘道2丁目3","lat":35.768523,"lon":139.81533},{"name":"神明南公園","province":"東京都","city":"足立区","address":"東京都足立区神明南1丁目7","lat":35.789107,"lon":139.830815},{"name":"葛西用水親水水路","province":"東京都","city":"足立区","address":"東京都足立区六木4丁目3","lat":35.794401,"lon":139.839884},{"name":"辰沼二丁目公園","province":"東京都","city":"足立区","address":"東京都足立区辰沼2丁目11","lat":35.788915,"lon":139.833481},{"name":"北加平公園","province":"東京都","city":"足立区","address":"東京都足立区北加平町16","lat":35.785353,"lon":139.829471},{"name":"弘道いこい公園","province":"東京都","city":"足立区","address":"東京都足立区弘道1丁目10","lat":35.767328,"lon":139.811948},{"name":"西綾瀬そよかぜ公園","province":"東京都","city":"足立区","address":"東京都足立区西綾瀬3丁目3","lat":35.762055,"lon":139.816638},{"name":"やよい公園","province":"東京都","city":"足立区","address":"東京都足立区中央本町2丁目13","lat":35.770366,"lon":139.808046},{"name":"佐野一丁目ゆめ公園","province":"東京都","city":"足立区","address":"東京都足立区佐野1丁目20","lat":35.786635,"lon":139.843077},{"name":"綾瀬七丁目丘公園","province":"東京都","city":"足立区","address":"東京都足立区綾瀬7丁目15","lat":35.773188,"lon":139.827989},{"name":"花六東公園","province":"東京都","city":"足立区","address":"東京都足立区花畑6丁目23","lat":35.805934,"lon":139.818694},{"name":"神明南ふれあい公園","province":"東京都","city":"足立区","address":"東京都足立区神明南1丁目3","lat":35.787461,"lon":139.829358},{"name":"六木二丁目中央公園","province":"東京都","city":"足立区","address":"東京都足立区六木2丁目6","lat":35.792684,"lon":139.841797},{"name":"弘道一丁目ふれあい児童遊園","province":"東京都","city":"足立区","address":"東京都足立区弘道1丁目26","lat":35.768928,"lon":139.810523},{"name":"梅島公園","province":"東京都","city":"足立区","address":"東京都足立区梅田7丁目20","lat":35.769823,"lon":139.800422},{"name":"中郷公園","province":"東京都","city":"足立区","address":"東京都足立区西新井1丁目29","lat":35.78199,"lon":139.780542},{"name":"竹の塚第三公園","province":"東京都","city":"足立区","address":"東京都足立区竹の塚4丁目7","lat":35.793705,"lon":139.799198},{"name":"上沼田第二公園","province":"東京都","city":"足立区","address":"東京都足立区江北4丁目21","lat":35.775712,"lon":139.766535},{"name":"諏訪木東公園","province":"東京都","city":"足立区","address":"東京都足立区西新井3丁目25","lat":35.78993,"lon":139.781377},{"name":"西中第一公園","province":"東京都","city":"足立区","address":"東京都足立区西新井6丁目44","lat":35.782607,"lon":139.776439},{"name":"六月町公園","province":"東京都","city":"足立区","address":"東京都足立区六月3丁目17","lat":35.787268,"lon":139.792263},{"name":"北鹿浜公園","province":"東京都","city":"足立区","address":"東京都足立区鹿浜3丁目26","lat":35.782525,"lon":139.754682},{"name":"北鹿浜公園","province":"東京都","city":"足立区","address":"東京都足立区鹿浜3丁目26","lat":35.78193,"lon":139.75415},{"name":"西新井西公園","province":"東京都","city":"足立区","address":"東京都足立区西新井6丁目9","lat":35.778971,"lon":139.773851},{"name":"鹿浜校趾公園","province":"東京都","city":"足立区","address":"東京都足立区鹿浜3丁目14","lat":35.780748,"lon":139.752475},{"name":"入谷緑地公園","province":"東京都","city":"足立区","address":"東京都足立区入谷5丁目1","lat":35.80219,"lon":139.762071},{"name":"西保木間公園","province":"東京都","city":"足立区","address":"東京都足立区西保木間2丁目14","lat":35.801865,"lon":139.800268},{"name":"上沼田北公園","province":"東京都","city":"足立区","address":"東京都足立区江北7丁目16","lat":35.782297,"lon":139.764352},{"name":"島根公園","province":"東京都","city":"足立区","address":"東京都足立区島根2丁目14","lat":35.78324,"lon":139.799799},{"name":"江北公園","province":"東京都","city":"足立区","address":"東京都足立区鹿浜1丁目2","lat":35.777189,"lon":139.75022},{"name":"江北公園","province":"東京都","city":"足立区","address":"東京都足立区鹿浜5丁目10","lat":35.785911,"lon":139.751127},{"name":"新田さくら公園","province":"東京都","city":"足立区","address":"東京都足立区新田3丁目34","lat":35.768299,"lon":139.746539},{"name":"入谷中央公園","province":"東京都","city":"足立区","address":"東京都足立区入谷4丁目16","lat":35.808271,"lon":139.760504},{"name":"島根中堀公園","province":"東京都","city":"足立区","address":"東京都足立区島根4丁目36","lat":35.783606,"lon":139.793255},{"name":"江北平成公園","province":"東京都","city":"足立区","address":"東京都足立区江北4丁目16","lat":35.773504,"lon":139.764463},{"name":"江北平成公園","province":"東京都","city":"足立区","address":"東京都足立区江北4丁目15","lat":35.772867,"lon":139.765541},{"name":"入谷中郷南恐竜公園","province":"東京都","city":"足立区","address":"東京都足立区入谷5丁目12","lat":35.803811,"lon":139.763026},{"name":"皿沼公園","province":"東京都","city":"足立区","address":"東京都足立区皿沼2丁目25","lat":35.792051,"lon":139.764587},{"name":"ベルモント公園（南側）","province":"東京都","city":"足立区","address":"東京都足立区梅島1丁目33-7","lat":35.774783,"lon":139.799359},{"name":"竹北公園","province":"東京都","city":"足立区","address":"東京都足立区竹の塚7丁目19","lat":35.80079,"lon":139.794543},{"name":"入谷日の出公園","province":"東京都","city":"足立区","address":"東京都足立区入谷1丁目3","lat":35.803103,"lon":139.771167},{"name":"島六ふれあい公園","province":"東京都","city":"足立区","address":"東京都足立区六月1丁目7","lat":35.7852,"lon":139.799857},{"name":"江北みどり公園","province":"東京都","city":"足立区","address":"東京都足立区江北3丁目8","lat":35.77288,"lon":139.762725},{"name":"東伊興淵之宮公園","province":"東京都","city":"足立区","address":"東京都足立区東伊興2丁目4","lat":35.804894,"lon":139.790268},{"name":"伊興北の根公園","province":"東京都","city":"足立区","address":"東京都足立区伊興本町1丁目16","lat":35.799555,"lon":139.788724},{"name":"西新井さくら公園","province":"東京都","city":"足立区","address":"東京都足立区西新井2丁目6","lat":35.784089,"lon":139.780214},{"name":"西保木間一丁目公園","province":"東京都","city":"足立区","address":"東京都足立区西保木間1丁目7","lat":35.794938,"lon":139.800452},{"name":"上沼田南どんぐり公園","province":"東京都","city":"足立区","address":"東京都足立区江北3丁目34","lat":35.776988,"lon":139.763738},{"name":"西新井さかえ公園","province":"東京都","city":"足立区","address":"東京都足立区西新井栄町1丁目19","lat":35.773463,"lon":139.787307},{"name":"梅田五丁目フレンド公園","province":"東京都","city":"足立区","address":"東京都足立区梅田5丁目25","lat":35.770067,"lon":139.795468},{"name":"亀田トレイン公園","province":"東京都","city":"足立区","address":"東京都足立区梅田8丁目14","lat":35.774357,"lon":139.79302},{"name":"西新井蓮沼公園","province":"東京都","city":"足立区","address":"東京都足立区西新井1丁目20","lat":35.779859,"lon":139.782437},{"name":"伊興四丁目公園","province":"東京都","city":"足立区","address":"東京都足立区伊興4丁目19","lat":35.796574,"lon":139.780008},{"name":"江北六丁目児童遊園","province":"東京都","city":"足立区","address":"東京都足立区江北6丁目30","lat":35.781693,"lon":139.768322},{"name":"宮城公園","province":"東京都","city":"足立区","address":"東京都足立区宮城1丁目38","lat":35.761595,"lon":139.758342},{"name":"千住スポーツ公園（南側）","province":"東京都","city":"足立区","address":"東京都足立区千住緑町2丁目1","lat":35.743541,"lon":139.794869},{"name":"千住仲町公園（西側）","province":"東京都","city":"足立区","address":"東京都足立区千住仲町28","lat":35.743774,"lon":139.801433},{"name":"千住桜木町公園","province":"東京都","city":"足立区","address":"東京都足立区千住桜木1丁目5","lat":35.749731,"lon":139.7928},{"name":"千住中居町公園","province":"東京都","city":"足立区","address":"東京都足立区千住中居町24","lat":35.749641,"lon":139.796425},{"name":"関屋公園","province":"東京都","city":"足立区","address":"東京都足立区千住関屋町17","lat":35.741405,"lon":139.806448},{"name":"新田稲荷公園","province":"東京都","city":"足立区","address":"東京都足立区新田1丁目8","lat":35.775287,"lon":139.73827},{"name":"千住大橋さくら公園","province":"東京都","city":"足立区","address":"東京都足立区千住緑町1丁目1","lat":35.742918,"lon":139.794492},{"name":"花保さくら公園","province":"東京都","city":"足立区","address":"東京都足立区南花畑3丁目1","lat":35.789825,"lon":139.822313},{"name":"舎人いきいき公園","province":"東京都","city":"足立区","address":"東京都足立区舎人6丁目3","lat":35.813378,"lon":139.764985},{"name":"佐野いこいの森緑地","province":"東京都","city":"足立区","address":"東京都足立区佐野1丁目31","lat":35.789094,"lon":139.843679},{"name":"しょうぶ沼公園（東側）","province":"東京都","city":"足立区","address":"東京都足立区谷中2丁目4","lat":35.775849,"lon":139.831669},{"name":"弘道第一公園","province":"東京都","city":"足立区","address":"東京都足立区弘道2丁目16","lat":35.768143,"lon":139.817657},{"name":"中央本町三丁目のびのび広場","province":"東京都","city":"足立区","address":"東京都足立区中央本町3丁目8","lat":35.773321,"lon":139.807819},{"name":"足立区障がい福祉センター","province":"東京都","city":"足立区","address":"東京都足立区梅島3丁目31-19","lat":35.777334,"lon":139.792829},{"name":"綾瀬駅前公衆便所","province":"東京都","city":"足立区","address":"東京都足立区綾瀬3丁目10","lat":35.762757,"lon":139.827518},{"name":"青井駅前公衆便所","province":"東京都","city":"足立区","address":"東京都足立区青井3丁目16","lat":35.772251,"lon":139.819745},{"name":"綾瀬駅西口公衆便所","province":"東京都","city":"足立区","address":"東京都足立区綾瀬1丁目39","lat":35.761749,"lon":139.823894},{"name":"六町駅前公衆便所","province":"東京都","city":"足立区","address":"東京都足立区六町4丁目1","lat":35.785187,"lon":139.821569},{"name":"西新井駅東口公衆便所","province":"東京都","city":"足立区","address":"東京都足立区西新井栄町2丁目1","lat":35.777705,"lon":139.790234},{"name":"保木間公衆便所","province":"東京都","city":"足立区","address":"東京都足立区竹の塚3丁目8","lat":35.790507,"lon":139.802463},{"name":"西新井大師駅前公衆便所","province":"東京都","city":"足立区","address":"東京都足立区西新井1丁目4","lat":35.778943,"lon":139.78108},{"name":"見沼代親水公園","province":"東京都","city":"足立区","address":"東京都足立区舎人2丁目3","lat":35.809463,"lon":139.774603},{"name":"見沼代親水公園駅前公衆便所","province":"東京都","city":"足立区","address":"東京都足立区舎人5丁目29","lat":35.813899,"lon":139.770459},{"name":"江北駅前公衆便所","province":"東京都","city":"足立区","address":"東京都足立区西新井本町2丁目32","lat":35.773783,"lon":139.770539},{"name":"千住大橋際公衆便所","province":"東京都","city":"足立区","address":"東京都足立区千住橋戸町","lat":35.739999,"lon":139.797251},{"name":"北千住駅前公衆便所","province":"東京都","city":"足立区","address":"東京都足立区千住旭町42-3","lat":35.74879,"lon":139.804466},{"name":"足立区障がい福祉センター","province":"東京都","city":"足立区","address":"東京都足立区梅島3丁目31-19","lat":35.777369,"lon":139.792839},{"name":"足立区障がい福祉センター","province":"東京都","city":"足立区","address":"東京都足立区梅島3丁目31-19","lat":35.777428,"lon":139.792855},{"name":"足立区障がい福祉センター","province":"東京都","city":"足立区","address":"東京都足立区梅島3丁目31-19","lat":35.777413,"lon":139.792851},{"name":"足立区障がい福祉センター","province":"東京都","city":"足立区","address":"東京都足立区梅島3丁目31-19","lat":35.777441,"lon":139.792858},{"name":"足立区障がい福祉センター","province":"東京都","city":"足立区","address":"東京都足立区梅島3丁目31-19","lat":35.777412,"lon":139.792922},{"name":"あだち産業センター","province":"東京都","city":"足立区","address":"東京都足立区千住1丁目5-7","lat":35.747401,"lon":139.80037},{"name":"足立区障がい福祉センター","province":"東京都","city":"足立区","address":"東京都足立区梅島3丁目31-19","lat":35.777304,"lon":139.792866},{"name":"足立区勤労福祉会館","province":"東京都","city":"足立区","address":"東京都足立区綾瀬1丁目34-7","lat":35.761168,"lon":139.821427},{"name":"足立区勤労福祉会館","province":"東京都","city":"足立区","address":"東京都足立区綾瀬1丁目34-7","lat":35.761076,"lon":139.821582},{"name":"千住龍田町防災ひろば","province":"東京都","city":"足立区","address":"東京都足立区千住龍田町9","lat":35.751695,"lon":139.796137},{"name":"足立清掃事務所","province":"東京都","city":"足立区","address":"東京都足立区東伊興3丁目23-9","lat":35.804412,"lon":139.793895},{"name":"足立区総合ボランティアセンター","province":"東京都","city":"足立区","address":"東京都足立区日ノ出町27-3","lat":35.751978,"lon":139.808763},{"name":"足立区総合スポーツセンター","province":"東京都","city":"足立区","address":"東京都足立区東保木間2丁目27-1","lat":35.79229,"lon":139.813858},{"name":"足立区総合スポーツセンター","province":"東京都","city":"足立区","address":"東京都足立区東保木間2丁目27-1","lat":35.792326,"lon":139.81395},{"name":"足立区総合スポーツセンター","province":"東京都","city":"足立区","address":"東京都足立区東保木間2丁目27-1","lat":35.792341,"lon":139.81403},{"name":"足立区総合スポーツセンター","province":"東京都","city":"足立区","address":"東京都足立区東保木間2丁目27-1","lat":35.792147,"lon":139.813744},{"name":"足立区総合スポーツセンター","province":"東京都","city":"足立区","address":"東京都足立区東保木間2丁目32","lat":35.793075,"lon":139.815876},{"name":"足立区総合スポーツセンター","province":"東京都","city":"足立区","address":"東京都足立区東保木間2丁目27-1","lat":35.792118,"lon":139.813749},{"name":"六町駅前安全安心ステーション","province":"東京都","city":"足立区","address":"東京都足立区六町4丁目1","lat":35.785205,"lon":139.821438},{"name":"足立区総合スポーツセンター","province":"東京都","city":"足立区","address":"東京都足立区東保木間2丁目27","lat":35.791769,"lon":139.813136},{"name":"足立区東綾瀬公園温水温水プール","province":"東京都","city":"足立区","address":"東京都足立区東綾瀬3丁目4-1","lat":35.77037,"lon":139.831279},{"name":"足立区千寿本町小学校温水プール","province":"東京都","city":"足立区","address":"東京都足立区千住3丁目30","lat":35.751633,"lon":139.801869},{"name":"足立区平野運動場","province":"東京都","city":"足立区","address":"東京都足立区平野2丁目12","lat":35.784388,"lon":139.804261},{"name":"西綾瀬ボランティアセンター","province":"東京都","city":"足立区","address":"東京都足立区西綾瀬4丁目5-6","lat":35.7647,"lon":139.819612},{"name":"足立区スイムスポーツセンター(うきうき館）","province":"東京都","city":"足立区","address":"東京都足立区西保木間4丁目10-1","lat":35.803466,"lon":139.797088},{"name":"足立区スイムスポーツセンター(うきうき館）","province":"東京都","city":"足立区","address":"東京都足立区西保木間4丁目10-1","lat":35.803814,"lon":139.797233},{"name":"足立トラックターミナル","province":"東京都","city":"足立区","address":"東京都足立区入谷6丁目1-1","lat":35.79902128,"lon":139.7665504},{"name":"足立区立千住新橋グラウンド（虹の広場）","province":"東京都","city":"足立区","address":"東京都足立区千住5丁目22","lat":35.75549987,"lon":139.8057852},{"name":"荒川西新井橋緑地グラウンド","province":"東京都","city":"足立区","address":"東京都足立区梅田3丁目5","lat":35.76227094,"lon":139.79617997},{"name":"都立東綾瀬公園東側野球場","province":"東京都","city":"足立区","address":"東京都足立区東綾瀬3丁目4","lat":35.77023453,"lon":139.83256528},{"name":"都立東綾瀬公園西側野球場","province":"東京都","city":"足立区","address":"東京都足立区綾瀬6丁目37","lat":35.77132878,"lon":139.82859614},{"name":"足立区立谷中公園野球場","province":"東京都","city":"足立区","address":"東京都足立区谷中2丁目23-36","lat":35.77618936,"lon":139.83499544},{"name":"足立区立平野運動場","province":"東京都","city":"足立区","address":"東京都足立区平野2丁目12-1","lat":35.78418247,"lon":139.80431995},{"name":"都立舎人公園管理事務所空地","province":"東京都","city":"足立区","address":"東京都足立区舎人公園","lat":35.79704103,"lon":139.76834198},{"name":"都立舎人公園陸上競技場","province":"東京都","city":"足立区","address":"東京都足立区舎人公園","lat":35.79704103,"lon":139.76834198},{"name":"都立舎人公園野球場","province":"東京都","city":"足立区","address":"東京都足立区舎人公園","lat":35.79704103,"lon":139.76834198},{"name":"足立区立保木間公園","province":"東京都","city":"足立区","address":"東京都足立区竹の塚","lat":35.79213976,"lon":139.79757301},{"name":"総合スポーツセンター","province":"東京都","city":"足立区","address":"東京都足立区東保木間","lat":35.79359268,"lon":139.81228565},{"name":"＊?西新井文化ホール(ｷﾞｬﾗｸｼﾃｨ内)","province":"東京都","city":"足立区","address":"足立区栗原1-3-1","lat":35.779785,"lon":139.790513},{"name":"＊?足立区文化芸術劇場（THEATER?1010）","province":"東京都","city":"足立区","address":"足立区千住3-92千住ミルディス(1)番館10階","lat":35.75088,"lon":139.804575},{"name":"足立トラックターミナル","province":"東京都","city":"足立区","address":"東京都足立区入谷6丁目1-1","lat":35.79902128,"lon":139.7665504},{"name":"新田緊急用船着場","province":"東京都","city":"足立区","address":"東京都足立区新田3丁目","lat":35.77048507,"lon":139.74322027},{"name":"足立緊急用船着場","province":"東京都","city":"足立区","address":"東京都足立区足立2丁目","lat":35.76116864,"lon":139.80978165},{"name":"足立区立保木間公園","province":"東京都","city":"足立区","address":"東京都足立区竹の塚3丁目8-1","lat":35.79027618,"lon":139.80209492},{"name":"都立東綾瀬公園","province":"東京都","city":"足立区","address":"東京都足立区東綾瀬3丁目4","lat":35.77023453,"lon":139.83256528},{"name":"都立舎人公園","province":"東京都","city":"足立区","address":"東京都足立区舎人公園1-1","lat":35.79709935,"lon":139.76835863},{"name":"第六建設事務所","province":"東京都","city":"足立区","address":"足立区千住東2-10-10","lat":35.74539,"lon":139.8081},{"name":"足立区","province":"東京都","city":"足立区","address":"足立区綾瀬2-23-7","lat":35.76156,"lon":139.8273},{"name":"（株）星医療酸器","province":"東京都","city":"足立区","address":"足立区入谷7-11-12","lat":35.80253,"lon":139.7583},{"name":"北千住駅","province":"東京都","city":"足立区","address":"東京都足立区千住旭町42-2","lat":35.74956738,"lon":139.80483303},{"name":"加平ＰＡ","province":"東京都","city":"足立区","address":"東京都足立区","lat":35.77563344,"lon":139.80450083},{"name":"足立都税事務所","province":"東京都","city":"足立区","address":"東京都足立区西新井栄町2丁目8-15","lat":35.778009,"lon":139.788288},{"name":"足立自動車税事務所","province":"東京都","city":"足立区","address":"東京都足立区南花畑5丁目12-1","lat":35.797142,"lon":139.817134},{"name":"東京武道館","province":"東京都","city":"足立区","address":"東京都足立区綾瀬3丁目20","lat":35.765455,"lon":139.825328},{"name":"東京武道館","province":"東京都","city":"足立区","address":"東京都足立区綾瀬3丁目20","lat":35.765363,"lon":139.825582},{"name":"東京武道館","province":"東京都","city":"足立区","address":"東京都足立区綾瀬3丁目20","lat":35.766009,"lon":139.825394},{"name":"東京武道館","province":"東京都","city":"足立区","address":"東京都足立区綾瀬3丁目20","lat":35.765333,"lon":139.825572},{"name":"都立城東職業能力開発センター","province":"東京都","city":"足立区","address":"東京都足立区綾瀬5丁目6-1","lat":35.767273,"lon":139.824949},{"name":"都立城東職業能力開発センター","province":"東京都","city":"足立区","address":"東京都足立区綾瀬5丁目6-1","lat":35.767352,"lon":139.824455},{"name":"都立城東職業能力開発センター","province":"東京都","city":"足立区","address":"東京都足立区綾瀬5丁目6-1","lat":35.767261,"lon":139.824588},{"name":"都立城東職業能力開発センター","province":"東京都","city":"足立区","address":"東京都足立区綾瀬5丁目6-1","lat":35.767262,"lon":139.824537},{"name":"舎人公園","province":"東京都","city":"足立区","address":"東京都足立区皿沼3丁目33","lat":35.794784,"lon":139.767826},{"name":"舎人公園","province":"東京都","city":"足立区","address":"東京都足立区古千谷2丁目","lat":35.800631,"lon":139.77204},{"name":"舎人公園","province":"東京都","city":"足立区","address":"東京都足立区古千谷2丁目","lat":35.799974,"lon":139.771196},{"name":"舎人公園","province":"東京都","city":"足立区","address":"東京都足立区古千谷2丁目","lat":35.799699,"lon":139.773451},{"name":"舎人公園","province":"東京都","city":"足立区","address":"東京都足立区古千谷2丁目","lat":35.800413,"lon":139.774574},{"name":"舎人公園","province":"東京都","city":"足立区","address":"東京都足立区舎人公園1","lat":35.799748,"lon":139.769753},{"name":"舎人公園","province":"東京都","city":"足立区","address":"東京都足立区舎人公園1","lat":35.796465,"lon":139.764611},{"name":"舎人公園","province":"東京都","city":"足立区","address":"東京都足立区西伊興2丁目12","lat":35.794919,"lon":139.774384},{"name":"舎人公園","province":"東京都","city":"足立区","address":"東京都足立区舎人公園1","lat":35.799497,"lon":139.768547},{"name":"舎人公園","province":"東京都","city":"足立区","address":"東京都足立区古千谷1丁目","lat":35.795524,"lon":139.770927},{"name":"舎人公園","province":"東京都","city":"足立区","address":"東京都足立区舎人公園1","lat":35.796626,"lon":139.766832},{"name":"舎人公園","province":"東京都","city":"足立区","address":"東京都足立区舎人公園1","lat":35.801426,"lon":139.769813},{"name":"舎人公園","province":"東京都","city":"足立区","address":"東京都足立区舎人公園1","lat":35.797803,"lon":139.769233},{"name":"舎人公園","province":"東京都","city":"足立区","address":"東京都足立区古千谷1丁目","lat":35.798241,"lon":139.77184},{"name":"舎人公園","province":"東京都","city":"足立区","address":"東京都足立区古千谷2丁目","lat":35.798927,"lon":139.774699},{"name":"舎人公園","province":"東京都","city":"足立区","address":"東京都足立区西伊興3丁目16","lat":35.798419,"lon":139.775658},{"name":"舎人公園","province":"東京都","city":"足立区","address":"東京都足立区古千谷1丁目","lat":35.796122,"lon":139.773296},{"name":"舎人公園","province":"東京都","city":"足立区","address":"東京都足立区古千谷1丁目","lat":35.796158,"lon":139.773293},{"name":"舎人公園","province":"東京都","city":"足立区","address":"東京都足立区古千谷1丁目","lat":35.795269,"lon":139.770558},{"name":"舎人公園","province":"東京都","city":"足立区","address":"東京都足立区舎人公園1-1","lat":35.797023,"lon":139.768433},{"name":"舎人公園","province":"東京都","city":"足立区","address":"東京都足立区古千谷2丁目","lat":35.801123,"lon":139.773746},{"name":"舎人公園","province":"東京都","city":"足立区","address":"東京都足立区舎人公園1-1","lat":35.800639,"lon":139.768312},{"name":"舎人公園","province":"東京都","city":"足立区","address":"東京都足立区西伊興2丁目12","lat":35.794941,"lon":139.774385},{"name":"舎人公園","province":"東京都","city":"足立区","address":"東京都足立区西伊興町","lat":35.793024,"lon":139.771975},{"name":"中川公園","province":"東京都","city":"足立区","address":"東京都足立区中川5丁目1","lat":35.772447,"lon":139.852001},{"name":"東綾瀬公園","province":"東京都","city":"足立区","address":"東京都足立区東綾瀬3丁目4","lat":35.770142,"lon":139.832615},{"name":"東綾瀬公園","province":"東京都","city":"足立区","address":"東京都足立区綾瀬5丁目8","lat":35.768353,"lon":139.825335},{"name":"東綾瀬公園","province":"東京都","city":"足立区","address":"東京都足立区東綾瀬2丁目9","lat":35.766953,"lon":139.832305},{"name":"東綾瀬公園","province":"東京都","city":"足立区","address":"東京都足立区綾瀬6丁目37","lat":35.770625,"lon":139.82721},{"name":"東綾瀬公園","province":"東京都","city":"足立区","address":"東京都足立区綾瀬5丁目8","lat":35.768343,"lon":139.825339},{"name":"東綾瀬公園","province":"東京都","city":"足立区","address":"東京都足立区綾瀬3丁目10","lat":35.76276,"lon":139.82752},{"name":"東綾瀬公園","province":"東京都","city":"足立区","address":"東京都足立区東綾瀬3丁目4","lat":35.770669,"lon":139.833952},{"name":"中川公園","province":"東京都","city":"足立区","address":"東京都足立区中川5丁目1","lat":35.774988,"lon":139.845383},{"name":"日暮里・舎人ライナー足立小台駅","province":"東京都","city":"足立区","address":"東京都足立区小台1丁目20-1","lat":35.754577,"lon":139.770365},{"name":"日暮里・舎人ライナー扇大橋駅","province":"東京都","city":"足立区","address":"東京都足立区扇2丁目25-17","lat":35.763903,"lon":139.770829},{"name":"日暮里・舎人ライナー高野駅","province":"東京都","city":"足立区","address":"東京都足立区扇2丁目45-1","lat":35.76838,"lon":139.770644},{"name":"日暮里・舎人ライナー江北駅","province":"東京都","city":"足立区","address":"東京都足立区江北4丁目30-27","lat":35.773851,"lon":139.770261},{"name":"日暮里・舎人ライナー西新井大師西駅","province":"東京都","city":"足立区","address":"東京都足立区江北6丁目30-23","lat":35.781478,"lon":139.770108},{"name":"日暮里・舎人ライナー谷在家駅","province":"東京都","city":"足立区","address":"東京都足立区谷在家3丁目20","lat":35.788762,"lon":139.770108},{"name":"日暮里・舎人ライナー舎人駅","province":"東京都","city":"足立区","address":"東京都足立区舎人1丁目16-15","lat":35.805625,"lon":139.770133},{"name":"日暮里・舎人ライナー舎人公園駅","province":"東京都","city":"足立区","address":"東京都足立区舎人公園1-10","lat":35.796398,"lon":139.770164},{"name":"日暮里・舎人ライナー見沼代親水公園駅","province":"東京都","city":"足立区","address":"東京都足立区舎人2丁目21-13","lat":35.814444,"lon":139.7707},{"name":"東京都水道局足立営業所","province":"東京都","city":"足立区","address":"東京都足立区中央本町3丁目8-2","lat":35.771961,"lon":139.807747},{"name":"千住消防署","province":"東京都","city":"足立区","address":"東京都足立区千住中居町9-14","lat":35.748899,"lon":139.798688},{"name":"西新井消防署舎人出張所","province":"東京都","city":"足立区","address":"東京都足立区舎人2丁目18-12","lat":35.81161,"lon":139.770434},{"name":"少年運動場","province":"東京都","city":"足立区","address":"東京都足立区小台1丁目","lat":35.755525,"lon":139.776659},{"name":"西新井橋野球場","province":"東京都","city":"足立区","address":"東京都足立区千住元町","lat":35.757275,"lon":139.791347},{"name":"足立区役所","province":"東京都","city":"足立区","address":"東京都足立区中央本町1丁目17","lat":35.775014,"lon":139.804741},{"name":"足立区役所","province":"東京都","city":"足立区","address":"東京都足立区中央本町1丁目17-1","lat":35.774954,"lon":139.803991},{"name":"足立区役所","province":"東京都","city":"足立区","address":"東京都足立区中央本町1丁目17-1","lat":35.775554,"lon":139.804223},{"name":"足立区役所","province":"東京都","city":"足立区","address":"東京都足立区中央本町1丁目17-1","lat":35.774817,"lon":139.804001},{"name":"足立区役所","province":"東京都","city":"足立区","address":"東京都足立区中央本町1丁目17-1","lat":35.774658,"lon":139.804551},{"name":"足立区役所","province":"東京都","city":"足立区","address":"東京都足立区中央本町1丁目17-1","lat":35.774681,"lon":139.804582},{"name":"足立区役所","province":"東京都","city":"足立区","address":"東京都足立区中央本町1丁目17-1","lat":35.774781,"lon":139.804549},{"name":"足立区役所","province":"東京都","city":"足立区","address":"東京都足立区中央本町1丁目17-1","lat":35.77488,"lon":139.804356},{"name":"足立区役所","province":"東京都","city":"足立区","address":"東京都足立区梅島2丁目2-2","lat":35.775625,"lon":139.802974},{"name":"足立区役所千住庁舎","province":"東京都","city":"足立区","address":"東京都足立区千住仲町19-3","lat":35.746244,"lon":139.801592},{"name":"足立区足立福祉事務所","province":"東京都","city":"足立区","address":"東京都足立区中央本町4丁目5-2","lat":35.77711,"lon":139.805812},{"name":"綾瀬障がい福祉施設","province":"東京都","city":"足立区","address":"東京都足立区東綾瀬1丁目26-2","lat":35.765852,"lon":139.831313},{"name":"綾瀬障がい福祉施設","province":"東京都","city":"足立区","address":"東京都足立区東綾瀬1丁目26-2","lat":35.765852,"lon":139.831236},{"name":"足立区中川区民事務所","province":"東京都","city":"足立区","address":"東京都足立区中川4丁目43-4","lat":35.77178,"lon":139.850084},{"name":"足立区中川区民事務所","province":"東京都","city":"足立区","address":"東京都足立区中川4丁目43-4","lat":35.771735,"lon":139.850136},{"name":"足立区こども支援センターげんき","province":"東京都","city":"足立区","address":"東京都足立区梅島3丁目28-8","lat":35.775552,"lon":139.792662},{"name":"足立区こども支援センターげんき","province":"東京都","city":"足立区","address":"東京都足立区梅島3丁目28-8","lat":35.775601,"lon":139.792684},{"name":"東綾瀬区民事務所","province":"東京都","city":"足立区","address":"東京都足立区東綾瀬2丁目3","lat":35.767656,"lon":139.830041},{"name":"六木住区センター","province":"東京都","city":"足立区","address":"東京都足立区六木3丁目39-5","lat":35.799844,"lon":139.840191},{"name":"渕江住区センター分館","province":"東京都","city":"足立区","address":"東京都足立区西保木間3丁目14-16","lat":35.804335,"lon":139.800315},{"name":"東和住区センター","province":"東京都","city":"足立区","address":"東京都足立区東和3丁目12-9","lat":35.771161,"lon":139.83962},{"name":"江南住区センター","province":"東京都","city":"足立区","address":"東京都足立区小台2丁目45-4","lat":35.758721,"lon":139.761305},{"name":"伊興住区センター","province":"東京都","city":"足立区","address":"東京都足立区伊興5丁目22-13","lat":35.798192,"lon":139.780029},{"name":"舎人住区センター","province":"東京都","city":"足立区","address":"東京都足立区舎人1丁目3-26","lat":35.806008,"lon":139.773151},{"name":"南花畑住区センター","province":"東京都","city":"足立区","address":"東京都足立区南花畑3丁目14-7","lat":35.790519,"lon":139.824806},{"name":"綾瀬住区センター","province":"東京都","city":"足立区","address":"東京都足立区綾瀬3丁目17-9","lat":35.764748,"lon":139.82458},{"name":"千住本町住区センター","province":"東京都","city":"足立区","address":"東京都足立区千住5丁目6-2","lat":35.754741,"lon":139.803607},{"name":"加平住区センター","province":"東京都","city":"足立区","address":"東京都足立区加平1丁目10-6","lat":35.775021,"lon":139.828155},{"name":"江南住区センター","province":"東京都","city":"足立区","address":"東京都足立区小台2丁目45-4","lat":35.758801,"lon":139.761372},{"name":"長門住区センター分館","province":"東京都","city":"足立区","address":"東京都足立区中川4丁目43-4","lat":35.771771,"lon":139.850114},{"name":"栗島住区センター","province":"東京都","city":"足立区","address":"東京都足立区中央本町4丁目5-2","lat":35.776373,"lon":139.805804},{"name":"長門住区センター分館","province":"東京都","city":"足立区","address":"東京都足立区中川4丁目43-4","lat":35.771775,"lon":139.850064},{"name":"神明住区センター","province":"東京都","city":"足立区","address":"東京都足立区神明南2丁目6-18","lat":35.787825,"lon":139.833199},{"name":"平野住区センター","province":"東京都","city":"足立区","address":"東京都足立区平野2丁目2-14","lat":35.782236,"lon":139.804634},{"name":"東綾瀬住区センター","province":"東京都","city":"足立区","address":"東京都足立区東綾瀬1丁目28-7","lat":35.766138,"lon":139.832998},{"name":"千住あずま住区センター","province":"東京都","city":"足立区","address":"東京都足立区千住東2丁目21","lat":35.745558,"lon":139.810278},{"name":"千住あずま住区センター","province":"東京都","city":"足立区","address":"東京都足立区千住東2丁目21","lat":35.745573,"lon":139.810287},{"name":"押皿谷住区センター（西部福祉課を含む）","province":"東京都","city":"足立区","address":"東京都足立区鹿浜8丁目27-15","lat":35.789984,"lon":139.76502},{"name":"千住河原町住区センター","province":"東京都","city":"足立区","address":"東京都足立区千住河原町5-12","lat":35.744557,"lon":139.795768},{"name":"千住河原町住区センター","province":"東京都","city":"足立区","address":"東京都足立区千住河原町6-4","lat":35.744696,"lon":139.796084},{"name":"西伊興住区センター","province":"東京都","city":"足立区","address":"東京都足立区西伊興1丁目12-12","lat":35.790845,"lon":139.773527},{"name":"本木関原住区センター","province":"東京都","city":"足立区","address":"東京都足立区関原1丁目21-11","lat":35.764731,"lon":139.787209},{"name":"足立区鹿浜いきいき館","province":"東京都","city":"足立区","address":"東京都足立区鹿浜2丁目24-2","lat":35.780544,"lon":139.749094},{"name":"千住柳町住区センター","province":"東京都","city":"足立区","address":"東京都足立区千住柳町12-5","lat":35.753742,"lon":139.796218},{"name":"千住柳町住区センター","province":"東京都","city":"足立区","address":"東京都足立区千住柳町12-5","lat":35.753727,"lon":139.796135},{"name":"桜花住区センター","province":"東京都","city":"足立区","address":"東京都足立区花畑6丁目4","lat":35.804882,"lon":139.816929},{"name":"入谷住区センター","province":"東京都","city":"足立区","address":"東京都足立区舎人6丁目12-4","lat":35.811422,"lon":139.761986},{"name":"大谷田谷中住区センター","province":"東京都","city":"足立区","address":"東京都足立区大谷田4丁目16-6","lat":35.780824,"lon":139.838461},{"name":"西新井本町住区センター","province":"東京都","city":"足立区","address":"東京都足立区西新井本町2丁目30-37","lat":35.776549,"lon":139.77141},{"name":"興本住区センター","province":"東京都","city":"足立区","address":"東京都足立区本木東町17-10","lat":35.767462,"lon":139.781118},{"name":"保塚住区センター","province":"東京都","city":"足立区","address":"東京都足立区保塚町7","lat":35.786638,"lon":139.816178},{"name":"足立保健所東部保健センター","province":"東京都","city":"足立区","address":"東京都足立区大谷田3丁目11-13","lat":35.779774,"lon":139.842351},{"name":"西新井センター","province":"東京都","city":"足立区","address":"東京都足立区西新井1丁目4-17","lat":35.778717,"lon":139.780597},{"name":"足立区悠々会館","province":"東京都","city":"足立区","address":"東京都足立区西保木間4丁目9-1","lat":35.803399,"lon":139.796641},{"name":"足立保健所竹の塚保健センター","province":"東京都","city":"足立区","address":"東京都足立区西竹の塚1丁目11-2","lat":35.793089,"lon":139.789583},{"name":"足立区　足立保健所江北保健センター","province":"東京都","city":"足立区","address":"東京都足立区西新井本町2丁目30-40","lat":35.776024,"lon":139.771544},{"name":"足立保健所竹の塚保健センター","province":"東京都","city":"足立区","address":"東京都足立区西竹の塚1丁目11-2","lat":35.793513,"lon":139.789687},{"name":"足立保健所竹の塚保健センター","province":"東京都","city":"足立区","address":"東京都足立区西竹の塚1丁目11-2","lat":35.793446,"lon":139.789902},{"name":"足立区役所千住庁舎","province":"東京都","city":"足立区","address":"東京都足立区千住仲町19-3","lat":35.746279,"lon":139.801647},{"name":"足立保健所","province":"東京都","city":"足立区","address":"東京都足立区中央本町1丁目5-3","lat":35.771013,"lon":139.80371},{"name":"足立区立梅田図書館","province":"東京都","city":"足立区","address":"東京都足立区梅田7丁目13-1","lat":35.768414,"lon":139.800801},{"name":"足立区立中央図書館","province":"東京都","city":"足立区","address":"東京都足立区千住5丁目13-5","lat":35.756469,"lon":139.802562},{"name":"足立区立中央図書館","province":"東京都","city":"足立区","address":"東京都足立区千住5丁目13-5","lat":35.756445,"lon":139.802533},{"name":"足立区立伊興遺跡公園展示館","province":"東京都","city":"足立区","address":"東京都足立区東伊興4丁目9-1","lat":35.804406,"lon":139.786375},{"name":"足立区立郷土博物館","province":"東京都","city":"足立区","address":"東京都足立区大谷田5丁目20-1","lat":35.784524,"lon":139.841539},{"name":"足立区生涯学習センター","province":"東京都","city":"足立区","address":"東京都足立区千住5丁目13-5","lat":35.75633,"lon":139.802396},{"name":"足立区生涯学習センター","province":"東京都","city":"足立区","address":"東京都足立区千住5丁目13-5","lat":35.75667,"lon":139.802433},{"name":"足立区生涯学習センター","province":"東京都","city":"足立区","address":"東京都足立区千住5丁目13-5","lat":35.75667,"lon":139.802377},{"name":"足立区生涯学習センター","province":"東京都","city":"足立区","address":"東京都足立区千住5丁目13-5","lat":35.75637,"lon":139.802297},{"name":"足立区生涯学習センター","province":"東京都","city":"足立区","address":"東京都足立区千住5丁目13-5","lat":35.75648,"lon":139.802687},{"name":"足立区生涯学習センター","province":"東京都","city":"足立区","address":"東京都足立区千住5丁目13-5","lat":35.75643,"lon":139.802347},{"name":"足立区生涯学習センター","province":"東京都","city":"足立区","address":"東京都足立区千住5丁目13-5","lat":35.75649,"lon":139.802377},{"name":"足立区伊興地域学習センター","province":"東京都","city":"足立区","address":"東京都足立区伊興2丁目4-22","lat":35.79127,"lon":139.780976},{"name":"足立区梅田地域学習センター","province":"東京都","city":"足立区","address":"東京都足立区梅田7丁目33-1","lat":35.77058,"lon":139.798306},{"name":"足立区立興本地域学習センター","province":"東京都","city":"足立区","address":"東京都足立区興野1丁目17-7","lat":35.76838,"lon":139.783246},{"name":"足立区立興本地域学習センター","province":"東京都","city":"足立区","address":"東京都足立区興野1丁目18-38","lat":35.76836,"lon":139.782495},{"name":"足立区江北地域学習センター","province":"東京都","city":"足立区","address":"東京都足立区江北3丁目39-4","lat":35.77594,"lon":139.760134},{"name":"足立区佐野地域学習センター","province":"東京都","city":"足立区","address":"東京都足立区佐野2丁目43-5","lat":35.78818,"lon":139.840316},{"name":"足立区江北地域学習センター","province":"東京都","city":"足立区","address":"東京都足立区江北3丁目39-4","lat":35.77577,"lon":139.760289},{"name":"足立区新田地域学習センター","province":"東京都","city":"足立区","address":"東京都足立区新田2丁目2-2","lat":35.77142,"lon":139.737974},{"name":"足立区鹿浜地域学習センター","province":"東京都","city":"足立区","address":"東京都足立区鹿浜6丁目8-1","lat":35.784055,"lon":139.758271},{"name":"足立区鹿浜地域学習センター","province":"東京都","city":"足立区","address":"東京都足立区鹿浜6丁目8-1","lat":35.784204,"lon":139.75816},{"name":"足立区東和地域学習センター","province":"東京都","city":"足立区","address":"東京都足立区東和3丁目12-9","lat":35.77128,"lon":139.839527},{"name":"足立区竹の塚地域学習センター","province":"東京都","city":"足立区","address":"東京都足立区竹の塚2丁目25-17","lat":35.79266,"lon":139.794543},{"name":"足立区竹の塚地域学習センター","province":"東京都","city":"足立区","address":"東京都足立区竹の塚2丁目25-17","lat":35.7926,"lon":139.794842},{"name":"足立区竹の塚地域学習センター","province":"東京都","city":"足立区","address":"東京都足立区竹の塚2丁目25-17","lat":35.792644,"lon":139.794875},{"name":"足立区中央本町地域学習センター","province":"東京都","city":"足立区","address":"東京都足立区中央本町3丁目15-1","lat":35.77219,"lon":139.809697},{"name":"足立区中央本町地域学習センター","province":"東京都","city":"足立区","address":"東京都足立区中央本町3丁目15-1","lat":35.77221,"lon":139.809614},{"name":"足立区東和地域学習センター","province":"東京都","city":"足立区","address":"東京都足立区東和3丁目12-9","lat":35.77139,"lon":139.83948},{"name":"足立区東和地域学習センター","province":"東京都","city":"足立区","address":"東京都足立区東和3丁目12-9","lat":35.77107,"lon":139.839673},{"name":"足立区東和地域学習センター","province":"東京都","city":"足立区","address":"東京都足立区東和3丁目12-9","lat":35.771139,"lon":139.839602},{"name":"足立区こども未来創造館","province":"東京都","city":"足立区","address":"東京都足立区栗原1丁目3-1","lat":35.77952,"lon":139.790443},{"name":"足立区舎人地域学習センター","province":"東京都","city":"足立区","address":"東京都足立区舎人1丁目3-26","lat":35.80613,"lon":139.773199},{"name":"足立区花畑地域学習センター","province":"東京都","city":"足立区","address":"東京都足立区花畑4丁目16-8","lat":35.80282,"lon":139.807313},{"name":"足立区こども未来創造館","province":"東京都","city":"足立区","address":"東京都足立区栗原1丁目3-1","lat":35.77946,"lon":139.790391},{"name":"足立区こども未来創造館","province":"東京都","city":"足立区","address":"東京都足立区栗原1丁目2-1","lat":35.77942,"lon":139.790398},{"name":"足立区こども未来創造館","province":"東京都","city":"足立区","address":"東京都足立区栗原1丁目2-1","lat":35.77942,"lon":139.790436},{"name":"足立区こども未来創造館","province":"東京都","city":"足立区","address":"東京都足立区栗原1丁目3-1","lat":35.77945,"lon":139.790369},{"name":"足立区こども未来創造館","province":"東京都","city":"足立区","address":"東京都足立区栗原1丁目3-1","lat":35.77953,"lon":139.790193},{"name":"足立区西新井文化ホール","province":"東京都","city":"足立区","address":"東京都足立区栗原1丁目3-1","lat":35.77968,"lon":139.79061},{"name":"足立区保塚地域学習センター","province":"東京都","city":"足立区","address":"東京都足立区保塚町7-16","lat":35.786914,"lon":139.816268},{"name":"足立区保塚地域学習センター","province":"東京都","city":"足立区","address":"東京都足立区保塚町7","lat":35.786646,"lon":139.816089},{"name":"足立区保塚地域学習センター","province":"東京都","city":"足立区","address":"東京都足立区保塚町7","lat":35.786638,"lon":139.816178},{"name":"足立区文化芸術劇場","province":"東京都","city":"足立区","address":"東京都足立区千住3丁目92","lat":35.750553,"lon":139.804456},{"name":"足立区文化芸術劇場","province":"東京都","city":"足立区","address":"東京都足立区千住3丁目92","lat":35.750957,"lon":139.804877},{"name":"足立区文化芸術劇場","province":"東京都","city":"足立区","address":"東京都足立区千住3丁目92","lat":35.751335,"lon":139.804572},{"name":"足立区文化芸術劇場","province":"東京都","city":"足立区","address":"東京都足立区千住3丁目92","lat":35.750863,"lon":139.804842},{"name":"足立区文化芸術劇場","province":"東京都","city":"足立区","address":"東京都足立区千住3丁目92","lat":35.751145,"lon":139.804498},{"name":"大谷田南公園","province":"東京都","city":"足立区","address":"東京都足立区中川4丁目42","lat":35.771786,"lon":139.848326},{"name":"五丁田公園","province":"東京都","city":"足立区","address":"東京都足立区大谷田3丁目7","lat":35.77778,"lon":139.841427},{"name":"河添公園","province":"東京都","city":"足立区","address":"東京都足立区綾瀬2丁目46","lat":35.76168,"lon":139.83076},{"name":"大谷田公園","province":"東京都","city":"足立区","address":"東京都足立区大谷田4丁目4","lat":35.77837,"lon":139.837815},{"name":"下河原公園（東側）","province":"東京都","city":"足立区","address":"東京都足立区東綾瀬1丁目11","lat":35.763826,"lon":139.834415},{"name":"元渕江公園","province":"東京都","city":"足立区","address":"東京都足立区保木間2丁目17","lat":35.792068,"lon":139.805954},{"name":"毛長公園","province":"東京都","city":"足立区","address":"東京都足立区花畑5丁目13","lat":35.807688,"lon":139.810944},{"name":"毛長公園","province":"東京都","city":"足立区","address":"東京都足立区花畑5丁目9","lat":35.808456,"lon":139.806528},{"name":"仲組公園","province":"東京都","city":"足立区","address":"東京都足立区花畑3丁目38","lat":35.805674,"lon":139.813419},{"name":"鷲宿公園","province":"東京都","city":"足立区","address":"東京都足立区花畑7丁目9","lat":35.809506,"lon":139.81968},{"name":"しょうぶ沼公園（西側）","province":"東京都","city":"足立区","address":"東京都足立区谷中2丁目4","lat":35.775847,"lon":139.83036},{"name":"雪見公園","province":"東京都","city":"足立区","address":"東京都足立区神明南2丁目17","lat":35.79156,"lon":139.831733},{"name":"一ツ家第四公園","province":"東京都","city":"足立区","address":"東京都足立区一ツ家1丁目26","lat":35.784171,"lon":139.810068},{"name":"足立区生物園","province":"東京都","city":"足立区","address":"東京都足立区保木間2丁目17","lat":35.792138,"lon":139.806937},{"name":"花畑公園","province":"東京都","city":"足立区","address":"東京都足立区花畑4丁目40","lat":35.806228,"lon":139.807365},{"name":"一ツ家第一公園（南側）","province":"東京都","city":"足立区","address":"東京都足立区一ツ家4丁目16","lat":35.780317,"lon":139.817392},{"name":"青井公園","province":"東京都","city":"足立区","address":"東京都足立区青井1丁目11","lat":35.774725,"lon":139.813107},{"name":"平野公園","province":"東京都","city":"足立区","address":"東京都足立区平野3丁目15","lat":35.784851,"lon":139.808081},{"name":"前谷公園","province":"東京都","city":"足立区","address":"東京都足立区花畑1丁目10","lat":35.800269,"lon":139.810942},{"name":"栗島公園","province":"東京都","city":"足立区","address":"東京都足立区中央本町5丁目21","lat":35.777617,"lon":139.809964},{"name":"陣川戸公園（南側）","province":"東京都","city":"足立区","address":"東京都足立区保木間5丁目17","lat":35.801908,"lon":139.807604},{"name":"五反野コミュニティ公園","province":"東京都","city":"足立区","address":"東京都足立区西綾瀬2丁目1","lat":35.761484,"lon":139.814846},{"name":"沖谷公園","province":"東京都","city":"足立区","address":"東京都足立区谷中4丁目18","lat":35.780825,"lon":139.833073},{"name":"桜花亭","province":"東京都","city":"足立区","address":"東京都足立区花畑4丁目40-1","lat":35.806013,"lon":139.807468},{"name":"桜花亭","province":"東京都","city":"足立区","address":"東京都足立区花畑4丁目40-1","lat":35.805987,"lon":139.807356},{"name":"足立区都市農業公園","province":"東京都","city":"足立区","address":"東京都足立区鹿浜2丁目44-1","lat":35.783028,"lon":139.745408},{"name":"青井ふれあい公園","province":"東京都","city":"足立区","address":"東京都足立区青井1丁目3","lat":35.772656,"lon":139.810849},{"name":"青和コミュニティ公園","province":"東京都","city":"足立区","address":"東京都足立区青井3丁目22","lat":35.773276,"lon":139.818484},{"name":"弘道中央公園","province":"東京都","city":"足立区","address":"東京都足立区弘道2丁目3","lat":35.768523,"lon":139.81533},{"name":"神明南公園","province":"東京都","city":"足立区","address":"東京都足立区神明南1丁目7","lat":35.789107,"lon":139.830815},{"name":"葛西用水親水水路","province":"東京都","city":"足立区","address":"東京都足立区六木4丁目3","lat":35.794401,"lon":139.839884},{"name":"辰沼二丁目公園","province":"東京都","city":"足立区","address":"東京都足立区辰沼2丁目11","lat":35.788915,"lon":139.833481},{"name":"北加平公園","province":"東京都","city":"足立区","address":"東京都足立区北加平町16","lat":35.785353,"lon":139.829471},{"name":"弘道いこい公園","province":"東京都","city":"足立区","address":"東京都足立区弘道1丁目10","lat":35.767328,"lon":139.811948},{"name":"西綾瀬そよかぜ公園","province":"東京都","city":"足立区","address":"東京都足立区西綾瀬3丁目3","lat":35.762055,"lon":139.816638},{"name":"やよい公園","province":"東京都","city":"足立区","address":"東京都足立区中央本町2丁目13","lat":35.770366,"lon":139.808046},{"name":"佐野一丁目ゆめ公園","province":"東京都","city":"足立区","address":"東京都足立区佐野1丁目20","lat":35.786635,"lon":139.843077},{"name":"綾瀬七丁目丘公園","province":"東京都","city":"足立区","address":"東京都足立区綾瀬7丁目15","lat":35.773188,"lon":139.827989},{"name":"花六東公園","province":"東京都","city":"足立区","address":"東京都足立区花畑6丁目23","lat":35.805934,"lon":139.818694},{"name":"神明南ふれあい公園","province":"東京都","city":"足立区","address":"東京都足立区神明南1丁目3","lat":35.787461,"lon":139.829358},{"name":"六木二丁目中央公園","province":"東京都","city":"足立区","address":"東京都足立区六木2丁目6","lat":35.792684,"lon":139.841797},{"name":"弘道一丁目ふれあい児童遊園","province":"東京都","city":"足立区","address":"東京都足立区弘道1丁目26","lat":35.768928,"lon":139.810523},{"name":"梅島公園","province":"東京都","city":"足立区","address":"東京都足立区梅田7丁目20","lat":35.769823,"lon":139.800422},{"name":"中郷公園","province":"東京都","city":"足立区","address":"東京都足立区西新井1丁目29","lat":35.78199,"lon":139.780542},{"name":"竹の塚第三公園","province":"東京都","city":"足立区","address":"東京都足立区竹の塚4丁目7","lat":35.793705,"lon":139.799198},{"name":"上沼田第二公園","province":"東京都","city":"足立区","address":"東京都足立区江北4丁目21","lat":35.775712,"lon":139.766535},{"name":"諏訪木東公園","province":"東京都","city":"足立区","address":"東京都足立区西新井3丁目25","lat":35.78993,"lon":139.781377},{"name":"西中第一公園","province":"東京都","city":"足立区","address":"東京都足立区西新井6丁目44","lat":35.782607,"lon":139.776439},{"name":"六月町公園","province":"東京都","city":"足立区","address":"東京都足立区六月3丁目17","lat":35.787268,"lon":139.792263},{"name":"北鹿浜公園","province":"東京都","city":"足立区","address":"東京都足立区鹿浜3丁目26","lat":35.782525,"lon":139.754682},{"name":"北鹿浜公園","province":"東京都","city":"足立区","address":"東京都足立区鹿浜3丁目26","lat":35.78193,"lon":139.75415},{"name":"西新井西公園","province":"東京都","city":"足立区","address":"東京都足立区西新井6丁目9","lat":35.778971,"lon":139.773851},{"name":"鹿浜校趾公園","province":"東京都","city":"足立区","address":"東京都足立区鹿浜3丁目14","lat":35.780748,"lon":139.752475},{"name":"入谷緑地公園","province":"東京都","city":"足立区","address":"東京都足立区入谷5丁目1","lat":35.80219,"lon":139.762071},{"name":"西保木間公園","province":"東京都","city":"足立区","address":"東京都足立区西保木間2丁目14","lat":35.801865,"lon":139.800268},{"name":"上沼田北公園","province":"東京都","city":"足立区","address":"東京都足立区江北7丁目16","lat":35.782297,"lon":139.764352},{"name":"島根公園","province":"東京都","city":"足立区","address":"東京都足立区島根2丁目14","lat":35.78324,"lon":139.799799},{"name":"江北公園","province":"東京都","city":"足立区","address":"東京都足立区鹿浜1丁目2","lat":35.777189,"lon":139.75022},{"name":"江北公園","province":"東京都","city":"足立区","address":"東京都足立区鹿浜5丁目10","lat":35.785911,"lon":139.751127},{"name":"新田さくら公園","province":"東京都","city":"足立区","address":"東京都足立区新田3丁目34","lat":35.768299,"lon":139.746539},{"name":"入谷中央公園","province":"東京都","city":"足立区","address":"東京都足立区入谷4丁目16","lat":35.808271,"lon":139.760504},{"name":"島根中堀公園","province":"東京都","city":"足立区","address":"東京都足立区島根4丁目36","lat":35.783606,"lon":139.793255},{"name":"江北平成公園","province":"東京都","city":"足立区","address":"東京都足立区江北4丁目16","lat":35.773504,"lon":139.764463},{"name":"江北平成公園","province":"東京都","city":"足立区","address":"東京都足立区江北4丁目15","lat":35.772867,"lon":139.765541},{"name":"入谷中郷南恐竜公園","province":"東京都","city":"足立区","address":"東京都足立区入谷5丁目12","lat":35.803811,"lon":139.763026},{"name":"皿沼公園","province":"東京都","city":"足立区","address":"東京都足立区皿沼2丁目25","lat":35.792051,"lon":139.764587},{"name":"ベルモント公園（南側）","province":"東京都","city":"足立区","address":"東京都足立区梅島1丁目33-7","lat":35.774783,"lon":139.799359},{"name":"竹北公園","province":"東京都","city":"足立区","address":"東京都足立区竹の塚7丁目19","lat":35.80079,"lon":139.794543},{"name":"入谷日の出公園","province":"東京都","city":"足立区","address":"東京都足立区入谷1丁目3","lat":35.803103,"lon":139.771167},{"name":"島六ふれあい公園","province":"東京都","city":"足立区","address":"東京都足立区六月1丁目7","lat":35.7852,"lon":139.799857},{"name":"江北みどり公園","province":"東京都","city":"足立区","address":"東京都足立区江北3丁目8","lat":35.77288,"lon":139.762725},{"name":"東伊興淵之宮公園","province":"東京都","city":"足立区","address":"東京都足立区東伊興2丁目4","lat":35.804894,"lon":139.790268},{"name":"伊興北の根公園","province":"東京都","city":"足立区","address":"東京都足立区伊興本町1丁目16","lat":35.799555,"lon":139.788724},{"name":"西新井さくら公園","province":"東京都","city":"足立区","address":"東京都足立区西新井2丁目6","lat":35.784089,"lon":139.780214},{"name":"西保木間一丁目公園","province":"東京都","city":"足立区","address":"東京都足立区西保木間1丁目7","lat":35.794938,"lon":139.800452},{"name":"上沼田南どんぐり公園","province":"東京都","city":"足立区","address":"東京都足立区江北3丁目34","lat":35.776988,"lon":139.763738},{"name":"西新井さかえ公園","province":"東京都","city":"足立区","address":"東京都足立区西新井栄町1丁目19","lat":35.773463,"lon":139.787307},{"name":"梅田五丁目フレンド公園","province":"東京都","city":"足立区","address":"東京都足立区梅田5丁目25","lat":35.770067,"lon":139.795468},{"name":"亀田トレイン公園","province":"東京都","city":"足立区","address":"東京都足立区梅田8丁目14","lat":35.774357,"lon":139.79302},{"name":"西新井蓮沼公園","province":"東京都","city":"足立区","address":"東京都足立区西新井1丁目20","lat":35.779859,"lon":139.782437},{"name":"伊興四丁目公園","province":"東京都","city":"足立区","address":"東京都足立区伊興4丁目19","lat":35.796574,"lon":139.780008},{"name":"江北六丁目児童遊園","province":"東京都","city":"足立区","address":"東京都足立区江北6丁目30","lat":35.781693,"lon":139.768322},{"name":"宮城公園","province":"東京都","city":"足立区","address":"東京都足立区宮城1丁目38","lat":35.761595,"lon":139.758342},{"name":"千住スポーツ公園（南側）","province":"東京都","city":"足立区","address":"東京都足立区千住緑町2丁目1","lat":35.743541,"lon":139.794869},{"name":"千住仲町公園（西側）","province":"東京都","city":"足立区","address":"東京都足立区千住仲町28","lat":35.743774,"lon":139.801433},{"name":"千住桜木町公園","province":"東京都","city":"足立区","address":"東京都足立区千住桜木1丁目5","lat":35.749731,"lon":139.7928},{"name":"千住中居町公園","province":"東京都","city":"足立区","address":"東京都足立区千住中居町24","lat":35.749641,"lon":139.796425},{"name":"関屋公園","province":"東京都","city":"足立区","address":"東京都足立区千住関屋町17","lat":35.741405,"lon":139.806448},{"name":"新田稲荷公園","province":"東京都","city":"足立区","address":"東京都足立区新田1丁目8","lat":35.775287,"lon":139.73827},{"name":"千住大橋さくら公園","province":"東京都","city":"足立区","address":"東京都足立区千住緑町1丁目1","lat":35.742918,"lon":139.794492},{"name":"花保さくら公園","province":"東京都","city":"足立区","address":"東京都足立区南花畑3丁目1","lat":35.789825,"lon":139.822313},{"name":"舎人いきいき公園","province":"東京都","city":"足立区","address":"東京都足立区舎人6丁目3","lat":35.813378,"lon":139.764985},{"name":"佐野いこいの森緑地","province":"東京都","city":"足立区","address":"東京都足立区佐野1丁目31","lat":35.789094,"lon":139.843679},{"name":"しょうぶ沼公園（東側）","province":"東京都","city":"足立区","address":"東京都足立区谷中2丁目4","lat":35.775849,"lon":139.831669},{"name":"弘道第一公園","province":"東京都","city":"足立区","address":"東京都足立区弘道2丁目16","lat":35.768143,"lon":139.817657},{"name":"中央本町三丁目のびのび広場","province":"東京都","city":"足立区","address":"東京都足立区中央本町3丁目8","lat":35.773321,"lon":139.807819},{"name":"足立区障がい福祉センター","province":"東京都","city":"足立区","address":"東京都足立区梅島3丁目31-19","lat":35.777334,"lon":139.792829},{"name":"綾瀬駅前公衆便所","province":"東京都","city":"足立区","address":"東京都足立区綾瀬3丁目10","lat":35.762757,"lon":139.827518},{"name":"青井駅前公衆便所","province":"東京都","city":"足立区","address":"東京都足立区青井3丁目16","lat":35.772251,"lon":139.819745},{"name":"綾瀬駅西口公衆便所","province":"東京都","city":"足立区","address":"東京都足立区綾瀬1丁目39","lat":35.761749,"lon":139.823894},{"name":"六町駅前公衆便所","province":"東京都","city":"足立区","address":"東京都足立区六町4丁目1","lat":35.785187,"lon":139.821569},{"name":"西新井駅東口公衆便所","province":"東京都","city":"足立区","address":"東京都足立区西新井栄町2丁目1","lat":35.777705,"lon":139.790234},{"name":"保木間公衆便所","province":"東京都","city":"足立区","address":"東京都足立区竹の塚3丁目8","lat":35.790507,"lon":139.802463},{"name":"西新井大師駅前公衆便所","province":"東京都","city":"足立区","address":"東京都足立区西新井1丁目4","lat":35.778943,"lon":139.78108},{"name":"見沼代親水公園","province":"東京都","city":"足立区","address":"東京都足立区舎人2丁目3","lat":35.809463,"lon":139.774603},{"name":"見沼代親水公園駅前公衆便所","province":"東京都","city":"足立区","address":"東京都足立区舎人5丁目29","lat":35.813899,"lon":139.770459},{"name":"江北駅前公衆便所","province":"東京都","city":"足立区","address":"東京都足立区西新井本町2丁目32","lat":35.773783,"lon":139.770539},{"name":"千住大橋際公衆便所","province":"東京都","city":"足立区","address":"東京都足立区千住橋戸町","lat":35.739999,"lon":139.797251},{"name":"北千住駅前公衆便所","province":"東京都","city":"足立区","address":"東京都足立区千住旭町42-3","lat":35.74879,"lon":139.804466},{"name":"足立区障がい福祉センター","province":"東京都","city":"足立区","address":"東京都足立区梅島3丁目31-19","lat":35.777369,"lon":139.792839},{"name":"足立区障がい福祉センター","province":"東京都","city":"足立区","address":"東京都足立区梅島3丁目31-19","lat":35.777428,"lon":139.792855},{"name":"足立区障がい福祉センター","province":"東京都","city":"足立区","address":"東京都足立区梅島3丁目31-19","lat":35.777413,"lon":139.792851},{"name":"足立区障がい福祉センター","province":"東京都","city":"足立区","address":"東京都足立区梅島3丁目31-19","lat":35.777441,"lon":139.792858},{"name":"足立区障がい福祉センター","province":"東京都","city":"足立区","address":"東京都足立区梅島3丁目31-19","lat":35.777412,"lon":139.792922},{"name":"あだち産業センター","province":"東京都","city":"足立区","address":"東京都足立区千住1丁目5-7","lat":35.747401,"lon":139.80037},{"name":"足立区障がい福祉センター","province":"東京都","city":"足立区","address":"東京都足立区梅島3丁目31-19","lat":35.777304,"lon":139.792866},{"name":"足立区勤労福祉会館","province":"東京都","city":"足立区","address":"東京都足立区綾瀬1丁目34-7","lat":35.761168,"lon":139.821427},{"name":"足立区勤労福祉会館","province":"東京都","city":"足立区","address":"東京都足立区綾瀬1丁目34-7","lat":35.761076,"lon":139.821582},{"name":"千住龍田町防災ひろば","province":"東京都","city":"足立区","address":"東京都足立区千住龍田町9","lat":35.751695,"lon":139.796137},{"name":"足立清掃事務所","province":"東京都","city":"足立区","address":"東京都足立区東伊興3丁目23-9","lat":35.804412,"lon":139.793895},{"name":"足立区総合ボランティアセンター","province":"東京都","city":"足立区","address":"東京都足立区日ノ出町27-3","lat":35.751978,"lon":139.808763},{"name":"足立区総合スポーツセンター","province":"東京都","city":"足立区","address":"東京都足立区東保木間2丁目27-1","lat":35.79229,"lon":139.813858},{"name":"足立区総合スポーツセンター","province":"東京都","city":"足立区","address":"東京都足立区東保木間2丁目27-1","lat":35.792326,"lon":139.81395},{"name":"足立区総合スポーツセンター","province":"東京都","city":"足立区","address":"東京都足立区東保木間2丁目27-1","lat":35.792341,"lon":139.81403},{"name":"足立区総合スポーツセンター","province":"東京都","city":"足立区","address":"東京都足立区東保木間2丁目27-1","lat":35.792147,"lon":139.813744},{"name":"足立区総合スポーツセンター","province":"東京都","city":"足立区","address":"東京都足立区東保木間2丁目32","lat":35.793075,"lon":139.815876},{"name":"足立区総合スポーツセンター","province":"東京都","city":"足立区","address":"東京都足立区東保木間2丁目27-1","lat":35.792118,"lon":139.813749},{"name":"六町駅前安全安心ステーション","province":"東京都","city":"足立区","address":"東京都足立区六町4丁目1","lat":35.785205,"lon":139.821438},{"name":"足立区総合スポーツセンター","province":"東京都","city":"足立区","address":"東京都足立区東保木間2丁目27","lat":35.791769,"lon":139.813136},{"name":"足立区東綾瀬公園温水温水プール","province":"東京都","city":"足立区","address":"東京都足立区東綾瀬3丁目4-1","lat":35.77037,"lon":139.831279},{"name":"足立区千寿本町小学校温水プール","province":"東京都","city":"足立区","address":"東京都足立区千住3丁目30","lat":35.751633,"lon":139.801869},{"name":"足立区平野運動場","province":"東京都","city":"足立区","address":"東京都足立区平野2丁目12","lat":35.784388,"lon":139.804261},{"name":"西綾瀬ボランティアセンター","province":"東京都","city":"足立区","address":"東京都足立区西綾瀬4丁目5-6","lat":35.7647,"lon":139.819612},{"name":"足立区スイムスポーツセンター(うきうき館）","province":"東京都","city":"足立区","address":"東京都足立区西保木間4丁目10-1","lat":35.803466,"lon":139.797088},{"name":"足立区スイムスポーツセンター(うきうき館）","province":"東京都","city":"足立区","address":"東京都足立区西保木間4丁目10-1","lat":35.803814,"lon":139.797233},{"name":"足立トラックターミナル","province":"東京都","city":"足立区","address":"東京都足立区入谷6丁目1-1","lat":35.79902128,"lon":139.7665504},{"name":"＊?西新井文化ホール(ｷﾞｬﾗｸｼﾃｨ内)","province":"東京都","city":"足立区","address":"足立区栗原1-3-1","lat":35.779785,"lon":139.790513},{"name":"＊?足立区文化芸術劇場（THEATER?1010）","province":"東京都","city":"足立区","address":"足立区千住3-92千住ミルディス(1)番館10階","lat":35.75088,"lon":139.804575},{"name":"足立都税事務所","province":"東京都","city":"足立区","address":"東京都足立区西新井栄町2丁目8-15","lat":35.778009,"lon":139.788288},{"name":"足立自動車税事務所","province":"東京都","city":"足立区","address":"東京都足立区南花畑5丁目12-1","lat":35.797142,"lon":139.817134},{"name":"東京武道館","province":"東京都","city":"足立区","address":"東京都足立区綾瀬3丁目20","lat":35.765455,"lon":139.825328},{"name":"東京武道館","province":"東京都","city":"足立区","address":"東京都足立区綾瀬3丁目20","lat":35.765363,"lon":139.825582},{"name":"東京武道館","province":"東京都","city":"足立区","address":"東京都足立区綾瀬3丁目20","lat":35.766009,"lon":139.825394},{"name":"東京武道館","province":"東京都","city":"足立区","address":"東京都足立区綾瀬3丁目20","lat":35.765333,"lon":139.825572},{"name":"都立城東職業能力開発センター","province":"東京都","city":"足立区","address":"東京都足立区綾瀬5丁目6-1","lat":35.767273,"lon":139.824949},{"name":"都立城東職業能力開発センター","province":"東京都","city":"足立区","address":"東京都足立区綾瀬5丁目6-1","lat":35.767352,"lon":139.824455},{"name":"都立城東職業能力開発センター","province":"東京都","city":"足立区","address":"東京都足立区綾瀬5丁目6-1","lat":35.767261,"lon":139.824588},{"name":"都立城東職業能力開発センター","province":"東京都","city":"足立区","address":"東京都足立区綾瀬5丁目6-1","lat":35.767262,"lon":139.824537},{"name":"舎人公園","province":"東京都","city":"足立区","address":"東京都足立区皿沼3丁目33","lat":35.794784,"lon":139.767826},{"name":"舎人公園","province":"東京都","city":"足立区","address":"東京都足立区古千谷2丁目","lat":35.800631,"lon":139.77204},{"name":"舎人公園","province":"東京都","city":"足立区","address":"東京都足立区古千谷2丁目","lat":35.799974,"lon":139.771196},{"name":"舎人公園","province":"東京都","city":"足立区","address":"東京都足立区古千谷2丁目","lat":35.799699,"lon":139.773451},{"name":"舎人公園","province":"東京都","city":"足立区","address":"東京都足立区古千谷2丁目","lat":35.800413,"lon":139.774574},{"name":"舎人公園","province":"東京都","city":"足立区","address":"東京都足立区舎人公園1","lat":35.799748,"lon":139.769753},{"name":"舎人公園","province":"東京都","city":"足立区","address":"東京都足立区舎人公園1","lat":35.796465,"lon":139.764611},{"name":"舎人公園","province":"東京都","city":"足立区","address":"東京都足立区西伊興2丁目12","lat":35.794919,"lon":139.774384},{"name":"舎人公園","province":"東京都","city":"足立区","address":"東京都足立区舎人公園1","lat":35.799497,"lon":139.768547},{"name":"舎人公園","province":"東京都","city":"足立区","address":"東京都足立区古千谷1丁目","lat":35.795524,"lon":139.770927},{"name":"舎人公園","province":"東京都","city":"足立区","address":"東京都足立区舎人公園1","lat":35.796626,"lon":139.766832},{"name":"舎人公園","province":"東京都","city":"足立区","address":"東京都足立区舎人公園1","lat":35.801426,"lon":139.769813},{"name":"舎人公園","province":"東京都","city":"足立区","address":"東京都足立区舎人公園1","lat":35.797803,"lon":139.769233},{"name":"舎人公園","province":"東京都","city":"足立区","address":"東京都足立区古千谷1丁目","lat":35.798241,"lon":139.77184},{"name":"舎人公園","province":"東京都","city":"足立区","address":"東京都足立区古千谷2丁目","lat":35.798927,"lon":139.774699},{"name":"舎人公園","province":"東京都","city":"足立区","address":"東京都足立区西伊興3丁目16","lat":35.798419,"lon":139.775658},{"name":"舎人公園","province":"東京都","city":"足立区","address":"東京都足立区古千谷1丁目","lat":35.796122,"lon":139.773296},{"name":"舎人公園","province":"東京都","city":"足立区","address":"東京都足立区古千谷1丁目","lat":35.796158,"lon":139.773293},{"name":"舎人公園","province":"東京都","city":"足立区","address":"東京都足立区古千谷1丁目","lat":35.795269,"lon":139.770558},{"name":"舎人公園","province":"東京都","city":"足立区","address":"東京都足立区舎人公園1-1","lat":35.797023,"lon":139.768433},{"name":"舎人公園","province":"東京都","city":"足立区","address":"東京都足立区古千谷2丁目","lat":35.801123,"lon":139.773746},{"name":"舎人公園","province":"東京都","city":"足立区","address":"東京都足立区舎人公園1-1","lat":35.800639,"lon":139.768312},{"name":"舎人公園","province":"東京都","city":"足立区","address":"東京都足立区西伊興2丁目12","lat":35.794941,"lon":139.774385},{"name":"舎人公園","province":"東京都","city":"足立区","address":"東京都足立区西伊興町","lat":35.793024,"lon":139.771975},{"name":"中川公園","province":"東京都","city":"足立区","address":"東京都足立区中川5丁目1","lat":35.772447,"lon":139.852001},{"name":"東綾瀬公園","province":"東京都","city":"足立区","address":"東京都足立区東綾瀬3丁目4","lat":35.770142,"lon":139.832615},{"name":"東綾瀬公園","province":"東京都","city":"足立区","address":"東京都足立区綾瀬5丁目8","lat":35.768353,"lon":139.825335},{"name":"東綾瀬公園","province":"東京都","city":"足立区","address":"東京都足立区東綾瀬2丁目9","lat":35.766953,"lon":139.832305},{"name":"東綾瀬公園","province":"東京都","city":"足立区","address":"東京都足立区綾瀬6丁目37","lat":35.770625,"lon":139.82721},{"name":"東綾瀬公園","province":"東京都","city":"足立区","address":"東京都足立区綾瀬5丁目8","lat":35.768343,"lon":139.825339},{"name":"東綾瀬公園","province":"東京都","city":"足立区","address":"東京都足立区綾瀬3丁目10","lat":35.76276,"lon":139.82752},{"name":"東綾瀬公園","province":"東京都","city":"足立区","address":"東京都足立区東綾瀬3丁目4","lat":35.770669,"lon":139.833952},{"name":"中川公園","province":"東京都","city":"足立区","address":"東京都足立区中川5丁目1","lat":35.774988,"lon":139.845383},{"name":"日暮里・舎人ライナー足立小台駅","province":"東京都","city":"足立区","address":"東京都足立区小台1丁目20-1","lat":35.754577,"lon":139.770365},{"name":"日暮里・舎人ライナー扇大橋駅","province":"東京都","city":"足立区","address":"東京都足立区扇2丁目25-17","lat":35.763903,"lon":139.770829},{"name":"日暮里・舎人ライナー高野駅","province":"東京都","city":"足立区","address":"東京都足立区扇2丁目45-1","lat":35.76838,"lon":139.770644},{"name":"日暮里・舎人ライナー江北駅","province":"東京都","city":"足立区","address":"東京都足立区江北4丁目30-27","lat":35.773851,"lon":139.770261},{"name":"日暮里・舎人ライナー西新井大師西駅","province":"東京都","city":"足立区","address":"東京都足立区江北6丁目30-23","lat":35.781478,"lon":139.770108},{"name":"日暮里・舎人ライナー谷在家駅","province":"東京都","city":"足立区","address":"東京都足立区谷在家3丁目20","lat":35.788762,"lon":139.770108},{"name":"日暮里・舎人ライナー舎人駅","province":"東京都","city":"足立区","address":"東京都足立区舎人1丁目16-15","lat":35.805625,"lon":139.770133},{"name":"日暮里・舎人ライナー舎人公園駅","province":"東京都","city":"足立区","address":"東京都足立区舎人公園1-10","lat":35.796398,"lon":139.770164},{"name":"日暮里・舎人ライナー見沼代親水公園駅","province":"東京都","city":"足立区","address":"東京都足立区舎人2丁目21-13","lat":35.814444,"lon":139.7707},{"name":"東京都水道局足立営業所","province":"東京都","city":"足立区","address":"東京都足立区中央本町3丁目8-2","lat":35.771961,"lon":139.807747},{"name":"千住消防署","province":"東京都","city":"足立区","address":"東京都足立区千住中居町9-14","lat":35.748899,"lon":139.798688},{"name":"西新井消防署舎人出張所","province":"東京都","city":"足立区","address":"東京都足立区舎人2丁目18-12","lat":35.81161,"lon":139.770434},{"name":"少年運動場","province":"東京都","city":"足立区","address":"東京都足立区小台1丁目","lat":35.755525,"lon":139.776659},{"name":"西新井橋野球場","province":"東京都","city":"足立区","address":"東京都足立区千住元町","lat":35.757275,"lon":139.791347},{"name":"足立区役所","province":"東京都","city":"足立区","address":"東京都足立区中央本町1丁目17","lat":35.775014,"lon":139.804741},{"name":"足立区役所","province":"東京都","city":"足立区","address":"東京都足立区中央本町1丁目17-1","lat":35.774954,"lon":139.803991},{"name":"足立区役所","province":"東京都","city":"足立区","address":"東京都足立区中央本町1丁目17-1","lat":35.775554,"lon":139.804223},{"name":"足立区役所","province":"東京都","city":"足立区","address":"東京都足立区中央本町1丁目17-1","lat":35.774817,"lon":139.804001},{"name":"足立区役所","province":"東京都","city":"足立区","address":"東京都足立区中央本町1丁目17-1","lat":35.774658,"lon":139.804551},{"name":"足立区役所","province":"東京都","city":"足立区","address":"東京都足立区中央本町1丁目17-1","lat":35.774681,"lon":139.804582},{"name":"足立区役所","province":"東京都","city":"足立区","address":"東京都足立区中央本町1丁目17-1","lat":35.774781,"lon":139.804549},{"name":"足立区役所","province":"東京都","city":"足立区","address":"東京都足立区中央本町1丁目17-1","lat":35.77488,"lon":139.804356},{"name":"足立区役所","province":"東京都","city":"足立区","address":"東京都足立区梅島2丁目2-2","lat":35.775625,"lon":139.802974},{"name":"足立区役所千住庁舎","province":"東京都","city":"足立区","address":"東京都足立区千住仲町19-3","lat":35.746244,"lon":139.801592},{"name":"足立区足立福祉事務所","province":"東京都","city":"足立区","address":"東京都足立区中央本町4丁目5-2","lat":35.77711,"lon":139.805812},{"name":"綾瀬障がい福祉施設","province":"東京都","city":"足立区","address":"東京都足立区東綾瀬1丁目26-2","lat":35.765852,"lon":139.831313},{"name":"綾瀬障がい福祉施設","province":"東京都","city":"足立区","address":"東京都足立区東綾瀬1丁目26-2","lat":35.765852,"lon":139.831236},{"name":"足立区中川区民事務所","province":"東京都","city":"足立区","address":"東京都足立区中川4丁目43-4","lat":35.77178,"lon":139.850084},{"name":"足立区中川区民事務所","province":"東京都","city":"足立区","address":"東京都足立区中川4丁目43-4","lat":35.771735,"lon":139.850136},{"name":"足立区こども支援センターげんき","province":"東京都","city":"足立区","address":"東京都足立区梅島3丁目28-8","lat":35.775552,"lon":139.792662},{"name":"足立区こども支援センターげんき","province":"東京都","city":"足立区","address":"東京都足立区梅島3丁目28-8","lat":35.775601,"lon":139.792684},{"name":"東綾瀬区民事務所","province":"東京都","city":"足立区","address":"東京都足立区東綾瀬2丁目3","lat":35.767656,"lon":139.830041},{"name":"六木住区センター","province":"東京都","city":"足立区","address":"東京都足立区六木3丁目39-5","lat":35.799844,"lon":139.840191},{"name":"渕江住区センター分館","province":"東京都","city":"足立区","address":"東京都足立区西保木間3丁目14-16","lat":35.804335,"lon":139.800315},{"name":"東和住区センター","province":"東京都","city":"足立区","address":"東京都足立区東和3丁目12-9","lat":35.771161,"lon":139.83962},{"name":"江南住区センター","province":"東京都","city":"足立区","address":"東京都足立区小台2丁目45-4","lat":35.758721,"lon":139.761305},{"name":"伊興住区センター","province":"東京都","city":"足立区","address":"東京都足立区伊興5丁目22-13","lat":35.798192,"lon":139.780029},{"name":"舎人住区センター","province":"東京都","city":"足立区","address":"東京都足立区舎人1丁目3-26","lat":35.806008,"lon":139.773151},{"name":"南花畑住区センター","province":"東京都","city":"足立区","address":"東京都足立区南花畑3丁目14-7","lat":35.790519,"lon":139.824806},{"name":"綾瀬住区センター","province":"東京都","city":"足立区","address":"東京都足立区綾瀬3丁目17-9","lat":35.764748,"lon":139.82458},{"name":"千住本町住区センター","province":"東京都","city":"足立区","address":"東京都足立区千住5丁目6-2","lat":35.754741,"lon":139.803607},{"name":"加平住区センター","province":"東京都","city":"足立区","address":"東京都足立区加平1丁目10-6","lat":35.775021,"lon":139.828155},{"name":"江南住区センター","province":"東京都","city":"足立区","address":"東京都足立区小台2丁目45-4","lat":35.758801,"lon":139.761372},{"name":"長門住区センター分館","province":"東京都","city":"足立区","address":"東京都足立区中川4丁目43-4","lat":35.771771,"lon":139.850114},{"name":"栗島住区センター","province":"東京都","city":"足立区","address":"東京都足立区中央本町4丁目5-2","lat":35.776373,"lon":139.805804},{"name":"長門住区センター分館","province":"東京都","city":"足立区","address":"東京都足立区中川4丁目43-4","lat":35.771775,"lon":139.850064},{"name":"神明住区センター","province":"東京都","city":"足立区","address":"東京都足立区神明南2丁目6-18","lat":35.787825,"lon":139.833199},{"name":"平野住区センター","province":"東京都","city":"足立区","address":"東京都足立区平野2丁目2-14","lat":35.782236,"lon":139.804634},{"name":"東綾瀬住区センター","province":"東京都","city":"足立区","address":"東京都足立区東綾瀬1丁目28-7","lat":35.766138,"lon":139.832998},{"name":"千住あずま住区センター","province":"東京都","city":"足立区","address":"東京都足立区千住東2丁目21","lat":35.745558,"lon":139.810278},{"name":"千住あずま住区センター","province":"東京都","city":"足立区","address":"東京都足立区千住東2丁目21","lat":35.745573,"lon":139.810287},{"name":"押皿谷住区センター（西部福祉課を含む）","province":"東京都","city":"足立区","address":"東京都足立区鹿浜8丁目27-15","lat":35.789984,"lon":139.76502},{"name":"千住河原町住区センター","province":"東京都","city":"足立区","address":"東京都足立区千住河原町5-12","lat":35.744557,"lon":139.795768},{"name":"千住河原町住区センター","province":"東京都","city":"足立区","address":"東京都足立区千住河原町6-4","lat":35.744696,"lon":139.796084},{"name":"西伊興住区センター","province":"東京都","city":"足立区","address":"東京都足立区西伊興1丁目12-12","lat":35.790845,"lon":139.773527},{"name":"本木関原住区センター","province":"東京都","city":"足立区","address":"東京都足立区関原1丁目21-11","lat":35.764731,"lon":139.787209},{"name":"足立区鹿浜いきいき館","province":"東京都","city":"足立区","address":"東京都足立区鹿浜2丁目24-2","lat":35.780544,"lon":139.749094},{"name":"千住柳町住区センター","province":"東京都","city":"足立区","address":"東京都足立区千住柳町12-5","lat":35.753742,"lon":139.796218},{"name":"千住柳町住区センター","province":"東京都","city":"足立区","address":"東京都足立区千住柳町12-5","lat":35.753727,"lon":139.796135},{"name":"桜花住区センター","province":"東京都","city":"足立区","address":"東京都足立区花畑6丁目4","lat":35.804882,"lon":139.816929},{"name":"入谷住区センター","province":"東京都","city":"足立区","address":"東京都足立区舎人6丁目12-4","lat":35.811422,"lon":139.761986},{"name":"大谷田谷中住区センター","province":"東京都","city":"足立区","address":"東京都足立区大谷田4丁目16-6","lat":35.780824,"lon":139.838461},{"name":"西新井本町住区センター","province":"東京都","city":"足立区","address":"東京都足立区西新井本町2丁目30-37","lat":35.776549,"lon":139.77141},{"name":"興本住区センター","province":"東京都","city":"足立区","address":"東京都足立区本木東町17-10","lat":35.767462,"lon":139.781118},{"name":"保塚住区センター","province":"東京都","city":"足立区","address":"東京都足立区保塚町7","lat":35.786638,"lon":139.816178},{"name":"足立保健所東部保健センター","province":"東京都","city":"足立区","address":"東京都足立区大谷田3丁目11-13","lat":35.779774,"lon":139.842351},{"name":"西新井センター","province":"東京都","city":"足立区","address":"東京都足立区西新井1丁目4-17","lat":35.778717,"lon":139.780597},{"name":"足立区悠々会館","province":"東京都","city":"足立区","address":"東京都足立区西保木間4丁目9-1","lat":35.803399,"lon":139.796641},{"name":"足立保健所竹の塚保健センター","province":"東京都","city":"足立区","address":"東京都足立区西竹の塚1丁目11-2","lat":35.793089,"lon":139.789583},{"name":"足立区　足立保健所江北保健センター","province":"東京都","city":"足立区","address":"東京都足立区西新井本町2丁目30-40","lat":35.776024,"lon":139.771544},{"name":"足立保健所竹の塚保健センター","province":"東京都","city":"足立区","address":"東京都足立区西竹の塚1丁目11-2","lat":35.793513,"lon":139.789687},{"name":"足立保健所竹の塚保健センター","province":"東京都","city":"足立区","address":"東京都足立区西竹の塚1丁目11-2","lat":35.793446,"lon":139.789902},{"name":"足立区役所千住庁舎","province":"東京都","city":"足立区","address":"東京都足立区千住仲町19-3","lat":35.746279,"lon":139.801647},{"name":"足立保健所","province":"東京都","city":"足立区","address":"東京都足立区中央本町1丁目5-3","lat":35.771013,"lon":139.80371},{"name":"足立区立梅田図書館","province":"東京都","city":"足立区","address":"東京都足立区梅田7丁目13-1","lat":35.768414,"lon":139.800801},{"name":"足立区立中央図書館","province":"東京都","city":"足立区","address":"東京都足立区千住5丁目13-5","lat":35.756469,"lon":139.802562},{"name":"足立区立中央図書館","province":"東京都","city":"足立区","address":"東京都足立区千住5丁目13-5","lat":35.756445,"lon":139.802533},{"name":"足立区立伊興遺跡公園展示館","province":"東京都","city":"足立区","address":"東京都足立区東伊興4丁目9-1","lat":35.804406,"lon":139.786375},{"name":"足立区立郷土博物館","province":"東京都","city":"足立区","address":"東京都足立区大谷田5丁目20-1","lat":35.784524,"lon":139.841539},{"name":"足立区生涯学習センター","province":"東京都","city":"足立区","address":"東京都足立区千住5丁目13-5","lat":35.75633,"lon":139.802396},{"name":"足立区生涯学習センター","province":"東京都","city":"足立区","address":"東京都足立区千住5丁目13-5","lat":35.75667,"lon":139.802433},{"name":"足立区生涯学習センター","province":"東京都","city":"足立区","address":"東京都足立区千住5丁目13-5","lat":35.75667,"lon":139.802377},{"name":"足立区生涯学習センター","province":"東京都","city":"足立区","address":"東京都足立区千住5丁目13-5","lat":35.75637,"lon":139.802297},{"name":"足立区生涯学習センター","province":"東京都","city":"足立区","address":"東京都足立区千住5丁目13-5","lat":35.75648,"lon":139.802687},{"name":"足立区生涯学習センター","province":"東京都","city":"足立区","address":"東京都足立区千住5丁目13-5","lat":35.75643,"lon":139.802347},{"name":"足立区生涯学習センター","province":"東京都","city":"足立区","address":"東京都足立区千住5丁目13-5","lat":35.75649,"lon":139.802377},{"name":"足立区伊興地域学習センター","province":"東京都","city":"足立区","address":"東京都足立区伊興2丁目4-22","lat":35.79127,"lon":139.780976},{"name":"足立区梅田地域学習センター","province":"東京都","city":"足立区","address":"東京都足立区梅田7丁目33-1","lat":35.77058,"lon":139.798306},{"name":"足立区立興本地域学習センター","province":"東京都","city":"足立区","address":"東京都足立区興野1丁目17-7","lat":35.76838,"lon":139.783246},{"name":"足立区立興本地域学習センター","province":"東京都","city":"足立区","address":"東京都足立区興野1丁目18-38","lat":35.76836,"lon":139.782495},{"name":"足立区江北地域学習センター","province":"東京都","city":"足立区","address":"東京都足立区江北3丁目39-4","lat":35.77594,"lon":139.760134},{"name":"足立区佐野地域学習センター","province":"東京都","city":"足立区","address":"東京都足立区佐野2丁目43-5","lat":35.78818,"lon":139.840316},{"name":"足立区江北地域学習センター","province":"東京都","city":"足立区","address":"東京都足立区江北3丁目39-4","lat":35.77577,"lon":139.760289},{"name":"足立区新田地域学習センター","province":"東京都","city":"足立区","address":"東京都足立区新田2丁目2-2","lat":35.77142,"lon":139.737974},{"name":"足立区鹿浜地域学習センター","province":"東京都","city":"足立区","address":"東京都足立区鹿浜6丁目8-1","lat":35.784055,"lon":139.758271},{"name":"足立区鹿浜地域学習センター","province":"東京都","city":"足立区","address":"東京都足立区鹿浜6丁目8-1","lat":35.784204,"lon":139.75816},{"name":"足立区東和地域学習センター","province":"東京都","city":"足立区","address":"東京都足立区東和3丁目12-9","lat":35.77128,"lon":139.839527},{"name":"足立区竹の塚地域学習センター","province":"東京都","city":"足立区","address":"東京都足立区竹の塚2丁目25-17","lat":35.79266,"lon":139.794543},{"name":"足立区竹の塚地域学習センター","province":"東京都","city":"足立区","address":"東京都足立区竹の塚2丁目25-17","lat":35.7926,"lon":139.794842},{"name":"足立区竹の塚地域学習センター","province":"東京都","city":"足立区","address":"東京都足立区竹の塚2丁目25-17","lat":35.792644,"lon":139.794875},{"name":"足立区中央本町地域学習センター","province":"東京都","city":"足立区","address":"東京都足立区中央本町3丁目15-1","lat":35.77219,"lon":139.809697},{"name":"足立区中央本町地域学習センター","province":"東京都","city":"足立区","address":"東京都足立区中央本町3丁目15-1","lat":35.77221,"lon":139.809614},{"name":"足立区東和地域学習センター","province":"東京都","city":"足立区","address":"東京都足立区東和3丁目12-9","lat":35.77139,"lon":139.83948},{"name":"足立区東和地域学習センター","province":"東京都","city":"足立区","address":"東京都足立区東和3丁目12-9","lat":35.77107,"lon":139.839673},{"name":"足立区東和地域学習センター","province":"東京都","city":"足立区","address":"東京都足立区東和3丁目12-9","lat":35.771139,"lon":139.839602},{"name":"足立区こども未来創造館","province":"東京都","city":"足立区","address":"東京都足立区栗原1丁目3-1","lat":35.77952,"lon":139.790443},{"name":"足立区舎人地域学習センター","province":"東京都","city":"足立区","address":"東京都足立区舎人1丁目3-26","lat":35.80613,"lon":139.773199},{"name":"足立区花畑地域学習センター","province":"東京都","city":"足立区","address":"東京都足立区花畑4丁目16-8","lat":35.80282,"lon":139.807313},{"name":"足立区こども未来創造館","province":"東京都","city":"足立区","address":"東京都足立区栗原1丁目3-1","lat":35.77946,"lon":139.790391},{"name":"足立区こども未来創造館","province":"東京都","city":"足立区","address":"東京都足立区栗原1丁目2-1","lat":35.77942,"lon":139.790398},{"name":"足立区こども未来創造館","province":"東京都","city":"足立区","address":"東京都足立区栗原1丁目2-1","lat":35.77942,"lon":139.790436},{"name":"足立区こども未来創造館","province":"東京都","city":"足立区","address":"東京都足立区栗原1丁目3-1","lat":35.77945,"lon":139.790369},{"name":"足立区こども未来創造館","province":"東京都","city":"足立区","address":"東京都足立区栗原1丁目3-1","lat":35.77953,"lon":139.790193},{"name":"足立区西新井文化ホール","province":"東京都","city":"足立区","address":"東京都足立区栗原1丁目3-1","lat":35.77968,"lon":139.79061},{"name":"足立区保塚地域学習センター","province":"東京都","city":"足立区","address":"東京都足立区保塚町7-16","lat":35.786914,"lon":139.816268},{"name":"足立区保塚地域学習センター","province":"東京都","city":"足立区","address":"東京都足立区保塚町7","lat":35.786646,"lon":139.816089},{"name":"足立区保塚地域学習センター","province":"東京都","city":"足立区","address":"東京都足立区保塚町7","lat":35.786638,"lon":139.816178},{"name":"足立区文化芸術劇場","province":"東京都","city":"足立区","address":"東京都足立区千住3丁目92","lat":35.750553,"lon":139.804456},{"name":"足立区文化芸術劇場","province":"東京都","city":"足立区","address":"東京都足立区千住3丁目92","lat":35.750957,"lon":139.804877},{"name":"足立区文化芸術劇場","province":"東京都","city":"足立区","address":"東京都足立区千住3丁目92","lat":35.751335,"lon":139.804572},{"name":"足立区文化芸術劇場","province":"東京都","city":"足立区","address":"東京都足立区千住3丁目92","lat":35.750863,"lon":139.804842},{"name":"足立区文化芸術劇場","province":"東京都","city":"足立区","address":"東京都足立区千住3丁目92","lat":35.751145,"lon":139.804498},{"name":"大谷田南公園","province":"東京都","city":"足立区","address":"東京都足立区中川4丁目42","lat":35.771786,"lon":139.848326},{"name":"五丁田公園","province":"東京都","city":"足立区","address":"東京都足立区大谷田3丁目7","lat":35.77778,"lon":139.841427},{"name":"河添公園","province":"東京都","city":"足立区","address":"東京都足立区綾瀬2丁目46","lat":35.76168,"lon":139.83076},{"name":"大谷田公園","province":"東京都","city":"足立区","address":"東京都足立区大谷田4丁目4","lat":35.77837,"lon":139.837815},{"name":"下河原公園（東側）","province":"東京都","city":"足立区","address":"東京都足立区東綾瀬1丁目11","lat":35.763826,"lon":139.834415},{"name":"元渕江公園","province":"東京都","city":"足立区","address":"東京都足立区保木間2丁目17","lat":35.792068,"lon":139.805954},{"name":"毛長公園","province":"東京都","city":"足立区","address":"東京都足立区花畑5丁目13","lat":35.807688,"lon":139.810944},{"name":"毛長公園","province":"東京都","city":"足立区","address":"東京都足立区花畑5丁目9","lat":35.808456,"lon":139.806528},{"name":"仲組公園","province":"東京都","city":"足立区","address":"東京都足立区花畑3丁目38","lat":35.805674,"lon":139.813419},{"name":"鷲宿公園","province":"東京都","city":"足立区","address":"東京都足立区花畑7丁目9","lat":35.809506,"lon":139.81968},{"name":"しょうぶ沼公園（西側）","province":"東京都","city":"足立区","address":"東京都足立区谷中2丁目4","lat":35.775847,"lon":139.83036},{"name":"雪見公園","province":"東京都","city":"足立区","address":"東京都足立区神明南2丁目17","lat":35.79156,"lon":139.831733},{"name":"一ツ家第四公園","province":"東京都","city":"足立区","address":"東京都足立区一ツ家1丁目26","lat":35.784171,"lon":139.810068},{"name":"足立区生物園","province":"東京都","city":"足立区","address":"東京都足立区保木間2丁目17","lat":35.792138,"lon":139.806937},{"name":"花畑公園","province":"東京都","city":"足立区","address":"東京都足立区花畑4丁目40","lat":35.806228,"lon":139.807365},{"name":"一ツ家第一公園（南側）","province":"東京都","city":"足立区","address":"東京都足立区一ツ家4丁目16","lat":35.780317,"lon":139.817392},{"name":"青井公園","province":"東京都","city":"足立区","address":"東京都足立区青井1丁目11","lat":35.774725,"lon":139.813107},{"name":"平野公園","province":"東京都","city":"足立区","address":"東京都足立区平野3丁目15","lat":35.784851,"lon":139.808081},{"name":"前谷公園","province":"東京都","city":"足立区","address":"東京都足立区花畑1丁目10","lat":35.800269,"lon":139.810942},{"name":"栗島公園","province":"東京都","city":"足立区","address":"東京都足立区中央本町5丁目21","lat":35.777617,"lon":139.809964},{"name":"陣川戸公園（南側）","province":"東京都","city":"足立区","address":"東京都足立区保木間5丁目17","lat":35.801908,"lon":139.807604},{"name":"五反野コミュニティ公園","province":"東京都","city":"足立区","address":"東京都足立区西綾瀬2丁目1","lat":35.761484,"lon":139.814846},{"name":"沖谷公園","province":"東京都","city":"足立区","address":"東京都足立区谷中4丁目18","lat":35.780825,"lon":139.833073},{"name":"桜花亭","province":"東京都","city":"足立区","address":"東京都足立区花畑4丁目40-1","lat":35.806013,"lon":139.807468},{"name":"桜花亭","province":"東京都","city":"足立区","address":"東京都足立区花畑4丁目40-1","lat":35.805987,"lon":139.807356},{"name":"足立区都市農業公園","province":"東京都","city":"足立区","address":"東京都足立区鹿浜2丁目44-1","lat":35.783028,"lon":139.745408},{"name":"青井ふれあい公園","province":"東京都","city":"足立区","address":"東京都足立区青井1丁目3","lat":35.772656,"lon":139.810849},{"name":"青和コミュニティ公園","province":"東京都","city":"足立区","address":"東京都足立区青井3丁目22","lat":35.773276,"lon":139.818484},{"name":"弘道中央公園","province":"東京都","city":"足立区","address":"東京都足立区弘道2丁目3","lat":35.768523,"lon":139.81533},{"name":"神明南公園","province":"東京都","city":"足立区","address":"東京都足立区神明南1丁目7","lat":35.789107,"lon":139.830815},{"name":"葛西用水親水水路","province":"東京都","city":"足立区","address":"東京都足立区六木4丁目3","lat":35.794401,"lon":139.839884},{"name":"辰沼二丁目公園","province":"東京都","city":"足立区","address":"東京都足立区辰沼2丁目11","lat":35.788915,"lon":139.833481},{"name":"北加平公園","province":"東京都","city":"足立区","address":"東京都足立区北加平町16","lat":35.785353,"lon":139.829471},{"name":"弘道いこい公園","province":"東京都","city":"足立区","address":"東京都足立区弘道1丁目10","lat":35.767328,"lon":139.811948},{"name":"西綾瀬そよかぜ公園","province":"東京都","city":"足立区","address":"東京都足立区西綾瀬3丁目3","lat":35.762055,"lon":139.816638},{"name":"やよい公園","province":"東京都","city":"足立区","address":"東京都足立区中央本町2丁目13","lat":35.770366,"lon":139.808046},{"name":"佐野一丁目ゆめ公園","province":"東京都","city":"足立区","address":"東京都足立区佐野1丁目20","lat":35.786635,"lon":139.843077},{"name":"綾瀬七丁目丘公園","province":"東京都","city":"足立区","address":"東京都足立区綾瀬7丁目15","lat":35.773188,"lon":139.827989},{"name":"花六東公園","province":"東京都","city":"足立区","address":"東京都足立区花畑6丁目23","lat":35.805934,"lon":139.818694},{"name":"神明南ふれあい公園","province":"東京都","city":"足立区","address":"東京都足立区神明南1丁目3","lat":35.787461,"lon":139.829358},{"name":"六木二丁目中央公園","province":"東京都","city":"足立区","address":"東京都足立区六木2丁目6","lat":35.792684,"lon":139.841797},{"name":"弘道一丁目ふれあい児童遊園","province":"東京都","city":"足立区","address":"東京都足立区弘道1丁目26","lat":35.768928,"lon":139.810523},{"name":"梅島公園","province":"東京都","city":"足立区","address":"東京都足立区梅田7丁目20","lat":35.769823,"lon":139.800422},{"name":"中郷公園","province":"東京都","city":"足立区","address":"東京都足立区西新井1丁目29","lat":35.78199,"lon":139.780542},{"name":"竹の塚第三公園","province":"東京都","city":"足立区","address":"東京都足立区竹の塚4丁目7","lat":35.793705,"lon":139.799198},{"name":"上沼田第二公園","province":"東京都","city":"足立区","address":"東京都足立区江北4丁目21","lat":35.775712,"lon":139.766535},{"name":"諏訪木東公園","province":"東京都","city":"足立区","address":"東京都足立区西新井3丁目25","lat":35.78993,"lon":139.781377},{"name":"西中第一公園","province":"東京都","city":"足立区","address":"東京都足立区西新井6丁目44","lat":35.782607,"lon":139.776439},{"name":"六月町公園","province":"東京都","city":"足立区","address":"東京都足立区六月3丁目17","lat":35.787268,"lon":139.792263},{"name":"北鹿浜公園","province":"東京都","city":"足立区","address":"東京都足立区鹿浜3丁目26","lat":35.782525,"lon":139.754682},{"name":"北鹿浜公園","province":"東京都","city":"足立区","address":"東京都足立区鹿浜3丁目26","lat":35.78193,"lon":139.75415},{"name":"西新井西公園","province":"東京都","city":"足立区","address":"東京都足立区西新井6丁目9","lat":35.778971,"lon":139.773851},{"name":"鹿浜校趾公園","province":"東京都","city":"足立区","address":"東京都足立区鹿浜3丁目14","lat":35.780748,"lon":139.752475},{"name":"入谷緑地公園","province":"東京都","city":"足立区","address":"東京都足立区入谷5丁目1","lat":35.80219,"lon":139.762071},{"name":"西保木間公園","province":"東京都","city":"足立区","address":"東京都足立区西保木間2丁目14","lat":35.801865,"lon":139.800268},{"name":"上沼田北公園","province":"東京都","city":"足立区","address":"東京都足立区江北7丁目16","lat":35.782297,"lon":139.764352},{"name":"島根公園","province":"東京都","city":"足立区","address":"東京都足立区島根2丁目14","lat":35.78324,"lon":139.799799},{"name":"江北公園","province":"東京都","city":"足立区","address":"東京都足立区鹿浜1丁目2","lat":35.777189,"lon":139.75022},{"name":"江北公園","province":"東京都","city":"足立区","address":"東京都足立区鹿浜5丁目10","lat":35.785911,"lon":139.751127},{"name":"新田さくら公園","province":"東京都","city":"足立区","address":"東京都足立区新田3丁目34","lat":35.768299,"lon":139.746539},{"name":"入谷中央公園","province":"東京都","city":"足立区","address":"東京都足立区入谷4丁目16","lat":35.808271,"lon":139.760504},{"name":"島根中堀公園","province":"東京都","city":"足立区","address":"東京都足立区島根4丁目36","lat":35.783606,"lon":139.793255},{"name":"江北平成公園","province":"東京都","city":"足立区","address":"東京都足立区江北4丁目16","lat":35.773504,"lon":139.764463},{"name":"江北平成公園","province":"東京都","city":"足立区","address":"東京都足立区江北4丁目15","lat":35.772867,"lon":139.765541},{"name":"入谷中郷南恐竜公園","province":"東京都","city":"足立区","address":"東京都足立区入谷5丁目12","lat":35.803811,"lon":139.763026},{"name":"皿沼公園","province":"東京都","city":"足立区","address":"東京都足立区皿沼2丁目25","lat":35.792051,"lon":139.764587},{"name":"ベルモント公園（南側）","province":"東京都","city":"足立区","address":"東京都足立区梅島1丁目33-7","lat":35.774783,"lon":139.799359},{"name":"竹北公園","province":"東京都","city":"足立区","address":"東京都足立区竹の塚7丁目19","lat":35.80079,"lon":139.794543},{"name":"入谷日の出公園","province":"東京都","city":"足立区","address":"東京都足立区入谷1丁目3","lat":35.803103,"lon":139.771167},{"name":"島六ふれあい公園","province":"東京都","city":"足立区","address":"東京都足立区六月1丁目7","lat":35.7852,"lon":139.799857},{"name":"江北みどり公園","province":"東京都","city":"足立区","address":"東京都足立区江北3丁目8","lat":35.77288,"lon":139.762725},{"name":"東伊興淵之宮公園","province":"東京都","city":"足立区","address":"東京都足立区東伊興2丁目4","lat":35.804894,"lon":139.790268},{"name":"伊興北の根公園","province":"東京都","city":"足立区","address":"東京都足立区伊興本町1丁目16","lat":35.799555,"lon":139.788724},{"name":"西新井さくら公園","province":"東京都","city":"足立区","address":"東京都足立区西新井2丁目6","lat":35.784089,"lon":139.780214},{"name":"西保木間一丁目公園","province":"東京都","city":"足立区","address":"東京都足立区西保木間1丁目7","lat":35.794938,"lon":139.800452},{"name":"上沼田南どんぐり公園","province":"東京都","city":"足立区","address":"東京都足立区江北3丁目34","lat":35.776988,"lon":139.763738},{"name":"西新井さかえ公園","province":"東京都","city":"足立区","address":"東京都足立区西新井栄町1丁目19","lat":35.773463,"lon":139.787307},{"name":"梅田五丁目フレンド公園","province":"東京都","city":"足立区","address":"東京都足立区梅田5丁目25","lat":35.770067,"lon":139.795468},{"name":"亀田トレイン公園","province":"東京都","city":"足立区","address":"東京都足立区梅田8丁目14","lat":35.774357,"lon":139.79302},{"name":"西新井蓮沼公園","province":"東京都","city":"足立区","address":"東京都足立区西新井1丁目20","lat":35.779859,"lon":139.782437},{"name":"伊興四丁目公園","province":"東京都","city":"足立区","address":"東京都足立区伊興4丁目19","lat":35.796574,"lon":139.780008},{"name":"江北六丁目児童遊園","province":"東京都","city":"足立区","address":"東京都足立区江北6丁目30","lat":35.781693,"lon":139.768322},{"name":"宮城公園","province":"東京都","city":"足立区","address":"東京都足立区宮城1丁目38","lat":35.761595,"lon":139.758342},{"name":"千住スポーツ公園（南側）","province":"東京都","city":"足立区","address":"東京都足立区千住緑町2丁目1","lat":35.743541,"lon":139.794869},{"name":"千住仲町公園（西側）","province":"東京都","city":"足立区","address":"東京都足立区千住仲町28","lat":35.743774,"lon":139.801433},{"name":"千住桜木町公園","province":"東京都","city":"足立区","address":"東京都足立区千住桜木1丁目5","lat":35.749731,"lon":139.7928},{"name":"千住中居町公園","province":"東京都","city":"足立区","address":"東京都足立区千住中居町24","lat":35.749641,"lon":139.796425},{"name":"関屋公園","province":"東京都","city":"足立区","address":"東京都足立区千住関屋町17","lat":35.741405,"lon":139.806448},{"name":"新田稲荷公園","province":"東京都","city":"足立区","address":"東京都足立区新田1丁目8","lat":35.775287,"lon":139.73827},{"name":"千住大橋さくら公園","province":"東京都","city":"足立区","address":"東京都足立区千住緑町1丁目1","lat":35.742918,"lon":139.794492},{"name":"花保さくら公園","province":"東京都","city":"足立区","address":"東京都足立区南花畑3丁目1","lat":35.789825,"lon":139.822313},{"name":"舎人いきいき公園","province":"東京都","city":"足立区","address":"東京都足立区舎人6丁目3","lat":35.813378,"lon":139.764985},{"name":"佐野いこいの森緑地","province":"東京都","city":"足立区","address":"東京都足立区佐野1丁目31","lat":35.789094,"lon":139.843679},{"name":"しょうぶ沼公園（東側）","province":"東京都","city":"足立区","address":"東京都足立区谷中2丁目4","lat":35.775849,"lon":139.831669},{"name":"弘道第一公園","province":"東京都","city":"足立区","address":"東京都足立区弘道2丁目16","lat":35.768143,"lon":139.817657},{"name":"中央本町三丁目のびのび広場","province":"東京都","city":"足立区","address":"東京都足立区中央本町3丁目8","lat":35.773321,"lon":139.807819},{"name":"足立区障がい福祉センター","province":"東京都","city":"足立区","address":"東京都足立区梅島3丁目31-19","lat":35.777334,"lon":139.792829},{"name":"綾瀬駅前公衆便所","province":"東京都","city":"足立区","address":"東京都足立区綾瀬3丁目10","lat":35.762757,"lon":139.827518},{"name":"青井駅前公衆便所","province":"東京都","city":"足立区","address":"東京都足立区青井3丁目16","lat":35.772251,"lon":139.819745},{"name":"綾瀬駅西口公衆便所","province":"東京都","city":"足立区","address":"東京都足立区綾瀬1丁目39","lat":35.761749,"lon":139.823894},{"name":"六町駅前公衆便所","province":"東京都","city":"足立区","address":"東京都足立区六町4丁目1","lat":35.785187,"lon":139.821569},{"name":"西新井駅東口公衆便所","province":"東京都","city":"足立区","address":"東京都足立区西新井栄町2丁目1","lat":35.777705,"lon":139.790234},{"name":"保木間公衆便所","province":"東京都","city":"足立区","address":"東京都足立区竹の塚3丁目8","lat":35.790507,"lon":139.802463},{"name":"西新井大師駅前公衆便所","province":"東京都","city":"足立区","address":"東京都足立区西新井1丁目4","lat":35.778943,"lon":139.78108},{"name":"見沼代親水公園","province":"東京都","city":"足立区","address":"東京都足立区舎人2丁目3","lat":35.809463,"lon":139.774603},{"name":"見沼代親水公園駅前公衆便所","province":"東京都","city":"足立区","address":"東京都足立区舎人5丁目29","lat":35.813899,"lon":139.770459},{"name":"江北駅前公衆便所","province":"東京都","city":"足立区","address":"東京都足立区西新井本町2丁目32","lat":35.773783,"lon":139.770539},{"name":"千住大橋際公衆便所","province":"東京都","city":"足立区","address":"東京都足立区千住橋戸町","lat":35.739999,"lon":139.797251},{"name":"北千住駅前公衆便所","province":"東京都","city":"足立区","address":"東京都足立区千住旭町42-3","lat":35.74879,"lon":139.804466},{"name":"足立区障がい福祉センター","province":"東京都","city":"足立区","address":"東京都足立区梅島3丁目31-19","lat":35.777369,"lon":139.792839},{"name":"足立区障がい福祉センター","province":"東京都","city":"足立区","address":"東京都足立区梅島3丁目31-19","lat":35.777428,"lon":139.792855},{"name":"足立区障がい福祉センター","province":"東京都","city":"足立区","address":"東京都足立区梅島3丁目31-19","lat":35.777413,"lon":139.792851},{"name":"足立区障がい福祉センター","province":"東京都","city":"足立区","address":"東京都足立区梅島3丁目31-19","lat":35.777441,"lon":139.792858},{"name":"足立区障がい福祉センター","province":"東京都","city":"足立区","address":"東京都足立区梅島3丁目31-19","lat":35.777412,"lon":139.792922},{"name":"あだち産業センター","province":"東京都","city":"足立区","address":"東京都足立区千住1丁目5-7","lat":35.747401,"lon":139.80037},{"name":"足立区障がい福祉センター","province":"東京都","city":"足立区","address":"東京都足立区梅島3丁目31-19","lat":35.777304,"lon":139.792866},{"name":"足立区勤労福祉会館","province":"東京都","city":"足立区","address":"東京都足立区綾瀬1丁目34-7","lat":35.761168,"lon":139.821427},{"name":"足立区勤労福祉会館","province":"東京都","city":"足立区","address":"東京都足立区綾瀬1丁目34-7","lat":35.761076,"lon":139.821582},{"name":"千住龍田町防災ひろば","province":"東京都","city":"足立区","address":"東京都足立区千住龍田町9","lat":35.751695,"lon":139.796137},{"name":"足立清掃事務所","province":"東京都","city":"足立区","address":"東京都足立区東伊興3丁目23-9","lat":35.804412,"lon":139.793895},{"name":"足立区総合ボランティアセンター","province":"東京都","city":"足立区","address":"東京都足立区日ノ出町27-3","lat":35.751978,"lon":139.808763},{"name":"足立区総合スポーツセンター","province":"東京都","city":"足立区","address":"東京都足立区東保木間2丁目27-1","lat":35.79229,"lon":139.813858},{"name":"足立区総合スポーツセンター","province":"東京都","city":"足立区","address":"東京都足立区東保木間2丁目27-1","lat":35.792326,"lon":139.81395},{"name":"足立区総合スポーツセンター","province":"東京都","city":"足立区","address":"東京都足立区東保木間2丁目27-1","lat":35.792341,"lon":139.81403},{"name":"足立区総合スポーツセンター","province":"東京都","city":"足立区","address":"東京都足立区東保木間2丁目27-1","lat":35.792147,"lon":139.813744},{"name":"足立区総合スポーツセンター","province":"東京都","city":"足立区","address":"東京都足立区東保木間2丁目32","lat":35.793075,"lon":139.815876},{"name":"足立区総合スポーツセンター","province":"東京都","city":"足立区","address":"東京都足立区東保木間2丁目27-1","lat":35.792118,"lon":139.813749},{"name":"六町駅前安全安心ステーション","province":"東京都","city":"足立区","address":"東京都足立区六町4丁目1","lat":35.785205,"lon":139.821438},{"name":"足立区総合スポーツセンター","province":"東京都","city":"足立区","address":"東京都足立区東保木間2丁目27","lat":35.791769,"lon":139.813136},{"name":"足立区東綾瀬公園温水温水プール","province":"東京都","city":"足立区","address":"東京都足立区東綾瀬3丁目4-1","lat":35.77037,"lon":139.831279},{"name":"足立区千寿本町小学校温水プール","province":"東京都","city":"足立区","address":"東京都足立区千住3丁目30","lat":35.751633,"lon":139.801869},{"name":"足立区平野運動場","province":"東京都","city":"足立区","address":"東京都足立区平野2丁目12","lat":35.784388,"lon":139.804261},{"name":"西綾瀬ボランティアセンター","province":"東京都","city":"足立区","address":"東京都足立区西綾瀬4丁目5-6","lat":35.7647,"lon":139.819612},{"name":"足立区スイムスポーツセンター(うきうき館）","province":"東京都","city":"足立区","address":"東京都足立区西保木間4丁目10-1","lat":35.803466,"lon":139.797088},{"name":"足立区スイムスポーツセンター(うきうき館）","province":"東京都","city":"足立区","address":"東京都足立区西保木間4丁目10-1","lat":35.803814,"lon":139.797233},{"name":"足立トラックターミナル","province":"東京都","city":"足立区","address":"東京都足立区入谷6丁目1-1","lat":35.79902128,"lon":139.7665504},{"name":"＊?西新井文化ホール(ｷﾞｬﾗｸｼﾃｨ内)","province":"東京都","city":"足立区","address":"足立区栗原1-3-1","lat":35.779785,"lon":139.790513},{"name":"＊?足立区文化芸術劇場（THEATER?1010）","province":"東京都","city":"足立区","address":"足立区千住3-92千住ミルディス(1)番館10階","lat":35.75088,"lon":139.804575},{"name":"足立都税事務所","province":"東京都","city":"足立区","address":"東京都足立区西新井栄町2丁目8-15","lat":35.778009,"lon":139.788288},{"name":"足立自動車税事務所","province":"東京都","city":"足立区","address":"東京都足立区南花畑5丁目12-1","lat":35.797142,"lon":139.817134},{"name":"東京武道館","province":"東京都","city":"足立区","address":"東京都足立区綾瀬3丁目20","lat":35.765455,"lon":139.825328},{"name":"東京武道館","province":"東京都","city":"足立区","address":"東京都足立区綾瀬3丁目20","lat":35.765363,"lon":139.825582},{"name":"東京武道館","province":"東京都","city":"足立区","address":"東京都足立区綾瀬3丁目20","lat":35.766009,"lon":139.825394},{"name":"東京武道館","province":"東京都","city":"足立区","address":"東京都足立区綾瀬3丁目20","lat":35.765333,"lon":139.825572},{"name":"都立城東職業能力開発センター","province":"東京都","city":"足立区","address":"東京都足立区綾瀬5丁目6-1","lat":35.767273,"lon":139.824949},{"name":"都立城東職業能力開発センター","province":"東京都","city":"足立区","address":"東京都足立区綾瀬5丁目6-1","lat":35.767352,"lon":139.824455},{"name":"都立城東職業能力開発センター","province":"東京都","city":"足立区","address":"東京都足立区綾瀬5丁目6-1","lat":35.767261,"lon":139.824588},{"name":"都立城東職業能力開発センター","province":"東京都","city":"足立区","address":"東京都足立区綾瀬5丁目6-1","lat":35.767262,"lon":139.824537},{"name":"舎人公園","province":"東京都","city":"足立区","address":"東京都足立区皿沼3丁目33","lat":35.794784,"lon":139.767826},{"name":"舎人公園","province":"東京都","city":"足立区","address":"東京都足立区古千谷2丁目","lat":35.800631,"lon":139.77204},{"name":"舎人公園","province":"東京都","city":"足立区","address":"東京都足立区古千谷2丁目","lat":35.799974,"lon":139.771196},{"name":"舎人公園","province":"東京都","city":"足立区","address":"東京都足立区古千谷2丁目","lat":35.799699,"lon":139.773451},{"name":"舎人公園","province":"東京都","city":"足立区","address":"東京都足立区古千谷2丁目","lat":35.800413,"lon":139.774574},{"name":"舎人公園","province":"東京都","city":"足立区","address":"東京都足立区舎人公園1","lat":35.799748,"lon":139.769753},{"name":"舎人公園","province":"東京都","city":"足立区","address":"東京都足立区舎人公園1","lat":35.796465,"lon":139.764611},{"name":"舎人公園","province":"東京都","city":"足立区","address":"東京都足立区西伊興2丁目12","lat":35.794919,"lon":139.774384},{"name":"舎人公園","province":"東京都","city":"足立区","address":"東京都足立区舎人公園1","lat":35.799497,"lon":139.768547},{"name":"舎人公園","province":"東京都","city":"足立区","address":"東京都足立区古千谷1丁目","lat":35.795524,"lon":139.770927},{"name":"舎人公園","province":"東京都","city":"足立区","address":"東京都足立区舎人公園1","lat":35.796626,"lon":139.766832},{"name":"舎人公園","province":"東京都","city":"足立区","address":"東京都足立区舎人公園1","lat":35.801426,"lon":139.769813},{"name":"舎人公園","province":"東京都","city":"足立区","address":"東京都足立区舎人公園1","lat":35.797803,"lon":139.769233},{"name":"舎人公園","province":"東京都","city":"足立区","address":"東京都足立区古千谷1丁目","lat":35.798241,"lon":139.77184},{"name":"舎人公園","province":"東京都","city":"足立区","address":"東京都足立区古千谷2丁目","lat":35.798927,"lon":139.774699},{"name":"舎人公園","province":"東京都","city":"足立区","address":"東京都足立区西伊興3丁目16","lat":35.798419,"lon":139.775658},{"name":"舎人公園","province":"東京都","city":"足立区","address":"東京都足立区古千谷1丁目","lat":35.796122,"lon":139.773296},{"name":"舎人公園","province":"東京都","city":"足立区","address":"東京都足立区古千谷1丁目","lat":35.796158,"lon":139.773293},{"name":"舎人公園","province":"東京都","city":"足立区","address":"東京都足立区古千谷1丁目","lat":35.795269,"lon":139.770558},{"name":"舎人公園","province":"東京都","city":"足立区","address":"東京都足立区舎人公園1-1","lat":35.797023,"lon":139.768433},{"name":"舎人公園","province":"東京都","city":"足立区","address":"東京都足立区古千谷2丁目","lat":35.801123,"lon":139.773746},{"name":"舎人公園","province":"東京都","city":"足立区","address":"東京都足立区舎人公園1-1","lat":35.800639,"lon":139.768312},{"name":"舎人公園","province":"東京都","city":"足立区","address":"東京都足立区西伊興2丁目12","lat":35.794941,"lon":139.774385},{"name":"舎人公園","province":"東京都","city":"足立区","address":"東京都足立区西伊興町","lat":35.793024,"lon":139.771975},{"name":"中川公園","province":"東京都","city":"足立区","address":"東京都足立区中川5丁目1","lat":35.772447,"lon":139.852001},{"name":"東綾瀬公園","province":"東京都","city":"足立区","address":"東京都足立区東綾瀬3丁目4","lat":35.770142,"lon":139.832615},{"name":"東綾瀬公園","province":"東京都","city":"足立区","address":"東京都足立区綾瀬5丁目8","lat":35.768353,"lon":139.825335},{"name":"東綾瀬公園","province":"東京都","city":"足立区","address":"東京都足立区東綾瀬2丁目9","lat":35.766953,"lon":139.832305},{"name":"東綾瀬公園","province":"東京都","city":"足立区","address":"東京都足立区綾瀬6丁目37","lat":35.770625,"lon":139.82721},{"name":"東綾瀬公園","province":"東京都","city":"足立区","address":"東京都足立区綾瀬5丁目8","lat":35.768343,"lon":139.825339},{"name":"東綾瀬公園","province":"東京都","city":"足立区","address":"東京都足立区綾瀬3丁目10","lat":35.76276,"lon":139.82752},{"name":"東綾瀬公園","province":"東京都","city":"足立区","address":"東京都足立区東綾瀬3丁目4","lat":35.770669,"lon":139.833952},{"name":"中川公園","province":"東京都","city":"足立区","address":"東京都足立区中川5丁目1","lat":35.774988,"lon":139.845383},{"name":"日暮里・舎人ライナー足立小台駅","province":"東京都","city":"足立区","address":"東京都足立区小台1丁目20-1","lat":35.754577,"lon":139.770365},{"name":"日暮里・舎人ライナー扇大橋駅","province":"東京都","city":"足立区","address":"東京都足立区扇2丁目25-17","lat":35.763903,"lon":139.770829},{"name":"日暮里・舎人ライナー高野駅","province":"東京都","city":"足立区","address":"東京都足立区扇2丁目45-1","lat":35.76838,"lon":139.770644},{"name":"日暮里・舎人ライナー江北駅","province":"東京都","city":"足立区","address":"東京都足立区江北4丁目30-27","lat":35.773851,"lon":139.770261},{"name":"日暮里・舎人ライナー西新井大師西駅","province":"東京都","city":"足立区","address":"東京都足立区江北6丁目30-23","lat":35.781478,"lon":139.770108},{"name":"日暮里・舎人ライナー谷在家駅","province":"東京都","city":"足立区","address":"東京都足立区谷在家3丁目20","lat":35.788762,"lon":139.770108},{"name":"日暮里・舎人ライナー舎人駅","province":"東京都","city":"足立区","address":"東京都足立区舎人1丁目16-15","lat":35.805625,"lon":139.770133},{"name":"日暮里・舎人ライナー舎人公園駅","province":"東京都","city":"足立区","address":"東京都足立区舎人公園1-10","lat":35.796398,"lon":139.770164},{"name":"日暮里・舎人ライナー見沼代親水公園駅","province":"東京都","city":"足立区","address":"東京都足立区舎人2丁目21-13","lat":35.814444,"lon":139.7707},{"name":"東京都水道局足立営業所","province":"東京都","city":"足立区","address":"東京都足立区中央本町3丁目8-2","lat":35.771961,"lon":139.807747},{"name":"千住消防署","province":"東京都","city":"足立区","address":"東京都足立区千住中居町9-14","lat":35.748899,"lon":139.798688},{"name":"西新井消防署舎人出張所","province":"東京都","city":"足立区","address":"東京都足立区舎人2丁目18-12","lat":35.81161,"lon":139.770434},{"name":"少年運動場","province":"東京都","city":"足立区","address":"東京都足立区小台1丁目","lat":35.755525,"lon":139.776659},{"name":"西新井橋野球場","province":"東京都","city":"足立区","address":"東京都足立区千住元町","lat":35.757275,"lon":139.791347},{"name":"足立区役所","province":"東京都","city":"足立区","address":"東京都足立区中央本町1丁目17","lat":35.775014,"lon":139.804741},{"name":"足立区役所","province":"東京都","city":"足立区","address":"東京都足立区中央本町1丁目17-1","lat":35.774954,"lon":139.803991},{"name":"足立区役所","province":"東京都","city":"足立区","address":"東京都足立区中央本町1丁目17-1","lat":35.775554,"lon":139.804223},{"name":"足立区役所","province":"東京都","city":"足立区","address":"東京都足立区中央本町1丁目17-1","lat":35.774817,"lon":139.804001},{"name":"足立区役所","province":"東京都","city":"足立区","address":"東京都足立区中央本町1丁目17-1","lat":35.774658,"lon":139.804551},{"name":"足立区役所","province":"東京都","city":"足立区","address":"東京都足立区中央本町1丁目17-1","lat":35.774681,"lon":139.804582},{"name":"足立区役所","province":"東京都","city":"足立区","address":"東京都足立区中央本町1丁目17-1","lat":35.774781,"lon":139.804549},{"name":"足立区役所","province":"東京都","city":"足立区","address":"東京都足立区中央本町1丁目17-1","lat":35.77488,"lon":139.804356},{"name":"足立区役所","province":"東京都","city":"足立区","address":"東京都足立区梅島2丁目2-2","lat":35.775625,"lon":139.802974},{"name":"足立区役所千住庁舎","province":"東京都","city":"足立区","address":"東京都足立区千住仲町19-3","lat":35.746244,"lon":139.801592},{"name":"足立区足立福祉事務所","province":"東京都","city":"足立区","address":"東京都足立区中央本町4丁目5-2","lat":35.77711,"lon":139.805812},{"name":"綾瀬障がい福祉施設","province":"東京都","city":"足立区","address":"東京都足立区東綾瀬1丁目26-2","lat":35.765852,"lon":139.831313},{"name":"綾瀬障がい福祉施設","province":"東京都","city":"足立区","address":"東京都足立区東綾瀬1丁目26-2","lat":35.765852,"lon":139.831236},{"name":"足立区中川区民事務所","province":"東京都","city":"足立区","address":"東京都足立区中川4丁目43-4","lat":35.77178,"lon":139.850084},{"name":"足立区中川区民事務所","province":"東京都","city":"足立区","address":"東京都足立区中川4丁目43-4","lat":35.771735,"lon":139.850136},{"name":"足立区こども支援センターげんき","province":"東京都","city":"足立区","address":"東京都足立区梅島3丁目28-8","lat":35.775552,"lon":139.792662},{"name":"足立区こども支援センターげんき","province":"東京都","city":"足立区","address":"東京都足立区梅島3丁目28-8","lat":35.775601,"lon":139.792684},{"name":"東綾瀬区民事務所","province":"東京都","city":"足立区","address":"東京都足立区東綾瀬2丁目3","lat":35.767656,"lon":139.830041},{"name":"六木住区センター","province":"東京都","city":"足立区","address":"東京都足立区六木3丁目39-5","lat":35.799844,"lon":139.840191},{"name":"渕江住区センター分館","province":"東京都","city":"足立区","address":"東京都足立区西保木間3丁目14-16","lat":35.804335,"lon":139.800315},{"name":"東和住区センター","province":"東京都","city":"足立区","address":"東京都足立区東和3丁目12-9","lat":35.771161,"lon":139.83962},{"name":"江南住区センター","province":"東京都","city":"足立区","address":"東京都足立区小台2丁目45-4","lat":35.758721,"lon":139.761305},{"name":"伊興住区センター","province":"東京都","city":"足立区","address":"東京都足立区伊興5丁目22-13","lat":35.798192,"lon":139.780029},{"name":"舎人住区センター","province":"東京都","city":"足立区","address":"東京都足立区舎人1丁目3-26","lat":35.806008,"lon":139.773151},{"name":"南花畑住区センター","province":"東京都","city":"足立区","address":"東京都足立区南花畑3丁目14-7","lat":35.790519,"lon":139.824806},{"name":"綾瀬住区センター","province":"東京都","city":"足立区","address":"東京都足立区綾瀬3丁目17-9","lat":35.764748,"lon":139.82458},{"name":"千住本町住区センター","province":"東京都","city":"足立区","address":"東京都足立区千住5丁目6-2","lat":35.754741,"lon":139.803607},{"name":"加平住区センター","province":"東京都","city":"足立区","address":"東京都足立区加平1丁目10-6","lat":35.775021,"lon":139.828155},{"name":"江南住区センター","province":"東京都","city":"足立区","address":"東京都足立区小台2丁目45-4","lat":35.758801,"lon":139.761372},{"name":"長門住区センター分館","province":"東京都","city":"足立区","address":"東京都足立区中川4丁目43-4","lat":35.771771,"lon":139.850114},{"name":"栗島住区センター","province":"東京都","city":"足立区","address":"東京都足立区中央本町4丁目5-2","lat":35.776373,"lon":139.805804},{"name":"長門住区センター分館","province":"東京都","city":"足立区","address":"東京都足立区中川4丁目43-4","lat":35.771775,"lon":139.850064},{"name":"神明住区センター","province":"東京都","city":"足立区","address":"東京都足立区神明南2丁目6-18","lat":35.787825,"lon":139.833199},{"name":"平野住区センター","province":"東京都","city":"足立区","address":"東京都足立区平野2丁目2-14","lat":35.782236,"lon":139.804634},{"name":"東綾瀬住区センター","province":"東京都","city":"足立区","address":"東京都足立区東綾瀬1丁目28-7","lat":35.766138,"lon":139.832998},{"name":"千住あずま住区センター","province":"東京都","city":"足立区","address":"東京都足立区千住東2丁目21","lat":35.745558,"lon":139.810278},{"name":"千住あずま住区センター","province":"東京都","city":"足立区","address":"東京都足立区千住東2丁目21","lat":35.745573,"lon":139.810287},{"name":"押皿谷住区センター（西部福祉課を含む）","province":"東京都","city":"足立区","address":"東京都足立区鹿浜8丁目27-15","lat":35.789984,"lon":139.76502},{"name":"千住河原町住区センター","province":"東京都","city":"足立区","address":"東京都足立区千住河原町5-12","lat":35.744557,"lon":139.795768},{"name":"千住河原町住区センター","province":"東京都","city":"足立区","address":"東京都足立区千住河原町6-4","lat":35.744696,"lon":139.796084},{"name":"西伊興住区センター","province":"東京都","city":"足立区","address":"東京都足立区西伊興1丁目12-12","lat":35.790845,"lon":139.773527},{"name":"本木関原住区センター","province":"東京都","city":"足立区","address":"東京都足立区関原1丁目21-11","lat":35.764731,"lon":139.787209},{"name":"足立区鹿浜いきいき館","province":"東京都","city":"足立区","address":"東京都足立区鹿浜2丁目24-2","lat":35.780544,"lon":139.749094},{"name":"千住柳町住区センター","province":"東京都","city":"足立区","address":"東京都足立区千住柳町12-5","lat":35.753742,"lon":139.796218},{"name":"千住柳町住区センター","province":"東京都","city":"足立区","address":"東京都足立区千住柳町12-5","lat":35.753727,"lon":139.796135},{"name":"桜花住区センター","province":"東京都","city":"足立区","address":"東京都足立区花畑6丁目4","lat":35.804882,"lon":139.816929},{"name":"入谷住区センター","province":"東京都","city":"足立区","address":"東京都足立区舎人6丁目12-4","lat":35.811422,"lon":139.761986},{"name":"大谷田谷中住区センター","province":"東京都","city":"足立区","address":"東京都足立区大谷田4丁目16-6","lat":35.780824,"lon":139.838461},{"name":"西新井本町住区センター","province":"東京都","city":"足立区","address":"東京都足立区西新井本町2丁目30-37","lat":35.776549,"lon":139.77141},{"name":"興本住区センター","province":"東京都","city":"足立区","address":"東京都足立区本木東町17-10","lat":35.767462,"lon":139.781118},{"name":"保塚住区センター","province":"東京都","city":"足立区","address":"東京都足立区保塚町7","lat":35.786638,"lon":139.816178},{"name":"足立保健所東部保健センター","province":"東京都","city":"足立区","address":"東京都足立区大谷田3丁目11-13","lat":35.779774,"lon":139.842351},{"name":"西新井センター","province":"東京都","city":"足立区","address":"東京都足立区西新井1丁目4-17","lat":35.778717,"lon":139.780597},{"name":"足立区悠々会館","province":"東京都","city":"足立区","address":"東京都足立区西保木間4丁目9-1","lat":35.803399,"lon":139.796641},{"name":"足立保健所竹の塚保健センター","province":"東京都","city":"足立区","address":"東京都足立区西竹の塚1丁目11-2","lat":35.793089,"lon":139.789583},{"name":"足立区　足立保健所江北保健センター","province":"東京都","city":"足立区","address":"東京都足立区西新井本町2丁目30-40","lat":35.776024,"lon":139.771544},{"name":"足立保健所竹の塚保健センター","province":"東京都","city":"足立区","address":"東京都足立区西竹の塚1丁目11-2","lat":35.793513,"lon":139.789687},{"name":"足立保健所竹の塚保健センター","province":"東京都","city":"足立区","address":"東京都足立区西竹の塚1丁目11-2","lat":35.793446,"lon":139.789902},{"name":"足立区役所千住庁舎","province":"東京都","city":"足立区","address":"東京都足立区千住仲町19-3","lat":35.746279,"lon":139.801647},{"name":"足立保健所","province":"東京都","city":"足立区","address":"東京都足立区中央本町1丁目5-3","lat":35.771013,"lon":139.80371},{"name":"足立区立梅田図書館","province":"東京都","city":"足立区","address":"東京都足立区梅田7丁目13-1","lat":35.768414,"lon":139.800801},{"name":"足立区立中央図書館","province":"東京都","city":"足立区","address":"東京都足立区千住5丁目13-5","lat":35.756469,"lon":139.802562},{"name":"足立区立中央図書館","province":"東京都","city":"足立区","address":"東京都足立区千住5丁目13-5","lat":35.756445,"lon":139.802533},{"name":"足立区立伊興遺跡公園展示館","province":"東京都","city":"足立区","address":"東京都足立区東伊興4丁目9-1","lat":35.804406,"lon":139.786375},{"name":"足立区立郷土博物館","province":"東京都","city":"足立区","address":"東京都足立区大谷田5丁目20-1","lat":35.784524,"lon":139.841539},{"name":"足立区生涯学習センター","province":"東京都","city":"足立区","address":"東京都足立区千住5丁目13-5","lat":35.75633,"lon":139.802396},{"name":"足立区生涯学習センター","province":"東京都","city":"足立区","address":"東京都足立区千住5丁目13-5","lat":35.75667,"lon":139.802433},{"name":"足立区生涯学習センター","province":"東京都","city":"足立区","address":"東京都足立区千住5丁目13-5","lat":35.75667,"lon":139.802377},{"name":"足立区生涯学習センター","province":"東京都","city":"足立区","address":"東京都足立区千住5丁目13-5","lat":35.75637,"lon":139.802297},{"name":"足立区生涯学習センター","province":"東京都","city":"足立区","address":"東京都足立区千住5丁目13-5","lat":35.75648,"lon":139.802687},{"name":"足立区生涯学習センター","province":"東京都","city":"足立区","address":"東京都足立区千住5丁目13-5","lat":35.75643,"lon":139.802347},{"name":"足立区生涯学習センター","province":"東京都","city":"足立区","address":"東京都足立区千住5丁目13-5","lat":35.75649,"lon":139.802377},{"name":"足立区伊興地域学習センター","province":"東京都","city":"足立区","address":"東京都足立区伊興2丁目4-22","lat":35.79127,"lon":139.780976},{"name":"足立区梅田地域学習センター","province":"東京都","city":"足立区","address":"東京都足立区梅田7丁目33-1","lat":35.77058,"lon":139.798306},{"name":"足立区立興本地域学習センター","province":"東京都","city":"足立区","address":"東京都足立区興野1丁目17-7","lat":35.76838,"lon":139.783246},{"name":"足立区立興本地域学習センター","province":"東京都","city":"足立区","address":"東京都足立区興野1丁目18-38","lat":35.76836,"lon":139.782495},{"name":"足立区江北地域学習センター","province":"東京都","city":"足立区","address":"東京都足立区江北3丁目39-4","lat":35.77594,"lon":139.760134},{"name":"足立区佐野地域学習センター","province":"東京都","city":"足立区","address":"東京都足立区佐野2丁目43-5","lat":35.78818,"lon":139.840316},{"name":"足立区江北地域学習センター","province":"東京都","city":"足立区","address":"東京都足立区江北3丁目39-4","lat":35.77577,"lon":139.760289},{"name":"足立区新田地域学習センター","province":"東京都","city":"足立区","address":"東京都足立区新田2丁目2-2","lat":35.77142,"lon":139.737974},{"name":"足立区鹿浜地域学習センター","province":"東京都","city":"足立区","address":"東京都足立区鹿浜6丁目8-1","lat":35.784055,"lon":139.758271},{"name":"足立区鹿浜地域学習センター","province":"東京都","city":"足立区","address":"東京都足立区鹿浜6丁目8-1","lat":35.784204,"lon":139.75816},{"name":"足立区東和地域学習センター","province":"東京都","city":"足立区","address":"東京都足立区東和3丁目12-9","lat":35.77128,"lon":139.839527},{"name":"足立区竹の塚地域学習センター","province":"東京都","city":"足立区","address":"東京都足立区竹の塚2丁目25-17","lat":35.79266,"lon":139.794543},{"name":"足立区竹の塚地域学習センター","province":"東京都","city":"足立区","address":"東京都足立区竹の塚2丁目25-17","lat":35.7926,"lon":139.794842},{"name":"足立区竹の塚地域学習センター","province":"東京都","city":"足立区","address":"東京都足立区竹の塚2丁目25-17","lat":35.792644,"lon":139.794875},{"name":"足立区中央本町地域学習センター","province":"東京都","city":"足立区","address":"東京都足立区中央本町3丁目15-1","lat":35.77219,"lon":139.809697},{"name":"足立区中央本町地域学習センター","province":"東京都","city":"足立区","address":"東京都足立区中央本町3丁目15-1","lat":35.77221,"lon":139.809614},{"name":"足立区東和地域学習センター","province":"東京都","city":"足立区","address":"東京都足立区東和3丁目12-9","lat":35.77139,"lon":139.83948},{"name":"足立区東和地域学習センター","province":"東京都","city":"足立区","address":"東京都足立区東和3丁目12-9","lat":35.77107,"lon":139.839673},{"name":"足立区東和地域学習センター","province":"東京都","city":"足立区","address":"東京都足立区東和3丁目12-9","lat":35.771139,"lon":139.839602},{"name":"足立区こども未来創造館","province":"東京都","city":"足立区","address":"東京都足立区栗原1丁目3-1","lat":35.77952,"lon":139.790443},{"name":"足立区舎人地域学習センター","province":"東京都","city":"足立区","address":"東京都足立区舎人1丁目3-26","lat":35.80613,"lon":139.773199},{"name":"足立区花畑地域学習センター","province":"東京都","city":"足立区","address":"東京都足立区花畑4丁目16-8","lat":35.80282,"lon":139.807313},{"name":"足立区こども未来創造館","province":"東京都","city":"足立区","address":"東京都足立区栗原1丁目3-1","lat":35.77946,"lon":139.790391},{"name":"足立区こども未来創造館","province":"東京都","city":"足立区","address":"東京都足立区栗原1丁目2-1","lat":35.77942,"lon":139.790398},{"name":"足立区こども未来創造館","province":"東京都","city":"足立区","address":"東京都足立区栗原1丁目2-1","lat":35.77942,"lon":139.790436},{"name":"足立区こども未来創造館","province":"東京都","city":"足立区","address":"東京都足立区栗原1丁目3-1","lat":35.77945,"lon":139.790369},{"name":"足立区こども未来創造館","province":"東京都","city":"足立区","address":"東京都足立区栗原1丁目3-1","lat":35.77953,"lon":139.790193},{"name":"足立区西新井文化ホール","province":"東京都","city":"足立区","address":"東京都足立区栗原1丁目3-1","lat":35.77968,"lon":139.79061},{"name":"足立区保塚地域学習センター","province":"東京都","city":"足立区","address":"東京都足立区保塚町7-16","lat":35.786914,"lon":139.816268},{"name":"足立区保塚地域学習センター","province":"東京都","city":"足立区","address":"東京都足立区保塚町7","lat":35.786646,"lon":139.816089},{"name":"足立区保塚地域学習センター","province":"東京都","city":"足立区","address":"東京都足立区保塚町7","lat":35.786638,"lon":139.816178},{"name":"足立区文化芸術劇場","province":"東京都","city":"足立区","address":"東京都足立区千住3丁目92","lat":35.750553,"lon":139.804456},{"name":"足立区文化芸術劇場","province":"東京都","city":"足立区","address":"東京都足立区千住3丁目92","lat":35.750957,"lon":139.804877},{"name":"足立区文化芸術劇場","province":"東京都","city":"足立区","address":"東京都足立区千住3丁目92","lat":35.751335,"lon":139.804572},{"name":"足立区文化芸術劇場","province":"東京都","city":"足立区","address":"東京都足立区千住3丁目92","lat":35.750863,"lon":139.804842},{"name":"足立区文化芸術劇場","province":"東京都","city":"足立区","address":"東京都足立区千住3丁目92","lat":35.751145,"lon":139.804498},{"name":"大谷田南公園","province":"東京都","city":"足立区","address":"東京都足立区中川4丁目42","lat":35.771786,"lon":139.848326},{"name":"五丁田公園","province":"東京都","city":"足立区","address":"東京都足立区大谷田3丁目7","lat":35.77778,"lon":139.841427},{"name":"河添公園","province":"東京都","city":"足立区","address":"東京都足立区綾瀬2丁目46","lat":35.76168,"lon":139.83076},{"name":"大谷田公園","province":"東京都","city":"足立区","address":"東京都足立区大谷田4丁目4","lat":35.77837,"lon":139.837815},{"name":"下河原公園（東側）","province":"東京都","city":"足立区","address":"東京都足立区東綾瀬1丁目11","lat":35.763826,"lon":139.834415},{"name":"元渕江公園","province":"東京都","city":"足立区","address":"東京都足立区保木間2丁目17","lat":35.792068,"lon":139.805954},{"name":"毛長公園","province":"東京都","city":"足立区","address":"東京都足立区花畑5丁目13","lat":35.807688,"lon":139.810944},{"name":"毛長公園","province":"東京都","city":"足立区","address":"東京都足立区花畑5丁目9","lat":35.808456,"lon":139.806528},{"name":"仲組公園","province":"東京都","city":"足立区","address":"東京都足立区花畑3丁目38","lat":35.805674,"lon":139.813419},{"name":"鷲宿公園","province":"東京都","city":"足立区","address":"東京都足立区花畑7丁目9","lat":35.809506,"lon":139.81968},{"name":"しょうぶ沼公園（西側）","province":"東京都","city":"足立区","address":"東京都足立区谷中2丁目4","lat":35.775847,"lon":139.83036},{"name":"雪見公園","province":"東京都","city":"足立区","address":"東京都足立区神明南2丁目17","lat":35.79156,"lon":139.831733},{"name":"一ツ家第四公園","province":"東京都","city":"足立区","address":"東京都足立区一ツ家1丁目26","lat":35.784171,"lon":139.810068},{"name":"足立区生物園","province":"東京都","city":"足立区","address":"東京都足立区保木間2丁目17","lat":35.792138,"lon":139.806937},{"name":"花畑公園","province":"東京都","city":"足立区","address":"東京都足立区花畑4丁目40","lat":35.806228,"lon":139.807365},{"name":"一ツ家第一公園（南側）","province":"東京都","city":"足立区","address":"東京都足立区一ツ家4丁目16","lat":35.780317,"lon":139.817392},{"name":"青井公園","province":"東京都","city":"足立区","address":"東京都足立区青井1丁目11","lat":35.774725,"lon":139.813107},{"name":"平野公園","province":"東京都","city":"足立区","address":"東京都足立区平野3丁目15","lat":35.784851,"lon":139.808081},{"name":"前谷公園","province":"東京都","city":"足立区","address":"東京都足立区花畑1丁目10","lat":35.800269,"lon":139.810942},{"name":"栗島公園","province":"東京都","city":"足立区","address":"東京都足立区中央本町5丁目21","lat":35.777617,"lon":139.809964},{"name":"陣川戸公園（南側）","province":"東京都","city":"足立区","address":"東京都足立区保木間5丁目17","lat":35.801908,"lon":139.807604},{"name":"五反野コミュニティ公園","province":"東京都","city":"足立区","address":"東京都足立区西綾瀬2丁目1","lat":35.761484,"lon":139.814846},{"name":"沖谷公園","province":"東京都","city":"足立区","address":"東京都足立区谷中4丁目18","lat":35.780825,"lon":139.833073},{"name":"桜花亭","province":"東京都","city":"足立区","address":"東京都足立区花畑4丁目40-1","lat":35.806013,"lon":139.807468},{"name":"桜花亭","province":"東京都","city":"足立区","address":"東京都足立区花畑4丁目40-1","lat":35.805987,"lon":139.807356},{"name":"足立区都市農業公園","province":"東京都","city":"足立区","address":"東京都足立区鹿浜2丁目44-1","lat":35.783028,"lon":139.745408},{"name":"青井ふれあい公園","province":"東京都","city":"足立区","address":"東京都足立区青井1丁目3","lat":35.772656,"lon":139.810849},{"name":"青和コミュニティ公園","province":"東京都","city":"足立区","address":"東京都足立区青井3丁目22","lat":35.773276,"lon":139.818484},{"name":"弘道中央公園","province":"東京都","city":"足立区","address":"東京都足立区弘道2丁目3","lat":35.768523,"lon":139.81533},{"name":"神明南公園","province":"東京都","city":"足立区","address":"東京都足立区神明南1丁目7","lat":35.789107,"lon":139.830815},{"name":"葛西用水親水水路","province":"東京都","city":"足立区","address":"東京都足立区六木4丁目3","lat":35.794401,"lon":139.839884},{"name":"辰沼二丁目公園","province":"東京都","city":"足立区","address":"東京都足立区辰沼2丁目11","lat":35.788915,"lon":139.833481},{"name":"北加平公園","province":"東京都","city":"足立区","address":"東京都足立区北加平町16","lat":35.785353,"lon":139.829471},{"name":"弘道いこい公園","province":"東京都","city":"足立区","address":"東京都足立区弘道1丁目10","lat":35.767328,"lon":139.811948},{"name":"西綾瀬そよかぜ公園","province":"東京都","city":"足立区","address":"東京都足立区西綾瀬3丁目3","lat":35.762055,"lon":139.816638},{"name":"やよい公園","province":"東京都","city":"足立区","address":"東京都足立区中央本町2丁目13","lat":35.770366,"lon":139.808046},{"name":"佐野一丁目ゆめ公園","province":"東京都","city":"足立区","address":"東京都足立区佐野1丁目20","lat":35.786635,"lon":139.843077},{"name":"綾瀬七丁目丘公園","province":"東京都","city":"足立区","address":"東京都足立区綾瀬7丁目15","lat":35.773188,"lon":139.827989},{"name":"花六東公園","province":"東京都","city":"足立区","address":"東京都足立区花畑6丁目23","lat":35.805934,"lon":139.818694},{"name":"神明南ふれあい公園","province":"東京都","city":"足立区","address":"東京都足立区神明南1丁目3","lat":35.787461,"lon":139.829358},{"name":"六木二丁目中央公園","province":"東京都","city":"足立区","address":"東京都足立区六木2丁目6","lat":35.792684,"lon":139.841797},{"name":"弘道一丁目ふれあい児童遊園","province":"東京都","city":"足立区","address":"東京都足立区弘道1丁目26","lat":35.768928,"lon":139.810523},{"name":"梅島公園","province":"東京都","city":"足立区","address":"東京都足立区梅田7丁目20","lat":35.769823,"lon":139.800422},{"name":"中郷公園","province":"東京都","city":"足立区","address":"東京都足立区西新井1丁目29","lat":35.78199,"lon":139.780542},{"name":"竹の塚第三公園","province":"東京都","city":"足立区","address":"東京都足立区竹の塚4丁目7","lat":35.793705,"lon":139.799198},{"name":"上沼田第二公園","province":"東京都","city":"足立区","address":"東京都足立区江北4丁目21","lat":35.775712,"lon":139.766535},{"name":"諏訪木東公園","province":"東京都","city":"足立区","address":"東京都足立区西新井3丁目25","lat":35.78993,"lon":139.781377},{"name":"西中第一公園","province":"東京都","city":"足立区","address":"東京都足立区西新井6丁目44","lat":35.782607,"lon":139.776439},{"name":"六月町公園","province":"東京都","city":"足立区","address":"東京都足立区六月3丁目17","lat":35.787268,"lon":139.792263},{"name":"北鹿浜公園","province":"東京都","city":"足立区","address":"東京都足立区鹿浜3丁目26","lat":35.782525,"lon":139.754682},{"name":"北鹿浜公園","province":"東京都","city":"足立区","address":"東京都足立区鹿浜3丁目26","lat":35.78193,"lon":139.75415},{"name":"西新井西公園","province":"東京都","city":"足立区","address":"東京都足立区西新井6丁目9","lat":35.778971,"lon":139.773851},{"name":"鹿浜校趾公園","province":"東京都","city":"足立区","address":"東京都足立区鹿浜3丁目14","lat":35.780748,"lon":139.752475},{"name":"入谷緑地公園","province":"東京都","city":"足立区","address":"東京都足立区入谷5丁目1","lat":35.80219,"lon":139.762071},{"name":"西保木間公園","province":"東京都","city":"足立区","address":"東京都足立区西保木間2丁目14","lat":35.801865,"lon":139.800268},{"name":"上沼田北公園","province":"東京都","city":"足立区","address":"東京都足立区江北7丁目16","lat":35.782297,"lon":139.764352},{"name":"島根公園","province":"東京都","city":"足立区","address":"東京都足立区島根2丁目14","lat":35.78324,"lon":139.799799},{"name":"江北公園","province":"東京都","city":"足立区","address":"東京都足立区鹿浜1丁目2","lat":35.777189,"lon":139.75022},{"name":"江北公園","province":"東京都","city":"足立区","address":"東京都足立区鹿浜5丁目10","lat":35.785911,"lon":139.751127},{"name":"新田さくら公園","province":"東京都","city":"足立区","address":"東京都足立区新田3丁目34","lat":35.768299,"lon":139.746539},{"name":"入谷中央公園","province":"東京都","city":"足立区","address":"東京都足立区入谷4丁目16","lat":35.808271,"lon":139.760504},{"name":"島根中堀公園","province":"東京都","city":"足立区","address":"東京都足立区島根4丁目36","lat":35.783606,"lon":139.793255},{"name":"江北平成公園","province":"東京都","city":"足立区","address":"東京都足立区江北4丁目16","lat":35.773504,"lon":139.764463},{"name":"江北平成公園","province":"東京都","city":"足立区","address":"東京都足立区江北4丁目15","lat":35.772867,"lon":139.765541},{"name":"入谷中郷南恐竜公園","province":"東京都","city":"足立区","address":"東京都足立区入谷5丁目12","lat":35.803811,"lon":139.763026},{"name":"皿沼公園","province":"東京都","city":"足立区","address":"東京都足立区皿沼2丁目25","lat":35.792051,"lon":139.764587},{"name":"ベルモント公園（南側）","province":"東京都","city":"足立区","address":"東京都足立区梅島1丁目33-7","lat":35.774783,"lon":139.799359},{"name":"竹北公園","province":"東京都","city":"足立区","address":"東京都足立区竹の塚7丁目19","lat":35.80079,"lon":139.794543},{"name":"入谷日の出公園","province":"東京都","city":"足立区","address":"東京都足立区入谷1丁目3","lat":35.803103,"lon":139.771167},{"name":"島六ふれあい公園","province":"東京都","city":"足立区","address":"東京都足立区六月1丁目7","lat":35.7852,"lon":139.799857},{"name":"江北みどり公園","province":"東京都","city":"足立区","address":"東京都足立区江北3丁目8","lat":35.77288,"lon":139.762725},{"name":"東伊興淵之宮公園","province":"東京都","city":"足立区","address":"東京都足立区東伊興2丁目4","lat":35.804894,"lon":139.790268},{"name":"伊興北の根公園","province":"東京都","city":"足立区","address":"東京都足立区伊興本町1丁目16","lat":35.799555,"lon":139.788724},{"name":"西新井さくら公園","province":"東京都","city":"足立区","address":"東京都足立区西新井2丁目6","lat":35.784089,"lon":139.780214},{"name":"西保木間一丁目公園","province":"東京都","city":"足立区","address":"東京都足立区西保木間1丁目7","lat":35.794938,"lon":139.800452},{"name":"上沼田南どんぐり公園","province":"東京都","city":"足立区","address":"東京都足立区江北3丁目34","lat":35.776988,"lon":139.763738},{"name":"西新井さかえ公園","province":"東京都","city":"足立区","address":"東京都足立区西新井栄町1丁目19","lat":35.773463,"lon":139.787307},{"name":"梅田五丁目フレンド公園","province":"東京都","city":"足立区","address":"東京都足立区梅田5丁目25","lat":35.770067,"lon":139.795468},{"name":"亀田トレイン公園","province":"東京都","city":"足立区","address":"東京都足立区梅田8丁目14","lat":35.774357,"lon":139.79302},{"name":"西新井蓮沼公園","province":"東京都","city":"足立区","address":"東京都足立区西新井1丁目20","lat":35.779859,"lon":139.782437},{"name":"伊興四丁目公園","province":"東京都","city":"足立区","address":"東京都足立区伊興4丁目19","lat":35.796574,"lon":139.780008},{"name":"江北六丁目児童遊園","province":"東京都","city":"足立区","address":"東京都足立区江北6丁目30","lat":35.781693,"lon":139.768322},{"name":"宮城公園","province":"東京都","city":"足立区","address":"東京都足立区宮城1丁目38","lat":35.761595,"lon":139.758342},{"name":"千住スポーツ公園（南側）","province":"東京都","city":"足立区","address":"東京都足立区千住緑町2丁目1","lat":35.743541,"lon":139.794869},{"name":"千住仲町公園（西側）","province":"東京都","city":"足立区","address":"東京都足立区千住仲町28","lat":35.743774,"lon":139.801433},{"name":"千住桜木町公園","province":"東京都","city":"足立区","address":"東京都足立区千住桜木1丁目5","lat":35.749731,"lon":139.7928},{"name":"千住中居町公園","province":"東京都","city":"足立区","address":"東京都足立区千住中居町24","lat":35.749641,"lon":139.796425},{"name":"関屋公園","province":"東京都","city":"足立区","address":"東京都足立区千住関屋町17","lat":35.741405,"lon":139.806448},{"name":"新田稲荷公園","province":"東京都","city":"足立区","address":"東京都足立区新田1丁目8","lat":35.775287,"lon":139.73827},{"name":"千住大橋さくら公園","province":"東京都","city":"足立区","address":"東京都足立区千住緑町1丁目1","lat":35.742918,"lon":139.794492},{"name":"花保さくら公園","province":"東京都","city":"足立区","address":"東京都足立区南花畑3丁目1","lat":35.789825,"lon":139.822313},{"name":"舎人いきいき公園","province":"東京都","city":"足立区","address":"東京都足立区舎人6丁目3","lat":35.813378,"lon":139.764985},{"name":"佐野いこいの森緑地","province":"東京都","city":"足立区","address":"東京都足立区佐野1丁目31","lat":35.789094,"lon":139.843679},{"name":"しょうぶ沼公園（東側）","province":"東京都","city":"足立区","address":"東京都足立区谷中2丁目4","lat":35.775849,"lon":139.831669},{"name":"弘道第一公園","province":"東京都","city":"足立区","address":"東京都足立区弘道2丁目16","lat":35.768143,"lon":139.817657},{"name":"中央本町三丁目のびのび広場","province":"東京都","city":"足立区","address":"東京都足立区中央本町3丁目8","lat":35.773321,"lon":139.807819},{"name":"足立区障がい福祉センター","province":"東京都","city":"足立区","address":"東京都足立区梅島3丁目31-19","lat":35.777334,"lon":139.792829},{"name":"綾瀬駅前公衆便所","province":"東京都","city":"足立区","address":"東京都足立区綾瀬3丁目10","lat":35.762757,"lon":139.827518},{"name":"青井駅前公衆便所","province":"東京都","city":"足立区","address":"東京都足立区青井3丁目16","lat":35.772251,"lon":139.819745},{"name":"綾瀬駅西口公衆便所","province":"東京都","city":"足立区","address":"東京都足立区綾瀬1丁目39","lat":35.761749,"lon":139.823894},{"name":"六町駅前公衆便所","province":"東京都","city":"足立区","address":"東京都足立区六町4丁目1","lat":35.785187,"lon":139.821569},{"name":"西新井駅東口公衆便所","province":"東京都","city":"足立区","address":"東京都足立区西新井栄町2丁目1","lat":35.777705,"lon":139.790234},{"name":"保木間公衆便所","province":"東京都","city":"足立区","address":"東京都足立区竹の塚3丁目8","lat":35.790507,"lon":139.802463},{"name":"西新井大師駅前公衆便所","province":"東京都","city":"足立区","address":"東京都足立区西新井1丁目4","lat":35.778943,"lon":139.78108},{"name":"見沼代親水公園","province":"東京都","city":"足立区","address":"東京都足立区舎人2丁目3","lat":35.809463,"lon":139.774603},{"name":"見沼代親水公園駅前公衆便所","province":"東京都","city":"足立区","address":"東京都足立区舎人5丁目29","lat":35.813899,"lon":139.770459},{"name":"江北駅前公衆便所","province":"東京都","city":"足立区","address":"東京都足立区西新井本町2丁目32","lat":35.773783,"lon":139.770539},{"name":"千住大橋際公衆便所","province":"東京都","city":"足立区","address":"東京都足立区千住橋戸町","lat":35.739999,"lon":139.797251},{"name":"北千住駅前公衆便所","province":"東京都","city":"足立区","address":"東京都足立区千住旭町42-3","lat":35.74879,"lon":139.804466},{"name":"足立区障がい福祉センター","province":"東京都","city":"足立区","address":"東京都足立区梅島3丁目31-19","lat":35.777369,"lon":139.792839},{"name":"足立区障がい福祉センター","province":"東京都","city":"足立区","address":"東京都足立区梅島3丁目31-19","lat":35.777428,"lon":139.792855},{"name":"足立区障がい福祉センター","province":"東京都","city":"足立区","address":"東京都足立区梅島3丁目31-19","lat":35.777413,"lon":139.792851},{"name":"足立区障がい福祉センター","province":"東京都","city":"足立区","address":"東京都足立区梅島3丁目31-19","lat":35.777441,"lon":139.792858},{"name":"足立区障がい福祉センター","province":"東京都","city":"足立区","address":"東京都足立区梅島3丁目31-19","lat":35.777412,"lon":139.792922},{"name":"あだち産業センター","province":"東京都","city":"足立区","address":"東京都足立区千住1丁目5-7","lat":35.747401,"lon":139.80037},{"name":"足立区障がい福祉センター","province":"東京都","city":"足立区","address":"東京都足立区梅島3丁目31-19","lat":35.777304,"lon":139.792866},{"name":"足立区勤労福祉会館","province":"東京都","city":"足立区","address":"東京都足立区綾瀬1丁目34-7","lat":35.761168,"lon":139.821427},{"name":"足立区勤労福祉会館","province":"東京都","city":"足立区","address":"東京都足立区綾瀬1丁目34-7","lat":35.761076,"lon":139.821582},{"name":"千住龍田町防災ひろば","province":"東京都","city":"足立区","address":"東京都足立区千住龍田町9","lat":35.751695,"lon":139.796137},{"name":"足立清掃事務所","province":"東京都","city":"足立区","address":"東京都足立区東伊興3丁目23-9","lat":35.804412,"lon":139.793895},{"name":"足立区総合ボランティアセンター","province":"東京都","city":"足立区","address":"東京都足立区日ノ出町27-3","lat":35.751978,"lon":139.808763},{"name":"足立区総合スポーツセンター","province":"東京都","city":"足立区","address":"東京都足立区東保木間2丁目27-1","lat":35.79229,"lon":139.813858},{"name":"足立区総合スポーツセンター","province":"東京都","city":"足立区","address":"東京都足立区東保木間2丁目27-1","lat":35.792326,"lon":139.81395},{"name":"足立区総合スポーツセンター","province":"東京都","city":"足立区","address":"東京都足立区東保木間2丁目27-1","lat":35.792341,"lon":139.81403},{"name":"足立区総合スポーツセンター","province":"東京都","city":"足立区","address":"東京都足立区東保木間2丁目27-1","lat":35.792147,"lon":139.813744},{"name":"足立区総合スポーツセンター","province":"東京都","city":"足立区","address":"東京都足立区東保木間2丁目32","lat":35.793075,"lon":139.815876},{"name":"足立区総合スポーツセンター","province":"東京都","city":"足立区","address":"東京都足立区東保木間2丁目27-1","lat":35.792118,"lon":139.813749},{"name":"六町駅前安全安心ステーション","province":"東京都","city":"足立区","address":"東京都足立区六町4丁目1","lat":35.785205,"lon":139.821438},{"name":"足立区総合スポーツセンター","province":"東京都","city":"足立区","address":"東京都足立区東保木間2丁目27","lat":35.791769,"lon":139.813136},{"name":"足立区東綾瀬公園温水温水プール","province":"東京都","city":"足立区","address":"東京都足立区東綾瀬3丁目4-1","lat":35.77037,"lon":139.831279},{"name":"足立区千寿本町小学校温水プール","province":"東京都","city":"足立区","address":"東京都足立区千住3丁目30","lat":35.751633,"lon":139.801869},{"name":"足立区平野運動場","province":"東京都","city":"足立区","address":"東京都足立区平野2丁目12","lat":35.784388,"lon":139.804261},{"name":"西綾瀬ボランティアセンター","province":"東京都","city":"足立区","address":"東京都足立区西綾瀬4丁目5-6","lat":35.7647,"lon":139.819612},{"name":"足立区スイムスポーツセンター(うきうき館）","province":"東京都","city":"足立区","address":"東京都足立区西保木間4丁目10-1","lat":35.803466,"lon":139.797088},{"name":"足立区スイムスポーツセンター(うきうき館）","province":"東京都","city":"足立区","address":"東京都足立区西保木間4丁目10-1","lat":35.803814,"lon":139.797233},{"name":"足立トラックターミナル","province":"東京都","city":"足立区","address":"東京都足立区入谷6丁目1-1","lat":35.79902128,"lon":139.7665504},{"name":"＊?西新井文化ホール(ｷﾞｬﾗｸｼﾃｨ内)","province":"東京都","city":"足立区","address":"足立区栗原1-3-1","lat":35.779785,"lon":139.790513},{"name":"＊?足立区文化芸術劇場（THEATER?1010）","province":"東京都","city":"足立区","address":"足立区千住3-92千住ミルディス(1)番館10階","lat":35.75088,"lon":139.804575},{"name":"足立トラックターミナル","province":"東京都","city":"足立区","address":"東京都足立区入谷6丁目1-1","lat":35.79902128,"lon":139.7665504},{"name":"＊?西新井文化ホール(ｷﾞｬﾗｸｼﾃｨ内)","province":"東京都","city":"足立区","address":"足立区栗原1-3-1","lat":35.779785,"lon":139.790513},{"name":"＊?足立区文化芸術劇場（THEATER?1010）","province":"東京都","city":"足立区","address":"足立区千住3-92千住ミルディス(1)番館10階","lat":35.75088,"lon":139.804575},{"name":"足立トラックターミナル","province":"東京都","city":"足立区","address":"東京都足立区入谷6丁目1-1","lat":35.79902128,"lon":139.7665504},{"name":"＊?西新井文化ホール(ｷﾞｬﾗｸｼﾃｨ内)","province":"東京都","city":"足立区","address":"足立区栗原1-3-1","lat":35.779785,"lon":139.790513},{"name":"＊?足立区文化芸術劇場（THEATER?1010）","province":"東京都","city":"足立区","address":"足立区千住3-92千住ミルディス(1)番館10階","lat":35.75088,"lon":139.804575},{"name":"＊?西新井文化ホール(ｷﾞｬﾗｸｼﾃｨ内)","province":"東京都","city":"足立区","address":"足立区栗原1-3-1","lat":35.779785,"lon":139.790513},{"name":"＊?足立区文化芸術劇場（THEATER?1010）","province":"東京都","city":"足立区","address":"足立区千住3-92千住ミルディス(1)番館10階","lat":35.75088,"lon":139.804575},{"name":"＊?西新井文化ホール(ｷﾞｬﾗｸｼﾃｨ内)","province":"東京都","city":"足立区","address":"足立区栗原1-3-1","lat":35.779785,"lon":139.790513},{"name":"＊?足立区文化芸術劇場（THEATER?1010）","province":"東京都","city":"足立区","address":"足立区千住3-92千住ミルディス(1)番館10階","lat":35.75088,"lon":139.804575},{"name":"＊?西新井文化ホール(ｷﾞｬﾗｸｼﾃｨ内)","province":"東京都","city":"足立区","address":"足立区栗原1-3-1","lat":35.779785,"lon":139.790513},{"name":"＊?足立区文化芸術劇場（THEATER?1010）","province":"東京都","city":"足立区","address":"足立区千住3-92千住ミルディス(1)番館10階","lat":35.75088,"lon":139.804575},{"name":"＊?西新井文化ホール(ｷﾞｬﾗｸｼﾃｨ内)","province":"東京都","city":"足立区","address":"足立区栗原1-3-1","lat":35.779785,"lon":139.790513},{"name":"＊?足立区文化芸術劇場（THEATER?1010）","province":"東京都","city":"足立区","address":"足立区千住3-92千住ミルディス(1)番館10階","lat":35.75088,"lon":139.804575},{"name":"＊?西新井文化ホール(ｷﾞｬﾗｸｼﾃｨ内)","province":"東京都","city":"足立区","address":"足立区栗原1-3-1","lat":35.779785,"lon":139.790513},{"name":"＊?足立区文化芸術劇場（THEATER?1010）","province":"東京都","city":"足立区","address":"足立区千住3-92千住ミルディス(1)番館10階","lat":35.75088,"lon":139.804575},{"name":"＊?西新井文化ホール(ｷﾞｬﾗｸｼﾃｨ内)","province":"東京都","city":"足立区","address":"足立区栗原1-3-1","lat":35.779785,"lon":139.790513},{"name":"＊?足立区文化芸術劇場（THEATER?1010）","province":"東京都","city":"足立区","address":"足立区千住3-92千住ミルディス(1)番館10階","lat":35.75088,"lon":139.804575},{"name":"＊?西新井文化ホール(ｷﾞｬﾗｸｼﾃｨ内)","province":"東京都","city":"足立区","address":"足立区栗原1-3-1","lat":35.779785,"lon":139.790513},{"name":"＊?足立区文化芸術劇場（THEATER?1010）","province":"東京都","city":"足立区","address":"足立区千住3-92千住ミルディス(1)番館10階","lat":35.75088,"lon":139.804575},{"name":"＊?西新井文化ホール(ｷﾞｬﾗｸｼﾃｨ内)","province":"東京都","city":"足立区","address":"足立区栗原1-3-1","lat":35.779785,"lon":139.790513},{"name":"＊?足立区文化芸術劇場（THEATER?1010）","province":"東京都","city":"足立区","address":"足立区千住3-92千住ミルディス(1)番館10階","lat":35.75088,"lon":139.804575},{"name":"＊?西新井文化ホール(ｷﾞｬﾗｸｼﾃｨ内)","province":"東京都","city":"足立区","address":"足立区栗原1-3-1","lat":35.779785,"lon":139.790513},{"name":"＊?足立区文化芸術劇場（THEATER?1010）","province":"東京都","city":"足立区","address":"足立区千住3-92千住ミルディス(1)番館10階","lat":35.75088,"lon":139.804575},{"name":"＊?西新井文化ホール(ｷﾞｬﾗｸｼﾃｨ内)","province":"東京都","city":"足立区","address":"足立区栗原1-3-1","lat":35.779785,"lon":139.790513},{"name":"＊?足立区文化芸術劇場（THEATER?1010）","province":"東京都","city":"足立区","address":"足立区千住3-92千住ミルディス(1)番館10階","lat":35.75088,"lon":139.804575},{"name":"＊?西新井文化ホール(ｷﾞｬﾗｸｼﾃｨ内)","province":"東京都","city":"足立区","address":"足立区栗原1-3-1","lat":35.779785,"lon":139.790513},{"name":"＊?足立区文化芸術劇場（THEATER?1010）","province":"東京都","city":"足立区","address":"足立区千住3-92千住ミルディス(1)番館10階","lat":35.75088,"lon":139.804575},{"name":"＊?西新井文化ホール(ｷﾞｬﾗｸｼﾃｨ内)","province":"東京都","city":"足立区","address":"足立区栗原1-3-1","lat":35.779785,"lon":139.790513},{"name":"＊?足立区文化芸術劇場（THEATER?1010）","province":"東京都","city":"足立区","address":"足立区千住3-92千住ミルディス(1)番館10階","lat":35.75088,"lon":139.804575},{"name":"＊?西新井文化ホール(ｷﾞｬﾗｸｼﾃｨ内)","province":"東京都","city":"足立区","address":"足立区栗原1-3-1","lat":35.779785,"lon":139.790513},{"name":"＊?足立区文化芸術劇場（THEATER?1010）","province":"東京都","city":"足立区","address":"足立区千住3-92千住ミルディス(1)番館10階","lat":35.75088,"lon":139.804575},{"name":"＊?西新井文化ホール(ｷﾞｬﾗｸｼﾃｨ内)","province":"東京都","city":"足立区","address":"足立区栗原1-3-1","lat":35.779785,"lon":139.790513},{"name":"＊?足立区文化芸術劇場（THEATER?1010）","province":"東京都","city":"足立区","address":"足立区千住3-92千住ミルディス(1)番館10階","lat":35.75088,"lon":139.804575},{"name":"＊?西新井文化ホール(ｷﾞｬﾗｸｼﾃｨ内)","province":"東京都","city":"足立区","address":"足立区栗原1-3-1","lat":35.779785,"lon":139.790513},{"name":"＊?足立区文化芸術劇場（THEATER?1010）","province":"東京都","city":"足立区","address":"足立区千住3-92千住ミルディス(1)番館10階","lat":35.75088,"lon":139.804575},{"name":"＊?西新井文化ホール(ｷﾞｬﾗｸｼﾃｨ内)","province":"東京都","city":"足立区","address":"足立区栗原1-3-1","lat":35.779785,"lon":139.790513},{"name":"＊?足立区文化芸術劇場（THEATER?1010）","province":"東京都","city":"足立区","address":"足立区千住3-92千住ミルディス(1)番館10階","lat":35.75088,"lon":139.804575},{"name":"＊?西新井文化ホール(ｷﾞｬﾗｸｼﾃｨ内)","province":"東京都","city":"足立区","address":"足立区栗原1-3-1","lat":35.779785,"lon":139.790513},{"name":"＊?足立区文化芸術劇場（THEATER?1010）","province":"東京都","city":"足立区","address":"足立区千住3-92千住ミルディス(1)番館10階","lat":35.75088,"lon":139.804575},{"name":"＊?西新井文化ホール(ｷﾞｬﾗｸｼﾃｨ内)","province":"東京都","city":"足立区","address":"足立区栗原1-3-1","lat":35.779785,"lon":139.790513},{"name":"＊?足立区文化芸術劇場（THEATER?1010）","province":"東京都","city":"足立区","address":"足立区千住3-92千住ミルディス(1)番館10階","lat":35.75088,"lon":139.804575},{"name":"＊?西新井文化ホール(ｷﾞｬﾗｸｼﾃｨ内)","province":"東京都","city":"足立区","address":"足立区栗原1-3-1","lat":35.779785,"lon":139.790513},{"name":"＊?足立区文化芸術劇場（THEATER?1010）","province":"東京都","city":"足立区","address":"足立区千住3-92千住ミルディス(1)番館10階","lat":35.75088,"lon":139.804575},{"name":"＊?西新井文化ホール(ｷﾞｬﾗｸｼﾃｨ内)","province":"東京都","city":"足立区","address":"足立区栗原1-3-1","lat":35.779785,"lon":139.790513},{"name":"＊?足立区文化芸術劇場（THEATER?1010）","province":"東京都","city":"足立区","address":"足立区千住3-92千住ミルディス(1)番館10階","lat":35.75088,"lon":139.804575},{"name":"＊?西新井文化ホール(ｷﾞｬﾗｸｼﾃｨ内)","province":"東京都","city":"足立区","address":"足立区栗原1-3-1","lat":35.779785,"lon":139.790513},{"name":"＊?足立区文化芸術劇場（THEATER?1010）","province":"東京都","city":"足立区","address":"足立区千住3-92千住ミルディス(1)番館10階","lat":35.75088,"lon":139.804575},{"name":"＊?西新井文化ホール(ｷﾞｬﾗｸｼﾃｨ内)","province":"東京都","city":"足立区","address":"足立区栗原1-3-1","lat":35.779785,"lon":139.790513},{"name":"＊?足立区文化芸術劇場（THEATER?1010）","province":"東京都","city":"足立区","address":"足立区千住3-92千住ミルディス(1)番館10階","lat":35.75088,"lon":139.804575},{"name":"＊?西新井文化ホール(ｷﾞｬﾗｸｼﾃｨ内)","province":"東京都","city":"足立区","address":"足立区栗原1-3-1","lat":35.779785,"lon":139.790513},{"name":"＊?足立区文化芸術劇場（THEATER?1010）","province":"東京都","city":"足立区","address":"足立区千住3-92千住ミルディス(1)番館10階","lat":35.75088,"lon":139.804575},{"name":"＊?西新井文化ホール(ｷﾞｬﾗｸｼﾃｨ内)","province":"東京都","city":"足立区","address":"足立区栗原1-3-1","lat":35.779785,"lon":139.790513},{"name":"＊?足立区文化芸術劇場（THEATER?1010）","province":"東京都","city":"足立区","address":"足立区千住3-92千住ミルディス(1)番館10階","lat":35.75088,"lon":139.804575},{"name":"＊?西新井文化ホール(ｷﾞｬﾗｸｼﾃｨ内)","province":"東京都","city":"足立区","address":"足立区栗原1-3-1","lat":35.779785,"lon":139.790513},{"name":"＊?足立区文化芸術劇場（THEATER?1010）","province":"東京都","city":"足立区","address":"足立区千住3-92千住ミルディス(1)番館10階","lat":35.75088,"lon":139.804575},{"name":"＊?西新井文化ホール(ｷﾞｬﾗｸｼﾃｨ内)","province":"東京都","city":"足立区","address":"足立区栗原1-3-1","lat":35.779785,"lon":139.790513},{"name":"＊?足立区文化芸術劇場（THEATER?1010）","province":"東京都","city":"足立区","address":"足立区千住3-92千住ミルディス(1)番館10階","lat":35.75088,"lon":139.804575},{"name":"＊?西新井文化ホール(ｷﾞｬﾗｸｼﾃｨ内)","province":"東京都","city":"足立区","address":"足立区栗原1-3-1","lat":35.779785,"lon":139.790513},{"name":"＊?足立区文化芸術劇場（THEATER?1010）","province":"東京都","city":"足立区","address":"足立区千住3-92千住ミルディス(1)番館10階","lat":35.75088,"lon":139.804575},{"name":"＊?西新井文化ホール(ｷﾞｬﾗｸｼﾃｨ内)","province":"東京都","city":"足立区","address":"足立区栗原1-3-1","lat":35.779785,"lon":139.790513},{"name":"＊?足立区文化芸術劇場（THEATER?1010）","province":"東京都","city":"足立区","address":"足立区千住3-92千住ミルディス(1)番館10階","lat":35.75088,"lon":139.804575},{"name":"＊?西新井文化ホール(ｷﾞｬﾗｸｼﾃｨ内)","province":"東京都","city":"足立区","address":"足立区栗原1-3-1","lat":35.779785,"lon":139.790513},{"name":"＊?足立区文化芸術劇場（THEATER?1010）","province":"東京都","city":"足立区","address":"足立区千住3-92千住ミルディス(1)番館10階","lat":35.75088,"lon":139.804575},{"name":"＊?西新井文化ホール(ｷﾞｬﾗｸｼﾃｨ内)","province":"東京都","city":"足立区","address":"足立区栗原1-3-1","lat":35.779785,"lon":139.790513},{"name":"＊?足立区文化芸術劇場（THEATER?1010）","province":"東京都","city":"足立区","address":"足立区千住3-92千住ミルディス(1)番館10階","lat":35.75088,"lon":139.804575},{"name":"＊?西新井文化ホール(ｷﾞｬﾗｸｼﾃｨ内)","province":"東京都","city":"足立区","address":"足立区栗原1-3-1","lat":35.779785,"lon":139.790513},{"name":"＊?足立区文化芸術劇場（THEATER?1010）","province":"東京都","city":"足立区","address":"足立区千住3-92千住ミルディス(1)番館10階","lat":35.75088,"lon":139.804575},{"name":"＊?西新井文化ホール(ｷﾞｬﾗｸｼﾃｨ内)","province":"東京都","city":"足立区","address":"足立区栗原1-3-1","lat":35.779785,"lon":139.790513},{"name":"＊?足立区文化芸術劇場（THEATER?1010）","province":"東京都","city":"足立区","address":"足立区千住3-92千住ミルディス(1)番館10階","lat":35.75088,"lon":139.804575},{"name":"＊?西新井文化ホール(ｷﾞｬﾗｸｼﾃｨ内)","province":"東京都","city":"足立区","address":"足立区栗原1-3-1","lat":35.779785,"lon":139.790513},{"name":"＊?足立区文化芸術劇場（THEATER?1010）","province":"東京都","city":"足立区","address":"足立区千住3-92千住ミルディス(1)番館10階","lat":35.75088,"lon":139.804575},{"name":"＊?西新井文化ホール(ｷﾞｬﾗｸｼﾃｨ内)","province":"東京都","city":"足立区","address":"足立区栗原1-3-1","lat":35.779785,"lon":139.790513},{"name":"＊?足立区文化芸術劇場（THEATER?1010）","province":"東京都","city":"足立区","address":"足立区千住3-92千住ミルディス(1)番館10階","lat":35.75088,"lon":139.804575},{"name":"＊?西新井文化ホール(ｷﾞｬﾗｸｼﾃｨ内)","province":"東京都","city":"足立区","address":"足立区栗原1-3-1","lat":35.779785,"lon":139.790513},{"name":"＊?足立区文化芸術劇場（THEATER?1010）","province":"東京都","city":"足立区","address":"足立区千住3-92千住ミルディス(1)番館10階","lat":35.75088,"lon":139.804575},{"name":"＊?西新井文化ホール(ｷﾞｬﾗｸｼﾃｨ内)","province":"東京都","city":"足立区","address":"足立区栗原1-3-1","lat":35.779785,"lon":139.790513},{"name":"＊?足立区文化芸術劇場（THEATER?1010）","province":"東京都","city":"足立区","address":"足立区千住3-92千住ミルディス(1)番館10階","lat":35.75088,"lon":139.804575},{"name":"＊?西新井文化ホール(ｷﾞｬﾗｸｼﾃｨ内)","province":"東京都","city":"足立区","address":"足立区栗原1-3-1","lat":35.779785,"lon":139.790513},{"name":"＊?足立区文化芸術劇場（THEATER?1010）","province":"東京都","city":"足立区","address":"足立区千住3-92千住ミルディス(1)番館10階","lat":35.75088,"lon":139.804575},{"name":"＊?西新井文化ホール(ｷﾞｬﾗｸｼﾃｨ内)","province":"東京都","city":"足立区","address":"足立区栗原1-3-1","lat":35.779785,"lon":139.790513},{"name":"＊?足立区文化芸術劇場（THEATER?1010）","province":"東京都","city":"足立区","address":"足立区千住3-92千住ミルディス(1)番館10階","lat":35.75088,"lon":139.804575},{"name":"＊?西新井文化ホール(ｷﾞｬﾗｸｼﾃｨ内)","province":"東京都","city":"足立区","address":"足立区栗原1-3-1","lat":35.779785,"lon":139.790513},{"name":"＊?足立区文化芸術劇場（THEATER?1010）","province":"東京都","city":"足立区","address":"足立区千住3-92千住ミルディス(1)番館10階","lat":35.75088,"lon":139.804575},{"name":"＊?西新井文化ホール(ｷﾞｬﾗｸｼﾃｨ内)","province":"東京都","city":"足立区","address":"足立区栗原1-3-1","lat":35.779785,"lon":139.790513},{"name":"＊?足立区文化芸術劇場（THEATER?1010）","province":"東京都","city":"足立区","address":"足立区千住3-92千住ミルディス(1)番館10階","lat":35.75088,"lon":139.804575},{"name":"＊?西新井文化ホール(ｷﾞｬﾗｸｼﾃｨ内)","province":"東京都","city":"足立区","address":"足立区栗原1-3-1","lat":35.779785,"lon":139.790513},{"name":"＊?足立区文化芸術劇場（THEATER?1010）","province":"東京都","city":"足立区","address":"足立区千住3-92千住ミルディス(1)番館10階","lat":35.75088,"lon":139.804575},{"name":"＊?西新井文化ホール(ｷﾞｬﾗｸｼﾃｨ内)","province":"東京都","city":"足立区","address":"足立区栗原1-3-1","lat":35.779785,"lon":139.790513},{"name":"＊?足立区文化芸術劇場（THEATER?1010）","province":"東京都","city":"足立区","address":"足立区千住3-92千住ミルディス(1)番館10階","lat":35.75088,"lon":139.804575},{"name":"＊?西新井文化ホール(ｷﾞｬﾗｸｼﾃｨ内)","province":"東京都","city":"足立区","address":"足立区栗原1-3-1","lat":35.779785,"lon":139.790513},{"name":"＊?足立区文化芸術劇場（THEATER?1010）","province":"東京都","city":"足立区","address":"足立区千住3-92千住ミルディス(1)番館10階","lat":35.75088,"lon":139.804575},{"name":"＊?西新井文化ホール(ｷﾞｬﾗｸｼﾃｨ内)","province":"東京都","city":"足立区","address":"足立区栗原1-3-1","lat":35.779785,"lon":139.790513},{"name":"＊?足立区文化芸術劇場（THEATER?1010）","province":"東京都","city":"足立区","address":"足立区千住3-92千住ミルディス(1)番館10階","lat":35.75088,"lon":139.804575},{"name":"＊?西新井文化ホール(ｷﾞｬﾗｸｼﾃｨ内)","province":"東京都","city":"足立区","address":"足立区栗原1-3-1","lat":35.779785,"lon":139.790513},{"name":"＊?足立区文化芸術劇場（THEATER?1010）","province":"東京都","city":"足立区","address":"足立区千住3-92千住ミルディス(1)番館10階","lat":35.75088,"lon":139.804575}]}