{"keyword":"宿泊","data":[{"name":"綾瀬荘","province":"東京都","city":"足立区","address":"東京都足立区","lat":35.77563344,"lon":139.80450083},{"name":"ＳＷワーク花畑寮","province":"東京都","city":"足立区","address":"足立区南花畑1-18-18","lat":35.789104,"lon":139.826871},{"name":"鹿浜荘","province":"東京都","city":"足立区","address":"足立区鹿浜2-15-9","lat":35.781237,"lon":139.746075},{"name":"本木東町荘","province":"東京都","city":"足立区","address":"足立区本木東町3-7","lat":35.764851,"lon":139.782214},{"name":"さくら西新井ハウス","province":"東京都","city":"足立区","address":"足立区島根3-27-21","lat":35.780585,"lon":139.79314},{"name":"ＳＷワーク花畑寮","province":"東京都","city":"足立区","address":"足立区南花畑1-18-18","lat":35.78919,"lon":139.82616},{"name":"さくら西新井ハウス","province":"東京都","city":"足立区","address":"足立区島根3-27-21","lat":35.78055,"lon":139.79269},{"name":"本木東町荘","province":"東京都","city":"足立区","address":"足立区本木東町3-7","lat":35.7647,"lon":139.78249},{"name":"鹿浜荘","province":"東京都","city":"足立区","address":"足立区鹿浜2-15-9","lat":35.78111,"lon":139.74611}]}