{"keyword":"戸数","data":[{"name":"足立区社会福祉協議会","province":"東京都","city":"足立区","address":"足立区中央本町1-17-1足立区役所内","lat":35.774892,"lon":139.804584},{"name":"足立区","province":"東京都","city":"足立区","address":"足立区中央本町1-17-1","lat":35.7748922,"lon":139.8045844},{"name":"芦川巌葬儀社（有）","province":"東京都","city":"足立区","address":"東京都足立区南花畑3丁目19-26","lat":35.79043476,"lon":139.82729009},{"name":"(株)芦川花環葬儀社","province":"東京都","city":"足立区","address":"東京都足立区六月1丁目11-7","lat":35.78575436,"lon":139.7978732},{"name":"東葬儀社（株）","province":"東京都","city":"足立区","address":"東京都足立区関原2丁目1-26","lat":35.76501765,"lon":139.79095522},{"name":"（有）稲垣葬儀社本店","province":"東京都","city":"足立区","address":"東京都足立区千住仲町19-3","lat":35.74632333,"lon":139.80160027},{"name":"牛込葬儀社","province":"東京都","city":"足立区","address":"東京都足立区梅田2丁目16-18","lat":35.76517906,"lon":139.80205154},{"name":"エンドウセレモニー(有)","province":"東京都","city":"足立区","address":"東京都足立区鹿浜3丁目9-8","lat":35.77993983,"lon":139.75464662},{"name":"(株)小川由雄商店","province":"東京都","city":"足立区","address":"東京都足立区西新井本町1丁目15-14","lat":35.77769645,"lon":139.78180264},{"name":"(有)小澤葬儀社","province":"東京都","city":"足立区","address":"東京都足立区入谷4丁目10-24","lat":35.80593975,"lon":139.76093121},{"name":"(有)梶商店","province":"東京都","city":"足立区","address":"東京都足立区千住桜木1丁目9-2","lat":35.75061689,"lon":139.79406987},{"name":"(有)熊川式典総合サービス","province":"東京都","city":"足立区","address":"東京都足立区本木1丁目1-9","lat":35.76117076,"lon":139.78756679},{"name":"溜屋近藤商店(株)","province":"東京都","city":"足立区","address":"東京都足立区千住5丁目18-10","lat":35.75488048,"lon":139.80429093},{"name":"（有）根岸商店","province":"東京都","city":"足立区","address":"東京都足立区梅田6丁目9-11","lat":35.76626495,"lon":139.79835457},{"name":"肥後商店","province":"東京都","city":"足立区","address":"東京都足立区千住大川町48-1","lat":35.75524685,"lon":139.79563327},{"name":"足立区社会福祉協議会","province":"東京都","city":"足立区","address":"足立区中央本町1-17-1足立区役所南館11F","lat":35.77512,"lon":139.80502},{"name":"医療法人社団成和会西新井病院","province":"東京都","city":"足立区","address":"東京都足立区西新井本町5丁目7-14","lat":35.77566892,"lon":139.78197215},{"name":"苑田第一病院","province":"東京都","city":"足立区","address":"東京都足立区竹の塚4丁目1-12","lat":35.79351749,"lon":139.80198649},{"name":"博慈会記念総合病院","province":"東京都","city":"足立区","address":"東京都足立区鹿浜5丁目11-1","lat":35.78496118,"lon":139.74944417},{"name":"板橋給水所","province":"東京都","city":"足立区","address":"東京都足立区加賀1丁目17-1","lat":35.78938603,"lon":139.75898755},{"name":"小右衛門給水所","province":"東京都","city":"足立区","address":"東京都足立区中央本町3丁目8-1","lat":35.77219224,"lon":139.80734518},{"name":"区総合スポーツセンター","province":"東京都","city":"足立区","address":"東京都足立区東保木間2丁目27-1","lat":35.79222061,"lon":139.81364669},{"name":"区立千住スポーツ公園","province":"東京都","city":"足立区","address":"東京都足立区千住緑町2丁目1-1","lat":35.74518999,"lon":139.79567026},{"name":"区立諏訪木東公園","province":"東京都","city":"足立区","address":"東京都足立区西新井3丁目25","lat":35.78998665,"lon":139.77999121},{"name":"区立大谷田南公園","province":"東京都","city":"足立区","address":"東京都足立区中川4丁目42-1","lat":35.7717206,"lon":139.84821396},{"name":"区立北鹿浜公園","province":"東京都","city":"足立区","address":"東京都足立区鹿浜3丁目26","lat":35.78240338,"lon":139.75411604},{"name":"都立舎人公園","province":"東京都","city":"足立区","address":"東京都足立区舎人公園1-1","lat":35.79709935,"lon":139.76835863},{"name":"足立区立千住新橋グラウンド（虹の広場）","province":"東京都","city":"足立区","address":"東京都足立区千住5丁目22","lat":35.75549987,"lon":139.8057852},{"name":"荒川西新井橋緑地グラウンド","province":"東京都","city":"足立区","address":"東京都足立区梅田3丁目5","lat":35.76227094,"lon":139.79617997},{"name":"都立東綾瀬公園東側野球場","province":"東京都","city":"足立区","address":"東京都足立区東綾瀬3丁目4","lat":35.77023453,"lon":139.83256528},{"name":"都立東綾瀬公園西側野球場","province":"東京都","city":"足立区","address":"東京都足立区綾瀬6丁目37","lat":35.77132878,"lon":139.82859614},{"name":"足立区立谷中公園野球場","province":"東京都","city":"足立区","address":"東京都足立区谷中2丁目23-36","lat":35.77618936,"lon":139.83499544},{"name":"足立区立平野運動場","province":"東京都","city":"足立区","address":"東京都足立区平野2丁目12-1","lat":35.78418247,"lon":139.80431995},{"name":"都立舎人公園管理事務所空地","province":"東京都","city":"足立区","address":"東京都足立区舎人公園","lat":35.79704103,"lon":139.76834198},{"name":"都立舎人公園陸上競技場","province":"東京都","city":"足立区","address":"東京都足立区舎人公園","lat":35.79704103,"lon":139.76834198},{"name":"都立舎人公園野球場","province":"東京都","city":"足立区","address":"東京都足立区舎人公園","lat":35.79704103,"lon":139.76834198},{"name":"足立区立保木間公園","province":"東京都","city":"足立区","address":"東京都足立区竹の塚","lat":35.79213976,"lon":139.79757301},{"name":"総合スポーツセンター","province":"東京都","city":"足立区","address":"東京都足立区東保木間","lat":35.79359268,"lon":139.81228565},{"name":"足立区選挙管理委員会","province":"東京都","city":"足立区","address":"足立区中央本町1-17-1","lat":35.774783,"lon":139.804576},{"name":"東京武道館","province":"東京都","city":"足立区","address":"東京都足立区綾瀬3-20-1","lat":35.765015,"lon":139.825058},{"name":"東京武道館","province":"東京都","city":"足立区","address":"東京都足立区","lat":35.77563344,"lon":139.80450083},{"name":"足立都税事務所","province":"東京都","city":"足立区","address":"東京都足立区西新井栄町2丁目8-15","lat":35.77795495,"lon":139.7881132},{"name":"東京武道館","province":"東京都","city":"足立区","address":"東京都足立区綾瀬3丁目20-1","lat":35.76579609,"lon":139.82580213},{"name":"足立市場","province":"東京都","city":"足立区","address":"東京都足立区千住橋戸町50","lat":35.74084336,"lon":139.79869253},{"name":"北足立市場","province":"東京都","city":"足立区","address":"東京都足立区入谷6丁目3-1","lat":35.79861847,"lon":139.7643284},{"name":"足立新田高等学校","province":"東京都","city":"足立区","address":"東京都足立区新田2丁目10-16","lat":35.7701545,"lon":139.74130933},{"name":"足立東高等学校","province":"東京都","city":"足立区","address":"東京都足立区大谷田2丁目3-5","lat":35.78134984,"lon":139.84544447},{"name":"淵江高等学校","province":"東京都","city":"足立区","address":"東京都足立区東保木間2丁目10-1","lat":35.79201507,"lon":139.81163853},{"name":"荒川商業高等学校","province":"東京都","city":"足立区","address":"東京都足立区小台2丁目1-31","lat":35.75512634,"lon":139.76149721},{"name":"青井高等学校","province":"東京都","city":"足立区","address":"東京都足立区青井1丁目7-35","lat":35.77354217,"lon":139.81205304},{"name":"足立高等学校","province":"東京都","city":"足立区","address":"東京都足立区中央本町1丁目3-9","lat":35.7702674,"lon":139.80490379},{"name":"江北高等学校","province":"東京都","city":"足立区","address":"東京都足立区西綾瀬4丁目14-30","lat":35.76672089,"lon":139.82035257},{"name":"足立工業高等学校","province":"東京都","city":"足立区","address":"東京都足立区西新井4丁目30-1","lat":35.78805347,"lon":139.77796089},{"name":"足立西高等学校","province":"東京都","city":"足立区","address":"東京都足立区江北5丁目7-1","lat":35.77654897,"lon":139.76810389},{"name":"第六建設事務所","province":"東京都","city":"足立区","address":"足立区千住東2-10-10","lat":35.74539,"lon":139.8081},{"name":"足立区","province":"東京都","city":"足立区","address":"足立区綾瀬2-23-7","lat":35.76156,"lon":139.8273},{"name":"（株）星医療酸器","province":"東京都","city":"足立区","address":"足立区入谷7-11-12","lat":35.80253,"lon":139.7583},{"name":"足立区社会福祉協議会","province":"東京都","city":"足立区","address":"足立区中央本町1-17-1足立区役所内","lat":35.774892,"lon":139.804584},{"name":"足立区社会福祉協議会","province":"東京都","city":"足立区","address":"足立区中央本町1-17-1足立区役所南館11F","lat":35.77512,"lon":139.80502},{"name":"医療法人社団成和会西新井病院","province":"東京都","city":"足立区","address":"東京都足立区西新井本町5丁目7-14","lat":35.77566892,"lon":139.78197215},{"name":"苑田第一病院","province":"東京都","city":"足立区","address":"東京都足立区竹の塚4丁目1-12","lat":35.79351749,"lon":139.80198649},{"name":"博慈会記念総合病院","province":"東京都","city":"足立区","address":"東京都足立区鹿浜5丁目11-1","lat":35.78496118,"lon":139.74944417},{"name":"板橋給水所","province":"東京都","city":"足立区","address":"東京都足立区加賀1丁目17-1","lat":35.78938603,"lon":139.75898755},{"name":"小右衛門給水所","province":"東京都","city":"足立区","address":"東京都足立区中央本町3丁目8-1","lat":35.77219224,"lon":139.80734518},{"name":"区総合スポーツセンター","province":"東京都","city":"足立区","address":"東京都足立区東保木間2丁目27-1","lat":35.79222061,"lon":139.81364669},{"name":"区立千住スポーツ公園","province":"東京都","city":"足立区","address":"東京都足立区千住緑町2丁目1-1","lat":35.74518999,"lon":139.79567026},{"name":"区立諏訪木東公園","province":"東京都","city":"足立区","address":"東京都足立区西新井3丁目25","lat":35.78998665,"lon":139.77999121},{"name":"区立大谷田南公園","province":"東京都","city":"足立区","address":"東京都足立区中川4丁目42-1","lat":35.7717206,"lon":139.84821396},{"name":"区立北鹿浜公園","province":"東京都","city":"足立区","address":"東京都足立区鹿浜3丁目26","lat":35.78240338,"lon":139.75411604},{"name":"都立舎人公園","province":"東京都","city":"足立区","address":"東京都足立区舎人公園1-1","lat":35.79709935,"lon":139.76835863},{"name":"足立区立千住新橋グラウンド（虹の広場）","province":"東京都","city":"足立区","address":"東京都足立区千住5丁目22","lat":35.75549987,"lon":139.8057852},{"name":"荒川西新井橋緑地グラウンド","province":"東京都","city":"足立区","address":"東京都足立区梅田3丁目5","lat":35.76227094,"lon":139.79617997},{"name":"都立東綾瀬公園東側野球場","province":"東京都","city":"足立区","address":"東京都足立区東綾瀬3丁目4","lat":35.77023453,"lon":139.83256528},{"name":"都立東綾瀬公園西側野球場","province":"東京都","city":"足立区","address":"東京都足立区綾瀬6丁目37","lat":35.77132878,"lon":139.82859614},{"name":"足立区立谷中公園野球場","province":"東京都","city":"足立区","address":"東京都足立区谷中2丁目23-36","lat":35.77618936,"lon":139.83499544},{"name":"足立区立平野運動場","province":"東京都","city":"足立区","address":"東京都足立区平野2丁目12-1","lat":35.78418247,"lon":139.80431995},{"name":"都立舎人公園管理事務所空地","province":"東京都","city":"足立区","address":"東京都足立区舎人公園","lat":35.79704103,"lon":139.76834198},{"name":"都立舎人公園陸上競技場","province":"東京都","city":"足立区","address":"東京都足立区舎人公園","lat":35.79704103,"lon":139.76834198},{"name":"都立舎人公園野球場","province":"東京都","city":"足立区","address":"東京都足立区舎人公園","lat":35.79704103,"lon":139.76834198},{"name":"足立区立保木間公園","province":"東京都","city":"足立区","address":"東京都足立区竹の塚","lat":35.79213976,"lon":139.79757301},{"name":"総合スポーツセンター","province":"東京都","city":"足立区","address":"東京都足立区東保木間","lat":35.79359268,"lon":139.81228565},{"name":"東京武道館","province":"東京都","city":"足立区","address":"東京都足立区綾瀬3-20-1","lat":35.765015,"lon":139.825058},{"name":"足立都税事務所","province":"東京都","city":"足立区","address":"東京都足立区西新井栄町2丁目8-15","lat":35.77795495,"lon":139.7881132},{"name":"東京武道館","province":"東京都","city":"足立区","address":"東京都足立区綾瀬3丁目20-1","lat":35.76579609,"lon":139.82580213},{"name":"足立市場","province":"東京都","city":"足立区","address":"東京都足立区千住橋戸町50","lat":35.74084336,"lon":139.79869253},{"name":"北足立市場","province":"東京都","city":"足立区","address":"東京都足立区入谷6丁目3-1","lat":35.79861847,"lon":139.7643284},{"name":"足立新田高等学校","province":"東京都","city":"足立区","address":"東京都足立区新田2丁目10-16","lat":35.7701545,"lon":139.74130933},{"name":"足立東高等学校","province":"東京都","city":"足立区","address":"東京都足立区大谷田2丁目3-5","lat":35.78134984,"lon":139.84544447},{"name":"淵江高等学校","province":"東京都","city":"足立区","address":"東京都足立区東保木間2丁目10-1","lat":35.79201507,"lon":139.81163853},{"name":"荒川商業高等学校","province":"東京都","city":"足立区","address":"東京都足立区小台2丁目1-31","lat":35.75512634,"lon":139.76149721},{"name":"青井高等学校","province":"東京都","city":"足立区","address":"東京都足立区青井1丁目7-35","lat":35.77354217,"lon":139.81205304},{"name":"足立高等学校","province":"東京都","city":"足立区","address":"東京都足立区中央本町1丁目3-9","lat":35.7702674,"lon":139.80490379},{"name":"江北高等学校","province":"東京都","city":"足立区","address":"東京都足立区西綾瀬4丁目14-30","lat":35.76672089,"lon":139.82035257},{"name":"足立工業高等学校","province":"東京都","city":"足立区","address":"東京都足立区西新井4丁目30-1","lat":35.78805347,"lon":139.77796089},{"name":"足立西高等学校","province":"東京都","city":"足立区","address":"東京都足立区江北5丁目7-1","lat":35.77654897,"lon":139.76810389},{"name":"第六建設事務所","province":"東京都","city":"足立区","address":"足立区千住東2-10-10","lat":35.74539,"lon":139.8081},{"name":"足立区","province":"東京都","city":"足立区","address":"足立区綾瀬2-23-7","lat":35.76156,"lon":139.8273},{"name":"（株）星医療酸器","province":"東京都","city":"足立区","address":"足立区入谷7-11-12","lat":35.80253,"lon":139.7583},{"name":"医療法人社団成和会西新井病院","province":"東京都","city":"足立区","address":"東京都足立区西新井本町5丁目7-14","lat":35.77566892,"lon":139.78197215},{"name":"苑田第一病院","province":"東京都","city":"足立区","address":"東京都足立区竹の塚4丁目1-12","lat":35.79351749,"lon":139.80198649},{"name":"博慈会記念総合病院","province":"東京都","city":"足立区","address":"東京都足立区鹿浜5丁目11-1","lat":35.78496118,"lon":139.74944417},{"name":"足立都税事務所","province":"東京都","city":"足立区","address":"東京都足立区西新井栄町2丁目8-15","lat":35.77795495,"lon":139.7881132},{"name":"東京武道館","province":"東京都","city":"足立区","address":"東京都足立区綾瀬3丁目20-1","lat":35.76579609,"lon":139.82580213},{"name":"足立市場","province":"東京都","city":"足立区","address":"東京都足立区千住橋戸町50","lat":35.74084336,"lon":139.79869253},{"name":"北足立市場","province":"東京都","city":"足立区","address":"東京都足立区入谷6丁目3-1","lat":35.79861847,"lon":139.7643284},{"name":"足立新田高等学校","province":"東京都","city":"足立区","address":"東京都足立区新田2丁目10-16","lat":35.7701545,"lon":139.74130933},{"name":"足立東高等学校","province":"東京都","city":"足立区","address":"東京都足立区大谷田2丁目3-5","lat":35.78134984,"lon":139.84544447},{"name":"淵江高等学校","province":"東京都","city":"足立区","address":"東京都足立区東保木間2丁目10-1","lat":35.79201507,"lon":139.81163853},{"name":"荒川商業高等学校","province":"東京都","city":"足立区","address":"東京都足立区小台2丁目1-31","lat":35.75512634,"lon":139.76149721},{"name":"青井高等学校","province":"東京都","city":"足立区","address":"東京都足立区青井1丁目7-35","lat":35.77354217,"lon":139.81205304},{"name":"足立高等学校","province":"東京都","city":"足立区","address":"東京都足立区中央本町1丁目3-9","lat":35.7702674,"lon":139.80490379},{"name":"江北高等学校","province":"東京都","city":"足立区","address":"東京都足立区西綾瀬4丁目14-30","lat":35.76672089,"lon":139.82035257},{"name":"足立工業高等学校","province":"東京都","city":"足立区","address":"東京都足立区西新井4丁目30-1","lat":35.78805347,"lon":139.77796089},{"name":"足立西高等学校","province":"東京都","city":"足立区","address":"東京都足立区江北5丁目7-1","lat":35.77654897,"lon":139.76810389},{"name":"医療法人社団成和会西新井病院","province":"東京都","city":"足立区","address":"東京都足立区西新井本町5丁目7-14","lat":35.77566892,"lon":139.78197215},{"name":"苑田第一病院","province":"東京都","city":"足立区","address":"東京都足立区竹の塚4丁目1-12","lat":35.79351749,"lon":139.80198649},{"name":"博慈会記念総合病院","province":"東京都","city":"足立区","address":"東京都足立区鹿浜5丁目11-1","lat":35.78496118,"lon":139.74944417},{"name":"足立都税事務所","province":"東京都","city":"足立区","address":"東京都足立区西新井栄町2丁目8-15","lat":35.77795495,"lon":139.7881132},{"name":"東京武道館","province":"東京都","city":"足立区","address":"東京都足立区綾瀬3丁目20-1","lat":35.76579609,"lon":139.82580213},{"name":"足立市場","province":"東京都","city":"足立区","address":"東京都足立区千住橋戸町50","lat":35.74084336,"lon":139.79869253},{"name":"北足立市場","province":"東京都","city":"足立区","address":"東京都足立区入谷6丁目3-1","lat":35.79861847,"lon":139.7643284},{"name":"足立新田高等学校","province":"東京都","city":"足立区","address":"東京都足立区新田2丁目10-16","lat":35.7701545,"lon":139.74130933},{"name":"足立東高等学校","province":"東京都","city":"足立区","address":"東京都足立区大谷田2丁目3-5","lat":35.78134984,"lon":139.84544447},{"name":"淵江高等学校","province":"東京都","city":"足立区","address":"東京都足立区東保木間2丁目10-1","lat":35.79201507,"lon":139.81163853},{"name":"荒川商業高等学校","province":"東京都","city":"足立区","address":"東京都足立区小台2丁目1-31","lat":35.75512634,"lon":139.76149721},{"name":"青井高等学校","province":"東京都","city":"足立区","address":"東京都足立区青井1丁目7-35","lat":35.77354217,"lon":139.81205304},{"name":"足立高等学校","province":"東京都","city":"足立区","address":"東京都足立区中央本町1丁目3-9","lat":35.7702674,"lon":139.80490379},{"name":"江北高等学校","province":"東京都","city":"足立区","address":"東京都足立区西綾瀬4丁目14-30","lat":35.76672089,"lon":139.82035257},{"name":"足立工業高等学校","province":"東京都","city":"足立区","address":"東京都足立区西新井4丁目30-1","lat":35.78805347,"lon":139.77796089},{"name":"足立西高等学校","province":"東京都","city":"足立区","address":"東京都足立区江北5丁目7-1","lat":35.77654897,"lon":139.76810389}]}