{"keyword":"放課後","data":[{"name":"白い鳥","province":"東京都","city":"足立区","address":"足立区大谷田4-1-18","lat":35.777295,"lon":139.83809},{"name":"あしたも笑顔　谷中公園","province":"東京都","city":"足立区","address":"足立区東和5-14-18-1F","lat":35.775939,"lon":139.838676},{"name":"児童デイサービス　にじいろ東和","province":"東京都","city":"足立区","address":"足立区東和4-4-20","lat":35.771046,"lon":139.84307},{"name":"からふるＫids綾瀬","province":"東京都","city":"足立区","address":"足立区綾瀬2-46-6河合ビル1階","lat":35.762183,"lon":139.830591},{"name":"あしたも笑顔　北綾瀬","province":"東京都","city":"足立区","address":"足立区谷中2-10-1小倉ビル1階","lat":35.776212,"lon":139.832429},{"name":"放課後等デイサービスおはな","province":"東京都","city":"足立区","address":"足立区谷中2-14-3皐月マンション102","lat":35.775345,"lon":139.832329},{"name":"放課後等デイサービス　笑がお","province":"東京都","city":"足立区","address":"足立区青井三丁目5番26号101号室","lat":35.770298,"lon":139.818159},{"name":"まつぼっくりツリー","province":"東京都","city":"足立区","address":"足立区足立3-10-6ヴァロービル2階","lat":35.764746,"lon":139.809093},{"name":"児童デイサービスＫｏＭｏＲｅＢｉ北千住","province":"東京都","city":"足立区","address":"足立区千住曙町37-10段上ビル2階","lat":35.741827,"lon":139.816091},{"name":"発達支援室あかねっこ　北千住教室　サポートワン","province":"東京都","city":"足立区","address":"足立区千住旭町7-25","lat":35.746968,"lon":139.806125},{"name":"きたせんじゅステップ第３","province":"東京都","city":"足立区","address":"足立区千住大川町37-2","lat":35.755477,"lon":139.798011},{"name":"きたせんじゅステップ第２","province":"東京都","city":"足立区","address":"足立区千住寿町38-8","lat":35.754939,"lon":139.800241},{"name":"きたせんじゅステップ","province":"東京都","city":"足立区","address":"足立区千住龍田町3-13","lat":35.750734,"lon":139.796278},{"name":"えにし　こどもプラス","province":"東京都","city":"足立区","address":"足立区神明2-2-11","lat":35.793165,"lon":139.831742},{"name":"放課後等デイサービスあおぞら六木","province":"東京都","city":"足立区","address":"足立区六木1-4-17","lat":35.789746,"lon":139.837667},{"name":"ぷらちな児童デイ","province":"東京都","city":"足立区","address":"足立区加平1-8-23","lat":35.774848,"lon":139.826032},{"name":"あある　まつりかフラワー","province":"東京都","city":"足立区","address":"足立区花畑4-23-8グリーンパーク花畑IV101号室","lat":35.804494,"lon":139.810277},{"name":"あったかいデイ　花畑","province":"東京都","city":"足立区","address":"足立区花畑5-12-1花畑団地82号棟102号","lat":35.807,"lon":139.809927},{"name":"キッズの森第３　南花畑","province":"東京都","city":"足立区","address":"足立区南花畑4-31-4MY第2ビル101号室","lat":35.799053,"lon":139.817896},{"name":"あある　まつりか","province":"東京都","city":"足立区","address":"足立区東保木間2-6-8","lat":35.794351,"lon":139.81158},{"name":"児童デイサービス　ハートぽっぽ　ＥＡＳＴ","province":"東京都","city":"足立区","address":"足立区東保木間2-23-5","lat":35.794601,"lon":139.814166},{"name":"児童デイサービスハートぽっぽ","province":"東京都","city":"足立区","address":"足立区保木間1-5-21","lat":35.789587,"lon":139.805111},{"name":"キッズの森","province":"東京都","city":"足立区","address":"足立区保木間2-2-1オオサキ竹ノ塚マンション1階","lat":35.793867,"lon":139.802675},{"name":"にこにこキッズ","province":"東京都","city":"足立区","address":"足立区保木間三丁目33番8号第126新井ビル102号室","lat":35.795308,"lon":139.809947},{"name":"児童デイサービス　リズム東伊興","province":"東京都","city":"足立区","address":"足立区東伊興3-14-23第二佐藤ビル1階","lat":35.802777,"lon":139.791804},{"name":"すかいきっず","province":"東京都","city":"足立区","address":"足立区西保木間1-21-7-101","lat":35.796695,"lon":139.798414},{"name":"パワフルキッズ西保木間","province":"東京都","city":"足立区","address":"足立区西保木間2-5-5","lat":35.798978,"lon":139.797856},{"name":"ハッピートライアングル竹ノ塚","province":"東京都","city":"足立区","address":"足立区竹の塚1-30-1-1階","lat":35.791567,"lon":139.792187},{"name":"児童デイサービス　たのしー","province":"東京都","city":"足立区","address":"足立区六月3-3-4","lat":35.785737,"lon":139.790796},{"name":"みつばちはうす","province":"東京都","city":"足立区","address":"足立区六月3-3-5","lat":35.785824,"lon":139.790624},{"name":"キッズの森　六月","province":"東京都","city":"足立区","address":"足立区六月1-5-28相川ビル1階","lat":35.785702,"lon":139.801015},{"name":"でいじいすまいる","province":"東京都","city":"足立区","address":"足立区島根2-2-1島根グリーンフォレスト","lat":35.780641,"lon":139.802892},{"name":"Ｏｎｌｙ　Ｏｎｅ足立","province":"東京都","city":"足立区","address":"足立区島根3-1-10","lat":35.7791,"lon":139.796996},{"name":"パワフルキッズ","province":"東京都","city":"足立区","address":"足立区入谷1-16-13","lat":35.805459,"lon":139.766872},{"name":"すかいきっずぷらす","province":"東京都","city":"足立区","address":"足立区西新井1-38-11オリエント第6ビル102号","lat":35.78246,"lon":139.780333},{"name":"児童デイサービス　リズム西新井","province":"東京都","city":"足立区","address":"足立区西新井本町1-19-111階","lat":35.776388,"lon":139.776911},{"name":"キッズの森第２","province":"東京都","city":"足立区","address":"足立区梅田1-15-9-1階","lat":35.764387,"lon":139.800157},{"name":"わいわいプラス足立教室","province":"東京都","city":"足立区","address":"足立区関原3-2-18","lat":35.769814,"lon":139.79133},{"name":"ゆうゆうらいふアカデミー西新井","province":"東京都","city":"足立区","address":"足立区関原1-19-6メゾンセンチュリー202","lat":35.76369,"lon":139.787333},{"name":"ふきのとう","province":"東京都","city":"足立区","address":"足立区本木1-21-15","lat":35.762426,"lon":139.784609},{"name":"ふきのとう２","province":"東京都","city":"足立区","address":"足立区本木1-19-5-101","lat":35.762576,"lon":139.784767},{"name":"こぱんはうすさくら　本木教室","province":"東京都","city":"足立区","address":"足立区本木西町1-20宮内サンハイツ1F","lat":35.760068,"lon":139.780676},{"name":"縁カレッジ","province":"東京都","city":"足立区","address":"足立区鹿浜4-26-4トーボービル1号室","lat":35.783473,"lon":139.756716},{"name":"療育室つばさ","province":"東京都","city":"足立区","address":"足立区扇1-44-15","lat":35.766673,"lon":139.776915}]}