{"keyword":"朝","data":[{"name":"芦川巌葬儀社（有）","province":"東京都","city":"足立区","address":"東京都足立区南花畑3丁目19-26","lat":35.79043476,"lon":139.82729009},{"name":"(株)芦川花環葬儀社","province":"東京都","city":"足立区","address":"東京都足立区六月1丁目11-7","lat":35.78575436,"lon":139.7978732},{"name":"東葬儀社（株）","province":"東京都","city":"足立区","address":"東京都足立区関原2丁目1-26","lat":35.76501765,"lon":139.79095522},{"name":"（有）稲垣葬儀社本店","province":"東京都","city":"足立区","address":"東京都足立区千住仲町19-3","lat":35.74632333,"lon":139.80160027},{"name":"牛込葬儀社","province":"東京都","city":"足立区","address":"東京都足立区梅田2丁目16-18","lat":35.76517906,"lon":139.80205154},{"name":"エンドウセレモニー(有)","province":"東京都","city":"足立区","address":"東京都足立区鹿浜3丁目9-8","lat":35.77993983,"lon":139.75464662},{"name":"(株)小川由雄商店","province":"東京都","city":"足立区","address":"東京都足立区西新井本町1丁目15-14","lat":35.77769645,"lon":139.78180264},{"name":"(有)小澤葬儀社","province":"東京都","city":"足立区","address":"東京都足立区入谷4丁目10-24","lat":35.80593975,"lon":139.76093121},{"name":"(有)梶商店","province":"東京都","city":"足立区","address":"東京都足立区千住桜木1丁目9-2","lat":35.75061689,"lon":139.79406987},{"name":"(有)熊川式典総合サービス","province":"東京都","city":"足立区","address":"東京都足立区本木1丁目1-9","lat":35.76117076,"lon":139.78756679},{"name":"溜屋近藤商店(株)","province":"東京都","city":"足立区","address":"東京都足立区千住5丁目18-10","lat":35.75488048,"lon":139.80429093},{"name":"（有）根岸商店","province":"東京都","city":"足立区","address":"東京都足立区梅田6丁目9-11","lat":35.76626495,"lon":139.79835457},{"name":"肥後商店","province":"東京都","city":"足立区","address":"東京都足立区千住大川町48-1","lat":35.75524685,"lon":139.79563327},{"name":"北千住駅入口","province":"東京都","city":"足立区","address":"東京都足立区千住寿町31-10","lat":35.75350276,"lon":139.79971364},{"name":"千住宮元町","province":"東京都","city":"足立区","address":"東京都足立区千住河原町10-7","lat":35.74408741,"lon":139.79795904},{"name":"千住寿町","province":"東京都","city":"足立区","address":"東京都足立区千住寿町33-11","lat":35.7533167,"lon":139.8004997},{"name":"千住警察署入口","province":"東京都","city":"足立区","address":"東京都足立区千住緑町1丁目1-35","lat":35.74380682,"lon":139.79370944},{"name":"北千住駅前通り","province":"東京都","city":"足立区","address":"東京都足立区千住2丁目58","lat":35.75036999,"lon":139.80322753},{"name":"千住五丁目","province":"東京都","city":"足立区","address":"東京都足立区千住4丁目10-3","lat":35.75463044,"lon":139.80160506},{"name":"千住関屋町","province":"東京都","city":"足立区","address":"東京都足立区千住東1丁目7-11","lat":35.7433933,"lon":139.80485865},{"name":"北千住駅西口","province":"東京都","city":"足立区","address":"東京都足立区千住2丁目59","lat":35.75018115,"lon":139.80373306},{"name":"東京藝大前","province":"東京都","city":"足立区","address":"東京都足立区千住1丁目25-1","lat":35.74716488,"lon":139.80215014},{"name":"千住大橋駅前","province":"東京都","city":"足立区","address":"東京都足立区千住橋戸町11","lat":35.74247922,"lon":139.79727028},{"name":"足立郵便局前","province":"東京都","city":"足立区","address":"東京都足立区千住曙町2-2","lat":35.74404065,"lon":139.81164137},{"name":"千寿桜堤中学校前","province":"東京都","city":"足立区","address":"東京都足立区柳原2丁目54","lat":35.75017578,"lon":139.81243782},{"name":"島根","province":"東京都","city":"足立区","address":"東京都足立区梅島3丁目43-16","lat":35.77835795,"lon":139.79742631},{"name":"梅島","province":"東京都","city":"足立区","address":"東京都足立区梅田7丁目25-2","lat":35.76909805,"lon":139.80328733},{"name":"梅田支所前","province":"東京都","city":"足立区","address":"東京都足立区梅田6丁目33-6","lat":35.77037275,"lon":139.7973711},{"name":"西新井第二小学校入口","province":"東京都","city":"足立区","address":"東京都足立区西新井3丁目17","lat":35.78915063,"lon":139.77988569},{"name":"梅島一丁目","province":"東京都","city":"足立区","address":"東京都足立区梅島1丁目13-17","lat":35.77283361,"lon":139.79849035},{"name":"梅島駅前","province":"東京都","city":"足立区","address":"東京都足立区梅島3丁目1-7","lat":35.77295301,"lon":139.79737377},{"name":"梅島小学校前","province":"東京都","city":"足立区","address":"東京都足立区梅田8丁目2-14","lat":35.77176426,"lon":139.79740715},{"name":"梅田七丁目交番前","province":"東京都","city":"足立区","address":"東京都足立区梅田7丁目17-6","lat":35.76982006,"lon":139.79784887},{"name":"島根第二","province":"東京都","city":"足立区","address":"東京都足立区梅島2丁目20-6","lat":35.77701088,"lon":139.79776245},{"name":"栗原二丁目","province":"東京都","city":"足立区","address":"東京都足立区栗原2丁目7","lat":35.7818767,"lon":139.78727978},{"name":"谷在家二丁目","province":"東京都","city":"足立区","address":"東京都足立区谷在家2丁目19-7","lat":35.78508408,"lon":139.76949507},{"name":"島根郵便局前","province":"東京都","city":"足立区","address":"東京都足立区島根4丁目1-9","lat":35.78222139,"lon":139.79710118},{"name":"日光街道梅島一丁目","province":"東京都","city":"足立区","address":"東京都足立区梅島1丁目24-1","lat":35.77185884,"lon":139.80321776},{"name":"江北六丁目団地東","province":"東京都","city":"足立区","address":"東京都足立区西新井7丁目11","lat":35.77999584,"lon":139.77055907},{"name":"梅島二丁目","province":"東京都","city":"足立区","address":"東京都足立区梅島2丁目28-20","lat":35.77706378,"lon":139.80296201},{"name":"足立四中前","province":"東京都","city":"足立区","address":"東京都足立区梅島1丁目24-8","lat":35.77188936,"lon":139.80194287},{"name":"西新井一丁目第二","province":"東京都","city":"足立区","address":"東京都足立区西新井1丁目6-5","lat":35.77819079,"lon":139.77995832},{"name":"梅田七丁目公園前","province":"東京都","city":"足立区","address":"東京都足立区梅田7丁目28-9","lat":35.77019506,"lon":139.79988756},{"name":"梅島北","province":"東京都","city":"足立区","address":"東京都足立区梅島1丁目2-39","lat":35.77044789,"lon":139.80319838},{"name":"江北団地入口","province":"東京都","city":"足立区","address":"東京都足立区江北6丁目27-5","lat":35.78285376,"lon":139.76799253},{"name":"足立区役所南","province":"東京都","city":"足立区","address":"東京都足立区梅島1丁目26-24","lat":35.77358364,"lon":139.80305104},{"name":"日光街道平野二丁目","province":"東京都","city":"足立区","address":"東京都足立区平野2丁目1-10","lat":35.78290759,"lon":139.80322565},{"name":"足立中央本町庁舎前","province":"東京都","city":"足立区","address":"東京都足立区中央本町1丁目17-1","lat":35.77489463,"lon":139.80457862},{"name":"上沼田第六公園","province":"東京都","city":"足立区","address":"東京都足立区江北4丁目15","lat":35.77295766,"lon":139.76524596},{"name":"大谷田橋","province":"東京都","city":"足立区","address":"東京都足立区東和4丁目24-10","lat":35.77572004,"lon":139.84322258},{"name":"青井五丁目","province":"東京都","city":"足立区","address":"東京都足立区一ツ家4丁目1-22","lat":35.77878051,"lon":139.81618582},{"name":"東栗原町","province":"東京都","city":"足立区","address":"東京都足立区一ツ家1丁目2-8","lat":35.77913039,"lon":139.81058906},{"name":"末広","province":"東京都","city":"足立区","address":"東京都足立区中央本町2丁目24-1","lat":35.76744281,"lon":139.80768149},{"name":"六町駅南","province":"東京都","city":"足立区","address":"東京都足立区六町4丁目1","lat":35.7849243,"lon":139.82121574},{"name":"中川四丁目西","province":"東京都","city":"足立区","address":"東京都足立区中川4丁目24-8","lat":35.77008747,"lon":139.84652524},{"name":"綾瀬駅東口","province":"東京都","city":"足立区","address":"東京都足立区綾瀬3丁目4","lat":35.76297143,"lon":139.82570503},{"name":"辰沼団地北","province":"東京都","city":"足立区","address":"東京都足立区辰沼1丁目2","lat":35.78517432,"lon":139.83540348},{"name":"北綾瀬駅前","province":"東京都","city":"足立区","address":"東京都足立区谷中4丁目9-22","lat":35.77762527,"lon":139.83244283},{"name":"中央本町二丁目","province":"東京都","city":"足立区","address":"東京都足立区中央本町2丁目21-6","lat":35.76885378,"lon":139.80902019},{"name":"東京武道館南","province":"東京都","city":"足立区","address":"東京都足立区綾瀬3丁目15-5","lat":35.76415461,"lon":139.82546335},{"name":"六町駅前","province":"東京都","city":"足立区","address":"東京都足立区六町4丁目2-27","lat":35.78554923,"lon":139.82157958},{"name":"竹の塚駅西","province":"東京都","city":"足立区","address":"東京都足立区西竹の塚2丁目2-3","lat":35.7942976,"lon":139.78996244},{"name":"西竹の塚一丁目","province":"東京都","city":"足立区","address":"東京都足立区伊興3丁目17-29","lat":35.79436697,"lon":139.7877904},{"name":"竹ノ塚駅前","province":"東京都","city":"足立区","address":"東京都足立区竹の塚1丁目41-1","lat":35.79371994,"lon":139.79149845},{"name":"竹ノ塚駅東","province":"東京都","city":"足立区","address":"東京都足立区竹の塚1丁目39-14","lat":35.79345333,"lon":139.79216507},{"name":"舎人公園","province":"東京都","city":"足立区","address":"東京都足立区古千谷本町4丁目1-18","lat":35.80559315,"lon":139.78273212},{"name":"足立老人ホーム前","province":"東京都","city":"足立区","address":"東京都足立区花畑3丁目33-19","lat":35.80514695,"lon":139.81076598},{"name":"花畑町団地中央","province":"東京都","city":"足立区","address":"東京都足立区花畑5丁目12","lat":35.80699954,"lon":139.80992711},{"name":"竹の塚警察署前","province":"東京都","city":"足立区","address":"東京都足立区保木間1丁目16-4","lat":35.79099557,"lon":139.80305315},{"name":"板橋給水所","province":"東京都","city":"足立区","address":"東京都足立区加賀1丁目17-1","lat":35.78938603,"lon":139.75898755},{"name":"小右衛門給水所","province":"東京都","city":"足立区","address":"東京都足立区中央本町3丁目8-1","lat":35.77219224,"lon":139.80734518},{"name":"区総合スポーツセンター","province":"東京都","city":"足立区","address":"東京都足立区東保木間2丁目27-1","lat":35.79222061,"lon":139.81364669},{"name":"区立千住スポーツ公園","province":"東京都","city":"足立区","address":"東京都足立区千住緑町2丁目1-1","lat":35.74518999,"lon":139.79567026},{"name":"区立諏訪木東公園","province":"東京都","city":"足立区","address":"東京都足立区西新井3丁目25","lat":35.78998665,"lon":139.77999121},{"name":"区立大谷田南公園","province":"東京都","city":"足立区","address":"東京都足立区中川4丁目42-1","lat":35.7717206,"lon":139.84821396},{"name":"区立北鹿浜公園","province":"東京都","city":"足立区","address":"東京都足立区鹿浜3丁目26","lat":35.78240338,"lon":139.75411604},{"name":"都立舎人公園","province":"東京都","city":"足立区","address":"東京都足立区舎人公園1-1","lat":35.79709935,"lon":139.76835863},{"name":"芦川巌葬儀社（有）","province":"東京都","city":"足立区","address":"東京都足立区南花畑3丁目19-26","lat":35.79043476,"lon":139.82729009},{"name":"(株)芦川花環葬儀社","province":"東京都","city":"足立区","address":"東京都足立区六月1丁目11-7","lat":35.78575436,"lon":139.7978732},{"name":"東葬儀社（株）","province":"東京都","city":"足立区","address":"東京都足立区関原2丁目1-26","lat":35.76501765,"lon":139.79095522},{"name":"（有）稲垣葬儀社本店","province":"東京都","city":"足立区","address":"東京都足立区千住仲町19-3","lat":35.74632333,"lon":139.80160027},{"name":"牛込葬儀社","province":"東京都","city":"足立区","address":"東京都足立区梅田2丁目16-18","lat":35.76517906,"lon":139.80205154},{"name":"エンドウセレモニー(有)","province":"東京都","city":"足立区","address":"東京都足立区鹿浜3丁目9-8","lat":35.77993983,"lon":139.75464662},{"name":"(株)小川由雄商店","province":"東京都","city":"足立区","address":"東京都足立区西新井本町1丁目15-14","lat":35.77769645,"lon":139.78180264},{"name":"(有)小澤葬儀社","province":"東京都","city":"足立区","address":"東京都足立区入谷4丁目10-24","lat":35.80593975,"lon":139.76093121},{"name":"(有)梶商店","province":"東京都","city":"足立区","address":"東京都足立区千住桜木1丁目9-2","lat":35.75061689,"lon":139.79406987},{"name":"(有)熊川式典総合サービス","province":"東京都","city":"足立区","address":"東京都足立区本木1丁目1-9","lat":35.76117076,"lon":139.78756679},{"name":"溜屋近藤商店(株)","province":"東京都","city":"足立区","address":"東京都足立区千住5丁目18-10","lat":35.75488048,"lon":139.80429093},{"name":"（有）根岸商店","province":"東京都","city":"足立区","address":"東京都足立区梅田6丁目9-11","lat":35.76626495,"lon":139.79835457},{"name":"肥後商店","province":"東京都","city":"足立区","address":"東京都足立区千住大川町48-1","lat":35.75524685,"lon":139.79563327},{"name":"北千住駅入口","province":"東京都","city":"足立区","address":"東京都足立区千住寿町31-10","lat":35.75350276,"lon":139.79971364},{"name":"千住宮元町","province":"東京都","city":"足立区","address":"東京都足立区千住河原町10-7","lat":35.74408741,"lon":139.79795904},{"name":"千住寿町","province":"東京都","city":"足立区","address":"東京都足立区千住寿町33-11","lat":35.7533167,"lon":139.8004997},{"name":"千住警察署入口","province":"東京都","city":"足立区","address":"東京都足立区千住緑町1丁目1-35","lat":35.74380682,"lon":139.79370944},{"name":"北千住駅前通り","province":"東京都","city":"足立区","address":"東京都足立区千住2丁目58","lat":35.75036999,"lon":139.80322753},{"name":"千住五丁目","province":"東京都","city":"足立区","address":"東京都足立区千住4丁目10-3","lat":35.75463044,"lon":139.80160506},{"name":"千住関屋町","province":"東京都","city":"足立区","address":"東京都足立区千住東1丁目7-11","lat":35.7433933,"lon":139.80485865},{"name":"北千住駅西口","province":"東京都","city":"足立区","address":"東京都足立区千住2丁目59","lat":35.75018115,"lon":139.80373306},{"name":"東京藝大前","province":"東京都","city":"足立区","address":"東京都足立区千住1丁目25-1","lat":35.74716488,"lon":139.80215014},{"name":"千住大橋駅前","province":"東京都","city":"足立区","address":"東京都足立区千住橋戸町11","lat":35.74247922,"lon":139.79727028},{"name":"足立郵便局前","province":"東京都","city":"足立区","address":"東京都足立区千住曙町2-2","lat":35.74404065,"lon":139.81164137},{"name":"千寿桜堤中学校前","province":"東京都","city":"足立区","address":"東京都足立区柳原2丁目54","lat":35.75017578,"lon":139.81243782},{"name":"島根","province":"東京都","city":"足立区","address":"東京都足立区梅島3丁目43-16","lat":35.77835795,"lon":139.79742631},{"name":"梅島","province":"東京都","city":"足立区","address":"東京都足立区梅田7丁目25-2","lat":35.76909805,"lon":139.80328733},{"name":"梅田支所前","province":"東京都","city":"足立区","address":"東京都足立区梅田6丁目33-6","lat":35.77037275,"lon":139.7973711},{"name":"西新井第二小学校入口","province":"東京都","city":"足立区","address":"東京都足立区西新井3丁目17","lat":35.78915063,"lon":139.77988569},{"name":"梅島一丁目","province":"東京都","city":"足立区","address":"東京都足立区梅島1丁目13-17","lat":35.77283361,"lon":139.79849035},{"name":"梅島駅前","province":"東京都","city":"足立区","address":"東京都足立区梅島3丁目1-7","lat":35.77295301,"lon":139.79737377},{"name":"梅島小学校前","province":"東京都","city":"足立区","address":"東京都足立区梅田8丁目2-14","lat":35.77176426,"lon":139.79740715},{"name":"梅田七丁目交番前","province":"東京都","city":"足立区","address":"東京都足立区梅田7丁目17-6","lat":35.76982006,"lon":139.79784887},{"name":"島根第二","province":"東京都","city":"足立区","address":"東京都足立区梅島2丁目20-6","lat":35.77701088,"lon":139.79776245},{"name":"栗原二丁目","province":"東京都","city":"足立区","address":"東京都足立区栗原2丁目7","lat":35.7818767,"lon":139.78727978},{"name":"谷在家二丁目","province":"東京都","city":"足立区","address":"東京都足立区谷在家2丁目19-7","lat":35.78508408,"lon":139.76949507},{"name":"島根郵便局前","province":"東京都","city":"足立区","address":"東京都足立区島根4丁目1-9","lat":35.78222139,"lon":139.79710118},{"name":"日光街道梅島一丁目","province":"東京都","city":"足立区","address":"東京都足立区梅島1丁目24-1","lat":35.77185884,"lon":139.80321776},{"name":"江北六丁目団地東","province":"東京都","city":"足立区","address":"東京都足立区西新井7丁目11","lat":35.77999584,"lon":139.77055907},{"name":"梅島二丁目","province":"東京都","city":"足立区","address":"東京都足立区梅島2丁目28-20","lat":35.77706378,"lon":139.80296201},{"name":"足立四中前","province":"東京都","city":"足立区","address":"東京都足立区梅島1丁目24-8","lat":35.77188936,"lon":139.80194287},{"name":"西新井一丁目第二","province":"東京都","city":"足立区","address":"東京都足立区西新井1丁目6-5","lat":35.77819079,"lon":139.77995832},{"name":"梅田七丁目公園前","province":"東京都","city":"足立区","address":"東京都足立区梅田7丁目28-9","lat":35.77019506,"lon":139.79988756},{"name":"梅島北","province":"東京都","city":"足立区","address":"東京都足立区梅島1丁目2-39","lat":35.77044789,"lon":139.80319838},{"name":"江北団地入口","province":"東京都","city":"足立区","address":"東京都足立区江北6丁目27-5","lat":35.78285376,"lon":139.76799253},{"name":"足立区役所南","province":"東京都","city":"足立区","address":"東京都足立区梅島1丁目26-24","lat":35.77358364,"lon":139.80305104},{"name":"日光街道平野二丁目","province":"東京都","city":"足立区","address":"東京都足立区平野2丁目1-10","lat":35.78290759,"lon":139.80322565},{"name":"足立中央本町庁舎前","province":"東京都","city":"足立区","address":"東京都足立区中央本町1丁目17-1","lat":35.77489463,"lon":139.80457862},{"name":"上沼田第六公園","province":"東京都","city":"足立区","address":"東京都足立区江北4丁目15","lat":35.77295766,"lon":139.76524596},{"name":"大谷田橋","province":"東京都","city":"足立区","address":"東京都足立区東和4丁目24-10","lat":35.77572004,"lon":139.84322258},{"name":"青井五丁目","province":"東京都","city":"足立区","address":"東京都足立区一ツ家4丁目1-22","lat":35.77878051,"lon":139.81618582},{"name":"東栗原町","province":"東京都","city":"足立区","address":"東京都足立区一ツ家1丁目2-8","lat":35.77913039,"lon":139.81058906},{"name":"末広","province":"東京都","city":"足立区","address":"東京都足立区中央本町2丁目24-1","lat":35.76744281,"lon":139.80768149},{"name":"六町駅南","province":"東京都","city":"足立区","address":"東京都足立区六町4丁目1","lat":35.7849243,"lon":139.82121574},{"name":"中川四丁目西","province":"東京都","city":"足立区","address":"東京都足立区中川4丁目24-8","lat":35.77008747,"lon":139.84652524},{"name":"綾瀬駅東口","province":"東京都","city":"足立区","address":"東京都足立区綾瀬3丁目4","lat":35.76297143,"lon":139.82570503},{"name":"辰沼団地北","province":"東京都","city":"足立区","address":"東京都足立区辰沼1丁目2","lat":35.78517432,"lon":139.83540348},{"name":"北綾瀬駅前","province":"東京都","city":"足立区","address":"東京都足立区谷中4丁目9-22","lat":35.77762527,"lon":139.83244283},{"name":"中央本町二丁目","province":"東京都","city":"足立区","address":"東京都足立区中央本町2丁目21-6","lat":35.76885378,"lon":139.80902019},{"name":"東京武道館南","province":"東京都","city":"足立区","address":"東京都足立区綾瀬3丁目15-5","lat":35.76415461,"lon":139.82546335},{"name":"六町駅前","province":"東京都","city":"足立区","address":"東京都足立区六町4丁目2-27","lat":35.78554923,"lon":139.82157958},{"name":"竹の塚駅西","province":"東京都","city":"足立区","address":"東京都足立区西竹の塚2丁目2-3","lat":35.7942976,"lon":139.78996244},{"name":"西竹の塚一丁目","province":"東京都","city":"足立区","address":"東京都足立区伊興3丁目17-29","lat":35.79436697,"lon":139.7877904},{"name":"竹ノ塚駅前","province":"東京都","city":"足立区","address":"東京都足立区竹の塚1丁目41-1","lat":35.79371994,"lon":139.79149845},{"name":"竹ノ塚駅東","province":"東京都","city":"足立区","address":"東京都足立区竹の塚1丁目39-14","lat":35.79345333,"lon":139.79216507},{"name":"舎人公園","province":"東京都","city":"足立区","address":"東京都足立区古千谷本町4丁目1-18","lat":35.80559315,"lon":139.78273212},{"name":"足立老人ホーム前","province":"東京都","city":"足立区","address":"東京都足立区花畑3丁目33-19","lat":35.80514695,"lon":139.81076598},{"name":"花畑町団地中央","province":"東京都","city":"足立区","address":"東京都足立区花畑5丁目12","lat":35.80699954,"lon":139.80992711},{"name":"竹の塚警察署前","province":"東京都","city":"足立区","address":"東京都足立区保木間1丁目16-4","lat":35.79099557,"lon":139.80305315},{"name":"板橋給水所","province":"東京都","city":"足立区","address":"東京都足立区加賀1丁目17-1","lat":35.78938603,"lon":139.75898755},{"name":"小右衛門給水所","province":"東京都","city":"足立区","address":"東京都足立区中央本町3丁目8-1","lat":35.77219224,"lon":139.80734518},{"name":"区総合スポーツセンター","province":"東京都","city":"足立区","address":"東京都足立区東保木間2丁目27-1","lat":35.79222061,"lon":139.81364669},{"name":"区立千住スポーツ公園","province":"東京都","city":"足立区","address":"東京都足立区千住緑町2丁目1-1","lat":35.74518999,"lon":139.79567026},{"name":"区立諏訪木東公園","province":"東京都","city":"足立区","address":"東京都足立区西新井3丁目25","lat":35.78998665,"lon":139.77999121},{"name":"区立大谷田南公園","province":"東京都","city":"足立区","address":"東京都足立区中川4丁目42-1","lat":35.7717206,"lon":139.84821396},{"name":"区立北鹿浜公園","province":"東京都","city":"足立区","address":"東京都足立区鹿浜3丁目26","lat":35.78240338,"lon":139.75411604},{"name":"都立舎人公園","province":"東京都","city":"足立区","address":"東京都足立区舎人公園1-1","lat":35.79709935,"lon":139.76835863},{"name":"芦川巌葬儀社（有）","province":"東京都","city":"足立区","address":"東京都足立区南花畑3丁目19-26","lat":35.79043476,"lon":139.82729009},{"name":"(株)芦川花環葬儀社","province":"東京都","city":"足立区","address":"東京都足立区六月1丁目11-7","lat":35.78575436,"lon":139.7978732},{"name":"東葬儀社（株）","province":"東京都","city":"足立区","address":"東京都足立区関原2丁目1-26","lat":35.76501765,"lon":139.79095522},{"name":"（有）稲垣葬儀社本店","province":"東京都","city":"足立区","address":"東京都足立区千住仲町19-3","lat":35.74632333,"lon":139.80160027},{"name":"牛込葬儀社","province":"東京都","city":"足立区","address":"東京都足立区梅田2丁目16-18","lat":35.76517906,"lon":139.80205154},{"name":"エンドウセレモニー(有)","province":"東京都","city":"足立区","address":"東京都足立区鹿浜3丁目9-8","lat":35.77993983,"lon":139.75464662},{"name":"(株)小川由雄商店","province":"東京都","city":"足立区","address":"東京都足立区西新井本町1丁目15-14","lat":35.77769645,"lon":139.78180264},{"name":"(有)小澤葬儀社","province":"東京都","city":"足立区","address":"東京都足立区入谷4丁目10-24","lat":35.80593975,"lon":139.76093121},{"name":"(有)梶商店","province":"東京都","city":"足立区","address":"東京都足立区千住桜木1丁目9-2","lat":35.75061689,"lon":139.79406987},{"name":"(有)熊川式典総合サービス","province":"東京都","city":"足立区","address":"東京都足立区本木1丁目1-9","lat":35.76117076,"lon":139.78756679},{"name":"溜屋近藤商店(株)","province":"東京都","city":"足立区","address":"東京都足立区千住5丁目18-10","lat":35.75488048,"lon":139.80429093},{"name":"（有）根岸商店","province":"東京都","city":"足立区","address":"東京都足立区梅田6丁目9-11","lat":35.76626495,"lon":139.79835457},{"name":"肥後商店","province":"東京都","city":"足立区","address":"東京都足立区千住大川町48-1","lat":35.75524685,"lon":139.79563327},{"name":"北千住駅入口","province":"東京都","city":"足立区","address":"東京都足立区千住寿町31-10","lat":35.75350276,"lon":139.79971364},{"name":"千住宮元町","province":"東京都","city":"足立区","address":"東京都足立区千住河原町10-7","lat":35.74408741,"lon":139.79795904},{"name":"千住寿町","province":"東京都","city":"足立区","address":"東京都足立区千住寿町33-11","lat":35.7533167,"lon":139.8004997},{"name":"千住警察署入口","province":"東京都","city":"足立区","address":"東京都足立区千住緑町1丁目1-35","lat":35.74380682,"lon":139.79370944},{"name":"北千住駅前通り","province":"東京都","city":"足立区","address":"東京都足立区千住2丁目58","lat":35.75036999,"lon":139.80322753},{"name":"千住五丁目","province":"東京都","city":"足立区","address":"東京都足立区千住4丁目10-3","lat":35.75463044,"lon":139.80160506},{"name":"千住関屋町","province":"東京都","city":"足立区","address":"東京都足立区千住東1丁目7-11","lat":35.7433933,"lon":139.80485865},{"name":"北千住駅西口","province":"東京都","city":"足立区","address":"東京都足立区千住2丁目59","lat":35.75018115,"lon":139.80373306},{"name":"東京藝大前","province":"東京都","city":"足立区","address":"東京都足立区千住1丁目25-1","lat":35.74716488,"lon":139.80215014},{"name":"千住大橋駅前","province":"東京都","city":"足立区","address":"東京都足立区千住橋戸町11","lat":35.74247922,"lon":139.79727028},{"name":"足立郵便局前","province":"東京都","city":"足立区","address":"東京都足立区千住曙町2-2","lat":35.74404065,"lon":139.81164137},{"name":"千寿桜堤中学校前","province":"東京都","city":"足立区","address":"東京都足立区柳原2丁目54","lat":35.75017578,"lon":139.81243782},{"name":"島根","province":"東京都","city":"足立区","address":"東京都足立区梅島3丁目43-16","lat":35.77835795,"lon":139.79742631},{"name":"梅島","province":"東京都","city":"足立区","address":"東京都足立区梅田7丁目25-2","lat":35.76909805,"lon":139.80328733},{"name":"梅田支所前","province":"東京都","city":"足立区","address":"東京都足立区梅田6丁目33-6","lat":35.77037275,"lon":139.7973711},{"name":"西新井第二小学校入口","province":"東京都","city":"足立区","address":"東京都足立区西新井3丁目17","lat":35.78915063,"lon":139.77988569},{"name":"梅島一丁目","province":"東京都","city":"足立区","address":"東京都足立区梅島1丁目13-17","lat":35.77283361,"lon":139.79849035},{"name":"梅島駅前","province":"東京都","city":"足立区","address":"東京都足立区梅島3丁目1-7","lat":35.77295301,"lon":139.79737377},{"name":"梅島小学校前","province":"東京都","city":"足立区","address":"東京都足立区梅田8丁目2-14","lat":35.77176426,"lon":139.79740715},{"name":"梅田七丁目交番前","province":"東京都","city":"足立区","address":"東京都足立区梅田7丁目17-6","lat":35.76982006,"lon":139.79784887},{"name":"島根第二","province":"東京都","city":"足立区","address":"東京都足立区梅島2丁目20-6","lat":35.77701088,"lon":139.79776245},{"name":"栗原二丁目","province":"東京都","city":"足立区","address":"東京都足立区栗原2丁目7","lat":35.7818767,"lon":139.78727978},{"name":"谷在家二丁目","province":"東京都","city":"足立区","address":"東京都足立区谷在家2丁目19-7","lat":35.78508408,"lon":139.76949507},{"name":"島根郵便局前","province":"東京都","city":"足立区","address":"東京都足立区島根4丁目1-9","lat":35.78222139,"lon":139.79710118},{"name":"日光街道梅島一丁目","province":"東京都","city":"足立区","address":"東京都足立区梅島1丁目24-1","lat":35.77185884,"lon":139.80321776},{"name":"江北六丁目団地東","province":"東京都","city":"足立区","address":"東京都足立区西新井7丁目11","lat":35.77999584,"lon":139.77055907},{"name":"梅島二丁目","province":"東京都","city":"足立区","address":"東京都足立区梅島2丁目28-20","lat":35.77706378,"lon":139.80296201},{"name":"足立四中前","province":"東京都","city":"足立区","address":"東京都足立区梅島1丁目24-8","lat":35.77188936,"lon":139.80194287},{"name":"西新井一丁目第二","province":"東京都","city":"足立区","address":"東京都足立区西新井1丁目6-5","lat":35.77819079,"lon":139.77995832},{"name":"梅田七丁目公園前","province":"東京都","city":"足立区","address":"東京都足立区梅田7丁目28-9","lat":35.77019506,"lon":139.79988756},{"name":"梅島北","province":"東京都","city":"足立区","address":"東京都足立区梅島1丁目2-39","lat":35.77044789,"lon":139.80319838},{"name":"江北団地入口","province":"東京都","city":"足立区","address":"東京都足立区江北6丁目27-5","lat":35.78285376,"lon":139.76799253},{"name":"足立区役所南","province":"東京都","city":"足立区","address":"東京都足立区梅島1丁目26-24","lat":35.77358364,"lon":139.80305104},{"name":"日光街道平野二丁目","province":"東京都","city":"足立区","address":"東京都足立区平野2丁目1-10","lat":35.78290759,"lon":139.80322565},{"name":"足立中央本町庁舎前","province":"東京都","city":"足立区","address":"東京都足立区中央本町1丁目17-1","lat":35.77489463,"lon":139.80457862},{"name":"上沼田第六公園","province":"東京都","city":"足立区","address":"東京都足立区江北4丁目15","lat":35.77295766,"lon":139.76524596},{"name":"大谷田橋","province":"東京都","city":"足立区","address":"東京都足立区東和4丁目24-10","lat":35.77572004,"lon":139.84322258},{"name":"青井五丁目","province":"東京都","city":"足立区","address":"東京都足立区一ツ家4丁目1-22","lat":35.77878051,"lon":139.81618582},{"name":"東栗原町","province":"東京都","city":"足立区","address":"東京都足立区一ツ家1丁目2-8","lat":35.77913039,"lon":139.81058906},{"name":"末広","province":"東京都","city":"足立区","address":"東京都足立区中央本町2丁目24-1","lat":35.76744281,"lon":139.80768149},{"name":"六町駅南","province":"東京都","city":"足立区","address":"東京都足立区六町4丁目1","lat":35.7849243,"lon":139.82121574},{"name":"中川四丁目西","province":"東京都","city":"足立区","address":"東京都足立区中川4丁目24-8","lat":35.77008747,"lon":139.84652524},{"name":"綾瀬駅東口","province":"東京都","city":"足立区","address":"東京都足立区綾瀬3丁目4","lat":35.76297143,"lon":139.82570503},{"name":"辰沼団地北","province":"東京都","city":"足立区","address":"東京都足立区辰沼1丁目2","lat":35.78517432,"lon":139.83540348},{"name":"北綾瀬駅前","province":"東京都","city":"足立区","address":"東京都足立区谷中4丁目9-22","lat":35.77762527,"lon":139.83244283},{"name":"中央本町二丁目","province":"東京都","city":"足立区","address":"東京都足立区中央本町2丁目21-6","lat":35.76885378,"lon":139.80902019},{"name":"東京武道館南","province":"東京都","city":"足立区","address":"東京都足立区綾瀬3丁目15-5","lat":35.76415461,"lon":139.82546335},{"name":"六町駅前","province":"東京都","city":"足立区","address":"東京都足立区六町4丁目2-27","lat":35.78554923,"lon":139.82157958},{"name":"竹の塚駅西","province":"東京都","city":"足立区","address":"東京都足立区西竹の塚2丁目2-3","lat":35.7942976,"lon":139.78996244},{"name":"西竹の塚一丁目","province":"東京都","city":"足立区","address":"東京都足立区伊興3丁目17-29","lat":35.79436697,"lon":139.7877904},{"name":"竹ノ塚駅前","province":"東京都","city":"足立区","address":"東京都足立区竹の塚1丁目41-1","lat":35.79371994,"lon":139.79149845},{"name":"竹ノ塚駅東","province":"東京都","city":"足立区","address":"東京都足立区竹の塚1丁目39-14","lat":35.79345333,"lon":139.79216507},{"name":"舎人公園","province":"東京都","city":"足立区","address":"東京都足立区古千谷本町4丁目1-18","lat":35.80559315,"lon":139.78273212},{"name":"足立老人ホーム前","province":"東京都","city":"足立区","address":"東京都足立区花畑3丁目33-19","lat":35.80514695,"lon":139.81076598},{"name":"花畑町団地中央","province":"東京都","city":"足立区","address":"東京都足立区花畑5丁目12","lat":35.80699954,"lon":139.80992711},{"name":"竹の塚警察署前","province":"東京都","city":"足立区","address":"東京都足立区保木間1丁目16-4","lat":35.79099557,"lon":139.80305315},{"name":"板橋給水所","province":"東京都","city":"足立区","address":"東京都足立区加賀1丁目17-1","lat":35.78938603,"lon":139.75898755},{"name":"小右衛門給水所","province":"東京都","city":"足立区","address":"東京都足立区中央本町3丁目8-1","lat":35.77219224,"lon":139.80734518},{"name":"区総合スポーツセンター","province":"東京都","city":"足立区","address":"東京都足立区東保木間2丁目27-1","lat":35.79222061,"lon":139.81364669},{"name":"区立千住スポーツ公園","province":"東京都","city":"足立区","address":"東京都足立区千住緑町2丁目1-1","lat":35.74518999,"lon":139.79567026},{"name":"区立諏訪木東公園","province":"東京都","city":"足立区","address":"東京都足立区西新井3丁目25","lat":35.78998665,"lon":139.77999121},{"name":"区立大谷田南公園","province":"東京都","city":"足立区","address":"東京都足立区中川4丁目42-1","lat":35.7717206,"lon":139.84821396},{"name":"区立北鹿浜公園","province":"東京都","city":"足立区","address":"東京都足立区鹿浜3丁目26","lat":35.78240338,"lon":139.75411604},{"name":"都立舎人公園","province":"東京都","city":"足立区","address":"東京都足立区舎人公園1-1","lat":35.79709935,"lon":139.76835863},{"name":"芦川巌葬儀社（有）","province":"東京都","city":"足立区","address":"東京都足立区南花畑3丁目19-26","lat":35.79043476,"lon":139.82729009},{"name":"(株)芦川花環葬儀社","province":"東京都","city":"足立区","address":"東京都足立区六月1丁目11-7","lat":35.78575436,"lon":139.7978732},{"name":"東葬儀社（株）","province":"東京都","city":"足立区","address":"東京都足立区関原2丁目1-26","lat":35.76501765,"lon":139.79095522},{"name":"（有）稲垣葬儀社本店","province":"東京都","city":"足立区","address":"東京都足立区千住仲町19-3","lat":35.74632333,"lon":139.80160027},{"name":"牛込葬儀社","province":"東京都","city":"足立区","address":"東京都足立区梅田2丁目16-18","lat":35.76517906,"lon":139.80205154},{"name":"エンドウセレモニー(有)","province":"東京都","city":"足立区","address":"東京都足立区鹿浜3丁目9-8","lat":35.77993983,"lon":139.75464662},{"name":"(株)小川由雄商店","province":"東京都","city":"足立区","address":"東京都足立区西新井本町1丁目15-14","lat":35.77769645,"lon":139.78180264},{"name":"(有)小澤葬儀社","province":"東京都","city":"足立区","address":"東京都足立区入谷4丁目10-24","lat":35.80593975,"lon":139.76093121},{"name":"(有)梶商店","province":"東京都","city":"足立区","address":"東京都足立区千住桜木1丁目9-2","lat":35.75061689,"lon":139.79406987},{"name":"(有)熊川式典総合サービス","province":"東京都","city":"足立区","address":"東京都足立区本木1丁目1-9","lat":35.76117076,"lon":139.78756679},{"name":"溜屋近藤商店(株)","province":"東京都","city":"足立区","address":"東京都足立区千住5丁目18-10","lat":35.75488048,"lon":139.80429093},{"name":"（有）根岸商店","province":"東京都","city":"足立区","address":"東京都足立区梅田6丁目9-11","lat":35.76626495,"lon":139.79835457},{"name":"肥後商店","province":"東京都","city":"足立区","address":"東京都足立区千住大川町48-1","lat":35.75524685,"lon":139.79563327},{"name":"北千住駅入口","province":"東京都","city":"足立区","address":"東京都足立区千住寿町31-10","lat":35.75350276,"lon":139.79971364},{"name":"千住宮元町","province":"東京都","city":"足立区","address":"東京都足立区千住河原町10-7","lat":35.74408741,"lon":139.79795904},{"name":"千住寿町","province":"東京都","city":"足立区","address":"東京都足立区千住寿町33-11","lat":35.7533167,"lon":139.8004997},{"name":"千住警察署入口","province":"東京都","city":"足立区","address":"東京都足立区千住緑町1丁目1-35","lat":35.74380682,"lon":139.79370944},{"name":"北千住駅前通り","province":"東京都","city":"足立区","address":"東京都足立区千住2丁目58","lat":35.75036999,"lon":139.80322753},{"name":"千住五丁目","province":"東京都","city":"足立区","address":"東京都足立区千住4丁目10-3","lat":35.75463044,"lon":139.80160506},{"name":"千住関屋町","province":"東京都","city":"足立区","address":"東京都足立区千住東1丁目7-11","lat":35.7433933,"lon":139.80485865},{"name":"北千住駅西口","province":"東京都","city":"足立区","address":"東京都足立区千住2丁目59","lat":35.75018115,"lon":139.80373306},{"name":"東京藝大前","province":"東京都","city":"足立区","address":"東京都足立区千住1丁目25-1","lat":35.74716488,"lon":139.80215014},{"name":"千住大橋駅前","province":"東京都","city":"足立区","address":"東京都足立区千住橋戸町11","lat":35.74247922,"lon":139.79727028},{"name":"足立郵便局前","province":"東京都","city":"足立区","address":"東京都足立区千住曙町2-2","lat":35.74404065,"lon":139.81164137},{"name":"千寿桜堤中学校前","province":"東京都","city":"足立区","address":"東京都足立区柳原2丁目54","lat":35.75017578,"lon":139.81243782},{"name":"島根","province":"東京都","city":"足立区","address":"東京都足立区梅島3丁目43-16","lat":35.77835795,"lon":139.79742631},{"name":"梅島","province":"東京都","city":"足立区","address":"東京都足立区梅田7丁目25-2","lat":35.76909805,"lon":139.80328733},{"name":"梅田支所前","province":"東京都","city":"足立区","address":"東京都足立区梅田6丁目33-6","lat":35.77037275,"lon":139.7973711},{"name":"西新井第二小学校入口","province":"東京都","city":"足立区","address":"東京都足立区西新井3丁目17","lat":35.78915063,"lon":139.77988569},{"name":"梅島一丁目","province":"東京都","city":"足立区","address":"東京都足立区梅島1丁目13-17","lat":35.77283361,"lon":139.79849035},{"name":"梅島駅前","province":"東京都","city":"足立区","address":"東京都足立区梅島3丁目1-7","lat":35.77295301,"lon":139.79737377},{"name":"梅島小学校前","province":"東京都","city":"足立区","address":"東京都足立区梅田8丁目2-14","lat":35.77176426,"lon":139.79740715},{"name":"梅田七丁目交番前","province":"東京都","city":"足立区","address":"東京都足立区梅田7丁目17-6","lat":35.76982006,"lon":139.79784887},{"name":"島根第二","province":"東京都","city":"足立区","address":"東京都足立区梅島2丁目20-6","lat":35.77701088,"lon":139.79776245},{"name":"栗原二丁目","province":"東京都","city":"足立区","address":"東京都足立区栗原2丁目7","lat":35.7818767,"lon":139.78727978},{"name":"谷在家二丁目","province":"東京都","city":"足立区","address":"東京都足立区谷在家2丁目19-7","lat":35.78508408,"lon":139.76949507},{"name":"島根郵便局前","province":"東京都","city":"足立区","address":"東京都足立区島根4丁目1-9","lat":35.78222139,"lon":139.79710118},{"name":"日光街道梅島一丁目","province":"東京都","city":"足立区","address":"東京都足立区梅島1丁目24-1","lat":35.77185884,"lon":139.80321776},{"name":"江北六丁目団地東","province":"東京都","city":"足立区","address":"東京都足立区西新井7丁目11","lat":35.77999584,"lon":139.77055907},{"name":"梅島二丁目","province":"東京都","city":"足立区","address":"東京都足立区梅島2丁目28-20","lat":35.77706378,"lon":139.80296201},{"name":"足立四中前","province":"東京都","city":"足立区","address":"東京都足立区梅島1丁目24-8","lat":35.77188936,"lon":139.80194287},{"name":"西新井一丁目第二","province":"東京都","city":"足立区","address":"東京都足立区西新井1丁目6-5","lat":35.77819079,"lon":139.77995832},{"name":"梅田七丁目公園前","province":"東京都","city":"足立区","address":"東京都足立区梅田7丁目28-9","lat":35.77019506,"lon":139.79988756},{"name":"梅島北","province":"東京都","city":"足立区","address":"東京都足立区梅島1丁目2-39","lat":35.77044789,"lon":139.80319838},{"name":"江北団地入口","province":"東京都","city":"足立区","address":"東京都足立区江北6丁目27-5","lat":35.78285376,"lon":139.76799253},{"name":"足立区役所南","province":"東京都","city":"足立区","address":"東京都足立区梅島1丁目26-24","lat":35.77358364,"lon":139.80305104},{"name":"日光街道平野二丁目","province":"東京都","city":"足立区","address":"東京都足立区平野2丁目1-10","lat":35.78290759,"lon":139.80322565},{"name":"足立中央本町庁舎前","province":"東京都","city":"足立区","address":"東京都足立区中央本町1丁目17-1","lat":35.77489463,"lon":139.80457862},{"name":"上沼田第六公園","province":"東京都","city":"足立区","address":"東京都足立区江北4丁目15","lat":35.77295766,"lon":139.76524596},{"name":"大谷田橋","province":"東京都","city":"足立区","address":"東京都足立区東和4丁目24-10","lat":35.77572004,"lon":139.84322258},{"name":"青井五丁目","province":"東京都","city":"足立区","address":"東京都足立区一ツ家4丁目1-22","lat":35.77878051,"lon":139.81618582},{"name":"東栗原町","province":"東京都","city":"足立区","address":"東京都足立区一ツ家1丁目2-8","lat":35.77913039,"lon":139.81058906},{"name":"末広","province":"東京都","city":"足立区","address":"東京都足立区中央本町2丁目24-1","lat":35.76744281,"lon":139.80768149},{"name":"六町駅南","province":"東京都","city":"足立区","address":"東京都足立区六町4丁目1","lat":35.7849243,"lon":139.82121574},{"name":"中川四丁目西","province":"東京都","city":"足立区","address":"東京都足立区中川4丁目24-8","lat":35.77008747,"lon":139.84652524},{"name":"綾瀬駅東口","province":"東京都","city":"足立区","address":"東京都足立区綾瀬3丁目4","lat":35.76297143,"lon":139.82570503},{"name":"辰沼団地北","province":"東京都","city":"足立区","address":"東京都足立区辰沼1丁目2","lat":35.78517432,"lon":139.83540348},{"name":"北綾瀬駅前","province":"東京都","city":"足立区","address":"東京都足立区谷中4丁目9-22","lat":35.77762527,"lon":139.83244283},{"name":"中央本町二丁目","province":"東京都","city":"足立区","address":"東京都足立区中央本町2丁目21-6","lat":35.76885378,"lon":139.80902019},{"name":"東京武道館南","province":"東京都","city":"足立区","address":"東京都足立区綾瀬3丁目15-5","lat":35.76415461,"lon":139.82546335},{"name":"六町駅前","province":"東京都","city":"足立区","address":"東京都足立区六町4丁目2-27","lat":35.78554923,"lon":139.82157958},{"name":"竹の塚駅西","province":"東京都","city":"足立区","address":"東京都足立区西竹の塚2丁目2-3","lat":35.7942976,"lon":139.78996244},{"name":"西竹の塚一丁目","province":"東京都","city":"足立区","address":"東京都足立区伊興3丁目17-29","lat":35.79436697,"lon":139.7877904},{"name":"竹ノ塚駅前","province":"東京都","city":"足立区","address":"東京都足立区竹の塚1丁目41-1","lat":35.79371994,"lon":139.79149845},{"name":"竹ノ塚駅東","province":"東京都","city":"足立区","address":"東京都足立区竹の塚1丁目39-14","lat":35.79345333,"lon":139.79216507},{"name":"舎人公園","province":"東京都","city":"足立区","address":"東京都足立区古千谷本町4丁目1-18","lat":35.80559315,"lon":139.78273212},{"name":"足立老人ホーム前","province":"東京都","city":"足立区","address":"東京都足立区花畑3丁目33-19","lat":35.80514695,"lon":139.81076598},{"name":"花畑町団地中央","province":"東京都","city":"足立区","address":"東京都足立区花畑5丁目12","lat":35.80699954,"lon":139.80992711},{"name":"竹の塚警察署前","province":"東京都","city":"足立区","address":"東京都足立区保木間1丁目16-4","lat":35.79099557,"lon":139.80305315},{"name":"板橋給水所","province":"東京都","city":"足立区","address":"東京都足立区加賀1丁目17-1","lat":35.78938603,"lon":139.75898755},{"name":"小右衛門給水所","province":"東京都","city":"足立区","address":"東京都足立区中央本町3丁目8-1","lat":35.77219224,"lon":139.80734518},{"name":"区総合スポーツセンター","province":"東京都","city":"足立区","address":"東京都足立区東保木間2丁目27-1","lat":35.79222061,"lon":139.81364669},{"name":"区立千住スポーツ公園","province":"東京都","city":"足立区","address":"東京都足立区千住緑町2丁目1-1","lat":35.74518999,"lon":139.79567026},{"name":"区立諏訪木東公園","province":"東京都","city":"足立区","address":"東京都足立区西新井3丁目25","lat":35.78998665,"lon":139.77999121},{"name":"区立大谷田南公園","province":"東京都","city":"足立区","address":"東京都足立区中川4丁目42-1","lat":35.7717206,"lon":139.84821396},{"name":"区立北鹿浜公園","province":"東京都","city":"足立区","address":"東京都足立区鹿浜3丁目26","lat":35.78240338,"lon":139.75411604},{"name":"都立舎人公園","province":"東京都","city":"足立区","address":"東京都足立区舎人公園1-1","lat":35.79709935,"lon":139.76835863},{"name":"芦川巌葬儀社（有）","province":"東京都","city":"足立区","address":"東京都足立区南花畑3丁目19-26","lat":35.79043476,"lon":139.82729009},{"name":"(株)芦川花環葬儀社","province":"東京都","city":"足立区","address":"東京都足立区六月1丁目11-7","lat":35.78575436,"lon":139.7978732},{"name":"東葬儀社（株）","province":"東京都","city":"足立区","address":"東京都足立区関原2丁目1-26","lat":35.76501765,"lon":139.79095522},{"name":"（有）稲垣葬儀社本店","province":"東京都","city":"足立区","address":"東京都足立区千住仲町19-3","lat":35.74632333,"lon":139.80160027},{"name":"牛込葬儀社","province":"東京都","city":"足立区","address":"東京都足立区梅田2丁目16-18","lat":35.76517906,"lon":139.80205154},{"name":"エンドウセレモニー(有)","province":"東京都","city":"足立区","address":"東京都足立区鹿浜3丁目9-8","lat":35.77993983,"lon":139.75464662},{"name":"(株)小川由雄商店","province":"東京都","city":"足立区","address":"東京都足立区西新井本町1丁目15-14","lat":35.77769645,"lon":139.78180264},{"name":"(有)小澤葬儀社","province":"東京都","city":"足立区","address":"東京都足立区入谷4丁目10-24","lat":35.80593975,"lon":139.76093121},{"name":"(有)梶商店","province":"東京都","city":"足立区","address":"東京都足立区千住桜木1丁目9-2","lat":35.75061689,"lon":139.79406987},{"name":"(有)熊川式典総合サービス","province":"東京都","city":"足立区","address":"東京都足立区本木1丁目1-9","lat":35.76117076,"lon":139.78756679},{"name":"溜屋近藤商店(株)","province":"東京都","city":"足立区","address":"東京都足立区千住5丁目18-10","lat":35.75488048,"lon":139.80429093},{"name":"（有）根岸商店","province":"東京都","city":"足立区","address":"東京都足立区梅田6丁目9-11","lat":35.76626495,"lon":139.79835457},{"name":"肥後商店","province":"東京都","city":"足立区","address":"東京都足立区千住大川町48-1","lat":35.75524685,"lon":139.79563327},{"name":"北千住駅入口","province":"東京都","city":"足立区","address":"東京都足立区千住寿町31-10","lat":35.75350276,"lon":139.79971364},{"name":"千住宮元町","province":"東京都","city":"足立区","address":"東京都足立区千住河原町10-7","lat":35.74408741,"lon":139.79795904},{"name":"千住寿町","province":"東京都","city":"足立区","address":"東京都足立区千住寿町33-11","lat":35.7533167,"lon":139.8004997},{"name":"千住警察署入口","province":"東京都","city":"足立区","address":"東京都足立区千住緑町1丁目1-35","lat":35.74380682,"lon":139.79370944},{"name":"北千住駅前通り","province":"東京都","city":"足立区","address":"東京都足立区千住2丁目58","lat":35.75036999,"lon":139.80322753},{"name":"千住五丁目","province":"東京都","city":"足立区","address":"東京都足立区千住4丁目10-3","lat":35.75463044,"lon":139.80160506},{"name":"千住関屋町","province":"東京都","city":"足立区","address":"東京都足立区千住東1丁目7-11","lat":35.7433933,"lon":139.80485865},{"name":"北千住駅西口","province":"東京都","city":"足立区","address":"東京都足立区千住2丁目59","lat":35.75018115,"lon":139.80373306},{"name":"東京藝大前","province":"東京都","city":"足立区","address":"東京都足立区千住1丁目25-1","lat":35.74716488,"lon":139.80215014},{"name":"千住大橋駅前","province":"東京都","city":"足立区","address":"東京都足立区千住橋戸町11","lat":35.74247922,"lon":139.79727028},{"name":"足立郵便局前","province":"東京都","city":"足立区","address":"東京都足立区千住曙町2-2","lat":35.74404065,"lon":139.81164137},{"name":"千寿桜堤中学校前","province":"東京都","city":"足立区","address":"東京都足立区柳原2丁目54","lat":35.75017578,"lon":139.81243782},{"name":"島根","province":"東京都","city":"足立区","address":"東京都足立区梅島3丁目43-16","lat":35.77835795,"lon":139.79742631},{"name":"梅島","province":"東京都","city":"足立区","address":"東京都足立区梅田7丁目25-2","lat":35.76909805,"lon":139.80328733},{"name":"梅田支所前","province":"東京都","city":"足立区","address":"東京都足立区梅田6丁目33-6","lat":35.77037275,"lon":139.7973711},{"name":"西新井第二小学校入口","province":"東京都","city":"足立区","address":"東京都足立区西新井3丁目17","lat":35.78915063,"lon":139.77988569},{"name":"梅島一丁目","province":"東京都","city":"足立区","address":"東京都足立区梅島1丁目13-17","lat":35.77283361,"lon":139.79849035},{"name":"梅島駅前","province":"東京都","city":"足立区","address":"東京都足立区梅島3丁目1-7","lat":35.77295301,"lon":139.79737377},{"name":"梅島小学校前","province":"東京都","city":"足立区","address":"東京都足立区梅田8丁目2-14","lat":35.77176426,"lon":139.79740715},{"name":"梅田七丁目交番前","province":"東京都","city":"足立区","address":"東京都足立区梅田7丁目17-6","lat":35.76982006,"lon":139.79784887},{"name":"島根第二","province":"東京都","city":"足立区","address":"東京都足立区梅島2丁目20-6","lat":35.77701088,"lon":139.79776245},{"name":"栗原二丁目","province":"東京都","city":"足立区","address":"東京都足立区栗原2丁目7","lat":35.7818767,"lon":139.78727978},{"name":"谷在家二丁目","province":"東京都","city":"足立区","address":"東京都足立区谷在家2丁目19-7","lat":35.78508408,"lon":139.76949507},{"name":"島根郵便局前","province":"東京都","city":"足立区","address":"東京都足立区島根4丁目1-9","lat":35.78222139,"lon":139.79710118},{"name":"日光街道梅島一丁目","province":"東京都","city":"足立区","address":"東京都足立区梅島1丁目24-1","lat":35.77185884,"lon":139.80321776},{"name":"江北六丁目団地東","province":"東京都","city":"足立区","address":"東京都足立区西新井7丁目11","lat":35.77999584,"lon":139.77055907},{"name":"梅島二丁目","province":"東京都","city":"足立区","address":"東京都足立区梅島2丁目28-20","lat":35.77706378,"lon":139.80296201},{"name":"足立四中前","province":"東京都","city":"足立区","address":"東京都足立区梅島1丁目24-8","lat":35.77188936,"lon":139.80194287},{"name":"西新井一丁目第二","province":"東京都","city":"足立区","address":"東京都足立区西新井1丁目6-5","lat":35.77819079,"lon":139.77995832},{"name":"梅田七丁目公園前","province":"東京都","city":"足立区","address":"東京都足立区梅田7丁目28-9","lat":35.77019506,"lon":139.79988756},{"name":"梅島北","province":"東京都","city":"足立区","address":"東京都足立区梅島1丁目2-39","lat":35.77044789,"lon":139.80319838},{"name":"江北団地入口","province":"東京都","city":"足立区","address":"東京都足立区江北6丁目27-5","lat":35.78285376,"lon":139.76799253},{"name":"足立区役所南","province":"東京都","city":"足立区","address":"東京都足立区梅島1丁目26-24","lat":35.77358364,"lon":139.80305104},{"name":"日光街道平野二丁目","province":"東京都","city":"足立区","address":"東京都足立区平野2丁目1-10","lat":35.78290759,"lon":139.80322565},{"name":"足立中央本町庁舎前","province":"東京都","city":"足立区","address":"東京都足立区中央本町1丁目17-1","lat":35.77489463,"lon":139.80457862},{"name":"上沼田第六公園","province":"東京都","city":"足立区","address":"東京都足立区江北4丁目15","lat":35.77295766,"lon":139.76524596},{"name":"大谷田橋","province":"東京都","city":"足立区","address":"東京都足立区東和4丁目24-10","lat":35.77572004,"lon":139.84322258},{"name":"青井五丁目","province":"東京都","city":"足立区","address":"東京都足立区一ツ家4丁目1-22","lat":35.77878051,"lon":139.81618582},{"name":"東栗原町","province":"東京都","city":"足立区","address":"東京都足立区一ツ家1丁目2-8","lat":35.77913039,"lon":139.81058906},{"name":"末広","province":"東京都","city":"足立区","address":"東京都足立区中央本町2丁目24-1","lat":35.76744281,"lon":139.80768149},{"name":"六町駅南","province":"東京都","city":"足立区","address":"東京都足立区六町4丁目1","lat":35.7849243,"lon":139.82121574},{"name":"中川四丁目西","province":"東京都","city":"足立区","address":"東京都足立区中川4丁目24-8","lat":35.77008747,"lon":139.84652524},{"name":"綾瀬駅東口","province":"東京都","city":"足立区","address":"東京都足立区綾瀬3丁目4","lat":35.76297143,"lon":139.82570503},{"name":"辰沼団地北","province":"東京都","city":"足立区","address":"東京都足立区辰沼1丁目2","lat":35.78517432,"lon":139.83540348},{"name":"北綾瀬駅前","province":"東京都","city":"足立区","address":"東京都足立区谷中4丁目9-22","lat":35.77762527,"lon":139.83244283},{"name":"中央本町二丁目","province":"東京都","city":"足立区","address":"東京都足立区中央本町2丁目21-6","lat":35.76885378,"lon":139.80902019},{"name":"東京武道館南","province":"東京都","city":"足立区","address":"東京都足立区綾瀬3丁目15-5","lat":35.76415461,"lon":139.82546335},{"name":"六町駅前","province":"東京都","city":"足立区","address":"東京都足立区六町4丁目2-27","lat":35.78554923,"lon":139.82157958},{"name":"竹の塚駅西","province":"東京都","city":"足立区","address":"東京都足立区西竹の塚2丁目2-3","lat":35.7942976,"lon":139.78996244},{"name":"西竹の塚一丁目","province":"東京都","city":"足立区","address":"東京都足立区伊興3丁目17-29","lat":35.79436697,"lon":139.7877904},{"name":"竹ノ塚駅前","province":"東京都","city":"足立区","address":"東京都足立区竹の塚1丁目41-1","lat":35.79371994,"lon":139.79149845},{"name":"竹ノ塚駅東","province":"東京都","city":"足立区","address":"東京都足立区竹の塚1丁目39-14","lat":35.79345333,"lon":139.79216507},{"name":"舎人公園","province":"東京都","city":"足立区","address":"東京都足立区古千谷本町4丁目1-18","lat":35.80559315,"lon":139.78273212},{"name":"足立老人ホーム前","province":"東京都","city":"足立区","address":"東京都足立区花畑3丁目33-19","lat":35.80514695,"lon":139.81076598},{"name":"花畑町団地中央","province":"東京都","city":"足立区","address":"東京都足立区花畑5丁目12","lat":35.80699954,"lon":139.80992711},{"name":"竹の塚警察署前","province":"東京都","city":"足立区","address":"東京都足立区保木間1丁目16-4","lat":35.79099557,"lon":139.80305315},{"name":"板橋給水所","province":"東京都","city":"足立区","address":"東京都足立区加賀1丁目17-1","lat":35.78938603,"lon":139.75898755},{"name":"小右衛門給水所","province":"東京都","city":"足立区","address":"東京都足立区中央本町3丁目8-1","lat":35.77219224,"lon":139.80734518},{"name":"区総合スポーツセンター","province":"東京都","city":"足立区","address":"東京都足立区東保木間2丁目27-1","lat":35.79222061,"lon":139.81364669},{"name":"区立千住スポーツ公園","province":"東京都","city":"足立区","address":"東京都足立区千住緑町2丁目1-1","lat":35.74518999,"lon":139.79567026},{"name":"区立諏訪木東公園","province":"東京都","city":"足立区","address":"東京都足立区西新井3丁目25","lat":35.78998665,"lon":139.77999121},{"name":"区立大谷田南公園","province":"東京都","city":"足立区","address":"東京都足立区中川4丁目42-1","lat":35.7717206,"lon":139.84821396},{"name":"区立北鹿浜公園","province":"東京都","city":"足立区","address":"東京都足立区鹿浜3丁目26","lat":35.78240338,"lon":139.75411604},{"name":"都立舎人公園","province":"東京都","city":"足立区","address":"東京都足立区舎人公園1-1","lat":35.79709935,"lon":139.76835863},{"name":"芦川巌葬儀社（有）","province":"東京都","city":"足立区","address":"東京都足立区南花畑3丁目19-26","lat":35.79043476,"lon":139.82729009},{"name":"(株)芦川花環葬儀社","province":"東京都","city":"足立区","address":"東京都足立区六月1丁目11-7","lat":35.78575436,"lon":139.7978732},{"name":"東葬儀社（株）","province":"東京都","city":"足立区","address":"東京都足立区関原2丁目1-26","lat":35.76501765,"lon":139.79095522},{"name":"（有）稲垣葬儀社本店","province":"東京都","city":"足立区","address":"東京都足立区千住仲町19-3","lat":35.74632333,"lon":139.80160027},{"name":"牛込葬儀社","province":"東京都","city":"足立区","address":"東京都足立区梅田2丁目16-18","lat":35.76517906,"lon":139.80205154},{"name":"エンドウセレモニー(有)","province":"東京都","city":"足立区","address":"東京都足立区鹿浜3丁目9-8","lat":35.77993983,"lon":139.75464662},{"name":"(株)小川由雄商店","province":"東京都","city":"足立区","address":"東京都足立区西新井本町1丁目15-14","lat":35.77769645,"lon":139.78180264},{"name":"(有)小澤葬儀社","province":"東京都","city":"足立区","address":"東京都足立区入谷4丁目10-24","lat":35.80593975,"lon":139.76093121},{"name":"(有)梶商店","province":"東京都","city":"足立区","address":"東京都足立区千住桜木1丁目9-2","lat":35.75061689,"lon":139.79406987},{"name":"(有)熊川式典総合サービス","province":"東京都","city":"足立区","address":"東京都足立区本木1丁目1-9","lat":35.76117076,"lon":139.78756679},{"name":"溜屋近藤商店(株)","province":"東京都","city":"足立区","address":"東京都足立区千住5丁目18-10","lat":35.75488048,"lon":139.80429093},{"name":"（有）根岸商店","province":"東京都","city":"足立区","address":"東京都足立区梅田6丁目9-11","lat":35.76626495,"lon":139.79835457},{"name":"肥後商店","province":"東京都","city":"足立区","address":"東京都足立区千住大川町48-1","lat":35.75524685,"lon":139.79563327},{"name":"北千住駅入口","province":"東京都","city":"足立区","address":"東京都足立区千住寿町31-10","lat":35.75350276,"lon":139.79971364},{"name":"千住宮元町","province":"東京都","city":"足立区","address":"東京都足立区千住河原町10-7","lat":35.74408741,"lon":139.79795904},{"name":"千住寿町","province":"東京都","city":"足立区","address":"東京都足立区千住寿町33-11","lat":35.7533167,"lon":139.8004997},{"name":"千住警察署入口","province":"東京都","city":"足立区","address":"東京都足立区千住緑町1丁目1-35","lat":35.74380682,"lon":139.79370944},{"name":"北千住駅前通り","province":"東京都","city":"足立区","address":"東京都足立区千住2丁目58","lat":35.75036999,"lon":139.80322753},{"name":"千住五丁目","province":"東京都","city":"足立区","address":"東京都足立区千住4丁目10-3","lat":35.75463044,"lon":139.80160506},{"name":"千住関屋町","province":"東京都","city":"足立区","address":"東京都足立区千住東1丁目7-11","lat":35.7433933,"lon":139.80485865},{"name":"北千住駅西口","province":"東京都","city":"足立区","address":"東京都足立区千住2丁目59","lat":35.75018115,"lon":139.80373306},{"name":"東京藝大前","province":"東京都","city":"足立区","address":"東京都足立区千住1丁目25-1","lat":35.74716488,"lon":139.80215014},{"name":"千住大橋駅前","province":"東京都","city":"足立区","address":"東京都足立区千住橋戸町11","lat":35.74247922,"lon":139.79727028},{"name":"足立郵便局前","province":"東京都","city":"足立区","address":"東京都足立区千住曙町2-2","lat":35.74404065,"lon":139.81164137},{"name":"千寿桜堤中学校前","province":"東京都","city":"足立区","address":"東京都足立区柳原2丁目54","lat":35.75017578,"lon":139.81243782},{"name":"島根","province":"東京都","city":"足立区","address":"東京都足立区梅島3丁目43-16","lat":35.77835795,"lon":139.79742631},{"name":"梅島","province":"東京都","city":"足立区","address":"東京都足立区梅田7丁目25-2","lat":35.76909805,"lon":139.80328733},{"name":"梅田支所前","province":"東京都","city":"足立区","address":"東京都足立区梅田6丁目33-6","lat":35.77037275,"lon":139.7973711},{"name":"西新井第二小学校入口","province":"東京都","city":"足立区","address":"東京都足立区西新井3丁目17","lat":35.78915063,"lon":139.77988569},{"name":"梅島一丁目","province":"東京都","city":"足立区","address":"東京都足立区梅島1丁目13-17","lat":35.77283361,"lon":139.79849035},{"name":"梅島駅前","province":"東京都","city":"足立区","address":"東京都足立区梅島3丁目1-7","lat":35.77295301,"lon":139.79737377},{"name":"梅島小学校前","province":"東京都","city":"足立区","address":"東京都足立区梅田8丁目2-14","lat":35.77176426,"lon":139.79740715},{"name":"梅田七丁目交番前","province":"東京都","city":"足立区","address":"東京都足立区梅田7丁目17-6","lat":35.76982006,"lon":139.79784887},{"name":"島根第二","province":"東京都","city":"足立区","address":"東京都足立区梅島2丁目20-6","lat":35.77701088,"lon":139.79776245},{"name":"栗原二丁目","province":"東京都","city":"足立区","address":"東京都足立区栗原2丁目7","lat":35.7818767,"lon":139.78727978},{"name":"谷在家二丁目","province":"東京都","city":"足立区","address":"東京都足立区谷在家2丁目19-7","lat":35.78508408,"lon":139.76949507},{"name":"島根郵便局前","province":"東京都","city":"足立区","address":"東京都足立区島根4丁目1-9","lat":35.78222139,"lon":139.79710118},{"name":"日光街道梅島一丁目","province":"東京都","city":"足立区","address":"東京都足立区梅島1丁目24-1","lat":35.77185884,"lon":139.80321776},{"name":"江北六丁目団地東","province":"東京都","city":"足立区","address":"東京都足立区西新井7丁目11","lat":35.77999584,"lon":139.77055907},{"name":"梅島二丁目","province":"東京都","city":"足立区","address":"東京都足立区梅島2丁目28-20","lat":35.77706378,"lon":139.80296201},{"name":"足立四中前","province":"東京都","city":"足立区","address":"東京都足立区梅島1丁目24-8","lat":35.77188936,"lon":139.80194287},{"name":"西新井一丁目第二","province":"東京都","city":"足立区","address":"東京都足立区西新井1丁目6-5","lat":35.77819079,"lon":139.77995832},{"name":"梅田七丁目公園前","province":"東京都","city":"足立区","address":"東京都足立区梅田7丁目28-9","lat":35.77019506,"lon":139.79988756},{"name":"梅島北","province":"東京都","city":"足立区","address":"東京都足立区梅島1丁目2-39","lat":35.77044789,"lon":139.80319838},{"name":"江北団地入口","province":"東京都","city":"足立区","address":"東京都足立区江北6丁目27-5","lat":35.78285376,"lon":139.76799253},{"name":"足立区役所南","province":"東京都","city":"足立区","address":"東京都足立区梅島1丁目26-24","lat":35.77358364,"lon":139.80305104},{"name":"日光街道平野二丁目","province":"東京都","city":"足立区","address":"東京都足立区平野2丁目1-10","lat":35.78290759,"lon":139.80322565},{"name":"足立中央本町庁舎前","province":"東京都","city":"足立区","address":"東京都足立区中央本町1丁目17-1","lat":35.77489463,"lon":139.80457862},{"name":"上沼田第六公園","province":"東京都","city":"足立区","address":"東京都足立区江北4丁目15","lat":35.77295766,"lon":139.76524596},{"name":"大谷田橋","province":"東京都","city":"足立区","address":"東京都足立区東和4丁目24-10","lat":35.77572004,"lon":139.84322258},{"name":"青井五丁目","province":"東京都","city":"足立区","address":"東京都足立区一ツ家4丁目1-22","lat":35.77878051,"lon":139.81618582},{"name":"東栗原町","province":"東京都","city":"足立区","address":"東京都足立区一ツ家1丁目2-8","lat":35.77913039,"lon":139.81058906},{"name":"末広","province":"東京都","city":"足立区","address":"東京都足立区中央本町2丁目24-1","lat":35.76744281,"lon":139.80768149},{"name":"六町駅南","province":"東京都","city":"足立区","address":"東京都足立区六町4丁目1","lat":35.7849243,"lon":139.82121574},{"name":"中川四丁目西","province":"東京都","city":"足立区","address":"東京都足立区中川4丁目24-8","lat":35.77008747,"lon":139.84652524},{"name":"綾瀬駅東口","province":"東京都","city":"足立区","address":"東京都足立区綾瀬3丁目4","lat":35.76297143,"lon":139.82570503},{"name":"辰沼団地北","province":"東京都","city":"足立区","address":"東京都足立区辰沼1丁目2","lat":35.78517432,"lon":139.83540348},{"name":"北綾瀬駅前","province":"東京都","city":"足立区","address":"東京都足立区谷中4丁目9-22","lat":35.77762527,"lon":139.83244283},{"name":"中央本町二丁目","province":"東京都","city":"足立区","address":"東京都足立区中央本町2丁目21-6","lat":35.76885378,"lon":139.80902019},{"name":"東京武道館南","province":"東京都","city":"足立区","address":"東京都足立区綾瀬3丁目15-5","lat":35.76415461,"lon":139.82546335},{"name":"六町駅前","province":"東京都","city":"足立区","address":"東京都足立区六町4丁目2-27","lat":35.78554923,"lon":139.82157958},{"name":"竹の塚駅西","province":"東京都","city":"足立区","address":"東京都足立区西竹の塚2丁目2-3","lat":35.7942976,"lon":139.78996244},{"name":"西竹の塚一丁目","province":"東京都","city":"足立区","address":"東京都足立区伊興3丁目17-29","lat":35.79436697,"lon":139.7877904},{"name":"竹ノ塚駅前","province":"東京都","city":"足立区","address":"東京都足立区竹の塚1丁目41-1","lat":35.79371994,"lon":139.79149845},{"name":"竹ノ塚駅東","province":"東京都","city":"足立区","address":"東京都足立区竹の塚1丁目39-14","lat":35.79345333,"lon":139.79216507},{"name":"舎人公園","province":"東京都","city":"足立区","address":"東京都足立区古千谷本町4丁目1-18","lat":35.80559315,"lon":139.78273212},{"name":"足立老人ホーム前","province":"東京都","city":"足立区","address":"東京都足立区花畑3丁目33-19","lat":35.80514695,"lon":139.81076598},{"name":"花畑町団地中央","province":"東京都","city":"足立区","address":"東京都足立区花畑5丁目12","lat":35.80699954,"lon":139.80992711},{"name":"竹の塚警察署前","province":"東京都","city":"足立区","address":"東京都足立区保木間1丁目16-4","lat":35.79099557,"lon":139.80305315},{"name":"板橋給水所","province":"東京都","city":"足立区","address":"東京都足立区加賀1丁目17-1","lat":35.78938603,"lon":139.75898755},{"name":"小右衛門給水所","province":"東京都","city":"足立区","address":"東京都足立区中央本町3丁目8-1","lat":35.77219224,"lon":139.80734518},{"name":"区総合スポーツセンター","province":"東京都","city":"足立区","address":"東京都足立区東保木間2丁目27-1","lat":35.79222061,"lon":139.81364669},{"name":"区立千住スポーツ公園","province":"東京都","city":"足立区","address":"東京都足立区千住緑町2丁目1-1","lat":35.74518999,"lon":139.79567026},{"name":"区立諏訪木東公園","province":"東京都","city":"足立区","address":"東京都足立区西新井3丁目25","lat":35.78998665,"lon":139.77999121},{"name":"区立大谷田南公園","province":"東京都","city":"足立区","address":"東京都足立区中川4丁目42-1","lat":35.7717206,"lon":139.84821396},{"name":"区立北鹿浜公園","province":"東京都","city":"足立区","address":"東京都足立区鹿浜3丁目26","lat":35.78240338,"lon":139.75411604},{"name":"都立舎人公園","province":"東京都","city":"足立区","address":"東京都足立区舎人公園1-1","lat":35.79709935,"lon":139.76835863},{"name":"芦川巌葬儀社（有）","province":"東京都","city":"足立区","address":"東京都足立区南花畑3丁目19-26","lat":35.79043476,"lon":139.82729009},{"name":"(株)芦川花環葬儀社","province":"東京都","city":"足立区","address":"東京都足立区六月1丁目11-7","lat":35.78575436,"lon":139.7978732},{"name":"東葬儀社（株）","province":"東京都","city":"足立区","address":"東京都足立区関原2丁目1-26","lat":35.76501765,"lon":139.79095522},{"name":"（有）稲垣葬儀社本店","province":"東京都","city":"足立区","address":"東京都足立区千住仲町19-3","lat":35.74632333,"lon":139.80160027},{"name":"牛込葬儀社","province":"東京都","city":"足立区","address":"東京都足立区梅田2丁目16-18","lat":35.76517906,"lon":139.80205154},{"name":"エンドウセレモニー(有)","province":"東京都","city":"足立区","address":"東京都足立区鹿浜3丁目9-8","lat":35.77993983,"lon":139.75464662},{"name":"(株)小川由雄商店","province":"東京都","city":"足立区","address":"東京都足立区西新井本町1丁目15-14","lat":35.77769645,"lon":139.78180264},{"name":"(有)小澤葬儀社","province":"東京都","city":"足立区","address":"東京都足立区入谷4丁目10-24","lat":35.80593975,"lon":139.76093121},{"name":"(有)梶商店","province":"東京都","city":"足立区","address":"東京都足立区千住桜木1丁目9-2","lat":35.75061689,"lon":139.79406987},{"name":"(有)熊川式典総合サービス","province":"東京都","city":"足立区","address":"東京都足立区本木1丁目1-9","lat":35.76117076,"lon":139.78756679},{"name":"溜屋近藤商店(株)","province":"東京都","city":"足立区","address":"東京都足立区千住5丁目18-10","lat":35.75488048,"lon":139.80429093},{"name":"（有）根岸商店","province":"東京都","city":"足立区","address":"東京都足立区梅田6丁目9-11","lat":35.76626495,"lon":139.79835457},{"name":"肥後商店","province":"東京都","city":"足立区","address":"東京都足立区千住大川町48-1","lat":35.75524685,"lon":139.79563327},{"name":"北千住駅入口","province":"東京都","city":"足立区","address":"東京都足立区千住寿町31-10","lat":35.75350276,"lon":139.79971364},{"name":"千住宮元町","province":"東京都","city":"足立区","address":"東京都足立区千住河原町10-7","lat":35.74408741,"lon":139.79795904},{"name":"千住寿町","province":"東京都","city":"足立区","address":"東京都足立区千住寿町33-11","lat":35.7533167,"lon":139.8004997},{"name":"千住警察署入口","province":"東京都","city":"足立区","address":"東京都足立区千住緑町1丁目1-35","lat":35.74380682,"lon":139.79370944},{"name":"北千住駅前通り","province":"東京都","city":"足立区","address":"東京都足立区千住2丁目58","lat":35.75036999,"lon":139.80322753},{"name":"千住五丁目","province":"東京都","city":"足立区","address":"東京都足立区千住4丁目10-3","lat":35.75463044,"lon":139.80160506},{"name":"千住関屋町","province":"東京都","city":"足立区","address":"東京都足立区千住東1丁目7-11","lat":35.7433933,"lon":139.80485865},{"name":"北千住駅西口","province":"東京都","city":"足立区","address":"東京都足立区千住2丁目59","lat":35.75018115,"lon":139.80373306},{"name":"東京藝大前","province":"東京都","city":"足立区","address":"東京都足立区千住1丁目25-1","lat":35.74716488,"lon":139.80215014},{"name":"千住大橋駅前","province":"東京都","city":"足立区","address":"東京都足立区千住橋戸町11","lat":35.74247922,"lon":139.79727028},{"name":"足立郵便局前","province":"東京都","city":"足立区","address":"東京都足立区千住曙町2-2","lat":35.74404065,"lon":139.81164137},{"name":"千寿桜堤中学校前","province":"東京都","city":"足立区","address":"東京都足立区柳原2丁目54","lat":35.75017578,"lon":139.81243782},{"name":"島根","province":"東京都","city":"足立区","address":"東京都足立区梅島3丁目43-16","lat":35.77835795,"lon":139.79742631},{"name":"梅島","province":"東京都","city":"足立区","address":"東京都足立区梅田7丁目25-2","lat":35.76909805,"lon":139.80328733},{"name":"梅田支所前","province":"東京都","city":"足立区","address":"東京都足立区梅田6丁目33-6","lat":35.77037275,"lon":139.7973711},{"name":"西新井第二小学校入口","province":"東京都","city":"足立区","address":"東京都足立区西新井3丁目17","lat":35.78915063,"lon":139.77988569},{"name":"梅島一丁目","province":"東京都","city":"足立区","address":"東京都足立区梅島1丁目13-17","lat":35.77283361,"lon":139.79849035},{"name":"梅島駅前","province":"東京都","city":"足立区","address":"東京都足立区梅島3丁目1-7","lat":35.77295301,"lon":139.79737377},{"name":"梅島小学校前","province":"東京都","city":"足立区","address":"東京都足立区梅田8丁目2-14","lat":35.77176426,"lon":139.79740715},{"name":"梅田七丁目交番前","province":"東京都","city":"足立区","address":"東京都足立区梅田7丁目17-6","lat":35.76982006,"lon":139.79784887},{"name":"島根第二","province":"東京都","city":"足立区","address":"東京都足立区梅島2丁目20-6","lat":35.77701088,"lon":139.79776245},{"name":"栗原二丁目","province":"東京都","city":"足立区","address":"東京都足立区栗原2丁目7","lat":35.7818767,"lon":139.78727978},{"name":"谷在家二丁目","province":"東京都","city":"足立区","address":"東京都足立区谷在家2丁目19-7","lat":35.78508408,"lon":139.76949507},{"name":"島根郵便局前","province":"東京都","city":"足立区","address":"東京都足立区島根4丁目1-9","lat":35.78222139,"lon":139.79710118},{"name":"日光街道梅島一丁目","province":"東京都","city":"足立区","address":"東京都足立区梅島1丁目24-1","lat":35.77185884,"lon":139.80321776},{"name":"江北六丁目団地東","province":"東京都","city":"足立区","address":"東京都足立区西新井7丁目11","lat":35.77999584,"lon":139.77055907},{"name":"梅島二丁目","province":"東京都","city":"足立区","address":"東京都足立区梅島2丁目28-20","lat":35.77706378,"lon":139.80296201},{"name":"足立四中前","province":"東京都","city":"足立区","address":"東京都足立区梅島1丁目24-8","lat":35.77188936,"lon":139.80194287},{"name":"西新井一丁目第二","province":"東京都","city":"足立区","address":"東京都足立区西新井1丁目6-5","lat":35.77819079,"lon":139.77995832},{"name":"梅田七丁目公園前","province":"東京都","city":"足立区","address":"東京都足立区梅田7丁目28-9","lat":35.77019506,"lon":139.79988756},{"name":"梅島北","province":"東京都","city":"足立区","address":"東京都足立区梅島1丁目2-39","lat":35.77044789,"lon":139.80319838},{"name":"江北団地入口","province":"東京都","city":"足立区","address":"東京都足立区江北6丁目27-5","lat":35.78285376,"lon":139.76799253},{"name":"足立区役所南","province":"東京都","city":"足立区","address":"東京都足立区梅島1丁目26-24","lat":35.77358364,"lon":139.80305104},{"name":"日光街道平野二丁目","province":"東京都","city":"足立区","address":"東京都足立区平野2丁目1-10","lat":35.78290759,"lon":139.80322565},{"name":"足立中央本町庁舎前","province":"東京都","city":"足立区","address":"東京都足立区中央本町1丁目17-1","lat":35.77489463,"lon":139.80457862},{"name":"上沼田第六公園","province":"東京都","city":"足立区","address":"東京都足立区江北4丁目15","lat":35.77295766,"lon":139.76524596},{"name":"大谷田橋","province":"東京都","city":"足立区","address":"東京都足立区東和4丁目24-10","lat":35.77572004,"lon":139.84322258},{"name":"青井五丁目","province":"東京都","city":"足立区","address":"東京都足立区一ツ家4丁目1-22","lat":35.77878051,"lon":139.81618582},{"name":"東栗原町","province":"東京都","city":"足立区","address":"東京都足立区一ツ家1丁目2-8","lat":35.77913039,"lon":139.81058906},{"name":"末広","province":"東京都","city":"足立区","address":"東京都足立区中央本町2丁目24-1","lat":35.76744281,"lon":139.80768149},{"name":"六町駅南","province":"東京都","city":"足立区","address":"東京都足立区六町4丁目1","lat":35.7849243,"lon":139.82121574},{"name":"中川四丁目西","province":"東京都","city":"足立区","address":"東京都足立区中川4丁目24-8","lat":35.77008747,"lon":139.84652524},{"name":"綾瀬駅東口","province":"東京都","city":"足立区","address":"東京都足立区綾瀬3丁目4","lat":35.76297143,"lon":139.82570503},{"name":"辰沼団地北","province":"東京都","city":"足立区","address":"東京都足立区辰沼1丁目2","lat":35.78517432,"lon":139.83540348},{"name":"北綾瀬駅前","province":"東京都","city":"足立区","address":"東京都足立区谷中4丁目9-22","lat":35.77762527,"lon":139.83244283},{"name":"中央本町二丁目","province":"東京都","city":"足立区","address":"東京都足立区中央本町2丁目21-6","lat":35.76885378,"lon":139.80902019},{"name":"東京武道館南","province":"東京都","city":"足立区","address":"東京都足立区綾瀬3丁目15-5","lat":35.76415461,"lon":139.82546335},{"name":"六町駅前","province":"東京都","city":"足立区","address":"東京都足立区六町4丁目2-27","lat":35.78554923,"lon":139.82157958},{"name":"竹の塚駅西","province":"東京都","city":"足立区","address":"東京都足立区西竹の塚2丁目2-3","lat":35.7942976,"lon":139.78996244},{"name":"西竹の塚一丁目","province":"東京都","city":"足立区","address":"東京都足立区伊興3丁目17-29","lat":35.79436697,"lon":139.7877904},{"name":"竹ノ塚駅前","province":"東京都","city":"足立区","address":"東京都足立区竹の塚1丁目41-1","lat":35.79371994,"lon":139.79149845},{"name":"竹ノ塚駅東","province":"東京都","city":"足立区","address":"東京都足立区竹の塚1丁目39-14","lat":35.79345333,"lon":139.79216507},{"name":"舎人公園","province":"東京都","city":"足立区","address":"東京都足立区古千谷本町4丁目1-18","lat":35.80559315,"lon":139.78273212},{"name":"足立老人ホーム前","province":"東京都","city":"足立区","address":"東京都足立区花畑3丁目33-19","lat":35.80514695,"lon":139.81076598},{"name":"花畑町団地中央","province":"東京都","city":"足立区","address":"東京都足立区花畑5丁目12","lat":35.80699954,"lon":139.80992711},{"name":"竹の塚警察署前","province":"東京都","city":"足立区","address":"東京都足立区保木間1丁目16-4","lat":35.79099557,"lon":139.80305315},{"name":"板橋給水所","province":"東京都","city":"足立区","address":"東京都足立区加賀1丁目17-1","lat":35.78938603,"lon":139.75898755},{"name":"小右衛門給水所","province":"東京都","city":"足立区","address":"東京都足立区中央本町3丁目8-1","lat":35.77219224,"lon":139.80734518},{"name":"区総合スポーツセンター","province":"東京都","city":"足立区","address":"東京都足立区東保木間2丁目27-1","lat":35.79222061,"lon":139.81364669},{"name":"区立千住スポーツ公園","province":"東京都","city":"足立区","address":"東京都足立区千住緑町2丁目1-1","lat":35.74518999,"lon":139.79567026},{"name":"区立諏訪木東公園","province":"東京都","city":"足立区","address":"東京都足立区西新井3丁目25","lat":35.78998665,"lon":139.77999121},{"name":"区立大谷田南公園","province":"東京都","city":"足立区","address":"東京都足立区中川4丁目42-1","lat":35.7717206,"lon":139.84821396},{"name":"区立北鹿浜公園","province":"東京都","city":"足立区","address":"東京都足立区鹿浜3丁目26","lat":35.78240338,"lon":139.75411604},{"name":"都立舎人公園","province":"東京都","city":"足立区","address":"東京都足立区舎人公園1-1","lat":35.79709935,"lon":139.76835863},{"name":"芦川巌葬儀社（有）","province":"東京都","city":"足立区","address":"東京都足立区南花畑3丁目19-26","lat":35.79043476,"lon":139.82729009},{"name":"(株)芦川花環葬儀社","province":"東京都","city":"足立区","address":"東京都足立区六月1丁目11-7","lat":35.78575436,"lon":139.7978732},{"name":"東葬儀社（株）","province":"東京都","city":"足立区","address":"東京都足立区関原2丁目1-26","lat":35.76501765,"lon":139.79095522},{"name":"（有）稲垣葬儀社本店","province":"東京都","city":"足立区","address":"東京都足立区千住仲町19-3","lat":35.74632333,"lon":139.80160027},{"name":"牛込葬儀社","province":"東京都","city":"足立区","address":"東京都足立区梅田2丁目16-18","lat":35.76517906,"lon":139.80205154},{"name":"エンドウセレモニー(有)","province":"東京都","city":"足立区","address":"東京都足立区鹿浜3丁目9-8","lat":35.77993983,"lon":139.75464662},{"name":"(株)小川由雄商店","province":"東京都","city":"足立区","address":"東京都足立区西新井本町1丁目15-14","lat":35.77769645,"lon":139.78180264},{"name":"(有)小澤葬儀社","province":"東京都","city":"足立区","address":"東京都足立区入谷4丁目10-24","lat":35.80593975,"lon":139.76093121},{"name":"(有)梶商店","province":"東京都","city":"足立区","address":"東京都足立区千住桜木1丁目9-2","lat":35.75061689,"lon":139.79406987},{"name":"(有)熊川式典総合サービス","province":"東京都","city":"足立区","address":"東京都足立区本木1丁目1-9","lat":35.76117076,"lon":139.78756679},{"name":"溜屋近藤商店(株)","province":"東京都","city":"足立区","address":"東京都足立区千住5丁目18-10","lat":35.75488048,"lon":139.80429093},{"name":"（有）根岸商店","province":"東京都","city":"足立区","address":"東京都足立区梅田6丁目9-11","lat":35.76626495,"lon":139.79835457},{"name":"肥後商店","province":"東京都","city":"足立区","address":"東京都足立区千住大川町48-1","lat":35.75524685,"lon":139.79563327},{"name":"北千住駅入口","province":"東京都","city":"足立区","address":"東京都足立区千住寿町31-10","lat":35.75350276,"lon":139.79971364},{"name":"千住宮元町","province":"東京都","city":"足立区","address":"東京都足立区千住河原町10-7","lat":35.74408741,"lon":139.79795904},{"name":"千住寿町","province":"東京都","city":"足立区","address":"東京都足立区千住寿町33-11","lat":35.7533167,"lon":139.8004997},{"name":"千住警察署入口","province":"東京都","city":"足立区","address":"東京都足立区千住緑町1丁目1-35","lat":35.74380682,"lon":139.79370944},{"name":"北千住駅前通り","province":"東京都","city":"足立区","address":"東京都足立区千住2丁目58","lat":35.75036999,"lon":139.80322753},{"name":"千住五丁目","province":"東京都","city":"足立区","address":"東京都足立区千住4丁目10-3","lat":35.75463044,"lon":139.80160506},{"name":"千住関屋町","province":"東京都","city":"足立区","address":"東京都足立区千住東1丁目7-11","lat":35.7433933,"lon":139.80485865},{"name":"北千住駅西口","province":"東京都","city":"足立区","address":"東京都足立区千住2丁目59","lat":35.75018115,"lon":139.80373306},{"name":"東京藝大前","province":"東京都","city":"足立区","address":"東京都足立区千住1丁目25-1","lat":35.74716488,"lon":139.80215014},{"name":"千住大橋駅前","province":"東京都","city":"足立区","address":"東京都足立区千住橋戸町11","lat":35.74247922,"lon":139.79727028},{"name":"足立郵便局前","province":"東京都","city":"足立区","address":"東京都足立区千住曙町2-2","lat":35.74404065,"lon":139.81164137},{"name":"千寿桜堤中学校前","province":"東京都","city":"足立区","address":"東京都足立区柳原2丁目54","lat":35.75017578,"lon":139.81243782},{"name":"島根","province":"東京都","city":"足立区","address":"東京都足立区梅島3丁目43-16","lat":35.77835795,"lon":139.79742631},{"name":"梅島","province":"東京都","city":"足立区","address":"東京都足立区梅田7丁目25-2","lat":35.76909805,"lon":139.80328733},{"name":"梅田支所前","province":"東京都","city":"足立区","address":"東京都足立区梅田6丁目33-6","lat":35.77037275,"lon":139.7973711},{"name":"西新井第二小学校入口","province":"東京都","city":"足立区","address":"東京都足立区西新井3丁目17","lat":35.78915063,"lon":139.77988569},{"name":"梅島一丁目","province":"東京都","city":"足立区","address":"東京都足立区梅島1丁目13-17","lat":35.77283361,"lon":139.79849035},{"name":"梅島駅前","province":"東京都","city":"足立区","address":"東京都足立区梅島3丁目1-7","lat":35.77295301,"lon":139.79737377},{"name":"梅島小学校前","province":"東京都","city":"足立区","address":"東京都足立区梅田8丁目2-14","lat":35.77176426,"lon":139.79740715},{"name":"梅田七丁目交番前","province":"東京都","city":"足立区","address":"東京都足立区梅田7丁目17-6","lat":35.76982006,"lon":139.79784887},{"name":"島根第二","province":"東京都","city":"足立区","address":"東京都足立区梅島2丁目20-6","lat":35.77701088,"lon":139.79776245},{"name":"栗原二丁目","province":"東京都","city":"足立区","address":"東京都足立区栗原2丁目7","lat":35.7818767,"lon":139.78727978},{"name":"谷在家二丁目","province":"東京都","city":"足立区","address":"東京都足立区谷在家2丁目19-7","lat":35.78508408,"lon":139.76949507},{"name":"島根郵便局前","province":"東京都","city":"足立区","address":"東京都足立区島根4丁目1-9","lat":35.78222139,"lon":139.79710118},{"name":"日光街道梅島一丁目","province":"東京都","city":"足立区","address":"東京都足立区梅島1丁目24-1","lat":35.77185884,"lon":139.80321776},{"name":"江北六丁目団地東","province":"東京都","city":"足立区","address":"東京都足立区西新井7丁目11","lat":35.77999584,"lon":139.77055907},{"name":"梅島二丁目","province":"東京都","city":"足立区","address":"東京都足立区梅島2丁目28-20","lat":35.77706378,"lon":139.80296201},{"name":"足立四中前","province":"東京都","city":"足立区","address":"東京都足立区梅島1丁目24-8","lat":35.77188936,"lon":139.80194287},{"name":"西新井一丁目第二","province":"東京都","city":"足立区","address":"東京都足立区西新井1丁目6-5","lat":35.77819079,"lon":139.77995832},{"name":"梅田七丁目公園前","province":"東京都","city":"足立区","address":"東京都足立区梅田7丁目28-9","lat":35.77019506,"lon":139.79988756},{"name":"梅島北","province":"東京都","city":"足立区","address":"東京都足立区梅島1丁目2-39","lat":35.77044789,"lon":139.80319838},{"name":"江北団地入口","province":"東京都","city":"足立区","address":"東京都足立区江北6丁目27-5","lat":35.78285376,"lon":139.76799253},{"name":"足立区役所南","province":"東京都","city":"足立区","address":"東京都足立区梅島1丁目26-24","lat":35.77358364,"lon":139.80305104},{"name":"日光街道平野二丁目","province":"東京都","city":"足立区","address":"東京都足立区平野2丁目1-10","lat":35.78290759,"lon":139.80322565},{"name":"足立中央本町庁舎前","province":"東京都","city":"足立区","address":"東京都足立区中央本町1丁目17-1","lat":35.77489463,"lon":139.80457862},{"name":"上沼田第六公園","province":"東京都","city":"足立区","address":"東京都足立区江北4丁目15","lat":35.77295766,"lon":139.76524596},{"name":"大谷田橋","province":"東京都","city":"足立区","address":"東京都足立区東和4丁目24-10","lat":35.77572004,"lon":139.84322258},{"name":"青井五丁目","province":"東京都","city":"足立区","address":"東京都足立区一ツ家4丁目1-22","lat":35.77878051,"lon":139.81618582},{"name":"東栗原町","province":"東京都","city":"足立区","address":"東京都足立区一ツ家1丁目2-8","lat":35.77913039,"lon":139.81058906},{"name":"末広","province":"東京都","city":"足立区","address":"東京都足立区中央本町2丁目24-1","lat":35.76744281,"lon":139.80768149},{"name":"六町駅南","province":"東京都","city":"足立区","address":"東京都足立区六町4丁目1","lat":35.7849243,"lon":139.82121574},{"name":"中川四丁目西","province":"東京都","city":"足立区","address":"東京都足立区中川4丁目24-8","lat":35.77008747,"lon":139.84652524},{"name":"綾瀬駅東口","province":"東京都","city":"足立区","address":"東京都足立区綾瀬3丁目4","lat":35.76297143,"lon":139.82570503},{"name":"辰沼団地北","province":"東京都","city":"足立区","address":"東京都足立区辰沼1丁目2","lat":35.78517432,"lon":139.83540348},{"name":"北綾瀬駅前","province":"東京都","city":"足立区","address":"東京都足立区谷中4丁目9-22","lat":35.77762527,"lon":139.83244283},{"name":"中央本町二丁目","province":"東京都","city":"足立区","address":"東京都足立区中央本町2丁目21-6","lat":35.76885378,"lon":139.80902019},{"name":"東京武道館南","province":"東京都","city":"足立区","address":"東京都足立区綾瀬3丁目15-5","lat":35.76415461,"lon":139.82546335},{"name":"六町駅前","province":"東京都","city":"足立区","address":"東京都足立区六町4丁目2-27","lat":35.78554923,"lon":139.82157958},{"name":"竹の塚駅西","province":"東京都","city":"足立区","address":"東京都足立区西竹の塚2丁目2-3","lat":35.7942976,"lon":139.78996244},{"name":"西竹の塚一丁目","province":"東京都","city":"足立区","address":"東京都足立区伊興3丁目17-29","lat":35.79436697,"lon":139.7877904},{"name":"竹ノ塚駅前","province":"東京都","city":"足立区","address":"東京都足立区竹の塚1丁目41-1","lat":35.79371994,"lon":139.79149845},{"name":"竹ノ塚駅東","province":"東京都","city":"足立区","address":"東京都足立区竹の塚1丁目39-14","lat":35.79345333,"lon":139.79216507},{"name":"舎人公園","province":"東京都","city":"足立区","address":"東京都足立区古千谷本町4丁目1-18","lat":35.80559315,"lon":139.78273212},{"name":"足立老人ホーム前","province":"東京都","city":"足立区","address":"東京都足立区花畑3丁目33-19","lat":35.80514695,"lon":139.81076598},{"name":"花畑町団地中央","province":"東京都","city":"足立区","address":"東京都足立区花畑5丁目12","lat":35.80699954,"lon":139.80992711},{"name":"竹の塚警察署前","province":"東京都","city":"足立区","address":"東京都足立区保木間1丁目16-4","lat":35.79099557,"lon":139.80305315},{"name":"板橋給水所","province":"東京都","city":"足立区","address":"東京都足立区加賀1丁目17-1","lat":35.78938603,"lon":139.75898755},{"name":"小右衛門給水所","province":"東京都","city":"足立区","address":"東京都足立区中央本町3丁目8-1","lat":35.77219224,"lon":139.80734518},{"name":"区総合スポーツセンター","province":"東京都","city":"足立区","address":"東京都足立区東保木間2丁目27-1","lat":35.79222061,"lon":139.81364669},{"name":"区立千住スポーツ公園","province":"東京都","city":"足立区","address":"東京都足立区千住緑町2丁目1-1","lat":35.74518999,"lon":139.79567026},{"name":"区立諏訪木東公園","province":"東京都","city":"足立区","address":"東京都足立区西新井3丁目25","lat":35.78998665,"lon":139.77999121},{"name":"区立大谷田南公園","province":"東京都","city":"足立区","address":"東京都足立区中川4丁目42-1","lat":35.7717206,"lon":139.84821396},{"name":"区立北鹿浜公園","province":"東京都","city":"足立区","address":"東京都足立区鹿浜3丁目26","lat":35.78240338,"lon":139.75411604},{"name":"都立舎人公園","province":"東京都","city":"足立区","address":"東京都足立区舎人公園1-1","lat":35.79709935,"lon":139.76835863},{"name":"芦川巌葬儀社（有）","province":"東京都","city":"足立区","address":"東京都足立区南花畑3丁目19-26","lat":35.79043476,"lon":139.82729009},{"name":"(株)芦川花環葬儀社","province":"東京都","city":"足立区","address":"東京都足立区六月1丁目11-7","lat":35.78575436,"lon":139.7978732},{"name":"東葬儀社（株）","province":"東京都","city":"足立区","address":"東京都足立区関原2丁目1-26","lat":35.76501765,"lon":139.79095522},{"name":"（有）稲垣葬儀社本店","province":"東京都","city":"足立区","address":"東京都足立区千住仲町19-3","lat":35.74632333,"lon":139.80160027},{"name":"牛込葬儀社","province":"東京都","city":"足立区","address":"東京都足立区梅田2丁目16-18","lat":35.76517906,"lon":139.80205154},{"name":"エンドウセレモニー(有)","province":"東京都","city":"足立区","address":"東京都足立区鹿浜3丁目9-8","lat":35.77993983,"lon":139.75464662},{"name":"(株)小川由雄商店","province":"東京都","city":"足立区","address":"東京都足立区西新井本町1丁目15-14","lat":35.77769645,"lon":139.78180264},{"name":"(有)小澤葬儀社","province":"東京都","city":"足立区","address":"東京都足立区入谷4丁目10-24","lat":35.80593975,"lon":139.76093121},{"name":"(有)梶商店","province":"東京都","city":"足立区","address":"東京都足立区千住桜木1丁目9-2","lat":35.75061689,"lon":139.79406987},{"name":"(有)熊川式典総合サービス","province":"東京都","city":"足立区","address":"東京都足立区本木1丁目1-9","lat":35.76117076,"lon":139.78756679},{"name":"溜屋近藤商店(株)","province":"東京都","city":"足立区","address":"東京都足立区千住5丁目18-10","lat":35.75488048,"lon":139.80429093},{"name":"（有）根岸商店","province":"東京都","city":"足立区","address":"東京都足立区梅田6丁目9-11","lat":35.76626495,"lon":139.79835457},{"name":"肥後商店","province":"東京都","city":"足立区","address":"東京都足立区千住大川町48-1","lat":35.75524685,"lon":139.79563327},{"name":"北千住駅入口","province":"東京都","city":"足立区","address":"東京都足立区千住寿町31-10","lat":35.75350276,"lon":139.79971364},{"name":"千住宮元町","province":"東京都","city":"足立区","address":"東京都足立区千住河原町10-7","lat":35.74408741,"lon":139.79795904},{"name":"千住寿町","province":"東京都","city":"足立区","address":"東京都足立区千住寿町33-11","lat":35.7533167,"lon":139.8004997},{"name":"千住警察署入口","province":"東京都","city":"足立区","address":"東京都足立区千住緑町1丁目1-35","lat":35.74380682,"lon":139.79370944},{"name":"北千住駅前通り","province":"東京都","city":"足立区","address":"東京都足立区千住2丁目58","lat":35.75036999,"lon":139.80322753},{"name":"千住五丁目","province":"東京都","city":"足立区","address":"東京都足立区千住4丁目10-3","lat":35.75463044,"lon":139.80160506},{"name":"千住関屋町","province":"東京都","city":"足立区","address":"東京都足立区千住東1丁目7-11","lat":35.7433933,"lon":139.80485865},{"name":"北千住駅西口","province":"東京都","city":"足立区","address":"東京都足立区千住2丁目59","lat":35.75018115,"lon":139.80373306},{"name":"東京藝大前","province":"東京都","city":"足立区","address":"東京都足立区千住1丁目25-1","lat":35.74716488,"lon":139.80215014},{"name":"千住大橋駅前","province":"東京都","city":"足立区","address":"東京都足立区千住橋戸町11","lat":35.74247922,"lon":139.79727028},{"name":"足立郵便局前","province":"東京都","city":"足立区","address":"東京都足立区千住曙町2-2","lat":35.74404065,"lon":139.81164137},{"name":"千寿桜堤中学校前","province":"東京都","city":"足立区","address":"東京都足立区柳原2丁目54","lat":35.75017578,"lon":139.81243782},{"name":"島根","province":"東京都","city":"足立区","address":"東京都足立区梅島3丁目43-16","lat":35.77835795,"lon":139.79742631},{"name":"梅島","province":"東京都","city":"足立区","address":"東京都足立区梅田7丁目25-2","lat":35.76909805,"lon":139.80328733},{"name":"梅田支所前","province":"東京都","city":"足立区","address":"東京都足立区梅田6丁目33-6","lat":35.77037275,"lon":139.7973711},{"name":"西新井第二小学校入口","province":"東京都","city":"足立区","address":"東京都足立区西新井3丁目17","lat":35.78915063,"lon":139.77988569},{"name":"梅島一丁目","province":"東京都","city":"足立区","address":"東京都足立区梅島1丁目13-17","lat":35.77283361,"lon":139.79849035},{"name":"梅島駅前","province":"東京都","city":"足立区","address":"東京都足立区梅島3丁目1-7","lat":35.77295301,"lon":139.79737377},{"name":"梅島小学校前","province":"東京都","city":"足立区","address":"東京都足立区梅田8丁目2-14","lat":35.77176426,"lon":139.79740715},{"name":"梅田七丁目交番前","province":"東京都","city":"足立区","address":"東京都足立区梅田7丁目17-6","lat":35.76982006,"lon":139.79784887},{"name":"島根第二","province":"東京都","city":"足立区","address":"東京都足立区梅島2丁目20-6","lat":35.77701088,"lon":139.79776245},{"name":"栗原二丁目","province":"東京都","city":"足立区","address":"東京都足立区栗原2丁目7","lat":35.7818767,"lon":139.78727978},{"name":"谷在家二丁目","province":"東京都","city":"足立区","address":"東京都足立区谷在家2丁目19-7","lat":35.78508408,"lon":139.76949507},{"name":"島根郵便局前","province":"東京都","city":"足立区","address":"東京都足立区島根4丁目1-9","lat":35.78222139,"lon":139.79710118},{"name":"日光街道梅島一丁目","province":"東京都","city":"足立区","address":"東京都足立区梅島1丁目24-1","lat":35.77185884,"lon":139.80321776},{"name":"江北六丁目団地東","province":"東京都","city":"足立区","address":"東京都足立区西新井7丁目11","lat":35.77999584,"lon":139.77055907},{"name":"梅島二丁目","province":"東京都","city":"足立区","address":"東京都足立区梅島2丁目28-20","lat":35.77706378,"lon":139.80296201},{"name":"足立四中前","province":"東京都","city":"足立区","address":"東京都足立区梅島1丁目24-8","lat":35.77188936,"lon":139.80194287},{"name":"西新井一丁目第二","province":"東京都","city":"足立区","address":"東京都足立区西新井1丁目6-5","lat":35.77819079,"lon":139.77995832},{"name":"梅田七丁目公園前","province":"東京都","city":"足立区","address":"東京都足立区梅田7丁目28-9","lat":35.77019506,"lon":139.79988756},{"name":"梅島北","province":"東京都","city":"足立区","address":"東京都足立区梅島1丁目2-39","lat":35.77044789,"lon":139.80319838},{"name":"江北団地入口","province":"東京都","city":"足立区","address":"東京都足立区江北6丁目27-5","lat":35.78285376,"lon":139.76799253},{"name":"足立区役所南","province":"東京都","city":"足立区","address":"東京都足立区梅島1丁目26-24","lat":35.77358364,"lon":139.80305104},{"name":"日光街道平野二丁目","province":"東京都","city":"足立区","address":"東京都足立区平野2丁目1-10","lat":35.78290759,"lon":139.80322565},{"name":"足立中央本町庁舎前","province":"東京都","city":"足立区","address":"東京都足立区中央本町1丁目17-1","lat":35.77489463,"lon":139.80457862},{"name":"上沼田第六公園","province":"東京都","city":"足立区","address":"東京都足立区江北4丁目15","lat":35.77295766,"lon":139.76524596},{"name":"大谷田橋","province":"東京都","city":"足立区","address":"東京都足立区東和4丁目24-10","lat":35.77572004,"lon":139.84322258},{"name":"青井五丁目","province":"東京都","city":"足立区","address":"東京都足立区一ツ家4丁目1-22","lat":35.77878051,"lon":139.81618582},{"name":"東栗原町","province":"東京都","city":"足立区","address":"東京都足立区一ツ家1丁目2-8","lat":35.77913039,"lon":139.81058906},{"name":"末広","province":"東京都","city":"足立区","address":"東京都足立区中央本町2丁目24-1","lat":35.76744281,"lon":139.80768149},{"name":"六町駅南","province":"東京都","city":"足立区","address":"東京都足立区六町4丁目1","lat":35.7849243,"lon":139.82121574},{"name":"中川四丁目西","province":"東京都","city":"足立区","address":"東京都足立区中川4丁目24-8","lat":35.77008747,"lon":139.84652524},{"name":"綾瀬駅東口","province":"東京都","city":"足立区","address":"東京都足立区綾瀬3丁目4","lat":35.76297143,"lon":139.82570503},{"name":"辰沼団地北","province":"東京都","city":"足立区","address":"東京都足立区辰沼1丁目2","lat":35.78517432,"lon":139.83540348},{"name":"北綾瀬駅前","province":"東京都","city":"足立区","address":"東京都足立区谷中4丁目9-22","lat":35.77762527,"lon":139.83244283},{"name":"中央本町二丁目","province":"東京都","city":"足立区","address":"東京都足立区中央本町2丁目21-6","lat":35.76885378,"lon":139.80902019},{"name":"東京武道館南","province":"東京都","city":"足立区","address":"東京都足立区綾瀬3丁目15-5","lat":35.76415461,"lon":139.82546335},{"name":"六町駅前","province":"東京都","city":"足立区","address":"東京都足立区六町4丁目2-27","lat":35.78554923,"lon":139.82157958},{"name":"竹の塚駅西","province":"東京都","city":"足立区","address":"東京都足立区西竹の塚2丁目2-3","lat":35.7942976,"lon":139.78996244},{"name":"西竹の塚一丁目","province":"東京都","city":"足立区","address":"東京都足立区伊興3丁目17-29","lat":35.79436697,"lon":139.7877904},{"name":"竹ノ塚駅前","province":"東京都","city":"足立区","address":"東京都足立区竹の塚1丁目41-1","lat":35.79371994,"lon":139.79149845},{"name":"竹ノ塚駅東","province":"東京都","city":"足立区","address":"東京都足立区竹の塚1丁目39-14","lat":35.79345333,"lon":139.79216507},{"name":"舎人公園","province":"東京都","city":"足立区","address":"東京都足立区古千谷本町4丁目1-18","lat":35.80559315,"lon":139.78273212},{"name":"足立老人ホーム前","province":"東京都","city":"足立区","address":"東京都足立区花畑3丁目33-19","lat":35.80514695,"lon":139.81076598},{"name":"花畑町団地中央","province":"東京都","city":"足立区","address":"東京都足立区花畑5丁目12","lat":35.80699954,"lon":139.80992711},{"name":"竹の塚警察署前","province":"東京都","city":"足立区","address":"東京都足立区保木間1丁目16-4","lat":35.79099557,"lon":139.80305315},{"name":"板橋給水所","province":"東京都","city":"足立区","address":"東京都足立区加賀1丁目17-1","lat":35.78938603,"lon":139.75898755},{"name":"小右衛門給水所","province":"東京都","city":"足立区","address":"東京都足立区中央本町3丁目8-1","lat":35.77219224,"lon":139.80734518},{"name":"区総合スポーツセンター","province":"東京都","city":"足立区","address":"東京都足立区東保木間2丁目27-1","lat":35.79222061,"lon":139.81364669},{"name":"区立千住スポーツ公園","province":"東京都","city":"足立区","address":"東京都足立区千住緑町2丁目1-1","lat":35.74518999,"lon":139.79567026},{"name":"区立諏訪木東公園","province":"東京都","city":"足立区","address":"東京都足立区西新井3丁目25","lat":35.78998665,"lon":139.77999121},{"name":"区立大谷田南公園","province":"東京都","city":"足立区","address":"東京都足立区中川4丁目42-1","lat":35.7717206,"lon":139.84821396},{"name":"区立北鹿浜公園","province":"東京都","city":"足立区","address":"東京都足立区鹿浜3丁目26","lat":35.78240338,"lon":139.75411604},{"name":"都立舎人公園","province":"東京都","city":"足立区","address":"東京都足立区舎人公園1-1","lat":35.79709935,"lon":139.76835863},{"name":"芦川巌葬儀社（有）","province":"東京都","city":"足立区","address":"東京都足立区南花畑3丁目19-26","lat":35.79043476,"lon":139.82729009},{"name":"(株)芦川花環葬儀社","province":"東京都","city":"足立区","address":"東京都足立区六月1丁目11-7","lat":35.78575436,"lon":139.7978732},{"name":"東葬儀社（株）","province":"東京都","city":"足立区","address":"東京都足立区関原2丁目1-26","lat":35.76501765,"lon":139.79095522},{"name":"（有）稲垣葬儀社本店","province":"東京都","city":"足立区","address":"東京都足立区千住仲町19-3","lat":35.74632333,"lon":139.80160027},{"name":"牛込葬儀社","province":"東京都","city":"足立区","address":"東京都足立区梅田2丁目16-18","lat":35.76517906,"lon":139.80205154},{"name":"エンドウセレモニー(有)","province":"東京都","city":"足立区","address":"東京都足立区鹿浜3丁目9-8","lat":35.77993983,"lon":139.75464662},{"name":"(株)小川由雄商店","province":"東京都","city":"足立区","address":"東京都足立区西新井本町1丁目15-14","lat":35.77769645,"lon":139.78180264},{"name":"(有)小澤葬儀社","province":"東京都","city":"足立区","address":"東京都足立区入谷4丁目10-24","lat":35.80593975,"lon":139.76093121},{"name":"(有)梶商店","province":"東京都","city":"足立区","address":"東京都足立区千住桜木1丁目9-2","lat":35.75061689,"lon":139.79406987},{"name":"(有)熊川式典総合サービス","province":"東京都","city":"足立区","address":"東京都足立区本木1丁目1-9","lat":35.76117076,"lon":139.78756679},{"name":"溜屋近藤商店(株)","province":"東京都","city":"足立区","address":"東京都足立区千住5丁目18-10","lat":35.75488048,"lon":139.80429093},{"name":"（有）根岸商店","province":"東京都","city":"足立区","address":"東京都足立区梅田6丁目9-11","lat":35.76626495,"lon":139.79835457},{"name":"肥後商店","province":"東京都","city":"足立区","address":"東京都足立区千住大川町48-1","lat":35.75524685,"lon":139.79563327},{"name":"芦川巌葬儀社（有）","province":"東京都","city":"足立区","address":"東京都足立区南花畑3丁目19-26","lat":35.79043476,"lon":139.82729009},{"name":"(株)芦川花環葬儀社","province":"東京都","city":"足立区","address":"東京都足立区六月1丁目11-7","lat":35.78575436,"lon":139.7978732},{"name":"東葬儀社（株）","province":"東京都","city":"足立区","address":"東京都足立区関原2丁目1-26","lat":35.76501765,"lon":139.79095522},{"name":"（有）稲垣葬儀社本店","province":"東京都","city":"足立区","address":"東京都足立区千住仲町19-3","lat":35.74632333,"lon":139.80160027},{"name":"牛込葬儀社","province":"東京都","city":"足立区","address":"東京都足立区梅田2丁目16-18","lat":35.76517906,"lon":139.80205154},{"name":"エンドウセレモニー(有)","province":"東京都","city":"足立区","address":"東京都足立区鹿浜3丁目9-8","lat":35.77993983,"lon":139.75464662},{"name":"(株)小川由雄商店","province":"東京都","city":"足立区","address":"東京都足立区西新井本町1丁目15-14","lat":35.77769645,"lon":139.78180264},{"name":"(有)小澤葬儀社","province":"東京都","city":"足立区","address":"東京都足立区入谷4丁目10-24","lat":35.80593975,"lon":139.76093121},{"name":"(有)梶商店","province":"東京都","city":"足立区","address":"東京都足立区千住桜木1丁目9-2","lat":35.75061689,"lon":139.79406987},{"name":"(有)熊川式典総合サービス","province":"東京都","city":"足立区","address":"東京都足立区本木1丁目1-9","lat":35.76117076,"lon":139.78756679},{"name":"溜屋近藤商店(株)","province":"東京都","city":"足立区","address":"東京都足立区千住5丁目18-10","lat":35.75488048,"lon":139.80429093},{"name":"（有）根岸商店","province":"東京都","city":"足立区","address":"東京都足立区梅田6丁目9-11","lat":35.76626495,"lon":139.79835457},{"name":"肥後商店","province":"東京都","city":"足立区","address":"東京都足立区千住大川町48-1","lat":35.75524685,"lon":139.79563327},{"name":"芦川巌葬儀社（有）","province":"東京都","city":"足立区","address":"東京都足立区南花畑3丁目19-26","lat":35.79043476,"lon":139.82729009},{"name":"(株)芦川花環葬儀社","province":"東京都","city":"足立区","address":"東京都足立区六月1丁目11-7","lat":35.78575436,"lon":139.7978732},{"name":"東葬儀社（株）","province":"東京都","city":"足立区","address":"東京都足立区関原2丁目1-26","lat":35.76501765,"lon":139.79095522},{"name":"（有）稲垣葬儀社本店","province":"東京都","city":"足立区","address":"東京都足立区千住仲町19-3","lat":35.74632333,"lon":139.80160027},{"name":"牛込葬儀社","province":"東京都","city":"足立区","address":"東京都足立区梅田2丁目16-18","lat":35.76517906,"lon":139.80205154},{"name":"エンドウセレモニー(有)","province":"東京都","city":"足立区","address":"東京都足立区鹿浜3丁目9-8","lat":35.77993983,"lon":139.75464662},{"name":"(株)小川由雄商店","province":"東京都","city":"足立区","address":"東京都足立区西新井本町1丁目15-14","lat":35.77769645,"lon":139.78180264},{"name":"(有)小澤葬儀社","province":"東京都","city":"足立区","address":"東京都足立区入谷4丁目10-24","lat":35.80593975,"lon":139.76093121},{"name":"(有)梶商店","province":"東京都","city":"足立区","address":"東京都足立区千住桜木1丁目9-2","lat":35.75061689,"lon":139.79406987},{"name":"(有)熊川式典総合サービス","province":"東京都","city":"足立区","address":"東京都足立区本木1丁目1-9","lat":35.76117076,"lon":139.78756679},{"name":"溜屋近藤商店(株)","province":"東京都","city":"足立区","address":"東京都足立区千住5丁目18-10","lat":35.75488048,"lon":139.80429093},{"name":"（有）根岸商店","province":"東京都","city":"足立区","address":"東京都足立区梅田6丁目9-11","lat":35.76626495,"lon":139.79835457},{"name":"肥後商店","province":"東京都","city":"足立区","address":"東京都足立区千住大川町48-1","lat":35.75524685,"lon":139.79563327},{"name":"芦川巌葬儀社（有）","province":"東京都","city":"足立区","address":"東京都足立区南花畑3丁目19-26","lat":35.79043476,"lon":139.82729009},{"name":"(株)芦川花環葬儀社","province":"東京都","city":"足立区","address":"東京都足立区六月1丁目11-7","lat":35.78575436,"lon":139.7978732},{"name":"東葬儀社（株）","province":"東京都","city":"足立区","address":"東京都足立区関原2丁目1-26","lat":35.76501765,"lon":139.79095522},{"name":"（有）稲垣葬儀社本店","province":"東京都","city":"足立区","address":"東京都足立区千住仲町19-3","lat":35.74632333,"lon":139.80160027},{"name":"牛込葬儀社","province":"東京都","city":"足立区","address":"東京都足立区梅田2丁目16-18","lat":35.76517906,"lon":139.80205154},{"name":"エンドウセレモニー(有)","province":"東京都","city":"足立区","address":"東京都足立区鹿浜3丁目9-8","lat":35.77993983,"lon":139.75464662},{"name":"(株)小川由雄商店","province":"東京都","city":"足立区","address":"東京都足立区西新井本町1丁目15-14","lat":35.77769645,"lon":139.78180264},{"name":"(有)小澤葬儀社","province":"東京都","city":"足立区","address":"東京都足立区入谷4丁目10-24","lat":35.80593975,"lon":139.76093121},{"name":"(有)梶商店","province":"東京都","city":"足立区","address":"東京都足立区千住桜木1丁目9-2","lat":35.75061689,"lon":139.79406987},{"name":"(有)熊川式典総合サービス","province":"東京都","city":"足立区","address":"東京都足立区本木1丁目1-9","lat":35.76117076,"lon":139.78756679},{"name":"溜屋近藤商店(株)","province":"東京都","city":"足立区","address":"東京都足立区千住5丁目18-10","lat":35.75488048,"lon":139.80429093},{"name":"（有）根岸商店","province":"東京都","city":"足立区","address":"東京都足立区梅田6丁目9-11","lat":35.76626495,"lon":139.79835457},{"name":"肥後商店","province":"東京都","city":"足立区","address":"東京都足立区千住大川町48-1","lat":35.75524685,"lon":139.79563327},{"name":"芦川巌葬儀社（有）","province":"東京都","city":"足立区","address":"東京都足立区南花畑3丁目19-26","lat":35.79043476,"lon":139.82729009},{"name":"(株)芦川花環葬儀社","province":"東京都","city":"足立区","address":"東京都足立区六月1丁目11-7","lat":35.78575436,"lon":139.7978732},{"name":"東葬儀社（株）","province":"東京都","city":"足立区","address":"東京都足立区関原2丁目1-26","lat":35.76501765,"lon":139.79095522},{"name":"（有）稲垣葬儀社本店","province":"東京都","city":"足立区","address":"東京都足立区千住仲町19-3","lat":35.74632333,"lon":139.80160027},{"name":"牛込葬儀社","province":"東京都","city":"足立区","address":"東京都足立区梅田2丁目16-18","lat":35.76517906,"lon":139.80205154},{"name":"エンドウセレモニー(有)","province":"東京都","city":"足立区","address":"東京都足立区鹿浜3丁目9-8","lat":35.77993983,"lon":139.75464662},{"name":"(株)小川由雄商店","province":"東京都","city":"足立区","address":"東京都足立区西新井本町1丁目15-14","lat":35.77769645,"lon":139.78180264},{"name":"(有)小澤葬儀社","province":"東京都","city":"足立区","address":"東京都足立区入谷4丁目10-24","lat":35.80593975,"lon":139.76093121},{"name":"(有)梶商店","province":"東京都","city":"足立区","address":"東京都足立区千住桜木1丁目9-2","lat":35.75061689,"lon":139.79406987},{"name":"(有)熊川式典総合サービス","province":"東京都","city":"足立区","address":"東京都足立区本木1丁目1-9","lat":35.76117076,"lon":139.78756679},{"name":"溜屋近藤商店(株)","province":"東京都","city":"足立区","address":"東京都足立区千住5丁目18-10","lat":35.75488048,"lon":139.80429093},{"name":"（有）根岸商店","province":"東京都","city":"足立区","address":"東京都足立区梅田6丁目9-11","lat":35.76626495,"lon":139.79835457},{"name":"肥後商店","province":"東京都","city":"足立区","address":"東京都足立区千住大川町48-1","lat":35.75524685,"lon":139.79563327},{"name":"芦川巌葬儀社（有）","province":"東京都","city":"足立区","address":"東京都足立区南花畑3丁目19-26","lat":35.79043476,"lon":139.82729009},{"name":"(株)芦川花環葬儀社","province":"東京都","city":"足立区","address":"東京都足立区六月1丁目11-7","lat":35.78575436,"lon":139.7978732},{"name":"東葬儀社（株）","province":"東京都","city":"足立区","address":"東京都足立区関原2丁目1-26","lat":35.76501765,"lon":139.79095522},{"name":"（有）稲垣葬儀社本店","province":"東京都","city":"足立区","address":"東京都足立区千住仲町19-3","lat":35.74632333,"lon":139.80160027},{"name":"牛込葬儀社","province":"東京都","city":"足立区","address":"東京都足立区梅田2丁目16-18","lat":35.76517906,"lon":139.80205154},{"name":"エンドウセレモニー(有)","province":"東京都","city":"足立区","address":"東京都足立区鹿浜3丁目9-8","lat":35.77993983,"lon":139.75464662},{"name":"(株)小川由雄商店","province":"東京都","city":"足立区","address":"東京都足立区西新井本町1丁目15-14","lat":35.77769645,"lon":139.78180264},{"name":"(有)小澤葬儀社","province":"東京都","city":"足立区","address":"東京都足立区入谷4丁目10-24","lat":35.80593975,"lon":139.76093121},{"name":"(有)梶商店","province":"東京都","city":"足立区","address":"東京都足立区千住桜木1丁目9-2","lat":35.75061689,"lon":139.79406987},{"name":"(有)熊川式典総合サービス","province":"東京都","city":"足立区","address":"東京都足立区本木1丁目1-9","lat":35.76117076,"lon":139.78756679},{"name":"溜屋近藤商店(株)","province":"東京都","city":"足立区","address":"東京都足立区千住5丁目18-10","lat":35.75488048,"lon":139.80429093},{"name":"（有）根岸商店","province":"東京都","city":"足立区","address":"東京都足立区梅田6丁目9-11","lat":35.76626495,"lon":139.79835457},{"name":"肥後商店","province":"東京都","city":"足立区","address":"東京都足立区千住大川町48-1","lat":35.75524685,"lon":139.79563327},{"name":"芦川巌葬儀社（有）","province":"東京都","city":"足立区","address":"東京都足立区南花畑3丁目19-26","lat":35.79043476,"lon":139.82729009},{"name":"(株)芦川花環葬儀社","province":"東京都","city":"足立区","address":"東京都足立区六月1丁目11-7","lat":35.78575436,"lon":139.7978732},{"name":"東葬儀社（株）","province":"東京都","city":"足立区","address":"東京都足立区関原2丁目1-26","lat":35.76501765,"lon":139.79095522},{"name":"（有）稲垣葬儀社本店","province":"東京都","city":"足立区","address":"東京都足立区千住仲町19-3","lat":35.74632333,"lon":139.80160027},{"name":"牛込葬儀社","province":"東京都","city":"足立区","address":"東京都足立区梅田2丁目16-18","lat":35.76517906,"lon":139.80205154},{"name":"エンドウセレモニー(有)","province":"東京都","city":"足立区","address":"東京都足立区鹿浜3丁目9-8","lat":35.77993983,"lon":139.75464662},{"name":"(株)小川由雄商店","province":"東京都","city":"足立区","address":"東京都足立区西新井本町1丁目15-14","lat":35.77769645,"lon":139.78180264},{"name":"(有)小澤葬儀社","province":"東京都","city":"足立区","address":"東京都足立区入谷4丁目10-24","lat":35.80593975,"lon":139.76093121},{"name":"(有)梶商店","province":"東京都","city":"足立区","address":"東京都足立区千住桜木1丁目9-2","lat":35.75061689,"lon":139.79406987},{"name":"(有)熊川式典総合サービス","province":"東京都","city":"足立区","address":"東京都足立区本木1丁目1-9","lat":35.76117076,"lon":139.78756679},{"name":"溜屋近藤商店(株)","province":"東京都","city":"足立区","address":"東京都足立区千住5丁目18-10","lat":35.75488048,"lon":139.80429093},{"name":"（有）根岸商店","province":"東京都","city":"足立区","address":"東京都足立区梅田6丁目9-11","lat":35.76626495,"lon":139.79835457},{"name":"肥後商店","province":"東京都","city":"足立区","address":"東京都足立区千住大川町48-1","lat":35.75524685,"lon":139.79563327},{"name":"芦川巌葬儀社（有）","province":"東京都","city":"足立区","address":"東京都足立区南花畑3丁目19-26","lat":35.79043476,"lon":139.82729009},{"name":"(株)芦川花環葬儀社","province":"東京都","city":"足立区","address":"東京都足立区六月1丁目11-7","lat":35.78575436,"lon":139.7978732},{"name":"東葬儀社（株）","province":"東京都","city":"足立区","address":"東京都足立区関原2丁目1-26","lat":35.76501765,"lon":139.79095522},{"name":"（有）稲垣葬儀社本店","province":"東京都","city":"足立区","address":"東京都足立区千住仲町19-3","lat":35.74632333,"lon":139.80160027},{"name":"牛込葬儀社","province":"東京都","city":"足立区","address":"東京都足立区梅田2丁目16-18","lat":35.76517906,"lon":139.80205154},{"name":"エンドウセレモニー(有)","province":"東京都","city":"足立区","address":"東京都足立区鹿浜3丁目9-8","lat":35.77993983,"lon":139.75464662},{"name":"(株)小川由雄商店","province":"東京都","city":"足立区","address":"東京都足立区西新井本町1丁目15-14","lat":35.77769645,"lon":139.78180264},{"name":"(有)小澤葬儀社","province":"東京都","city":"足立区","address":"東京都足立区入谷4丁目10-24","lat":35.80593975,"lon":139.76093121},{"name":"(有)梶商店","province":"東京都","city":"足立区","address":"東京都足立区千住桜木1丁目9-2","lat":35.75061689,"lon":139.79406987},{"name":"(有)熊川式典総合サービス","province":"東京都","city":"足立区","address":"東京都足立区本木1丁目1-9","lat":35.76117076,"lon":139.78756679},{"name":"溜屋近藤商店(株)","province":"東京都","city":"足立区","address":"東京都足立区千住5丁目18-10","lat":35.75488048,"lon":139.80429093},{"name":"（有）根岸商店","province":"東京都","city":"足立区","address":"東京都足立区梅田6丁目9-11","lat":35.76626495,"lon":139.79835457},{"name":"肥後商店","province":"東京都","city":"足立区","address":"東京都足立区千住大川町48-1","lat":35.75524685,"lon":139.79563327},{"name":"芦川巌葬儀社（有）","province":"東京都","city":"足立区","address":"東京都足立区南花畑3丁目19-26","lat":35.79043476,"lon":139.82729009},{"name":"(株)芦川花環葬儀社","province":"東京都","city":"足立区","address":"東京都足立区六月1丁目11-7","lat":35.78575436,"lon":139.7978732},{"name":"東葬儀社（株）","province":"東京都","city":"足立区","address":"東京都足立区関原2丁目1-26","lat":35.76501765,"lon":139.79095522},{"name":"（有）稲垣葬儀社本店","province":"東京都","city":"足立区","address":"東京都足立区千住仲町19-3","lat":35.74632333,"lon":139.80160027},{"name":"牛込葬儀社","province":"東京都","city":"足立区","address":"東京都足立区梅田2丁目16-18","lat":35.76517906,"lon":139.80205154},{"name":"エンドウセレモニー(有)","province":"東京都","city":"足立区","address":"東京都足立区鹿浜3丁目9-8","lat":35.77993983,"lon":139.75464662},{"name":"(株)小川由雄商店","province":"東京都","city":"足立区","address":"東京都足立区西新井本町1丁目15-14","lat":35.77769645,"lon":139.78180264},{"name":"(有)小澤葬儀社","province":"東京都","city":"足立区","address":"東京都足立区入谷4丁目10-24","lat":35.80593975,"lon":139.76093121},{"name":"(有)梶商店","province":"東京都","city":"足立区","address":"東京都足立区千住桜木1丁目9-2","lat":35.75061689,"lon":139.79406987},{"name":"(有)熊川式典総合サービス","province":"東京都","city":"足立区","address":"東京都足立区本木1丁目1-9","lat":35.76117076,"lon":139.78756679},{"name":"溜屋近藤商店(株)","province":"東京都","city":"足立区","address":"東京都足立区千住5丁目18-10","lat":35.75488048,"lon":139.80429093},{"name":"（有）根岸商店","province":"東京都","city":"足立区","address":"東京都足立区梅田6丁目9-11","lat":35.76626495,"lon":139.79835457},{"name":"肥後商店","province":"東京都","city":"足立区","address":"東京都足立区千住大川町48-1","lat":35.75524685,"lon":139.79563327},{"name":"芦川巌葬儀社（有）","province":"東京都","city":"足立区","address":"東京都足立区南花畑3丁目19-26","lat":35.79043476,"lon":139.82729009},{"name":"(株)芦川花環葬儀社","province":"東京都","city":"足立区","address":"東京都足立区六月1丁目11-7","lat":35.78575436,"lon":139.7978732},{"name":"東葬儀社（株）","province":"東京都","city":"足立区","address":"東京都足立区関原2丁目1-26","lat":35.76501765,"lon":139.79095522},{"name":"（有）稲垣葬儀社本店","province":"東京都","city":"足立区","address":"東京都足立区千住仲町19-3","lat":35.74632333,"lon":139.80160027},{"name":"牛込葬儀社","province":"東京都","city":"足立区","address":"東京都足立区梅田2丁目16-18","lat":35.76517906,"lon":139.80205154},{"name":"エンドウセレモニー(有)","province":"東京都","city":"足立区","address":"東京都足立区鹿浜3丁目9-8","lat":35.77993983,"lon":139.75464662},{"name":"(株)小川由雄商店","province":"東京都","city":"足立区","address":"東京都足立区西新井本町1丁目15-14","lat":35.77769645,"lon":139.78180264},{"name":"(有)小澤葬儀社","province":"東京都","city":"足立区","address":"東京都足立区入谷4丁目10-24","lat":35.80593975,"lon":139.76093121},{"name":"(有)梶商店","province":"東京都","city":"足立区","address":"東京都足立区千住桜木1丁目9-2","lat":35.75061689,"lon":139.79406987},{"name":"(有)熊川式典総合サービス","province":"東京都","city":"足立区","address":"東京都足立区本木1丁目1-9","lat":35.76117076,"lon":139.78756679},{"name":"溜屋近藤商店(株)","province":"東京都","city":"足立区","address":"東京都足立区千住5丁目18-10","lat":35.75488048,"lon":139.80429093},{"name":"（有）根岸商店","province":"東京都","city":"足立区","address":"東京都足立区梅田6丁目9-11","lat":35.76626495,"lon":139.79835457},{"name":"肥後商店","province":"東京都","city":"足立区","address":"東京都足立区千住大川町48-1","lat":35.75524685,"lon":139.79563327},{"name":"芦川巌葬儀社（有）","province":"東京都","city":"足立区","address":"東京都足立区南花畑3丁目19-26","lat":35.79043476,"lon":139.82729009},{"name":"(株)芦川花環葬儀社","province":"東京都","city":"足立区","address":"東京都足立区六月1丁目11-7","lat":35.78575436,"lon":139.7978732},{"name":"東葬儀社（株）","province":"東京都","city":"足立区","address":"東京都足立区関原2丁目1-26","lat":35.76501765,"lon":139.79095522},{"name":"（有）稲垣葬儀社本店","province":"東京都","city":"足立区","address":"東京都足立区千住仲町19-3","lat":35.74632333,"lon":139.80160027},{"name":"牛込葬儀社","province":"東京都","city":"足立区","address":"東京都足立区梅田2丁目16-18","lat":35.76517906,"lon":139.80205154},{"name":"エンドウセレモニー(有)","province":"東京都","city":"足立区","address":"東京都足立区鹿浜3丁目9-8","lat":35.77993983,"lon":139.75464662},{"name":"(株)小川由雄商店","province":"東京都","city":"足立区","address":"東京都足立区西新井本町1丁目15-14","lat":35.77769645,"lon":139.78180264},{"name":"(有)小澤葬儀社","province":"東京都","city":"足立区","address":"東京都足立区入谷4丁目10-24","lat":35.80593975,"lon":139.76093121},{"name":"(有)梶商店","province":"東京都","city":"足立区","address":"東京都足立区千住桜木1丁目9-2","lat":35.75061689,"lon":139.79406987},{"name":"(有)熊川式典総合サービス","province":"東京都","city":"足立区","address":"東京都足立区本木1丁目1-9","lat":35.76117076,"lon":139.78756679},{"name":"溜屋近藤商店(株)","province":"東京都","city":"足立区","address":"東京都足立区千住5丁目18-10","lat":35.75488048,"lon":139.80429093},{"name":"（有）根岸商店","province":"東京都","city":"足立区","address":"東京都足立区梅田6丁目9-11","lat":35.76626495,"lon":139.79835457},{"name":"肥後商店","province":"東京都","city":"足立区","address":"東京都足立区千住大川町48-1","lat":35.75524685,"lon":139.79563327},{"name":"芦川巌葬儀社（有）","province":"東京都","city":"足立区","address":"東京都足立区南花畑3丁目19-26","lat":35.79043476,"lon":139.82729009},{"name":"(株)芦川花環葬儀社","province":"東京都","city":"足立区","address":"東京都足立区六月1丁目11-7","lat":35.78575436,"lon":139.7978732},{"name":"東葬儀社（株）","province":"東京都","city":"足立区","address":"東京都足立区関原2丁目1-26","lat":35.76501765,"lon":139.79095522},{"name":"（有）稲垣葬儀社本店","province":"東京都","city":"足立区","address":"東京都足立区千住仲町19-3","lat":35.74632333,"lon":139.80160027},{"name":"牛込葬儀社","province":"東京都","city":"足立区","address":"東京都足立区梅田2丁目16-18","lat":35.76517906,"lon":139.80205154},{"name":"エンドウセレモニー(有)","province":"東京都","city":"足立区","address":"東京都足立区鹿浜3丁目9-8","lat":35.77993983,"lon":139.75464662},{"name":"(株)小川由雄商店","province":"東京都","city":"足立区","address":"東京都足立区西新井本町1丁目15-14","lat":35.77769645,"lon":139.78180264},{"name":"(有)小澤葬儀社","province":"東京都","city":"足立区","address":"東京都足立区入谷4丁目10-24","lat":35.80593975,"lon":139.76093121},{"name":"(有)梶商店","province":"東京都","city":"足立区","address":"東京都足立区千住桜木1丁目9-2","lat":35.75061689,"lon":139.79406987},{"name":"(有)熊川式典総合サービス","province":"東京都","city":"足立区","address":"東京都足立区本木1丁目1-9","lat":35.76117076,"lon":139.78756679},{"name":"溜屋近藤商店(株)","province":"東京都","city":"足立区","address":"東京都足立区千住5丁目18-10","lat":35.75488048,"lon":139.80429093},{"name":"（有）根岸商店","province":"東京都","city":"足立区","address":"東京都足立区梅田6丁目9-11","lat":35.76626495,"lon":139.79835457},{"name":"肥後商店","province":"東京都","city":"足立区","address":"東京都足立区千住大川町48-1","lat":35.75524685,"lon":139.79563327},{"name":"芦川巌葬儀社（有）","province":"東京都","city":"足立区","address":"東京都足立区南花畑3丁目19-26","lat":35.79043476,"lon":139.82729009},{"name":"(株)芦川花環葬儀社","province":"東京都","city":"足立区","address":"東京都足立区六月1丁目11-7","lat":35.78575436,"lon":139.7978732},{"name":"東葬儀社（株）","province":"東京都","city":"足立区","address":"東京都足立区関原2丁目1-26","lat":35.76501765,"lon":139.79095522},{"name":"（有）稲垣葬儀社本店","province":"東京都","city":"足立区","address":"東京都足立区千住仲町19-3","lat":35.74632333,"lon":139.80160027},{"name":"牛込葬儀社","province":"東京都","city":"足立区","address":"東京都足立区梅田2丁目16-18","lat":35.76517906,"lon":139.80205154},{"name":"エンドウセレモニー(有)","province":"東京都","city":"足立区","address":"東京都足立区鹿浜3丁目9-8","lat":35.77993983,"lon":139.75464662},{"name":"(株)小川由雄商店","province":"東京都","city":"足立区","address":"東京都足立区西新井本町1丁目15-14","lat":35.77769645,"lon":139.78180264},{"name":"(有)小澤葬儀社","province":"東京都","city":"足立区","address":"東京都足立区入谷4丁目10-24","lat":35.80593975,"lon":139.76093121},{"name":"(有)梶商店","province":"東京都","city":"足立区","address":"東京都足立区千住桜木1丁目9-2","lat":35.75061689,"lon":139.79406987},{"name":"(有)熊川式典総合サービス","province":"東京都","city":"足立区","address":"東京都足立区本木1丁目1-9","lat":35.76117076,"lon":139.78756679},{"name":"溜屋近藤商店(株)","province":"東京都","city":"足立区","address":"東京都足立区千住5丁目18-10","lat":35.75488048,"lon":139.80429093},{"name":"（有）根岸商店","province":"東京都","city":"足立区","address":"東京都足立区梅田6丁目9-11","lat":35.76626495,"lon":139.79835457},{"name":"肥後商店","province":"東京都","city":"足立区","address":"東京都足立区千住大川町48-1","lat":35.75524685,"lon":139.79563327},{"name":"芦川巌葬儀社（有）","province":"東京都","city":"足立区","address":"東京都足立区南花畑3丁目19-26","lat":35.79043476,"lon":139.82729009},{"name":"(株)芦川花環葬儀社","province":"東京都","city":"足立区","address":"東京都足立区六月1丁目11-7","lat":35.78575436,"lon":139.7978732},{"name":"東葬儀社（株）","province":"東京都","city":"足立区","address":"東京都足立区関原2丁目1-26","lat":35.76501765,"lon":139.79095522},{"name":"（有）稲垣葬儀社本店","province":"東京都","city":"足立区","address":"東京都足立区千住仲町19-3","lat":35.74632333,"lon":139.80160027},{"name":"牛込葬儀社","province":"東京都","city":"足立区","address":"東京都足立区梅田2丁目16-18","lat":35.76517906,"lon":139.80205154},{"name":"エンドウセレモニー(有)","province":"東京都","city":"足立区","address":"東京都足立区鹿浜3丁目9-8","lat":35.77993983,"lon":139.75464662},{"name":"(株)小川由雄商店","province":"東京都","city":"足立区","address":"東京都足立区西新井本町1丁目15-14","lat":35.77769645,"lon":139.78180264},{"name":"(有)小澤葬儀社","province":"東京都","city":"足立区","address":"東京都足立区入谷4丁目10-24","lat":35.80593975,"lon":139.76093121},{"name":"(有)梶商店","province":"東京都","city":"足立区","address":"東京都足立区千住桜木1丁目9-2","lat":35.75061689,"lon":139.79406987},{"name":"(有)熊川式典総合サービス","province":"東京都","city":"足立区","address":"東京都足立区本木1丁目1-9","lat":35.76117076,"lon":139.78756679},{"name":"溜屋近藤商店(株)","province":"東京都","city":"足立区","address":"東京都足立区千住5丁目18-10","lat":35.75488048,"lon":139.80429093},{"name":"（有）根岸商店","province":"東京都","city":"足立区","address":"東京都足立区梅田6丁目9-11","lat":35.76626495,"lon":139.79835457},{"name":"肥後商店","province":"東京都","city":"足立区","address":"東京都足立区千住大川町48-1","lat":35.75524685,"lon":139.79563327},{"name":"芦川巌葬儀社（有）","province":"東京都","city":"足立区","address":"東京都足立区南花畑3丁目19-26","lat":35.79043476,"lon":139.82729009},{"name":"(株)芦川花環葬儀社","province":"東京都","city":"足立区","address":"東京都足立区六月1丁目11-7","lat":35.78575436,"lon":139.7978732},{"name":"東葬儀社（株）","province":"東京都","city":"足立区","address":"東京都足立区関原2丁目1-26","lat":35.76501765,"lon":139.79095522},{"name":"（有）稲垣葬儀社本店","province":"東京都","city":"足立区","address":"東京都足立区千住仲町19-3","lat":35.74632333,"lon":139.80160027},{"name":"牛込葬儀社","province":"東京都","city":"足立区","address":"東京都足立区梅田2丁目16-18","lat":35.76517906,"lon":139.80205154},{"name":"エンドウセレモニー(有)","province":"東京都","city":"足立区","address":"東京都足立区鹿浜3丁目9-8","lat":35.77993983,"lon":139.75464662},{"name":"(株)小川由雄商店","province":"東京都","city":"足立区","address":"東京都足立区西新井本町1丁目15-14","lat":35.77769645,"lon":139.78180264},{"name":"(有)小澤葬儀社","province":"東京都","city":"足立区","address":"東京都足立区入谷4丁目10-24","lat":35.80593975,"lon":139.76093121},{"name":"(有)梶商店","province":"東京都","city":"足立区","address":"東京都足立区千住桜木1丁目9-2","lat":35.75061689,"lon":139.79406987},{"name":"(有)熊川式典総合サービス","province":"東京都","city":"足立区","address":"東京都足立区本木1丁目1-9","lat":35.76117076,"lon":139.78756679},{"name":"溜屋近藤商店(株)","province":"東京都","city":"足立区","address":"東京都足立区千住5丁目18-10","lat":35.75488048,"lon":139.80429093},{"name":"（有）根岸商店","province":"東京都","city":"足立区","address":"東京都足立区梅田6丁目9-11","lat":35.76626495,"lon":139.79835457},{"name":"肥後商店","province":"東京都","city":"足立区","address":"東京都足立区千住大川町48-1","lat":35.75524685,"lon":139.79563327},{"name":"芦川巌葬儀社（有）","province":"東京都","city":"足立区","address":"東京都足立区南花畑3丁目19-26","lat":35.79043476,"lon":139.82729009},{"name":"(株)芦川花環葬儀社","province":"東京都","city":"足立区","address":"東京都足立区六月1丁目11-7","lat":35.78575436,"lon":139.7978732},{"name":"東葬儀社（株）","province":"東京都","city":"足立区","address":"東京都足立区関原2丁目1-26","lat":35.76501765,"lon":139.79095522},{"name":"（有）稲垣葬儀社本店","province":"東京都","city":"足立区","address":"東京都足立区千住仲町19-3","lat":35.74632333,"lon":139.80160027},{"name":"牛込葬儀社","province":"東京都","city":"足立区","address":"東京都足立区梅田2丁目16-18","lat":35.76517906,"lon":139.80205154},{"name":"エンドウセレモニー(有)","province":"東京都","city":"足立区","address":"東京都足立区鹿浜3丁目9-8","lat":35.77993983,"lon":139.75464662},{"name":"(株)小川由雄商店","province":"東京都","city":"足立区","address":"東京都足立区西新井本町1丁目15-14","lat":35.77769645,"lon":139.78180264},{"name":"(有)小澤葬儀社","province":"東京都","city":"足立区","address":"東京都足立区入谷4丁目10-24","lat":35.80593975,"lon":139.76093121},{"name":"(有)梶商店","province":"東京都","city":"足立区","address":"東京都足立区千住桜木1丁目9-2","lat":35.75061689,"lon":139.79406987},{"name":"(有)熊川式典総合サービス","province":"東京都","city":"足立区","address":"東京都足立区本木1丁目1-9","lat":35.76117076,"lon":139.78756679},{"name":"溜屋近藤商店(株)","province":"東京都","city":"足立区","address":"東京都足立区千住5丁目18-10","lat":35.75488048,"lon":139.80429093},{"name":"（有）根岸商店","province":"東京都","city":"足立区","address":"東京都足立区梅田6丁目9-11","lat":35.76626495,"lon":139.79835457},{"name":"肥後商店","province":"東京都","city":"足立区","address":"東京都足立区千住大川町48-1","lat":35.75524685,"lon":139.79563327},{"name":"芦川巌葬儀社（有）","province":"東京都","city":"足立区","address":"東京都足立区南花畑3丁目19-26","lat":35.79043476,"lon":139.82729009},{"name":"(株)芦川花環葬儀社","province":"東京都","city":"足立区","address":"東京都足立区六月1丁目11-7","lat":35.78575436,"lon":139.7978732},{"name":"東葬儀社（株）","province":"東京都","city":"足立区","address":"東京都足立区関原2丁目1-26","lat":35.76501765,"lon":139.79095522},{"name":"（有）稲垣葬儀社本店","province":"東京都","city":"足立区","address":"東京都足立区千住仲町19-3","lat":35.74632333,"lon":139.80160027},{"name":"牛込葬儀社","province":"東京都","city":"足立区","address":"東京都足立区梅田2丁目16-18","lat":35.76517906,"lon":139.80205154},{"name":"エンドウセレモニー(有)","province":"東京都","city":"足立区","address":"東京都足立区鹿浜3丁目9-8","lat":35.77993983,"lon":139.75464662},{"name":"(株)小川由雄商店","province":"東京都","city":"足立区","address":"東京都足立区西新井本町1丁目15-14","lat":35.77769645,"lon":139.78180264},{"name":"(有)小澤葬儀社","province":"東京都","city":"足立区","address":"東京都足立区入谷4丁目10-24","lat":35.80593975,"lon":139.76093121},{"name":"(有)梶商店","province":"東京都","city":"足立区","address":"東京都足立区千住桜木1丁目9-2","lat":35.75061689,"lon":139.79406987},{"name":"(有)熊川式典総合サービス","province":"東京都","city":"足立区","address":"東京都足立区本木1丁目1-9","lat":35.76117076,"lon":139.78756679},{"name":"溜屋近藤商店(株)","province":"東京都","city":"足立区","address":"東京都足立区千住5丁目18-10","lat":35.75488048,"lon":139.80429093},{"name":"（有）根岸商店","province":"東京都","city":"足立区","address":"東京都足立区梅田6丁目9-11","lat":35.76626495,"lon":139.79835457},{"name":"肥後商店","province":"東京都","city":"足立区","address":"東京都足立区千住大川町48-1","lat":35.75524685,"lon":139.79563327},{"name":"芦川巌葬儀社（有）","province":"東京都","city":"足立区","address":"東京都足立区南花畑3丁目19-26","lat":35.79043476,"lon":139.82729009},{"name":"(株)芦川花環葬儀社","province":"東京都","city":"足立区","address":"東京都足立区六月1丁目11-7","lat":35.78575436,"lon":139.7978732},{"name":"東葬儀社（株）","province":"東京都","city":"足立区","address":"東京都足立区関原2丁目1-26","lat":35.76501765,"lon":139.79095522},{"name":"（有）稲垣葬儀社本店","province":"東京都","city":"足立区","address":"東京都足立区千住仲町19-3","lat":35.74632333,"lon":139.80160027},{"name":"牛込葬儀社","province":"東京都","city":"足立区","address":"東京都足立区梅田2丁目16-18","lat":35.76517906,"lon":139.80205154},{"name":"エンドウセレモニー(有)","province":"東京都","city":"足立区","address":"東京都足立区鹿浜3丁目9-8","lat":35.77993983,"lon":139.75464662},{"name":"(株)小川由雄商店","province":"東京都","city":"足立区","address":"東京都足立区西新井本町1丁目15-14","lat":35.77769645,"lon":139.78180264},{"name":"(有)小澤葬儀社","province":"東京都","city":"足立区","address":"東京都足立区入谷4丁目10-24","lat":35.80593975,"lon":139.76093121},{"name":"(有)梶商店","province":"東京都","city":"足立区","address":"東京都足立区千住桜木1丁目9-2","lat":35.75061689,"lon":139.79406987},{"name":"(有)熊川式典総合サービス","province":"東京都","city":"足立区","address":"東京都足立区本木1丁目1-9","lat":35.76117076,"lon":139.78756679},{"name":"溜屋近藤商店(株)","province":"東京都","city":"足立区","address":"東京都足立区千住5丁目18-10","lat":35.75488048,"lon":139.80429093},{"name":"（有）根岸商店","province":"東京都","city":"足立区","address":"東京都足立区梅田6丁目9-11","lat":35.76626495,"lon":139.79835457},{"name":"肥後商店","province":"東京都","city":"足立区","address":"東京都足立区千住大川町48-1","lat":35.75524685,"lon":139.79563327},{"name":"芦川巌葬儀社（有）","province":"東京都","city":"足立区","address":"東京都足立区南花畑3丁目19-26","lat":35.79043476,"lon":139.82729009},{"name":"(株)芦川花環葬儀社","province":"東京都","city":"足立区","address":"東京都足立区六月1丁目11-7","lat":35.78575436,"lon":139.7978732},{"name":"東葬儀社（株）","province":"東京都","city":"足立区","address":"東京都足立区関原2丁目1-26","lat":35.76501765,"lon":139.79095522},{"name":"（有）稲垣葬儀社本店","province":"東京都","city":"足立区","address":"東京都足立区千住仲町19-3","lat":35.74632333,"lon":139.80160027},{"name":"牛込葬儀社","province":"東京都","city":"足立区","address":"東京都足立区梅田2丁目16-18","lat":35.76517906,"lon":139.80205154},{"name":"エンドウセレモニー(有)","province":"東京都","city":"足立区","address":"東京都足立区鹿浜3丁目9-8","lat":35.77993983,"lon":139.75464662},{"name":"(株)小川由雄商店","province":"東京都","city":"足立区","address":"東京都足立区西新井本町1丁目15-14","lat":35.77769645,"lon":139.78180264},{"name":"(有)小澤葬儀社","province":"東京都","city":"足立区","address":"東京都足立区入谷4丁目10-24","lat":35.80593975,"lon":139.76093121},{"name":"(有)梶商店","province":"東京都","city":"足立区","address":"東京都足立区千住桜木1丁目9-2","lat":35.75061689,"lon":139.79406987},{"name":"(有)熊川式典総合サービス","province":"東京都","city":"足立区","address":"東京都足立区本木1丁目1-9","lat":35.76117076,"lon":139.78756679},{"name":"溜屋近藤商店(株)","province":"東京都","city":"足立区","address":"東京都足立区千住5丁目18-10","lat":35.75488048,"lon":139.80429093},{"name":"（有）根岸商店","province":"東京都","city":"足立区","address":"東京都足立区梅田6丁目9-11","lat":35.76626495,"lon":139.79835457},{"name":"肥後商店","province":"東京都","city":"足立区","address":"東京都足立区千住大川町48-1","lat":35.75524685,"lon":139.79563327},{"name":"芦川巌葬儀社（有）","province":"東京都","city":"足立区","address":"東京都足立区南花畑3丁目19-26","lat":35.79043476,"lon":139.82729009},{"name":"(株)芦川花環葬儀社","province":"東京都","city":"足立区","address":"東京都足立区六月1丁目11-7","lat":35.78575436,"lon":139.7978732},{"name":"東葬儀社（株）","province":"東京都","city":"足立区","address":"東京都足立区関原2丁目1-26","lat":35.76501765,"lon":139.79095522},{"name":"（有）稲垣葬儀社本店","province":"東京都","city":"足立区","address":"東京都足立区千住仲町19-3","lat":35.74632333,"lon":139.80160027},{"name":"牛込葬儀社","province":"東京都","city":"足立区","address":"東京都足立区梅田2丁目16-18","lat":35.76517906,"lon":139.80205154},{"name":"エンドウセレモニー(有)","province":"東京都","city":"足立区","address":"東京都足立区鹿浜3丁目9-8","lat":35.77993983,"lon":139.75464662},{"name":"(株)小川由雄商店","province":"東京都","city":"足立区","address":"東京都足立区西新井本町1丁目15-14","lat":35.77769645,"lon":139.78180264},{"name":"(有)小澤葬儀社","province":"東京都","city":"足立区","address":"東京都足立区入谷4丁目10-24","lat":35.80593975,"lon":139.76093121},{"name":"(有)梶商店","province":"東京都","city":"足立区","address":"東京都足立区千住桜木1丁目9-2","lat":35.75061689,"lon":139.79406987},{"name":"(有)熊川式典総合サービス","province":"東京都","city":"足立区","address":"東京都足立区本木1丁目1-9","lat":35.76117076,"lon":139.78756679},{"name":"溜屋近藤商店(株)","province":"東京都","city":"足立区","address":"東京都足立区千住5丁目18-10","lat":35.75488048,"lon":139.80429093},{"name":"（有）根岸商店","province":"東京都","city":"足立区","address":"東京都足立区梅田6丁目9-11","lat":35.76626495,"lon":139.79835457},{"name":"肥後商店","province":"東京都","city":"足立区","address":"東京都足立区千住大川町48-1","lat":35.75524685,"lon":139.79563327},{"name":"芦川巌葬儀社（有）","province":"東京都","city":"足立区","address":"東京都足立区南花畑3丁目19-26","lat":35.79043476,"lon":139.82729009},{"name":"(株)芦川花環葬儀社","province":"東京都","city":"足立区","address":"東京都足立区六月1丁目11-7","lat":35.78575436,"lon":139.7978732},{"name":"東葬儀社（株）","province":"東京都","city":"足立区","address":"東京都足立区関原2丁目1-26","lat":35.76501765,"lon":139.79095522},{"name":"（有）稲垣葬儀社本店","province":"東京都","city":"足立区","address":"東京都足立区千住仲町19-3","lat":35.74632333,"lon":139.80160027},{"name":"牛込葬儀社","province":"東京都","city":"足立区","address":"東京都足立区梅田2丁目16-18","lat":35.76517906,"lon":139.80205154},{"name":"エンドウセレモニー(有)","province":"東京都","city":"足立区","address":"東京都足立区鹿浜3丁目9-8","lat":35.77993983,"lon":139.75464662},{"name":"(株)小川由雄商店","province":"東京都","city":"足立区","address":"東京都足立区西新井本町1丁目15-14","lat":35.77769645,"lon":139.78180264},{"name":"(有)小澤葬儀社","province":"東京都","city":"足立区","address":"東京都足立区入谷4丁目10-24","lat":35.80593975,"lon":139.76093121},{"name":"(有)梶商店","province":"東京都","city":"足立区","address":"東京都足立区千住桜木1丁目9-2","lat":35.75061689,"lon":139.79406987},{"name":"(有)熊川式典総合サービス","province":"東京都","city":"足立区","address":"東京都足立区本木1丁目1-9","lat":35.76117076,"lon":139.78756679},{"name":"溜屋近藤商店(株)","province":"東京都","city":"足立区","address":"東京都足立区千住5丁目18-10","lat":35.75488048,"lon":139.80429093},{"name":"（有）根岸商店","province":"東京都","city":"足立区","address":"東京都足立区梅田6丁目9-11","lat":35.76626495,"lon":139.79835457},{"name":"肥後商店","province":"東京都","city":"足立区","address":"東京都足立区千住大川町48-1","lat":35.75524685,"lon":139.79563327},{"name":"芦川巌葬儀社（有）","province":"東京都","city":"足立区","address":"東京都足立区南花畑3丁目19-26","lat":35.79043476,"lon":139.82729009},{"name":"(株)芦川花環葬儀社","province":"東京都","city":"足立区","address":"東京都足立区六月1丁目11-7","lat":35.78575436,"lon":139.7978732},{"name":"東葬儀社（株）","province":"東京都","city":"足立区","address":"東京都足立区関原2丁目1-26","lat":35.76501765,"lon":139.79095522},{"name":"（有）稲垣葬儀社本店","province":"東京都","city":"足立区","address":"東京都足立区千住仲町19-3","lat":35.74632333,"lon":139.80160027},{"name":"牛込葬儀社","province":"東京都","city":"足立区","address":"東京都足立区梅田2丁目16-18","lat":35.76517906,"lon":139.80205154},{"name":"エンドウセレモニー(有)","province":"東京都","city":"足立区","address":"東京都足立区鹿浜3丁目9-8","lat":35.77993983,"lon":139.75464662},{"name":"(株)小川由雄商店","province":"東京都","city":"足立区","address":"東京都足立区西新井本町1丁目15-14","lat":35.77769645,"lon":139.78180264},{"name":"(有)小澤葬儀社","province":"東京都","city":"足立区","address":"東京都足立区入谷4丁目10-24","lat":35.80593975,"lon":139.76093121},{"name":"(有)梶商店","province":"東京都","city":"足立区","address":"東京都足立区千住桜木1丁目9-2","lat":35.75061689,"lon":139.79406987},{"name":"(有)熊川式典総合サービス","province":"東京都","city":"足立区","address":"東京都足立区本木1丁目1-9","lat":35.76117076,"lon":139.78756679},{"name":"溜屋近藤商店(株)","province":"東京都","city":"足立区","address":"東京都足立区千住5丁目18-10","lat":35.75488048,"lon":139.80429093},{"name":"（有）根岸商店","province":"東京都","city":"足立区","address":"東京都足立区梅田6丁目9-11","lat":35.76626495,"lon":139.79835457},{"name":"肥後商店","province":"東京都","city":"足立区","address":"東京都足立区千住大川町48-1","lat":35.75524685,"lon":139.79563327},{"name":"芦川巌葬儀社（有）","province":"東京都","city":"足立区","address":"東京都足立区南花畑3丁目19-26","lat":35.79043476,"lon":139.82729009},{"name":"(株)芦川花環葬儀社","province":"東京都","city":"足立区","address":"東京都足立区六月1丁目11-7","lat":35.78575436,"lon":139.7978732},{"name":"東葬儀社（株）","province":"東京都","city":"足立区","address":"東京都足立区関原2丁目1-26","lat":35.76501765,"lon":139.79095522},{"name":"（有）稲垣葬儀社本店","province":"東京都","city":"足立区","address":"東京都足立区千住仲町19-3","lat":35.74632333,"lon":139.80160027},{"name":"牛込葬儀社","province":"東京都","city":"足立区","address":"東京都足立区梅田2丁目16-18","lat":35.76517906,"lon":139.80205154},{"name":"エンドウセレモニー(有)","province":"東京都","city":"足立区","address":"東京都足立区鹿浜3丁目9-8","lat":35.77993983,"lon":139.75464662},{"name":"(株)小川由雄商店","province":"東京都","city":"足立区","address":"東京都足立区西新井本町1丁目15-14","lat":35.77769645,"lon":139.78180264},{"name":"(有)小澤葬儀社","province":"東京都","city":"足立区","address":"東京都足立区入谷4丁目10-24","lat":35.80593975,"lon":139.76093121},{"name":"(有)梶商店","province":"東京都","city":"足立区","address":"東京都足立区千住桜木1丁目9-2","lat":35.75061689,"lon":139.79406987},{"name":"(有)熊川式典総合サービス","province":"東京都","city":"足立区","address":"東京都足立区本木1丁目1-9","lat":35.76117076,"lon":139.78756679},{"name":"溜屋近藤商店(株)","province":"東京都","city":"足立区","address":"東京都足立区千住5丁目18-10","lat":35.75488048,"lon":139.80429093},{"name":"（有）根岸商店","province":"東京都","city":"足立区","address":"東京都足立区梅田6丁目9-11","lat":35.76626495,"lon":139.79835457},{"name":"肥後商店","province":"東京都","city":"足立区","address":"東京都足立区千住大川町48-1","lat":35.75524685,"lon":139.79563327},{"name":"芦川巌葬儀社（有）","province":"東京都","city":"足立区","address":"東京都足立区南花畑3丁目19-26","lat":35.79043476,"lon":139.82729009},{"name":"(株)芦川花環葬儀社","province":"東京都","city":"足立区","address":"東京都足立区六月1丁目11-7","lat":35.78575436,"lon":139.7978732},{"name":"東葬儀社（株）","province":"東京都","city":"足立区","address":"東京都足立区関原2丁目1-26","lat":35.76501765,"lon":139.79095522},{"name":"（有）稲垣葬儀社本店","province":"東京都","city":"足立区","address":"東京都足立区千住仲町19-3","lat":35.74632333,"lon":139.80160027},{"name":"牛込葬儀社","province":"東京都","city":"足立区","address":"東京都足立区梅田2丁目16-18","lat":35.76517906,"lon":139.80205154},{"name":"エンドウセレモニー(有)","province":"東京都","city":"足立区","address":"東京都足立区鹿浜3丁目9-8","lat":35.77993983,"lon":139.75464662},{"name":"(株)小川由雄商店","province":"東京都","city":"足立区","address":"東京都足立区西新井本町1丁目15-14","lat":35.77769645,"lon":139.78180264},{"name":"(有)小澤葬儀社","province":"東京都","city":"足立区","address":"東京都足立区入谷4丁目10-24","lat":35.80593975,"lon":139.76093121},{"name":"(有)梶商店","province":"東京都","city":"足立区","address":"東京都足立区千住桜木1丁目9-2","lat":35.75061689,"lon":139.79406987},{"name":"(有)熊川式典総合サービス","province":"東京都","city":"足立区","address":"東京都足立区本木1丁目1-9","lat":35.76117076,"lon":139.78756679},{"name":"溜屋近藤商店(株)","province":"東京都","city":"足立区","address":"東京都足立区千住5丁目18-10","lat":35.75488048,"lon":139.80429093},{"name":"（有）根岸商店","province":"東京都","city":"足立区","address":"東京都足立区梅田6丁目9-11","lat":35.76626495,"lon":139.79835457},{"name":"肥後商店","province":"東京都","city":"足立区","address":"東京都足立区千住大川町48-1","lat":35.75524685,"lon":139.79563327},{"name":"芦川巌葬儀社（有）","province":"東京都","city":"足立区","address":"東京都足立区南花畑3丁目19-26","lat":35.79043476,"lon":139.82729009},{"name":"(株)芦川花環葬儀社","province":"東京都","city":"足立区","address":"東京都足立区六月1丁目11-7","lat":35.78575436,"lon":139.7978732},{"name":"東葬儀社（株）","province":"東京都","city":"足立区","address":"東京都足立区関原2丁目1-26","lat":35.76501765,"lon":139.79095522},{"name":"（有）稲垣葬儀社本店","province":"東京都","city":"足立区","address":"東京都足立区千住仲町19-3","lat":35.74632333,"lon":139.80160027},{"name":"牛込葬儀社","province":"東京都","city":"足立区","address":"東京都足立区梅田2丁目16-18","lat":35.76517906,"lon":139.80205154},{"name":"エンドウセレモニー(有)","province":"東京都","city":"足立区","address":"東京都足立区鹿浜3丁目9-8","lat":35.77993983,"lon":139.75464662},{"name":"(株)小川由雄商店","province":"東京都","city":"足立区","address":"東京都足立区西新井本町1丁目15-14","lat":35.77769645,"lon":139.78180264},{"name":"(有)小澤葬儀社","province":"東京都","city":"足立区","address":"東京都足立区入谷4丁目10-24","lat":35.80593975,"lon":139.76093121},{"name":"(有)梶商店","province":"東京都","city":"足立区","address":"東京都足立区千住桜木1丁目9-2","lat":35.75061689,"lon":139.79406987},{"name":"(有)熊川式典総合サービス","province":"東京都","city":"足立区","address":"東京都足立区本木1丁目1-9","lat":35.76117076,"lon":139.78756679},{"name":"溜屋近藤商店(株)","province":"東京都","city":"足立区","address":"東京都足立区千住5丁目18-10","lat":35.75488048,"lon":139.80429093},{"name":"（有）根岸商店","province":"東京都","city":"足立区","address":"東京都足立区梅田6丁目9-11","lat":35.76626495,"lon":139.79835457},{"name":"肥後商店","province":"東京都","city":"足立区","address":"東京都足立区千住大川町48-1","lat":35.75524685,"lon":139.79563327},{"name":"芦川巌葬儀社（有）","province":"東京都","city":"足立区","address":"東京都足立区南花畑3丁目19-26","lat":35.79043476,"lon":139.82729009},{"name":"(株)芦川花環葬儀社","province":"東京都","city":"足立区","address":"東京都足立区六月1丁目11-7","lat":35.78575436,"lon":139.7978732},{"name":"東葬儀社（株）","province":"東京都","city":"足立区","address":"東京都足立区関原2丁目1-26","lat":35.76501765,"lon":139.79095522},{"name":"（有）稲垣葬儀社本店","province":"東京都","city":"足立区","address":"東京都足立区千住仲町19-3","lat":35.74632333,"lon":139.80160027},{"name":"牛込葬儀社","province":"東京都","city":"足立区","address":"東京都足立区梅田2丁目16-18","lat":35.76517906,"lon":139.80205154},{"name":"エンドウセレモニー(有)","province":"東京都","city":"足立区","address":"東京都足立区鹿浜3丁目9-8","lat":35.77993983,"lon":139.75464662},{"name":"(株)小川由雄商店","province":"東京都","city":"足立区","address":"東京都足立区西新井本町1丁目15-14","lat":35.77769645,"lon":139.78180264},{"name":"(有)小澤葬儀社","province":"東京都","city":"足立区","address":"東京都足立区入谷4丁目10-24","lat":35.80593975,"lon":139.76093121},{"name":"(有)梶商店","province":"東京都","city":"足立区","address":"東京都足立区千住桜木1丁目9-2","lat":35.75061689,"lon":139.79406987},{"name":"(有)熊川式典総合サービス","province":"東京都","city":"足立区","address":"東京都足立区本木1丁目1-9","lat":35.76117076,"lon":139.78756679},{"name":"溜屋近藤商店(株)","province":"東京都","city":"足立区","address":"東京都足立区千住5丁目18-10","lat":35.75488048,"lon":139.80429093},{"name":"（有）根岸商店","province":"東京都","city":"足立区","address":"東京都足立区梅田6丁目9-11","lat":35.76626495,"lon":139.79835457},{"name":"肥後商店","province":"東京都","city":"足立区","address":"東京都足立区千住大川町48-1","lat":35.75524685,"lon":139.79563327},{"name":"芦川巌葬儀社（有）","province":"東京都","city":"足立区","address":"東京都足立区南花畑3丁目19-26","lat":35.79043476,"lon":139.82729009},{"name":"(株)芦川花環葬儀社","province":"東京都","city":"足立区","address":"東京都足立区六月1丁目11-7","lat":35.78575436,"lon":139.7978732},{"name":"東葬儀社（株）","province":"東京都","city":"足立区","address":"東京都足立区関原2丁目1-26","lat":35.76501765,"lon":139.79095522},{"name":"（有）稲垣葬儀社本店","province":"東京都","city":"足立区","address":"東京都足立区千住仲町19-3","lat":35.74632333,"lon":139.80160027},{"name":"牛込葬儀社","province":"東京都","city":"足立区","address":"東京都足立区梅田2丁目16-18","lat":35.76517906,"lon":139.80205154},{"name":"エンドウセレモニー(有)","province":"東京都","city":"足立区","address":"東京都足立区鹿浜3丁目9-8","lat":35.77993983,"lon":139.75464662},{"name":"(株)小川由雄商店","province":"東京都","city":"足立区","address":"東京都足立区西新井本町1丁目15-14","lat":35.77769645,"lon":139.78180264},{"name":"(有)小澤葬儀社","province":"東京都","city":"足立区","address":"東京都足立区入谷4丁目10-24","lat":35.80593975,"lon":139.76093121},{"name":"(有)梶商店","province":"東京都","city":"足立区","address":"東京都足立区千住桜木1丁目9-2","lat":35.75061689,"lon":139.79406987},{"name":"(有)熊川式典総合サービス","province":"東京都","city":"足立区","address":"東京都足立区本木1丁目1-9","lat":35.76117076,"lon":139.78756679},{"name":"溜屋近藤商店(株)","province":"東京都","city":"足立区","address":"東京都足立区千住5丁目18-10","lat":35.75488048,"lon":139.80429093},{"name":"（有）根岸商店","province":"東京都","city":"足立区","address":"東京都足立区梅田6丁目9-11","lat":35.76626495,"lon":139.79835457},{"name":"肥後商店","province":"東京都","city":"足立区","address":"東京都足立区千住大川町48-1","lat":35.75524685,"lon":139.79563327},{"name":"芦川巌葬儀社（有）","province":"東京都","city":"足立区","address":"東京都足立区南花畑3丁目19-26","lat":35.79043476,"lon":139.82729009},{"name":"(株)芦川花環葬儀社","province":"東京都","city":"足立区","address":"東京都足立区六月1丁目11-7","lat":35.78575436,"lon":139.7978732},{"name":"東葬儀社（株）","province":"東京都","city":"足立区","address":"東京都足立区関原2丁目1-26","lat":35.76501765,"lon":139.79095522},{"name":"（有）稲垣葬儀社本店","province":"東京都","city":"足立区","address":"東京都足立区千住仲町19-3","lat":35.74632333,"lon":139.80160027},{"name":"牛込葬儀社","province":"東京都","city":"足立区","address":"東京都足立区梅田2丁目16-18","lat":35.76517906,"lon":139.80205154},{"name":"エンドウセレモニー(有)","province":"東京都","city":"足立区","address":"東京都足立区鹿浜3丁目9-8","lat":35.77993983,"lon":139.75464662},{"name":"(株)小川由雄商店","province":"東京都","city":"足立区","address":"東京都足立区西新井本町1丁目15-14","lat":35.77769645,"lon":139.78180264},{"name":"(有)小澤葬儀社","province":"東京都","city":"足立区","address":"東京都足立区入谷4丁目10-24","lat":35.80593975,"lon":139.76093121},{"name":"(有)梶商店","province":"東京都","city":"足立区","address":"東京都足立区千住桜木1丁目9-2","lat":35.75061689,"lon":139.79406987},{"name":"(有)熊川式典総合サービス","province":"東京都","city":"足立区","address":"東京都足立区本木1丁目1-9","lat":35.76117076,"lon":139.78756679},{"name":"溜屋近藤商店(株)","province":"東京都","city":"足立区","address":"東京都足立区千住5丁目18-10","lat":35.75488048,"lon":139.80429093},{"name":"（有）根岸商店","province":"東京都","city":"足立区","address":"東京都足立区梅田6丁目9-11","lat":35.76626495,"lon":139.79835457},{"name":"肥後商店","province":"東京都","city":"足立区","address":"東京都足立区千住大川町48-1","lat":35.75524685,"lon":139.79563327},{"name":"芦川巌葬儀社（有）","province":"東京都","city":"足立区","address":"東京都足立区南花畑3丁目19-26","lat":35.79043476,"lon":139.82729009},{"name":"(株)芦川花環葬儀社","province":"東京都","city":"足立区","address":"東京都足立区六月1丁目11-7","lat":35.78575436,"lon":139.7978732},{"name":"東葬儀社（株）","province":"東京都","city":"足立区","address":"東京都足立区関原2丁目1-26","lat":35.76501765,"lon":139.79095522},{"name":"（有）稲垣葬儀社本店","province":"東京都","city":"足立区","address":"東京都足立区千住仲町19-3","lat":35.74632333,"lon":139.80160027},{"name":"牛込葬儀社","province":"東京都","city":"足立区","address":"東京都足立区梅田2丁目16-18","lat":35.76517906,"lon":139.80205154},{"name":"エンドウセレモニー(有)","province":"東京都","city":"足立区","address":"東京都足立区鹿浜3丁目9-8","lat":35.77993983,"lon":139.75464662},{"name":"(株)小川由雄商店","province":"東京都","city":"足立区","address":"東京都足立区西新井本町1丁目15-14","lat":35.77769645,"lon":139.78180264},{"name":"(有)小澤葬儀社","province":"東京都","city":"足立区","address":"東京都足立区入谷4丁目10-24","lat":35.80593975,"lon":139.76093121},{"name":"(有)梶商店","province":"東京都","city":"足立区","address":"東京都足立区千住桜木1丁目9-2","lat":35.75061689,"lon":139.79406987},{"name":"(有)熊川式典総合サービス","province":"東京都","city":"足立区","address":"東京都足立区本木1丁目1-9","lat":35.76117076,"lon":139.78756679},{"name":"溜屋近藤商店(株)","province":"東京都","city":"足立区","address":"東京都足立区千住5丁目18-10","lat":35.75488048,"lon":139.80429093},{"name":"（有）根岸商店","province":"東京都","city":"足立区","address":"東京都足立区梅田6丁目9-11","lat":35.76626495,"lon":139.79835457},{"name":"肥後商店","province":"東京都","city":"足立区","address":"東京都足立区千住大川町48-1","lat":35.75524685,"lon":139.79563327},{"name":"芦川巌葬儀社（有）","province":"東京都","city":"足立区","address":"東京都足立区南花畑3丁目19-26","lat":35.79043476,"lon":139.82729009},{"name":"(株)芦川花環葬儀社","province":"東京都","city":"足立区","address":"東京都足立区六月1丁目11-7","lat":35.78575436,"lon":139.7978732},{"name":"東葬儀社（株）","province":"東京都","city":"足立区","address":"東京都足立区関原2丁目1-26","lat":35.76501765,"lon":139.79095522},{"name":"（有）稲垣葬儀社本店","province":"東京都","city":"足立区","address":"東京都足立区千住仲町19-3","lat":35.74632333,"lon":139.80160027},{"name":"牛込葬儀社","province":"東京都","city":"足立区","address":"東京都足立区梅田2丁目16-18","lat":35.76517906,"lon":139.80205154},{"name":"エンドウセレモニー(有)","province":"東京都","city":"足立区","address":"東京都足立区鹿浜3丁目9-8","lat":35.77993983,"lon":139.75464662},{"name":"(株)小川由雄商店","province":"東京都","city":"足立区","address":"東京都足立区西新井本町1丁目15-14","lat":35.77769645,"lon":139.78180264},{"name":"(有)小澤葬儀社","province":"東京都","city":"足立区","address":"東京都足立区入谷4丁目10-24","lat":35.80593975,"lon":139.76093121},{"name":"(有)梶商店","province":"東京都","city":"足立区","address":"東京都足立区千住桜木1丁目9-2","lat":35.75061689,"lon":139.79406987},{"name":"(有)熊川式典総合サービス","province":"東京都","city":"足立区","address":"東京都足立区本木1丁目1-9","lat":35.76117076,"lon":139.78756679},{"name":"溜屋近藤商店(株)","province":"東京都","city":"足立区","address":"東京都足立区千住5丁目18-10","lat":35.75488048,"lon":139.80429093},{"name":"（有）根岸商店","province":"東京都","city":"足立区","address":"東京都足立区梅田6丁目9-11","lat":35.76626495,"lon":139.79835457},{"name":"肥後商店","province":"東京都","city":"足立区","address":"東京都足立区千住大川町48-1","lat":35.75524685,"lon":139.79563327},{"name":"芦川巌葬儀社（有）","province":"東京都","city":"足立区","address":"東京都足立区南花畑3丁目19-26","lat":35.79043476,"lon":139.82729009},{"name":"(株)芦川花環葬儀社","province":"東京都","city":"足立区","address":"東京都足立区六月1丁目11-7","lat":35.78575436,"lon":139.7978732},{"name":"東葬儀社（株）","province":"東京都","city":"足立区","address":"東京都足立区関原2丁目1-26","lat":35.76501765,"lon":139.79095522},{"name":"（有）稲垣葬儀社本店","province":"東京都","city":"足立区","address":"東京都足立区千住仲町19-3","lat":35.74632333,"lon":139.80160027},{"name":"牛込葬儀社","province":"東京都","city":"足立区","address":"東京都足立区梅田2丁目16-18","lat":35.76517906,"lon":139.80205154},{"name":"エンドウセレモニー(有)","province":"東京都","city":"足立区","address":"東京都足立区鹿浜3丁目9-8","lat":35.77993983,"lon":139.75464662},{"name":"(株)小川由雄商店","province":"東京都","city":"足立区","address":"東京都足立区西新井本町1丁目15-14","lat":35.77769645,"lon":139.78180264},{"name":"(有)小澤葬儀社","province":"東京都","city":"足立区","address":"東京都足立区入谷4丁目10-24","lat":35.80593975,"lon":139.76093121},{"name":"(有)梶商店","province":"東京都","city":"足立区","address":"東京都足立区千住桜木1丁目9-2","lat":35.75061689,"lon":139.79406987},{"name":"(有)熊川式典総合サービス","province":"東京都","city":"足立区","address":"東京都足立区本木1丁目1-9","lat":35.76117076,"lon":139.78756679},{"name":"溜屋近藤商店(株)","province":"東京都","city":"足立区","address":"東京都足立区千住5丁目18-10","lat":35.75488048,"lon":139.80429093},{"name":"（有）根岸商店","province":"東京都","city":"足立区","address":"東京都足立区梅田6丁目9-11","lat":35.76626495,"lon":139.79835457},{"name":"肥後商店","province":"東京都","city":"足立区","address":"東京都足立区千住大川町48-1","lat":35.75524685,"lon":139.79563327},{"name":"芦川巌葬儀社（有）","province":"東京都","city":"足立区","address":"東京都足立区南花畑3丁目19-26","lat":35.79043476,"lon":139.82729009},{"name":"(株)芦川花環葬儀社","province":"東京都","city":"足立区","address":"東京都足立区六月1丁目11-7","lat":35.78575436,"lon":139.7978732},{"name":"東葬儀社（株）","province":"東京都","city":"足立区","address":"東京都足立区関原2丁目1-26","lat":35.76501765,"lon":139.79095522},{"name":"（有）稲垣葬儀社本店","province":"東京都","city":"足立区","address":"東京都足立区千住仲町19-3","lat":35.74632333,"lon":139.80160027},{"name":"牛込葬儀社","province":"東京都","city":"足立区","address":"東京都足立区梅田2丁目16-18","lat":35.76517906,"lon":139.80205154},{"name":"エンドウセレモニー(有)","province":"東京都","city":"足立区","address":"東京都足立区鹿浜3丁目9-8","lat":35.77993983,"lon":139.75464662},{"name":"(株)小川由雄商店","province":"東京都","city":"足立区","address":"東京都足立区西新井本町1丁目15-14","lat":35.77769645,"lon":139.78180264},{"name":"(有)小澤葬儀社","province":"東京都","city":"足立区","address":"東京都足立区入谷4丁目10-24","lat":35.80593975,"lon":139.76093121},{"name":"(有)梶商店","province":"東京都","city":"足立区","address":"東京都足立区千住桜木1丁目9-2","lat":35.75061689,"lon":139.79406987},{"name":"(有)熊川式典総合サービス","province":"東京都","city":"足立区","address":"東京都足立区本木1丁目1-9","lat":35.76117076,"lon":139.78756679},{"name":"溜屋近藤商店(株)","province":"東京都","city":"足立区","address":"東京都足立区千住5丁目18-10","lat":35.75488048,"lon":139.80429093},{"name":"（有）根岸商店","province":"東京都","city":"足立区","address":"東京都足立区梅田6丁目9-11","lat":35.76626495,"lon":139.79835457},{"name":"肥後商店","province":"東京都","city":"足立区","address":"東京都足立区千住大川町48-1","lat":35.75524685,"lon":139.79563327},{"name":"芦川巌葬儀社（有）","province":"東京都","city":"足立区","address":"東京都足立区南花畑3丁目19-26","lat":35.79043476,"lon":139.82729009},{"name":"(株)芦川花環葬儀社","province":"東京都","city":"足立区","address":"東京都足立区六月1丁目11-7","lat":35.78575436,"lon":139.7978732},{"name":"東葬儀社（株）","province":"東京都","city":"足立区","address":"東京都足立区関原2丁目1-26","lat":35.76501765,"lon":139.79095522},{"name":"（有）稲垣葬儀社本店","province":"東京都","city":"足立区","address":"東京都足立区千住仲町19-3","lat":35.74632333,"lon":139.80160027},{"name":"牛込葬儀社","province":"東京都","city":"足立区","address":"東京都足立区梅田2丁目16-18","lat":35.76517906,"lon":139.80205154},{"name":"エンドウセレモニー(有)","province":"東京都","city":"足立区","address":"東京都足立区鹿浜3丁目9-8","lat":35.77993983,"lon":139.75464662},{"name":"(株)小川由雄商店","province":"東京都","city":"足立区","address":"東京都足立区西新井本町1丁目15-14","lat":35.77769645,"lon":139.78180264},{"name":"(有)小澤葬儀社","province":"東京都","city":"足立区","address":"東京都足立区入谷4丁目10-24","lat":35.80593975,"lon":139.76093121},{"name":"(有)梶商店","province":"東京都","city":"足立区","address":"東京都足立区千住桜木1丁目9-2","lat":35.75061689,"lon":139.79406987},{"name":"(有)熊川式典総合サービス","province":"東京都","city":"足立区","address":"東京都足立区本木1丁目1-9","lat":35.76117076,"lon":139.78756679},{"name":"溜屋近藤商店(株)","province":"東京都","city":"足立区","address":"東京都足立区千住5丁目18-10","lat":35.75488048,"lon":139.80429093},{"name":"（有）根岸商店","province":"東京都","city":"足立区","address":"東京都足立区梅田6丁目9-11","lat":35.76626495,"lon":139.79835457},{"name":"肥後商店","province":"東京都","city":"足立区","address":"東京都足立区千住大川町48-1","lat":35.75524685,"lon":139.79563327}]}