{"keyword":"福祉","data":[{"name":"足立区（中部第一福祉課）","province":"東京都","city":"足立区","address":"足立区中央本町4-5-2","lat":35.77675,"lon":139.80579},{"name":"足立区（中部第二福祉課）","province":"東京都","city":"足立区","address":"足立区中央本町4-5-2","lat":35.77675,"lon":139.80579},{"name":"足立区（千住福祉課）","province":"東京都","city":"足立区","address":"足立区千住仲町19-3","lat":35.74637,"lon":139.80156},{"name":"足立区（東部福祉課）","province":"東京都","city":"足立区","address":"足立区東綾瀬1-26-2","lat":35.76601,"lon":139.83145},{"name":"足立区（西部福祉課）","province":"東京都","city":"足立区","address":"足立区鹿浜8-27-15","lat":35.78996,"lon":139.76459},{"name":"足立区（北部福祉課）","province":"東京都","city":"足立区","address":"足立区竹の塚2-25-17","lat":35.79232,"lon":139.79488},{"name":"足立区（中部第一福祉課）","province":"東京都","city":"足立区","address":"足立区中央本町4-5-2","lat":35.776744,"lon":139.805931},{"name":"足立区（中部第二福祉課）","province":"東京都","city":"足立区","address":"足立区中央本町4-5-2","lat":35.776744,"lon":139.805931},{"name":"足立区（千住福祉課）","province":"東京都","city":"足立区","address":"足立区千住仲町19-3","lat":35.746346,"lon":139.801617},{"name":"足立区（東部福祉課）","province":"東京都","city":"足立区","address":"足立区東綾瀬1-26-2","lat":35.765879,"lon":139.831202},{"name":"足立区（西部福祉課）","province":"東京都","city":"足立区","address":"足立区鹿浜8-27-15","lat":35.789938,"lon":139.764951},{"name":"足立区（北部福祉課）","province":"東京都","city":"足立区","address":"足立区竹の塚2-25-17","lat":35.792617,"lon":139.79467}]}