{"keyword":"給水","data":[{"name":"小右衛門給水所","province":"東京都","city":"足立区","address":"東京都足立区中央本町3-8-1","lat":35.7721511,"lon":139.807309},{"name":"区総合スポーツセンター","province":"東京都","city":"足立区","address":"東京都足立区東保木間2-27-1","lat":35.791311,"lon":139.8140941},{"name":"区立千住スポーツ公園","province":"東京都","city":"足立区","address":"東京都足立区千住緑町2-1-1","lat":35.7440262,"lon":139.7951426},{"name":"区立諏訪木東公園","province":"東京都","city":"足立区","address":"東京都足立区西新井3-25","lat":35.7899898,"lon":139.779992},{"name":"区立大谷田南公園","province":"東京都","city":"足立区","address":"東京都足立区中川4-42-1","lat":35.7721532,"lon":139.8493937},{"name":"区立北鹿浜公園","province":"東京都","city":"足立区","address":"東京都足立区鹿浜3-26","lat":35.7821245,"lon":139.7536455},{"name":"都立舎人公園","province":"東京都","city":"足立区","address":"東京都足立区舎人公園1-1","lat":35.7967372,"lon":139.7681512},{"name":"区立北宮城町公園","province":"東京都","city":"足立区","address":"東京都足立区扇2-37-1","lat":35.7669098,"lon":139.7702},{"name":"江北給水所","province":"東京都","city":"足立区","address":"東京都足立区江北5-5","lat":35.77803,"lon":139.76945}]}