{"keyword":"脳","data":[{"name":"足立区障がい福祉センター社会リハビリテーション室","province":"東京都","city":"足立区","address":"東京都足立区梅島3丁目31-19","lat":35.77750514,"lon":139.79292116},{"name":"足立区精神障がい者自立支援センター（旧ふれんどりぃ）","province":"東京都","city":"足立区","address":"東京都足立区竹の塚6丁目18-4","lat":35.7966252,"lon":139.79267603},{"name":"足立区大谷田就労支援センター","province":"東京都","city":"足立区","address":"東京都足立区大谷田1丁目44-3","lat":35.77998614,"lon":139.84528619},{"name":"地域活動支援センターピア・さくら","province":"東京都","city":"足立区","address":"東京都足立区青井3丁目8-31","lat":35.76953721,"lon":139.82037468},{"name":"一般社団法人つくしの郷メロディー竹の塚","province":"東京都","city":"足立区","address":"東京都足立区保木間1丁目1-13","lat":35.78899859,"lon":139.80406147},{"name":"社会福祉法人はなさく福祉会花畑共同作業所","province":"東京都","city":"足立区","address":"東京都足立区東六月町5-20","lat":35.78863198,"lon":139.80422813},{"name":"株式会社NoWallけいSHAER","province":"東京都","city":"足立区","address":"東京都足立区西新井2丁目32-14","lat":35.78601209,"lon":139.77973304},{"name":"社会福祉法人平成記念OUCHICAFE・KITCHEN","province":"東京都","city":"足立区","address":"東京都足立区西新井5丁目18-14","lat":35.78408171,"lon":139.77802771}]}