{"keyword":"自転車","data":[{"name":"綾瀬南自転車駐車場","province":"東京都","city":"足立区","address":"東京都足立区綾瀬2丁目25-4","lat":35.7618077,"lon":139.82642447},{"name":"綾瀬西自転車駐車場","province":"東京都","city":"足立区","address":"東京都足立区綾瀬4丁目1-11","lat":35.76161317,"lon":139.82100828},{"name":"サイクルパーク綾瀬自転車駐車場","province":"東京都","city":"足立区","address":"東京都足立区綾瀬3丁目9-6","lat":35.76364638,"lon":139.82700768},{"name":"東綾瀬公園第一自転車駐車場","province":"東京都","city":"足立区","address":"東京都足立区綾瀬3丁目9","lat":35.76377413,"lon":139.82727432},{"name":"東綾瀬公園第二自転車駐車場","province":"東京都","city":"足立区","address":"東京都足立区綾瀬3丁目14","lat":35.76415465,"lon":139.82719931},{"name":"北千住南自転車駐車場","province":"東京都","city":"足立区","address":"東京都足立区千住旭町42-3","lat":35.74853141,"lon":139.80439428},{"name":"北千住北自転車駐車場","province":"東京都","city":"足立区","address":"東京都足立区千住旭町42-2","lat":35.74956738,"lon":139.80483303},{"name":"北千住西口自転車駐車場","province":"東京都","city":"足立区","address":"東京都足立区千住旭町42-2","lat":35.74956738,"lon":139.80483303},{"name":"竹の塚東自転車駐車場Ａ棟","province":"東京都","city":"足立区","address":"東京都足立区竹の塚6丁目16-9","lat":35.79611133,"lon":139.79169557},{"name":"竹の塚東自転車駐車場Ｂ棟","province":"東京都","city":"足立区","address":"東京都足立区竹の塚6丁目16-9","lat":35.79611133,"lon":139.79169557},{"name":"竹の塚南自転車駐車場","province":"東京都","city":"足立区","address":"東京都足立区西竹の塚1丁目14-5","lat":35.79364763,"lon":139.78856258},{"name":"竹の塚西自転車駐車場","province":"東京都","city":"足立区","address":"東京都足立区西竹の塚2丁目12-2","lat":35.79670009,"lon":139.78993181},{"name":"西新井南自転車駐車場","province":"東京都","city":"足立区","address":"東京都足立区梅島3丁目28-1","lat":35.77622192,"lon":139.79181019},{"name":"西新井自転車駐車場","province":"東京都","city":"足立区","address":"東京都足立区梅田8丁目14","lat":35.77360842,"lon":139.79473229},{"name":"大師前自転車駐車場","province":"東京都","city":"足立区","address":"東京都足立区西新井1丁目16-15","lat":35.78014061,"lon":139.78141646},{"name":"五反野北自転車駐車場","province":"東京都","city":"足立区","address":"東京都足立区足立4丁目17-25","lat":35.76774275,"lon":139.80647047},{"name":"ベルモント公園自転車駐車場","province":"東京都","city":"足立区","address":"東京都足立区梅島1丁目33","lat":35.77476673,"lon":139.79903188},{"name":"青井駅自転車駐車場","province":"東京都","city":"足立区","address":"東京都足立区青井3丁目24-1","lat":35.77232855,"lon":139.82009682},{"name":"六町駅自転車駐車場","province":"東京都","city":"足立区","address":"東京都足立区六町4丁目1-25","lat":35.78426327,"lon":139.82137964},{"name":"見沼代親水公園駅自転車駐車場","province":"東京都","city":"足立区","address":"東京都足立区舎人5丁目21-26","lat":35.81370821,"lon":139.77021909},{"name":"舎人公園駅下自転車駐車場","province":"東京都","city":"足立区","address":"東京都足立区舎人公園1-10","lat":35.79636617,"lon":139.7701696},{"name":"谷在家駅東自転車駐車場","province":"東京都","city":"足立区","address":"東京都足立区谷在家1丁目21-3","lat":35.78797824,"lon":139.7709615},{"name":"谷在家駅西自転車駐車場","province":"東京都","city":"足立区","address":"東京都足立区谷在家3丁目20-19","lat":35.78889754,"lon":139.7698449},{"name":"西新井大師西駅東自転車駐車場","province":"東京都","city":"足立区","address":"東京都足立区西新井7丁目16-11","lat":35.78155677,"lon":139.77049235},{"name":"西新井大師西駅第１自転車駐車場","province":"東京都","city":"足立区","address":"東京都足立区江北6丁目30-23","lat":35.7815012,"lon":139.77007294},{"name":"西新井大師西駅第２自転車駐車場","province":"東京都","city":"足立区","address":"東京都足立区江北6丁目30-23","lat":35.7815012,"lon":139.77007294},{"name":"西新井大師西駅第４自転車駐車場","province":"東京都","city":"足立区","address":"東京都足立区江北6丁目10","lat":35.78003467,"lon":139.76870091},{"name":"江北駅東自転車駐車場","province":"東京都","city":"足立区","address":"東京都足立区西新井本町2丁目32-17","lat":35.77382437,"lon":139.77086209},{"name":"江北駅西第２自転車駐車場","province":"東京都","city":"足立区","address":"東京都足立区江北4丁目30","lat":35.77369102,"lon":139.76977886},{"name":"高野駅東自転車駐車場","province":"東京都","city":"足立区","address":"東京都足立区扇3丁目4-12","lat":35.76807783,"lon":139.77088735},{"name":"高野駅西自転車駐車場","province":"東京都","city":"足立区","address":"東京都足立区扇2丁目38","lat":35.76762508,"lon":139.76988468},{"name":"扇大橋駅東自転車駐車場","province":"東京都","city":"足立区","address":"東京都足立区扇1丁目21-11","lat":35.76430886,"lon":139.77107641},{"name":"扇大橋駅下自転車駐車場","province":"東京都","city":"足立区","address":"東京都足立区扇2丁目25-1","lat":35.76344505,"lon":139.77053762},{"name":"足立小台駅自転車駐車場","province":"東京都","city":"足立区","address":"東京都足立区小台1丁目20-1","lat":35.75464896,"lon":139.77039374},{"name":"宮城二丁目自転車駐車場","province":"東京都","city":"足立区","address":"東京都足立区宮城2丁目4","lat":35.76221695,"lon":139.75485295},{"name":"椿二丁目自転車駐車場","province":"東京都","city":"足立区","address":"東京都足立区椿2丁目21-1","lat":35.77841522,"lon":139.76112387},{"name":"江北陸橋下自転車駐車場","province":"東京都","city":"足立区","address":"東京都足立区江北6丁目1","lat":35.77885151,"lon":139.76971475},{"name":"神明一丁目自転車駐車場","province":"東京都","city":"足立区","address":"東京都足立区神明1丁目11-15","lat":35.79292889,"lon":139.82904266},{"name":"鹿浜二丁目自転車駐車場","province":"東京都","city":"足立区","address":"東京都足立区鹿浜2丁目24-2","lat":35.78059511,"lon":139.74915266},{"name":"cycle24h綾瀬東駐輪場","province":"東京都","city":"足立区","address":"東京都足立区西綾瀬3丁目11-6","lat":35.76404059,"lon":139.81623642},{"name":"舎人公園東自転車駐車場","province":"東京都","city":"足立区","address":"東京都足立区古千谷1丁目","lat":35.7959858,"lon":139.7745109},{"name":"西新井東自転車駐車場","province":"東京都","city":"足立区","address":"東京都足立区栗原1丁目7-5","lat":35.77891321,"lon":139.78962415},{"name":"西新井西自転車駐車場","province":"東京都","city":"足立区","address":"東京都足立区栗原3丁目1-1","lat":35.77852435,"lon":139.78894089},{"name":"神明南自転車駐車場","province":"東京都","city":"足立区","address":"東京都足立区神明南1丁目18","lat":35.78930435,"lon":139.82779564},{"name":"竹ノ塚駅西口公共駐車場","province":"東京都","city":"足立区","address":"東京都足立区西竹の塚1丁目11-2","lat":35.79335326,"lon":139.78973472},{"name":"CCP竹の塚東口駅前自転車駐輪場","province":"東京都","city":"足立区","address":"東京都足立区竹の塚1丁目41","lat":35.79370049,"lon":139.79118737},{"name":"cycle24h竹の塚２丁目駐輪場","province":"東京都","city":"足立区","address":"東京都足立区竹の塚2丁目25","lat":35.79218967,"lon":139.79484267},{"name":"cycle24h千住三丁目駐輪場","province":"東京都","city":"足立区","address":"東京都足立区千住3丁目58","lat":35.75211976,"lon":139.80415229},{"name":"CCP江北駅西口駐輪場","province":"東京都","city":"足立区","address":"東京都足立区江北4丁目1","lat":35.77308277,"lon":139.76987888}]}