{"keyword":"葬儀","data":[{"name":"芦川巌葬儀社（有）","province":"東京都","city":"足立区","address":"東京都足立区南花畑3丁目19-26","lat":35.79043476,"lon":139.82729009},{"name":"(株)芦川花環葬儀社","province":"東京都","city":"足立区","address":"東京都足立区六月1丁目11-7","lat":35.78575436,"lon":139.7978732},{"name":"東葬儀社（株）","province":"東京都","city":"足立区","address":"東京都足立区関原2丁目1-26","lat":35.76501765,"lon":139.79095522},{"name":"（有）稲垣葬儀社本店","province":"東京都","city":"足立区","address":"東京都足立区千住仲町19-3","lat":35.74632333,"lon":139.80160027},{"name":"牛込葬儀社","province":"東京都","city":"足立区","address":"東京都足立区梅田2丁目16-18","lat":35.76517906,"lon":139.80205154},{"name":"エンドウセレモニー(有)","province":"東京都","city":"足立区","address":"東京都足立区鹿浜3丁目9-8","lat":35.77993983,"lon":139.75464662},{"name":"(株)小川由雄商店","province":"東京都","city":"足立区","address":"東京都足立区西新井本町1丁目15-14","lat":35.77769645,"lon":139.78180264},{"name":"(有)小澤葬儀社","province":"東京都","city":"足立区","address":"東京都足立区入谷4丁目10-24","lat":35.80593975,"lon":139.76093121},{"name":"(有)梶商店","province":"東京都","city":"足立区","address":"東京都足立区千住桜木1丁目9-2","lat":35.75061689,"lon":139.79406987},{"name":"(有)熊川式典総合サービス","province":"東京都","city":"足立区","address":"東京都足立区本木1丁目1-9","lat":35.76117076,"lon":139.78756679},{"name":"溜屋近藤商店(株)","province":"東京都","city":"足立区","address":"東京都足立区千住5丁目18-10","lat":35.75488048,"lon":139.80429093},{"name":"（有）根岸商店","province":"東京都","city":"足立区","address":"東京都足立区梅田6丁目9-11","lat":35.76626495,"lon":139.79835457},{"name":"肥後商店","province":"東京都","city":"足立区","address":"東京都足立区千住大川町48-1","lat":35.75524685,"lon":139.79563327}]}