{"keyword":"認可","data":[{"name":"ビーフェア東和親水保育園","province":"東京都","city":"足立区","address":"足立区東和2-26-9","lat":35.77027,"lon":139.84279},{"name":"AIAI NURSERY 綾瀬六丁目","province":"東京都","city":"足立区","address":"足立区綾瀬6-7-13","lat":35.7706,"lon":139.82414},{"name":"AIAI NURSERY 北綾瀬","province":"東京都","city":"足立区","address":"足立区谷中4-12-7","lat":35.77843,"lon":139.83263},{"name":"あい保育園千住大橋","province":"東京都","city":"足立区","address":"足立区千住河原町6-12","lat":35.74475,"lon":139.79579},{"name":"AIAI NURSERY 高野","province":"東京都","city":"足立区","address":"足立区扇2-27-3","lat":35.76659,"lon":139.77036},{"name":"あい・あい保育園綾瀬六丁目園","province":"東京都","city":"足立区","address":"足立区綾瀬6-7-13","lat":35.7706,"lon":139.82414},{"name":"あい・あい保育園北綾瀬園","province":"東京都","city":"足立区","address":"足立区谷中4-12-7","lat":35.77843,"lon":139.83263},{"name":"チェリッシュやなか保育園","province":"東京都","city":"足立区","address":"足立区谷中4-20-15","lat":35.78415,"lon":139.83321},{"name":"日生梅島第二保育園ひびき","province":"東京都","city":"足立区","address":"足立区梅島3-17-20","lat":35.77434,"lon":139.79507},{"name":"日生梅島保育園ひびき","province":"東京都","city":"足立区","address":"足立区梅田5-25-33ロイヤルパークス梅島1階","lat":35.76984,"lon":139.79543},{"name":"あい・あい保育園高野園","province":"東京都","city":"足立区","address":"足立区扇2-27-3","lat":35.76659,"lon":139.77036},{"name":"大谷田第一保育園","province":"東京都","city":"足立区","address":"足立区大谷田1-1-5-101","lat":35.77963,"lon":139.84354},{"name":"ナーサリースクールいずみ大谷田","province":"東京都","city":"足立区","address":"足立区大谷田1-1-9-101","lat":35.77963,"lon":139.84354},{"name":"あやせ保育園","province":"東京都","city":"足立区","address":"足立区東綾瀬2-9-18","lat":35.76671,"lon":139.83225},{"name":"キッズガーデン足立綾瀬","province":"東京都","city":"足立区","address":"足立区綾瀬4-17-4","lat":35.7651,"lon":139.82343},{"name":"キッズガーデン足立青井","province":"東京都","city":"足立区","address":"足立区青井2-18-12","lat":35.77231,"lon":139.81407},{"name":"西綾瀬りりおっこ保育園","province":"東京都","city":"足立区","address":"足立区西綾瀬4-2-4","lat":35.76259,"lon":139.81848},{"name":"子ひばり保育園","province":"東京都","city":"足立区","address":"足立区足立2-33-2","lat":35.76087,"lon":139.8122},{"name":"まなびの森保育園千住大橋","province":"東京都","city":"足立区","address":"足立区千住緑町2-5-10","lat":35.74526,"lon":139.79466},{"name":"きたあやせこころ保育園","province":"東京都","city":"足立区","address":"足立区加平3-12-8","lat":35.78079,"lon":139.82831},{"name":"未来っ子保育園北加平町園","province":"東京都","city":"足立区","address":"足立区北加平町5-2","lat":35.78322,"lon":139.82832},{"name":"レイモンド花畑保育園","province":"東京都","city":"足立区","address":"足立区花畑3-42-8","lat":35.80607,"lon":139.81488},{"name":"北保木間保育園","province":"東京都","city":"足立区","address":"足立区南花畑5-15-3-101","lat":35.79561,"lon":139.8112},{"name":"たんぽぽ保育所六町園","province":"東京都","city":"足立区","address":"足立区六町3-7-47フェルックス1F","lat":35.78618,"lon":139.81928},{"name":"西保木間保育園","province":"東京都","city":"足立区","address":"足立区西保木間2-17-5-101","lat":35.80216,"lon":139.79877},{"name":"渕江保育園","province":"東京都","city":"足立区","address":"足立区竹の塚2-9-3","lat":35.78927,"lon":139.79648},{"name":"伊興大境保育園","province":"東京都","city":"足立区","address":"足立区西竹の塚1-10-5-101","lat":35.79078,"lon":139.78803},{"name":"ｉ-保育園","province":"東京都","city":"足立区","address":"足立区西新井4-28-7","lat":35.78819,"lon":139.77646},{"name":"西新井保育園","province":"東京都","city":"足立区","address":"足立区西新井2-21-2","lat":35.78494,"lon":139.77966},{"name":"ちゃいれっく西新井駅前保育園","province":"東京都","city":"足立区","address":"足立区西新井栄町2-3-7","lat":35.77646,"lon":139.78964},{"name":"アスク扇保育園","province":"東京都","city":"足立区","address":"足立区扇3-5-12","lat":35.76756,"lon":139.77239},{"name":"ナーサリースクールいずみ大谷田","province":"東京都","city":"足立区","address":"足立区大谷田1-1-9-101","lat":35.77782,"lon":139.84604},{"name":"東保育園","province":"東京都","city":"足立区","address":"足立区東和5-5-23","lat":35.77523,"lon":139.83823},{"name":"宮城保育園","province":"東京都","city":"足立区","address":"足立区宮城1-5-6-101","lat":35.76225,"lon":139.80421},{"name":"六木保育園","province":"東京都","city":"足立区","address":"足立区六木1-5-10-101","lat":35.76384,"lon":139.80453},{"name":"花畑桑袋保育園","province":"東京都","city":"足立区","address":"足立区花畑8-5-15-101","lat":35.81347,"lon":139.8237},{"name":"南保木間保育園","province":"東京都","city":"足立区","address":"足立区東保木間1-5-16-101","lat":35.78814,"lon":139.81482},{"name":"竹の塚保育園","province":"東京都","city":"足立区","address":"足立区竹の塚3-7-33-106","lat":35.79954,"lon":139.79588},{"name":"いりや第一保育園","province":"東京都","city":"足立区","address":"足立区舎人6-12-5-101","lat":35.76134,"lon":139.80788},{"name":"いりや第二保育園","province":"東京都","city":"足立区","address":"足立区舎人6-11-2-101","lat":35.78562,"lon":139.79744},{"name":"日生梅島保育園ひびき","province":"東京都","city":"足立区","address":"足立区梅田5-25-33ロイヤルパークス梅島1階","lat":35.76652,"lon":139.79333},{"name":"新田さくら保育園","province":"東京都","city":"足立区","address":"足立区新田1-14-12-101","lat":35.78218,"lon":139.81114},{"name":"さつき保育園","province":"東京都","city":"足立区","address":"足立区江北1-15-3-103","lat":35.77936,"lon":139.81206}]}