{"keyword":"館","data":[{"name":"興本児童館","province":"東京都","city":"足立区","address":"足立区本木東町17-10","lat":35.76722,"lon":139.78117},{"name":"大谷田児童館","province":"東京都","city":"足立区","address":"足立区大谷田1-1-2-101","lat":35.77963,"lon":139.84354},{"name":"竹の塚六月児童館","province":"東京都","city":"足立区","address":"足立区六月2-26-3-101","lat":35.78807,"lon":139.79656},{"name":"青井児童館","province":"東京都","city":"足立区","address":"足立区青井5-11-40-101","lat":35.77156,"lon":139.81064},{"name":"渕江住区センター分館児童館","province":"東京都","city":"足立区","address":"足立区西保木間3-14-16-101","lat":35.80207,"lon":139.79684},{"name":"入谷児童館","province":"東京都","city":"足立区","address":"足立区舎人6-12-4-101","lat":35.78478,"lon":139.82129},{"name":"＊?中央図書館","province":"東京都","city":"足立区","address":"足立区千住5-13-5","lat":35.756577,"lon":139.802512},{"name":"＊?花畑図書館","province":"東京都","city":"足立区","address":"足立区花畑4-16-8","lat":35.802827,"lon":139.807458},{"name":"＊?竹の塚図書館","province":"東京都","city":"足立区","address":"足立区竹の塚2-25-17","lat":35.792631,"lon":139.794598},{"name":"＊?やよい図書館","province":"東京都","city":"足立区","address":"足立区中央本町3-15-1","lat":35.77225,"lon":139.809721},{"name":"＊?東和図書館","province":"東京都","city":"足立区","address":"足立区東和3-12-9","lat":35.771103,"lon":139.83957},{"name":"＊?佐野図書館","province":"東京都","city":"足立区","address":"足立区佐野2-43-5","lat":35.788137,"lon":139.840248},{"name":"＊?舎人図書館","province":"東京都","city":"足立区","address":"足立区舎人1-3-26","lat":35.806068,"lon":139.773204},{"name":"＊?保塚図書館","province":"東京都","city":"足立区","address":"足立区保塚町7-16","lat":35.786691,"lon":139.816105},{"name":"＊?江北図書館","province":"東京都","city":"足立区","address":"足立区江北3-39-4","lat":35.775859,"lon":139.760069},{"name":"＊?江南コミュニティ図書館","province":"東京都","city":"足立区","address":"足立区小台2-4-18","lat":35.755856,"lon":139.757475},{"name":"＊?新田コミュニティ図書館","province":"東京都","city":"足立区","address":"足立区新田2-2-2","lat":35.771499,"lon":139.738115},{"name":"＊?興本図書館","province":"東京都","city":"足立区","address":"足立区興野1-18-38","lat":35.768306,"lon":139.782379},{"name":"＊?伊興図書館","province":"東京都","city":"足立区","address":"足立区伊興2-4-22","lat":35.791207,"lon":139.780993},{"name":"＊?鹿浜図書館","province":"東京都","city":"足立区","address":"足立区鹿浜6-8-1","lat":35.783972,"lon":139.758271},{"name":"＊?梅田図書館","province":"東京都","city":"足立区","address":"足立区梅田7-13-1","lat":35.768336,"lon":139.800716}]}