{"keyword":"救護","data":[{"name":"東京慈恵会医科大学附属第三病院","province":"東京都","city":"狛江市","address":"東京都狛江市和泉本町4丁目11-1","lat":35.64548376,"lon":139.56598762},{"name":"（医社）桐光会　調布病院","province":"東京都","city":"調布市","address":"東京都調布市下石原3丁目45-1","lat":35.6509579,"lon":139.53269074},{"name":"（医社）東山会　調布東山病院","province":"東京都","city":"調布市","address":"東京都調布市小島町2丁目32-17","lat":35.65194368,"lon":139.54189507},{"name":"（医社）青山会　青木病院","province":"東京都","city":"調布市","address":"東京都調布市上石原3丁目33-17","lat":35.6504912,"lon":139.52462763},{"name":"（医社）飯野病院","province":"東京都","city":"調布市","address":"東京都調布市布田4丁目3-2","lat":35.65122433,"lon":139.545042},{"name":"（医社）大和会　多摩川病院","province":"東京都","city":"調布市","address":"東京都調布市国領町5丁目31-1","lat":35.64864994,"lon":139.55413032},{"name":"（医社）大坪会　北多摩病院","province":"東京都","city":"調布市","address":"東京都調布市調布ケ丘4丁目1-1","lat":35.65958141,"lon":139.54369162},{"name":"（医社）欣助会　吉祥寺病院","province":"東京都","city":"調布市","address":"東京都調布市深大寺北町4丁目17-1","lat":35.68020136,"lon":139.5514541},{"name":"優仁ホーム","province":"東京都","city":"八王子市","address":"八王子市美山町1463","lat":35.68466,"lon":139.25623},{"name":"光華","province":"東京都","city":"八王子市","address":"八王子市鑓水428","lat":35.62213,"lon":139.34196},{"name":"昭島荘","province":"東京都","city":"昭島市","address":"昭島市中神町1260","lat":35.70815,"lon":139.38135},{"name":"くるめ園","province":"東京都","city":"小平市","address":"小平市上水南町4-7-45","lat":35.71013,"lon":139.4913},{"name":"あかつき","province":"東京都","city":"小平市","address":"小平市小川町1-485","lat":35.72841,"lon":139.44067},{"name":"黎明寮","province":"東京都","city":"小平市","address":"小平市小川町1-485","lat":35.72841,"lon":139.44067},{"name":"光の家神愛園","province":"東京都","city":"日野市","address":"日野市旭が丘1-17-17","lat":35.65611,"lon":139.37268},{"name":"村山荘","province":"東京都","city":"東村山市","address":"東村山市富士見町2-7-5","lat":35.74027,"lon":139.45242},{"name":"さつき荘","province":"東京都","city":"東村山市","address":"東村山市富士見町2-8-2","lat":35.7401,"lon":139.45364},{"name":"救世軍自省館","province":"東京都","city":"清瀬市","address":"清瀬市竹丘1-17-60","lat":35.76948,"lon":139.50812},{"name":"光華","province":"東京都","city":"八王子市","address":"八王子市鑓水428","lat":35.622306,"lon":139.342163},{"name":"優仁ホーム","province":"東京都","city":"八王子市","address":"八王子市美山町1463","lat":35.684752,"lon":139.257315},{"name":"昭島荘","province":"東京都","city":"昭島市","address":"昭島市中神町1260","lat":35.709385,"lon":139.382215},{"name":"あかつき","province":"東京都","city":"小平市","address":"小平市小川町1-485","lat":35.727651,"lon":139.440373},{"name":"くるめ園","province":"東京都","city":"小平市","address":"小平市上水南町4-7-45","lat":35.708799,"lon":139.491028},{"name":"黎明寮","province":"東京都","city":"小平市","address":"小平市小川町1-485","lat":35.727651,"lon":139.440373},{"name":"光の家神愛園","province":"東京都","city":"日野市","address":"日野市旭が丘1-17-17","lat":35.656652,"lon":139.372803},{"name":"さつき荘","province":"東京都","city":"東村山市","address":"東村山市富士見町2-8-2","lat":35.740609,"lon":139.453774},{"name":"村山荘","province":"東京都","city":"東村山市","address":"東村山市富士見町2-7-5","lat":35.740203,"lon":139.452535},{"name":"救世軍自省館","province":"東京都","city":"清瀬市","address":"清瀬市竹丘1-17-60","lat":35.769099,"lon":139.507385},{"name":"光華","province":"東京都","city":"八王子市","address":"八王子市鑓水428","lat":35.62213,"lon":139.34197},{"name":"さつき荘","province":"東京都","city":"東村山市","address":"東村山市富士見町2-8-2","lat":35.74011,"lon":139.45364}]}