{"keyword":"設置","data":[{"name":"駒場保育園","province":"東京都","city":"目黒区","address":"東京都目黒区駒場一丁目22番1号","lat":35.65653,"lon":139.686563},{"name":"駒場住区センター","province":"東京都","city":"目黒区","address":"東京都目黒区駒場一丁目22番4号","lat":35.656295,"lon":139.686531},{"name":"駒場老人いこいの家","province":"東京都","city":"目黒区","address":"東京都目黒区駒場一丁目26番6号","lat":35.657158,"lon":139.685425},{"name":"駒場児童館","province":"東京都","city":"目黒区","address":"東京都目黒区駒場二丁目7番5号","lat":35.658766,"lon":139.682028},{"name":"駒場野公園・拡張部","province":"東京都","city":"目黒区","address":"東京都目黒区駒場二丁目17番20号","lat":35.65644399,"lon":139.6813395},{"name":"駒場体育館","province":"東京都","city":"目黒区","address":"東京都目黒区駒場二丁目19番39号","lat":35.658083,"lon":139.680147},{"name":"菅刈住区センター","province":"東京都","city":"目黒区","address":"東京都目黒区青葉台二丁目10番18号","lat":35.649801,"lon":139.695613},{"name":"菅刈保育園","province":"東京都","city":"目黒区","address":"東京都目黒区青葉台二丁目10番27号","lat":35.64999,"lon":139.69521},{"name":"東山公園・拡張部","province":"東京都","city":"目黒区","address":"東京都目黒区東山二丁目18番9号","lat":35.64676488,"lon":139.6875969},{"name":"東山住区センター","province":"東京都","city":"目黒区","address":"東京都目黒区東山二丁目24番30号","lat":35.646695,"lon":139.685956},{"name":"ひがしやま幼稚園","province":"東京都","city":"目黒区","address":"東京都目黒区東山三丁目24番2号","lat":35.648048,"lon":139.685593},{"name":"東山地区センター","province":"東京都","city":"目黒区","address":"東京都目黒区東山三丁目24番2号","lat":35.6480476,"lon":139.6855909},{"name":"特別養護老人ホーム東山","province":"東京都","city":"目黒区","address":"東京都目黒区東山三丁目24番6号","lat":35.647391,"lon":139.685474},{"name":"北部地区サービス事務所","province":"東京都","city":"目黒区","address":"東京都目黒区大橋一丁目5番1号","lat":35.651456,"lon":139.688433},{"name":"オーパス夢ひろば","province":"東京都","city":"目黒区","address":"東京都目黒区大橋一丁目9番4号","lat":35.65135939,"lon":139.6882184},{"name":"大橋えのき園","province":"東京都","city":"目黒区","address":"東京都目黒区大橋二丁目19番38号","lat":35.655426,"lon":139.682005},{"name":"烏森小学校","province":"東京都","city":"目黒区","address":"東京都目黒区上目黒三丁目37番27号","lat":35.644365,"lon":139.692883},{"name":"烏森住区センター児童館学童保育クラブ","province":"東京都","city":"目黒区","address":"東京都目黒区上目黒三丁目37番27号","lat":35.64396967,"lon":139.6920223},{"name":"烏森住区センター","province":"東京都","city":"目黒区","address":"東京都目黒区上目黒三丁目44番2号","lat":35.643932,"lon":139.691644},{"name":"目黒区立コーポ烏森","province":"東京都","city":"目黒区","address":"東京都目黒区上目黒三丁目44番30号","lat":35.64423529,"lon":139.6916985},{"name":"烏森住区センター児童館第二学童保育クラブ","province":"東京都","city":"目黒区","address":"東京都目黒区上目黒五丁目18番9号","lat":35.6426763,"lon":139.688615},{"name":"目黒区立コーポ蛇崩","province":"東京都","city":"目黒区","address":"東京都目黒区上目黒五丁目29番10号","lat":35.64087455,"lon":139.6861576},{"name":"中目黒駅前図書館","province":"東京都","city":"目黒区","address":"東京都目黒区上目黒二丁目1番3号","lat":35.643232,"lon":139.698638},{"name":"上二老人いこいの家","province":"東京都","city":"目黒区","address":"東京都目黒区上目黒二丁目10番4号","lat":35.641403,"lon":139.699125},{"name":"第二上目黒保育園","province":"東京都","city":"目黒区","address":"東京都目黒区上目黒二丁目15番8号","lat":35.642213,"lon":139.697344},{"name":"目黒区役所","province":"東京都","city":"目黒区","address":"東京都目黒区上目黒二丁目19番15号","lat":35.641263,"lon":139.698591},{"name":"中目黒公園","province":"東京都","city":"目黒区","address":"東京都目黒区中目黒二丁目3番14号","lat":35.6412318,"lon":139.7051228},{"name":"中目黒住区センター","province":"東京都","city":"目黒区","address":"東京都目黒区中目黒二丁目10番13号","lat":35.640452,"lon":139.703029},{"name":"目黒区立コーポ中目黒","province":"東京都","city":"目黒区","address":"東京都目黒区中目黒四丁目13番30号","lat":35.63687313,"lon":139.7003358},{"name":"特別養護老人ホーム中目黒","province":"東京都","city":"目黒区","address":"東京都目黒区中目黒五丁目7番35号","lat":35.636011,"lon":139.700865},{"name":"三田フレンズ","province":"東京都","city":"目黒区","address":"東京都目黒区三田一丁目11番26号","lat":35.64044023,"lon":139.7121786},{"name":"田道住区センター三田分室","province":"東京都","city":"目黒区","address":"東京都目黒区三田二丁目10番33号","lat":35.638819,"lon":139.712487},{"name":"田道住区センター","province":"東京都","city":"目黒区","address":"東京都目黒区目黒一丁目25番26号","lat":35.636722,"lon":139.708179},{"name":"高齢者センター","province":"東京都","city":"目黒区","address":"東京都目黒区目黒一丁目25番26号","lat":35.636722,"lon":139.708179},{"name":"目黒区美術館","province":"東京都","city":"目黒区","address":"東京都目黒区目黒二丁目4番36号","lat":35.634877,"lon":139.707728},{"name":"目黒区民センタープール","province":"東京都","city":"目黒区","address":"東京都目黒区目黒二丁目4番36号","lat":35.635403,"lon":139.708472},{"name":"目黒区民センター","province":"東京都","city":"目黒区","address":"東京都目黒区目黒二丁目4番36号","lat":35.63532404,"lon":139.7077598},{"name":"目黒区民センター体育館","province":"東京都","city":"目黒区","address":"東京都目黒区目黒二丁目4番36号","lat":35.635403,"lon":139.708472},{"name":"目黒区民センター児童館","province":"東京都","city":"目黒区","address":"東京都目黒区目黒二丁目4番36号","lat":35.635453,"lon":139.707868},{"name":"田道老人いこいの家","province":"東京都","city":"目黒区","address":"東京都目黒区目黒三丁目1番18号","lat":35.635106,"lon":139.706004},{"name":"田道保育園","province":"東京都","city":"目黒区","address":"東京都目黒区目黒三丁目4番4号","lat":35.634608,"lon":139.706148},{"name":"下目黒住区センター","province":"東京都","city":"目黒区","address":"東京都目黒区下目黒二丁目20番19号","lat":35.632939,"lon":139.709898},{"name":"下目黒福祉工房","province":"東京都","city":"目黒区","address":"東京都目黒区下目黒三丁目10番2号","lat":35.627873,"lon":139.711501},{"name":"不動児童館","province":"東京都","city":"目黒区","address":"東京都目黒区下目黒五丁目18番4号","lat":35.630206,"lon":139.702321},{"name":"不動住区センター","province":"東京都","city":"目黒区","address":"東京都目黒区下目黒六丁目8番23号","lat":35.626409,"lon":139.701038},{"name":"不動保育園","province":"東京都","city":"目黒区","address":"東京都目黒区下目黒六丁目11番20号","lat":35.626486,"lon":139.699504},{"name":"不動児童館学童保育クラブ","province":"東京都","city":"目黒区","address":"東京都目黒区下目黒六丁目11番35号","lat":35.62730844,"lon":139.6991913},{"name":"目黒本町福祉工房","province":"東京都","city":"目黒区","address":"東京都目黒区目黒本町一丁目14番24号","lat":35.628592,"lon":139.695724},{"name":"かみよん工房","province":"東京都","city":"目黒区","address":"東京都目黒区上目黒四丁目1番26号","lat":35.64191,"lon":139.692041},{"name":"上目黒老人いこいの家","province":"東京都","city":"目黒区","address":"東京都目黒区上目黒四丁目18番15号","lat":35.640854,"lon":139.691172},{"name":"中町老人いこいの家","province":"東京都","city":"目黒区","address":"東京都目黒区中町一丁目6番19号","lat":35.630887,"lon":139.700041},{"name":"油面住区センター","province":"東京都","city":"目黒区","address":"東京都目黒区中町一丁目6番23号","lat":35.631375,"lon":139.699785},{"name":"目黒区立コーポ中町","province":"東京都","city":"目黒区","address":"東京都目黒区中町二丁目4番1号","lat":35.63416419,"lon":139.6980216},{"name":"中町保育園","province":"東京都","city":"目黒区","address":"東京都目黒区中町二丁目37番15号","lat":35.634125,"lon":139.694569},{"name":"五本木老人いこいの家","province":"東京都","city":"目黒区","address":"東京都目黒区五本木二丁目11番29号","lat":35.635209,"lon":139.689562},{"name":"守屋図書館","province":"東京都","city":"目黒区","address":"東京都目黒区五本木二丁目20番15号","lat":35.634105,"lon":139.689039},{"name":"五本木小学校屋内プール","province":"東京都","city":"目黒区","address":"東京都目黒区五本木二丁目24番3号","lat":35.634466,"lon":139.687889},{"name":"上目黒住区センター","province":"東京都","city":"目黒区","address":"東京都目黒区祐天寺二丁目6番6号","lat":35.637083,"lon":139.693766},{"name":"目黒区立コーポ目黒","province":"東京都","city":"目黒区","address":"東京都目黒区目黒四丁目4番8号","lat":35.63337711,"lon":139.7033514},{"name":"防災センター","province":"東京都","city":"目黒区","address":"東京都目黒区中央町一丁目9番7号","lat":35.629261,"lon":139.692337},{"name":"目黒区立コーポ中央町一丁目","province":"東京都","city":"目黒区","address":"東京都目黒区中央町一丁目19番14号","lat":35.62820243,"lon":139.6908078},{"name":"中央町さくらプラザ","province":"東京都","city":"目黒区","address":"東京都目黒区中央町二丁目4番18号","lat":35.63228503,"lon":139.6918158},{"name":"中央地区サービス事務所","province":"東京都","city":"目黒区","address":"東京都目黒区中央町二丁目9番13号","lat":35.630972,"lon":139.691958},{"name":"五本木住区センター","province":"東京都","city":"目黒区","address":"東京都目黒区中央町二丁目17番2号","lat":35.633186,"lon":139.689298},{"name":"児童発達支援センターすくすくのびのび園","province":"東京都","city":"目黒区","address":"東京都目黒区中央町二丁目23番24号","lat":35.630828,"lon":139.690942},{"name":"中央町保育園","province":"東京都","city":"目黒区","address":"東京都目黒区中央町二丁目30番7号","lat":35.632203,"lon":139.688411},{"name":"スマイルプラザ中央町","province":"東京都","city":"目黒区","address":"東京都目黒区中央町二丁目32番5号","lat":35.63173482,"lon":139.6886281},{"name":"第三ひもんや保育園","province":"東京都","city":"目黒区","address":"東京都目黒区碑文谷五丁目15番19号","lat":35.621515,"lon":139.681151},{"name":"鷹番学童保育クラブ","province":"東京都","city":"目黒区","address":"東京都目黒区碑文谷六丁目2番23号","lat":35.62620451,"lon":139.6851543},{"name":"碑文谷公園・拡張部","province":"東京都","city":"目黒区","address":"東京都目黒区碑文谷六丁目12番39号","lat":35.62771606,"lon":139.681849},{"name":"鷹番保育園","province":"東京都","city":"目黒区","address":"東京都目黒区鷹番二丁目16番15号","lat":35.628367,"lon":139.687073},{"name":"鷹番住区センター","province":"東京都","city":"目黒区","address":"東京都目黒区鷹番三丁目17番20号","lat":35.628225,"lon":139.683159},{"name":"南部地区センター","province":"東京都","city":"目黒区","address":"東京都目黒区目黒本町二丁目1番20号","lat":35.62548425,"lon":139.6952552},{"name":"目黒本町保育園","province":"東京都","city":"目黒区","address":"東京都目黒区目黒本町二丁目1番20号","lat":35.625223,"lon":139.695225},{"name":"目黒区立コーポ清水町","province":"東京都","city":"目黒区","address":"東京都目黒区目黒本町二丁目20番22号","lat":35.62459501,"lon":139.6915218},{"name":"第二ひもんや保育園","province":"東京都","city":"目黒区","address":"東京都目黒区目黒本町二丁目25番14号","lat":35.62352848,"lon":139.6898963},{"name":"目黒区立コーポ目黒本町二丁目","province":"東京都","city":"目黒区","address":"東京都目黒区目黒本町二丁目25番14号","lat":35.62352848,"lon":139.6898963},{"name":"月光原住区センター","province":"東京都","city":"目黒区","address":"東京都目黒区目黒本町四丁目16番18号","lat":35.622074,"lon":139.694686},{"name":"中央体育館","province":"東京都","city":"目黒区","address":"東京都目黒区目黒本町五丁目22番8号","lat":35.61903,"lon":139.698961},{"name":"向原住区センター","province":"東京都","city":"目黒区","address":"東京都目黒区目黒本町五丁目22番11号","lat":35.618716,"lon":139.6986},{"name":"原町保育園","province":"東京都","city":"目黒区","address":"東京都目黒区原町一丁目20番16号","lat":35.617916,"lon":139.695253},{"name":"原町老人いこいの家","province":"東京都","city":"目黒区","address":"東京都目黒区原町二丁目2番14号","lat":35.616284,"lon":139.692252},{"name":"洗足図書館","province":"東京都","city":"目黒区","address":"東京都目黒区洗足二丁目8番26号","lat":35.612372,"lon":139.692362},{"name":"原町住区センター","province":"東京都","city":"目黒区","address":"東京都目黒区南一丁目8番9号","lat":35.615151,"lon":139.689363},{"name":"南保育園","province":"東京都","city":"目黒区","address":"東京都目黒区南一丁目18番30号","lat":35.613591,"lon":139.689087},{"name":"碑小学校屋内プール","province":"東京都","city":"目黒区","address":"東京都目黒区碑文谷一丁目18番14号","lat":35.619316,"lon":139.690579},{"name":"南部地区サービス事務所","province":"東京都","city":"目黒区","address":"東京都目黒区碑文谷一丁目18番14号","lat":35.619316,"lon":139.690579},{"name":"ひもんや保育園","province":"東京都","city":"目黒区","address":"東京都目黒区碑文谷二丁目8番9号","lat":35.622693,"lon":139.687747},{"name":"ひもんや学童保育クラブ","province":"東京都","city":"目黒区","address":"東京都目黒区碑文谷二丁目8番9号","lat":35.62264873,"lon":139.6881379},{"name":"碑住区センター","province":"東京都","city":"目黒区","address":"東京都目黒区碑文谷二丁目16番6号","lat":35.620765,"lon":139.687651},{"name":"大岡山東住区センター","province":"東京都","city":"目黒区","address":"東京都目黒区碑文谷三丁目15番5号","lat":35.617809,"lon":139.684238},{"name":"碑文谷保健センター","province":"東京都","city":"目黒区","address":"東京都目黒区碑文谷四丁目16番18号","lat":35.621379,"lon":139.682498},{"name":"目黒区立コーポ平町","province":"東京都","city":"目黒区","address":"東京都目黒区平町一丁目3番4号","lat":35.61872694,"lon":139.6814211},{"name":"平町児童館","province":"東京都","city":"目黒区","address":"東京都目黒区平町一丁目5番3号","lat":35.617203,"lon":139.682199},{"name":"大岡山西住区センター","province":"東京都","city":"目黒区","address":"東京都目黒区平町一丁目15番12号","lat":35.615907,"lon":139.679162},{"name":"平町老人いこいの家","province":"東京都","city":"目黒区","address":"東京都目黒区平町二丁目4番10号","lat":35.614416,"lon":139.68311},{"name":"大岡山保育園","province":"東京都","city":"目黒区","address":"東京都目黒区大岡山一丁目36番10号","lat":35.610197,"lon":139.680396},{"name":"中根住区センター","province":"東京都","city":"目黒区","address":"東京都目黒区大岡山一丁目37番2号","lat":35.61269,"lon":139.679532},{"name":"緑が丘文化会館別館","province":"東京都","city":"目黒区","address":"東京都目黒区緑が丘二丁目7番20号","lat":35.60963012,"lon":139.6744273},{"name":"緑ヶ丘小学校屋内プール","province":"東京都","city":"目黒区","address":"東京都目黒区緑が丘二丁目13番1号","lat":35.60991,"lon":139.674223},{"name":"緑が丘文化会館","province":"東京都","city":"目黒区","address":"東京都目黒区緑が丘二丁目14番23号","lat":35.609352,"lon":139.673277},{"name":"自由が丘老人いこいの家","province":"東京都","city":"目黒区","address":"東京都目黒区自由が丘一丁目23番26号","lat":35.611538,"lon":139.669636},{"name":"自由が丘住区センター","province":"東京都","city":"目黒区","address":"東京都目黒区自由が丘一丁目24番12号","lat":35.609913,"lon":139.669161},{"name":"八雲住区センター（中根一丁目会議室）","province":"東京都","city":"目黒区","address":"東京都目黒区中根一丁目10番22号","lat":35.61545607,"lon":139.6732129},{"name":"西部地区サービス事務所","province":"東京都","city":"目黒区","address":"東京都目黒区柿ノ木坂一丁目28番10号","lat":35.619904,"lon":139.675704},{"name":"めぐろパーシモンホール","province":"東京都","city":"目黒区","address":"東京都目黒区八雲一丁目1番1号","lat":35.621542,"lon":139.672741},{"name":"八雲体育館","province":"東京都","city":"目黒区","address":"東京都目黒区八雲一丁目1番1号","lat":35.621542,"lon":139.672741},{"name":"心身障害者センターあいアイ館","province":"東京都","city":"目黒区","address":"東京都目黒区八雲一丁目1番8号","lat":35.620523,"lon":139.673267},{"name":"八雲住区センター","province":"東京都","city":"目黒区","address":"東京都目黒区八雲一丁目10番5号","lat":35.618715,"lon":139.672271},{"name":"八雲保育園","province":"東京都","city":"目黒区","address":"東京都目黒区八雲三丁目10番18号","lat":35.615618,"lon":139.668077},{"name":"目黒区立コーポ八雲","province":"東京都","city":"目黒区","address":"東京都目黒区八雲三丁目14番16号","lat":35.61640812,"lon":139.6661761},{"name":"宮前公園庭球場","province":"東京都","city":"目黒区","address":"東京都目黒区八雲三丁目19番12号","lat":35.61698,"lon":139.665149},{"name":"自由が丘住区センター宮前分室","province":"東京都","city":"目黒区","address":"東京都目黒区八雲三丁目22番15号","lat":35.61564,"lon":139.665406},{"name":"特別養護老人ホーム東が丘","province":"東京都","city":"目黒区","address":"東京都目黒区東が丘一丁目6番4号","lat":35.626356,"lon":139.670513},{"name":"東根住区センター","province":"東京都","city":"目黒区","address":"東京都目黒区東が丘一丁目7番14号","lat":35.62724,"lon":139.670043},{"name":"東が丘障害福祉施設","province":"東京都","city":"目黒区","address":"東京都目黒区東が丘一丁目21番15号","lat":35.627444,"lon":139.667838},{"name":"東根第二学童保育クラブ","province":"東京都","city":"目黒区","address":"東京都目黒区東が丘一丁目31番7号","lat":35.62982292,"lon":139.667169},{"name":"砧野球場・サッカー場","province":"東京都","city":"目黒区","address":"東京都目黒区世田谷区喜多見一丁目12番2号","lat":35.620867,"lon":139.596029},{"name":"興津自然学園","province":"東京都","city":"目黒区","address":"東京都目黒区千葉県勝浦市興津143","lat":35.13696,"lon":140.254779},{"name":"八ヶ岳林間学園","province":"東京都","city":"目黒区","address":"東京都目黒区山梨県北杜市高根町清里3545","lat":35.934211,"lon":138.442816},{"name":"生活安全パトロールカー（2台）","province":"東京都","city":"目黒区","address":"東京都目黒区上目黒二丁目19番15号","lat":35.64046334,"lon":139.6986929}]}