{"keyword":"福祉","data":[{"name":"豊島区（西部生活福祉課）","province":"東京都","city":"豊島区","address":"豊島区目白5-24-12","lat":35.72531,"lon":139.69717},{"name":"練馬総合福祉事務所","province":"東京都","city":"練馬区","address":"練馬区豊玉北6-12-1西庁舎2F","lat":35.73609323,"lon":139.6513503},{"name":"光が丘総合福祉事務所","province":"東京都","city":"練馬区","address":"練馬区光が丘2-9-6光が丘区民センター2F","lat":35.75953435,"lon":139.6294756},{"name":"石神井総合福祉事務所","province":"東京都","city":"練馬区","address":"練馬区石神井町3-30-26石神井庁舎3・4F","lat":35.74331938,"lon":139.6025522},{"name":"大泉総合福祉事務所","province":"東京都","city":"練馬区","address":"練馬区東大泉1-29-1ゆめりあ1内4・9F","lat":35.75026015,"lon":139.5855719},{"name":"ケアマネジメントセンターみのわ","province":"","city":"","address":"三ノ輪1丁目27番11号","lat":35.72933298,"lon":139.7922025},{"name":"ケアマネジメントセンターやなか","province":"","city":"","address":"谷中2丁目17番20号","lat":35.7240029,"lon":139.7643651},{"name":"ケアマネジメントセンターあさくさ","province":"","city":"","address":"浅草4丁目26番2号","lat":35.71902409,"lon":139.7934831},{"name":"介護サポートまつがや","province":"","city":"","address":"松が谷4丁目4番3号","lat":35.71741417,"lon":139.7877137},{"name":"障害者就労支援室","province":"","city":"","address":"台東1丁目25番5号","lat":35.70165549,"lon":139.7778953},{"name":"みのわ地域包括支援センター","province":"","city":"","address":"三ノ輪1丁目27番11号","lat":35.72933298,"lon":139.7922025},{"name":"まつがや地域包括支援センター","province":"","city":"","address":"松が谷4丁目4番3号","lat":35.71741417,"lon":139.7877137},{"name":"ケアハウス松が谷","province":"","city":"","address":"松が谷4丁目4番3号","lat":35.71741417,"lon":139.7877137},{"name":"三筋老人福祉館","province":"","city":"","address":"三筋2丁目16番4号","lat":35.70597524,"lon":139.7870846},{"name":"あさくさ地域包括支援センター","province":"","city":"","address":"浅草4-26-2","lat":35.71908694,"lon":139.7932648},{"name":"老人福祉センター","province":"","city":"","address":"東上野2丁目25番14号","lat":35.70947479,"lon":139.7814947},{"name":"ケアマネジメントセンターたいとう","province":"","city":"","address":"台東1丁目25番5号","lat":35.70165549,"lon":139.7778953},{"name":"橋場老人福祉館","province":"","city":"","address":"橋場1丁目36番2号産業研修センター4階","lat":35.72420505,"lon":139.8082331},{"name":"身体障害者生活ホーム「フロム千束」","province":"","city":"","address":"千束3丁目28番13号","lat":35.72319358,"lon":139.7937227},{"name":"千束保健福祉センター","province":"","city":"","address":"千束3丁目28番13号","lat":35.72324357,"lon":139.7937027},{"name":"たいとう地域包括支援センター","province":"","city":"","address":"台東1丁目25番5号","lat":35.70165549,"lon":139.7778953},{"name":"くらまえ地域包括支援センター","province":"","city":"","address":"蔵前2丁目11番3号","lat":35.70359556,"lon":139.7930344},{"name":"松が谷福祉会館","province":"","city":"","address":"松が谷1丁目4番12号","lat":35.71123469,"lon":139.7854343},{"name":"社会福祉事業団事務局","province":"","city":"","address":"三ノ輪1-27-11","lat":35.72920299,"lon":139.7921725},{"name":"三ノ輪福祉センター","province":"","city":"","address":"三ノ輪1丁目27番11号","lat":35.72946298,"lon":139.7922425},{"name":"やなか地域包括支援センター","province":"","city":"","address":"谷中2丁目17番20号","lat":35.7240029,"lon":139.7643651},{"name":"社会福祉協議会","province":"","city":"","address":"下谷1-2-11","lat":35.71776291,"lon":139.7817185},{"name":"ファミリー・サポート・センター","province":"","city":"","address":"浅草橋5-1-35(台東区社会福祉協議会)","lat":35.69957858,"lon":139.7822582},{"name":"城北労働・福祉センター","province":"","city":"","address":"日本堤2丁目2番11号","lat":35.7278932,"lon":139.7990521},{"name":"つばさ福祉工房","province":"","city":"","address":"松が谷2丁目6番2号","lat":35.71314452,"lon":139.7858741},{"name":"ほうらい地域包括支援センター","province":"","city":"","address":"清川2丁目14番7号","lat":35.72702283,"lon":139.8015246},{"name":"障害者支援施設浅草ほうらい","province":"","city":"","address":"清川2丁目14番7号","lat":35.72702283,"lon":139.8015246},{"name":"介護サポートくらまえ","province":"","city":"","address":"蔵前2丁目11番3号","lat":35.70363555,"lon":139.7930344},{"name":"うえの高齢者在宅サービスセンター","province":"","city":"","address":"東上野2丁目25番14号","lat":35.70947479,"lon":139.7814947},{"name":"くらまえ高齢者在宅サービスセンター","province":"","city":"","address":"蔵前2丁目11番7号","lat":35.70363555,"lon":139.7930344},{"name":"特別養護老人ホーム浅草","province":"","city":"","address":"浅草4丁目26番2号","lat":35.71902409,"lon":139.7934831},{"name":"まつがや高齢者在宅サービスセンター","province":"","city":"","address":"松が谷4丁目4番3号","lat":35.71751416,"lon":139.7877437},{"name":"特別養護老人ホーム谷中","province":"","city":"","address":"谷中2丁目17番20号","lat":35.7240529,"lon":139.7643751},{"name":"特別養護老人ホーム蔵前","province":"","city":"","address":"蔵前2丁目11番7号","lat":35.70368555,"lon":139.7930644},{"name":"たいとう高齢者在宅サービスセンター","province":"","city":"","address":"台東1丁目25番5号","lat":35.70170548,"lon":139.7778453},{"name":"あさくさ高齢者在宅サービスセンター","province":"","city":"","address":"千束3丁目28番13号千束保健福祉センター5階(令和4年9月末まで仮施設)","lat":35.72318909,"lon":139.793743},{"name":"みのわ高齢者在宅サービスセンター","province":"","city":"","address":"三ノ輪1丁目27番11号","lat":35.72937298,"lon":139.7922425},{"name":"特別養護老人ホーム三ノ輪","province":"","city":"","address":"三ノ輪1丁目27番11号","lat":35.72942298,"lon":139.7922425},{"name":"やなか高齢者在宅サービスセンター","province":"","city":"","address":"谷中2丁目17番20号","lat":35.72395291,"lon":139.7643651},{"name":"特別養護老人ホーム台東","province":"","city":"","address":"台東1丁目25番5号","lat":35.70175548,"lon":139.7778053},{"name":"特別養護老人ホーム浅草ほうらい","province":"","city":"","address":"清川2丁目14番7号","lat":35.72702283,"lon":139.8015246},{"name":"デイサービスセンター浅草ほうらい","province":"","city":"","address":"清川2丁目14番7号","lat":35.72702283,"lon":139.8015246},{"name":"特別養護老人ホーム千束","province":"","city":"","address":"千束3丁目28番13号","lat":35.72324357,"lon":139.7937027},{"name":"たなかデイホーム","province":"","city":"","address":"日本堤2丁目25番10号","lat":35.72798288,"lon":139.7972618},{"name":"せんぞくデイホーム","province":"","city":"","address":"千束3丁目28番13号","lat":35.72324357,"lon":139.7937027},{"name":"特別養護老人ホーム橋場すみれ園","province":"東京都","city":"台東区","address":"台東区橋場1丁目1番10号","lat":35.72361238,"lon":139.8079135},{"name":"特別養護老人ホームフレスコ浅草","province":"東京都","city":"台東区","address":"台東区浅草5丁目33番7号","lat":35.72184642,"lon":139.7961061},{"name":"世田谷区北沢総合支所","province":"東京都","city":"世田谷区","address":"世田谷区北沢2-8-18北沢タウンホール内","lat":35.662238,"lon":139.669775},{"name":"渋谷区","province":"東京都","city":"渋谷区","address":"渋谷区宇田川町1-1","lat":35.663475,"lon":139.697189},{"name":"西東京市","province":"東京都","city":"西東京市","address":"西東京市南町5-6-13","lat":35.726341,"lon":139.53801},{"name":"小笠原支庁","province":"東京都","city":"小笠原村","address":"小笠原村父島字西町","lat":27.095637,"lon":142.191206},{"name":"世田谷区烏山総合支所","province":"東京都","city":"世田谷区","address":"世田谷区南烏山6-22-14","lat":35.66956,"lon":139.59815},{"name":"豊島区","province":"東京都","city":"豊島区","address":"豊島区東池袋1-39-2","lat":35.73244,"lon":139.71433},{"name":"狛江市","province":"東京都","city":"狛江市","address":"狛江市和泉本町1-1-5","lat":35.63495,"lon":139.57837},{"name":"東久留米市","province":"東京都","city":"東久留米市","address":"東久留米市本町3-3-1","lat":35.75794,"lon":139.5295},{"name":"あきる野市","province":"東京都","city":"あきる野市","address":"あきる野市二宮350","lat":35.72912,"lon":139.29451},{"name":"三宅支庁","province":"東京都","city":"三宅村","address":"三宅村伊豆642","lat":34.10803,"lon":139.51032},{"name":"西東京市（田無庁舎）","province":"東京都","city":"西東京市","address":"西東京市南町5-6-13","lat":35.726341,"lon":139.53801},{"name":"墨田区福祉事務所","province":"東京都","city":"墨田区","address":"墨田区吾妻橋一丁目23番20号墨田区役所内","lat":35.710722,"lon":139.801497},{"name":"すみだ福祉保健センター","province":"東京都","city":"墨田区","address":"墨田区向島三丁目36番7号","lat":35.713253,"lon":139.810724},{"name":"すみだ福祉サービス権利擁護センター","province":"東京都","city":"墨田区","address":"墨田区東向島二丁目17番14号すみだボランティアセンター内","lat":35.718436,"lon":139.815564},{"name":"社会福祉法人墨田区社会福祉協議会","province":"東京都","city":"墨田区","address":"墨田区東向島二丁目17番14号すみだボランティアセンター内","lat":35.718436,"lon":139.815564},{"name":"シルバープラザ梅若","province":"東京都","city":"墨田区","address":"墨田区墨田一丁目4番4号","lat":35.729285,"lon":139.815412},{"name":"特別養護老人ホーム たちばなホーム","province":"東京都","city":"墨田区","address":"墨田区立花三丁目10番1号","lat":35.705338,"lon":139.833116},{"name":"特別養護老人ホーム はなみずきホーム","province":"東京都","city":"墨田区","address":"墨田区八広三丁目22番14号","lat":35.718382,"lon":139.827984},{"name":"特別養護老人ホーム なりひらホーム","province":"東京都","city":"墨田区","address":"墨田区業平五丁目6番2号","lat":35.707082,"lon":139.817985},{"name":"特別養護老人ホーム 東京清風園","province":"東京都","city":"墨田区","address":"墨田区立花一丁目25番12号","lat":35.705136,"lon":139.8310043},{"name":"特別養護老人ホーム 同愛記念ホーム","province":"東京都","city":"墨田区","address":"墨田区横網二丁目1番11号","lat":35.700231,"lon":139.794567},{"name":"特別養護老人ホーム 和翔苑","province":"東京都","city":"墨田区","address":"墨田区八広六丁目55番17号","lat":35.724003,"lon":139.830987},{"name":"特別養護老人ホーム ケアホームズ両国","province":"東京都","city":"墨田区","address":"墨田区両国二丁目5番13号","lat":35.692823,"lon":139.792454},{"name":"特別養護老人ホーム 寿老の里","province":"東京都","city":"墨田区","address":"墨田区東墨田三丁目13番4号","lat":35.720703,"lon":139.8360362},{"name":"特別養護老人ホーム 木下川吾亦紅","province":"東京都","city":"墨田区","address":"墨田区東墨田二丁目15番2号","lat":35.721849,"lon":139.833311},{"name":"すみだ福祉保健センター・高齢者在宅サービスセンター","province":"東京都","city":"墨田区","address":"墨田区向島三丁目36番7号","lat":35.713277,"lon":139.810703},{"name":"うめわか高齢者在宅サービスセンター","province":"東京都","city":"墨田区","address":"墨田区墨田一丁目4番4号シルバープラザ梅若内","lat":35.729211,"lon":139.815316},{"name":"たちばな高齢者在宅サービスセンター","province":"東京都","city":"墨田区","address":"墨田区立花三丁目2番9号","lat":35.705247,"lon":139.832576},{"name":"なりひら高齢者在宅サービスセンター","province":"東京都","city":"墨田区","address":"墨田区業平五丁目6番2号","lat":35.707179,"lon":139.817988},{"name":"はなみずき高齢者在宅サービスセンター","province":"東京都","city":"墨田区","address":"墨田区八広三丁目22番14号","lat":35.718477,"lon":139.827982},{"name":"高齢者在宅サービスセンター同愛記念ホーム","province":"東京都","city":"墨田区","address":"墨田区横網二丁目1番11号","lat":35.700318,"lon":139.794368},{"name":"みどり高齢者在宅サービスセンター","province":"東京都","city":"墨田区","address":"墨田区緑二丁目5番12号オウトピアみどり苑内","lat":35.69282,"lon":139.801253},{"name":"高齢者在宅サービスセンター東京清風園","province":"東京都","city":"墨田区","address":"墨田区立花一丁目25番12号","lat":35.705136,"lon":139.8310043},{"name":"高齢者在宅サービスセンター和翔苑","province":"東京都","city":"墨田区","address":"墨田区八広六丁目55番17号","lat":35.723967,"lon":139.830986},{"name":"高齢者在宅サービスセンターケアホームズ両国","province":"東京都","city":"墨田区","address":"墨田区両国二丁目5番13号","lat":35.692823,"lon":139.792454},{"name":"介護老人保健施設　ベレール向島","province":"東京都","city":"墨田区","address":"墨田区東向島二丁目36番11号","lat":35.721709,"lon":139.818256},{"name":"介護老人保健施設　ろうけん隅田秋光園","province":"東京都","city":"墨田区","address":"墨田区横網二丁目7番13号","lat":35.701181,"lon":139.794835},{"name":"介護老人保健施設　葵の園・向島","province":"東京都","city":"墨田区","address":"墨田区向島三丁目1番13号","lat":35.712944,"lon":139.806408},{"name":"櫻川介護老人保健施設","province":"東京都","city":"墨田区","address":"墨田区堤通一丁目9番8号","lat":35.724583,"lon":139.811148},{"name":"みどり高齢者支援総合センター(地域包括支援センター)","province":"東京都","city":"墨田区","address":"墨田区緑二丁目5番12号オウトピアみどり苑内","lat":35.692844,"lon":139.801278},{"name":"同愛高齢者支援総合センター(地域包括支援センター)","province":"東京都","city":"墨田区","address":"墨田区亀沢二丁目23番7号","lat":35.698126,"lon":139.801747},{"name":"なりひら高齢者支援総合センター(地域包括支援センター)","province":"東京都","city":"墨田区","address":"墨田区業平五丁目6番2号なりひらホーム内","lat":35.707101,"lon":139.818124},{"name":"こうめ高齢者支援総合センター(地域包括支援センター)","province":"東京都","city":"墨田区","address":"墨田区向島三丁目36番7号すみだ福祉保健センター内","lat":35.71338,"lon":139.810876},{"name":"むこうじま高齢者支援総合センター(地域包括支援センター)","province":"東京都","city":"墨田区","address":"墨田区東向島二丁目36番11号ベレール向島内","lat":35.721612,"lon":139.818255},{"name":"うめわか高齢者支援総合センター(地域包括支援センター)","province":"東京都","city":"墨田区","address":"墨田区墨田一丁目4番4号シルバープラザ梅若内","lat":35.729285,"lon":139.815412},{"name":"ぶんか高齢者支援総合センター(地域包括支援センター)","province":"東京都","city":"墨田区","address":"墨田区文花一丁目29番5号都営文花一丁目アパート5号棟1階","lat":35.708229,"lon":139.820006},{"name":"八広はなみずき高齢者支援総合センター(地域包括支援センター)","province":"東京都","city":"墨田区","address":"墨田区八広五丁目18番23号","lat":35.725103,"lon":139.826412},{"name":"みどり高齢者みまもり相談室","province":"東京都","city":"墨田区","address":"墨田区緑二丁目5番12号オウトピアみどり苑内","lat":35.692844,"lon":139.801278},{"name":"同愛高齢者みまもり相談室","province":"東京都","city":"墨田区","address":"墨田区亀沢二丁目23番7号","lat":35.698126,"lon":139.801747},{"name":"なりひら高齢者みまもり相談室","province":"東京都","city":"墨田区","address":"墨田区業平五丁目6番2号なりひらホーム内","lat":35.707101,"lon":139.818124},{"name":"こうめ高齢者みまもり相談室","province":"東京都","city":"墨田区","address":"墨田区向島三丁目36番7号すみだ福祉保健センター内","lat":35.71338,"lon":139.810876},{"name":"むこうじま高齢者みまもり相談室","province":"東京都","city":"墨田区","address":"墨田区東向島二丁目36番11号ベレール向島内","lat":35.721612,"lon":139.818255},{"name":"うめわか高齢者みまもり相談室","province":"東京都","city":"墨田区","address":"墨田区墨田一丁目4番4号シルバープラザ梅若内","lat":35.729285,"lon":139.815412},{"name":"ぶんか高齢者みまもり相談室","province":"東京都","city":"墨田区","address":"墨田区文花一丁目29番5号都営文花一丁目アパート5号棟1階","lat":35.708229,"lon":139.820006},{"name":"八広はなみずき高齢者みまもり相談室","province":"東京都","city":"墨田区","address":"墨田区八広五丁目18番23号","lat":35.725103,"lon":139.826412},{"name":"梅若ゆうゆう館(高齢者福祉センター)","province":"東京都","city":"墨田区","address":"墨田区墨田一丁目4番4号シルバープラザ梅若内","lat":35.729285,"lon":139.815412},{"name":"立花ゆうゆう館(高齢者福祉センター)","province":"東京都","city":"墨田区","address":"墨田区立花六丁目8番1号102号室","lat":35.710595,"lon":139.834744},{"name":"いきいきプラザ","province":"東京都","city":"墨田区","address":"墨田区文花一丁目32番2号","lat":35.707571,"lon":139.823438},{"name":"すみだふれあいセンター福祉作業所","province":"東京都","city":"墨田区","address":"墨田区緑四丁目35番6号","lat":35.695825,"lon":139.807408},{"name":"すみだ障害者就労支援総合センター","province":"東京都","city":"墨田区","address":"墨田区緑四丁目25番4号","lat":35.695559,"lon":139.807706},{"name":"亀沢のぞみの家","province":"東京都","city":"墨田区","address":"墨田区亀沢四丁目18番11号","lat":35.699028,"lon":139.808257},{"name":"すみだステップハウスおおぞら","province":"東京都","city":"墨田区","address":"墨田区文花一丁目32番7号","lat":35.708166,"lon":139.823781},{"name":"すみだボランティアセンター","province":"東京都","city":"墨田区","address":"墨田区東向島二丁目17番14号","lat":35.718436,"lon":139.815564},{"name":"すみだボランティアセンター分館","province":"東京都","city":"墨田区","address":"墨田区亀沢三丁目20番11号関根ビル4階","lat":35.697483,"lon":139.803467}]}