{"keyword":"学校","data":[{"name":"田原小学校","province":"","city":"","address":"雷門1丁目5番14号","lat":35.70995493,"lon":139.7931438},{"name":"石浜小学校","province":"","city":"","address":"清川1丁目14番21号","lat":35.72460431,"lon":139.8034727},{"name":"蔵前小学校","province":"","city":"","address":"蔵前4丁目19番11号","lat":35.70440296,"lon":139.7893167},{"name":"東浅草小学校","province":"","city":"","address":"東浅草2丁目27番19号","lat":35.72436357,"lon":139.7982423},{"name":"台東育英小学校","province":"","city":"","address":"浅草橋5丁目1番35号(令和5年12月まで仮校舎)","lat":35.69955528,"lon":139.7824695},{"name":"松葉小学校","province":"","city":"","address":"松が谷1丁目13番16号","lat":35.71222461,"lon":139.7864342},{"name":"浅草小学校","province":"","city":"","address":"花川戸1丁目14番15号","lat":35.71348473,"lon":139.7995229},{"name":"千束小学校","province":"","city":"","address":"浅草4丁目24番11号","lat":35.7189541,"lon":139.7939331},{"name":"富士小学校","province":"","city":"","address":"浅草4丁目48番9号","lat":35.71869435,"lon":139.7986528},{"name":"忍岡小学校","province":"","city":"","address":"池之端2丁目1番22号","lat":35.71401723,"lon":139.7669292},{"name":"金竜小学校","province":"","city":"","address":"千束1丁目9番9号","lat":35.71856409,"lon":139.7901734},{"name":"上野小学校","province":"","city":"","address":"東上野6丁目16番8号","lat":35.71381443,"lon":139.7836443},{"name":"平成小学校","province":"","city":"","address":"台東4丁目21番15号","lat":35.70639506,"lon":139.7801249},{"name":"根岸小学校","province":"","city":"","address":"根岸3丁目9番8号","lat":35.72347353,"lon":139.7787543},{"name":"東泉小学校","province":"","city":"","address":"三ノ輪1丁目23番9号","lat":35.728313,"lon":139.7921925},{"name":"谷中小学校","province":"","city":"","address":"谷中2丁目9番16号","lat":35.72386297,"lon":139.7653851},{"name":"金曽木小学校","province":"","city":"","address":"根岸4丁目16番22号","lat":35.72579353,"lon":139.7851837},{"name":"黒門小学校","province":"","city":"","address":"上野1丁目16番20号","lat":35.70688477,"lon":139.7710353},{"name":"大正小学校","province":"","city":"","address":"入谷2丁目23番8号","lat":35.72088386,"lon":139.7881735},{"name":"柏葉中学校","province":"","city":"","address":"下谷3丁目1番29号","lat":35.72375615,"lon":139.7860843},{"name":"御徒町台東中学校","province":"","city":"","address":"台東4丁目13番16号","lat":35.70672496,"lon":139.777325},{"name":"浅草中学校","province":"","city":"","address":"蔵前1丁目3番4号","lat":35.69978596,"lon":139.790085},{"name":"駒形中学校","province":"","city":"","address":"北上野2丁目15番1号","lat":35.71750412,"lon":139.784194},{"name":"上野中学校","province":"","city":"","address":"上野桜木1丁目14番55号","lat":35.72107359,"lon":139.7747646},{"name":"桜橋中学校","province":"","city":"","address":"今戸2丁目1番8号","lat":35.72060517,"lon":139.8069228},{"name":"上野学園中学校（私立）","province":"","city":"","address":"東上野4丁目24番12号","lat":35.71570423,"lon":139.7821543},{"name":"東京藝術大学音楽学部附属音楽高校","province":"","city":"","address":"上野公園12番地8","lat":35.72096357,"lon":139.7734647},{"name":"蔵前工業高校","province":"","city":"","address":"蔵前1丁目3番57号","lat":35.7004259,"lon":139.7912549},{"name":"忍岡高校","province":"","city":"","address":"浅草橋5丁目1番24号","lat":35.70067573,"lon":139.7827952},{"name":"浅草高校","province":"","city":"","address":"今戸1丁目8番13号","lat":35.71911967,"lon":139.8025487},{"name":"白鴎高校","province":"","city":"","address":"元浅草1丁目6番22号","lat":35.70814418,"lon":139.7830027},{"name":"上野高校","province":"","city":"","address":"上野公園10番地14","lat":35.71863364,"lon":139.769825},{"name":"岩倉高校","province":"","city":"","address":"上野7丁目8番8号","lat":35.7140343,"lon":139.7789046},{"name":"上野学園高校","province":"","city":"","address":"東上野4丁目24番12号","lat":35.71553424,"lon":139.7821443},{"name":"東京藝術大学","province":"","city":"","address":"上野公園12番地8","lat":35.72026359,"lon":139.7722648},{"name":"上野学園大学","province":"","city":"","address":"東上野4丁目24番12号","lat":35.71561423,"lon":139.7819643},{"name":"白鴎高校附属中学校（都立）","province":"","city":"","address":"元浅草3丁目12番12号","lat":35.70716513,"lon":139.7877145},{"name":"忍岡中学校","province":"","city":"","address":"上野公園18番20号","lat":35.7193024,"lon":139.7789953},{"name":"両国高等学校","province":"東京都","city":"墨田区","address":"墨田区江東橋一丁目7番14号","lat":35.694493,"lon":139.810071},{"name":"本所高等学校","province":"東京都","city":"墨田区","address":"墨田区向島三丁目37番25号","lat":35.714604,"lon":139.811228},{"name":"墨田川高等学校","province":"東京都","city":"墨田区","address":"墨田区東向島三丁目34番14号","lat":35.721853,"lon":139.816253},{"name":"日本橋高等学校","province":"東京都","city":"墨田区","address":"墨田区八広一丁目28番21号","lat":35.719968,"lon":139.823889},{"name":"橘高等学校","province":"東京都","city":"墨田区","address":"墨田区立花四丁目29番7号","lat":35.709339,"lon":139.833663},{"name":"日本大学第一高等学校","province":"東京都","city":"墨田区","address":"墨田区横網一丁目5番2号","lat":35.697431,"lon":139.796884},{"name":"安田学園高等学校","province":"東京都","city":"墨田区","address":"墨田区横網二丁目2番25号","lat":35.699879,"lon":139.795841},{"name":"立志舎高等学校","province":"東京都","city":"墨田区","address":"墨田区太平二丁目9番6号","lat":35.700831,"lon":139.812937},{"name":"都立墨田特別支援学校","province":"東京都","city":"墨田区","address":"墨田区八広五丁目10番2号","lat":35.725189,"lon":139.825215},{"name":"情報経営イノベーション専門職大学（iU）","province":"東京都","city":"墨田区","address":"墨田区文花一丁目18番13号","lat":35.711501,"lon":139.823724},{"name":"千葉大学墨田サテライトキャンパス","province":"東京都","city":"墨田区","address":"墨田区文花一丁目19番1号","lat":35.710546,"lon":139.823586},{"name":"専門学校アニメ・アーティスト・アカデミー","province":"東京都","city":"墨田区","address":"墨田区両国二丁目17番5号","lat":35.701434,"lon":139.800091},{"name":"了徳寺学園医療専門学校","province":"東京都","city":"墨田区","address":"墨田区両国四丁目27番4号","lat":35.694228,"lon":139.795045},{"name":"東京環境工科専門学校","province":"東京都","city":"墨田区","address":"墨田区江東橋三丁目3番7号","lat":35.693698,"lon":139.814082},{"name":"東京医学技術専門学校","province":"東京都","city":"墨田区","address":"墨田区横網一丁目10番8号","lat":35.698389,"lon":139.794838},{"name":"専門学校日本鉄道＆スポーツビジネスカレッジ21","province":"東京都","city":"墨田区","address":"墨田区錦糸一丁目2番1号","lat":35.697383,"lon":139.811391},{"name":"専門学校日本動物21","province":"東京都","city":"墨田区","address":"墨田区錦糸一丁目11番10号","lat":35.698638,"lon":139.809552},{"name":"東京IT会計専門学校","province":"東京都","city":"墨田区","address":"墨田区錦糸二丁目13番7号","lat":35.699337,"lon":139.813195},{"name":"東京法律専門学校","province":"東京都","city":"墨田区","address":"墨田区太平一丁目9番8号","lat":35.699996,"lon":139.811583},{"name":"東京墨田看護専門学校","province":"東京都","city":"墨田区","address":"墨田区東向島五丁目6番6号","lat":35.725901,"lon":139.820798},{"name":"秀林日本語学校","province":"東京都","city":"墨田区","address":"墨田区両国一丁目2番3号","lat":35.692668,"lon":139.789872},{"name":"東京明生日本語学院","province":"東京都","city":"墨田区","address":"墨田区緑一丁目2番10号","lat":35.692692,"lon":139.798528},{"name":"東京朝鮮第五初中級学校","province":"東京都","city":"墨田区","address":"墨田区八広五丁目22番15号","lat":35.722842,"lon":139.825782},{"name":"向島珠算学校","province":"東京都","city":"墨田区","address":"墨田区墨田三丁目21番17号","lat":35.730665,"lon":139.821637},{"name":"渡辺珠算学校","province":"東京都","city":"墨田区","address":"墨田区横川四丁目10番2号","lat":35.705491,"lon":139.815751}]}