{"keyword":"複合","data":[{"name":"きらきらプラザ新橋","province":"東京都","city":"港区","address":"港区新橋六丁目4番2号","lat":35.662317,"lon":139.754025,"URL":"<a href='https://www.city.minato.tokyo.jp/shisetsu/sonota/sonota/02.html' target='_blank'>https://www.city.minato.tokyo.jp/shisetsu/sonota/sonota/02.html</a>","分類":"複合施設","地区":"芝地区","連絡先":"電話番号:03-3438-0421 ファックス番号:03-3438-0422"},{"name":"東麻布二丁目複合施設","province":"","city":"","address":"東麻布2-1-1","lat":35.658298,"lon":139.742729,"URL":"<a href='https://www.city.minato.tokyo.jp/shisetsu/fukugo/fukugo/01.html' target='_blank'>https://www.city.minato.tokyo.jp/shisetsu/fukugo/fukugo/01.html</a>","分類":"複合施設","地区":"麻布地区","連絡先":""},{"name":"赤坂コミュニティぷらざ","province":"","city":"","address":"赤坂4-18-13","lat":35.674772,"lon":139.731362,"URL":"<a href='https://www.city.minato.tokyo.jp/shisetsu/fukugo/fukugo/02.html' target='_blank'>https://www.city.minato.tokyo.jp/shisetsu/fukugo/fukugo/02.html</a>","分類":"複合施設","地区":"赤坂地区","連絡先":""},{"name":"赤坂九丁目施設","province":"","city":"","address":"赤坂9-4-2","lat":35.668319,"lon":139.729766,"URL":"<a href='https://www.city.minato.tokyo.jp/shisetsu/fukugo/fukugo/03.html' target='_blank'>https://www.city.minato.tokyo.jp/shisetsu/fukugo/fukugo/03.html</a>","分類":"複合施設","地区":"赤坂地区","連絡先":""},{"name":"ゆかしの杜","province":"","city":"","address":"白金台4-6-2","lat":35.639108,"lon":139.726485,"URL":"<a href='https://www.city.minato.tokyo.jp/shisetsu/fukugo/fukugo/04.html' target='_blank'>https://www.city.minato.tokyo.jp/shisetsu/fukugo/fukugo/04.html</a>","分類":"複合施設","地区":"高輪地区","連絡先":""},{"name":"みなとパーク芝浦","province":"","city":"","address":"芝浦1-16-1","lat":35.646616,"lon":139.751724,"URL":"<a href='https://www.city.minato.tokyo.jp/shisetsu/fukugo/fukugo/05.html' target='_blank'>https://www.city.minato.tokyo.jp/shisetsu/fukugo/fukugo/05.html</a>","分類":"複合施設","地区":"芝浦港南地区","連絡先":""},{"name":"さんぽーと港南","province":"","city":"","address":"港南4-3-7","lat":35.631261,"lon":139.749673,"URL":"<a href='https://www.city.minato.tokyo.jp/shisetsu/fukugo/fukugo/06.html' target='_blank'>https://www.city.minato.tokyo.jp/shisetsu/fukugo/fukugo/06.html</a>","分類":"複合施設","地区":"芝浦港南地区","連絡先":""},{"name":"プラザ神明","province":"","city":"","address":"浜松町1-6-7","lat":35.658691,"lon":139.757702,"URL":"<a href='https://www.city.minato.tokyo.jp/shisetsu/sonota/sonota03.html' target='_blank'>https://www.city.minato.tokyo.jp/shisetsu/sonota/sonota03.html</a>","分類":"複合施設","地区":"芝地区","連絡先":""},{"name":"神応ほっとプラザ","province":"東京都","city":"港区","address":"港区白金六丁目9番5号","lat":35.64365287736521,"lon":139.7245772117504,"URL":"<a href='https://www.city.minato.tokyo.jp/shisetsu/sonota/sonota06.html' target='_blank'>https://www.city.minato.tokyo.jp/shisetsu/sonota/sonota06.html</a>","分類":"複合施設","地区":"高輪地区","連絡先":""},{"name":"札の辻スクエア","province":"東京都","city":"港区","address":"港区芝五丁目36番4号","lat":35.64522504360484,"lon":139.7447644196809,"URL":"<a href='https://www.city.minato.tokyo.jp/shisetsu/fukugo/fukugo/07.html' target='_blank'>https://www.city.minato.tokyo.jp/shisetsu/fukugo/fukugo/07.html</a>","分類":"複合施設","地区":"芝地区","連絡先":""},{"name":"港区子ども家庭総合支援センター(ミナトイク)","province":"東京都","city":"港区","address":"港区南青山五丁目7番11号","lat":35.662774,"lon":139.713122,"URL":"<a href='https://www.city.minato.tokyo.jp/shisetsu/fukugo/fukugo/08.html' target='_blank'>https://www.city.minato.tokyo.jp/shisetsu/fukugo/fukugo/08.html</a>","分類":"複合施設","地区":"赤坂地区","連絡先":""}]}