{"keyword":"データ","data":[{"name":"目黒区役所","province":"東京都","city":"目黒区","address":"東京都目黒区上目黒2丁目19-15","lat":35.64110969,"lon":139.69847649},{"name":"目黒区防災センター","province":"東京都","city":"目黒区","address":"東京都目黒区中央町1丁目9-7","lat":35.62906371,"lon":139.69204682},{"name":"北部地区備蓄倉庫","province":"東京都","city":"目黒区","address":"東京都目黒区青葉台2丁目10-27","lat":35.64998916,"lon":139.69520979},{"name":"北部地区上目黒備蓄倉庫","province":"東京都","city":"目黒区","address":"東京都目黒区上目黒2丁目48-2","lat":35.64209005,"lon":139.6949073},{"name":"北部地区東山公園備蓄倉庫","province":"東京都","city":"目黒区","address":"東京都目黒区東山2丁目18-8","lat":35.64695599,"lon":139.68768829},{"name":"東部地区下目黒備蓄倉庫","province":"東京都","city":"目黒区","address":"東京都目黒区目黒3丁目4-4","lat":35.63453283,"lon":139.70607326},{"name":"東部地区田道備蓄倉庫","province":"東京都","city":"目黒区","address":"東京都目黒区目黒1丁目25-26","lat":35.63676039,"lon":139.70815359},{"name":"東部地区中目黒公園備蓄倉庫","province":"東京都","city":"目黒区","address":"東京都目黒区中目黒2丁目3-14","lat":35.64126815,"lon":139.70520371},{"name":"東部地区目黒不動防災ひろば備蓄倉庫","province":"東京都","city":"目黒区","address":"東京都目黒区下目黒3丁目10-22","lat":35.6270282,"lon":139.71012034},{"name":"中央地区碑文谷体育館備蓄倉庫","province":"東京都","city":"目黒区","address":"東京都目黒区碑文谷6丁目12-43","lat":35.62721368,"lon":139.68206437},{"name":"中央地区備蓄倉庫","province":"東京都","city":"目黒区","address":"東京都目黒区中央町1丁目9-7","lat":35.62906371,"lon":139.69204682},{"name":"中央地区五本木二丁目防災備蓄倉庫","province":"東京都","city":"目黒区","address":"東京都目黒区五本木2丁目20-23","lat":35.63446301,"lon":139.68916357},{"name":"南部地区備蓄倉庫","province":"東京都","city":"目黒区","address":"東京都目黒区目黒本町2丁目1-20","lat":35.62522258,"lon":139.69522445},{"name":"西部地区備蓄倉庫","province":"東京都","city":"目黒区","address":"東京都目黒区八雲3丁目13-21","lat":35.61536461,"lon":139.66687987},{"name":"西部地区応急対策資機材等倉庫","province":"東京都","city":"目黒区","address":"東京都目黒区八雲1丁目1-8","lat":35.62052255,"lon":139.6732764},{"name":"目黒区三田防災街づくり会館","province":"東京都","city":"目黒区","address":"東京都目黒区三田2丁目7-1","lat":35.64040169,"lon":139.71077826},{"name":"東部地区三田フレンズ備蓄倉庫","province":"東京都","city":"目黒区","address":"東京都目黒区三田1丁目11-26","lat":35.64049338,"lon":139.71242255},{"name":"東部地区三田二丁目備蓄倉庫","province":"東京都","city":"目黒区","address":"東京都目黒区三田2丁目6-3","lat":35.64063776,"lon":139.71019497},{"name":"北部地区大坂橋下備蓄倉庫","province":"東京都","city":"目黒区","address":"東京都目黒区青葉台3丁目6-19","lat":35.65237486,"lon":139.68973794},{"name":"東山小学校内防災備蓄倉庫","province":"東京都","city":"目黒区","address":"東京都目黒区東山2丁目24-25","lat":35.64662823,"lon":139.6867356},{"name":"中央地区目黒中央の家備蓄倉庫","province":"東京都","city":"目黒区","address":"東京都目黒区中央町2丁目32-23","lat":35.63107727,"lon":139.68805543},{"name":"北部地区サービス事務所","province":"東京都","city":"目黒区","address":"東京都目黒区大橋1丁目5-1","lat":35.65146104,"lon":139.68842141},{"name":"東部地区サービス事務所","province":"東京都","city":"目黒区","address":"東京都目黒区上目黒2丁目19-15","lat":35.64110969,"lon":139.69847649},{"name":"中央地区サービス事務所","province":"東京都","city":"目黒区","address":"東京都目黒区中央町2丁目9-13","lat":35.63096348,"lon":139.69191344},{"name":"南部地区サービス事務所","province":"東京都","city":"目黒区","address":"東京都目黒区碑文谷1丁目18-14","lat":35.61931205,"lon":139.69064446},{"name":"西部地区サービス事務所","province":"東京都","city":"目黒区","address":"東京都目黒区柿の木坂1丁目28-10","lat":35.62000045,"lon":139.67567066},{"name":"目黒駅行政サービス窓口","province":"東京都","city":"品川区","address":"東京都品川区上大崎3丁目1-1","lat":35.63327204,"lon":139.71594743},{"name":"目黒土木公園事務所","province":"東京都","city":"目黒区","address":"東京都目黒区上目黒2丁目48-2","lat":35.64209005,"lon":139.6949073},{"name":"碑文谷土木公園事務所","province":"東京都","city":"目黒区","address":"東京都目黒区碑文谷2丁目16-6","lat":35.62072847,"lon":139.68762522},{"name":"男女平等・共同参画センター","province":"東京都","city":"目黒区","address":"東京都目黒区中目黒2丁目10-13","lat":35.64045153,"lon":139.70302891},{"name":"セレモニー目黒","province":"東京都","city":"目黒区","address":"東京都目黒区八雲1丁目1-9","lat":35.62056978,"lon":139.67385968},{"name":"駒場住区会議室","province":"東京都","city":"目黒区","address":"東京都目黒区駒場1丁目22-4","lat":35.65630212,"lon":139.68654361},{"name":"菅刈住区会議室","province":"東京都","city":"目黒区","address":"東京都目黒区青葉台2丁目10-18","lat":35.6498003,"lon":139.69561254},{"name":"烏森住区会議室","province":"東京都","city":"目黒区","address":"東京都目黒区上目黒3丁目44-2","lat":35.64393143,"lon":139.69164362},{"name":"中目黒住区会議室","province":"東京都","city":"目黒区","address":"東京都目黒区中目黒2丁目10-13","lat":35.64045153,"lon":139.70302891},{"name":"田道住区会議室","province":"東京都","city":"目黒区","address":"東京都目黒区目黒1丁目25-26","lat":35.63676039,"lon":139.70815359},{"name":"田道住区三田分室住区会議室","province":"東京都","city":"目黒区","address":"東京都目黒区三田2丁目10-33","lat":35.63876302,"lon":139.71248092},{"name":"下目黒住区会議室","province":"東京都","city":"目黒区","address":"東京都目黒区下目黒2丁目20-19","lat":35.63293864,"lon":139.70989798},{"name":"不動住区会議室","province":"東京都","city":"目黒区","address":"東京都目黒区下目黒6丁目8-23","lat":35.62640867,"lon":139.70103781},{"name":"上目黒住区会議室","province":"東京都","city":"目黒区","address":"東京都目黒区祐天寺2丁目6-6","lat":35.6370906,"lon":139.69376866},{"name":"油面住区会議室","province":"東京都","city":"目黒区","address":"東京都目黒区中町1丁目6-23","lat":35.63137472,"lon":139.699785},{"name":"五本木住区会議室","province":"東京都","city":"目黒区","address":"東京都目黒区中央町2丁目17-2","lat":35.63303818,"lon":139.68925804},{"name":"鷹番住区会議室","province":"東京都","city":"目黒区","address":"東京都目黒区鷹番3丁目17-20","lat":35.6282247,"lon":139.68315869},{"name":"月光原住区会議室","province":"東京都","city":"目黒区","address":"東京都目黒区目黒本町4丁目16-18","lat":35.62207294,"lon":139.6946857},{"name":"向原住区会議室","province":"東京都","city":"目黒区","address":"東京都目黒区目黒本町5丁目22-11","lat":35.61872064,"lon":139.69860215},{"name":"碑住区会議室","province":"東京都","city":"目黒区","address":"東京都目黒区碑文谷2丁目16-6","lat":35.62072847,"lon":139.68762522},{"name":"原町住区会議室","province":"東京都","city":"目黒区","address":"東京都目黒区南1丁目8-9","lat":35.61516252,"lon":139.68936416},{"name":"大岡山東住区会議室","province":"東京都","city":"目黒区","address":"東京都目黒区碑文谷3丁目15-5","lat":35.61786761,"lon":139.68421449},{"name":"大岡山西住区会議室","province":"東京都","city":"目黒区","address":"東京都目黒区平町1丁目15-12","lat":35.61590659,"lon":139.67916219},{"name":"中根住区会議室","province":"東京都","city":"目黒区","address":"東京都目黒区大岡山1丁目37-2","lat":35.61269309,"lon":139.67952895},{"name":"自由が丘住区会議室","province":"東京都","city":"目黒区","address":"東京都目黒区自由が丘1丁目24-12","lat":35.60991255,"lon":139.66916045},{"name":"自由が丘住区宮前分室住区会議室","province":"東京都","city":"目黒区","address":"東京都目黒区八雲3丁目22-15","lat":35.61563953,"lon":139.66540498},{"name":"八雲住区会議室","province":"東京都","city":"目黒区","address":"東京都目黒区八雲1丁目10-5","lat":35.61871439,"lon":139.67224043},{"name":"東根住区会議室","province":"東京都","city":"目黒区","address":"東京都目黒区東が丘1丁目7-14","lat":35.62727725,"lon":139.67001258},{"name":"八雲住区中根一丁目会議室","province":"東京都","city":"目黒区","address":"東京都目黒区中根1丁目10-22","lat":35.61530927,"lon":139.6731016},{"name":"勤労福祉会館","province":"東京都","city":"目黒区","address":"東京都目黒区目黒2丁目4-36","lat":35.6354522,"lon":139.7078592},{"name":"中小企業センター","province":"東京都","city":"目黒区","address":"東京都目黒区目黒2丁目4-36","lat":35.6354522,"lon":139.7078592},{"name":"消費生活センター","province":"東京都","city":"目黒区","address":"東京都目黒区目黒2丁目4-36","lat":35.6354522,"lon":139.7078592},{"name":"三田地区街づくり活動室","province":"東京都","city":"目黒区","address":"東京都目黒区三田1丁目11-26","lat":35.64049338,"lon":139.71242255},{"name":"区営住宅上目黒四丁目アパート","province":"東京都","city":"目黒区","address":"東京都目黒区上目黒4丁目38-1","lat":35.64122887,"lon":139.68765792},{"name":"区営住宅中町一丁目アパート","province":"東京都","city":"目黒区","address":"東京都目黒区中町1丁目4-1","lat":35.63187184,"lon":139.69717966},{"name":"区営住宅東が丘一丁目アパート","province":"東京都","city":"目黒区","address":"東京都目黒区東が丘1丁目16-10","lat":35.62753275,"lon":139.66876268},{"name":"区営住宅碑文谷四丁目アパート","province":"東京都","city":"目黒区","address":"東京都目黒区碑文谷4丁目9-1","lat":35.61902859,"lon":139.68440055},{"name":"区営住宅八雲五丁目アパート","province":"東京都","city":"目黒区","address":"東京都目黒区八雲5丁目8-20","lat":35.62414421,"lon":139.66777675},{"name":"区営住宅下目黒五丁目アパート","province":"東京都","city":"目黒区","address":"東京都目黒区下目黒5丁目11-10","lat":35.62724474,"lon":139.70441528},{"name":"区営住宅清水町アパート","province":"東京都","city":"目黒区","address":"東京都目黒区目黒本町2丁目20-4","lat":35.62438647,"lon":139.69169977},{"name":"区営住宅青葉台二丁目アパート","province":"東京都","city":"目黒区","address":"東京都目黒区青葉台2丁目1-19","lat":35.65288323,"lon":139.69380425},{"name":"区営住宅目黒本町四丁目アパート","province":"東京都","city":"目黒区","address":"東京都目黒区目黒本町4丁目15-19","lat":35.62252565,"lon":139.69424406},{"name":"区営住宅青葉台一丁目アパート","province":"東京都","city":"目黒区","address":"東京都目黒区青葉台1丁目6-48","lat":35.64769506,"lon":139.69878735},{"name":"区営住宅上目黒一丁目アパート","province":"東京都","city":"目黒区","address":"東京都目黒区上目黒1丁目26-2","lat":35.64361779,"lon":139.70077622},{"name":"区営住宅東が丘一丁目第２アパート","province":"東京都","city":"目黒区","address":"東京都目黒区東が丘1丁目31-1","lat":35.63004074,"lon":139.6663156},{"name":"区営住宅三田一丁目アパート","province":"東京都","city":"目黒区","address":"東京都目黒区三田1丁目11-26","lat":35.64049338,"lon":139.71242255},{"name":"区営住宅碑文谷アパート","province":"東京都","city":"目黒区","address":"東京都目黒区碑文谷2丁目7-8","lat":35.62218666,"lon":139.68873897},{"name":"区民住宅三田一丁目住宅","province":"東京都","city":"目黒区","address":"東京都目黒区三田1丁目11-26","lat":35.64049338,"lon":139.71242255},{"name":"区民住宅東が丘一丁目住宅","province":"東京都","city":"目黒区","address":"東京都目黒区東が丘1丁目6-4","lat":35.62637458,"lon":139.67050979},{"name":"三田地区整備事業住宅","province":"東京都","city":"目黒区","address":"東京都目黒区三田1丁目11-26","lat":35.64049338,"lon":139.71242255},{"name":"従前居住者用住宅ホーム月光原","province":"東京都","city":"目黒区","address":"東京都目黒区目黒本町5丁目17-15","lat":35.62151754,"lon":139.69939643},{"name":"高齢者福祉住宅コーポ柿の木坂","province":"東京都","city":"目黒区","address":"東京都目黒区柿の木坂1丁目28-10","lat":35.62000045,"lon":139.67567066},{"name":"高齢者福祉住宅コーポ中目黒","province":"東京都","city":"目黒区","address":"東京都目黒区中目黒4丁目13-30","lat":35.63667412,"lon":139.70046812},{"name":"高齢者福祉住宅コーポ三田","province":"東京都","city":"目黒区","address":"東京都目黒区三田1丁目11-26","lat":35.64049338,"lon":139.71242255},{"name":"高齢者福祉住宅コーポ目黒","province":"東京都","city":"目黒区","address":"東京都目黒区目黒4丁目4-8","lat":35.6332968,"lon":139.70319576},{"name":"高齢者福祉住宅コーポ目黒本町","province":"東京都","city":"目黒区","address":"東京都目黒区目黒本町5丁目33-1","lat":35.622248,"lon":139.69829095},{"name":"高齢者福祉住宅コーポ中町","province":"東京都","city":"目黒区","address":"東京都目黒区中町2丁目4-1","lat":35.63399105,"lon":139.69797675},{"name":"高齢者福祉住宅コーポ目黒本町二丁目","province":"東京都","city":"目黒区","address":"東京都目黒区目黒本町2丁目25-14","lat":35.62336433,"lon":139.68988328},{"name":"高齢者福祉住宅コーポ清水町","province":"東京都","city":"目黒区","address":"東京都目黒区目黒本町2丁目20-22","lat":35.62426704,"lon":139.6914609},{"name":"区民住宅メイプル中目黒","province":"東京都","city":"目黒区","address":"東京都目黒区中目黒2丁目8-2","lat":35.63935446,"lon":139.70405941},{"name":"区民住宅五反山ヒルズ","province":"東京都","city":"目黒区","address":"東京都目黒区東が丘1丁目17-5","lat":35.62685229,"lon":139.66971818},{"name":"区民住宅サント・コア目黒","province":"東京都","city":"目黒区","address":"東京都目黒区目黒1丁目24-5","lat":35.63531059,"lon":139.70991735},{"name":"高齢者福祉住宅コーポみずなか","province":"東京都","city":"目黒区","address":"東京都目黒区中町1丁目25-2","lat":35.63066368,"lon":139.6988962},{"name":"高齢者福祉住宅コーポ中央町","province":"東京都","city":"目黒区","address":"東京都目黒区中央町2丁目9-13","lat":35.63096348,"lon":139.69191344},{"name":"高齢者福祉住宅はぎ荘","province":"東京都","city":"目黒区","address":"東京都目黒区目黒本町6丁目10-6","lat":35.62044817,"lon":139.69621896},{"name":"高齢者福祉住宅しいの木荘","province":"東京都","city":"目黒区","address":"東京都目黒区目黒本町6丁目16-2","lat":35.61931495,"lon":139.6953524},{"name":"高齢者福祉住宅コーポ烏森","province":"東京都","city":"目黒区","address":"東京都目黒区上目黒3丁目44-30","lat":35.64412307,"lon":139.69167973},{"name":"高齢者福祉住宅コーポ蛇崩","province":"東京都","city":"目黒区","address":"東京都目黒区上目黒5丁目29-10","lat":35.64073722,"lon":139.68629416},{"name":"高齢者福祉住宅コーポ平町","province":"東京都","city":"目黒区","address":"東京都目黒区平町1丁目3-4","lat":35.61862577,"lon":139.6812536},{"name":"高齢者福祉住宅コーポ八雲","province":"東京都","city":"目黒区","address":"東京都目黒区八雲3丁目14-16","lat":35.61634503,"lon":139.66615489},{"name":"高齢者福祉住宅コーポ中央町一丁目","province":"東京都","city":"目黒区","address":"東京都目黒区中央町1丁目19-14","lat":35.62809157,"lon":139.69066641},{"name":"駒場児童館","province":"東京都","city":"目黒区","address":"東京都目黒区駒場2丁目7-5","lat":35.65876562,"lon":139.68202725},{"name":"烏森住区センター児童館","province":"東京都","city":"目黒区","address":"東京都目黒区上目黒3丁目44-2","lat":35.64393143,"lon":139.69164362},{"name":"中目黒住区センター児童館","province":"東京都","city":"目黒区","address":"東京都目黒区中目黒2丁目10-13","lat":35.64045153,"lon":139.70302891},{"name":"目黒区民センター児童館","province":"東京都","city":"目黒区","address":"東京都目黒区目黒2丁目4-36","lat":35.6354522,"lon":139.7078592},{"name":"上目黒住区センター児童館","province":"東京都","city":"目黒区","address":"東京都目黒区祐天寺2丁目6-6","lat":35.6370906,"lon":139.69376866},{"name":"油面住区センター児童館","province":"東京都","city":"目黒区","address":"東京都目黒区中町1丁目6-23","lat":35.63137472,"lon":139.699785},{"name":"五本木住区センター児童館","province":"東京都","city":"目黒区","address":"東京都目黒区中央町2丁目17-2","lat":35.63303818,"lon":139.68925804},{"name":"中央町児童館","province":"東京都","city":"目黒区","address":"東京都目黒区中央町2丁目32-5","lat":35.63151056,"lon":139.6887748},{"name":"向原住区センター児童館","province":"東京都","city":"目黒区","address":"東京都目黒区目黒本町5丁目22-11","lat":35.61872064,"lon":139.69860215},{"name":"原町住区センター児童館","province":"東京都","city":"目黒区","address":"東京都目黒区南1丁目8-9","lat":35.61516252,"lon":139.68936416},{"name":"緑が丘児童館","province":"東京都","city":"目黒区","address":"東京都目黒区緑が丘2丁目7-20","lat":35.60943778,"lon":139.6743184},{"name":"八雲住区センター児童館","province":"東京都","city":"目黒区","address":"東京都目黒区八雲1丁目10-5","lat":35.61871439,"lon":139.67224043},{"name":"東山児童館学童保育クラブ","province":"東京都","city":"目黒区","address":"東京都目黒区東山3丁目24-2","lat":35.64793915,"lon":139.68540789},{"name":"東山児童館第二学童保育クラブ","province":"東京都","city":"目黒区","address":"東京都目黒区東山3丁目24-2","lat":35.64793915,"lon":139.68540789},{"name":"菅刈学童保育クラブ","province":"東京都","city":"目黒区","address":"東京都目黒区青葉台2丁目10-18","lat":35.6498003,"lon":139.69561254},{"name":"中目黒住区センター児童館学童保育クラブ","province":"東京都","city":"目黒区","address":"東京都目黒区中目黒2丁目10-13","lat":35.64045153,"lon":139.70302891},{"name":"目黒区民センター児童館学童保育クラブ","province":"東京都","city":"目黒区","address":"東京都目黒区目黒2丁目4-36","lat":35.6354522,"lon":139.7078592},{"name":"田道小学校内学童保育クラブ","province":"東京都","city":"目黒区","address":"東京都目黒区目黒1丁目15-28","lat":35.63759365,"lon":139.70916736},{"name":"上目黒住区センター児童館学童保育クラブ","province":"東京都","city":"目黒区","address":"東京都目黒区祐天寺2丁目6-6","lat":35.6370906,"lon":139.69376866},{"name":"油面住区センター児童館学童保育クラブ","province":"東京都","city":"目黒区","address":"東京都目黒区中町1丁目6-23","lat":35.63137472,"lon":139.699785},{"name":"五本木住区センター児童館学童保育クラブ","province":"東京都","city":"目黒区","address":"東京都目黒区中央町2丁目17-2","lat":35.63303818,"lon":139.68925804},{"name":"鷹番学童保育クラブ","province":"東京都","city":"目黒区","address":"東京都目黒区碑文谷6丁目2-23","lat":35.62617777,"lon":139.68508359},{"name":"向原住区センター児童館学童保育クラブ","province":"東京都","city":"目黒区","address":"東京都目黒区目黒本町5丁目22-11","lat":35.61872064,"lon":139.69860215},{"name":"目黒本町学童保育クラブ","province":"東京都","city":"目黒区","address":"東京都目黒区目黒本町2丁目1-20","lat":35.62522258,"lon":139.69522445},{"name":"原町住区センター児童館学童保育クラブ","province":"東京都","city":"目黒区","address":"東京都目黒区南1丁目8-9","lat":35.61516252,"lon":139.68936416},{"name":"ひもんや学童保育クラブ","province":"東京都","city":"目黒区","address":"東京都目黒区碑文谷2丁目8-9","lat":35.62269213,"lon":139.68778626},{"name":"緑が丘児童館学童保育クラブ","province":"東京都","city":"目黒区","address":"東京都目黒区緑が丘2丁目7-20","lat":35.60943778,"lon":139.6743184},{"name":"中根小学校内学童保育クラブ","province":"東京都","city":"目黒区","address":"東京都目黒区緑が丘1丁目1-1","lat":35.61269583,"lon":139.67831238},{"name":"八雲住区センター児童館学童保育クラブ","province":"東京都","city":"目黒区","address":"東京都目黒区八雲1丁目10-5","lat":35.61871439,"lon":139.67224043},{"name":"宮前小学校内学童保育クラブ","province":"東京都","city":"目黒区","address":"東京都目黒区八雲3丁目13-21","lat":35.61536461,"lon":139.66687987},{"name":"中央町児童館学童保育クラブ","province":"東京都","city":"目黒区","address":"東京都目黒区中央町2丁目32-5","lat":35.63151056,"lon":139.6887748},{"name":"大岡山学童保育クラブ","province":"東京都","city":"目黒区","address":"東京都目黒区平町2丁目4-10","lat":35.61441521,"lon":139.68310914},{"name":"東根学童保育クラブ","province":"東京都","city":"目黒区","address":"東京都目黒区東が丘1丁目20-1","lat":35.62715777,"lon":139.66802664},{"name":"烏森住区センター児童館第二学童保育クラブ","province":"東京都","city":"目黒区","address":"東京都目黒区上目黒5丁目18-9","lat":35.64289537,"lon":139.68855224},{"name":"油面小学校内学童保育クラブ","province":"東京都","city":"目黒区","address":"東京都目黒区中町1丁目5-4","lat":35.63239403,"lon":139.69829898},{"name":"駒場保育園","province":"東京都","city":"目黒区","address":"東京都目黒区駒場1丁目22-1","lat":35.6565382,"lon":139.68654083},{"name":"菅刈保育園","province":"東京都","city":"目黒区","address":"東京都目黒区青葉台2丁目10-27","lat":35.64998916,"lon":139.69520979},{"name":"東山保育園","province":"東京都","city":"目黒区","address":"東京都目黒区東山2丁目10-17","lat":35.64793371,"lon":139.69025194},{"name":"第二上目黒保育園","province":"東京都","city":"目黒区","address":"東京都目黒区上目黒2丁目15-8","lat":35.64220954,"lon":139.69736265},{"name":"田道保育園","province":"東京都","city":"目黒区","address":"東京都目黒区目黒3丁目4-4","lat":35.63453283,"lon":139.70607326},{"name":"不動保育園","province":"東京都","city":"目黒区","address":"東京都目黒区下目黒6丁目11-20","lat":35.62656973,"lon":139.6993074},{"name":"中町保育園","province":"東京都","city":"目黒区","address":"東京都目黒区中町2丁目37-15","lat":35.63412429,"lon":139.69456868},{"name":"祐天寺保育園","province":"東京都","city":"目黒区","address":"東京都目黒区祐天寺1丁目10-9","lat":35.63907096,"lon":139.69487129},{"name":"中央町保育園","province":"東京都","city":"目黒区","address":"東京都目黒区中央町2丁目30-7","lat":35.63220214,"lon":139.68841091},{"name":"目黒本町保育園","province":"東京都","city":"目黒区","address":"東京都目黒区目黒本町2丁目1-20","lat":35.62522258,"lon":139.69522445},{"name":"原町保育園","province":"東京都","city":"目黒区","address":"東京都目黒区原町1丁目20-16","lat":35.61791512,"lon":139.69525246},{"name":"南保育園","province":"東京都","city":"目黒区","address":"東京都目黒区南1丁目18-30","lat":35.61359048,"lon":139.68908646},{"name":"第二ひもんや保育園","province":"東京都","city":"目黒区","address":"東京都目黒区目黒本町2丁目25-14","lat":35.62336433,"lon":139.68988328},{"name":"ひもんや保育園","province":"東京都","city":"目黒区","address":"東京都目黒区碑文谷2丁目8-9","lat":35.62269213,"lon":139.68778626},{"name":"第三ひもんや保育園","province":"東京都","city":"目黒区","address":"東京都目黒区碑文谷5丁目15-19","lat":35.62151432,"lon":139.68115073},{"name":"鷹番保育園","province":"東京都","city":"目黒区","address":"東京都目黒区鷹番2丁目16-15","lat":35.62836645,"lon":139.68707225},{"name":"大岡山保育園","province":"東京都","city":"目黒区","address":"東京都目黒区大岡山1丁目36-10","lat":35.61019619,"lon":139.68039564},{"name":"八雲保育園","province":"東京都","city":"目黒区","address":"東京都目黒区八雲3丁目10-18","lat":35.6156174,"lon":139.66807699},{"name":"目黒保育園","province":"東京都","city":"目黒区","address":"東京都目黒区目黒1丁目7-16","lat":35.63568557,"lon":139.71132834},{"name":"中目黒駅前保育園","province":"東京都","city":"目黒区","address":"東京都目黒区上目黒1丁目26-1","lat":35.64391219,"lon":139.70028736},{"name":"不動児童館施設内小規模保育所","province":"東京都","city":"目黒区","address":"東京都目黒区下目黒5丁目18-4","lat":35.63015548,"lon":139.70234037},{"name":"上目黒小学校内保育施設","province":"東京都","city":"目黒区","address":"東京都目黒区五本木1丁目12-13","lat":35.63823483,"lon":139.69061611},{"name":"緑が丘文化会館別館保育施設","province":"東京都","city":"目黒区","address":"東京都目黒区緑が丘2丁目7-20","lat":35.60943778,"lon":139.6743184},{"name":"特別養護老人ホーム中目黒","province":"東京都","city":"目黒区","address":"東京都目黒区中目黒5丁目7-35","lat":35.6360131,"lon":139.70094033},{"name":"特別養護老人ホーム東が丘","province":"東京都","city":"目黒区","address":"東京都目黒区東が丘1丁目6-4","lat":35.62637458,"lon":139.67050979},{"name":"特別養護老人ホーム東山","province":"東京都","city":"目黒区","address":"東京都目黒区東山3丁目24-6","lat":35.64735033,"lon":139.68546346},{"name":"高齢者センター","province":"東京都","city":"目黒区","address":"東京都目黒区目黒1丁目25-26","lat":35.63676039,"lon":139.70815359},{"name":"田道在宅ケア多機能センター","province":"東京都","city":"目黒区","address":"東京都目黒区目黒1丁目25-26","lat":35.63676039,"lon":139.70815359},{"name":"東山在宅ケア多機能センター","province":"東京都","city":"目黒区","address":"東京都目黒区東山3丁目24-6","lat":35.64735033,"lon":139.68546346},{"name":"居宅介護支援事業所（ひがしやまホーム）","province":"東京都","city":"目黒区","address":"東京都目黒区東山3丁目24-6","lat":35.64735033,"lon":139.68546346},{"name":"居宅介護支援事業所（ひがしがおかホーム）","province":"東京都","city":"目黒区","address":"東京都目黒区東が丘1丁目6-4","lat":35.62637458,"lon":139.67050979},{"name":"東が丘在宅ケア多機能センター","province":"東京都","city":"目黒区","address":"東京都目黒区東が丘1丁目6-4","lat":35.62637458,"lon":139.67050979},{"name":"駒場老人いこいの家","province":"東京都","city":"目黒区","address":"東京都目黒区駒場1丁目26-6","lat":35.65719366,"lon":139.68545201},{"name":"菅刈老人いこいの家","province":"東京都","city":"目黒区","address":"東京都目黒区青葉台2丁目10-18","lat":35.6498003,"lon":139.69561254},{"name":"烏森老人いこいの家","province":"東京都","city":"目黒区","address":"東京都目黒区上目黒3丁目44-2","lat":35.64393143,"lon":139.69164362},{"name":"上二老人いこいの家","province":"東京都","city":"目黒区","address":"東京都目黒区上目黒2丁目10-4","lat":35.64146244,"lon":139.69915975},{"name":"田道老人いこいの家","province":"東京都","city":"目黒区","address":"東京都目黒区目黒3丁目1-18","lat":35.63510498,"lon":139.70600381},{"name":"三田分室老人いこいの家","province":"東京都","city":"目黒区","address":"東京都目黒区三田2丁目10-33","lat":35.63876302,"lon":139.71248092},{"name":"下目黒老人いこいの家","province":"東京都","city":"目黒区","address":"東京都目黒区下目黒2丁目20-19","lat":35.63293864,"lon":139.70989798},{"name":"不動老人いこいの家","province":"東京都","city":"目黒区","address":"東京都目黒区下目黒6丁目8-23","lat":35.62640867,"lon":139.70103781},{"name":"上目黒老人いこいの家","province":"東京都","city":"目黒区","address":"東京都目黒区上目黒4丁目18-15","lat":35.64085399,"lon":139.69117153},{"name":"中町老人いこいの家","province":"東京都","city":"目黒区","address":"東京都目黒区中町1丁目6-19","lat":35.6308859,"lon":139.70004055},{"name":"五本木老人いこいの家","province":"東京都","city":"目黒区","address":"東京都目黒区五本木2丁目11-29","lat":35.63520738,"lon":139.68953295},{"name":"鷹番老人いこいの家","province":"東京都","city":"目黒区","address":"東京都目黒区鷹番3丁目17-20","lat":35.6282247,"lon":139.68315869},{"name":"月光原老人いこいの家","province":"東京都","city":"目黒区","address":"東京都目黒区目黒本町4丁目16-18","lat":35.62207294,"lon":139.6946857},{"name":"向原老人いこいの家","province":"東京都","city":"目黒区","address":"東京都目黒区目黒本町5丁目22-11","lat":35.61872064,"lon":139.69860215},{"name":"碑老人いこいの家","province":"東京都","city":"目黒区","address":"東京都目黒区碑文谷2丁目16-6","lat":35.62072847,"lon":139.68762522},{"name":"原町老人いこいの家","province":"東京都","city":"目黒区","address":"東京都目黒区原町2丁目2-14","lat":35.61619581,"lon":139.69218056},{"name":"大岡山東老人いこいの家","province":"東京都","city":"目黒区","address":"東京都目黒区碑文谷3丁目15-5","lat":35.61786761,"lon":139.68421449},{"name":"平町老人いこいの家","province":"東京都","city":"目黒区","address":"東京都目黒区平町2丁目4-10","lat":35.61441521,"lon":139.68310914},{"name":"中根老人いこいの家","province":"東京都","city":"目黒区","address":"東京都目黒区大岡山1丁目37-2","lat":35.61269309,"lon":139.67952895},{"name":"自由が丘老人いこいの家","province":"東京都","city":"目黒区","address":"東京都目黒区自由が丘1丁目23-26","lat":35.61153737,"lon":139.66963534},{"name":"宮前分室老人いこいの家","province":"東京都","city":"目黒区","address":"東京都目黒区八雲3丁目22-15","lat":35.61563953,"lon":139.66540498},{"name":"八雲老人いこいの家","province":"東京都","city":"目黒区","address":"東京都目黒区八雲1丁目10-5","lat":35.61871439,"lon":139.67224043},{"name":"東根老人いこいの家","province":"東京都","city":"目黒区","address":"東京都目黒区東が丘1丁目7-14","lat":35.62727725,"lon":139.67001258},{"name":"下目黒福祉工房","province":"東京都","city":"目黒区","address":"東京都目黒区下目黒3丁目10-22","lat":35.6270282,"lon":139.71012034},{"name":"目黒区児童発達支援センターすくすくのびのび園","province":"東京都","city":"目黒区","address":"東京都目黒区中央町2丁目23-24","lat":35.63082737,"lon":139.69094131},{"name":"心身障害者センターあいアイ館","province":"東京都","city":"目黒区","address":"東京都目黒区八雲1丁目1-8","lat":35.62052255,"lon":139.6732764},{"name":"大橋えのき園","province":"東京都","city":"目黒区","address":"東京都目黒区大橋2丁目19-38","lat":35.65542154,"lon":139.68192459},{"name":"かみよん工房","province":"東京都","city":"目黒区","address":"東京都目黒区上目黒4丁目1-26","lat":35.64190944,"lon":139.69204088},{"name":"東が丘障害福祉施設","province":"東京都","city":"目黒区","address":"東京都目黒区東が丘1丁目21-15","lat":35.62744384,"lon":139.66783776},{"name":"のぞみ寮","province":"東京都","city":"目黒区","address":"東京都目黒区目黒3丁目4-4","lat":35.63453283,"lon":139.70607326},{"name":"身体障害者福祉住宅田道ハイム","province":"東京都","city":"目黒区","address":"東京都目黒区目黒3丁目4-4","lat":35.63453283,"lon":139.70607326},{"name":"目黒本町福祉工房","province":"東京都","city":"目黒区","address":"東京都目黒区目黒本町1丁目14-24","lat":35.62853886,"lon":139.69564932},{"name":"中央町二丁目障害福祉施設","province":"東京都","city":"目黒区","address":"東京都目黒区中央町2丁目32-5","lat":35.63151056,"lon":139.6887748},{"name":"目黒本町福祉工房中央町分室","province":"東京都","city":"目黒区","address":"東京都目黒区中央町2丁目32-5","lat":35.63151056,"lon":139.6887748},{"name":"障害者就労支援施設","province":"東京都","city":"目黒区","address":"東京都目黒区目黒2丁目4-36","lat":35.6354522,"lon":139.7078592},{"name":"母子生活支援施設みどりハイム","province":"大阪府","city":"大阪市中央区","address":"大阪府大阪市中央区","lat":34.68107502,"lon":135.50978711},{"name":"八雲小学校","province":"東京都","city":"目黒区","address":"東京都目黒区八雲2丁目5-1","lat":35.61806166,"lon":139.67125443},{"name":"菅刈小学校","province":"東京都","city":"目黒区","address":"東京都目黒区青葉台3丁目3-26","lat":35.65167222,"lon":139.6921572},{"name":"下目黒小学校","province":"東京都","city":"目黒区","address":"東京都目黒区目黒2丁目7-9","lat":35.63420237,"lon":139.70915357},{"name":"碑小学校","province":"東京都","city":"目黒区","address":"東京都目黒区碑文谷1丁目18-2","lat":35.61961479,"lon":139.6905889},{"name":"中目黒小学校","province":"東京都","city":"目黒区","address":"東京都目黒区中目黒3丁目13-32","lat":35.64019315,"lon":139.6991709},{"name":"油面小学校","province":"東京都","city":"目黒区","address":"東京都目黒区中町1丁目5-4","lat":35.63239403,"lon":139.69829898},{"name":"大岡山小学校","province":"東京都","city":"目黒区","address":"東京都目黒区平町2丁目3-1","lat":35.61548175,"lon":139.68300356},{"name":"烏森小学校","province":"東京都","city":"目黒区","address":"東京都目黒区上目黒3丁目37-27","lat":35.64436474,"lon":139.69288239},{"name":"向原小学校","province":"東京都","city":"目黒区","address":"東京都目黒区目黒本町6丁目7-15","lat":35.61871503,"lon":139.69578294},{"name":"五本木小学校","province":"東京都","city":"目黒区","address":"東京都目黒区五本木2丁目24-3","lat":35.63440465,"lon":139.68779979},{"name":"鷹番小学校","province":"東京都","city":"目黒区","address":"東京都目黒区中央町1丁目20-26","lat":35.62778326,"lon":139.69024979},{"name":"田道小学校","province":"東京都","city":"目黒区","address":"東京都目黒区目黒1丁目15-28","lat":35.63759365,"lon":139.70916736},{"name":"月光原小学校","province":"東京都","city":"目黒区","address":"東京都目黒区目黒本町4丁目15-3","lat":35.622509,"lon":139.6945857},{"name":"駒場小学校","province":"東京都","city":"目黒区","address":"東京都目黒区駒場3丁目11-13","lat":35.65985994,"lon":139.68193555},{"name":"緑ヶ丘小学校","province":"東京都","city":"目黒区","address":"東京都目黒区緑が丘2丁目13-1","lat":35.61029877,"lon":139.67344898},{"name":"原町小学校","province":"東京都","city":"目黒区","address":"東京都目黒区原町2丁目18-12","lat":35.61575137,"lon":139.69049182},{"name":"不動小学校","province":"東京都","city":"目黒区","address":"東京都目黒区下目黒6丁目11-35","lat":35.62708077,"lon":139.69909907},{"name":"上目黒小学校","province":"東京都","city":"目黒区","address":"東京都目黒区五本木1丁目12-13","lat":35.63823483,"lon":139.69061611},{"name":"東根小学校","province":"東京都","city":"目黒区","address":"東京都目黒区東が丘1丁目20-1","lat":35.62715777,"lon":139.66802664},{"name":"中根小学校","province":"東京都","city":"目黒区","address":"東京都目黒区緑が丘1丁目1-1","lat":35.61269583,"lon":139.67831238},{"name":"宮前小学校","province":"東京都","city":"目黒区","address":"東京都目黒区八雲3丁目13-21","lat":35.61536461,"lon":139.66687987},{"name":"第一中学校","province":"東京都","city":"目黒区","address":"東京都目黒区大橋2丁目11-1","lat":35.6546662,"lon":139.68663255},{"name":"第七中学校","province":"東京都","city":"目黒区","address":"東京都目黒区碑文谷1丁目1-33","lat":35.62292277,"lon":139.6917637},{"name":"第八中学校","province":"東京都","city":"目黒区","address":"東京都目黒区碑文谷4丁目19-25","lat":35.61968402,"lon":139.68249512},{"name":"第九中学校","province":"東京都","city":"目黒区","address":"東京都目黒区洗足1丁目29-26","lat":35.61350731,"lon":139.69454989},{"name":"第十中学校","province":"東京都","city":"目黒区","address":"東京都目黒区八雲5丁目2-1","lat":35.62431921,"lon":139.66867667},{"name":"第十一中学校","province":"東京都","city":"目黒区","address":"東京都目黒区緑が丘1丁目8-1","lat":35.60946846,"lon":139.67902356},{"name":"東山中学校","province":"東京都","city":"目黒区","address":"東京都目黒区東山1丁目24-31","lat":35.64647555,"lon":139.69022699},{"name":"目黒中央中学校","province":"東京都","city":"目黒区","address":"東京都目黒区中町2丁目37-38","lat":35.63467698,"lon":139.69364652},{"name":"大鳥中学校","province":"東京都","city":"目黒区","address":"東京都目黒区下目黒3丁目23-18","lat":35.63109158,"lon":139.70761212},{"name":"ひがしやま幼稚園","province":"東京都","city":"目黒区","address":"東京都目黒区東山3丁目24-2","lat":35.64793915,"lon":139.68540789},{"name":"げっこうはらこども園","province":"東京都","city":"目黒区","address":"東京都目黒区目黒本町4丁目15-3","lat":35.622509,"lon":139.6945857},{"name":"みどりがおかこども園","province":"東京都","city":"目黒区","address":"東京都目黒区緑が丘2丁目7-20","lat":35.60943778,"lon":139.6743184},{"name":"興津自然学園","province":"千葉県","city":"勝浦市","address":"千葉県勝浦市興津143","lat":35.13695962,"lon":140.2547783},{"name":"めぐろ学校サポートセンター","province":"東京都","city":"目黒区","address":"東京都目黒区中目黒3丁目6-10","lat":35.63931276,"lon":139.70257898},{"name":"めぐろパーシモンホール","province":"東京都","city":"目黒区","address":"東京都目黒区八雲1丁目1-1","lat":35.62149186,"lon":139.67275697},{"name":"中目黒ＧＴプラザホール","province":"東京都","city":"目黒区","address":"東京都目黒区上目黒2丁目1-3","lat":35.64321779,"lon":139.6986653},{"name":"中小企業センターホール","province":"東京都","city":"目黒区","address":"東京都目黒区目黒2丁目4-36","lat":35.6354522,"lon":139.7078592},{"name":"目黒区美術館","province":"東京都","city":"目黒区","address":"東京都目黒区目黒2丁目4-36","lat":35.6354522,"lon":139.7078592},{"name":"めぐろ歴史資料館","province":"東京都","city":"目黒区","address":"東京都目黒区中目黒3丁目6-10","lat":35.63931276,"lon":139.70257898},{"name":"すずめのお宿緑地公園古民家","province":"東京都","city":"目黒区","address":"東京都目黒区碑文谷3丁目11-22","lat":35.61857865,"lon":139.68445334},{"name":"観光まちづくり支援施設","province":"東京都","city":"目黒区","address":"東京都目黒区上目黒2丁目1-3","lat":35.64321779,"lon":139.6986653},{"name":"中央町社会教育館","province":"東京都","city":"目黒区","address":"東京都目黒区中央町2丁目4-18","lat":35.6318745,"lon":139.69222728},{"name":"青少年プラザ","province":"東京都","city":"目黒区","address":"東京都目黒区中目黒2丁目10-13","lat":35.64045153,"lon":139.70302891},{"name":"駒場体育館","province":"東京都","city":"目黒区","address":"東京都目黒区駒場2丁目19-39","lat":35.65811009,"lon":139.68013021},{"name":"八雲体育館","province":"東京都","city":"目黒区","address":"東京都目黒区八雲1丁目1-1","lat":35.62149186,"lon":139.67275697},{"name":"砧球技場管理事務所","province":"東京都","city":"世田谷区","address":"東京都世田谷区喜多見1丁目12-2","lat":35.62092151,"lon":139.59606169},{"name":"宮前公園庭球場管理事務所","province":"東京都","city":"目黒区","address":"東京都目黒区八雲3丁目19-12","lat":35.61698104,"lon":139.66516884},{"name":"中央地区プール","province":"東京都","city":"目黒区","address":"東京都目黒区五本木2丁目24-3","lat":35.63440465,"lon":139.68779979},{"name":"南部地区プール","province":"東京都","city":"目黒区","address":"東京都目黒区碑文谷1丁目18-14","lat":35.61931205,"lon":139.69064446},{"name":"西部地区プール","province":"東京都","city":"目黒区","address":"東京都目黒区緑が丘2丁目13-1","lat":35.61029877,"lon":139.67344898},{"name":"八雲中央図書館","province":"東京都","city":"目黒区","address":"東京都目黒区八雲1丁目1-1","lat":35.62149186,"lon":139.67275697},{"name":"大橋図書館","province":"東京都","city":"目黒区","address":"東京都目黒区大橋1丁目5-1","lat":35.65146104,"lon":139.68842141},{"name":"中目黒駅前図書館","province":"東京都","city":"目黒区","address":"東京都目黒区上目黒2丁目1-3","lat":35.64321779,"lon":139.6986653},{"name":"目黒区民センター図書館","province":"東京都","city":"目黒区","address":"東京都目黒区目黒2丁目4-36","lat":35.6354522,"lon":139.7078592},{"name":"守屋図書館","province":"東京都","city":"目黒区","address":"東京都目黒区五本木2丁目20-15","lat":35.63410472,"lon":139.68903859},{"name":"目黒本町図書館","province":"東京都","city":"目黒区","address":"東京都目黒区目黒本町2丁目1-20","lat":35.62522258,"lon":139.69522445},{"name":"洗足図書館","province":"東京都","city":"目黒区","address":"東京都目黒区洗足2丁目8-26","lat":35.61237128,"lon":139.69236123},{"name":"緑が丘図書館","province":"東京都","city":"目黒区","address":"東京都目黒区緑が丘2丁目14-23","lat":35.60935165,"lon":139.67327682},{"name":"三田地区駐車場","province":"東京都","city":"目黒区","address":"東京都目黒区三田1丁目11-26","lat":35.64049338,"lon":139.71242255},{"name":"学芸大学駅東口駐輪場","province":"東京都","city":"目黒区","address":"東京都目黒区鷹番2丁目19-15","lat":35.6284303,"lon":139.68599734},{"name":"祐天寺駅西口第一駐輪場","province":"東京都","city":"目黒区","address":"東京都目黒区五本木1丁目33-8","lat":35.63739048,"lon":139.69029671},{"name":"自由が丘駅南口駐輪場","province":"東京都","city":"目黒区","address":"東京都目黒区自由が丘2丁目13-9","lat":35.60675176,"lon":139.66759683},{"name":"都立大学駅北口駐輪場","province":"東京都","city":"目黒区","address":"東京都目黒区柿の木坂1丁目30-12","lat":35.61871448,"lon":139.6752763},{"name":"下目黒自転車集積所","province":"東京都","city":"目黒区","address":"東京都目黒区下目黒2丁目14-10","lat":35.62905857,"lon":139.7122812},{"name":"洗足二丁目駐輪場","province":"東京都","city":"目黒区","address":"東京都目黒区洗足2丁目18-11","lat":35.61054929,"lon":139.69329177},{"name":"池尻大橋駅北口駐輪場","province":"東京都","city":"目黒区","address":"東京都目黒区大橋2丁目24-11","lat":35.65143874,"lon":139.68503836},{"name":"学芸大学駅西口第一駐輪場","province":"東京都","city":"目黒区","address":"東京都目黒区鷹番3丁目7-4","lat":35.62952182,"lon":139.68485296},{"name":"中町二丁目自転車集積所","province":"東京都","city":"目黒区","address":"東京都目黒区中町2丁目46-12","lat":35.63351594,"lon":139.69085235},{"name":"駒場公園和館","province":"東京都","city":"目黒区","address":"東京都目黒区駒場4丁目3-55","lat":35.66209575,"lon":139.68014952},{"name":"碑文谷公園詰所","province":"東京都","city":"目黒区","address":"東京都目黒区碑文谷6丁目9-11","lat":35.6265582,"lon":139.68210883},{"name":"菅刈公園和館","province":"東京都","city":"目黒区","address":"東京都目黒区青葉台2丁目11-25","lat":35.65030018,"lon":139.69311828},{"name":"花とみどりの学習館","province":"東京都","city":"目黒区","address":"東京都目黒区中目黒2丁目3-14","lat":35.64126815,"lon":139.70520371},{"name":"菅刈公園管理棟","province":"東京都","city":"目黒区","address":"東京都目黒区青葉台2丁目11-25","lat":35.65030018,"lon":139.69311828},{"name":"駒場野公園自然観察舎","province":"東京都","city":"目黒区","address":"東京都目黒区駒場2丁目19-70","lat":35.65863786,"lon":139.68204114},{"name":"駒場野公園管理棟","province":"東京都","city":"目黒区","address":"東京都目黒区駒場2丁目17-20","lat":35.65643809,"lon":139.68155515},{"name":"衾町公園児童交通施設","province":"東京都","city":"目黒区","address":"東京都目黒区八雲5丁目2-10","lat":35.62342766,"lon":139.6695294},{"name":"目黒天空庭園管理棟","province":"東京都","city":"目黒区","address":"東京都目黒区大橋1丁目9-2","lat":35.6504778,"lon":139.68743541},{"name":"目黒区エコプラザ","province":"東京都","city":"目黒区","address":"東京都目黒区目黒1丁目25-26","lat":35.63676039,"lon":139.70815359},{"name":"目黒区清掃事務所","province":"東京都","city":"目黒区","address":"東京都目黒区目黒本町2丁目13-19","lat":35.6251114,"lon":139.69212749},{"name":"目黒区清掃事業所","province":"東京都","city":"目黒区","address":"東京都目黒区中目黒4丁目1-2","lat":35.63883228,"lon":139.7034067},{"name":"目黒区粗大中継所","province":"東京都","city":"目黒区","address":"東京都目黒区中央町1丁目6-11","lat":35.62886653,"lon":139.69289398},{"name":"上目黒職員住宅","province":"東京都","city":"目黒区","address":"東京都目黒区上目黒2丁目48-2","lat":35.64209005,"lon":139.6949073},{"name":"東根職員住宅","province":"東京都","city":"目黒区","address":"東京都目黒区東が丘1丁目7-14","lat":35.62727725,"lon":139.67001258},{"name":"中目黒職員住宅","province":"東京都","city":"目黒区","address":"東京都目黒区上目黒2丁目19-26","lat":35.64089304,"lon":139.69772099},{"name":"清水池教職員住宅","province":"東京都","city":"目黒区","address":"東京都目黒区碑文谷1丁目12-3","lat":35.62233393,"lon":139.69115544},{"name":"旧東山住区センター","province":"東京都","city":"目黒区","address":"東京都目黒区東山3丁目19-18","lat":35.64863078,"lon":139.68702996},{"name":"旧川の資料館","province":"東京都","city":"目黒区","address":"東京都目黒区中目黒1丁目11-18","lat":35.64152917,"lon":139.70210118},{"name":"旧中根西高齢者ふれあいの家","province":"東京都","city":"目黒区","address":"東京都目黒区中根1丁目10-22","lat":35.61530927,"lon":139.6731016},{"name":"旧下目黒ふれあい工房","province":"東京都","city":"目黒区","address":"東京都目黒区下目黒2丁目20-19","lat":35.63293864,"lon":139.70989798},{"name":"目黒本町社会福祉用施設","province":"東京都","city":"目黒区","address":"東京都目黒区目黒本町5丁目33-1","lat":35.622248,"lon":139.69829095},{"name":"上目黒一丁目交番用施設","province":"東京都","city":"目黒区","address":"東京都目黒区上目黒1丁目26-1","lat":35.64391219,"lon":139.70028736},{"name":"旧氷川荘施設","province":"東京都","city":"目黒区","address":"東京都目黒区大橋2丁目19-38","lat":35.65542154,"lon":139.68192459}]}