{"category":"park","data":[{"name":"東京都江戸東京博物館","province":"東京都","city":"墨田区","address":"東京都墨田区横網1-4-1","lat":35.696597,"lon":139.795734},{"name":"トーキョーアーツアンドスペースレジデンシー","province":"東京都","city":"墨田区","address":"墨田区立川2-14-7","lat":35.69209,"lon":139.802025},{"name":"東白鬚公園","province":"東京都","city":"墨田区","address":"東京都墨田区堤通二丁目","lat":35.733687,"lon":139.814077},{"name":"横網町公園","province":"東京都","city":"墨田区","address":"東京都墨田区横網二丁目3番地25号","lat":35.699188,"lon":139.796883},{"name":"向島百花園","province":"東京都","city":"墨田区","address":"東京都墨田区東向島三丁目","lat":35.724215,"lon":139.815601},{"name":"チェリッシュ曳舟","province":"東京都","city":"墨田区","address":"墨田区京島一丁目36番1号","lat":35.717145,"lon":139.819611},{"name":"あい・あい保育園小村井園","province":"東京都","city":"墨田区","address":"墨田区立花五丁目24番11号","lat":35.7111135,"lon":139.8305581},{"name":"ぶどうの木保育室","province":"東京都","city":"墨田区","address":"墨田区東駒形四丁目4番8号","lat":35.705506,"lon":139.80511},{"name":"八広ぶどうの木保育室","province":"東京都","city":"墨田区","address":"墨田区八広六丁目37番5号","lat":35.725938,"lon":139.82901},{"name":"ちゃのま保育園","province":"東京都","city":"墨田区","address":"墨田区横川四丁目9番8号","lat":35.7051553,"lon":139.8160458},{"name":"キャリー保育園東向島","province":"東京都","city":"墨田区","address":"墨田区東向島5-36-10","lat":35.727296,"lon":139.823158},{"name":"じょうえん第2保育園","province":"東京都","city":"墨田区","address":"墨田区京島1-6-6-105","lat":35.716579,"lon":139.818508},{"name":"じょうえん第3保育園","province":"東京都","city":"墨田区","address":"墨田区京島1-6-6-106","lat":35.716684,"lon":139.818572},{"name":"墨田みどり保育園　第一大横川園","province":"東京都","city":"墨田区","address":"墨田区緑四丁目2番8号先","lat":35.693009,"lon":139.808686},{"name":"墨田みどり保育園　第二大横川園","province":"東京都","city":"墨田区","address":"墨田区緑四丁目2番8号先","lat":35.693009,"lon":139.808686},{"name":"未来っ子保育園東向島園","province":"東京都","city":"墨田区","address":"墨田区東向島五丁目18番1号","lat":35.725943,"lon":139.821553},{"name":"両国子育てひろば保育室","province":"東京都","city":"墨田区","address":"墨田区横網一丁目2番13号","lat":35.69786,"lon":139.792409},{"name":"ベタニヤホームおひさま保育室","province":"東京都","city":"墨田区","address":"墨田区江東橋五丁目4番1号","lat":35.6891793,"lon":139.8109075},{"name":"そらまめ東あずま駅前園","province":"東京都","city":"墨田区","address":"墨田区立花二丁目26番2号","lat":35.707017,"lon":139.831455},{"name":"はなみずき保育室","province":"東京都","city":"墨田区","address":"墨田区八広三丁目7番18号","lat":35.72101,"lon":139.826203},{"name":"ムーミン保育室","province":"東京都","city":"墨田区","address":"墨田区太平三丁目19番1号","lat":35.7024639,"lon":139.813185},{"name":"ピノキオ幼児舎鐘ヶ淵園","province":"東京都","city":"墨田区","address":"墨田区堤通二丁目8番2号","lat":35.735087,"lon":139.817538},{"name":"こすもす保育園","province":"東京都","city":"墨田区","address":"墨田区錦糸一丁目14番7号","lat":35.699278,"lon":139.81151},{"name":"ポピンズナーサリースクールすみだ","province":"東京都","city":"墨田区","address":"墨田区太平四丁目1番1号","lat":35.7003974,"lon":139.8161542},{"name":"ゆらりん曳舟保育園","province":"東京都","city":"墨田区","address":"墨田区京島一丁目38番1-107号","lat":35.718049,"lon":139.81832},{"name":"マミーズエンジェル墨田みなみ保育園","province":"東京都","city":"墨田区","address":"墨田区亀沢四丁目24番13号","lat":35.6983866,"lon":139.8058635},{"name":"保育園夢未来錦糸町園","province":"東京都","city":"墨田区","address":"墨田区太平三丁目3番12号","lat":35.699717,"lon":139.814096},{"name":"墨田二丁目出張所","province":"東京都","city":"墨田区","address":"墨田区墨田二丁目36番11号","lat":35.731063,"lon":139.818292},{"name":"ひきふね図書館","province":"東京都","city":"墨田区","address":"墨田区京島一丁目36番5号","lat":35.717058,"lon":139.819491},{"name":"立花図書館","province":"東京都","city":"墨田区","address":"墨田区立花六丁目8番1号101号室","lat":35.710694,"lon":139.834842},{"name":"東駒形コミュニティ会館図書室","province":"東京都","city":"墨田区","address":"墨田区東駒形四丁目14番1号","lat":35.705517,"lon":139.807746},{"name":"梅若橋コミュニティ会館図書室","province":"東京都","city":"墨田区","address":"墨田区堤通二丁目9番1号","lat":35.735335,"lon":139.816746},{"name":"横川コミュニティ会館図書室","province":"東京都","city":"墨田区","address":"墨田区横川五丁目9番1号","lat":35.705116,"lon":139.81758},{"name":"曳舟文化センター","province":"東京都","city":"墨田区","address":"墨田区京島一丁目38番11号","lat":35.718293,"lon":139.818762},{"name":"すみだリバーサイドホール","province":"東京都","city":"墨田区","address":"墨田区吾妻橋一丁目23番20号","lat":35.710228,"lon":139.801599},{"name":"東駒形コミュニティ会館","province":"東京都","city":"墨田区","address":"墨田区東駒形四丁目14番1号","lat":35.705517,"lon":139.807746},{"name":"梅若橋コミュニティ会館","province":"東京都","city":"墨田区","address":"墨田区堤通二丁目9番1号","lat":35.735335,"lon":139.816746},{"name":"横川コミュニティ会館","province":"東京都","city":"墨田区","address":"墨田区横川五丁目9番1号","lat":35.705116,"lon":139.81758},{"name":"東墨田会館","province":"東京都","city":"墨田区","address":"墨田区東墨田二丁目12番9号","lat":35.721384,"lon":139.832596},{"name":"ユートリヤ（すみだ生涯学習センター）","province":"東京都","city":"墨田区","address":"墨田区東向島二丁目38番7号","lat":35.721049,"lon":139.818306},{"name":"本所地域プラザ「BIG SHIP」","province":"東京都","city":"墨田区","address":"墨田区本所一丁目13番4号","lat":35.703121,"lon":139.798799},{"name":"墨田区保健所","province":"東京都","city":"墨田区","address":"墨田区吾妻橋一丁目23番20号墨田区役所内","lat":35.710722,"lon":139.801497},{"name":"向島保健センター","province":"東京都","city":"墨田区","address":"墨田区東向島五丁目16番2号","lat":35.725863,"lon":139.821147},{"name":"本所保健センター","province":"東京都","city":"墨田区","address":"墨田区東駒形一丁目6番4号","lat":35.705436,"lon":139.798058},{"name":"墨田区休日応急診療所","province":"東京都","city":"墨田区","address":"墨田区向島三丁目36番7号すみだ福祉保健センター内","lat":35.713317,"lon":139.810828},{"name":"すみだ平日夜間救急こどもクリニック","province":"東京都","city":"墨田区","address":"墨田区横網二丁目1番11号同愛記念病院1階救急外来内","lat":35.699784,"lon":139.794502},{"name":"東京都立墨東病院","province":"東京都","city":"墨田区","address":"墨田区江東橋四丁目23番15号","lat":35.694673,"lon":139.818436},{"name":"社会福祉法人賛育会 賛育会病院","province":"東京都","city":"墨田区","address":"墨田区太平三丁目20番2号","lat":35.702404,"lon":139.814125},{"name":"同愛記念病院","province":"東京都","city":"墨田区","address":"墨田区横網二丁目1番11号","lat":35.699812,"lon":139.794349},{"name":"医療法人財団正明会 山田記念病院","province":"東京都","city":"墨田区","address":"墨田区石原二丁目20番1号","lat":35.700995,"lon":139.800764},{"name":"医療法人伯鳳会 東京曳舟病院","province":"東京都","city":"墨田区","address":"墨田区東向島二丁目27番1号","lat":35.717706,"lon":139.817028},{"name":"医療法人社団隆靖会 墨田中央病院","province":"東京都","city":"墨田区","address":"墨田区京島三丁目67番1号","lat":35.713006,"lon":139.826341},{"name":"東京都済生会 向島病院","province":"東京都","city":"墨田区","address":"墨田区八広一丁目5番10号","lat":35.720624,"lon":139.822283},{"name":"医療法人社団仁寿会 中村病院","province":"東京都","city":"墨田区","address":"墨田区八広二丁目1番1号","lat":35.717419,"lon":139.823686},{"name":"東京都リハビリテーション病院","province":"東京都","city":"墨田区","address":"墨田区堤通二丁目14番1号","lat":35.735863,"lon":139.815807},{"name":"湘南メディカル記念病院","province":"東京都","city":"墨田区","address":"墨田区両国二丁目21番1号","lat":35.695552,"lon":139.792458},{"name":"医療法人社団 中林病院","province":"東京都","city":"墨田区","address":"墨田区東向島三丁目29番9号","lat":35.723617,"lon":139.814957},{"name":"医療法人社団敬智会 梶原病院","province":"東京都","city":"墨田区","address":"墨田区墨田三丁目31番12号","lat":35.732322,"lon":139.820372},{"name":"墨田区福祉事務所","province":"東京都","city":"墨田区","address":"墨田区吾妻橋一丁目23番20号墨田区役所内","lat":35.710722,"lon":139.801497},{"name":"すみだ福祉保健センター","province":"東京都","city":"墨田区","address":"墨田区向島三丁目36番7号","lat":35.713253,"lon":139.810724},{"name":"すみだ福祉サービス権利擁護センター","province":"東京都","city":"墨田区","address":"墨田区東向島二丁目17番14号すみだボランティアセンター内","lat":35.718436,"lon":139.815564},{"name":"社会福祉法人墨田区社会福祉協議会","province":"東京都","city":"墨田区","address":"墨田区東向島二丁目17番14号すみだボランティアセンター内","lat":35.718436,"lon":139.815564},{"name":"シルバープラザ梅若","province":"東京都","city":"墨田区","address":"墨田区墨田一丁目4番4号","lat":35.729285,"lon":139.815412},{"name":"特別養護老人ホーム たちばなホーム","province":"東京都","city":"墨田区","address":"墨田区立花三丁目10番1号","lat":35.705338,"lon":139.833116},{"name":"特別養護老人ホーム はなみずきホーム","province":"東京都","city":"墨田区","address":"墨田区八広三丁目22番14号","lat":35.718382,"lon":139.827984},{"name":"特別養護老人ホーム なりひらホーム","province":"東京都","city":"墨田区","address":"墨田区業平五丁目6番2号","lat":35.707082,"lon":139.817985},{"name":"特別養護老人ホーム 東京清風園","province":"東京都","city":"墨田区","address":"墨田区立花一丁目25番12号","lat":35.705136,"lon":139.8310043},{"name":"特別養護老人ホーム 同愛記念ホーム","province":"東京都","city":"墨田区","address":"墨田区横網二丁目1番11号","lat":35.700231,"lon":139.794567},{"name":"特別養護老人ホーム 和翔苑","province":"東京都","city":"墨田区","address":"墨田区八広六丁目55番17号","lat":35.724003,"lon":139.830987},{"name":"特別養護老人ホーム ケアホームズ両国","province":"東京都","city":"墨田区","address":"墨田区両国二丁目5番13号","lat":35.692823,"lon":139.792454},{"name":"特別養護老人ホーム 寿老の里","province":"東京都","city":"墨田区","address":"墨田区東墨田三丁目13番4号","lat":35.720703,"lon":139.8360362},{"name":"特別養護老人ホーム 木下川吾亦紅","province":"東京都","city":"墨田区","address":"墨田区東墨田二丁目15番2号","lat":35.721849,"lon":139.833311},{"name":"すみだ福祉保健センター・高齢者在宅サービスセンター","province":"東京都","city":"墨田区","address":"墨田区向島三丁目36番7号","lat":35.713277,"lon":139.810703},{"name":"うめわか高齢者在宅サービスセンター","province":"東京都","city":"墨田区","address":"墨田区墨田一丁目4番4号シルバープラザ梅若内","lat":35.729211,"lon":139.815316},{"name":"たちばな高齢者在宅サービスセンター","province":"東京都","city":"墨田区","address":"墨田区立花三丁目2番9号","lat":35.705247,"lon":139.832576},{"name":"なりひら高齢者在宅サービスセンター","province":"東京都","city":"墨田区","address":"墨田区業平五丁目6番2号","lat":35.707179,"lon":139.817988},{"name":"はなみずき高齢者在宅サービスセンター","province":"東京都","city":"墨田区","address":"墨田区八広三丁目22番14号","lat":35.718477,"lon":139.827982},{"name":"高齢者在宅サービスセンター同愛記念ホーム","province":"東京都","city":"墨田区","address":"墨田区横網二丁目1番11号","lat":35.700318,"lon":139.794368},{"name":"みどり高齢者在宅サービスセンター","province":"東京都","city":"墨田区","address":"墨田区緑二丁目5番12号オウトピアみどり苑内","lat":35.69282,"lon":139.801253},{"name":"高齢者在宅サービスセンター東京清風園","province":"東京都","city":"墨田区","address":"墨田区立花一丁目25番12号","lat":35.705136,"lon":139.8310043},{"name":"高齢者在宅サービスセンター和翔苑","province":"東京都","city":"墨田区","address":"墨田区八広六丁目55番17号","lat":35.723967,"lon":139.830986},{"name":"高齢者在宅サービスセンターケアホームズ両国","province":"東京都","city":"墨田区","address":"墨田区両国二丁目5番13号","lat":35.692823,"lon":139.792454},{"name":"介護老人保健施設　ベレール向島","province":"東京都","city":"墨田区","address":"墨田区東向島二丁目36番11号","lat":35.721709,"lon":139.818256},{"name":"介護老人保健施設　ろうけん隅田秋光園","province":"東京都","city":"墨田区","address":"墨田区横網二丁目7番13号","lat":35.701181,"lon":139.794835},{"name":"介護老人保健施設　葵の園・向島","province":"東京都","city":"墨田区","address":"墨田区向島三丁目1番13号","lat":35.712944,"lon":139.806408},{"name":"櫻川介護老人保健施設","province":"東京都","city":"墨田区","address":"墨田区堤通一丁目9番8号","lat":35.724583,"lon":139.811148},{"name":"みどり高齢者支援総合センター(地域包括支援センター)","province":"東京都","city":"墨田区","address":"墨田区緑二丁目5番12号オウトピアみどり苑内","lat":35.692844,"lon":139.801278},{"name":"同愛高齢者支援総合センター(地域包括支援センター)","province":"東京都","city":"墨田区","address":"墨田区亀沢二丁目23番7号","lat":35.698126,"lon":139.801747},{"name":"なりひら高齢者支援総合センター(地域包括支援センター)","province":"東京都","city":"墨田区","address":"墨田区業平五丁目6番2号なりひらホーム内","lat":35.707101,"lon":139.818124},{"name":"こうめ高齢者支援総合センター(地域包括支援センター)","province":"東京都","city":"墨田区","address":"墨田区向島三丁目36番7号すみだ福祉保健センター内","lat":35.71338,"lon":139.810876},{"name":"むこうじま高齢者支援総合センター(地域包括支援センター)","province":"東京都","city":"墨田区","address":"墨田区東向島二丁目36番11号ベレール向島内","lat":35.721612,"lon":139.818255},{"name":"うめわか高齢者支援総合センター(地域包括支援センター)","province":"東京都","city":"墨田区","address":"墨田区墨田一丁目4番4号シルバープラザ梅若内","lat":35.729285,"lon":139.815412},{"name":"ぶんか高齢者支援総合センター(地域包括支援センター)","province":"東京都","city":"墨田区","address":"墨田区文花一丁目29番5号都営文花一丁目アパート5号棟1階","lat":35.708229,"lon":139.820006},{"name":"八広はなみずき高齢者支援総合センター(地域包括支援センター)","province":"東京都","city":"墨田区","address":"墨田区八広五丁目18番23号","lat":35.725103,"lon":139.826412},{"name":"みどり高齢者みまもり相談室","province":"東京都","city":"墨田区","address":"墨田区緑二丁目5番12号オウトピアみどり苑内","lat":35.692844,"lon":139.801278},{"name":"同愛高齢者みまもり相談室","province":"東京都","city":"墨田区","address":"墨田区亀沢二丁目23番7号","lat":35.698126,"lon":139.801747},{"name":"なりひら高齢者みまもり相談室","province":"東京都","city":"墨田区","address":"墨田区業平五丁目6番2号なりひらホーム内","lat":35.707101,"lon":139.818124},{"name":"こうめ高齢者みまもり相談室","province":"東京都","city":"墨田区","address":"墨田区向島三丁目36番7号すみだ福祉保健センター内","lat":35.71338,"lon":139.810876},{"name":"むこうじま高齢者みまもり相談室","province":"東京都","city":"墨田区","address":"墨田区東向島二丁目36番11号ベレール向島内","lat":35.721612,"lon":139.818255},{"name":"うめわか高齢者みまもり相談室","province":"東京都","city":"墨田区","address":"墨田区墨田一丁目4番4号シルバープラザ梅若内","lat":35.729285,"lon":139.815412},{"name":"ぶんか高齢者みまもり相談室","province":"東京都","city":"墨田区","address":"墨田区文花一丁目29番5号都営文花一丁目アパート5号棟1階","lat":35.708229,"lon":139.820006},{"name":"八広はなみずき高齢者みまもり相談室","province":"東京都","city":"墨田区","address":"墨田区八広五丁目18番23号","lat":35.725103,"lon":139.826412},{"name":"梅若ゆうゆう館(高齢者福祉センター)","province":"東京都","city":"墨田区","address":"墨田区墨田一丁目4番4号シルバープラザ梅若内","lat":35.729285,"lon":139.815412},{"name":"立花ゆうゆう館(高齢者福祉センター)","province":"東京都","city":"墨田区","address":"墨田区立花六丁目8番1号102号室","lat":35.710595,"lon":139.834744},{"name":"いきいきプラザ","province":"東京都","city":"墨田区","address":"墨田区文花一丁目32番2号","lat":35.707571,"lon":139.823438},{"name":"すみだふれあいセンター福祉作業所","province":"東京都","city":"墨田区","address":"墨田区緑四丁目35番6号","lat":35.695825,"lon":139.807408},{"name":"すみだ障害者就労支援総合センター","province":"東京都","city":"墨田区","address":"墨田区緑四丁目25番4号","lat":35.695559,"lon":139.807706},{"name":"亀沢のぞみの家","province":"東京都","city":"墨田区","address":"墨田区亀沢四丁目18番11号","lat":35.699028,"lon":139.808257},{"name":"すみだステップハウスおおぞら","province":"東京都","city":"墨田区","address":"墨田区文花一丁目32番7号","lat":35.708166,"lon":139.823781},{"name":"すみだボランティアセンター","province":"東京都","city":"墨田区","address":"墨田区東向島二丁目17番14号","lat":35.718436,"lon":139.815564},{"name":"すみだボランティアセンター分館","province":"東京都","city":"墨田区","address":"墨田区亀沢三丁目20番11号関根ビル4階","lat":35.697483,"lon":139.803467},{"name":"墨田区総合体育館","province":"東京都","city":"墨田区","address":"墨田区錦糸四丁目15番1号","lat":35.699416,"lon":139.817188},{"name":"スポーツプラザ梅若","province":"東京都","city":"墨田区","address":"墨田区墨田一丁目4番4号","lat":35.729064,"lon":139.815837},{"name":"立花体育館","province":"東京都","city":"墨田区","address":"墨田区立花一丁目25番10号","lat":35.705186,"lon":139.83202},{"name":"両国屋内プール","province":"東京都","city":"墨田区","address":"墨田区横網一丁目8番1号両国中学校内","lat":35.697809,"lon":139.796259},{"name":"弓道場","province":"東京都","city":"墨田区","address":"墨田区江東橋四丁目1番3号","lat":35.693357,"lon":139.817402},{"name":"屋外体育施設管理事務所八広支所","province":"東京都","city":"墨田区","address":"墨田区八広六丁目35番1号","lat":35.726546,"lon":139.829392},{"name":"屋外体育施設管理事務所錦糸支所","province":"東京都","city":"墨田区","address":"墨田区錦糸四丁目15番1号","lat":35.699416,"lon":139.817188},{"name":"錦糸公園野球場","province":"東京都","city":"墨田区","address":"墨田区錦糸四丁目15番1号","lat":35.699468,"lon":139.816995},{"name":"八広野球場","province":"東京都","city":"墨田区","address":"墨田区八広六丁目地先","lat":35.729774,"lon":139.828899},{"name":"墨田野球場","province":"東京都","city":"墨田区","address":"墨田区墨田四丁目地先","lat":35.733249,"lon":139.825283},{"name":"荒川四ツ木橋緑地野球場","province":"東京都","city":"墨田区","address":"墨田区墨田四・五丁目地先","lat":35.737301,"lon":139.821909},{"name":"鐘淵野球場","province":"東京都","city":"墨田区","address":"墨田区墨田五丁目地先","lat":35.73864,"lon":139.821174},{"name":"荒川四ツ木橋緑地少年野球場","province":"東京都","city":"墨田区","address":"墨田区東墨田二丁目地先","lat":35.72555,"lon":139.83304},{"name":"東墨田公園少年野球場","province":"東京都","city":"墨田区","address":"墨田区東墨田三丁目4番14号","lat":35.719965,"lon":139.835041},{"name":"隅田公園少年野球場","province":"東京都","city":"墨田区","address":"墨田区向島五丁目6番13号","lat":35.718826,"lon":139.809372},{"name":"錦糸公園テニスコート","province":"東京都","city":"墨田区","address":"墨田区錦糸四丁目15番1号","lat":35.69963,"lon":139.815499},{"name":"文花テニスコート","province":"東京都","city":"墨田区","address":"墨田区文花一丁目19番12号","lat":35.709693,"lon":139.823985},{"name":"緑町公園テニスコート","province":"東京都","city":"墨田区","address":"墨田区亀沢二丁目7番7号","lat":35.696358,"lon":139.801007},{"name":"東墨田テニスコート","province":"東京都","city":"墨田区","address":"墨田区東墨田三丁目19番6号","lat":35.718387,"lon":139.837146},{"name":"堤通公園テニスコート","province":"東京都","city":"墨田区","address":"墨田区堤通一丁目8番1号","lat":35.723939,"lon":139.810789},{"name":"大横川親水公園テニスコート","province":"東京都","city":"墨田区","address":"墨田区緑四丁目22番、墨田区江東橋一丁目8番先","lat":35.69438975,"lon":139.808936},{"name":"墨田競技場","province":"東京都","city":"墨田区","address":"墨田区墨田四丁目地先","lat":35.73325,"lon":139.8253},{"name":"荒川四ツ木橋緑地競技場","province":"東京都","city":"墨田区","address":"墨田区墨田四・五丁目地先","lat":35.735975,"lon":139.822977},{"name":"荒川四ツ木橋緑地球技場","province":"東京都","city":"墨田区","address":"墨田区墨田四丁目地先","lat":35.734591,"lon":139.824082},{"name":"鐘淵球技場","province":"東京都","city":"墨田区","address":"墨田区墨田五丁目地先","lat":35.739293,"lon":139.820831},{"name":"荒川四ツ木橋緑地少年サッカー場","province":"東京都","city":"墨田区","address":"墨田区東墨田二丁目地先","lat":35.722998,"lon":139.835637},{"name":"荒川緑地フィールドハウス","province":"東京都","city":"墨田区","address":"墨田区墨田四丁目32番10号","lat":35.732701,"lon":139.823903},{"name":"東白鬚公園サービスセンター","province":"東京都","city":"墨田区","address":"墨田区堤通二丁目2番","lat":35.733289,"lon":139.813482},{"name":"東白鬚公園テニスコート","province":"東京都","city":"墨田区","address":"墨田区堤通二丁目2番","lat":35.732339,"lon":139.813541},{"name":"東白鬚公園少年野球場","province":"東京都","city":"墨田区","address":"墨田区堤通二丁目2番","lat":35.733036,"lon":139.814324},{"name":"フクシ・エンタープライズ墨田フィールド（墨田区総合運動場）","province":"東京都","city":"墨田区","address":"墨田区堤通二丁目11番1号","lat":35.738941,"lon":139.816432},{"name":"江東橋児童館","province":"東京都","city":"墨田区","address":"墨田区江東橋一丁目15番4号","lat":35.695885,"lon":139.809697},{"name":"東向島児童館分館","province":"東京都","city":"墨田区","address":"墨田区京島一丁目44番21号","lat":35.719301,"lon":139.820973},{"name":"立川児童館","province":"東京都","city":"墨田区","address":"墨田区立川一丁目5番2号","lat":35.690501,"lon":139.799531},{"name":"中川児童館","province":"東京都","city":"墨田区","address":"墨田区立花五丁目18番9号","lat":35.712947,"lon":139.831038},{"name":"八広はなみずき児童館","province":"東京都","city":"墨田区","address":"墨田区八広四丁目27番8号","lat":35.724575,"lon":139.829421},{"name":"さくら橋コミュニティセンター","province":"東京都","city":"墨田区","address":"墨田区向島二丁目3番8号","lat":35.713681,"lon":139.805844},{"name":"わんぱく天国","province":"東京都","city":"墨田区","address":"墨田区押上一丁目47番8号","lat":35.709275,"lon":139.817281},{"name":"両国子育てひろば","province":"東京都","city":"墨田区","address":"墨田区横網一丁目2番13号ヒューリック両国リバーセンター","lat":35.697824,"lon":139.792408},{"name":"文花子育てひろば","province":"東京都","city":"墨田区","address":"墨田区文花一丁目20番7号","lat":35.710609,"lon":139.822403},{"name":"すみだファミリー・サポート・センター","province":"東京都","city":"墨田区","address":"墨田区亀沢三丁目20番11号関根ビル4階","lat":35.697483,"lon":139.803467},{"name":"江東橋保育園","province":"東京都","city":"墨田区","address":"墨田区緑四丁目35番9号","lat":35.695826,"lon":139.807408},{"name":"長浦保育園","province":"東京都","city":"墨田区","address":"墨田区八広五丁目10番1号105号室","lat":35.72481,"lon":139.825793},{"name":"たちばな認定こども園","province":"東京都","city":"墨田区","address":"墨田区立花三丁目21番16号","lat":35.707091,"lon":139.83434},{"name":"八広認定こども園","province":"東京都","city":"墨田区","address":"墨田区八広三丁目7番5号","lat":35.720913,"lon":139.826387},{"name":"墨田みどり保育園","province":"東京都","city":"墨田区","address":"墨田区亀沢三丁目7番11号","lat":35.696426,"lon":139.803397},{"name":"墨田みどり保育園分園","province":"東京都","city":"墨田区","address":"墨田区亀沢三丁目6番1号","lat":35.696436,"lon":139.803934},{"name":"ほがらか保育園","province":"東京都","city":"墨田区","address":"墨田区墨田四丁目30番14号","lat":35.733755,"lon":139.823314},{"name":"光の園保育学校","province":"東京都","city":"墨田区","address":"墨田区東駒形四丁目6番2号","lat":35.706026,"lon":139.805354},{"name":"光の園保育学校外手分園","province":"東京都","city":"墨田区","address":"墨田区本所二丁目1番16号","lat":35.702306,"lon":139.800454},{"name":"厚生館保育園","province":"東京都","city":"墨田区","address":"墨田区立花五丁目21番3号","lat":35.712068,"lon":139.830661},{"name":"共愛館保育園","province":"東京都","city":"墨田区","address":"墨田区押上三丁目53番6号","lat":35.712323,"lon":139.819938},{"name":"菊川保育園","province":"東京都","city":"墨田区","address":"墨田区江東橋五丁目3番3号","lat":35.6892,"lon":139.810936},{"name":"興望館保育園","province":"東京都","city":"墨田区","address":"墨田区京島一丁目11番6号","lat":35.71508,"lon":139.817446},{"name":"さゆり保育園","province":"東京都","city":"墨田区","address":"墨田区東向島六丁目7番8号","lat":35.721627,"lon":139.820564},{"name":"木ノ下保育園","province":"東京都","city":"墨田区","address":"墨田区墨田四丁目60番13号","lat":35.730555,"lon":139.826173},{"name":"杉の子学園保育所","province":"東京都","city":"墨田区","address":"墨田区東向島二丁目13番6号","lat":35.717361,"lon":139.816328},{"name":"ナースリー保育園","province":"東京都","city":"墨田区","address":"墨田区東向島六丁目15番5号","lat":35.722003,"lon":139.821324},{"name":"ナースリー保育園分園","province":"東京都","city":"墨田区","address":"墨田区東向島六丁目16番10号","lat":35.721904,"lon":139.821032},{"name":"育正保育園","province":"東京都","city":"墨田区","address":"墨田区東駒形一丁目3番15号","lat":35.706925,"lon":139.797929},{"name":"こひつじ保育園","province":"東京都","city":"墨田区","address":"墨田区緑二丁目23番3号","lat":35.695793,"lon":139.801334},{"name":"わらべみどり保育園向島分園","province":"東京都","city":"墨田区","address":"墨田区向島四丁目2番14号","lat":35.716258,"lon":139.811078},{"name":"本所たから保育園","province":"東京都","city":"墨田区","address":"墨田区東駒形四丁目4番7号","lat":35.705695,"lon":139.805072},{"name":"すみだ中和こころ保育園","province":"東京都","city":"墨田区","address":"墨田区菊川一丁目18番5号","lat":35.6901403,"lon":139.8021863},{"name":"両国・なかよし保育園","province":"東京都","city":"墨田区","address":"墨田区両国一丁目10番7号","lat":35.693968,"lon":139.790818},{"name":"小梅保育園","province":"東京都","city":"墨田区","address":"墨田区向島三丁目42番1号","lat":35.71232,"lon":139.810082},{"name":"すみだ川のほとりに笑顔咲くほいくえん","province":"東京都","city":"墨田区","address":"墨田区立川二丁目12番16号","lat":35.691702,"lon":139.801},{"name":"まなびの森保育園錦糸町","province":"東京都","city":"墨田区","address":"墨田区太平二丁目4番4号","lat":35.699972,"lon":139.813048},{"name":"グローバルキッズ押上園","province":"東京都","city":"墨田区","address":"墨田区押上二丁目19番2号","lat":35.713574,"lon":139.813301},{"name":"両国すきっぷ保育園","province":"東京都","city":"墨田区","address":"墨田区両国四丁目25番9号","lat":35.693898,"lon":139.796265},{"name":"のびのび保育園キッズ館","province":"東京都","city":"墨田区","address":"墨田区千歳三丁目8番13号","lat":35.69011,"lon":139.796711},{"name":"のびのび保育園ジュニア館","province":"東京都","city":"墨田区","address":"墨田区千歳二丁目9番8号","lat":35.691378,"lon":139.795705},{"name":"すこやか錦糸保育園","province":"東京都","city":"墨田区","address":"墨田区錦糸三丁目7番1号","lat":35.698603,"lon":139.813635},{"name":"あい・あい保育園錦糸町園","province":"東京都","city":"墨田区","address":"墨田区亀沢四丁目5番4号","lat":35.696687,"lon":139.808455},{"name":"うぃず東駒形保育園","province":"東京都","city":"墨田区","address":"墨田区東駒形二丁目9番9号","lat":35.706269,"lon":139.80065},{"name":"ベネッセ 菊川北保育園","province":"東京都","city":"墨田区","address":"墨田区立川四丁目10番9号","lat":35.691634,"lon":139.806824},{"name":"小学館アカデミーひきふね駅前保育園","province":"東京都","city":"墨田区","address":"墨田区京島一丁目1番1-314号","lat":35.71655,"lon":139.817084},{"name":"チェリッシュあおぞらほいくえん","province":"東京都","city":"墨田区","address":"墨田区緑四丁目38番1号","lat":35.695958,"lon":139.806466},{"name":"アスク両国保育園","province":"東京都","city":"墨田区","address":"墨田区石原二丁目7番3号","lat":35.699772,"lon":139.801453},{"name":"向島ひまわり保育園","province":"東京都","city":"墨田区","address":"墨田区向島三丁目22番8号","lat":35.713319,"lon":139.809049},{"name":"じょうえん曳舟保育園","province":"東京都","city":"墨田区","address":"墨田区京島一丁目6番6号107・108号室","lat":35.716446,"lon":139.818365},{"name":"オウトピア保育園","province":"東京都","city":"墨田区","address":"墨田区緑二丁目5番12号3F","lat":35.692839,"lon":139.801249},{"name":"そらまめ保育園すみだ横川","province":"東京都","city":"墨田区","address":"墨田区横川一丁目1番10号すみだパークプレイス3F","lat":35.702697,"lon":139.809024},{"name":"ひらがなのツリーほいくえん","province":"東京都","city":"墨田区","address":"墨田区業平三丁目9番2号","lat":35.707757,"lon":139.812811},{"name":"キッズガーデン墨田八広","province":"東京都","city":"墨田区","address":"墨田区八広二丁目54番9号","lat":35.713919,"lon":139.8279},{"name":"日生曳舟駅前保育園ひびき","province":"東京都","city":"墨田区","address":"墨田区東向島二丁目42番5号","lat":35.72077,"lon":139.81817},{"name":"石原ここわ保育園","province":"東京都","city":"墨田区","address":"墨田区石原三丁目5番7号","lat":35.69976,"lon":139.804844},{"name":"まなびの森保育園曳舟","province":"東京都","city":"墨田区","address":"墨田区京島一丁目44番17号","lat":35.718997,"lon":139.820741},{"name":"わらべ向島保育園","province":"東京都","city":"墨田区","address":"墨田区向島三丁目19番5号","lat":35.714569,"lon":139.810616},{"name":"うれしい保育園八広","province":"東京都","city":"墨田区","address":"墨田区八広四丁目33番9号","lat":35.723388,"lon":139.828813},{"name":"にじいろ保育園向島","province":"東京都","city":"墨田区","address":"墨田区向島五丁目13番18号","lat":35.719209,"lon":139.810659},{"name":"緑幼稚園","province":"東京都","city":"墨田区","address":"墨田区緑二丁目11番5号","lat":35.69394,"lon":139.800797},{"name":"菊川幼稚園","province":"東京都","city":"墨田区","address":"墨田区立川四丁目12番15号","lat":35.691621,"lon":139.807607},{"name":"第三寺島幼稚園","province":"東京都","city":"墨田区","address":"墨田区東向島六丁目8番1号","lat":35.721427,"lon":139.820419},{"name":"曳舟幼稚園","province":"東京都","city":"墨田区","address":"墨田区京島一丁目28番2号","lat":35.716019,"lon":139.820805},{"name":"両国幼稚園","province":"東京都","city":"墨田区","address":"墨田区両国二丁目8番10号","lat":35.693532,"lon":139.791443},{"name":"江東学園幼稚園","province":"東京都","city":"墨田区","address":"墨田区横網一丁目7番2号","lat":35.698438,"lon":139.796632},{"name":"本所白百合幼稚園","province":"東京都","city":"墨田区","address":"墨田区石原四丁目37番2号","lat":35.701949,"lon":139.805133},{"name":"言問幼稚園","province":"東京都","city":"墨田区","address":"墨田区向島五丁目4番4号","lat":35.717593,"lon":139.809185},{"name":"墨田幼稚園","province":"東京都","city":"墨田区","address":"墨田区堤通一丁目5番9号","lat":35.723251,"lon":139.811862},{"name":"あさひ幼稚園","province":"東京都","city":"墨田区","address":"墨田区文花一丁目1番10号","lat":35.708525,"lon":139.819184},{"name":"あづま幼稚園","province":"東京都","city":"墨田区","address":"墨田区文花一丁目25番7号","lat":35.709445,"lon":139.823744},{"name":"向島文化幼稚園","province":"東京都","city":"墨田区","address":"墨田区八広六丁目24番6号","lat":35.727148,"lon":139.827704},{"name":"緑小学校","province":"東京都","city":"墨田区","address":"墨田区緑二丁目12番12号","lat":35.694025,"lon":139.801337},{"name":"外手小学校","province":"東京都","city":"墨田区","address":"墨田区本所二丁目1番16号","lat":35.702607,"lon":139.800598},{"name":"二葉小学校","province":"東京都","city":"墨田区","address":"墨田区石原二丁目1番5号","lat":35.699284,"lon":139.800185},{"name":"錦糸小学校","province":"東京都","city":"墨田区","address":"墨田区錦糸一丁目9番12号","lat":35.698701,"lon":139.811392},{"name":"中和小学校","province":"東京都","city":"墨田区","address":"墨田区菊川一丁目18番10号","lat":35.690154,"lon":139.802724},{"name":"言問小学校","province":"東京都","city":"墨田区","address":"墨田区向島五丁目40番14号","lat":35.71871,"lon":139.811376},{"name":"小梅小学校","province":"東京都","city":"墨田区","address":"墨田区向島二丁目4番10号","lat":35.714446,"lon":139.805935},{"name":"柳島小学校","province":"東京都","city":"墨田区","address":"墨田区横川五丁目2番30号","lat":35.703609,"lon":139.817465},{"name":"業平小学校","province":"東京都","city":"墨田区","address":"墨田区業平二丁目4番8号","lat":35.70641,"lon":139.811509},{"name":"両国小学校","province":"東京都","city":"墨田区","address":"墨田区両国四丁目26番6号","lat":35.693745,"lon":139.795191},{"name":"横川小学校","province":"東京都","city":"墨田区","address":"墨田区東駒形四丁目18番4号","lat":35.707194,"lon":139.806277},{"name":"菊川小学校","province":"東京都","city":"墨田区","address":"墨田区立川四丁目12番15号","lat":35.691621,"lon":139.807607},{"name":"第三吾嬬小学校","province":"東京都","city":"墨田区","address":"墨田区八広二丁目36番3号","lat":35.717152,"lon":139.827789},{"name":"第四吾嬬小学校","province":"東京都","city":"墨田区","address":"墨田区京島三丁目64番9号","lat":35.713043,"lon":139.825063},{"name":"第一寺島小学校","province":"東京都","city":"墨田区","address":"墨田区東向島一丁目16番2号","lat":35.721582,"lon":139.814452},{"name":"第二寺島小学校","province":"東京都","city":"墨田区","address":"墨田区東向島四丁目30番2号","lat":35.724713,"lon":139.818599},{"name":"第三寺島小学校","province":"東京都","city":"墨田区","address":"墨田区東向島六丁目8番1号","lat":35.721427,"lon":139.820419},{"name":"曳舟小学校","province":"東京都","city":"墨田区","address":"墨田区京島一丁目28番2号","lat":35.716603,"lon":139.820836},{"name":"中川小学校","province":"東京都","city":"墨田区","address":"墨田区立花五丁目49番4号","lat":35.713561,"lon":139.831476},{"name":"東吾嬬小学校","province":"東京都","city":"墨田区","address":"墨田区立花四丁目22番11号","lat":35.708518,"lon":139.831957},{"name":"押上小学校","province":"東京都","city":"墨田区","address":"墨田区押上三丁目46番17号","lat":35.712022,"lon":139.819369},{"name":"八広小学校","province":"東京都","city":"墨田区","address":"墨田区八広五丁目12番15号","lat":35.727133,"lon":139.826297},{"name":"隅田小学校","province":"東京都","city":"墨田区","address":"墨田区墨田四丁目6番5号","lat":35.736017,"lon":139.820914},{"name":"立花吾嬬の森小学校","province":"東京都","city":"墨田区","address":"墨田区立花一丁目18番6号","lat":35.706662,"lon":139.829365},{"name":"梅若小学校","province":"東京都","city":"墨田区","address":"墨田区墨田二丁目25番1号","lat":35.730445,"lon":139.815545},{"name":"墨田中学校","province":"東京都","city":"墨田区","address":"墨田区向島四丁目25番22号","lat":35.714953,"lon":139.811528},{"name":"本所中学校","province":"東京都","city":"墨田区","address":"墨田区東駒形三丁目1番10号","lat":35.705289,"lon":139.802817},{"name":"両国中学校","province":"東京都","city":"墨田区","address":"墨田区横網一丁目8番1号","lat":35.697477,"lon":139.796161},{"name":"竪川中学校","province":"東京都","city":"墨田区","address":"墨田区亀沢四丁目11番15号","lat":35.697029,"lon":139.805913},{"name":"錦糸中学校","province":"東京都","city":"墨田区","address":"墨田区石原四丁目33番14号","lat":35.701414,"lon":139.806942},{"name":"吾嬬第二中学校","province":"東京都","city":"墨田区","address":"墨田区八広四丁目4番4号","lat":35.721514,"lon":139.82712},{"name":"寺島中学校","province":"東京都","city":"墨田区","address":"墨田区八広一丁目17番15号","lat":35.720131,"lon":139.823186},{"name":"文花中学校","province":"東京都","city":"墨田区","address":"墨田区文花一丁目22番7号","lat":35.710217,"lon":139.822281},{"name":"桜堤中学校","province":"東京都","city":"墨田区","address":"墨田区堤通二丁目19番1号","lat":35.730445,"lon":139.811928},{"name":"吾嬬立花中学校","province":"東京都","city":"墨田区","address":"墨田区立花五丁目48番2号","lat":35.712679,"lon":139.831863},{"name":"両国高等学校付属中学校","province":"東京都","city":"墨田区","address":"墨田区江東橋一丁目7番14号","lat":35.694223,"lon":139.810161},{"name":"日本大学第一中学校","province":"東京都","city":"墨田区","address":"墨田区横網一丁目5番2号","lat":35.69743,"lon":139.796884},{"name":"安田学園中学校","province":"東京都","city":"墨田区","address":"墨田区横網二丁目2番25号","lat":35.699879,"lon":139.79584},{"name":"両国高等学校","province":"東京都","city":"墨田区","address":"墨田区江東橋一丁目7番14号","lat":35.694493,"lon":139.810071},{"name":"本所高等学校","province":"東京都","city":"墨田区","address":"墨田区向島三丁目37番25号","lat":35.714604,"lon":139.811228},{"name":"墨田川高等学校","province":"東京都","city":"墨田区","address":"墨田区東向島三丁目34番14号","lat":35.721853,"lon":139.816253},{"name":"日本橋高等学校","province":"東京都","city":"墨田区","address":"墨田区八広一丁目28番21号","lat":35.719968,"lon":139.823889},{"name":"橘高等学校","province":"東京都","city":"墨田区","address":"墨田区立花四丁目29番7号","lat":35.709339,"lon":139.833663},{"name":"日本大学第一高等学校","province":"東京都","city":"墨田区","address":"墨田区横網一丁目5番2号","lat":35.697431,"lon":139.796884},{"name":"安田学園高等学校","province":"東京都","city":"墨田区","address":"墨田区横網二丁目2番25号","lat":35.699879,"lon":139.795841},{"name":"立志舎高等学校","province":"東京都","city":"墨田区","address":"墨田区太平二丁目9番6号","lat":35.700831,"lon":139.812937},{"name":"都立墨田特別支援学校","province":"東京都","city":"墨田区","address":"墨田区八広五丁目10番2号","lat":35.725189,"lon":139.825215},{"name":"情報経営イノベーション専門職大学（iU）","province":"東京都","city":"墨田区","address":"墨田区文花一丁目18番13号","lat":35.711501,"lon":139.823724},{"name":"千葉大学墨田サテライトキャンパス","province":"東京都","city":"墨田区","address":"墨田区文花一丁目19番1号","lat":35.710546,"lon":139.823586},{"name":"専門学校アニメ・アーティスト・アカデミー","province":"東京都","city":"墨田区","address":"墨田区両国二丁目17番5号","lat":35.701434,"lon":139.800091},{"name":"了徳寺学園医療専門学校","province":"東京都","city":"墨田区","address":"墨田区両国四丁目27番4号","lat":35.694228,"lon":139.795045},{"name":"東京環境工科専門学校","province":"東京都","city":"墨田区","address":"墨田区江東橋三丁目3番7号","lat":35.693698,"lon":139.814082},{"name":"東京医学技術専門学校","province":"東京都","city":"墨田区","address":"墨田区横網一丁目10番8号","lat":35.698389,"lon":139.794838},{"name":"専門学校日本鉄道＆スポーツビジネスカレッジ21","province":"東京都","city":"墨田区","address":"墨田区錦糸一丁目2番1号","lat":35.697383,"lon":139.811391},{"name":"専門学校日本動物21","province":"東京都","city":"墨田区","address":"墨田区錦糸一丁目11番10号","lat":35.698638,"lon":139.809552},{"name":"東京IT会計専門学校","province":"東京都","city":"墨田区","address":"墨田区錦糸二丁目13番7号","lat":35.699337,"lon":139.813195},{"name":"東京法律専門学校","province":"東京都","city":"墨田区","address":"墨田区太平一丁目9番8号","lat":35.699996,"lon":139.811583},{"name":"東京墨田看護専門学校","province":"東京都","city":"墨田区","address":"墨田区東向島五丁目6番6号","lat":35.725901,"lon":139.820798},{"name":"秀林日本語学校","province":"東京都","city":"墨田区","address":"墨田区両国一丁目2番3号","lat":35.692668,"lon":139.789872},{"name":"東京明生日本語学院","province":"東京都","city":"墨田区","address":"墨田区緑一丁目2番10号","lat":35.692692,"lon":139.798528},{"name":"東京朝鮮第五初中級学校","province":"東京都","city":"墨田区","address":"墨田区八広五丁目22番15号","lat":35.722842,"lon":139.825782},{"name":"向島珠算学校","province":"東京都","city":"墨田区","address":"墨田区墨田三丁目21番17号","lat":35.730665,"lon":139.821637},{"name":"渡辺珠算学校","province":"東京都","city":"墨田区","address":"墨田区横川四丁目10番2号","lat":35.705491,"lon":139.815751},{"name":"墨田清掃工場","province":"東京都","city":"墨田区","address":"墨田区東墨田一丁目10番23号","lat":35.717483,"lon":139.831816},{"name":"すみだリサイクルセンター","province":"東京都","city":"墨田区","address":"墨田区横川五丁目10番1号111号室","lat":35.705993,"lon":139.816348},{"name":"羽子板の鴻月","province":"東京都","city":"墨田区","address":"墨田区向島五丁目43番25号","lat":35.719107,"lon":139.812307},{"name":"塚田工房","province":"東京都","city":"墨田区","address":"墨田区向島二丁目11番7号","lat":35.715962,"lon":139.809533},{"name":"江戸木箸 大黒屋","province":"東京都","city":"墨田区","address":"墨田区東向島二丁目4番8号","lat":35.717513,"lon":139.814615},{"name":"向島めうがや","province":"東京都","city":"墨田区","address":"墨田区向島五丁目27番16号","lat":35.716287,"lon":139.809448},{"name":"江戸小紋染 大松染工場","province":"東京都","city":"墨田区","address":"墨田区八広二丁目27番10号","lat":35.717538,"lon":139.825997},{"name":"片岡屏風店","province":"東京都","city":"墨田区","address":"墨田区向島一丁目31番6号","lat":35.710437,"lon":139.807704},{"name":"ヒズファクトリー","province":"東京都","city":"墨田区","address":"墨田区吾妻橋一丁目16番5号","lat":35.709138,"lon":139.800541},{"name":"Stadt Weide（シュタット ヴァイテ）","province":"東京都","city":"墨田区","address":"墨田区横川四丁目8番21号","lat":35.704578,"lon":139.81499},{"name":"アトリエ創藝館","province":"東京都","city":"墨田区","address":"墨田区横川三丁目8番2号","lat":35.703811,"lon":139.813041},{"name":"すみだ江戸切子館","province":"東京都","city":"墨田区","address":"墨田区太平二丁目10番9号","lat":35.701266,"lon":139.813036},{"name":"東あられ本鋪両国本店","province":"東京都","city":"墨田区","address":"墨田区亀沢二丁目15番10号","lat":35.697329,"lon":139.800902},{"name":"磯貝べっ甲専門店","province":"東京都","city":"墨田区","address":"墨田区横網二丁目5番5号","lat":35.700634,"lon":139.795693},{"name":"むさしや豊山","province":"東京都","city":"墨田区","address":"墨田区石原一丁目28番3号","lat":35.70066,"lon":139.79737},{"name":"大関鞄工房","province":"東京都","city":"墨田区","address":"墨田区緑二丁目13番5号","lat":35.694473,"lon":139.800686},{"name":"おみねらたん","province":"東京都","city":"墨田区","address":"墨田区押上二丁目10番15号","lat":35.711274,"lon":139.812143},{"name":"硝子企画舎","province":"東京都","city":"墨田区","address":"墨田区押上三丁目6番1号","lat":35.713568,"lon":139.816975},{"name":"かざり工芸三浦","province":"東京都","city":"墨田区","address":"墨田区東駒形三丁目22番7号","lat":35.707865,"lon":139.802976},{"name":"軟式野球資料室","province":"東京都","city":"墨田区","address":"墨田区墨田二丁目34番9号","lat":35.730422,"lon":139.818366},{"name":"江戸小紋博物館","province":"東京都","city":"墨田区","address":"墨田区八広二丁目27番10号","lat":35.717538,"lon":139.825997},{"name":"藍染博物館","province":"東京都","city":"墨田区","address":"墨田区京島一丁目29番1号","lat":35.716808,"lon":139.821071},{"name":"羽子板資料館","province":"東京都","city":"墨田区","address":"墨田区向島五丁目43番25号","lat":35.719107,"lon":139.812307},{"name":"江戸木目込人形博物館","province":"東京都","city":"墨田区","address":"墨田区向島二丁目11番7号","lat":35.715962,"lon":139.809533},{"name":"漆工博物館","province":"東京都","city":"墨田区","address":"墨田区向島三丁目38番10号","lat":35.713849,"lon":139.81184},{"name":"屏風博物館","province":"東京都","city":"墨田区","address":"墨田区向島一丁目31番6号","lat":35.710437,"lon":139.807704},{"name":"ちいさな硝子の本の博物館","province":"東京都","city":"墨田区","address":"墨田区吾妻橋一丁目19番8号","lat":35.708883,"lon":139.802089},{"name":"乾燥木材工芸資料館","province":"東京都","city":"墨田区","address":"墨田区錦糸二丁目9番11号","lat":35.698896,"lon":139.812921},{"name":"ブレーキ博物館","province":"東京都","city":"墨田区","address":"墨田区堤通一丁目7番9号","lat":35.724391,"lon":139.811212},{"name":"NTTドコモ歴史展示スクエア","province":"東京都","city":"墨田区","address":"墨田区横網一丁目9番2号NTTドコモ墨田ビル1階","lat":35.698257,"lon":139.795749},{"name":"相撲写真資料館","province":"東京都","city":"墨田区","address":"墨田区両国三丁目13番2号","lat":35.693513,"lon":139.793794},{"name":"桐の博物館","province":"東京都","city":"墨田区","address":"墨田区両国四丁目1番8号","lat":35.692315,"lon":139.797088},{"name":"袋物博物館","province":"東京都","city":"墨田区","address":"墨田区両国一丁目1番7号","lat":35.692014,"lon":139.790718},{"name":"折箱博物館「木具輪」","province":"東京都","city":"墨田区","address":"墨田区立川一丁目3番5号","lat":35.690411,"lon":139.798381},{"name":"金庫と鍵の博物館","province":"東京都","city":"墨田区","address":"墨田区千歳三丁目4番1号","lat":35.689187,"lon":139.797345},{"name":"建築道具・木組資料館","province":"東京都","city":"墨田区","address":"墨田区菊川一丁目5番3号","lat":35.689156,"lon":139.800433},{"name":"名刺と紙製品の博物館","province":"東京都","city":"墨田区","address":"墨田区立川三丁目1番7号3階","lat":35.690237,"lon":139.803858},{"name":"指物博物館","province":"東京都","city":"墨田区","address":"墨田区立川四丁目6番5号1階","lat":35.690838,"lon":139.806897},{"name":"フットマークギャラリー","province":"東京都","city":"墨田区","address":"墨田区緑二丁目7番12号","lat":35.693308,"lon":139.800993},{"name":"江戸表具博物館","province":"東京都","city":"墨田区","address":"墨田区千歳三丁目5番11号","lat":35.689525,"lon":139.797925},{"name":"錺かんざし博物館","province":"東京都","city":"墨田区","address":"墨田区東駒形三丁目22番7号","lat":35.707898,"lon":139.802987},{"name":"鍼灸あん摩博物館","province":"東京都","city":"墨田区","address":"墨田区千歳一丁目8番2号杉山和一記念館内","lat":35.691437,"lon":139.792693},{"name":"やさしい革の博物館","province":"東京都","city":"墨田区","address":"墨田区東墨田3-11-10RUSSETYFACTORY1階","lat":35.722973,"lon":139.834799},{"name":"東京スカイツリー","province":"東京都","city":"墨田区","address":"墨田区押上一丁目1番2号","lat":35.710063,"lon":139.8107},{"name":"一般社団法人　墨田区観光協会","province":"東京都","city":"墨田区","address":"墨田区押上一丁目1番2号東京スカイツリータウン・ソラマチ5階産業観光プラザすみだまち処内","lat":35.710341,"lon":139.811963},{"name":"産業観光プラザ すみだ まち処","province":"東京都","city":"墨田区","address":"墨田区押上一丁目1番2号東京スカイツリータウン・ソラマチ5階","lat":35.710341,"lon":139.811963},{"name":"両国観光案内所","province":"東京都","city":"墨田区","address":"墨田区横網一丁目3番20号-両国-江戸NOREN1階","lat":35.696155,"lon":139.792423},{"name":"江戸東京博物館内墨田区文化観光コーナー","province":"東京都","city":"墨田区","address":"墨田区横網一丁目4番1号","lat":35.696599,"lon":139.7959929},{"name":"すみだトリフォニーホール","province":"東京都","city":"墨田区","address":"墨田区錦糸一丁目2番3号","lat":35.697215,"lon":139.8101},{"name":"江戸東京博物館","province":"東京都","city":"墨田区","address":"墨田区横網一丁目4番1号","lat":35.696593,"lon":139.795855},{"name":"両国花火資料館","province":"東京都","city":"墨田区","address":"墨田区両国二丁目10番8号","lat":35.693888,"lon":139.791756},{"name":"東京都復興記念館","province":"東京都","city":"墨田区","address":"墨田区横網二丁目3番25号","lat":35.699826,"lon":139.796895},{"name":"相撲博物館","province":"東京都","city":"墨田区","address":"墨田区横網一丁目3番28号","lat":35.697228,"lon":139.793365},{"name":"東武博物館","province":"東京都","city":"墨田区","address":"墨田区東向島四丁目28番16号","lat":35.724491,"lon":139.819319},{"name":"すみだ郷土文化資料館","province":"東京都","city":"墨田区","address":"墨田区向島二丁目3番5号","lat":35.7139,"lon":139.805885},{"name":"立花大正民家園・旧小山家住宅","province":"東京都","city":"墨田区","address":"墨田区立花六丁目13番17号","lat":35.709865,"lon":139.838094},{"name":"すみだ北斎美術館","province":"東京都","city":"墨田区","address":"墨田区亀沢二丁目7番2号","lat":35.696361,"lon":139.800515},{"name":"たばこと塩の博物館","province":"東京都","city":"墨田区","address":"墨田区横川一丁目16番3号","lat":35.70575,"lon":139.808532},{"name":"刀剣博物館","province":"東京都","city":"墨田区","address":"墨田区横網一丁目12番9号","lat":35.698874,"lon":139.793726},{"name":"すみだ産業会館","province":"東京都","city":"墨田区","address":"墨田区江東橋三丁目9番10号墨田区・丸井共同開発ビル","lat":35.695046,"lon":139.8138},{"name":"すみだ消費者センター","province":"東京都","city":"墨田区","address":"墨田区押上二丁目12番7号215号室","lat":35.712706,"lon":139.811982},{"name":"本所松坂町公園","province":"東京都","city":"墨田区","address":"墨田区両国三丁目13番9号","lat":35.693326,"lon":139.794298},{"name":"両国公園","province":"東京都","city":"墨田区","address":"墨田区両国四丁目25番3号","lat":35.693679,"lon":139.79594},{"name":"千歳公園","province":"東京都","city":"墨田区","address":"墨田区千歳二丁目2番1号","lat":35.690564,"lon":139.795173},{"name":"菊川公園","province":"東京都","city":"墨田区","address":"墨田区立川四丁目12番21号","lat":35.691169,"lon":139.807618},{"name":"中和公園","province":"東京都","city":"墨田区","address":"墨田区菊川一丁目18番25号","lat":35.689561,"lon":139.802629},{"name":"江東橋公園","province":"東京都","city":"墨田区","address":"墨田区江東橋二丁目4番11号","lat":35.693905,"lon":139.811609},{"name":"竪川第一公園","province":"東京都","city":"墨田区","address":"墨田区江東橋四丁目1番3号","lat":35.693382,"lon":139.817097},{"name":"錦糸堀公園","province":"東京都","city":"墨田区","address":"墨田区江東橋四丁目17番1号","lat":35.694722,"lon":139.816378},{"name":"竪川親水公園","province":"東京都","city":"墨田区","address":"墨田区江東橋一丁目・二丁目・四丁目・五丁目地先","lat":35.693247,"lon":139.818256},{"name":"旧安田庭園","province":"東京都","city":"墨田区","address":"墨田区横網一丁目12番1号","lat":35.698379,"lon":139.793698},{"name":"緑町公園","province":"東京都","city":"墨田区","address":"墨田区亀沢二丁目7番7号","lat":35.696685,"lon":139.800438},{"name":"日進公園","province":"東京都","city":"墨田区","address":"墨田区亀沢三丁目24番3号","lat":35.698671,"lon":139.804249},{"name":"若宮公園","province":"東京都","city":"墨田区","address":"墨田区本所二丁目2番19号","lat":35.702531,"lon":139.801492},{"name":"横川公園","province":"東京都","city":"墨田区","address":"墨田区東駒形四丁目18番21号","lat":35.706711,"lon":139.806366},{"name":"吾妻橋公園","province":"東京都","city":"墨田区","address":"墨田区吾妻橋一丁目12番1号","lat":35.708917,"lon":139.798896},{"name":"大横川親水公園","province":"東京都","city":"墨田区","address":"墨田区吾妻橋三丁目、業平一丁目、東駒形四丁目、横川一丁目、本所四丁目、太平一丁目、石原四丁目、錦糸一丁目、亀沢四丁目、江東橋一丁目、緑四丁目地先","lat":35.700523,"lon":139.808396},{"name":"錦糸公園","province":"東京都","city":"墨田区","address":"墨田区錦糸四丁目15番1号","lat":35.698989,"lon":139.816464},{"name":"横川東公園","province":"東京都","city":"墨田区","address":"墨田区横川五丁目2番8号","lat":35.703117,"lon":139.817744},{"name":"横川さんかく公園","province":"東京都","city":"墨田区","address":"墨田区横川五丁目9番31号","lat":35.705694,"lon":139.8178},{"name":"おしなり公園","province":"東京都","city":"墨田区","address":"墨田区押上一丁目、業平一丁目・二丁目・三丁目地先","lat":35.709586,"lon":139.811781},{"name":"業平公園","province":"東京都","city":"墨田区","address":"墨田区業平二丁目3番2号","lat":35.70636,"lon":139.812358},{"name":"隅田公園","province":"東京都","city":"墨田区","address":"墨田区向島一丁目、二丁目、五丁目地先","lat":35.71224,"lon":139.80374},{"name":"銅像堀公園","province":"東京都","city":"墨田区","address":"墨田区向島五丁目9番1号","lat":35.721152,"lon":139.809952},{"name":"ふじのき公園","province":"東京都","city":"墨田区","address":"墨田区東向島二丁目7番5号","lat":35.717469,"lon":139.815332},{"name":"東向島ふじ公園","province":"東京都","city":"墨田区","address":"墨田区東向島二丁目46番7号","lat":35.720198,"lon":139.818583},{"name":"長寿庭園","province":"東京都","city":"墨田区","address":"墨田区東向島四丁目8番20号","lat":35.727144,"lon":139.815418},{"name":"東向島北公園","province":"東京都","city":"墨田区","address":"墨田区東向島四丁目12番19号","lat":35.725772,"lon":139.815912},{"name":"さつき公園","province":"東京都","city":"墨田区","address":"墨田区東向島六丁目19番12号","lat":35.722476,"lon":139.820369},{"name":"なつめ公園","province":"東京都","city":"墨田区","address":"墨田区東向島六丁目40番2号","lat":35.724509,"lon":139.822016},{"name":"隅田川緑道公園","province":"東京都","city":"墨田区","address":"墨田区横網一丁目・二丁目、本所一丁目、東駒形一丁目、吾妻橋一丁目、堤通一丁目地先","lat":35.700997,"lon":139.794326},{"name":"堤通公園","province":"東京都","city":"墨田区","address":"墨田区堤通一丁目8番1号","lat":35.723815,"lon":139.810731},{"name":"梅若公園","province":"東京都","city":"墨田区","address":"墨田区堤通二丁目6番10号","lat":35.733816,"lon":139.816201},{"name":"白鬚公園","province":"東京都","city":"墨田区","address":"墨田区墨田一丁目4番42号","lat":35.728033,"lon":139.815434},{"name":"荒川四ツ木橋緑地","province":"東京都","city":"墨田区","address":"墨田区墨田四丁目・五丁目、東墨田二丁目・三丁目、八広六丁目地先","lat":35.729329,"lon":139.829071},{"name":"つばき公園","province":"東京都","city":"墨田区","address":"墨田区墨田五丁目33番9号","lat":35.73763,"lon":139.820268},{"name":"押上公園","province":"東京都","city":"墨田区","address":"墨田区押上一丁目47番8号","lat":35.709261,"lon":139.817285},{"name":"ひきふねどんぐり公園","province":"東京都","city":"墨田区","address":"墨田区京島一丁目7番3号","lat":35.716663,"lon":139.818945},{"name":"曳舟なごみ公園","province":"東京都","city":"墨田区","address":"墨田区京島一丁目8番2号","lat":35.716087,"lon":139.817982},{"name":"京島西公園","province":"東京都","city":"墨田区","address":"墨田区京島一丁目22番3号","lat":35.715786,"lon":139.818905},{"name":"曳舟さくら公園","province":"東京都","city":"墨田区","address":"墨田区京島一丁目40番1号","lat":35.718896,"lon":139.820171},{"name":"京島南公園","province":"東京都","city":"墨田区","address":"墨田区京島二丁目20番17号","lat":35.713064,"lon":139.822156},{"name":"原公園","province":"東京都","city":"墨田区","address":"墨田区京島三丁目44番14号","lat":35.713024,"lon":139.82325},{"name":"あずま百樹園","province":"東京都","city":"墨田区","address":"墨田区文花一丁目19番4号","lat":35.710219,"lon":139.82406},{"name":"文花公園","province":"東京都","city":"墨田区","address":"墨田区文花一丁目27番5号","lat":35.708817,"lon":139.821743},{"name":"文花宮前橋公園","province":"東京都","city":"墨田区","address":"墨田区文花一丁目32番11号","lat":35.708917,"lon":139.824248},{"name":"緑と花の学習園","province":"東京都","city":"墨田区","address":"墨田区文花二丁目12番17号","lat":35.709202,"lon":139.825364},{"name":"ひいらぎ公園","province":"東京都","city":"墨田区","address":"墨田区八広一丁目16番11号","lat":35.720115,"lon":139.822333},{"name":"みわさと公園","province":"東京都","city":"墨田区","address":"墨田区八広一丁目38番13号","lat":35.721182,"lon":139.825216},{"name":"舟原公園","province":"東京都","city":"墨田区","address":"墨田区八広二丁目43番16号","lat":35.715368,"lon":139.826734},{"name":"八広中央公園","province":"東京都","city":"墨田区","address":"墨田区八広三丁目13番19号","lat":35.719442,"lon":139.827188},{"name":"八広あずま公園","province":"東京都","city":"墨田区","address":"墨田区八広四丁目19番14号","lat":35.723691,"lon":139.828244},{"name":"八広公園","province":"東京都","city":"墨田区","address":"墨田区八広五丁目10番14号","lat":35.725491,"lon":139.824774},{"name":"吾嬬西公園","province":"東京都","city":"墨田区","address":"墨田区八広六丁目53番16号","lat":35.724305,"lon":139.830557},{"name":"立花公園","province":"東京都","city":"墨田区","address":"墨田区立花一丁目27番5号","lat":35.704766,"lon":139.828631},{"name":"東あずま公園","province":"東京都","city":"墨田区","address":"墨田区立花二丁目32番12号","lat":35.708131,"lon":139.830594},{"name":"旧中川水辺公園","province":"東京都","city":"墨田区","address":"墨田区東墨田一丁目・三丁目、立花三丁目・五丁目・六丁目地先","lat":35.711816,"lon":139.835961},{"name":"福寿公園","province":"東京都","city":"墨田区","address":"墨田区立花三丁目24番3号","lat":35.707787,"lon":139.834612},{"name":"たちばな仲よし公園","province":"東京都","city":"墨田区","address":"墨田区立花五丁目19番2号","lat":35.712645,"lon":139.830149},{"name":"中川公園","province":"東京都","city":"墨田区","address":"墨田区立花五丁目38番3号","lat":35.712097,"lon":139.831994},{"name":"立花いこい公園","province":"東京都","city":"墨田区","address":"墨田区立花六丁目8番34号","lat":35.711343,"lon":139.835969},{"name":"平井橋第二公園","province":"東京都","city":"墨田区","address":"墨田区立花六丁目8番44号","lat":35.710378,"lon":139.836152},{"name":"平井橋第一公園","province":"東京都","city":"墨田区","address":"墨田区立花六丁目8番55号","lat":35.710738,"lon":139.834381},{"name":"立花大正民家園","province":"東京都","city":"墨田区","address":"墨田区立花六丁目13番17号","lat":35.709738,"lon":139.838236},{"name":"新平井橋公園","province":"東京都","city":"墨田区","address":"墨田区東墨田一丁目6番2号","lat":35.71589,"lon":139.830557},{"name":"東墨田第一公園","province":"東京都","city":"墨田区","address":"墨田区東墨田二丁目1番16号","lat":35.718782,"lon":139.830138},{"name":"東墨田二丁目公園","province":"東京都","city":"墨田区","address":"墨田区東墨田二丁目12番10号","lat":35.721247,"lon":139.832734},{"name":"きねがわ公園","province":"東京都","city":"墨田区","address":"墨田区東墨田二丁目25番8号","lat":35.72408,"lon":139.832941},{"name":"東墨田公園","province":"東京都","city":"墨田区","address":"墨田区東墨田三丁目4番14号","lat":35.719793,"lon":139.834934},{"name":"東公園","province":"東京都","city":"墨田区","address":"墨田区東墨田三丁目12番19号","lat":35.720838,"lon":139.835685},{"name":"東墨田東公園","province":"東京都","city":"墨田区","address":"墨田区東墨田三丁目19番2号","lat":35.718382,"lon":139.83753},{"name":"都立東白鬚公園","province":"東京都","city":"墨田区","address":"墨田区堤通二丁目2番1号","lat":35.733284,"lon":139.814479},{"name":"都立向島百花園","province":"東京都","city":"墨田区","address":"墨田区東向島三丁目18番3号","lat":35.724257,"lon":139.815542},{"name":"都立横網町公園","province":"東京都","city":"墨田区","address":"墨田区横網二丁目3番25号","lat":35.699373,"lon":139.796391},{"name":"立川集会所","province":"東京都","city":"墨田区","address":"墨田区立川一丁目5番2号","lat":35.6905,"lon":139.799531},{"name":"寺島集会所","province":"東京都","city":"墨田区","address":"墨田区東向島一丁目23番10号","lat":35.720181,"lon":139.812601},{"name":"千歳集会所","province":"東京都","city":"墨田区","address":"墨田区千歳二丁目2番5号","lat":35.690696,"lon":139.795273},{"name":"八広中央集会所","province":"東京都","city":"墨田区","address":"墨田区八広三丁目14番5号","lat":35.71911,"lon":139.826839},{"name":"東あずま公園集会所","province":"東京都","city":"墨田区","address":"墨田区立花二丁目32番12号","lat":35.708436,"lon":139.830708},{"name":"東駒形集会所","province":"東京都","city":"墨田区","address":"墨田区東駒形四丁目14番1号","lat":35.705524,"lon":139.807754},{"name":"曳舟集会所","province":"東京都","city":"墨田区","address":"墨田区東向島二丁目17番14号","lat":35.718484,"lon":139.815563},{"name":"押上集会所","province":"東京都","city":"墨田区","address":"墨田区押上一丁目47番6号","lat":35.709283,"lon":139.817543},{"name":"東向島集会所","province":"東京都","city":"墨田区","address":"墨田区東向島四丁目8番12号","lat":35.727562,"lon":139.815476},{"name":"八広一丁目集会所","province":"東京都","city":"墨田区","address":"墨田区八広一丁目19番14号","lat":35.718802,"lon":139.822942},{"name":"梅若橋集会所","province":"東京都","city":"墨田区","address":"墨田区堤通二丁目9番1号","lat":35.735395,"lon":139.816696},{"name":"東墨田うめぞの集会所","province":"東京都","city":"墨田区","address":"墨田区東墨田三丁目19番1号","lat":35.718449,"lon":139.837679},{"name":"横川三丁目集会所","province":"東京都","city":"墨田区","address":"墨田区横川三丁目12番12号","lat":35.70536,"lon":139.813658},{"name":"横川集会所","province":"東京都","city":"墨田区","address":"墨田区横川五丁目9番1号","lat":35.705116,"lon":139.81758},{"name":"江東橋集会所","province":"東京都","city":"墨田区","address":"墨田区江東橋五丁目16番15号","lat":35.692618,"lon":139.810783},{"name":"一寺言問集会所","province":"東京都","city":"墨田区","address":"墨田区東向島一丁目20番6号","lat":35.720655,"lon":139.813889},{"name":"業平三丁目集会所","province":"東京都","city":"墨田区","address":"墨田区業平三丁目2番5号","lat":35.706341,"lon":139.813065},{"name":"立花四丁目集会所","province":"東京都","city":"墨田区","address":"墨田区立花四丁目8番10号","lat":35.710535,"lon":139.8309},{"name":"京島第一集会所","province":"東京都","city":"墨田区","address":"墨田区京島三丁目3番6号","lat":35.715163,"lon":139.821389},{"name":"京島第二集会所","province":"東京都","city":"墨田区","address":"墨田区京島三丁目52番8号","lat":35.714724,"lon":139.82455},{"name":"なりひら神明橋集会所","province":"東京都","city":"墨田区","address":"墨田区業平五丁目6番2号","lat":35.707082,"lon":139.817985},{"name":"太平四丁目集会所","province":"東京都","city":"墨田区","address":"墨田区太平四丁目1番4号","lat":35.700854,"lon":139.81758},{"name":"吾妻橋会館","province":"東京都","city":"墨田区","address":"墨田区吾妻橋一丁目23番27号","lat":35.709744,"lon":139.801425},{"name":"両国駅前会館","province":"東京都","city":"墨田区","address":"墨田区両国二丁目20番12号101号室","lat":35.695345,"lon":139.79262},{"name":"本所警察署","province":"東京都","city":"墨田区","address":"墨田区横川四丁目8番9号","lat":35.704847,"lon":139.815074},{"name":"向島警察署","province":"東京都","city":"墨田区","address":"墨田区文花三丁目18番9号","lat":35.711729,"lon":139.82726},{"name":"本所消防署","province":"東京都","city":"墨田区","address":"墨田区横川四丁目6番6号","lat":35.703922,"lon":139.815226},{"name":"本所防災館","province":"東京都","city":"墨田区","address":"墨田区横川四丁目6番6号","lat":35.703922,"lon":139.815226},{"name":"向島消防署","province":"東京都","city":"墨田区","address":"墨田区東向島六丁目22番3号","lat":35.723625,"lon":139.820023},{"name":"墨田都税事務所","province":"東京都","city":"墨田区","address":"墨田区業平一丁目7番4号","lat":35.707803,"lon":139.809041},{"name":"本所税務署","province":"東京都","city":"墨田区","address":"墨田区業平一丁目7番2号","lat":35.707541,"lon":139.809207},{"name":"向島税務署","province":"東京都","city":"墨田区","address":"墨田区東向島二丁目7番14号","lat":35.716957,"lon":139.815593},{"name":"水道局墨田営業所","province":"東京都","city":"墨田区","address":"墨田区千歳二丁目2番11号","lat":35.69051,"lon":139.795701},{"name":"下水道局東部第一下水道事務所墨田出張所","province":"東京都","city":"墨田区","address":"墨田区横網一丁目4番12号","lat":35.69702,"lon":139.795017},{"name":"向島郵便局","province":"東京都","city":"墨田区","address":"墨田区東向島二丁目32番25号","lat":35.719767,"lon":139.817301},{"name":"本所郵便局","province":"東京都","city":"墨田区","address":"墨田区太平四丁目21番2号","lat":35.702642,"lon":139.817771},{"name":"東京法務局墨田出張所","province":"東京都","city":"墨田区","address":"墨田区菊川一丁目17番13号","lat":35.68987,"lon":139.801716},{"name":"東京簡易裁判所墨田庁舎","province":"東京都","city":"墨田区","address":"墨田区錦糸四丁目16番7号","lat":35.698318,"lon":139.818312},{"name":"東京区検察庁墨田分室","province":"東京都","city":"墨田区","address":"墨田区錦糸四丁目16番7号","lat":35.698318,"lon":139.818312},{"name":"警視庁交通執行課墨田分室","province":"東京都","city":"墨田区","address":"墨田区錦糸四丁目16番7号","lat":35.698318,"lon":139.818312},{"name":"錦糸町公証役場","province":"東京都","city":"墨田区","address":"墨田区江東橋三丁目9番7号","lat":35.695082,"lon":139.813206},{"name":"向島公証役場","province":"東京都","city":"墨田区","address":"墨田区東向島六丁目1番3号","lat":35.722318,"lon":139.818681},{"name":"東京都第五建設事務所墨田工区","province":"東京都","city":"墨田区","address":"墨田区堤通一丁目16番4号","lat":35.725814,"lon":139.810888},{"name":"墨田年金事務所","province":"東京都","city":"墨田区","address":"墨田区立川三丁目8番12号","lat":35.691042,"lon":139.804712},{"name":"一般財団法人墨田まちづくり公社","province":"東京都","city":"墨田区","address":"墨田区東向島二丁目36番10号","lat":35.721369,"lon":139.817609},{"name":"一般財団法人墨田まちづくり公社京島事務所","province":"東京都","city":"墨田区","address":"墨田区京島二丁目15番5号","lat":35.713242,"lon":139.821051},{"name":"一般財団法人墨田まちづくり公社鐘ヶ淵事務所","province":"東京都","city":"墨田区","address":"墨田区墨田三丁目40番3号","lat":35.730741,"lon":139.822325},{"name":"社会福祉法人墨田区社会福祉事業団","province":"東京都","city":"墨田区","address":"墨田区向島三丁目36番7号","lat":35.71338,"lon":139.810876},{"name":"一般社団法人墨田区観光協会","province":"東京都","city":"墨田区","address":"墨田区押上一丁目1番2号東京スカイツリータウン・ソラマチ5階まち処内","lat":35.710434,"lon":139.812014},{"name":"公益財団法人墨田区文化振興財団","province":"東京都","city":"墨田区","address":"墨田区錦糸一丁目2番3号","lat":35.697304,"lon":139.810052},{"name":"ハローワーク墨田","province":"東京都","city":"墨田区","address":"墨田区江東橋二丁目19番12号","lat":35.696235,"lon":139.811413},{"name":"向島労働基準監督署","province":"東京都","city":"墨田区","address":"墨田区東向島四丁目33番13号","lat":35.725511,"lon":139.818772},{"name":"独立行政法人高齢・障害・求職者雇用支援機構東京支部","province":"東京都","city":"墨田区","address":"墨田区江東橋二丁目19番12号","lat":35.696235,"lon":139.811413},{"name":"公益社団法人墨田区シルバー人材センター","province":"東京都","city":"墨田区","address":"墨田区文花一丁目32番1号101","lat":35.708509,"lon":139.824936},{"name":"墨田区シルバー人材センター向島作業所","province":"東京都","city":"墨田区","address":"墨田区東向島一丁目17番11号","lat":35.720828,"lon":139.815445},{"name":"墨田区シルバー人材センター緑作業所","province":"東京都","city":"墨田区","address":"墨田区緑四丁目35番6号","lat":35.695825,"lon":139.807408},{"name":"公益社団法人墨田区勤労者福祉サービスセンター","province":"東京都","city":"墨田区","address":"墨田区押上二丁目12番7号215号室","lat":35.712706,"lon":139.811982},{"name":"国際ファッションセンター株式会社","province":"東京都","city":"墨田区","address":"墨田区横網一丁目6番1号","lat":35.698175,"lon":139.796902},{"name":"一般財団法人ファッション産業人材育成機構","province":"東京都","city":"墨田区","address":"墨田区横網一丁目6番1号KFCビル11階","lat":35.698175,"lon":139.796902},{"name":"東京都立皮革技術センター","province":"東京都","city":"墨田区","address":"墨田区東墨田三丁目3番14号","lat":35.720127,"lon":139.83351},{"name":"東京都立産業技術研究センター墨田支所","province":"東京都","city":"墨田区","address":"墨田区横網一丁目6番1号KFCビル12階","lat":35.698175,"lon":139.796902},{"name":"本所松坂町","province":"東京都","city":"墨田区","address":"東京都墨田区両国3丁目13-9","lat":35.69331183,"lon":139.79428527},{"name":"両国","province":"東京都","city":"墨田区","address":"東京都墨田区両国4丁目25-3","lat":35.6937507,"lon":139.79611856},{"name":"菊川","province":"東京都","city":"墨田区","address":"東京都墨田区立川4丁目12-21","lat":35.69118983,"lon":139.80758376},{"name":"若宮","province":"東京都","city":"墨田区","address":"東京都墨田区本所2丁目2-19","lat":35.70232739,"lon":139.80111665},{"name":"横川","province":"東京都","city":"墨田区","address":"東京都墨田区東駒形4丁目18-21","lat":35.70678529,"lon":139.8068125},{"name":"業平","province":"東京都","city":"墨田区","address":"東京都墨田区業平2丁目3-2","lat":35.70611874,"lon":139.81266766},{"name":"原","province":"東京都","city":"墨田区","address":"東京都墨田区京島3丁目44-14","lat":35.7129474,"lon":139.82341058},{"name":"竪川第一","province":"東京都","city":"墨田区","address":"東京都墨田区江東橋4丁目1-3","lat":35.69338672,"lon":139.81732938},{"name":"京島南","province":"東京都","city":"墨田区","address":"東京都墨田区京島2丁目20-17","lat":35.7130003,"lon":139.82191074},{"name":"押上","province":"東京都","city":"墨田区","address":"東京都墨田区押上1丁目47-8","lat":35.70897186,"lon":139.8173086},{"name":"錦糸","province":"東京都","city":"墨田区","address":"東京都墨田区錦糸4丁目15-1","lat":35.69947749,"lon":139.8171875},{"name":"新平井橋","province":"東京都","city":"墨田区","address":"東京都墨田区東墨田1丁目6-2","lat":35.71565486,"lon":139.83040693},{"name":"旧安田庭園","province":"東京都","city":"墨田区","address":"東京都墨田区横網1丁目12-1","lat":35.69795846,"lon":139.79397072},{"name":"吾嬬西","province":"東京都","city":"墨田区","address":"東京都墨田区八広6丁目53-16","lat":35.72424908,"lon":139.83025702},{"name":"ふじのき","province":"東京都","city":"墨田区","address":"東京都墨田区東向島2丁目7-5","lat":35.71734678,"lon":139.81547271},{"name":"さつき","province":"東京都","city":"墨田区","address":"東京都墨田区東向島6丁目19-12","lat":35.72262441,"lon":139.82039453},{"name":"ひいらぎ","province":"東京都","city":"墨田区","address":"東京都墨田区八広1丁目16-11","lat":35.72019681,"lon":139.82236639},{"name":"つばき","province":"東京都","city":"墨田区","address":"東京都墨田区墨田5丁目33-9","lat":35.73761145,"lon":139.82036616},{"name":"日進","province":"東京都","city":"墨田区","address":"東京都墨田区亀沢3丁目24-3","lat":35.69862503,"lon":139.80441676},{"name":"銅像堀","province":"東京都","city":"墨田区","address":"東京都墨田区向島5丁目9-1","lat":35.7218326,"lon":139.81005447},{"name":"吾妻橋","province":"東京都","city":"墨田区","address":"東京都墨田区吾妻橋1丁目12-15","lat":35.70809627,"lon":139.79825794},{"name":"文花","province":"東京都","city":"墨田区","address":"東京都墨田区文花1丁目27-5","lat":35.7094556,"lon":139.82244155},{"name":"隅田川緑道","province":"東京都","city":"墨田区","address":"東京都墨田区横網1丁目","lat":35.69796404,"lon":139.79521513},{"name":"東向島北","province":"東京都","city":"墨田区","address":"東京都墨田区東向島4丁目12-19","lat":35.72556299,"lon":139.81589264},{"name":"堤通","province":"東京都","city":"墨田区","address":"東京都墨田区堤通1丁目8-1","lat":35.72447964,"lon":139.81077124},{"name":"隅田","province":"東京都","city":"墨田区","address":"東京都墨田区向島1丁目","lat":35.71141546,"lon":139.8054231},{"name":"荒川四ッ木橋緑地","province":"東京都","city":"墨田区","address":"東京都墨田区墨田4丁目","lat":35.73137358,"lon":139.82435222},{"name":"舟原","province":"東京都","city":"墨田区","address":"東京都墨田区八広2丁目43-16","lat":35.71514967,"lon":139.8267824},{"name":"福寿","province":"東京都","city":"墨田区","address":"東京都墨田区立花3丁目24-3","lat":35.7078636,"lon":139.83437075},{"name":"京島西","province":"東京都","city":"墨田区","address":"東京都墨田区京島1丁目22-3","lat":35.71567483,"lon":139.81871112},{"name":"東向島ふじ","province":"東京都","city":"墨田区","address":"東京都墨田区東向島2丁目46-7","lat":35.72032456,"lon":139.81849198},{"name":"立花","province":"東京都","city":"墨田区","address":"東京都墨田区立花1丁目27-5","lat":35.70547192,"lon":139.82927722},{"name":"横川東","province":"東京都","city":"墨田区","address":"東京都墨田区横川5丁目2-8","lat":35.7030186,"lon":139.81765122},{"name":"文花宮前橋","province":"東京都","city":"墨田区","address":"東京都墨田区文花1丁目32-11","lat":35.70871099,"lon":139.82437198},{"name":"曳舟さくら","province":"東京都","city":"墨田区","address":"東京都墨田区京島1丁目40-1","lat":35.71877194,"lon":139.82017778},{"name":"八広中央","province":"東京都","city":"墨田区","address":"東京都墨田区八広3丁目13-19","lat":35.71918814,"lon":139.82718507},{"name":"たちばな仲よし","province":"東京都","city":"墨田区","address":"東京都墨田区立花5丁目19-2","lat":35.71244966,"lon":139.82994877},{"name":"千歳","province":"東京都","city":"墨田区","address":"東京都墨田区千歳2丁目2-1","lat":35.69036782,"lon":139.79502744},{"name":"平井橋第一","province":"東京都","city":"墨田区","address":"東京都墨田区立花6丁目8-55","lat":35.71049669,"lon":139.83451507},{"name":"平井橋第二","province":"東京都","city":"墨田区","address":"東京都墨田区立花6丁目8-44","lat":35.71055222,"lon":139.83608996},{"name":"東あずま","province":"東京都","city":"墨田区","address":"東京都墨田区立花2丁目32-12","lat":35.70834973,"lon":139.83030736},{"name":"八広","province":"東京都","city":"墨田区","address":"東京都墨田区八広5丁目10-14","lat":35.72583527,"lon":139.82486062},{"name":"緑と花の学習園","province":"東京都","city":"墨田区","address":"東京都墨田区文花2丁目12-17","lat":35.7090221,"lon":139.82545791},{"name":"なつめ","province":"東京都","city":"墨田区","address":"東京都墨田区東向島6丁目40-2","lat":35.72445761,"lon":139.82188321},{"name":"東墨田東","province":"東京都","city":"墨田区","address":"東京都墨田区東墨田3丁目19-2","lat":35.71845425,"lon":139.83744771},{"name":"みわさと","province":"東京都","city":"墨田区","address":"東京都墨田区八広1丁目38-13","lat":35.72107709,"lon":139.82532706},{"name":"東墨田第一","province":"東京都","city":"墨田区","address":"東京都墨田区東墨田2丁目1-16","lat":35.71876293,"lon":139.82996799},{"name":"八広あずま","province":"東京都","city":"墨田区","address":"東京都墨田区八広4丁目19-14","lat":35.72376025,"lon":139.82809342},{"name":"東","province":"東京都","city":"墨田区","address":"東京都墨田区東墨田3丁目12-19","lat":35.72114587,"lon":139.83582279},{"name":"きねがわ","province":"東京都","city":"墨田区","address":"東京都墨田区東墨田2丁目25-8","lat":35.724149,"lon":139.83316217},{"name":"立花いこい","province":"東京都","city":"墨田区","address":"東京都墨田区立花6丁目8-34","lat":35.71113272,"lon":139.83600382},{"name":"大横川親水","province":"東京都","city":"墨田区","address":"東京都墨田区吾妻橋3丁目","lat":35.70826849,"lon":139.80518472},{"name":"竪川親水","province":"東京都","city":"墨田区","address":"東京都墨田区江東橋1丁目","lat":35.69558088,"lon":139.81014418},{"name":"東墨田二丁目","province":"東京都","city":"墨田区","address":"東京都墨田区東墨田2丁目12-10","lat":35.7210821,"lon":139.83277592},{"name":"東墨田","province":"東京都","city":"墨田区","address":"東京都墨田区東墨田3丁目4-14","lat":35.71999578,"lon":139.83525055},{"name":"横川さんかく","province":"東京都","city":"墨田区","address":"東京都墨田区横川5丁目9-31","lat":35.70553546,"lon":139.81795082},{"name":"立花大正民家園","province":"東京都","city":"墨田区","address":"東京都墨田区立花6丁目13-17","lat":35.70986058,"lon":139.83808152},{"name":"白鬚","province":"東京都","city":"墨田区","address":"東京都墨田区墨田1丁目4-42","lat":35.72808777,"lon":139.81503183},{"name":"旧中川水辺","province":"東京都","city":"墨田区","address":"東京都墨田区東墨田1丁目","lat":35.71565486,"lon":139.83040693},{"name":"おしなり公園","province":"東京都","city":"墨田区","address":"東京都墨田区押上1丁目","lat":35.71011625,"lon":139.81578627},{"name":"横川北","province":"東京都","city":"墨田区","address":"東京都墨田区横川3丁目12-13","lat":35.70522153,"lon":139.81353999},{"name":"小梅","province":"東京都","city":"墨田区","address":"東京都墨田区向島1丁目33-3","lat":35.71042667,"lon":139.80815339},{"name":"横川南","province":"東京都","city":"墨田区","address":"東京都墨田区横川3丁目6-3","lat":35.70349372,"lon":139.81405691},{"name":"柳島","province":"東京都","city":"墨田区","address":"東京都墨田区横川5丁目10-13","lat":35.70495485,"lon":139.81626489},{"name":"六間堀","province":"東京都","city":"墨田区","address":"東京都墨田区千歳3丁目1-11","lat":35.68926524,"lon":139.79795807},{"name":"菊一","province":"東京都","city":"墨田区","address":"東京都墨田区菊川1丁目1-17","lat":35.68846253,"lon":139.80053822},{"name":"菊川橋","province":"東京都","city":"墨田区","address":"東京都墨田区菊川3丁目13-2","lat":35.68874569,"lon":139.8090975},{"name":"もみじばし","province":"東京都","city":"墨田区","address":"東京都墨田区本所4丁目8-6","lat":35.70311337,"lon":139.8078435},{"name":"しいのき","province":"東京都","city":"墨田区","address":"東京都墨田区吾妻橋3丁目9-4","lat":35.70954062,"lon":139.80490679},{"name":"横川橋","province":"東京都","city":"墨田区","address":"東京都墨田区横川1丁目1-10","lat":35.70318558,"lon":139.80863506},{"name":"あかしや","province":"東京都","city":"墨田区","address":"東京都墨田区太平4丁目23-3","lat":35.70217705,"lon":139.81819011},{"name":"くるみ","province":"東京都","city":"墨田区","address":"東京都墨田区業平5丁目1-1","lat":35.70623271,"lon":139.81617301},{"name":"つくし","province":"東京都","city":"墨田区","address":"東京都墨田区亀沢3丁目4-8","lat":35.69642806,"lon":139.80470036},{"name":"両国橋","province":"東京都","city":"墨田区","address":"東京都墨田区両国1丁目11-2","lat":35.69388943,"lon":139.78980457},{"name":"露伴","province":"東京都","city":"墨田区","address":"東京都墨田区東向島1丁目7-11","lat":35.72189933,"lon":139.81308177},{"name":"あづま","province":"東京都","city":"墨田区","address":"東京都墨田区立花1丁目2-3","lat":35.70523847,"lon":139.82695816},{"name":"隅田","province":"東京都","city":"墨田区","address":"東京都墨田区墨田4丁目23-12","lat":35.73224843,"lon":139.82340228},{"name":"香取","province":"東京都","city":"墨田区","address":"東京都墨田区立花1丁目25-6","lat":35.70476097,"lon":139.83218236},{"name":"境","province":"東京都","city":"墨田区","address":"東京都墨田区江東橋1丁目13-3","lat":35.69596417,"lon":139.81078571},{"name":"とらばし","province":"東京都","city":"墨田区","address":"東京都墨田区京島1丁目21-9","lat":35.71512495,"lon":139.81978043},{"name":"さくら","province":"東京都","city":"墨田区","address":"東京都墨田区堤通1丁目18-20","lat":35.72591012,"lon":139.81222944},{"name":"くすのき","province":"東京都","city":"墨田区","address":"東京都墨田区東向島4丁目28-8","lat":35.7237965,"lon":139.81857543},{"name":"あすなろ","province":"東京都","city":"墨田区","address":"東京都墨田区東向島1丁目34-5","lat":35.72015506,"lon":139.81538965},{"name":"すずかけ","province":"東京都","city":"墨田区","address":"東京都墨田区東向島5丁目39-8","lat":35.72864067,"lon":139.82451349},{"name":"あおぎり","province":"東京都","city":"墨田区","address":"東京都墨田区八広4丁目11-6","lat":35.72246307,"lon":139.82706574},{"name":"こでまり","province":"東京都","city":"墨田区","address":"東京都墨田区東向島5丁目24-1","lat":35.72764346,"lon":139.82184162},{"name":"からたち","province":"東京都","city":"墨田区","address":"東京都墨田区京島3丁目10-19","lat":35.71659437,"lon":139.82234965},{"name":"さくらんぼ","province":"東京都","city":"墨田区","address":"東京都墨田区向島5丁目38-7","lat":35.71796608,"lon":139.81255091},{"name":"さざんか","province":"東京都","city":"墨田区","address":"東京都墨田区江東橋1丁目1-4","lat":35.69291179,"lon":139.80918616},{"name":"ささのは","province":"東京都","city":"墨田区","address":"東京都墨田区亀沢4丁目18-8","lat":35.69864721,"lon":139.80823292},{"name":"かしわ","province":"東京都","city":"墨田区","address":"東京都墨田区東駒形2丁目8-2","lat":35.70608257,"lon":139.80098005},{"name":"かつら","province":"東京都","city":"墨田区","address":"東京都墨田区墨田3丁目36-13","lat":35.73147348,"lon":139.82056385},{"name":"こぶし","province":"東京都","city":"墨田区","address":"東京都墨田区東墨田2丁目14-3","lat":35.72180997,"lon":139.83228159},{"name":"やまぶき","province":"東京都","city":"墨田区","address":"東京都墨田区東向島6丁目60-6","lat":35.72752963,"lon":139.82428018},{"name":"けやき","province":"東京都","city":"墨田区","address":"東京都墨田区八広1丁目7-4","lat":35.7214523,"lon":139.82195259},{"name":"押上第一","province":"東京都","city":"墨田区","address":"東京都墨田区押上3丁目48-1","lat":35.71179188,"lon":139.82010526},{"name":"立川第二","province":"東京都","city":"墨田区","address":"東京都墨田区立川3丁目15-6","lat":35.69203976,"lon":139.80390933},{"name":"本四三ツ目","province":"東京都","city":"墨田区","address":"東京都墨田区本所4丁目1-4","lat":35.70288841,"lon":139.80498554},{"name":"きくはな","province":"東京都","city":"墨田区","address":"東京都墨田区緑4丁目2-4","lat":35.69298957,"lon":139.80849461},{"name":"請地","province":"東京都","city":"墨田区","address":"東京都墨田区向島4丁目12-11","lat":35.71693833,"lon":139.81343679},{"name":"八広第一","province":"東京都","city":"墨田区","address":"東京都墨田区八広5丁目7-6","lat":35.72431035,"lon":139.82398291},{"name":"八広第二","province":"東京都","city":"墨田区","address":"東京都墨田区八広5丁目7-18","lat":35.72376869,"lon":139.82473835},{"name":"墨田二丁目","province":"東京都","city":"墨田区","address":"東京都墨田区墨田2丁目42-4","lat":35.73228443,"lon":139.81873074},{"name":"六軒","province":"東京都","city":"墨田区","address":"東京都墨田区立花3丁目18-12","lat":35.70610819,"lon":139.83438194},{"name":"亀沢第一","province":"東京都","city":"墨田区","address":"東京都墨田区亀沢2丁目13-7","lat":35.69784458,"lon":139.80188665},{"name":"隅田第二","province":"東京都","city":"墨田区","address":"東京都墨田区墨田4丁目8-14","lat":35.73288164,"lon":139.82186355},{"name":"両国第一","province":"東京都","city":"墨田区","address":"東京都墨田区両国4丁目36-16","lat":35.69517271,"lon":139.79557943},{"name":"墨田第三","province":"東京都","city":"墨田区","address":"東京都墨田区墨田2丁目17-6","lat":35.7314956,"lon":139.81623679},{"name":"八広つるかめ","province":"東京都","city":"墨田区","address":"東京都墨田区八広4丁目28-6","lat":35.72451856,"lon":139.82910998},{"name":"ごあずま","province":"東京都","city":"墨田区","address":"東京都墨田区八広4丁目36-24","lat":35.7227685,"lon":139.82939596},{"name":"立花第一","province":"東京都","city":"墨田区","address":"東京都墨田区立花4丁目9-6","lat":35.71009965,"lon":139.83163207},{"name":"押上第二","province":"東京都","city":"墨田区","address":"東京都墨田区押上3丁目57-3","lat":35.71191978,"lon":139.82117743},{"name":"隅田西","province":"東京都","city":"墨田区","address":"東京都墨田区墨田3丁目31-2","lat":35.73245111,"lon":139.81994721},{"name":"隅田東","province":"東京都","city":"墨田区","address":"東京都墨田区墨田4丁目52-12","lat":35.72950444,"lon":139.82512169},{"name":"墨田第六","province":"東京都","city":"墨田区","address":"東京都墨田区墨田2丁目20-15","lat":35.73052355,"lon":139.81718117},{"name":"八広六西","province":"東京都","city":"墨田区","address":"東京都墨田区八広6丁目13-1","lat":35.72851578,"lon":139.82735203},{"name":"隅田東第二","province":"東京都","city":"墨田区","address":"東京都墨田区墨田4丁目34-20","lat":35.73275392,"lon":139.82414937},{"name":"長浦","province":"東京都","city":"墨田区","address":"東京都墨田区八広1丁目8-18","lat":35.72162165,"lon":139.82324129},{"name":"八広一丁目","province":"東京都","city":"墨田区","address":"東京都墨田区八広1丁目19-14","lat":35.718808,"lon":139.82292739},{"name":"立花六丁目","province":"東京都","city":"墨田区","address":"東京都墨田区立花6丁目14-5","lat":35.71043553,"lon":139.83777873},{"name":"中之郷","province":"東京都","city":"墨田区","address":"東京都墨田区押上2丁目12-1","lat":35.71232977,"lon":139.8122502},{"name":"白鬚","province":"東京都","city":"墨田区","address":"東京都墨田区東墨田1丁目4-9","lat":35.71666592,"lon":139.82995695},{"name":"東向島六丁目","province":"東京都","city":"墨田区","address":"東京都墨田区東向島6丁目24-1","lat":35.72318272,"lon":139.82192763},{"name":"東向島一丁目","province":"東京都","city":"墨田区","address":"東京都墨田区東向島1丁目4-4","lat":35.72282705,"lon":139.81377617},{"name":"立花一丁目","province":"東京都","city":"墨田区","address":"東京都墨田区立花1丁目10-2","lat":35.70624686,"lon":139.82666087},{"name":"立花五丁目","province":"東京都","city":"墨田区","address":"東京都墨田区立花5丁目12-13","lat":35.71519101,"lon":139.83052915},{"name":"八広三丁目","province":"東京都","city":"墨田区","address":"東京都墨田区八広3丁目24-8","lat":35.71979905,"lon":139.8287737},{"name":"立花五丁目第二","province":"東京都","city":"墨田区","address":"東京都墨田区立花5丁目24-3","lat":35.71134969,"lon":139.83064597},{"name":"菊川三丁目","province":"東京都","city":"墨田区","address":"東京都墨田区菊川3丁目6-10","lat":35.68774309,"lon":139.80713132},{"name":"京島三丁目ぐるぐる広場","province":"東京都","city":"墨田区","address":"東京都墨田区京島3丁目45-4","lat":35.71345287,"lon":139.82391885},{"name":"八広四丁目","province":"東京都","city":"墨田区","address":"東京都墨田区八広4丁目42-12","lat":35.72192406,"lon":139.82904875},{"name":"地蔵坂通り広場","province":"東京都","city":"墨田区","address":"東京都墨田区東向島1丁目15-15","lat":35.7217216,"lon":139.81503423},{"name":"てらじま広場","province":"東京都","city":"墨田区","address":"東京都墨田区東向島1丁目15-13","lat":35.72188269,"lon":139.81485649},{"name":"東墨田一丁目運動広場","province":"東京都","city":"墨田区","address":"東京都墨田区東墨田1丁目10","lat":35.71647687,"lon":139.83195391},{"name":"墨田五丁目遊び場","province":"東京都","city":"墨田区","address":"東京都墨田区墨田5丁目16","lat":35.73872784,"lon":139.81809129},{"name":"緑町公園内遊び場","province":"東京都","city":"墨田区","address":"東京都墨田区亀沢2丁目6","lat":35.69640587,"lon":139.8013536},{"name":"錦糸四丁目","province":"東京都","city":"墨田区","address":"東京都墨田区錦糸4丁目16","lat":35.69861092,"lon":139.81857629},{"name":"両国二丁目","province":"東京都","city":"墨田区","address":"東京都墨田区両国2丁目20-12","lat":35.69534764,"lon":139.79267109},{"name":"千歳二丁目","province":"東京都","city":"墨田区","address":"東京都墨田区千歳2丁目14","lat":35.69166482,"lon":139.79371049},{"name":"文花一丁目","province":"東京都","city":"墨田区","address":"東京都墨田区文花1丁目23","lat":35.70991399,"lon":139.82290809},{"name":"立川二丁目","province":"東京都","city":"墨田区","address":"東京都墨田区立川2丁目14","lat":35.69210921,"lon":139.80247346}]}