{"category":"wireless","data":[{"name":"東京都立墨東病院","province":"東京都","city":"墨田区","address":"東京都墨田区江東橋4丁目23-15","lat":35.69530033,"lon":139.81879578},{"name":"白鬚橋病院","province":"東京都","city":"墨田区","address":"東京都墨田区東向島4丁目2-10","lat":35.72795443,"lon":139.81372652},{"name":"区立文花公園","province":"東京都","city":"墨田区","address":"東京都墨田区文花1丁目27-5","lat":35.7094556,"lon":139.82244155},{"name":"区立両国公園","province":"東京都","city":"墨田区","address":"東京都墨田区両国4丁目25-3","lat":35.6937507,"lon":139.79611856},{"name":"白鬚東地区防災拠点","province":"東京都","city":"墨田区","address":"東京都墨田区堤通2丁目","lat":35.73410354,"lon":139.81657811},{"name":"都立墨東病院","province":"東京都","city":"墨田区","address":"東京都墨田区江東橋4丁目23-15","lat":35.69530033,"lon":139.81879578},{"name":"東京都江戸東京博物館","province":"東京都","city":"墨田区","address":"東京都墨田区横網1丁目4-1","lat":35.69651701,"lon":139.79620144},{"name":"皮革技術センター","province":"東京都","city":"墨田区","address":"東京都墨田区東墨田3丁目3-14","lat":35.72012918,"lon":139.83350074},{"name":"墨田川高等学校","province":"東京都","city":"墨田区","address":"東京都墨田区東向島3丁目34-14","lat":35.72188272,"lon":139.81637848},{"name":"両国高等学校","province":"東京都","city":"墨田区","address":"東京都墨田区江東橋1丁目7-14","lat":35.69453935,"lon":139.81008872},{"name":"本所高等学校","province":"東京都","city":"墨田区","address":"東京都墨田区向島3丁目37-25","lat":35.71428529,"lon":139.81112277},{"name":"橘高等学校","province":"東京都","city":"墨田区","address":"東京都墨田区立花4丁目29-7","lat":35.70930795,"lon":139.83334026},{"name":"日本橋高等学校","province":"東京都","city":"墨田区","address":"東京都墨田区八広1丁目28-21","lat":35.71966058,"lon":139.82417998},{"name":"本所都民防災教育センター","province":"東京都","city":"墨田区","address":"東京都墨田区横川4丁目6-6","lat":35.70394926,"lon":139.81518733},{"name":"平井橋","province":"東京都","city":"墨田区","address":"東京都墨田区立花3丁目","lat":35.70741364,"lon":139.83414302},{"name":"墨田区本庁舎","province":"東京都","city":"墨田区","address":"東京都墨田区吾妻橋1丁目23-20","lat":35.71072382,"lon":139.80149602},{"name":"つばき公園","province":"東京都","city":"墨田区","address":"東京都墨田区墨田5丁目33-9","lat":35.73761145,"lon":139.82036616},{"name":"墨田五丁目溝渠","province":"東京都","city":"墨田区","address":"東京都墨田区墨田5丁目20","lat":35.74076913,"lon":139.81734114},{"name":"都営墨田1丁目アパート5号棟","province":"東京都","city":"墨田区","address":"東京都墨田区墨田1丁目4","lat":35.72929592,"lon":139.81459567},{"name":"こでまり児童遊園","province":"東京都","city":"墨田区","address":"東京都墨田区東向島5丁目24-1","lat":35.72764346,"lon":139.82184162},{"name":"吾嬬西公園","province":"東京都","city":"墨田区","address":"東京都墨田区八広6丁目53-16","lat":35.72424908,"lon":139.83025702},{"name":"東墨田二丁目公園","province":"東京都","city":"墨田区","address":"東京都墨田区東墨田2丁目12-10","lat":35.7210821,"lon":139.83277592},{"name":"社会福祉会館","province":"東京都","city":"墨田区","address":"東京都墨田区東墨田2丁目7-1","lat":35.71894898,"lon":139.83046514},{"name":"福寿公園","province":"東京都","city":"墨田区","address":"東京都墨田区立花3丁目24-3","lat":35.7078636,"lon":139.83437075},{"name":"旧中川水辺公園","province":"東京都","city":"墨田区","address":"東京都墨田区立花6丁目8","lat":35.71087998,"lon":139.83527611},{"name":"堤通1丁目","province":"東京都","city":"墨田区","address":"東京都墨田区堤通1丁目11","lat":35.72439635,"lon":139.81269314},{"name":"ふじのき公園","province":"東京都","city":"墨田区","address":"東京都墨田区東向島2丁目7-5","lat":35.71734678,"lon":139.81547271},{"name":"すみだ福祉保健センター","province":"東京都","city":"墨田区","address":"東京都墨田区向島3丁目36-7","lat":35.71329353,"lon":139.81075044},{"name":"文花公園","province":"東京都","city":"墨田区","address":"東京都墨田区文花1丁目27","lat":35.70874438,"lon":139.82167509},{"name":"東あずま公園","province":"東京都","city":"墨田区","address":"東京都墨田区立花2丁目32-12","lat":35.70834973,"lon":139.83030736},{"name":"すみだ清掃事務所分室","province":"東京都","city":"墨田区","address":"東京都墨田区亀沢1丁目8-3","lat":35.69728358,"lon":139.7975762},{"name":"横川橋保育園","province":"東京都","city":"墨田区","address":"東京都墨田区太平1丁目27-13","lat":35.7021662,"lon":139.81077669},{"name":"錦糸公園","province":"東京都","city":"墨田区","address":"東京都墨田区錦糸4丁目15-1","lat":35.69947749,"lon":139.8171875},{"name":"東京消防庁両国寮(ソーラー)","province":"東京都","city":"墨田区","address":"東京都墨田区両国1丁目12","lat":35.69523371,"lon":139.79009056},{"name":"一之橋","province":"東京都","city":"墨田区","address":"東京都墨田区千歳1丁目9","lat":35.69168144,"lon":139.79248544},{"name":"どんぐり児童遊園","province":"東京都","city":"墨田区","address":"東京都墨田区緑3丁目12-9","lat":35.69455606,"lon":139.8046534},{"name":"両国駅西口","province":"東京都","city":"墨田区","address":"東京都墨田区横網1丁目3-20","lat":35.69605033,"lon":139.79250988},{"name":"菊川橋児童遊園","province":"東京都","city":"墨田区","address":"東京都墨田区菊川3丁目13-2","lat":35.68874569,"lon":139.8090975},{"name":"立花公園","province":"東京都","city":"墨田区","address":"東京都墨田区立花1丁目27-5","lat":35.70547192,"lon":139.82927722},{"name":"墨田区役所","province":"東京都","city":"墨田区","address":"東京都墨田区吾妻橋1丁目23-20","lat":35.71072382,"lon":139.80149602},{"name":"隅田川緑道","province":"東京都","city":"墨田区","address":"東京都墨田区横網2丁目12","lat":35.70139696,"lon":139.7955535},{"name":"東墨田東公園","province":"東京都","city":"墨田区","address":"東京都墨田区東墨田3丁目19-2","lat":35.71845425,"lon":139.83744771},{"name":"文花一丁目区道","province":"東京都","city":"墨田区","address":"東京都墨田区文花1丁目32-2","lat":35.70754973,"lon":139.82345005},{"name":"おしなり公園西","province":"東京都","city":"墨田区","address":"東京都墨田区押上1丁目","lat":35.71011625,"lon":139.81578627},{"name":"おしなり公園東","province":"東京都","city":"墨田区","address":"東京都墨田区押上1丁目","lat":35.71011625,"lon":139.81578627},{"name":"都営横川五丁目第2アパート","province":"東京都","city":"墨田区","address":"東京都墨田区横川5丁目9-4","lat":35.70580771,"lon":139.81822576},{"name":"錦糸町駅北口","province":"東京都","city":"墨田区","address":"東京都墨田区錦糸3丁目2","lat":35.69748616,"lon":139.81405462},{"name":"錦糸町駅南口","province":"東京都","city":"墨田区","address":"東京都墨田区江東橋3丁目14-5","lat":35.69643352,"lon":139.81393804},{"name":"八広防災備蓄倉庫","province":"東京都","city":"墨田区","address":"東京都墨田区八広6丁目35-1","lat":35.72651028,"lon":139.82940171},{"name":"白鬚東防災備蓄倉庫","province":"東京都","city":"墨田区","address":"東京都墨田区堤通2丁目7-13","lat":35.73475624,"lon":139.81720018},{"name":"国技館内防災備蓄倉庫","province":"東京都","city":"墨田区","address":"東京都墨田区横網1丁目3-28","lat":35.69721965,"lon":139.79360694},{"name":"文花防災備蓄倉庫","province":"東京都","city":"墨田区","address":"東京都墨田区文花1丁目19-1","lat":35.71053903,"lon":139.82370512},{"name":"京島防災備蓄倉庫","province":"東京都","city":"墨田区","address":"東京都墨田区京島2丁目15-5","lat":35.71313356,"lon":139.82108025},{"name":"東向島防災備蓄倉庫","province":"東京都","city":"墨田区","address":"東京都墨田区東向島4丁目8-12","lat":35.72759893,"lon":139.8155317},{"name":"横川防災備蓄倉庫","province":"東京都","city":"墨田区","address":"東京都墨田区横川5丁目9-1","lat":35.70517431,"lon":139.81750923},{"name":"庁舎内防災備蓄倉庫","province":"東京都","city":"墨田区","address":"東京都墨田区吾妻橋1丁目23-20","lat":35.71072382,"lon":139.80149602},{"name":"業平防災備蓄倉庫","province":"東京都","city":"墨田区","address":"東京都墨田区業平3丁目2-5","lat":35.70634375,"lon":139.8130676},{"name":"国際ファッションセンタービル内防災備蓄倉庫","province":"東京都","city":"墨田区","address":"東京都墨田区横網1丁目6-1","lat":35.69830846,"lon":139.79685114},{"name":"NTTドコモ墨田ビル内防災備蓄倉庫","province":"東京都","city":"墨田区","address":"東京都墨田区横網1丁目9-2","lat":35.69835288,"lon":139.79546506},{"name":"太平四丁目防災備蓄倉庫","province":"東京都","city":"墨田区","address":"東京都墨田区太平4丁目1-2","lat":35.70086065,"lon":139.81594032},{"name":"東墨田防災備蓄倉庫","province":"東京都","city":"墨田区","address":"東京都墨田区東墨田2丁目12-9","lat":35.72135158,"lon":139.83258985},{"name":"総合体育館防災備蓄倉庫","province":"東京都","city":"墨田区","address":"東京都墨田区錦糸4丁目15-1","lat":35.69947749,"lon":139.8171875},{"name":"東京スカイツリータウンウエストヤード総合ロータリー備蓄倉庫","province":"東京都","city":"墨田区","address":"東京都墨田区押上1丁目1-2","lat":35.71005462,"lon":139.81070876},{"name":"本所地域プラザ防災備蓄倉庫","province":"東京都","city":"墨田区","address":"東京都墨田区本所1丁目13-4","lat":35.70316063,"lon":139.79876681},{"name":"京島三丁目コミュニティ住宅防災備蓄倉庫","province":"東京都","city":"墨田区","address":"東京都墨田区京島3丁目3-1","lat":35.71526948,"lon":139.82097199},{"name":"第7コミュニティ住宅防災備蓄倉庫","province":"東京都","city":"墨田区","address":"東京都墨田区京島3丁目3-6","lat":35.71515563,"lon":139.82138862},{"name":"第8コミュニティ住宅防災備蓄庫","province":"東京都","city":"墨田区","address":"東京都墨田区京島3丁目52-8","lat":35.71478047,"lon":139.82434659},{"name":"20　ホンダカーズ東京押上店防災備蓄倉庫","province":"東京都","city":"墨田区","address":"東京都墨田区押上2丁目22-4","lat":35.71483839,"lon":139.81445312},{"name":"21　京成押上ビル防災備蓄倉庫","province":"東京都","city":"墨田区","address":"東京都墨田区押上1丁目10-3","lat":35.71022161,"lon":139.81391135},{"name":"八広三丁目防災広場","province":"東京都","city":"墨田区","address":"東京都墨田区八広3丁目24-8","lat":35.71979905,"lon":139.8287737},{"name":"江東西工区","province":"東京都","city":"墨田区","address":"東京都墨田区両国1丁目12-5","lat":35.69562534,"lon":139.79045718},{"name":"墨田工区","province":"東京都","city":"墨田区","address":"東京都墨田区堤通1丁目16-4","lat":35.72574067,"lon":139.81097687},{"name":"平井橋水防倉庫","province":"東京都","city":"墨田区","address":"東京都墨田区立花3丁目29-10","lat":35.70835795,"lon":139.83697888}]}