{"keyword":"し尿","data":[{"name":"墨田区子育て支援総合センター","province":"東京都","city":"墨田区","address":"墨田区京島1-35-9-103マーク・ゼロワン曳舟タワー棟1階","lat":35.716722,"lon":139.819675},{"name":"墨田区保健所","province":"東京都","city":"墨田区","address":"墨田区吾妻橋1-23-20","lat":35.710724,"lon":139.801496},{"name":"向島保健センター","province":"東京都","city":"墨田区","address":"墨田区東向島5-16-2","lat":35.725882,"lon":139.821106},{"name":"本所保健センター","province":"東京都","city":"墨田区","address":"墨田区東駒形1-6-4","lat":35.705438,"lon":139.798058},{"name":"墨田区","province":"東京都","city":"墨田区","address":"墨田区吾妻橋1-23-20","lat":35.7107242,"lon":139.8014967},{"name":"墨田都税事務所","province":"東京都","city":"墨田区","address":"東京都墨田区業平1丁目7-4","lat":35.70787,"lon":139.809143},{"name":"東京都江戸東京博物館","province":"東京都","city":"墨田区","address":"東京都墨田区横網1丁目4-1","lat":35.69647,"lon":139.7957},{"name":"東京都江戸東京博物館","province":"東京都","city":"墨田区","address":"東京都墨田区横網1丁目4-1","lat":35.69691,"lon":139.7958},{"name":"東京都江戸東京博物館","province":"東京都","city":"墨田区","address":"東京都墨田区横網1丁目4-1","lat":35.69665,"lon":139.7958},{"name":"東京都江戸東京博物館","province":"東京都","city":"墨田区","address":"東京都墨田区横網1丁目4-1","lat":35.69675,"lon":139.7956},{"name":"東京都江戸東京博物館","province":"東京都","city":"墨田区","address":"東京都墨田区横網1丁目4-1","lat":35.69627,"lon":139.7958},{"name":"東京都江戸東京博物館","province":"東京都","city":"墨田区","address":"東京都墨田区横網1丁目4-1","lat":35.69623,"lon":139.7965},{"name":"東京都江戸東京博物館","province":"東京都","city":"墨田区","address":"東京都墨田区横網1丁目4-1","lat":35.69676,"lon":139.7957},{"name":"東京都江戸東京博物館","province":"東京都","city":"墨田区","address":"東京都墨田区横網1丁目4-1","lat":35.69639,"lon":139.7956},{"name":"地方独立行政法人東京都立病院機構　東京都立墨東病院","province":"東京都","city":"墨田区","address":"東京都墨田区江東橋4丁目23","lat":35.694554,"lon":139.818952},{"name":"東白鬚公園","province":"東京都","city":"墨田区","address":"東京都墨田区堤通2丁目2","lat":35.733624,"lon":139.813864},{"name":"東白鬚公園","province":"東京都","city":"墨田区","address":"東京都墨田区堤通2丁目2","lat":35.72915,"lon":139.811966},{"name":"東白鬚公園","province":"東京都","city":"墨田区","address":"東京都墨田区堤通2丁目2","lat":35.737694,"lon":139.81688},{"name":"横網町公園","province":"東京都","city":"墨田区","address":"東京都墨田区横網2丁目3-25","lat":35.699951,"lon":139.796874},{"name":"横網町公園","province":"東京都","city":"墨田区","address":"東京都墨田区横網2丁目3","lat":35.699272,"lon":139.795551},{"name":"向島百花園","province":"東京都","city":"墨田区","address":"東京都墨田区東向島3丁目18","lat":35.724189,"lon":139.815271},{"name":"向島百花園","province":"東京都","city":"墨田区","address":"東京都墨田区東向島3丁目18","lat":35.724158,"lon":139.815293},{"name":"都営浅草線本所吾妻橋駅","province":"東京都","city":"墨田区","address":"東京都墨田区吾妻橋3丁目1","lat":35.708358,"lon":139.804465},{"name":"都営浅草線本所吾妻橋駅","province":"東京都","city":"墨田区","address":"東京都墨田区吾妻橋3丁目1","lat":35.708419,"lon":139.804475},{"name":"都営新宿線菊川駅","province":"東京都","city":"墨田区","address":"東京都墨田区菊川2丁目6","lat":35.688422,"lon":139.80556},{"name":"都営大江戸線両国駅","province":"東京都","city":"墨田区","address":"東京都墨田区亀沢1丁目7","lat":35.696873,"lon":139.797477},{"name":"東京都水道局墨田営業所","province":"東京都","city":"墨田区","address":"東京都墨田区千歳2丁目2-11","lat":35.690458,"lon":139.795839},{"name":"墨田区役所","province":"東京都","city":"墨田区","address":"東京都墨田区吾妻橋1丁目23-20","lat":35.710644,"lon":139.801307},{"name":"向島保健センター","province":"東京都","city":"墨田区","address":"東京都墨田区東向島5丁目16-2","lat":35.725694,"lon":139.821112},{"name":"横川出張所","province":"東京都","city":"墨田区","address":"東京都墨田区横川5丁目10-1","lat":35.705927,"lon":139.816389},{"name":"八広地域プラザ","province":"東京都","city":"墨田区","address":"東京都墨田区八広4丁目35-17","lat":35.723478,"lon":139.829337},{"name":"八広地域プラザ","province":"東京都","city":"墨田区","address":"東京都墨田区八広4丁目35-17","lat":35.723403,"lon":139.829296},{"name":"本所地域プラザ","province":"東京都","city":"墨田区","address":"東京都墨田区本所1丁目13-4","lat":35.703099,"lon":139.798797},{"name":"横川コミュニティ会館","province":"東京都","city":"墨田区","address":"東京都墨田区横川5丁目9-1","lat":35.705118,"lon":139.817496},{"name":"横川コミュニティ会館","province":"東京都","city":"墨田区","address":"東京都墨田区横川5丁目9-1","lat":35.705118,"lon":139.817404},{"name":"横川コミュニティ会館","province":"東京都","city":"墨田区","address":"東京都墨田区横川5丁目9-1","lat":35.705076,"lon":139.817404},{"name":"梅若橋コミュニティ会館","province":"東京都","city":"墨田区","address":"東京都墨田区堤通2丁目9-1","lat":35.735354,"lon":139.816656},{"name":"東駒形コミュニティ会館","province":"東京都","city":"墨田区","address":"東京都墨田区東駒形4丁目14-1","lat":35.705476,"lon":139.807771},{"name":"東墨田東公園","province":"東京都","city":"墨田区","address":"東京都墨田区東墨田3丁目19","lat":35.718431,"lon":139.837439},{"name":"ひきふね図書館","province":"東京都","city":"墨田区","address":"東京都墨田区京島1丁目36","lat":35.717059,"lon":139.819673},{"name":"ひきふね図書館","province":"東京都","city":"墨田区","address":"東京都墨田区京島1丁目36-1","lat":35.716857,"lon":139.819261},{"name":"ひきふね図書館","province":"東京都","city":"墨田区","address":"東京都墨田区京島1丁目36","lat":35.717003,"lon":139.819467},{"name":"ひきふね図書館","province":"東京都","city":"墨田区","address":"東京都墨田区京島1丁目36","lat":35.717026,"lon":139.819466},{"name":"立花図書館","province":"東京都","city":"墨田区","address":"東京都墨田区立花6丁目8-1","lat":35.710646,"lon":139.834938},{"name":"みどりコミュニティセンター","province":"東京都","city":"墨田区","address":"東京都墨田区緑3丁目7-3","lat":35.693553,"lon":139.803237},{"name":"すみだスポーツ健康センター","province":"東京都","city":"墨田区","address":"東京都墨田区東墨田1丁目6-1","lat":35.716461,"lon":139.830695},{"name":"すみだスポーツ健康センター","province":"東京都","city":"墨田区","address":"東京都墨田区東墨田1丁目6-1","lat":35.716509,"lon":139.830372},{"name":"すみだ郷土文化資料館","province":"東京都","city":"墨田区","address":"東京都墨田区向島2丁目3-5","lat":35.713875,"lon":139.805844},{"name":"すみだ生涯学習センター","province":"東京都","city":"墨田区","address":"東京都墨田区東向島2丁目38-7","lat":35.721243,"lon":139.818603},{"name":"すみだ生涯学習センター","province":"東京都","city":"墨田区","address":"東京都墨田区東向島2丁目38-7","lat":35.721144,"lon":139.818474},{"name":"すみだ北斎美術館","province":"東京都","city":"墨田区","address":"東京都墨田区亀沢2丁目7","lat":35.696255,"lon":139.800334},{"name":"すみだトリフォニーホール","province":"東京都","city":"墨田区","address":"東京都墨田区錦糸1丁目2-3","lat":35.697119,"lon":139.810005},{"name":"すみだ産業会館","province":"東京都","city":"墨田区","address":"東京都墨田区江東橋3丁目9-10","lat":35.695121,"lon":139.813771},{"name":"両国公園","province":"東京都","city":"墨田区","address":"東京都墨田区両国4丁目25","lat":35.693745,"lon":139.796132},{"name":"横川公園","province":"東京都","city":"墨田区","address":"東京都墨田区東駒形4丁目18","lat":35.706794,"lon":139.806817},{"name":"錦糸公園(東)","province":"東京都","city":"墨田区","address":"東京都墨田区錦糸4丁目15","lat":35.699337,"lon":139.817821},{"name":"ふじのき公園","province":"東京都","city":"墨田区","address":"東京都墨田区東向島2丁目7","lat":35.71734,"lon":139.815424},{"name":"ひいらぎ公園","province":"東京都","city":"墨田区","address":"東京都墨田区八広1丁目16","lat":35.720225,"lon":139.82238},{"name":"東向島北公園","province":"東京都","city":"墨田区","address":"東京都墨田区東向島4丁目12","lat":35.725569,"lon":139.815881},{"name":"八広中央公園","province":"東京都","city":"墨田区","address":"東京都墨田区八広3丁目13","lat":35.719212,"lon":139.827258},{"name":"どんぐり児童遊園","province":"東京都","city":"墨田区","address":"東京都墨田区緑3丁目12","lat":35.694579,"lon":139.804697},{"name":"かつら児童遊園","province":"東京都","city":"墨田区","address":"東京都墨田区墨田3丁目36","lat":35.731337,"lon":139.820688},{"name":"六軒児童遊園","province":"東京都","city":"墨田区","address":"東京都墨田区立花3丁目18","lat":35.706101,"lon":139.834398},{"name":"中之郷児童遊園","province":"東京都","city":"墨田区","address":"東京都墨田区押上2丁目12","lat":35.712326,"lon":139.81225},{"name":"八広第一児童遊園","province":"東京都","city":"墨田区","address":"東京都墨田区八広5丁目7","lat":35.724305,"lon":139.823966},{"name":"くるみ児童遊園","province":"東京都","city":"墨田区","address":"東京都墨田区業平5丁目1","lat":35.706257,"lon":139.816161},{"name":"日進公園","province":"東京都","city":"墨田区","address":"東京都墨田区亀沢3丁目24","lat":35.698564,"lon":139.804482},{"name":"若宮公園","province":"東京都","city":"墨田区","address":"東京都墨田区本所2丁目2","lat":35.702289,"lon":139.801135},{"name":"隅田第二児童遊園","province":"東京都","city":"墨田区","address":"東京都墨田区墨田4丁目8","lat":35.732715,"lon":139.821937},{"name":"すみだボランティアセンター","province":"東京都","city":"墨田区","address":"東京都墨田区東向島2丁目17-14","lat":35.718426,"lon":139.815648},{"name":"立花公園","province":"東京都","city":"墨田区","address":"東京都墨田区立花1丁目27","lat":35.70497,"lon":139.828861},{"name":"墨田二丁目児童遊園","province":"東京都","city":"墨田区","address":"東京都墨田区墨田2丁目42","lat":35.732113,"lon":139.818787},{"name":"両国橋際","province":"東京都","city":"墨田区","address":"東京都墨田区両国1丁目11","lat":35.693893,"lon":139.789772},{"name":"江東橋際公衆便所","province":"東京都","city":"墨田区","address":"東京都墨田区江東橋1丁目8","lat":35.694991,"lon":139.809163},{"name":"江東橋公園","province":"東京都","city":"墨田区","address":"東京都墨田区江東橋2丁目4","lat":35.693908,"lon":139.811341},{"name":"錦糸町駅前公衆便所","province":"東京都","city":"墨田区","address":"東京都墨田区江東橋3丁目14","lat":35.696056,"lon":139.814536},{"name":"錦糸堀公園","province":"東京都","city":"墨田区","address":"東京都墨田区江東橋4丁目17","lat":35.694883,"lon":139.816527},{"name":"緑町公園","province":"東京都","city":"墨田区","address":"東京都墨田区亀沢2丁目7","lat":35.696814,"lon":139.800654},{"name":"まち歩きトイレ業平橋","province":"東京都","city":"墨田区","address":"東京都墨田区東駒形4丁目15","lat":35.708502,"lon":139.807401},{"name":"錦糸公園内","province":"東京都","city":"墨田区","address":"東京都墨田区錦糸4丁目15","lat":35.698551,"lon":139.81509},{"name":"京成橋際","province":"東京都","city":"墨田区","address":"東京都墨田区業平4丁目17","lat":35.709468,"lon":139.813995},{"name":"柳島橋際","province":"東京都","city":"墨田区","address":"東京都墨田区業平5丁目7","lat":35.70778,"lon":139.818316},{"name":"東武橋際","province":"東京都","city":"墨田区","address":"東京都墨田区向島1丁目32","lat":35.709669,"lon":139.808324},{"name":"まち歩きトイレ言問","province":"東京都","city":"墨田区","address":"東京都墨田区向島2丁目1","lat":35.713392,"lon":139.80515},{"name":"両国駅西口公衆便所","province":"東京都","city":"墨田区","address":"東京都墨田区横網1丁目3","lat":35.696124,"lon":139.792019},{"name":"まち歩きトイレ錦糸","province":"東京都","city":"墨田区","address":"東京都墨田区錦糸1丁目1","lat":35.697412,"lon":139.808969},{"name":"押上駅前自転車駐車場内","province":"東京都","city":"墨田区","address":"東京都墨田区押上1丁目8-25","lat":35.710999,"lon":139.813917},{"name":"東墨田一丁目","province":"東京都","city":"墨田区","address":"東京都墨田区東墨田1丁目10","lat":35.716234,"lon":139.832784},{"name":"立花五丁目","province":"東京都","city":"墨田区","address":"東京都墨田区立花5丁目50","lat":35.713365,"lon":139.833487},{"name":"平井橋際","province":"東京都","city":"墨田区","address":"東京都墨田区立花3丁目29","lat":35.708485,"lon":139.837197},{"name":"小村井","province":"東京都","city":"墨田区","address":"東京都墨田区文花2丁目1","lat":35.708249,"lon":139.825395},{"name":"墨田区社会福祉会館","province":"東京都","city":"墨田区","address":"東京都墨田区東墨田2丁目7-1","lat":35.719067,"lon":139.830251},{"name":"すみだ福祉保健センター","province":"東京都","city":"墨田区","address":"東京都墨田区向島3丁目36-7","lat":35.713311,"lon":139.810886},{"name":"すみだ福祉保健センター","province":"東京都","city":"墨田区","address":"東京都墨田区向島3丁目36-7","lat":35.713307,"lon":139.810885},{"name":"すみだ福祉保健センター","province":"東京都","city":"墨田区","address":"東京都墨田区向島3丁目36-7","lat":35.713334,"lon":139.810767},{"name":"墨田区弓道場","province":"東京都","city":"墨田区","address":"東京都墨田区江東橋4丁目1-3","lat":35.693386,"lon":139.817352},{"name":"子育て支援総合センター","province":"東京都","city":"墨田区","address":"東京都墨田区京島1丁目35-9","lat":35.716819,"lon":139.819728},{"name":"梅若ゆうゆう館","province":"東京都","city":"墨田区","address":"東京都墨田区墨田1丁目4-4","lat":35.72908,"lon":139.815151},{"name":"立花ゆうゆう館","province":"東京都","city":"墨田区","address":"東京都墨田区立花6丁目8-1","lat":35.710599,"lon":139.834969},{"name":"いきいきプラザ","province":"東京都","city":"墨田区","address":"東京都墨田区文花1丁目32-2","lat":35.707543,"lon":139.823451},{"name":"すみだ女性センター","province":"東京都","city":"墨田区","address":"東京都墨田区押上2丁目12-7","lat":35.712918,"lon":139.812163},{"name":"墨田区総合運動場","province":"東京都","city":"墨田区","address":"東京都墨田区堤通2丁目11","lat":35.737941,"lon":139.816077},{"name":"墨田区総合運動場","province":"東京都","city":"墨田区","address":"東京都墨田区堤通2丁目11","lat":35.73826,"lon":139.816194},{"name":"両国屋内プール","province":"東京都","city":"墨田区","address":"東京都墨田区横網1丁目8-1","lat":35.697672,"lon":139.796324},{"name":"両国屋内プール","province":"東京都","city":"墨田区","address":"東京都墨田区横網1丁目8-1","lat":35.697926,"lon":139.796428},{"name":"スポーツプラザ梅若","province":"東京都","city":"墨田区","address":"東京都墨田区墨田1丁目4-4","lat":35.72904,"lon":139.81565},{"name":"両国子育てひろば保育室","province":"東京都","city":"墨田区","address":"東京都墨田区横網1丁目2-13","lat":35.697787,"lon":139.792418},{"name":"両国子育てひろば","province":"東京都","city":"墨田区","address":"東京都墨田区横網1丁目2-13","lat":35.697787,"lon":139.792418},{"name":"文花子育てひろば","province":"東京都","city":"墨田区","address":"東京都墨田区文花1丁目20-7","lat":35.710614,"lon":139.822368},{"name":"墨田区総合体育館","province":"東京都","city":"墨田区","address":"東京都墨田区錦糸4丁目15-1","lat":35.699324,"lon":139.816798},{"name":"墨田区総合体育館","province":"東京都","city":"墨田区","address":"東京都墨田区錦糸4丁目15-1","lat":35.699732,"lon":139.816784},{"name":"墨田区総合体育館","province":"東京都","city":"墨田区","address":"東京都墨田区錦糸4丁目15-1","lat":35.699316,"lon":139.81745},{"name":"墨田区総合体育館","province":"東京都","city":"墨田区","address":"東京都墨田区錦糸4丁目15-1","lat":35.699794,"lon":139.817374},{"name":"墨田区総合体育館","province":"東京都","city":"墨田区","address":"東京都墨田区錦糸4丁目15-1","lat":35.699292,"lon":139.817424},{"name":"墨田区総合体育館","province":"東京都","city":"墨田区","address":"東京都墨田区錦糸4丁目15-1","lat":35.699786,"lon":139.817067},{"name":"墨田区総合体育館","province":"東京都","city":"墨田区","address":"東京都墨田区錦糸4丁目15-1","lat":35.699305,"lon":139.816816},{"name":"墨田区総合体育館","province":"東京都","city":"墨田区","address":"東京都墨田区錦糸4丁目15-1","lat":35.699297,"lon":139.817421},{"name":"墨田区総合体育館","province":"東京都","city":"墨田区","address":"東京都墨田区錦糸4丁目15-1","lat":35.699804,"lon":139.81726},{"name":"墨田区総合体育館","province":"東京都","city":"墨田区","address":"東京都墨田区錦糸4丁目15-1","lat":35.699303,"lon":139.817335},{"name":"荒川河川敷運動場","province":"東京都","city":"墨田区","address":"東京都墨田区墨田4丁目","lat":35.736513,"lon":139.82236},{"name":"荒川河川敷運動場","province":"東京都","city":"墨田区","address":"東京都墨田区墨田4丁目","lat":35.732205,"lon":139.826014},{"name":"荒川河川敷運動場","province":"東京都","city":"墨田区","address":"東京都墨田区八広6丁目","lat":35.730235,"lon":139.828012},{"name":"屋外体育施設管理事務所錦糸支所","province":"東京都","city":"墨田区","address":"東京都墨田区錦糸4丁目15","lat":35.698556,"lon":139.815057},{"name":"五間堀公園","province":"東京都","city":"墨田区","address":"東京都墨田区立川1丁目1","lat":35.689435,"lon":139.798429},{"name":"墨田区保健所","province":"東京都","city":"墨田区","address":"東京都墨田区吾妻橋1丁目23-20","lat":35.71072382,"lon":139.80149602},{"name":"向島保健センター","province":"東京都","city":"墨田区","address":"東京都墨田区東向島5丁目16-2","lat":35.72588248,"lon":139.82110559},{"name":"本所保健センター","province":"東京都","city":"墨田区","address":"東京都墨田区東駒形1丁目6-4","lat":35.7054382,"lon":139.79805828},{"name":"墨田区保健所","province":"東京都","city":"墨田区","address":"墨田区吾妻橋1-23-20","lat":35.71006,"lon":139.8011},{"name":"向島保健センター","province":"東京都","city":"墨田区","address":"墨田区東向島5-16-2","lat":35.72611,"lon":139.82111},{"name":"本所保健センター","province":"東京都","city":"墨田区","address":"墨田区東駒形1-6-4","lat":35.70532,"lon":139.79796},{"name":"墨田区子育て支援総合センター","province":"東京都","city":"墨田区","address":"墨田区京島1-35-9-103マーク・ゼロワン曳舟タワー棟1階","lat":35.71669,"lon":139.81969},{"name":"墨田区子育て支援総合センター","province":"東京都","city":"墨田区","address":"墨田区京島1-35-9-103マーク・ゼロワン曳舟タワー棟1階","lat":35.71594,"lon":139.81821},{"name":"(株)山室  隅田店","province":"東京都","city":"墨田区","address":"墨田区堤通1-17-27","lat":35.725731,"lon":139.811493},{"name":"(有)藤本春吉商店","province":"東京都","city":"墨田区","address":"墨田区立川3-1-14","lat":35.690201,"lon":139.803909},{"name":"(有)吉田容器店","province":"東京都","city":"墨田区","address":"墨田区立花3-23-12","lat":35.707401,"lon":139.835144},{"name":"東京レンダリング(協)","province":"東京都","city":"墨田区","address":"墨田区東墨田1-9-1","lat":35.715397,"lon":139.832275},{"name":"二興金属(株)","province":"東京都","city":"墨田区","address":"墨田区本所1-10-11","lat":35.702209,"lon":139.798264},{"name":"(株)五井金属","province":"東京都","city":"墨田区","address":"墨田区立川2-7-1","lat":35.69091,"lon":139.801361},{"name":"(有)塚越商店","province":"東京都","city":"墨田区","address":"墨田区東駒形4-20-9","lat":35.707268,"lon":139.804611},{"name":"(株)野口茂樹商店","province":"東京都","city":"墨田区","address":"墨田区横川1-3-6","lat":35.702995,"lon":139.810013},{"name":"製紙原料サワムラ商店","province":"東京都","city":"墨田区","address":"墨田区太平1-18-11","lat":35.701523,"lon":139.809143},{"name":"東日紙業(株)  墨田支店","province":"東京都","city":"墨田区","address":"墨田区文花2-4-16","lat":35.708496,"lon":139.82637},{"name":"(有)石橋商店","province":"東京都","city":"墨田区","address":"墨田区向島3-10-11","lat":35.713501,"lon":139.807831},{"name":"(有)吉田容器店  東墨田工場","province":"東京都","city":"墨田区","address":"墨田区東墨田1-3-7","lat":35.717815,"lon":139.830734},{"name":"墨田区選挙管理委員会","province":"東京都","city":"墨田区","address":"墨田区吾妻橋1-23-20","lat":35.710505,"lon":139.801508},{"name":"墨田二丁目出張所","province":"東京都","city":"墨田区","address":"墨田区墨田二丁目36番11号","lat":35.731063,"lon":139.818292},{"name":"本所警察署","province":"東京都","city":"墨田区","address":"墨田区横川四丁目8番9号","lat":35.704847,"lon":139.815074},{"name":"向島警察署","province":"東京都","city":"墨田区","address":"墨田区文花三丁目18番9号","lat":35.711729,"lon":139.82726},{"name":"本所消防署","province":"東京都","city":"墨田区","address":"墨田区横川四丁目6番6号","lat":35.703922,"lon":139.815226},{"name":"本所防災館","province":"東京都","city":"墨田区","address":"墨田区横川四丁目6番6号","lat":35.703922,"lon":139.815226},{"name":"向島消防署","province":"東京都","city":"墨田区","address":"墨田区東向島六丁目22番3号","lat":35.723625,"lon":139.820023},{"name":"墨田都税事務所","province":"東京都","city":"墨田区","address":"墨田区業平一丁目7番4号","lat":35.707803,"lon":139.809041},{"name":"本所税務署","province":"東京都","city":"墨田区","address":"墨田区業平一丁目7番2号","lat":35.707541,"lon":139.809207},{"name":"向島税務署","province":"東京都","city":"墨田区","address":"墨田区東向島二丁目7番14号","lat":35.716957,"lon":139.815593},{"name":"水道局墨田営業所","province":"東京都","city":"墨田区","address":"墨田区千歳二丁目2番11号","lat":35.69051,"lon":139.795701},{"name":"下水道局東部第一下水道事務所墨田出張所","province":"東京都","city":"墨田区","address":"墨田区横網一丁目4番12号","lat":35.69702,"lon":139.795017},{"name":"向島郵便局","province":"東京都","city":"墨田区","address":"墨田区東向島二丁目32番25号","lat":35.719767,"lon":139.817301},{"name":"本所郵便局","province":"東京都","city":"墨田区","address":"墨田区太平四丁目21番2号","lat":35.702642,"lon":139.817771},{"name":"東京法務局墨田出張所","province":"東京都","city":"墨田区","address":"墨田区菊川一丁目17番13号","lat":35.68987,"lon":139.801716},{"name":"東京簡易裁判所墨田庁舎","province":"東京都","city":"墨田区","address":"墨田区錦糸四丁目16番7号","lat":35.698318,"lon":139.818312},{"name":"東京区検察庁墨田分室","province":"東京都","city":"墨田区","address":"墨田区錦糸四丁目16番7号","lat":35.698318,"lon":139.818312},{"name":"警視庁交通執行課墨田分室","province":"東京都","city":"墨田区","address":"墨田区錦糸四丁目16番7号","lat":35.698318,"lon":139.818312},{"name":"錦糸町公証役場","province":"東京都","city":"墨田区","address":"墨田区江東橋三丁目9番7号","lat":35.695082,"lon":139.813206},{"name":"向島公証役場","province":"東京都","city":"墨田区","address":"墨田区東向島六丁目1番3号","lat":35.722318,"lon":139.818681},{"name":"東京都第五建設事務所墨田工区","province":"東京都","city":"墨田区","address":"墨田区堤通一丁目16番4号","lat":35.725814,"lon":139.810888},{"name":"墨田年金事務所","province":"東京都","city":"墨田区","address":"墨田区立川三丁目8番12号","lat":35.691042,"lon":139.804712},{"name":"一般財団法人墨田まちづくり公社","province":"東京都","city":"墨田区","address":"墨田区東向島二丁目36番10号","lat":35.721369,"lon":139.817609},{"name":"一般財団法人墨田まちづくり公社京島事務所","province":"東京都","city":"墨田区","address":"墨田区京島二丁目15番5号","lat":35.713242,"lon":139.821051},{"name":"一般財団法人墨田まちづくり公社鐘ヶ淵事務所","province":"東京都","city":"墨田区","address":"墨田区墨田三丁目40番3号","lat":35.730741,"lon":139.822325},{"name":"社会福祉法人墨田区社会福祉事業団","province":"東京都","city":"墨田区","address":"墨田区向島三丁目36番7号","lat":35.71338,"lon":139.810876},{"name":"一般社団法人墨田区観光協会","province":"東京都","city":"墨田区","address":"墨田区押上一丁目1番2号東京スカイツリータウン・ソラマチ5階まち処内","lat":35.710434,"lon":139.812014},{"name":"公益財団法人墨田区文化振興財団","province":"東京都","city":"墨田区","address":"墨田区錦糸一丁目2番3号","lat":35.697304,"lon":139.810052},{"name":"ハローワーク墨田","province":"東京都","city":"墨田区","address":"墨田区江東橋二丁目19番12号","lat":35.696235,"lon":139.811413},{"name":"向島労働基準監督署","province":"東京都","city":"墨田区","address":"墨田区東向島四丁目33番13号","lat":35.725511,"lon":139.818772},{"name":"独立行政法人高齢・障害・求職者雇用支援機構東京支部","province":"東京都","city":"墨田区","address":"墨田区江東橋二丁目19番12号","lat":35.696235,"lon":139.811413},{"name":"公益社団法人墨田区シルバー人材センター","province":"東京都","city":"墨田区","address":"墨田区文花一丁目32番1号101","lat":35.708509,"lon":139.824936},{"name":"墨田区シルバー人材センター向島作業所","province":"東京都","city":"墨田区","address":"墨田区東向島一丁目17番11号","lat":35.720828,"lon":139.815445},{"name":"墨田区シルバー人材センター緑作業所","province":"東京都","city":"墨田区","address":"墨田区緑四丁目35番6号","lat":35.695825,"lon":139.807408},{"name":"公益社団法人墨田区勤労者福祉サービスセンター","province":"東京都","city":"墨田区","address":"墨田区押上二丁目12番7号215号室","lat":35.712706,"lon":139.811982},{"name":"国際ファッションセンター株式会社","province":"東京都","city":"墨田区","address":"墨田区横網一丁目6番1号","lat":35.698175,"lon":139.796902},{"name":"一般財団法人ファッション産業人材育成機構","province":"東京都","city":"墨田区","address":"墨田区横網一丁目6番1号KFCビル11階","lat":35.698175,"lon":139.796902},{"name":"東京都立皮革技術センター","province":"東京都","city":"墨田区","address":"墨田区東墨田三丁目3番14号","lat":35.720127,"lon":139.83351},{"name":"東京都立産業技術研究センター墨田支所","province":"東京都","city":"墨田区","address":"墨田区横網一丁目6番1号KFCビル12階","lat":35.698175,"lon":139.796902},{"name":"墨田区本庁舎","province":"東京都","city":"墨田区","address":"墨田区吾妻橋1-23-20","lat":35.710724,"lon":139.801497},{"name":"第二機動隊","province":"東京都","city":"墨田区","address":"墨田区横川5-7-2","lat":35.7047,"lon":139.818},{"name":"第七方面交通機動隊","province":"東京都","city":"墨田区","address":"墨田区横川4-8-9","lat":35.704848,"lon":139.815146},{"name":"本所警察署","province":"東京都","city":"墨田区","address":"墨田区横川4-8-9","lat":35.704848,"lon":139.815146},{"name":"向島警察署","province":"東京都","city":"墨田区","address":"墨田区文花3-18-9","lat":35.71174,"lon":139.8273},{"name":"本所消防署","province":"東京都","city":"墨田区","address":"墨田区横川4-6-6","lat":35.70395,"lon":139.8152},{"name":"向島消防署","province":"東京都","city":"墨田区","address":"墨田区東向島6-22-3","lat":35.72357,"lon":139.82},{"name":"白鬚東地区（旧都立忍岡高校跡地）","province":"東京都","city":"墨田区","address":"墨田区堤通2-15-14","lat":35.73423,"lon":139.815},{"name":"墨田清掃工場","province":"東京都","city":"墨田区","address":"墨田区東墨田1-10-23","lat":35.71749,"lon":139.8317},{"name":"墨田区立東墨田運動場","province":"東京都","city":"墨田区","address":"墨田区東墨田1-10","lat":35.71648,"lon":139.832},{"name":"都立墨東病院専用臨時ヘリポート","province":"東京都","city":"墨田区","address":"墨田区江東橋4-23-15","lat":35.695301,"lon":139.818796},{"name":"吾妻橋","province":"東京都","city":"墨田区","address":"墨田区吾妻橋1丁目先","lat":35.70801,"lon":139.7998},{"name":"江東自動車営業所","province":"東京都","city":"墨田区","address":"東京都墨田区江東橋4丁目30-10","lat":35.69657791,"lon":139.81804585},{"name":"吾妻橋会館","province":"東京都","city":"墨田区","address":"東京都墨田区吾妻橋1丁目23-27","lat":35.70972946,"lon":139.80144616},{"name":"墨田区子育て支援総合センター","province":"東京都","city":"墨田区","address":"墨田区京島1-35-9-103マーク・ゼロワン曳舟タワー棟1階","lat":35.716722,"lon":139.819675},{"name":"墨田区保健所","province":"東京都","city":"墨田区","address":"墨田区吾妻橋1-23-20","lat":35.710724,"lon":139.801496},{"name":"向島保健センター","province":"東京都","city":"墨田区","address":"墨田区東向島5-16-2","lat":35.725882,"lon":139.821106},{"name":"本所保健センター","province":"東京都","city":"墨田区","address":"墨田区東駒形1-6-4","lat":35.705438,"lon":139.798058},{"name":"墨田区","province":"東京都","city":"墨田区","address":"墨田区吾妻橋1-23-20","lat":35.7107242,"lon":139.8014967},{"name":"墨田都税事務所","province":"東京都","city":"墨田区","address":"東京都墨田区業平1丁目7-4","lat":35.70787,"lon":139.809143},{"name":"東京都江戸東京博物館","province":"東京都","city":"墨田区","address":"東京都墨田区横網1丁目4-1","lat":35.69647,"lon":139.7957},{"name":"東京都江戸東京博物館","province":"東京都","city":"墨田区","address":"東京都墨田区横網1丁目4-1","lat":35.69691,"lon":139.7958},{"name":"東京都江戸東京博物館","province":"東京都","city":"墨田区","address":"東京都墨田区横網1丁目4-1","lat":35.69665,"lon":139.7958},{"name":"東京都江戸東京博物館","province":"東京都","city":"墨田区","address":"東京都墨田区横網1丁目4-1","lat":35.69675,"lon":139.7956},{"name":"東京都江戸東京博物館","province":"東京都","city":"墨田区","address":"東京都墨田区横網1丁目4-1","lat":35.69627,"lon":139.7958},{"name":"東京都江戸東京博物館","province":"東京都","city":"墨田区","address":"東京都墨田区横網1丁目4-1","lat":35.69623,"lon":139.7965},{"name":"東京都江戸東京博物館","province":"東京都","city":"墨田区","address":"東京都墨田区横網1丁目4-1","lat":35.69676,"lon":139.7957},{"name":"東京都江戸東京博物館","province":"東京都","city":"墨田区","address":"東京都墨田区横網1丁目4-1","lat":35.69639,"lon":139.7956},{"name":"地方独立行政法人東京都立病院機構　東京都立墨東病院","province":"東京都","city":"墨田区","address":"東京都墨田区江東橋4丁目23","lat":35.694554,"lon":139.818952},{"name":"東白鬚公園","province":"東京都","city":"墨田区","address":"東京都墨田区堤通2丁目2","lat":35.733624,"lon":139.813864},{"name":"東白鬚公園","province":"東京都","city":"墨田区","address":"東京都墨田区堤通2丁目2","lat":35.72915,"lon":139.811966},{"name":"東白鬚公園","province":"東京都","city":"墨田区","address":"東京都墨田区堤通2丁目2","lat":35.737694,"lon":139.81688},{"name":"横網町公園","province":"東京都","city":"墨田区","address":"東京都墨田区横網2丁目3-25","lat":35.699951,"lon":139.796874},{"name":"横網町公園","province":"東京都","city":"墨田区","address":"東京都墨田区横網2丁目3","lat":35.699272,"lon":139.795551},{"name":"向島百花園","province":"東京都","city":"墨田区","address":"東京都墨田区東向島3丁目18","lat":35.724189,"lon":139.815271},{"name":"向島百花園","province":"東京都","city":"墨田区","address":"東京都墨田区東向島3丁目18","lat":35.724158,"lon":139.815293},{"name":"都営浅草線本所吾妻橋駅","province":"東京都","city":"墨田区","address":"東京都墨田区吾妻橋3丁目1","lat":35.708358,"lon":139.804465},{"name":"都営浅草線本所吾妻橋駅","province":"東京都","city":"墨田区","address":"東京都墨田区吾妻橋3丁目1","lat":35.708419,"lon":139.804475},{"name":"都営新宿線菊川駅","province":"東京都","city":"墨田区","address":"東京都墨田区菊川2丁目6","lat":35.688422,"lon":139.80556},{"name":"都営大江戸線両国駅","province":"東京都","city":"墨田区","address":"東京都墨田区亀沢1丁目7","lat":35.696873,"lon":139.797477},{"name":"東京都水道局墨田営業所","province":"東京都","city":"墨田区","address":"東京都墨田区千歳2丁目2-11","lat":35.690458,"lon":139.795839},{"name":"墨田区役所","province":"東京都","city":"墨田区","address":"東京都墨田区吾妻橋1丁目23-20","lat":35.710644,"lon":139.801307},{"name":"向島保健センター","province":"東京都","city":"墨田区","address":"東京都墨田区東向島5丁目16-2","lat":35.725694,"lon":139.821112},{"name":"横川出張所","province":"東京都","city":"墨田区","address":"東京都墨田区横川5丁目10-1","lat":35.705927,"lon":139.816389},{"name":"八広地域プラザ","province":"東京都","city":"墨田区","address":"東京都墨田区八広4丁目35-17","lat":35.723478,"lon":139.829337},{"name":"八広地域プラザ","province":"東京都","city":"墨田区","address":"東京都墨田区八広4丁目35-17","lat":35.723403,"lon":139.829296},{"name":"本所地域プラザ","province":"東京都","city":"墨田区","address":"東京都墨田区本所1丁目13-4","lat":35.703099,"lon":139.798797},{"name":"横川コミュニティ会館","province":"東京都","city":"墨田区","address":"東京都墨田区横川5丁目9-1","lat":35.705118,"lon":139.817496},{"name":"横川コミュニティ会館","province":"東京都","city":"墨田区","address":"東京都墨田区横川5丁目9-1","lat":35.705118,"lon":139.817404},{"name":"横川コミュニティ会館","province":"東京都","city":"墨田区","address":"東京都墨田区横川5丁目9-1","lat":35.705076,"lon":139.817404},{"name":"梅若橋コミュニティ会館","province":"東京都","city":"墨田区","address":"東京都墨田区堤通2丁目9-1","lat":35.735354,"lon":139.816656},{"name":"東駒形コミュニティ会館","province":"東京都","city":"墨田区","address":"東京都墨田区東駒形4丁目14-1","lat":35.705476,"lon":139.807771},{"name":"東墨田東公園","province":"東京都","city":"墨田区","address":"東京都墨田区東墨田3丁目19","lat":35.718431,"lon":139.837439},{"name":"ひきふね図書館","province":"東京都","city":"墨田区","address":"東京都墨田区京島1丁目36","lat":35.717059,"lon":139.819673},{"name":"ひきふね図書館","province":"東京都","city":"墨田区","address":"東京都墨田区京島1丁目36-1","lat":35.716857,"lon":139.819261},{"name":"ひきふね図書館","province":"東京都","city":"墨田区","address":"東京都墨田区京島1丁目36","lat":35.717003,"lon":139.819467},{"name":"ひきふね図書館","province":"東京都","city":"墨田区","address":"東京都墨田区京島1丁目36","lat":35.717026,"lon":139.819466},{"name":"立花図書館","province":"東京都","city":"墨田区","address":"東京都墨田区立花6丁目8-1","lat":35.710646,"lon":139.834938},{"name":"みどりコミュニティセンター","province":"東京都","city":"墨田区","address":"東京都墨田区緑3丁目7-3","lat":35.693553,"lon":139.803237},{"name":"すみだスポーツ健康センター","province":"東京都","city":"墨田区","address":"東京都墨田区東墨田1丁目6-1","lat":35.716461,"lon":139.830695},{"name":"すみだスポーツ健康センター","province":"東京都","city":"墨田区","address":"東京都墨田区東墨田1丁目6-1","lat":35.716509,"lon":139.830372},{"name":"すみだ郷土文化資料館","province":"東京都","city":"墨田区","address":"東京都墨田区向島2丁目3-5","lat":35.713875,"lon":139.805844},{"name":"すみだ生涯学習センター","province":"東京都","city":"墨田区","address":"東京都墨田区東向島2丁目38-7","lat":35.721243,"lon":139.818603},{"name":"すみだ生涯学習センター","province":"東京都","city":"墨田区","address":"東京都墨田区東向島2丁目38-7","lat":35.721144,"lon":139.818474},{"name":"すみだ北斎美術館","province":"東京都","city":"墨田区","address":"東京都墨田区亀沢2丁目7","lat":35.696255,"lon":139.800334},{"name":"すみだトリフォニーホール","province":"東京都","city":"墨田区","address":"東京都墨田区錦糸1丁目2-3","lat":35.697119,"lon":139.810005},{"name":"すみだ産業会館","province":"東京都","city":"墨田区","address":"東京都墨田区江東橋3丁目9-10","lat":35.695121,"lon":139.813771},{"name":"両国公園","province":"東京都","city":"墨田区","address":"東京都墨田区両国4丁目25","lat":35.693745,"lon":139.796132},{"name":"横川公園","province":"東京都","city":"墨田区","address":"東京都墨田区東駒形4丁目18","lat":35.706794,"lon":139.806817},{"name":"錦糸公園(東)","province":"東京都","city":"墨田区","address":"東京都墨田区錦糸4丁目15","lat":35.699337,"lon":139.817821},{"name":"ふじのき公園","province":"東京都","city":"墨田区","address":"東京都墨田区東向島2丁目7","lat":35.71734,"lon":139.815424},{"name":"ひいらぎ公園","province":"東京都","city":"墨田区","address":"東京都墨田区八広1丁目16","lat":35.720225,"lon":139.82238},{"name":"東向島北公園","province":"東京都","city":"墨田区","address":"東京都墨田区東向島4丁目12","lat":35.725569,"lon":139.815881},{"name":"八広中央公園","province":"東京都","city":"墨田区","address":"東京都墨田区八広3丁目13","lat":35.719212,"lon":139.827258},{"name":"どんぐり児童遊園","province":"東京都","city":"墨田区","address":"東京都墨田区緑3丁目12","lat":35.694579,"lon":139.804697},{"name":"かつら児童遊園","province":"東京都","city":"墨田区","address":"東京都墨田区墨田3丁目36","lat":35.731337,"lon":139.820688},{"name":"六軒児童遊園","province":"東京都","city":"墨田区","address":"東京都墨田区立花3丁目18","lat":35.706101,"lon":139.834398},{"name":"中之郷児童遊園","province":"東京都","city":"墨田区","address":"東京都墨田区押上2丁目12","lat":35.712326,"lon":139.81225},{"name":"八広第一児童遊園","province":"東京都","city":"墨田区","address":"東京都墨田区八広5丁目7","lat":35.724305,"lon":139.823966},{"name":"くるみ児童遊園","province":"東京都","city":"墨田区","address":"東京都墨田区業平5丁目1","lat":35.706257,"lon":139.816161},{"name":"日進公園","province":"東京都","city":"墨田区","address":"東京都墨田区亀沢3丁目24","lat":35.698564,"lon":139.804482},{"name":"若宮公園","province":"東京都","city":"墨田区","address":"東京都墨田区本所2丁目2","lat":35.702289,"lon":139.801135},{"name":"隅田第二児童遊園","province":"東京都","city":"墨田区","address":"東京都墨田区墨田4丁目8","lat":35.732715,"lon":139.821937},{"name":"すみだボランティアセンター","province":"東京都","city":"墨田区","address":"東京都墨田区東向島2丁目17-14","lat":35.718426,"lon":139.815648},{"name":"立花公園","province":"東京都","city":"墨田区","address":"東京都墨田区立花1丁目27","lat":35.70497,"lon":139.828861},{"name":"墨田二丁目児童遊園","province":"東京都","city":"墨田区","address":"東京都墨田区墨田2丁目42","lat":35.732113,"lon":139.818787},{"name":"両国橋際","province":"東京都","city":"墨田区","address":"東京都墨田区両国1丁目11","lat":35.693893,"lon":139.789772},{"name":"江東橋際公衆便所","province":"東京都","city":"墨田区","address":"東京都墨田区江東橋1丁目8","lat":35.694991,"lon":139.809163},{"name":"江東橋公園","province":"東京都","city":"墨田区","address":"東京都墨田区江東橋2丁目4","lat":35.693908,"lon":139.811341},{"name":"錦糸町駅前公衆便所","province":"東京都","city":"墨田区","address":"東京都墨田区江東橋3丁目14","lat":35.696056,"lon":139.814536},{"name":"錦糸堀公園","province":"東京都","city":"墨田区","address":"東京都墨田区江東橋4丁目17","lat":35.694883,"lon":139.816527},{"name":"緑町公園","province":"東京都","city":"墨田区","address":"東京都墨田区亀沢2丁目7","lat":35.696814,"lon":139.800654},{"name":"まち歩きトイレ業平橋","province":"東京都","city":"墨田区","address":"東京都墨田区東駒形4丁目15","lat":35.708502,"lon":139.807401},{"name":"錦糸公園内","province":"東京都","city":"墨田区","address":"東京都墨田区錦糸4丁目15","lat":35.698551,"lon":139.81509},{"name":"京成橋際","province":"東京都","city":"墨田区","address":"東京都墨田区業平4丁目17","lat":35.709468,"lon":139.813995},{"name":"柳島橋際","province":"東京都","city":"墨田区","address":"東京都墨田区業平5丁目7","lat":35.70778,"lon":139.818316},{"name":"東武橋際","province":"東京都","city":"墨田区","address":"東京都墨田区向島1丁目32","lat":35.709669,"lon":139.808324},{"name":"まち歩きトイレ言問","province":"東京都","city":"墨田区","address":"東京都墨田区向島2丁目1","lat":35.713392,"lon":139.80515},{"name":"両国駅西口公衆便所","province":"東京都","city":"墨田区","address":"東京都墨田区横網1丁目3","lat":35.696124,"lon":139.792019},{"name":"まち歩きトイレ錦糸","province":"東京都","city":"墨田区","address":"東京都墨田区錦糸1丁目1","lat":35.697412,"lon":139.808969},{"name":"押上駅前自転車駐車場内","province":"東京都","city":"墨田区","address":"東京都墨田区押上1丁目8-25","lat":35.710999,"lon":139.813917},{"name":"東墨田一丁目","province":"東京都","city":"墨田区","address":"東京都墨田区東墨田1丁目10","lat":35.716234,"lon":139.832784},{"name":"立花五丁目","province":"東京都","city":"墨田区","address":"東京都墨田区立花5丁目50","lat":35.713365,"lon":139.833487},{"name":"平井橋際","province":"東京都","city":"墨田区","address":"東京都墨田区立花3丁目29","lat":35.708485,"lon":139.837197},{"name":"小村井","province":"東京都","city":"墨田区","address":"東京都墨田区文花2丁目1","lat":35.708249,"lon":139.825395},{"name":"墨田区社会福祉会館","province":"東京都","city":"墨田区","address":"東京都墨田区東墨田2丁目7-1","lat":35.719067,"lon":139.830251},{"name":"すみだ福祉保健センター","province":"東京都","city":"墨田区","address":"東京都墨田区向島3丁目36-7","lat":35.713311,"lon":139.810886},{"name":"すみだ福祉保健センター","province":"東京都","city":"墨田区","address":"東京都墨田区向島3丁目36-7","lat":35.713307,"lon":139.810885},{"name":"すみだ福祉保健センター","province":"東京都","city":"墨田区","address":"東京都墨田区向島3丁目36-7","lat":35.713334,"lon":139.810767},{"name":"墨田区弓道場","province":"東京都","city":"墨田区","address":"東京都墨田区江東橋4丁目1-3","lat":35.693386,"lon":139.817352},{"name":"子育て支援総合センター","province":"東京都","city":"墨田区","address":"東京都墨田区京島1丁目35-9","lat":35.716819,"lon":139.819728},{"name":"梅若ゆうゆう館","province":"東京都","city":"墨田区","address":"東京都墨田区墨田1丁目4-4","lat":35.72908,"lon":139.815151},{"name":"立花ゆうゆう館","province":"東京都","city":"墨田区","address":"東京都墨田区立花6丁目8-1","lat":35.710599,"lon":139.834969},{"name":"いきいきプラザ","province":"東京都","city":"墨田区","address":"東京都墨田区文花1丁目32-2","lat":35.707543,"lon":139.823451},{"name":"すみだ女性センター","province":"東京都","city":"墨田区","address":"東京都墨田区押上2丁目12-7","lat":35.712918,"lon":139.812163},{"name":"墨田区総合運動場","province":"東京都","city":"墨田区","address":"東京都墨田区堤通2丁目11","lat":35.737941,"lon":139.816077},{"name":"墨田区総合運動場","province":"東京都","city":"墨田区","address":"東京都墨田区堤通2丁目11","lat":35.73826,"lon":139.816194},{"name":"両国屋内プール","province":"東京都","city":"墨田区","address":"東京都墨田区横網1丁目8-1","lat":35.697672,"lon":139.796324},{"name":"両国屋内プール","province":"東京都","city":"墨田区","address":"東京都墨田区横網1丁目8-1","lat":35.697926,"lon":139.796428},{"name":"スポーツプラザ梅若","province":"東京都","city":"墨田区","address":"東京都墨田区墨田1丁目4-4","lat":35.72904,"lon":139.81565},{"name":"両国子育てひろば保育室","province":"東京都","city":"墨田区","address":"東京都墨田区横網1丁目2-13","lat":35.697787,"lon":139.792418},{"name":"両国子育てひろば","province":"東京都","city":"墨田区","address":"東京都墨田区横網1丁目2-13","lat":35.697787,"lon":139.792418},{"name":"文花子育てひろば","province":"東京都","city":"墨田区","address":"東京都墨田区文花1丁目20-7","lat":35.710614,"lon":139.822368},{"name":"墨田区総合体育館","province":"東京都","city":"墨田区","address":"東京都墨田区錦糸4丁目15-1","lat":35.699324,"lon":139.816798},{"name":"墨田区総合体育館","province":"東京都","city":"墨田区","address":"東京都墨田区錦糸4丁目15-1","lat":35.699732,"lon":139.816784},{"name":"墨田区総合体育館","province":"東京都","city":"墨田区","address":"東京都墨田区錦糸4丁目15-1","lat":35.699316,"lon":139.81745},{"name":"墨田区総合体育館","province":"東京都","city":"墨田区","address":"東京都墨田区錦糸4丁目15-1","lat":35.699794,"lon":139.817374},{"name":"墨田区総合体育館","province":"東京都","city":"墨田区","address":"東京都墨田区錦糸4丁目15-1","lat":35.699292,"lon":139.817424},{"name":"墨田区総合体育館","province":"東京都","city":"墨田区","address":"東京都墨田区錦糸4丁目15-1","lat":35.699786,"lon":139.817067},{"name":"墨田区総合体育館","province":"東京都","city":"墨田区","address":"東京都墨田区錦糸4丁目15-1","lat":35.699305,"lon":139.816816},{"name":"墨田区総合体育館","province":"東京都","city":"墨田区","address":"東京都墨田区錦糸4丁目15-1","lat":35.699297,"lon":139.817421},{"name":"墨田区総合体育館","province":"東京都","city":"墨田区","address":"東京都墨田区錦糸4丁目15-1","lat":35.699804,"lon":139.81726},{"name":"墨田区総合体育館","province":"東京都","city":"墨田区","address":"東京都墨田区錦糸4丁目15-1","lat":35.699303,"lon":139.817335},{"name":"荒川河川敷運動場","province":"東京都","city":"墨田区","address":"東京都墨田区墨田4丁目","lat":35.736513,"lon":139.82236},{"name":"荒川河川敷運動場","province":"東京都","city":"墨田区","address":"東京都墨田区墨田4丁目","lat":35.732205,"lon":139.826014},{"name":"荒川河川敷運動場","province":"東京都","city":"墨田区","address":"東京都墨田区八広6丁目","lat":35.730235,"lon":139.828012},{"name":"屋外体育施設管理事務所錦糸支所","province":"東京都","city":"墨田区","address":"東京都墨田区錦糸4丁目15","lat":35.698556,"lon":139.815057},{"name":"五間堀公園","province":"東京都","city":"墨田区","address":"東京都墨田区立川1丁目1","lat":35.689435,"lon":139.798429},{"name":"墨田区保健所","province":"東京都","city":"墨田区","address":"東京都墨田区吾妻橋1丁目23-20","lat":35.71072382,"lon":139.80149602},{"name":"向島保健センター","province":"東京都","city":"墨田区","address":"東京都墨田区東向島5丁目16-2","lat":35.72588248,"lon":139.82110559},{"name":"本所保健センター","province":"東京都","city":"墨田区","address":"東京都墨田区東駒形1丁目6-4","lat":35.7054382,"lon":139.79805828},{"name":"墨田区保健所","province":"東京都","city":"墨田区","address":"墨田区吾妻橋1-23-20","lat":35.71006,"lon":139.8011},{"name":"向島保健センター","province":"東京都","city":"墨田区","address":"墨田区東向島5-16-2","lat":35.72611,"lon":139.82111},{"name":"本所保健センター","province":"東京都","city":"墨田区","address":"墨田区東駒形1-6-4","lat":35.70532,"lon":139.79796},{"name":"墨田区子育て支援総合センター","province":"東京都","city":"墨田区","address":"墨田区京島1-35-9-103マーク・ゼロワン曳舟タワー棟1階","lat":35.71669,"lon":139.81969},{"name":"墨田区子育て支援総合センター","province":"東京都","city":"墨田区","address":"墨田区京島1-35-9-103マーク・ゼロワン曳舟タワー棟1階","lat":35.71594,"lon":139.81821},{"name":"(株)山室  隅田店","province":"東京都","city":"墨田区","address":"墨田区堤通1-17-27","lat":35.725731,"lon":139.811493},{"name":"(有)藤本春吉商店","province":"東京都","city":"墨田区","address":"墨田区立川3-1-14","lat":35.690201,"lon":139.803909},{"name":"(有)吉田容器店","province":"東京都","city":"墨田区","address":"墨田区立花3-23-12","lat":35.707401,"lon":139.835144},{"name":"東京レンダリング(協)","province":"東京都","city":"墨田区","address":"墨田区東墨田1-9-1","lat":35.715397,"lon":139.832275},{"name":"二興金属(株)","province":"東京都","city":"墨田区","address":"墨田区本所1-10-11","lat":35.702209,"lon":139.798264},{"name":"(株)五井金属","province":"東京都","city":"墨田区","address":"墨田区立川2-7-1","lat":35.69091,"lon":139.801361},{"name":"(有)塚越商店","province":"東京都","city":"墨田区","address":"墨田区東駒形4-20-9","lat":35.707268,"lon":139.804611},{"name":"(株)野口茂樹商店","province":"東京都","city":"墨田区","address":"墨田区横川1-3-6","lat":35.702995,"lon":139.810013},{"name":"製紙原料サワムラ商店","province":"東京都","city":"墨田区","address":"墨田区太平1-18-11","lat":35.701523,"lon":139.809143},{"name":"東日紙業(株)  墨田支店","province":"東京都","city":"墨田区","address":"墨田区文花2-4-16","lat":35.708496,"lon":139.82637},{"name":"(有)石橋商店","province":"東京都","city":"墨田区","address":"墨田区向島3-10-11","lat":35.713501,"lon":139.807831},{"name":"(有)吉田容器店  東墨田工場","province":"東京都","city":"墨田区","address":"墨田区東墨田1-3-7","lat":35.717815,"lon":139.830734},{"name":"墨田区選挙管理委員会","province":"東京都","city":"墨田区","address":"墨田区吾妻橋1-23-20","lat":35.710505,"lon":139.801508},{"name":"墨田二丁目出張所","province":"東京都","city":"墨田区","address":"墨田区墨田二丁目36番11号","lat":35.731063,"lon":139.818292},{"name":"本所警察署","province":"東京都","city":"墨田区","address":"墨田区横川四丁目8番9号","lat":35.704847,"lon":139.815074},{"name":"向島警察署","province":"東京都","city":"墨田区","address":"墨田区文花三丁目18番9号","lat":35.711729,"lon":139.82726},{"name":"本所消防署","province":"東京都","city":"墨田区","address":"墨田区横川四丁目6番6号","lat":35.703922,"lon":139.815226},{"name":"本所防災館","province":"東京都","city":"墨田区","address":"墨田区横川四丁目6番6号","lat":35.703922,"lon":139.815226},{"name":"向島消防署","province":"東京都","city":"墨田区","address":"墨田区東向島六丁目22番3号","lat":35.723625,"lon":139.820023},{"name":"墨田都税事務所","province":"東京都","city":"墨田区","address":"墨田区業平一丁目7番4号","lat":35.707803,"lon":139.809041},{"name":"本所税務署","province":"東京都","city":"墨田区","address":"墨田区業平一丁目7番2号","lat":35.707541,"lon":139.809207},{"name":"向島税務署","province":"東京都","city":"墨田区","address":"墨田区東向島二丁目7番14号","lat":35.716957,"lon":139.815593},{"name":"水道局墨田営業所","province":"東京都","city":"墨田区","address":"墨田区千歳二丁目2番11号","lat":35.69051,"lon":139.795701},{"name":"下水道局東部第一下水道事務所墨田出張所","province":"東京都","city":"墨田区","address":"墨田区横網一丁目4番12号","lat":35.69702,"lon":139.795017},{"name":"向島郵便局","province":"東京都","city":"墨田区","address":"墨田区東向島二丁目32番25号","lat":35.719767,"lon":139.817301},{"name":"本所郵便局","province":"東京都","city":"墨田区","address":"墨田区太平四丁目21番2号","lat":35.702642,"lon":139.817771},{"name":"東京法務局墨田出張所","province":"東京都","city":"墨田区","address":"墨田区菊川一丁目17番13号","lat":35.68987,"lon":139.801716},{"name":"東京簡易裁判所墨田庁舎","province":"東京都","city":"墨田区","address":"墨田区錦糸四丁目16番7号","lat":35.698318,"lon":139.818312},{"name":"東京区検察庁墨田分室","province":"東京都","city":"墨田区","address":"墨田区錦糸四丁目16番7号","lat":35.698318,"lon":139.818312},{"name":"警視庁交通執行課墨田分室","province":"東京都","city":"墨田区","address":"墨田区錦糸四丁目16番7号","lat":35.698318,"lon":139.818312},{"name":"錦糸町公証役場","province":"東京都","city":"墨田区","address":"墨田区江東橋三丁目9番7号","lat":35.695082,"lon":139.813206},{"name":"向島公証役場","province":"東京都","city":"墨田区","address":"墨田区東向島六丁目1番3号","lat":35.722318,"lon":139.818681},{"name":"東京都第五建設事務所墨田工区","province":"東京都","city":"墨田区","address":"墨田区堤通一丁目16番4号","lat":35.725814,"lon":139.810888},{"name":"墨田年金事務所","province":"東京都","city":"墨田区","address":"墨田区立川三丁目8番12号","lat":35.691042,"lon":139.804712},{"name":"一般財団法人墨田まちづくり公社","province":"東京都","city":"墨田区","address":"墨田区東向島二丁目36番10号","lat":35.721369,"lon":139.817609},{"name":"一般財団法人墨田まちづくり公社京島事務所","province":"東京都","city":"墨田区","address":"墨田区京島二丁目15番5号","lat":35.713242,"lon":139.821051},{"name":"一般財団法人墨田まちづくり公社鐘ヶ淵事務所","province":"東京都","city":"墨田区","address":"墨田区墨田三丁目40番3号","lat":35.730741,"lon":139.822325},{"name":"社会福祉法人墨田区社会福祉事業団","province":"東京都","city":"墨田区","address":"墨田区向島三丁目36番7号","lat":35.71338,"lon":139.810876},{"name":"一般社団法人墨田区観光協会","province":"東京都","city":"墨田区","address":"墨田区押上一丁目1番2号東京スカイツリータウン・ソラマチ5階まち処内","lat":35.710434,"lon":139.812014},{"name":"公益財団法人墨田区文化振興財団","province":"東京都","city":"墨田区","address":"墨田区錦糸一丁目2番3号","lat":35.697304,"lon":139.810052},{"name":"ハローワーク墨田","province":"東京都","city":"墨田区","address":"墨田区江東橋二丁目19番12号","lat":35.696235,"lon":139.811413},{"name":"向島労働基準監督署","province":"東京都","city":"墨田区","address":"墨田区東向島四丁目33番13号","lat":35.725511,"lon":139.818772},{"name":"独立行政法人高齢・障害・求職者雇用支援機構東京支部","province":"東京都","city":"墨田区","address":"墨田区江東橋二丁目19番12号","lat":35.696235,"lon":139.811413},{"name":"公益社団法人墨田区シルバー人材センター","province":"東京都","city":"墨田区","address":"墨田区文花一丁目32番1号101","lat":35.708509,"lon":139.824936},{"name":"墨田区シルバー人材センター向島作業所","province":"東京都","city":"墨田区","address":"墨田区東向島一丁目17番11号","lat":35.720828,"lon":139.815445},{"name":"墨田区シルバー人材センター緑作業所","province":"東京都","city":"墨田区","address":"墨田区緑四丁目35番6号","lat":35.695825,"lon":139.807408},{"name":"公益社団法人墨田区勤労者福祉サービスセンター","province":"東京都","city":"墨田区","address":"墨田区押上二丁目12番7号215号室","lat":35.712706,"lon":139.811982},{"name":"国際ファッションセンター株式会社","province":"東京都","city":"墨田区","address":"墨田区横網一丁目6番1号","lat":35.698175,"lon":139.796902},{"name":"一般財団法人ファッション産業人材育成機構","province":"東京都","city":"墨田区","address":"墨田区横網一丁目6番1号KFCビル11階","lat":35.698175,"lon":139.796902},{"name":"東京都立皮革技術センター","province":"東京都","city":"墨田区","address":"墨田区東墨田三丁目3番14号","lat":35.720127,"lon":139.83351},{"name":"東京都立産業技術研究センター墨田支所","province":"東京都","city":"墨田区","address":"墨田区横網一丁目6番1号KFCビル12階","lat":35.698175,"lon":139.796902},{"name":"吾妻橋会館","province":"東京都","city":"墨田区","address":"東京都墨田区吾妻橋1丁目23-27","lat":35.70972946,"lon":139.80144616},{"name":"墨田区子育て支援総合センター","province":"東京都","city":"墨田区","address":"墨田区京島1-35-9-103マーク・ゼロワン曳舟タワー棟1階","lat":35.716722,"lon":139.819675},{"name":"墨田区保健所","province":"東京都","city":"墨田区","address":"墨田区吾妻橋1-23-20","lat":35.710724,"lon":139.801496},{"name":"向島保健センター","province":"東京都","city":"墨田区","address":"墨田区東向島5-16-2","lat":35.725882,"lon":139.821106},{"name":"本所保健センター","province":"東京都","city":"墨田区","address":"墨田区東駒形1-6-4","lat":35.705438,"lon":139.798058},{"name":"墨田区","province":"東京都","city":"墨田区","address":"墨田区吾妻橋1-23-20","lat":35.7107242,"lon":139.8014967},{"name":"墨田区保健所","province":"東京都","city":"墨田区","address":"東京都墨田区吾妻橋1丁目23-20","lat":35.71072382,"lon":139.80149602},{"name":"向島保健センター","province":"東京都","city":"墨田区","address":"東京都墨田区東向島5丁目16-2","lat":35.72588248,"lon":139.82110559},{"name":"本所保健センター","province":"東京都","city":"墨田区","address":"東京都墨田区東駒形1丁目6-4","lat":35.7054382,"lon":139.79805828},{"name":"墨田区保健所","province":"東京都","city":"墨田区","address":"墨田区吾妻橋1-23-20","lat":35.71006,"lon":139.8011},{"name":"向島保健センター","province":"東京都","city":"墨田区","address":"墨田区東向島5-16-2","lat":35.72611,"lon":139.82111},{"name":"本所保健センター","province":"東京都","city":"墨田区","address":"墨田区東駒形1-6-4","lat":35.70532,"lon":139.79796},{"name":"墨田区子育て支援総合センター","province":"東京都","city":"墨田区","address":"墨田区京島1-35-9-103マーク・ゼロワン曳舟タワー棟1階","lat":35.71669,"lon":139.81969},{"name":"墨田区子育て支援総合センター","province":"東京都","city":"墨田区","address":"墨田区京島1-35-9-103マーク・ゼロワン曳舟タワー棟1階","lat":35.71594,"lon":139.81821},{"name":"(株)山室  隅田店","province":"東京都","city":"墨田区","address":"墨田区堤通1-17-27","lat":35.725731,"lon":139.811493},{"name":"(有)藤本春吉商店","province":"東京都","city":"墨田区","address":"墨田区立川3-1-14","lat":35.690201,"lon":139.803909},{"name":"(有)吉田容器店","province":"東京都","city":"墨田区","address":"墨田区立花3-23-12","lat":35.707401,"lon":139.835144},{"name":"東京レンダリング(協)","province":"東京都","city":"墨田区","address":"墨田区東墨田1-9-1","lat":35.715397,"lon":139.832275},{"name":"二興金属(株)","province":"東京都","city":"墨田区","address":"墨田区本所1-10-11","lat":35.702209,"lon":139.798264},{"name":"(株)五井金属","province":"東京都","city":"墨田区","address":"墨田区立川2-7-1","lat":35.69091,"lon":139.801361},{"name":"(有)塚越商店","province":"東京都","city":"墨田区","address":"墨田区東駒形4-20-9","lat":35.707268,"lon":139.804611},{"name":"(株)野口茂樹商店","province":"東京都","city":"墨田区","address":"墨田区横川1-3-6","lat":35.702995,"lon":139.810013},{"name":"製紙原料サワムラ商店","province":"東京都","city":"墨田区","address":"墨田区太平1-18-11","lat":35.701523,"lon":139.809143},{"name":"東日紙業(株)  墨田支店","province":"東京都","city":"墨田区","address":"墨田区文花2-4-16","lat":35.708496,"lon":139.82637},{"name":"(有)石橋商店","province":"東京都","city":"墨田区","address":"墨田区向島3-10-11","lat":35.713501,"lon":139.807831},{"name":"(有)吉田容器店  東墨田工場","province":"東京都","city":"墨田区","address":"墨田区東墨田1-3-7","lat":35.717815,"lon":139.830734},{"name":"墨田区選挙管理委員会","province":"東京都","city":"墨田区","address":"墨田区吾妻橋1-23-20","lat":35.710505,"lon":139.801508},{"name":"墨田二丁目出張所","province":"東京都","city":"墨田区","address":"墨田区墨田二丁目36番11号","lat":35.731063,"lon":139.818292},{"name":"本所警察署","province":"東京都","city":"墨田区","address":"墨田区横川四丁目8番9号","lat":35.704847,"lon":139.815074},{"name":"向島警察署","province":"東京都","city":"墨田区","address":"墨田区文花三丁目18番9号","lat":35.711729,"lon":139.82726},{"name":"本所消防署","province":"東京都","city":"墨田区","address":"墨田区横川四丁目6番6号","lat":35.703922,"lon":139.815226},{"name":"本所防災館","province":"東京都","city":"墨田区","address":"墨田区横川四丁目6番6号","lat":35.703922,"lon":139.815226},{"name":"向島消防署","province":"東京都","city":"墨田区","address":"墨田区東向島六丁目22番3号","lat":35.723625,"lon":139.820023},{"name":"墨田都税事務所","province":"東京都","city":"墨田区","address":"墨田区業平一丁目7番4号","lat":35.707803,"lon":139.809041},{"name":"本所税務署","province":"東京都","city":"墨田区","address":"墨田区業平一丁目7番2号","lat":35.707541,"lon":139.809207},{"name":"向島税務署","province":"東京都","city":"墨田区","address":"墨田区東向島二丁目7番14号","lat":35.716957,"lon":139.815593},{"name":"水道局墨田営業所","province":"東京都","city":"墨田区","address":"墨田区千歳二丁目2番11号","lat":35.69051,"lon":139.795701},{"name":"下水道局東部第一下水道事務所墨田出張所","province":"東京都","city":"墨田区","address":"墨田区横網一丁目4番12号","lat":35.69702,"lon":139.795017},{"name":"向島郵便局","province":"東京都","city":"墨田区","address":"墨田区東向島二丁目32番25号","lat":35.719767,"lon":139.817301},{"name":"本所郵便局","province":"東京都","city":"墨田区","address":"墨田区太平四丁目21番2号","lat":35.702642,"lon":139.817771},{"name":"東京法務局墨田出張所","province":"東京都","city":"墨田区","address":"墨田区菊川一丁目17番13号","lat":35.68987,"lon":139.801716},{"name":"東京簡易裁判所墨田庁舎","province":"東京都","city":"墨田区","address":"墨田区錦糸四丁目16番7号","lat":35.698318,"lon":139.818312},{"name":"東京区検察庁墨田分室","province":"東京都","city":"墨田区","address":"墨田区錦糸四丁目16番7号","lat":35.698318,"lon":139.818312},{"name":"警視庁交通執行課墨田分室","province":"東京都","city":"墨田区","address":"墨田区錦糸四丁目16番7号","lat":35.698318,"lon":139.818312},{"name":"錦糸町公証役場","province":"東京都","city":"墨田区","address":"墨田区江東橋三丁目9番7号","lat":35.695082,"lon":139.813206},{"name":"向島公証役場","province":"東京都","city":"墨田区","address":"墨田区東向島六丁目1番3号","lat":35.722318,"lon":139.818681},{"name":"東京都第五建設事務所墨田工区","province":"東京都","city":"墨田区","address":"墨田区堤通一丁目16番4号","lat":35.725814,"lon":139.810888},{"name":"墨田年金事務所","province":"東京都","city":"墨田区","address":"墨田区立川三丁目8番12号","lat":35.691042,"lon":139.804712},{"name":"一般財団法人墨田まちづくり公社","province":"東京都","city":"墨田区","address":"墨田区東向島二丁目36番10号","lat":35.721369,"lon":139.817609},{"name":"一般財団法人墨田まちづくり公社京島事務所","province":"東京都","city":"墨田区","address":"墨田区京島二丁目15番5号","lat":35.713242,"lon":139.821051},{"name":"一般財団法人墨田まちづくり公社鐘ヶ淵事務所","province":"東京都","city":"墨田区","address":"墨田区墨田三丁目40番3号","lat":35.730741,"lon":139.822325},{"name":"社会福祉法人墨田区社会福祉事業団","province":"東京都","city":"墨田区","address":"墨田区向島三丁目36番7号","lat":35.71338,"lon":139.810876},{"name":"一般社団法人墨田区観光協会","province":"東京都","city":"墨田区","address":"墨田区押上一丁目1番2号東京スカイツリータウン・ソラマチ5階まち処内","lat":35.710434,"lon":139.812014},{"name":"公益財団法人墨田区文化振興財団","province":"東京都","city":"墨田区","address":"墨田区錦糸一丁目2番3号","lat":35.697304,"lon":139.810052},{"name":"ハローワーク墨田","province":"東京都","city":"墨田区","address":"墨田区江東橋二丁目19番12号","lat":35.696235,"lon":139.811413},{"name":"向島労働基準監督署","province":"東京都","city":"墨田区","address":"墨田区東向島四丁目33番13号","lat":35.725511,"lon":139.818772},{"name":"独立行政法人高齢・障害・求職者雇用支援機構東京支部","province":"東京都","city":"墨田区","address":"墨田区江東橋二丁目19番12号","lat":35.696235,"lon":139.811413},{"name":"公益社団法人墨田区シルバー人材センター","province":"東京都","city":"墨田区","address":"墨田区文花一丁目32番1号101","lat":35.708509,"lon":139.824936},{"name":"墨田区シルバー人材センター向島作業所","province":"東京都","city":"墨田区","address":"墨田区東向島一丁目17番11号","lat":35.720828,"lon":139.815445},{"name":"墨田区シルバー人材センター緑作業所","province":"東京都","city":"墨田区","address":"墨田区緑四丁目35番6号","lat":35.695825,"lon":139.807408},{"name":"公益社団法人墨田区勤労者福祉サービスセンター","province":"東京都","city":"墨田区","address":"墨田区押上二丁目12番7号215号室","lat":35.712706,"lon":139.811982},{"name":"国際ファッションセンター株式会社","province":"東京都","city":"墨田区","address":"墨田区横網一丁目6番1号","lat":35.698175,"lon":139.796902},{"name":"一般財団法人ファッション産業人材育成機構","province":"東京都","city":"墨田区","address":"墨田区横網一丁目6番1号KFCビル11階","lat":35.698175,"lon":139.796902},{"name":"東京都立皮革技術センター","province":"東京都","city":"墨田区","address":"墨田区東墨田三丁目3番14号","lat":35.720127,"lon":139.83351},{"name":"東京都立産業技術研究センター墨田支所","province":"東京都","city":"墨田区","address":"墨田区横網一丁目6番1号KFCビル12階","lat":35.698175,"lon":139.796902},{"name":"吾妻橋会館","province":"東京都","city":"墨田区","address":"東京都墨田区吾妻橋1丁目23-27","lat":35.70972946,"lon":139.80144616},{"name":"墨田区保健所","province":"東京都","city":"墨田区","address":"墨田区吾妻橋1-23-20","lat":35.710724,"lon":139.801496},{"name":"向島保健センター","province":"東京都","city":"墨田区","address":"墨田区東向島5-16-2","lat":35.725882,"lon":139.821106},{"name":"本所保健センター","province":"東京都","city":"墨田区","address":"墨田区東駒形1-6-4","lat":35.705438,"lon":139.798058},{"name":"墨田区","province":"東京都","city":"墨田区","address":"墨田区吾妻橋1-23-20","lat":35.7107242,"lon":139.8014967},{"name":"墨田区保健所","province":"東京都","city":"墨田区","address":"東京都墨田区吾妻橋1丁目23-20","lat":35.71072382,"lon":139.80149602},{"name":"向島保健センター","province":"東京都","city":"墨田区","address":"東京都墨田区東向島5丁目16-2","lat":35.72588248,"lon":139.82110559},{"name":"本所保健センター","province":"東京都","city":"墨田区","address":"東京都墨田区東駒形1丁目6-4","lat":35.7054382,"lon":139.79805828},{"name":"墨田区保健所","province":"東京都","city":"墨田区","address":"墨田区吾妻橋1-23-20","lat":35.71006,"lon":139.8011},{"name":"向島保健センター","province":"東京都","city":"墨田区","address":"墨田区東向島5-16-2","lat":35.72611,"lon":139.82111},{"name":"本所保健センター","province":"東京都","city":"墨田区","address":"墨田区東駒形1-6-4","lat":35.70532,"lon":139.79796},{"name":"(株)山室  隅田店","province":"東京都","city":"墨田区","address":"墨田区堤通1-17-27","lat":35.725731,"lon":139.811493},{"name":"(有)藤本春吉商店","province":"東京都","city":"墨田区","address":"墨田区立川3-1-14","lat":35.690201,"lon":139.803909},{"name":"(有)吉田容器店","province":"東京都","city":"墨田区","address":"墨田区立花3-23-12","lat":35.707401,"lon":139.835144},{"name":"東京レンダリング(協)","province":"東京都","city":"墨田区","address":"墨田区東墨田1-9-1","lat":35.715397,"lon":139.832275},{"name":"二興金属(株)","province":"東京都","city":"墨田区","address":"墨田区本所1-10-11","lat":35.702209,"lon":139.798264},{"name":"(株)五井金属","province":"東京都","city":"墨田区","address":"墨田区立川2-7-1","lat":35.69091,"lon":139.801361},{"name":"(有)塚越商店","province":"東京都","city":"墨田区","address":"墨田区東駒形4-20-9","lat":35.707268,"lon":139.804611},{"name":"(株)野口茂樹商店","province":"東京都","city":"墨田区","address":"墨田区横川1-3-6","lat":35.702995,"lon":139.810013},{"name":"製紙原料サワムラ商店","province":"東京都","city":"墨田区","address":"墨田区太平1-18-11","lat":35.701523,"lon":139.809143},{"name":"東日紙業(株)  墨田支店","province":"東京都","city":"墨田区","address":"墨田区文花2-4-16","lat":35.708496,"lon":139.82637},{"name":"(有)石橋商店","province":"東京都","city":"墨田区","address":"墨田区向島3-10-11","lat":35.713501,"lon":139.807831},{"name":"(有)吉田容器店  東墨田工場","province":"東京都","city":"墨田区","address":"墨田区東墨田1-3-7","lat":35.717815,"lon":139.830734},{"name":"墨田区選挙管理委員会","province":"東京都","city":"墨田区","address":"墨田区吾妻橋1-23-20","lat":35.710505,"lon":139.801508},{"name":"本所警察署","province":"東京都","city":"墨田区","address":"墨田区横川四丁目8番9号","lat":35.704847,"lon":139.815074},{"name":"向島警察署","province":"東京都","city":"墨田区","address":"墨田区文花三丁目18番9号","lat":35.711729,"lon":139.82726},{"name":"本所消防署","province":"東京都","city":"墨田区","address":"墨田区横川四丁目6番6号","lat":35.703922,"lon":139.815226},{"name":"本所防災館","province":"東京都","city":"墨田区","address":"墨田区横川四丁目6番6号","lat":35.703922,"lon":139.815226},{"name":"向島消防署","province":"東京都","city":"墨田区","address":"墨田区東向島六丁目22番3号","lat":35.723625,"lon":139.820023},{"name":"墨田都税事務所","province":"東京都","city":"墨田区","address":"墨田区業平一丁目7番4号","lat":35.707803,"lon":139.809041},{"name":"本所税務署","province":"東京都","city":"墨田区","address":"墨田区業平一丁目7番2号","lat":35.707541,"lon":139.809207},{"name":"向島税務署","province":"東京都","city":"墨田区","address":"墨田区東向島二丁目7番14号","lat":35.716957,"lon":139.815593},{"name":"水道局墨田営業所","province":"東京都","city":"墨田区","address":"墨田区千歳二丁目2番11号","lat":35.69051,"lon":139.795701},{"name":"下水道局東部第一下水道事務所墨田出張所","province":"東京都","city":"墨田区","address":"墨田区横網一丁目4番12号","lat":35.69702,"lon":139.795017},{"name":"向島郵便局","province":"東京都","city":"墨田区","address":"墨田区東向島二丁目32番25号","lat":35.719767,"lon":139.817301},{"name":"本所郵便局","province":"東京都","city":"墨田区","address":"墨田区太平四丁目21番2号","lat":35.702642,"lon":139.817771},{"name":"東京法務局墨田出張所","province":"東京都","city":"墨田区","address":"墨田区菊川一丁目17番13号","lat":35.68987,"lon":139.801716},{"name":"東京簡易裁判所墨田庁舎","province":"東京都","city":"墨田区","address":"墨田区錦糸四丁目16番7号","lat":35.698318,"lon":139.818312},{"name":"東京区検察庁墨田分室","province":"東京都","city":"墨田区","address":"墨田区錦糸四丁目16番7号","lat":35.698318,"lon":139.818312},{"name":"警視庁交通執行課墨田分室","province":"東京都","city":"墨田区","address":"墨田区錦糸四丁目16番7号","lat":35.698318,"lon":139.818312},{"name":"錦糸町公証役場","province":"東京都","city":"墨田区","address":"墨田区江東橋三丁目9番7号","lat":35.695082,"lon":139.813206},{"name":"向島公証役場","province":"東京都","city":"墨田区","address":"墨田区東向島六丁目1番3号","lat":35.722318,"lon":139.818681},{"name":"東京都第五建設事務所墨田工区","province":"東京都","city":"墨田区","address":"墨田区堤通一丁目16番4号","lat":35.725814,"lon":139.810888},{"name":"墨田年金事務所","province":"東京都","city":"墨田区","address":"墨田区立川三丁目8番12号","lat":35.691042,"lon":139.804712},{"name":"一般財団法人墨田まちづくり公社","province":"東京都","city":"墨田区","address":"墨田区東向島二丁目36番10号","lat":35.721369,"lon":139.817609},{"name":"一般財団法人墨田まちづくり公社京島事務所","province":"東京都","city":"墨田区","address":"墨田区京島二丁目15番5号","lat":35.713242,"lon":139.821051},{"name":"一般財団法人墨田まちづくり公社鐘ヶ淵事務所","province":"東京都","city":"墨田区","address":"墨田区墨田三丁目40番3号","lat":35.730741,"lon":139.822325},{"name":"社会福祉法人墨田区社会福祉事業団","province":"東京都","city":"墨田区","address":"墨田区向島三丁目36番7号","lat":35.71338,"lon":139.810876},{"name":"一般社団法人墨田区観光協会","province":"東京都","city":"墨田区","address":"墨田区押上一丁目1番2号東京スカイツリータウン・ソラマチ5階まち処内","lat":35.710434,"lon":139.812014},{"name":"公益財団法人墨田区文化振興財団","province":"東京都","city":"墨田区","address":"墨田区錦糸一丁目2番3号","lat":35.697304,"lon":139.810052},{"name":"ハローワーク墨田","province":"東京都","city":"墨田区","address":"墨田区江東橋二丁目19番12号","lat":35.696235,"lon":139.811413},{"name":"向島労働基準監督署","province":"東京都","city":"墨田区","address":"墨田区東向島四丁目33番13号","lat":35.725511,"lon":139.818772},{"name":"独立行政法人高齢・障害・求職者雇用支援機構東京支部","province":"東京都","city":"墨田区","address":"墨田区江東橋二丁目19番12号","lat":35.696235,"lon":139.811413},{"name":"公益社団法人墨田区シルバー人材センター","province":"東京都","city":"墨田区","address":"墨田区文花一丁目32番1号101","lat":35.708509,"lon":139.824936},{"name":"墨田区シルバー人材センター向島作業所","province":"東京都","city":"墨田区","address":"墨田区東向島一丁目17番11号","lat":35.720828,"lon":139.815445},{"name":"墨田区シルバー人材センター緑作業所","province":"東京都","city":"墨田区","address":"墨田区緑四丁目35番6号","lat":35.695825,"lon":139.807408},{"name":"公益社団法人墨田区勤労者福祉サービスセンター","province":"東京都","city":"墨田区","address":"墨田区押上二丁目12番7号215号室","lat":35.712706,"lon":139.811982},{"name":"国際ファッションセンター株式会社","province":"東京都","city":"墨田区","address":"墨田区横網一丁目6番1号","lat":35.698175,"lon":139.796902},{"name":"一般財団法人ファッション産業人材育成機構","province":"東京都","city":"墨田区","address":"墨田区横網一丁目6番1号KFCビル11階","lat":35.698175,"lon":139.796902},{"name":"東京都立皮革技術センター","province":"東京都","city":"墨田区","address":"墨田区東墨田三丁目3番14号","lat":35.720127,"lon":139.83351},{"name":"東京都立産業技術研究センター墨田支所","province":"東京都","city":"墨田区","address":"墨田区横網一丁目6番1号KFCビル12階","lat":35.698175,"lon":139.796902},{"name":"吾妻橋会館","province":"東京都","city":"墨田区","address":"東京都墨田区吾妻橋1丁目23-27","lat":35.70972946,"lon":139.80144616},{"name":"墨田区保健所","province":"東京都","city":"墨田区","address":"墨田区吾妻橋1-23-20","lat":35.710724,"lon":139.801496},{"name":"向島保健センター","province":"東京都","city":"墨田区","address":"墨田区東向島5-16-2","lat":35.725882,"lon":139.821106},{"name":"本所保健センター","province":"東京都","city":"墨田区","address":"墨田区東駒形1-6-4","lat":35.705438,"lon":139.798058},{"name":"墨田区","province":"東京都","city":"墨田区","address":"墨田区吾妻橋1-23-20","lat":35.7107242,"lon":139.8014967},{"name":"墨田区保健所","province":"東京都","city":"墨田区","address":"東京都墨田区吾妻橋1丁目23-20","lat":35.71072382,"lon":139.80149602},{"name":"向島保健センター","province":"東京都","city":"墨田区","address":"東京都墨田区東向島5丁目16-2","lat":35.72588248,"lon":139.82110559},{"name":"本所保健センター","province":"東京都","city":"墨田区","address":"東京都墨田区東駒形1丁目6-4","lat":35.7054382,"lon":139.79805828},{"name":"墨田区保健所","province":"東京都","city":"墨田区","address":"墨田区吾妻橋1-23-20","lat":35.71006,"lon":139.8011},{"name":"向島保健センター","province":"東京都","city":"墨田区","address":"墨田区東向島5-16-2","lat":35.72611,"lon":139.82111},{"name":"本所保健センター","province":"東京都","city":"墨田区","address":"墨田区東駒形1-6-4","lat":35.70532,"lon":139.79796},{"name":"(株)山室  隅田店","province":"東京都","city":"墨田区","address":"墨田区堤通1-17-27","lat":35.725731,"lon":139.811493},{"name":"(有)藤本春吉商店","province":"東京都","city":"墨田区","address":"墨田区立川3-1-14","lat":35.690201,"lon":139.803909},{"name":"(有)吉田容器店","province":"東京都","city":"墨田区","address":"墨田区立花3-23-12","lat":35.707401,"lon":139.835144},{"name":"東京レンダリング(協)","province":"東京都","city":"墨田区","address":"墨田区東墨田1-9-1","lat":35.715397,"lon":139.832275},{"name":"二興金属(株)","province":"東京都","city":"墨田区","address":"墨田区本所1-10-11","lat":35.702209,"lon":139.798264},{"name":"(株)五井金属","province":"東京都","city":"墨田区","address":"墨田区立川2-7-1","lat":35.69091,"lon":139.801361},{"name":"(有)塚越商店","province":"東京都","city":"墨田区","address":"墨田区東駒形4-20-9","lat":35.707268,"lon":139.804611},{"name":"(株)野口茂樹商店","province":"東京都","city":"墨田区","address":"墨田区横川1-3-6","lat":35.702995,"lon":139.810013},{"name":"製紙原料サワムラ商店","province":"東京都","city":"墨田区","address":"墨田区太平1-18-11","lat":35.701523,"lon":139.809143},{"name":"東日紙業(株)  墨田支店","province":"東京都","city":"墨田区","address":"墨田区文花2-4-16","lat":35.708496,"lon":139.82637},{"name":"(有)石橋商店","province":"東京都","city":"墨田区","address":"墨田区向島3-10-11","lat":35.713501,"lon":139.807831},{"name":"(有)吉田容器店  東墨田工場","province":"東京都","city":"墨田区","address":"墨田区東墨田1-3-7","lat":35.717815,"lon":139.830734},{"name":"墨田区選挙管理委員会","province":"東京都","city":"墨田区","address":"墨田区吾妻橋1-23-20","lat":35.710505,"lon":139.801508},{"name":"本所警察署","province":"東京都","city":"墨田区","address":"墨田区横川四丁目8番9号","lat":35.704847,"lon":139.815074},{"name":"向島警察署","province":"東京都","city":"墨田区","address":"墨田区文花三丁目18番9号","lat":35.711729,"lon":139.82726},{"name":"本所消防署","province":"東京都","city":"墨田区","address":"墨田区横川四丁目6番6号","lat":35.703922,"lon":139.815226},{"name":"本所防災館","province":"東京都","city":"墨田区","address":"墨田区横川四丁目6番6号","lat":35.703922,"lon":139.815226},{"name":"向島消防署","province":"東京都","city":"墨田区","address":"墨田区東向島六丁目22番3号","lat":35.723625,"lon":139.820023},{"name":"墨田都税事務所","province":"東京都","city":"墨田区","address":"墨田区業平一丁目7番4号","lat":35.707803,"lon":139.809041},{"name":"本所税務署","province":"東京都","city":"墨田区","address":"墨田区業平一丁目7番2号","lat":35.707541,"lon":139.809207},{"name":"向島税務署","province":"東京都","city":"墨田区","address":"墨田区東向島二丁目7番14号","lat":35.716957,"lon":139.815593},{"name":"水道局墨田営業所","province":"東京都","city":"墨田区","address":"墨田区千歳二丁目2番11号","lat":35.69051,"lon":139.795701},{"name":"下水道局東部第一下水道事務所墨田出張所","province":"東京都","city":"墨田区","address":"墨田区横網一丁目4番12号","lat":35.69702,"lon":139.795017},{"name":"向島郵便局","province":"東京都","city":"墨田区","address":"墨田区東向島二丁目32番25号","lat":35.719767,"lon":139.817301},{"name":"本所郵便局","province":"東京都","city":"墨田区","address":"墨田区太平四丁目21番2号","lat":35.702642,"lon":139.817771},{"name":"東京法務局墨田出張所","province":"東京都","city":"墨田区","address":"墨田区菊川一丁目17番13号","lat":35.68987,"lon":139.801716},{"name":"東京簡易裁判所墨田庁舎","province":"東京都","city":"墨田区","address":"墨田区錦糸四丁目16番7号","lat":35.698318,"lon":139.818312},{"name":"東京区検察庁墨田分室","province":"東京都","city":"墨田区","address":"墨田区錦糸四丁目16番7号","lat":35.698318,"lon":139.818312},{"name":"警視庁交通執行課墨田分室","province":"東京都","city":"墨田区","address":"墨田区錦糸四丁目16番7号","lat":35.698318,"lon":139.818312},{"name":"錦糸町公証役場","province":"東京都","city":"墨田区","address":"墨田区江東橋三丁目9番7号","lat":35.695082,"lon":139.813206},{"name":"向島公証役場","province":"東京都","city":"墨田区","address":"墨田区東向島六丁目1番3号","lat":35.722318,"lon":139.818681},{"name":"東京都第五建設事務所墨田工区","province":"東京都","city":"墨田区","address":"墨田区堤通一丁目16番4号","lat":35.725814,"lon":139.810888},{"name":"墨田年金事務所","province":"東京都","city":"墨田区","address":"墨田区立川三丁目8番12号","lat":35.691042,"lon":139.804712},{"name":"一般財団法人墨田まちづくり公社","province":"東京都","city":"墨田区","address":"墨田区東向島二丁目36番10号","lat":35.721369,"lon":139.817609},{"name":"一般財団法人墨田まちづくり公社京島事務所","province":"東京都","city":"墨田区","address":"墨田区京島二丁目15番5号","lat":35.713242,"lon":139.821051},{"name":"一般財団法人墨田まちづくり公社鐘ヶ淵事務所","province":"東京都","city":"墨田区","address":"墨田区墨田三丁目40番3号","lat":35.730741,"lon":139.822325},{"name":"社会福祉法人墨田区社会福祉事業団","province":"東京都","city":"墨田区","address":"墨田区向島三丁目36番7号","lat":35.71338,"lon":139.810876},{"name":"一般社団法人墨田区観光協会","province":"東京都","city":"墨田区","address":"墨田区押上一丁目1番2号東京スカイツリータウン・ソラマチ5階まち処内","lat":35.710434,"lon":139.812014},{"name":"公益財団法人墨田区文化振興財団","province":"東京都","city":"墨田区","address":"墨田区錦糸一丁目2番3号","lat":35.697304,"lon":139.810052},{"name":"ハローワーク墨田","province":"東京都","city":"墨田区","address":"墨田区江東橋二丁目19番12号","lat":35.696235,"lon":139.811413},{"name":"向島労働基準監督署","province":"東京都","city":"墨田区","address":"墨田区東向島四丁目33番13号","lat":35.725511,"lon":139.818772},{"name":"独立行政法人高齢・障害・求職者雇用支援機構東京支部","province":"東京都","city":"墨田区","address":"墨田区江東橋二丁目19番12号","lat":35.696235,"lon":139.811413},{"name":"公益社団法人墨田区シルバー人材センター","province":"東京都","city":"墨田区","address":"墨田区文花一丁目32番1号101","lat":35.708509,"lon":139.824936},{"name":"墨田区シルバー人材センター向島作業所","province":"東京都","city":"墨田区","address":"墨田区東向島一丁目17番11号","lat":35.720828,"lon":139.815445},{"name":"墨田区シルバー人材センター緑作業所","province":"東京都","city":"墨田区","address":"墨田区緑四丁目35番6号","lat":35.695825,"lon":139.807408},{"name":"公益社団法人墨田区勤労者福祉サービスセンター","province":"東京都","city":"墨田区","address":"墨田区押上二丁目12番7号215号室","lat":35.712706,"lon":139.811982},{"name":"国際ファッションセンター株式会社","province":"東京都","city":"墨田区","address":"墨田区横網一丁目6番1号","lat":35.698175,"lon":139.796902},{"name":"一般財団法人ファッション産業人材育成機構","province":"東京都","city":"墨田区","address":"墨田区横網一丁目6番1号KFCビル11階","lat":35.698175,"lon":139.796902},{"name":"東京都立皮革技術センター","province":"東京都","city":"墨田区","address":"墨田区東墨田三丁目3番14号","lat":35.720127,"lon":139.83351},{"name":"東京都立産業技術研究センター墨田支所","province":"東京都","city":"墨田区","address":"墨田区横網一丁目6番1号KFCビル12階","lat":35.698175,"lon":139.796902},{"name":"吾妻橋会館","province":"東京都","city":"墨田区","address":"東京都墨田区吾妻橋1丁目23-27","lat":35.70972946,"lon":139.80144616},{"name":"墨田区保健所","province":"東京都","city":"墨田区","address":"墨田区吾妻橋1-23-20","lat":35.710724,"lon":139.801496},{"name":"向島保健センター","province":"東京都","city":"墨田区","address":"墨田区東向島5-16-2","lat":35.725882,"lon":139.821106},{"name":"本所保健センター","province":"東京都","city":"墨田区","address":"墨田区東駒形1-6-4","lat":35.705438,"lon":139.798058},{"name":"墨田区","province":"東京都","city":"墨田区","address":"墨田区吾妻橋1-23-20","lat":35.7107242,"lon":139.8014967},{"name":"墨田区保健所","province":"東京都","city":"墨田区","address":"東京都墨田区吾妻橋1丁目23-20","lat":35.71072382,"lon":139.80149602},{"name":"向島保健センター","province":"東京都","city":"墨田区","address":"東京都墨田区東向島5丁目16-2","lat":35.72588248,"lon":139.82110559},{"name":"本所保健センター","province":"東京都","city":"墨田区","address":"東京都墨田区東駒形1丁目6-4","lat":35.7054382,"lon":139.79805828},{"name":"墨田区保健所","province":"東京都","city":"墨田区","address":"墨田区吾妻橋1-23-20","lat":35.71006,"lon":139.8011},{"name":"向島保健センター","province":"東京都","city":"墨田区","address":"墨田区東向島5-16-2","lat":35.72611,"lon":139.82111},{"name":"本所保健センター","province":"東京都","city":"墨田区","address":"墨田区東駒形1-6-4","lat":35.70532,"lon":139.79796},{"name":"(株)山室  隅田店","province":"東京都","city":"墨田区","address":"墨田区堤通1-17-27","lat":35.725731,"lon":139.811493},{"name":"(有)藤本春吉商店","province":"東京都","city":"墨田区","address":"墨田区立川3-1-14","lat":35.690201,"lon":139.803909},{"name":"(有)吉田容器店","province":"東京都","city":"墨田区","address":"墨田区立花3-23-12","lat":35.707401,"lon":139.835144},{"name":"東京レンダリング(協)","province":"東京都","city":"墨田区","address":"墨田区東墨田1-9-1","lat":35.715397,"lon":139.832275},{"name":"二興金属(株)","province":"東京都","city":"墨田区","address":"墨田区本所1-10-11","lat":35.702209,"lon":139.798264},{"name":"(株)五井金属","province":"東京都","city":"墨田区","address":"墨田区立川2-7-1","lat":35.69091,"lon":139.801361},{"name":"(有)塚越商店","province":"東京都","city":"墨田区","address":"墨田区東駒形4-20-9","lat":35.707268,"lon":139.804611},{"name":"(株)野口茂樹商店","province":"東京都","city":"墨田区","address":"墨田区横川1-3-6","lat":35.702995,"lon":139.810013},{"name":"製紙原料サワムラ商店","province":"東京都","city":"墨田区","address":"墨田区太平1-18-11","lat":35.701523,"lon":139.809143},{"name":"東日紙業(株)  墨田支店","province":"東京都","city":"墨田区","address":"墨田区文花2-4-16","lat":35.708496,"lon":139.82637},{"name":"(有)石橋商店","province":"東京都","city":"墨田区","address":"墨田区向島3-10-11","lat":35.713501,"lon":139.807831},{"name":"(有)吉田容器店  東墨田工場","province":"東京都","city":"墨田区","address":"墨田区東墨田1-3-7","lat":35.717815,"lon":139.830734},{"name":"墨田区選挙管理委員会","province":"東京都","city":"墨田区","address":"墨田区吾妻橋1-23-20","lat":35.710505,"lon":139.801508},{"name":"本所警察署","province":"東京都","city":"墨田区","address":"墨田区横川四丁目8番9号","lat":35.704847,"lon":139.815074},{"name":"向島警察署","province":"東京都","city":"墨田区","address":"墨田区文花三丁目18番9号","lat":35.711729,"lon":139.82726},{"name":"本所消防署","province":"東京都","city":"墨田区","address":"墨田区横川四丁目6番6号","lat":35.703922,"lon":139.815226},{"name":"本所防災館","province":"東京都","city":"墨田区","address":"墨田区横川四丁目6番6号","lat":35.703922,"lon":139.815226},{"name":"向島消防署","province":"東京都","city":"墨田区","address":"墨田区東向島六丁目22番3号","lat":35.723625,"lon":139.820023},{"name":"墨田都税事務所","province":"東京都","city":"墨田区","address":"墨田区業平一丁目7番4号","lat":35.707803,"lon":139.809041},{"name":"本所税務署","province":"東京都","city":"墨田区","address":"墨田区業平一丁目7番2号","lat":35.707541,"lon":139.809207},{"name":"向島税務署","province":"東京都","city":"墨田区","address":"墨田区東向島二丁目7番14号","lat":35.716957,"lon":139.815593},{"name":"水道局墨田営業所","province":"東京都","city":"墨田区","address":"墨田区千歳二丁目2番11号","lat":35.69051,"lon":139.795701},{"name":"下水道局東部第一下水道事務所墨田出張所","province":"東京都","city":"墨田区","address":"墨田区横網一丁目4番12号","lat":35.69702,"lon":139.795017},{"name":"向島郵便局","province":"東京都","city":"墨田区","address":"墨田区東向島二丁目32番25号","lat":35.719767,"lon":139.817301},{"name":"本所郵便局","province":"東京都","city":"墨田区","address":"墨田区太平四丁目21番2号","lat":35.702642,"lon":139.817771},{"name":"東京法務局墨田出張所","province":"東京都","city":"墨田区","address":"墨田区菊川一丁目17番13号","lat":35.68987,"lon":139.801716},{"name":"東京簡易裁判所墨田庁舎","province":"東京都","city":"墨田区","address":"墨田区錦糸四丁目16番7号","lat":35.698318,"lon":139.818312},{"name":"東京区検察庁墨田分室","province":"東京都","city":"墨田区","address":"墨田区錦糸四丁目16番7号","lat":35.698318,"lon":139.818312},{"name":"警視庁交通執行課墨田分室","province":"東京都","city":"墨田区","address":"墨田区錦糸四丁目16番7号","lat":35.698318,"lon":139.818312},{"name":"錦糸町公証役場","province":"東京都","city":"墨田区","address":"墨田区江東橋三丁目9番7号","lat":35.695082,"lon":139.813206},{"name":"向島公証役場","province":"東京都","city":"墨田区","address":"墨田区東向島六丁目1番3号","lat":35.722318,"lon":139.818681},{"name":"東京都第五建設事務所墨田工区","province":"東京都","city":"墨田区","address":"墨田区堤通一丁目16番4号","lat":35.725814,"lon":139.810888},{"name":"墨田年金事務所","province":"東京都","city":"墨田区","address":"墨田区立川三丁目8番12号","lat":35.691042,"lon":139.804712},{"name":"一般財団法人墨田まちづくり公社","province":"東京都","city":"墨田区","address":"墨田区東向島二丁目36番10号","lat":35.721369,"lon":139.817609},{"name":"一般財団法人墨田まちづくり公社京島事務所","province":"東京都","city":"墨田区","address":"墨田区京島二丁目15番5号","lat":35.713242,"lon":139.821051},{"name":"一般財団法人墨田まちづくり公社鐘ヶ淵事務所","province":"東京都","city":"墨田区","address":"墨田区墨田三丁目40番3号","lat":35.730741,"lon":139.822325},{"name":"社会福祉法人墨田区社会福祉事業団","province":"東京都","city":"墨田区","address":"墨田区向島三丁目36番7号","lat":35.71338,"lon":139.810876},{"name":"一般社団法人墨田区観光協会","province":"東京都","city":"墨田区","address":"墨田区押上一丁目1番2号東京スカイツリータウン・ソラマチ5階まち処内","lat":35.710434,"lon":139.812014},{"name":"公益財団法人墨田区文化振興財団","province":"東京都","city":"墨田区","address":"墨田区錦糸一丁目2番3号","lat":35.697304,"lon":139.810052},{"name":"ハローワーク墨田","province":"東京都","city":"墨田区","address":"墨田区江東橋二丁目19番12号","lat":35.696235,"lon":139.811413},{"name":"向島労働基準監督署","province":"東京都","city":"墨田区","address":"墨田区東向島四丁目33番13号","lat":35.725511,"lon":139.818772},{"name":"独立行政法人高齢・障害・求職者雇用支援機構東京支部","province":"東京都","city":"墨田区","address":"墨田区江東橋二丁目19番12号","lat":35.696235,"lon":139.811413},{"name":"公益社団法人墨田区シルバー人材センター","province":"東京都","city":"墨田区","address":"墨田区文花一丁目32番1号101","lat":35.708509,"lon":139.824936},{"name":"墨田区シルバー人材センター向島作業所","province":"東京都","city":"墨田区","address":"墨田区東向島一丁目17番11号","lat":35.720828,"lon":139.815445},{"name":"墨田区シルバー人材センター緑作業所","province":"東京都","city":"墨田区","address":"墨田区緑四丁目35番6号","lat":35.695825,"lon":139.807408},{"name":"公益社団法人墨田区勤労者福祉サービスセンター","province":"東京都","city":"墨田区","address":"墨田区押上二丁目12番7号215号室","lat":35.712706,"lon":139.811982},{"name":"国際ファッションセンター株式会社","province":"東京都","city":"墨田区","address":"墨田区横網一丁目6番1号","lat":35.698175,"lon":139.796902},{"name":"一般財団法人ファッション産業人材育成機構","province":"東京都","city":"墨田区","address":"墨田区横網一丁目6番1号KFCビル11階","lat":35.698175,"lon":139.796902},{"name":"東京都立皮革技術センター","province":"東京都","city":"墨田区","address":"墨田区東墨田三丁目3番14号","lat":35.720127,"lon":139.83351},{"name":"東京都立産業技術研究センター墨田支所","province":"東京都","city":"墨田区","address":"墨田区横網一丁目6番1号KFCビル12階","lat":35.698175,"lon":139.796902},{"name":"墨田区保健所","province":"東京都","city":"墨田区","address":"墨田区吾妻橋1-23-20","lat":35.710724,"lon":139.801496},{"name":"向島保健センター","province":"東京都","city":"墨田区","address":"墨田区東向島5-16-2","lat":35.725882,"lon":139.821106},{"name":"本所保健センター","province":"東京都","city":"墨田区","address":"墨田区東駒形1-6-4","lat":35.705438,"lon":139.798058},{"name":"墨田区保健所","province":"東京都","city":"墨田区","address":"東京都墨田区吾妻橋1丁目23-20","lat":35.71072382,"lon":139.80149602},{"name":"向島保健センター","province":"東京都","city":"墨田区","address":"東京都墨田区東向島5丁目16-2","lat":35.72588248,"lon":139.82110559},{"name":"本所保健センター","province":"東京都","city":"墨田区","address":"東京都墨田区東駒形1丁目6-4","lat":35.7054382,"lon":139.79805828},{"name":"墨田区保健所","province":"東京都","city":"墨田区","address":"墨田区吾妻橋1-23-20","lat":35.71006,"lon":139.8011},{"name":"向島保健センター","province":"東京都","city":"墨田区","address":"墨田区東向島5-16-2","lat":35.72611,"lon":139.82111},{"name":"本所保健センター","province":"東京都","city":"墨田区","address":"墨田区東駒形1-6-4","lat":35.70532,"lon":139.79796},{"name":"(株)山室  隅田店","province":"東京都","city":"墨田区","address":"墨田区堤通1-17-27","lat":35.725731,"lon":139.811493},{"name":"(有)藤本春吉商店","province":"東京都","city":"墨田区","address":"墨田区立川3-1-14","lat":35.690201,"lon":139.803909},{"name":"(有)吉田容器店","province":"東京都","city":"墨田区","address":"墨田区立花3-23-12","lat":35.707401,"lon":139.835144},{"name":"東京レンダリング(協)","province":"東京都","city":"墨田区","address":"墨田区東墨田1-9-1","lat":35.715397,"lon":139.832275},{"name":"二興金属(株)","province":"東京都","city":"墨田区","address":"墨田区本所1-10-11","lat":35.702209,"lon":139.798264},{"name":"(株)五井金属","province":"東京都","city":"墨田区","address":"墨田区立川2-7-1","lat":35.69091,"lon":139.801361},{"name":"(有)塚越商店","province":"東京都","city":"墨田区","address":"墨田区東駒形4-20-9","lat":35.707268,"lon":139.804611},{"name":"(株)野口茂樹商店","province":"東京都","city":"墨田区","address":"墨田区横川1-3-6","lat":35.702995,"lon":139.810013},{"name":"製紙原料サワムラ商店","province":"東京都","city":"墨田区","address":"墨田区太平1-18-11","lat":35.701523,"lon":139.809143},{"name":"東日紙業(株)  墨田支店","province":"東京都","city":"墨田区","address":"墨田区文花2-4-16","lat":35.708496,"lon":139.82637},{"name":"(有)石橋商店","province":"東京都","city":"墨田区","address":"墨田区向島3-10-11","lat":35.713501,"lon":139.807831},{"name":"(有)吉田容器店  東墨田工場","province":"東京都","city":"墨田区","address":"墨田区東墨田1-3-7","lat":35.717815,"lon":139.830734},{"name":"墨田区選挙管理委員会","province":"東京都","city":"墨田区","address":"墨田区吾妻橋1-23-20","lat":35.710505,"lon":139.801508},{"name":"本所警察署","province":"東京都","city":"墨田区","address":"墨田区横川四丁目8番9号","lat":35.704847,"lon":139.815074},{"name":"向島警察署","province":"東京都","city":"墨田区","address":"墨田区文花三丁目18番9号","lat":35.711729,"lon":139.82726},{"name":"本所消防署","province":"東京都","city":"墨田区","address":"墨田区横川四丁目6番6号","lat":35.703922,"lon":139.815226},{"name":"本所防災館","province":"東京都","city":"墨田区","address":"墨田区横川四丁目6番6号","lat":35.703922,"lon":139.815226},{"name":"向島消防署","province":"東京都","city":"墨田区","address":"墨田区東向島六丁目22番3号","lat":35.723625,"lon":139.820023},{"name":"墨田都税事務所","province":"東京都","city":"墨田区","address":"墨田区業平一丁目7番4号","lat":35.707803,"lon":139.809041},{"name":"本所税務署","province":"東京都","city":"墨田区","address":"墨田区業平一丁目7番2号","lat":35.707541,"lon":139.809207},{"name":"向島税務署","province":"東京都","city":"墨田区","address":"墨田区東向島二丁目7番14号","lat":35.716957,"lon":139.815593},{"name":"水道局墨田営業所","province":"東京都","city":"墨田区","address":"墨田区千歳二丁目2番11号","lat":35.69051,"lon":139.795701},{"name":"下水道局東部第一下水道事務所墨田出張所","province":"東京都","city":"墨田区","address":"墨田区横網一丁目4番12号","lat":35.69702,"lon":139.795017},{"name":"向島郵便局","province":"東京都","city":"墨田区","address":"墨田区東向島二丁目32番25号","lat":35.719767,"lon":139.817301},{"name":"本所郵便局","province":"東京都","city":"墨田区","address":"墨田区太平四丁目21番2号","lat":35.702642,"lon":139.817771},{"name":"東京法務局墨田出張所","province":"東京都","city":"墨田区","address":"墨田区菊川一丁目17番13号","lat":35.68987,"lon":139.801716},{"name":"東京簡易裁判所墨田庁舎","province":"東京都","city":"墨田区","address":"墨田区錦糸四丁目16番7号","lat":35.698318,"lon":139.818312},{"name":"東京区検察庁墨田分室","province":"東京都","city":"墨田区","address":"墨田区錦糸四丁目16番7号","lat":35.698318,"lon":139.818312},{"name":"警視庁交通執行課墨田分室","province":"東京都","city":"墨田区","address":"墨田区錦糸四丁目16番7号","lat":35.698318,"lon":139.818312},{"name":"錦糸町公証役場","province":"東京都","city":"墨田区","address":"墨田区江東橋三丁目9番7号","lat":35.695082,"lon":139.813206},{"name":"向島公証役場","province":"東京都","city":"墨田区","address":"墨田区東向島六丁目1番3号","lat":35.722318,"lon":139.818681},{"name":"東京都第五建設事務所墨田工区","province":"東京都","city":"墨田区","address":"墨田区堤通一丁目16番4号","lat":35.725814,"lon":139.810888},{"name":"墨田年金事務所","province":"東京都","city":"墨田区","address":"墨田区立川三丁目8番12号","lat":35.691042,"lon":139.804712},{"name":"一般財団法人墨田まちづくり公社","province":"東京都","city":"墨田区","address":"墨田区東向島二丁目36番10号","lat":35.721369,"lon":139.817609},{"name":"一般財団法人墨田まちづくり公社京島事務所","province":"東京都","city":"墨田区","address":"墨田区京島二丁目15番5号","lat":35.713242,"lon":139.821051},{"name":"一般財団法人墨田まちづくり公社鐘ヶ淵事務所","province":"東京都","city":"墨田区","address":"墨田区墨田三丁目40番3号","lat":35.730741,"lon":139.822325},{"name":"社会福祉法人墨田区社会福祉事業団","province":"東京都","city":"墨田区","address":"墨田区向島三丁目36番7号","lat":35.71338,"lon":139.810876},{"name":"一般社団法人墨田区観光協会","province":"東京都","city":"墨田区","address":"墨田区押上一丁目1番2号東京スカイツリータウン・ソラマチ5階まち処内","lat":35.710434,"lon":139.812014},{"name":"公益財団法人墨田区文化振興財団","province":"東京都","city":"墨田区","address":"墨田区錦糸一丁目2番3号","lat":35.697304,"lon":139.810052},{"name":"ハローワーク墨田","province":"東京都","city":"墨田区","address":"墨田区江東橋二丁目19番12号","lat":35.696235,"lon":139.811413},{"name":"向島労働基準監督署","province":"東京都","city":"墨田区","address":"墨田区東向島四丁目33番13号","lat":35.725511,"lon":139.818772},{"name":"独立行政法人高齢・障害・求職者雇用支援機構東京支部","province":"東京都","city":"墨田区","address":"墨田区江東橋二丁目19番12号","lat":35.696235,"lon":139.811413},{"name":"公益社団法人墨田区シルバー人材センター","province":"東京都","city":"墨田区","address":"墨田区文花一丁目32番1号101","lat":35.708509,"lon":139.824936},{"name":"墨田区シルバー人材センター向島作業所","province":"東京都","city":"墨田区","address":"墨田区東向島一丁目17番11号","lat":35.720828,"lon":139.815445},{"name":"墨田区シルバー人材センター緑作業所","province":"東京都","city":"墨田区","address":"墨田区緑四丁目35番6号","lat":35.695825,"lon":139.807408},{"name":"公益社団法人墨田区勤労者福祉サービスセンター","province":"東京都","city":"墨田区","address":"墨田区押上二丁目12番7号215号室","lat":35.712706,"lon":139.811982},{"name":"国際ファッションセンター株式会社","province":"東京都","city":"墨田区","address":"墨田区横網一丁目6番1号","lat":35.698175,"lon":139.796902},{"name":"一般財団法人ファッション産業人材育成機構","province":"東京都","city":"墨田区","address":"墨田区横網一丁目6番1号KFCビル11階","lat":35.698175,"lon":139.796902},{"name":"東京都立皮革技術センター","province":"東京都","city":"墨田区","address":"墨田区東墨田三丁目3番14号","lat":35.720127,"lon":139.83351},{"name":"東京都立産業技術研究センター墨田支所","province":"東京都","city":"墨田区","address":"墨田区横網一丁目6番1号KFCビル12階","lat":35.698175,"lon":139.796902},{"name":"墨田区保健所","province":"東京都","city":"墨田区","address":"墨田区吾妻橋1-23-20","lat":35.710724,"lon":139.801496},{"name":"向島保健センター","province":"東京都","city":"墨田区","address":"墨田区東向島5-16-2","lat":35.725882,"lon":139.821106},{"name":"本所保健センター","province":"東京都","city":"墨田区","address":"墨田区東駒形1-6-4","lat":35.705438,"lon":139.798058},{"name":"墨田区保健所","province":"東京都","city":"墨田区","address":"東京都墨田区吾妻橋1丁目23-20","lat":35.71072382,"lon":139.80149602},{"name":"向島保健センター","province":"東京都","city":"墨田区","address":"東京都墨田区東向島5丁目16-2","lat":35.72588248,"lon":139.82110559},{"name":"本所保健センター","province":"東京都","city":"墨田区","address":"東京都墨田区東駒形1丁目6-4","lat":35.7054382,"lon":139.79805828},{"name":"墨田区保健所","province":"東京都","city":"墨田区","address":"墨田区吾妻橋1-23-20","lat":35.71006,"lon":139.8011},{"name":"向島保健センター","province":"東京都","city":"墨田区","address":"墨田区東向島5-16-2","lat":35.72611,"lon":139.82111},{"name":"本所保健センター","province":"東京都","city":"墨田区","address":"墨田区東駒形1-6-4","lat":35.70532,"lon":139.79796},{"name":"墨田区選挙管理委員会","province":"東京都","city":"墨田区","address":"墨田区吾妻橋1-23-20","lat":35.710505,"lon":139.801508},{"name":"本所警察署","province":"東京都","city":"墨田区","address":"墨田区横川四丁目8番9号","lat":35.704847,"lon":139.815074},{"name":"向島警察署","province":"東京都","city":"墨田区","address":"墨田区文花三丁目18番9号","lat":35.711729,"lon":139.82726},{"name":"本所消防署","province":"東京都","city":"墨田区","address":"墨田区横川四丁目6番6号","lat":35.703922,"lon":139.815226},{"name":"本所防災館","province":"東京都","city":"墨田区","address":"墨田区横川四丁目6番6号","lat":35.703922,"lon":139.815226},{"name":"向島消防署","province":"東京都","city":"墨田区","address":"墨田区東向島六丁目22番3号","lat":35.723625,"lon":139.820023},{"name":"墨田都税事務所","province":"東京都","city":"墨田区","address":"墨田区業平一丁目7番4号","lat":35.707803,"lon":139.809041},{"name":"本所税務署","province":"東京都","city":"墨田区","address":"墨田区業平一丁目7番2号","lat":35.707541,"lon":139.809207},{"name":"向島税務署","province":"東京都","city":"墨田区","address":"墨田区東向島二丁目7番14号","lat":35.716957,"lon":139.815593},{"name":"水道局墨田営業所","province":"東京都","city":"墨田区","address":"墨田区千歳二丁目2番11号","lat":35.69051,"lon":139.795701},{"name":"下水道局東部第一下水道事務所墨田出張所","province":"東京都","city":"墨田区","address":"墨田区横網一丁目4番12号","lat":35.69702,"lon":139.795017},{"name":"向島郵便局","province":"東京都","city":"墨田区","address":"墨田区東向島二丁目32番25号","lat":35.719767,"lon":139.817301},{"name":"本所郵便局","province":"東京都","city":"墨田区","address":"墨田区太平四丁目21番2号","lat":35.702642,"lon":139.817771},{"name":"東京法務局墨田出張所","province":"東京都","city":"墨田区","address":"墨田区菊川一丁目17番13号","lat":35.68987,"lon":139.801716},{"name":"東京簡易裁判所墨田庁舎","province":"東京都","city":"墨田区","address":"墨田区錦糸四丁目16番7号","lat":35.698318,"lon":139.818312},{"name":"東京区検察庁墨田分室","province":"東京都","city":"墨田区","address":"墨田区錦糸四丁目16番7号","lat":35.698318,"lon":139.818312},{"name":"警視庁交通執行課墨田分室","province":"東京都","city":"墨田区","address":"墨田区錦糸四丁目16番7号","lat":35.698318,"lon":139.818312},{"name":"錦糸町公証役場","province":"東京都","city":"墨田区","address":"墨田区江東橋三丁目9番7号","lat":35.695082,"lon":139.813206},{"name":"向島公証役場","province":"東京都","city":"墨田区","address":"墨田区東向島六丁目1番3号","lat":35.722318,"lon":139.818681},{"name":"東京都第五建設事務所墨田工区","province":"東京都","city":"墨田区","address":"墨田区堤通一丁目16番4号","lat":35.725814,"lon":139.810888},{"name":"墨田年金事務所","province":"東京都","city":"墨田区","address":"墨田区立川三丁目8番12号","lat":35.691042,"lon":139.804712},{"name":"一般財団法人墨田まちづくり公社","province":"東京都","city":"墨田区","address":"墨田区東向島二丁目36番10号","lat":35.721369,"lon":139.817609},{"name":"一般財団法人墨田まちづくり公社京島事務所","province":"東京都","city":"墨田区","address":"墨田区京島二丁目15番5号","lat":35.713242,"lon":139.821051},{"name":"一般財団法人墨田まちづくり公社鐘ヶ淵事務所","province":"東京都","city":"墨田区","address":"墨田区墨田三丁目40番3号","lat":35.730741,"lon":139.822325},{"name":"社会福祉法人墨田区社会福祉事業団","province":"東京都","city":"墨田区","address":"墨田区向島三丁目36番7号","lat":35.71338,"lon":139.810876},{"name":"一般社団法人墨田区観光協会","province":"東京都","city":"墨田区","address":"墨田区押上一丁目1番2号東京スカイツリータウン・ソラマチ5階まち処内","lat":35.710434,"lon":139.812014},{"name":"公益財団法人墨田区文化振興財団","province":"東京都","city":"墨田区","address":"墨田区錦糸一丁目2番3号","lat":35.697304,"lon":139.810052},{"name":"ハローワーク墨田","province":"東京都","city":"墨田区","address":"墨田区江東橋二丁目19番12号","lat":35.696235,"lon":139.811413},{"name":"向島労働基準監督署","province":"東京都","city":"墨田区","address":"墨田区東向島四丁目33番13号","lat":35.725511,"lon":139.818772},{"name":"独立行政法人高齢・障害・求職者雇用支援機構東京支部","province":"東京都","city":"墨田区","address":"墨田区江東橋二丁目19番12号","lat":35.696235,"lon":139.811413},{"name":"公益社団法人墨田区シルバー人材センター","province":"東京都","city":"墨田区","address":"墨田区文花一丁目32番1号101","lat":35.708509,"lon":139.824936},{"name":"墨田区シルバー人材センター向島作業所","province":"東京都","city":"墨田区","address":"墨田区東向島一丁目17番11号","lat":35.720828,"lon":139.815445},{"name":"墨田区シルバー人材センター緑作業所","province":"東京都","city":"墨田区","address":"墨田区緑四丁目35番6号","lat":35.695825,"lon":139.807408},{"name":"公益社団法人墨田区勤労者福祉サービスセンター","province":"東京都","city":"墨田区","address":"墨田区押上二丁目12番7号215号室","lat":35.712706,"lon":139.811982},{"name":"国際ファッションセンター株式会社","province":"東京都","city":"墨田区","address":"墨田区横網一丁目6番1号","lat":35.698175,"lon":139.796902},{"name":"一般財団法人ファッション産業人材育成機構","province":"東京都","city":"墨田区","address":"墨田区横網一丁目6番1号KFCビル11階","lat":35.698175,"lon":139.796902},{"name":"東京都立皮革技術センター","province":"東京都","city":"墨田区","address":"墨田区東墨田三丁目3番14号","lat":35.720127,"lon":139.83351},{"name":"東京都立産業技術研究センター墨田支所","province":"東京都","city":"墨田区","address":"墨田区横網一丁目6番1号KFCビル12階","lat":35.698175,"lon":139.796902},{"name":"墨田区保健所","province":"東京都","city":"墨田区","address":"墨田区吾妻橋1-23-20","lat":35.710724,"lon":139.801496},{"name":"向島保健センター","province":"東京都","city":"墨田区","address":"墨田区東向島5-16-2","lat":35.725882,"lon":139.821106},{"name":"本所保健センター","province":"東京都","city":"墨田区","address":"墨田区東駒形1-6-4","lat":35.705438,"lon":139.798058},{"name":"墨田区保健所","province":"東京都","city":"墨田区","address":"東京都墨田区吾妻橋1丁目23-20","lat":35.71072382,"lon":139.80149602},{"name":"向島保健センター","province":"東京都","city":"墨田区","address":"東京都墨田区東向島5丁目16-2","lat":35.72588248,"lon":139.82110559},{"name":"本所保健センター","province":"東京都","city":"墨田区","address":"東京都墨田区東駒形1丁目6-4","lat":35.7054382,"lon":139.79805828},{"name":"墨田区保健所","province":"東京都","city":"墨田区","address":"墨田区吾妻橋1-23-20","lat":35.71006,"lon":139.8011},{"name":"向島保健センター","province":"東京都","city":"墨田区","address":"墨田区東向島5-16-2","lat":35.72611,"lon":139.82111},{"name":"本所保健センター","province":"東京都","city":"墨田区","address":"墨田区東駒形1-6-4","lat":35.70532,"lon":139.79796},{"name":"墨田区選挙管理委員会","province":"東京都","city":"墨田区","address":"墨田区吾妻橋1-23-20","lat":35.710505,"lon":139.801508},{"name":"本所警察署","province":"東京都","city":"墨田区","address":"墨田区横川四丁目8番9号","lat":35.704847,"lon":139.815074},{"name":"向島警察署","province":"東京都","city":"墨田区","address":"墨田区文花三丁目18番9号","lat":35.711729,"lon":139.82726},{"name":"本所消防署","province":"東京都","city":"墨田区","address":"墨田区横川四丁目6番6号","lat":35.703922,"lon":139.815226},{"name":"本所防災館","province":"東京都","city":"墨田区","address":"墨田区横川四丁目6番6号","lat":35.703922,"lon":139.815226},{"name":"向島消防署","province":"東京都","city":"墨田区","address":"墨田区東向島六丁目22番3号","lat":35.723625,"lon":139.820023},{"name":"墨田都税事務所","province":"東京都","city":"墨田区","address":"墨田区業平一丁目7番4号","lat":35.707803,"lon":139.809041},{"name":"本所税務署","province":"東京都","city":"墨田区","address":"墨田区業平一丁目7番2号","lat":35.707541,"lon":139.809207},{"name":"向島税務署","province":"東京都","city":"墨田区","address":"墨田区東向島二丁目7番14号","lat":35.716957,"lon":139.815593},{"name":"水道局墨田営業所","province":"東京都","city":"墨田区","address":"墨田区千歳二丁目2番11号","lat":35.69051,"lon":139.795701},{"name":"下水道局東部第一下水道事務所墨田出張所","province":"東京都","city":"墨田区","address":"墨田区横網一丁目4番12号","lat":35.69702,"lon":139.795017},{"name":"向島郵便局","province":"東京都","city":"墨田区","address":"墨田区東向島二丁目32番25号","lat":35.719767,"lon":139.817301},{"name":"本所郵便局","province":"東京都","city":"墨田区","address":"墨田区太平四丁目21番2号","lat":35.702642,"lon":139.817771},{"name":"東京法務局墨田出張所","province":"東京都","city":"墨田区","address":"墨田区菊川一丁目17番13号","lat":35.68987,"lon":139.801716},{"name":"東京簡易裁判所墨田庁舎","province":"東京都","city":"墨田区","address":"墨田区錦糸四丁目16番7号","lat":35.698318,"lon":139.818312},{"name":"東京区検察庁墨田分室","province":"東京都","city":"墨田区","address":"墨田区錦糸四丁目16番7号","lat":35.698318,"lon":139.818312},{"name":"警視庁交通執行課墨田分室","province":"東京都","city":"墨田区","address":"墨田区錦糸四丁目16番7号","lat":35.698318,"lon":139.818312},{"name":"錦糸町公証役場","province":"東京都","city":"墨田区","address":"墨田区江東橋三丁目9番7号","lat":35.695082,"lon":139.813206},{"name":"向島公証役場","province":"東京都","city":"墨田区","address":"墨田区東向島六丁目1番3号","lat":35.722318,"lon":139.818681},{"name":"東京都第五建設事務所墨田工区","province":"東京都","city":"墨田区","address":"墨田区堤通一丁目16番4号","lat":35.725814,"lon":139.810888},{"name":"墨田年金事務所","province":"東京都","city":"墨田区","address":"墨田区立川三丁目8番12号","lat":35.691042,"lon":139.804712},{"name":"一般財団法人墨田まちづくり公社","province":"東京都","city":"墨田区","address":"墨田区東向島二丁目36番10号","lat":35.721369,"lon":139.817609},{"name":"一般財団法人墨田まちづくり公社京島事務所","province":"東京都","city":"墨田区","address":"墨田区京島二丁目15番5号","lat":35.713242,"lon":139.821051},{"name":"一般財団法人墨田まちづくり公社鐘ヶ淵事務所","province":"東京都","city":"墨田区","address":"墨田区墨田三丁目40番3号","lat":35.730741,"lon":139.822325},{"name":"社会福祉法人墨田区社会福祉事業団","province":"東京都","city":"墨田区","address":"墨田区向島三丁目36番7号","lat":35.71338,"lon":139.810876},{"name":"一般社団法人墨田区観光協会","province":"東京都","city":"墨田区","address":"墨田区押上一丁目1番2号東京スカイツリータウン・ソラマチ5階まち処内","lat":35.710434,"lon":139.812014},{"name":"公益財団法人墨田区文化振興財団","province":"東京都","city":"墨田区","address":"墨田区錦糸一丁目2番3号","lat":35.697304,"lon":139.810052},{"name":"ハローワーク墨田","province":"東京都","city":"墨田区","address":"墨田区江東橋二丁目19番12号","lat":35.696235,"lon":139.811413},{"name":"向島労働基準監督署","province":"東京都","city":"墨田区","address":"墨田区東向島四丁目33番13号","lat":35.725511,"lon":139.818772},{"name":"独立行政法人高齢・障害・求職者雇用支援機構東京支部","province":"東京都","city":"墨田区","address":"墨田区江東橋二丁目19番12号","lat":35.696235,"lon":139.811413},{"name":"公益社団法人墨田区シルバー人材センター","province":"東京都","city":"墨田区","address":"墨田区文花一丁目32番1号101","lat":35.708509,"lon":139.824936},{"name":"墨田区シルバー人材センター向島作業所","province":"東京都","city":"墨田区","address":"墨田区東向島一丁目17番11号","lat":35.720828,"lon":139.815445},{"name":"墨田区シルバー人材センター緑作業所","province":"東京都","city":"墨田区","address":"墨田区緑四丁目35番6号","lat":35.695825,"lon":139.807408},{"name":"公益社団法人墨田区勤労者福祉サービスセンター","province":"東京都","city":"墨田区","address":"墨田区押上二丁目12番7号215号室","lat":35.712706,"lon":139.811982},{"name":"国際ファッションセンター株式会社","province":"東京都","city":"墨田区","address":"墨田区横網一丁目6番1号","lat":35.698175,"lon":139.796902},{"name":"一般財団法人ファッション産業人材育成機構","province":"東京都","city":"墨田区","address":"墨田区横網一丁目6番1号KFCビル11階","lat":35.698175,"lon":139.796902},{"name":"東京都立皮革技術センター","province":"東京都","city":"墨田区","address":"墨田区東墨田三丁目3番14号","lat":35.720127,"lon":139.83351},{"name":"東京都立産業技術研究センター墨田支所","province":"東京都","city":"墨田区","address":"墨田区横網一丁目6番1号KFCビル12階","lat":35.698175,"lon":139.796902},{"name":"墨田区保健所","province":"東京都","city":"墨田区","address":"墨田区吾妻橋1-23-20","lat":35.710724,"lon":139.801496},{"name":"向島保健センター","province":"東京都","city":"墨田区","address":"墨田区東向島5-16-2","lat":35.725882,"lon":139.821106},{"name":"本所保健センター","province":"東京都","city":"墨田区","address":"墨田区東駒形1-6-4","lat":35.705438,"lon":139.798058},{"name":"墨田区保健所","province":"東京都","city":"墨田区","address":"東京都墨田区吾妻橋1丁目23-20","lat":35.71072382,"lon":139.80149602},{"name":"向島保健センター","province":"東京都","city":"墨田区","address":"東京都墨田区東向島5丁目16-2","lat":35.72588248,"lon":139.82110559},{"name":"本所保健センター","province":"東京都","city":"墨田区","address":"東京都墨田区東駒形1丁目6-4","lat":35.7054382,"lon":139.79805828},{"name":"墨田区保健所","province":"東京都","city":"墨田区","address":"墨田区吾妻橋1-23-20","lat":35.71006,"lon":139.8011},{"name":"向島保健センター","province":"東京都","city":"墨田区","address":"墨田区東向島5-16-2","lat":35.72611,"lon":139.82111},{"name":"本所保健センター","province":"東京都","city":"墨田区","address":"墨田区東駒形1-6-4","lat":35.70532,"lon":139.79796},{"name":"墨田区選挙管理委員会","province":"東京都","city":"墨田区","address":"墨田区吾妻橋1-23-20","lat":35.710505,"lon":139.801508},{"name":"本所警察署","province":"東京都","city":"墨田区","address":"墨田区横川四丁目8番9号","lat":35.704847,"lon":139.815074},{"name":"向島警察署","province":"東京都","city":"墨田区","address":"墨田区文花三丁目18番9号","lat":35.711729,"lon":139.82726},{"name":"本所消防署","province":"東京都","city":"墨田区","address":"墨田区横川四丁目6番6号","lat":35.703922,"lon":139.815226},{"name":"本所防災館","province":"東京都","city":"墨田区","address":"墨田区横川四丁目6番6号","lat":35.703922,"lon":139.815226},{"name":"向島消防署","province":"東京都","city":"墨田区","address":"墨田区東向島六丁目22番3号","lat":35.723625,"lon":139.820023},{"name":"墨田都税事務所","province":"東京都","city":"墨田区","address":"墨田区業平一丁目7番4号","lat":35.707803,"lon":139.809041},{"name":"本所税務署","province":"東京都","city":"墨田区","address":"墨田区業平一丁目7番2号","lat":35.707541,"lon":139.809207},{"name":"向島税務署","province":"東京都","city":"墨田区","address":"墨田区東向島二丁目7番14号","lat":35.716957,"lon":139.815593},{"name":"水道局墨田営業所","province":"東京都","city":"墨田区","address":"墨田区千歳二丁目2番11号","lat":35.69051,"lon":139.795701},{"name":"下水道局東部第一下水道事務所墨田出張所","province":"東京都","city":"墨田区","address":"墨田区横網一丁目4番12号","lat":35.69702,"lon":139.795017},{"name":"向島郵便局","province":"東京都","city":"墨田区","address":"墨田区東向島二丁目32番25号","lat":35.719767,"lon":139.817301},{"name":"本所郵便局","province":"東京都","city":"墨田区","address":"墨田区太平四丁目21番2号","lat":35.702642,"lon":139.817771},{"name":"東京法務局墨田出張所","province":"東京都","city":"墨田区","address":"墨田区菊川一丁目17番13号","lat":35.68987,"lon":139.801716},{"name":"東京簡易裁判所墨田庁舎","province":"東京都","city":"墨田区","address":"墨田区錦糸四丁目16番7号","lat":35.698318,"lon":139.818312},{"name":"東京区検察庁墨田分室","province":"東京都","city":"墨田区","address":"墨田区錦糸四丁目16番7号","lat":35.698318,"lon":139.818312},{"name":"警視庁交通執行課墨田分室","province":"東京都","city":"墨田区","address":"墨田区錦糸四丁目16番7号","lat":35.698318,"lon":139.818312},{"name":"錦糸町公証役場","province":"東京都","city":"墨田区","address":"墨田区江東橋三丁目9番7号","lat":35.695082,"lon":139.813206},{"name":"向島公証役場","province":"東京都","city":"墨田区","address":"墨田区東向島六丁目1番3号","lat":35.722318,"lon":139.818681},{"name":"東京都第五建設事務所墨田工区","province":"東京都","city":"墨田区","address":"墨田区堤通一丁目16番4号","lat":35.725814,"lon":139.810888},{"name":"墨田年金事務所","province":"東京都","city":"墨田区","address":"墨田区立川三丁目8番12号","lat":35.691042,"lon":139.804712},{"name":"一般財団法人墨田まちづくり公社","province":"東京都","city":"墨田区","address":"墨田区東向島二丁目36番10号","lat":35.721369,"lon":139.817609},{"name":"一般財団法人墨田まちづくり公社京島事務所","province":"東京都","city":"墨田区","address":"墨田区京島二丁目15番5号","lat":35.713242,"lon":139.821051},{"name":"一般財団法人墨田まちづくり公社鐘ヶ淵事務所","province":"東京都","city":"墨田区","address":"墨田区墨田三丁目40番3号","lat":35.730741,"lon":139.822325},{"name":"社会福祉法人墨田区社会福祉事業団","province":"東京都","city":"墨田区","address":"墨田区向島三丁目36番7号","lat":35.71338,"lon":139.810876},{"name":"一般社団法人墨田区観光協会","province":"東京都","city":"墨田区","address":"墨田区押上一丁目1番2号東京スカイツリータウン・ソラマチ5階まち処内","lat":35.710434,"lon":139.812014},{"name":"公益財団法人墨田区文化振興財団","province":"東京都","city":"墨田区","address":"墨田区錦糸一丁目2番3号","lat":35.697304,"lon":139.810052},{"name":"ハローワーク墨田","province":"東京都","city":"墨田区","address":"墨田区江東橋二丁目19番12号","lat":35.696235,"lon":139.811413},{"name":"向島労働基準監督署","province":"東京都","city":"墨田区","address":"墨田区東向島四丁目33番13号","lat":35.725511,"lon":139.818772},{"name":"独立行政法人高齢・障害・求職者雇用支援機構東京支部","province":"東京都","city":"墨田区","address":"墨田区江東橋二丁目19番12号","lat":35.696235,"lon":139.811413},{"name":"公益社団法人墨田区シルバー人材センター","province":"東京都","city":"墨田区","address":"墨田区文花一丁目32番1号101","lat":35.708509,"lon":139.824936},{"name":"墨田区シルバー人材センター向島作業所","province":"東京都","city":"墨田区","address":"墨田区東向島一丁目17番11号","lat":35.720828,"lon":139.815445},{"name":"墨田区シルバー人材センター緑作業所","province":"東京都","city":"墨田区","address":"墨田区緑四丁目35番6号","lat":35.695825,"lon":139.807408},{"name":"公益社団法人墨田区勤労者福祉サービスセンター","province":"東京都","city":"墨田区","address":"墨田区押上二丁目12番7号215号室","lat":35.712706,"lon":139.811982},{"name":"国際ファッションセンター株式会社","province":"東京都","city":"墨田区","address":"墨田区横網一丁目6番1号","lat":35.698175,"lon":139.796902},{"name":"一般財団法人ファッション産業人材育成機構","province":"東京都","city":"墨田区","address":"墨田区横網一丁目6番1号KFCビル11階","lat":35.698175,"lon":139.796902},{"name":"東京都立皮革技術センター","province":"東京都","city":"墨田区","address":"墨田区東墨田三丁目3番14号","lat":35.720127,"lon":139.83351},{"name":"東京都立産業技術研究センター墨田支所","province":"東京都","city":"墨田区","address":"墨田区横網一丁目6番1号KFCビル12階","lat":35.698175,"lon":139.796902},{"name":"墨田区保健所","province":"東京都","city":"墨田区","address":"墨田区吾妻橋1-23-20","lat":35.710724,"lon":139.801496},{"name":"向島保健センター","province":"東京都","city":"墨田区","address":"墨田区東向島5-16-2","lat":35.725882,"lon":139.821106},{"name":"本所保健センター","province":"東京都","city":"墨田区","address":"墨田区東駒形1-6-4","lat":35.705438,"lon":139.798058},{"name":"墨田区保健所","province":"東京都","city":"墨田区","address":"東京都墨田区吾妻橋1丁目23-20","lat":35.71072382,"lon":139.80149602},{"name":"向島保健センター","province":"東京都","city":"墨田区","address":"東京都墨田区東向島5丁目16-2","lat":35.72588248,"lon":139.82110559},{"name":"本所保健センター","province":"東京都","city":"墨田区","address":"東京都墨田区東駒形1丁目6-4","lat":35.7054382,"lon":139.79805828},{"name":"墨田区保健所","province":"東京都","city":"墨田区","address":"墨田区吾妻橋1-23-20","lat":35.71006,"lon":139.8011},{"name":"向島保健センター","province":"東京都","city":"墨田区","address":"墨田区東向島5-16-2","lat":35.72611,"lon":139.82111},{"name":"本所保健センター","province":"東京都","city":"墨田区","address":"墨田区東駒形1-6-4","lat":35.70532,"lon":139.79796},{"name":"墨田区選挙管理委員会","province":"東京都","city":"墨田区","address":"墨田区吾妻橋1-23-20","lat":35.710505,"lon":139.801508},{"name":"本所警察署","province":"東京都","city":"墨田区","address":"墨田区横川四丁目8番9号","lat":35.704847,"lon":139.815074},{"name":"向島警察署","province":"東京都","city":"墨田区","address":"墨田区文花三丁目18番9号","lat":35.711729,"lon":139.82726},{"name":"本所消防署","province":"東京都","city":"墨田区","address":"墨田区横川四丁目6番6号","lat":35.703922,"lon":139.815226},{"name":"本所防災館","province":"東京都","city":"墨田区","address":"墨田区横川四丁目6番6号","lat":35.703922,"lon":139.815226},{"name":"向島消防署","province":"東京都","city":"墨田区","address":"墨田区東向島六丁目22番3号","lat":35.723625,"lon":139.820023},{"name":"墨田都税事務所","province":"東京都","city":"墨田区","address":"墨田区業平一丁目7番4号","lat":35.707803,"lon":139.809041},{"name":"本所税務署","province":"東京都","city":"墨田区","address":"墨田区業平一丁目7番2号","lat":35.707541,"lon":139.809207},{"name":"向島税務署","province":"東京都","city":"墨田区","address":"墨田区東向島二丁目7番14号","lat":35.716957,"lon":139.815593},{"name":"水道局墨田営業所","province":"東京都","city":"墨田区","address":"墨田区千歳二丁目2番11号","lat":35.69051,"lon":139.795701},{"name":"下水道局東部第一下水道事務所墨田出張所","province":"東京都","city":"墨田区","address":"墨田区横網一丁目4番12号","lat":35.69702,"lon":139.795017},{"name":"向島郵便局","province":"東京都","city":"墨田区","address":"墨田区東向島二丁目32番25号","lat":35.719767,"lon":139.817301},{"name":"本所郵便局","province":"東京都","city":"墨田区","address":"墨田区太平四丁目21番2号","lat":35.702642,"lon":139.817771},{"name":"東京法務局墨田出張所","province":"東京都","city":"墨田区","address":"墨田区菊川一丁目17番13号","lat":35.68987,"lon":139.801716},{"name":"東京簡易裁判所墨田庁舎","province":"東京都","city":"墨田区","address":"墨田区錦糸四丁目16番7号","lat":35.698318,"lon":139.818312},{"name":"東京区検察庁墨田分室","province":"東京都","city":"墨田区","address":"墨田区錦糸四丁目16番7号","lat":35.698318,"lon":139.818312},{"name":"警視庁交通執行課墨田分室","province":"東京都","city":"墨田区","address":"墨田区錦糸四丁目16番7号","lat":35.698318,"lon":139.818312},{"name":"錦糸町公証役場","province":"東京都","city":"墨田区","address":"墨田区江東橋三丁目9番7号","lat":35.695082,"lon":139.813206},{"name":"向島公証役場","province":"東京都","city":"墨田区","address":"墨田区東向島六丁目1番3号","lat":35.722318,"lon":139.818681},{"name":"東京都第五建設事務所墨田工区","province":"東京都","city":"墨田区","address":"墨田区堤通一丁目16番4号","lat":35.725814,"lon":139.810888},{"name":"墨田年金事務所","province":"東京都","city":"墨田区","address":"墨田区立川三丁目8番12号","lat":35.691042,"lon":139.804712},{"name":"一般財団法人墨田まちづくり公社","province":"東京都","city":"墨田区","address":"墨田区東向島二丁目36番10号","lat":35.721369,"lon":139.817609},{"name":"一般財団法人墨田まちづくり公社京島事務所","province":"東京都","city":"墨田区","address":"墨田区京島二丁目15番5号","lat":35.713242,"lon":139.821051},{"name":"一般財団法人墨田まちづくり公社鐘ヶ淵事務所","province":"東京都","city":"墨田区","address":"墨田区墨田三丁目40番3号","lat":35.730741,"lon":139.822325},{"name":"社会福祉法人墨田区社会福祉事業団","province":"東京都","city":"墨田区","address":"墨田区向島三丁目36番7号","lat":35.71338,"lon":139.810876},{"name":"一般社団法人墨田区観光協会","province":"東京都","city":"墨田区","address":"墨田区押上一丁目1番2号東京スカイツリータウン・ソラマチ5階まち処内","lat":35.710434,"lon":139.812014},{"name":"公益財団法人墨田区文化振興財団","province":"東京都","city":"墨田区","address":"墨田区錦糸一丁目2番3号","lat":35.697304,"lon":139.810052},{"name":"ハローワーク墨田","province":"東京都","city":"墨田区","address":"墨田区江東橋二丁目19番12号","lat":35.696235,"lon":139.811413},{"name":"向島労働基準監督署","province":"東京都","city":"墨田区","address":"墨田区東向島四丁目33番13号","lat":35.725511,"lon":139.818772},{"name":"独立行政法人高齢・障害・求職者雇用支援機構東京支部","province":"東京都","city":"墨田区","address":"墨田区江東橋二丁目19番12号","lat":35.696235,"lon":139.811413},{"name":"公益社団法人墨田区シルバー人材センター","province":"東京都","city":"墨田区","address":"墨田区文花一丁目32番1号101","lat":35.708509,"lon":139.824936},{"name":"墨田区シルバー人材センター向島作業所","province":"東京都","city":"墨田区","address":"墨田区東向島一丁目17番11号","lat":35.720828,"lon":139.815445},{"name":"墨田区シルバー人材センター緑作業所","province":"東京都","city":"墨田区","address":"墨田区緑四丁目35番6号","lat":35.695825,"lon":139.807408},{"name":"公益社団法人墨田区勤労者福祉サービスセンター","province":"東京都","city":"墨田区","address":"墨田区押上二丁目12番7号215号室","lat":35.712706,"lon":139.811982},{"name":"国際ファッションセンター株式会社","province":"東京都","city":"墨田区","address":"墨田区横網一丁目6番1号","lat":35.698175,"lon":139.796902},{"name":"一般財団法人ファッション産業人材育成機構","province":"東京都","city":"墨田区","address":"墨田区横網一丁目6番1号KFCビル11階","lat":35.698175,"lon":139.796902},{"name":"東京都立皮革技術センター","province":"東京都","city":"墨田区","address":"墨田区東墨田三丁目3番14号","lat":35.720127,"lon":139.83351},{"name":"東京都立産業技術研究センター墨田支所","province":"東京都","city":"墨田区","address":"墨田区横網一丁目6番1号KFCビル12階","lat":35.698175,"lon":139.796902},{"name":"墨田区保健所","province":"東京都","city":"墨田区","address":"墨田区吾妻橋1-23-20","lat":35.710724,"lon":139.801496},{"name":"向島保健センター","province":"東京都","city":"墨田区","address":"墨田区東向島5-16-2","lat":35.725882,"lon":139.821106},{"name":"本所保健センター","province":"東京都","city":"墨田区","address":"墨田区東駒形1-6-4","lat":35.705438,"lon":139.798058},{"name":"墨田区保健所","province":"東京都","city":"墨田区","address":"東京都墨田区吾妻橋1丁目23-20","lat":35.71072382,"lon":139.80149602},{"name":"向島保健センター","province":"東京都","city":"墨田区","address":"東京都墨田区東向島5丁目16-2","lat":35.72588248,"lon":139.82110559},{"name":"本所保健センター","province":"東京都","city":"墨田区","address":"東京都墨田区東駒形1丁目6-4","lat":35.7054382,"lon":139.79805828},{"name":"墨田区保健所","province":"東京都","city":"墨田区","address":"墨田区吾妻橋1-23-20","lat":35.71006,"lon":139.8011},{"name":"向島保健センター","province":"東京都","city":"墨田区","address":"墨田区東向島5-16-2","lat":35.72611,"lon":139.82111},{"name":"本所保健センター","province":"東京都","city":"墨田区","address":"墨田区東駒形1-6-4","lat":35.70532,"lon":139.79796},{"name":"墨田区選挙管理委員会","province":"東京都","city":"墨田区","address":"墨田区吾妻橋1-23-20","lat":35.710505,"lon":139.801508},{"name":"本所警察署","province":"東京都","city":"墨田区","address":"墨田区横川四丁目8番9号","lat":35.704847,"lon":139.815074},{"name":"向島警察署","province":"東京都","city":"墨田区","address":"墨田区文花三丁目18番9号","lat":35.711729,"lon":139.82726},{"name":"本所消防署","province":"東京都","city":"墨田区","address":"墨田区横川四丁目6番6号","lat":35.703922,"lon":139.815226},{"name":"本所防災館","province":"東京都","city":"墨田区","address":"墨田区横川四丁目6番6号","lat":35.703922,"lon":139.815226},{"name":"向島消防署","province":"東京都","city":"墨田区","address":"墨田区東向島六丁目22番3号","lat":35.723625,"lon":139.820023},{"name":"墨田都税事務所","province":"東京都","city":"墨田区","address":"墨田区業平一丁目7番4号","lat":35.707803,"lon":139.809041},{"name":"本所税務署","province":"東京都","city":"墨田区","address":"墨田区業平一丁目7番2号","lat":35.707541,"lon":139.809207},{"name":"向島税務署","province":"東京都","city":"墨田区","address":"墨田区東向島二丁目7番14号","lat":35.716957,"lon":139.815593},{"name":"水道局墨田営業所","province":"東京都","city":"墨田区","address":"墨田区千歳二丁目2番11号","lat":35.69051,"lon":139.795701},{"name":"下水道局東部第一下水道事務所墨田出張所","province":"東京都","city":"墨田区","address":"墨田区横網一丁目4番12号","lat":35.69702,"lon":139.795017},{"name":"向島郵便局","province":"東京都","city":"墨田区","address":"墨田区東向島二丁目32番25号","lat":35.719767,"lon":139.817301},{"name":"本所郵便局","province":"東京都","city":"墨田区","address":"墨田区太平四丁目21番2号","lat":35.702642,"lon":139.817771},{"name":"東京法務局墨田出張所","province":"東京都","city":"墨田区","address":"墨田区菊川一丁目17番13号","lat":35.68987,"lon":139.801716},{"name":"東京簡易裁判所墨田庁舎","province":"東京都","city":"墨田区","address":"墨田区錦糸四丁目16番7号","lat":35.698318,"lon":139.818312},{"name":"東京区検察庁墨田分室","province":"東京都","city":"墨田区","address":"墨田区錦糸四丁目16番7号","lat":35.698318,"lon":139.818312},{"name":"警視庁交通執行課墨田分室","province":"東京都","city":"墨田区","address":"墨田区錦糸四丁目16番7号","lat":35.698318,"lon":139.818312},{"name":"錦糸町公証役場","province":"東京都","city":"墨田区","address":"墨田区江東橋三丁目9番7号","lat":35.695082,"lon":139.813206},{"name":"向島公証役場","province":"東京都","city":"墨田区","address":"墨田区東向島六丁目1番3号","lat":35.722318,"lon":139.818681},{"name":"東京都第五建設事務所墨田工区","province":"東京都","city":"墨田区","address":"墨田区堤通一丁目16番4号","lat":35.725814,"lon":139.810888},{"name":"墨田年金事務所","province":"東京都","city":"墨田区","address":"墨田区立川三丁目8番12号","lat":35.691042,"lon":139.804712},{"name":"一般財団法人墨田まちづくり公社","province":"東京都","city":"墨田区","address":"墨田区東向島二丁目36番10号","lat":35.721369,"lon":139.817609},{"name":"一般財団法人墨田まちづくり公社京島事務所","province":"東京都","city":"墨田区","address":"墨田区京島二丁目15番5号","lat":35.713242,"lon":139.821051},{"name":"一般財団法人墨田まちづくり公社鐘ヶ淵事務所","province":"東京都","city":"墨田区","address":"墨田区墨田三丁目40番3号","lat":35.730741,"lon":139.822325},{"name":"社会福祉法人墨田区社会福祉事業団","province":"東京都","city":"墨田区","address":"墨田区向島三丁目36番7号","lat":35.71338,"lon":139.810876},{"name":"一般社団法人墨田区観光協会","province":"東京都","city":"墨田区","address":"墨田区押上一丁目1番2号東京スカイツリータウン・ソラマチ5階まち処内","lat":35.710434,"lon":139.812014},{"name":"公益財団法人墨田区文化振興財団","province":"東京都","city":"墨田区","address":"墨田区錦糸一丁目2番3号","lat":35.697304,"lon":139.810052},{"name":"ハローワーク墨田","province":"東京都","city":"墨田区","address":"墨田区江東橋二丁目19番12号","lat":35.696235,"lon":139.811413},{"name":"向島労働基準監督署","province":"東京都","city":"墨田区","address":"墨田区東向島四丁目33番13号","lat":35.725511,"lon":139.818772},{"name":"独立行政法人高齢・障害・求職者雇用支援機構東京支部","province":"東京都","city":"墨田区","address":"墨田区江東橋二丁目19番12号","lat":35.696235,"lon":139.811413},{"name":"公益社団法人墨田区シルバー人材センター","province":"東京都","city":"墨田区","address":"墨田区文花一丁目32番1号101","lat":35.708509,"lon":139.824936},{"name":"墨田区シルバー人材センター向島作業所","province":"東京都","city":"墨田区","address":"墨田区東向島一丁目17番11号","lat":35.720828,"lon":139.815445},{"name":"墨田区シルバー人材センター緑作業所","province":"東京都","city":"墨田区","address":"墨田区緑四丁目35番6号","lat":35.695825,"lon":139.807408},{"name":"公益社団法人墨田区勤労者福祉サービスセンター","province":"東京都","city":"墨田区","address":"墨田区押上二丁目12番7号215号室","lat":35.712706,"lon":139.811982},{"name":"国際ファッションセンター株式会社","province":"東京都","city":"墨田区","address":"墨田区横網一丁目6番1号","lat":35.698175,"lon":139.796902},{"name":"一般財団法人ファッション産業人材育成機構","province":"東京都","city":"墨田区","address":"墨田区横網一丁目6番1号KFCビル11階","lat":35.698175,"lon":139.796902},{"name":"東京都立皮革技術センター","province":"東京都","city":"墨田区","address":"墨田区東墨田三丁目3番14号","lat":35.720127,"lon":139.83351},{"name":"東京都立産業技術研究センター墨田支所","province":"東京都","city":"墨田区","address":"墨田区横網一丁目6番1号KFCビル12階","lat":35.698175,"lon":139.796902},{"name":"墨田区保健所","province":"東京都","city":"墨田区","address":"墨田区吾妻橋1-23-20","lat":35.710724,"lon":139.801496},{"name":"向島保健センター","province":"東京都","city":"墨田区","address":"墨田区東向島5-16-2","lat":35.725882,"lon":139.821106},{"name":"本所保健センター","province":"東京都","city":"墨田区","address":"墨田区東駒形1-6-4","lat":35.705438,"lon":139.798058},{"name":"墨田区保健所","province":"東京都","city":"墨田区","address":"東京都墨田区吾妻橋1丁目23-20","lat":35.71072382,"lon":139.80149602},{"name":"向島保健センター","province":"東京都","city":"墨田区","address":"東京都墨田区東向島5丁目16-2","lat":35.72588248,"lon":139.82110559},{"name":"本所保健センター","province":"東京都","city":"墨田区","address":"東京都墨田区東駒形1丁目6-4","lat":35.7054382,"lon":139.79805828},{"name":"墨田区保健所","province":"東京都","city":"墨田区","address":"墨田区吾妻橋1-23-20","lat":35.71006,"lon":139.8011},{"name":"向島保健センター","province":"東京都","city":"墨田区","address":"墨田区東向島5-16-2","lat":35.72611,"lon":139.82111},{"name":"本所保健センター","province":"東京都","city":"墨田区","address":"墨田区東駒形1-6-4","lat":35.70532,"lon":139.79796},{"name":"墨田区選挙管理委員会","province":"東京都","city":"墨田区","address":"墨田区吾妻橋1-23-20","lat":35.710505,"lon":139.801508},{"name":"本所警察署","province":"東京都","city":"墨田区","address":"墨田区横川四丁目8番9号","lat":35.704847,"lon":139.815074},{"name":"向島警察署","province":"東京都","city":"墨田区","address":"墨田区文花三丁目18番9号","lat":35.711729,"lon":139.82726},{"name":"本所消防署","province":"東京都","city":"墨田区","address":"墨田区横川四丁目6番6号","lat":35.703922,"lon":139.815226},{"name":"本所防災館","province":"東京都","city":"墨田区","address":"墨田区横川四丁目6番6号","lat":35.703922,"lon":139.815226},{"name":"向島消防署","province":"東京都","city":"墨田区","address":"墨田区東向島六丁目22番3号","lat":35.723625,"lon":139.820023},{"name":"墨田都税事務所","province":"東京都","city":"墨田区","address":"墨田区業平一丁目7番4号","lat":35.707803,"lon":139.809041},{"name":"本所税務署","province":"東京都","city":"墨田区","address":"墨田区業平一丁目7番2号","lat":35.707541,"lon":139.809207},{"name":"向島税務署","province":"東京都","city":"墨田区","address":"墨田区東向島二丁目7番14号","lat":35.716957,"lon":139.815593},{"name":"水道局墨田営業所","province":"東京都","city":"墨田区","address":"墨田区千歳二丁目2番11号","lat":35.69051,"lon":139.795701},{"name":"下水道局東部第一下水道事務所墨田出張所","province":"東京都","city":"墨田区","address":"墨田区横網一丁目4番12号","lat":35.69702,"lon":139.795017},{"name":"向島郵便局","province":"東京都","city":"墨田区","address":"墨田区東向島二丁目32番25号","lat":35.719767,"lon":139.817301},{"name":"本所郵便局","province":"東京都","city":"墨田区","address":"墨田区太平四丁目21番2号","lat":35.702642,"lon":139.817771},{"name":"東京法務局墨田出張所","province":"東京都","city":"墨田区","address":"墨田区菊川一丁目17番13号","lat":35.68987,"lon":139.801716},{"name":"東京簡易裁判所墨田庁舎","province":"東京都","city":"墨田区","address":"墨田区錦糸四丁目16番7号","lat":35.698318,"lon":139.818312},{"name":"東京区検察庁墨田分室","province":"東京都","city":"墨田区","address":"墨田区錦糸四丁目16番7号","lat":35.698318,"lon":139.818312},{"name":"警視庁交通執行課墨田分室","province":"東京都","city":"墨田区","address":"墨田区錦糸四丁目16番7号","lat":35.698318,"lon":139.818312},{"name":"錦糸町公証役場","province":"東京都","city":"墨田区","address":"墨田区江東橋三丁目9番7号","lat":35.695082,"lon":139.813206},{"name":"向島公証役場","province":"東京都","city":"墨田区","address":"墨田区東向島六丁目1番3号","lat":35.722318,"lon":139.818681},{"name":"東京都第五建設事務所墨田工区","province":"東京都","city":"墨田区","address":"墨田区堤通一丁目16番4号","lat":35.725814,"lon":139.810888},{"name":"墨田年金事務所","province":"東京都","city":"墨田区","address":"墨田区立川三丁目8番12号","lat":35.691042,"lon":139.804712},{"name":"一般財団法人墨田まちづくり公社","province":"東京都","city":"墨田区","address":"墨田区東向島二丁目36番10号","lat":35.721369,"lon":139.817609},{"name":"一般財団法人墨田まちづくり公社京島事務所","province":"東京都","city":"墨田区","address":"墨田区京島二丁目15番5号","lat":35.713242,"lon":139.821051},{"name":"一般財団法人墨田まちづくり公社鐘ヶ淵事務所","province":"東京都","city":"墨田区","address":"墨田区墨田三丁目40番3号","lat":35.730741,"lon":139.822325},{"name":"社会福祉法人墨田区社会福祉事業団","province":"東京都","city":"墨田区","address":"墨田区向島三丁目36番7号","lat":35.71338,"lon":139.810876},{"name":"一般社団法人墨田区観光協会","province":"東京都","city":"墨田区","address":"墨田区押上一丁目1番2号東京スカイツリータウン・ソラマチ5階まち処内","lat":35.710434,"lon":139.812014},{"name":"公益財団法人墨田区文化振興財団","province":"東京都","city":"墨田区","address":"墨田区錦糸一丁目2番3号","lat":35.697304,"lon":139.810052},{"name":"ハローワーク墨田","province":"東京都","city":"墨田区","address":"墨田区江東橋二丁目19番12号","lat":35.696235,"lon":139.811413},{"name":"向島労働基準監督署","province":"東京都","city":"墨田区","address":"墨田区東向島四丁目33番13号","lat":35.725511,"lon":139.818772},{"name":"独立行政法人高齢・障害・求職者雇用支援機構東京支部","province":"東京都","city":"墨田区","address":"墨田区江東橋二丁目19番12号","lat":35.696235,"lon":139.811413},{"name":"公益社団法人墨田区シルバー人材センター","province":"東京都","city":"墨田区","address":"墨田区文花一丁目32番1号101","lat":35.708509,"lon":139.824936},{"name":"墨田区シルバー人材センター向島作業所","province":"東京都","city":"墨田区","address":"墨田区東向島一丁目17番11号","lat":35.720828,"lon":139.815445},{"name":"墨田区シルバー人材センター緑作業所","province":"東京都","city":"墨田区","address":"墨田区緑四丁目35番6号","lat":35.695825,"lon":139.807408},{"name":"公益社団法人墨田区勤労者福祉サービスセンター","province":"東京都","city":"墨田区","address":"墨田区押上二丁目12番7号215号室","lat":35.712706,"lon":139.811982},{"name":"国際ファッションセンター株式会社","province":"東京都","city":"墨田区","address":"墨田区横網一丁目6番1号","lat":35.698175,"lon":139.796902},{"name":"一般財団法人ファッション産業人材育成機構","province":"東京都","city":"墨田区","address":"墨田区横網一丁目6番1号KFCビル11階","lat":35.698175,"lon":139.796902},{"name":"東京都立皮革技術センター","province":"東京都","city":"墨田区","address":"墨田区東墨田三丁目3番14号","lat":35.720127,"lon":139.83351},{"name":"東京都立産業技術研究センター墨田支所","province":"東京都","city":"墨田区","address":"墨田区横網一丁目6番1号KFCビル12階","lat":35.698175,"lon":139.796902},{"name":"墨田区保健所","province":"東京都","city":"墨田区","address":"墨田区吾妻橋1-23-20","lat":35.710724,"lon":139.801496},{"name":"向島保健センター","province":"東京都","city":"墨田区","address":"墨田区東向島5-16-2","lat":35.725882,"lon":139.821106},{"name":"本所保健センター","province":"東京都","city":"墨田区","address":"墨田区東駒形1-6-4","lat":35.705438,"lon":139.798058},{"name":"墨田区保健所","province":"東京都","city":"墨田区","address":"東京都墨田区吾妻橋1丁目23-20","lat":35.71072382,"lon":139.80149602},{"name":"向島保健センター","province":"東京都","city":"墨田区","address":"東京都墨田区東向島5丁目16-2","lat":35.72588248,"lon":139.82110559},{"name":"本所保健センター","province":"東京都","city":"墨田区","address":"東京都墨田区東駒形1丁目6-4","lat":35.7054382,"lon":139.79805828},{"name":"墨田区保健所","province":"東京都","city":"墨田区","address":"墨田区吾妻橋1-23-20","lat":35.71006,"lon":139.8011},{"name":"向島保健センター","province":"東京都","city":"墨田区","address":"墨田区東向島5-16-2","lat":35.72611,"lon":139.82111},{"name":"本所保健センター","province":"東京都","city":"墨田区","address":"墨田区東駒形1-6-4","lat":35.70532,"lon":139.79796},{"name":"墨田区選挙管理委員会","province":"東京都","city":"墨田区","address":"墨田区吾妻橋1-23-20","lat":35.710505,"lon":139.801508},{"name":"本所警察署","province":"東京都","city":"墨田区","address":"墨田区横川四丁目8番9号","lat":35.704847,"lon":139.815074},{"name":"向島警察署","province":"東京都","city":"墨田区","address":"墨田区文花三丁目18番9号","lat":35.711729,"lon":139.82726},{"name":"本所消防署","province":"東京都","city":"墨田区","address":"墨田区横川四丁目6番6号","lat":35.703922,"lon":139.815226},{"name":"本所防災館","province":"東京都","city":"墨田区","address":"墨田区横川四丁目6番6号","lat":35.703922,"lon":139.815226},{"name":"向島消防署","province":"東京都","city":"墨田区","address":"墨田区東向島六丁目22番3号","lat":35.723625,"lon":139.820023},{"name":"墨田都税事務所","province":"東京都","city":"墨田区","address":"墨田区業平一丁目7番4号","lat":35.707803,"lon":139.809041},{"name":"本所税務署","province":"東京都","city":"墨田区","address":"墨田区業平一丁目7番2号","lat":35.707541,"lon":139.809207},{"name":"向島税務署","province":"東京都","city":"墨田区","address":"墨田区東向島二丁目7番14号","lat":35.716957,"lon":139.815593},{"name":"水道局墨田営業所","province":"東京都","city":"墨田区","address":"墨田区千歳二丁目2番11号","lat":35.69051,"lon":139.795701},{"name":"下水道局東部第一下水道事務所墨田出張所","province":"東京都","city":"墨田区","address":"墨田区横網一丁目4番12号","lat":35.69702,"lon":139.795017},{"name":"向島郵便局","province":"東京都","city":"墨田区","address":"墨田区東向島二丁目32番25号","lat":35.719767,"lon":139.817301},{"name":"本所郵便局","province":"東京都","city":"墨田区","address":"墨田区太平四丁目21番2号","lat":35.702642,"lon":139.817771},{"name":"東京法務局墨田出張所","province":"東京都","city":"墨田区","address":"墨田区菊川一丁目17番13号","lat":35.68987,"lon":139.801716},{"name":"東京簡易裁判所墨田庁舎","province":"東京都","city":"墨田区","address":"墨田区錦糸四丁目16番7号","lat":35.698318,"lon":139.818312},{"name":"東京区検察庁墨田分室","province":"東京都","city":"墨田区","address":"墨田区錦糸四丁目16番7号","lat":35.698318,"lon":139.818312},{"name":"警視庁交通執行課墨田分室","province":"東京都","city":"墨田区","address":"墨田区錦糸四丁目16番7号","lat":35.698318,"lon":139.818312},{"name":"錦糸町公証役場","province":"東京都","city":"墨田区","address":"墨田区江東橋三丁目9番7号","lat":35.695082,"lon":139.813206},{"name":"向島公証役場","province":"東京都","city":"墨田区","address":"墨田区東向島六丁目1番3号","lat":35.722318,"lon":139.818681},{"name":"東京都第五建設事務所墨田工区","province":"東京都","city":"墨田区","address":"墨田区堤通一丁目16番4号","lat":35.725814,"lon":139.810888},{"name":"墨田年金事務所","province":"東京都","city":"墨田区","address":"墨田区立川三丁目8番12号","lat":35.691042,"lon":139.804712},{"name":"一般財団法人墨田まちづくり公社","province":"東京都","city":"墨田区","address":"墨田区東向島二丁目36番10号","lat":35.721369,"lon":139.817609},{"name":"一般財団法人墨田まちづくり公社京島事務所","province":"東京都","city":"墨田区","address":"墨田区京島二丁目15番5号","lat":35.713242,"lon":139.821051},{"name":"一般財団法人墨田まちづくり公社鐘ヶ淵事務所","province":"東京都","city":"墨田区","address":"墨田区墨田三丁目40番3号","lat":35.730741,"lon":139.822325},{"name":"社会福祉法人墨田区社会福祉事業団","province":"東京都","city":"墨田区","address":"墨田区向島三丁目36番7号","lat":35.71338,"lon":139.810876},{"name":"一般社団法人墨田区観光協会","province":"東京都","city":"墨田区","address":"墨田区押上一丁目1番2号東京スカイツリータウン・ソラマチ5階まち処内","lat":35.710434,"lon":139.812014},{"name":"公益財団法人墨田区文化振興財団","province":"東京都","city":"墨田区","address":"墨田区錦糸一丁目2番3号","lat":35.697304,"lon":139.810052},{"name":"ハローワーク墨田","province":"東京都","city":"墨田区","address":"墨田区江東橋二丁目19番12号","lat":35.696235,"lon":139.811413},{"name":"向島労働基準監督署","province":"東京都","city":"墨田区","address":"墨田区東向島四丁目33番13号","lat":35.725511,"lon":139.818772},{"name":"独立行政法人高齢・障害・求職者雇用支援機構東京支部","province":"東京都","city":"墨田区","address":"墨田区江東橋二丁目19番12号","lat":35.696235,"lon":139.811413},{"name":"公益社団法人墨田区シルバー人材センター","province":"東京都","city":"墨田区","address":"墨田区文花一丁目32番1号101","lat":35.708509,"lon":139.824936},{"name":"墨田区シルバー人材センター向島作業所","province":"東京都","city":"墨田区","address":"墨田区東向島一丁目17番11号","lat":35.720828,"lon":139.815445},{"name":"墨田区シルバー人材センター緑作業所","province":"東京都","city":"墨田区","address":"墨田区緑四丁目35番6号","lat":35.695825,"lon":139.807408},{"name":"公益社団法人墨田区勤労者福祉サービスセンター","province":"東京都","city":"墨田区","address":"墨田区押上二丁目12番7号215号室","lat":35.712706,"lon":139.811982},{"name":"国際ファッションセンター株式会社","province":"東京都","city":"墨田区","address":"墨田区横網一丁目6番1号","lat":35.698175,"lon":139.796902},{"name":"一般財団法人ファッション産業人材育成機構","province":"東京都","city":"墨田区","address":"墨田区横網一丁目6番1号KFCビル11階","lat":35.698175,"lon":139.796902},{"name":"東京都立皮革技術センター","province":"東京都","city":"墨田区","address":"墨田区東墨田三丁目3番14号","lat":35.720127,"lon":139.83351},{"name":"東京都立産業技術研究センター墨田支所","province":"東京都","city":"墨田区","address":"墨田区横網一丁目6番1号KFCビル12階","lat":35.698175,"lon":139.796902},{"name":"墨田区保健所","province":"東京都","city":"墨田区","address":"墨田区吾妻橋1-23-20","lat":35.710724,"lon":139.801496},{"name":"向島保健センター","province":"東京都","city":"墨田区","address":"墨田区東向島5-16-2","lat":35.725882,"lon":139.821106},{"name":"本所保健センター","province":"東京都","city":"墨田区","address":"墨田区東駒形1-6-4","lat":35.705438,"lon":139.798058},{"name":"墨田区保健所","province":"東京都","city":"墨田区","address":"東京都墨田区吾妻橋1丁目23-20","lat":35.71072382,"lon":139.80149602},{"name":"向島保健センター","province":"東京都","city":"墨田区","address":"東京都墨田区東向島5丁目16-2","lat":35.72588248,"lon":139.82110559},{"name":"本所保健センター","province":"東京都","city":"墨田区","address":"東京都墨田区東駒形1丁目6-4","lat":35.7054382,"lon":139.79805828},{"name":"墨田区保健所","province":"東京都","city":"墨田区","address":"墨田区吾妻橋1-23-20","lat":35.71006,"lon":139.8011},{"name":"向島保健センター","province":"東京都","city":"墨田区","address":"墨田区東向島5-16-2","lat":35.72611,"lon":139.82111},{"name":"本所保健センター","province":"東京都","city":"墨田区","address":"墨田区東駒形1-6-4","lat":35.70532,"lon":139.79796},{"name":"墨田区選挙管理委員会","province":"東京都","city":"墨田区","address":"墨田区吾妻橋1-23-20","lat":35.710505,"lon":139.801508},{"name":"本所警察署","province":"東京都","city":"墨田区","address":"墨田区横川四丁目8番9号","lat":35.704847,"lon":139.815074},{"name":"向島警察署","province":"東京都","city":"墨田区","address":"墨田区文花三丁目18番9号","lat":35.711729,"lon":139.82726},{"name":"本所消防署","province":"東京都","city":"墨田区","address":"墨田区横川四丁目6番6号","lat":35.703922,"lon":139.815226},{"name":"本所防災館","province":"東京都","city":"墨田区","address":"墨田区横川四丁目6番6号","lat":35.703922,"lon":139.815226},{"name":"向島消防署","province":"東京都","city":"墨田区","address":"墨田区東向島六丁目22番3号","lat":35.723625,"lon":139.820023},{"name":"墨田都税事務所","province":"東京都","city":"墨田区","address":"墨田区業平一丁目7番4号","lat":35.707803,"lon":139.809041},{"name":"本所税務署","province":"東京都","city":"墨田区","address":"墨田区業平一丁目7番2号","lat":35.707541,"lon":139.809207},{"name":"向島税務署","province":"東京都","city":"墨田区","address":"墨田区東向島二丁目7番14号","lat":35.716957,"lon":139.815593},{"name":"水道局墨田営業所","province":"東京都","city":"墨田区","address":"墨田区千歳二丁目2番11号","lat":35.69051,"lon":139.795701},{"name":"下水道局東部第一下水道事務所墨田出張所","province":"東京都","city":"墨田区","address":"墨田区横網一丁目4番12号","lat":35.69702,"lon":139.795017},{"name":"向島郵便局","province":"東京都","city":"墨田区","address":"墨田区東向島二丁目32番25号","lat":35.719767,"lon":139.817301},{"name":"本所郵便局","province":"東京都","city":"墨田区","address":"墨田区太平四丁目21番2号","lat":35.702642,"lon":139.817771},{"name":"東京法務局墨田出張所","province":"東京都","city":"墨田区","address":"墨田区菊川一丁目17番13号","lat":35.68987,"lon":139.801716},{"name":"東京簡易裁判所墨田庁舎","province":"東京都","city":"墨田区","address":"墨田区錦糸四丁目16番7号","lat":35.698318,"lon":139.818312},{"name":"東京区検察庁墨田分室","province":"東京都","city":"墨田区","address":"墨田区錦糸四丁目16番7号","lat":35.698318,"lon":139.818312},{"name":"警視庁交通執行課墨田分室","province":"東京都","city":"墨田区","address":"墨田区錦糸四丁目16番7号","lat":35.698318,"lon":139.818312},{"name":"錦糸町公証役場","province":"東京都","city":"墨田区","address":"墨田区江東橋三丁目9番7号","lat":35.695082,"lon":139.813206},{"name":"向島公証役場","province":"東京都","city":"墨田区","address":"墨田区東向島六丁目1番3号","lat":35.722318,"lon":139.818681},{"name":"東京都第五建設事務所墨田工区","province":"東京都","city":"墨田区","address":"墨田区堤通一丁目16番4号","lat":35.725814,"lon":139.810888},{"name":"墨田年金事務所","province":"東京都","city":"墨田区","address":"墨田区立川三丁目8番12号","lat":35.691042,"lon":139.804712},{"name":"一般財団法人墨田まちづくり公社","province":"東京都","city":"墨田区","address":"墨田区東向島二丁目36番10号","lat":35.721369,"lon":139.817609},{"name":"一般財団法人墨田まちづくり公社京島事務所","province":"東京都","city":"墨田区","address":"墨田区京島二丁目15番5号","lat":35.713242,"lon":139.821051},{"name":"一般財団法人墨田まちづくり公社鐘ヶ淵事務所","province":"東京都","city":"墨田区","address":"墨田区墨田三丁目40番3号","lat":35.730741,"lon":139.822325},{"name":"社会福祉法人墨田区社会福祉事業団","province":"東京都","city":"墨田区","address":"墨田区向島三丁目36番7号","lat":35.71338,"lon":139.810876},{"name":"一般社団法人墨田区観光協会","province":"東京都","city":"墨田区","address":"墨田区押上一丁目1番2号東京スカイツリータウン・ソラマチ5階まち処内","lat":35.710434,"lon":139.812014},{"name":"公益財団法人墨田区文化振興財団","province":"東京都","city":"墨田区","address":"墨田区錦糸一丁目2番3号","lat":35.697304,"lon":139.810052},{"name":"ハローワーク墨田","province":"東京都","city":"墨田区","address":"墨田区江東橋二丁目19番12号","lat":35.696235,"lon":139.811413},{"name":"向島労働基準監督署","province":"東京都","city":"墨田区","address":"墨田区東向島四丁目33番13号","lat":35.725511,"lon":139.818772},{"name":"独立行政法人高齢・障害・求職者雇用支援機構東京支部","province":"東京都","city":"墨田区","address":"墨田区江東橋二丁目19番12号","lat":35.696235,"lon":139.811413},{"name":"公益社団法人墨田区シルバー人材センター","province":"東京都","city":"墨田区","address":"墨田区文花一丁目32番1号101","lat":35.708509,"lon":139.824936},{"name":"墨田区シルバー人材センター向島作業所","province":"東京都","city":"墨田区","address":"墨田区東向島一丁目17番11号","lat":35.720828,"lon":139.815445},{"name":"墨田区シルバー人材センター緑作業所","province":"東京都","city":"墨田区","address":"墨田区緑四丁目35番6号","lat":35.695825,"lon":139.807408},{"name":"公益社団法人墨田区勤労者福祉サービスセンター","province":"東京都","city":"墨田区","address":"墨田区押上二丁目12番7号215号室","lat":35.712706,"lon":139.811982},{"name":"国際ファッションセンター株式会社","province":"東京都","city":"墨田区","address":"墨田区横網一丁目6番1号","lat":35.698175,"lon":139.796902},{"name":"一般財団法人ファッション産業人材育成機構","province":"東京都","city":"墨田区","address":"墨田区横網一丁目6番1号KFCビル11階","lat":35.698175,"lon":139.796902},{"name":"東京都立皮革技術センター","province":"東京都","city":"墨田区","address":"墨田区東墨田三丁目3番14号","lat":35.720127,"lon":139.83351},{"name":"東京都立産業技術研究センター墨田支所","province":"東京都","city":"墨田区","address":"墨田区横網一丁目6番1号KFCビル12階","lat":35.698175,"lon":139.796902},{"name":"墨田区保健所","province":"東京都","city":"墨田区","address":"墨田区吾妻橋1-23-20","lat":35.710724,"lon":139.801496},{"name":"向島保健センター","province":"東京都","city":"墨田区","address":"墨田区東向島5-16-2","lat":35.725882,"lon":139.821106},{"name":"本所保健センター","province":"東京都","city":"墨田区","address":"墨田区東駒形1-6-4","lat":35.705438,"lon":139.798058},{"name":"墨田区保健所","province":"東京都","city":"墨田区","address":"東京都墨田区吾妻橋1丁目23-20","lat":35.71072382,"lon":139.80149602},{"name":"向島保健センター","province":"東京都","city":"墨田区","address":"東京都墨田区東向島5丁目16-2","lat":35.72588248,"lon":139.82110559},{"name":"本所保健センター","province":"東京都","city":"墨田区","address":"東京都墨田区東駒形1丁目6-4","lat":35.7054382,"lon":139.79805828},{"name":"墨田区保健所","province":"東京都","city":"墨田区","address":"墨田区吾妻橋1-23-20","lat":35.71006,"lon":139.8011},{"name":"向島保健センター","province":"東京都","city":"墨田区","address":"墨田区東向島5-16-2","lat":35.72611,"lon":139.82111},{"name":"本所保健センター","province":"東京都","city":"墨田区","address":"墨田区東駒形1-6-4","lat":35.70532,"lon":139.79796},{"name":"墨田区選挙管理委員会","province":"東京都","city":"墨田区","address":"墨田区吾妻橋1-23-20","lat":35.710505,"lon":139.801508},{"name":"本所警察署","province":"東京都","city":"墨田区","address":"墨田区横川四丁目8番9号","lat":35.704847,"lon":139.815074},{"name":"向島警察署","province":"東京都","city":"墨田区","address":"墨田区文花三丁目18番9号","lat":35.711729,"lon":139.82726},{"name":"本所消防署","province":"東京都","city":"墨田区","address":"墨田区横川四丁目6番6号","lat":35.703922,"lon":139.815226},{"name":"本所防災館","province":"東京都","city":"墨田区","address":"墨田区横川四丁目6番6号","lat":35.703922,"lon":139.815226},{"name":"向島消防署","province":"東京都","city":"墨田区","address":"墨田区東向島六丁目22番3号","lat":35.723625,"lon":139.820023},{"name":"墨田都税事務所","province":"東京都","city":"墨田区","address":"墨田区業平一丁目7番4号","lat":35.707803,"lon":139.809041},{"name":"本所税務署","province":"東京都","city":"墨田区","address":"墨田区業平一丁目7番2号","lat":35.707541,"lon":139.809207},{"name":"向島税務署","province":"東京都","city":"墨田区","address":"墨田区東向島二丁目7番14号","lat":35.716957,"lon":139.815593},{"name":"水道局墨田営業所","province":"東京都","city":"墨田区","address":"墨田区千歳二丁目2番11号","lat":35.69051,"lon":139.795701},{"name":"下水道局東部第一下水道事務所墨田出張所","province":"東京都","city":"墨田区","address":"墨田区横網一丁目4番12号","lat":35.69702,"lon":139.795017},{"name":"向島郵便局","province":"東京都","city":"墨田区","address":"墨田区東向島二丁目32番25号","lat":35.719767,"lon":139.817301},{"name":"本所郵便局","province":"東京都","city":"墨田区","address":"墨田区太平四丁目21番2号","lat":35.702642,"lon":139.817771},{"name":"東京法務局墨田出張所","province":"東京都","city":"墨田区","address":"墨田区菊川一丁目17番13号","lat":35.68987,"lon":139.801716},{"name":"東京簡易裁判所墨田庁舎","province":"東京都","city":"墨田区","address":"墨田区錦糸四丁目16番7号","lat":35.698318,"lon":139.818312},{"name":"東京区検察庁墨田分室","province":"東京都","city":"墨田区","address":"墨田区錦糸四丁目16番7号","lat":35.698318,"lon":139.818312},{"name":"警視庁交通執行課墨田分室","province":"東京都","city":"墨田区","address":"墨田区錦糸四丁目16番7号","lat":35.698318,"lon":139.818312},{"name":"錦糸町公証役場","province":"東京都","city":"墨田区","address":"墨田区江東橋三丁目9番7号","lat":35.695082,"lon":139.813206},{"name":"向島公証役場","province":"東京都","city":"墨田区","address":"墨田区東向島六丁目1番3号","lat":35.722318,"lon":139.818681},{"name":"東京都第五建設事務所墨田工区","province":"東京都","city":"墨田区","address":"墨田区堤通一丁目16番4号","lat":35.725814,"lon":139.810888},{"name":"墨田年金事務所","province":"東京都","city":"墨田区","address":"墨田区立川三丁目8番12号","lat":35.691042,"lon":139.804712},{"name":"一般財団法人墨田まちづくり公社","province":"東京都","city":"墨田区","address":"墨田区東向島二丁目36番10号","lat":35.721369,"lon":139.817609},{"name":"一般財団法人墨田まちづくり公社京島事務所","province":"東京都","city":"墨田区","address":"墨田区京島二丁目15番5号","lat":35.713242,"lon":139.821051},{"name":"一般財団法人墨田まちづくり公社鐘ヶ淵事務所","province":"東京都","city":"墨田区","address":"墨田区墨田三丁目40番3号","lat":35.730741,"lon":139.822325},{"name":"社会福祉法人墨田区社会福祉事業団","province":"東京都","city":"墨田区","address":"墨田区向島三丁目36番7号","lat":35.71338,"lon":139.810876},{"name":"一般社団法人墨田区観光協会","province":"東京都","city":"墨田区","address":"墨田区押上一丁目1番2号東京スカイツリータウン・ソラマチ5階まち処内","lat":35.710434,"lon":139.812014},{"name":"公益財団法人墨田区文化振興財団","province":"東京都","city":"墨田区","address":"墨田区錦糸一丁目2番3号","lat":35.697304,"lon":139.810052},{"name":"ハローワーク墨田","province":"東京都","city":"墨田区","address":"墨田区江東橋二丁目19番12号","lat":35.696235,"lon":139.811413},{"name":"向島労働基準監督署","province":"東京都","city":"墨田区","address":"墨田区東向島四丁目33番13号","lat":35.725511,"lon":139.818772},{"name":"独立行政法人高齢・障害・求職者雇用支援機構東京支部","province":"東京都","city":"墨田区","address":"墨田区江東橋二丁目19番12号","lat":35.696235,"lon":139.811413},{"name":"公益社団法人墨田区シルバー人材センター","province":"東京都","city":"墨田区","address":"墨田区文花一丁目32番1号101","lat":35.708509,"lon":139.824936},{"name":"墨田区シルバー人材センター向島作業所","province":"東京都","city":"墨田区","address":"墨田区東向島一丁目17番11号","lat":35.720828,"lon":139.815445},{"name":"墨田区シルバー人材センター緑作業所","province":"東京都","city":"墨田区","address":"墨田区緑四丁目35番6号","lat":35.695825,"lon":139.807408},{"name":"公益社団法人墨田区勤労者福祉サービスセンター","province":"東京都","city":"墨田区","address":"墨田区押上二丁目12番7号215号室","lat":35.712706,"lon":139.811982},{"name":"国際ファッションセンター株式会社","province":"東京都","city":"墨田区","address":"墨田区横網一丁目6番1号","lat":35.698175,"lon":139.796902},{"name":"一般財団法人ファッション産業人材育成機構","province":"東京都","city":"墨田区","address":"墨田区横網一丁目6番1号KFCビル11階","lat":35.698175,"lon":139.796902},{"name":"東京都立皮革技術センター","province":"東京都","city":"墨田区","address":"墨田区東墨田三丁目3番14号","lat":35.720127,"lon":139.83351},{"name":"東京都立産業技術研究センター墨田支所","province":"東京都","city":"墨田区","address":"墨田区横網一丁目6番1号KFCビル12階","lat":35.698175,"lon":139.796902},{"name":"墨田区保健所","province":"東京都","city":"墨田区","address":"墨田区吾妻橋1-23-20","lat":35.710724,"lon":139.801496},{"name":"向島保健センター","province":"東京都","city":"墨田区","address":"墨田区東向島5-16-2","lat":35.725882,"lon":139.821106},{"name":"本所保健センター","province":"東京都","city":"墨田区","address":"墨田区東駒形1-6-4","lat":35.705438,"lon":139.798058},{"name":"墨田区保健所","province":"東京都","city":"墨田区","address":"東京都墨田区吾妻橋1丁目23-20","lat":35.71072382,"lon":139.80149602},{"name":"向島保健センター","province":"東京都","city":"墨田区","address":"東京都墨田区東向島5丁目16-2","lat":35.72588248,"lon":139.82110559},{"name":"本所保健センター","province":"東京都","city":"墨田区","address":"東京都墨田区東駒形1丁目6-4","lat":35.7054382,"lon":139.79805828},{"name":"墨田区保健所","province":"東京都","city":"墨田区","address":"墨田区吾妻橋1-23-20","lat":35.71006,"lon":139.8011},{"name":"向島保健センター","province":"東京都","city":"墨田区","address":"墨田区東向島5-16-2","lat":35.72611,"lon":139.82111},{"name":"本所保健センター","province":"東京都","city":"墨田区","address":"墨田区東駒形1-6-4","lat":35.70532,"lon":139.79796},{"name":"墨田区選挙管理委員会","province":"東京都","city":"墨田区","address":"墨田区吾妻橋1-23-20","lat":35.710505,"lon":139.801508},{"name":"本所警察署","province":"東京都","city":"墨田区","address":"墨田区横川四丁目8番9号","lat":35.704847,"lon":139.815074},{"name":"向島警察署","province":"東京都","city":"墨田区","address":"墨田区文花三丁目18番9号","lat":35.711729,"lon":139.82726},{"name":"本所消防署","province":"東京都","city":"墨田区","address":"墨田区横川四丁目6番6号","lat":35.703922,"lon":139.815226},{"name":"本所防災館","province":"東京都","city":"墨田区","address":"墨田区横川四丁目6番6号","lat":35.703922,"lon":139.815226},{"name":"向島消防署","province":"東京都","city":"墨田区","address":"墨田区東向島六丁目22番3号","lat":35.723625,"lon":139.820023},{"name":"墨田都税事務所","province":"東京都","city":"墨田区","address":"墨田区業平一丁目7番4号","lat":35.707803,"lon":139.809041},{"name":"本所税務署","province":"東京都","city":"墨田区","address":"墨田区業平一丁目7番2号","lat":35.707541,"lon":139.809207},{"name":"向島税務署","province":"東京都","city":"墨田区","address":"墨田区東向島二丁目7番14号","lat":35.716957,"lon":139.815593},{"name":"水道局墨田営業所","province":"東京都","city":"墨田区","address":"墨田区千歳二丁目2番11号","lat":35.69051,"lon":139.795701},{"name":"下水道局東部第一下水道事務所墨田出張所","province":"東京都","city":"墨田区","address":"墨田区横網一丁目4番12号","lat":35.69702,"lon":139.795017},{"name":"向島郵便局","province":"東京都","city":"墨田区","address":"墨田区東向島二丁目32番25号","lat":35.719767,"lon":139.817301},{"name":"本所郵便局","province":"東京都","city":"墨田区","address":"墨田区太平四丁目21番2号","lat":35.702642,"lon":139.817771},{"name":"東京法務局墨田出張所","province":"東京都","city":"墨田区","address":"墨田区菊川一丁目17番13号","lat":35.68987,"lon":139.801716},{"name":"東京簡易裁判所墨田庁舎","province":"東京都","city":"墨田区","address":"墨田区錦糸四丁目16番7号","lat":35.698318,"lon":139.818312},{"name":"東京区検察庁墨田分室","province":"東京都","city":"墨田区","address":"墨田区錦糸四丁目16番7号","lat":35.698318,"lon":139.818312},{"name":"警視庁交通執行課墨田分室","province":"東京都","city":"墨田区","address":"墨田区錦糸四丁目16番7号","lat":35.698318,"lon":139.818312},{"name":"錦糸町公証役場","province":"東京都","city":"墨田区","address":"墨田区江東橋三丁目9番7号","lat":35.695082,"lon":139.813206},{"name":"向島公証役場","province":"東京都","city":"墨田区","address":"墨田区東向島六丁目1番3号","lat":35.722318,"lon":139.818681},{"name":"東京都第五建設事務所墨田工区","province":"東京都","city":"墨田区","address":"墨田区堤通一丁目16番4号","lat":35.725814,"lon":139.810888},{"name":"墨田年金事務所","province":"東京都","city":"墨田区","address":"墨田区立川三丁目8番12号","lat":35.691042,"lon":139.804712},{"name":"一般財団法人墨田まちづくり公社","province":"東京都","city":"墨田区","address":"墨田区東向島二丁目36番10号","lat":35.721369,"lon":139.817609},{"name":"一般財団法人墨田まちづくり公社京島事務所","province":"東京都","city":"墨田区","address":"墨田区京島二丁目15番5号","lat":35.713242,"lon":139.821051},{"name":"一般財団法人墨田まちづくり公社鐘ヶ淵事務所","province":"東京都","city":"墨田区","address":"墨田区墨田三丁目40番3号","lat":35.730741,"lon":139.822325},{"name":"社会福祉法人墨田区社会福祉事業団","province":"東京都","city":"墨田区","address":"墨田区向島三丁目36番7号","lat":35.71338,"lon":139.810876},{"name":"一般社団法人墨田区観光協会","province":"東京都","city":"墨田区","address":"墨田区押上一丁目1番2号東京スカイツリータウン・ソラマチ5階まち処内","lat":35.710434,"lon":139.812014},{"name":"公益財団法人墨田区文化振興財団","province":"東京都","city":"墨田区","address":"墨田区錦糸一丁目2番3号","lat":35.697304,"lon":139.810052},{"name":"ハローワーク墨田","province":"東京都","city":"墨田区","address":"墨田区江東橋二丁目19番12号","lat":35.696235,"lon":139.811413},{"name":"向島労働基準監督署","province":"東京都","city":"墨田区","address":"墨田区東向島四丁目33番13号","lat":35.725511,"lon":139.818772},{"name":"独立行政法人高齢・障害・求職者雇用支援機構東京支部","province":"東京都","city":"墨田区","address":"墨田区江東橋二丁目19番12号","lat":35.696235,"lon":139.811413},{"name":"公益社団法人墨田区シルバー人材センター","province":"東京都","city":"墨田区","address":"墨田区文花一丁目32番1号101","lat":35.708509,"lon":139.824936},{"name":"墨田区シルバー人材センター向島作業所","province":"東京都","city":"墨田区","address":"墨田区東向島一丁目17番11号","lat":35.720828,"lon":139.815445},{"name":"墨田区シルバー人材センター緑作業所","province":"東京都","city":"墨田区","address":"墨田区緑四丁目35番6号","lat":35.695825,"lon":139.807408},{"name":"公益社団法人墨田区勤労者福祉サービスセンター","province":"東京都","city":"墨田区","address":"墨田区押上二丁目12番7号215号室","lat":35.712706,"lon":139.811982},{"name":"国際ファッションセンター株式会社","province":"東京都","city":"墨田区","address":"墨田区横網一丁目6番1号","lat":35.698175,"lon":139.796902},{"name":"一般財団法人ファッション産業人材育成機構","province":"東京都","city":"墨田区","address":"墨田区横網一丁目6番1号KFCビル11階","lat":35.698175,"lon":139.796902},{"name":"東京都立皮革技術センター","province":"東京都","city":"墨田区","address":"墨田区東墨田三丁目3番14号","lat":35.720127,"lon":139.83351},{"name":"東京都立産業技術研究センター墨田支所","province":"東京都","city":"墨田区","address":"墨田区横網一丁目6番1号KFCビル12階","lat":35.698175,"lon":139.796902},{"name":"墨田区保健所","province":"東京都","city":"墨田区","address":"墨田区吾妻橋1-23-20","lat":35.710724,"lon":139.801496},{"name":"向島保健センター","province":"東京都","city":"墨田区","address":"墨田区東向島5-16-2","lat":35.725882,"lon":139.821106},{"name":"本所保健センター","province":"東京都","city":"墨田区","address":"墨田区東駒形1-6-4","lat":35.705438,"lon":139.798058},{"name":"墨田区保健所","province":"東京都","city":"墨田区","address":"東京都墨田区吾妻橋1丁目23-20","lat":35.71072382,"lon":139.80149602},{"name":"向島保健センター","province":"東京都","city":"墨田区","address":"東京都墨田区東向島5丁目16-2","lat":35.72588248,"lon":139.82110559},{"name":"本所保健センター","province":"東京都","city":"墨田区","address":"東京都墨田区東駒形1丁目6-4","lat":35.7054382,"lon":139.79805828},{"name":"墨田区保健所","province":"東京都","city":"墨田区","address":"墨田区吾妻橋1-23-20","lat":35.71006,"lon":139.8011},{"name":"向島保健センター","province":"東京都","city":"墨田区","address":"墨田区東向島5-16-2","lat":35.72611,"lon":139.82111},{"name":"本所保健センター","province":"東京都","city":"墨田区","address":"墨田区東駒形1-6-4","lat":35.70532,"lon":139.79796},{"name":"墨田区選挙管理委員会","province":"東京都","city":"墨田区","address":"墨田区吾妻橋1-23-20","lat":35.710505,"lon":139.801508},{"name":"本所警察署","province":"東京都","city":"墨田区","address":"墨田区横川四丁目8番9号","lat":35.704847,"lon":139.815074},{"name":"向島警察署","province":"東京都","city":"墨田区","address":"墨田区文花三丁目18番9号","lat":35.711729,"lon":139.82726},{"name":"本所消防署","province":"東京都","city":"墨田区","address":"墨田区横川四丁目6番6号","lat":35.703922,"lon":139.815226},{"name":"本所防災館","province":"東京都","city":"墨田区","address":"墨田区横川四丁目6番6号","lat":35.703922,"lon":139.815226},{"name":"向島消防署","province":"東京都","city":"墨田区","address":"墨田区東向島六丁目22番3号","lat":35.723625,"lon":139.820023},{"name":"墨田都税事務所","province":"東京都","city":"墨田区","address":"墨田区業平一丁目7番4号","lat":35.707803,"lon":139.809041},{"name":"本所税務署","province":"東京都","city":"墨田区","address":"墨田区業平一丁目7番2号","lat":35.707541,"lon":139.809207},{"name":"向島税務署","province":"東京都","city":"墨田区","address":"墨田区東向島二丁目7番14号","lat":35.716957,"lon":139.815593},{"name":"水道局墨田営業所","province":"東京都","city":"墨田区","address":"墨田区千歳二丁目2番11号","lat":35.69051,"lon":139.795701},{"name":"下水道局東部第一下水道事務所墨田出張所","province":"東京都","city":"墨田区","address":"墨田区横網一丁目4番12号","lat":35.69702,"lon":139.795017},{"name":"向島郵便局","province":"東京都","city":"墨田区","address":"墨田区東向島二丁目32番25号","lat":35.719767,"lon":139.817301},{"name":"本所郵便局","province":"東京都","city":"墨田区","address":"墨田区太平四丁目21番2号","lat":35.702642,"lon":139.817771},{"name":"東京法務局墨田出張所","province":"東京都","city":"墨田区","address":"墨田区菊川一丁目17番13号","lat":35.68987,"lon":139.801716},{"name":"東京簡易裁判所墨田庁舎","province":"東京都","city":"墨田区","address":"墨田区錦糸四丁目16番7号","lat":35.698318,"lon":139.818312},{"name":"東京区検察庁墨田分室","province":"東京都","city":"墨田区","address":"墨田区錦糸四丁目16番7号","lat":35.698318,"lon":139.818312},{"name":"警視庁交通執行課墨田分室","province":"東京都","city":"墨田区","address":"墨田区錦糸四丁目16番7号","lat":35.698318,"lon":139.818312},{"name":"錦糸町公証役場","province":"東京都","city":"墨田区","address":"墨田区江東橋三丁目9番7号","lat":35.695082,"lon":139.813206},{"name":"向島公証役場","province":"東京都","city":"墨田区","address":"墨田区東向島六丁目1番3号","lat":35.722318,"lon":139.818681},{"name":"東京都第五建設事務所墨田工区","province":"東京都","city":"墨田区","address":"墨田区堤通一丁目16番4号","lat":35.725814,"lon":139.810888},{"name":"墨田年金事務所","province":"東京都","city":"墨田区","address":"墨田区立川三丁目8番12号","lat":35.691042,"lon":139.804712},{"name":"一般財団法人墨田まちづくり公社","province":"東京都","city":"墨田区","address":"墨田区東向島二丁目36番10号","lat":35.721369,"lon":139.817609},{"name":"一般財団法人墨田まちづくり公社京島事務所","province":"東京都","city":"墨田区","address":"墨田区京島二丁目15番5号","lat":35.713242,"lon":139.821051},{"name":"一般財団法人墨田まちづくり公社鐘ヶ淵事務所","province":"東京都","city":"墨田区","address":"墨田区墨田三丁目40番3号","lat":35.730741,"lon":139.822325},{"name":"社会福祉法人墨田区社会福祉事業団","province":"東京都","city":"墨田区","address":"墨田区向島三丁目36番7号","lat":35.71338,"lon":139.810876},{"name":"一般社団法人墨田区観光協会","province":"東京都","city":"墨田区","address":"墨田区押上一丁目1番2号東京スカイツリータウン・ソラマチ5階まち処内","lat":35.710434,"lon":139.812014},{"name":"公益財団法人墨田区文化振興財団","province":"東京都","city":"墨田区","address":"墨田区錦糸一丁目2番3号","lat":35.697304,"lon":139.810052},{"name":"ハローワーク墨田","province":"東京都","city":"墨田区","address":"墨田区江東橋二丁目19番12号","lat":35.696235,"lon":139.811413},{"name":"向島労働基準監督署","province":"東京都","city":"墨田区","address":"墨田区東向島四丁目33番13号","lat":35.725511,"lon":139.818772},{"name":"独立行政法人高齢・障害・求職者雇用支援機構東京支部","province":"東京都","city":"墨田区","address":"墨田区江東橋二丁目19番12号","lat":35.696235,"lon":139.811413},{"name":"公益社団法人墨田区シルバー人材センター","province":"東京都","city":"墨田区","address":"墨田区文花一丁目32番1号101","lat":35.708509,"lon":139.824936},{"name":"墨田区シルバー人材センター向島作業所","province":"東京都","city":"墨田区","address":"墨田区東向島一丁目17番11号","lat":35.720828,"lon":139.815445},{"name":"墨田区シルバー人材センター緑作業所","province":"東京都","city":"墨田区","address":"墨田区緑四丁目35番6号","lat":35.695825,"lon":139.807408},{"name":"公益社団法人墨田区勤労者福祉サービスセンター","province":"東京都","city":"墨田区","address":"墨田区押上二丁目12番7号215号室","lat":35.712706,"lon":139.811982},{"name":"国際ファッションセンター株式会社","province":"東京都","city":"墨田区","address":"墨田区横網一丁目6番1号","lat":35.698175,"lon":139.796902},{"name":"一般財団法人ファッション産業人材育成機構","province":"東京都","city":"墨田区","address":"墨田区横網一丁目6番1号KFCビル11階","lat":35.698175,"lon":139.796902},{"name":"東京都立皮革技術センター","province":"東京都","city":"墨田区","address":"墨田区東墨田三丁目3番14号","lat":35.720127,"lon":139.83351},{"name":"東京都立産業技術研究センター墨田支所","province":"東京都","city":"墨田区","address":"墨田区横網一丁目6番1号KFCビル12階","lat":35.698175,"lon":139.796902},{"name":"墨田区保健所","province":"東京都","city":"墨田区","address":"墨田区吾妻橋1-23-20","lat":35.710724,"lon":139.801496},{"name":"向島保健センター","province":"東京都","city":"墨田区","address":"墨田区東向島5-16-2","lat":35.725882,"lon":139.821106},{"name":"本所保健センター","province":"東京都","city":"墨田区","address":"墨田区東駒形1-6-4","lat":35.705438,"lon":139.798058},{"name":"墨田区保健所","province":"東京都","city":"墨田区","address":"東京都墨田区吾妻橋1丁目23-20","lat":35.71072382,"lon":139.80149602},{"name":"向島保健センター","province":"東京都","city":"墨田区","address":"東京都墨田区東向島5丁目16-2","lat":35.72588248,"lon":139.82110559},{"name":"本所保健センター","province":"東京都","city":"墨田区","address":"東京都墨田区東駒形1丁目6-4","lat":35.7054382,"lon":139.79805828},{"name":"墨田区保健所","province":"東京都","city":"墨田区","address":"墨田区吾妻橋1-23-20","lat":35.71006,"lon":139.8011},{"name":"向島保健センター","province":"東京都","city":"墨田区","address":"墨田区東向島5-16-2","lat":35.72611,"lon":139.82111},{"name":"本所保健センター","province":"東京都","city":"墨田区","address":"墨田区東駒形1-6-4","lat":35.70532,"lon":139.79796},{"name":"墨田区選挙管理委員会","province":"東京都","city":"墨田区","address":"墨田区吾妻橋1-23-20","lat":35.710505,"lon":139.801508},{"name":"墨田区保健所","province":"東京都","city":"墨田区","address":"墨田区吾妻橋1-23-20","lat":35.710724,"lon":139.801496},{"name":"向島保健センター","province":"東京都","city":"墨田区","address":"墨田区東向島5-16-2","lat":35.725882,"lon":139.821106},{"name":"本所保健センター","province":"東京都","city":"墨田区","address":"墨田区東駒形1-6-4","lat":35.705438,"lon":139.798058},{"name":"墨田区保健所","province":"東京都","city":"墨田区","address":"東京都墨田区吾妻橋1丁目23-20","lat":35.71072382,"lon":139.80149602},{"name":"向島保健センター","province":"東京都","city":"墨田区","address":"東京都墨田区東向島5丁目16-2","lat":35.72588248,"lon":139.82110559},{"name":"本所保健センター","province":"東京都","city":"墨田区","address":"東京都墨田区東駒形1丁目6-4","lat":35.7054382,"lon":139.79805828},{"name":"墨田区保健所","province":"東京都","city":"墨田区","address":"墨田区吾妻橋1-23-20","lat":35.71006,"lon":139.8011},{"name":"向島保健センター","province":"東京都","city":"墨田区","address":"墨田区東向島5-16-2","lat":35.72611,"lon":139.82111},{"name":"本所保健センター","province":"東京都","city":"墨田区","address":"墨田区東駒形1-6-4","lat":35.70532,"lon":139.79796},{"name":"墨田区選挙管理委員会","province":"東京都","city":"墨田区","address":"墨田区吾妻橋1-23-20","lat":35.710505,"lon":139.801508},{"name":"墨田区保健所","province":"東京都","city":"墨田区","address":"墨田区吾妻橋1-23-20","lat":35.710724,"lon":139.801496},{"name":"向島保健センター","province":"東京都","city":"墨田区","address":"墨田区東向島5-16-2","lat":35.725882,"lon":139.821106},{"name":"本所保健センター","province":"東京都","city":"墨田区","address":"墨田区東駒形1-6-4","lat":35.705438,"lon":139.798058},{"name":"墨田区保健所","province":"東京都","city":"墨田区","address":"東京都墨田区吾妻橋1丁目23-20","lat":35.71072382,"lon":139.80149602},{"name":"向島保健センター","province":"東京都","city":"墨田区","address":"東京都墨田区東向島5丁目16-2","lat":35.72588248,"lon":139.82110559},{"name":"本所保健センター","province":"東京都","city":"墨田区","address":"東京都墨田区東駒形1丁目6-4","lat":35.7054382,"lon":139.79805828},{"name":"墨田区保健所","province":"東京都","city":"墨田区","address":"墨田区吾妻橋1-23-20","lat":35.71006,"lon":139.8011},{"name":"向島保健センター","province":"東京都","city":"墨田区","address":"墨田区東向島5-16-2","lat":35.72611,"lon":139.82111},{"name":"本所保健センター","province":"東京都","city":"墨田区","address":"墨田区東駒形1-6-4","lat":35.70532,"lon":139.79796},{"name":"墨田区選挙管理委員会","province":"東京都","city":"墨田区","address":"墨田区吾妻橋1-23-20","lat":35.710505,"lon":139.801508},{"name":"墨田区保健所","province":"東京都","city":"墨田区","address":"墨田区吾妻橋1-23-20","lat":35.710724,"lon":139.801496},{"name":"向島保健センター","province":"東京都","city":"墨田区","address":"墨田区東向島5-16-2","lat":35.725882,"lon":139.821106},{"name":"本所保健センター","province":"東京都","city":"墨田区","address":"墨田区東駒形1-6-4","lat":35.705438,"lon":139.798058},{"name":"墨田区保健所","province":"東京都","city":"墨田区","address":"東京都墨田区吾妻橋1丁目23-20","lat":35.71072382,"lon":139.80149602},{"name":"向島保健センター","province":"東京都","city":"墨田区","address":"東京都墨田区東向島5丁目16-2","lat":35.72588248,"lon":139.82110559},{"name":"本所保健センター","province":"東京都","city":"墨田区","address":"東京都墨田区東駒形1丁目6-4","lat":35.7054382,"lon":139.79805828},{"name":"墨田区保健所","province":"東京都","city":"墨田区","address":"墨田区吾妻橋1-23-20","lat":35.71006,"lon":139.8011},{"name":"向島保健センター","province":"東京都","city":"墨田区","address":"墨田区東向島5-16-2","lat":35.72611,"lon":139.82111},{"name":"本所保健センター","province":"東京都","city":"墨田区","address":"墨田区東駒形1-6-4","lat":35.70532,"lon":139.79796},{"name":"墨田区選挙管理委員会","province":"東京都","city":"墨田区","address":"墨田区吾妻橋1-23-20","lat":35.710505,"lon":139.801508},{"name":"墨田区保健所","province":"東京都","city":"墨田区","address":"墨田区吾妻橋1-23-20","lat":35.710724,"lon":139.801496},{"name":"向島保健センター","province":"東京都","city":"墨田区","address":"墨田区東向島5-16-2","lat":35.725882,"lon":139.821106},{"name":"本所保健センター","province":"東京都","city":"墨田区","address":"墨田区東駒形1-6-4","lat":35.705438,"lon":139.798058},{"name":"墨田区保健所","province":"東京都","city":"墨田区","address":"東京都墨田区吾妻橋1丁目23-20","lat":35.71072382,"lon":139.80149602},{"name":"向島保健センター","province":"東京都","city":"墨田区","address":"東京都墨田区東向島5丁目16-2","lat":35.72588248,"lon":139.82110559},{"name":"本所保健センター","province":"東京都","city":"墨田区","address":"東京都墨田区東駒形1丁目6-4","lat":35.7054382,"lon":139.79805828},{"name":"墨田区保健所","province":"東京都","city":"墨田区","address":"墨田区吾妻橋1-23-20","lat":35.71006,"lon":139.8011},{"name":"向島保健センター","province":"東京都","city":"墨田区","address":"墨田区東向島5-16-2","lat":35.72611,"lon":139.82111},{"name":"本所保健センター","province":"東京都","city":"墨田区","address":"墨田区東駒形1-6-4","lat":35.70532,"lon":139.79796},{"name":"墨田区選挙管理委員会","province":"東京都","city":"墨田区","address":"墨田区吾妻橋1-23-20","lat":35.710505,"lon":139.801508},{"name":"墨田区保健所","province":"東京都","city":"墨田区","address":"墨田区吾妻橋1-23-20","lat":35.710724,"lon":139.801496},{"name":"向島保健センター","province":"東京都","city":"墨田区","address":"墨田区東向島5-16-2","lat":35.725882,"lon":139.821106},{"name":"本所保健センター","province":"東京都","city":"墨田区","address":"墨田区東駒形1-6-4","lat":35.705438,"lon":139.798058},{"name":"墨田区保健所","province":"東京都","city":"墨田区","address":"東京都墨田区吾妻橋1丁目23-20","lat":35.71072382,"lon":139.80149602},{"name":"向島保健センター","province":"東京都","city":"墨田区","address":"東京都墨田区東向島5丁目16-2","lat":35.72588248,"lon":139.82110559},{"name":"本所保健センター","province":"東京都","city":"墨田区","address":"東京都墨田区東駒形1丁目6-4","lat":35.7054382,"lon":139.79805828},{"name":"墨田区保健所","province":"東京都","city":"墨田区","address":"墨田区吾妻橋1-23-20","lat":35.71006,"lon":139.8011},{"name":"向島保健センター","province":"東京都","city":"墨田区","address":"墨田区東向島5-16-2","lat":35.72611,"lon":139.82111},{"name":"本所保健センター","province":"東京都","city":"墨田区","address":"墨田区東駒形1-6-4","lat":35.70532,"lon":139.79796},{"name":"墨田区選挙管理委員会","province":"東京都","city":"墨田区","address":"墨田区吾妻橋1-23-20","lat":35.710505,"lon":139.801508},{"name":"墨田区保健所","province":"東京都","city":"墨田区","address":"墨田区吾妻橋1-23-20","lat":35.710724,"lon":139.801496},{"name":"向島保健センター","province":"東京都","city":"墨田区","address":"墨田区東向島5-16-2","lat":35.725882,"lon":139.821106},{"name":"本所保健センター","province":"東京都","city":"墨田区","address":"墨田区東駒形1-6-4","lat":35.705438,"lon":139.798058},{"name":"墨田区保健所","province":"東京都","city":"墨田区","address":"東京都墨田区吾妻橋1丁目23-20","lat":35.71072382,"lon":139.80149602},{"name":"向島保健センター","province":"東京都","city":"墨田区","address":"東京都墨田区東向島5丁目16-2","lat":35.72588248,"lon":139.82110559},{"name":"本所保健センター","province":"東京都","city":"墨田区","address":"東京都墨田区東駒形1丁目6-4","lat":35.7054382,"lon":139.79805828},{"name":"墨田区保健所","province":"東京都","city":"墨田区","address":"墨田区吾妻橋1-23-20","lat":35.71006,"lon":139.8011},{"name":"向島保健センター","province":"東京都","city":"墨田区","address":"墨田区東向島5-16-2","lat":35.72611,"lon":139.82111},{"name":"本所保健センター","province":"東京都","city":"墨田区","address":"墨田区東駒形1-6-4","lat":35.70532,"lon":139.79796},{"name":"墨田区選挙管理委員会","province":"東京都","city":"墨田区","address":"墨田区吾妻橋1-23-20","lat":35.710505,"lon":139.801508},{"name":"墨田区保健所","province":"東京都","city":"墨田区","address":"墨田区吾妻橋1-23-20","lat":35.710724,"lon":139.801496},{"name":"向島保健センター","province":"東京都","city":"墨田区","address":"墨田区東向島5-16-2","lat":35.725882,"lon":139.821106},{"name":"本所保健センター","province":"東京都","city":"墨田区","address":"墨田区東駒形1-6-4","lat":35.705438,"lon":139.798058},{"name":"墨田区保健所","province":"東京都","city":"墨田区","address":"東京都墨田区吾妻橋1丁目23-20","lat":35.71072382,"lon":139.80149602},{"name":"向島保健センター","province":"東京都","city":"墨田区","address":"東京都墨田区東向島5丁目16-2","lat":35.72588248,"lon":139.82110559},{"name":"本所保健センター","province":"東京都","city":"墨田区","address":"東京都墨田区東駒形1丁目6-4","lat":35.7054382,"lon":139.79805828},{"name":"墨田区保健所","province":"東京都","city":"墨田区","address":"墨田区吾妻橋1-23-20","lat":35.71006,"lon":139.8011},{"name":"向島保健センター","province":"東京都","city":"墨田区","address":"墨田区東向島5-16-2","lat":35.72611,"lon":139.82111},{"name":"本所保健センター","province":"東京都","city":"墨田区","address":"墨田区東駒形1-6-4","lat":35.70532,"lon":139.79796},{"name":"墨田区選挙管理委員会","province":"東京都","city":"墨田区","address":"墨田区吾妻橋1-23-20","lat":35.710505,"lon":139.801508},{"name":"墨田区保健所","province":"東京都","city":"墨田区","address":"墨田区吾妻橋1-23-20","lat":35.710724,"lon":139.801496},{"name":"向島保健センター","province":"東京都","city":"墨田区","address":"墨田区東向島5-16-2","lat":35.725882,"lon":139.821106},{"name":"本所保健センター","province":"東京都","city":"墨田区","address":"墨田区東駒形1-6-4","lat":35.705438,"lon":139.798058},{"name":"墨田区保健所","province":"東京都","city":"墨田区","address":"東京都墨田区吾妻橋1丁目23-20","lat":35.71072382,"lon":139.80149602},{"name":"向島保健センター","province":"東京都","city":"墨田区","address":"東京都墨田区東向島5丁目16-2","lat":35.72588248,"lon":139.82110559},{"name":"本所保健センター","province":"東京都","city":"墨田区","address":"東京都墨田区東駒形1丁目6-4","lat":35.7054382,"lon":139.79805828},{"name":"墨田区保健所","province":"東京都","city":"墨田区","address":"墨田区吾妻橋1-23-20","lat":35.71006,"lon":139.8011},{"name":"向島保健センター","province":"東京都","city":"墨田区","address":"墨田区東向島5-16-2","lat":35.72611,"lon":139.82111},{"name":"本所保健センター","province":"東京都","city":"墨田区","address":"墨田区東駒形1-6-4","lat":35.70532,"lon":139.79796},{"name":"墨田区選挙管理委員会","province":"東京都","city":"墨田区","address":"墨田区吾妻橋1-23-20","lat":35.710505,"lon":139.801508},{"name":"墨田区保健所","province":"東京都","city":"墨田区","address":"墨田区吾妻橋1-23-20","lat":35.710724,"lon":139.801496},{"name":"向島保健センター","province":"東京都","city":"墨田区","address":"墨田区東向島5-16-2","lat":35.725882,"lon":139.821106},{"name":"本所保健センター","province":"東京都","city":"墨田区","address":"墨田区東駒形1-6-4","lat":35.705438,"lon":139.798058},{"name":"墨田区保健所","province":"東京都","city":"墨田区","address":"東京都墨田区吾妻橋1丁目23-20","lat":35.71072382,"lon":139.80149602},{"name":"向島保健センター","province":"東京都","city":"墨田区","address":"東京都墨田区東向島5丁目16-2","lat":35.72588248,"lon":139.82110559},{"name":"本所保健センター","province":"東京都","city":"墨田区","address":"東京都墨田区東駒形1丁目6-4","lat":35.7054382,"lon":139.79805828},{"name":"墨田区保健所","province":"東京都","city":"墨田区","address":"墨田区吾妻橋1-23-20","lat":35.71006,"lon":139.8011},{"name":"向島保健センター","province":"東京都","city":"墨田区","address":"墨田区東向島5-16-2","lat":35.72611,"lon":139.82111},{"name":"本所保健センター","province":"東京都","city":"墨田区","address":"墨田区東駒形1-6-4","lat":35.70532,"lon":139.79796},{"name":"墨田区選挙管理委員会","province":"東京都","city":"墨田区","address":"墨田区吾妻橋1-23-20","lat":35.710505,"lon":139.801508},{"name":"墨田区保健所","province":"東京都","city":"墨田区","address":"墨田区吾妻橋1-23-20","lat":35.710724,"lon":139.801496},{"name":"向島保健センター","province":"東京都","city":"墨田区","address":"墨田区東向島5-16-2","lat":35.725882,"lon":139.821106},{"name":"本所保健センター","province":"東京都","city":"墨田区","address":"墨田区東駒形1-6-4","lat":35.705438,"lon":139.798058},{"name":"墨田区保健所","province":"東京都","city":"墨田区","address":"東京都墨田区吾妻橋1丁目23-20","lat":35.71072382,"lon":139.80149602},{"name":"向島保健センター","province":"東京都","city":"墨田区","address":"東京都墨田区東向島5丁目16-2","lat":35.72588248,"lon":139.82110559},{"name":"本所保健センター","province":"東京都","city":"墨田区","address":"東京都墨田区東駒形1丁目6-4","lat":35.7054382,"lon":139.79805828},{"name":"墨田区保健所","province":"東京都","city":"墨田区","address":"墨田区吾妻橋1-23-20","lat":35.71006,"lon":139.8011},{"name":"向島保健センター","province":"東京都","city":"墨田区","address":"墨田区東向島5-16-2","lat":35.72611,"lon":139.82111},{"name":"本所保健センター","province":"東京都","city":"墨田区","address":"墨田区東駒形1-6-4","lat":35.70532,"lon":139.79796},{"name":"墨田区選挙管理委員会","province":"東京都","city":"墨田区","address":"墨田区吾妻橋1-23-20","lat":35.710505,"lon":139.801508},{"name":"墨田区保健所","province":"東京都","city":"墨田区","address":"墨田区吾妻橋1-23-20","lat":35.710724,"lon":139.801496},{"name":"向島保健センター","province":"東京都","city":"墨田区","address":"墨田区東向島5-16-2","lat":35.725882,"lon":139.821106},{"name":"本所保健センター","province":"東京都","city":"墨田区","address":"墨田区東駒形1-6-4","lat":35.705438,"lon":139.798058},{"name":"墨田区保健所","province":"東京都","city":"墨田区","address":"東京都墨田区吾妻橋1丁目23-20","lat":35.71072382,"lon":139.80149602},{"name":"向島保健センター","province":"東京都","city":"墨田区","address":"東京都墨田区東向島5丁目16-2","lat":35.72588248,"lon":139.82110559},{"name":"本所保健センター","province":"東京都","city":"墨田区","address":"東京都墨田区東駒形1丁目6-4","lat":35.7054382,"lon":139.79805828},{"name":"墨田区保健所","province":"東京都","city":"墨田区","address":"墨田区吾妻橋1-23-20","lat":35.71006,"lon":139.8011},{"name":"向島保健センター","province":"東京都","city":"墨田区","address":"墨田区東向島5-16-2","lat":35.72611,"lon":139.82111},{"name":"本所保健センター","province":"東京都","city":"墨田区","address":"墨田区東駒形1-6-4","lat":35.70532,"lon":139.79796},{"name":"墨田区選挙管理委員会","province":"東京都","city":"墨田区","address":"墨田区吾妻橋1-23-20","lat":35.710505,"lon":139.801508},{"name":"墨田区保健所","province":"東京都","city":"墨田区","address":"墨田区吾妻橋1-23-20","lat":35.710724,"lon":139.801496},{"name":"向島保健センター","province":"東京都","city":"墨田区","address":"墨田区東向島5-16-2","lat":35.725882,"lon":139.821106},{"name":"本所保健センター","province":"東京都","city":"墨田区","address":"墨田区東駒形1-6-4","lat":35.705438,"lon":139.798058},{"name":"墨田区保健所","province":"東京都","city":"墨田区","address":"東京都墨田区吾妻橋1丁目23-20","lat":35.71072382,"lon":139.80149602},{"name":"向島保健センター","province":"東京都","city":"墨田区","address":"東京都墨田区東向島5丁目16-2","lat":35.72588248,"lon":139.82110559},{"name":"本所保健センター","province":"東京都","city":"墨田区","address":"東京都墨田区東駒形1丁目6-4","lat":35.7054382,"lon":139.79805828},{"name":"墨田区保健所","province":"東京都","city":"墨田区","address":"墨田区吾妻橋1-23-20","lat":35.71006,"lon":139.8011},{"name":"向島保健センター","province":"東京都","city":"墨田区","address":"墨田区東向島5-16-2","lat":35.72611,"lon":139.82111},{"name":"本所保健センター","province":"東京都","city":"墨田区","address":"墨田区東駒形1-6-4","lat":35.70532,"lon":139.79796},{"name":"墨田区選挙管理委員会","province":"東京都","city":"墨田区","address":"墨田区吾妻橋1-23-20","lat":35.710505,"lon":139.801508},{"name":"墨田区保健所","province":"東京都","city":"墨田区","address":"墨田区吾妻橋1-23-20","lat":35.710724,"lon":139.801496},{"name":"向島保健センター","province":"東京都","city":"墨田区","address":"墨田区東向島5-16-2","lat":35.725882,"lon":139.821106},{"name":"本所保健センター","province":"東京都","city":"墨田区","address":"墨田区東駒形1-6-4","lat":35.705438,"lon":139.798058},{"name":"墨田区保健所","province":"東京都","city":"墨田区","address":"東京都墨田区吾妻橋1丁目23-20","lat":35.71072382,"lon":139.80149602},{"name":"向島保健センター","province":"東京都","city":"墨田区","address":"東京都墨田区東向島5丁目16-2","lat":35.72588248,"lon":139.82110559},{"name":"本所保健センター","province":"東京都","city":"墨田区","address":"東京都墨田区東駒形1丁目6-4","lat":35.7054382,"lon":139.79805828},{"name":"墨田区保健所","province":"東京都","city":"墨田区","address":"墨田区吾妻橋1-23-20","lat":35.71006,"lon":139.8011},{"name":"向島保健センター","province":"東京都","city":"墨田区","address":"墨田区東向島5-16-2","lat":35.72611,"lon":139.82111},{"name":"本所保健センター","province":"東京都","city":"墨田区","address":"墨田区東駒形1-6-4","lat":35.70532,"lon":139.79796},{"name":"墨田区選挙管理委員会","province":"東京都","city":"墨田区","address":"墨田区吾妻橋1-23-20","lat":35.710505,"lon":139.801508},{"name":"墨田区保健所","province":"東京都","city":"墨田区","address":"墨田区吾妻橋1-23-20","lat":35.710724,"lon":139.801496},{"name":"向島保健センター","province":"東京都","city":"墨田区","address":"墨田区東向島5-16-2","lat":35.725882,"lon":139.821106},{"name":"本所保健センター","province":"東京都","city":"墨田区","address":"墨田区東駒形1-6-4","lat":35.705438,"lon":139.798058},{"name":"墨田区保健所","province":"東京都","city":"墨田区","address":"東京都墨田区吾妻橋1丁目23-20","lat":35.71072382,"lon":139.80149602},{"name":"向島保健センター","province":"東京都","city":"墨田区","address":"東京都墨田区東向島5丁目16-2","lat":35.72588248,"lon":139.82110559},{"name":"本所保健センター","province":"東京都","city":"墨田区","address":"東京都墨田区東駒形1丁目6-4","lat":35.7054382,"lon":139.79805828},{"name":"墨田区保健所","province":"東京都","city":"墨田区","address":"墨田区吾妻橋1-23-20","lat":35.71006,"lon":139.8011},{"name":"向島保健センター","province":"東京都","city":"墨田区","address":"墨田区東向島5-16-2","lat":35.72611,"lon":139.82111},{"name":"本所保健センター","province":"東京都","city":"墨田区","address":"墨田区東駒形1-6-4","lat":35.70532,"lon":139.79796},{"name":"墨田区選挙管理委員会","province":"東京都","city":"墨田区","address":"墨田区吾妻橋1-23-20","lat":35.710505,"lon":139.801508},{"name":"墨田区保健所","province":"東京都","city":"墨田区","address":"墨田区吾妻橋1-23-20","lat":35.710724,"lon":139.801496},{"name":"向島保健センター","province":"東京都","city":"墨田区","address":"墨田区東向島5-16-2","lat":35.725882,"lon":139.821106},{"name":"本所保健センター","province":"東京都","city":"墨田区","address":"墨田区東駒形1-6-4","lat":35.705438,"lon":139.798058},{"name":"墨田区保健所","province":"東京都","city":"墨田区","address":"東京都墨田区吾妻橋1丁目23-20","lat":35.71072382,"lon":139.80149602},{"name":"向島保健センター","province":"東京都","city":"墨田区","address":"東京都墨田区東向島5丁目16-2","lat":35.72588248,"lon":139.82110559},{"name":"本所保健センター","province":"東京都","city":"墨田区","address":"東京都墨田区東駒形1丁目6-4","lat":35.7054382,"lon":139.79805828},{"name":"墨田区保健所","province":"東京都","city":"墨田区","address":"墨田区吾妻橋1-23-20","lat":35.71006,"lon":139.8011},{"name":"向島保健センター","province":"東京都","city":"墨田区","address":"墨田区東向島5-16-2","lat":35.72611,"lon":139.82111},{"name":"本所保健センター","province":"東京都","city":"墨田区","address":"墨田区東駒形1-6-4","lat":35.70532,"lon":139.79796},{"name":"墨田区選挙管理委員会","province":"東京都","city":"墨田区","address":"墨田区吾妻橋1-23-20","lat":35.710505,"lon":139.801508},{"name":"墨田区保健所","province":"東京都","city":"墨田区","address":"墨田区吾妻橋1-23-20","lat":35.710724,"lon":139.801496},{"name":"向島保健センター","province":"東京都","city":"墨田区","address":"墨田区東向島5-16-2","lat":35.725882,"lon":139.821106},{"name":"本所保健センター","province":"東京都","city":"墨田区","address":"墨田区東駒形1-6-4","lat":35.705438,"lon":139.798058},{"name":"墨田区保健所","province":"東京都","city":"墨田区","address":"東京都墨田区吾妻橋1丁目23-20","lat":35.71072382,"lon":139.80149602},{"name":"向島保健センター","province":"東京都","city":"墨田区","address":"東京都墨田区東向島5丁目16-2","lat":35.72588248,"lon":139.82110559},{"name":"本所保健センター","province":"東京都","city":"墨田区","address":"東京都墨田区東駒形1丁目6-4","lat":35.7054382,"lon":139.79805828},{"name":"墨田区保健所","province":"東京都","city":"墨田区","address":"墨田区吾妻橋1-23-20","lat":35.71006,"lon":139.8011},{"name":"向島保健センター","province":"東京都","city":"墨田区","address":"墨田区東向島5-16-2","lat":35.72611,"lon":139.82111},{"name":"本所保健センター","province":"東京都","city":"墨田区","address":"墨田区東駒形1-6-4","lat":35.70532,"lon":139.79796},{"name":"墨田区選挙管理委員会","province":"東京都","city":"墨田区","address":"墨田区吾妻橋1-23-20","lat":35.710505,"lon":139.801508},{"name":"墨田区保健所","province":"東京都","city":"墨田区","address":"墨田区吾妻橋1-23-20","lat":35.710724,"lon":139.801496},{"name":"向島保健センター","province":"東京都","city":"墨田区","address":"墨田区東向島5-16-2","lat":35.725882,"lon":139.821106},{"name":"本所保健センター","province":"東京都","city":"墨田区","address":"墨田区東駒形1-6-4","lat":35.705438,"lon":139.798058},{"name":"墨田区保健所","province":"東京都","city":"墨田区","address":"東京都墨田区吾妻橋1丁目23-20","lat":35.71072382,"lon":139.80149602},{"name":"向島保健センター","province":"東京都","city":"墨田区","address":"東京都墨田区東向島5丁目16-2","lat":35.72588248,"lon":139.82110559},{"name":"本所保健センター","province":"東京都","city":"墨田区","address":"東京都墨田区東駒形1丁目6-4","lat":35.7054382,"lon":139.79805828},{"name":"墨田区保健所","province":"東京都","city":"墨田区","address":"墨田区吾妻橋1-23-20","lat":35.71006,"lon":139.8011},{"name":"向島保健センター","province":"東京都","city":"墨田区","address":"墨田区東向島5-16-2","lat":35.72611,"lon":139.82111},{"name":"本所保健センター","province":"東京都","city":"墨田区","address":"墨田区東駒形1-6-4","lat":35.70532,"lon":139.79796},{"name":"墨田区選挙管理委員会","province":"東京都","city":"墨田区","address":"墨田区吾妻橋1-23-20","lat":35.710505,"lon":139.801508},{"name":"墨田区保健所","province":"東京都","city":"墨田区","address":"墨田区吾妻橋1-23-20","lat":35.710724,"lon":139.801496},{"name":"向島保健センター","province":"東京都","city":"墨田区","address":"墨田区東向島5-16-2","lat":35.725882,"lon":139.821106},{"name":"本所保健センター","province":"東京都","city":"墨田区","address":"墨田区東駒形1-6-4","lat":35.705438,"lon":139.798058},{"name":"墨田区保健所","province":"東京都","city":"墨田区","address":"東京都墨田区吾妻橋1丁目23-20","lat":35.71072382,"lon":139.80149602},{"name":"向島保健センター","province":"東京都","city":"墨田区","address":"東京都墨田区東向島5丁目16-2","lat":35.72588248,"lon":139.82110559},{"name":"本所保健センター","province":"東京都","city":"墨田区","address":"東京都墨田区東駒形1丁目6-4","lat":35.7054382,"lon":139.79805828},{"name":"墨田区保健所","province":"東京都","city":"墨田区","address":"墨田区吾妻橋1-23-20","lat":35.71006,"lon":139.8011},{"name":"向島保健センター","province":"東京都","city":"墨田区","address":"墨田区東向島5-16-2","lat":35.72611,"lon":139.82111},{"name":"本所保健センター","province":"東京都","city":"墨田区","address":"墨田区東駒形1-6-4","lat":35.70532,"lon":139.79796},{"name":"墨田区選挙管理委員会","province":"東京都","city":"墨田区","address":"墨田区吾妻橋1-23-20","lat":35.710505,"lon":139.801508},{"name":"墨田区保健所","province":"東京都","city":"墨田区","address":"墨田区吾妻橋1-23-20","lat":35.710724,"lon":139.801496},{"name":"向島保健センター","province":"東京都","city":"墨田区","address":"墨田区東向島5-16-2","lat":35.725882,"lon":139.821106},{"name":"本所保健センター","province":"東京都","city":"墨田区","address":"墨田区東駒形1-6-4","lat":35.705438,"lon":139.798058},{"name":"墨田区保健所","province":"東京都","city":"墨田区","address":"東京都墨田区吾妻橋1丁目23-20","lat":35.71072382,"lon":139.80149602},{"name":"向島保健センター","province":"東京都","city":"墨田区","address":"東京都墨田区東向島5丁目16-2","lat":35.72588248,"lon":139.82110559},{"name":"本所保健センター","province":"東京都","city":"墨田区","address":"東京都墨田区東駒形1丁目6-4","lat":35.7054382,"lon":139.79805828},{"name":"墨田区保健所","province":"東京都","city":"墨田区","address":"墨田区吾妻橋1-23-20","lat":35.71006,"lon":139.8011},{"name":"向島保健センター","province":"東京都","city":"墨田区","address":"墨田区東向島5-16-2","lat":35.72611,"lon":139.82111},{"name":"本所保健センター","province":"東京都","city":"墨田区","address":"墨田区東駒形1-6-4","lat":35.70532,"lon":139.79796},{"name":"墨田区選挙管理委員会","province":"東京都","city":"墨田区","address":"墨田区吾妻橋1-23-20","lat":35.710505,"lon":139.801508},{"name":"墨田区保健所","province":"東京都","city":"墨田区","address":"墨田区吾妻橋1-23-20","lat":35.710724,"lon":139.801496},{"name":"向島保健センター","province":"東京都","city":"墨田区","address":"墨田区東向島5-16-2","lat":35.725882,"lon":139.821106},{"name":"本所保健センター","province":"東京都","city":"墨田区","address":"墨田区東駒形1-6-4","lat":35.705438,"lon":139.798058},{"name":"墨田区保健所","province":"東京都","city":"墨田区","address":"東京都墨田区吾妻橋1丁目23-20","lat":35.71072382,"lon":139.80149602},{"name":"向島保健センター","province":"東京都","city":"墨田区","address":"東京都墨田区東向島5丁目16-2","lat":35.72588248,"lon":139.82110559},{"name":"本所保健センター","province":"東京都","city":"墨田区","address":"東京都墨田区東駒形1丁目6-4","lat":35.7054382,"lon":139.79805828},{"name":"墨田区保健所","province":"東京都","city":"墨田区","address":"墨田区吾妻橋1-23-20","lat":35.71006,"lon":139.8011},{"name":"向島保健センター","province":"東京都","city":"墨田区","address":"墨田区東向島5-16-2","lat":35.72611,"lon":139.82111},{"name":"本所保健センター","province":"東京都","city":"墨田区","address":"墨田区東駒形1-6-4","lat":35.70532,"lon":139.79796},{"name":"墨田区選挙管理委員会","province":"東京都","city":"墨田区","address":"墨田区吾妻橋1-23-20","lat":35.710505,"lon":139.801508},{"name":"墨田区保健所","province":"東京都","city":"墨田区","address":"墨田区吾妻橋1-23-20","lat":35.710724,"lon":139.801496},{"name":"向島保健センター","province":"東京都","city":"墨田区","address":"墨田区東向島5-16-2","lat":35.725882,"lon":139.821106},{"name":"本所保健センター","province":"東京都","city":"墨田区","address":"墨田区東駒形1-6-4","lat":35.705438,"lon":139.798058},{"name":"墨田区保健所","province":"東京都","city":"墨田区","address":"東京都墨田区吾妻橋1丁目23-20","lat":35.71072382,"lon":139.80149602},{"name":"向島保健センター","province":"東京都","city":"墨田区","address":"東京都墨田区東向島5丁目16-2","lat":35.72588248,"lon":139.82110559},{"name":"本所保健センター","province":"東京都","city":"墨田区","address":"東京都墨田区東駒形1丁目6-4","lat":35.7054382,"lon":139.79805828},{"name":"墨田区保健所","province":"東京都","city":"墨田区","address":"墨田区吾妻橋1-23-20","lat":35.71006,"lon":139.8011},{"name":"向島保健センター","province":"東京都","city":"墨田区","address":"墨田区東向島5-16-2","lat":35.72611,"lon":139.82111},{"name":"本所保健センター","province":"東京都","city":"墨田区","address":"墨田区東駒形1-6-4","lat":35.70532,"lon":139.79796},{"name":"墨田区選挙管理委員会","province":"東京都","city":"墨田区","address":"墨田区吾妻橋1-23-20","lat":35.710505,"lon":139.801508},{"name":"墨田区保健所","province":"東京都","city":"墨田区","address":"墨田区吾妻橋1-23-20","lat":35.710724,"lon":139.801496},{"name":"向島保健センター","province":"東京都","city":"墨田区","address":"墨田区東向島5-16-2","lat":35.725882,"lon":139.821106},{"name":"本所保健センター","province":"東京都","city":"墨田区","address":"墨田区東駒形1-6-4","lat":35.705438,"lon":139.798058},{"name":"墨田区保健所","province":"東京都","city":"墨田区","address":"東京都墨田区吾妻橋1丁目23-20","lat":35.71072382,"lon":139.80149602},{"name":"向島保健センター","province":"東京都","city":"墨田区","address":"東京都墨田区東向島5丁目16-2","lat":35.72588248,"lon":139.82110559},{"name":"本所保健センター","province":"東京都","city":"墨田区","address":"東京都墨田区東駒形1丁目6-4","lat":35.7054382,"lon":139.79805828},{"name":"墨田区保健所","province":"東京都","city":"墨田区","address":"墨田区吾妻橋1-23-20","lat":35.71006,"lon":139.8011},{"name":"向島保健センター","province":"東京都","city":"墨田区","address":"墨田区東向島5-16-2","lat":35.72611,"lon":139.82111},{"name":"本所保健センター","province":"東京都","city":"墨田区","address":"墨田区東駒形1-6-4","lat":35.70532,"lon":139.79796},{"name":"墨田区選挙管理委員会","province":"東京都","city":"墨田区","address":"墨田区吾妻橋1-23-20","lat":35.710505,"lon":139.801508},{"name":"墨田区保健所","province":"東京都","city":"墨田区","address":"墨田区吾妻橋1-23-20","lat":35.710724,"lon":139.801496},{"name":"向島保健センター","province":"東京都","city":"墨田区","address":"墨田区東向島5-16-2","lat":35.725882,"lon":139.821106},{"name":"本所保健センター","province":"東京都","city":"墨田区","address":"墨田区東駒形1-6-4","lat":35.705438,"lon":139.798058},{"name":"墨田区保健所","province":"東京都","city":"墨田区","address":"東京都墨田区吾妻橋1丁目23-20","lat":35.71072382,"lon":139.80149602},{"name":"向島保健センター","province":"東京都","city":"墨田区","address":"東京都墨田区東向島5丁目16-2","lat":35.72588248,"lon":139.82110559},{"name":"本所保健センター","province":"東京都","city":"墨田区","address":"東京都墨田区東駒形1丁目6-4","lat":35.7054382,"lon":139.79805828},{"name":"墨田区保健所","province":"東京都","city":"墨田区","address":"墨田区吾妻橋1-23-20","lat":35.71006,"lon":139.8011},{"name":"向島保健センター","province":"東京都","city":"墨田区","address":"墨田区東向島5-16-2","lat":35.72611,"lon":139.82111},{"name":"本所保健センター","province":"東京都","city":"墨田区","address":"墨田区東駒形1-6-4","lat":35.70532,"lon":139.79796},{"name":"墨田区選挙管理委員会","province":"東京都","city":"墨田区","address":"墨田区吾妻橋1-23-20","lat":35.710505,"lon":139.801508},{"name":"墨田区保健所","province":"東京都","city":"墨田区","address":"墨田区吾妻橋1-23-20","lat":35.710724,"lon":139.801496},{"name":"向島保健センター","province":"東京都","city":"墨田区","address":"墨田区東向島5-16-2","lat":35.725882,"lon":139.821106},{"name":"本所保健センター","province":"東京都","city":"墨田区","address":"墨田区東駒形1-6-4","lat":35.705438,"lon":139.798058},{"name":"墨田区保健所","province":"東京都","city":"墨田区","address":"東京都墨田区吾妻橋1丁目23-20","lat":35.71072382,"lon":139.80149602},{"name":"向島保健センター","province":"東京都","city":"墨田区","address":"東京都墨田区東向島5丁目16-2","lat":35.72588248,"lon":139.82110559},{"name":"本所保健センター","province":"東京都","city":"墨田区","address":"東京都墨田区東駒形1丁目6-4","lat":35.7054382,"lon":139.79805828},{"name":"墨田区保健所","province":"東京都","city":"墨田区","address":"墨田区吾妻橋1-23-20","lat":35.71006,"lon":139.8011},{"name":"向島保健センター","province":"東京都","city":"墨田区","address":"墨田区東向島5-16-2","lat":35.72611,"lon":139.82111},{"name":"本所保健センター","province":"東京都","city":"墨田区","address":"墨田区東駒形1-6-4","lat":35.70532,"lon":139.79796},{"name":"墨田区選挙管理委員会","province":"東京都","city":"墨田区","address":"墨田区吾妻橋1-23-20","lat":35.710505,"lon":139.801508},{"name":"墨田区保健所","province":"東京都","city":"墨田区","address":"墨田区吾妻橋1-23-20","lat":35.710724,"lon":139.801496},{"name":"向島保健センター","province":"東京都","city":"墨田区","address":"墨田区東向島5-16-2","lat":35.725882,"lon":139.821106},{"name":"本所保健センター","province":"東京都","city":"墨田区","address":"墨田区東駒形1-6-4","lat":35.705438,"lon":139.798058},{"name":"墨田区保健所","province":"東京都","city":"墨田区","address":"東京都墨田区吾妻橋1丁目23-20","lat":35.71072382,"lon":139.80149602},{"name":"向島保健センター","province":"東京都","city":"墨田区","address":"東京都墨田区東向島5丁目16-2","lat":35.72588248,"lon":139.82110559},{"name":"本所保健センター","province":"東京都","city":"墨田区","address":"東京都墨田区東駒形1丁目6-4","lat":35.7054382,"lon":139.79805828},{"name":"墨田区保健所","province":"東京都","city":"墨田区","address":"墨田区吾妻橋1-23-20","lat":35.71006,"lon":139.8011},{"name":"向島保健センター","province":"東京都","city":"墨田区","address":"墨田区東向島5-16-2","lat":35.72611,"lon":139.82111},{"name":"本所保健センター","province":"東京都","city":"墨田区","address":"墨田区東駒形1-6-4","lat":35.70532,"lon":139.79796},{"name":"墨田区選挙管理委員会","province":"東京都","city":"墨田区","address":"墨田区吾妻橋1-23-20","lat":35.710505,"lon":139.801508},{"name":"墨田区保健所","province":"東京都","city":"墨田区","address":"墨田区吾妻橋1-23-20","lat":35.710724,"lon":139.801496},{"name":"向島保健センター","province":"東京都","city":"墨田区","address":"墨田区東向島5-16-2","lat":35.725882,"lon":139.821106},{"name":"本所保健センター","province":"東京都","city":"墨田区","address":"墨田区東駒形1-6-4","lat":35.705438,"lon":139.798058},{"name":"墨田区保健所","province":"東京都","city":"墨田区","address":"東京都墨田区吾妻橋1丁目23-20","lat":35.71072382,"lon":139.80149602},{"name":"向島保健センター","province":"東京都","city":"墨田区","address":"東京都墨田区東向島5丁目16-2","lat":35.72588248,"lon":139.82110559},{"name":"本所保健センター","province":"東京都","city":"墨田区","address":"東京都墨田区東駒形1丁目6-4","lat":35.7054382,"lon":139.79805828},{"name":"墨田区保健所","province":"東京都","city":"墨田区","address":"墨田区吾妻橋1-23-20","lat":35.71006,"lon":139.8011},{"name":"向島保健センター","province":"東京都","city":"墨田区","address":"墨田区東向島5-16-2","lat":35.72611,"lon":139.82111},{"name":"本所保健センター","province":"東京都","city":"墨田区","address":"墨田区東駒形1-6-4","lat":35.70532,"lon":139.79796},{"name":"墨田区選挙管理委員会","province":"東京都","city":"墨田区","address":"墨田区吾妻橋1-23-20","lat":35.710505,"lon":139.801508},{"name":"墨田区保健所","province":"東京都","city":"墨田区","address":"墨田区吾妻橋1-23-20","lat":35.710724,"lon":139.801496},{"name":"向島保健センター","province":"東京都","city":"墨田区","address":"墨田区東向島5-16-2","lat":35.725882,"lon":139.821106},{"name":"本所保健センター","province":"東京都","city":"墨田区","address":"墨田区東駒形1-6-4","lat":35.705438,"lon":139.798058},{"name":"墨田区保健所","province":"東京都","city":"墨田区","address":"東京都墨田区吾妻橋1丁目23-20","lat":35.71072382,"lon":139.80149602},{"name":"向島保健センター","province":"東京都","city":"墨田区","address":"東京都墨田区東向島5丁目16-2","lat":35.72588248,"lon":139.82110559},{"name":"本所保健センター","province":"東京都","city":"墨田区","address":"東京都墨田区東駒形1丁目6-4","lat":35.7054382,"lon":139.79805828},{"name":"墨田区保健所","province":"東京都","city":"墨田区","address":"墨田区吾妻橋1-23-20","lat":35.71006,"lon":139.8011},{"name":"向島保健センター","province":"東京都","city":"墨田区","address":"墨田区東向島5-16-2","lat":35.72611,"lon":139.82111},{"name":"本所保健センター","province":"東京都","city":"墨田区","address":"墨田区東駒形1-6-4","lat":35.70532,"lon":139.79796},{"name":"墨田区選挙管理委員会","province":"東京都","city":"墨田区","address":"墨田区吾妻橋1-23-20","lat":35.710505,"lon":139.801508},{"name":"墨田区保健所","province":"東京都","city":"墨田区","address":"墨田区吾妻橋1-23-20","lat":35.710724,"lon":139.801496},{"name":"向島保健センター","province":"東京都","city":"墨田区","address":"墨田区東向島5-16-2","lat":35.725882,"lon":139.821106},{"name":"本所保健センター","province":"東京都","city":"墨田区","address":"墨田区東駒形1-6-4","lat":35.705438,"lon":139.798058},{"name":"墨田区保健所","province":"東京都","city":"墨田区","address":"東京都墨田区吾妻橋1丁目23-20","lat":35.71072382,"lon":139.80149602},{"name":"向島保健センター","province":"東京都","city":"墨田区","address":"東京都墨田区東向島5丁目16-2","lat":35.72588248,"lon":139.82110559},{"name":"本所保健センター","province":"東京都","city":"墨田区","address":"東京都墨田区東駒形1丁目6-4","lat":35.7054382,"lon":139.79805828},{"name":"墨田区保健所","province":"東京都","city":"墨田区","address":"墨田区吾妻橋1-23-20","lat":35.71006,"lon":139.8011},{"name":"向島保健センター","province":"東京都","city":"墨田区","address":"墨田区東向島5-16-2","lat":35.72611,"lon":139.82111},{"name":"本所保健センター","province":"東京都","city":"墨田区","address":"墨田区東駒形1-6-4","lat":35.70532,"lon":139.79796},{"name":"墨田区選挙管理委員会","province":"東京都","city":"墨田区","address":"墨田区吾妻橋1-23-20","lat":35.710505,"lon":139.801508},{"name":"墨田区保健所","province":"東京都","city":"墨田区","address":"墨田区吾妻橋1-23-20","lat":35.710724,"lon":139.801496},{"name":"向島保健センター","province":"東京都","city":"墨田区","address":"墨田区東向島5-16-2","lat":35.725882,"lon":139.821106},{"name":"本所保健センター","province":"東京都","city":"墨田区","address":"墨田区東駒形1-6-4","lat":35.705438,"lon":139.798058},{"name":"墨田区保健所","province":"東京都","city":"墨田区","address":"東京都墨田区吾妻橋1丁目23-20","lat":35.71072382,"lon":139.80149602},{"name":"向島保健センター","province":"東京都","city":"墨田区","address":"東京都墨田区東向島5丁目16-2","lat":35.72588248,"lon":139.82110559},{"name":"本所保健センター","province":"東京都","city":"墨田区","address":"東京都墨田区東駒形1丁目6-4","lat":35.7054382,"lon":139.79805828},{"name":"墨田区保健所","province":"東京都","city":"墨田区","address":"墨田区吾妻橋1-23-20","lat":35.71006,"lon":139.8011},{"name":"向島保健センター","province":"東京都","city":"墨田区","address":"墨田区東向島5-16-2","lat":35.72611,"lon":139.82111},{"name":"本所保健センター","province":"東京都","city":"墨田区","address":"墨田区東駒形1-6-4","lat":35.70532,"lon":139.79796},{"name":"墨田区選挙管理委員会","province":"東京都","city":"墨田区","address":"墨田区吾妻橋1-23-20","lat":35.710505,"lon":139.801508},{"name":"墨田区保健所","province":"東京都","city":"墨田区","address":"墨田区吾妻橋1-23-20","lat":35.710724,"lon":139.801496},{"name":"向島保健センター","province":"東京都","city":"墨田区","address":"墨田区東向島5-16-2","lat":35.725882,"lon":139.821106},{"name":"本所保健センター","province":"東京都","city":"墨田区","address":"墨田区東駒形1-6-4","lat":35.705438,"lon":139.798058},{"name":"墨田区保健所","province":"東京都","city":"墨田区","address":"東京都墨田区吾妻橋1丁目23-20","lat":35.71072382,"lon":139.80149602},{"name":"向島保健センター","province":"東京都","city":"墨田区","address":"東京都墨田区東向島5丁目16-2","lat":35.72588248,"lon":139.82110559},{"name":"本所保健センター","province":"東京都","city":"墨田区","address":"東京都墨田区東駒形1丁目6-4","lat":35.7054382,"lon":139.79805828},{"name":"墨田区保健所","province":"東京都","city":"墨田区","address":"墨田区吾妻橋1-23-20","lat":35.71006,"lon":139.8011},{"name":"向島保健センター","province":"東京都","city":"墨田区","address":"墨田区東向島5-16-2","lat":35.72611,"lon":139.82111},{"name":"本所保健センター","province":"東京都","city":"墨田区","address":"墨田区東駒形1-6-4","lat":35.70532,"lon":139.79796},{"name":"墨田区選挙管理委員会","province":"東京都","city":"墨田区","address":"墨田区吾妻橋1-23-20","lat":35.710505,"lon":139.801508},{"name":"墨田区保健所","province":"東京都","city":"墨田区","address":"墨田区吾妻橋1-23-20","lat":35.710724,"lon":139.801496},{"name":"向島保健センター","province":"東京都","city":"墨田区","address":"墨田区東向島5-16-2","lat":35.725882,"lon":139.821106},{"name":"本所保健センター","province":"東京都","city":"墨田区","address":"墨田区東駒形1-6-4","lat":35.705438,"lon":139.798058},{"name":"墨田区保健所","province":"東京都","city":"墨田区","address":"東京都墨田区吾妻橋1丁目23-20","lat":35.71072382,"lon":139.80149602},{"name":"向島保健センター","province":"東京都","city":"墨田区","address":"東京都墨田区東向島5丁目16-2","lat":35.72588248,"lon":139.82110559},{"name":"本所保健センター","province":"東京都","city":"墨田区","address":"東京都墨田区東駒形1丁目6-4","lat":35.7054382,"lon":139.79805828},{"name":"墨田区保健所","province":"東京都","city":"墨田区","address":"墨田区吾妻橋1-23-20","lat":35.71006,"lon":139.8011},{"name":"向島保健センター","province":"東京都","city":"墨田区","address":"墨田区東向島5-16-2","lat":35.72611,"lon":139.82111},{"name":"本所保健センター","province":"東京都","city":"墨田区","address":"墨田区東駒形1-6-4","lat":35.70532,"lon":139.79796},{"name":"墨田区保健所","province":"東京都","city":"墨田区","address":"墨田区吾妻橋1-23-20","lat":35.710724,"lon":139.801496},{"name":"向島保健センター","province":"東京都","city":"墨田区","address":"墨田区東向島5-16-2","lat":35.725882,"lon":139.821106},{"name":"本所保健センター","province":"東京都","city":"墨田区","address":"墨田区東駒形1-6-4","lat":35.705438,"lon":139.798058},{"name":"墨田区保健所","province":"東京都","city":"墨田区","address":"東京都墨田区吾妻橋1丁目23-20","lat":35.71072382,"lon":139.80149602},{"name":"向島保健センター","province":"東京都","city":"墨田区","address":"東京都墨田区東向島5丁目16-2","lat":35.72588248,"lon":139.82110559},{"name":"本所保健センター","province":"東京都","city":"墨田区","address":"東京都墨田区東駒形1丁目6-4","lat":35.7054382,"lon":139.79805828},{"name":"墨田区保健所","province":"東京都","city":"墨田区","address":"墨田区吾妻橋1-23-20","lat":35.71006,"lon":139.8011},{"name":"向島保健センター","province":"東京都","city":"墨田区","address":"墨田区東向島5-16-2","lat":35.72611,"lon":139.82111},{"name":"本所保健センター","province":"東京都","city":"墨田区","address":"墨田区東駒形1-6-4","lat":35.70532,"lon":139.79796},{"name":"墨田区保健所","province":"東京都","city":"墨田区","address":"墨田区吾妻橋1-23-20","lat":35.710724,"lon":139.801496},{"name":"向島保健センター","province":"東京都","city":"墨田区","address":"墨田区東向島5-16-2","lat":35.725882,"lon":139.821106},{"name":"本所保健センター","province":"東京都","city":"墨田区","address":"墨田区東駒形1-6-4","lat":35.705438,"lon":139.798058},{"name":"墨田区保健所","province":"東京都","city":"墨田区","address":"東京都墨田区吾妻橋1丁目23-20","lat":35.71072382,"lon":139.80149602},{"name":"向島保健センター","province":"東京都","city":"墨田区","address":"東京都墨田区東向島5丁目16-2","lat":35.72588248,"lon":139.82110559},{"name":"本所保健センター","province":"東京都","city":"墨田区","address":"東京都墨田区東駒形1丁目6-4","lat":35.7054382,"lon":139.79805828},{"name":"墨田区保健所","province":"東京都","city":"墨田区","address":"墨田区吾妻橋1-23-20","lat":35.71006,"lon":139.8011},{"name":"向島保健センター","province":"東京都","city":"墨田区","address":"墨田区東向島5-16-2","lat":35.72611,"lon":139.82111},{"name":"本所保健センター","province":"東京都","city":"墨田区","address":"墨田区東駒形1-6-4","lat":35.70532,"lon":139.79796},{"name":"墨田区保健所","province":"東京都","city":"墨田区","address":"墨田区吾妻橋1-23-20","lat":35.710724,"lon":139.801496},{"name":"向島保健センター","province":"東京都","city":"墨田区","address":"墨田区東向島5-16-2","lat":35.725882,"lon":139.821106},{"name":"本所保健センター","province":"東京都","city":"墨田区","address":"墨田区東駒形1-6-4","lat":35.705438,"lon":139.798058},{"name":"墨田区保健所","province":"東京都","city":"墨田区","address":"東京都墨田区吾妻橋1丁目23-20","lat":35.71072382,"lon":139.80149602},{"name":"向島保健センター","province":"東京都","city":"墨田区","address":"東京都墨田区東向島5丁目16-2","lat":35.72588248,"lon":139.82110559},{"name":"本所保健センター","province":"東京都","city":"墨田区","address":"東京都墨田区東駒形1丁目6-4","lat":35.7054382,"lon":139.79805828},{"name":"墨田区保健所","province":"東京都","city":"墨田区","address":"墨田区吾妻橋1-23-20","lat":35.71006,"lon":139.8011},{"name":"向島保健センター","province":"東京都","city":"墨田区","address":"墨田区東向島5-16-2","lat":35.72611,"lon":139.82111},{"name":"本所保健センター","province":"東京都","city":"墨田区","address":"墨田区東駒形1-6-4","lat":35.70532,"lon":139.79796}]}