{"keyword":"スポーツ","data":[{"name":"墨田区総合体育館","province":"東京都","city":"墨田区","address":"墨田区錦糸四丁目15番1号","lat":35.699416,"lon":139.817188},{"name":"スポーツプラザ梅若","province":"東京都","city":"墨田区","address":"墨田区墨田一丁目4番4号","lat":35.729064,"lon":139.815837},{"name":"立花体育館","province":"東京都","city":"墨田区","address":"墨田区立花一丁目25番10号","lat":35.705186,"lon":139.83202},{"name":"両国屋内プール","province":"東京都","city":"墨田区","address":"墨田区横網一丁目8番1号両国中学校内","lat":35.697809,"lon":139.796259},{"name":"弓道場","province":"東京都","city":"墨田区","address":"墨田区江東橋四丁目1番3号","lat":35.693357,"lon":139.817402},{"name":"屋外体育施設管理事務所八広支所","province":"東京都","city":"墨田区","address":"墨田区八広六丁目35番1号","lat":35.726546,"lon":139.829392},{"name":"屋外体育施設管理事務所錦糸支所","province":"東京都","city":"墨田区","address":"墨田区錦糸四丁目15番1号","lat":35.699416,"lon":139.817188},{"name":"錦糸公園野球場","province":"東京都","city":"墨田区","address":"墨田区錦糸四丁目15番1号","lat":35.699468,"lon":139.816995},{"name":"八広野球場","province":"東京都","city":"墨田区","address":"墨田区八広六丁目地先","lat":35.729774,"lon":139.828899},{"name":"墨田野球場","province":"東京都","city":"墨田区","address":"墨田区墨田四丁目地先","lat":35.733249,"lon":139.825283},{"name":"荒川四ツ木橋緑地野球場","province":"東京都","city":"墨田区","address":"墨田区墨田四・五丁目地先","lat":35.737301,"lon":139.821909},{"name":"鐘淵野球場","province":"東京都","city":"墨田区","address":"墨田区墨田五丁目地先","lat":35.73864,"lon":139.821174},{"name":"荒川四ツ木橋緑地少年野球場","province":"東京都","city":"墨田区","address":"墨田区東墨田二丁目地先","lat":35.72555,"lon":139.83304},{"name":"東墨田公園少年野球場","province":"東京都","city":"墨田区","address":"墨田区東墨田三丁目4番14号","lat":35.719965,"lon":139.835041},{"name":"隅田公園少年野球場","province":"東京都","city":"墨田区","address":"墨田区向島五丁目6番13号","lat":35.718826,"lon":139.809372},{"name":"錦糸公園テニスコート","province":"東京都","city":"墨田区","address":"墨田区錦糸四丁目15番1号","lat":35.69963,"lon":139.815499},{"name":"文花テニスコート","province":"東京都","city":"墨田区","address":"墨田区文花一丁目19番12号","lat":35.709693,"lon":139.823985},{"name":"緑町公園テニスコート","province":"東京都","city":"墨田区","address":"墨田区亀沢二丁目7番7号","lat":35.696358,"lon":139.801007},{"name":"東墨田テニスコート","province":"東京都","city":"墨田区","address":"墨田区東墨田三丁目19番6号","lat":35.718387,"lon":139.837146},{"name":"堤通公園テニスコート","province":"東京都","city":"墨田区","address":"墨田区堤通一丁目8番1号","lat":35.723939,"lon":139.810789},{"name":"大横川親水公園テニスコート","province":"東京都","city":"墨田区","address":"墨田区緑四丁目22番、墨田区江東橋一丁目8番先","lat":35.69438975,"lon":139.808936},{"name":"墨田競技場","province":"東京都","city":"墨田区","address":"墨田区墨田四丁目地先","lat":35.73325,"lon":139.8253},{"name":"荒川四ツ木橋緑地競技場","province":"東京都","city":"墨田区","address":"墨田区墨田四・五丁目地先","lat":35.735975,"lon":139.822977},{"name":"荒川四ツ木橋緑地球技場","province":"東京都","city":"墨田区","address":"墨田区墨田四丁目地先","lat":35.734591,"lon":139.824082},{"name":"鐘淵球技場","province":"東京都","city":"墨田区","address":"墨田区墨田五丁目地先","lat":35.739293,"lon":139.820831},{"name":"荒川四ツ木橋緑地少年サッカー場","province":"東京都","city":"墨田区","address":"墨田区東墨田二丁目地先","lat":35.722998,"lon":139.835637},{"name":"荒川緑地フィールドハウス","province":"東京都","city":"墨田区","address":"墨田区墨田四丁目32番10号","lat":35.732701,"lon":139.823903},{"name":"東白鬚公園サービスセンター","province":"東京都","city":"墨田区","address":"墨田区堤通二丁目2番","lat":35.733289,"lon":139.813482},{"name":"東白鬚公園テニスコート","province":"東京都","city":"墨田区","address":"墨田区堤通二丁目2番","lat":35.732339,"lon":139.813541},{"name":"東白鬚公園少年野球場","province":"東京都","city":"墨田区","address":"墨田区堤通二丁目2番","lat":35.733036,"lon":139.814324},{"name":"フクシ・エンタープライズ墨田フィールド（墨田区総合運動場）","province":"東京都","city":"墨田区","address":"墨田区堤通二丁目11番1号","lat":35.738941,"lon":139.816432}]}