{"keyword":"会館","data":[{"name":"菊川分室","province":"東京都","city":"墨田区","address":"東京都墨田区菊川3丁目21-6","lat":35.68994,"lon":139.80762828},{"name":"柳島集会室","province":"東京都","city":"墨田区","address":"東京都墨田区横川5丁目2-17","lat":35.70357974,"lon":139.81667621},{"name":"立川集会所","province":"東京都","city":"墨田区","address":"東京都墨田区立川1丁目5-2","lat":35.69046226,"lon":139.79950201},{"name":"寺島集会所","province":"東京都","city":"墨田区","address":"東京都墨田区東向島1丁目23-10","lat":35.72018834,"lon":139.81260395},{"name":"千歳集会所","province":"東京都","city":"墨田区","address":"東京都墨田区千歳2丁目2-5","lat":35.69071222,"lon":139.79524684},{"name":"八広中央集会所","province":"東京都","city":"墨田区","address":"東京都墨田区八広3丁目14-5","lat":35.7191104,"lon":139.82683791},{"name":"東あずま公園集会所","province":"東京都","city":"墨田区","address":"東京都墨田区立花2丁目32-12","lat":35.70834973,"lon":139.83030736},{"name":"東駒形集会所","province":"東京都","city":"墨田区","address":"東京都墨田区東駒形4丁目14-1","lat":35.70547984,"lon":139.80774036},{"name":"曳舟集会所","province":"東京都","city":"墨田区","address":"東京都墨田区東向島2丁目17-14","lat":35.71838566,"lon":139.81561446},{"name":"押上集会所","province":"東京都","city":"墨田区","address":"東京都墨田区押上1丁目47-6","lat":35.70928024,"lon":139.81755021},{"name":"八広一丁目集会所","province":"東京都","city":"墨田区","address":"東京都墨田区八広1丁目19-14","lat":35.718808,"lon":139.82292739},{"name":"梅若橋集会所","province":"東京都","city":"墨田区","address":"東京都墨田区堤通2丁目9-1","lat":35.73539223,"lon":139.81675295},{"name":"東墨田うめぞの集会所","province":"東京都","city":"墨田区","address":"東京都墨田区東墨田3丁目19-1","lat":35.7184487,"lon":139.83768103},{"name":"横川集会所","province":"東京都","city":"墨田区","address":"東京都墨田区横川5丁目9-1","lat":35.70517431,"lon":139.81750923},{"name":"江東橋集会所","province":"東京都","city":"墨田区","address":"東京都墨田区江東橋5丁目16-15","lat":35.6926285,"lon":139.81078593},{"name":"一寺言問集会所","province":"東京都","city":"墨田区","address":"東京都墨田区東向島1丁目20-6","lat":35.72067722,"lon":139.81388712},{"name":"立花児童館","province":"東京都","city":"墨田区","address":"東京都墨田区立花1丁目27-9","lat":35.70555246,"lon":139.82881617},{"name":"みどりｺﾐｭﾆﾃｨｾﾝﾀｰ集会室","province":"東京都","city":"墨田区","address":"東京都墨田区緑3丁目7-3","lat":35.69361455,"lon":139.8032676},{"name":"業平三丁目集会所","province":"東京都","city":"墨田区","address":"東京都墨田区業平3丁目2-5","lat":35.70634375,"lon":139.8130676},{"name":"立花四丁目集会所","province":"東京都","city":"墨田区","address":"東京都墨田区立花4丁目8-10","lat":35.71069969,"lon":139.83086822},{"name":"京島第一集会所","province":"東京都","city":"墨田区","address":"東京都墨田区京島3丁目3-6","lat":35.71515563,"lon":139.82138862},{"name":"京島第二集会所","province":"東京都","city":"墨田区","address":"東京都墨田区京島3丁目52-8","lat":35.71478047,"lon":139.82434659},{"name":"なりひら神明橋集会所","province":"東京都","city":"墨田区","address":"東京都墨田区業平5丁目6-2","lat":35.70709118,"lon":139.81802555}]}