{"keyword":"低額","data":[{"name":"ふるさと寿々喜屋ハウス","province":"東京都","city":"墨田区","address":"墨田区本所2-20-5","lat":35.70481,"lon":139.80199},{"name":"ふるさと福久井荘","province":"東京都","city":"墨田区","address":"墨田区東向島2-48-13","lat":35.71969,"lon":139.81911},{"name":"ふるさと向島５丁目ハウス","province":"東京都","city":"墨田区","address":"墨田区向島5-13-21","lat":35.71927,"lon":139.81062},{"name":"ふるさと晃荘","province":"東京都","city":"墨田区","address":"墨田区八広1-14-1","lat":35.72044,"lon":139.82338},{"name":"ふるさと立花４丁目ハウス","province":"東京都","city":"墨田区","address":"墨田区立花4-11-4","lat":35.71003,"lon":139.83017},{"name":"風待ちハウス","province":"東京都","city":"墨田区","address":"墨田区押上3-5-2","lat":35.71359,"lon":139.81651},{"name":"あさひ宮田記念第３八広寮","province":"東京都","city":"墨田区","address":"墨田区八広3-1-3","lat":35.71876,"lon":139.82495},{"name":"あさひ第３八広寮","province":"東京都","city":"墨田区","address":"墨田区八広3-1-3","lat":35.71876,"lon":139.82495},{"name":"ふるさとせせらぎ館","province":"東京都","city":"墨田区","address":"墨田区文花3-19-6","lat":35.71143,"lon":139.82701},{"name":"ふるさと立花四丁目ハウス","province":"東京都","city":"墨田区","address":"墨田区立花4-11-4","lat":35.71003,"lon":139.83017},{"name":"ふるさと立花四丁目ハウス","province":"東京都","city":"墨田区","address":"墨田区立花4-11-4","lat":35.709853,"lon":139.830365},{"name":"ろうけん墨田　秋光園","province":"東京都","city":"墨田区","address":"墨田区横網2-7-13","lat":35.701122,"lon":139.794873}]}