{"keyword":"保育","data":[{"name":"チェリッシュ曳舟","province":"東京都","city":"墨田区","address":"墨田区京島一丁目36番1号","lat":35.717145,"lon":139.819611},{"name":"あい・あい保育園小村井園","province":"東京都","city":"墨田区","address":"墨田区立花五丁目24番11号","lat":35.7111135,"lon":139.8305581},{"name":"ぶどうの木保育室","province":"東京都","city":"墨田区","address":"墨田区東駒形四丁目4番8号","lat":35.705506,"lon":139.80511},{"name":"八広ぶどうの木保育室","province":"東京都","city":"墨田区","address":"墨田区八広六丁目37番5号","lat":35.725938,"lon":139.82901},{"name":"ちゃのま保育園","province":"東京都","city":"墨田区","address":"墨田区横川四丁目9番8号","lat":35.7051553,"lon":139.8160458},{"name":"キャリー保育園東向島","province":"東京都","city":"墨田区","address":"墨田区東向島5-36-10","lat":35.727296,"lon":139.823158},{"name":"じょうえん第2保育園","province":"東京都","city":"墨田区","address":"墨田区京島1-6-6-105","lat":35.716579,"lon":139.818508},{"name":"じょうえん第3保育園","province":"東京都","city":"墨田区","address":"墨田区京島1-6-6-106","lat":35.716684,"lon":139.818572},{"name":"墨田みどり保育園　第一大横川園","province":"東京都","city":"墨田区","address":"墨田区緑四丁目2番8号先","lat":35.693009,"lon":139.808686},{"name":"墨田みどり保育園　第二大横川園","province":"東京都","city":"墨田区","address":"墨田区緑四丁目2番8号先","lat":35.693009,"lon":139.808686},{"name":"未来っ子保育園東向島園","province":"東京都","city":"墨田区","address":"墨田区東向島五丁目18番1号","lat":35.725943,"lon":139.821553}]}