{"keyword":"備蓄","data":[{"name":"本所防災備蓄倉庫","province":"東京都","city":"墨田区","address":"東京都墨田区本所2丁目6-9","lat":35.70300508,"lon":139.8007777},{"name":"白鬚東防災備蓄倉庫","province":"東京都","city":"墨田区","address":"東京都墨田区堤通2丁目7-13","lat":35.73475624,"lon":139.81720018},{"name":"国技館内防災備蓄倉庫","province":"東京都","city":"墨田区","address":"東京都墨田区横網1丁目3-28","lat":35.69721965,"lon":139.79360694},{"name":"京島防災備蓄倉庫","province":"東京都","city":"墨田区","address":"東京都墨田区京島2丁目15-5","lat":35.71313356,"lon":139.82108025},{"name":"東向島防災備蓄倉庫","province":"東京都","city":"墨田区","address":"東京都墨田区東向島4丁目8-12","lat":35.72759893,"lon":139.8155317},{"name":"庁舎内防災備蓄倉庫","province":"東京都","city":"墨田区","address":"東京都墨田区吾妻橋1丁目23-20","lat":35.71072382,"lon":139.80149602},{"name":"横川防災備蓄倉庫","province":"東京都","city":"墨田区","address":"東京都墨田区横川5丁目9-1","lat":35.70517431,"lon":139.81750923},{"name":"業平防災備蓄倉庫","province":"東京都","city":"墨田区","address":"東京都墨田区業平3丁目2-5","lat":35.70634375,"lon":139.8130676},{"name":"国際ファッションセンタービル内防災備蓄倉庫","province":"東京都","city":"墨田区","address":"東京都墨田区横網1丁目6-1","lat":35.69830846,"lon":139.79685114},{"name":"NTTドコモ墨田ビル内防災備蓄倉庫","province":"東京都","city":"墨田区","address":"東京都墨田区横網1丁目9-2","lat":35.69835288,"lon":139.79546506},{"name":"太平四丁目防災備蓄倉庫","province":"東京都","city":"墨田区","address":"東京都墨田区太平4丁目1-2","lat":35.70086065,"lon":139.81594032},{"name":"総合体育館防災備蓄倉庫","province":"東京都","city":"墨田区","address":"東京都墨田区錦糸4丁目15-1","lat":35.69947749,"lon":139.8171875},{"name":"スカイツリーウエストヤードロータリー防災備蓄倉庫","province":"東京都","city":"墨田区","address":"東京都墨田区押上1丁目1-2","lat":35.71005462,"lon":139.81070876},{"name":"本所地域プラザ防災備蓄倉庫","province":"東京都","city":"墨田区","address":"東京都墨田区本所1丁目13-4","lat":35.70316063,"lon":139.79876681},{"name":"京島三丁目コミュニティ住宅防災備蓄倉庫","province":"東京都","city":"墨田区","address":"東京都墨田区京島3丁目3-1","lat":35.71526948,"lon":139.82097199},{"name":"第7コミュニティ住宅防災備蓄倉庫","province":"東京都","city":"墨田区","address":"東京都墨田区京島3丁目3-6","lat":35.71515563,"lon":139.82138862},{"name":"第8コミュニティ住宅防災備蓄倉庫","province":"東京都","city":"墨田区","address":"東京都墨田区京島3丁目52-8","lat":35.71478047,"lon":139.82434659},{"name":"ホンダカーズ東京押上店防災備蓄倉庫","province":"東京都","city":"墨田区","address":"東京都墨田区押上2丁目22-4","lat":35.71483839,"lon":139.81445312},{"name":"京成押上ビル防災備蓄倉庫","province":"東京都","city":"墨田区","address":"東京都墨田区押上1丁目10-3","lat":35.71022161,"lon":139.81391135},{"name":"イーストコア曳舟二番館防災備蓄倉庫","province":"東京都","city":"墨田区","address":"東京都墨田区京島1丁目1-2","lat":35.71600802,"lon":139.81705298},{"name":"東武曳舟駅防災備蓄倉庫","province":"東京都","city":"墨田区","address":"東京都墨田区東向島2丁目26","lat":35.7184357,"lon":139.81642547},{"name":"八広防災備蓄倉庫","province":"東京都","city":"墨田区","address":"東京都墨田区八広6丁目35-1","lat":35.72651028,"lon":139.82940171},{"name":"総合運動場防災備蓄倉庫","province":"東京都","city":"墨田区","address":"東京都墨田区堤通2丁目11-1","lat":35.73905274,"lon":139.81669975},{"name":"情報経営イノベーション専門職大学防災備蓄倉庫","province":"東京都","city":"墨田区","address":"東京都墨田区文花1丁目18-13","lat":35.71137807,"lon":139.82328004},{"name":"アパホテル防災備蓄倉庫","province":"東京都","city":"墨田区","address":"東京都墨田区横網1丁目11-10","lat":35.69741131,"lon":139.79426523},{"name":"両国リバーセンター防災備蓄倉庫","province":"東京都","city":"墨田区","address":"東京都墨田区横網1丁目2-13","lat":35.6978029,"lon":139.79244854},{"name":"関東マツダ墨田店防災備蓄倉庫","province":"東京都","city":"墨田区","address":"東京都墨田区立花5丁目1-8","lat":35.71308031,"lon":139.8281545},{"name":"八広防災備蓄倉庫","province":"東京都","city":"墨田区","address":"東京都墨田区八広6丁目35-1","lat":35.72651028,"lon":139.82940171},{"name":"白鬚東防災備蓄倉庫","province":"東京都","city":"墨田区","address":"東京都墨田区堤通2丁目7-13","lat":35.73475624,"lon":139.81720018},{"name":"国技館内防災備蓄倉庫","province":"東京都","city":"墨田区","address":"東京都墨田区横網1丁目3-28","lat":35.69721965,"lon":139.79360694},{"name":"文花防災備蓄倉庫","province":"東京都","city":"墨田区","address":"東京都墨田区文花1丁目19-1","lat":35.71053903,"lon":139.82370512},{"name":"京島防災備蓄倉庫","province":"東京都","city":"墨田区","address":"東京都墨田区京島2丁目15-5","lat":35.71313356,"lon":139.82108025},{"name":"東向島防災備蓄倉庫","province":"東京都","city":"墨田区","address":"東京都墨田区東向島4丁目8-12","lat":35.72759893,"lon":139.8155317},{"name":"横川防災備蓄倉庫","province":"東京都","city":"墨田区","address":"東京都墨田区横川5丁目9-1","lat":35.70517431,"lon":139.81750923},{"name":"庁舎内防災備蓄倉庫","province":"東京都","city":"墨田区","address":"東京都墨田区吾妻橋1丁目23-20","lat":35.71072382,"lon":139.80149602},{"name":"業平防災備蓄倉庫","province":"東京都","city":"墨田区","address":"東京都墨田区業平3丁目2-5","lat":35.70634375,"lon":139.8130676},{"name":"国際ファッションセンタービル内防災備蓄倉庫","province":"東京都","city":"墨田区","address":"東京都墨田区横網1丁目6-1","lat":35.69830846,"lon":139.79685114},{"name":"NTTドコモ墨田ビル内防災備蓄倉庫","province":"東京都","city":"墨田区","address":"東京都墨田区横網1丁目9-2","lat":35.69835288,"lon":139.79546506},{"name":"太平四丁目防災備蓄倉庫","province":"東京都","city":"墨田区","address":"東京都墨田区太平4丁目1-2","lat":35.70086065,"lon":139.81594032},{"name":"東墨田防災備蓄倉庫","province":"東京都","city":"墨田区","address":"東京都墨田区東墨田2丁目12-9","lat":35.72135158,"lon":139.83258985},{"name":"総合体育館防災備蓄倉庫","province":"東京都","city":"墨田区","address":"東京都墨田区錦糸4丁目15-1","lat":35.69947749,"lon":139.8171875},{"name":"東京スカイツリータウンウエストヤード総合ロータリー備蓄倉庫","province":"東京都","city":"墨田区","address":"東京都墨田区押上1丁目1-2","lat":35.71005462,"lon":139.81070876},{"name":"本所地域プラザ防災備蓄倉庫","province":"東京都","city":"墨田区","address":"東京都墨田区本所1丁目13-4","lat":35.70316063,"lon":139.79876681},{"name":"京島三丁目コミュニティ住宅防災備蓄倉庫","province":"東京都","city":"墨田区","address":"東京都墨田区京島3丁目3-1","lat":35.71526948,"lon":139.82097199},{"name":"第7コミュニティ住宅防災備蓄倉庫","province":"東京都","city":"墨田区","address":"東京都墨田区京島3丁目3-6","lat":35.71515563,"lon":139.82138862},{"name":"第8コミュニティ住宅防災備蓄庫","province":"東京都","city":"墨田区","address":"東京都墨田区京島3丁目52-8","lat":35.71478047,"lon":139.82434659},{"name":"20　ホンダカーズ東京押上店防災備蓄倉庫","province":"東京都","city":"墨田区","address":"東京都墨田区押上2丁目22-4","lat":35.71483839,"lon":139.81445312},{"name":"21　京成押上ビル防災備蓄倉庫","province":"東京都","city":"墨田区","address":"東京都墨田区押上1丁目10-3","lat":35.71022161,"lon":139.81391135}]}