{"keyword":"公","data":[{"name":"本所警察署","province":"東京都","city":"墨田区","address":"墨田区横川四丁目8番9号","lat":35.704847,"lon":139.815074},{"name":"向島警察署","province":"東京都","city":"墨田区","address":"墨田区文花三丁目18番9号","lat":35.711729,"lon":139.82726},{"name":"本所消防署","province":"東京都","city":"墨田区","address":"墨田区横川四丁目6番6号","lat":35.703922,"lon":139.815226},{"name":"本所防災館","province":"東京都","city":"墨田区","address":"墨田区横川四丁目6番6号","lat":35.703922,"lon":139.815226},{"name":"向島消防署","province":"東京都","city":"墨田区","address":"墨田区東向島六丁目22番3号","lat":35.723625,"lon":139.820023},{"name":"墨田都税事務所","province":"東京都","city":"墨田区","address":"墨田区業平一丁目7番4号","lat":35.707803,"lon":139.809041},{"name":"本所税務署","province":"東京都","city":"墨田区","address":"墨田区業平一丁目7番2号","lat":35.707541,"lon":139.809207},{"name":"向島税務署","province":"東京都","city":"墨田区","address":"墨田区東向島二丁目7番14号","lat":35.716957,"lon":139.815593},{"name":"水道局墨田営業所","province":"東京都","city":"墨田区","address":"墨田区千歳二丁目2番11号","lat":35.69051,"lon":139.795701},{"name":"下水道局東部第一下水道事務所墨田出張所","province":"東京都","city":"墨田区","address":"墨田区横網一丁目4番12号","lat":35.69702,"lon":139.795017},{"name":"向島郵便局","province":"東京都","city":"墨田区","address":"墨田区東向島二丁目32番25号","lat":35.719767,"lon":139.817301},{"name":"本所郵便局","province":"東京都","city":"墨田区","address":"墨田区太平四丁目21番2号","lat":35.702642,"lon":139.817771},{"name":"東京法務局墨田出張所","province":"東京都","city":"墨田区","address":"墨田区菊川一丁目17番13号","lat":35.68987,"lon":139.801716},{"name":"東京簡易裁判所墨田庁舎","province":"東京都","city":"墨田区","address":"墨田区錦糸四丁目16番7号","lat":35.698318,"lon":139.818312},{"name":"東京区検察庁墨田分室","province":"東京都","city":"墨田区","address":"墨田区錦糸四丁目16番7号","lat":35.698318,"lon":139.818312},{"name":"警視庁交通執行課墨田分室","province":"東京都","city":"墨田区","address":"墨田区錦糸四丁目16番7号","lat":35.698318,"lon":139.818312},{"name":"錦糸町公証役場","province":"東京都","city":"墨田区","address":"墨田区江東橋三丁目9番7号","lat":35.695082,"lon":139.813206},{"name":"向島公証役場","province":"東京都","city":"墨田区","address":"墨田区東向島六丁目1番3号","lat":35.722318,"lon":139.818681},{"name":"東京都第五建設事務所墨田工区","province":"東京都","city":"墨田区","address":"墨田区堤通一丁目16番4号","lat":35.725814,"lon":139.810888},{"name":"墨田年金事務所","province":"東京都","city":"墨田区","address":"墨田区立川三丁目8番12号","lat":35.691042,"lon":139.804712},{"name":"一般財団法人墨田まちづくり公社","province":"東京都","city":"墨田区","address":"墨田区東向島二丁目36番10号","lat":35.721369,"lon":139.817609},{"name":"一般財団法人墨田まちづくり公社京島事務所","province":"東京都","city":"墨田区","address":"墨田区京島二丁目15番5号","lat":35.713242,"lon":139.821051},{"name":"一般財団法人墨田まちづくり公社鐘ヶ淵事務所","province":"東京都","city":"墨田区","address":"墨田区墨田三丁目40番3号","lat":35.730741,"lon":139.822325},{"name":"社会福祉法人墨田区社会福祉事業団","province":"東京都","city":"墨田区","address":"墨田区向島三丁目36番7号","lat":35.71338,"lon":139.810876},{"name":"一般社団法人墨田区観光協会","province":"東京都","city":"墨田区","address":"墨田区押上一丁目1番2号東京スカイツリータウン・ソラマチ5階まち処内","lat":35.710434,"lon":139.812014},{"name":"公益財団法人墨田区文化振興財団","province":"東京都","city":"墨田区","address":"墨田区錦糸一丁目2番3号","lat":35.697304,"lon":139.810052},{"name":"ハローワーク墨田","province":"東京都","city":"墨田区","address":"墨田区江東橋二丁目19番12号","lat":35.696235,"lon":139.811413},{"name":"向島労働基準監督署","province":"東京都","city":"墨田区","address":"墨田区東向島四丁目33番13号","lat":35.725511,"lon":139.818772},{"name":"独立行政法人高齢・障害・求職者雇用支援機構東京支部","province":"東京都","city":"墨田区","address":"墨田区江東橋二丁目19番12号","lat":35.696235,"lon":139.811413},{"name":"公益社団法人墨田区シルバー人材センター","province":"東京都","city":"墨田区","address":"墨田区文花一丁目32番1号101","lat":35.708509,"lon":139.824936},{"name":"墨田区シルバー人材センター向島作業所","province":"東京都","city":"墨田区","address":"墨田区東向島一丁目17番11号","lat":35.720828,"lon":139.815445},{"name":"墨田区シルバー人材センター緑作業所","province":"東京都","city":"墨田区","address":"墨田区緑四丁目35番6号","lat":35.695825,"lon":139.807408},{"name":"公益社団法人墨田区勤労者福祉サービスセンター","province":"東京都","city":"墨田区","address":"墨田区押上二丁目12番7号215号室","lat":35.712706,"lon":139.811982},{"name":"国際ファッションセンター株式会社","province":"東京都","city":"墨田区","address":"墨田区横網一丁目6番1号","lat":35.698175,"lon":139.796902},{"name":"一般財団法人ファッション産業人材育成機構","province":"東京都","city":"墨田区","address":"墨田区横網一丁目6番1号KFCビル11階","lat":35.698175,"lon":139.796902},{"name":"東京都立皮革技術センター","province":"東京都","city":"墨田区","address":"墨田区東墨田三丁目3番14号","lat":35.720127,"lon":139.83351},{"name":"東京都立産業技術研究センター墨田支所","province":"東京都","city":"墨田区","address":"墨田区横網一丁目6番1号KFCビル12階","lat":35.698175,"lon":139.796902}]}