{"keyword":"公園","data":[{"name":"本所松坂町公園","province":"東京都","city":"墨田区","address":"墨田区両国三丁目13番9号","lat":35.693326,"lon":139.794298},{"name":"両国公園","province":"東京都","city":"墨田区","address":"墨田区両国四丁目25番3号","lat":35.693679,"lon":139.79594},{"name":"千歳公園","province":"東京都","city":"墨田区","address":"墨田区千歳二丁目2番1号","lat":35.690564,"lon":139.795173},{"name":"菊川公園","province":"東京都","city":"墨田区","address":"墨田区立川四丁目12番21号","lat":35.691169,"lon":139.807618},{"name":"中和公園","province":"東京都","city":"墨田区","address":"墨田区菊川一丁目18番25号","lat":35.689561,"lon":139.802629},{"name":"江東橋公園","province":"東京都","city":"墨田区","address":"墨田区江東橋二丁目4番11号","lat":35.693905,"lon":139.811609},{"name":"竪川第一公園","province":"東京都","city":"墨田区","address":"墨田区江東橋四丁目1番3号","lat":35.693382,"lon":139.817097},{"name":"錦糸堀公園","province":"東京都","city":"墨田区","address":"墨田区江東橋四丁目17番1号","lat":35.694722,"lon":139.816378},{"name":"竪川親水公園","province":"東京都","city":"墨田区","address":"墨田区江東橋一丁目・二丁目・四丁目・五丁目地先","lat":35.693247,"lon":139.818256},{"name":"旧安田庭園","province":"東京都","city":"墨田区","address":"墨田区横網一丁目12番1号","lat":35.698379,"lon":139.793698},{"name":"緑町公園","province":"東京都","city":"墨田区","address":"墨田区亀沢二丁目7番7号","lat":35.696685,"lon":139.800438},{"name":"日進公園","province":"東京都","city":"墨田区","address":"墨田区亀沢三丁目24番3号","lat":35.698671,"lon":139.804249},{"name":"若宮公園","province":"東京都","city":"墨田区","address":"墨田区本所二丁目2番19号","lat":35.702531,"lon":139.801492},{"name":"横川公園","province":"東京都","city":"墨田区","address":"墨田区東駒形四丁目18番21号","lat":35.706711,"lon":139.806366},{"name":"吾妻橋公園","province":"東京都","city":"墨田区","address":"墨田区吾妻橋一丁目12番1号","lat":35.708917,"lon":139.798896},{"name":"大横川親水公園","province":"東京都","city":"墨田区","address":"墨田区吾妻橋三丁目、業平一丁目、東駒形四丁目、横川一丁目、本所四丁目、太平一丁目、石原四丁目、錦糸一丁目、亀沢四丁目、江東橋一丁目、緑四丁目地先","lat":35.700523,"lon":139.808396},{"name":"錦糸公園","province":"東京都","city":"墨田区","address":"墨田区錦糸四丁目15番1号","lat":35.698989,"lon":139.816464},{"name":"横川東公園","province":"東京都","city":"墨田区","address":"墨田区横川五丁目2番8号","lat":35.703117,"lon":139.817744},{"name":"横川さんかく公園","province":"東京都","city":"墨田区","address":"墨田区横川五丁目9番31号","lat":35.705694,"lon":139.8178},{"name":"おしなり公園","province":"東京都","city":"墨田区","address":"墨田区押上一丁目、業平一丁目・二丁目・三丁目地先","lat":35.709586,"lon":139.811781},{"name":"業平公園","province":"東京都","city":"墨田区","address":"墨田区業平二丁目3番2号","lat":35.70636,"lon":139.812358},{"name":"隅田公園","province":"東京都","city":"墨田区","address":"墨田区向島一丁目、二丁目、五丁目地先","lat":35.71224,"lon":139.80374},{"name":"銅像堀公園","province":"東京都","city":"墨田区","address":"墨田区向島五丁目9番1号","lat":35.721152,"lon":139.809952},{"name":"ふじのき公園","province":"東京都","city":"墨田区","address":"墨田区東向島二丁目7番5号","lat":35.717469,"lon":139.815332},{"name":"東向島ふじ公園","province":"東京都","city":"墨田区","address":"墨田区東向島二丁目46番7号","lat":35.720198,"lon":139.818583},{"name":"長寿庭園","province":"東京都","city":"墨田区","address":"墨田区東向島四丁目8番20号","lat":35.727144,"lon":139.815418},{"name":"東向島北公園","province":"東京都","city":"墨田区","address":"墨田区東向島四丁目12番19号","lat":35.725772,"lon":139.815912},{"name":"さつき公園","province":"東京都","city":"墨田区","address":"墨田区東向島六丁目19番12号","lat":35.722476,"lon":139.820369},{"name":"なつめ公園","province":"東京都","city":"墨田区","address":"墨田区東向島六丁目40番2号","lat":35.724509,"lon":139.822016},{"name":"隅田川緑道公園","province":"東京都","city":"墨田区","address":"墨田区横網一丁目・二丁目、本所一丁目、東駒形一丁目、吾妻橋一丁目、堤通一丁目地先","lat":35.700997,"lon":139.794326},{"name":"堤通公園","province":"東京都","city":"墨田区","address":"墨田区堤通一丁目8番1号","lat":35.723815,"lon":139.810731},{"name":"梅若公園","province":"東京都","city":"墨田区","address":"墨田区堤通二丁目6番10号","lat":35.733816,"lon":139.816201},{"name":"白鬚公園","province":"東京都","city":"墨田区","address":"墨田区墨田一丁目4番42号","lat":35.728033,"lon":139.815434},{"name":"荒川四ツ木橋緑地","province":"東京都","city":"墨田区","address":"墨田区墨田四丁目・五丁目、東墨田二丁目・三丁目、八広六丁目地先","lat":35.729329,"lon":139.829071},{"name":"つばき公園","province":"東京都","city":"墨田区","address":"墨田区墨田五丁目33番9号","lat":35.73763,"lon":139.820268},{"name":"押上公園","province":"東京都","city":"墨田区","address":"墨田区押上一丁目47番8号","lat":35.709261,"lon":139.817285},{"name":"ひきふねどんぐり公園","province":"東京都","city":"墨田区","address":"墨田区京島一丁目7番3号","lat":35.716663,"lon":139.818945},{"name":"曳舟なごみ公園","province":"東京都","city":"墨田区","address":"墨田区京島一丁目8番2号","lat":35.716087,"lon":139.817982},{"name":"京島西公園","province":"東京都","city":"墨田区","address":"墨田区京島一丁目22番3号","lat":35.715786,"lon":139.818905},{"name":"曳舟さくら公園","province":"東京都","city":"墨田区","address":"墨田区京島一丁目40番1号","lat":35.718896,"lon":139.820171},{"name":"京島南公園","province":"東京都","city":"墨田区","address":"墨田区京島二丁目20番17号","lat":35.713064,"lon":139.822156},{"name":"原公園","province":"東京都","city":"墨田区","address":"墨田区京島三丁目44番14号","lat":35.713024,"lon":139.82325},{"name":"あずま百樹園","province":"東京都","city":"墨田区","address":"墨田区文花一丁目19番4号","lat":35.710219,"lon":139.82406},{"name":"文花公園","province":"東京都","city":"墨田区","address":"墨田区文花一丁目27番5号","lat":35.708817,"lon":139.821743},{"name":"文花宮前橋公園","province":"東京都","city":"墨田区","address":"墨田区文花一丁目32番11号","lat":35.708917,"lon":139.824248},{"name":"緑と花の学習園","province":"東京都","city":"墨田区","address":"墨田区文花二丁目12番17号","lat":35.709202,"lon":139.825364},{"name":"ひいらぎ公園","province":"東京都","city":"墨田区","address":"墨田区八広一丁目16番11号","lat":35.720115,"lon":139.822333},{"name":"みわさと公園","province":"東京都","city":"墨田区","address":"墨田区八広一丁目38番13号","lat":35.721182,"lon":139.825216},{"name":"舟原公園","province":"東京都","city":"墨田区","address":"墨田区八広二丁目43番16号","lat":35.715368,"lon":139.826734},{"name":"八広中央公園","province":"東京都","city":"墨田区","address":"墨田区八広三丁目13番19号","lat":35.719442,"lon":139.827188},{"name":"八広あずま公園","province":"東京都","city":"墨田区","address":"墨田区八広四丁目19番14号","lat":35.723691,"lon":139.828244},{"name":"八広公園","province":"東京都","city":"墨田区","address":"墨田区八広五丁目10番14号","lat":35.725491,"lon":139.824774},{"name":"吾嬬西公園","province":"東京都","city":"墨田区","address":"墨田区八広六丁目53番16号","lat":35.724305,"lon":139.830557},{"name":"立花公園","province":"東京都","city":"墨田区","address":"墨田区立花一丁目27番5号","lat":35.704766,"lon":139.828631},{"name":"東あずま公園","province":"東京都","city":"墨田区","address":"墨田区立花二丁目32番12号","lat":35.708131,"lon":139.830594},{"name":"旧中川水辺公園","province":"東京都","city":"墨田区","address":"墨田区東墨田一丁目・三丁目、立花三丁目・五丁目・六丁目地先","lat":35.711816,"lon":139.835961},{"name":"福寿公園","province":"東京都","city":"墨田区","address":"墨田区立花三丁目24番3号","lat":35.707787,"lon":139.834612},{"name":"たちばな仲よし公園","province":"東京都","city":"墨田区","address":"墨田区立花五丁目19番2号","lat":35.712645,"lon":139.830149},{"name":"中川公園","province":"東京都","city":"墨田区","address":"墨田区立花五丁目38番3号","lat":35.712097,"lon":139.831994},{"name":"立花いこい公園","province":"東京都","city":"墨田区","address":"墨田区立花六丁目8番34号","lat":35.711343,"lon":139.835969},{"name":"平井橋第二公園","province":"東京都","city":"墨田区","address":"墨田区立花六丁目8番44号","lat":35.710378,"lon":139.836152},{"name":"平井橋第一公園","province":"東京都","city":"墨田区","address":"墨田区立花六丁目8番55号","lat":35.710738,"lon":139.834381},{"name":"立花大正民家園","province":"東京都","city":"墨田区","address":"墨田区立花六丁目13番17号","lat":35.709738,"lon":139.838236},{"name":"新平井橋公園","province":"東京都","city":"墨田区","address":"墨田区東墨田一丁目6番2号","lat":35.71589,"lon":139.830557},{"name":"東墨田第一公園","province":"東京都","city":"墨田区","address":"墨田区東墨田二丁目1番16号","lat":35.718782,"lon":139.830138},{"name":"東墨田二丁目公園","province":"東京都","city":"墨田区","address":"墨田区東墨田二丁目12番10号","lat":35.721247,"lon":139.832734},{"name":"きねがわ公園","province":"東京都","city":"墨田区","address":"墨田区東墨田二丁目25番8号","lat":35.72408,"lon":139.832941},{"name":"東墨田公園","province":"東京都","city":"墨田区","address":"墨田区東墨田三丁目4番14号","lat":35.719793,"lon":139.834934},{"name":"東公園","province":"東京都","city":"墨田区","address":"墨田区東墨田三丁目12番19号","lat":35.720838,"lon":139.835685},{"name":"東墨田東公園","province":"東京都","city":"墨田区","address":"墨田区東墨田三丁目19番2号","lat":35.718382,"lon":139.83753},{"name":"都立東白鬚公園","province":"東京都","city":"墨田区","address":"墨田区堤通二丁目2番1号","lat":35.733284,"lon":139.814479},{"name":"都立向島百花園","province":"東京都","city":"墨田区","address":"墨田区東向島三丁目18番3号","lat":35.724257,"lon":139.815542},{"name":"都立横網町公園","province":"東京都","city":"墨田区","address":"墨田区横網二丁目3番25号","lat":35.699373,"lon":139.796391}]}