{"keyword":"再生","data":[{"name":"(株)山室  隅田店","province":"東京都","city":"墨田区","address":"墨田区堤通1-17-27","lat":35.725731,"lon":139.811493},{"name":"(有)藤本春吉商店","province":"東京都","city":"墨田区","address":"墨田区立川3-1-14","lat":35.690201,"lon":139.803909},{"name":"(有)吉田容器店","province":"東京都","city":"墨田区","address":"墨田区立花3-23-12","lat":35.707401,"lon":139.835144},{"name":"東京レンダリング(協)","province":"東京都","city":"墨田区","address":"墨田区東墨田1-9-1","lat":35.715397,"lon":139.832275},{"name":"二興金属(株)","province":"東京都","city":"墨田区","address":"墨田区本所1-10-11","lat":35.702209,"lon":139.798264},{"name":"(株)五井金属","province":"東京都","city":"墨田区","address":"墨田区立川2-7-1","lat":35.69091,"lon":139.801361},{"name":"(有)塚越商店","province":"東京都","city":"墨田区","address":"墨田区東駒形4-20-9","lat":35.707268,"lon":139.804611},{"name":"(株)野口茂樹商店","province":"東京都","city":"墨田区","address":"墨田区横川1-3-6","lat":35.702995,"lon":139.810013},{"name":"製紙原料サワムラ商店","province":"東京都","city":"墨田区","address":"墨田区太平1-18-11","lat":35.701523,"lon":139.809143},{"name":"東日紙業(株)  墨田支店","province":"東京都","city":"墨田区","address":"墨田区文花2-4-16","lat":35.708496,"lon":139.82637},{"name":"(有)石橋商店","province":"東京都","city":"墨田区","address":"墨田区向島3-10-11","lat":35.713501,"lon":139.807831},{"name":"(有)吉田容器店  東墨田工場","province":"東京都","city":"墨田区","address":"墨田区東墨田1-3-7","lat":35.717815,"lon":139.830734}]}