{"keyword":"区","data":[{"name":"墨田区保健所","province":"東京都","city":"墨田区","address":"墨田区吾妻橋1-23-20","lat":35.710724,"lon":139.801496},{"name":"向島保健センター","province":"東京都","city":"墨田区","address":"墨田区東向島5-16-2","lat":35.725882,"lon":139.821106},{"name":"本所保健センター","province":"東京都","city":"墨田区","address":"墨田区東駒形1-6-4","lat":35.705438,"lon":139.798058},{"name":"墨田区保健所","province":"東京都","city":"墨田区","address":"東京都墨田区吾妻橋1丁目23-20","lat":35.71072382,"lon":139.80149602},{"name":"向島保健センター","province":"東京都","city":"墨田区","address":"東京都墨田区東向島5丁目16-2","lat":35.72588248,"lon":139.82110559},{"name":"本所保健センター","province":"東京都","city":"墨田区","address":"東京都墨田区東駒形1丁目6-4","lat":35.7054382,"lon":139.79805828},{"name":"墨田区保健所","province":"東京都","city":"墨田区","address":"墨田区吾妻橋1-23-20","lat":35.71006,"lon":139.8011},{"name":"向島保健センター","province":"東京都","city":"墨田区","address":"墨田区東向島5-16-2","lat":35.72611,"lon":139.82111},{"name":"本所保健センター","province":"東京都","city":"墨田区","address":"墨田区東駒形1-6-4","lat":35.70532,"lon":139.79796}]}