{"keyword":"区立","data":[{"name":"江東橋保育園","province":"東京都","city":"墨田区","address":"墨田区緑四丁目35番9号","lat":35.695826,"lon":139.807408},{"name":"長浦保育園","province":"東京都","city":"墨田区","address":"墨田区八広五丁目10番1号105号室","lat":35.72481,"lon":139.825793},{"name":"たちばな認定こども園","province":"東京都","city":"墨田区","address":"墨田区立花三丁目21番16号","lat":35.707091,"lon":139.83434},{"name":"八広認定こども園","province":"東京都","city":"墨田区","address":"墨田区八広三丁目7番5号","lat":35.720913,"lon":139.826387},{"name":"緑小学校","province":"東京都","city":"墨田区","address":"墨田区緑二丁目12番12号","lat":35.694025,"lon":139.801337},{"name":"外手小学校","province":"東京都","city":"墨田区","address":"墨田区本所二丁目1番16号","lat":35.702607,"lon":139.800598},{"name":"二葉小学校","province":"東京都","city":"墨田区","address":"墨田区石原二丁目1番5号","lat":35.699284,"lon":139.800185},{"name":"錦糸小学校","province":"東京都","city":"墨田区","address":"墨田区錦糸一丁目9番12号","lat":35.698701,"lon":139.811392},{"name":"中和小学校","province":"東京都","city":"墨田区","address":"墨田区菊川一丁目18番10号","lat":35.690154,"lon":139.802724},{"name":"言問小学校","province":"東京都","city":"墨田区","address":"墨田区向島五丁目40番14号","lat":35.71871,"lon":139.811376},{"name":"小梅小学校","province":"東京都","city":"墨田区","address":"墨田区向島二丁目4番10号","lat":35.714446,"lon":139.805935},{"name":"柳島小学校","province":"東京都","city":"墨田区","address":"墨田区横川五丁目2番30号","lat":35.703609,"lon":139.817465},{"name":"業平小学校","province":"東京都","city":"墨田区","address":"墨田区業平二丁目4番8号","lat":35.70641,"lon":139.811509},{"name":"両国小学校","province":"東京都","city":"墨田区","address":"墨田区両国四丁目26番6号","lat":35.693745,"lon":139.795191},{"name":"横川小学校","province":"東京都","city":"墨田区","address":"墨田区東駒形四丁目18番4号","lat":35.707194,"lon":139.806277},{"name":"菊川小学校","province":"東京都","city":"墨田区","address":"墨田区立川四丁目12番15号","lat":35.691621,"lon":139.807607},{"name":"第三吾嬬小学校","province":"東京都","city":"墨田区","address":"墨田区八広二丁目36番3号","lat":35.717152,"lon":139.827789},{"name":"第四吾嬬小学校","province":"東京都","city":"墨田区","address":"墨田区京島三丁目64番9号","lat":35.713043,"lon":139.825063},{"name":"第一寺島小学校","province":"東京都","city":"墨田区","address":"墨田区東向島一丁目16番2号","lat":35.721582,"lon":139.814452},{"name":"第二寺島小学校","province":"東京都","city":"墨田区","address":"墨田区東向島四丁目30番2号","lat":35.724713,"lon":139.818599},{"name":"第三寺島小学校","province":"東京都","city":"墨田区","address":"墨田区東向島六丁目8番1号","lat":35.721427,"lon":139.820419},{"name":"曳舟小学校","province":"東京都","city":"墨田区","address":"墨田区京島一丁目28番2号","lat":35.716603,"lon":139.820836},{"name":"中川小学校","province":"東京都","city":"墨田区","address":"墨田区立花五丁目49番4号","lat":35.713561,"lon":139.831476},{"name":"東吾嬬小学校","province":"東京都","city":"墨田区","address":"墨田区立花四丁目22番11号","lat":35.708518,"lon":139.831957},{"name":"押上小学校","province":"東京都","city":"墨田区","address":"墨田区押上三丁目46番17号","lat":35.712022,"lon":139.819369},{"name":"八広小学校","province":"東京都","city":"墨田区","address":"墨田区八広五丁目12番15号","lat":35.727133,"lon":139.826297},{"name":"隅田小学校","province":"東京都","city":"墨田区","address":"墨田区墨田四丁目6番5号","lat":35.736017,"lon":139.820914},{"name":"立花吾嬬の森小学校","province":"東京都","city":"墨田区","address":"墨田区立花一丁目18番6号","lat":35.706662,"lon":139.829365},{"name":"梅若小学校","province":"東京都","city":"墨田区","address":"墨田区墨田二丁目25番1号","lat":35.730445,"lon":139.815545},{"name":"墨田中学校","province":"東京都","city":"墨田区","address":"墨田区向島四丁目25番22号","lat":35.714953,"lon":139.811528},{"name":"本所中学校","province":"東京都","city":"墨田区","address":"墨田区東駒形三丁目1番10号","lat":35.705289,"lon":139.802817},{"name":"両国中学校","province":"東京都","city":"墨田区","address":"墨田区横網一丁目8番1号","lat":35.697477,"lon":139.796161},{"name":"竪川中学校","province":"東京都","city":"墨田区","address":"墨田区亀沢四丁目11番15号","lat":35.697029,"lon":139.805913},{"name":"錦糸中学校","province":"東京都","city":"墨田区","address":"墨田区石原四丁目33番14号","lat":35.701414,"lon":139.806942},{"name":"吾嬬第二中学校","province":"東京都","city":"墨田区","address":"墨田区八広四丁目4番4号","lat":35.721514,"lon":139.82712},{"name":"寺島中学校","province":"東京都","city":"墨田区","address":"墨田区八広一丁目17番15号","lat":35.720131,"lon":139.823186},{"name":"文花中学校","province":"東京都","city":"墨田区","address":"墨田区文花一丁目22番7号","lat":35.710217,"lon":139.822281},{"name":"桜堤中学校","province":"東京都","city":"墨田区","address":"墨田区堤通二丁目19番1号","lat":35.730445,"lon":139.811928},{"name":"吾嬬立花中学校","province":"東京都","city":"墨田区","address":"墨田区立花五丁目48番2号","lat":35.712679,"lon":139.831863},{"name":"江東橋（分園）","province":"東京都","city":"墨田区","address":"東京都墨田区亀沢3丁目12-5","lat":35.69713075,"lon":139.80450307},{"name":"横川橋","province":"東京都","city":"墨田区","address":"東京都墨田区太平1丁目27-13","lat":35.7021662,"lon":139.81077669},{"name":"中川","province":"東京都","city":"墨田区","address":"東京都墨田区東墨田2丁目1-15","lat":35.71870454,"lon":139.83058735},{"name":"花園","province":"東京都","city":"墨田区","address":"東京都墨田区東向島3丁目16-2","lat":35.72466858,"lon":139.81462615},{"name":"押上","province":"東京都","city":"墨田区","address":"東京都墨田区押上2丁目10-17","lat":35.71131304,"lon":139.81179184},{"name":"あおやぎ","province":"東京都","city":"墨田区","address":"東京都墨田区東向島4丁目37-17","lat":35.72583524,"lon":139.81916983},{"name":"たちばな","province":"東京都","city":"墨田区","address":"東京都墨田区立花3丁目21-16","lat":35.707097,"lon":139.83429579},{"name":"八広","province":"東京都","city":"墨田区","address":"東京都墨田区八広3丁目7-5","lat":35.72091034,"lon":139.82649354},{"name":"亀沢","province":"東京都","city":"墨田区","address":"東京都墨田区亀沢1丁目27-5","lat":35.69856397,"lon":139.79949242},{"name":"ひきふね","province":"東京都","city":"墨田区","address":"東京都墨田区八広1丁目1-18","lat":35.72004964,"lon":139.82087495},{"name":"梅若","province":"東京都","city":"墨田区","address":"東京都墨田区墨田2丁目38-13","lat":35.7309485,"lon":139.8175894},{"name":"立川","province":"東京都","city":"墨田区","address":"東京都墨田区立川1丁目5-2","lat":35.69046226,"lon":139.79950201},{"name":"寺島","province":"東京都","city":"墨田区","address":"東京都墨田区東向島1丁目23-10","lat":35.72018834,"lon":139.81260395},{"name":"横川さくら","province":"東京都","city":"墨田区","address":"東京都墨田区横川5丁目9-1","lat":35.70517431,"lon":139.81750923},{"name":"墨田児童会館学童クラブ","province":"東京都","city":"墨田区","address":"東京都墨田区墨田2丁目30-15","lat":35.72926266,"lon":139.81890044},{"name":"墨田児童会館第二学童クラブ","province":"東京都","city":"墨田区","address":"東京都墨田区墨田2丁目30-15","lat":35.72926266,"lon":139.81890044},{"name":"墨田児童会館学童クラブ二寺分室","province":"東京都","city":"墨田区","address":"東京都墨田区東向島4丁目30-2","lat":35.72470754,"lon":139.81845881},{"name":"墨田児童会館学童クラブ隅田分室","province":"東京都","city":"墨田区","address":"東京都墨田区墨田4丁目6-5","lat":35.73392317,"lon":139.82186348},{"name":"墨田児童会館学童クラブ梅若分室","province":"東京都","city":"墨田区","address":"東京都墨田区墨田2丁目25-1","lat":35.73053185,"lon":139.81560645},{"name":"八広児童館学童クラブ","province":"東京都","city":"墨田区","address":"東京都墨田区八広2丁目38-14","lat":35.71586062,"lon":139.82792391},{"name":"八広児童館学童クラブ三吾分室","province":"東京都","city":"墨田区","address":"東京都墨田区八広2丁目36-3","lat":35.71717161,"lon":139.82774891},{"name":"江東橋児童館学童クラブ","province":"東京都","city":"墨田区","address":"東京都墨田区江東橋1丁目15-4","lat":35.69591418,"lon":139.80968586},{"name":"江東橋児童館学童クラブ菊川分室","province":"東京都","city":"墨田区","address":"東京都墨田区立川4丁目12-15","lat":35.69164531,"lon":139.8076726},{"name":"東向島児童館学童クラブ","province":"東京都","city":"墨田区","address":"東京都墨田区東向島6丁目6-12","lat":35.72145228,"lon":139.81971127},{"name":"東向島児童館学童クラブ一寺分室","province":"東京都","city":"墨田区","address":"東京都墨田区東向島1丁目16-2","lat":35.72158271,"lon":139.81445099},{"name":"東向島児童館学童クラブ三寺分室","province":"東京都","city":"墨田区","address":"東京都墨田区東向島6丁目8-1","lat":35.72140784,"lon":139.82042783},{"name":"立花児童館学童クラブ","province":"東京都","city":"墨田区","address":"東京都墨田区立花1丁目27-9","lat":35.70555246,"lon":139.82881617},{"name":"立川児童館学童クラブ","province":"東京都","city":"墨田区","address":"東京都墨田区立川1丁目5-2","lat":35.69046226,"lon":139.79950201},{"name":"立川児童館学童クラブ中和分室","province":"東京都","city":"墨田区","address":"東京都墨田区菊川1丁目18-10","lat":35.6901567,"lon":139.80272644},{"name":"立川児童館学童クラブ中和第二分室","province":"東京都","city":"墨田区","address":"東京都墨田区菊川1丁目18-10","lat":35.6901567,"lon":139.80272644},{"name":"立川児童館学童クラブ両国分室","province":"東京都","city":"墨田区","address":"東京都墨田区両国4丁目24-5","lat":35.69394512,"lon":139.79647686},{"name":"文花児童館学童クラブ","province":"東京都","city":"墨田区","address":"東京都墨田区文花1丁目32-11","lat":35.70871099,"lon":139.82437198},{"name":"文花児童館第二学童クラブ","province":"東京都","city":"墨田区","address":"東京都墨田区文花1丁目32-11","lat":35.70871099,"lon":139.82437198},{"name":"文花児童館学童クラブ押上分室","province":"東京都","city":"墨田区","address":"東京都墨田区押上3丁目46-17","lat":35.71201677,"lon":139.81932198},{"name":"文花児童館学童クラブ四吾分室","province":"東京都","city":"墨田区","address":"東京都墨田区京島3丁目64-9","lat":35.7131389,"lon":139.82518538},{"name":"中川児童館学童クラブ","province":"東京都","city":"墨田区","address":"東京都墨田区立花5丁目18-9","lat":35.71294397,"lon":139.83097086},{"name":"外手児童館学童クラブ分室","province":"東京都","city":"墨田区","address":"東京都墨田区亀沢2丁目24-12","lat":35.69834452,"lon":139.80209766},{"name":"外手児童館学童クラブ業平分室","province":"東京都","city":"墨田区","address":"東京都墨田区業平2丁目4-8","lat":35.70627427,"lon":139.81149546},{"name":"八広はなみずき児童館学童クラブ","province":"東京都","city":"墨田区","address":"東京都墨田区八広4丁目27-8","lat":35.72456579,"lon":139.82940716},{"name":"八広はなみずき児童館第二学童クラブ","province":"東京都","city":"墨田区","address":"東京都墨田区八広4丁目27-8","lat":35.72456579,"lon":139.82940716},{"name":"さくら橋コミュニティセンター学童クラブ","province":"東京都","city":"墨田区","address":"東京都墨田区向島2丁目3-8","lat":35.71368772,"lon":139.80584268},{"name":"さくら橋コミュニティセンター第二学童クラブ","province":"東京都","city":"墨田区","address":"東京都墨田区向島2丁目3-8","lat":35.71368772,"lon":139.80584268},{"name":"さくら橋コミュニティセンター学童クラブ言問分室","province":"東京都","city":"墨田区","address":"東京都墨田区向島5丁目40-14","lat":35.71843549,"lon":139.81134557},{"name":"東駒形コミュニティ会館学童クラブ","province":"東京都","city":"墨田区","address":"東京都墨田区東駒形4丁目14-1","lat":35.70547984,"lon":139.80774036},{"name":"梅若橋コミュニティ会館学童クラブ","province":"東京都","city":"墨田区","address":"東京都墨田区堤通2丁目9-1","lat":35.73539223,"lon":139.81675295},{"name":"横川コミュニティ会館学童クラブ","province":"東京都","city":"墨田区","address":"東京都墨田区横川5丁目9-1","lat":35.70517431,"lon":139.81750923},{"name":"横川コミュニティ会館第二学童クラブ","province":"東京都","city":"墨田区","address":"東京都墨田区横川5丁目9-1","lat":35.70517431,"lon":139.81750923},{"name":"はなみずきホーム","province":"東京都","city":"墨田区","address":"東京都墨田区八広3丁目22-14","lat":35.71843814,"lon":139.82793219},{"name":"たちばなホーム","province":"東京都","city":"墨田区","address":"東京都墨田区立花3丁目10-1","lat":35.70530821,"lon":139.83305996},{"name":"なりひらホーム","province":"東京都","city":"墨田区","address":"東京都墨田区業平5丁目6-2","lat":35.70709118,"lon":139.81802555},{"name":"本所松坂町","province":"東京都","city":"墨田区","address":"東京都墨田区両国3丁目13-9","lat":35.69331183,"lon":139.79428527},{"name":"両国","province":"東京都","city":"墨田区","address":"東京都墨田区両国4丁目25-3","lat":35.6937507,"lon":139.79611856},{"name":"菊川","province":"東京都","city":"墨田区","address":"東京都墨田区立川4丁目12-21","lat":35.69118983,"lon":139.80758376},{"name":"若宮","province":"東京都","city":"墨田区","address":"東京都墨田区本所2丁目2-19","lat":35.70232739,"lon":139.80111665},{"name":"横川","province":"東京都","city":"墨田区","address":"東京都墨田区東駒形4丁目18-21","lat":35.70678529,"lon":139.8068125},{"name":"業平","province":"東京都","city":"墨田区","address":"東京都墨田区業平2丁目3-2","lat":35.70611874,"lon":139.81266766},{"name":"原","province":"東京都","city":"墨田区","address":"東京都墨田区京島3丁目44-14","lat":35.7129474,"lon":139.82341058},{"name":"竪川第一","province":"東京都","city":"墨田区","address":"東京都墨田区江東橋4丁目1-3","lat":35.69338672,"lon":139.81732938},{"name":"京島南","province":"東京都","city":"墨田区","address":"東京都墨田区京島2丁目20-17","lat":35.7130003,"lon":139.82191074},{"name":"押上","province":"東京都","city":"墨田区","address":"東京都墨田区押上1丁目47-8","lat":35.70897186,"lon":139.8173086},{"name":"錦糸","province":"東京都","city":"墨田区","address":"東京都墨田区錦糸4丁目15-1","lat":35.69947749,"lon":139.8171875},{"name":"新平井橋","province":"東京都","city":"墨田区","address":"東京都墨田区東墨田1丁目6-2","lat":35.71565486,"lon":139.83040693},{"name":"旧安田庭園","province":"東京都","city":"墨田区","address":"東京都墨田区横網1丁目12-1","lat":35.69795846,"lon":139.79397072},{"name":"吾嬬西","province":"東京都","city":"墨田区","address":"東京都墨田区八広6丁目53-16","lat":35.72424908,"lon":139.83025702},{"name":"ふじのき","province":"東京都","city":"墨田区","address":"東京都墨田区東向島2丁目7-5","lat":35.71734678,"lon":139.81547271},{"name":"さつき","province":"東京都","city":"墨田区","address":"東京都墨田区東向島6丁目19-12","lat":35.72262441,"lon":139.82039453},{"name":"ひいらぎ","province":"東京都","city":"墨田区","address":"東京都墨田区八広1丁目16-11","lat":35.72019681,"lon":139.82236639},{"name":"つばき","province":"東京都","city":"墨田区","address":"東京都墨田区墨田5丁目33-9","lat":35.73761145,"lon":139.82036616},{"name":"日進","province":"東京都","city":"墨田区","address":"東京都墨田区亀沢3丁目24-3","lat":35.69862503,"lon":139.80441676},{"name":"銅像堀","province":"東京都","city":"墨田区","address":"東京都墨田区向島5丁目9-1","lat":35.7218326,"lon":139.81005447},{"name":"吾妻橋","province":"東京都","city":"墨田区","address":"東京都墨田区吾妻橋1丁目12-15","lat":35.70809627,"lon":139.79825794},{"name":"文花","province":"東京都","city":"墨田区","address":"東京都墨田区文花1丁目27-5","lat":35.7094556,"lon":139.82244155},{"name":"隅田川緑道","province":"東京都","city":"墨田区","address":"東京都墨田区横網1丁目","lat":35.69796404,"lon":139.79521513},{"name":"東向島北","province":"東京都","city":"墨田区","address":"東京都墨田区東向島4丁目12-19","lat":35.72556299,"lon":139.81589264},{"name":"堤通","province":"東京都","city":"墨田区","address":"東京都墨田区堤通1丁目8-1","lat":35.72447964,"lon":139.81077124},{"name":"隅田","province":"東京都","city":"墨田区","address":"東京都墨田区向島1丁目","lat":35.71141546,"lon":139.8054231},{"name":"荒川四ッ木橋緑地","province":"東京都","city":"墨田区","address":"東京都墨田区墨田4丁目","lat":35.73137358,"lon":139.82435222},{"name":"舟原","province":"東京都","city":"墨田区","address":"東京都墨田区八広2丁目43-16","lat":35.71514967,"lon":139.8267824},{"name":"福寿","province":"東京都","city":"墨田区","address":"東京都墨田区立花3丁目24-3","lat":35.7078636,"lon":139.83437075},{"name":"京島西","province":"東京都","city":"墨田区","address":"東京都墨田区京島1丁目22-3","lat":35.71567483,"lon":139.81871112},{"name":"東向島ふじ","province":"東京都","city":"墨田区","address":"東京都墨田区東向島2丁目46-7","lat":35.72032456,"lon":139.81849198},{"name":"立花","province":"東京都","city":"墨田区","address":"東京都墨田区立花1丁目27-5","lat":35.70547192,"lon":139.82927722},{"name":"横川東","province":"東京都","city":"墨田区","address":"東京都墨田区横川5丁目2-8","lat":35.7030186,"lon":139.81765122},{"name":"文花宮前橋","province":"東京都","city":"墨田区","address":"東京都墨田区文花1丁目32-11","lat":35.70871099,"lon":139.82437198},{"name":"曳舟さくら","province":"東京都","city":"墨田区","address":"東京都墨田区京島1丁目40-1","lat":35.71877194,"lon":139.82017778},{"name":"八広中央","province":"東京都","city":"墨田区","address":"東京都墨田区八広3丁目13-19","lat":35.71918814,"lon":139.82718507},{"name":"たちばな仲よし","province":"東京都","city":"墨田区","address":"東京都墨田区立花5丁目19-2","lat":35.71244966,"lon":139.82994877},{"name":"千歳","province":"東京都","city":"墨田区","address":"東京都墨田区千歳2丁目2-1","lat":35.69036782,"lon":139.79502744},{"name":"平井橋第一","province":"東京都","city":"墨田区","address":"東京都墨田区立花6丁目8-55","lat":35.71049669,"lon":139.83451507},{"name":"平井橋第二","province":"東京都","city":"墨田区","address":"東京都墨田区立花6丁目8-44","lat":35.71055222,"lon":139.83608996},{"name":"東あずま","province":"東京都","city":"墨田区","address":"東京都墨田区立花2丁目32-12","lat":35.70834973,"lon":139.83030736},{"name":"八広","province":"東京都","city":"墨田区","address":"東京都墨田区八広5丁目10-14","lat":35.72583527,"lon":139.82486062},{"name":"緑と花の学習園","province":"東京都","city":"墨田区","address":"東京都墨田区文花2丁目12-17","lat":35.7090221,"lon":139.82545791},{"name":"なつめ","province":"東京都","city":"墨田区","address":"東京都墨田区東向島6丁目40-2","lat":35.72445761,"lon":139.82188321},{"name":"東墨田東","province":"東京都","city":"墨田区","address":"東京都墨田区東墨田3丁目19-2","lat":35.71845425,"lon":139.83744771},{"name":"みわさと","province":"東京都","city":"墨田区","address":"東京都墨田区八広1丁目38-13","lat":35.72107709,"lon":139.82532706},{"name":"東墨田第一","province":"東京都","city":"墨田区","address":"東京都墨田区東墨田2丁目1-16","lat":35.71876293,"lon":139.82996799},{"name":"八広あずま","province":"東京都","city":"墨田区","address":"東京都墨田区八広4丁目19-14","lat":35.72376025,"lon":139.82809342},{"name":"東","province":"東京都","city":"墨田区","address":"東京都墨田区東墨田3丁目12-19","lat":35.72114587,"lon":139.83582279},{"name":"きねがわ","province":"東京都","city":"墨田区","address":"東京都墨田区東墨田2丁目25-8","lat":35.724149,"lon":139.83316217},{"name":"立花いこい","province":"東京都","city":"墨田区","address":"東京都墨田区立花6丁目8-34","lat":35.71113272,"lon":139.83600382},{"name":"大横川親水","province":"東京都","city":"墨田区","address":"東京都墨田区吾妻橋3丁目","lat":35.70826849,"lon":139.80518472},{"name":"竪川親水","province":"東京都","city":"墨田区","address":"東京都墨田区江東橋1丁目","lat":35.69558088,"lon":139.81014418},{"name":"東墨田二丁目","province":"東京都","city":"墨田区","address":"東京都墨田区東墨田2丁目12-10","lat":35.7210821,"lon":139.83277592},{"name":"東墨田","province":"東京都","city":"墨田区","address":"東京都墨田区東墨田3丁目4-14","lat":35.71999578,"lon":139.83525055},{"name":"横川さんかく","province":"東京都","city":"墨田区","address":"東京都墨田区横川5丁目9-31","lat":35.70553546,"lon":139.81795082},{"name":"立花大正民家園","province":"東京都","city":"墨田区","address":"東京都墨田区立花6丁目13-17","lat":35.70986058,"lon":139.83808152},{"name":"白鬚","province":"東京都","city":"墨田区","address":"東京都墨田区墨田1丁目4-42","lat":35.72808777,"lon":139.81503183},{"name":"旧中川水辺","province":"東京都","city":"墨田区","address":"東京都墨田区東墨田1丁目","lat":35.71565486,"lon":139.83040693},{"name":"おしなり公園","province":"東京都","city":"墨田区","address":"東京都墨田区押上1丁目","lat":35.71011625,"lon":139.81578627},{"name":"横川北","province":"東京都","city":"墨田区","address":"東京都墨田区横川3丁目12-13","lat":35.70522153,"lon":139.81353999},{"name":"小梅","province":"東京都","city":"墨田区","address":"東京都墨田区向島1丁目33-3","lat":35.71042667,"lon":139.80815339},{"name":"横川南","province":"東京都","city":"墨田区","address":"東京都墨田区横川3丁目6-3","lat":35.70349372,"lon":139.81405691},{"name":"柳島","province":"東京都","city":"墨田区","address":"東京都墨田区横川5丁目10-13","lat":35.70495485,"lon":139.81626489},{"name":"六間堀","province":"東京都","city":"墨田区","address":"東京都墨田区千歳3丁目1-11","lat":35.68926524,"lon":139.79795807},{"name":"菊一","province":"東京都","city":"墨田区","address":"東京都墨田区菊川1丁目1-17","lat":35.68846253,"lon":139.80053822},{"name":"菊川橋","province":"東京都","city":"墨田区","address":"東京都墨田区菊川3丁目13-2","lat":35.68874569,"lon":139.8090975},{"name":"もみじばし","province":"東京都","city":"墨田区","address":"東京都墨田区本所4丁目8-6","lat":35.70311337,"lon":139.8078435},{"name":"しいのき","province":"東京都","city":"墨田区","address":"東京都墨田区吾妻橋3丁目9-4","lat":35.70954062,"lon":139.80490679},{"name":"横川橋","province":"東京都","city":"墨田区","address":"東京都墨田区横川1丁目1-10","lat":35.70318558,"lon":139.80863506},{"name":"あかしや","province":"東京都","city":"墨田区","address":"東京都墨田区太平4丁目23-3","lat":35.70217705,"lon":139.81819011},{"name":"くるみ","province":"東京都","city":"墨田区","address":"東京都墨田区業平5丁目1-1","lat":35.70623271,"lon":139.81617301},{"name":"つくし","province":"東京都","city":"墨田区","address":"東京都墨田区亀沢3丁目4-8","lat":35.69642806,"lon":139.80470036},{"name":"両国橋","province":"東京都","city":"墨田区","address":"東京都墨田区両国1丁目11-2","lat":35.69388943,"lon":139.78980457},{"name":"露伴","province":"東京都","city":"墨田区","address":"東京都墨田区東向島1丁目7-11","lat":35.72189933,"lon":139.81308177},{"name":"あづま","province":"東京都","city":"墨田区","address":"東京都墨田区立花1丁目2-3","lat":35.70523847,"lon":139.82695816},{"name":"隅田","province":"東京都","city":"墨田区","address":"東京都墨田区墨田4丁目23-12","lat":35.73224843,"lon":139.82340228},{"name":"香取","province":"東京都","city":"墨田区","address":"東京都墨田区立花1丁目25-6","lat":35.70476097,"lon":139.83218236},{"name":"境","province":"東京都","city":"墨田区","address":"東京都墨田区江東橋1丁目13-3","lat":35.69596417,"lon":139.81078571},{"name":"とらばし","province":"東京都","city":"墨田区","address":"東京都墨田区京島1丁目21-9","lat":35.71512495,"lon":139.81978043},{"name":"さくら","province":"東京都","city":"墨田区","address":"東京都墨田区堤通1丁目18-20","lat":35.72591012,"lon":139.81222944},{"name":"くすのき","province":"東京都","city":"墨田区","address":"東京都墨田区東向島4丁目28-8","lat":35.7237965,"lon":139.81857543},{"name":"あすなろ","province":"東京都","city":"墨田区","address":"東京都墨田区東向島1丁目34-5","lat":35.72015506,"lon":139.81538965},{"name":"すずかけ","province":"東京都","city":"墨田区","address":"東京都墨田区東向島5丁目39-8","lat":35.72864067,"lon":139.82451349},{"name":"あおぎり","province":"東京都","city":"墨田区","address":"東京都墨田区八広4丁目11-6","lat":35.72246307,"lon":139.82706574},{"name":"こでまり","province":"東京都","city":"墨田区","address":"東京都墨田区東向島5丁目24-1","lat":35.72764346,"lon":139.82184162},{"name":"からたち","province":"東京都","city":"墨田区","address":"東京都墨田区京島3丁目10-19","lat":35.71659437,"lon":139.82234965},{"name":"さくらんぼ","province":"東京都","city":"墨田区","address":"東京都墨田区向島5丁目38-7","lat":35.71796608,"lon":139.81255091},{"name":"さざんか","province":"東京都","city":"墨田区","address":"東京都墨田区江東橋1丁目1-4","lat":35.69291179,"lon":139.80918616},{"name":"ささのは","province":"東京都","city":"墨田区","address":"東京都墨田区亀沢4丁目18-8","lat":35.69864721,"lon":139.80823292},{"name":"かしわ","province":"東京都","city":"墨田区","address":"東京都墨田区東駒形2丁目8-2","lat":35.70608257,"lon":139.80098005},{"name":"かつら","province":"東京都","city":"墨田区","address":"東京都墨田区墨田3丁目36-13","lat":35.73147348,"lon":139.82056385},{"name":"こぶし","province":"東京都","city":"墨田区","address":"東京都墨田区東墨田2丁目14-3","lat":35.72180997,"lon":139.83228159},{"name":"やまぶき","province":"東京都","city":"墨田区","address":"東京都墨田区東向島6丁目60-6","lat":35.72752963,"lon":139.82428018},{"name":"けやき","province":"東京都","city":"墨田区","address":"東京都墨田区八広1丁目7-4","lat":35.7214523,"lon":139.82195259},{"name":"押上第一","province":"東京都","city":"墨田区","address":"東京都墨田区押上3丁目48-1","lat":35.71179188,"lon":139.82010526},{"name":"立川第二","province":"東京都","city":"墨田区","address":"東京都墨田区立川3丁目15-6","lat":35.69203976,"lon":139.80390933},{"name":"本四三ツ目","province":"東京都","city":"墨田区","address":"東京都墨田区本所4丁目1-4","lat":35.70288841,"lon":139.80498554},{"name":"きくはな","province":"東京都","city":"墨田区","address":"東京都墨田区緑4丁目2-4","lat":35.69298957,"lon":139.80849461},{"name":"請地","province":"東京都","city":"墨田区","address":"東京都墨田区向島4丁目12-11","lat":35.71693833,"lon":139.81343679},{"name":"八広第一","province":"東京都","city":"墨田区","address":"東京都墨田区八広5丁目7-6","lat":35.72431035,"lon":139.82398291},{"name":"八広第二","province":"東京都","city":"墨田区","address":"東京都墨田区八広5丁目7-18","lat":35.72376869,"lon":139.82473835},{"name":"墨田二丁目","province":"東京都","city":"墨田区","address":"東京都墨田区墨田2丁目42-4","lat":35.73228443,"lon":139.81873074},{"name":"六軒","province":"東京都","city":"墨田区","address":"東京都墨田区立花3丁目18-12","lat":35.70610819,"lon":139.83438194},{"name":"亀沢第一","province":"東京都","city":"墨田区","address":"東京都墨田区亀沢2丁目13-7","lat":35.69784458,"lon":139.80188665},{"name":"隅田第二","province":"東京都","city":"墨田区","address":"東京都墨田区墨田4丁目8-14","lat":35.73288164,"lon":139.82186355},{"name":"両国第一","province":"東京都","city":"墨田区","address":"東京都墨田区両国4丁目36-16","lat":35.69517271,"lon":139.79557943},{"name":"墨田第三","province":"東京都","city":"墨田区","address":"東京都墨田区墨田2丁目17-6","lat":35.7314956,"lon":139.81623679},{"name":"八広つるかめ","province":"東京都","city":"墨田区","address":"東京都墨田区八広4丁目28-6","lat":35.72451856,"lon":139.82910998},{"name":"ごあずま","province":"東京都","city":"墨田区","address":"東京都墨田区八広4丁目36-24","lat":35.7227685,"lon":139.82939596},{"name":"立花第一","province":"東京都","city":"墨田区","address":"東京都墨田区立花4丁目9-6","lat":35.71009965,"lon":139.83163207},{"name":"押上第二","province":"東京都","city":"墨田区","address":"東京都墨田区押上3丁目57-3","lat":35.71191978,"lon":139.82117743},{"name":"隅田西","province":"東京都","city":"墨田区","address":"東京都墨田区墨田3丁目31-2","lat":35.73245111,"lon":139.81994721},{"name":"隅田東","province":"東京都","city":"墨田区","address":"東京都墨田区墨田4丁目52-12","lat":35.72950444,"lon":139.82512169},{"name":"墨田第六","province":"東京都","city":"墨田区","address":"東京都墨田区墨田2丁目20-15","lat":35.73052355,"lon":139.81718117},{"name":"八広六西","province":"東京都","city":"墨田区","address":"東京都墨田区八広6丁目13-1","lat":35.72851578,"lon":139.82735203},{"name":"隅田東第二","province":"東京都","city":"墨田区","address":"東京都墨田区墨田4丁目34-20","lat":35.73275392,"lon":139.82414937},{"name":"長浦","province":"東京都","city":"墨田区","address":"東京都墨田区八広1丁目8-18","lat":35.72162165,"lon":139.82324129},{"name":"八広一丁目","province":"東京都","city":"墨田区","address":"東京都墨田区八広1丁目19-14","lat":35.718808,"lon":139.82292739},{"name":"立花六丁目","province":"東京都","city":"墨田区","address":"東京都墨田区立花6丁目14-5","lat":35.71043553,"lon":139.83777873},{"name":"中之郷","province":"東京都","city":"墨田区","address":"東京都墨田区押上2丁目12-1","lat":35.71232977,"lon":139.8122502},{"name":"白鬚","province":"東京都","city":"墨田区","address":"東京都墨田区東墨田1丁目4-9","lat":35.71666592,"lon":139.82995695}]}