{"keyword":"博物","data":[{"name":"＊?すみだ郷土文化資料館","province":"東京都","city":"墨田区","address":"墨田区向島2-3-5","lat":35.713933,"lon":139.805883},{"name":"軟式野球資料室","province":"東京都","city":"墨田区","address":"墨田区墨田二丁目34番9号","lat":35.730422,"lon":139.818366},{"name":"江戸小紋博物館","province":"東京都","city":"墨田区","address":"墨田区八広二丁目27番10号","lat":35.717538,"lon":139.825997},{"name":"藍染博物館","province":"東京都","city":"墨田区","address":"墨田区京島一丁目29番1号","lat":35.716808,"lon":139.821071},{"name":"羽子板資料館","province":"東京都","city":"墨田区","address":"墨田区向島五丁目43番25号","lat":35.719107,"lon":139.812307},{"name":"江戸木目込人形博物館","province":"東京都","city":"墨田区","address":"墨田区向島二丁目11番7号","lat":35.715962,"lon":139.809533},{"name":"漆工博物館","province":"東京都","city":"墨田区","address":"墨田区向島三丁目38番10号","lat":35.713849,"lon":139.81184},{"name":"屏風博物館","province":"東京都","city":"墨田区","address":"墨田区向島一丁目31番6号","lat":35.710437,"lon":139.807704},{"name":"ちいさな硝子の本の博物館","province":"東京都","city":"墨田区","address":"墨田区吾妻橋一丁目19番8号","lat":35.708883,"lon":139.802089},{"name":"乾燥木材工芸資料館","province":"東京都","city":"墨田区","address":"墨田区錦糸二丁目9番11号","lat":35.698896,"lon":139.812921},{"name":"ブレーキ博物館","province":"東京都","city":"墨田区","address":"墨田区堤通一丁目7番9号","lat":35.724391,"lon":139.811212},{"name":"NTTドコモ歴史展示スクエア","province":"東京都","city":"墨田区","address":"墨田区横網一丁目9番2号NTTドコモ墨田ビル1階","lat":35.698257,"lon":139.795749},{"name":"相撲写真資料館","province":"東京都","city":"墨田区","address":"墨田区両国三丁目13番2号","lat":35.693513,"lon":139.793794},{"name":"桐の博物館","province":"東京都","city":"墨田区","address":"墨田区両国四丁目1番8号","lat":35.692315,"lon":139.797088},{"name":"袋物博物館","province":"東京都","city":"墨田区","address":"墨田区両国一丁目1番7号","lat":35.692014,"lon":139.790718},{"name":"折箱博物館「木具輪」","province":"東京都","city":"墨田区","address":"墨田区立川一丁目3番5号","lat":35.690411,"lon":139.798381},{"name":"金庫と鍵の博物館","province":"東京都","city":"墨田区","address":"墨田区千歳三丁目4番1号","lat":35.689187,"lon":139.797345},{"name":"建築道具・木組資料館","province":"東京都","city":"墨田区","address":"墨田区菊川一丁目5番3号","lat":35.689156,"lon":139.800433},{"name":"名刺と紙製品の博物館","province":"東京都","city":"墨田区","address":"墨田区立川三丁目1番7号3階","lat":35.690237,"lon":139.803858},{"name":"指物博物館","province":"東京都","city":"墨田区","address":"墨田区立川四丁目6番5号1階","lat":35.690838,"lon":139.806897},{"name":"フットマークギャラリー","province":"東京都","city":"墨田区","address":"墨田区緑二丁目7番12号","lat":35.693308,"lon":139.800993},{"name":"江戸表具博物館","province":"東京都","city":"墨田区","address":"墨田区千歳三丁目5番11号","lat":35.689525,"lon":139.797925},{"name":"錺かんざし博物館","province":"東京都","city":"墨田区","address":"墨田区東駒形三丁目22番7号","lat":35.707898,"lon":139.802987},{"name":"鍼灸あん摩博物館","province":"東京都","city":"墨田区","address":"墨田区千歳一丁目8番2号杉山和一記念館内","lat":35.691437,"lon":139.792693},{"name":"やさしい革の博物館","province":"東京都","city":"墨田区","address":"墨田区東墨田3-11-10RUSSETYFACTORY1階","lat":35.722973,"lon":139.834799}]}