{"keyword":"固定","data":[{"name":"つばき公園","province":"東京都","city":"墨田区","address":"東京都墨田区墨田5丁目33-9","lat":35.73761145,"lon":139.82036616},{"name":"墨田五丁目溝渠","province":"東京都","city":"墨田区","address":"東京都墨田区墨田5丁目20","lat":35.74076913,"lon":139.81734114},{"name":"都営墨田1丁目アパート5号棟","province":"東京都","city":"墨田区","address":"東京都墨田区墨田1丁目4","lat":35.72929592,"lon":139.81459567},{"name":"こでまり児童遊園","province":"東京都","city":"墨田区","address":"東京都墨田区東向島5丁目24-1","lat":35.72764346,"lon":139.82184162},{"name":"吾嬬西公園","province":"東京都","city":"墨田区","address":"東京都墨田区八広6丁目53-16","lat":35.72424908,"lon":139.83025702},{"name":"東墨田二丁目公園","province":"東京都","city":"墨田区","address":"東京都墨田区東墨田2丁目12-10","lat":35.7210821,"lon":139.83277592},{"name":"社会福祉会館","province":"東京都","city":"墨田区","address":"東京都墨田区東墨田2丁目7-1","lat":35.71894898,"lon":139.83046514},{"name":"福寿公園","province":"東京都","city":"墨田区","address":"東京都墨田区立花3丁目24-3","lat":35.7078636,"lon":139.83437075},{"name":"旧中川水辺公園","province":"東京都","city":"墨田区","address":"東京都墨田区立花6丁目8","lat":35.71087998,"lon":139.83527611},{"name":"堤通1丁目","province":"東京都","city":"墨田区","address":"東京都墨田区堤通1丁目11","lat":35.72439635,"lon":139.81269314},{"name":"ふじのき公園","province":"東京都","city":"墨田区","address":"東京都墨田区東向島2丁目7-5","lat":35.71734678,"lon":139.81547271},{"name":"すみだ福祉保健センター","province":"東京都","city":"墨田区","address":"東京都墨田区向島3丁目36-7","lat":35.71329353,"lon":139.81075044},{"name":"文花公園","province":"東京都","city":"墨田区","address":"東京都墨田区文花1丁目27","lat":35.70874438,"lon":139.82167509},{"name":"東あずま公園","province":"東京都","city":"墨田区","address":"東京都墨田区立花2丁目32-12","lat":35.70834973,"lon":139.83030736},{"name":"すみだ清掃事務所分室","province":"東京都","city":"墨田区","address":"東京都墨田区亀沢1丁目8-3","lat":35.69728358,"lon":139.7975762},{"name":"横川橋保育園","province":"東京都","city":"墨田区","address":"東京都墨田区太平1丁目27-13","lat":35.7021662,"lon":139.81077669},{"name":"錦糸公園","province":"東京都","city":"墨田区","address":"東京都墨田区錦糸4丁目15-1","lat":35.69947749,"lon":139.8171875},{"name":"東京消防庁両国寮(ソーラー)","province":"東京都","city":"墨田区","address":"東京都墨田区両国1丁目12","lat":35.69523371,"lon":139.79009056},{"name":"一之橋","province":"東京都","city":"墨田区","address":"東京都墨田区千歳1丁目9","lat":35.69168144,"lon":139.79248544},{"name":"どんぐり児童遊園","province":"東京都","city":"墨田区","address":"東京都墨田区緑3丁目12-9","lat":35.69455606,"lon":139.8046534},{"name":"両国駅西口","province":"東京都","city":"墨田区","address":"東京都墨田区横網1丁目3-20","lat":35.69605033,"lon":139.79250988},{"name":"菊川橋児童遊園","province":"東京都","city":"墨田区","address":"東京都墨田区菊川3丁目13-2","lat":35.68874569,"lon":139.8090975},{"name":"立花公園","province":"東京都","city":"墨田区","address":"東京都墨田区立花1丁目27-5","lat":35.70547192,"lon":139.82927722},{"name":"墨田区役所","province":"東京都","city":"墨田区","address":"東京都墨田区吾妻橋1丁目23-20","lat":35.71072382,"lon":139.80149602},{"name":"隅田川緑道","province":"東京都","city":"墨田区","address":"東京都墨田区横網2丁目12","lat":35.70139696,"lon":139.7955535},{"name":"東墨田東公園","province":"東京都","city":"墨田区","address":"東京都墨田区東墨田3丁目19-2","lat":35.71845425,"lon":139.83744771},{"name":"文花一丁目区道","province":"東京都","city":"墨田区","address":"東京都墨田区文花1丁目32-2","lat":35.70754973,"lon":139.82345005},{"name":"おしなり公園西","province":"東京都","city":"墨田区","address":"東京都墨田区押上1丁目","lat":35.71011625,"lon":139.81578627},{"name":"おしなり公園東","province":"東京都","city":"墨田区","address":"東京都墨田区押上1丁目","lat":35.71011625,"lon":139.81578627},{"name":"都営横川五丁目第2アパート","province":"東京都","city":"墨田区","address":"東京都墨田区横川5丁目9-4","lat":35.70580771,"lon":139.81822576},{"name":"錦糸町駅北口","province":"東京都","city":"墨田区","address":"東京都墨田区錦糸3丁目2","lat":35.69748616,"lon":139.81405462},{"name":"錦糸町駅南口","province":"東京都","city":"墨田区","address":"東京都墨田区江東橋3丁目14-5","lat":35.69643352,"lon":139.81393804}]}