{"keyword":"子ども","data":[{"name":"墨田都税事務所","province":"東京都","city":"墨田区","address":"東京都墨田区業平1丁目7-4","lat":35.70787,"lon":139.809143},{"name":"東京都江戸東京博物館","province":"東京都","city":"墨田区","address":"東京都墨田区横網1丁目4-1","lat":35.69647,"lon":139.7957},{"name":"東京都江戸東京博物館","province":"東京都","city":"墨田区","address":"東京都墨田区横網1丁目4-1","lat":35.69691,"lon":139.7958},{"name":"東京都江戸東京博物館","province":"東京都","city":"墨田区","address":"東京都墨田区横網1丁目4-1","lat":35.69665,"lon":139.7958},{"name":"東京都江戸東京博物館","province":"東京都","city":"墨田区","address":"東京都墨田区横網1丁目4-1","lat":35.69675,"lon":139.7956},{"name":"東京都江戸東京博物館","province":"東京都","city":"墨田区","address":"東京都墨田区横網1丁目4-1","lat":35.69627,"lon":139.7958},{"name":"東京都江戸東京博物館","province":"東京都","city":"墨田区","address":"東京都墨田区横網1丁目4-1","lat":35.69623,"lon":139.7965},{"name":"東京都江戸東京博物館","province":"東京都","city":"墨田区","address":"東京都墨田区横網1丁目4-1","lat":35.69676,"lon":139.7957},{"name":"東京都江戸東京博物館","province":"東京都","city":"墨田区","address":"東京都墨田区横網1丁目4-1","lat":35.69639,"lon":139.7956},{"name":"地方独立行政法人東京都立病院機構　東京都立墨東病院","province":"東京都","city":"墨田区","address":"東京都墨田区江東橋4丁目23","lat":35.694554,"lon":139.818952},{"name":"東白鬚公園","province":"東京都","city":"墨田区","address":"東京都墨田区堤通2丁目2","lat":35.733624,"lon":139.813864},{"name":"東白鬚公園","province":"東京都","city":"墨田区","address":"東京都墨田区堤通2丁目2","lat":35.72915,"lon":139.811966},{"name":"東白鬚公園","province":"東京都","city":"墨田区","address":"東京都墨田区堤通2丁目2","lat":35.737694,"lon":139.81688},{"name":"横網町公園","province":"東京都","city":"墨田区","address":"東京都墨田区横網2丁目3-25","lat":35.699951,"lon":139.796874},{"name":"横網町公園","province":"東京都","city":"墨田区","address":"東京都墨田区横網2丁目3","lat":35.699272,"lon":139.795551},{"name":"向島百花園","province":"東京都","city":"墨田区","address":"東京都墨田区東向島3丁目18","lat":35.724189,"lon":139.815271},{"name":"向島百花園","province":"東京都","city":"墨田区","address":"東京都墨田区東向島3丁目18","lat":35.724158,"lon":139.815293},{"name":"都営浅草線本所吾妻橋駅","province":"東京都","city":"墨田区","address":"東京都墨田区吾妻橋3丁目1","lat":35.708358,"lon":139.804465},{"name":"都営浅草線本所吾妻橋駅","province":"東京都","city":"墨田区","address":"東京都墨田区吾妻橋3丁目1","lat":35.708419,"lon":139.804475},{"name":"都営新宿線菊川駅","province":"東京都","city":"墨田区","address":"東京都墨田区菊川2丁目6","lat":35.688422,"lon":139.80556},{"name":"都営大江戸線両国駅","province":"東京都","city":"墨田区","address":"東京都墨田区亀沢1丁目7","lat":35.696873,"lon":139.797477},{"name":"東京都水道局墨田営業所","province":"東京都","city":"墨田区","address":"東京都墨田区千歳2丁目2-11","lat":35.690458,"lon":139.795839},{"name":"墨田区役所","province":"東京都","city":"墨田区","address":"東京都墨田区吾妻橋1丁目23-20","lat":35.710644,"lon":139.801307},{"name":"向島保健センター","province":"東京都","city":"墨田区","address":"東京都墨田区東向島5丁目16-2","lat":35.725694,"lon":139.821112},{"name":"横川出張所","province":"東京都","city":"墨田区","address":"東京都墨田区横川5丁目10-1","lat":35.705927,"lon":139.816389},{"name":"八広地域プラザ","province":"東京都","city":"墨田区","address":"東京都墨田区八広4丁目35-17","lat":35.723478,"lon":139.829337},{"name":"八広地域プラザ","province":"東京都","city":"墨田区","address":"東京都墨田区八広4丁目35-17","lat":35.723403,"lon":139.829296},{"name":"本所地域プラザ","province":"東京都","city":"墨田区","address":"東京都墨田区本所1丁目13-4","lat":35.703099,"lon":139.798797},{"name":"横川コミュニティ会館","province":"東京都","city":"墨田区","address":"東京都墨田区横川5丁目9-1","lat":35.705118,"lon":139.817496},{"name":"横川コミュニティ会館","province":"東京都","city":"墨田区","address":"東京都墨田区横川5丁目9-1","lat":35.705118,"lon":139.817404},{"name":"横川コミュニティ会館","province":"東京都","city":"墨田区","address":"東京都墨田区横川5丁目9-1","lat":35.705076,"lon":139.817404},{"name":"梅若橋コミュニティ会館","province":"東京都","city":"墨田区","address":"東京都墨田区堤通2丁目9-1","lat":35.735354,"lon":139.816656},{"name":"東駒形コミュニティ会館","province":"東京都","city":"墨田区","address":"東京都墨田区東駒形4丁目14-1","lat":35.705476,"lon":139.807771},{"name":"東墨田東公園","province":"東京都","city":"墨田区","address":"東京都墨田区東墨田3丁目19","lat":35.718431,"lon":139.837439},{"name":"ひきふね図書館","province":"東京都","city":"墨田区","address":"東京都墨田区京島1丁目36","lat":35.717059,"lon":139.819673},{"name":"ひきふね図書館","province":"東京都","city":"墨田区","address":"東京都墨田区京島1丁目36-1","lat":35.716857,"lon":139.819261},{"name":"ひきふね図書館","province":"東京都","city":"墨田区","address":"東京都墨田区京島1丁目36","lat":35.717003,"lon":139.819467},{"name":"ひきふね図書館","province":"東京都","city":"墨田区","address":"東京都墨田区京島1丁目36","lat":35.717026,"lon":139.819466},{"name":"立花図書館","province":"東京都","city":"墨田区","address":"東京都墨田区立花6丁目8-1","lat":35.710646,"lon":139.834938},{"name":"みどりコミュニティセンター","province":"東京都","city":"墨田区","address":"東京都墨田区緑3丁目7-3","lat":35.693553,"lon":139.803237},{"name":"すみだスポーツ健康センター","province":"東京都","city":"墨田区","address":"東京都墨田区東墨田1丁目6-1","lat":35.716461,"lon":139.830695},{"name":"すみだスポーツ健康センター","province":"東京都","city":"墨田区","address":"東京都墨田区東墨田1丁目6-1","lat":35.716509,"lon":139.830372},{"name":"すみだ郷土文化資料館","province":"東京都","city":"墨田区","address":"東京都墨田区向島2丁目3-5","lat":35.713875,"lon":139.805844},{"name":"すみだ生涯学習センター","province":"東京都","city":"墨田区","address":"東京都墨田区東向島2丁目38-7","lat":35.721243,"lon":139.818603},{"name":"すみだ生涯学習センター","province":"東京都","city":"墨田区","address":"東京都墨田区東向島2丁目38-7","lat":35.721144,"lon":139.818474},{"name":"すみだ北斎美術館","province":"東京都","city":"墨田区","address":"東京都墨田区亀沢2丁目7","lat":35.696255,"lon":139.800334},{"name":"すみだトリフォニーホール","province":"東京都","city":"墨田区","address":"東京都墨田区錦糸1丁目2-3","lat":35.697119,"lon":139.810005},{"name":"すみだ産業会館","province":"東京都","city":"墨田区","address":"東京都墨田区江東橋3丁目9-10","lat":35.695121,"lon":139.813771},{"name":"両国公園","province":"東京都","city":"墨田区","address":"東京都墨田区両国4丁目25","lat":35.693745,"lon":139.796132},{"name":"横川公園","province":"東京都","city":"墨田区","address":"東京都墨田区東駒形4丁目18","lat":35.706794,"lon":139.806817},{"name":"錦糸公園(東)","province":"東京都","city":"墨田区","address":"東京都墨田区錦糸4丁目15","lat":35.699337,"lon":139.817821},{"name":"ふじのき公園","province":"東京都","city":"墨田区","address":"東京都墨田区東向島2丁目7","lat":35.71734,"lon":139.815424},{"name":"ひいらぎ公園","province":"東京都","city":"墨田区","address":"東京都墨田区八広1丁目16","lat":35.720225,"lon":139.82238},{"name":"東向島北公園","province":"東京都","city":"墨田区","address":"東京都墨田区東向島4丁目12","lat":35.725569,"lon":139.815881},{"name":"八広中央公園","province":"東京都","city":"墨田区","address":"東京都墨田区八広3丁目13","lat":35.719212,"lon":139.827258},{"name":"どんぐり児童遊園","province":"東京都","city":"墨田区","address":"東京都墨田区緑3丁目12","lat":35.694579,"lon":139.804697},{"name":"かつら児童遊園","province":"東京都","city":"墨田区","address":"東京都墨田区墨田3丁目36","lat":35.731337,"lon":139.820688},{"name":"六軒児童遊園","province":"東京都","city":"墨田区","address":"東京都墨田区立花3丁目18","lat":35.706101,"lon":139.834398},{"name":"中之郷児童遊園","province":"東京都","city":"墨田区","address":"東京都墨田区押上2丁目12","lat":35.712326,"lon":139.81225},{"name":"八広第一児童遊園","province":"東京都","city":"墨田区","address":"東京都墨田区八広5丁目7","lat":35.724305,"lon":139.823966},{"name":"くるみ児童遊園","province":"東京都","city":"墨田区","address":"東京都墨田区業平5丁目1","lat":35.706257,"lon":139.816161},{"name":"日進公園","province":"東京都","city":"墨田区","address":"東京都墨田区亀沢3丁目24","lat":35.698564,"lon":139.804482},{"name":"若宮公園","province":"東京都","city":"墨田区","address":"東京都墨田区本所2丁目2","lat":35.702289,"lon":139.801135},{"name":"隅田第二児童遊園","province":"東京都","city":"墨田区","address":"東京都墨田区墨田4丁目8","lat":35.732715,"lon":139.821937},{"name":"すみだボランティアセンター","province":"東京都","city":"墨田区","address":"東京都墨田区東向島2丁目17-14","lat":35.718426,"lon":139.815648},{"name":"立花公園","province":"東京都","city":"墨田区","address":"東京都墨田区立花1丁目27","lat":35.70497,"lon":139.828861},{"name":"墨田二丁目児童遊園","province":"東京都","city":"墨田区","address":"東京都墨田区墨田2丁目42","lat":35.732113,"lon":139.818787},{"name":"両国橋際","province":"東京都","city":"墨田区","address":"東京都墨田区両国1丁目11","lat":35.693893,"lon":139.789772},{"name":"江東橋際公衆便所","province":"東京都","city":"墨田区","address":"東京都墨田区江東橋1丁目8","lat":35.694991,"lon":139.809163},{"name":"江東橋公園","province":"東京都","city":"墨田区","address":"東京都墨田区江東橋2丁目4","lat":35.693908,"lon":139.811341},{"name":"錦糸町駅前公衆便所","province":"東京都","city":"墨田区","address":"東京都墨田区江東橋3丁目14","lat":35.696056,"lon":139.814536},{"name":"錦糸堀公園","province":"東京都","city":"墨田区","address":"東京都墨田区江東橋4丁目17","lat":35.694883,"lon":139.816527},{"name":"緑町公園","province":"東京都","city":"墨田区","address":"東京都墨田区亀沢2丁目7","lat":35.696814,"lon":139.800654},{"name":"まち歩きトイレ業平橋","province":"東京都","city":"墨田区","address":"東京都墨田区東駒形4丁目15","lat":35.708502,"lon":139.807401},{"name":"錦糸公園内","province":"東京都","city":"墨田区","address":"東京都墨田区錦糸4丁目15","lat":35.698551,"lon":139.81509},{"name":"京成橋際","province":"東京都","city":"墨田区","address":"東京都墨田区業平4丁目17","lat":35.709468,"lon":139.813995},{"name":"柳島橋際","province":"東京都","city":"墨田区","address":"東京都墨田区業平5丁目7","lat":35.70778,"lon":139.818316},{"name":"東武橋際","province":"東京都","city":"墨田区","address":"東京都墨田区向島1丁目32","lat":35.709669,"lon":139.808324},{"name":"まち歩きトイレ言問","province":"東京都","city":"墨田区","address":"東京都墨田区向島2丁目1","lat":35.713392,"lon":139.80515},{"name":"両国駅西口公衆便所","province":"東京都","city":"墨田区","address":"東京都墨田区横網1丁目3","lat":35.696124,"lon":139.792019},{"name":"まち歩きトイレ錦糸","province":"東京都","city":"墨田区","address":"東京都墨田区錦糸1丁目1","lat":35.697412,"lon":139.808969},{"name":"押上駅前自転車駐車場内","province":"東京都","city":"墨田区","address":"東京都墨田区押上1丁目8-25","lat":35.710999,"lon":139.813917},{"name":"東墨田一丁目","province":"東京都","city":"墨田区","address":"東京都墨田区東墨田1丁目10","lat":35.716234,"lon":139.832784},{"name":"立花五丁目","province":"東京都","city":"墨田区","address":"東京都墨田区立花5丁目50","lat":35.713365,"lon":139.833487},{"name":"平井橋際","province":"東京都","city":"墨田区","address":"東京都墨田区立花3丁目29","lat":35.708485,"lon":139.837197},{"name":"小村井","province":"東京都","city":"墨田区","address":"東京都墨田区文花2丁目1","lat":35.708249,"lon":139.825395},{"name":"墨田区社会福祉会館","province":"東京都","city":"墨田区","address":"東京都墨田区東墨田2丁目7-1","lat":35.719067,"lon":139.830251},{"name":"すみだ福祉保健センター","province":"東京都","city":"墨田区","address":"東京都墨田区向島3丁目36-7","lat":35.713311,"lon":139.810886},{"name":"すみだ福祉保健センター","province":"東京都","city":"墨田区","address":"東京都墨田区向島3丁目36-7","lat":35.713307,"lon":139.810885},{"name":"すみだ福祉保健センター","province":"東京都","city":"墨田区","address":"東京都墨田区向島3丁目36-7","lat":35.713334,"lon":139.810767},{"name":"墨田区弓道場","province":"東京都","city":"墨田区","address":"東京都墨田区江東橋4丁目1-3","lat":35.693386,"lon":139.817352},{"name":"子育て支援総合センター","province":"東京都","city":"墨田区","address":"東京都墨田区京島1丁目35-9","lat":35.716819,"lon":139.819728},{"name":"梅若ゆうゆう館","province":"東京都","city":"墨田区","address":"東京都墨田区墨田1丁目4-4","lat":35.72908,"lon":139.815151},{"name":"立花ゆうゆう館","province":"東京都","city":"墨田区","address":"東京都墨田区立花6丁目8-1","lat":35.710599,"lon":139.834969},{"name":"いきいきプラザ","province":"東京都","city":"墨田区","address":"東京都墨田区文花1丁目32-2","lat":35.707543,"lon":139.823451},{"name":"すみだ女性センター","province":"東京都","city":"墨田区","address":"東京都墨田区押上2丁目12-7","lat":35.712918,"lon":139.812163},{"name":"墨田区総合運動場","province":"東京都","city":"墨田区","address":"東京都墨田区堤通2丁目11","lat":35.737941,"lon":139.816077},{"name":"墨田区総合運動場","province":"東京都","city":"墨田区","address":"東京都墨田区堤通2丁目11","lat":35.73826,"lon":139.816194},{"name":"両国屋内プール","province":"東京都","city":"墨田区","address":"東京都墨田区横網1丁目8-1","lat":35.697672,"lon":139.796324},{"name":"両国屋内プール","province":"東京都","city":"墨田区","address":"東京都墨田区横網1丁目8-1","lat":35.697926,"lon":139.796428},{"name":"スポーツプラザ梅若","province":"東京都","city":"墨田区","address":"東京都墨田区墨田1丁目4-4","lat":35.72904,"lon":139.81565},{"name":"両国子育てひろば保育室","province":"東京都","city":"墨田区","address":"東京都墨田区横網1丁目2-13","lat":35.697787,"lon":139.792418},{"name":"両国子育てひろば","province":"東京都","city":"墨田区","address":"東京都墨田区横網1丁目2-13","lat":35.697787,"lon":139.792418},{"name":"文花子育てひろば","province":"東京都","city":"墨田区","address":"東京都墨田区文花1丁目20-7","lat":35.710614,"lon":139.822368},{"name":"墨田区総合体育館","province":"東京都","city":"墨田区","address":"東京都墨田区錦糸4丁目15-1","lat":35.699324,"lon":139.816798},{"name":"墨田区総合体育館","province":"東京都","city":"墨田区","address":"東京都墨田区錦糸4丁目15-1","lat":35.699732,"lon":139.816784},{"name":"墨田区総合体育館","province":"東京都","city":"墨田区","address":"東京都墨田区錦糸4丁目15-1","lat":35.699316,"lon":139.81745},{"name":"墨田区総合体育館","province":"東京都","city":"墨田区","address":"東京都墨田区錦糸4丁目15-1","lat":35.699794,"lon":139.817374},{"name":"墨田区総合体育館","province":"東京都","city":"墨田区","address":"東京都墨田区錦糸4丁目15-1","lat":35.699292,"lon":139.817424},{"name":"墨田区総合体育館","province":"東京都","city":"墨田区","address":"東京都墨田区錦糸4丁目15-1","lat":35.699786,"lon":139.817067},{"name":"墨田区総合体育館","province":"東京都","city":"墨田区","address":"東京都墨田区錦糸4丁目15-1","lat":35.699305,"lon":139.816816},{"name":"墨田区総合体育館","province":"東京都","city":"墨田区","address":"東京都墨田区錦糸4丁目15-1","lat":35.699297,"lon":139.817421},{"name":"墨田区総合体育館","province":"東京都","city":"墨田区","address":"東京都墨田区錦糸4丁目15-1","lat":35.699804,"lon":139.81726},{"name":"墨田区総合体育館","province":"東京都","city":"墨田区","address":"東京都墨田区錦糸4丁目15-1","lat":35.699303,"lon":139.817335},{"name":"荒川河川敷運動場","province":"東京都","city":"墨田区","address":"東京都墨田区墨田4丁目","lat":35.736513,"lon":139.82236},{"name":"荒川河川敷運動場","province":"東京都","city":"墨田区","address":"東京都墨田区墨田4丁目","lat":35.732205,"lon":139.826014},{"name":"荒川河川敷運動場","province":"東京都","city":"墨田区","address":"東京都墨田区八広6丁目","lat":35.730235,"lon":139.828012},{"name":"屋外体育施設管理事務所錦糸支所","province":"東京都","city":"墨田区","address":"東京都墨田区錦糸4丁目15","lat":35.698556,"lon":139.815057},{"name":"五間堀公園","province":"東京都","city":"墨田区","address":"東京都墨田区立川1丁目1","lat":35.689435,"lon":139.798429},{"name":"都立墨東病院ヘリポート","province":"東京都","city":"墨田区","address":"東京都墨田区江東橋4丁目23-15","lat":35.69530033,"lon":139.81879578},{"name":"墨田区立東墨田運動場","province":"東京都","city":"墨田区","address":"東京都墨田区東墨田1丁目10","lat":35.71647687,"lon":139.83195391},{"name":"墨田区立新平井橋公園","province":"東京都","city":"墨田区","address":"東京都墨田区東墨田1丁目6-2","lat":35.71565486,"lon":139.83040693},{"name":"白鬚東地区（東白鬚公園）","province":"東京都","city":"墨田区","address":"東京都墨田区堤通2丁目","lat":35.73410354,"lon":139.81657811},{"name":"外手小学校","province":"東京都","city":"墨田区","address":"東京都墨田区本所2丁目1-16","lat":35.7025968,"lon":139.80059167},{"name":"二葉小学校","province":"東京都","city":"墨田区","address":"東京都墨田区石原2丁目1-5","lat":35.69926388,"lon":139.80008668},{"name":"錦糸小学校","province":"東京都","city":"墨田区","address":"東京都墨田区錦糸1丁目9-12","lat":35.69876937,"lon":139.81137701},{"name":"中和小学校","province":"東京都","city":"墨田区","address":"東京都墨田区菊川1丁目18-10","lat":35.6901567,"lon":139.80272644},{"name":"言問小学校","province":"東京都","city":"墨田区","address":"東京都墨田区向島5丁目40-14","lat":35.71843549,"lon":139.81134557},{"name":"小梅小学校","province":"東京都","city":"墨田区","address":"東京都墨田区向島2丁目4-10","lat":35.71444608,"lon":139.8059344},{"name":"柳島小学校","province":"東京都","city":"墨田区","address":"東京都墨田区横川5丁目2-30","lat":35.70359917,"lon":139.81754005},{"name":"業平小学校","province":"東京都","city":"墨田区","address":"東京都墨田区業平2丁目4-8","lat":35.70627427,"lon":139.81149546},{"name":"両国小学校","province":"東京都","city":"墨田区","address":"東京都墨田区両国4丁目26-6","lat":35.69372012,"lon":139.79519078},{"name":"横川小学校","province":"東京都","city":"墨田区","address":"東京都墨田区東駒形4丁目18-4","lat":35.70716582,"lon":139.80624308},{"name":"菊川小学校","province":"東京都","city":"墨田区","address":"東京都墨田区立川4丁目12-15","lat":35.69164531,"lon":139.8076726},{"name":"第三吾嬬小学校","province":"東京都","city":"墨田区","address":"東京都墨田区八広2丁目36-3","lat":35.71717161,"lon":139.82774891},{"name":"第四吾小学校","province":"東京都","city":"墨田区","address":"東京都墨田区京島3丁目64-9","lat":35.7131389,"lon":139.82518538},{"name":"第一寺島小学校","province":"東京都","city":"墨田区","address":"東京都墨田区東向島1丁目16-2","lat":35.72158271,"lon":139.81445099},{"name":"第二寺島小学校","province":"東京都","city":"墨田区","address":"東京都墨田区東向島4丁目30-2","lat":35.72470754,"lon":139.81845881},{"name":"第三寺島小学校","province":"東京都","city":"墨田区","address":"東京都墨田区東向島6丁目8-1","lat":35.72140784,"lon":139.82042783},{"name":"曳舟小学校","province":"東京都","city":"墨田区","address":"東京都墨田区京島1丁目28-2","lat":35.71662214,"lon":139.82089427},{"name":"中川小学校","province":"東京都","city":"墨田区","address":"東京都墨田区立花5丁目49-4","lat":35.71334666,"lon":139.83150135},{"name":"東吾嬬小学校","province":"東京都","city":"墨田区","address":"東京都墨田区立花4丁目22-11","lat":35.70854692,"lon":139.83205434},{"name":"押上小学校","province":"東京都","city":"墨田区","address":"東京都墨田区押上3丁目46-17","lat":35.71201677,"lon":139.81932198},{"name":"八広小学校","province":"東京都","city":"墨田区","address":"東京都墨田区八広5丁目12-15","lat":35.72710192,"lon":139.82632158},{"name":"隅田小学校","province":"東京都","city":"墨田区","address":"東京都墨田区墨田4丁目6-5","lat":35.73392317,"lon":139.82186348},{"name":"立花吾嬬の森小学校","province":"東京都","city":"墨田区","address":"東京都墨田区立花1丁目18-6","lat":35.70622472,"lon":139.82971319},{"name":"梅若小学校","province":"東京都","city":"墨田区","address":"東京都墨田区墨田2丁目25-1","lat":35.73053185,"lon":139.81560645},{"name":"旧隅田小学校","province":"東京都","city":"墨田区","address":"東京都墨田区墨田5丁目49-5","lat":35.73603672,"lon":139.82065239},{"name":"墨田中学校","province":"東京都","city":"墨田区","address":"東京都墨田区向島4丁目25-22","lat":35.71493535,"lon":139.81152561},{"name":"本所中学校","province":"東京都","city":"墨田区","address":"東京都墨田区東駒形3丁目1-10","lat":35.70526321,"lon":139.80276048},{"name":"竪川中学校","province":"東京都","city":"墨田区","address":"東京都墨田区亀沢4丁目11-15","lat":35.69700853,"lon":139.80583069},{"name":"錦糸中学校","province":"東京都","city":"墨田区","address":"東京都墨田区石原4丁目33-14","lat":35.70140523,"lon":139.80693828},{"name":"吾嬬第二中学校","province":"東京都","city":"墨田区","address":"東京都墨田区八広4丁目4-4","lat":35.72149362,"lon":139.8271268},{"name":"寺島中学校","province":"東京都","city":"墨田区","address":"東京都墨田区八広1丁目17-15","lat":35.72013008,"lon":139.82316626},{"name":"文花中学校","province":"東京都","city":"墨田区","address":"東京都墨田区文花1丁目22-7","lat":35.71015294,"lon":139.82236367},{"name":"桜堤中学校","province":"東京都","city":"墨田区","address":"東京都墨田区堤通2丁目19-1","lat":35.73056511,"lon":139.81190987},{"name":"吾嬬立花中学校","province":"東京都","city":"墨田区","address":"東京都墨田区立花4丁目30-18","lat":35.71013005,"lon":139.83468174},{"name":"旧向島中学校","province":"東京都","city":"墨田区","address":"東京都墨田区東向島4丁目18-9","lat":35.72607962,"lon":139.81685083},{"name":"柳島幼稚園","province":"東京都","city":"墨田区","address":"東京都墨田区横川5丁目2-30","lat":35.70359917,"lon":139.81754005},{"name":"菊川幼稚園","province":"東京都","city":"墨田区","address":"東京都墨田区立川4丁目12-15","lat":35.69164531,"lon":139.8076726},{"name":"第三寺島幼稚園","province":"東京都","city":"墨田区","address":"東京都墨田区東向島6丁目8-1","lat":35.72140784,"lon":139.82042783},{"name":"曳舟幼稚園","province":"東京都","city":"墨田区","address":"東京都墨田区京島1丁目28-2","lat":35.71662214,"lon":139.82089427},{"name":"八広幼稚園","province":"東京都","city":"墨田区","address":"東京都墨田区八広5丁目12-15","lat":35.72710192,"lon":139.82632158},{"name":"立花幼稚園","province":"東京都","city":"墨田区","address":"東京都墨田区立花1丁目25-9","lat":35.70481094,"lon":139.83169354},{"name":"墨田児童会館","province":"東京都","city":"墨田区","address":"東京都墨田区墨田2丁目30-15","lat":35.72926266,"lon":139.81890044},{"name":"八広児童館","province":"東京都","city":"墨田区","address":"東京都墨田区八広2丁目38-14","lat":35.71586062,"lon":139.82792391},{"name":"江東橋児童館","province":"東京都","city":"墨田区","address":"東京都墨田区江東橋1丁目15-4","lat":35.69591418,"lon":139.80968586},{"name":"東向島児童館","province":"東京都","city":"墨田区","address":"東京都墨田区東向島6丁目6-12","lat":35.72145228,"lon":139.81971127},{"name":"立川児童館","province":"東京都","city":"墨田区","address":"東京都墨田区立花1丁目27-9","lat":35.70555246,"lon":139.82881617},{"name":"文花児童館","province":"東京都","city":"墨田区","address":"東京都墨田区立川1丁目5-2","lat":35.69046226,"lon":139.79950201},{"name":"中川児童館","province":"東京都","city":"墨田区","address":"東京都墨田区文花1丁目32-11","lat":35.70871099,"lon":139.82437198},{"name":"外手児童館","province":"東京都","city":"墨田区","address":"東京都墨田区立花5丁目18-9","lat":35.71294397,"lon":139.83097086},{"name":"さくら橋コミュニティセンター","province":"東京都","city":"墨田区","address":"東京都墨田区八広4丁目27-8","lat":35.72456579,"lon":139.82940716},{"name":"江東橋保育園分園","province":"東京都","city":"墨田区","address":"東京都墨田区向島2丁目3-8","lat":35.71368772,"lon":139.80584268},{"name":"横川橋保育園","province":"東京都","city":"墨田区","address":"東京都墨田区亀沢3丁目12-5","lat":35.69713075,"lon":139.80450307},{"name":"花園保育園","province":"東京都","city":"墨田区","address":"東京都墨田区東墨田2丁目1-15","lat":35.71870454,"lon":139.83058735},{"name":"福神橋保育園","province":"東京都","city":"墨田区","address":"東京都墨田区東向島3丁目16-2","lat":35.72466858,"lon":139.81462615},{"name":"すみだ保育園","province":"東京都","city":"墨田区","address":"東京都墨田区立花3丁目21-16","lat":35.707097,"lon":139.83429579},{"name":"東駒形保育園","province":"東京都","city":"墨田区","address":"東京都墨田区八広3丁目7-5","lat":35.72091034,"lon":139.82649354},{"name":"立川保育園","province":"東京都","city":"墨田区","address":"東京都墨田区墨田2丁目38-13","lat":35.7309485,"lon":139.8175894},{"name":"中川南保育園","province":"東京都","city":"墨田区","address":"東京都墨田区立川1丁目5-2","lat":35.69046226,"lon":139.79950201},{"name":"水神保育園","province":"東京都","city":"墨田区","address":"東京都墨田区東向島1丁目23-10","lat":35.72018834,"lon":139.81260395},{"name":"あおやぎ保育園","province":"東京都","city":"墨田区","address":"東京都墨田区押上2丁目10-17","lat":35.71131304,"lon":139.81179184},{"name":"ひきふね保育園","province":"東京都","city":"墨田区","address":"東京都墨田区東向島4丁目37-17","lat":35.72583524,"lon":139.81916983},{"name":"横川さくら保育園","province":"東京都","city":"墨田区","address":"東京都墨田区八広1丁目1-18","lat":35.72004964,"lon":139.82087495},{"name":"横川さくら保育園分園","province":"東京都","city":"墨田区","address":"東京都墨田区横川5丁目9-1","lat":35.70517431,"lon":139.81750923},{"name":"いきいきプラザ","province":"東京都","city":"墨田区","address":"東京都墨田区江東橋4丁目30-2","lat":35.69664455,"lon":139.81885963},{"name":"墨田区子育て支援総合センター","province":"東京都","city":"墨田区","address":"東京都墨田区文花1丁目32-2","lat":35.70754973,"lon":139.82345005},{"name":"梅若橋コミュニティ会館","province":"東京都","city":"墨田区","address":"東京都墨田区東駒形4丁目14-1","lat":35.70547984,"lon":139.80774036},{"name":"横川コミュニティ会館","province":"東京都","city":"墨田区","address":"東京都墨田区堤通2丁目9-1","lat":35.73539223,"lon":139.81675295},{"name":"すみだふれあいセンター","province":"東京都","city":"墨田区","address":"東京都墨田区横川5丁目9-1","lat":35.70517431,"lon":139.81750923},{"name":"すみだ障害者就労支援総合センター","province":"東京都","city":"墨田区","address":"東京都墨田区緑4丁目35-6","lat":35.69579476,"lon":139.80748896},{"name":"向島ことぶき作業所","province":"東京都","city":"墨田区","address":"東京都墨田区緑4丁目25-4","lat":35.69554202,"lon":139.80767785},{"name":"亀沢のぞみの家","province":"東京都","city":"墨田区","address":"東京都墨田区東向島1丁目17-11","lat":35.72082724,"lon":139.81544246},{"name":"ステップ学級","province":"東京都","city":"墨田区","address":"東京都墨田区亀沢4丁目18-11","lat":35.69903328,"lon":139.80824676},{"name":"文花子育てひろば","province":"東京都","city":"墨田区","address":"東京都墨田区吾妻橋2丁目18-12","lat":35.71039053,"lon":139.80252647},{"name":"みどりコミュニティセンター","province":"東京都","city":"墨田区","address":"東京都墨田区文花1丁目20-3","lat":35.7104113,"lon":139.82265804},{"name":"すみだ福祉保健センター","province":"東京都","city":"墨田区","address":"東京都墨田区緑3丁目7-3","lat":35.69361455,"lon":139.8032676},{"name":"スマイルホームすみだ","province":"東京都","city":"墨田区","address":"東京都墨田区向島3丁目36-7","lat":35.71329353,"lon":139.81075044},{"name":"立花ゆうゆう館","province":"東京都","city":"墨田区","address":"東京都墨田区文花1丁目24-3","lat":35.70976395,"lon":139.8231803},{"name":"たちばなホーム","province":"東京都","city":"墨田区","address":"東京都墨田区八広3丁目22-14","lat":35.71843814,"lon":139.82793219},{"name":"なりひらホーム","province":"東京都","city":"墨田区","address":"東京都墨田区立花3丁目10-1","lat":35.70530821,"lon":139.83305996},{"name":"はなみずき高齢者在宅サービスセンター","province":"東京都","city":"墨田区","address":"東京都墨田区業平5丁目6-2","lat":35.70709118,"lon":139.81802555},{"name":"施設名称","province":"東京都","city":"墨田区","address":"東京都墨田区八広3丁目22-14","lat":35.71843814,"lon":139.82793219},{"name":"たちばな高齢者在宅サービスセンター","province":"東京都","city":"墨田区","address":"東京都墨田区立花3丁目2-9","lat":35.70523875,"lon":139.83257393},{"name":"なりひら高齢者在宅サービスセンター","province":"東京都","city":"墨田区","address":"東京都墨田区業平5丁目6-2","lat":35.70709118,"lon":139.81802555},{"name":"シルバープラザ梅若","province":"東京都","city":"墨田区","address":"東京都墨田区墨田1丁目4-4","lat":35.72923761,"lon":139.81523723},{"name":"梅若ゆうゆう館","province":"東京都","city":"墨田区","address":"東京都墨田区墨田1丁目4-4","lat":35.72923761,"lon":139.81523723},{"name":"うめわか高齢者在宅サービスセンター","province":"東京都","city":"墨田区","address":"東京都墨田区墨田1丁目4-4","lat":35.72923761,"lon":139.81523723},{"name":"墨田区役所","province":"東京都","city":"墨田区","address":"東京都墨田区吾妻橋1丁目23-20","lat":35.71072382,"lon":139.80149602},{"name":"ステップハウスおおぞら","province":"東京都","city":"墨田区","address":"東京都墨田区文花1丁目32-7","lat":35.70823594,"lon":139.82381101},{"name":"墨田区総合体育館","province":"東京都","city":"墨田区","address":"東京都墨田区錦糸4丁目15-1","lat":35.69947749,"lon":139.8171875},{"name":"東京清風園","province":"東京都","city":"墨田区","address":"東京都墨田区立花1丁目25-12","lat":35.70498312,"lon":139.8311103},{"name":"八広地域プラザ","province":"東京都","city":"墨田区","address":"東京都墨田区八広4丁目35-17","lat":35.72349353,"lon":139.82925713},{"name":"本所地域プラザ","province":"東京都","city":"墨田区","address":"東京都墨田区本所1丁目13-4","lat":35.70316063,"lon":139.79876681},{"name":"亀沢保育園","province":"東京都","city":"墨田区","address":"東京都墨田区亀沢1丁目27-5","lat":35.69856397,"lon":139.79949242},{"name":"木下川吾亦紅","province":"東京都","city":"墨田区","address":"東京都墨田区東墨田2丁目15-2","lat":35.72196826,"lon":139.83312869},{"name":"東向島児童館分館","province":"東京都","city":"墨田区","address":"東京都墨田区京島1丁目44-21","lat":35.71921638,"lon":139.82102212},{"name":"吾嬬立花中学校","province":"東京都","city":"墨田区","address":"東京都墨田区立花4丁目30-18","lat":35.71013005,"lon":139.83468174},{"name":"旧鐘淵中学校","province":"東京都","city":"墨田区","address":"東京都墨田区堤通2丁目11-1","lat":35.73905274,"lon":139.81669975},{"name":"旧吾嬬第一中学校","province":"東京都","city":"墨田区","address":"東京都墨田区立花5丁目48-9","lat":35.71260785,"lon":139.83140139},{"name":"緑幼稚園","province":"東京都","city":"墨田区","address":"東京都墨田区緑2丁目11-5","lat":35.69411171,"lon":139.80202883},{"name":"柳島幼稚園","province":"東京都","city":"墨田区","address":"東京都墨田区横川5丁目2-30","lat":35.70359917,"lon":139.81754005},{"name":"菊川幼稚園","province":"東京都","city":"墨田区","address":"東京都墨田区立川4丁目12-15","lat":35.69164531,"lon":139.8076726},{"name":"第三寺島幼稚園","province":"東京都","city":"墨田区","address":"東京都墨田区東向島6丁目8-1","lat":35.72140784,"lon":139.82042783},{"name":"曳舟幼稚園","province":"東京都","city":"墨田区","address":"東京都墨田区京島1丁目28-2","lat":35.71662214,"lon":139.82089427},{"name":"八広幼稚園","province":"東京都","city":"墨田区","address":"東京都墨田区八広5丁目12-15","lat":35.72710192,"lon":139.82632158},{"name":"立花幼稚園","province":"東京都","city":"墨田区","address":"東京都墨田区立花1丁目25-9","lat":35.70481094,"lon":139.83169354},{"name":"墨田児童会館","province":"東京都","city":"墨田区","address":"東京都墨田区墨田2丁目30-15","lat":35.72926266,"lon":139.81890044},{"name":"八広児童館","province":"東京都","city":"墨田区","address":"東京都墨田区八広2丁目38-14","lat":35.71586062,"lon":139.82792391},{"name":"江東橋児童館","province":"東京都","city":"墨田区","address":"東京都墨田区江東橋1丁目15-4","lat":35.69591418,"lon":139.80968586},{"name":"東向島児童館","province":"東京都","city":"墨田区","address":"東京都墨田区東向島6丁目6-12","lat":35.72145228,"lon":139.81971127},{"name":"立花児童館","province":"東京都","city":"墨田区","address":"東京都墨田区立花1丁目27-9","lat":35.70555246,"lon":139.82881617},{"name":"立川児童館","province":"東京都","city":"墨田区","address":"東京都墨田区立川1丁目5-2","lat":35.69046226,"lon":139.79950201},{"name":"文花児童館","province":"東京都","city":"墨田区","address":"東京都墨田区文花1丁目32-11","lat":35.70871099,"lon":139.82437198},{"name":"中川児童館","province":"東京都","city":"墨田区","address":"東京都墨田区立花5丁目18-9","lat":35.71294397,"lon":139.83097086},{"name":"外手児童館","province":"東京都","city":"墨田区","address":"東京都墨田区本所2丁目6-9","lat":35.70300508,"lon":139.8007777},{"name":"八広はなみずき児童館","province":"東京都","city":"墨田区","address":"東京都墨田区八広4丁目27-8","lat":35.72456579,"lon":139.82940716},{"name":"さくら橋コミュニティセンター","province":"東京都","city":"墨田区","address":"東京都墨田区向島2丁目3-8","lat":35.71368772,"lon":139.80584268},{"name":"江東橋保育園分園","province":"東京都","city":"墨田区","address":"東京都墨田区亀沢3丁目12-5","lat":35.69713075,"lon":139.80450307},{"name":"中川保育園","province":"東京都","city":"墨田区","address":"東京都墨田区東墨田2丁目1-15","lat":35.71870454,"lon":139.83058735},{"name":"花園保育園","province":"東京都","city":"墨田区","address":"東京都墨田区東向島3丁目16-2","lat":35.72466858,"lon":139.81462615},{"name":"たちばな保育園","province":"東京都","city":"墨田区","address":"東京都墨田区立花3丁目21-16","lat":35.707097,"lon":139.83429579},{"name":"八広保育園","province":"東京都","city":"墨田区","address":"東京都墨田区八広3丁目7-5","lat":35.72091034,"lon":139.82649354},{"name":"亀沢保育園","province":"東京都","city":"墨田区","address":"東京都墨田区亀沢1丁目27-5","lat":35.69856397,"lon":139.79949242},{"name":"梅若保育園","province":"東京都","city":"墨田区","address":"東京都墨田区墨田2丁目38-13","lat":35.7309485,"lon":139.8175894},{"name":"立川保育園","province":"東京都","city":"墨田区","address":"東京都墨田区立川1丁目5-2","lat":35.69046226,"lon":139.79950201},{"name":"寺島保育園","province":"東京都","city":"墨田区","address":"東京都墨田区東向島1丁目23-10","lat":35.72018834,"lon":139.81260395},{"name":"押上保育園","province":"東京都","city":"墨田区","address":"東京都墨田区押上2丁目10-17","lat":35.71131304,"lon":139.81179184},{"name":"あおやぎ保育園","province":"東京都","city":"墨田区","address":"東京都墨田区東向島4丁目37-17","lat":35.72583524,"lon":139.81916983},{"name":"ひきふね保育園","province":"東京都","city":"墨田区","address":"東京都墨田区八広1丁目1-18","lat":35.72004964,"lon":139.82087495},{"name":"横川さくら保育園","province":"東京都","city":"墨田区","address":"東京都墨田区横川5丁目9-1","lat":35.70517431,"lon":139.81750923},{"name":"いきいきプラザ","province":"東京都","city":"墨田区","address":"東京都墨田区文花1丁目32-2","lat":35.70754973,"lon":139.82345005},{"name":"東駒形コミュニティ会館","province":"東京都","city":"墨田区","address":"東京都墨田区東駒形4丁目14-1","lat":35.70547984,"lon":139.80774036},{"name":"梅若橋コミュニティ会館","province":"東京都","city":"墨田区","address":"東京都墨田区堤通2丁目9-1","lat":35.73539223,"lon":139.81675295},{"name":"横川コミュニティ会館","province":"東京都","city":"墨田区","address":"東京都墨田区横川5丁目9-1","lat":35.70517431,"lon":139.81750923},{"name":"すみだふれあいセンター","province":"東京都","city":"墨田区","address":"東京都墨田区緑4丁目35-6","lat":35.69579476,"lon":139.80748896},{"name":"すみだ障害者就労支援総合センター","province":"東京都","city":"墨田区","address":"東京都墨田区緑4丁目25-4","lat":35.69554202,"lon":139.80767785},{"name":"向島ことぶき作業所","province":"東京都","city":"墨田区","address":"東京都墨田区東向島1丁目17-11","lat":35.72082724,"lon":139.81544246},{"name":"墨田福祉作業所","province":"東京都","city":"墨田区","address":"東京都墨田区八広1丁目16-22","lat":35.71964411,"lon":139.82205531},{"name":"亀沢のぞみの家","province":"東京都","city":"墨田区","address":"東京都墨田区亀沢4丁目18-11","lat":35.69903328,"lon":139.80824676},{"name":"ステップ学級","province":"東京都","city":"墨田区","address":"東京都墨田区吾妻橋2丁目18-12","lat":35.71039053,"lon":139.80252647},{"name":"文花子育てひろば","province":"東京都","city":"墨田区","address":"東京都墨田区文花1丁目20-3","lat":35.7104113,"lon":139.82265804},{"name":"本所防災備蓄倉庫","province":"東京都","city":"墨田区","address":"東京都墨田区本所2丁目6-9","lat":35.70300508,"lon":139.8007777},{"name":"白鬚東防災備蓄倉庫","province":"東京都","city":"墨田区","address":"東京都墨田区堤通2丁目7-13","lat":35.73475624,"lon":139.81720018},{"name":"国技館内防災備蓄倉庫","province":"東京都","city":"墨田区","address":"東京都墨田区横網1丁目3-28","lat":35.69721965,"lon":139.79360694},{"name":"京島防災備蓄倉庫","province":"東京都","city":"墨田区","address":"東京都墨田区京島2丁目15-5","lat":35.71313356,"lon":139.82108025},{"name":"東向島防災備蓄倉庫","province":"東京都","city":"墨田区","address":"東京都墨田区東向島4丁目8-12","lat":35.72759893,"lon":139.8155317},{"name":"庁舎内防災備蓄倉庫","province":"東京都","city":"墨田区","address":"東京都墨田区吾妻橋1丁目23-20","lat":35.71072382,"lon":139.80149602},{"name":"横川防災備蓄倉庫","province":"東京都","city":"墨田区","address":"東京都墨田区横川5丁目9-1","lat":35.70517431,"lon":139.81750923},{"name":"業平防災備蓄倉庫","province":"東京都","city":"墨田区","address":"東京都墨田区業平3丁目2-5","lat":35.70634375,"lon":139.8130676},{"name":"国際ファッションセンタービル内防災備蓄倉庫","province":"東京都","city":"墨田区","address":"東京都墨田区横網1丁目6-1","lat":35.69830846,"lon":139.79685114},{"name":"NTTドコモ墨田ビル内防災備蓄倉庫","province":"東京都","city":"墨田区","address":"東京都墨田区横網1丁目9-2","lat":35.69835288,"lon":139.79546506},{"name":"太平四丁目防災備蓄倉庫","province":"東京都","city":"墨田区","address":"東京都墨田区太平4丁目1-2","lat":35.70086065,"lon":139.81594032},{"name":"総合体育館防災備蓄倉庫","province":"東京都","city":"墨田区","address":"東京都墨田区錦糸4丁目15-1","lat":35.69947749,"lon":139.8171875},{"name":"スカイツリーウエストヤードロータリー防災備蓄倉庫","province":"東京都","city":"墨田区","address":"東京都墨田区押上1丁目1-2","lat":35.71005462,"lon":139.81070876},{"name":"本所地域プラザ防災備蓄倉庫","province":"東京都","city":"墨田区","address":"東京都墨田区本所1丁目13-4","lat":35.70316063,"lon":139.79876681},{"name":"京島三丁目コミュニティ住宅防災備蓄倉庫","province":"東京都","city":"墨田区","address":"東京都墨田区京島3丁目3-1","lat":35.71526948,"lon":139.82097199},{"name":"第7コミュニティ住宅防災備蓄倉庫","province":"東京都","city":"墨田区","address":"東京都墨田区京島3丁目3-6","lat":35.71515563,"lon":139.82138862},{"name":"第8コミュニティ住宅防災備蓄倉庫","province":"東京都","city":"墨田区","address":"東京都墨田区京島3丁目52-8","lat":35.71478047,"lon":139.82434659},{"name":"ホンダカーズ東京押上店防災備蓄倉庫","province":"東京都","city":"墨田区","address":"東京都墨田区押上2丁目22-4","lat":35.71483839,"lon":139.81445312},{"name":"京成押上ビル防災備蓄倉庫","province":"東京都","city":"墨田区","address":"東京都墨田区押上1丁目10-3","lat":35.71022161,"lon":139.81391135},{"name":"イーストコア曳舟二番館防災備蓄倉庫","province":"東京都","city":"墨田区","address":"東京都墨田区京島1丁目1-2","lat":35.71600802,"lon":139.81705298},{"name":"東武曳舟駅防災備蓄倉庫","province":"東京都","city":"墨田区","address":"東京都墨田区東向島2丁目26","lat":35.7184357,"lon":139.81642547},{"name":"八広防災備蓄倉庫","province":"東京都","city":"墨田区","address":"東京都墨田区八広6丁目35-1","lat":35.72651028,"lon":139.82940171},{"name":"総合運動場防災備蓄倉庫","province":"東京都","city":"墨田区","address":"東京都墨田区堤通2丁目11-1","lat":35.73905274,"lon":139.81669975},{"name":"情報経営イノベーション専門職大学防災備蓄倉庫","province":"東京都","city":"墨田区","address":"東京都墨田区文花1丁目18-13","lat":35.71137807,"lon":139.82328004},{"name":"アパホテル防災備蓄倉庫","province":"東京都","city":"墨田区","address":"東京都墨田区横網1丁目11-10","lat":35.69741131,"lon":139.79426523},{"name":"両国リバーセンター防災備蓄倉庫","province":"東京都","city":"墨田区","address":"東京都墨田区横網1丁目2-13","lat":35.6978029,"lon":139.79244854},{"name":"関東マツダ墨田店防災備蓄倉庫","province":"東京都","city":"墨田区","address":"東京都墨田区立花5丁目1-8","lat":35.71308031,"lon":139.8281545},{"name":"東墨田会館","province":"東京都","city":"墨田区","address":"東京都墨田区東墨田2丁目12-9","lat":35.72135158,"lon":139.83258985},{"name":"平井橋","province":"東京都","city":"墨田区","address":"東京都墨田区立花3丁目","lat":35.70741364,"lon":139.83414302},{"name":"墨田区本庁舎","province":"東京都","city":"墨田区","address":"東京都墨田区吾妻橋1丁目23-20","lat":35.71072382,"lon":139.80149602},{"name":"江東橋児童館","province":"東京都","city":"墨田区","address":"墨田区江東橋一丁目15番4号","lat":35.695885,"lon":139.809697},{"name":"東向島児童館分館","province":"東京都","city":"墨田区","address":"墨田区京島一丁目44番21号","lat":35.719301,"lon":139.820973},{"name":"立川児童館","province":"東京都","city":"墨田区","address":"墨田区立川一丁目5番2号","lat":35.690501,"lon":139.799531},{"name":"中川児童館","province":"東京都","city":"墨田区","address":"墨田区立花五丁目18番9号","lat":35.712947,"lon":139.831038},{"name":"八広はなみずき児童館","province":"東京都","city":"墨田区","address":"墨田区八広四丁目27番8号","lat":35.724575,"lon":139.829421},{"name":"さくら橋コミュニティセンター","province":"東京都","city":"墨田区","address":"墨田区向島二丁目3番8号","lat":35.713681,"lon":139.805844},{"name":"わんぱく天国","province":"東京都","city":"墨田区","address":"墨田区押上一丁目47番8号","lat":35.709275,"lon":139.817281},{"name":"両国子育てひろば","province":"東京都","city":"墨田区","address":"墨田区横網一丁目2番13号ヒューリック両国リバーセンター","lat":35.697824,"lon":139.792408},{"name":"文花子育てひろば","province":"東京都","city":"墨田区","address":"墨田区文花一丁目20番7号","lat":35.710609,"lon":139.822403},{"name":"すみだファミリー・サポート・センター","province":"東京都","city":"墨田区","address":"墨田区亀沢三丁目20番11号関根ビル4階","lat":35.697483,"lon":139.803467},{"name":"東武鉄道（株）","province":"東京都","city":"墨田区","address":"墨田区押上2-18-12","lat":35.71238,"lon":139.8136},{"name":"白鬚東防災拠点内備蓄倉庫","province":"東京都","city":"墨田区","address":"墨田区堤通2-4-3都営白鬚東アパート3号棟1階","lat":35.72976,"lon":139.813},{"name":"墨田区","province":"東京都","city":"墨田区","address":"墨田区向島1-27-53F","lat":35.71173,"lon":139.8073},{"name":"※墨田区本庁舎","province":"東京都","city":"墨田区","address":"東京都墨田区吾妻橋1丁目23-20","lat":35.71072382,"lon":139.80149602},{"name":"駒形ＰＡ","province":"東京都","city":"墨田区","address":"東京都墨田区","lat":35.71040718,"lon":139.80155995},{"name":"浅草通り押上側","province":"東京都","city":"墨田区","address":"東京都墨田区業平2丁目17-9","lat":35.70920755,"lon":139.81204218},{"name":"浅草通り業平側","province":"東京都","city":"墨田区","address":"東京都墨田区業平3丁目13","lat":35.70864096,"lon":139.81275611},{"name":"駅前","province":"東京都","city":"墨田区","address":"東京都墨田区押上1丁目8-25","lat":35.71136332,"lon":139.81407504},{"name":"桜橋通り際仮設","province":"東京都","city":"墨田区","address":"東京都墨田区押上2丁目26","lat":35.71233565,"lon":139.81485838},{"name":"第二","province":"東京都","city":"墨田区","address":"東京都墨田区押上2丁目26","lat":35.71233565,"lon":139.81485838},{"name":"中之郷","province":"東京都","city":"墨田区","address":"東京都墨田区押上2丁目17","lat":35.71237432,"lon":139.81305294},{"name":"南口臨時","province":"東京都","city":"墨田区","address":"東京都墨田区押上1丁目25","lat":35.7097467,"lon":139.81495027},{"name":"第一","province":"東京都","city":"墨田区","address":"東京都墨田区文花2丁目20","lat":35.7103999,"lon":139.82737141},{"name":"第二","province":"東京都","city":"墨田区","address":"東京都墨田区文花2丁目19","lat":35.71059997,"lon":139.82644927},{"name":"北","province":"東京都","city":"墨田区","address":"東京都墨田区墨田5丁目50","lat":35.73393424,"lon":139.82069698},{"name":"南","province":"東京都","city":"墨田区","address":"東京都墨田区墨田3丁目31-12","lat":35.73230947,"lon":139.82037493},{"name":"北口","province":"東京都","city":"墨田区","address":"東京都墨田区菊川3丁目16","lat":35.68865408,"lon":139.80683132},{"name":"北口第二","province":"東京都","city":"墨田区","address":"東京都墨田区菊川3丁目17-2","lat":35.68928454,"lon":139.8065591},{"name":"新大橋通り北","province":"東京都","city":"墨田区","address":"東京都墨田区菊川2丁目6","lat":35.68860965,"lon":139.80549549},{"name":"新大橋通り南","province":"東京都","city":"墨田区","address":"東京都墨田区菊川2丁目5","lat":35.6879903,"lon":139.8052706},{"name":"北斎通り路上","province":"東京都","city":"墨田区","address":"東京都墨田区錦糸1丁目5","lat":35.69772229,"lon":139.81023003},{"name":"牡丹橋通り","province":"東京都","city":"墨田区","address":"東京都墨田区江東橋3丁目1","lat":35.69318953,"lon":139.81466311},{"name":"南口地下","province":"東京都","city":"墨田区","address":"東京都墨田区江東橋3丁目14-4","lat":35.69607523,"lon":139.81461854},{"name":"四ツ目通り路上","province":"東京都","city":"墨田区","address":"東京都墨田区錦糸1丁目2","lat":35.6968835,"lon":139.81061897},{"name":"西臨時","province":"東京都","city":"墨田区","address":"東京都墨田区京島1丁目39","lat":35.71863582,"lon":139.81964728},{"name":"南臨時","province":"東京都","city":"墨田区","address":"東京都墨田区京島1丁目1","lat":35.71623582,"lon":139.81742796},{"name":"南臨時","province":"東京都","city":"墨田区","address":"東京都墨田区京島1丁目8","lat":35.71598863,"lon":139.81777512},{"name":"仮設","province":"東京都","city":"墨田区","address":"東京都墨田区業平1丁目16","lat":35.70923509,"lon":139.80794806},{"name":"第一","province":"東京都","city":"墨田区","address":"東京都墨田区向島1丁目32","lat":35.70982394,"lon":139.80806183},{"name":"第二","province":"東京都","city":"墨田区","address":"東京都墨田区業平1丁目17-5","lat":35.70934065,"lon":139.8082591},{"name":"駅前","province":"東京都","city":"墨田区","address":"東京都墨田区立花4丁目23-7","lat":35.70720253,"lon":139.83185169},{"name":"線路沿","province":"東京都","city":"墨田区","address":"東京都墨田区立花4丁目23-7","lat":35.70720253,"lon":139.83185169},{"name":"西臨時","province":"東京都","city":"墨田区","address":"東京都墨田区立花1丁目23","lat":35.70658864,"lon":139.83072412},{"name":"高架下","province":"東京都","city":"墨田区","address":"東京都墨田区東向島4丁目35","lat":35.72618799,"lon":139.81953645},{"name":"高架下","province":"東京都","city":"墨田区","address":"東京都墨田区東向島2丁目27","lat":35.71824129,"lon":139.8169976},{"name":"東","province":"東京都","city":"墨田区","address":"東京都墨田区東向島2丁目27","lat":35.71824129,"lon":139.8169976},{"name":"第一","province":"東京都","city":"墨田区","address":"東京都墨田区吾妻橋2丁目2","lat":35.70834626,"lon":139.80381824},{"name":"第二","province":"東京都","city":"墨田区","address":"東京都墨田区吾妻橋2丁目3","lat":35.708849,"lon":139.80373206},{"name":"第三","province":"東京都","city":"墨田区","address":"東京都墨田区吾妻橋3丁目6-15","lat":35.70901011,"lon":139.80632333},{"name":"第四","province":"東京都","city":"墨田区","address":"東京都墨田区吾妻橋3丁目1","lat":35.70828516,"lon":139.80487087},{"name":"西臨時","province":"東京都","city":"墨田区","address":"東京都墨田区吾妻橋1丁目12","lat":35.70811849,"lon":139.79838292},{"name":"高架下","province":"東京都","city":"墨田区","address":"東京都墨田区八広6丁目25","lat":35.72683527,"lon":139.82786582},{"name":"新四ツ木橋下","province":"東京都","city":"墨田区","address":"東京都墨田区八広6丁目5","lat":35.72904346,"lon":139.82710758},{"name":"第一","province":"東京都","city":"墨田区","address":"東京都墨田区八広6丁目35-1","lat":35.72651028,"lon":139.82940171},{"name":"第二","province":"東京都","city":"墨田区","address":"東京都墨田区八広6丁目32","lat":35.7268603,"lon":139.83024328},{"name":"高架下","province":"東京都","city":"墨田区","address":"東京都墨田区亀沢1丁目1","lat":35.6958282,"lon":139.79822079},{"name":"国技館通り路上","province":"東京都","city":"墨田区","address":"東京都墨田区横網1丁目3","lat":35.69637252,"lon":139.79309595},{"name":"西口","province":"東京都","city":"墨田区","address":"東京都墨田区横網1丁目2","lat":35.69716407,"lon":139.79182642},{"name":"東口","province":"東京都","city":"墨田区","address":"東京都墨田区横網1丁目3","lat":35.69637252,"lon":139.79309595},{"name":"八広防災備蓄倉庫","province":"東京都","city":"墨田区","address":"東京都墨田区八広6丁目35-1","lat":35.72651028,"lon":139.82940171},{"name":"白鬚東防災備蓄倉庫","province":"東京都","city":"墨田区","address":"東京都墨田区堤通2丁目7-13","lat":35.73475624,"lon":139.81720018},{"name":"国技館内防災備蓄倉庫","province":"東京都","city":"墨田区","address":"東京都墨田区横網1丁目3-28","lat":35.69721965,"lon":139.79360694},{"name":"文花防災備蓄倉庫","province":"東京都","city":"墨田区","address":"東京都墨田区文花1丁目19-1","lat":35.71053903,"lon":139.82370512},{"name":"京島防災備蓄倉庫","province":"東京都","city":"墨田区","address":"東京都墨田区京島2丁目15-5","lat":35.71313356,"lon":139.82108025},{"name":"東向島防災備蓄倉庫","province":"東京都","city":"墨田区","address":"東京都墨田区東向島4丁目8-12","lat":35.72759893,"lon":139.8155317},{"name":"横川防災備蓄倉庫","province":"東京都","city":"墨田区","address":"東京都墨田区横川5丁目9-1","lat":35.70517431,"lon":139.81750923},{"name":"庁舎内防災備蓄倉庫","province":"東京都","city":"墨田区","address":"東京都墨田区吾妻橋1丁目23-20","lat":35.71072382,"lon":139.80149602},{"name":"業平防災備蓄倉庫","province":"東京都","city":"墨田区","address":"東京都墨田区業平3丁目2-5","lat":35.70634375,"lon":139.8130676},{"name":"国際ファッションセンタービル内防災備蓄倉庫","province":"東京都","city":"墨田区","address":"東京都墨田区横網1丁目6-1","lat":35.69830846,"lon":139.79685114},{"name":"NTTドコモ墨田ビル内防災備蓄倉庫","province":"東京都","city":"墨田区","address":"東京都墨田区横網1丁目9-2","lat":35.69835288,"lon":139.79546506},{"name":"太平四丁目防災備蓄倉庫","province":"東京都","city":"墨田区","address":"東京都墨田区太平4丁目1-2","lat":35.70086065,"lon":139.81594032},{"name":"東墨田防災備蓄倉庫","province":"東京都","city":"墨田区","address":"東京都墨田区東墨田2丁目12-9","lat":35.72135158,"lon":139.83258985},{"name":"総合体育館防災備蓄倉庫","province":"東京都","city":"墨田区","address":"東京都墨田区錦糸4丁目15-1","lat":35.69947749,"lon":139.8171875},{"name":"東京スカイツリータウンウエストヤード総合ロータリー備蓄倉庫","province":"東京都","city":"墨田区","address":"東京都墨田区押上1丁目1-2","lat":35.71005462,"lon":139.81070876},{"name":"本所地域プラザ防災備蓄倉庫","province":"東京都","city":"墨田区","address":"東京都墨田区本所1丁目13-4","lat":35.70316063,"lon":139.79876681},{"name":"京島三丁目コミュニティ住宅防災備蓄倉庫","province":"東京都","city":"墨田区","address":"東京都墨田区京島3丁目3-1","lat":35.71526948,"lon":139.82097199},{"name":"第7コミュニティ住宅防災備蓄倉庫","province":"東京都","city":"墨田区","address":"東京都墨田区京島3丁目3-6","lat":35.71515563,"lon":139.82138862},{"name":"第8コミュニティ住宅防災備蓄庫","province":"東京都","city":"墨田区","address":"東京都墨田区京島3丁目52-8","lat":35.71478047,"lon":139.82434659},{"name":"20　ホンダカーズ東京押上店防災備蓄倉庫","province":"東京都","city":"墨田区","address":"東京都墨田区押上2丁目22-4","lat":35.71483839,"lon":139.81445312},{"name":"21　京成押上ビル防災備蓄倉庫","province":"東京都","city":"墨田区","address":"東京都墨田区押上1丁目10-3","lat":35.71022161,"lon":139.81391135},{"name":"江東西工区","province":"東京都","city":"墨田区","address":"東京都墨田区両国1丁目12-5","lat":35.69562534,"lon":139.79045718},{"name":"墨田工区","province":"東京都","city":"墨田区","address":"東京都墨田区堤通1丁目16-4","lat":35.72574067,"lon":139.81097687},{"name":"平井橋水防倉庫","province":"東京都","city":"墨田区","address":"東京都墨田区立花3丁目29-10","lat":35.70835795,"lon":139.83697888},{"name":"墨田都税事務所","province":"東京都","city":"墨田区","address":"東京都墨田区業平1丁目7-4","lat":35.70787,"lon":139.809143},{"name":"東京都江戸東京博物館","province":"東京都","city":"墨田区","address":"東京都墨田区横網1丁目4-1","lat":35.69647,"lon":139.7957},{"name":"東京都江戸東京博物館","province":"東京都","city":"墨田区","address":"東京都墨田区横網1丁目4-1","lat":35.69691,"lon":139.7958},{"name":"東京都江戸東京博物館","province":"東京都","city":"墨田区","address":"東京都墨田区横網1丁目4-1","lat":35.69665,"lon":139.7958},{"name":"東京都江戸東京博物館","province":"東京都","city":"墨田区","address":"東京都墨田区横網1丁目4-1","lat":35.69675,"lon":139.7956},{"name":"東京都江戸東京博物館","province":"東京都","city":"墨田区","address":"東京都墨田区横網1丁目4-1","lat":35.69627,"lon":139.7958},{"name":"東京都江戸東京博物館","province":"東京都","city":"墨田区","address":"東京都墨田区横網1丁目4-1","lat":35.69623,"lon":139.7965},{"name":"東京都江戸東京博物館","province":"東京都","city":"墨田区","address":"東京都墨田区横網1丁目4-1","lat":35.69676,"lon":139.7957},{"name":"東京都江戸東京博物館","province":"東京都","city":"墨田区","address":"東京都墨田区横網1丁目4-1","lat":35.69639,"lon":139.7956},{"name":"地方独立行政法人東京都立病院機構　東京都立墨東病院","province":"東京都","city":"墨田区","address":"東京都墨田区江東橋4丁目23","lat":35.694554,"lon":139.818952},{"name":"東白鬚公園","province":"東京都","city":"墨田区","address":"東京都墨田区堤通2丁目2","lat":35.733624,"lon":139.813864},{"name":"東白鬚公園","province":"東京都","city":"墨田区","address":"東京都墨田区堤通2丁目2","lat":35.72915,"lon":139.811966},{"name":"東白鬚公園","province":"東京都","city":"墨田区","address":"東京都墨田区堤通2丁目2","lat":35.737694,"lon":139.81688},{"name":"横網町公園","province":"東京都","city":"墨田区","address":"東京都墨田区横網2丁目3-25","lat":35.699951,"lon":139.796874},{"name":"横網町公園","province":"東京都","city":"墨田区","address":"東京都墨田区横網2丁目3","lat":35.699272,"lon":139.795551},{"name":"向島百花園","province":"東京都","city":"墨田区","address":"東京都墨田区東向島3丁目18","lat":35.724189,"lon":139.815271},{"name":"向島百花園","province":"東京都","city":"墨田区","address":"東京都墨田区東向島3丁目18","lat":35.724158,"lon":139.815293},{"name":"都営浅草線本所吾妻橋駅","province":"東京都","city":"墨田区","address":"東京都墨田区吾妻橋3丁目1","lat":35.708358,"lon":139.804465},{"name":"都営浅草線本所吾妻橋駅","province":"東京都","city":"墨田区","address":"東京都墨田区吾妻橋3丁目1","lat":35.708419,"lon":139.804475},{"name":"都営新宿線菊川駅","province":"東京都","city":"墨田区","address":"東京都墨田区菊川2丁目6","lat":35.688422,"lon":139.80556},{"name":"都営大江戸線両国駅","province":"東京都","city":"墨田区","address":"東京都墨田区亀沢1丁目7","lat":35.696873,"lon":139.797477},{"name":"東京都水道局墨田営業所","province":"東京都","city":"墨田区","address":"東京都墨田区千歳2丁目2-11","lat":35.690458,"lon":139.795839},{"name":"墨田区役所","province":"東京都","city":"墨田区","address":"東京都墨田区吾妻橋1丁目23-20","lat":35.710644,"lon":139.801307},{"name":"向島保健センター","province":"東京都","city":"墨田区","address":"東京都墨田区東向島5丁目16-2","lat":35.725694,"lon":139.821112},{"name":"横川出張所","province":"東京都","city":"墨田区","address":"東京都墨田区横川5丁目10-1","lat":35.705927,"lon":139.816389},{"name":"八広地域プラザ","province":"東京都","city":"墨田区","address":"東京都墨田区八広4丁目35-17","lat":35.723478,"lon":139.829337},{"name":"八広地域プラザ","province":"東京都","city":"墨田区","address":"東京都墨田区八広4丁目35-17","lat":35.723403,"lon":139.829296},{"name":"本所地域プラザ","province":"東京都","city":"墨田区","address":"東京都墨田区本所1丁目13-4","lat":35.703099,"lon":139.798797},{"name":"横川コミュニティ会館","province":"東京都","city":"墨田区","address":"東京都墨田区横川5丁目9-1","lat":35.705118,"lon":139.817496},{"name":"横川コミュニティ会館","province":"東京都","city":"墨田区","address":"東京都墨田区横川5丁目9-1","lat":35.705118,"lon":139.817404},{"name":"横川コミュニティ会館","province":"東京都","city":"墨田区","address":"東京都墨田区横川5丁目9-1","lat":35.705076,"lon":139.817404},{"name":"梅若橋コミュニティ会館","province":"東京都","city":"墨田区","address":"東京都墨田区堤通2丁目9-1","lat":35.735354,"lon":139.816656},{"name":"東駒形コミュニティ会館","province":"東京都","city":"墨田区","address":"東京都墨田区東駒形4丁目14-1","lat":35.705476,"lon":139.807771},{"name":"東墨田東公園","province":"東京都","city":"墨田区","address":"東京都墨田区東墨田3丁目19","lat":35.718431,"lon":139.837439},{"name":"ひきふね図書館","province":"東京都","city":"墨田区","address":"東京都墨田区京島1丁目36","lat":35.717059,"lon":139.819673},{"name":"ひきふね図書館","province":"東京都","city":"墨田区","address":"東京都墨田区京島1丁目36-1","lat":35.716857,"lon":139.819261},{"name":"ひきふね図書館","province":"東京都","city":"墨田区","address":"東京都墨田区京島1丁目36","lat":35.717003,"lon":139.819467},{"name":"ひきふね図書館","province":"東京都","city":"墨田区","address":"東京都墨田区京島1丁目36","lat":35.717026,"lon":139.819466},{"name":"立花図書館","province":"東京都","city":"墨田区","address":"東京都墨田区立花6丁目8-1","lat":35.710646,"lon":139.834938},{"name":"みどりコミュニティセンター","province":"東京都","city":"墨田区","address":"東京都墨田区緑3丁目7-3","lat":35.693553,"lon":139.803237},{"name":"すみだスポーツ健康センター","province":"東京都","city":"墨田区","address":"東京都墨田区東墨田1丁目6-1","lat":35.716461,"lon":139.830695},{"name":"すみだスポーツ健康センター","province":"東京都","city":"墨田区","address":"東京都墨田区東墨田1丁目6-1","lat":35.716509,"lon":139.830372},{"name":"すみだ郷土文化資料館","province":"東京都","city":"墨田区","address":"東京都墨田区向島2丁目3-5","lat":35.713875,"lon":139.805844},{"name":"すみだ生涯学習センター","province":"東京都","city":"墨田区","address":"東京都墨田区東向島2丁目38-7","lat":35.721243,"lon":139.818603},{"name":"すみだ生涯学習センター","province":"東京都","city":"墨田区","address":"東京都墨田区東向島2丁目38-7","lat":35.721144,"lon":139.818474},{"name":"すみだ北斎美術館","province":"東京都","city":"墨田区","address":"東京都墨田区亀沢2丁目7","lat":35.696255,"lon":139.800334},{"name":"すみだトリフォニーホール","province":"東京都","city":"墨田区","address":"東京都墨田区錦糸1丁目2-3","lat":35.697119,"lon":139.810005},{"name":"すみだ産業会館","province":"東京都","city":"墨田区","address":"東京都墨田区江東橋3丁目9-10","lat":35.695121,"lon":139.813771},{"name":"両国公園","province":"東京都","city":"墨田区","address":"東京都墨田区両国4丁目25","lat":35.693745,"lon":139.796132},{"name":"横川公園","province":"東京都","city":"墨田区","address":"東京都墨田区東駒形4丁目18","lat":35.706794,"lon":139.806817},{"name":"錦糸公園(東)","province":"東京都","city":"墨田区","address":"東京都墨田区錦糸4丁目15","lat":35.699337,"lon":139.817821},{"name":"ふじのき公園","province":"東京都","city":"墨田区","address":"東京都墨田区東向島2丁目7","lat":35.71734,"lon":139.815424},{"name":"ひいらぎ公園","province":"東京都","city":"墨田区","address":"東京都墨田区八広1丁目16","lat":35.720225,"lon":139.82238},{"name":"東向島北公園","province":"東京都","city":"墨田区","address":"東京都墨田区東向島4丁目12","lat":35.725569,"lon":139.815881},{"name":"八広中央公園","province":"東京都","city":"墨田区","address":"東京都墨田区八広3丁目13","lat":35.719212,"lon":139.827258},{"name":"どんぐり児童遊園","province":"東京都","city":"墨田区","address":"東京都墨田区緑3丁目12","lat":35.694579,"lon":139.804697},{"name":"かつら児童遊園","province":"東京都","city":"墨田区","address":"東京都墨田区墨田3丁目36","lat":35.731337,"lon":139.820688},{"name":"六軒児童遊園","province":"東京都","city":"墨田区","address":"東京都墨田区立花3丁目18","lat":35.706101,"lon":139.834398},{"name":"中之郷児童遊園","province":"東京都","city":"墨田区","address":"東京都墨田区押上2丁目12","lat":35.712326,"lon":139.81225},{"name":"八広第一児童遊園","province":"東京都","city":"墨田区","address":"東京都墨田区八広5丁目7","lat":35.724305,"lon":139.823966},{"name":"くるみ児童遊園","province":"東京都","city":"墨田区","address":"東京都墨田区業平5丁目1","lat":35.706257,"lon":139.816161},{"name":"日進公園","province":"東京都","city":"墨田区","address":"東京都墨田区亀沢3丁目24","lat":35.698564,"lon":139.804482},{"name":"若宮公園","province":"東京都","city":"墨田区","address":"東京都墨田区本所2丁目2","lat":35.702289,"lon":139.801135},{"name":"隅田第二児童遊園","province":"東京都","city":"墨田区","address":"東京都墨田区墨田4丁目8","lat":35.732715,"lon":139.821937},{"name":"すみだボランティアセンター","province":"東京都","city":"墨田区","address":"東京都墨田区東向島2丁目17-14","lat":35.718426,"lon":139.815648},{"name":"立花公園","province":"東京都","city":"墨田区","address":"東京都墨田区立花1丁目27","lat":35.70497,"lon":139.828861},{"name":"墨田二丁目児童遊園","province":"東京都","city":"墨田区","address":"東京都墨田区墨田2丁目42","lat":35.732113,"lon":139.818787},{"name":"両国橋際","province":"東京都","city":"墨田区","address":"東京都墨田区両国1丁目11","lat":35.693893,"lon":139.789772},{"name":"江東橋際公衆便所","province":"東京都","city":"墨田区","address":"東京都墨田区江東橋1丁目8","lat":35.694991,"lon":139.809163},{"name":"江東橋公園","province":"東京都","city":"墨田区","address":"東京都墨田区江東橋2丁目4","lat":35.693908,"lon":139.811341},{"name":"錦糸町駅前公衆便所","province":"東京都","city":"墨田区","address":"東京都墨田区江東橋3丁目14","lat":35.696056,"lon":139.814536},{"name":"錦糸堀公園","province":"東京都","city":"墨田区","address":"東京都墨田区江東橋4丁目17","lat":35.694883,"lon":139.816527},{"name":"緑町公園","province":"東京都","city":"墨田区","address":"東京都墨田区亀沢2丁目7","lat":35.696814,"lon":139.800654},{"name":"まち歩きトイレ業平橋","province":"東京都","city":"墨田区","address":"東京都墨田区東駒形4丁目15","lat":35.708502,"lon":139.807401},{"name":"錦糸公園内","province":"東京都","city":"墨田区","address":"東京都墨田区錦糸4丁目15","lat":35.698551,"lon":139.81509},{"name":"京成橋際","province":"東京都","city":"墨田区","address":"東京都墨田区業平4丁目17","lat":35.709468,"lon":139.813995},{"name":"柳島橋際","province":"東京都","city":"墨田区","address":"東京都墨田区業平5丁目7","lat":35.70778,"lon":139.818316},{"name":"東武橋際","province":"東京都","city":"墨田区","address":"東京都墨田区向島1丁目32","lat":35.709669,"lon":139.808324},{"name":"まち歩きトイレ言問","province":"東京都","city":"墨田区","address":"東京都墨田区向島2丁目1","lat":35.713392,"lon":139.80515},{"name":"両国駅西口公衆便所","province":"東京都","city":"墨田区","address":"東京都墨田区横網1丁目3","lat":35.696124,"lon":139.792019},{"name":"まち歩きトイレ錦糸","province":"東京都","city":"墨田区","address":"東京都墨田区錦糸1丁目1","lat":35.697412,"lon":139.808969},{"name":"押上駅前自転車駐車場内","province":"東京都","city":"墨田区","address":"東京都墨田区押上1丁目8-25","lat":35.710999,"lon":139.813917},{"name":"東墨田一丁目","province":"東京都","city":"墨田区","address":"東京都墨田区東墨田1丁目10","lat":35.716234,"lon":139.832784},{"name":"立花五丁目","province":"東京都","city":"墨田区","address":"東京都墨田区立花5丁目50","lat":35.713365,"lon":139.833487},{"name":"平井橋際","province":"東京都","city":"墨田区","address":"東京都墨田区立花3丁目29","lat":35.708485,"lon":139.837197},{"name":"小村井","province":"東京都","city":"墨田区","address":"東京都墨田区文花2丁目1","lat":35.708249,"lon":139.825395},{"name":"墨田区社会福祉会館","province":"東京都","city":"墨田区","address":"東京都墨田区東墨田2丁目7-1","lat":35.719067,"lon":139.830251},{"name":"すみだ福祉保健センター","province":"東京都","city":"墨田区","address":"東京都墨田区向島3丁目36-7","lat":35.713311,"lon":139.810886},{"name":"すみだ福祉保健センター","province":"東京都","city":"墨田区","address":"東京都墨田区向島3丁目36-7","lat":35.713307,"lon":139.810885},{"name":"すみだ福祉保健センター","province":"東京都","city":"墨田区","address":"東京都墨田区向島3丁目36-7","lat":35.713334,"lon":139.810767},{"name":"墨田区弓道場","province":"東京都","city":"墨田区","address":"東京都墨田区江東橋4丁目1-3","lat":35.693386,"lon":139.817352},{"name":"子育て支援総合センター","province":"東京都","city":"墨田区","address":"東京都墨田区京島1丁目35-9","lat":35.716819,"lon":139.819728},{"name":"梅若ゆうゆう館","province":"東京都","city":"墨田区","address":"東京都墨田区墨田1丁目4-4","lat":35.72908,"lon":139.815151},{"name":"立花ゆうゆう館","province":"東京都","city":"墨田区","address":"東京都墨田区立花6丁目8-1","lat":35.710599,"lon":139.834969},{"name":"いきいきプラザ","province":"東京都","city":"墨田区","address":"東京都墨田区文花1丁目32-2","lat":35.707543,"lon":139.823451},{"name":"すみだ女性センター","province":"東京都","city":"墨田区","address":"東京都墨田区押上2丁目12-7","lat":35.712918,"lon":139.812163},{"name":"墨田区総合運動場","province":"東京都","city":"墨田区","address":"東京都墨田区堤通2丁目11","lat":35.737941,"lon":139.816077},{"name":"墨田区総合運動場","province":"東京都","city":"墨田区","address":"東京都墨田区堤通2丁目11","lat":35.73826,"lon":139.816194},{"name":"両国屋内プール","province":"東京都","city":"墨田区","address":"東京都墨田区横網1丁目8-1","lat":35.697672,"lon":139.796324},{"name":"両国屋内プール","province":"東京都","city":"墨田区","address":"東京都墨田区横網1丁目8-1","lat":35.697926,"lon":139.796428},{"name":"スポーツプラザ梅若","province":"東京都","city":"墨田区","address":"東京都墨田区墨田1丁目4-4","lat":35.72904,"lon":139.81565},{"name":"両国子育てひろば保育室","province":"東京都","city":"墨田区","address":"東京都墨田区横網1丁目2-13","lat":35.697787,"lon":139.792418},{"name":"両国子育てひろば","province":"東京都","city":"墨田区","address":"東京都墨田区横網1丁目2-13","lat":35.697787,"lon":139.792418},{"name":"文花子育てひろば","province":"東京都","city":"墨田区","address":"東京都墨田区文花1丁目20-7","lat":35.710614,"lon":139.822368},{"name":"墨田区総合体育館","province":"東京都","city":"墨田区","address":"東京都墨田区錦糸4丁目15-1","lat":35.699324,"lon":139.816798},{"name":"墨田区総合体育館","province":"東京都","city":"墨田区","address":"東京都墨田区錦糸4丁目15-1","lat":35.699732,"lon":139.816784},{"name":"墨田区総合体育館","province":"東京都","city":"墨田区","address":"東京都墨田区錦糸4丁目15-1","lat":35.699316,"lon":139.81745},{"name":"墨田区総合体育館","province":"東京都","city":"墨田区","address":"東京都墨田区錦糸4丁目15-1","lat":35.699794,"lon":139.817374},{"name":"墨田区総合体育館","province":"東京都","city":"墨田区","address":"東京都墨田区錦糸4丁目15-1","lat":35.699292,"lon":139.817424},{"name":"墨田区総合体育館","province":"東京都","city":"墨田区","address":"東京都墨田区錦糸4丁目15-1","lat":35.699786,"lon":139.817067},{"name":"墨田区総合体育館","province":"東京都","city":"墨田区","address":"東京都墨田区錦糸4丁目15-1","lat":35.699305,"lon":139.816816},{"name":"墨田区総合体育館","province":"東京都","city":"墨田区","address":"東京都墨田区錦糸4丁目15-1","lat":35.699297,"lon":139.817421},{"name":"墨田区総合体育館","province":"東京都","city":"墨田区","address":"東京都墨田区錦糸4丁目15-1","lat":35.699804,"lon":139.81726},{"name":"墨田区総合体育館","province":"東京都","city":"墨田区","address":"東京都墨田区錦糸4丁目15-1","lat":35.699303,"lon":139.817335},{"name":"荒川河川敷運動場","province":"東京都","city":"墨田区","address":"東京都墨田区墨田4丁目","lat":35.736513,"lon":139.82236},{"name":"荒川河川敷運動場","province":"東京都","city":"墨田区","address":"東京都墨田区墨田4丁目","lat":35.732205,"lon":139.826014},{"name":"荒川河川敷運動場","province":"東京都","city":"墨田区","address":"東京都墨田区八広6丁目","lat":35.730235,"lon":139.828012},{"name":"屋外体育施設管理事務所錦糸支所","province":"東京都","city":"墨田区","address":"東京都墨田区錦糸4丁目15","lat":35.698556,"lon":139.815057},{"name":"五間堀公園","province":"東京都","city":"墨田区","address":"東京都墨田区立川1丁目1","lat":35.689435,"lon":139.798429},{"name":"外手小学校","province":"東京都","city":"墨田区","address":"東京都墨田区本所2丁目1-16","lat":35.7025968,"lon":139.80059167},{"name":"二葉小学校","province":"東京都","city":"墨田区","address":"東京都墨田区石原2丁目1-5","lat":35.69926388,"lon":139.80008668},{"name":"錦糸小学校","province":"東京都","city":"墨田区","address":"東京都墨田区錦糸1丁目9-12","lat":35.69876937,"lon":139.81137701},{"name":"中和小学校","province":"東京都","city":"墨田区","address":"東京都墨田区菊川1丁目18-10","lat":35.6901567,"lon":139.80272644},{"name":"言問小学校","province":"東京都","city":"墨田区","address":"東京都墨田区向島5丁目40-14","lat":35.71843549,"lon":139.81134557},{"name":"小梅小学校","province":"東京都","city":"墨田区","address":"東京都墨田区向島2丁目4-10","lat":35.71444608,"lon":139.8059344},{"name":"柳島小学校","province":"東京都","city":"墨田区","address":"東京都墨田区横川5丁目2-30","lat":35.70359917,"lon":139.81754005},{"name":"業平小学校","province":"東京都","city":"墨田区","address":"東京都墨田区業平2丁目4-8","lat":35.70627427,"lon":139.81149546},{"name":"両国小学校","province":"東京都","city":"墨田区","address":"東京都墨田区両国4丁目26-6","lat":35.69372012,"lon":139.79519078},{"name":"横川小学校","province":"東京都","city":"墨田区","address":"東京都墨田区東駒形4丁目18-4","lat":35.70716582,"lon":139.80624308},{"name":"菊川小学校","province":"東京都","city":"墨田区","address":"東京都墨田区立川4丁目12-15","lat":35.69164531,"lon":139.8076726},{"name":"第三吾嬬小学校","province":"東京都","city":"墨田区","address":"東京都墨田区八広2丁目36-3","lat":35.71717161,"lon":139.82774891},{"name":"第四吾小学校","province":"東京都","city":"墨田区","address":"東京都墨田区京島3丁目64-9","lat":35.7131389,"lon":139.82518538},{"name":"第一寺島小学校","province":"東京都","city":"墨田区","address":"東京都墨田区東向島1丁目16-2","lat":35.72158271,"lon":139.81445099},{"name":"第二寺島小学校","province":"東京都","city":"墨田区","address":"東京都墨田区東向島4丁目30-2","lat":35.72470754,"lon":139.81845881},{"name":"第三寺島小学校","province":"東京都","city":"墨田区","address":"東京都墨田区東向島6丁目8-1","lat":35.72140784,"lon":139.82042783},{"name":"曳舟小学校","province":"東京都","city":"墨田区","address":"東京都墨田区京島1丁目28-2","lat":35.71662214,"lon":139.82089427},{"name":"中川小学校","province":"東京都","city":"墨田区","address":"東京都墨田区立花5丁目49-4","lat":35.71334666,"lon":139.83150135},{"name":"東吾嬬小学校","province":"東京都","city":"墨田区","address":"東京都墨田区立花4丁目22-11","lat":35.70854692,"lon":139.83205434},{"name":"押上小学校","province":"東京都","city":"墨田区","address":"東京都墨田区押上3丁目46-17","lat":35.71201677,"lon":139.81932198},{"name":"八広小学校","province":"東京都","city":"墨田区","address":"東京都墨田区八広5丁目12-15","lat":35.72710192,"lon":139.82632158},{"name":"隅田小学校","province":"東京都","city":"墨田区","address":"東京都墨田区墨田4丁目6-5","lat":35.73392317,"lon":139.82186348},{"name":"立花吾嬬の森小学校","province":"東京都","city":"墨田区","address":"東京都墨田区立花1丁目18-6","lat":35.70622472,"lon":139.82971319},{"name":"梅若小学校","province":"東京都","city":"墨田区","address":"東京都墨田区墨田2丁目25-1","lat":35.73053185,"lon":139.81560645},{"name":"旧隅田小学校","province":"東京都","city":"墨田区","address":"東京都墨田区墨田5丁目49-5","lat":35.73603672,"lon":139.82065239},{"name":"墨田中学校","province":"東京都","city":"墨田区","address":"東京都墨田区向島4丁目25-22","lat":35.71493535,"lon":139.81152561},{"name":"本所中学校","province":"東京都","city":"墨田区","address":"東京都墨田区東駒形3丁目1-10","lat":35.70526321,"lon":139.80276048},{"name":"竪川中学校","province":"東京都","city":"墨田区","address":"東京都墨田区亀沢4丁目11-15","lat":35.69700853,"lon":139.80583069},{"name":"錦糸中学校","province":"東京都","city":"墨田区","address":"東京都墨田区石原4丁目33-14","lat":35.70140523,"lon":139.80693828},{"name":"吾嬬第二中学校","province":"東京都","city":"墨田区","address":"東京都墨田区八広4丁目4-4","lat":35.72149362,"lon":139.8271268},{"name":"寺島中学校","province":"東京都","city":"墨田区","address":"東京都墨田区八広1丁目17-15","lat":35.72013008,"lon":139.82316626},{"name":"文花中学校","province":"東京都","city":"墨田区","address":"東京都墨田区文花1丁目22-7","lat":35.71015294,"lon":139.82236367},{"name":"桜堤中学校","province":"東京都","city":"墨田区","address":"東京都墨田区堤通2丁目19-1","lat":35.73056511,"lon":139.81190987},{"name":"吾嬬立花中学校","province":"東京都","city":"墨田区","address":"東京都墨田区立花4丁目30-18","lat":35.71013005,"lon":139.83468174},{"name":"旧向島中学校","province":"東京都","city":"墨田区","address":"東京都墨田区東向島4丁目18-9","lat":35.72607962,"lon":139.81685083},{"name":"柳島幼稚園","province":"東京都","city":"墨田区","address":"東京都墨田区横川5丁目2-30","lat":35.70359917,"lon":139.81754005},{"name":"菊川幼稚園","province":"東京都","city":"墨田区","address":"東京都墨田区立川4丁目12-15","lat":35.69164531,"lon":139.8076726},{"name":"第三寺島幼稚園","province":"東京都","city":"墨田区","address":"東京都墨田区東向島6丁目8-1","lat":35.72140784,"lon":139.82042783},{"name":"曳舟幼稚園","province":"東京都","city":"墨田区","address":"東京都墨田区京島1丁目28-2","lat":35.71662214,"lon":139.82089427},{"name":"八広幼稚園","province":"東京都","city":"墨田区","address":"東京都墨田区八広5丁目12-15","lat":35.72710192,"lon":139.82632158},{"name":"立花幼稚園","province":"東京都","city":"墨田区","address":"東京都墨田区立花1丁目25-9","lat":35.70481094,"lon":139.83169354},{"name":"墨田児童会館","province":"東京都","city":"墨田区","address":"東京都墨田区墨田2丁目30-15","lat":35.72926266,"lon":139.81890044},{"name":"八広児童館","province":"東京都","city":"墨田区","address":"東京都墨田区八広2丁目38-14","lat":35.71586062,"lon":139.82792391},{"name":"江東橋児童館","province":"東京都","city":"墨田区","address":"東京都墨田区江東橋1丁目15-4","lat":35.69591418,"lon":139.80968586},{"name":"東向島児童館","province":"東京都","city":"墨田区","address":"東京都墨田区東向島6丁目6-12","lat":35.72145228,"lon":139.81971127},{"name":"立川児童館","province":"東京都","city":"墨田区","address":"東京都墨田区立花1丁目27-9","lat":35.70555246,"lon":139.82881617},{"name":"文花児童館","province":"東京都","city":"墨田区","address":"東京都墨田区立川1丁目5-2","lat":35.69046226,"lon":139.79950201},{"name":"中川児童館","province":"東京都","city":"墨田区","address":"東京都墨田区文花1丁目32-11","lat":35.70871099,"lon":139.82437198},{"name":"外手児童館","province":"東京都","city":"墨田区","address":"東京都墨田区立花5丁目18-9","lat":35.71294397,"lon":139.83097086},{"name":"さくら橋コミュニティセンター","province":"東京都","city":"墨田区","address":"東京都墨田区八広4丁目27-8","lat":35.72456579,"lon":139.82940716},{"name":"江東橋保育園分園","province":"東京都","city":"墨田区","address":"東京都墨田区向島2丁目3-8","lat":35.71368772,"lon":139.80584268},{"name":"横川橋保育園","province":"東京都","city":"墨田区","address":"東京都墨田区亀沢3丁目12-5","lat":35.69713075,"lon":139.80450307},{"name":"花園保育園","province":"東京都","city":"墨田区","address":"東京都墨田区東墨田2丁目1-15","lat":35.71870454,"lon":139.83058735},{"name":"福神橋保育園","province":"東京都","city":"墨田区","address":"東京都墨田区東向島3丁目16-2","lat":35.72466858,"lon":139.81462615},{"name":"すみだ保育園","province":"東京都","city":"墨田区","address":"東京都墨田区立花3丁目21-16","lat":35.707097,"lon":139.83429579},{"name":"東駒形保育園","province":"東京都","city":"墨田区","address":"東京都墨田区八広3丁目7-5","lat":35.72091034,"lon":139.82649354},{"name":"立川保育園","province":"東京都","city":"墨田区","address":"東京都墨田区墨田2丁目38-13","lat":35.7309485,"lon":139.8175894},{"name":"中川南保育園","province":"東京都","city":"墨田区","address":"東京都墨田区立川1丁目5-2","lat":35.69046226,"lon":139.79950201},{"name":"水神保育園","province":"東京都","city":"墨田区","address":"東京都墨田区東向島1丁目23-10","lat":35.72018834,"lon":139.81260395},{"name":"あおやぎ保育園","province":"東京都","city":"墨田区","address":"東京都墨田区押上2丁目10-17","lat":35.71131304,"lon":139.81179184},{"name":"ひきふね保育園","province":"東京都","city":"墨田区","address":"東京都墨田区東向島4丁目37-17","lat":35.72583524,"lon":139.81916983},{"name":"横川さくら保育園","province":"東京都","city":"墨田区","address":"東京都墨田区八広1丁目1-18","lat":35.72004964,"lon":139.82087495},{"name":"横川さくら保育園分園","province":"東京都","city":"墨田区","address":"東京都墨田区横川5丁目9-1","lat":35.70517431,"lon":139.81750923},{"name":"いきいきプラザ","province":"東京都","city":"墨田区","address":"東京都墨田区江東橋4丁目30-2","lat":35.69664455,"lon":139.81885963},{"name":"墨田区子育て支援総合センター","province":"東京都","city":"墨田区","address":"東京都墨田区文花1丁目32-2","lat":35.70754973,"lon":139.82345005},{"name":"梅若橋コミュニティ会館","province":"東京都","city":"墨田区","address":"東京都墨田区東駒形4丁目14-1","lat":35.70547984,"lon":139.80774036},{"name":"横川コミュニティ会館","province":"東京都","city":"墨田区","address":"東京都墨田区堤通2丁目9-1","lat":35.73539223,"lon":139.81675295},{"name":"すみだふれあいセンター","province":"東京都","city":"墨田区","address":"東京都墨田区横川5丁目9-1","lat":35.70517431,"lon":139.81750923},{"name":"すみだ障害者就労支援総合センター","province":"東京都","city":"墨田区","address":"東京都墨田区緑4丁目35-6","lat":35.69579476,"lon":139.80748896},{"name":"向島ことぶき作業所","province":"東京都","city":"墨田区","address":"東京都墨田区緑4丁目25-4","lat":35.69554202,"lon":139.80767785},{"name":"亀沢のぞみの家","province":"東京都","city":"墨田区","address":"東京都墨田区東向島1丁目17-11","lat":35.72082724,"lon":139.81544246},{"name":"ステップ学級","province":"東京都","city":"墨田区","address":"東京都墨田区亀沢4丁目18-11","lat":35.69903328,"lon":139.80824676},{"name":"文花子育てひろば","province":"東京都","city":"墨田区","address":"東京都墨田区吾妻橋2丁目18-12","lat":35.71039053,"lon":139.80252647},{"name":"みどりコミュニティセンター","province":"東京都","city":"墨田区","address":"東京都墨田区文花1丁目20-3","lat":35.7104113,"lon":139.82265804},{"name":"すみだ福祉保健センター","province":"東京都","city":"墨田区","address":"東京都墨田区緑3丁目7-3","lat":35.69361455,"lon":139.8032676},{"name":"スマイルホームすみだ","province":"東京都","city":"墨田区","address":"東京都墨田区向島3丁目36-7","lat":35.71329353,"lon":139.81075044},{"name":"立花ゆうゆう館","province":"東京都","city":"墨田区","address":"東京都墨田区文花1丁目24-3","lat":35.70976395,"lon":139.8231803},{"name":"たちばなホーム","province":"東京都","city":"墨田区","address":"東京都墨田区八広3丁目22-14","lat":35.71843814,"lon":139.82793219},{"name":"なりひらホーム","province":"東京都","city":"墨田区","address":"東京都墨田区立花3丁目10-1","lat":35.70530821,"lon":139.83305996},{"name":"はなみずき高齢者在宅サービスセンター","province":"東京都","city":"墨田区","address":"東京都墨田区業平5丁目6-2","lat":35.70709118,"lon":139.81802555},{"name":"施設名称","province":"東京都","city":"墨田区","address":"東京都墨田区八広3丁目22-14","lat":35.71843814,"lon":139.82793219},{"name":"たちばな高齢者在宅サービスセンター","province":"東京都","city":"墨田区","address":"東京都墨田区立花3丁目2-9","lat":35.70523875,"lon":139.83257393},{"name":"なりひら高齢者在宅サービスセンター","province":"東京都","city":"墨田区","address":"東京都墨田区業平5丁目6-2","lat":35.70709118,"lon":139.81802555},{"name":"シルバープラザ梅若","province":"東京都","city":"墨田区","address":"東京都墨田区墨田1丁目4-4","lat":35.72923761,"lon":139.81523723},{"name":"梅若ゆうゆう館","province":"東京都","city":"墨田区","address":"東京都墨田区墨田1丁目4-4","lat":35.72923761,"lon":139.81523723},{"name":"うめわか高齢者在宅サービスセンター","province":"東京都","city":"墨田区","address":"東京都墨田区墨田1丁目4-4","lat":35.72923761,"lon":139.81523723},{"name":"墨田区役所","province":"東京都","city":"墨田区","address":"東京都墨田区吾妻橋1丁目23-20","lat":35.71072382,"lon":139.80149602},{"name":"ステップハウスおおぞら","province":"東京都","city":"墨田区","address":"東京都墨田区文花1丁目32-7","lat":35.70823594,"lon":139.82381101},{"name":"墨田区総合体育館","province":"東京都","city":"墨田区","address":"東京都墨田区錦糸4丁目15-1","lat":35.69947749,"lon":139.8171875},{"name":"東京清風園","province":"東京都","city":"墨田区","address":"東京都墨田区立花1丁目25-12","lat":35.70498312,"lon":139.8311103},{"name":"八広地域プラザ","province":"東京都","city":"墨田区","address":"東京都墨田区八広4丁目35-17","lat":35.72349353,"lon":139.82925713},{"name":"本所地域プラザ","province":"東京都","city":"墨田区","address":"東京都墨田区本所1丁目13-4","lat":35.70316063,"lon":139.79876681},{"name":"亀沢保育園","province":"東京都","city":"墨田区","address":"東京都墨田区亀沢1丁目27-5","lat":35.69856397,"lon":139.79949242},{"name":"木下川吾亦紅","province":"東京都","city":"墨田区","address":"東京都墨田区東墨田2丁目15-2","lat":35.72196826,"lon":139.83312869},{"name":"東向島児童館分館","province":"東京都","city":"墨田区","address":"東京都墨田区京島1丁目44-21","lat":35.71921638,"lon":139.82102212},{"name":"吾嬬立花中学校","province":"東京都","city":"墨田区","address":"東京都墨田区立花4丁目30-18","lat":35.71013005,"lon":139.83468174},{"name":"旧鐘淵中学校","province":"東京都","city":"墨田区","address":"東京都墨田区堤通2丁目11-1","lat":35.73905274,"lon":139.81669975},{"name":"旧吾嬬第一中学校","province":"東京都","city":"墨田区","address":"東京都墨田区立花5丁目48-9","lat":35.71260785,"lon":139.83140139},{"name":"緑幼稚園","province":"東京都","city":"墨田区","address":"東京都墨田区緑2丁目11-5","lat":35.69411171,"lon":139.80202883},{"name":"柳島幼稚園","province":"東京都","city":"墨田区","address":"東京都墨田区横川5丁目2-30","lat":35.70359917,"lon":139.81754005},{"name":"菊川幼稚園","province":"東京都","city":"墨田区","address":"東京都墨田区立川4丁目12-15","lat":35.69164531,"lon":139.8076726},{"name":"第三寺島幼稚園","province":"東京都","city":"墨田区","address":"東京都墨田区東向島6丁目8-1","lat":35.72140784,"lon":139.82042783},{"name":"曳舟幼稚園","province":"東京都","city":"墨田区","address":"東京都墨田区京島1丁目28-2","lat":35.71662214,"lon":139.82089427},{"name":"八広幼稚園","province":"東京都","city":"墨田区","address":"東京都墨田区八広5丁目12-15","lat":35.72710192,"lon":139.82632158},{"name":"立花幼稚園","province":"東京都","city":"墨田区","address":"東京都墨田区立花1丁目25-9","lat":35.70481094,"lon":139.83169354},{"name":"墨田児童会館","province":"東京都","city":"墨田区","address":"東京都墨田区墨田2丁目30-15","lat":35.72926266,"lon":139.81890044},{"name":"八広児童館","province":"東京都","city":"墨田区","address":"東京都墨田区八広2丁目38-14","lat":35.71586062,"lon":139.82792391},{"name":"江東橋児童館","province":"東京都","city":"墨田区","address":"東京都墨田区江東橋1丁目15-4","lat":35.69591418,"lon":139.80968586},{"name":"東向島児童館","province":"東京都","city":"墨田区","address":"東京都墨田区東向島6丁目6-12","lat":35.72145228,"lon":139.81971127},{"name":"立花児童館","province":"東京都","city":"墨田区","address":"東京都墨田区立花1丁目27-9","lat":35.70555246,"lon":139.82881617},{"name":"立川児童館","province":"東京都","city":"墨田区","address":"東京都墨田区立川1丁目5-2","lat":35.69046226,"lon":139.79950201},{"name":"文花児童館","province":"東京都","city":"墨田区","address":"東京都墨田区文花1丁目32-11","lat":35.70871099,"lon":139.82437198},{"name":"中川児童館","province":"東京都","city":"墨田区","address":"東京都墨田区立花5丁目18-9","lat":35.71294397,"lon":139.83097086},{"name":"外手児童館","province":"東京都","city":"墨田区","address":"東京都墨田区本所2丁目6-9","lat":35.70300508,"lon":139.8007777},{"name":"八広はなみずき児童館","province":"東京都","city":"墨田区","address":"東京都墨田区八広4丁目27-8","lat":35.72456579,"lon":139.82940716},{"name":"さくら橋コミュニティセンター","province":"東京都","city":"墨田区","address":"東京都墨田区向島2丁目3-8","lat":35.71368772,"lon":139.80584268},{"name":"江東橋保育園分園","province":"東京都","city":"墨田区","address":"東京都墨田区亀沢3丁目12-5","lat":35.69713075,"lon":139.80450307},{"name":"中川保育園","province":"東京都","city":"墨田区","address":"東京都墨田区東墨田2丁目1-15","lat":35.71870454,"lon":139.83058735},{"name":"花園保育園","province":"東京都","city":"墨田区","address":"東京都墨田区東向島3丁目16-2","lat":35.72466858,"lon":139.81462615},{"name":"たちばな保育園","province":"東京都","city":"墨田区","address":"東京都墨田区立花3丁目21-16","lat":35.707097,"lon":139.83429579},{"name":"八広保育園","province":"東京都","city":"墨田区","address":"東京都墨田区八広3丁目7-5","lat":35.72091034,"lon":139.82649354},{"name":"亀沢保育園","province":"東京都","city":"墨田区","address":"東京都墨田区亀沢1丁目27-5","lat":35.69856397,"lon":139.79949242},{"name":"梅若保育園","province":"東京都","city":"墨田区","address":"東京都墨田区墨田2丁目38-13","lat":35.7309485,"lon":139.8175894},{"name":"立川保育園","province":"東京都","city":"墨田区","address":"東京都墨田区立川1丁目5-2","lat":35.69046226,"lon":139.79950201},{"name":"寺島保育園","province":"東京都","city":"墨田区","address":"東京都墨田区東向島1丁目23-10","lat":35.72018834,"lon":139.81260395},{"name":"押上保育園","province":"東京都","city":"墨田区","address":"東京都墨田区押上2丁目10-17","lat":35.71131304,"lon":139.81179184},{"name":"あおやぎ保育園","province":"東京都","city":"墨田区","address":"東京都墨田区東向島4丁目37-17","lat":35.72583524,"lon":139.81916983},{"name":"ひきふね保育園","province":"東京都","city":"墨田区","address":"東京都墨田区八広1丁目1-18","lat":35.72004964,"lon":139.82087495},{"name":"横川さくら保育園","province":"東京都","city":"墨田区","address":"東京都墨田区横川5丁目9-1","lat":35.70517431,"lon":139.81750923},{"name":"いきいきプラザ","province":"東京都","city":"墨田区","address":"東京都墨田区文花1丁目32-2","lat":35.70754973,"lon":139.82345005},{"name":"東駒形コミュニティ会館","province":"東京都","city":"墨田区","address":"東京都墨田区東駒形4丁目14-1","lat":35.70547984,"lon":139.80774036},{"name":"梅若橋コミュニティ会館","province":"東京都","city":"墨田区","address":"東京都墨田区堤通2丁目9-1","lat":35.73539223,"lon":139.81675295},{"name":"横川コミュニティ会館","province":"東京都","city":"墨田区","address":"東京都墨田区横川5丁目9-1","lat":35.70517431,"lon":139.81750923},{"name":"すみだふれあいセンター","province":"東京都","city":"墨田区","address":"東京都墨田区緑4丁目35-6","lat":35.69579476,"lon":139.80748896},{"name":"すみだ障害者就労支援総合センター","province":"東京都","city":"墨田区","address":"東京都墨田区緑4丁目25-4","lat":35.69554202,"lon":139.80767785},{"name":"向島ことぶき作業所","province":"東京都","city":"墨田区","address":"東京都墨田区東向島1丁目17-11","lat":35.72082724,"lon":139.81544246},{"name":"墨田福祉作業所","province":"東京都","city":"墨田区","address":"東京都墨田区八広1丁目16-22","lat":35.71964411,"lon":139.82205531},{"name":"亀沢のぞみの家","province":"東京都","city":"墨田区","address":"東京都墨田区亀沢4丁目18-11","lat":35.69903328,"lon":139.80824676},{"name":"ステップ学級","province":"東京都","city":"墨田区","address":"東京都墨田区吾妻橋2丁目18-12","lat":35.71039053,"lon":139.80252647},{"name":"文花子育てひろば","province":"東京都","city":"墨田区","address":"東京都墨田区文花1丁目20-3","lat":35.7104113,"lon":139.82265804},{"name":"本所防災備蓄倉庫","province":"東京都","city":"墨田区","address":"東京都墨田区本所2丁目6-9","lat":35.70300508,"lon":139.8007777},{"name":"白鬚東防災備蓄倉庫","province":"東京都","city":"墨田区","address":"東京都墨田区堤通2丁目7-13","lat":35.73475624,"lon":139.81720018},{"name":"国技館内防災備蓄倉庫","province":"東京都","city":"墨田区","address":"東京都墨田区横網1丁目3-28","lat":35.69721965,"lon":139.79360694},{"name":"京島防災備蓄倉庫","province":"東京都","city":"墨田区","address":"東京都墨田区京島2丁目15-5","lat":35.71313356,"lon":139.82108025},{"name":"東向島防災備蓄倉庫","province":"東京都","city":"墨田区","address":"東京都墨田区東向島4丁目8-12","lat":35.72759893,"lon":139.8155317},{"name":"庁舎内防災備蓄倉庫","province":"東京都","city":"墨田区","address":"東京都墨田区吾妻橋1丁目23-20","lat":35.71072382,"lon":139.80149602},{"name":"横川防災備蓄倉庫","province":"東京都","city":"墨田区","address":"東京都墨田区横川5丁目9-1","lat":35.70517431,"lon":139.81750923},{"name":"業平防災備蓄倉庫","province":"東京都","city":"墨田区","address":"東京都墨田区業平3丁目2-5","lat":35.70634375,"lon":139.8130676},{"name":"国際ファッションセンタービル内防災備蓄倉庫","province":"東京都","city":"墨田区","address":"東京都墨田区横網1丁目6-1","lat":35.69830846,"lon":139.79685114},{"name":"NTTドコモ墨田ビル内防災備蓄倉庫","province":"東京都","city":"墨田区","address":"東京都墨田区横網1丁目9-2","lat":35.69835288,"lon":139.79546506},{"name":"太平四丁目防災備蓄倉庫","province":"東京都","city":"墨田区","address":"東京都墨田区太平4丁目1-2","lat":35.70086065,"lon":139.81594032},{"name":"総合体育館防災備蓄倉庫","province":"東京都","city":"墨田区","address":"東京都墨田区錦糸4丁目15-1","lat":35.69947749,"lon":139.8171875},{"name":"スカイツリーウエストヤードロータリー防災備蓄倉庫","province":"東京都","city":"墨田区","address":"東京都墨田区押上1丁目1-2","lat":35.71005462,"lon":139.81070876},{"name":"本所地域プラザ防災備蓄倉庫","province":"東京都","city":"墨田区","address":"東京都墨田区本所1丁目13-4","lat":35.70316063,"lon":139.79876681},{"name":"京島三丁目コミュニティ住宅防災備蓄倉庫","province":"東京都","city":"墨田区","address":"東京都墨田区京島3丁目3-1","lat":35.71526948,"lon":139.82097199},{"name":"第7コミュニティ住宅防災備蓄倉庫","province":"東京都","city":"墨田区","address":"東京都墨田区京島3丁目3-6","lat":35.71515563,"lon":139.82138862},{"name":"第8コミュニティ住宅防災備蓄倉庫","province":"東京都","city":"墨田区","address":"東京都墨田区京島3丁目52-8","lat":35.71478047,"lon":139.82434659},{"name":"ホンダカーズ東京押上店防災備蓄倉庫","province":"東京都","city":"墨田区","address":"東京都墨田区押上2丁目22-4","lat":35.71483839,"lon":139.81445312},{"name":"京成押上ビル防災備蓄倉庫","province":"東京都","city":"墨田区","address":"東京都墨田区押上1丁目10-3","lat":35.71022161,"lon":139.81391135},{"name":"イーストコア曳舟二番館防災備蓄倉庫","province":"東京都","city":"墨田区","address":"東京都墨田区京島1丁目1-2","lat":35.71600802,"lon":139.81705298},{"name":"東武曳舟駅防災備蓄倉庫","province":"東京都","city":"墨田区","address":"東京都墨田区東向島2丁目26","lat":35.7184357,"lon":139.81642547},{"name":"八広防災備蓄倉庫","province":"東京都","city":"墨田区","address":"東京都墨田区八広6丁目35-1","lat":35.72651028,"lon":139.82940171},{"name":"総合運動場防災備蓄倉庫","province":"東京都","city":"墨田区","address":"東京都墨田区堤通2丁目11-1","lat":35.73905274,"lon":139.81669975},{"name":"情報経営イノベーション専門職大学防災備蓄倉庫","province":"東京都","city":"墨田区","address":"東京都墨田区文花1丁目18-13","lat":35.71137807,"lon":139.82328004},{"name":"アパホテル防災備蓄倉庫","province":"東京都","city":"墨田区","address":"東京都墨田区横網1丁目11-10","lat":35.69741131,"lon":139.79426523},{"name":"両国リバーセンター防災備蓄倉庫","province":"東京都","city":"墨田区","address":"東京都墨田区横網1丁目2-13","lat":35.6978029,"lon":139.79244854},{"name":"関東マツダ墨田店防災備蓄倉庫","province":"東京都","city":"墨田区","address":"東京都墨田区立花5丁目1-8","lat":35.71308031,"lon":139.8281545},{"name":"東墨田会館","province":"東京都","city":"墨田区","address":"東京都墨田区東墨田2丁目12-9","lat":35.72135158,"lon":139.83258985},{"name":"江東橋児童館","province":"東京都","city":"墨田区","address":"墨田区江東橋一丁目15番4号","lat":35.695885,"lon":139.809697},{"name":"東向島児童館分館","province":"東京都","city":"墨田区","address":"墨田区京島一丁目44番21号","lat":35.719301,"lon":139.820973},{"name":"立川児童館","province":"東京都","city":"墨田区","address":"墨田区立川一丁目5番2号","lat":35.690501,"lon":139.799531},{"name":"中川児童館","province":"東京都","city":"墨田区","address":"墨田区立花五丁目18番9号","lat":35.712947,"lon":139.831038},{"name":"八広はなみずき児童館","province":"東京都","city":"墨田区","address":"墨田区八広四丁目27番8号","lat":35.724575,"lon":139.829421},{"name":"さくら橋コミュニティセンター","province":"東京都","city":"墨田区","address":"墨田区向島二丁目3番8号","lat":35.713681,"lon":139.805844},{"name":"わんぱく天国","province":"東京都","city":"墨田区","address":"墨田区押上一丁目47番8号","lat":35.709275,"lon":139.817281},{"name":"両国子育てひろば","province":"東京都","city":"墨田区","address":"墨田区横網一丁目2番13号ヒューリック両国リバーセンター","lat":35.697824,"lon":139.792408},{"name":"文花子育てひろば","province":"東京都","city":"墨田区","address":"墨田区文花一丁目20番7号","lat":35.710609,"lon":139.822403},{"name":"すみだファミリー・サポート・センター","province":"東京都","city":"墨田区","address":"墨田区亀沢三丁目20番11号関根ビル4階","lat":35.697483,"lon":139.803467},{"name":"浅草通り押上側","province":"東京都","city":"墨田区","address":"東京都墨田区業平2丁目17-9","lat":35.70920755,"lon":139.81204218},{"name":"浅草通り業平側","province":"東京都","city":"墨田区","address":"東京都墨田区業平3丁目13","lat":35.70864096,"lon":139.81275611},{"name":"駅前","province":"東京都","city":"墨田区","address":"東京都墨田区押上1丁目8-25","lat":35.71136332,"lon":139.81407504},{"name":"桜橋通り際仮設","province":"東京都","city":"墨田区","address":"東京都墨田区押上2丁目26","lat":35.71233565,"lon":139.81485838},{"name":"第二","province":"東京都","city":"墨田区","address":"東京都墨田区押上2丁目26","lat":35.71233565,"lon":139.81485838},{"name":"中之郷","province":"東京都","city":"墨田区","address":"東京都墨田区押上2丁目17","lat":35.71237432,"lon":139.81305294},{"name":"南口臨時","province":"東京都","city":"墨田区","address":"東京都墨田区押上1丁目25","lat":35.7097467,"lon":139.81495027},{"name":"第一","province":"東京都","city":"墨田区","address":"東京都墨田区文花2丁目20","lat":35.7103999,"lon":139.82737141},{"name":"第二","province":"東京都","city":"墨田区","address":"東京都墨田区文花2丁目19","lat":35.71059997,"lon":139.82644927},{"name":"北","province":"東京都","city":"墨田区","address":"東京都墨田区墨田5丁目50","lat":35.73393424,"lon":139.82069698},{"name":"南","province":"東京都","city":"墨田区","address":"東京都墨田区墨田3丁目31-12","lat":35.73230947,"lon":139.82037493},{"name":"北口","province":"東京都","city":"墨田区","address":"東京都墨田区菊川3丁目16","lat":35.68865408,"lon":139.80683132},{"name":"北口第二","province":"東京都","city":"墨田区","address":"東京都墨田区菊川3丁目17-2","lat":35.68928454,"lon":139.8065591},{"name":"新大橋通り北","province":"東京都","city":"墨田区","address":"東京都墨田区菊川2丁目6","lat":35.68860965,"lon":139.80549549},{"name":"新大橋通り南","province":"東京都","city":"墨田区","address":"東京都墨田区菊川2丁目5","lat":35.6879903,"lon":139.8052706},{"name":"北斎通り路上","province":"東京都","city":"墨田区","address":"東京都墨田区錦糸1丁目5","lat":35.69772229,"lon":139.81023003},{"name":"牡丹橋通り","province":"東京都","city":"墨田区","address":"東京都墨田区江東橋3丁目1","lat":35.69318953,"lon":139.81466311},{"name":"南口地下","province":"東京都","city":"墨田区","address":"東京都墨田区江東橋3丁目14-4","lat":35.69607523,"lon":139.81461854},{"name":"四ツ目通り路上","province":"東京都","city":"墨田区","address":"東京都墨田区錦糸1丁目2","lat":35.6968835,"lon":139.81061897},{"name":"西臨時","province":"東京都","city":"墨田区","address":"東京都墨田区京島1丁目39","lat":35.71863582,"lon":139.81964728},{"name":"南臨時","province":"東京都","city":"墨田区","address":"東京都墨田区京島1丁目1","lat":35.71623582,"lon":139.81742796},{"name":"南臨時","province":"東京都","city":"墨田区","address":"東京都墨田区京島1丁目8","lat":35.71598863,"lon":139.81777512},{"name":"仮設","province":"東京都","city":"墨田区","address":"東京都墨田区業平1丁目16","lat":35.70923509,"lon":139.80794806},{"name":"第一","province":"東京都","city":"墨田区","address":"東京都墨田区向島1丁目32","lat":35.70982394,"lon":139.80806183},{"name":"第二","province":"東京都","city":"墨田区","address":"東京都墨田区業平1丁目17-5","lat":35.70934065,"lon":139.8082591},{"name":"駅前","province":"東京都","city":"墨田区","address":"東京都墨田区立花4丁目23-7","lat":35.70720253,"lon":139.83185169},{"name":"線路沿","province":"東京都","city":"墨田区","address":"東京都墨田区立花4丁目23-7","lat":35.70720253,"lon":139.83185169},{"name":"西臨時","province":"東京都","city":"墨田区","address":"東京都墨田区立花1丁目23","lat":35.70658864,"lon":139.83072412},{"name":"高架下","province":"東京都","city":"墨田区","address":"東京都墨田区東向島4丁目35","lat":35.72618799,"lon":139.81953645},{"name":"高架下","province":"東京都","city":"墨田区","address":"東京都墨田区東向島2丁目27","lat":35.71824129,"lon":139.8169976},{"name":"東","province":"東京都","city":"墨田区","address":"東京都墨田区東向島2丁目27","lat":35.71824129,"lon":139.8169976},{"name":"第一","province":"東京都","city":"墨田区","address":"東京都墨田区吾妻橋2丁目2","lat":35.70834626,"lon":139.80381824},{"name":"第二","province":"東京都","city":"墨田区","address":"東京都墨田区吾妻橋2丁目3","lat":35.708849,"lon":139.80373206},{"name":"第三","province":"東京都","city":"墨田区","address":"東京都墨田区吾妻橋3丁目6-15","lat":35.70901011,"lon":139.80632333},{"name":"第四","province":"東京都","city":"墨田区","address":"東京都墨田区吾妻橋3丁目1","lat":35.70828516,"lon":139.80487087},{"name":"西臨時","province":"東京都","city":"墨田区","address":"東京都墨田区吾妻橋1丁目12","lat":35.70811849,"lon":139.79838292},{"name":"高架下","province":"東京都","city":"墨田区","address":"東京都墨田区八広6丁目25","lat":35.72683527,"lon":139.82786582},{"name":"新四ツ木橋下","province":"東京都","city":"墨田区","address":"東京都墨田区八広6丁目5","lat":35.72904346,"lon":139.82710758},{"name":"第一","province":"東京都","city":"墨田区","address":"東京都墨田区八広6丁目35-1","lat":35.72651028,"lon":139.82940171},{"name":"第二","province":"東京都","city":"墨田区","address":"東京都墨田区八広6丁目32","lat":35.7268603,"lon":139.83024328},{"name":"高架下","province":"東京都","city":"墨田区","address":"東京都墨田区亀沢1丁目1","lat":35.6958282,"lon":139.79822079},{"name":"国技館通り路上","province":"東京都","city":"墨田区","address":"東京都墨田区横網1丁目3","lat":35.69637252,"lon":139.79309595},{"name":"西口","province":"東京都","city":"墨田区","address":"東京都墨田区横網1丁目2","lat":35.69716407,"lon":139.79182642},{"name":"東口","province":"東京都","city":"墨田区","address":"東京都墨田区横網1丁目3","lat":35.69637252,"lon":139.79309595},{"name":"八広防災備蓄倉庫","province":"東京都","city":"墨田区","address":"東京都墨田区八広6丁目35-1","lat":35.72651028,"lon":139.82940171},{"name":"白鬚東防災備蓄倉庫","province":"東京都","city":"墨田区","address":"東京都墨田区堤通2丁目7-13","lat":35.73475624,"lon":139.81720018},{"name":"国技館内防災備蓄倉庫","province":"東京都","city":"墨田区","address":"東京都墨田区横網1丁目3-28","lat":35.69721965,"lon":139.79360694},{"name":"文花防災備蓄倉庫","province":"東京都","city":"墨田区","address":"東京都墨田区文花1丁目19-1","lat":35.71053903,"lon":139.82370512},{"name":"京島防災備蓄倉庫","province":"東京都","city":"墨田区","address":"東京都墨田区京島2丁目15-5","lat":35.71313356,"lon":139.82108025},{"name":"東向島防災備蓄倉庫","province":"東京都","city":"墨田区","address":"東京都墨田区東向島4丁目8-12","lat":35.72759893,"lon":139.8155317},{"name":"横川防災備蓄倉庫","province":"東京都","city":"墨田区","address":"東京都墨田区横川5丁目9-1","lat":35.70517431,"lon":139.81750923},{"name":"庁舎内防災備蓄倉庫","province":"東京都","city":"墨田区","address":"東京都墨田区吾妻橋1丁目23-20","lat":35.71072382,"lon":139.80149602},{"name":"業平防災備蓄倉庫","province":"東京都","city":"墨田区","address":"東京都墨田区業平3丁目2-5","lat":35.70634375,"lon":139.8130676},{"name":"国際ファッションセンタービル内防災備蓄倉庫","province":"東京都","city":"墨田区","address":"東京都墨田区横網1丁目6-1","lat":35.69830846,"lon":139.79685114},{"name":"NTTドコモ墨田ビル内防災備蓄倉庫","province":"東京都","city":"墨田区","address":"東京都墨田区横網1丁目9-2","lat":35.69835288,"lon":139.79546506},{"name":"太平四丁目防災備蓄倉庫","province":"東京都","city":"墨田区","address":"東京都墨田区太平4丁目1-2","lat":35.70086065,"lon":139.81594032},{"name":"東墨田防災備蓄倉庫","province":"東京都","city":"墨田区","address":"東京都墨田区東墨田2丁目12-9","lat":35.72135158,"lon":139.83258985},{"name":"総合体育館防災備蓄倉庫","province":"東京都","city":"墨田区","address":"東京都墨田区錦糸4丁目15-1","lat":35.69947749,"lon":139.8171875},{"name":"東京スカイツリータウンウエストヤード総合ロータリー備蓄倉庫","province":"東京都","city":"墨田区","address":"東京都墨田区押上1丁目1-2","lat":35.71005462,"lon":139.81070876},{"name":"本所地域プラザ防災備蓄倉庫","province":"東京都","city":"墨田区","address":"東京都墨田区本所1丁目13-4","lat":35.70316063,"lon":139.79876681},{"name":"京島三丁目コミュニティ住宅防災備蓄倉庫","province":"東京都","city":"墨田区","address":"東京都墨田区京島3丁目3-1","lat":35.71526948,"lon":139.82097199},{"name":"第7コミュニティ住宅防災備蓄倉庫","province":"東京都","city":"墨田区","address":"東京都墨田区京島3丁目3-6","lat":35.71515563,"lon":139.82138862},{"name":"第8コミュニティ住宅防災備蓄庫","province":"東京都","city":"墨田区","address":"東京都墨田区京島3丁目52-8","lat":35.71478047,"lon":139.82434659},{"name":"20　ホンダカーズ東京押上店防災備蓄倉庫","province":"東京都","city":"墨田区","address":"東京都墨田区押上2丁目22-4","lat":35.71483839,"lon":139.81445312},{"name":"21　京成押上ビル防災備蓄倉庫","province":"東京都","city":"墨田区","address":"東京都墨田区押上1丁目10-3","lat":35.71022161,"lon":139.81391135},{"name":"江東西工区","province":"東京都","city":"墨田区","address":"東京都墨田区両国1丁目12-5","lat":35.69562534,"lon":139.79045718},{"name":"墨田工区","province":"東京都","city":"墨田区","address":"東京都墨田区堤通1丁目16-4","lat":35.72574067,"lon":139.81097687},{"name":"平井橋水防倉庫","province":"東京都","city":"墨田区","address":"東京都墨田区立花3丁目29-10","lat":35.70835795,"lon":139.83697888},{"name":"墨田都税事務所","province":"東京都","city":"墨田区","address":"東京都墨田区業平1丁目7-4","lat":35.70787,"lon":139.809143},{"name":"東京都江戸東京博物館","province":"東京都","city":"墨田区","address":"東京都墨田区横網1丁目4-1","lat":35.69647,"lon":139.7957},{"name":"東京都江戸東京博物館","province":"東京都","city":"墨田区","address":"東京都墨田区横網1丁目4-1","lat":35.69691,"lon":139.7958},{"name":"東京都江戸東京博物館","province":"東京都","city":"墨田区","address":"東京都墨田区横網1丁目4-1","lat":35.69665,"lon":139.7958},{"name":"東京都江戸東京博物館","province":"東京都","city":"墨田区","address":"東京都墨田区横網1丁目4-1","lat":35.69675,"lon":139.7956},{"name":"東京都江戸東京博物館","province":"東京都","city":"墨田区","address":"東京都墨田区横網1丁目4-1","lat":35.69627,"lon":139.7958},{"name":"東京都江戸東京博物館","province":"東京都","city":"墨田区","address":"東京都墨田区横網1丁目4-1","lat":35.69623,"lon":139.7965},{"name":"東京都江戸東京博物館","province":"東京都","city":"墨田区","address":"東京都墨田区横網1丁目4-1","lat":35.69676,"lon":139.7957},{"name":"東京都江戸東京博物館","province":"東京都","city":"墨田区","address":"東京都墨田区横網1丁目4-1","lat":35.69639,"lon":139.7956},{"name":"地方独立行政法人東京都立病院機構　東京都立墨東病院","province":"東京都","city":"墨田区","address":"東京都墨田区江東橋4丁目23","lat":35.694554,"lon":139.818952},{"name":"東白鬚公園","province":"東京都","city":"墨田区","address":"東京都墨田区堤通2丁目2","lat":35.733624,"lon":139.813864},{"name":"東白鬚公園","province":"東京都","city":"墨田区","address":"東京都墨田区堤通2丁目2","lat":35.72915,"lon":139.811966},{"name":"東白鬚公園","province":"東京都","city":"墨田区","address":"東京都墨田区堤通2丁目2","lat":35.737694,"lon":139.81688},{"name":"横網町公園","province":"東京都","city":"墨田区","address":"東京都墨田区横網2丁目3-25","lat":35.699951,"lon":139.796874},{"name":"横網町公園","province":"東京都","city":"墨田区","address":"東京都墨田区横網2丁目3","lat":35.699272,"lon":139.795551},{"name":"向島百花園","province":"東京都","city":"墨田区","address":"東京都墨田区東向島3丁目18","lat":35.724189,"lon":139.815271},{"name":"向島百花園","province":"東京都","city":"墨田区","address":"東京都墨田区東向島3丁目18","lat":35.724158,"lon":139.815293},{"name":"都営浅草線本所吾妻橋駅","province":"東京都","city":"墨田区","address":"東京都墨田区吾妻橋3丁目1","lat":35.708358,"lon":139.804465},{"name":"都営浅草線本所吾妻橋駅","province":"東京都","city":"墨田区","address":"東京都墨田区吾妻橋3丁目1","lat":35.708419,"lon":139.804475},{"name":"都営新宿線菊川駅","province":"東京都","city":"墨田区","address":"東京都墨田区菊川2丁目6","lat":35.688422,"lon":139.80556},{"name":"都営大江戸線両国駅","province":"東京都","city":"墨田区","address":"東京都墨田区亀沢1丁目7","lat":35.696873,"lon":139.797477},{"name":"東京都水道局墨田営業所","province":"東京都","city":"墨田区","address":"東京都墨田区千歳2丁目2-11","lat":35.690458,"lon":139.795839},{"name":"墨田区役所","province":"東京都","city":"墨田区","address":"東京都墨田区吾妻橋1丁目23-20","lat":35.710644,"lon":139.801307},{"name":"向島保健センター","province":"東京都","city":"墨田区","address":"東京都墨田区東向島5丁目16-2","lat":35.725694,"lon":139.821112},{"name":"横川出張所","province":"東京都","city":"墨田区","address":"東京都墨田区横川5丁目10-1","lat":35.705927,"lon":139.816389},{"name":"八広地域プラザ","province":"東京都","city":"墨田区","address":"東京都墨田区八広4丁目35-17","lat":35.723478,"lon":139.829337},{"name":"八広地域プラザ","province":"東京都","city":"墨田区","address":"東京都墨田区八広4丁目35-17","lat":35.723403,"lon":139.829296},{"name":"本所地域プラザ","province":"東京都","city":"墨田区","address":"東京都墨田区本所1丁目13-4","lat":35.703099,"lon":139.798797},{"name":"横川コミュニティ会館","province":"東京都","city":"墨田区","address":"東京都墨田区横川5丁目9-1","lat":35.705118,"lon":139.817496},{"name":"横川コミュニティ会館","province":"東京都","city":"墨田区","address":"東京都墨田区横川5丁目9-1","lat":35.705118,"lon":139.817404},{"name":"横川コミュニティ会館","province":"東京都","city":"墨田区","address":"東京都墨田区横川5丁目9-1","lat":35.705076,"lon":139.817404},{"name":"梅若橋コミュニティ会館","province":"東京都","city":"墨田区","address":"東京都墨田区堤通2丁目9-1","lat":35.735354,"lon":139.816656},{"name":"東駒形コミュニティ会館","province":"東京都","city":"墨田区","address":"東京都墨田区東駒形4丁目14-1","lat":35.705476,"lon":139.807771},{"name":"東墨田東公園","province":"東京都","city":"墨田区","address":"東京都墨田区東墨田3丁目19","lat":35.718431,"lon":139.837439},{"name":"ひきふね図書館","province":"東京都","city":"墨田区","address":"東京都墨田区京島1丁目36","lat":35.717059,"lon":139.819673},{"name":"ひきふね図書館","province":"東京都","city":"墨田区","address":"東京都墨田区京島1丁目36-1","lat":35.716857,"lon":139.819261},{"name":"ひきふね図書館","province":"東京都","city":"墨田区","address":"東京都墨田区京島1丁目36","lat":35.717003,"lon":139.819467},{"name":"ひきふね図書館","province":"東京都","city":"墨田区","address":"東京都墨田区京島1丁目36","lat":35.717026,"lon":139.819466},{"name":"立花図書館","province":"東京都","city":"墨田区","address":"東京都墨田区立花6丁目8-1","lat":35.710646,"lon":139.834938},{"name":"みどりコミュニティセンター","province":"東京都","city":"墨田区","address":"東京都墨田区緑3丁目7-3","lat":35.693553,"lon":139.803237},{"name":"すみだスポーツ健康センター","province":"東京都","city":"墨田区","address":"東京都墨田区東墨田1丁目6-1","lat":35.716461,"lon":139.830695},{"name":"すみだスポーツ健康センター","province":"東京都","city":"墨田区","address":"東京都墨田区東墨田1丁目6-1","lat":35.716509,"lon":139.830372},{"name":"すみだ郷土文化資料館","province":"東京都","city":"墨田区","address":"東京都墨田区向島2丁目3-5","lat":35.713875,"lon":139.805844},{"name":"すみだ生涯学習センター","province":"東京都","city":"墨田区","address":"東京都墨田区東向島2丁目38-7","lat":35.721243,"lon":139.818603},{"name":"すみだ生涯学習センター","province":"東京都","city":"墨田区","address":"東京都墨田区東向島2丁目38-7","lat":35.721144,"lon":139.818474},{"name":"すみだ北斎美術館","province":"東京都","city":"墨田区","address":"東京都墨田区亀沢2丁目7","lat":35.696255,"lon":139.800334},{"name":"すみだトリフォニーホール","province":"東京都","city":"墨田区","address":"東京都墨田区錦糸1丁目2-3","lat":35.697119,"lon":139.810005},{"name":"すみだ産業会館","province":"東京都","city":"墨田区","address":"東京都墨田区江東橋3丁目9-10","lat":35.695121,"lon":139.813771},{"name":"両国公園","province":"東京都","city":"墨田区","address":"東京都墨田区両国4丁目25","lat":35.693745,"lon":139.796132},{"name":"横川公園","province":"東京都","city":"墨田区","address":"東京都墨田区東駒形4丁目18","lat":35.706794,"lon":139.806817},{"name":"錦糸公園(東)","province":"東京都","city":"墨田区","address":"東京都墨田区錦糸4丁目15","lat":35.699337,"lon":139.817821},{"name":"ふじのき公園","province":"東京都","city":"墨田区","address":"東京都墨田区東向島2丁目7","lat":35.71734,"lon":139.815424},{"name":"ひいらぎ公園","province":"東京都","city":"墨田区","address":"東京都墨田区八広1丁目16","lat":35.720225,"lon":139.82238},{"name":"東向島北公園","province":"東京都","city":"墨田区","address":"東京都墨田区東向島4丁目12","lat":35.725569,"lon":139.815881},{"name":"八広中央公園","province":"東京都","city":"墨田区","address":"東京都墨田区八広3丁目13","lat":35.719212,"lon":139.827258},{"name":"どんぐり児童遊園","province":"東京都","city":"墨田区","address":"東京都墨田区緑3丁目12","lat":35.694579,"lon":139.804697},{"name":"かつら児童遊園","province":"東京都","city":"墨田区","address":"東京都墨田区墨田3丁目36","lat":35.731337,"lon":139.820688},{"name":"六軒児童遊園","province":"東京都","city":"墨田区","address":"東京都墨田区立花3丁目18","lat":35.706101,"lon":139.834398},{"name":"中之郷児童遊園","province":"東京都","city":"墨田区","address":"東京都墨田区押上2丁目12","lat":35.712326,"lon":139.81225},{"name":"八広第一児童遊園","province":"東京都","city":"墨田区","address":"東京都墨田区八広5丁目7","lat":35.724305,"lon":139.823966},{"name":"くるみ児童遊園","province":"東京都","city":"墨田区","address":"東京都墨田区業平5丁目1","lat":35.706257,"lon":139.816161},{"name":"日進公園","province":"東京都","city":"墨田区","address":"東京都墨田区亀沢3丁目24","lat":35.698564,"lon":139.804482},{"name":"若宮公園","province":"東京都","city":"墨田区","address":"東京都墨田区本所2丁目2","lat":35.702289,"lon":139.801135},{"name":"隅田第二児童遊園","province":"東京都","city":"墨田区","address":"東京都墨田区墨田4丁目8","lat":35.732715,"lon":139.821937},{"name":"すみだボランティアセンター","province":"東京都","city":"墨田区","address":"東京都墨田区東向島2丁目17-14","lat":35.718426,"lon":139.815648},{"name":"立花公園","province":"東京都","city":"墨田区","address":"東京都墨田区立花1丁目27","lat":35.70497,"lon":139.828861},{"name":"墨田二丁目児童遊園","province":"東京都","city":"墨田区","address":"東京都墨田区墨田2丁目42","lat":35.732113,"lon":139.818787},{"name":"両国橋際","province":"東京都","city":"墨田区","address":"東京都墨田区両国1丁目11","lat":35.693893,"lon":139.789772},{"name":"江東橋際公衆便所","province":"東京都","city":"墨田区","address":"東京都墨田区江東橋1丁目8","lat":35.694991,"lon":139.809163},{"name":"江東橋公園","province":"東京都","city":"墨田区","address":"東京都墨田区江東橋2丁目4","lat":35.693908,"lon":139.811341},{"name":"錦糸町駅前公衆便所","province":"東京都","city":"墨田区","address":"東京都墨田区江東橋3丁目14","lat":35.696056,"lon":139.814536},{"name":"錦糸堀公園","province":"東京都","city":"墨田区","address":"東京都墨田区江東橋4丁目17","lat":35.694883,"lon":139.816527},{"name":"緑町公園","province":"東京都","city":"墨田区","address":"東京都墨田区亀沢2丁目7","lat":35.696814,"lon":139.800654},{"name":"まち歩きトイレ業平橋","province":"東京都","city":"墨田区","address":"東京都墨田区東駒形4丁目15","lat":35.708502,"lon":139.807401},{"name":"錦糸公園内","province":"東京都","city":"墨田区","address":"東京都墨田区錦糸4丁目15","lat":35.698551,"lon":139.81509},{"name":"京成橋際","province":"東京都","city":"墨田区","address":"東京都墨田区業平4丁目17","lat":35.709468,"lon":139.813995},{"name":"柳島橋際","province":"東京都","city":"墨田区","address":"東京都墨田区業平5丁目7","lat":35.70778,"lon":139.818316},{"name":"東武橋際","province":"東京都","city":"墨田区","address":"東京都墨田区向島1丁目32","lat":35.709669,"lon":139.808324},{"name":"まち歩きトイレ言問","province":"東京都","city":"墨田区","address":"東京都墨田区向島2丁目1","lat":35.713392,"lon":139.80515},{"name":"両国駅西口公衆便所","province":"東京都","city":"墨田区","address":"東京都墨田区横網1丁目3","lat":35.696124,"lon":139.792019},{"name":"まち歩きトイレ錦糸","province":"東京都","city":"墨田区","address":"東京都墨田区錦糸1丁目1","lat":35.697412,"lon":139.808969},{"name":"押上駅前自転車駐車場内","province":"東京都","city":"墨田区","address":"東京都墨田区押上1丁目8-25","lat":35.710999,"lon":139.813917},{"name":"東墨田一丁目","province":"東京都","city":"墨田区","address":"東京都墨田区東墨田1丁目10","lat":35.716234,"lon":139.832784},{"name":"立花五丁目","province":"東京都","city":"墨田区","address":"東京都墨田区立花5丁目50","lat":35.713365,"lon":139.833487},{"name":"平井橋際","province":"東京都","city":"墨田区","address":"東京都墨田区立花3丁目29","lat":35.708485,"lon":139.837197},{"name":"小村井","province":"東京都","city":"墨田区","address":"東京都墨田区文花2丁目1","lat":35.708249,"lon":139.825395},{"name":"墨田区社会福祉会館","province":"東京都","city":"墨田区","address":"東京都墨田区東墨田2丁目7-1","lat":35.719067,"lon":139.830251},{"name":"すみだ福祉保健センター","province":"東京都","city":"墨田区","address":"東京都墨田区向島3丁目36-7","lat":35.713311,"lon":139.810886},{"name":"すみだ福祉保健センター","province":"東京都","city":"墨田区","address":"東京都墨田区向島3丁目36-7","lat":35.713307,"lon":139.810885},{"name":"すみだ福祉保健センター","province":"東京都","city":"墨田区","address":"東京都墨田区向島3丁目36-7","lat":35.713334,"lon":139.810767},{"name":"墨田区弓道場","province":"東京都","city":"墨田区","address":"東京都墨田区江東橋4丁目1-3","lat":35.693386,"lon":139.817352},{"name":"子育て支援総合センター","province":"東京都","city":"墨田区","address":"東京都墨田区京島1丁目35-9","lat":35.716819,"lon":139.819728},{"name":"梅若ゆうゆう館","province":"東京都","city":"墨田区","address":"東京都墨田区墨田1丁目4-4","lat":35.72908,"lon":139.815151},{"name":"立花ゆうゆう館","province":"東京都","city":"墨田区","address":"東京都墨田区立花6丁目8-1","lat":35.710599,"lon":139.834969},{"name":"いきいきプラザ","province":"東京都","city":"墨田区","address":"東京都墨田区文花1丁目32-2","lat":35.707543,"lon":139.823451},{"name":"すみだ女性センター","province":"東京都","city":"墨田区","address":"東京都墨田区押上2丁目12-7","lat":35.712918,"lon":139.812163},{"name":"墨田区総合運動場","province":"東京都","city":"墨田区","address":"東京都墨田区堤通2丁目11","lat":35.737941,"lon":139.816077},{"name":"墨田区総合運動場","province":"東京都","city":"墨田区","address":"東京都墨田区堤通2丁目11","lat":35.73826,"lon":139.816194},{"name":"両国屋内プール","province":"東京都","city":"墨田区","address":"東京都墨田区横網1丁目8-1","lat":35.697672,"lon":139.796324},{"name":"両国屋内プール","province":"東京都","city":"墨田区","address":"東京都墨田区横網1丁目8-1","lat":35.697926,"lon":139.796428},{"name":"スポーツプラザ梅若","province":"東京都","city":"墨田区","address":"東京都墨田区墨田1丁目4-4","lat":35.72904,"lon":139.81565},{"name":"両国子育てひろば保育室","province":"東京都","city":"墨田区","address":"東京都墨田区横網1丁目2-13","lat":35.697787,"lon":139.792418},{"name":"両国子育てひろば","province":"東京都","city":"墨田区","address":"東京都墨田区横網1丁目2-13","lat":35.697787,"lon":139.792418},{"name":"文花子育てひろば","province":"東京都","city":"墨田区","address":"東京都墨田区文花1丁目20-7","lat":35.710614,"lon":139.822368},{"name":"墨田区総合体育館","province":"東京都","city":"墨田区","address":"東京都墨田区錦糸4丁目15-1","lat":35.699324,"lon":139.816798},{"name":"墨田区総合体育館","province":"東京都","city":"墨田区","address":"東京都墨田区錦糸4丁目15-1","lat":35.699732,"lon":139.816784},{"name":"墨田区総合体育館","province":"東京都","city":"墨田区","address":"東京都墨田区錦糸4丁目15-1","lat":35.699316,"lon":139.81745},{"name":"墨田区総合体育館","province":"東京都","city":"墨田区","address":"東京都墨田区錦糸4丁目15-1","lat":35.699794,"lon":139.817374},{"name":"墨田区総合体育館","province":"東京都","city":"墨田区","address":"東京都墨田区錦糸4丁目15-1","lat":35.699292,"lon":139.817424},{"name":"墨田区総合体育館","province":"東京都","city":"墨田区","address":"東京都墨田区錦糸4丁目15-1","lat":35.699786,"lon":139.817067},{"name":"墨田区総合体育館","province":"東京都","city":"墨田区","address":"東京都墨田区錦糸4丁目15-1","lat":35.699305,"lon":139.816816},{"name":"墨田区総合体育館","province":"東京都","city":"墨田区","address":"東京都墨田区錦糸4丁目15-1","lat":35.699297,"lon":139.817421},{"name":"墨田区総合体育館","province":"東京都","city":"墨田区","address":"東京都墨田区錦糸4丁目15-1","lat":35.699804,"lon":139.81726},{"name":"墨田区総合体育館","province":"東京都","city":"墨田区","address":"東京都墨田区錦糸4丁目15-1","lat":35.699303,"lon":139.817335},{"name":"荒川河川敷運動場","province":"東京都","city":"墨田区","address":"東京都墨田区墨田4丁目","lat":35.736513,"lon":139.82236},{"name":"荒川河川敷運動場","province":"東京都","city":"墨田区","address":"東京都墨田区墨田4丁目","lat":35.732205,"lon":139.826014},{"name":"荒川河川敷運動場","province":"東京都","city":"墨田区","address":"東京都墨田区八広6丁目","lat":35.730235,"lon":139.828012},{"name":"屋外体育施設管理事務所錦糸支所","province":"東京都","city":"墨田区","address":"東京都墨田区錦糸4丁目15","lat":35.698556,"lon":139.815057},{"name":"五間堀公園","province":"東京都","city":"墨田区","address":"東京都墨田区立川1丁目1","lat":35.689435,"lon":139.798429},{"name":"本所防災備蓄倉庫","province":"東京都","city":"墨田区","address":"東京都墨田区本所2丁目6-9","lat":35.70300508,"lon":139.8007777},{"name":"白鬚東防災備蓄倉庫","province":"東京都","city":"墨田区","address":"東京都墨田区堤通2丁目7-13","lat":35.73475624,"lon":139.81720018},{"name":"国技館内防災備蓄倉庫","province":"東京都","city":"墨田区","address":"東京都墨田区横網1丁目3-28","lat":35.69721965,"lon":139.79360694},{"name":"京島防災備蓄倉庫","province":"東京都","city":"墨田区","address":"東京都墨田区京島2丁目15-5","lat":35.71313356,"lon":139.82108025},{"name":"東向島防災備蓄倉庫","province":"東京都","city":"墨田区","address":"東京都墨田区東向島4丁目8-12","lat":35.72759893,"lon":139.8155317},{"name":"庁舎内防災備蓄倉庫","province":"東京都","city":"墨田区","address":"東京都墨田区吾妻橋1丁目23-20","lat":35.71072382,"lon":139.80149602},{"name":"横川防災備蓄倉庫","province":"東京都","city":"墨田区","address":"東京都墨田区横川5丁目9-1","lat":35.70517431,"lon":139.81750923},{"name":"業平防災備蓄倉庫","province":"東京都","city":"墨田区","address":"東京都墨田区業平3丁目2-5","lat":35.70634375,"lon":139.8130676},{"name":"国際ファッションセンタービル内防災備蓄倉庫","province":"東京都","city":"墨田区","address":"東京都墨田区横網1丁目6-1","lat":35.69830846,"lon":139.79685114},{"name":"NTTドコモ墨田ビル内防災備蓄倉庫","province":"東京都","city":"墨田区","address":"東京都墨田区横網1丁目9-2","lat":35.69835288,"lon":139.79546506},{"name":"太平四丁目防災備蓄倉庫","province":"東京都","city":"墨田区","address":"東京都墨田区太平4丁目1-2","lat":35.70086065,"lon":139.81594032},{"name":"総合体育館防災備蓄倉庫","province":"東京都","city":"墨田区","address":"東京都墨田区錦糸4丁目15-1","lat":35.69947749,"lon":139.8171875},{"name":"スカイツリーウエストヤードロータリー防災備蓄倉庫","province":"東京都","city":"墨田区","address":"東京都墨田区押上1丁目1-2","lat":35.71005462,"lon":139.81070876},{"name":"本所地域プラザ防災備蓄倉庫","province":"東京都","city":"墨田区","address":"東京都墨田区本所1丁目13-4","lat":35.70316063,"lon":139.79876681},{"name":"京島三丁目コミュニティ住宅防災備蓄倉庫","province":"東京都","city":"墨田区","address":"東京都墨田区京島3丁目3-1","lat":35.71526948,"lon":139.82097199},{"name":"第7コミュニティ住宅防災備蓄倉庫","province":"東京都","city":"墨田区","address":"東京都墨田区京島3丁目3-6","lat":35.71515563,"lon":139.82138862},{"name":"第8コミュニティ住宅防災備蓄倉庫","province":"東京都","city":"墨田区","address":"東京都墨田区京島3丁目52-8","lat":35.71478047,"lon":139.82434659},{"name":"ホンダカーズ東京押上店防災備蓄倉庫","province":"東京都","city":"墨田区","address":"東京都墨田区押上2丁目22-4","lat":35.71483839,"lon":139.81445312},{"name":"京成押上ビル防災備蓄倉庫","province":"東京都","city":"墨田区","address":"東京都墨田区押上1丁目10-3","lat":35.71022161,"lon":139.81391135},{"name":"イーストコア曳舟二番館防災備蓄倉庫","province":"東京都","city":"墨田区","address":"東京都墨田区京島1丁目1-2","lat":35.71600802,"lon":139.81705298},{"name":"東武曳舟駅防災備蓄倉庫","province":"東京都","city":"墨田区","address":"東京都墨田区東向島2丁目26","lat":35.7184357,"lon":139.81642547},{"name":"八広防災備蓄倉庫","province":"東京都","city":"墨田区","address":"東京都墨田区八広6丁目35-1","lat":35.72651028,"lon":139.82940171},{"name":"総合運動場防災備蓄倉庫","province":"東京都","city":"墨田区","address":"東京都墨田区堤通2丁目11-1","lat":35.73905274,"lon":139.81669975},{"name":"情報経営イノベーション専門職大学防災備蓄倉庫","province":"東京都","city":"墨田区","address":"東京都墨田区文花1丁目18-13","lat":35.71137807,"lon":139.82328004},{"name":"アパホテル防災備蓄倉庫","province":"東京都","city":"墨田区","address":"東京都墨田区横網1丁目11-10","lat":35.69741131,"lon":139.79426523},{"name":"両国リバーセンター防災備蓄倉庫","province":"東京都","city":"墨田区","address":"東京都墨田区横網1丁目2-13","lat":35.6978029,"lon":139.79244854},{"name":"関東マツダ墨田店防災備蓄倉庫","province":"東京都","city":"墨田区","address":"東京都墨田区立花5丁目1-8","lat":35.71308031,"lon":139.8281545},{"name":"東墨田会館","province":"東京都","city":"墨田区","address":"東京都墨田区東墨田2丁目12-9","lat":35.72135158,"lon":139.83258985},{"name":"浅草通り押上側","province":"東京都","city":"墨田区","address":"東京都墨田区業平2丁目17-9","lat":35.70920755,"lon":139.81204218},{"name":"浅草通り業平側","province":"東京都","city":"墨田区","address":"東京都墨田区業平3丁目13","lat":35.70864096,"lon":139.81275611},{"name":"駅前","province":"東京都","city":"墨田区","address":"東京都墨田区押上1丁目8-25","lat":35.71136332,"lon":139.81407504},{"name":"桜橋通り際仮設","province":"東京都","city":"墨田区","address":"東京都墨田区押上2丁目26","lat":35.71233565,"lon":139.81485838},{"name":"第二","province":"東京都","city":"墨田区","address":"東京都墨田区押上2丁目26","lat":35.71233565,"lon":139.81485838},{"name":"中之郷","province":"東京都","city":"墨田区","address":"東京都墨田区押上2丁目17","lat":35.71237432,"lon":139.81305294},{"name":"南口臨時","province":"東京都","city":"墨田区","address":"東京都墨田区押上1丁目25","lat":35.7097467,"lon":139.81495027},{"name":"第一","province":"東京都","city":"墨田区","address":"東京都墨田区文花2丁目20","lat":35.7103999,"lon":139.82737141},{"name":"第二","province":"東京都","city":"墨田区","address":"東京都墨田区文花2丁目19","lat":35.71059997,"lon":139.82644927},{"name":"北","province":"東京都","city":"墨田区","address":"東京都墨田区墨田5丁目50","lat":35.73393424,"lon":139.82069698},{"name":"南","province":"東京都","city":"墨田区","address":"東京都墨田区墨田3丁目31-12","lat":35.73230947,"lon":139.82037493},{"name":"北口","province":"東京都","city":"墨田区","address":"東京都墨田区菊川3丁目16","lat":35.68865408,"lon":139.80683132},{"name":"北口第二","province":"東京都","city":"墨田区","address":"東京都墨田区菊川3丁目17-2","lat":35.68928454,"lon":139.8065591},{"name":"新大橋通り北","province":"東京都","city":"墨田区","address":"東京都墨田区菊川2丁目6","lat":35.68860965,"lon":139.80549549},{"name":"新大橋通り南","province":"東京都","city":"墨田区","address":"東京都墨田区菊川2丁目5","lat":35.6879903,"lon":139.8052706},{"name":"北斎通り路上","province":"東京都","city":"墨田区","address":"東京都墨田区錦糸1丁目5","lat":35.69772229,"lon":139.81023003},{"name":"牡丹橋通り","province":"東京都","city":"墨田区","address":"東京都墨田区江東橋3丁目1","lat":35.69318953,"lon":139.81466311},{"name":"南口地下","province":"東京都","city":"墨田区","address":"東京都墨田区江東橋3丁目14-4","lat":35.69607523,"lon":139.81461854},{"name":"四ツ目通り路上","province":"東京都","city":"墨田区","address":"東京都墨田区錦糸1丁目2","lat":35.6968835,"lon":139.81061897},{"name":"西臨時","province":"東京都","city":"墨田区","address":"東京都墨田区京島1丁目39","lat":35.71863582,"lon":139.81964728},{"name":"南臨時","province":"東京都","city":"墨田区","address":"東京都墨田区京島1丁目1","lat":35.71623582,"lon":139.81742796},{"name":"南臨時","province":"東京都","city":"墨田区","address":"東京都墨田区京島1丁目8","lat":35.71598863,"lon":139.81777512},{"name":"仮設","province":"東京都","city":"墨田区","address":"東京都墨田区業平1丁目16","lat":35.70923509,"lon":139.80794806},{"name":"第一","province":"東京都","city":"墨田区","address":"東京都墨田区向島1丁目32","lat":35.70982394,"lon":139.80806183},{"name":"第二","province":"東京都","city":"墨田区","address":"東京都墨田区業平1丁目17-5","lat":35.70934065,"lon":139.8082591},{"name":"駅前","province":"東京都","city":"墨田区","address":"東京都墨田区立花4丁目23-7","lat":35.70720253,"lon":139.83185169},{"name":"線路沿","province":"東京都","city":"墨田区","address":"東京都墨田区立花4丁目23-7","lat":35.70720253,"lon":139.83185169},{"name":"西臨時","province":"東京都","city":"墨田区","address":"東京都墨田区立花1丁目23","lat":35.70658864,"lon":139.83072412},{"name":"高架下","province":"東京都","city":"墨田区","address":"東京都墨田区東向島4丁目35","lat":35.72618799,"lon":139.81953645},{"name":"高架下","province":"東京都","city":"墨田区","address":"東京都墨田区東向島2丁目27","lat":35.71824129,"lon":139.8169976},{"name":"東","province":"東京都","city":"墨田区","address":"東京都墨田区東向島2丁目27","lat":35.71824129,"lon":139.8169976},{"name":"第一","province":"東京都","city":"墨田区","address":"東京都墨田区吾妻橋2丁目2","lat":35.70834626,"lon":139.80381824},{"name":"第二","province":"東京都","city":"墨田区","address":"東京都墨田区吾妻橋2丁目3","lat":35.708849,"lon":139.80373206},{"name":"第三","province":"東京都","city":"墨田区","address":"東京都墨田区吾妻橋3丁目6-15","lat":35.70901011,"lon":139.80632333},{"name":"第四","province":"東京都","city":"墨田区","address":"東京都墨田区吾妻橋3丁目1","lat":35.70828516,"lon":139.80487087},{"name":"西臨時","province":"東京都","city":"墨田区","address":"東京都墨田区吾妻橋1丁目12","lat":35.70811849,"lon":139.79838292},{"name":"高架下","province":"東京都","city":"墨田区","address":"東京都墨田区八広6丁目25","lat":35.72683527,"lon":139.82786582},{"name":"新四ツ木橋下","province":"東京都","city":"墨田区","address":"東京都墨田区八広6丁目5","lat":35.72904346,"lon":139.82710758},{"name":"第一","province":"東京都","city":"墨田区","address":"東京都墨田区八広6丁目35-1","lat":35.72651028,"lon":139.82940171},{"name":"第二","province":"東京都","city":"墨田区","address":"東京都墨田区八広6丁目32","lat":35.7268603,"lon":139.83024328},{"name":"高架下","province":"東京都","city":"墨田区","address":"東京都墨田区亀沢1丁目1","lat":35.6958282,"lon":139.79822079},{"name":"国技館通り路上","province":"東京都","city":"墨田区","address":"東京都墨田区横網1丁目3","lat":35.69637252,"lon":139.79309595},{"name":"西口","province":"東京都","city":"墨田区","address":"東京都墨田区横網1丁目2","lat":35.69716407,"lon":139.79182642},{"name":"東口","province":"東京都","city":"墨田区","address":"東京都墨田区横網1丁目3","lat":35.69637252,"lon":139.79309595},{"name":"八広防災備蓄倉庫","province":"東京都","city":"墨田区","address":"東京都墨田区八広6丁目35-1","lat":35.72651028,"lon":139.82940171},{"name":"白鬚東防災備蓄倉庫","province":"東京都","city":"墨田区","address":"東京都墨田区堤通2丁目7-13","lat":35.73475624,"lon":139.81720018},{"name":"国技館内防災備蓄倉庫","province":"東京都","city":"墨田区","address":"東京都墨田区横網1丁目3-28","lat":35.69721965,"lon":139.79360694},{"name":"文花防災備蓄倉庫","province":"東京都","city":"墨田区","address":"東京都墨田区文花1丁目19-1","lat":35.71053903,"lon":139.82370512},{"name":"京島防災備蓄倉庫","province":"東京都","city":"墨田区","address":"東京都墨田区京島2丁目15-5","lat":35.71313356,"lon":139.82108025},{"name":"東向島防災備蓄倉庫","province":"東京都","city":"墨田区","address":"東京都墨田区東向島4丁目8-12","lat":35.72759893,"lon":139.8155317},{"name":"横川防災備蓄倉庫","province":"東京都","city":"墨田区","address":"東京都墨田区横川5丁目9-1","lat":35.70517431,"lon":139.81750923},{"name":"庁舎内防災備蓄倉庫","province":"東京都","city":"墨田区","address":"東京都墨田区吾妻橋1丁目23-20","lat":35.71072382,"lon":139.80149602},{"name":"業平防災備蓄倉庫","province":"東京都","city":"墨田区","address":"東京都墨田区業平3丁目2-5","lat":35.70634375,"lon":139.8130676},{"name":"国際ファッションセンタービル内防災備蓄倉庫","province":"東京都","city":"墨田区","address":"東京都墨田区横網1丁目6-1","lat":35.69830846,"lon":139.79685114},{"name":"NTTドコモ墨田ビル内防災備蓄倉庫","province":"東京都","city":"墨田区","address":"東京都墨田区横網1丁目9-2","lat":35.69835288,"lon":139.79546506},{"name":"太平四丁目防災備蓄倉庫","province":"東京都","city":"墨田区","address":"東京都墨田区太平4丁目1-2","lat":35.70086065,"lon":139.81594032},{"name":"東墨田防災備蓄倉庫","province":"東京都","city":"墨田区","address":"東京都墨田区東墨田2丁目12-9","lat":35.72135158,"lon":139.83258985},{"name":"総合体育館防災備蓄倉庫","province":"東京都","city":"墨田区","address":"東京都墨田区錦糸4丁目15-1","lat":35.69947749,"lon":139.8171875},{"name":"東京スカイツリータウンウエストヤード総合ロータリー備蓄倉庫","province":"東京都","city":"墨田区","address":"東京都墨田区押上1丁目1-2","lat":35.71005462,"lon":139.81070876},{"name":"本所地域プラザ防災備蓄倉庫","province":"東京都","city":"墨田区","address":"東京都墨田区本所1丁目13-4","lat":35.70316063,"lon":139.79876681},{"name":"京島三丁目コミュニティ住宅防災備蓄倉庫","province":"東京都","city":"墨田区","address":"東京都墨田区京島3丁目3-1","lat":35.71526948,"lon":139.82097199},{"name":"第7コミュニティ住宅防災備蓄倉庫","province":"東京都","city":"墨田区","address":"東京都墨田区京島3丁目3-6","lat":35.71515563,"lon":139.82138862},{"name":"第8コミュニティ住宅防災備蓄庫","province":"東京都","city":"墨田区","address":"東京都墨田区京島3丁目52-8","lat":35.71478047,"lon":139.82434659},{"name":"20　ホンダカーズ東京押上店防災備蓄倉庫","province":"東京都","city":"墨田区","address":"東京都墨田区押上2丁目22-4","lat":35.71483839,"lon":139.81445312},{"name":"21　京成押上ビル防災備蓄倉庫","province":"東京都","city":"墨田区","address":"東京都墨田区押上1丁目10-3","lat":35.71022161,"lon":139.81391135},{"name":"江東西工区","province":"東京都","city":"墨田区","address":"東京都墨田区両国1丁目12-5","lat":35.69562534,"lon":139.79045718},{"name":"墨田工区","province":"東京都","city":"墨田区","address":"東京都墨田区堤通1丁目16-4","lat":35.72574067,"lon":139.81097687},{"name":"平井橋水防倉庫","province":"東京都","city":"墨田区","address":"東京都墨田区立花3丁目29-10","lat":35.70835795,"lon":139.83697888},{"name":"墨田都税事務所","province":"東京都","city":"墨田区","address":"東京都墨田区業平1丁目7-4","lat":35.70787,"lon":139.809143},{"name":"東京都江戸東京博物館","province":"東京都","city":"墨田区","address":"東京都墨田区横網1丁目4-1","lat":35.69647,"lon":139.7957},{"name":"東京都江戸東京博物館","province":"東京都","city":"墨田区","address":"東京都墨田区横網1丁目4-1","lat":35.69691,"lon":139.7958},{"name":"東京都江戸東京博物館","province":"東京都","city":"墨田区","address":"東京都墨田区横網1丁目4-1","lat":35.69665,"lon":139.7958},{"name":"東京都江戸東京博物館","province":"東京都","city":"墨田区","address":"東京都墨田区横網1丁目4-1","lat":35.69675,"lon":139.7956},{"name":"東京都江戸東京博物館","province":"東京都","city":"墨田区","address":"東京都墨田区横網1丁目4-1","lat":35.69627,"lon":139.7958},{"name":"東京都江戸東京博物館","province":"東京都","city":"墨田区","address":"東京都墨田区横網1丁目4-1","lat":35.69623,"lon":139.7965},{"name":"東京都江戸東京博物館","province":"東京都","city":"墨田区","address":"東京都墨田区横網1丁目4-1","lat":35.69676,"lon":139.7957},{"name":"東京都江戸東京博物館","province":"東京都","city":"墨田区","address":"東京都墨田区横網1丁目4-1","lat":35.69639,"lon":139.7956},{"name":"地方独立行政法人東京都立病院機構　東京都立墨東病院","province":"東京都","city":"墨田区","address":"東京都墨田区江東橋4丁目23","lat":35.694554,"lon":139.818952},{"name":"東白鬚公園","province":"東京都","city":"墨田区","address":"東京都墨田区堤通2丁目2","lat":35.733624,"lon":139.813864},{"name":"東白鬚公園","province":"東京都","city":"墨田区","address":"東京都墨田区堤通2丁目2","lat":35.72915,"lon":139.811966},{"name":"東白鬚公園","province":"東京都","city":"墨田区","address":"東京都墨田区堤通2丁目2","lat":35.737694,"lon":139.81688},{"name":"横網町公園","province":"東京都","city":"墨田区","address":"東京都墨田区横網2丁目3-25","lat":35.699951,"lon":139.796874},{"name":"横網町公園","province":"東京都","city":"墨田区","address":"東京都墨田区横網2丁目3","lat":35.699272,"lon":139.795551},{"name":"向島百花園","province":"東京都","city":"墨田区","address":"東京都墨田区東向島3丁目18","lat":35.724189,"lon":139.815271},{"name":"向島百花園","province":"東京都","city":"墨田区","address":"東京都墨田区東向島3丁目18","lat":35.724158,"lon":139.815293},{"name":"都営浅草線本所吾妻橋駅","province":"東京都","city":"墨田区","address":"東京都墨田区吾妻橋3丁目1","lat":35.708358,"lon":139.804465},{"name":"都営浅草線本所吾妻橋駅","province":"東京都","city":"墨田区","address":"東京都墨田区吾妻橋3丁目1","lat":35.708419,"lon":139.804475},{"name":"都営新宿線菊川駅","province":"東京都","city":"墨田区","address":"東京都墨田区菊川2丁目6","lat":35.688422,"lon":139.80556},{"name":"都営大江戸線両国駅","province":"東京都","city":"墨田区","address":"東京都墨田区亀沢1丁目7","lat":35.696873,"lon":139.797477},{"name":"東京都水道局墨田営業所","province":"東京都","city":"墨田区","address":"東京都墨田区千歳2丁目2-11","lat":35.690458,"lon":139.795839},{"name":"墨田区役所","province":"東京都","city":"墨田区","address":"東京都墨田区吾妻橋1丁目23-20","lat":35.710644,"lon":139.801307},{"name":"向島保健センター","province":"東京都","city":"墨田区","address":"東京都墨田区東向島5丁目16-2","lat":35.725694,"lon":139.821112},{"name":"横川出張所","province":"東京都","city":"墨田区","address":"東京都墨田区横川5丁目10-1","lat":35.705927,"lon":139.816389},{"name":"八広地域プラザ","province":"東京都","city":"墨田区","address":"東京都墨田区八広4丁目35-17","lat":35.723478,"lon":139.829337},{"name":"八広地域プラザ","province":"東京都","city":"墨田区","address":"東京都墨田区八広4丁目35-17","lat":35.723403,"lon":139.829296},{"name":"本所地域プラザ","province":"東京都","city":"墨田区","address":"東京都墨田区本所1丁目13-4","lat":35.703099,"lon":139.798797},{"name":"横川コミュニティ会館","province":"東京都","city":"墨田区","address":"東京都墨田区横川5丁目9-1","lat":35.705118,"lon":139.817496},{"name":"横川コミュニティ会館","province":"東京都","city":"墨田区","address":"東京都墨田区横川5丁目9-1","lat":35.705118,"lon":139.817404},{"name":"横川コミュニティ会館","province":"東京都","city":"墨田区","address":"東京都墨田区横川5丁目9-1","lat":35.705076,"lon":139.817404},{"name":"梅若橋コミュニティ会館","province":"東京都","city":"墨田区","address":"東京都墨田区堤通2丁目9-1","lat":35.735354,"lon":139.816656},{"name":"東駒形コミュニティ会館","province":"東京都","city":"墨田区","address":"東京都墨田区東駒形4丁目14-1","lat":35.705476,"lon":139.807771},{"name":"東墨田東公園","province":"東京都","city":"墨田区","address":"東京都墨田区東墨田3丁目19","lat":35.718431,"lon":139.837439},{"name":"ひきふね図書館","province":"東京都","city":"墨田区","address":"東京都墨田区京島1丁目36","lat":35.717059,"lon":139.819673},{"name":"ひきふね図書館","province":"東京都","city":"墨田区","address":"東京都墨田区京島1丁目36-1","lat":35.716857,"lon":139.819261},{"name":"ひきふね図書館","province":"東京都","city":"墨田区","address":"東京都墨田区京島1丁目36","lat":35.717003,"lon":139.819467},{"name":"ひきふね図書館","province":"東京都","city":"墨田区","address":"東京都墨田区京島1丁目36","lat":35.717026,"lon":139.819466},{"name":"立花図書館","province":"東京都","city":"墨田区","address":"東京都墨田区立花6丁目8-1","lat":35.710646,"lon":139.834938},{"name":"みどりコミュニティセンター","province":"東京都","city":"墨田区","address":"東京都墨田区緑3丁目7-3","lat":35.693553,"lon":139.803237},{"name":"すみだスポーツ健康センター","province":"東京都","city":"墨田区","address":"東京都墨田区東墨田1丁目6-1","lat":35.716461,"lon":139.830695},{"name":"すみだスポーツ健康センター","province":"東京都","city":"墨田区","address":"東京都墨田区東墨田1丁目6-1","lat":35.716509,"lon":139.830372},{"name":"すみだ郷土文化資料館","province":"東京都","city":"墨田区","address":"東京都墨田区向島2丁目3-5","lat":35.713875,"lon":139.805844},{"name":"すみだ生涯学習センター","province":"東京都","city":"墨田区","address":"東京都墨田区東向島2丁目38-7","lat":35.721243,"lon":139.818603},{"name":"すみだ生涯学習センター","province":"東京都","city":"墨田区","address":"東京都墨田区東向島2丁目38-7","lat":35.721144,"lon":139.818474},{"name":"すみだ北斎美術館","province":"東京都","city":"墨田区","address":"東京都墨田区亀沢2丁目7","lat":35.696255,"lon":139.800334},{"name":"すみだトリフォニーホール","province":"東京都","city":"墨田区","address":"東京都墨田区錦糸1丁目2-3","lat":35.697119,"lon":139.810005},{"name":"すみだ産業会館","province":"東京都","city":"墨田区","address":"東京都墨田区江東橋3丁目9-10","lat":35.695121,"lon":139.813771},{"name":"両国公園","province":"東京都","city":"墨田区","address":"東京都墨田区両国4丁目25","lat":35.693745,"lon":139.796132},{"name":"横川公園","province":"東京都","city":"墨田区","address":"東京都墨田区東駒形4丁目18","lat":35.706794,"lon":139.806817},{"name":"錦糸公園(東)","province":"東京都","city":"墨田区","address":"東京都墨田区錦糸4丁目15","lat":35.699337,"lon":139.817821},{"name":"ふじのき公園","province":"東京都","city":"墨田区","address":"東京都墨田区東向島2丁目7","lat":35.71734,"lon":139.815424},{"name":"ひいらぎ公園","province":"東京都","city":"墨田区","address":"東京都墨田区八広1丁目16","lat":35.720225,"lon":139.82238},{"name":"東向島北公園","province":"東京都","city":"墨田区","address":"東京都墨田区東向島4丁目12","lat":35.725569,"lon":139.815881},{"name":"八広中央公園","province":"東京都","city":"墨田区","address":"東京都墨田区八広3丁目13","lat":35.719212,"lon":139.827258},{"name":"どんぐり児童遊園","province":"東京都","city":"墨田区","address":"東京都墨田区緑3丁目12","lat":35.694579,"lon":139.804697},{"name":"かつら児童遊園","province":"東京都","city":"墨田区","address":"東京都墨田区墨田3丁目36","lat":35.731337,"lon":139.820688},{"name":"六軒児童遊園","province":"東京都","city":"墨田区","address":"東京都墨田区立花3丁目18","lat":35.706101,"lon":139.834398},{"name":"中之郷児童遊園","province":"東京都","city":"墨田区","address":"東京都墨田区押上2丁目12","lat":35.712326,"lon":139.81225},{"name":"八広第一児童遊園","province":"東京都","city":"墨田区","address":"東京都墨田区八広5丁目7","lat":35.724305,"lon":139.823966},{"name":"くるみ児童遊園","province":"東京都","city":"墨田区","address":"東京都墨田区業平5丁目1","lat":35.706257,"lon":139.816161},{"name":"日進公園","province":"東京都","city":"墨田区","address":"東京都墨田区亀沢3丁目24","lat":35.698564,"lon":139.804482},{"name":"若宮公園","province":"東京都","city":"墨田区","address":"東京都墨田区本所2丁目2","lat":35.702289,"lon":139.801135},{"name":"隅田第二児童遊園","province":"東京都","city":"墨田区","address":"東京都墨田区墨田4丁目8","lat":35.732715,"lon":139.821937},{"name":"すみだボランティアセンター","province":"東京都","city":"墨田区","address":"東京都墨田区東向島2丁目17-14","lat":35.718426,"lon":139.815648},{"name":"立花公園","province":"東京都","city":"墨田区","address":"東京都墨田区立花1丁目27","lat":35.70497,"lon":139.828861},{"name":"墨田二丁目児童遊園","province":"東京都","city":"墨田区","address":"東京都墨田区墨田2丁目42","lat":35.732113,"lon":139.818787},{"name":"両国橋際","province":"東京都","city":"墨田区","address":"東京都墨田区両国1丁目11","lat":35.693893,"lon":139.789772},{"name":"江東橋際公衆便所","province":"東京都","city":"墨田区","address":"東京都墨田区江東橋1丁目8","lat":35.694991,"lon":139.809163},{"name":"江東橋公園","province":"東京都","city":"墨田区","address":"東京都墨田区江東橋2丁目4","lat":35.693908,"lon":139.811341},{"name":"錦糸町駅前公衆便所","province":"東京都","city":"墨田区","address":"東京都墨田区江東橋3丁目14","lat":35.696056,"lon":139.814536},{"name":"錦糸堀公園","province":"東京都","city":"墨田区","address":"東京都墨田区江東橋4丁目17","lat":35.694883,"lon":139.816527},{"name":"緑町公園","province":"東京都","city":"墨田区","address":"東京都墨田区亀沢2丁目7","lat":35.696814,"lon":139.800654},{"name":"まち歩きトイレ業平橋","province":"東京都","city":"墨田区","address":"東京都墨田区東駒形4丁目15","lat":35.708502,"lon":139.807401},{"name":"錦糸公園内","province":"東京都","city":"墨田区","address":"東京都墨田区錦糸4丁目15","lat":35.698551,"lon":139.81509},{"name":"京成橋際","province":"東京都","city":"墨田区","address":"東京都墨田区業平4丁目17","lat":35.709468,"lon":139.813995},{"name":"柳島橋際","province":"東京都","city":"墨田区","address":"東京都墨田区業平5丁目7","lat":35.70778,"lon":139.818316},{"name":"東武橋際","province":"東京都","city":"墨田区","address":"東京都墨田区向島1丁目32","lat":35.709669,"lon":139.808324},{"name":"まち歩きトイレ言問","province":"東京都","city":"墨田区","address":"東京都墨田区向島2丁目1","lat":35.713392,"lon":139.80515},{"name":"両国駅西口公衆便所","province":"東京都","city":"墨田区","address":"東京都墨田区横網1丁目3","lat":35.696124,"lon":139.792019},{"name":"まち歩きトイレ錦糸","province":"東京都","city":"墨田区","address":"東京都墨田区錦糸1丁目1","lat":35.697412,"lon":139.808969},{"name":"押上駅前自転車駐車場内","province":"東京都","city":"墨田区","address":"東京都墨田区押上1丁目8-25","lat":35.710999,"lon":139.813917},{"name":"東墨田一丁目","province":"東京都","city":"墨田区","address":"東京都墨田区東墨田1丁目10","lat":35.716234,"lon":139.832784},{"name":"立花五丁目","province":"東京都","city":"墨田区","address":"東京都墨田区立花5丁目50","lat":35.713365,"lon":139.833487},{"name":"平井橋際","province":"東京都","city":"墨田区","address":"東京都墨田区立花3丁目29","lat":35.708485,"lon":139.837197},{"name":"小村井","province":"東京都","city":"墨田区","address":"東京都墨田区文花2丁目1","lat":35.708249,"lon":139.825395},{"name":"墨田区社会福祉会館","province":"東京都","city":"墨田区","address":"東京都墨田区東墨田2丁目7-1","lat":35.719067,"lon":139.830251},{"name":"すみだ福祉保健センター","province":"東京都","city":"墨田区","address":"東京都墨田区向島3丁目36-7","lat":35.713311,"lon":139.810886},{"name":"すみだ福祉保健センター","province":"東京都","city":"墨田区","address":"東京都墨田区向島3丁目36-7","lat":35.713307,"lon":139.810885},{"name":"すみだ福祉保健センター","province":"東京都","city":"墨田区","address":"東京都墨田区向島3丁目36-7","lat":35.713334,"lon":139.810767},{"name":"墨田区弓道場","province":"東京都","city":"墨田区","address":"東京都墨田区江東橋4丁目1-3","lat":35.693386,"lon":139.817352},{"name":"子育て支援総合センター","province":"東京都","city":"墨田区","address":"東京都墨田区京島1丁目35-9","lat":35.716819,"lon":139.819728},{"name":"梅若ゆうゆう館","province":"東京都","city":"墨田区","address":"東京都墨田区墨田1丁目4-4","lat":35.72908,"lon":139.815151},{"name":"立花ゆうゆう館","province":"東京都","city":"墨田区","address":"東京都墨田区立花6丁目8-1","lat":35.710599,"lon":139.834969},{"name":"いきいきプラザ","province":"東京都","city":"墨田区","address":"東京都墨田区文花1丁目32-2","lat":35.707543,"lon":139.823451},{"name":"すみだ女性センター","province":"東京都","city":"墨田区","address":"東京都墨田区押上2丁目12-7","lat":35.712918,"lon":139.812163},{"name":"墨田区総合運動場","province":"東京都","city":"墨田区","address":"東京都墨田区堤通2丁目11","lat":35.737941,"lon":139.816077},{"name":"墨田区総合運動場","province":"東京都","city":"墨田区","address":"東京都墨田区堤通2丁目11","lat":35.73826,"lon":139.816194},{"name":"両国屋内プール","province":"東京都","city":"墨田区","address":"東京都墨田区横網1丁目8-1","lat":35.697672,"lon":139.796324},{"name":"両国屋内プール","province":"東京都","city":"墨田区","address":"東京都墨田区横網1丁目8-1","lat":35.697926,"lon":139.796428},{"name":"スポーツプラザ梅若","province":"東京都","city":"墨田区","address":"東京都墨田区墨田1丁目4-4","lat":35.72904,"lon":139.81565},{"name":"両国子育てひろば保育室","province":"東京都","city":"墨田区","address":"東京都墨田区横網1丁目2-13","lat":35.697787,"lon":139.792418},{"name":"両国子育てひろば","province":"東京都","city":"墨田区","address":"東京都墨田区横網1丁目2-13","lat":35.697787,"lon":139.792418},{"name":"文花子育てひろば","province":"東京都","city":"墨田区","address":"東京都墨田区文花1丁目20-7","lat":35.710614,"lon":139.822368},{"name":"墨田区総合体育館","province":"東京都","city":"墨田区","address":"東京都墨田区錦糸4丁目15-1","lat":35.699324,"lon":139.816798},{"name":"墨田区総合体育館","province":"東京都","city":"墨田区","address":"東京都墨田区錦糸4丁目15-1","lat":35.699732,"lon":139.816784},{"name":"墨田区総合体育館","province":"東京都","city":"墨田区","address":"東京都墨田区錦糸4丁目15-1","lat":35.699316,"lon":139.81745},{"name":"墨田区総合体育館","province":"東京都","city":"墨田区","address":"東京都墨田区錦糸4丁目15-1","lat":35.699794,"lon":139.817374},{"name":"墨田区総合体育館","province":"東京都","city":"墨田区","address":"東京都墨田区錦糸4丁目15-1","lat":35.699292,"lon":139.817424},{"name":"墨田区総合体育館","province":"東京都","city":"墨田区","address":"東京都墨田区錦糸4丁目15-1","lat":35.699786,"lon":139.817067},{"name":"墨田区総合体育館","province":"東京都","city":"墨田区","address":"東京都墨田区錦糸4丁目15-1","lat":35.699305,"lon":139.816816},{"name":"墨田区総合体育館","province":"東京都","city":"墨田区","address":"東京都墨田区錦糸4丁目15-1","lat":35.699297,"lon":139.817421},{"name":"墨田区総合体育館","province":"東京都","city":"墨田区","address":"東京都墨田区錦糸4丁目15-1","lat":35.699804,"lon":139.81726},{"name":"墨田区総合体育館","province":"東京都","city":"墨田区","address":"東京都墨田区錦糸4丁目15-1","lat":35.699303,"lon":139.817335},{"name":"荒川河川敷運動場","province":"東京都","city":"墨田区","address":"東京都墨田区墨田4丁目","lat":35.736513,"lon":139.82236},{"name":"荒川河川敷運動場","province":"東京都","city":"墨田区","address":"東京都墨田区墨田4丁目","lat":35.732205,"lon":139.826014},{"name":"荒川河川敷運動場","province":"東京都","city":"墨田区","address":"東京都墨田区八広6丁目","lat":35.730235,"lon":139.828012},{"name":"屋外体育施設管理事務所錦糸支所","province":"東京都","city":"墨田区","address":"東京都墨田区錦糸4丁目15","lat":35.698556,"lon":139.815057},{"name":"五間堀公園","province":"東京都","city":"墨田区","address":"東京都墨田区立川1丁目1","lat":35.689435,"lon":139.798429},{"name":"本所防災備蓄倉庫","province":"東京都","city":"墨田区","address":"東京都墨田区本所2丁目6-9","lat":35.70300508,"lon":139.8007777},{"name":"白鬚東防災備蓄倉庫","province":"東京都","city":"墨田区","address":"東京都墨田区堤通2丁目7-13","lat":35.73475624,"lon":139.81720018},{"name":"国技館内防災備蓄倉庫","province":"東京都","city":"墨田区","address":"東京都墨田区横網1丁目3-28","lat":35.69721965,"lon":139.79360694},{"name":"京島防災備蓄倉庫","province":"東京都","city":"墨田区","address":"東京都墨田区京島2丁目15-5","lat":35.71313356,"lon":139.82108025},{"name":"東向島防災備蓄倉庫","province":"東京都","city":"墨田区","address":"東京都墨田区東向島4丁目8-12","lat":35.72759893,"lon":139.8155317},{"name":"庁舎内防災備蓄倉庫","province":"東京都","city":"墨田区","address":"東京都墨田区吾妻橋1丁目23-20","lat":35.71072382,"lon":139.80149602},{"name":"横川防災備蓄倉庫","province":"東京都","city":"墨田区","address":"東京都墨田区横川5丁目9-1","lat":35.70517431,"lon":139.81750923},{"name":"業平防災備蓄倉庫","province":"東京都","city":"墨田区","address":"東京都墨田区業平3丁目2-5","lat":35.70634375,"lon":139.8130676},{"name":"国際ファッションセンタービル内防災備蓄倉庫","province":"東京都","city":"墨田区","address":"東京都墨田区横網1丁目6-1","lat":35.69830846,"lon":139.79685114},{"name":"NTTドコモ墨田ビル内防災備蓄倉庫","province":"東京都","city":"墨田区","address":"東京都墨田区横網1丁目9-2","lat":35.69835288,"lon":139.79546506},{"name":"太平四丁目防災備蓄倉庫","province":"東京都","city":"墨田区","address":"東京都墨田区太平4丁目1-2","lat":35.70086065,"lon":139.81594032},{"name":"総合体育館防災備蓄倉庫","province":"東京都","city":"墨田区","address":"東京都墨田区錦糸4丁目15-1","lat":35.69947749,"lon":139.8171875},{"name":"スカイツリーウエストヤードロータリー防災備蓄倉庫","province":"東京都","city":"墨田区","address":"東京都墨田区押上1丁目1-2","lat":35.71005462,"lon":139.81070876},{"name":"本所地域プラザ防災備蓄倉庫","province":"東京都","city":"墨田区","address":"東京都墨田区本所1丁目13-4","lat":35.70316063,"lon":139.79876681},{"name":"京島三丁目コミュニティ住宅防災備蓄倉庫","province":"東京都","city":"墨田区","address":"東京都墨田区京島3丁目3-1","lat":35.71526948,"lon":139.82097199},{"name":"第7コミュニティ住宅防災備蓄倉庫","province":"東京都","city":"墨田区","address":"東京都墨田区京島3丁目3-6","lat":35.71515563,"lon":139.82138862},{"name":"第8コミュニティ住宅防災備蓄倉庫","province":"東京都","city":"墨田区","address":"東京都墨田区京島3丁目52-8","lat":35.71478047,"lon":139.82434659},{"name":"ホンダカーズ東京押上店防災備蓄倉庫","province":"東京都","city":"墨田区","address":"東京都墨田区押上2丁目22-4","lat":35.71483839,"lon":139.81445312},{"name":"京成押上ビル防災備蓄倉庫","province":"東京都","city":"墨田区","address":"東京都墨田区押上1丁目10-3","lat":35.71022161,"lon":139.81391135},{"name":"イーストコア曳舟二番館防災備蓄倉庫","province":"東京都","city":"墨田区","address":"東京都墨田区京島1丁目1-2","lat":35.71600802,"lon":139.81705298},{"name":"東武曳舟駅防災備蓄倉庫","province":"東京都","city":"墨田区","address":"東京都墨田区東向島2丁目26","lat":35.7184357,"lon":139.81642547},{"name":"八広防災備蓄倉庫","province":"東京都","city":"墨田区","address":"東京都墨田区八広6丁目35-1","lat":35.72651028,"lon":139.82940171},{"name":"総合運動場防災備蓄倉庫","province":"東京都","city":"墨田区","address":"東京都墨田区堤通2丁目11-1","lat":35.73905274,"lon":139.81669975},{"name":"情報経営イノベーション専門職大学防災備蓄倉庫","province":"東京都","city":"墨田区","address":"東京都墨田区文花1丁目18-13","lat":35.71137807,"lon":139.82328004},{"name":"アパホテル防災備蓄倉庫","province":"東京都","city":"墨田区","address":"東京都墨田区横網1丁目11-10","lat":35.69741131,"lon":139.79426523},{"name":"両国リバーセンター防災備蓄倉庫","province":"東京都","city":"墨田区","address":"東京都墨田区横網1丁目2-13","lat":35.6978029,"lon":139.79244854},{"name":"関東マツダ墨田店防災備蓄倉庫","province":"東京都","city":"墨田区","address":"東京都墨田区立花5丁目1-8","lat":35.71308031,"lon":139.8281545},{"name":"東墨田会館","province":"東京都","city":"墨田区","address":"東京都墨田区東墨田2丁目12-9","lat":35.72135158,"lon":139.83258985},{"name":"浅草通り押上側","province":"東京都","city":"墨田区","address":"東京都墨田区業平2丁目17-9","lat":35.70920755,"lon":139.81204218},{"name":"浅草通り業平側","province":"東京都","city":"墨田区","address":"東京都墨田区業平3丁目13","lat":35.70864096,"lon":139.81275611},{"name":"駅前","province":"東京都","city":"墨田区","address":"東京都墨田区押上1丁目8-25","lat":35.71136332,"lon":139.81407504},{"name":"桜橋通り際仮設","province":"東京都","city":"墨田区","address":"東京都墨田区押上2丁目26","lat":35.71233565,"lon":139.81485838},{"name":"第二","province":"東京都","city":"墨田区","address":"東京都墨田区押上2丁目26","lat":35.71233565,"lon":139.81485838},{"name":"中之郷","province":"東京都","city":"墨田区","address":"東京都墨田区押上2丁目17","lat":35.71237432,"lon":139.81305294},{"name":"南口臨時","province":"東京都","city":"墨田区","address":"東京都墨田区押上1丁目25","lat":35.7097467,"lon":139.81495027},{"name":"第一","province":"東京都","city":"墨田区","address":"東京都墨田区文花2丁目20","lat":35.7103999,"lon":139.82737141},{"name":"第二","province":"東京都","city":"墨田区","address":"東京都墨田区文花2丁目19","lat":35.71059997,"lon":139.82644927},{"name":"北","province":"東京都","city":"墨田区","address":"東京都墨田区墨田5丁目50","lat":35.73393424,"lon":139.82069698},{"name":"南","province":"東京都","city":"墨田区","address":"東京都墨田区墨田3丁目31-12","lat":35.73230947,"lon":139.82037493},{"name":"北口","province":"東京都","city":"墨田区","address":"東京都墨田区菊川3丁目16","lat":35.68865408,"lon":139.80683132},{"name":"北口第二","province":"東京都","city":"墨田区","address":"東京都墨田区菊川3丁目17-2","lat":35.68928454,"lon":139.8065591},{"name":"新大橋通り北","province":"東京都","city":"墨田区","address":"東京都墨田区菊川2丁目6","lat":35.68860965,"lon":139.80549549},{"name":"新大橋通り南","province":"東京都","city":"墨田区","address":"東京都墨田区菊川2丁目5","lat":35.6879903,"lon":139.8052706},{"name":"北斎通り路上","province":"東京都","city":"墨田区","address":"東京都墨田区錦糸1丁目5","lat":35.69772229,"lon":139.81023003},{"name":"牡丹橋通り","province":"東京都","city":"墨田区","address":"東京都墨田区江東橋3丁目1","lat":35.69318953,"lon":139.81466311},{"name":"南口地下","province":"東京都","city":"墨田区","address":"東京都墨田区江東橋3丁目14-4","lat":35.69607523,"lon":139.81461854},{"name":"四ツ目通り路上","province":"東京都","city":"墨田区","address":"東京都墨田区錦糸1丁目2","lat":35.6968835,"lon":139.81061897},{"name":"西臨時","province":"東京都","city":"墨田区","address":"東京都墨田区京島1丁目39","lat":35.71863582,"lon":139.81964728},{"name":"南臨時","province":"東京都","city":"墨田区","address":"東京都墨田区京島1丁目1","lat":35.71623582,"lon":139.81742796},{"name":"南臨時","province":"東京都","city":"墨田区","address":"東京都墨田区京島1丁目8","lat":35.71598863,"lon":139.81777512},{"name":"仮設","province":"東京都","city":"墨田区","address":"東京都墨田区業平1丁目16","lat":35.70923509,"lon":139.80794806},{"name":"第一","province":"東京都","city":"墨田区","address":"東京都墨田区向島1丁目32","lat":35.70982394,"lon":139.80806183},{"name":"第二","province":"東京都","city":"墨田区","address":"東京都墨田区業平1丁目17-5","lat":35.70934065,"lon":139.8082591},{"name":"駅前","province":"東京都","city":"墨田区","address":"東京都墨田区立花4丁目23-7","lat":35.70720253,"lon":139.83185169},{"name":"線路沿","province":"東京都","city":"墨田区","address":"東京都墨田区立花4丁目23-7","lat":35.70720253,"lon":139.83185169},{"name":"西臨時","province":"東京都","city":"墨田区","address":"東京都墨田区立花1丁目23","lat":35.70658864,"lon":139.83072412},{"name":"高架下","province":"東京都","city":"墨田区","address":"東京都墨田区東向島4丁目35","lat":35.72618799,"lon":139.81953645},{"name":"高架下","province":"東京都","city":"墨田区","address":"東京都墨田区東向島2丁目27","lat":35.71824129,"lon":139.8169976},{"name":"東","province":"東京都","city":"墨田区","address":"東京都墨田区東向島2丁目27","lat":35.71824129,"lon":139.8169976},{"name":"第一","province":"東京都","city":"墨田区","address":"東京都墨田区吾妻橋2丁目2","lat":35.70834626,"lon":139.80381824},{"name":"第二","province":"東京都","city":"墨田区","address":"東京都墨田区吾妻橋2丁目3","lat":35.708849,"lon":139.80373206},{"name":"第三","province":"東京都","city":"墨田区","address":"東京都墨田区吾妻橋3丁目6-15","lat":35.70901011,"lon":139.80632333},{"name":"第四","province":"東京都","city":"墨田区","address":"東京都墨田区吾妻橋3丁目1","lat":35.70828516,"lon":139.80487087},{"name":"西臨時","province":"東京都","city":"墨田区","address":"東京都墨田区吾妻橋1丁目12","lat":35.70811849,"lon":139.79838292},{"name":"高架下","province":"東京都","city":"墨田区","address":"東京都墨田区八広6丁目25","lat":35.72683527,"lon":139.82786582},{"name":"新四ツ木橋下","province":"東京都","city":"墨田区","address":"東京都墨田区八広6丁目5","lat":35.72904346,"lon":139.82710758},{"name":"第一","province":"東京都","city":"墨田区","address":"東京都墨田区八広6丁目35-1","lat":35.72651028,"lon":139.82940171},{"name":"第二","province":"東京都","city":"墨田区","address":"東京都墨田区八広6丁目32","lat":35.7268603,"lon":139.83024328},{"name":"高架下","province":"東京都","city":"墨田区","address":"東京都墨田区亀沢1丁目1","lat":35.6958282,"lon":139.79822079},{"name":"国技館通り路上","province":"東京都","city":"墨田区","address":"東京都墨田区横網1丁目3","lat":35.69637252,"lon":139.79309595},{"name":"西口","province":"東京都","city":"墨田区","address":"東京都墨田区横網1丁目2","lat":35.69716407,"lon":139.79182642},{"name":"東口","province":"東京都","city":"墨田区","address":"東京都墨田区横網1丁目3","lat":35.69637252,"lon":139.79309595},{"name":"八広防災備蓄倉庫","province":"東京都","city":"墨田区","address":"東京都墨田区八広6丁目35-1","lat":35.72651028,"lon":139.82940171},{"name":"白鬚東防災備蓄倉庫","province":"東京都","city":"墨田区","address":"東京都墨田区堤通2丁目7-13","lat":35.73475624,"lon":139.81720018},{"name":"国技館内防災備蓄倉庫","province":"東京都","city":"墨田区","address":"東京都墨田区横網1丁目3-28","lat":35.69721965,"lon":139.79360694},{"name":"文花防災備蓄倉庫","province":"東京都","city":"墨田区","address":"東京都墨田区文花1丁目19-1","lat":35.71053903,"lon":139.82370512},{"name":"京島防災備蓄倉庫","province":"東京都","city":"墨田区","address":"東京都墨田区京島2丁目15-5","lat":35.71313356,"lon":139.82108025},{"name":"東向島防災備蓄倉庫","province":"東京都","city":"墨田区","address":"東京都墨田区東向島4丁目8-12","lat":35.72759893,"lon":139.8155317},{"name":"横川防災備蓄倉庫","province":"東京都","city":"墨田区","address":"東京都墨田区横川5丁目9-1","lat":35.70517431,"lon":139.81750923},{"name":"庁舎内防災備蓄倉庫","province":"東京都","city":"墨田区","address":"東京都墨田区吾妻橋1丁目23-20","lat":35.71072382,"lon":139.80149602},{"name":"業平防災備蓄倉庫","province":"東京都","city":"墨田区","address":"東京都墨田区業平3丁目2-5","lat":35.70634375,"lon":139.8130676},{"name":"国際ファッションセンタービル内防災備蓄倉庫","province":"東京都","city":"墨田区","address":"東京都墨田区横網1丁目6-1","lat":35.69830846,"lon":139.79685114},{"name":"NTTドコモ墨田ビル内防災備蓄倉庫","province":"東京都","city":"墨田区","address":"東京都墨田区横網1丁目9-2","lat":35.69835288,"lon":139.79546506},{"name":"太平四丁目防災備蓄倉庫","province":"東京都","city":"墨田区","address":"東京都墨田区太平4丁目1-2","lat":35.70086065,"lon":139.81594032},{"name":"東墨田防災備蓄倉庫","province":"東京都","city":"墨田区","address":"東京都墨田区東墨田2丁目12-9","lat":35.72135158,"lon":139.83258985},{"name":"総合体育館防災備蓄倉庫","province":"東京都","city":"墨田区","address":"東京都墨田区錦糸4丁目15-1","lat":35.69947749,"lon":139.8171875},{"name":"東京スカイツリータウンウエストヤード総合ロータリー備蓄倉庫","province":"東京都","city":"墨田区","address":"東京都墨田区押上1丁目1-2","lat":35.71005462,"lon":139.81070876},{"name":"本所地域プラザ防災備蓄倉庫","province":"東京都","city":"墨田区","address":"東京都墨田区本所1丁目13-4","lat":35.70316063,"lon":139.79876681},{"name":"京島三丁目コミュニティ住宅防災備蓄倉庫","province":"東京都","city":"墨田区","address":"東京都墨田区京島3丁目3-1","lat":35.71526948,"lon":139.82097199},{"name":"第7コミュニティ住宅防災備蓄倉庫","province":"東京都","city":"墨田区","address":"東京都墨田区京島3丁目3-6","lat":35.71515563,"lon":139.82138862},{"name":"第8コミュニティ住宅防災備蓄庫","province":"東京都","city":"墨田区","address":"東京都墨田区京島3丁目52-8","lat":35.71478047,"lon":139.82434659},{"name":"20　ホンダカーズ東京押上店防災備蓄倉庫","province":"東京都","city":"墨田区","address":"東京都墨田区押上2丁目22-4","lat":35.71483839,"lon":139.81445312},{"name":"21　京成押上ビル防災備蓄倉庫","province":"東京都","city":"墨田区","address":"東京都墨田区押上1丁目10-3","lat":35.71022161,"lon":139.81391135},{"name":"江東西工区","province":"東京都","city":"墨田区","address":"東京都墨田区両国1丁目12-5","lat":35.69562534,"lon":139.79045718},{"name":"墨田工区","province":"東京都","city":"墨田区","address":"東京都墨田区堤通1丁目16-4","lat":35.72574067,"lon":139.81097687},{"name":"平井橋水防倉庫","province":"東京都","city":"墨田区","address":"東京都墨田区立花3丁目29-10","lat":35.70835795,"lon":139.83697888},{"name":"本所防災備蓄倉庫","province":"東京都","city":"墨田区","address":"東京都墨田区本所2丁目6-9","lat":35.70300508,"lon":139.8007777},{"name":"白鬚東防災備蓄倉庫","province":"東京都","city":"墨田区","address":"東京都墨田区堤通2丁目7-13","lat":35.73475624,"lon":139.81720018},{"name":"国技館内防災備蓄倉庫","province":"東京都","city":"墨田区","address":"東京都墨田区横網1丁目3-28","lat":35.69721965,"lon":139.79360694},{"name":"京島防災備蓄倉庫","province":"東京都","city":"墨田区","address":"東京都墨田区京島2丁目15-5","lat":35.71313356,"lon":139.82108025},{"name":"東向島防災備蓄倉庫","province":"東京都","city":"墨田区","address":"東京都墨田区東向島4丁目8-12","lat":35.72759893,"lon":139.8155317},{"name":"庁舎内防災備蓄倉庫","province":"東京都","city":"墨田区","address":"東京都墨田区吾妻橋1丁目23-20","lat":35.71072382,"lon":139.80149602},{"name":"横川防災備蓄倉庫","province":"東京都","city":"墨田区","address":"東京都墨田区横川5丁目9-1","lat":35.70517431,"lon":139.81750923},{"name":"業平防災備蓄倉庫","province":"東京都","city":"墨田区","address":"東京都墨田区業平3丁目2-5","lat":35.70634375,"lon":139.8130676},{"name":"国際ファッションセンタービル内防災備蓄倉庫","province":"東京都","city":"墨田区","address":"東京都墨田区横網1丁目6-1","lat":35.69830846,"lon":139.79685114},{"name":"NTTドコモ墨田ビル内防災備蓄倉庫","province":"東京都","city":"墨田区","address":"東京都墨田区横網1丁目9-2","lat":35.69835288,"lon":139.79546506},{"name":"太平四丁目防災備蓄倉庫","province":"東京都","city":"墨田区","address":"東京都墨田区太平4丁目1-2","lat":35.70086065,"lon":139.81594032},{"name":"総合体育館防災備蓄倉庫","province":"東京都","city":"墨田区","address":"東京都墨田区錦糸4丁目15-1","lat":35.69947749,"lon":139.8171875},{"name":"スカイツリーウエストヤードロータリー防災備蓄倉庫","province":"東京都","city":"墨田区","address":"東京都墨田区押上1丁目1-2","lat":35.71005462,"lon":139.81070876},{"name":"本所地域プラザ防災備蓄倉庫","province":"東京都","city":"墨田区","address":"東京都墨田区本所1丁目13-4","lat":35.70316063,"lon":139.79876681},{"name":"京島三丁目コミュニティ住宅防災備蓄倉庫","province":"東京都","city":"墨田区","address":"東京都墨田区京島3丁目3-1","lat":35.71526948,"lon":139.82097199},{"name":"第7コミュニティ住宅防災備蓄倉庫","province":"東京都","city":"墨田区","address":"東京都墨田区京島3丁目3-6","lat":35.71515563,"lon":139.82138862},{"name":"第8コミュニティ住宅防災備蓄倉庫","province":"東京都","city":"墨田区","address":"東京都墨田区京島3丁目52-8","lat":35.71478047,"lon":139.82434659},{"name":"ホンダカーズ東京押上店防災備蓄倉庫","province":"東京都","city":"墨田区","address":"東京都墨田区押上2丁目22-4","lat":35.71483839,"lon":139.81445312},{"name":"京成押上ビル防災備蓄倉庫","province":"東京都","city":"墨田区","address":"東京都墨田区押上1丁目10-3","lat":35.71022161,"lon":139.81391135},{"name":"イーストコア曳舟二番館防災備蓄倉庫","province":"東京都","city":"墨田区","address":"東京都墨田区京島1丁目1-2","lat":35.71600802,"lon":139.81705298},{"name":"東武曳舟駅防災備蓄倉庫","province":"東京都","city":"墨田区","address":"東京都墨田区東向島2丁目26","lat":35.7184357,"lon":139.81642547},{"name":"八広防災備蓄倉庫","province":"東京都","city":"墨田区","address":"東京都墨田区八広6丁目35-1","lat":35.72651028,"lon":139.82940171},{"name":"総合運動場防災備蓄倉庫","province":"東京都","city":"墨田区","address":"東京都墨田区堤通2丁目11-1","lat":35.73905274,"lon":139.81669975},{"name":"情報経営イノベーション専門職大学防災備蓄倉庫","province":"東京都","city":"墨田区","address":"東京都墨田区文花1丁目18-13","lat":35.71137807,"lon":139.82328004},{"name":"アパホテル防災備蓄倉庫","province":"東京都","city":"墨田区","address":"東京都墨田区横網1丁目11-10","lat":35.69741131,"lon":139.79426523},{"name":"両国リバーセンター防災備蓄倉庫","province":"東京都","city":"墨田区","address":"東京都墨田区横網1丁目2-13","lat":35.6978029,"lon":139.79244854},{"name":"関東マツダ墨田店防災備蓄倉庫","province":"東京都","city":"墨田区","address":"東京都墨田区立花5丁目1-8","lat":35.71308031,"lon":139.8281545},{"name":"東墨田会館","province":"東京都","city":"墨田区","address":"東京都墨田区東墨田2丁目12-9","lat":35.72135158,"lon":139.83258985},{"name":"八広防災備蓄倉庫","province":"東京都","city":"墨田区","address":"東京都墨田区八広6丁目35-1","lat":35.72651028,"lon":139.82940171},{"name":"白鬚東防災備蓄倉庫","province":"東京都","city":"墨田区","address":"東京都墨田区堤通2丁目7-13","lat":35.73475624,"lon":139.81720018},{"name":"国技館内防災備蓄倉庫","province":"東京都","city":"墨田区","address":"東京都墨田区横網1丁目3-28","lat":35.69721965,"lon":139.79360694},{"name":"文花防災備蓄倉庫","province":"東京都","city":"墨田区","address":"東京都墨田区文花1丁目19-1","lat":35.71053903,"lon":139.82370512},{"name":"京島防災備蓄倉庫","province":"東京都","city":"墨田区","address":"東京都墨田区京島2丁目15-5","lat":35.71313356,"lon":139.82108025},{"name":"東向島防災備蓄倉庫","province":"東京都","city":"墨田区","address":"東京都墨田区東向島4丁目8-12","lat":35.72759893,"lon":139.8155317},{"name":"横川防災備蓄倉庫","province":"東京都","city":"墨田区","address":"東京都墨田区横川5丁目9-1","lat":35.70517431,"lon":139.81750923},{"name":"庁舎内防災備蓄倉庫","province":"東京都","city":"墨田区","address":"東京都墨田区吾妻橋1丁目23-20","lat":35.71072382,"lon":139.80149602},{"name":"業平防災備蓄倉庫","province":"東京都","city":"墨田区","address":"東京都墨田区業平3丁目2-5","lat":35.70634375,"lon":139.8130676},{"name":"国際ファッションセンタービル内防災備蓄倉庫","province":"東京都","city":"墨田区","address":"東京都墨田区横網1丁目6-1","lat":35.69830846,"lon":139.79685114},{"name":"NTTドコモ墨田ビル内防災備蓄倉庫","province":"東京都","city":"墨田区","address":"東京都墨田区横網1丁目9-2","lat":35.69835288,"lon":139.79546506},{"name":"太平四丁目防災備蓄倉庫","province":"東京都","city":"墨田区","address":"東京都墨田区太平4丁目1-2","lat":35.70086065,"lon":139.81594032},{"name":"東墨田防災備蓄倉庫","province":"東京都","city":"墨田区","address":"東京都墨田区東墨田2丁目12-9","lat":35.72135158,"lon":139.83258985},{"name":"総合体育館防災備蓄倉庫","province":"東京都","city":"墨田区","address":"東京都墨田区錦糸4丁目15-1","lat":35.69947749,"lon":139.8171875},{"name":"東京スカイツリータウンウエストヤード総合ロータリー備蓄倉庫","province":"東京都","city":"墨田区","address":"東京都墨田区押上1丁目1-2","lat":35.71005462,"lon":139.81070876},{"name":"本所地域プラザ防災備蓄倉庫","province":"東京都","city":"墨田区","address":"東京都墨田区本所1丁目13-4","lat":35.70316063,"lon":139.79876681},{"name":"京島三丁目コミュニティ住宅防災備蓄倉庫","province":"東京都","city":"墨田区","address":"東京都墨田区京島3丁目3-1","lat":35.71526948,"lon":139.82097199},{"name":"第7コミュニティ住宅防災備蓄倉庫","province":"東京都","city":"墨田区","address":"東京都墨田区京島3丁目3-6","lat":35.71515563,"lon":139.82138862},{"name":"第8コミュニティ住宅防災備蓄庫","province":"東京都","city":"墨田区","address":"東京都墨田区京島3丁目52-8","lat":35.71478047,"lon":139.82434659},{"name":"20　ホンダカーズ東京押上店防災備蓄倉庫","province":"東京都","city":"墨田区","address":"東京都墨田区押上2丁目22-4","lat":35.71483839,"lon":139.81445312},{"name":"21　京成押上ビル防災備蓄倉庫","province":"東京都","city":"墨田区","address":"東京都墨田区押上1丁目10-3","lat":35.71022161,"lon":139.81391135},{"name":"江東西工区","province":"東京都","city":"墨田区","address":"東京都墨田区両国1丁目12-5","lat":35.69562534,"lon":139.79045718},{"name":"墨田工区","province":"東京都","city":"墨田区","address":"東京都墨田区堤通1丁目16-4","lat":35.72574067,"lon":139.81097687},{"name":"平井橋水防倉庫","province":"東京都","city":"墨田区","address":"東京都墨田区立花3丁目29-10","lat":35.70835795,"lon":139.83697888},{"name":"東墨田会館","province":"東京都","city":"墨田区","address":"東京都墨田区東墨田2丁目12-9","lat":35.72135158,"lon":139.83258985},{"name":"八広防災備蓄倉庫","province":"東京都","city":"墨田区","address":"東京都墨田区八広6丁目35-1","lat":35.72651028,"lon":139.82940171},{"name":"白鬚東防災備蓄倉庫","province":"東京都","city":"墨田区","address":"東京都墨田区堤通2丁目7-13","lat":35.73475624,"lon":139.81720018},{"name":"国技館内防災備蓄倉庫","province":"東京都","city":"墨田区","address":"東京都墨田区横網1丁目3-28","lat":35.69721965,"lon":139.79360694},{"name":"文花防災備蓄倉庫","province":"東京都","city":"墨田区","address":"東京都墨田区文花1丁目19-1","lat":35.71053903,"lon":139.82370512},{"name":"京島防災備蓄倉庫","province":"東京都","city":"墨田区","address":"東京都墨田区京島2丁目15-5","lat":35.71313356,"lon":139.82108025},{"name":"東向島防災備蓄倉庫","province":"東京都","city":"墨田区","address":"東京都墨田区東向島4丁目8-12","lat":35.72759893,"lon":139.8155317},{"name":"横川防災備蓄倉庫","province":"東京都","city":"墨田区","address":"東京都墨田区横川5丁目9-1","lat":35.70517431,"lon":139.81750923},{"name":"庁舎内防災備蓄倉庫","province":"東京都","city":"墨田区","address":"東京都墨田区吾妻橋1丁目23-20","lat":35.71072382,"lon":139.80149602},{"name":"業平防災備蓄倉庫","province":"東京都","city":"墨田区","address":"東京都墨田区業平3丁目2-5","lat":35.70634375,"lon":139.8130676},{"name":"国際ファッションセンタービル内防災備蓄倉庫","province":"東京都","city":"墨田区","address":"東京都墨田区横網1丁目6-1","lat":35.69830846,"lon":139.79685114},{"name":"NTTドコモ墨田ビル内防災備蓄倉庫","province":"東京都","city":"墨田区","address":"東京都墨田区横網1丁目9-2","lat":35.69835288,"lon":139.79546506},{"name":"太平四丁目防災備蓄倉庫","province":"東京都","city":"墨田区","address":"東京都墨田区太平4丁目1-2","lat":35.70086065,"lon":139.81594032},{"name":"東墨田防災備蓄倉庫","province":"東京都","city":"墨田区","address":"東京都墨田区東墨田2丁目12-9","lat":35.72135158,"lon":139.83258985},{"name":"総合体育館防災備蓄倉庫","province":"東京都","city":"墨田区","address":"東京都墨田区錦糸4丁目15-1","lat":35.69947749,"lon":139.8171875},{"name":"東京スカイツリータウンウエストヤード総合ロータリー備蓄倉庫","province":"東京都","city":"墨田区","address":"東京都墨田区押上1丁目1-2","lat":35.71005462,"lon":139.81070876},{"name":"本所地域プラザ防災備蓄倉庫","province":"東京都","city":"墨田区","address":"東京都墨田区本所1丁目13-4","lat":35.70316063,"lon":139.79876681},{"name":"京島三丁目コミュニティ住宅防災備蓄倉庫","province":"東京都","city":"墨田区","address":"東京都墨田区京島3丁目3-1","lat":35.71526948,"lon":139.82097199},{"name":"第7コミュニティ住宅防災備蓄倉庫","province":"東京都","city":"墨田区","address":"東京都墨田区京島3丁目3-6","lat":35.71515563,"lon":139.82138862},{"name":"第8コミュニティ住宅防災備蓄庫","province":"東京都","city":"墨田区","address":"東京都墨田区京島3丁目52-8","lat":35.71478047,"lon":139.82434659},{"name":"20　ホンダカーズ東京押上店防災備蓄倉庫","province":"東京都","city":"墨田区","address":"東京都墨田区押上2丁目22-4","lat":35.71483839,"lon":139.81445312},{"name":"21　京成押上ビル防災備蓄倉庫","province":"東京都","city":"墨田区","address":"東京都墨田区押上1丁目10-3","lat":35.71022161,"lon":139.81391135},{"name":"江東西工区","province":"東京都","city":"墨田区","address":"東京都墨田区両国1丁目12-5","lat":35.69562534,"lon":139.79045718},{"name":"墨田工区","province":"東京都","city":"墨田区","address":"東京都墨田区堤通1丁目16-4","lat":35.72574067,"lon":139.81097687},{"name":"平井橋水防倉庫","province":"東京都","city":"墨田区","address":"東京都墨田区立花3丁目29-10","lat":35.70835795,"lon":139.83697888},{"name":"東墨田会館","province":"東京都","city":"墨田区","address":"東京都墨田区東墨田2丁目12-9","lat":35.72135158,"lon":139.83258985},{"name":"江東西工区","province":"東京都","city":"墨田区","address":"東京都墨田区両国1丁目12-5","lat":35.69562534,"lon":139.79045718},{"name":"墨田工区","province":"東京都","city":"墨田区","address":"東京都墨田区堤通1丁目16-4","lat":35.72574067,"lon":139.81097687},{"name":"平井橋水防倉庫","province":"東京都","city":"墨田区","address":"東京都墨田区立花3丁目29-10","lat":35.70835795,"lon":139.83697888},{"name":"東墨田会館","province":"東京都","city":"墨田区","address":"東京都墨田区東墨田2丁目12-9","lat":35.72135158,"lon":139.83258985},{"name":"江東西工区","province":"東京都","city":"墨田区","address":"東京都墨田区両国1丁目12-5","lat":35.69562534,"lon":139.79045718},{"name":"墨田工区","province":"東京都","city":"墨田区","address":"東京都墨田区堤通1丁目16-4","lat":35.72574067,"lon":139.81097687},{"name":"平井橋水防倉庫","province":"東京都","city":"墨田区","address":"東京都墨田区立花3丁目29-10","lat":35.70835795,"lon":139.83697888},{"name":"東墨田会館","province":"東京都","city":"墨田区","address":"東京都墨田区東墨田2丁目12-9","lat":35.72135158,"lon":139.83258985},{"name":"江東西工区","province":"東京都","city":"墨田区","address":"東京都墨田区両国1丁目12-5","lat":35.69562534,"lon":139.79045718},{"name":"墨田工区","province":"東京都","city":"墨田区","address":"東京都墨田区堤通1丁目16-4","lat":35.72574067,"lon":139.81097687},{"name":"平井橋水防倉庫","province":"東京都","city":"墨田区","address":"東京都墨田区立花3丁目29-10","lat":35.70835795,"lon":139.83697888},{"name":"東墨田会館","province":"東京都","city":"墨田区","address":"東京都墨田区東墨田2丁目12-9","lat":35.72135158,"lon":139.83258985},{"name":"江東西工区","province":"東京都","city":"墨田区","address":"東京都墨田区両国1丁目12-5","lat":35.69562534,"lon":139.79045718},{"name":"墨田工区","province":"東京都","city":"墨田区","address":"東京都墨田区堤通1丁目16-4","lat":35.72574067,"lon":139.81097687},{"name":"平井橋水防倉庫","province":"東京都","city":"墨田区","address":"東京都墨田区立花3丁目29-10","lat":35.70835795,"lon":139.83697888},{"name":"東墨田会館","province":"東京都","city":"墨田区","address":"東京都墨田区東墨田2丁目12-9","lat":35.72135158,"lon":139.83258985},{"name":"江東西工区","province":"東京都","city":"墨田区","address":"東京都墨田区両国1丁目12-5","lat":35.69562534,"lon":139.79045718},{"name":"墨田工区","province":"東京都","city":"墨田区","address":"東京都墨田区堤通1丁目16-4","lat":35.72574067,"lon":139.81097687},{"name":"平井橋水防倉庫","province":"東京都","city":"墨田区","address":"東京都墨田区立花3丁目29-10","lat":35.70835795,"lon":139.83697888},{"name":"東墨田会館","province":"東京都","city":"墨田区","address":"東京都墨田区東墨田2丁目12-9","lat":35.72135158,"lon":139.83258985},{"name":"江東西工区","province":"東京都","city":"墨田区","address":"東京都墨田区両国1丁目12-5","lat":35.69562534,"lon":139.79045718},{"name":"墨田工区","province":"東京都","city":"墨田区","address":"東京都墨田区堤通1丁目16-4","lat":35.72574067,"lon":139.81097687},{"name":"平井橋水防倉庫","province":"東京都","city":"墨田区","address":"東京都墨田区立花3丁目29-10","lat":35.70835795,"lon":139.83697888},{"name":"東墨田会館","province":"東京都","city":"墨田区","address":"東京都墨田区東墨田2丁目12-9","lat":35.72135158,"lon":139.83258985},{"name":"江東西工区","province":"東京都","city":"墨田区","address":"東京都墨田区両国1丁目12-5","lat":35.69562534,"lon":139.79045718},{"name":"墨田工区","province":"東京都","city":"墨田区","address":"東京都墨田区堤通1丁目16-4","lat":35.72574067,"lon":139.81097687},{"name":"平井橋水防倉庫","province":"東京都","city":"墨田区","address":"東京都墨田区立花3丁目29-10","lat":35.70835795,"lon":139.83697888},{"name":"東墨田会館","province":"東京都","city":"墨田区","address":"東京都墨田区東墨田2丁目12-9","lat":35.72135158,"lon":139.83258985},{"name":"江東西工区","province":"東京都","city":"墨田区","address":"東京都墨田区両国1丁目12-5","lat":35.69562534,"lon":139.79045718},{"name":"墨田工区","province":"東京都","city":"墨田区","address":"東京都墨田区堤通1丁目16-4","lat":35.72574067,"lon":139.81097687},{"name":"平井橋水防倉庫","province":"東京都","city":"墨田区","address":"東京都墨田区立花3丁目29-10","lat":35.70835795,"lon":139.83697888},{"name":"東墨田会館","province":"東京都","city":"墨田区","address":"東京都墨田区東墨田2丁目12-9","lat":35.72135158,"lon":139.83258985},{"name":"江東西工区","province":"東京都","city":"墨田区","address":"東京都墨田区両国1丁目12-5","lat":35.69562534,"lon":139.79045718},{"name":"墨田工区","province":"東京都","city":"墨田区","address":"東京都墨田区堤通1丁目16-4","lat":35.72574067,"lon":139.81097687},{"name":"平井橋水防倉庫","province":"東京都","city":"墨田区","address":"東京都墨田区立花3丁目29-10","lat":35.70835795,"lon":139.83697888},{"name":"東墨田会館","province":"東京都","city":"墨田区","address":"東京都墨田区東墨田2丁目12-9","lat":35.72135158,"lon":139.83258985},{"name":"江東西工区","province":"東京都","city":"墨田区","address":"東京都墨田区両国1丁目12-5","lat":35.69562534,"lon":139.79045718},{"name":"墨田工区","province":"東京都","city":"墨田区","address":"東京都墨田区堤通1丁目16-4","lat":35.72574067,"lon":139.81097687},{"name":"平井橋水防倉庫","province":"東京都","city":"墨田区","address":"東京都墨田区立花3丁目29-10","lat":35.70835795,"lon":139.83697888},{"name":"東墨田会館","province":"東京都","city":"墨田区","address":"東京都墨田区東墨田2丁目12-9","lat":35.72135158,"lon":139.83258985},{"name":"江東西工区","province":"東京都","city":"墨田区","address":"東京都墨田区両国1丁目12-5","lat":35.69562534,"lon":139.79045718},{"name":"墨田工区","province":"東京都","city":"墨田区","address":"東京都墨田区堤通1丁目16-4","lat":35.72574067,"lon":139.81097687},{"name":"平井橋水防倉庫","province":"東京都","city":"墨田区","address":"東京都墨田区立花3丁目29-10","lat":35.70835795,"lon":139.83697888},{"name":"東墨田会館","province":"東京都","city":"墨田区","address":"東京都墨田区東墨田2丁目12-9","lat":35.72135158,"lon":139.83258985},{"name":"江東西工区","province":"東京都","city":"墨田区","address":"東京都墨田区両国1丁目12-5","lat":35.69562534,"lon":139.79045718},{"name":"墨田工区","province":"東京都","city":"墨田区","address":"東京都墨田区堤通1丁目16-4","lat":35.72574067,"lon":139.81097687},{"name":"平井橋水防倉庫","province":"東京都","city":"墨田区","address":"東京都墨田区立花3丁目29-10","lat":35.70835795,"lon":139.83697888},{"name":"東墨田会館","province":"東京都","city":"墨田区","address":"東京都墨田区東墨田2丁目12-9","lat":35.72135158,"lon":139.83258985},{"name":"江東西工区","province":"東京都","city":"墨田区","address":"東京都墨田区両国1丁目12-5","lat":35.69562534,"lon":139.79045718},{"name":"墨田工区","province":"東京都","city":"墨田区","address":"東京都墨田区堤通1丁目16-4","lat":35.72574067,"lon":139.81097687},{"name":"平井橋水防倉庫","province":"東京都","city":"墨田区","address":"東京都墨田区立花3丁目29-10","lat":35.70835795,"lon":139.83697888},{"name":"東墨田会館","province":"東京都","city":"墨田区","address":"東京都墨田区東墨田2丁目12-9","lat":35.72135158,"lon":139.83258985},{"name":"江東西工区","province":"東京都","city":"墨田区","address":"東京都墨田区両国1丁目12-5","lat":35.69562534,"lon":139.79045718},{"name":"墨田工区","province":"東京都","city":"墨田区","address":"東京都墨田区堤通1丁目16-4","lat":35.72574067,"lon":139.81097687},{"name":"平井橋水防倉庫","province":"東京都","city":"墨田区","address":"東京都墨田区立花3丁目29-10","lat":35.70835795,"lon":139.83697888},{"name":"東墨田会館","province":"東京都","city":"墨田区","address":"東京都墨田区東墨田2丁目12-9","lat":35.72135158,"lon":139.83258985},{"name":"江東西工区","province":"東京都","city":"墨田区","address":"東京都墨田区両国1丁目12-5","lat":35.69562534,"lon":139.79045718},{"name":"墨田工区","province":"東京都","city":"墨田区","address":"東京都墨田区堤通1丁目16-4","lat":35.72574067,"lon":139.81097687},{"name":"平井橋水防倉庫","province":"東京都","city":"墨田区","address":"東京都墨田区立花3丁目29-10","lat":35.70835795,"lon":139.83697888},{"name":"東墨田会館","province":"東京都","city":"墨田区","address":"東京都墨田区東墨田2丁目12-9","lat":35.72135158,"lon":139.83258985},{"name":"江東西工区","province":"東京都","city":"墨田区","address":"東京都墨田区両国1丁目12-5","lat":35.69562534,"lon":139.79045718},{"name":"墨田工区","province":"東京都","city":"墨田区","address":"東京都墨田区堤通1丁目16-4","lat":35.72574067,"lon":139.81097687},{"name":"平井橋水防倉庫","province":"東京都","city":"墨田区","address":"東京都墨田区立花3丁目29-10","lat":35.70835795,"lon":139.83697888},{"name":"東墨田会館","province":"東京都","city":"墨田区","address":"東京都墨田区東墨田2丁目12-9","lat":35.72135158,"lon":139.83258985},{"name":"江東西工区","province":"東京都","city":"墨田区","address":"東京都墨田区両国1丁目12-5","lat":35.69562534,"lon":139.79045718},{"name":"墨田工区","province":"東京都","city":"墨田区","address":"東京都墨田区堤通1丁目16-4","lat":35.72574067,"lon":139.81097687},{"name":"平井橋水防倉庫","province":"東京都","city":"墨田区","address":"東京都墨田区立花3丁目29-10","lat":35.70835795,"lon":139.83697888},{"name":"東墨田会館","province":"東京都","city":"墨田区","address":"東京都墨田区東墨田2丁目12-9","lat":35.72135158,"lon":139.83258985},{"name":"江東西工区","province":"東京都","city":"墨田区","address":"東京都墨田区両国1丁目12-5","lat":35.69562534,"lon":139.79045718},{"name":"墨田工区","province":"東京都","city":"墨田区","address":"東京都墨田区堤通1丁目16-4","lat":35.72574067,"lon":139.81097687},{"name":"平井橋水防倉庫","province":"東京都","city":"墨田区","address":"東京都墨田区立花3丁目29-10","lat":35.70835795,"lon":139.83697888},{"name":"東墨田会館","province":"東京都","city":"墨田区","address":"東京都墨田区東墨田2丁目12-9","lat":35.72135158,"lon":139.83258985},{"name":"江東西工区","province":"東京都","city":"墨田区","address":"東京都墨田区両国1丁目12-5","lat":35.69562534,"lon":139.79045718},{"name":"墨田工区","province":"東京都","city":"墨田区","address":"東京都墨田区堤通1丁目16-4","lat":35.72574067,"lon":139.81097687},{"name":"平井橋水防倉庫","province":"東京都","city":"墨田区","address":"東京都墨田区立花3丁目29-10","lat":35.70835795,"lon":139.83697888},{"name":"東墨田会館","province":"東京都","city":"墨田区","address":"東京都墨田区東墨田2丁目12-9","lat":35.72135158,"lon":139.83258985},{"name":"江東西工区","province":"東京都","city":"墨田区","address":"東京都墨田区両国1丁目12-5","lat":35.69562534,"lon":139.79045718},{"name":"墨田工区","province":"東京都","city":"墨田区","address":"東京都墨田区堤通1丁目16-4","lat":35.72574067,"lon":139.81097687},{"name":"平井橋水防倉庫","province":"東京都","city":"墨田区","address":"東京都墨田区立花3丁目29-10","lat":35.70835795,"lon":139.83697888},{"name":"東墨田会館","province":"東京都","city":"墨田区","address":"東京都墨田区東墨田2丁目12-9","lat":35.72135158,"lon":139.83258985},{"name":"江東西工区","province":"東京都","city":"墨田区","address":"東京都墨田区両国1丁目12-5","lat":35.69562534,"lon":139.79045718},{"name":"墨田工区","province":"東京都","city":"墨田区","address":"東京都墨田区堤通1丁目16-4","lat":35.72574067,"lon":139.81097687},{"name":"平井橋水防倉庫","province":"東京都","city":"墨田区","address":"東京都墨田区立花3丁目29-10","lat":35.70835795,"lon":139.83697888},{"name":"東墨田会館","province":"東京都","city":"墨田区","address":"東京都墨田区東墨田2丁目12-9","lat":35.72135158,"lon":139.83258985},{"name":"江東西工区","province":"東京都","city":"墨田区","address":"東京都墨田区両国1丁目12-5","lat":35.69562534,"lon":139.79045718},{"name":"墨田工区","province":"東京都","city":"墨田区","address":"東京都墨田区堤通1丁目16-4","lat":35.72574067,"lon":139.81097687},{"name":"平井橋水防倉庫","province":"東京都","city":"墨田区","address":"東京都墨田区立花3丁目29-10","lat":35.70835795,"lon":139.83697888},{"name":"東墨田会館","province":"東京都","city":"墨田区","address":"東京都墨田区東墨田2丁目12-9","lat":35.72135158,"lon":139.83258985},{"name":"江東西工区","province":"東京都","city":"墨田区","address":"東京都墨田区両国1丁目12-5","lat":35.69562534,"lon":139.79045718},{"name":"墨田工区","province":"東京都","city":"墨田区","address":"東京都墨田区堤通1丁目16-4","lat":35.72574067,"lon":139.81097687},{"name":"平井橋水防倉庫","province":"東京都","city":"墨田区","address":"東京都墨田区立花3丁目29-10","lat":35.70835795,"lon":139.83697888},{"name":"東墨田会館","province":"東京都","city":"墨田区","address":"東京都墨田区東墨田2丁目12-9","lat":35.72135158,"lon":139.83258985},{"name":"江東西工区","province":"東京都","city":"墨田区","address":"東京都墨田区両国1丁目12-5","lat":35.69562534,"lon":139.79045718},{"name":"墨田工区","province":"東京都","city":"墨田区","address":"東京都墨田区堤通1丁目16-4","lat":35.72574067,"lon":139.81097687},{"name":"平井橋水防倉庫","province":"東京都","city":"墨田区","address":"東京都墨田区立花3丁目29-10","lat":35.70835795,"lon":139.83697888},{"name":"東墨田会館","province":"東京都","city":"墨田区","address":"東京都墨田区東墨田2丁目12-9","lat":35.72135158,"lon":139.83258985},{"name":"江東西工区","province":"東京都","city":"墨田区","address":"東京都墨田区両国1丁目12-5","lat":35.69562534,"lon":139.79045718},{"name":"墨田工区","province":"東京都","city":"墨田区","address":"東京都墨田区堤通1丁目16-4","lat":35.72574067,"lon":139.81097687},{"name":"平井橋水防倉庫","province":"東京都","city":"墨田区","address":"東京都墨田区立花3丁目29-10","lat":35.70835795,"lon":139.83697888},{"name":"東墨田会館","province":"東京都","city":"墨田区","address":"東京都墨田区東墨田2丁目12-9","lat":35.72135158,"lon":139.83258985},{"name":"江東西工区","province":"東京都","city":"墨田区","address":"東京都墨田区両国1丁目12-5","lat":35.69562534,"lon":139.79045718},{"name":"墨田工区","province":"東京都","city":"墨田区","address":"東京都墨田区堤通1丁目16-4","lat":35.72574067,"lon":139.81097687},{"name":"平井橋水防倉庫","province":"東京都","city":"墨田区","address":"東京都墨田区立花3丁目29-10","lat":35.70835795,"lon":139.83697888},{"name":"東墨田会館","province":"東京都","city":"墨田区","address":"東京都墨田区東墨田2丁目12-9","lat":35.72135158,"lon":139.83258985},{"name":"江東西工区","province":"東京都","city":"墨田区","address":"東京都墨田区両国1丁目12-5","lat":35.69562534,"lon":139.79045718},{"name":"墨田工区","province":"東京都","city":"墨田区","address":"東京都墨田区堤通1丁目16-4","lat":35.72574067,"lon":139.81097687},{"name":"平井橋水防倉庫","province":"東京都","city":"墨田区","address":"東京都墨田区立花3丁目29-10","lat":35.70835795,"lon":139.83697888},{"name":"東墨田会館","province":"東京都","city":"墨田区","address":"東京都墨田区東墨田2丁目12-9","lat":35.72135158,"lon":139.83258985},{"name":"江東西工区","province":"東京都","city":"墨田区","address":"東京都墨田区両国1丁目12-5","lat":35.69562534,"lon":139.79045718},{"name":"墨田工区","province":"東京都","city":"墨田区","address":"東京都墨田区堤通1丁目16-4","lat":35.72574067,"lon":139.81097687},{"name":"平井橋水防倉庫","province":"東京都","city":"墨田区","address":"東京都墨田区立花3丁目29-10","lat":35.70835795,"lon":139.83697888},{"name":"東墨田会館","province":"東京都","city":"墨田区","address":"東京都墨田区東墨田2丁目12-9","lat":35.72135158,"lon":139.83258985},{"name":"江東西工区","province":"東京都","city":"墨田区","address":"東京都墨田区両国1丁目12-5","lat":35.69562534,"lon":139.79045718},{"name":"墨田工区","province":"東京都","city":"墨田区","address":"東京都墨田区堤通1丁目16-4","lat":35.72574067,"lon":139.81097687},{"name":"平井橋水防倉庫","province":"東京都","city":"墨田区","address":"東京都墨田区立花3丁目29-10","lat":35.70835795,"lon":139.83697888},{"name":"東墨田会館","province":"東京都","city":"墨田区","address":"東京都墨田区東墨田2丁目12-9","lat":35.72135158,"lon":139.83258985},{"name":"江東西工区","province":"東京都","city":"墨田区","address":"東京都墨田区両国1丁目12-5","lat":35.69562534,"lon":139.79045718},{"name":"墨田工区","province":"東京都","city":"墨田区","address":"東京都墨田区堤通1丁目16-4","lat":35.72574067,"lon":139.81097687},{"name":"平井橋水防倉庫","province":"東京都","city":"墨田区","address":"東京都墨田区立花3丁目29-10","lat":35.70835795,"lon":139.83697888},{"name":"東墨田会館","province":"東京都","city":"墨田区","address":"東京都墨田区東墨田2丁目12-9","lat":35.72135158,"lon":139.83258985},{"name":"江東西工区","province":"東京都","city":"墨田区","address":"東京都墨田区両国1丁目12-5","lat":35.69562534,"lon":139.79045718},{"name":"墨田工区","province":"東京都","city":"墨田区","address":"東京都墨田区堤通1丁目16-4","lat":35.72574067,"lon":139.81097687},{"name":"平井橋水防倉庫","province":"東京都","city":"墨田区","address":"東京都墨田区立花3丁目29-10","lat":35.70835795,"lon":139.83697888},{"name":"東墨田会館","province":"東京都","city":"墨田区","address":"東京都墨田区東墨田2丁目12-9","lat":35.72135158,"lon":139.83258985},{"name":"江東西工区","province":"東京都","city":"墨田区","address":"東京都墨田区両国1丁目12-5","lat":35.69562534,"lon":139.79045718},{"name":"墨田工区","province":"東京都","city":"墨田区","address":"東京都墨田区堤通1丁目16-4","lat":35.72574067,"lon":139.81097687},{"name":"平井橋水防倉庫","province":"東京都","city":"墨田区","address":"東京都墨田区立花3丁目29-10","lat":35.70835795,"lon":139.83697888},{"name":"東墨田会館","province":"東京都","city":"墨田区","address":"東京都墨田区東墨田2丁目12-9","lat":35.72135158,"lon":139.83258985},{"name":"江東西工区","province":"東京都","city":"墨田区","address":"東京都墨田区両国1丁目12-5","lat":35.69562534,"lon":139.79045718},{"name":"墨田工区","province":"東京都","city":"墨田区","address":"東京都墨田区堤通1丁目16-4","lat":35.72574067,"lon":139.81097687},{"name":"平井橋水防倉庫","province":"東京都","city":"墨田区","address":"東京都墨田区立花3丁目29-10","lat":35.70835795,"lon":139.83697888},{"name":"東墨田会館","province":"東京都","city":"墨田区","address":"東京都墨田区東墨田2丁目12-9","lat":35.72135158,"lon":139.83258985},{"name":"江東西工区","province":"東京都","city":"墨田区","address":"東京都墨田区両国1丁目12-5","lat":35.69562534,"lon":139.79045718},{"name":"墨田工区","province":"東京都","city":"墨田区","address":"東京都墨田区堤通1丁目16-4","lat":35.72574067,"lon":139.81097687},{"name":"平井橋水防倉庫","province":"東京都","city":"墨田区","address":"東京都墨田区立花3丁目29-10","lat":35.70835795,"lon":139.83697888},{"name":"東墨田会館","province":"東京都","city":"墨田区","address":"東京都墨田区東墨田2丁目12-9","lat":35.72135158,"lon":139.83258985},{"name":"江東西工区","province":"東京都","city":"墨田区","address":"東京都墨田区両国1丁目12-5","lat":35.69562534,"lon":139.79045718},{"name":"墨田工区","province":"東京都","city":"墨田区","address":"東京都墨田区堤通1丁目16-4","lat":35.72574067,"lon":139.81097687},{"name":"平井橋水防倉庫","province":"東京都","city":"墨田区","address":"東京都墨田区立花3丁目29-10","lat":35.70835795,"lon":139.83697888},{"name":"東墨田会館","province":"東京都","city":"墨田区","address":"東京都墨田区東墨田2丁目12-9","lat":35.72135158,"lon":139.83258985},{"name":"江東西工区","province":"東京都","city":"墨田区","address":"東京都墨田区両国1丁目12-5","lat":35.69562534,"lon":139.79045718},{"name":"墨田工区","province":"東京都","city":"墨田区","address":"東京都墨田区堤通1丁目16-4","lat":35.72574067,"lon":139.81097687},{"name":"平井橋水防倉庫","province":"東京都","city":"墨田区","address":"東京都墨田区立花3丁目29-10","lat":35.70835795,"lon":139.83697888},{"name":"東墨田会館","province":"東京都","city":"墨田区","address":"東京都墨田区東墨田2丁目12-9","lat":35.72135158,"lon":139.83258985},{"name":"江東西工区","province":"東京都","city":"墨田区","address":"東京都墨田区両国1丁目12-5","lat":35.69562534,"lon":139.79045718},{"name":"墨田工区","province":"東京都","city":"墨田区","address":"東京都墨田区堤通1丁目16-4","lat":35.72574067,"lon":139.81097687},{"name":"平井橋水防倉庫","province":"東京都","city":"墨田区","address":"東京都墨田区立花3丁目29-10","lat":35.70835795,"lon":139.83697888},{"name":"東墨田会館","province":"東京都","city":"墨田区","address":"東京都墨田区東墨田2丁目12-9","lat":35.72135158,"lon":139.83258985},{"name":"江東西工区","province":"東京都","city":"墨田区","address":"東京都墨田区両国1丁目12-5","lat":35.69562534,"lon":139.79045718},{"name":"墨田工区","province":"東京都","city":"墨田区","address":"東京都墨田区堤通1丁目16-4","lat":35.72574067,"lon":139.81097687},{"name":"平井橋水防倉庫","province":"東京都","city":"墨田区","address":"東京都墨田区立花3丁目29-10","lat":35.70835795,"lon":139.83697888},{"name":"東墨田会館","province":"東京都","city":"墨田区","address":"東京都墨田区東墨田2丁目12-9","lat":35.72135158,"lon":139.83258985},{"name":"江東西工区","province":"東京都","city":"墨田区","address":"東京都墨田区両国1丁目12-5","lat":35.69562534,"lon":139.79045718},{"name":"墨田工区","province":"東京都","city":"墨田区","address":"東京都墨田区堤通1丁目16-4","lat":35.72574067,"lon":139.81097687},{"name":"平井橋水防倉庫","province":"東京都","city":"墨田区","address":"東京都墨田区立花3丁目29-10","lat":35.70835795,"lon":139.83697888},{"name":"東墨田会館","province":"東京都","city":"墨田区","address":"東京都墨田区東墨田2丁目12-9","lat":35.72135158,"lon":139.83258985},{"name":"江東西工区","province":"東京都","city":"墨田区","address":"東京都墨田区両国1丁目12-5","lat":35.69562534,"lon":139.79045718},{"name":"墨田工区","province":"東京都","city":"墨田区","address":"東京都墨田区堤通1丁目16-4","lat":35.72574067,"lon":139.81097687},{"name":"平井橋水防倉庫","province":"東京都","city":"墨田区","address":"東京都墨田区立花3丁目29-10","lat":35.70835795,"lon":139.83697888},{"name":"東墨田会館","province":"東京都","city":"墨田区","address":"東京都墨田区東墨田2丁目12-9","lat":35.72135158,"lon":139.83258985},{"name":"江東西工区","province":"東京都","city":"墨田区","address":"東京都墨田区両国1丁目12-5","lat":35.69562534,"lon":139.79045718},{"name":"墨田工区","province":"東京都","city":"墨田区","address":"東京都墨田区堤通1丁目16-4","lat":35.72574067,"lon":139.81097687},{"name":"平井橋水防倉庫","province":"東京都","city":"墨田区","address":"東京都墨田区立花3丁目29-10","lat":35.70835795,"lon":139.83697888},{"name":"東墨田会館","province":"東京都","city":"墨田区","address":"東京都墨田区東墨田2丁目12-9","lat":35.72135158,"lon":139.83258985},{"name":"江東西工区","province":"東京都","city":"墨田区","address":"東京都墨田区両国1丁目12-5","lat":35.69562534,"lon":139.79045718},{"name":"墨田工区","province":"東京都","city":"墨田区","address":"東京都墨田区堤通1丁目16-4","lat":35.72574067,"lon":139.81097687},{"name":"平井橋水防倉庫","province":"東京都","city":"墨田区","address":"東京都墨田区立花3丁目29-10","lat":35.70835795,"lon":139.83697888},{"name":"東墨田会館","province":"東京都","city":"墨田区","address":"東京都墨田区東墨田2丁目12-9","lat":35.72135158,"lon":139.83258985},{"name":"江東西工区","province":"東京都","city":"墨田区","address":"東京都墨田区両国1丁目12-5","lat":35.69562534,"lon":139.79045718},{"name":"墨田工区","province":"東京都","city":"墨田区","address":"東京都墨田区堤通1丁目16-4","lat":35.72574067,"lon":139.81097687},{"name":"平井橋水防倉庫","province":"東京都","city":"墨田区","address":"東京都墨田区立花3丁目29-10","lat":35.70835795,"lon":139.83697888},{"name":"東墨田会館","province":"東京都","city":"墨田区","address":"東京都墨田区東墨田2丁目12-9","lat":35.72135158,"lon":139.83258985},{"name":"江東西工区","province":"東京都","city":"墨田区","address":"東京都墨田区両国1丁目12-5","lat":35.69562534,"lon":139.79045718},{"name":"墨田工区","province":"東京都","city":"墨田区","address":"東京都墨田区堤通1丁目16-4","lat":35.72574067,"lon":139.81097687},{"name":"平井橋水防倉庫","province":"東京都","city":"墨田区","address":"東京都墨田区立花3丁目29-10","lat":35.70835795,"lon":139.83697888},{"name":"東墨田会館","province":"東京都","city":"墨田区","address":"東京都墨田区東墨田2丁目12-9","lat":35.72135158,"lon":139.83258985},{"name":"江東西工区","province":"東京都","city":"墨田区","address":"東京都墨田区両国1丁目12-5","lat":35.69562534,"lon":139.79045718},{"name":"墨田工区","province":"東京都","city":"墨田区","address":"東京都墨田区堤通1丁目16-4","lat":35.72574067,"lon":139.81097687},{"name":"平井橋水防倉庫","province":"東京都","city":"墨田区","address":"東京都墨田区立花3丁目29-10","lat":35.70835795,"lon":139.83697888}]}