{"keyword":"子育て","data":[{"name":"江東橋児童館","province":"東京都","city":"墨田区","address":"墨田区江東橋一丁目15番4号","lat":35.695885,"lon":139.809697},{"name":"東向島児童館分館","province":"東京都","city":"墨田区","address":"墨田区京島一丁目44番21号","lat":35.719301,"lon":139.820973},{"name":"立川児童館","province":"東京都","city":"墨田区","address":"墨田区立川一丁目5番2号","lat":35.690501,"lon":139.799531},{"name":"中川児童館","province":"東京都","city":"墨田区","address":"墨田区立花五丁目18番9号","lat":35.712947,"lon":139.831038},{"name":"八広はなみずき児童館","province":"東京都","city":"墨田区","address":"墨田区八広四丁目27番8号","lat":35.724575,"lon":139.829421},{"name":"さくら橋コミュニティセンター","province":"東京都","city":"墨田区","address":"墨田区向島二丁目3番8号","lat":35.713681,"lon":139.805844},{"name":"わんぱく天国","province":"東京都","city":"墨田区","address":"墨田区押上一丁目47番8号","lat":35.709275,"lon":139.817281},{"name":"両国子育てひろば","province":"東京都","city":"墨田区","address":"墨田区横網一丁目2番13号ヒューリック両国リバーセンター","lat":35.697824,"lon":139.792408},{"name":"文花子育てひろば","province":"東京都","city":"墨田区","address":"墨田区文花一丁目20番7号","lat":35.710609,"lon":139.822403},{"name":"すみだファミリー・サポート・センター","province":"東京都","city":"墨田区","address":"墨田区亀沢三丁目20番11号関根ビル4階","lat":35.697483,"lon":139.803467}]}