{"keyword":"学校","data":[{"name":"両国高等学校","province":"東京都","city":"墨田区","address":"墨田区江東橋一丁目7番14号","lat":35.694493,"lon":139.810071},{"name":"本所高等学校","province":"東京都","city":"墨田区","address":"墨田区向島三丁目37番25号","lat":35.714604,"lon":139.811228},{"name":"墨田川高等学校","province":"東京都","city":"墨田区","address":"墨田区東向島三丁目34番14号","lat":35.721853,"lon":139.816253},{"name":"日本橋高等学校","province":"東京都","city":"墨田区","address":"墨田区八広一丁目28番21号","lat":35.719968,"lon":139.823889},{"name":"橘高等学校","province":"東京都","city":"墨田区","address":"墨田区立花四丁目29番7号","lat":35.709339,"lon":139.833663},{"name":"日本大学第一高等学校","province":"東京都","city":"墨田区","address":"墨田区横網一丁目5番2号","lat":35.697431,"lon":139.796884},{"name":"安田学園高等学校","province":"東京都","city":"墨田区","address":"墨田区横網二丁目2番25号","lat":35.699879,"lon":139.795841},{"name":"立志舎高等学校","province":"東京都","city":"墨田区","address":"墨田区太平二丁目9番6号","lat":35.700831,"lon":139.812937},{"name":"都立墨田特別支援学校","province":"東京都","city":"墨田区","address":"墨田区八広五丁目10番2号","lat":35.725189,"lon":139.825215},{"name":"情報経営イノベーション専門職大学（iU）","province":"東京都","city":"墨田区","address":"墨田区文花一丁目18番13号","lat":35.711501,"lon":139.823724},{"name":"千葉大学墨田サテライトキャンパス","province":"東京都","city":"墨田区","address":"墨田区文花一丁目19番1号","lat":35.710546,"lon":139.823586},{"name":"専門学校アニメ・アーティスト・アカデミー","province":"東京都","city":"墨田区","address":"墨田区両国二丁目17番5号","lat":35.701434,"lon":139.800091},{"name":"了徳寺学園医療専門学校","province":"東京都","city":"墨田区","address":"墨田区両国四丁目27番4号","lat":35.694228,"lon":139.795045},{"name":"東京環境工科専門学校","province":"東京都","city":"墨田区","address":"墨田区江東橋三丁目3番7号","lat":35.693698,"lon":139.814082},{"name":"東京医学技術専門学校","province":"東京都","city":"墨田区","address":"墨田区横網一丁目10番8号","lat":35.698389,"lon":139.794838},{"name":"専門学校日本鉄道＆スポーツビジネスカレッジ21","province":"東京都","city":"墨田区","address":"墨田区錦糸一丁目2番1号","lat":35.697383,"lon":139.811391},{"name":"専門学校日本動物21","province":"東京都","city":"墨田区","address":"墨田区錦糸一丁目11番10号","lat":35.698638,"lon":139.809552},{"name":"東京IT会計専門学校","province":"東京都","city":"墨田区","address":"墨田区錦糸二丁目13番7号","lat":35.699337,"lon":139.813195},{"name":"東京法律専門学校","province":"東京都","city":"墨田区","address":"墨田区太平一丁目9番8号","lat":35.699996,"lon":139.811583},{"name":"東京墨田看護専門学校","province":"東京都","city":"墨田区","address":"墨田区東向島五丁目6番6号","lat":35.725901,"lon":139.820798},{"name":"秀林日本語学校","province":"東京都","city":"墨田区","address":"墨田区両国一丁目2番3号","lat":35.692668,"lon":139.789872},{"name":"東京明生日本語学院","province":"東京都","city":"墨田区","address":"墨田区緑一丁目2番10号","lat":35.692692,"lon":139.798528},{"name":"東京朝鮮第五初中級学校","province":"東京都","city":"墨田区","address":"墨田区八広五丁目22番15号","lat":35.722842,"lon":139.825782},{"name":"向島珠算学校","province":"東京都","city":"墨田区","address":"墨田区墨田三丁目21番17号","lat":35.730665,"lon":139.821637},{"name":"渡辺珠算学校","province":"東京都","city":"墨田区","address":"墨田区横川四丁目10番2号","lat":35.705491,"lon":139.815751}]}