{"keyword":"宿泊","data":[{"name":"ＳＷワーク墨田寮","province":"東京都","city":"墨田区","address":"墨田区東墨田2-4-12","lat":35.719988,"lon":139.83264},{"name":"ぽたらか寮","province":"東京都","city":"墨田区","address":"墨田区八広6-1-8","lat":35.728791,"lon":139.825802},{"name":"ふるさと・せせらぎ館","province":"東京都","city":"墨田区","address":"墨田区文花3-19-6","lat":35.711342,"lon":139.827055},{"name":"向島荘","province":"東京都","city":"墨田区","address":"墨田区向島4-12-13","lat":35.716869,"lon":139.813228},{"name":"千歳荘","province":"東京都","city":"墨田区","address":"墨田区千歳2-6-3","lat":35.691082,"lon":139.794258},{"name":"フラワーハイツ","province":"東京都","city":"墨田区","address":"東京都墨田区","lat":35.71040718,"lon":139.80155995},{"name":"さくら向島ハウス","province":"東京都","city":"墨田区","address":"墨田区向島5-14-6","lat":35.718713,"lon":139.811021},{"name":"ふるさと・向島５丁目ハウス","province":"東京都","city":"墨田区","address":"墨田区向島5-13-21","lat":35.719019,"lon":139.81016},{"name":"風待ちハウス","province":"東京都","city":"墨田区","address":"東京都墨田区","lat":35.71040718,"lon":139.80155995},{"name":"あさひ　第３八広寮","province":"東京都","city":"墨田区","address":"墨田区八広3-1-3","lat":35.718752,"lon":139.824988},{"name":"あさひ　宮田記念第３八広寮","province":"東京都","city":"墨田区","address":"墨田区八広3-1-3","lat":35.718752,"lon":139.824988},{"name":"ステップなりひら","province":"東京都","city":"墨田区","address":"墨田区業平2-10-11","lat":35.707494,"lon":139.811629},{"name":"ステップなりひら","province":"東京都","city":"墨田区","address":"墨田区業平2-10-11","lat":35.70767,"lon":139.81155},{"name":"千歳荘","province":"東京都","city":"墨田区","address":"墨田区千歳2-6-3","lat":35.69098,"lon":139.79436},{"name":"向島荘","province":"東京都","city":"墨田区","address":"墨田区向島4-12-13","lat":35.71723,"lon":139.81325},{"name":"さくら向島ハウス","province":"東京都","city":"墨田区","address":"墨田区向島5-14-6","lat":35.71883,"lon":139.81097},{"name":"ふるさと・向島５丁目ハウス","province":"東京都","city":"墨田区","address":"墨田区向島5-13-21","lat":35.71927,"lon":139.81062},{"name":"ぽたらか寮","province":"東京都","city":"墨田区","address":"墨田区八広6-1-8","lat":35.72862,"lon":139.82535},{"name":"あさひ　第３八広寮","province":"東京都","city":"墨田区","address":"墨田区八広3-1-3","lat":35.71876,"lon":139.82495},{"name":"あさひ　宮田記念第３八広寮","province":"東京都","city":"墨田区","address":"墨田区八広3-1-3","lat":35.71876,"lon":139.82495},{"name":"ふるさと・せせらぎ館","province":"東京都","city":"墨田区","address":"墨田区文花3-19-6","lat":35.71143,"lon":139.82701}]}