{"keyword":"幼稚園","data":[{"name":"緑幼稚園","province":"東京都","city":"墨田区","address":"墨田区緑二丁目11番5号","lat":35.69394,"lon":139.800797},{"name":"菊川幼稚園","province":"東京都","city":"墨田区","address":"墨田区立川四丁目12番15号","lat":35.691621,"lon":139.807607},{"name":"第三寺島幼稚園","province":"東京都","city":"墨田区","address":"墨田区東向島六丁目8番1号","lat":35.721427,"lon":139.820419},{"name":"曳舟幼稚園","province":"東京都","city":"墨田区","address":"墨田区京島一丁目28番2号","lat":35.716019,"lon":139.820805},{"name":"両国幼稚園","province":"東京都","city":"墨田区","address":"墨田区両国二丁目8番10号","lat":35.693532,"lon":139.791443},{"name":"江東学園幼稚園","province":"東京都","city":"墨田区","address":"墨田区横網一丁目7番2号","lat":35.698438,"lon":139.796632},{"name":"本所白百合幼稚園","province":"東京都","city":"墨田区","address":"墨田区石原四丁目37番2号","lat":35.701949,"lon":139.805133},{"name":"言問幼稚園","province":"東京都","city":"墨田区","address":"墨田区向島五丁目4番4号","lat":35.717593,"lon":139.809185},{"name":"墨田幼稚園","province":"東京都","city":"墨田区","address":"墨田区堤通一丁目5番9号","lat":35.723251,"lon":139.811862},{"name":"あさひ幼稚園","province":"東京都","city":"墨田区","address":"墨田区文花一丁目1番10号","lat":35.708525,"lon":139.819184},{"name":"あづま幼稚園","province":"東京都","city":"墨田区","address":"墨田区文花一丁目25番7号","lat":35.709445,"lon":139.823744},{"name":"向島文化幼稚園","province":"東京都","city":"墨田区","address":"墨田区八広六丁目24番6号","lat":35.727148,"lon":139.827704},{"name":"柳島","province":"東京都","city":"墨田区","address":"東京都墨田区横川5丁目2-30","lat":35.70359917,"lon":139.81754005},{"name":"菊川","province":"東京都","city":"墨田区","address":"東京都墨田区立川4丁目12-15","lat":35.69164531,"lon":139.8076726},{"name":"第三寺島","province":"東京都","city":"墨田区","address":"東京都墨田区東向島6丁目8-1","lat":35.72140784,"lon":139.82042783},{"name":"曳舟","province":"東京都","city":"墨田区","address":"東京都墨田区京島1丁目28-2","lat":35.71662214,"lon":139.82089427},{"name":"八広","province":"東京都","city":"墨田区","address":"東京都墨田区八広5丁目12-15","lat":35.72710192,"lon":139.82632158},{"name":"立花","province":"東京都","city":"墨田区","address":"東京都墨田区立花1丁目25-9","lat":35.70481094,"lon":139.83169354},{"name":"あづま","province":"東京都","city":"墨田区","address":"東京都墨田区文花1丁目25-7","lat":35.70941666,"lon":139.82369974},{"name":"江東学園","province":"東京都","city":"墨田区","address":"東京都墨田区横網1丁目7-2","lat":35.69846955,"lon":139.79662613},{"name":"言問","province":"東京都","city":"墨田区","address":"東京都墨田区向島5丁目4-4","lat":35.71784645,"lon":139.80903464},{"name":"墨田","province":"東京都","city":"墨田区","address":"東京都墨田区堤通1丁目5-9","lat":35.72314921,"lon":139.81204315},{"name":"本所白百合","province":"東京都","city":"墨田区","address":"東京都墨田区石原4丁目37-2","lat":35.70169688,"lon":139.80547175},{"name":"向島文化","province":"東京都","city":"墨田区","address":"東京都墨田区八広6丁目24-6","lat":35.72716583,"lon":139.82769918},{"name":"両国","province":"東京都","city":"墨田区","address":"東京都墨田区両国2丁目8-10","lat":35.69330899,"lon":139.79200745}]}