{"keyword":"戸数","data":[{"name":"墨東病院","province":"東京都","city":"墨田区","address":"東京都墨田区江東橋4丁目23-15","lat":35.69530033,"lon":139.81879578},{"name":"墨田区社会福祉協議会","province":"東京都","city":"墨田区","address":"墨田区東向島2-17-14すみだボランティアセンター内","lat":35.718386,"lon":139.815614},{"name":"墨田区","province":"東京都","city":"墨田区","address":"墨田区吾妻橋1-23-20","lat":35.7107242,"lon":139.8014967},{"name":"墨田区社会福祉協議会","province":"東京都","city":"墨田区","address":"墨田区東向島2-17-14すみだボランティアセンター内","lat":35.71862,"lon":139.81561},{"name":"東京都立墨東病院","province":"東京都","city":"墨田区","address":"東京都墨田区江東橋4丁目23-15","lat":35.69530033,"lon":139.81879578},{"name":"白鬚橋病院","province":"東京都","city":"墨田区","address":"東京都墨田区東向島4丁目2-10","lat":35.72795443,"lon":139.81372652},{"name":"区立文花公園","province":"東京都","city":"墨田区","address":"東京都墨田区文花1丁目27-5","lat":35.7094556,"lon":139.82244155},{"name":"区立両国公園","province":"東京都","city":"墨田区","address":"東京都墨田区両国4丁目25-3","lat":35.6937507,"lon":139.79611856},{"name":"白鬚東地区防災拠点","province":"東京都","city":"墨田区","address":"東京都墨田区堤通2丁目","lat":35.73410354,"lon":139.81657811},{"name":"都立墨東病院ヘリポート","province":"東京都","city":"墨田区","address":"東京都墨田区江東橋4丁目23-15","lat":35.69530033,"lon":139.81879578},{"name":"墨田区立東墨田運動場","province":"東京都","city":"墨田区","address":"東京都墨田区東墨田1丁目10","lat":35.71647687,"lon":139.83195391},{"name":"墨田区立新平井橋公園","province":"東京都","city":"墨田区","address":"東京都墨田区東墨田1丁目6-2","lat":35.71565486,"lon":139.83040693},{"name":"白鬚東地区（東白鬚公園）","province":"東京都","city":"墨田区","address":"東京都墨田区堤通2丁目","lat":35.73410354,"lon":139.81657811},{"name":"両国小学校","province":"東京都","city":"墨田区","address":"東京都墨田区両国4丁目26-6","lat":35.69372012,"lon":139.79519078},{"name":"緑小学校","province":"東京都","city":"墨田区","address":"東京都墨田区緑2丁目12-12","lat":35.69402562,"lon":139.80134284},{"name":"中和小学校","province":"東京都","city":"墨田区","address":"東京都墨田区菊川1丁目18-10","lat":35.6901567,"lon":139.80272644},{"name":"菊川小学校","province":"東京都","city":"墨田区","address":"東京都墨田区立川4丁目12-15","lat":35.69164531,"lon":139.8076726},{"name":"錦糸小学校","province":"東京都","city":"墨田区","address":"東京都墨田区錦糸1丁目9-12","lat":35.69876937,"lon":139.81137701},{"name":"柳島小学校","province":"東京都","city":"墨田区","address":"東京都墨田区横川5丁目2-30","lat":35.70359917,"lon":139.81754005},{"name":"業平小学校","province":"東京都","city":"墨田区","address":"東京都墨田区業平2丁目4-8","lat":35.70627427,"lon":139.81149546},{"name":"言問小学校","province":"東京都","city":"墨田区","address":"東京都墨田区向島5丁目40-14","lat":35.71843549,"lon":139.81134557},{"name":"墨田中学校","province":"東京都","city":"墨田区","address":"東京都墨田区向島4丁目25-22","lat":35.71493535,"lon":139.81152561},{"name":"小梅小学校","province":"東京都","city":"墨田区","address":"東京都墨田区向島2丁目4-10","lat":35.71444608,"lon":139.8059344},{"name":"本所中学校","province":"東京都","city":"墨田区","address":"東京都墨田区東駒形3丁目1-10","lat":35.70526321,"lon":139.80276048},{"name":"横川小学校","province":"東京都","city":"墨田区","address":"東京都墨田区東駒形4丁目18-4","lat":35.70716582,"lon":139.80624308},{"name":"外手小学校","province":"東京都","city":"墨田区","address":"東京都墨田区本所2丁目1-16","lat":35.7025968,"lon":139.80059167},{"name":"二葉小学校","province":"東京都","city":"墨田区","address":"東京都墨田区石原2丁目1-5","lat":35.69926388,"lon":139.80008668},{"name":"錦糸中学校","province":"東京都","city":"墨田区","address":"東京都墨田区石原4丁目33-14","lat":35.70140523,"lon":139.80693828},{"name":"竪川中学校","province":"東京都","city":"墨田区","address":"東京都墨田区亀沢4丁目11-15","lat":35.69700853,"lon":139.80583069},{"name":"立花吾嬬の森小学校","province":"東京都","city":"墨田区","address":"東京都墨田区立花1丁目18-6","lat":35.70622472,"lon":139.82971319},{"name":"東吾嬬小学校","province":"東京都","city":"墨田区","address":"東京都墨田区立花4丁目22-11","lat":35.70854692,"lon":139.83205434},{"name":"中川小学校","province":"東京都","city":"墨田区","address":"東京都墨田区立花5丁目49-4","lat":35.71334666,"lon":139.83150135},{"name":"桜堤中学校","province":"東京都","city":"墨田区","address":"東京都墨田区堤通2丁目19-1","lat":35.73056511,"lon":139.81190987},{"name":"八広地域プラザ","province":"東京都","city":"墨田区","address":"東京都墨田区八広4丁目35-17","lat":35.72349353,"lon":139.82925713},{"name":"八広小学校","province":"東京都","city":"墨田区","address":"東京都墨田区八広5丁目12-15","lat":35.72710192,"lon":139.82632158},{"name":"吾嬬第二中学校","province":"東京都","city":"墨田区","address":"東京都墨田区八広4丁目4-4","lat":35.72149362,"lon":139.8271268},{"name":"寺島中学校","province":"東京都","city":"墨田区","address":"東京都墨田区八広1丁目17-15","lat":35.72013008,"lon":139.82316626},{"name":"第三吾嬬小学校","province":"東京都","city":"墨田区","address":"東京都墨田区八広2丁目36-3","lat":35.71717161,"lon":139.82774891},{"name":"第四吾嬬小学校","province":"東京都","city":"墨田区","address":"東京都墨田区京島3丁目64-9","lat":35.7131389,"lon":139.82518538},{"name":"曳舟小学校","province":"東京都","city":"墨田区","address":"東京都墨田区京島1丁目28-2","lat":35.71662214,"lon":139.82089427},{"name":"文花中学校","province":"東京都","city":"墨田区","address":"東京都墨田区文花1丁目22-7","lat":35.71015294,"lon":139.82236367},{"name":"押上小学校","province":"東京都","city":"墨田区","address":"東京都墨田区押上3丁目46-17","lat":35.71201677,"lon":139.81932198},{"name":"第一寺島小学校","province":"東京都","city":"墨田区","address":"東京都墨田区東向島1丁目16-2","lat":35.72158271,"lon":139.81445099},{"name":"第三寺島小学校","province":"東京都","city":"墨田区","address":"東京都墨田区東向島6丁目8-1","lat":35.72140784,"lon":139.82042783},{"name":"旧向島中学校","province":"東京都","city":"墨田区","address":"東京都墨田区東向島4丁目18-9","lat":35.72607962,"lon":139.81685083},{"name":"第二寺島小学校","province":"東京都","city":"墨田区","address":"東京都墨田区東向島4丁目30-2","lat":35.72470754,"lon":139.81845881},{"name":"梅若小学校","province":"東京都","city":"墨田区","address":"東京都墨田区墨田2丁目25-1","lat":35.73053185,"lon":139.81560645},{"name":"旧隅田小学校","province":"東京都","city":"墨田区","address":"東京都墨田区墨田5丁目49-5","lat":35.73603672,"lon":139.82065239},{"name":"両国中学校","province":"東京都","city":"墨田区","address":"東京都墨田区横網1丁目8-1","lat":35.69748355,"lon":139.79611518},{"name":"隅田小学校","province":"東京都","city":"墨田区","address":"東京都墨田区墨田4丁目6-5","lat":35.73392317,"lon":139.82186348},{"name":"墨田区選挙管理委員会","province":"東京都","city":"墨田区","address":"墨田区吾妻橋1-23-20","lat":35.710505,"lon":139.801508},{"name":"東京都江戸東京博物館","province":"東京都","city":"墨田区","address":"東京都墨田区横網1丁目4-1","lat":35.69651701,"lon":139.79620144},{"name":"皮革技術センター","province":"東京都","city":"墨田区","address":"東京都墨田区東墨田3丁目3-14","lat":35.72012918,"lon":139.83350074},{"name":"墨田川高等学校","province":"東京都","city":"墨田区","address":"東京都墨田区東向島3丁目34-14","lat":35.72188272,"lon":139.81637848},{"name":"両国高等学校","province":"東京都","city":"墨田区","address":"東京都墨田区江東橋1丁目7-14","lat":35.69453935,"lon":139.81008872},{"name":"本所高等学校","province":"東京都","city":"墨田区","address":"東京都墨田区向島3丁目37-25","lat":35.71428529,"lon":139.81112277},{"name":"橘高等学校","province":"東京都","city":"墨田区","address":"東京都墨田区立花4丁目29-7","lat":35.70930795,"lon":139.83334026},{"name":"日本橋高等学校","province":"東京都","city":"墨田区","address":"東京都墨田区八広1丁目28-21","lat":35.71966058,"lon":139.82417998},{"name":"本所都民防災教育センター","province":"東京都","city":"墨田区","address":"東京都墨田区横川4丁目6-6","lat":35.70394926,"lon":139.81518733},{"name":"東武鉄道（株）","province":"東京都","city":"墨田区","address":"墨田区押上2-18-12","lat":35.71238,"lon":139.8136},{"name":"白鬚東防災拠点内備蓄倉庫","province":"東京都","city":"墨田区","address":"墨田区堤通2-4-3都営白鬚東アパート3号棟1階","lat":35.72976,"lon":139.813},{"name":"墨田区","province":"東京都","city":"墨田区","address":"墨田区向島1-27-53F","lat":35.71173,"lon":139.8073},{"name":"（株）ＮＴＴドコモドコモ墨田ビル","province":"東京都","city":"墨田区","address":"墨田区横網1-9-2","lat":35.69848,"lon":139.7957},{"name":"つばき公園","province":"東京都","city":"墨田区","address":"東京都墨田区墨田5丁目33-9","lat":35.73761145,"lon":139.82036616},{"name":"墨田五丁目溝渠","province":"東京都","city":"墨田区","address":"東京都墨田区墨田5丁目20","lat":35.74076913,"lon":139.81734114},{"name":"都営墨田1丁目アパート5号棟","province":"東京都","city":"墨田区","address":"東京都墨田区墨田1丁目4","lat":35.72929592,"lon":139.81459567},{"name":"こでまり児童遊園","province":"東京都","city":"墨田区","address":"東京都墨田区東向島5丁目24-1","lat":35.72764346,"lon":139.82184162},{"name":"吾嬬西公園","province":"東京都","city":"墨田区","address":"東京都墨田区八広6丁目53-16","lat":35.72424908,"lon":139.83025702},{"name":"東墨田二丁目公園","province":"東京都","city":"墨田区","address":"東京都墨田区東墨田2丁目12-10","lat":35.7210821,"lon":139.83277592},{"name":"社会福祉会館","province":"東京都","city":"墨田区","address":"東京都墨田区東墨田2丁目7-1","lat":35.71894898,"lon":139.83046514},{"name":"福寿公園","province":"東京都","city":"墨田区","address":"東京都墨田区立花3丁目24-3","lat":35.7078636,"lon":139.83437075},{"name":"旧中川水辺公園","province":"東京都","city":"墨田区","address":"東京都墨田区立花6丁目8","lat":35.71087998,"lon":139.83527611},{"name":"堤通1丁目","province":"東京都","city":"墨田区","address":"東京都墨田区堤通1丁目11","lat":35.72439635,"lon":139.81269314},{"name":"ふじのき公園","province":"東京都","city":"墨田区","address":"東京都墨田区東向島2丁目7-5","lat":35.71734678,"lon":139.81547271},{"name":"すみだ福祉保健センター","province":"東京都","city":"墨田区","address":"東京都墨田区向島3丁目36-7","lat":35.71329353,"lon":139.81075044},{"name":"文花公園","province":"東京都","city":"墨田区","address":"東京都墨田区文花1丁目27","lat":35.70874438,"lon":139.82167509},{"name":"東あずま公園","province":"東京都","city":"墨田区","address":"東京都墨田区立花2丁目32-12","lat":35.70834973,"lon":139.83030736},{"name":"すみだ清掃事務所分室","province":"東京都","city":"墨田区","address":"東京都墨田区亀沢1丁目8-3","lat":35.69728358,"lon":139.7975762},{"name":"横川橋保育園","province":"東京都","city":"墨田区","address":"東京都墨田区太平1丁目27-13","lat":35.7021662,"lon":139.81077669},{"name":"錦糸公園","province":"東京都","city":"墨田区","address":"東京都墨田区錦糸4丁目15-1","lat":35.69947749,"lon":139.8171875},{"name":"東京消防庁両国寮(ソーラー)","province":"東京都","city":"墨田区","address":"東京都墨田区両国1丁目12","lat":35.69523371,"lon":139.79009056},{"name":"一之橋","province":"東京都","city":"墨田区","address":"東京都墨田区千歳1丁目9","lat":35.69168144,"lon":139.79248544},{"name":"どんぐり児童遊園","province":"東京都","city":"墨田区","address":"東京都墨田区緑3丁目12-9","lat":35.69455606,"lon":139.8046534},{"name":"両国駅西口","province":"東京都","city":"墨田区","address":"東京都墨田区横網1丁目3-20","lat":35.69605033,"lon":139.79250988},{"name":"菊川橋児童遊園","province":"東京都","city":"墨田区","address":"東京都墨田区菊川3丁目13-2","lat":35.68874569,"lon":139.8090975},{"name":"立花公園","province":"東京都","city":"墨田区","address":"東京都墨田区立花1丁目27-5","lat":35.70547192,"lon":139.82927722},{"name":"墨田区役所","province":"東京都","city":"墨田区","address":"東京都墨田区吾妻橋1丁目23-20","lat":35.71072382,"lon":139.80149602},{"name":"隅田川緑道","province":"東京都","city":"墨田区","address":"東京都墨田区横網2丁目12","lat":35.70139696,"lon":139.7955535},{"name":"東墨田東公園","province":"東京都","city":"墨田区","address":"東京都墨田区東墨田3丁目19-2","lat":35.71845425,"lon":139.83744771},{"name":"文花一丁目区道","province":"東京都","city":"墨田区","address":"東京都墨田区文花1丁目32-2","lat":35.70754973,"lon":139.82345005},{"name":"おしなり公園西","province":"東京都","city":"墨田区","address":"東京都墨田区押上1丁目","lat":35.71011625,"lon":139.81578627},{"name":"おしなり公園東","province":"東京都","city":"墨田区","address":"東京都墨田区押上1丁目","lat":35.71011625,"lon":139.81578627},{"name":"都営横川五丁目第2アパート","province":"東京都","city":"墨田区","address":"東京都墨田区横川5丁目9-4","lat":35.70580771,"lon":139.81822576},{"name":"錦糸町駅北口","province":"東京都","city":"墨田区","address":"東京都墨田区錦糸3丁目2","lat":35.69748616,"lon":139.81405462},{"name":"錦糸町駅南口","province":"東京都","city":"墨田区","address":"東京都墨田区江東橋3丁目14-5","lat":35.69643352,"lon":139.81393804},{"name":"チェリッシュ曳舟","province":"東京都","city":"墨田区","address":"東京都墨田区京島1丁目36-1","lat":35.71688313,"lon":139.8192528},{"name":"あい・あい保育園　小村井園","province":"東京都","city":"墨田区","address":"東京都墨田区立花5丁目24-11","lat":35.71111914,"lon":139.83056267},{"name":"八広ぶどうの木保育室　※2","province":"東京都","city":"墨田区","address":"東京都墨田区八広6丁目37-5","lat":35.72594916,"lon":139.82897674},{"name":"キャリー保育園　東向島","province":"東京都","city":"墨田区","address":"東京都墨田区東向島5丁目36-10","lat":35.72734074,"lon":139.8230359},{"name":"墨田区精神障害者地域生活支援センター　友の家　（社会福祉法人おいてけ堀協会）","province":"東京都","city":"墨田区","address":"東京都墨田区太平1丁目11-7","lat":35.70087189,"lon":139.81150733},{"name":"八広防災備蓄倉庫","province":"東京都","city":"墨田区","address":"東京都墨田区八広6丁目35-1","lat":35.72651028,"lon":139.82940171},{"name":"白鬚東防災備蓄倉庫","province":"東京都","city":"墨田区","address":"東京都墨田区堤通2丁目7-13","lat":35.73475624,"lon":139.81720018},{"name":"国技館内防災備蓄倉庫","province":"東京都","city":"墨田区","address":"東京都墨田区横網1丁目3-28","lat":35.69721965,"lon":139.79360694},{"name":"文花防災備蓄倉庫","province":"東京都","city":"墨田区","address":"東京都墨田区文花1丁目19-1","lat":35.71053903,"lon":139.82370512},{"name":"京島防災備蓄倉庫","province":"東京都","city":"墨田区","address":"東京都墨田区京島2丁目15-5","lat":35.71313356,"lon":139.82108025},{"name":"東向島防災備蓄倉庫","province":"東京都","city":"墨田区","address":"東京都墨田区東向島4丁目8-12","lat":35.72759893,"lon":139.8155317},{"name":"横川防災備蓄倉庫","province":"東京都","city":"墨田区","address":"東京都墨田区横川5丁目9-1","lat":35.70517431,"lon":139.81750923},{"name":"庁舎内防災備蓄倉庫","province":"東京都","city":"墨田区","address":"東京都墨田区吾妻橋1丁目23-20","lat":35.71072382,"lon":139.80149602},{"name":"業平防災備蓄倉庫","province":"東京都","city":"墨田区","address":"東京都墨田区業平3丁目2-5","lat":35.70634375,"lon":139.8130676},{"name":"国際ファッションセンタービル内防災備蓄倉庫","province":"東京都","city":"墨田区","address":"東京都墨田区横網1丁目6-1","lat":35.69830846,"lon":139.79685114},{"name":"NTTドコモ墨田ビル内防災備蓄倉庫","province":"東京都","city":"墨田区","address":"東京都墨田区横網1丁目9-2","lat":35.69835288,"lon":139.79546506},{"name":"太平四丁目防災備蓄倉庫","province":"東京都","city":"墨田区","address":"東京都墨田区太平4丁目1-2","lat":35.70086065,"lon":139.81594032},{"name":"東墨田防災備蓄倉庫","province":"東京都","city":"墨田区","address":"東京都墨田区東墨田2丁目12-9","lat":35.72135158,"lon":139.83258985},{"name":"総合体育館防災備蓄倉庫","province":"東京都","city":"墨田区","address":"東京都墨田区錦糸4丁目15-1","lat":35.69947749,"lon":139.8171875},{"name":"東京スカイツリータウンウエストヤード総合ロータリー備蓄倉庫","province":"東京都","city":"墨田区","address":"東京都墨田区押上1丁目1-2","lat":35.71005462,"lon":139.81070876},{"name":"本所地域プラザ防災備蓄倉庫","province":"東京都","city":"墨田区","address":"東京都墨田区本所1丁目13-4","lat":35.70316063,"lon":139.79876681},{"name":"京島三丁目コミュニティ住宅防災備蓄倉庫","province":"東京都","city":"墨田区","address":"東京都墨田区京島3丁目3-1","lat":35.71526948,"lon":139.82097199},{"name":"第7コミュニティ住宅防災備蓄倉庫","province":"東京都","city":"墨田区","address":"東京都墨田区京島3丁目3-6","lat":35.71515563,"lon":139.82138862},{"name":"第8コミュニティ住宅防災備蓄庫","province":"東京都","city":"墨田区","address":"東京都墨田区京島3丁目52-8","lat":35.71478047,"lon":139.82434659},{"name":"20　ホンダカーズ東京押上店防災備蓄倉庫","province":"東京都","city":"墨田区","address":"東京都墨田区押上2丁目22-4","lat":35.71483839,"lon":139.81445312},{"name":"21　京成押上ビル防災備蓄倉庫","province":"東京都","city":"墨田区","address":"東京都墨田区押上1丁目10-3","lat":35.71022161,"lon":139.81391135},{"name":"江東西工区","province":"東京都","city":"墨田区","address":"東京都墨田区両国1丁目12-5","lat":35.69562534,"lon":139.79045718},{"name":"墨田工区","province":"東京都","city":"墨田区","address":"東京都墨田区堤通1丁目16-4","lat":35.72574067,"lon":139.81097687},{"name":"平井橋水防倉庫","province":"東京都","city":"墨田区","address":"東京都墨田区立花3丁目29-10","lat":35.70835795,"lon":139.83697888},{"name":"墨東病院","province":"東京都","city":"墨田区","address":"東京都墨田区江東橋4丁目23-15","lat":35.69530033,"lon":139.81879578},{"name":"墨田区社会福祉協議会","province":"東京都","city":"墨田区","address":"墨田区東向島2-17-14すみだボランティアセンター内","lat":35.718386,"lon":139.815614},{"name":"墨田区社会福祉協議会","province":"東京都","city":"墨田区","address":"墨田区東向島2-17-14すみだボランティアセンター内","lat":35.71862,"lon":139.81561},{"name":"東京都立墨東病院","province":"東京都","city":"墨田区","address":"東京都墨田区江東橋4丁目23-15","lat":35.69530033,"lon":139.81879578},{"name":"白鬚橋病院","province":"東京都","city":"墨田区","address":"東京都墨田区東向島4丁目2-10","lat":35.72795443,"lon":139.81372652},{"name":"区立文花公園","province":"東京都","city":"墨田区","address":"東京都墨田区文花1丁目27-5","lat":35.7094556,"lon":139.82244155},{"name":"区立両国公園","province":"東京都","city":"墨田区","address":"東京都墨田区両国4丁目25-3","lat":35.6937507,"lon":139.79611856},{"name":"白鬚東地区防災拠点","province":"東京都","city":"墨田区","address":"東京都墨田区堤通2丁目","lat":35.73410354,"lon":139.81657811},{"name":"都立墨東病院ヘリポート","province":"東京都","city":"墨田区","address":"東京都墨田区江東橋4丁目23-15","lat":35.69530033,"lon":139.81879578},{"name":"墨田区立東墨田運動場","province":"東京都","city":"墨田区","address":"東京都墨田区東墨田1丁目10","lat":35.71647687,"lon":139.83195391},{"name":"墨田区立新平井橋公園","province":"東京都","city":"墨田区","address":"東京都墨田区東墨田1丁目6-2","lat":35.71565486,"lon":139.83040693},{"name":"白鬚東地区（東白鬚公園）","province":"東京都","city":"墨田区","address":"東京都墨田区堤通2丁目","lat":35.73410354,"lon":139.81657811},{"name":"両国小学校","province":"東京都","city":"墨田区","address":"東京都墨田区両国4丁目26-6","lat":35.69372012,"lon":139.79519078},{"name":"緑小学校","province":"東京都","city":"墨田区","address":"東京都墨田区緑2丁目12-12","lat":35.69402562,"lon":139.80134284},{"name":"中和小学校","province":"東京都","city":"墨田区","address":"東京都墨田区菊川1丁目18-10","lat":35.6901567,"lon":139.80272644},{"name":"菊川小学校","province":"東京都","city":"墨田区","address":"東京都墨田区立川4丁目12-15","lat":35.69164531,"lon":139.8076726},{"name":"錦糸小学校","province":"東京都","city":"墨田区","address":"東京都墨田区錦糸1丁目9-12","lat":35.69876937,"lon":139.81137701},{"name":"柳島小学校","province":"東京都","city":"墨田区","address":"東京都墨田区横川5丁目2-30","lat":35.70359917,"lon":139.81754005},{"name":"業平小学校","province":"東京都","city":"墨田区","address":"東京都墨田区業平2丁目4-8","lat":35.70627427,"lon":139.81149546},{"name":"言問小学校","province":"東京都","city":"墨田区","address":"東京都墨田区向島5丁目40-14","lat":35.71843549,"lon":139.81134557},{"name":"墨田中学校","province":"東京都","city":"墨田区","address":"東京都墨田区向島4丁目25-22","lat":35.71493535,"lon":139.81152561},{"name":"小梅小学校","province":"東京都","city":"墨田区","address":"東京都墨田区向島2丁目4-10","lat":35.71444608,"lon":139.8059344},{"name":"本所中学校","province":"東京都","city":"墨田区","address":"東京都墨田区東駒形3丁目1-10","lat":35.70526321,"lon":139.80276048},{"name":"横川小学校","province":"東京都","city":"墨田区","address":"東京都墨田区東駒形4丁目18-4","lat":35.70716582,"lon":139.80624308},{"name":"外手小学校","province":"東京都","city":"墨田区","address":"東京都墨田区本所2丁目1-16","lat":35.7025968,"lon":139.80059167},{"name":"二葉小学校","province":"東京都","city":"墨田区","address":"東京都墨田区石原2丁目1-5","lat":35.69926388,"lon":139.80008668},{"name":"錦糸中学校","province":"東京都","city":"墨田区","address":"東京都墨田区石原4丁目33-14","lat":35.70140523,"lon":139.80693828},{"name":"竪川中学校","province":"東京都","city":"墨田区","address":"東京都墨田区亀沢4丁目11-15","lat":35.69700853,"lon":139.80583069},{"name":"立花吾嬬の森小学校","province":"東京都","city":"墨田区","address":"東京都墨田区立花1丁目18-6","lat":35.70622472,"lon":139.82971319},{"name":"東吾嬬小学校","province":"東京都","city":"墨田区","address":"東京都墨田区立花4丁目22-11","lat":35.70854692,"lon":139.83205434},{"name":"中川小学校","province":"東京都","city":"墨田区","address":"東京都墨田区立花5丁目49-4","lat":35.71334666,"lon":139.83150135},{"name":"桜堤中学校","province":"東京都","city":"墨田区","address":"東京都墨田区堤通2丁目19-1","lat":35.73056511,"lon":139.81190987},{"name":"八広地域プラザ","province":"東京都","city":"墨田区","address":"東京都墨田区八広4丁目35-17","lat":35.72349353,"lon":139.82925713},{"name":"八広小学校","province":"東京都","city":"墨田区","address":"東京都墨田区八広5丁目12-15","lat":35.72710192,"lon":139.82632158},{"name":"吾嬬第二中学校","province":"東京都","city":"墨田区","address":"東京都墨田区八広4丁目4-4","lat":35.72149362,"lon":139.8271268},{"name":"寺島中学校","province":"東京都","city":"墨田区","address":"東京都墨田区八広1丁目17-15","lat":35.72013008,"lon":139.82316626},{"name":"第三吾嬬小学校","province":"東京都","city":"墨田区","address":"東京都墨田区八広2丁目36-3","lat":35.71717161,"lon":139.82774891},{"name":"第四吾嬬小学校","province":"東京都","city":"墨田区","address":"東京都墨田区京島3丁目64-9","lat":35.7131389,"lon":139.82518538},{"name":"曳舟小学校","province":"東京都","city":"墨田区","address":"東京都墨田区京島1丁目28-2","lat":35.71662214,"lon":139.82089427},{"name":"文花中学校","province":"東京都","city":"墨田区","address":"東京都墨田区文花1丁目22-7","lat":35.71015294,"lon":139.82236367},{"name":"押上小学校","province":"東京都","city":"墨田区","address":"東京都墨田区押上3丁目46-17","lat":35.71201677,"lon":139.81932198},{"name":"第一寺島小学校","province":"東京都","city":"墨田区","address":"東京都墨田区東向島1丁目16-2","lat":35.72158271,"lon":139.81445099},{"name":"第三寺島小学校","province":"東京都","city":"墨田区","address":"東京都墨田区東向島6丁目8-1","lat":35.72140784,"lon":139.82042783},{"name":"旧向島中学校","province":"東京都","city":"墨田区","address":"東京都墨田区東向島4丁目18-9","lat":35.72607962,"lon":139.81685083},{"name":"第二寺島小学校","province":"東京都","city":"墨田区","address":"東京都墨田区東向島4丁目30-2","lat":35.72470754,"lon":139.81845881},{"name":"梅若小学校","province":"東京都","city":"墨田区","address":"東京都墨田区墨田2丁目25-1","lat":35.73053185,"lon":139.81560645},{"name":"旧隅田小学校","province":"東京都","city":"墨田区","address":"東京都墨田区墨田5丁目49-5","lat":35.73603672,"lon":139.82065239},{"name":"両国中学校","province":"東京都","city":"墨田区","address":"東京都墨田区横網1丁目8-1","lat":35.69748355,"lon":139.79611518},{"name":"隅田小学校","province":"東京都","city":"墨田区","address":"東京都墨田区墨田4丁目6-5","lat":35.73392317,"lon":139.82186348},{"name":"東京都江戸東京博物館","province":"東京都","city":"墨田区","address":"東京都墨田区横網1丁目4-1","lat":35.69651701,"lon":139.79620144},{"name":"皮革技術センター","province":"東京都","city":"墨田区","address":"東京都墨田区東墨田3丁目3-14","lat":35.72012918,"lon":139.83350074},{"name":"墨田川高等学校","province":"東京都","city":"墨田区","address":"東京都墨田区東向島3丁目34-14","lat":35.72188272,"lon":139.81637848},{"name":"両国高等学校","province":"東京都","city":"墨田区","address":"東京都墨田区江東橋1丁目7-14","lat":35.69453935,"lon":139.81008872},{"name":"本所高等学校","province":"東京都","city":"墨田区","address":"東京都墨田区向島3丁目37-25","lat":35.71428529,"lon":139.81112277},{"name":"橘高等学校","province":"東京都","city":"墨田区","address":"東京都墨田区立花4丁目29-7","lat":35.70930795,"lon":139.83334026},{"name":"日本橋高等学校","province":"東京都","city":"墨田区","address":"東京都墨田区八広1丁目28-21","lat":35.71966058,"lon":139.82417998},{"name":"本所都民防災教育センター","province":"東京都","city":"墨田区","address":"東京都墨田区横川4丁目6-6","lat":35.70394926,"lon":139.81518733},{"name":"東武鉄道（株）","province":"東京都","city":"墨田区","address":"墨田区押上2-18-12","lat":35.71238,"lon":139.8136},{"name":"白鬚東防災拠点内備蓄倉庫","province":"東京都","city":"墨田区","address":"墨田区堤通2-4-3都営白鬚東アパート3号棟1階","lat":35.72976,"lon":139.813},{"name":"墨田区","province":"東京都","city":"墨田区","address":"墨田区向島1-27-53F","lat":35.71173,"lon":139.8073},{"name":"（株）ＮＴＴドコモドコモ墨田ビル","province":"東京都","city":"墨田区","address":"墨田区横網1-9-2","lat":35.69848,"lon":139.7957},{"name":"つばき公園","province":"東京都","city":"墨田区","address":"東京都墨田区墨田5丁目33-9","lat":35.73761145,"lon":139.82036616},{"name":"墨田五丁目溝渠","province":"東京都","city":"墨田区","address":"東京都墨田区墨田5丁目20","lat":35.74076913,"lon":139.81734114},{"name":"都営墨田1丁目アパート5号棟","province":"東京都","city":"墨田区","address":"東京都墨田区墨田1丁目4","lat":35.72929592,"lon":139.81459567},{"name":"こでまり児童遊園","province":"東京都","city":"墨田区","address":"東京都墨田区東向島5丁目24-1","lat":35.72764346,"lon":139.82184162},{"name":"吾嬬西公園","province":"東京都","city":"墨田区","address":"東京都墨田区八広6丁目53-16","lat":35.72424908,"lon":139.83025702},{"name":"東墨田二丁目公園","province":"東京都","city":"墨田区","address":"東京都墨田区東墨田2丁目12-10","lat":35.7210821,"lon":139.83277592},{"name":"社会福祉会館","province":"東京都","city":"墨田区","address":"東京都墨田区東墨田2丁目7-1","lat":35.71894898,"lon":139.83046514},{"name":"福寿公園","province":"東京都","city":"墨田区","address":"東京都墨田区立花3丁目24-3","lat":35.7078636,"lon":139.83437075},{"name":"旧中川水辺公園","province":"東京都","city":"墨田区","address":"東京都墨田区立花6丁目8","lat":35.71087998,"lon":139.83527611},{"name":"堤通1丁目","province":"東京都","city":"墨田区","address":"東京都墨田区堤通1丁目11","lat":35.72439635,"lon":139.81269314},{"name":"ふじのき公園","province":"東京都","city":"墨田区","address":"東京都墨田区東向島2丁目7-5","lat":35.71734678,"lon":139.81547271},{"name":"すみだ福祉保健センター","province":"東京都","city":"墨田区","address":"東京都墨田区向島3丁目36-7","lat":35.71329353,"lon":139.81075044},{"name":"文花公園","province":"東京都","city":"墨田区","address":"東京都墨田区文花1丁目27","lat":35.70874438,"lon":139.82167509},{"name":"東あずま公園","province":"東京都","city":"墨田区","address":"東京都墨田区立花2丁目32-12","lat":35.70834973,"lon":139.83030736},{"name":"すみだ清掃事務所分室","province":"東京都","city":"墨田区","address":"東京都墨田区亀沢1丁目8-3","lat":35.69728358,"lon":139.7975762},{"name":"横川橋保育園","province":"東京都","city":"墨田区","address":"東京都墨田区太平1丁目27-13","lat":35.7021662,"lon":139.81077669},{"name":"錦糸公園","province":"東京都","city":"墨田区","address":"東京都墨田区錦糸4丁目15-1","lat":35.69947749,"lon":139.8171875},{"name":"東京消防庁両国寮(ソーラー)","province":"東京都","city":"墨田区","address":"東京都墨田区両国1丁目12","lat":35.69523371,"lon":139.79009056},{"name":"一之橋","province":"東京都","city":"墨田区","address":"東京都墨田区千歳1丁目9","lat":35.69168144,"lon":139.79248544},{"name":"どんぐり児童遊園","province":"東京都","city":"墨田区","address":"東京都墨田区緑3丁目12-9","lat":35.69455606,"lon":139.8046534},{"name":"両国駅西口","province":"東京都","city":"墨田区","address":"東京都墨田区横網1丁目3-20","lat":35.69605033,"lon":139.79250988},{"name":"菊川橋児童遊園","province":"東京都","city":"墨田区","address":"東京都墨田区菊川3丁目13-2","lat":35.68874569,"lon":139.8090975},{"name":"立花公園","province":"東京都","city":"墨田区","address":"東京都墨田区立花1丁目27-5","lat":35.70547192,"lon":139.82927722},{"name":"墨田区役所","province":"東京都","city":"墨田区","address":"東京都墨田区吾妻橋1丁目23-20","lat":35.71072382,"lon":139.80149602},{"name":"隅田川緑道","province":"東京都","city":"墨田区","address":"東京都墨田区横網2丁目12","lat":35.70139696,"lon":139.7955535},{"name":"東墨田東公園","province":"東京都","city":"墨田区","address":"東京都墨田区東墨田3丁目19-2","lat":35.71845425,"lon":139.83744771},{"name":"文花一丁目区道","province":"東京都","city":"墨田区","address":"東京都墨田区文花1丁目32-2","lat":35.70754973,"lon":139.82345005},{"name":"おしなり公園西","province":"東京都","city":"墨田区","address":"東京都墨田区押上1丁目","lat":35.71011625,"lon":139.81578627},{"name":"おしなり公園東","province":"東京都","city":"墨田区","address":"東京都墨田区押上1丁目","lat":35.71011625,"lon":139.81578627},{"name":"都営横川五丁目第2アパート","province":"東京都","city":"墨田区","address":"東京都墨田区横川5丁目9-4","lat":35.70580771,"lon":139.81822576},{"name":"錦糸町駅北口","province":"東京都","city":"墨田区","address":"東京都墨田区錦糸3丁目2","lat":35.69748616,"lon":139.81405462},{"name":"錦糸町駅南口","province":"東京都","city":"墨田区","address":"東京都墨田区江東橋3丁目14-5","lat":35.69643352,"lon":139.81393804},{"name":"チェリッシュ曳舟","province":"東京都","city":"墨田区","address":"東京都墨田区京島1丁目36-1","lat":35.71688313,"lon":139.8192528},{"name":"あい・あい保育園　小村井園","province":"東京都","city":"墨田区","address":"東京都墨田区立花5丁目24-11","lat":35.71111914,"lon":139.83056267},{"name":"八広ぶどうの木保育室　※2","province":"東京都","city":"墨田区","address":"東京都墨田区八広6丁目37-5","lat":35.72594916,"lon":139.82897674},{"name":"キャリー保育園　東向島","province":"東京都","city":"墨田区","address":"東京都墨田区東向島5丁目36-10","lat":35.72734074,"lon":139.8230359},{"name":"墨田区精神障害者地域生活支援センター　友の家　（社会福祉法人おいてけ堀協会）","province":"東京都","city":"墨田区","address":"東京都墨田区太平1丁目11-7","lat":35.70087189,"lon":139.81150733},{"name":"八広防災備蓄倉庫","province":"東京都","city":"墨田区","address":"東京都墨田区八広6丁目35-1","lat":35.72651028,"lon":139.82940171},{"name":"白鬚東防災備蓄倉庫","province":"東京都","city":"墨田区","address":"東京都墨田区堤通2丁目7-13","lat":35.73475624,"lon":139.81720018},{"name":"国技館内防災備蓄倉庫","province":"東京都","city":"墨田区","address":"東京都墨田区横網1丁目3-28","lat":35.69721965,"lon":139.79360694},{"name":"文花防災備蓄倉庫","province":"東京都","city":"墨田区","address":"東京都墨田区文花1丁目19-1","lat":35.71053903,"lon":139.82370512},{"name":"京島防災備蓄倉庫","province":"東京都","city":"墨田区","address":"東京都墨田区京島2丁目15-5","lat":35.71313356,"lon":139.82108025},{"name":"東向島防災備蓄倉庫","province":"東京都","city":"墨田区","address":"東京都墨田区東向島4丁目8-12","lat":35.72759893,"lon":139.8155317},{"name":"横川防災備蓄倉庫","province":"東京都","city":"墨田区","address":"東京都墨田区横川5丁目9-1","lat":35.70517431,"lon":139.81750923},{"name":"庁舎内防災備蓄倉庫","province":"東京都","city":"墨田区","address":"東京都墨田区吾妻橋1丁目23-20","lat":35.71072382,"lon":139.80149602},{"name":"業平防災備蓄倉庫","province":"東京都","city":"墨田区","address":"東京都墨田区業平3丁目2-5","lat":35.70634375,"lon":139.8130676},{"name":"国際ファッションセンタービル内防災備蓄倉庫","province":"東京都","city":"墨田区","address":"東京都墨田区横網1丁目6-1","lat":35.69830846,"lon":139.79685114},{"name":"NTTドコモ墨田ビル内防災備蓄倉庫","province":"東京都","city":"墨田区","address":"東京都墨田区横網1丁目9-2","lat":35.69835288,"lon":139.79546506},{"name":"太平四丁目防災備蓄倉庫","province":"東京都","city":"墨田区","address":"東京都墨田区太平4丁目1-2","lat":35.70086065,"lon":139.81594032},{"name":"東墨田防災備蓄倉庫","province":"東京都","city":"墨田区","address":"東京都墨田区東墨田2丁目12-9","lat":35.72135158,"lon":139.83258985},{"name":"総合体育館防災備蓄倉庫","province":"東京都","city":"墨田区","address":"東京都墨田区錦糸4丁目15-1","lat":35.69947749,"lon":139.8171875},{"name":"東京スカイツリータウンウエストヤード総合ロータリー備蓄倉庫","province":"東京都","city":"墨田区","address":"東京都墨田区押上1丁目1-2","lat":35.71005462,"lon":139.81070876},{"name":"本所地域プラザ防災備蓄倉庫","province":"東京都","city":"墨田区","address":"東京都墨田区本所1丁目13-4","lat":35.70316063,"lon":139.79876681},{"name":"京島三丁目コミュニティ住宅防災備蓄倉庫","province":"東京都","city":"墨田区","address":"東京都墨田区京島3丁目3-1","lat":35.71526948,"lon":139.82097199},{"name":"第7コミュニティ住宅防災備蓄倉庫","province":"東京都","city":"墨田区","address":"東京都墨田区京島3丁目3-6","lat":35.71515563,"lon":139.82138862},{"name":"第8コミュニティ住宅防災備蓄庫","province":"東京都","city":"墨田区","address":"東京都墨田区京島3丁目52-8","lat":35.71478047,"lon":139.82434659},{"name":"20　ホンダカーズ東京押上店防災備蓄倉庫","province":"東京都","city":"墨田区","address":"東京都墨田区押上2丁目22-4","lat":35.71483839,"lon":139.81445312},{"name":"21　京成押上ビル防災備蓄倉庫","province":"東京都","city":"墨田区","address":"東京都墨田区押上1丁目10-3","lat":35.71022161,"lon":139.81391135},{"name":"江東西工区","province":"東京都","city":"墨田区","address":"東京都墨田区両国1丁目12-5","lat":35.69562534,"lon":139.79045718},{"name":"墨田工区","province":"東京都","city":"墨田区","address":"東京都墨田区堤通1丁目16-4","lat":35.72574067,"lon":139.81097687},{"name":"平井橋水防倉庫","province":"東京都","city":"墨田区","address":"東京都墨田区立花3丁目29-10","lat":35.70835795,"lon":139.83697888},{"name":"墨東病院","province":"東京都","city":"墨田区","address":"東京都墨田区江東橋4丁目23-15","lat":35.69530033,"lon":139.81879578},{"name":"東京都立墨東病院","province":"東京都","city":"墨田区","address":"東京都墨田区江東橋4丁目23-15","lat":35.69530033,"lon":139.81879578},{"name":"白鬚橋病院","province":"東京都","city":"墨田区","address":"東京都墨田区東向島4丁目2-10","lat":35.72795443,"lon":139.81372652},{"name":"両国小学校","province":"東京都","city":"墨田区","address":"東京都墨田区両国4丁目26-6","lat":35.69372012,"lon":139.79519078},{"name":"緑小学校","province":"東京都","city":"墨田区","address":"東京都墨田区緑2丁目12-12","lat":35.69402562,"lon":139.80134284},{"name":"中和小学校","province":"東京都","city":"墨田区","address":"東京都墨田区菊川1丁目18-10","lat":35.6901567,"lon":139.80272644},{"name":"菊川小学校","province":"東京都","city":"墨田区","address":"東京都墨田区立川4丁目12-15","lat":35.69164531,"lon":139.8076726},{"name":"錦糸小学校","province":"東京都","city":"墨田区","address":"東京都墨田区錦糸1丁目9-12","lat":35.69876937,"lon":139.81137701},{"name":"柳島小学校","province":"東京都","city":"墨田区","address":"東京都墨田区横川5丁目2-30","lat":35.70359917,"lon":139.81754005},{"name":"業平小学校","province":"東京都","city":"墨田区","address":"東京都墨田区業平2丁目4-8","lat":35.70627427,"lon":139.81149546},{"name":"言問小学校","province":"東京都","city":"墨田区","address":"東京都墨田区向島5丁目40-14","lat":35.71843549,"lon":139.81134557},{"name":"墨田中学校","province":"東京都","city":"墨田区","address":"東京都墨田区向島4丁目25-22","lat":35.71493535,"lon":139.81152561},{"name":"小梅小学校","province":"東京都","city":"墨田区","address":"東京都墨田区向島2丁目4-10","lat":35.71444608,"lon":139.8059344},{"name":"本所中学校","province":"東京都","city":"墨田区","address":"東京都墨田区東駒形3丁目1-10","lat":35.70526321,"lon":139.80276048},{"name":"横川小学校","province":"東京都","city":"墨田区","address":"東京都墨田区東駒形4丁目18-4","lat":35.70716582,"lon":139.80624308},{"name":"外手小学校","province":"東京都","city":"墨田区","address":"東京都墨田区本所2丁目1-16","lat":35.7025968,"lon":139.80059167},{"name":"二葉小学校","province":"東京都","city":"墨田区","address":"東京都墨田区石原2丁目1-5","lat":35.69926388,"lon":139.80008668},{"name":"錦糸中学校","province":"東京都","city":"墨田区","address":"東京都墨田区石原4丁目33-14","lat":35.70140523,"lon":139.80693828},{"name":"竪川中学校","province":"東京都","city":"墨田区","address":"東京都墨田区亀沢4丁目11-15","lat":35.69700853,"lon":139.80583069},{"name":"立花吾嬬の森小学校","province":"東京都","city":"墨田区","address":"東京都墨田区立花1丁目18-6","lat":35.70622472,"lon":139.82971319},{"name":"東吾嬬小学校","province":"東京都","city":"墨田区","address":"東京都墨田区立花4丁目22-11","lat":35.70854692,"lon":139.83205434},{"name":"中川小学校","province":"東京都","city":"墨田区","address":"東京都墨田区立花5丁目49-4","lat":35.71334666,"lon":139.83150135},{"name":"桜堤中学校","province":"東京都","city":"墨田区","address":"東京都墨田区堤通2丁目19-1","lat":35.73056511,"lon":139.81190987},{"name":"八広地域プラザ","province":"東京都","city":"墨田区","address":"東京都墨田区八広4丁目35-17","lat":35.72349353,"lon":139.82925713},{"name":"八広小学校","province":"東京都","city":"墨田区","address":"東京都墨田区八広5丁目12-15","lat":35.72710192,"lon":139.82632158},{"name":"吾嬬第二中学校","province":"東京都","city":"墨田区","address":"東京都墨田区八広4丁目4-4","lat":35.72149362,"lon":139.8271268},{"name":"寺島中学校","province":"東京都","city":"墨田区","address":"東京都墨田区八広1丁目17-15","lat":35.72013008,"lon":139.82316626},{"name":"第三吾嬬小学校","province":"東京都","city":"墨田区","address":"東京都墨田区八広2丁目36-3","lat":35.71717161,"lon":139.82774891},{"name":"第四吾嬬小学校","province":"東京都","city":"墨田区","address":"東京都墨田区京島3丁目64-9","lat":35.7131389,"lon":139.82518538},{"name":"曳舟小学校","province":"東京都","city":"墨田区","address":"東京都墨田区京島1丁目28-2","lat":35.71662214,"lon":139.82089427},{"name":"文花中学校","province":"東京都","city":"墨田区","address":"東京都墨田区文花1丁目22-7","lat":35.71015294,"lon":139.82236367},{"name":"押上小学校","province":"東京都","city":"墨田区","address":"東京都墨田区押上3丁目46-17","lat":35.71201677,"lon":139.81932198},{"name":"第一寺島小学校","province":"東京都","city":"墨田区","address":"東京都墨田区東向島1丁目16-2","lat":35.72158271,"lon":139.81445099},{"name":"第三寺島小学校","province":"東京都","city":"墨田区","address":"東京都墨田区東向島6丁目8-1","lat":35.72140784,"lon":139.82042783},{"name":"旧向島中学校","province":"東京都","city":"墨田区","address":"東京都墨田区東向島4丁目18-9","lat":35.72607962,"lon":139.81685083},{"name":"第二寺島小学校","province":"東京都","city":"墨田区","address":"東京都墨田区東向島4丁目30-2","lat":35.72470754,"lon":139.81845881},{"name":"梅若小学校","province":"東京都","city":"墨田区","address":"東京都墨田区墨田2丁目25-1","lat":35.73053185,"lon":139.81560645},{"name":"旧隅田小学校","province":"東京都","city":"墨田区","address":"東京都墨田区墨田5丁目49-5","lat":35.73603672,"lon":139.82065239},{"name":"両国中学校","province":"東京都","city":"墨田区","address":"東京都墨田区横網1丁目8-1","lat":35.69748355,"lon":139.79611518},{"name":"隅田小学校","province":"東京都","city":"墨田区","address":"東京都墨田区墨田4丁目6-5","lat":35.73392317,"lon":139.82186348},{"name":"東京都江戸東京博物館","province":"東京都","city":"墨田区","address":"東京都墨田区横網1丁目4-1","lat":35.69651701,"lon":139.79620144},{"name":"皮革技術センター","province":"東京都","city":"墨田区","address":"東京都墨田区東墨田3丁目3-14","lat":35.72012918,"lon":139.83350074},{"name":"墨田川高等学校","province":"東京都","city":"墨田区","address":"東京都墨田区東向島3丁目34-14","lat":35.72188272,"lon":139.81637848},{"name":"両国高等学校","province":"東京都","city":"墨田区","address":"東京都墨田区江東橋1丁目7-14","lat":35.69453935,"lon":139.81008872},{"name":"本所高等学校","province":"東京都","city":"墨田区","address":"東京都墨田区向島3丁目37-25","lat":35.71428529,"lon":139.81112277},{"name":"橘高等学校","province":"東京都","city":"墨田区","address":"東京都墨田区立花4丁目29-7","lat":35.70930795,"lon":139.83334026},{"name":"日本橋高等学校","province":"東京都","city":"墨田区","address":"東京都墨田区八広1丁目28-21","lat":35.71966058,"lon":139.82417998},{"name":"本所都民防災教育センター","province":"東京都","city":"墨田区","address":"東京都墨田区横川4丁目6-6","lat":35.70394926,"lon":139.81518733},{"name":"つばき公園","province":"東京都","city":"墨田区","address":"東京都墨田区墨田5丁目33-9","lat":35.73761145,"lon":139.82036616},{"name":"墨田五丁目溝渠","province":"東京都","city":"墨田区","address":"東京都墨田区墨田5丁目20","lat":35.74076913,"lon":139.81734114},{"name":"都営墨田1丁目アパート5号棟","province":"東京都","city":"墨田区","address":"東京都墨田区墨田1丁目4","lat":35.72929592,"lon":139.81459567},{"name":"こでまり児童遊園","province":"東京都","city":"墨田区","address":"東京都墨田区東向島5丁目24-1","lat":35.72764346,"lon":139.82184162},{"name":"吾嬬西公園","province":"東京都","city":"墨田区","address":"東京都墨田区八広6丁目53-16","lat":35.72424908,"lon":139.83025702},{"name":"東墨田二丁目公園","province":"東京都","city":"墨田区","address":"東京都墨田区東墨田2丁目12-10","lat":35.7210821,"lon":139.83277592},{"name":"社会福祉会館","province":"東京都","city":"墨田区","address":"東京都墨田区東墨田2丁目7-1","lat":35.71894898,"lon":139.83046514},{"name":"福寿公園","province":"東京都","city":"墨田区","address":"東京都墨田区立花3丁目24-3","lat":35.7078636,"lon":139.83437075},{"name":"旧中川水辺公園","province":"東京都","city":"墨田区","address":"東京都墨田区立花6丁目8","lat":35.71087998,"lon":139.83527611},{"name":"堤通1丁目","province":"東京都","city":"墨田区","address":"東京都墨田区堤通1丁目11","lat":35.72439635,"lon":139.81269314},{"name":"ふじのき公園","province":"東京都","city":"墨田区","address":"東京都墨田区東向島2丁目7-5","lat":35.71734678,"lon":139.81547271},{"name":"すみだ福祉保健センター","province":"東京都","city":"墨田区","address":"東京都墨田区向島3丁目36-7","lat":35.71329353,"lon":139.81075044},{"name":"文花公園","province":"東京都","city":"墨田区","address":"東京都墨田区文花1丁目27","lat":35.70874438,"lon":139.82167509},{"name":"東あずま公園","province":"東京都","city":"墨田区","address":"東京都墨田区立花2丁目32-12","lat":35.70834973,"lon":139.83030736},{"name":"すみだ清掃事務所分室","province":"東京都","city":"墨田区","address":"東京都墨田区亀沢1丁目8-3","lat":35.69728358,"lon":139.7975762},{"name":"横川橋保育園","province":"東京都","city":"墨田区","address":"東京都墨田区太平1丁目27-13","lat":35.7021662,"lon":139.81077669},{"name":"錦糸公園","province":"東京都","city":"墨田区","address":"東京都墨田区錦糸4丁目15-1","lat":35.69947749,"lon":139.8171875},{"name":"東京消防庁両国寮(ソーラー)","province":"東京都","city":"墨田区","address":"東京都墨田区両国1丁目12","lat":35.69523371,"lon":139.79009056},{"name":"一之橋","province":"東京都","city":"墨田区","address":"東京都墨田区千歳1丁目9","lat":35.69168144,"lon":139.79248544},{"name":"どんぐり児童遊園","province":"東京都","city":"墨田区","address":"東京都墨田区緑3丁目12-9","lat":35.69455606,"lon":139.8046534},{"name":"両国駅西口","province":"東京都","city":"墨田区","address":"東京都墨田区横網1丁目3-20","lat":35.69605033,"lon":139.79250988},{"name":"菊川橋児童遊園","province":"東京都","city":"墨田区","address":"東京都墨田区菊川3丁目13-2","lat":35.68874569,"lon":139.8090975},{"name":"立花公園","province":"東京都","city":"墨田区","address":"東京都墨田区立花1丁目27-5","lat":35.70547192,"lon":139.82927722},{"name":"墨田区役所","province":"東京都","city":"墨田区","address":"東京都墨田区吾妻橋1丁目23-20","lat":35.71072382,"lon":139.80149602},{"name":"隅田川緑道","province":"東京都","city":"墨田区","address":"東京都墨田区横網2丁目12","lat":35.70139696,"lon":139.7955535},{"name":"東墨田東公園","province":"東京都","city":"墨田区","address":"東京都墨田区東墨田3丁目19-2","lat":35.71845425,"lon":139.83744771},{"name":"文花一丁目区道","province":"東京都","city":"墨田区","address":"東京都墨田区文花1丁目32-2","lat":35.70754973,"lon":139.82345005},{"name":"おしなり公園西","province":"東京都","city":"墨田区","address":"東京都墨田区押上1丁目","lat":35.71011625,"lon":139.81578627},{"name":"おしなり公園東","province":"東京都","city":"墨田区","address":"東京都墨田区押上1丁目","lat":35.71011625,"lon":139.81578627},{"name":"都営横川五丁目第2アパート","province":"東京都","city":"墨田区","address":"東京都墨田区横川5丁目9-4","lat":35.70580771,"lon":139.81822576},{"name":"錦糸町駅北口","province":"東京都","city":"墨田区","address":"東京都墨田区錦糸3丁目2","lat":35.69748616,"lon":139.81405462},{"name":"錦糸町駅南口","province":"東京都","city":"墨田区","address":"東京都墨田区江東橋3丁目14-5","lat":35.69643352,"lon":139.81393804},{"name":"チェリッシュ曳舟","province":"東京都","city":"墨田区","address":"東京都墨田区京島1丁目36-1","lat":35.71688313,"lon":139.8192528},{"name":"あい・あい保育園　小村井園","province":"東京都","city":"墨田区","address":"東京都墨田区立花5丁目24-11","lat":35.71111914,"lon":139.83056267},{"name":"八広ぶどうの木保育室　※2","province":"東京都","city":"墨田区","address":"東京都墨田区八広6丁目37-5","lat":35.72594916,"lon":139.82897674},{"name":"キャリー保育園　東向島","province":"東京都","city":"墨田区","address":"東京都墨田区東向島5丁目36-10","lat":35.72734074,"lon":139.8230359},{"name":"墨田区精神障害者地域生活支援センター　友の家　（社会福祉法人おいてけ堀協会）","province":"東京都","city":"墨田区","address":"東京都墨田区太平1丁目11-7","lat":35.70087189,"lon":139.81150733},{"name":"八広防災備蓄倉庫","province":"東京都","city":"墨田区","address":"東京都墨田区八広6丁目35-1","lat":35.72651028,"lon":139.82940171},{"name":"白鬚東防災備蓄倉庫","province":"東京都","city":"墨田区","address":"東京都墨田区堤通2丁目7-13","lat":35.73475624,"lon":139.81720018},{"name":"国技館内防災備蓄倉庫","province":"東京都","city":"墨田区","address":"東京都墨田区横網1丁目3-28","lat":35.69721965,"lon":139.79360694},{"name":"文花防災備蓄倉庫","province":"東京都","city":"墨田区","address":"東京都墨田区文花1丁目19-1","lat":35.71053903,"lon":139.82370512},{"name":"京島防災備蓄倉庫","province":"東京都","city":"墨田区","address":"東京都墨田区京島2丁目15-5","lat":35.71313356,"lon":139.82108025},{"name":"東向島防災備蓄倉庫","province":"東京都","city":"墨田区","address":"東京都墨田区東向島4丁目8-12","lat":35.72759893,"lon":139.8155317},{"name":"横川防災備蓄倉庫","province":"東京都","city":"墨田区","address":"東京都墨田区横川5丁目9-1","lat":35.70517431,"lon":139.81750923},{"name":"庁舎内防災備蓄倉庫","province":"東京都","city":"墨田区","address":"東京都墨田区吾妻橋1丁目23-20","lat":35.71072382,"lon":139.80149602},{"name":"業平防災備蓄倉庫","province":"東京都","city":"墨田区","address":"東京都墨田区業平3丁目2-5","lat":35.70634375,"lon":139.8130676},{"name":"国際ファッションセンタービル内防災備蓄倉庫","province":"東京都","city":"墨田区","address":"東京都墨田区横網1丁目6-1","lat":35.69830846,"lon":139.79685114},{"name":"NTTドコモ墨田ビル内防災備蓄倉庫","province":"東京都","city":"墨田区","address":"東京都墨田区横網1丁目9-2","lat":35.69835288,"lon":139.79546506},{"name":"太平四丁目防災備蓄倉庫","province":"東京都","city":"墨田区","address":"東京都墨田区太平4丁目1-2","lat":35.70086065,"lon":139.81594032},{"name":"東墨田防災備蓄倉庫","province":"東京都","city":"墨田区","address":"東京都墨田区東墨田2丁目12-9","lat":35.72135158,"lon":139.83258985},{"name":"総合体育館防災備蓄倉庫","province":"東京都","city":"墨田区","address":"東京都墨田区錦糸4丁目15-1","lat":35.69947749,"lon":139.8171875},{"name":"東京スカイツリータウンウエストヤード総合ロータリー備蓄倉庫","province":"東京都","city":"墨田区","address":"東京都墨田区押上1丁目1-2","lat":35.71005462,"lon":139.81070876},{"name":"本所地域プラザ防災備蓄倉庫","province":"東京都","city":"墨田区","address":"東京都墨田区本所1丁目13-4","lat":35.70316063,"lon":139.79876681},{"name":"京島三丁目コミュニティ住宅防災備蓄倉庫","province":"東京都","city":"墨田区","address":"東京都墨田区京島3丁目3-1","lat":35.71526948,"lon":139.82097199},{"name":"第7コミュニティ住宅防災備蓄倉庫","province":"東京都","city":"墨田区","address":"東京都墨田区京島3丁目3-6","lat":35.71515563,"lon":139.82138862},{"name":"第8コミュニティ住宅防災備蓄庫","province":"東京都","city":"墨田区","address":"東京都墨田区京島3丁目52-8","lat":35.71478047,"lon":139.82434659},{"name":"20　ホンダカーズ東京押上店防災備蓄倉庫","province":"東京都","city":"墨田区","address":"東京都墨田区押上2丁目22-4","lat":35.71483839,"lon":139.81445312},{"name":"21　京成押上ビル防災備蓄倉庫","province":"東京都","city":"墨田区","address":"東京都墨田区押上1丁目10-3","lat":35.71022161,"lon":139.81391135},{"name":"江東西工区","province":"東京都","city":"墨田区","address":"東京都墨田区両国1丁目12-5","lat":35.69562534,"lon":139.79045718},{"name":"墨田工区","province":"東京都","city":"墨田区","address":"東京都墨田区堤通1丁目16-4","lat":35.72574067,"lon":139.81097687},{"name":"平井橋水防倉庫","province":"東京都","city":"墨田区","address":"東京都墨田区立花3丁目29-10","lat":35.70835795,"lon":139.83697888},{"name":"墨東病院","province":"東京都","city":"墨田区","address":"東京都墨田区江東橋4丁目23-15","lat":35.69530033,"lon":139.81879578},{"name":"東京都立墨東病院","province":"東京都","city":"墨田区","address":"東京都墨田区江東橋4丁目23-15","lat":35.69530033,"lon":139.81879578},{"name":"白鬚橋病院","province":"東京都","city":"墨田区","address":"東京都墨田区東向島4丁目2-10","lat":35.72795443,"lon":139.81372652},{"name":"両国小学校","province":"東京都","city":"墨田区","address":"東京都墨田区両国4丁目26-6","lat":35.69372012,"lon":139.79519078},{"name":"緑小学校","province":"東京都","city":"墨田区","address":"東京都墨田区緑2丁目12-12","lat":35.69402562,"lon":139.80134284},{"name":"中和小学校","province":"東京都","city":"墨田区","address":"東京都墨田区菊川1丁目18-10","lat":35.6901567,"lon":139.80272644},{"name":"菊川小学校","province":"東京都","city":"墨田区","address":"東京都墨田区立川4丁目12-15","lat":35.69164531,"lon":139.8076726},{"name":"錦糸小学校","province":"東京都","city":"墨田区","address":"東京都墨田区錦糸1丁目9-12","lat":35.69876937,"lon":139.81137701},{"name":"柳島小学校","province":"東京都","city":"墨田区","address":"東京都墨田区横川5丁目2-30","lat":35.70359917,"lon":139.81754005},{"name":"業平小学校","province":"東京都","city":"墨田区","address":"東京都墨田区業平2丁目4-8","lat":35.70627427,"lon":139.81149546},{"name":"言問小学校","province":"東京都","city":"墨田区","address":"東京都墨田区向島5丁目40-14","lat":35.71843549,"lon":139.81134557},{"name":"墨田中学校","province":"東京都","city":"墨田区","address":"東京都墨田区向島4丁目25-22","lat":35.71493535,"lon":139.81152561},{"name":"小梅小学校","province":"東京都","city":"墨田区","address":"東京都墨田区向島2丁目4-10","lat":35.71444608,"lon":139.8059344},{"name":"本所中学校","province":"東京都","city":"墨田区","address":"東京都墨田区東駒形3丁目1-10","lat":35.70526321,"lon":139.80276048},{"name":"横川小学校","province":"東京都","city":"墨田区","address":"東京都墨田区東駒形4丁目18-4","lat":35.70716582,"lon":139.80624308},{"name":"外手小学校","province":"東京都","city":"墨田区","address":"東京都墨田区本所2丁目1-16","lat":35.7025968,"lon":139.80059167},{"name":"二葉小学校","province":"東京都","city":"墨田区","address":"東京都墨田区石原2丁目1-5","lat":35.69926388,"lon":139.80008668},{"name":"錦糸中学校","province":"東京都","city":"墨田区","address":"東京都墨田区石原4丁目33-14","lat":35.70140523,"lon":139.80693828},{"name":"竪川中学校","province":"東京都","city":"墨田区","address":"東京都墨田区亀沢4丁目11-15","lat":35.69700853,"lon":139.80583069},{"name":"立花吾嬬の森小学校","province":"東京都","city":"墨田区","address":"東京都墨田区立花1丁目18-6","lat":35.70622472,"lon":139.82971319},{"name":"東吾嬬小学校","province":"東京都","city":"墨田区","address":"東京都墨田区立花4丁目22-11","lat":35.70854692,"lon":139.83205434},{"name":"中川小学校","province":"東京都","city":"墨田区","address":"東京都墨田区立花5丁目49-4","lat":35.71334666,"lon":139.83150135},{"name":"桜堤中学校","province":"東京都","city":"墨田区","address":"東京都墨田区堤通2丁目19-1","lat":35.73056511,"lon":139.81190987},{"name":"八広地域プラザ","province":"東京都","city":"墨田区","address":"東京都墨田区八広4丁目35-17","lat":35.72349353,"lon":139.82925713},{"name":"八広小学校","province":"東京都","city":"墨田区","address":"東京都墨田区八広5丁目12-15","lat":35.72710192,"lon":139.82632158},{"name":"吾嬬第二中学校","province":"東京都","city":"墨田区","address":"東京都墨田区八広4丁目4-4","lat":35.72149362,"lon":139.8271268},{"name":"寺島中学校","province":"東京都","city":"墨田区","address":"東京都墨田区八広1丁目17-15","lat":35.72013008,"lon":139.82316626},{"name":"第三吾嬬小学校","province":"東京都","city":"墨田区","address":"東京都墨田区八広2丁目36-3","lat":35.71717161,"lon":139.82774891},{"name":"第四吾嬬小学校","province":"東京都","city":"墨田区","address":"東京都墨田区京島3丁目64-9","lat":35.7131389,"lon":139.82518538},{"name":"曳舟小学校","province":"東京都","city":"墨田区","address":"東京都墨田区京島1丁目28-2","lat":35.71662214,"lon":139.82089427},{"name":"文花中学校","province":"東京都","city":"墨田区","address":"東京都墨田区文花1丁目22-7","lat":35.71015294,"lon":139.82236367},{"name":"押上小学校","province":"東京都","city":"墨田区","address":"東京都墨田区押上3丁目46-17","lat":35.71201677,"lon":139.81932198},{"name":"第一寺島小学校","province":"東京都","city":"墨田区","address":"東京都墨田区東向島1丁目16-2","lat":35.72158271,"lon":139.81445099},{"name":"第三寺島小学校","province":"東京都","city":"墨田区","address":"東京都墨田区東向島6丁目8-1","lat":35.72140784,"lon":139.82042783},{"name":"旧向島中学校","province":"東京都","city":"墨田区","address":"東京都墨田区東向島4丁目18-9","lat":35.72607962,"lon":139.81685083},{"name":"第二寺島小学校","province":"東京都","city":"墨田区","address":"東京都墨田区東向島4丁目30-2","lat":35.72470754,"lon":139.81845881},{"name":"梅若小学校","province":"東京都","city":"墨田区","address":"東京都墨田区墨田2丁目25-1","lat":35.73053185,"lon":139.81560645},{"name":"旧隅田小学校","province":"東京都","city":"墨田区","address":"東京都墨田区墨田5丁目49-5","lat":35.73603672,"lon":139.82065239},{"name":"両国中学校","province":"東京都","city":"墨田区","address":"東京都墨田区横網1丁目8-1","lat":35.69748355,"lon":139.79611518},{"name":"隅田小学校","province":"東京都","city":"墨田区","address":"東京都墨田区墨田4丁目6-5","lat":35.73392317,"lon":139.82186348},{"name":"東京都江戸東京博物館","province":"東京都","city":"墨田区","address":"東京都墨田区横網1丁目4-1","lat":35.69651701,"lon":139.79620144},{"name":"皮革技術センター","province":"東京都","city":"墨田区","address":"東京都墨田区東墨田3丁目3-14","lat":35.72012918,"lon":139.83350074},{"name":"墨田川高等学校","province":"東京都","city":"墨田区","address":"東京都墨田区東向島3丁目34-14","lat":35.72188272,"lon":139.81637848},{"name":"両国高等学校","province":"東京都","city":"墨田区","address":"東京都墨田区江東橋1丁目7-14","lat":35.69453935,"lon":139.81008872},{"name":"本所高等学校","province":"東京都","city":"墨田区","address":"東京都墨田区向島3丁目37-25","lat":35.71428529,"lon":139.81112277},{"name":"橘高等学校","province":"東京都","city":"墨田区","address":"東京都墨田区立花4丁目29-7","lat":35.70930795,"lon":139.83334026},{"name":"日本橋高等学校","province":"東京都","city":"墨田区","address":"東京都墨田区八広1丁目28-21","lat":35.71966058,"lon":139.82417998},{"name":"本所都民防災教育センター","province":"東京都","city":"墨田区","address":"東京都墨田区横川4丁目6-6","lat":35.70394926,"lon":139.81518733},{"name":"つばき公園","province":"東京都","city":"墨田区","address":"東京都墨田区墨田5丁目33-9","lat":35.73761145,"lon":139.82036616},{"name":"墨田五丁目溝渠","province":"東京都","city":"墨田区","address":"東京都墨田区墨田5丁目20","lat":35.74076913,"lon":139.81734114},{"name":"都営墨田1丁目アパート5号棟","province":"東京都","city":"墨田区","address":"東京都墨田区墨田1丁目4","lat":35.72929592,"lon":139.81459567},{"name":"こでまり児童遊園","province":"東京都","city":"墨田区","address":"東京都墨田区東向島5丁目24-1","lat":35.72764346,"lon":139.82184162},{"name":"吾嬬西公園","province":"東京都","city":"墨田区","address":"東京都墨田区八広6丁目53-16","lat":35.72424908,"lon":139.83025702},{"name":"東墨田二丁目公園","province":"東京都","city":"墨田区","address":"東京都墨田区東墨田2丁目12-10","lat":35.7210821,"lon":139.83277592},{"name":"社会福祉会館","province":"東京都","city":"墨田区","address":"東京都墨田区東墨田2丁目7-1","lat":35.71894898,"lon":139.83046514},{"name":"福寿公園","province":"東京都","city":"墨田区","address":"東京都墨田区立花3丁目24-3","lat":35.7078636,"lon":139.83437075},{"name":"旧中川水辺公園","province":"東京都","city":"墨田区","address":"東京都墨田区立花6丁目8","lat":35.71087998,"lon":139.83527611},{"name":"堤通1丁目","province":"東京都","city":"墨田区","address":"東京都墨田区堤通1丁目11","lat":35.72439635,"lon":139.81269314},{"name":"ふじのき公園","province":"東京都","city":"墨田区","address":"東京都墨田区東向島2丁目7-5","lat":35.71734678,"lon":139.81547271},{"name":"すみだ福祉保健センター","province":"東京都","city":"墨田区","address":"東京都墨田区向島3丁目36-7","lat":35.71329353,"lon":139.81075044},{"name":"文花公園","province":"東京都","city":"墨田区","address":"東京都墨田区文花1丁目27","lat":35.70874438,"lon":139.82167509},{"name":"東あずま公園","province":"東京都","city":"墨田区","address":"東京都墨田区立花2丁目32-12","lat":35.70834973,"lon":139.83030736},{"name":"すみだ清掃事務所分室","province":"東京都","city":"墨田区","address":"東京都墨田区亀沢1丁目8-3","lat":35.69728358,"lon":139.7975762},{"name":"横川橋保育園","province":"東京都","city":"墨田区","address":"東京都墨田区太平1丁目27-13","lat":35.7021662,"lon":139.81077669},{"name":"錦糸公園","province":"東京都","city":"墨田区","address":"東京都墨田区錦糸4丁目15-1","lat":35.69947749,"lon":139.8171875},{"name":"東京消防庁両国寮(ソーラー)","province":"東京都","city":"墨田区","address":"東京都墨田区両国1丁目12","lat":35.69523371,"lon":139.79009056},{"name":"一之橋","province":"東京都","city":"墨田区","address":"東京都墨田区千歳1丁目9","lat":35.69168144,"lon":139.79248544},{"name":"どんぐり児童遊園","province":"東京都","city":"墨田区","address":"東京都墨田区緑3丁目12-9","lat":35.69455606,"lon":139.8046534},{"name":"両国駅西口","province":"東京都","city":"墨田区","address":"東京都墨田区横網1丁目3-20","lat":35.69605033,"lon":139.79250988},{"name":"菊川橋児童遊園","province":"東京都","city":"墨田区","address":"東京都墨田区菊川3丁目13-2","lat":35.68874569,"lon":139.8090975},{"name":"立花公園","province":"東京都","city":"墨田区","address":"東京都墨田区立花1丁目27-5","lat":35.70547192,"lon":139.82927722},{"name":"墨田区役所","province":"東京都","city":"墨田区","address":"東京都墨田区吾妻橋1丁目23-20","lat":35.71072382,"lon":139.80149602},{"name":"隅田川緑道","province":"東京都","city":"墨田区","address":"東京都墨田区横網2丁目12","lat":35.70139696,"lon":139.7955535},{"name":"東墨田東公園","province":"東京都","city":"墨田区","address":"東京都墨田区東墨田3丁目19-2","lat":35.71845425,"lon":139.83744771},{"name":"文花一丁目区道","province":"東京都","city":"墨田区","address":"東京都墨田区文花1丁目32-2","lat":35.70754973,"lon":139.82345005},{"name":"おしなり公園西","province":"東京都","city":"墨田区","address":"東京都墨田区押上1丁目","lat":35.71011625,"lon":139.81578627},{"name":"おしなり公園東","province":"東京都","city":"墨田区","address":"東京都墨田区押上1丁目","lat":35.71011625,"lon":139.81578627},{"name":"都営横川五丁目第2アパート","province":"東京都","city":"墨田区","address":"東京都墨田区横川5丁目9-4","lat":35.70580771,"lon":139.81822576},{"name":"錦糸町駅北口","province":"東京都","city":"墨田区","address":"東京都墨田区錦糸3丁目2","lat":35.69748616,"lon":139.81405462},{"name":"錦糸町駅南口","province":"東京都","city":"墨田区","address":"東京都墨田区江東橋3丁目14-5","lat":35.69643352,"lon":139.81393804},{"name":"チェリッシュ曳舟","province":"東京都","city":"墨田区","address":"東京都墨田区京島1丁目36-1","lat":35.71688313,"lon":139.8192528},{"name":"あい・あい保育園　小村井園","province":"東京都","city":"墨田区","address":"東京都墨田区立花5丁目24-11","lat":35.71111914,"lon":139.83056267},{"name":"八広ぶどうの木保育室　※2","province":"東京都","city":"墨田区","address":"東京都墨田区八広6丁目37-5","lat":35.72594916,"lon":139.82897674},{"name":"キャリー保育園　東向島","province":"東京都","city":"墨田区","address":"東京都墨田区東向島5丁目36-10","lat":35.72734074,"lon":139.8230359},{"name":"墨田区精神障害者地域生活支援センター　友の家　（社会福祉法人おいてけ堀協会）","province":"東京都","city":"墨田区","address":"東京都墨田区太平1丁目11-7","lat":35.70087189,"lon":139.81150733},{"name":"墨東病院","province":"東京都","city":"墨田区","address":"東京都墨田区江東橋4丁目23-15","lat":35.69530033,"lon":139.81879578},{"name":"チェリッシュ曳舟","province":"東京都","city":"墨田区","address":"東京都墨田区京島1丁目36-1","lat":35.71688313,"lon":139.8192528},{"name":"あい・あい保育園　小村井園","province":"東京都","city":"墨田区","address":"東京都墨田区立花5丁目24-11","lat":35.71111914,"lon":139.83056267},{"name":"八広ぶどうの木保育室　※2","province":"東京都","city":"墨田区","address":"東京都墨田区八広6丁目37-5","lat":35.72594916,"lon":139.82897674},{"name":"キャリー保育園　東向島","province":"東京都","city":"墨田区","address":"東京都墨田区東向島5丁目36-10","lat":35.72734074,"lon":139.8230359},{"name":"墨田区精神障害者地域生活支援センター　友の家　（社会福祉法人おいてけ堀協会）","province":"東京都","city":"墨田区","address":"東京都墨田区太平1丁目11-7","lat":35.70087189,"lon":139.81150733},{"name":"墨東病院","province":"東京都","city":"墨田区","address":"東京都墨田区江東橋4丁目23-15","lat":35.69530033,"lon":139.81879578},{"name":"チェリッシュ曳舟","province":"東京都","city":"墨田区","address":"東京都墨田区京島1丁目36-1","lat":35.71688313,"lon":139.8192528},{"name":"あい・あい保育園　小村井園","province":"東京都","city":"墨田区","address":"東京都墨田区立花5丁目24-11","lat":35.71111914,"lon":139.83056267},{"name":"八広ぶどうの木保育室　※2","province":"東京都","city":"墨田区","address":"東京都墨田区八広6丁目37-5","lat":35.72594916,"lon":139.82897674},{"name":"キャリー保育園　東向島","province":"東京都","city":"墨田区","address":"東京都墨田区東向島5丁目36-10","lat":35.72734074,"lon":139.8230359},{"name":"墨田区精神障害者地域生活支援センター　友の家　（社会福祉法人おいてけ堀協会）","province":"東京都","city":"墨田区","address":"東京都墨田区太平1丁目11-7","lat":35.70087189,"lon":139.81150733},{"name":"チェリッシュ曳舟","province":"東京都","city":"墨田区","address":"東京都墨田区京島1丁目36-1","lat":35.71688313,"lon":139.8192528},{"name":"あい・あい保育園　小村井園","province":"東京都","city":"墨田区","address":"東京都墨田区立花5丁目24-11","lat":35.71111914,"lon":139.83056267},{"name":"八広ぶどうの木保育室　※2","province":"東京都","city":"墨田区","address":"東京都墨田区八広6丁目37-5","lat":35.72594916,"lon":139.82897674},{"name":"キャリー保育園　東向島","province":"東京都","city":"墨田区","address":"東京都墨田区東向島5丁目36-10","lat":35.72734074,"lon":139.8230359},{"name":"墨田区精神障害者地域生活支援センター　友の家　（社会福祉法人おいてけ堀協会）","province":"東京都","city":"墨田区","address":"東京都墨田区太平1丁目11-7","lat":35.70087189,"lon":139.81150733},{"name":"チェリッシュ曳舟","province":"東京都","city":"墨田区","address":"東京都墨田区京島1丁目36-1","lat":35.71688313,"lon":139.8192528},{"name":"あい・あい保育園　小村井園","province":"東京都","city":"墨田区","address":"東京都墨田区立花5丁目24-11","lat":35.71111914,"lon":139.83056267},{"name":"八広ぶどうの木保育室　※2","province":"東京都","city":"墨田区","address":"東京都墨田区八広6丁目37-5","lat":35.72594916,"lon":139.82897674},{"name":"キャリー保育園　東向島","province":"東京都","city":"墨田区","address":"東京都墨田区東向島5丁目36-10","lat":35.72734074,"lon":139.8230359},{"name":"墨田区精神障害者地域生活支援センター　友の家　（社会福祉法人おいてけ堀協会）","province":"東京都","city":"墨田区","address":"東京都墨田区太平1丁目11-7","lat":35.70087189,"lon":139.81150733},{"name":"チェリッシュ曳舟","province":"東京都","city":"墨田区","address":"東京都墨田区京島1丁目36-1","lat":35.71688313,"lon":139.8192528},{"name":"あい・あい保育園　小村井園","province":"東京都","city":"墨田区","address":"東京都墨田区立花5丁目24-11","lat":35.71111914,"lon":139.83056267},{"name":"八広ぶどうの木保育室　※2","province":"東京都","city":"墨田区","address":"東京都墨田区八広6丁目37-5","lat":35.72594916,"lon":139.82897674},{"name":"キャリー保育園　東向島","province":"東京都","city":"墨田区","address":"東京都墨田区東向島5丁目36-10","lat":35.72734074,"lon":139.8230359},{"name":"墨田区精神障害者地域生活支援センター　友の家　（社会福祉法人おいてけ堀協会）","province":"東京都","city":"墨田区","address":"東京都墨田区太平1丁目11-7","lat":35.70087189,"lon":139.81150733},{"name":"チェリッシュ曳舟","province":"東京都","city":"墨田区","address":"東京都墨田区京島1丁目36-1","lat":35.71688313,"lon":139.8192528},{"name":"あい・あい保育園　小村井園","province":"東京都","city":"墨田区","address":"東京都墨田区立花5丁目24-11","lat":35.71111914,"lon":139.83056267},{"name":"八広ぶどうの木保育室　※2","province":"東京都","city":"墨田区","address":"東京都墨田区八広6丁目37-5","lat":35.72594916,"lon":139.82897674},{"name":"キャリー保育園　東向島","province":"東京都","city":"墨田区","address":"東京都墨田区東向島5丁目36-10","lat":35.72734074,"lon":139.8230359},{"name":"墨田区精神障害者地域生活支援センター　友の家　（社会福祉法人おいてけ堀協会）","province":"東京都","city":"墨田区","address":"東京都墨田区太平1丁目11-7","lat":35.70087189,"lon":139.81150733},{"name":"チェリッシュ曳舟","province":"東京都","city":"墨田区","address":"東京都墨田区京島1丁目36-1","lat":35.71688313,"lon":139.8192528},{"name":"あい・あい保育園　小村井園","province":"東京都","city":"墨田区","address":"東京都墨田区立花5丁目24-11","lat":35.71111914,"lon":139.83056267},{"name":"八広ぶどうの木保育室　※2","province":"東京都","city":"墨田区","address":"東京都墨田区八広6丁目37-5","lat":35.72594916,"lon":139.82897674},{"name":"キャリー保育園　東向島","province":"東京都","city":"墨田区","address":"東京都墨田区東向島5丁目36-10","lat":35.72734074,"lon":139.8230359},{"name":"墨田区精神障害者地域生活支援センター　友の家　（社会福祉法人おいてけ堀協会）","province":"東京都","city":"墨田区","address":"東京都墨田区太平1丁目11-7","lat":35.70087189,"lon":139.81150733},{"name":"チェリッシュ曳舟","province":"東京都","city":"墨田区","address":"東京都墨田区京島1丁目36-1","lat":35.71688313,"lon":139.8192528},{"name":"あい・あい保育園　小村井園","province":"東京都","city":"墨田区","address":"東京都墨田区立花5丁目24-11","lat":35.71111914,"lon":139.83056267},{"name":"八広ぶどうの木保育室　※2","province":"東京都","city":"墨田区","address":"東京都墨田区八広6丁目37-5","lat":35.72594916,"lon":139.82897674},{"name":"キャリー保育園　東向島","province":"東京都","city":"墨田区","address":"東京都墨田区東向島5丁目36-10","lat":35.72734074,"lon":139.8230359},{"name":"墨田区精神障害者地域生活支援センター　友の家　（社会福祉法人おいてけ堀協会）","province":"東京都","city":"墨田区","address":"東京都墨田区太平1丁目11-7","lat":35.70087189,"lon":139.81150733},{"name":"チェリッシュ曳舟","province":"東京都","city":"墨田区","address":"東京都墨田区京島1丁目36-1","lat":35.71688313,"lon":139.8192528},{"name":"あい・あい保育園　小村井園","province":"東京都","city":"墨田区","address":"東京都墨田区立花5丁目24-11","lat":35.71111914,"lon":139.83056267},{"name":"八広ぶどうの木保育室　※2","province":"東京都","city":"墨田区","address":"東京都墨田区八広6丁目37-5","lat":35.72594916,"lon":139.82897674},{"name":"キャリー保育園　東向島","province":"東京都","city":"墨田区","address":"東京都墨田区東向島5丁目36-10","lat":35.72734074,"lon":139.8230359},{"name":"墨田区精神障害者地域生活支援センター　友の家　（社会福祉法人おいてけ堀協会）","province":"東京都","city":"墨田区","address":"東京都墨田区太平1丁目11-7","lat":35.70087189,"lon":139.81150733},{"name":"チェリッシュ曳舟","province":"東京都","city":"墨田区","address":"東京都墨田区京島1丁目36-1","lat":35.71688313,"lon":139.8192528},{"name":"あい・あい保育園　小村井園","province":"東京都","city":"墨田区","address":"東京都墨田区立花5丁目24-11","lat":35.71111914,"lon":139.83056267},{"name":"八広ぶどうの木保育室　※2","province":"東京都","city":"墨田区","address":"東京都墨田区八広6丁目37-5","lat":35.72594916,"lon":139.82897674},{"name":"キャリー保育園　東向島","province":"東京都","city":"墨田区","address":"東京都墨田区東向島5丁目36-10","lat":35.72734074,"lon":139.8230359},{"name":"墨田区精神障害者地域生活支援センター　友の家　（社会福祉法人おいてけ堀協会）","province":"東京都","city":"墨田区","address":"東京都墨田区太平1丁目11-7","lat":35.70087189,"lon":139.81150733},{"name":"チェリッシュ曳舟","province":"東京都","city":"墨田区","address":"東京都墨田区京島1丁目36-1","lat":35.71688313,"lon":139.8192528},{"name":"あい・あい保育園　小村井園","province":"東京都","city":"墨田区","address":"東京都墨田区立花5丁目24-11","lat":35.71111914,"lon":139.83056267},{"name":"八広ぶどうの木保育室　※2","province":"東京都","city":"墨田区","address":"東京都墨田区八広6丁目37-5","lat":35.72594916,"lon":139.82897674},{"name":"キャリー保育園　東向島","province":"東京都","city":"墨田区","address":"東京都墨田区東向島5丁目36-10","lat":35.72734074,"lon":139.8230359},{"name":"墨田区精神障害者地域生活支援センター　友の家　（社会福祉法人おいてけ堀協会）","province":"東京都","city":"墨田区","address":"東京都墨田区太平1丁目11-7","lat":35.70087189,"lon":139.81150733},{"name":"チェリッシュ曳舟","province":"東京都","city":"墨田区","address":"東京都墨田区京島1丁目36-1","lat":35.71688313,"lon":139.8192528},{"name":"あい・あい保育園　小村井園","province":"東京都","city":"墨田区","address":"東京都墨田区立花5丁目24-11","lat":35.71111914,"lon":139.83056267},{"name":"八広ぶどうの木保育室　※2","province":"東京都","city":"墨田区","address":"東京都墨田区八広6丁目37-5","lat":35.72594916,"lon":139.82897674},{"name":"キャリー保育園　東向島","province":"東京都","city":"墨田区","address":"東京都墨田区東向島5丁目36-10","lat":35.72734074,"lon":139.8230359},{"name":"墨田区精神障害者地域生活支援センター　友の家　（社会福祉法人おいてけ堀協会）","province":"東京都","city":"墨田区","address":"東京都墨田区太平1丁目11-7","lat":35.70087189,"lon":139.81150733},{"name":"チェリッシュ曳舟","province":"東京都","city":"墨田区","address":"東京都墨田区京島1丁目36-1","lat":35.71688313,"lon":139.8192528},{"name":"あい・あい保育園　小村井園","province":"東京都","city":"墨田区","address":"東京都墨田区立花5丁目24-11","lat":35.71111914,"lon":139.83056267},{"name":"八広ぶどうの木保育室　※2","province":"東京都","city":"墨田区","address":"東京都墨田区八広6丁目37-5","lat":35.72594916,"lon":139.82897674},{"name":"キャリー保育園　東向島","province":"東京都","city":"墨田区","address":"東京都墨田区東向島5丁目36-10","lat":35.72734074,"lon":139.8230359},{"name":"墨田区精神障害者地域生活支援センター　友の家　（社会福祉法人おいてけ堀協会）","province":"東京都","city":"墨田区","address":"東京都墨田区太平1丁目11-7","lat":35.70087189,"lon":139.81150733},{"name":"チェリッシュ曳舟","province":"東京都","city":"墨田区","address":"東京都墨田区京島1丁目36-1","lat":35.71688313,"lon":139.8192528},{"name":"あい・あい保育園　小村井園","province":"東京都","city":"墨田区","address":"東京都墨田区立花5丁目24-11","lat":35.71111914,"lon":139.83056267},{"name":"八広ぶどうの木保育室　※2","province":"東京都","city":"墨田区","address":"東京都墨田区八広6丁目37-5","lat":35.72594916,"lon":139.82897674},{"name":"キャリー保育園　東向島","province":"東京都","city":"墨田区","address":"東京都墨田区東向島5丁目36-10","lat":35.72734074,"lon":139.8230359},{"name":"墨田区精神障害者地域生活支援センター　友の家　（社会福祉法人おいてけ堀協会）","province":"東京都","city":"墨田区","address":"東京都墨田区太平1丁目11-7","lat":35.70087189,"lon":139.81150733},{"name":"チェリッシュ曳舟","province":"東京都","city":"墨田区","address":"東京都墨田区京島1丁目36-1","lat":35.71688313,"lon":139.8192528},{"name":"あい・あい保育園　小村井園","province":"東京都","city":"墨田区","address":"東京都墨田区立花5丁目24-11","lat":35.71111914,"lon":139.83056267},{"name":"八広ぶどうの木保育室　※2","province":"東京都","city":"墨田区","address":"東京都墨田区八広6丁目37-5","lat":35.72594916,"lon":139.82897674},{"name":"キャリー保育園　東向島","province":"東京都","city":"墨田区","address":"東京都墨田区東向島5丁目36-10","lat":35.72734074,"lon":139.8230359},{"name":"墨田区精神障害者地域生活支援センター　友の家　（社会福祉法人おいてけ堀協会）","province":"東京都","city":"墨田区","address":"東京都墨田区太平1丁目11-7","lat":35.70087189,"lon":139.81150733},{"name":"チェリッシュ曳舟","province":"東京都","city":"墨田区","address":"東京都墨田区京島1丁目36-1","lat":35.71688313,"lon":139.8192528},{"name":"あい・あい保育園　小村井園","province":"東京都","city":"墨田区","address":"東京都墨田区立花5丁目24-11","lat":35.71111914,"lon":139.83056267},{"name":"八広ぶどうの木保育室　※2","province":"東京都","city":"墨田区","address":"東京都墨田区八広6丁目37-5","lat":35.72594916,"lon":139.82897674},{"name":"キャリー保育園　東向島","province":"東京都","city":"墨田区","address":"東京都墨田区東向島5丁目36-10","lat":35.72734074,"lon":139.8230359},{"name":"墨田区精神障害者地域生活支援センター　友の家　（社会福祉法人おいてけ堀協会）","province":"東京都","city":"墨田区","address":"東京都墨田区太平1丁目11-7","lat":35.70087189,"lon":139.81150733},{"name":"チェリッシュ曳舟","province":"東京都","city":"墨田区","address":"東京都墨田区京島1丁目36-1","lat":35.71688313,"lon":139.8192528},{"name":"あい・あい保育園　小村井園","province":"東京都","city":"墨田区","address":"東京都墨田区立花5丁目24-11","lat":35.71111914,"lon":139.83056267},{"name":"八広ぶどうの木保育室　※2","province":"東京都","city":"墨田区","address":"東京都墨田区八広6丁目37-5","lat":35.72594916,"lon":139.82897674},{"name":"キャリー保育園　東向島","province":"東京都","city":"墨田区","address":"東京都墨田区東向島5丁目36-10","lat":35.72734074,"lon":139.8230359},{"name":"墨田区精神障害者地域生活支援センター　友の家　（社会福祉法人おいてけ堀協会）","province":"東京都","city":"墨田区","address":"東京都墨田区太平1丁目11-7","lat":35.70087189,"lon":139.81150733},{"name":"チェリッシュ曳舟","province":"東京都","city":"墨田区","address":"東京都墨田区京島1丁目36-1","lat":35.71688313,"lon":139.8192528},{"name":"あい・あい保育園　小村井園","province":"東京都","city":"墨田区","address":"東京都墨田区立花5丁目24-11","lat":35.71111914,"lon":139.83056267},{"name":"八広ぶどうの木保育室　※2","province":"東京都","city":"墨田区","address":"東京都墨田区八広6丁目37-5","lat":35.72594916,"lon":139.82897674},{"name":"キャリー保育園　東向島","province":"東京都","city":"墨田区","address":"東京都墨田区東向島5丁目36-10","lat":35.72734074,"lon":139.8230359},{"name":"墨田区精神障害者地域生活支援センター　友の家　（社会福祉法人おいてけ堀協会）","province":"東京都","city":"墨田区","address":"東京都墨田区太平1丁目11-7","lat":35.70087189,"lon":139.81150733},{"name":"チェリッシュ曳舟","province":"東京都","city":"墨田区","address":"東京都墨田区京島1丁目36-1","lat":35.71688313,"lon":139.8192528},{"name":"あい・あい保育園　小村井園","province":"東京都","city":"墨田区","address":"東京都墨田区立花5丁目24-11","lat":35.71111914,"lon":139.83056267},{"name":"八広ぶどうの木保育室　※2","province":"東京都","city":"墨田区","address":"東京都墨田区八広6丁目37-5","lat":35.72594916,"lon":139.82897674},{"name":"キャリー保育園　東向島","province":"東京都","city":"墨田区","address":"東京都墨田区東向島5丁目36-10","lat":35.72734074,"lon":139.8230359},{"name":"墨田区精神障害者地域生活支援センター　友の家　（社会福祉法人おいてけ堀協会）","province":"東京都","city":"墨田区","address":"東京都墨田区太平1丁目11-7","lat":35.70087189,"lon":139.81150733},{"name":"チェリッシュ曳舟","province":"東京都","city":"墨田区","address":"東京都墨田区京島1丁目36-1","lat":35.71688313,"lon":139.8192528},{"name":"あい・あい保育園　小村井園","province":"東京都","city":"墨田区","address":"東京都墨田区立花5丁目24-11","lat":35.71111914,"lon":139.83056267},{"name":"八広ぶどうの木保育室　※2","province":"東京都","city":"墨田区","address":"東京都墨田区八広6丁目37-5","lat":35.72594916,"lon":139.82897674},{"name":"キャリー保育園　東向島","province":"東京都","city":"墨田区","address":"東京都墨田区東向島5丁目36-10","lat":35.72734074,"lon":139.8230359},{"name":"墨田区精神障害者地域生活支援センター　友の家　（社会福祉法人おいてけ堀協会）","province":"東京都","city":"墨田区","address":"東京都墨田区太平1丁目11-7","lat":35.70087189,"lon":139.81150733},{"name":"チェリッシュ曳舟","province":"東京都","city":"墨田区","address":"東京都墨田区京島1丁目36-1","lat":35.71688313,"lon":139.8192528},{"name":"あい・あい保育園　小村井園","province":"東京都","city":"墨田区","address":"東京都墨田区立花5丁目24-11","lat":35.71111914,"lon":139.83056267},{"name":"八広ぶどうの木保育室　※2","province":"東京都","city":"墨田区","address":"東京都墨田区八広6丁目37-5","lat":35.72594916,"lon":139.82897674},{"name":"キャリー保育園　東向島","province":"東京都","city":"墨田区","address":"東京都墨田区東向島5丁目36-10","lat":35.72734074,"lon":139.8230359},{"name":"墨田区精神障害者地域生活支援センター　友の家　（社会福祉法人おいてけ堀協会）","province":"東京都","city":"墨田区","address":"東京都墨田区太平1丁目11-7","lat":35.70087189,"lon":139.81150733},{"name":"チェリッシュ曳舟","province":"東京都","city":"墨田区","address":"東京都墨田区京島1丁目36-1","lat":35.71688313,"lon":139.8192528},{"name":"あい・あい保育園　小村井園","province":"東京都","city":"墨田区","address":"東京都墨田区立花5丁目24-11","lat":35.71111914,"lon":139.83056267},{"name":"八広ぶどうの木保育室　※2","province":"東京都","city":"墨田区","address":"東京都墨田区八広6丁目37-5","lat":35.72594916,"lon":139.82897674},{"name":"キャリー保育園　東向島","province":"東京都","city":"墨田区","address":"東京都墨田区東向島5丁目36-10","lat":35.72734074,"lon":139.8230359},{"name":"墨田区精神障害者地域生活支援センター　友の家　（社会福祉法人おいてけ堀協会）","province":"東京都","city":"墨田区","address":"東京都墨田区太平1丁目11-7","lat":35.70087189,"lon":139.81150733},{"name":"チェリッシュ曳舟","province":"東京都","city":"墨田区","address":"東京都墨田区京島1丁目36-1","lat":35.71688313,"lon":139.8192528},{"name":"あい・あい保育園　小村井園","province":"東京都","city":"墨田区","address":"東京都墨田区立花5丁目24-11","lat":35.71111914,"lon":139.83056267},{"name":"八広ぶどうの木保育室　※2","province":"東京都","city":"墨田区","address":"東京都墨田区八広6丁目37-5","lat":35.72594916,"lon":139.82897674},{"name":"キャリー保育園　東向島","province":"東京都","city":"墨田区","address":"東京都墨田区東向島5丁目36-10","lat":35.72734074,"lon":139.8230359},{"name":"墨田区精神障害者地域生活支援センター　友の家　（社会福祉法人おいてけ堀協会）","province":"東京都","city":"墨田区","address":"東京都墨田区太平1丁目11-7","lat":35.70087189,"lon":139.81150733},{"name":"チェリッシュ曳舟","province":"東京都","city":"墨田区","address":"東京都墨田区京島1丁目36-1","lat":35.71688313,"lon":139.8192528},{"name":"あい・あい保育園　小村井園","province":"東京都","city":"墨田区","address":"東京都墨田区立花5丁目24-11","lat":35.71111914,"lon":139.83056267},{"name":"八広ぶどうの木保育室　※2","province":"東京都","city":"墨田区","address":"東京都墨田区八広6丁目37-5","lat":35.72594916,"lon":139.82897674},{"name":"キャリー保育園　東向島","province":"東京都","city":"墨田区","address":"東京都墨田区東向島5丁目36-10","lat":35.72734074,"lon":139.8230359},{"name":"墨田区精神障害者地域生活支援センター　友の家　（社会福祉法人おいてけ堀協会）","province":"東京都","city":"墨田区","address":"東京都墨田区太平1丁目11-7","lat":35.70087189,"lon":139.81150733},{"name":"チェリッシュ曳舟","province":"東京都","city":"墨田区","address":"東京都墨田区京島1丁目36-1","lat":35.71688313,"lon":139.8192528},{"name":"あい・あい保育園　小村井園","province":"東京都","city":"墨田区","address":"東京都墨田区立花5丁目24-11","lat":35.71111914,"lon":139.83056267},{"name":"八広ぶどうの木保育室　※2","province":"東京都","city":"墨田区","address":"東京都墨田区八広6丁目37-5","lat":35.72594916,"lon":139.82897674},{"name":"キャリー保育園　東向島","province":"東京都","city":"墨田区","address":"東京都墨田区東向島5丁目36-10","lat":35.72734074,"lon":139.8230359},{"name":"墨田区精神障害者地域生活支援センター　友の家　（社会福祉法人おいてけ堀協会）","province":"東京都","city":"墨田区","address":"東京都墨田区太平1丁目11-7","lat":35.70087189,"lon":139.81150733},{"name":"チェリッシュ曳舟","province":"東京都","city":"墨田区","address":"東京都墨田区京島1丁目36-1","lat":35.71688313,"lon":139.8192528},{"name":"あい・あい保育園　小村井園","province":"東京都","city":"墨田区","address":"東京都墨田区立花5丁目24-11","lat":35.71111914,"lon":139.83056267},{"name":"八広ぶどうの木保育室　※2","province":"東京都","city":"墨田区","address":"東京都墨田区八広6丁目37-5","lat":35.72594916,"lon":139.82897674},{"name":"キャリー保育園　東向島","province":"東京都","city":"墨田区","address":"東京都墨田区東向島5丁目36-10","lat":35.72734074,"lon":139.8230359},{"name":"墨田区精神障害者地域生活支援センター　友の家　（社会福祉法人おいてけ堀協会）","province":"東京都","city":"墨田区","address":"東京都墨田区太平1丁目11-7","lat":35.70087189,"lon":139.81150733},{"name":"チェリッシュ曳舟","province":"東京都","city":"墨田区","address":"東京都墨田区京島1丁目36-1","lat":35.71688313,"lon":139.8192528},{"name":"あい・あい保育園　小村井園","province":"東京都","city":"墨田区","address":"東京都墨田区立花5丁目24-11","lat":35.71111914,"lon":139.83056267},{"name":"八広ぶどうの木保育室　※2","province":"東京都","city":"墨田区","address":"東京都墨田区八広6丁目37-5","lat":35.72594916,"lon":139.82897674},{"name":"キャリー保育園　東向島","province":"東京都","city":"墨田区","address":"東京都墨田区東向島5丁目36-10","lat":35.72734074,"lon":139.8230359},{"name":"墨田区精神障害者地域生活支援センター　友の家　（社会福祉法人おいてけ堀協会）","province":"東京都","city":"墨田区","address":"東京都墨田区太平1丁目11-7","lat":35.70087189,"lon":139.81150733},{"name":"チェリッシュ曳舟","province":"東京都","city":"墨田区","address":"東京都墨田区京島1丁目36-1","lat":35.71688313,"lon":139.8192528},{"name":"あい・あい保育園　小村井園","province":"東京都","city":"墨田区","address":"東京都墨田区立花5丁目24-11","lat":35.71111914,"lon":139.83056267},{"name":"八広ぶどうの木保育室　※2","province":"東京都","city":"墨田区","address":"東京都墨田区八広6丁目37-5","lat":35.72594916,"lon":139.82897674},{"name":"キャリー保育園　東向島","province":"東京都","city":"墨田区","address":"東京都墨田区東向島5丁目36-10","lat":35.72734074,"lon":139.8230359},{"name":"墨田区精神障害者地域生活支援センター　友の家　（社会福祉法人おいてけ堀協会）","province":"東京都","city":"墨田区","address":"東京都墨田区太平1丁目11-7","lat":35.70087189,"lon":139.81150733},{"name":"チェリッシュ曳舟","province":"東京都","city":"墨田区","address":"東京都墨田区京島1丁目36-1","lat":35.71688313,"lon":139.8192528},{"name":"あい・あい保育園　小村井園","province":"東京都","city":"墨田区","address":"東京都墨田区立花5丁目24-11","lat":35.71111914,"lon":139.83056267},{"name":"八広ぶどうの木保育室　※2","province":"東京都","city":"墨田区","address":"東京都墨田区八広6丁目37-5","lat":35.72594916,"lon":139.82897674},{"name":"キャリー保育園　東向島","province":"東京都","city":"墨田区","address":"東京都墨田区東向島5丁目36-10","lat":35.72734074,"lon":139.8230359},{"name":"墨田区精神障害者地域生活支援センター　友の家　（社会福祉法人おいてけ堀協会）","province":"東京都","city":"墨田区","address":"東京都墨田区太平1丁目11-7","lat":35.70087189,"lon":139.81150733},{"name":"チェリッシュ曳舟","province":"東京都","city":"墨田区","address":"東京都墨田区京島1丁目36-1","lat":35.71688313,"lon":139.8192528},{"name":"あい・あい保育園　小村井園","province":"東京都","city":"墨田区","address":"東京都墨田区立花5丁目24-11","lat":35.71111914,"lon":139.83056267},{"name":"八広ぶどうの木保育室　※2","province":"東京都","city":"墨田区","address":"東京都墨田区八広6丁目37-5","lat":35.72594916,"lon":139.82897674},{"name":"キャリー保育園　東向島","province":"東京都","city":"墨田区","address":"東京都墨田区東向島5丁目36-10","lat":35.72734074,"lon":139.8230359},{"name":"墨田区精神障害者地域生活支援センター　友の家　（社会福祉法人おいてけ堀協会）","province":"東京都","city":"墨田区","address":"東京都墨田区太平1丁目11-7","lat":35.70087189,"lon":139.81150733},{"name":"チェリッシュ曳舟","province":"東京都","city":"墨田区","address":"東京都墨田区京島1丁目36-1","lat":35.71688313,"lon":139.8192528},{"name":"あい・あい保育園　小村井園","province":"東京都","city":"墨田区","address":"東京都墨田区立花5丁目24-11","lat":35.71111914,"lon":139.83056267},{"name":"八広ぶどうの木保育室　※2","province":"東京都","city":"墨田区","address":"東京都墨田区八広6丁目37-5","lat":35.72594916,"lon":139.82897674},{"name":"キャリー保育園　東向島","province":"東京都","city":"墨田区","address":"東京都墨田区東向島5丁目36-10","lat":35.72734074,"lon":139.8230359},{"name":"墨田区精神障害者地域生活支援センター　友の家　（社会福祉法人おいてけ堀協会）","province":"東京都","city":"墨田区","address":"東京都墨田区太平1丁目11-7","lat":35.70087189,"lon":139.81150733},{"name":"チェリッシュ曳舟","province":"東京都","city":"墨田区","address":"東京都墨田区京島1丁目36-1","lat":35.71688313,"lon":139.8192528},{"name":"あい・あい保育園　小村井園","province":"東京都","city":"墨田区","address":"東京都墨田区立花5丁目24-11","lat":35.71111914,"lon":139.83056267},{"name":"八広ぶどうの木保育室　※2","province":"東京都","city":"墨田区","address":"東京都墨田区八広6丁目37-5","lat":35.72594916,"lon":139.82897674},{"name":"キャリー保育園　東向島","province":"東京都","city":"墨田区","address":"東京都墨田区東向島5丁目36-10","lat":35.72734074,"lon":139.8230359},{"name":"墨田区精神障害者地域生活支援センター　友の家　（社会福祉法人おいてけ堀協会）","province":"東京都","city":"墨田区","address":"東京都墨田区太平1丁目11-7","lat":35.70087189,"lon":139.81150733},{"name":"チェリッシュ曳舟","province":"東京都","city":"墨田区","address":"東京都墨田区京島1丁目36-1","lat":35.71688313,"lon":139.8192528},{"name":"あい・あい保育園　小村井園","province":"東京都","city":"墨田区","address":"東京都墨田区立花5丁目24-11","lat":35.71111914,"lon":139.83056267},{"name":"八広ぶどうの木保育室　※2","province":"東京都","city":"墨田区","address":"東京都墨田区八広6丁目37-5","lat":35.72594916,"lon":139.82897674},{"name":"キャリー保育園　東向島","province":"東京都","city":"墨田区","address":"東京都墨田区東向島5丁目36-10","lat":35.72734074,"lon":139.8230359},{"name":"墨田区精神障害者地域生活支援センター　友の家　（社会福祉法人おいてけ堀協会）","province":"東京都","city":"墨田区","address":"東京都墨田区太平1丁目11-7","lat":35.70087189,"lon":139.81150733},{"name":"チェリッシュ曳舟","province":"東京都","city":"墨田区","address":"東京都墨田区京島1丁目36-1","lat":35.71688313,"lon":139.8192528},{"name":"あい・あい保育園　小村井園","province":"東京都","city":"墨田区","address":"東京都墨田区立花5丁目24-11","lat":35.71111914,"lon":139.83056267},{"name":"八広ぶどうの木保育室　※2","province":"東京都","city":"墨田区","address":"東京都墨田区八広6丁目37-5","lat":35.72594916,"lon":139.82897674},{"name":"キャリー保育園　東向島","province":"東京都","city":"墨田区","address":"東京都墨田区東向島5丁目36-10","lat":35.72734074,"lon":139.8230359},{"name":"墨田区精神障害者地域生活支援センター　友の家　（社会福祉法人おいてけ堀協会）","province":"東京都","city":"墨田区","address":"東京都墨田区太平1丁目11-7","lat":35.70087189,"lon":139.81150733},{"name":"チェリッシュ曳舟","province":"東京都","city":"墨田区","address":"東京都墨田区京島1丁目36-1","lat":35.71688313,"lon":139.8192528},{"name":"あい・あい保育園　小村井園","province":"東京都","city":"墨田区","address":"東京都墨田区立花5丁目24-11","lat":35.71111914,"lon":139.83056267},{"name":"八広ぶどうの木保育室　※2","province":"東京都","city":"墨田区","address":"東京都墨田区八広6丁目37-5","lat":35.72594916,"lon":139.82897674},{"name":"キャリー保育園　東向島","province":"東京都","city":"墨田区","address":"東京都墨田区東向島5丁目36-10","lat":35.72734074,"lon":139.8230359},{"name":"墨田区精神障害者地域生活支援センター　友の家　（社会福祉法人おいてけ堀協会）","province":"東京都","city":"墨田区","address":"東京都墨田区太平1丁目11-7","lat":35.70087189,"lon":139.81150733},{"name":"チェリッシュ曳舟","province":"東京都","city":"墨田区","address":"東京都墨田区京島1丁目36-1","lat":35.71688313,"lon":139.8192528},{"name":"あい・あい保育園　小村井園","province":"東京都","city":"墨田区","address":"東京都墨田区立花5丁目24-11","lat":35.71111914,"lon":139.83056267},{"name":"八広ぶどうの木保育室　※2","province":"東京都","city":"墨田区","address":"東京都墨田区八広6丁目37-5","lat":35.72594916,"lon":139.82897674},{"name":"キャリー保育園　東向島","province":"東京都","city":"墨田区","address":"東京都墨田区東向島5丁目36-10","lat":35.72734074,"lon":139.8230359},{"name":"墨田区精神障害者地域生活支援センター　友の家　（社会福祉法人おいてけ堀協会）","province":"東京都","city":"墨田区","address":"東京都墨田区太平1丁目11-7","lat":35.70087189,"lon":139.81150733},{"name":"チェリッシュ曳舟","province":"東京都","city":"墨田区","address":"東京都墨田区京島1丁目36-1","lat":35.71688313,"lon":139.8192528},{"name":"あい・あい保育園　小村井園","province":"東京都","city":"墨田区","address":"東京都墨田区立花5丁目24-11","lat":35.71111914,"lon":139.83056267},{"name":"八広ぶどうの木保育室　※2","province":"東京都","city":"墨田区","address":"東京都墨田区八広6丁目37-5","lat":35.72594916,"lon":139.82897674},{"name":"キャリー保育園　東向島","province":"東京都","city":"墨田区","address":"東京都墨田区東向島5丁目36-10","lat":35.72734074,"lon":139.8230359},{"name":"墨田区精神障害者地域生活支援センター　友の家　（社会福祉法人おいてけ堀協会）","province":"東京都","city":"墨田区","address":"東京都墨田区太平1丁目11-7","lat":35.70087189,"lon":139.81150733},{"name":"チェリッシュ曳舟","province":"東京都","city":"墨田区","address":"東京都墨田区京島1丁目36-1","lat":35.71688313,"lon":139.8192528},{"name":"あい・あい保育園　小村井園","province":"東京都","city":"墨田区","address":"東京都墨田区立花5丁目24-11","lat":35.71111914,"lon":139.83056267},{"name":"八広ぶどうの木保育室　※2","province":"東京都","city":"墨田区","address":"東京都墨田区八広6丁目37-5","lat":35.72594916,"lon":139.82897674},{"name":"キャリー保育園　東向島","province":"東京都","city":"墨田区","address":"東京都墨田区東向島5丁目36-10","lat":35.72734074,"lon":139.8230359},{"name":"墨田区精神障害者地域生活支援センター　友の家　（社会福祉法人おいてけ堀協会）","province":"東京都","city":"墨田区","address":"東京都墨田区太平1丁目11-7","lat":35.70087189,"lon":139.81150733},{"name":"チェリッシュ曳舟","province":"東京都","city":"墨田区","address":"東京都墨田区京島1丁目36-1","lat":35.71688313,"lon":139.8192528},{"name":"あい・あい保育園　小村井園","province":"東京都","city":"墨田区","address":"東京都墨田区立花5丁目24-11","lat":35.71111914,"lon":139.83056267},{"name":"八広ぶどうの木保育室　※2","province":"東京都","city":"墨田区","address":"東京都墨田区八広6丁目37-5","lat":35.72594916,"lon":139.82897674},{"name":"キャリー保育園　東向島","province":"東京都","city":"墨田区","address":"東京都墨田区東向島5丁目36-10","lat":35.72734074,"lon":139.8230359},{"name":"墨田区精神障害者地域生活支援センター　友の家　（社会福祉法人おいてけ堀協会）","province":"東京都","city":"墨田区","address":"東京都墨田区太平1丁目11-7","lat":35.70087189,"lon":139.81150733},{"name":"チェリッシュ曳舟","province":"東京都","city":"墨田区","address":"東京都墨田区京島1丁目36-1","lat":35.71688313,"lon":139.8192528},{"name":"あい・あい保育園　小村井園","province":"東京都","city":"墨田区","address":"東京都墨田区立花5丁目24-11","lat":35.71111914,"lon":139.83056267},{"name":"八広ぶどうの木保育室　※2","province":"東京都","city":"墨田区","address":"東京都墨田区八広6丁目37-5","lat":35.72594916,"lon":139.82897674},{"name":"キャリー保育園　東向島","province":"東京都","city":"墨田区","address":"東京都墨田区東向島5丁目36-10","lat":35.72734074,"lon":139.8230359},{"name":"墨田区精神障害者地域生活支援センター　友の家　（社会福祉法人おいてけ堀協会）","province":"東京都","city":"墨田区","address":"東京都墨田区太平1丁目11-7","lat":35.70087189,"lon":139.81150733},{"name":"チェリッシュ曳舟","province":"東京都","city":"墨田区","address":"東京都墨田区京島1丁目36-1","lat":35.71688313,"lon":139.8192528},{"name":"あい・あい保育園　小村井園","province":"東京都","city":"墨田区","address":"東京都墨田区立花5丁目24-11","lat":35.71111914,"lon":139.83056267},{"name":"八広ぶどうの木保育室　※2","province":"東京都","city":"墨田区","address":"東京都墨田区八広6丁目37-5","lat":35.72594916,"lon":139.82897674},{"name":"キャリー保育園　東向島","province":"東京都","city":"墨田区","address":"東京都墨田区東向島5丁目36-10","lat":35.72734074,"lon":139.8230359},{"name":"墨田区精神障害者地域生活支援センター　友の家　（社会福祉法人おいてけ堀協会）","province":"東京都","city":"墨田区","address":"東京都墨田区太平1丁目11-7","lat":35.70087189,"lon":139.81150733},{"name":"チェリッシュ曳舟","province":"東京都","city":"墨田区","address":"東京都墨田区京島1丁目36-1","lat":35.71688313,"lon":139.8192528},{"name":"あい・あい保育園　小村井園","province":"東京都","city":"墨田区","address":"東京都墨田区立花5丁目24-11","lat":35.71111914,"lon":139.83056267},{"name":"八広ぶどうの木保育室　※2","province":"東京都","city":"墨田区","address":"東京都墨田区八広6丁目37-5","lat":35.72594916,"lon":139.82897674},{"name":"キャリー保育園　東向島","province":"東京都","city":"墨田区","address":"東京都墨田区東向島5丁目36-10","lat":35.72734074,"lon":139.8230359},{"name":"墨田区精神障害者地域生活支援センター　友の家　（社会福祉法人おいてけ堀協会）","province":"東京都","city":"墨田区","address":"東京都墨田区太平1丁目11-7","lat":35.70087189,"lon":139.81150733},{"name":"チェリッシュ曳舟","province":"東京都","city":"墨田区","address":"東京都墨田区京島1丁目36-1","lat":35.71688313,"lon":139.8192528},{"name":"あい・あい保育園　小村井園","province":"東京都","city":"墨田区","address":"東京都墨田区立花5丁目24-11","lat":35.71111914,"lon":139.83056267},{"name":"八広ぶどうの木保育室　※2","province":"東京都","city":"墨田区","address":"東京都墨田区八広6丁目37-5","lat":35.72594916,"lon":139.82897674},{"name":"キャリー保育園　東向島","province":"東京都","city":"墨田区","address":"東京都墨田区東向島5丁目36-10","lat":35.72734074,"lon":139.8230359},{"name":"墨田区精神障害者地域生活支援センター　友の家　（社会福祉法人おいてけ堀協会）","province":"東京都","city":"墨田区","address":"東京都墨田区太平1丁目11-7","lat":35.70087189,"lon":139.81150733},{"name":"チェリッシュ曳舟","province":"東京都","city":"墨田区","address":"東京都墨田区京島1丁目36-1","lat":35.71688313,"lon":139.8192528},{"name":"あい・あい保育園　小村井園","province":"東京都","city":"墨田区","address":"東京都墨田区立花5丁目24-11","lat":35.71111914,"lon":139.83056267},{"name":"八広ぶどうの木保育室　※2","province":"東京都","city":"墨田区","address":"東京都墨田区八広6丁目37-5","lat":35.72594916,"lon":139.82897674},{"name":"キャリー保育園　東向島","province":"東京都","city":"墨田区","address":"東京都墨田区東向島5丁目36-10","lat":35.72734074,"lon":139.8230359},{"name":"墨田区精神障害者地域生活支援センター　友の家　（社会福祉法人おいてけ堀協会）","province":"東京都","city":"墨田区","address":"東京都墨田区太平1丁目11-7","lat":35.70087189,"lon":139.81150733},{"name":"チェリッシュ曳舟","province":"東京都","city":"墨田区","address":"東京都墨田区京島1丁目36-1","lat":35.71688313,"lon":139.8192528},{"name":"あい・あい保育園　小村井園","province":"東京都","city":"墨田区","address":"東京都墨田区立花5丁目24-11","lat":35.71111914,"lon":139.83056267},{"name":"八広ぶどうの木保育室　※2","province":"東京都","city":"墨田区","address":"東京都墨田区八広6丁目37-5","lat":35.72594916,"lon":139.82897674},{"name":"キャリー保育園　東向島","province":"東京都","city":"墨田区","address":"東京都墨田区東向島5丁目36-10","lat":35.72734074,"lon":139.8230359},{"name":"墨田区精神障害者地域生活支援センター　友の家　（社会福祉法人おいてけ堀協会）","province":"東京都","city":"墨田区","address":"東京都墨田区太平1丁目11-7","lat":35.70087189,"lon":139.81150733},{"name":"チェリッシュ曳舟","province":"東京都","city":"墨田区","address":"東京都墨田区京島1丁目36-1","lat":35.71688313,"lon":139.8192528},{"name":"あい・あい保育園　小村井園","province":"東京都","city":"墨田区","address":"東京都墨田区立花5丁目24-11","lat":35.71111914,"lon":139.83056267},{"name":"八広ぶどうの木保育室　※2","province":"東京都","city":"墨田区","address":"東京都墨田区八広6丁目37-5","lat":35.72594916,"lon":139.82897674},{"name":"キャリー保育園　東向島","province":"東京都","city":"墨田区","address":"東京都墨田区東向島5丁目36-10","lat":35.72734074,"lon":139.8230359},{"name":"墨田区精神障害者地域生活支援センター　友の家　（社会福祉法人おいてけ堀協会）","province":"東京都","city":"墨田区","address":"東京都墨田区太平1丁目11-7","lat":35.70087189,"lon":139.81150733},{"name":"チェリッシュ曳舟","province":"東京都","city":"墨田区","address":"東京都墨田区京島1丁目36-1","lat":35.71688313,"lon":139.8192528},{"name":"あい・あい保育園　小村井園","province":"東京都","city":"墨田区","address":"東京都墨田区立花5丁目24-11","lat":35.71111914,"lon":139.83056267},{"name":"八広ぶどうの木保育室　※2","province":"東京都","city":"墨田区","address":"東京都墨田区八広6丁目37-5","lat":35.72594916,"lon":139.82897674},{"name":"キャリー保育園　東向島","province":"東京都","city":"墨田区","address":"東京都墨田区東向島5丁目36-10","lat":35.72734074,"lon":139.8230359},{"name":"墨田区精神障害者地域生活支援センター　友の家　（社会福祉法人おいてけ堀協会）","province":"東京都","city":"墨田区","address":"東京都墨田区太平1丁目11-7","lat":35.70087189,"lon":139.81150733},{"name":"チェリッシュ曳舟","province":"東京都","city":"墨田区","address":"東京都墨田区京島1丁目36-1","lat":35.71688313,"lon":139.8192528},{"name":"あい・あい保育園　小村井園","province":"東京都","city":"墨田区","address":"東京都墨田区立花5丁目24-11","lat":35.71111914,"lon":139.83056267},{"name":"八広ぶどうの木保育室　※2","province":"東京都","city":"墨田区","address":"東京都墨田区八広6丁目37-5","lat":35.72594916,"lon":139.82897674},{"name":"キャリー保育園　東向島","province":"東京都","city":"墨田区","address":"東京都墨田区東向島5丁目36-10","lat":35.72734074,"lon":139.8230359},{"name":"墨田区精神障害者地域生活支援センター　友の家　（社会福祉法人おいてけ堀協会）","province":"東京都","city":"墨田区","address":"東京都墨田区太平1丁目11-7","lat":35.70087189,"lon":139.81150733},{"name":"チェリッシュ曳舟","province":"東京都","city":"墨田区","address":"東京都墨田区京島1丁目36-1","lat":35.71688313,"lon":139.8192528},{"name":"あい・あい保育園　小村井園","province":"東京都","city":"墨田区","address":"東京都墨田区立花5丁目24-11","lat":35.71111914,"lon":139.83056267},{"name":"八広ぶどうの木保育室　※2","province":"東京都","city":"墨田区","address":"東京都墨田区八広6丁目37-5","lat":35.72594916,"lon":139.82897674},{"name":"キャリー保育園　東向島","province":"東京都","city":"墨田区","address":"東京都墨田区東向島5丁目36-10","lat":35.72734074,"lon":139.8230359},{"name":"墨田区精神障害者地域生活支援センター　友の家　（社会福祉法人おいてけ堀協会）","province":"東京都","city":"墨田区","address":"東京都墨田区太平1丁目11-7","lat":35.70087189,"lon":139.81150733},{"name":"チェリッシュ曳舟","province":"東京都","city":"墨田区","address":"東京都墨田区京島1丁目36-1","lat":35.71688313,"lon":139.8192528},{"name":"あい・あい保育園　小村井園","province":"東京都","city":"墨田区","address":"東京都墨田区立花5丁目24-11","lat":35.71111914,"lon":139.83056267},{"name":"八広ぶどうの木保育室　※2","province":"東京都","city":"墨田区","address":"東京都墨田区八広6丁目37-5","lat":35.72594916,"lon":139.82897674},{"name":"キャリー保育園　東向島","province":"東京都","city":"墨田区","address":"東京都墨田区東向島5丁目36-10","lat":35.72734074,"lon":139.8230359},{"name":"墨田区精神障害者地域生活支援センター　友の家　（社会福祉法人おいてけ堀協会）","province":"東京都","city":"墨田区","address":"東京都墨田区太平1丁目11-7","lat":35.70087189,"lon":139.81150733}]}