{"keyword":"放課後","data":[{"name":"コラゾン吾妻橋浅草","province":"東京都","city":"墨田区","address":"墨田区吾妻橋1-4-4両野ビル2階","lat":35.708057,"lon":139.800955},{"name":"放課後等デイサービス　あんず","province":"東京都","city":"墨田区","address":"墨田区業平4-6-3プレジール101","lat":35.707008,"lon":139.81502},{"name":"放課後等デイサービス　ジョイ・キッズ","province":"東京都","city":"墨田区","address":"墨田区横川5-10-1プリメール柳島118","lat":35.705555,"lon":139.81642},{"name":"キッズデイあすみ","province":"東京都","city":"墨田区","address":"墨田区石原4-12-5-101","lat":35.699794,"lon":139.807666},{"name":"スマートキッズプラス錦糸町","province":"東京都","city":"墨田区","address":"墨田区太平4-24-10ナノトミックビル1F","lat":35.702913,"lon":139.818604},{"name":"スマートキッズプラス両国","province":"東京都","city":"墨田区","address":"墨田区亀沢1-24-1アーバンコーポ両国2階202号室","lat":35.698428,"lon":139.797507},{"name":"コラゾン両国","province":"東京都","city":"墨田区","address":"墨田区亀沢1-19-1田中ビル4階","lat":35.69785,"lon":139.79934},{"name":"ゆうゆうらいふアカデミー両国","province":"東京都","city":"墨田区","address":"墨田区亀沢1-20-2","lat":35.698208,"lon":139.799329},{"name":"コラゾン錦糸町","province":"東京都","city":"墨田区","address":"墨田区江東橋1-4-12メゾンドール錦糸町ツイン101","lat":35.693367,"lon":139.8099},{"name":"キッズサポートりま","province":"東京都","city":"墨田区","address":"墨田区立川1-16-20Y2ビルディング1階・2階","lat":35.691598,"lon":139.799435},{"name":"アルファキッズ菊川駅前","province":"東京都","city":"墨田区","address":"墨田区菊川三丁目7番4号大こく屋第2ビル3階","lat":35.688237,"lon":139.806281},{"name":"キッズデイあすみ菊川","province":"東京都","city":"墨田区","address":"墨田区菊川3-21-11-205・206号","lat":35.690032,"lon":139.808106},{"name":"アプリ児童デイサービス東向島","province":"東京都","city":"墨田区","address":"墨田区東向島五丁目31番3号エビハラビル1階","lat":35.728593,"lon":139.822269},{"name":"あったかいデイ　東向島","province":"東京都","city":"墨田区","address":"墨田区東向島5-7-12若草ビル12店舗1階","lat":35.725577,"lon":139.820239},{"name":"すみだ福祉保健センター　みつばち園","province":"東京都","city":"墨田区","address":"墨田区向島3-36-7すみだ福祉保健センター内","lat":35.713374,"lon":139.810759},{"name":"すみだ晴山苑　キララ","province":"東京都","city":"墨田区","address":"墨田区八広5-18-30","lat":35.72484,"lon":139.826514},{"name":"墨田こどもの家","province":"東京都","city":"墨田区","address":"墨田区八広4-13-3-101","lat":35.723058,"lon":139.826963},{"name":"墨田あゆみの家","province":"東京都","city":"墨田区","address":"墨田区八広2-56-3-101","lat":35.715255,"lon":139.828285},{"name":"児童デイサービス　スマイル八広","province":"東京都","city":"墨田区","address":"墨田区八広六丁目8番2号リエス八広1階","lat":35.728166,"lon":139.826083},{"name":"スマートキッズプラス平井北","province":"東京都","city":"墨田区","address":"墨田区八広4-48-5エコーピア2階4号室","lat":35.720774,"lon":139.830251},{"name":"運動・学習による子供自立支援教室　あんしんキッズ","province":"東京都","city":"墨田区","address":"墨田区立花1-23-5-114","lat":35.70665,"lon":139.831241},{"name":"すみだステップハウスおおぞら　にじの子","province":"東京都","city":"墨田区","address":"墨田区文花1-32-7","lat":35.708166,"lon":139.82378}]}