{"keyword":"時点","data":[{"name":"外手小学校","province":"東京都","city":"墨田区","address":"東京都墨田区本所2丁目1-16","lat":35.7025968,"lon":139.80059167},{"name":"二葉小学校","province":"東京都","city":"墨田区","address":"東京都墨田区石原2丁目1-5","lat":35.69926388,"lon":139.80008668},{"name":"錦糸小学校","province":"東京都","city":"墨田区","address":"東京都墨田区錦糸1丁目9-12","lat":35.69876937,"lon":139.81137701},{"name":"中和小学校","province":"東京都","city":"墨田区","address":"東京都墨田区菊川1丁目18-10","lat":35.6901567,"lon":139.80272644},{"name":"言問小学校","province":"東京都","city":"墨田区","address":"東京都墨田区向島5丁目40-14","lat":35.71843549,"lon":139.81134557},{"name":"小梅小学校","province":"東京都","city":"墨田区","address":"東京都墨田区向島2丁目4-10","lat":35.71444608,"lon":139.8059344},{"name":"柳島小学校","province":"東京都","city":"墨田区","address":"東京都墨田区横川5丁目2-30","lat":35.70359917,"lon":139.81754005},{"name":"業平小学校","province":"東京都","city":"墨田区","address":"東京都墨田区業平2丁目4-8","lat":35.70627427,"lon":139.81149546},{"name":"両国小学校","province":"東京都","city":"墨田区","address":"東京都墨田区両国4丁目26-6","lat":35.69372012,"lon":139.79519078},{"name":"横川小学校","province":"東京都","city":"墨田区","address":"東京都墨田区東駒形4丁目18-4","lat":35.70716582,"lon":139.80624308},{"name":"菊川小学校","province":"東京都","city":"墨田区","address":"東京都墨田区立川4丁目12-15","lat":35.69164531,"lon":139.8076726},{"name":"第三吾嬬小学校","province":"東京都","city":"墨田区","address":"東京都墨田区八広2丁目36-3","lat":35.71717161,"lon":139.82774891},{"name":"第四吾小学校","province":"東京都","city":"墨田区","address":"東京都墨田区京島3丁目64-9","lat":35.7131389,"lon":139.82518538},{"name":"第一寺島小学校","province":"東京都","city":"墨田区","address":"東京都墨田区東向島1丁目16-2","lat":35.72158271,"lon":139.81445099},{"name":"第二寺島小学校","province":"東京都","city":"墨田区","address":"東京都墨田区東向島4丁目30-2","lat":35.72470754,"lon":139.81845881},{"name":"第三寺島小学校","province":"東京都","city":"墨田区","address":"東京都墨田区東向島6丁目8-1","lat":35.72140784,"lon":139.82042783},{"name":"曳舟小学校","province":"東京都","city":"墨田区","address":"東京都墨田区京島1丁目28-2","lat":35.71662214,"lon":139.82089427},{"name":"中川小学校","province":"東京都","city":"墨田区","address":"東京都墨田区立花5丁目49-4","lat":35.71334666,"lon":139.83150135},{"name":"東吾嬬小学校","province":"東京都","city":"墨田区","address":"東京都墨田区立花4丁目22-11","lat":35.70854692,"lon":139.83205434},{"name":"押上小学校","province":"東京都","city":"墨田区","address":"東京都墨田区押上3丁目46-17","lat":35.71201677,"lon":139.81932198},{"name":"八広小学校","province":"東京都","city":"墨田区","address":"東京都墨田区八広5丁目12-15","lat":35.72710192,"lon":139.82632158},{"name":"隅田小学校","province":"東京都","city":"墨田区","address":"東京都墨田区墨田4丁目6-5","lat":35.73392317,"lon":139.82186348},{"name":"立花吾嬬の森小学校","province":"東京都","city":"墨田区","address":"東京都墨田区立花1丁目18-6","lat":35.70622472,"lon":139.82971319},{"name":"梅若小学校","province":"東京都","city":"墨田区","address":"東京都墨田区墨田2丁目25-1","lat":35.73053185,"lon":139.81560645},{"name":"旧隅田小学校","province":"東京都","city":"墨田区","address":"東京都墨田区墨田5丁目49-5","lat":35.73603672,"lon":139.82065239},{"name":"墨田中学校","province":"東京都","city":"墨田区","address":"東京都墨田区向島4丁目25-22","lat":35.71493535,"lon":139.81152561},{"name":"本所中学校","province":"東京都","city":"墨田区","address":"東京都墨田区東駒形3丁目1-10","lat":35.70526321,"lon":139.80276048},{"name":"竪川中学校","province":"東京都","city":"墨田区","address":"東京都墨田区亀沢4丁目11-15","lat":35.69700853,"lon":139.80583069},{"name":"錦糸中学校","province":"東京都","city":"墨田区","address":"東京都墨田区石原4丁目33-14","lat":35.70140523,"lon":139.80693828},{"name":"吾嬬第二中学校","province":"東京都","city":"墨田区","address":"東京都墨田区八広4丁目4-4","lat":35.72149362,"lon":139.8271268},{"name":"寺島中学校","province":"東京都","city":"墨田区","address":"東京都墨田区八広1丁目17-15","lat":35.72013008,"lon":139.82316626},{"name":"文花中学校","province":"東京都","city":"墨田区","address":"東京都墨田区文花1丁目22-7","lat":35.71015294,"lon":139.82236367},{"name":"桜堤中学校","province":"東京都","city":"墨田区","address":"東京都墨田区堤通2丁目19-1","lat":35.73056511,"lon":139.81190987},{"name":"吾嬬立花中学校","province":"東京都","city":"墨田区","address":"東京都墨田区立花4丁目30-18","lat":35.71013005,"lon":139.83468174},{"name":"旧向島中学校","province":"東京都","city":"墨田区","address":"東京都墨田区東向島4丁目18-9","lat":35.72607962,"lon":139.81685083},{"name":"柳島幼稚園","province":"東京都","city":"墨田区","address":"東京都墨田区横川5丁目2-30","lat":35.70359917,"lon":139.81754005},{"name":"菊川幼稚園","province":"東京都","city":"墨田区","address":"東京都墨田区立川4丁目12-15","lat":35.69164531,"lon":139.8076726},{"name":"第三寺島幼稚園","province":"東京都","city":"墨田区","address":"東京都墨田区東向島6丁目8-1","lat":35.72140784,"lon":139.82042783},{"name":"曳舟幼稚園","province":"東京都","city":"墨田区","address":"東京都墨田区京島1丁目28-2","lat":35.71662214,"lon":139.82089427},{"name":"八広幼稚園","province":"東京都","city":"墨田区","address":"東京都墨田区八広5丁目12-15","lat":35.72710192,"lon":139.82632158},{"name":"立花幼稚園","province":"東京都","city":"墨田区","address":"東京都墨田区立花1丁目25-9","lat":35.70481094,"lon":139.83169354},{"name":"墨田児童会館","province":"東京都","city":"墨田区","address":"東京都墨田区墨田2丁目30-15","lat":35.72926266,"lon":139.81890044},{"name":"八広児童館","province":"東京都","city":"墨田区","address":"東京都墨田区八広2丁目38-14","lat":35.71586062,"lon":139.82792391},{"name":"江東橋児童館","province":"東京都","city":"墨田区","address":"東京都墨田区江東橋1丁目15-4","lat":35.69591418,"lon":139.80968586},{"name":"東向島児童館","province":"東京都","city":"墨田区","address":"東京都墨田区東向島6丁目6-12","lat":35.72145228,"lon":139.81971127},{"name":"立川児童館","province":"東京都","city":"墨田区","address":"東京都墨田区立花1丁目27-9","lat":35.70555246,"lon":139.82881617},{"name":"文花児童館","province":"東京都","city":"墨田区","address":"東京都墨田区立川1丁目5-2","lat":35.69046226,"lon":139.79950201},{"name":"中川児童館","province":"東京都","city":"墨田区","address":"東京都墨田区文花1丁目32-11","lat":35.70871099,"lon":139.82437198},{"name":"外手児童館","province":"東京都","city":"墨田区","address":"東京都墨田区立花5丁目18-9","lat":35.71294397,"lon":139.83097086},{"name":"さくら橋コミュニティセンター","province":"東京都","city":"墨田区","address":"東京都墨田区八広4丁目27-8","lat":35.72456579,"lon":139.82940716},{"name":"江東橋保育園分園","province":"東京都","city":"墨田区","address":"東京都墨田区向島2丁目3-8","lat":35.71368772,"lon":139.80584268},{"name":"横川橋保育園","province":"東京都","city":"墨田区","address":"東京都墨田区亀沢3丁目12-5","lat":35.69713075,"lon":139.80450307},{"name":"花園保育園","province":"東京都","city":"墨田区","address":"東京都墨田区東墨田2丁目1-15","lat":35.71870454,"lon":139.83058735},{"name":"福神橋保育園","province":"東京都","city":"墨田区","address":"東京都墨田区東向島3丁目16-2","lat":35.72466858,"lon":139.81462615},{"name":"すみだ保育園","province":"東京都","city":"墨田区","address":"東京都墨田区立花3丁目21-16","lat":35.707097,"lon":139.83429579},{"name":"東駒形保育園","province":"東京都","city":"墨田区","address":"東京都墨田区八広3丁目7-5","lat":35.72091034,"lon":139.82649354},{"name":"立川保育園","province":"東京都","city":"墨田区","address":"東京都墨田区墨田2丁目38-13","lat":35.7309485,"lon":139.8175894},{"name":"中川南保育園","province":"東京都","city":"墨田区","address":"東京都墨田区立川1丁目5-2","lat":35.69046226,"lon":139.79950201},{"name":"水神保育園","province":"東京都","city":"墨田区","address":"東京都墨田区東向島1丁目23-10","lat":35.72018834,"lon":139.81260395},{"name":"あおやぎ保育園","province":"東京都","city":"墨田区","address":"東京都墨田区押上2丁目10-17","lat":35.71131304,"lon":139.81179184},{"name":"ひきふね保育園","province":"東京都","city":"墨田区","address":"東京都墨田区東向島4丁目37-17","lat":35.72583524,"lon":139.81916983},{"name":"横川さくら保育園","province":"東京都","city":"墨田区","address":"東京都墨田区八広1丁目1-18","lat":35.72004964,"lon":139.82087495},{"name":"横川さくら保育園分園","province":"東京都","city":"墨田区","address":"東京都墨田区横川5丁目9-1","lat":35.70517431,"lon":139.81750923},{"name":"いきいきプラザ","province":"東京都","city":"墨田区","address":"東京都墨田区江東橋4丁目30-2","lat":35.69664455,"lon":139.81885963},{"name":"墨田区子育て支援総合センター","province":"東京都","city":"墨田区","address":"東京都墨田区文花1丁目32-2","lat":35.70754973,"lon":139.82345005},{"name":"梅若橋コミュニティ会館","province":"東京都","city":"墨田区","address":"東京都墨田区東駒形4丁目14-1","lat":35.70547984,"lon":139.80774036},{"name":"横川コミュニティ会館","province":"東京都","city":"墨田区","address":"東京都墨田区堤通2丁目9-1","lat":35.73539223,"lon":139.81675295},{"name":"すみだふれあいセンター","province":"東京都","city":"墨田区","address":"東京都墨田区横川5丁目9-1","lat":35.70517431,"lon":139.81750923},{"name":"すみだ障害者就労支援総合センター","province":"東京都","city":"墨田区","address":"東京都墨田区緑4丁目35-6","lat":35.69579476,"lon":139.80748896},{"name":"向島ことぶき作業所","province":"東京都","city":"墨田区","address":"東京都墨田区緑4丁目25-4","lat":35.69554202,"lon":139.80767785},{"name":"亀沢のぞみの家","province":"東京都","city":"墨田区","address":"東京都墨田区東向島1丁目17-11","lat":35.72082724,"lon":139.81544246},{"name":"ステップ学級","province":"東京都","city":"墨田区","address":"東京都墨田区亀沢4丁目18-11","lat":35.69903328,"lon":139.80824676},{"name":"文花子育てひろば","province":"東京都","city":"墨田区","address":"東京都墨田区吾妻橋2丁目18-12","lat":35.71039053,"lon":139.80252647},{"name":"みどりコミュニティセンター","province":"東京都","city":"墨田区","address":"東京都墨田区文花1丁目20-3","lat":35.7104113,"lon":139.82265804},{"name":"すみだ福祉保健センター","province":"東京都","city":"墨田区","address":"東京都墨田区緑3丁目7-3","lat":35.69361455,"lon":139.8032676},{"name":"スマイルホームすみだ","province":"東京都","city":"墨田区","address":"東京都墨田区向島3丁目36-7","lat":35.71329353,"lon":139.81075044},{"name":"立花ゆうゆう館","province":"東京都","city":"墨田区","address":"東京都墨田区文花1丁目24-3","lat":35.70976395,"lon":139.8231803},{"name":"たちばなホーム","province":"東京都","city":"墨田区","address":"東京都墨田区八広3丁目22-14","lat":35.71843814,"lon":139.82793219},{"name":"なりひらホーム","province":"東京都","city":"墨田区","address":"東京都墨田区立花3丁目10-1","lat":35.70530821,"lon":139.83305996},{"name":"はなみずき高齢者在宅サービスセンター","province":"東京都","city":"墨田区","address":"東京都墨田区業平5丁目6-2","lat":35.70709118,"lon":139.81802555},{"name":"施設名称","province":"東京都","city":"墨田区","address":"東京都墨田区八広3丁目22-14","lat":35.71843814,"lon":139.82793219},{"name":"たちばな高齢者在宅サービスセンター","province":"東京都","city":"墨田区","address":"東京都墨田区立花3丁目2-9","lat":35.70523875,"lon":139.83257393},{"name":"なりひら高齢者在宅サービスセンター","province":"東京都","city":"墨田区","address":"東京都墨田区業平5丁目6-2","lat":35.70709118,"lon":139.81802555},{"name":"シルバープラザ梅若","province":"東京都","city":"墨田区","address":"東京都墨田区墨田1丁目4-4","lat":35.72923761,"lon":139.81523723},{"name":"梅若ゆうゆう館","province":"東京都","city":"墨田区","address":"東京都墨田区墨田1丁目4-4","lat":35.72923761,"lon":139.81523723},{"name":"うめわか高齢者在宅サービスセンター","province":"東京都","city":"墨田区","address":"東京都墨田区墨田1丁目4-4","lat":35.72923761,"lon":139.81523723},{"name":"墨田区役所","province":"東京都","city":"墨田区","address":"東京都墨田区吾妻橋1丁目23-20","lat":35.71072382,"lon":139.80149602},{"name":"ステップハウスおおぞら","province":"東京都","city":"墨田区","address":"東京都墨田区文花1丁目32-7","lat":35.70823594,"lon":139.82381101},{"name":"墨田区総合体育館","province":"東京都","city":"墨田区","address":"東京都墨田区錦糸4丁目15-1","lat":35.69947749,"lon":139.8171875},{"name":"東京清風園","province":"東京都","city":"墨田区","address":"東京都墨田区立花1丁目25-12","lat":35.70498312,"lon":139.8311103},{"name":"八広地域プラザ","province":"東京都","city":"墨田区","address":"東京都墨田区八広4丁目35-17","lat":35.72349353,"lon":139.82925713},{"name":"本所地域プラザ","province":"東京都","city":"墨田区","address":"東京都墨田区本所1丁目13-4","lat":35.70316063,"lon":139.79876681},{"name":"亀沢保育園","province":"東京都","city":"墨田区","address":"東京都墨田区亀沢1丁目27-5","lat":35.69856397,"lon":139.79949242},{"name":"木下川吾亦紅","province":"東京都","city":"墨田区","address":"東京都墨田区東墨田2丁目15-2","lat":35.72196826,"lon":139.83312869},{"name":"東向島児童館分館","province":"東京都","city":"墨田区","address":"東京都墨田区京島1丁目44-21","lat":35.71921638,"lon":139.82102212},{"name":"吾嬬立花中学校","province":"東京都","city":"墨田区","address":"東京都墨田区立花4丁目30-18","lat":35.71013005,"lon":139.83468174},{"name":"旧鐘淵中学校","province":"東京都","city":"墨田区","address":"東京都墨田区堤通2丁目11-1","lat":35.73905274,"lon":139.81669975},{"name":"旧吾嬬第一中学校","province":"東京都","city":"墨田区","address":"東京都墨田区立花5丁目48-9","lat":35.71260785,"lon":139.83140139},{"name":"緑幼稚園","province":"東京都","city":"墨田区","address":"東京都墨田区緑2丁目11-5","lat":35.69411171,"lon":139.80202883},{"name":"柳島幼稚園","province":"東京都","city":"墨田区","address":"東京都墨田区横川5丁目2-30","lat":35.70359917,"lon":139.81754005},{"name":"菊川幼稚園","province":"東京都","city":"墨田区","address":"東京都墨田区立川4丁目12-15","lat":35.69164531,"lon":139.8076726},{"name":"第三寺島幼稚園","province":"東京都","city":"墨田区","address":"東京都墨田区東向島6丁目8-1","lat":35.72140784,"lon":139.82042783},{"name":"曳舟幼稚園","province":"東京都","city":"墨田区","address":"東京都墨田区京島1丁目28-2","lat":35.71662214,"lon":139.82089427},{"name":"八広幼稚園","province":"東京都","city":"墨田区","address":"東京都墨田区八広5丁目12-15","lat":35.72710192,"lon":139.82632158},{"name":"立花幼稚園","province":"東京都","city":"墨田区","address":"東京都墨田区立花1丁目25-9","lat":35.70481094,"lon":139.83169354},{"name":"墨田児童会館","province":"東京都","city":"墨田区","address":"東京都墨田区墨田2丁目30-15","lat":35.72926266,"lon":139.81890044},{"name":"八広児童館","province":"東京都","city":"墨田区","address":"東京都墨田区八広2丁目38-14","lat":35.71586062,"lon":139.82792391},{"name":"江東橋児童館","province":"東京都","city":"墨田区","address":"東京都墨田区江東橋1丁目15-4","lat":35.69591418,"lon":139.80968586},{"name":"東向島児童館","province":"東京都","city":"墨田区","address":"東京都墨田区東向島6丁目6-12","lat":35.72145228,"lon":139.81971127},{"name":"立花児童館","province":"東京都","city":"墨田区","address":"東京都墨田区立花1丁目27-9","lat":35.70555246,"lon":139.82881617},{"name":"立川児童館","province":"東京都","city":"墨田区","address":"東京都墨田区立川1丁目5-2","lat":35.69046226,"lon":139.79950201},{"name":"文花児童館","province":"東京都","city":"墨田区","address":"東京都墨田区文花1丁目32-11","lat":35.70871099,"lon":139.82437198},{"name":"中川児童館","province":"東京都","city":"墨田区","address":"東京都墨田区立花5丁目18-9","lat":35.71294397,"lon":139.83097086},{"name":"外手児童館","province":"東京都","city":"墨田区","address":"東京都墨田区本所2丁目6-9","lat":35.70300508,"lon":139.8007777},{"name":"八広はなみずき児童館","province":"東京都","city":"墨田区","address":"東京都墨田区八広4丁目27-8","lat":35.72456579,"lon":139.82940716},{"name":"さくら橋コミュニティセンター","province":"東京都","city":"墨田区","address":"東京都墨田区向島2丁目3-8","lat":35.71368772,"lon":139.80584268},{"name":"江東橋保育園分園","province":"東京都","city":"墨田区","address":"東京都墨田区亀沢3丁目12-5","lat":35.69713075,"lon":139.80450307},{"name":"中川保育園","province":"東京都","city":"墨田区","address":"東京都墨田区東墨田2丁目1-15","lat":35.71870454,"lon":139.83058735},{"name":"花園保育園","province":"東京都","city":"墨田区","address":"東京都墨田区東向島3丁目16-2","lat":35.72466858,"lon":139.81462615},{"name":"たちばな保育園","province":"東京都","city":"墨田区","address":"東京都墨田区立花3丁目21-16","lat":35.707097,"lon":139.83429579},{"name":"八広保育園","province":"東京都","city":"墨田区","address":"東京都墨田区八広3丁目7-5","lat":35.72091034,"lon":139.82649354},{"name":"亀沢保育園","province":"東京都","city":"墨田区","address":"東京都墨田区亀沢1丁目27-5","lat":35.69856397,"lon":139.79949242},{"name":"梅若保育園","province":"東京都","city":"墨田区","address":"東京都墨田区墨田2丁目38-13","lat":35.7309485,"lon":139.8175894},{"name":"立川保育園","province":"東京都","city":"墨田区","address":"東京都墨田区立川1丁目5-2","lat":35.69046226,"lon":139.79950201},{"name":"寺島保育園","province":"東京都","city":"墨田区","address":"東京都墨田区東向島1丁目23-10","lat":35.72018834,"lon":139.81260395},{"name":"押上保育園","province":"東京都","city":"墨田区","address":"東京都墨田区押上2丁目10-17","lat":35.71131304,"lon":139.81179184},{"name":"あおやぎ保育園","province":"東京都","city":"墨田区","address":"東京都墨田区東向島4丁目37-17","lat":35.72583524,"lon":139.81916983},{"name":"ひきふね保育園","province":"東京都","city":"墨田区","address":"東京都墨田区八広1丁目1-18","lat":35.72004964,"lon":139.82087495},{"name":"横川さくら保育園","province":"東京都","city":"墨田区","address":"東京都墨田区横川5丁目9-1","lat":35.70517431,"lon":139.81750923},{"name":"いきいきプラザ","province":"東京都","city":"墨田区","address":"東京都墨田区文花1丁目32-2","lat":35.70754973,"lon":139.82345005},{"name":"東駒形コミュニティ会館","province":"東京都","city":"墨田区","address":"東京都墨田区東駒形4丁目14-1","lat":35.70547984,"lon":139.80774036},{"name":"梅若橋コミュニティ会館","province":"東京都","city":"墨田区","address":"東京都墨田区堤通2丁目9-1","lat":35.73539223,"lon":139.81675295},{"name":"横川コミュニティ会館","province":"東京都","city":"墨田区","address":"東京都墨田区横川5丁目9-1","lat":35.70517431,"lon":139.81750923},{"name":"すみだふれあいセンター","province":"東京都","city":"墨田区","address":"東京都墨田区緑4丁目35-6","lat":35.69579476,"lon":139.80748896},{"name":"すみだ障害者就労支援総合センター","province":"東京都","city":"墨田区","address":"東京都墨田区緑4丁目25-4","lat":35.69554202,"lon":139.80767785},{"name":"向島ことぶき作業所","province":"東京都","city":"墨田区","address":"東京都墨田区東向島1丁目17-11","lat":35.72082724,"lon":139.81544246},{"name":"墨田福祉作業所","province":"東京都","city":"墨田区","address":"東京都墨田区八広1丁目16-22","lat":35.71964411,"lon":139.82205531},{"name":"亀沢のぞみの家","province":"東京都","city":"墨田区","address":"東京都墨田区亀沢4丁目18-11","lat":35.69903328,"lon":139.80824676},{"name":"ステップ学級","province":"東京都","city":"墨田区","address":"東京都墨田区吾妻橋2丁目18-12","lat":35.71039053,"lon":139.80252647},{"name":"文花子育てひろば","province":"東京都","city":"墨田区","address":"東京都墨田区文花1丁目20-3","lat":35.7104113,"lon":139.82265804},{"name":"両国シティコア","province":"東京都","city":"墨田区","address":"墨田区両国二丁目10番14号","lat":35.693887,"lon":139.79269},{"name":"スポーツクラブルネサンス両国","province":"東京都","city":"墨田区","address":"墨田区両国二丁目10番14号両国シティコア4階","lat":35.693879,"lon":139.792769},{"name":"財団法人東京都結核予防会","province":"東京都","city":"墨田区","address":"墨田区両国四丁目5番9号","lat":35.692559,"lon":139.796028},{"name":"両国小学校","province":"東京都","city":"墨田区","address":"墨田区両国四丁目26番6号","lat":35.69372,"lon":139.79519},{"name":"両国交番","province":"東京都","city":"墨田区","address":"墨田区両国四丁目29番3号","lat":35.694312,"lon":139.79595},{"name":"東京東信用金庫ハロープラザ","province":"東京都","city":"墨田区","address":"墨田区両国四丁目31番16号","lat":35.694804,"lon":139.796614},{"name":"医療法人社団慶翔会　両国眼科クリニック","province":"東京都","city":"墨田区","address":"墨田区両国四丁目33番12号グラン・アルブル両国1階","lat":35.694964,"lon":139.795925},{"name":"大和物産株式会社　両国LPガススタンド","province":"東京都","city":"墨田区","address":"墨田区千歳一丁目2番1号","lat":35.689974,"lon":139.791629},{"name":"東京都水道局墨田営業所","province":"東京都","city":"墨田区","address":"墨田区千歳二丁目2番21号","lat":35.690511,"lon":139.795697},{"name":"墨東化成工業株式会社","province":"東京都","city":"墨田区","address":"墨田区千歳一丁目8番14号","lat":35.691512,"lon":139.793252},{"name":"緑小学校","province":"東京都","city":"墨田区","address":"墨田区緑二丁目12番12号","lat":35.694026,"lon":139.801342},{"name":"緑図書館","province":"東京都","city":"墨田区","address":"墨田区緑二丁目24番5号","lat":35.695759,"lon":139.800608},{"name":"みどりコミュニティセンター","province":"東京都","city":"墨田区","address":"墨田区緑三丁目7番3号","lat":35.693615,"lon":139.803267},{"name":"本所消防署緑出張所","province":"東京都","city":"墨田区","address":"墨田区緑四丁目1番8号","lat":35.69286,"lon":139.806827},{"name":"江東橋交番","province":"東京都","city":"墨田区","address":"墨田区緑四丁目22番13号","lat":35.694948,"lon":139.80858},{"name":"すみだ障害者就労支援総合センター","province":"東京都","city":"墨田区","address":"墨田区緑四丁目25番4号","lat":35.69556,"lon":139.807702},{"name":"すみだふれあいセンター福祉作業所","province":"東京都","city":"墨田区","address":"墨田区緑四丁目35番6号","lat":35.695803,"lon":139.807656},{"name":"立川児童館","province":"東京都","city":"墨田区","address":"墨田区立川一丁目5番2号","lat":35.69051,"lon":139.799481},{"name":"日本年金機構　墨田年金事務所","province":"東京都","city":"墨田区","address":"墨田区立川三丁目8番12号","lat":35.691037,"lon":139.804786},{"name":"菊川小学校","province":"東京都","city":"墨田区","address":"墨田区立川四丁目12番15号","lat":35.691629,"lon":139.807591},{"name":"中和小学校","province":"東京都","city":"墨田区","address":"墨田区菊川一丁目18番10号","lat":35.690157,"lon":139.802725},{"name":"医療法人社団菊川橋クリニック","province":"東京都","city":"墨田区","address":"墨田区菊川二丁目11番1号","lat":35.68889,"lon":139.803558},{"name":"菊川二丁目交番","province":"東京都","city":"墨田区","address":"墨田区菊川二丁目19番7号","lat":35.689979,"lon":139.805647},{"name":"都営地下鉄菊川駅","province":"東京都","city":"墨田区","address":"墨田区菊川三丁目16番2号","lat":35.688385,"lon":139.80602},{"name":"東京都立両国高等学校","province":"東京都","city":"墨田区","address":"墨田区江東橋一丁目7番14号","lat":35.69454,"lon":139.810088},{"name":"大横川親水公園テニスコート","province":"東京都","city":"墨田区","address":"墨田区江東橋一丁目、緑四丁目地先","lat":35.694018,"lon":139.808868},{"name":"医療法人社団三恵寿会　3Sメディカルクリニック","province":"東京都","city":"墨田区","address":"墨田区江東橋二丁目19番7号富士ソフトビル2階","lat":35.696285,"lon":139.812308},{"name":"独立行政法人高齢・障害･求職者雇用支援機構　東京職業訓練支援センター","province":"東京都","city":"墨田区","address":"墨田区江東橋二丁目19番12号","lat":35.696262,"lon":139.811377},{"name":"すみだ産業会館","province":"東京都","city":"墨田区","address":"墨田区江東橋三丁目9番10号","lat":35.695045,"lon":139.813668},{"name":"丸井錦糸町店","province":"東京都","city":"墨田区","address":"墨田区江東橋三丁目9番10号","lat":35.695045,"lon":139.813668},{"name":"KS15ビル","province":"東京都","city":"墨田区","address":"墨田区江東橋三丁目13番1号","lat":35.695867,"lon":139.813624},{"name":"錦糸町駅南口交番","province":"東京都","city":"墨田区","address":"墨田区江東橋三丁目14番3号","lat":35.696012,"lon":139.814793},{"name":"JR錦糸町駅","province":"東京都","city":"墨田区","address":"墨田区江東橋三丁目14番5号","lat":35.696395,"lon":139.814185},{"name":"東京メトロ錦糸町駅","province":"東京都","city":"墨田区","address":"墨田区江東橋三丁目14番6号先","lat":35.697386,"lon":139.814984},{"name":"小倉歯科","province":"東京都","city":"墨田区","address":"墨田区江東橋四丁目16番5号","lat":35.694728,"lon":139.817152},{"name":"墨東病院","province":"東京都","city":"墨田区","address":"墨田区江東橋四丁目23番15号","lat":35.694659,"lon":139.818398},{"name":"楽天地ビル","province":"東京都","city":"墨田区","address":"墨田区江東橋四丁目27番14号","lat":35.696289,"lon":139.815686},{"name":"楽天地フットサルコート錦糸町","province":"東京都","city":"墨田区","address":"墨田区江東橋四丁目27番14号LIVIN8階","lat":35.696498,"lon":139.815807},{"name":"竪川親水公園管理事務所","province":"東京都","city":"墨田区","address":"墨田区江東橋五丁目16番15号","lat":35.692613,"lon":139.810817},{"name":"東京都下水道局東部第一下水道事務所墨田出張所","province":"東京都","city":"墨田区","address":"墨田区横綱一丁目4番12号","lat":35.696742,"lon":139.795123},{"name":"都営地下鉄両国駅","province":"東京都","city":"墨田区","address":"墨田区横網一丁目4番29号","lat":35.69682,"lon":139.797275},{"name":"両国屋内プール","province":"東京都","city":"墨田区","address":"墨田区横網一丁目8番1号両国中学校内","lat":35.697806,"lon":139.796274},{"name":"両国中学校","province":"東京都","city":"墨田区","address":"墨田区横網一丁目8番1号","lat":35.697488,"lon":139.796151},{"name":"安田学園中学校・高等学校","province":"東京都","city":"墨田区","address":"墨田区横綱二丁目2番25号","lat":35.699995,"lon":139.795887},{"name":"横網交番","province":"東京都","city":"墨田区","address":"墨田区横網二丁目3番18号","lat":35.700075,"lon":139.796964},{"name":"株式会社ケアサービス　デイサービスセンター両国","province":"東京都","city":"墨田区","address":"墨田区亀沢二丁目14番8号","lat":35.697885,"lon":139.801105},{"name":"社会福祉法人緑栄会　墨田みどり保育園","province":"東京都","city":"墨田区","address":"墨田区亀沢三丁目7番11号","lat":35.696426,"lon":139.8034},{"name":"すみだボランティアセンター分館","province":"東京都","city":"墨田区","address":"墨田区亀沢三丁目20番11号","lat":35.697478,"lon":139.803416},{"name":"亀沢のぞみの家","province":"東京都","city":"墨田区","address":"墨田区亀沢四丁目18番11号","lat":35.699034,"lon":139.808247},{"name":"サミットストア両国石原店","province":"東京都","city":"墨田区","address":"墨田区石原一丁目40番6号","lat":35.701747,"lon":139.79875},{"name":"朝日信用金庫本所支店","province":"東京都","city":"墨田区","address":"墨田区石原一丁目41番8号","lat":35.701914,"lon":139.799686},{"name":"石原三丁目交番","province":"東京都","city":"墨田区","address":"墨田区石原三丁目16番1号ハイネス壱番館1階","lat":35.70049,"lon":139.803928},{"name":"本所地域プラザ（BIG SHIP）","province":"東京都","city":"墨田区","address":"墨田区本所一丁目13番4号","lat":35.703121,"lon":139.798799},{"name":"厩橋地域安全センター","province":"東京都","city":"墨田区","address":"墨田区本所一丁目25番9号","lat":35.703847,"lon":139.799797},{"name":"クレヴィア墨田本所","province":"東京都","city":"墨田区","address":"墨田区本所一丁目36番7号","lat":35.704655,"lon":139.796684},{"name":"篠塚歯科医院","province":"東京都","city":"墨田区","address":"墨田区東駒形一丁目19番7号","lat":35.706416,"lon":139.799486},{"name":"本所消防署東駒形出張所","province":"東京都","city":"墨田区","address":"墨田区東駒形三丁目5番8号","lat":35.706386,"lon":139.804322},{"name":"駒形橋地域安全センター","province":"東京都","city":"墨田区","address":"墨田区吾妻橋一丁目12番15号","lat":35.708086,"lon":139.798237},{"name":"墨田区役所1階東側エレベーター前","province":"東京都","city":"墨田区","address":"墨田区吾妻橋一丁目23番20号","lat":35.710722,"lon":139.801497},{"name":"墨田区役所8階東側エレベーター前","province":"東京都","city":"墨田区","address":"墨田区吾妻橋一丁目23番20号","lat":35.710722,"lon":139.801497},{"name":"ステップ学級","province":"東京都","city":"墨田区","address":"墨田区吾妻橋二丁目18番2号白玉ビル2階","lat":35.71038,"lon":139.802522},{"name":"吾妻橋交番","province":"東京都","city":"墨田区","address":"墨田区吾妻橋三丁目7番1号","lat":35.708858,"lon":139.804441},{"name":"都営地下鉄本所吾妻橋駅","province":"東京都","city":"墨田区","address":"墨田区吾妻橋三丁目7番16号","lat":35.708566,"lon":139.804363},{"name":"株式会社 小森コーポレーション","province":"東京都","city":"墨田区","address":"墨田区吾妻橋三丁目11番1号","lat":35.709355,"lon":139.805716},{"name":"すみだトリフォニーホール","province":"東京都","city":"墨田区","address":"墨田区錦糸一丁目2番3号","lat":35.697212,"lon":139.81011},{"name":"錦糸町駅北口交番","province":"東京都","city":"墨田区","address":"墨田区錦糸二丁目2番3号","lat":35.697632,"lon":139.813333},{"name":"アルカイースト歯科クリニック","province":"東京都","city":"墨田区","address":"墨田区錦糸三丁目2番1号アルカイースト3階","lat":35.697496,"lon":139.814347},{"name":"墨田区総合体育館","province":"東京都","city":"墨田区","address":"墨田区錦糸四丁目15番1号錦糸公園内","lat":35.699525,"lon":139.817187},{"name":"株式会社 阪上製作所","province":"東京都","city":"墨田区","address":"墨田区錦糸四丁目17番6号","lat":35.699278,"lon":139.818134},{"name":"学校法人立志舎 立志舎高等学校","province":"東京都","city":"墨田区","address":"墨田区太平二丁目9番6号","lat":35.700845,"lon":139.812885},{"name":"東京東信用金庫錦糸町支店","province":"東京都","city":"墨田区","address":"墨田区太平三丁目3番8号","lat":35.699756,"lon":139.814515},{"name":"社会福祉法人賛育会賛育会病院","province":"東京都","city":"墨田区","address":"墨田区太平三丁目20番2号","lat":35.702589,"lon":139.813967},{"name":"一般財団法人保安通信協会","province":"東京都","city":"墨田区","address":"墨田区太平四丁目1番3号オリナスタワー15階","lat":35.70075,"lon":139.815306},{"name":"富安株式会社東京本社","province":"東京都","city":"墨田区","address":"墨田区太平四丁目5番15号","lat":35.701573,"lon":139.817984},{"name":"日本たばこ産業株式会社生産技術センター","province":"東京都","city":"墨田区","address":"墨田区横川一丁目17番7号","lat":35.704794,"lon":139.810724},{"name":"本所消防署","province":"東京都","city":"墨田区","address":"墨田区横川四丁目6番6号","lat":35.70395,"lon":139.815188},{"name":"横川交番","province":"東京都","city":"墨田区","address":"墨田区横川四丁目7番2号","lat":35.704347,"lon":139.814608},{"name":"プリメール柳島管理組合","province":"東京都","city":"墨田区","address":"墨田区横川五丁目10番1号管理事務所","lat":35.705911,"lon":139.816341},{"name":"業平橋住宅自治会","province":"東京都","city":"墨田区","address":"墨田区業平一丁目6番3号","lat":35.707357,"lon":139.808412},{"name":"医療法人財団南葛勤医協クリニック柳島","province":"東京都","city":"墨田区","address":"墨田区業平二丁目9番9号","lat":35.70778,"lon":139.812508},{"name":"なりひら高齢者在宅サービスセンター","province":"東京都","city":"墨田区","address":"墨田区業平五丁目6番2号","lat":35.707069,"lon":139.817933},{"name":"言問交番","province":"東京都","city":"墨田区","address":"墨田区向島三丁目1番1号","lat":35.712894,"lon":139.806066},{"name":"朝日信用金庫向島支店","province":"東京都","city":"墨田区","address":"墨田区向島三丁目23番8号","lat":35.71246,"lon":139.808382},{"name":"すみだ福祉保健センター","province":"東京都","city":"墨田区","address":"墨田区向島三丁目36番7号","lat":35.713323,"lon":139.810781},{"name":"すみだ休日応急診療所","province":"東京都","city":"墨田区","address":"墨田区向島三丁目36番7号","lat":35.7136,"lon":139.810774},{"name":"本所消防署小梅出張所","province":"東京都","city":"墨田区","address":"墨田区向島三丁目36番12号","lat":35.713016,"lon":139.810724},{"name":"東京都立本所高等学校","province":"東京都","city":"墨田区","address":"墨田区向島三丁目37番25号","lat":35.714604,"lon":139.811228},{"name":"なりひら橋クリニック","province":"東京都","city":"墨田区","address":"墨田区向島三丁目46番10号2階","lat":35.711373,"lon":139.80929},{"name":"向島交番","province":"東京都","city":"墨田区","address":"墨田区向島四丁目1番5号","lat":35.716154,"lon":139.810854},{"name":"墨田中学校","province":"東京都","city":"墨田区","address":"墨田区向島四丁目25番22号","lat":35.714949,"lon":139.811531},{"name":"医療法人社団尽誠会 三浦内科医院","province":"東京都","city":"墨田区","address":"墨田区東向島一丁目26番10号","lat":35.718985,"lon":139.81299},{"name":"向島税務署","province":"東京都","city":"墨田区","address":"墨田区東向島二丁目7番14号","lat":35.716959,"lon":139.815591},{"name":"曳舟交番","province":"東京都","city":"墨田区","address":"墨田区東向島二丁目26番1号","lat":35.717734,"lon":139.816438},{"name":"東武曳舟駅","province":"東京都","city":"墨田区","address":"墨田区東向島二丁目26番6号","lat":35.718032,"lon":139.816526},{"name":"東京曳舟病院","province":"東京都","city":"墨田区","address":"墨田区東向島二丁目27番1号","lat":35.71791,"lon":139.816979},{"name":"東京東信用金庫本店","province":"東京都","city":"墨田区","address":"墨田区東向島二丁目36番10号","lat":35.721379,"lon":139.817628},{"name":"東京都立墨田川高等学校","province":"東京都","city":"墨田区","address":"墨田区東向島三丁目34番14号","lat":35.721853,"lon":139.816253},{"name":"東向島交番","province":"東京都","city":"墨田区","address":"墨田区東向島四丁目26番7号","lat":35.722729,"lon":139.818431},{"name":"東武東向島駅","province":"東京都","city":"墨田区","address":"墨田区東向島四丁目29番7号","lat":35.724937,"lon":139.819436},{"name":"朝日信用金庫東向島支店","province":"東京都","city":"墨田区","address":"墨田区東向島四丁目43番9号","lat":35.727001,"lon":139.819453},{"name":"向島保健センター","province":"東京都","city":"墨田区","address":"墨田区東向島五丁目16番2号","lat":35.72587,"lon":139.821151},{"name":"こくほ内科クリニック","province":"東京都","city":"墨田区","address":"墨田区東向島六丁目11番9号","lat":35.721488,"lon":139.821553},{"name":"向島消防署","province":"東京都","city":"墨田区","address":"墨田区東向島六丁目22番3号","lat":35.723621,"lon":139.820026},{"name":"堤通公園テニスコート","province":"東京都","city":"墨田区","address":"墨田区堤通一丁目8番1号","lat":35.724532,"lon":139.810782},{"name":"墨田区総合運動場","province":"東京都","city":"墨田区","address":"墨田区堤通二丁目11番1号","lat":35.738941,"lon":139.816432},{"name":"桜堤中学校","province":"東京都","city":"墨田区","address":"墨田区堤通二丁目19番1号","lat":35.730387,"lon":139.811917},{"name":"白鬚橋交番","province":"東京都","city":"墨田区","address":"墨田区墨田一丁目4番1号","lat":35.728531,"lon":139.813637},{"name":"スポーツプラザ梅若","province":"東京都","city":"墨田区","address":"墨田区墨田一丁目4番4号","lat":35.729065,"lon":139.815838},{"name":"株式会社ケアサービス デイサービスセンター墨田","province":"東京都","city":"墨田区","address":"墨田区墨田一丁目7番2号","lat":35.728276,"lon":139.816558},{"name":"鐘ヶ淵駅前交番","province":"東京都","city":"墨田区","address":"墨田区墨田二丁目10番15号","lat":35.733181,"lon":139.819628},{"name":"墨田三丁目交番","province":"東京都","city":"墨田区","address":"墨田区墨田三丁目6番17号","lat":35.727948,"lon":139.820617},{"name":"医療法人財団南葛勤医協 すみだ共立診療所","province":"東京都","city":"墨田区","address":"墨田区墨田三丁目41番15号","lat":35.730109,"lon":139.823033},{"name":"墨田地域安全センター","province":"東京都","city":"墨田区","address":"墨田区墨田四丁目22番9号","lat":35.732123,"lon":139.823369},{"name":"墨田野球場","province":"東京都","city":"墨田区","address":"墨田区墨田四丁目地先","lat":35.732135,"lon":139.825934},{"name":"向島警察署堤通駐在所","province":"東京都","city":"墨田区","address":"墨田区墨田五丁目16番1号","lat":35.737012,"lon":139.818183},{"name":"向島消防署墨田出張所","province":"東京都","city":"墨田区","address":"墨田区墨田五丁目16番2号","lat":35.737228,"lon":139.818125},{"name":"株式会社KCロジスティクス　カネボウ化粧品　すみだ北ロジスティクスセンター","province":"東京都","city":"墨田区","address":"墨田区墨田五丁目17番4号","lat":35.739667,"lon":139.817358},{"name":"旧隅田小学校","province":"東京都","city":"墨田区","address":"墨田区墨田五丁目49番5号","lat":35.736036,"lon":139.820653},{"name":"東武鐘ヶ淵駅","province":"東京都","city":"墨田区","address":"墨田区墨田五丁目50番2号","lat":35.733426,"lon":139.820028},{"name":"すみだ水族館","province":"東京都","city":"墨田区","address":"墨田区押上一丁目1番2号東京スカイツリータウン・ソラマチ5階・6階","lat":35.710007,"lon":139.80984},{"name":"東武とうきょうスカイツリー駅","province":"東京都","city":"墨田区","address":"墨田区押上一丁目1番4号","lat":35.71043,"lon":139.809268},{"name":"押上駅前交番","province":"東京都","city":"墨田区","address":"墨田区押上一丁目10番1号","lat":35.710853,"lon":139.813141},{"name":"東京メトロ押上駅","province":"東京都","city":"墨田区","address":"墨田区押上一丁目1番65号","lat":35.710328,"lon":139.81329},{"name":"京成押上駅","province":"東京都","city":"墨田区","address":"墨田区押上一丁目10番2号","lat":35.710328,"lon":139.81329},{"name":"曳舟小学校","province":"東京都","city":"墨田区","address":"墨田区京島一丁目28番2号","lat":35.716608,"lon":139.820806},{"name":"子育て支援総合センター","province":"東京都","city":"墨田区","address":"墨田区京島一丁目35番9号103号室マークゼロワン曳舟タワー棟1階","lat":35.716758,"lon":139.819754},{"name":"京成曳舟駅","province":"東京都","city":"墨田区","address":"墨田区京島一丁目39番1号","lat":35.718058,"lon":139.819624},{"name":"東向島児童館　分館","province":"東京都","city":"墨田区","address":"墨田区京島一丁目44番21号","lat":35.7193,"lon":139.820973},{"name":"スポーツクラブ＆スパルネサンス曳舟","province":"東京都","city":"墨田区","address":"墨田区京島一丁目46番2号","lat":35.71818,"lon":139.820928},{"name":"京島二丁目交番","province":"東京都","city":"墨田区","address":"墨田区京島二丁目9番4号","lat":35.715024,"lon":139.819912},{"name":"小林歯科医院","province":"東京都","city":"墨田区","address":"墨田区京島三丁目62番2号","lat":35.712734,"lon":139.824238},{"name":"東京東信用金庫吾嬬支店","province":"東京都","city":"墨田区","address":"墨田区京島三丁目68番8号","lat":35.713291,"lon":139.826875},{"name":"東京東信用金庫押上支店","province":"東京都","city":"墨田区","address":"墨田区文花一丁目7番4号","lat":35.710332,"lon":139.820292},{"name":"ぶんか高齢者支援総合センター","province":"東京都","city":"墨田区","address":"墨田区文花一丁目29番5号","lat":35.708407,"lon":139.820031},{"name":"吉田テクノワークス株式会社","province":"東京都","city":"墨田区","address":"墨田区文花二丁目11番12号","lat":35.709583,"lon":139.826186},{"name":"東武小村井駅","province":"東京都","city":"墨田区","address":"墨田区文花二丁目20番1号","lat":35.710133,"lon":139.828042},{"name":"株式会社 本所介護サービス","province":"東京都","city":"墨田区","address":"墨田区文花三丁目14番4号","lat":35.712022,"lon":139.825947},{"name":"向島警察署","province":"東京都","city":"墨田区","address":"墨田区文花三丁目18番9号","lat":35.711724,"lon":139.827261},{"name":"株式会社イナゲ","province":"東京都","city":"墨田区","address":"墨田区文花三丁目21番17号","lat":35.711255,"lon":139.827672},{"name":"中村病院","province":"東京都","city":"墨田区","address":"墨田区八広二丁目1番1号","lat":35.717399,"lon":139.82362},{"name":"第三吾嬬小学校","province":"東京都","city":"墨田区","address":"墨田区八広二丁目36番3号","lat":35.717171,"lon":139.82775},{"name":"朝日信用金庫八広支店","province":"東京都","city":"墨田区","address":"墨田区八広二丁目46番8号","lat":35.714733,"lon":139.826036},{"name":"八広四丁目交番","province":"東京都","city":"墨田区","address":"墨田区八広四丁目12番3号","lat":35.722618,"lon":139.826564},{"name":"八広地域プラザ（吾嬬の里）","province":"東京都","city":"墨田区","address":"墨田区八広四丁目35番17号","lat":35.723165,"lon":139.829377},{"name":"東京都立墨田特別支援学校","province":"東京都","city":"墨田区","address":"墨田区八広五丁目10番2号","lat":35.72519,"lon":139.825211},{"name":"八広はなみずき高齢者支援総合センター","province":"東京都","city":"墨田区","address":"墨田区八広五丁目18番23号","lat":35.725186,"lon":139.826327},{"name":"四ツ木橋交番","province":"東京都","city":"墨田区","address":"墨田区八広六丁目1番1号","lat":35.728743,"lon":139.82538},{"name":"京成八広駅","province":"東京都","city":"墨田区","address":"墨田区八広六丁目25番20号","lat":35.727237,"lon":139.828353},{"name":"医療法人社団緑翠会小山医院","province":"東京都","city":"墨田区","address":"墨田区立花一丁目23番5号116号室サンタウン立花","lat":35.706644,"lon":139.831219},{"name":"立花体育館","province":"東京都","city":"墨田区","address":"墨田区立花一丁目25番10号","lat":35.705488,"lon":139.832054},{"name":"たちばなホーム","province":"東京都","city":"墨田区","address":"墨田区立花三丁目10番1号","lat":35.705338,"lon":139.833116},{"name":"平井橋交番","province":"東京都","city":"墨田区","address":"墨田区立花三丁目29番12号","lat":35.708528,"lon":139.837241},{"name":"小村井交番","province":"東京都","city":"墨田区","address":"墨田区立花四丁目2番1号","lat":35.710294,"lon":139.828533},{"name":"東武東あずま駅","province":"東京都","city":"墨田区","address":"墨田区立花四丁目23番8号","lat":35.707083,"lon":139.831905},{"name":"東京都立橘高等学校","province":"東京都","city":"墨田区","address":"墨田区立花四丁目29番7号","lat":35.709339,"lon":139.833663},{"name":"吾嬬立花中学校","province":"東京都","city":"墨田区","address":"墨田区立花四丁目30番18号","lat":35.709949,"lon":139.834786},{"name":"向島消防署立花出張所","province":"東京都","city":"墨田区","address":"墨田区立花五丁目9番3号","lat":35.715016,"lon":139.828833},{"name":"中川児童館","province":"東京都","city":"墨田区","address":"墨田区立花五丁目18番9号","lat":35.712981,"lon":139.831},{"name":"医療法人社団立圭会平野医院","province":"東京都","city":"墨田区","address":"墨田区立花六丁目1番14号","lat":35.71063,"lon":139.833238},{"name":"立花ゆうゆう館","province":"東京都","city":"墨田区","address":"墨田区立花六丁目8番号102号室","lat":35.710595,"lon":139.834744},{"name":"株式会社大東マーク工業","province":"東京都","city":"墨田区","address":"墨田区東墨田二丁目17番9号","lat":35.722704,"lon":139.832752},{"name":"荒川四ツ木橋緑地少年野球場","province":"東京都","city":"墨田区","address":"墨田区東墨田三丁目先","lat":35.721291,"lon":139.837284},{"name":"株式会社杉田製線第二工場","province":"東京都","city":"墨田区","address":"墨田区東墨田三丁目1番12号","lat":35.718485,"lon":139.834016}]}