{"keyword":"椅子","data":[{"name":"墨田都税事務所","province":"東京都","city":"墨田区","address":"東京都墨田区業平1丁目7-4","lat":35.70787,"lon":139.809143},{"name":"東京都江戸東京博物館","province":"東京都","city":"墨田区","address":"東京都墨田区横網1丁目4-1","lat":35.69647,"lon":139.7957},{"name":"東京都江戸東京博物館","province":"東京都","city":"墨田区","address":"東京都墨田区横網1丁目4-1","lat":35.69691,"lon":139.7958},{"name":"東京都江戸東京博物館","province":"東京都","city":"墨田区","address":"東京都墨田区横網1丁目4-1","lat":35.69665,"lon":139.7958},{"name":"東京都江戸東京博物館","province":"東京都","city":"墨田区","address":"東京都墨田区横網1丁目4-1","lat":35.69675,"lon":139.7956},{"name":"東京都江戸東京博物館","province":"東京都","city":"墨田区","address":"東京都墨田区横網1丁目4-1","lat":35.69627,"lon":139.7958},{"name":"東京都江戸東京博物館","province":"東京都","city":"墨田区","address":"東京都墨田区横網1丁目4-1","lat":35.69623,"lon":139.7965},{"name":"東京都江戸東京博物館","province":"東京都","city":"墨田区","address":"東京都墨田区横網1丁目4-1","lat":35.69676,"lon":139.7957},{"name":"東京都江戸東京博物館","province":"東京都","city":"墨田区","address":"東京都墨田区横網1丁目4-1","lat":35.69639,"lon":139.7956},{"name":"地方独立行政法人東京都立病院機構　東京都立墨東病院","province":"東京都","city":"墨田区","address":"東京都墨田区江東橋4丁目23","lat":35.694554,"lon":139.818952},{"name":"東白鬚公園","province":"東京都","city":"墨田区","address":"東京都墨田区堤通2丁目2","lat":35.733624,"lon":139.813864},{"name":"東白鬚公園","province":"東京都","city":"墨田区","address":"東京都墨田区堤通2丁目2","lat":35.72915,"lon":139.811966},{"name":"東白鬚公園","province":"東京都","city":"墨田区","address":"東京都墨田区堤通2丁目2","lat":35.737694,"lon":139.81688},{"name":"横網町公園","province":"東京都","city":"墨田区","address":"東京都墨田区横網2丁目3-25","lat":35.699951,"lon":139.796874},{"name":"横網町公園","province":"東京都","city":"墨田区","address":"東京都墨田区横網2丁目3","lat":35.699272,"lon":139.795551},{"name":"向島百花園","province":"東京都","city":"墨田区","address":"東京都墨田区東向島3丁目18","lat":35.724189,"lon":139.815271},{"name":"向島百花園","province":"東京都","city":"墨田区","address":"東京都墨田区東向島3丁目18","lat":35.724158,"lon":139.815293},{"name":"都営浅草線本所吾妻橋駅","province":"東京都","city":"墨田区","address":"東京都墨田区吾妻橋3丁目1","lat":35.708358,"lon":139.804465},{"name":"都営浅草線本所吾妻橋駅","province":"東京都","city":"墨田区","address":"東京都墨田区吾妻橋3丁目1","lat":35.708419,"lon":139.804475},{"name":"都営新宿線菊川駅","province":"東京都","city":"墨田区","address":"東京都墨田区菊川2丁目6","lat":35.688422,"lon":139.80556},{"name":"都営大江戸線両国駅","province":"東京都","city":"墨田区","address":"東京都墨田区亀沢1丁目7","lat":35.696873,"lon":139.797477},{"name":"東京都水道局墨田営業所","province":"東京都","city":"墨田区","address":"東京都墨田区千歳2丁目2-11","lat":35.690458,"lon":139.795839},{"name":"墨田区役所","province":"東京都","city":"墨田区","address":"東京都墨田区吾妻橋1丁目23-20","lat":35.710644,"lon":139.801307},{"name":"向島保健センター","province":"東京都","city":"墨田区","address":"東京都墨田区東向島5丁目16-2","lat":35.725694,"lon":139.821112},{"name":"横川出張所","province":"東京都","city":"墨田区","address":"東京都墨田区横川5丁目10-1","lat":35.705927,"lon":139.816389},{"name":"八広地域プラザ","province":"東京都","city":"墨田区","address":"東京都墨田区八広4丁目35-17","lat":35.723478,"lon":139.829337},{"name":"八広地域プラザ","province":"東京都","city":"墨田区","address":"東京都墨田区八広4丁目35-17","lat":35.723403,"lon":139.829296},{"name":"本所地域プラザ","province":"東京都","city":"墨田区","address":"東京都墨田区本所1丁目13-4","lat":35.703099,"lon":139.798797},{"name":"横川コミュニティ会館","province":"東京都","city":"墨田区","address":"東京都墨田区横川5丁目9-1","lat":35.705118,"lon":139.817496},{"name":"横川コミュニティ会館","province":"東京都","city":"墨田区","address":"東京都墨田区横川5丁目9-1","lat":35.705118,"lon":139.817404},{"name":"横川コミュニティ会館","province":"東京都","city":"墨田区","address":"東京都墨田区横川5丁目9-1","lat":35.705076,"lon":139.817404},{"name":"梅若橋コミュニティ会館","province":"東京都","city":"墨田区","address":"東京都墨田区堤通2丁目9-1","lat":35.735354,"lon":139.816656},{"name":"東駒形コミュニティ会館","province":"東京都","city":"墨田区","address":"東京都墨田区東駒形4丁目14-1","lat":35.705476,"lon":139.807771},{"name":"東墨田東公園","province":"東京都","city":"墨田区","address":"東京都墨田区東墨田3丁目19","lat":35.718431,"lon":139.837439},{"name":"ひきふね図書館","province":"東京都","city":"墨田区","address":"東京都墨田区京島1丁目36","lat":35.717059,"lon":139.819673},{"name":"ひきふね図書館","province":"東京都","city":"墨田区","address":"東京都墨田区京島1丁目36-1","lat":35.716857,"lon":139.819261},{"name":"ひきふね図書館","province":"東京都","city":"墨田区","address":"東京都墨田区京島1丁目36","lat":35.717003,"lon":139.819467},{"name":"ひきふね図書館","province":"東京都","city":"墨田区","address":"東京都墨田区京島1丁目36","lat":35.717026,"lon":139.819466},{"name":"立花図書館","province":"東京都","city":"墨田区","address":"東京都墨田区立花6丁目8-1","lat":35.710646,"lon":139.834938},{"name":"みどりコミュニティセンター","province":"東京都","city":"墨田区","address":"東京都墨田区緑3丁目7-3","lat":35.693553,"lon":139.803237},{"name":"すみだスポーツ健康センター","province":"東京都","city":"墨田区","address":"東京都墨田区東墨田1丁目6-1","lat":35.716461,"lon":139.830695},{"name":"すみだスポーツ健康センター","province":"東京都","city":"墨田区","address":"東京都墨田区東墨田1丁目6-1","lat":35.716509,"lon":139.830372},{"name":"すみだ郷土文化資料館","province":"東京都","city":"墨田区","address":"東京都墨田区向島2丁目3-5","lat":35.713875,"lon":139.805844},{"name":"すみだ生涯学習センター","province":"東京都","city":"墨田区","address":"東京都墨田区東向島2丁目38-7","lat":35.721243,"lon":139.818603},{"name":"すみだ生涯学習センター","province":"東京都","city":"墨田区","address":"東京都墨田区東向島2丁目38-7","lat":35.721144,"lon":139.818474},{"name":"すみだ北斎美術館","province":"東京都","city":"墨田区","address":"東京都墨田区亀沢2丁目7","lat":35.696255,"lon":139.800334},{"name":"すみだトリフォニーホール","province":"東京都","city":"墨田区","address":"東京都墨田区錦糸1丁目2-3","lat":35.697119,"lon":139.810005},{"name":"すみだ産業会館","province":"東京都","city":"墨田区","address":"東京都墨田区江東橋3丁目9-10","lat":35.695121,"lon":139.813771},{"name":"両国公園","province":"東京都","city":"墨田区","address":"東京都墨田区両国4丁目25","lat":35.693745,"lon":139.796132},{"name":"横川公園","province":"東京都","city":"墨田区","address":"東京都墨田区東駒形4丁目18","lat":35.706794,"lon":139.806817},{"name":"錦糸公園(東)","province":"東京都","city":"墨田区","address":"東京都墨田区錦糸4丁目15","lat":35.699337,"lon":139.817821},{"name":"ふじのき公園","province":"東京都","city":"墨田区","address":"東京都墨田区東向島2丁目7","lat":35.71734,"lon":139.815424},{"name":"ひいらぎ公園","province":"東京都","city":"墨田区","address":"東京都墨田区八広1丁目16","lat":35.720225,"lon":139.82238},{"name":"東向島北公園","province":"東京都","city":"墨田区","address":"東京都墨田区東向島4丁目12","lat":35.725569,"lon":139.815881},{"name":"八広中央公園","province":"東京都","city":"墨田区","address":"東京都墨田区八広3丁目13","lat":35.719212,"lon":139.827258},{"name":"どんぐり児童遊園","province":"東京都","city":"墨田区","address":"東京都墨田区緑3丁目12","lat":35.694579,"lon":139.804697},{"name":"かつら児童遊園","province":"東京都","city":"墨田区","address":"東京都墨田区墨田3丁目36","lat":35.731337,"lon":139.820688},{"name":"六軒児童遊園","province":"東京都","city":"墨田区","address":"東京都墨田区立花3丁目18","lat":35.706101,"lon":139.834398},{"name":"中之郷児童遊園","province":"東京都","city":"墨田区","address":"東京都墨田区押上2丁目12","lat":35.712326,"lon":139.81225},{"name":"八広第一児童遊園","province":"東京都","city":"墨田区","address":"東京都墨田区八広5丁目7","lat":35.724305,"lon":139.823966},{"name":"くるみ児童遊園","province":"東京都","city":"墨田区","address":"東京都墨田区業平5丁目1","lat":35.706257,"lon":139.816161},{"name":"日進公園","province":"東京都","city":"墨田区","address":"東京都墨田区亀沢3丁目24","lat":35.698564,"lon":139.804482},{"name":"若宮公園","province":"東京都","city":"墨田区","address":"東京都墨田区本所2丁目2","lat":35.702289,"lon":139.801135},{"name":"隅田第二児童遊園","province":"東京都","city":"墨田区","address":"東京都墨田区墨田4丁目8","lat":35.732715,"lon":139.821937},{"name":"すみだボランティアセンター","province":"東京都","city":"墨田区","address":"東京都墨田区東向島2丁目17-14","lat":35.718426,"lon":139.815648},{"name":"立花公園","province":"東京都","city":"墨田区","address":"東京都墨田区立花1丁目27","lat":35.70497,"lon":139.828861},{"name":"墨田二丁目児童遊園","province":"東京都","city":"墨田区","address":"東京都墨田区墨田2丁目42","lat":35.732113,"lon":139.818787},{"name":"両国橋際","province":"東京都","city":"墨田区","address":"東京都墨田区両国1丁目11","lat":35.693893,"lon":139.789772},{"name":"江東橋際公衆便所","province":"東京都","city":"墨田区","address":"東京都墨田区江東橋1丁目8","lat":35.694991,"lon":139.809163},{"name":"江東橋公園","province":"東京都","city":"墨田区","address":"東京都墨田区江東橋2丁目4","lat":35.693908,"lon":139.811341},{"name":"錦糸町駅前公衆便所","province":"東京都","city":"墨田区","address":"東京都墨田区江東橋3丁目14","lat":35.696056,"lon":139.814536},{"name":"錦糸堀公園","province":"東京都","city":"墨田区","address":"東京都墨田区江東橋4丁目17","lat":35.694883,"lon":139.816527},{"name":"緑町公園","province":"東京都","city":"墨田区","address":"東京都墨田区亀沢2丁目7","lat":35.696814,"lon":139.800654},{"name":"まち歩きトイレ業平橋","province":"東京都","city":"墨田区","address":"東京都墨田区東駒形4丁目15","lat":35.708502,"lon":139.807401},{"name":"錦糸公園内","province":"東京都","city":"墨田区","address":"東京都墨田区錦糸4丁目15","lat":35.698551,"lon":139.81509},{"name":"京成橋際","province":"東京都","city":"墨田区","address":"東京都墨田区業平4丁目17","lat":35.709468,"lon":139.813995},{"name":"柳島橋際","province":"東京都","city":"墨田区","address":"東京都墨田区業平5丁目7","lat":35.70778,"lon":139.818316},{"name":"東武橋際","province":"東京都","city":"墨田区","address":"東京都墨田区向島1丁目32","lat":35.709669,"lon":139.808324},{"name":"まち歩きトイレ言問","province":"東京都","city":"墨田区","address":"東京都墨田区向島2丁目1","lat":35.713392,"lon":139.80515},{"name":"両国駅西口公衆便所","province":"東京都","city":"墨田区","address":"東京都墨田区横網1丁目3","lat":35.696124,"lon":139.792019},{"name":"まち歩きトイレ錦糸","province":"東京都","city":"墨田区","address":"東京都墨田区錦糸1丁目1","lat":35.697412,"lon":139.808969},{"name":"押上駅前自転車駐車場内","province":"東京都","city":"墨田区","address":"東京都墨田区押上1丁目8-25","lat":35.710999,"lon":139.813917},{"name":"東墨田一丁目","province":"東京都","city":"墨田区","address":"東京都墨田区東墨田1丁目10","lat":35.716234,"lon":139.832784},{"name":"立花五丁目","province":"東京都","city":"墨田区","address":"東京都墨田区立花5丁目50","lat":35.713365,"lon":139.833487},{"name":"平井橋際","province":"東京都","city":"墨田区","address":"東京都墨田区立花3丁目29","lat":35.708485,"lon":139.837197},{"name":"小村井","province":"東京都","city":"墨田区","address":"東京都墨田区文花2丁目1","lat":35.708249,"lon":139.825395},{"name":"墨田区社会福祉会館","province":"東京都","city":"墨田区","address":"東京都墨田区東墨田2丁目7-1","lat":35.719067,"lon":139.830251},{"name":"すみだ福祉保健センター","province":"東京都","city":"墨田区","address":"東京都墨田区向島3丁目36-7","lat":35.713311,"lon":139.810886},{"name":"すみだ福祉保健センター","province":"東京都","city":"墨田区","address":"東京都墨田区向島3丁目36-7","lat":35.713307,"lon":139.810885},{"name":"すみだ福祉保健センター","province":"東京都","city":"墨田区","address":"東京都墨田区向島3丁目36-7","lat":35.713334,"lon":139.810767},{"name":"墨田区弓道場","province":"東京都","city":"墨田区","address":"東京都墨田区江東橋4丁目1-3","lat":35.693386,"lon":139.817352},{"name":"子育て支援総合センター","province":"東京都","city":"墨田区","address":"東京都墨田区京島1丁目35-9","lat":35.716819,"lon":139.819728},{"name":"梅若ゆうゆう館","province":"東京都","city":"墨田区","address":"東京都墨田区墨田1丁目4-4","lat":35.72908,"lon":139.815151},{"name":"立花ゆうゆう館","province":"東京都","city":"墨田区","address":"東京都墨田区立花6丁目8-1","lat":35.710599,"lon":139.834969},{"name":"いきいきプラザ","province":"東京都","city":"墨田区","address":"東京都墨田区文花1丁目32-2","lat":35.707543,"lon":139.823451},{"name":"すみだ女性センター","province":"東京都","city":"墨田区","address":"東京都墨田区押上2丁目12-7","lat":35.712918,"lon":139.812163},{"name":"墨田区総合運動場","province":"東京都","city":"墨田区","address":"東京都墨田区堤通2丁目11","lat":35.737941,"lon":139.816077},{"name":"墨田区総合運動場","province":"東京都","city":"墨田区","address":"東京都墨田区堤通2丁目11","lat":35.73826,"lon":139.816194},{"name":"両国屋内プール","province":"東京都","city":"墨田区","address":"東京都墨田区横網1丁目8-1","lat":35.697672,"lon":139.796324},{"name":"両国屋内プール","province":"東京都","city":"墨田区","address":"東京都墨田区横網1丁目8-1","lat":35.697926,"lon":139.796428},{"name":"スポーツプラザ梅若","province":"東京都","city":"墨田区","address":"東京都墨田区墨田1丁目4-4","lat":35.72904,"lon":139.81565},{"name":"両国子育てひろば保育室","province":"東京都","city":"墨田区","address":"東京都墨田区横網1丁目2-13","lat":35.697787,"lon":139.792418},{"name":"両国子育てひろば","province":"東京都","city":"墨田区","address":"東京都墨田区横網1丁目2-13","lat":35.697787,"lon":139.792418},{"name":"文花子育てひろば","province":"東京都","city":"墨田区","address":"東京都墨田区文花1丁目20-7","lat":35.710614,"lon":139.822368},{"name":"墨田区総合体育館","province":"東京都","city":"墨田区","address":"東京都墨田区錦糸4丁目15-1","lat":35.699324,"lon":139.816798},{"name":"墨田区総合体育館","province":"東京都","city":"墨田区","address":"東京都墨田区錦糸4丁目15-1","lat":35.699732,"lon":139.816784},{"name":"墨田区総合体育館","province":"東京都","city":"墨田区","address":"東京都墨田区錦糸4丁目15-1","lat":35.699316,"lon":139.81745},{"name":"墨田区総合体育館","province":"東京都","city":"墨田区","address":"東京都墨田区錦糸4丁目15-1","lat":35.699794,"lon":139.817374},{"name":"墨田区総合体育館","province":"東京都","city":"墨田区","address":"東京都墨田区錦糸4丁目15-1","lat":35.699292,"lon":139.817424},{"name":"墨田区総合体育館","province":"東京都","city":"墨田区","address":"東京都墨田区錦糸4丁目15-1","lat":35.699786,"lon":139.817067},{"name":"墨田区総合体育館","province":"東京都","city":"墨田区","address":"東京都墨田区錦糸4丁目15-1","lat":35.699305,"lon":139.816816},{"name":"墨田区総合体育館","province":"東京都","city":"墨田区","address":"東京都墨田区錦糸4丁目15-1","lat":35.699297,"lon":139.817421},{"name":"墨田区総合体育館","province":"東京都","city":"墨田区","address":"東京都墨田区錦糸4丁目15-1","lat":35.699804,"lon":139.81726},{"name":"墨田区総合体育館","province":"東京都","city":"墨田区","address":"東京都墨田区錦糸4丁目15-1","lat":35.699303,"lon":139.817335},{"name":"荒川河川敷運動場","province":"東京都","city":"墨田区","address":"東京都墨田区墨田4丁目","lat":35.736513,"lon":139.82236},{"name":"荒川河川敷運動場","province":"東京都","city":"墨田区","address":"東京都墨田区墨田4丁目","lat":35.732205,"lon":139.826014},{"name":"荒川河川敷運動場","province":"東京都","city":"墨田区","address":"東京都墨田区八広6丁目","lat":35.730235,"lon":139.828012},{"name":"屋外体育施設管理事務所錦糸支所","province":"東京都","city":"墨田区","address":"東京都墨田区錦糸4丁目15","lat":35.698556,"lon":139.815057},{"name":"五間堀公園","province":"東京都","city":"墨田区","address":"東京都墨田区立川1丁目1","lat":35.689435,"lon":139.798429}]}