{"keyword":"特設","data":[{"name":"両国小学校","province":"東京都","city":"墨田区","address":"東京都墨田区両国4丁目26-6","lat":35.69372012,"lon":139.79519078},{"name":"緑小学校","province":"東京都","city":"墨田区","address":"東京都墨田区緑2丁目12-12","lat":35.69402562,"lon":139.80134284},{"name":"中和小学校","province":"東京都","city":"墨田区","address":"東京都墨田区菊川1丁目18-10","lat":35.6901567,"lon":139.80272644},{"name":"菊川小学校","province":"東京都","city":"墨田区","address":"東京都墨田区立川4丁目12-15","lat":35.69164531,"lon":139.8076726},{"name":"錦糸小学校","province":"東京都","city":"墨田区","address":"東京都墨田区錦糸1丁目9-12","lat":35.69876937,"lon":139.81137701},{"name":"柳島小学校","province":"東京都","city":"墨田区","address":"東京都墨田区横川5丁目2-30","lat":35.70359917,"lon":139.81754005},{"name":"業平小学校","province":"東京都","city":"墨田区","address":"東京都墨田区業平2丁目4-8","lat":35.70627427,"lon":139.81149546},{"name":"言問小学校","province":"東京都","city":"墨田区","address":"東京都墨田区向島5丁目40-14","lat":35.71843549,"lon":139.81134557},{"name":"墨田中学校","province":"東京都","city":"墨田区","address":"東京都墨田区向島4丁目25-22","lat":35.71493535,"lon":139.81152561},{"name":"小梅小学校","province":"東京都","city":"墨田区","address":"東京都墨田区向島2丁目4-10","lat":35.71444608,"lon":139.8059344},{"name":"本所中学校","province":"東京都","city":"墨田区","address":"東京都墨田区東駒形3丁目1-10","lat":35.70526321,"lon":139.80276048},{"name":"横川小学校","province":"東京都","city":"墨田区","address":"東京都墨田区東駒形4丁目18-4","lat":35.70716582,"lon":139.80624308},{"name":"外手小学校","province":"東京都","city":"墨田区","address":"東京都墨田区本所2丁目1-16","lat":35.7025968,"lon":139.80059167},{"name":"二葉小学校","province":"東京都","city":"墨田区","address":"東京都墨田区石原2丁目1-5","lat":35.69926388,"lon":139.80008668},{"name":"錦糸中学校","province":"東京都","city":"墨田区","address":"東京都墨田区石原4丁目33-14","lat":35.70140523,"lon":139.80693828},{"name":"竪川中学校","province":"東京都","city":"墨田区","address":"東京都墨田区亀沢4丁目11-15","lat":35.69700853,"lon":139.80583069},{"name":"立花吾嬬の森小学校","province":"東京都","city":"墨田区","address":"東京都墨田区立花1丁目18-6","lat":35.70622472,"lon":139.82971319},{"name":"東吾嬬小学校","province":"東京都","city":"墨田区","address":"東京都墨田区立花4丁目22-11","lat":35.70854692,"lon":139.83205434},{"name":"中川小学校","province":"東京都","city":"墨田区","address":"東京都墨田区立花5丁目49-4","lat":35.71334666,"lon":139.83150135},{"name":"桜堤中学校","province":"東京都","city":"墨田区","address":"東京都墨田区堤通2丁目19-1","lat":35.73056511,"lon":139.81190987},{"name":"八広地域プラザ","province":"東京都","city":"墨田区","address":"東京都墨田区八広4丁目35-17","lat":35.72349353,"lon":139.82925713},{"name":"八広小学校","province":"東京都","city":"墨田区","address":"東京都墨田区八広5丁目12-15","lat":35.72710192,"lon":139.82632158},{"name":"吾嬬第二中学校","province":"東京都","city":"墨田区","address":"東京都墨田区八広4丁目4-4","lat":35.72149362,"lon":139.8271268},{"name":"寺島中学校","province":"東京都","city":"墨田区","address":"東京都墨田区八広1丁目17-15","lat":35.72013008,"lon":139.82316626},{"name":"第三吾嬬小学校","province":"東京都","city":"墨田区","address":"東京都墨田区八広2丁目36-3","lat":35.71717161,"lon":139.82774891},{"name":"第四吾嬬小学校","province":"東京都","city":"墨田区","address":"東京都墨田区京島3丁目64-9","lat":35.7131389,"lon":139.82518538},{"name":"曳舟小学校","province":"東京都","city":"墨田区","address":"東京都墨田区京島1丁目28-2","lat":35.71662214,"lon":139.82089427},{"name":"文花中学校","province":"東京都","city":"墨田区","address":"東京都墨田区文花1丁目22-7","lat":35.71015294,"lon":139.82236367},{"name":"押上小学校","province":"東京都","city":"墨田区","address":"東京都墨田区押上3丁目46-17","lat":35.71201677,"lon":139.81932198},{"name":"第一寺島小学校","province":"東京都","city":"墨田区","address":"東京都墨田区東向島1丁目16-2","lat":35.72158271,"lon":139.81445099},{"name":"第三寺島小学校","province":"東京都","city":"墨田区","address":"東京都墨田区東向島6丁目8-1","lat":35.72140784,"lon":139.82042783},{"name":"旧向島中学校","province":"東京都","city":"墨田区","address":"東京都墨田区東向島4丁目18-9","lat":35.72607962,"lon":139.81685083},{"name":"第二寺島小学校","province":"東京都","city":"墨田区","address":"東京都墨田区東向島4丁目30-2","lat":35.72470754,"lon":139.81845881},{"name":"梅若小学校","province":"東京都","city":"墨田区","address":"東京都墨田区墨田2丁目25-1","lat":35.73053185,"lon":139.81560645},{"name":"旧隅田小学校","province":"東京都","city":"墨田区","address":"東京都墨田区墨田5丁目49-5","lat":35.73603672,"lon":139.82065239},{"name":"両国中学校","province":"東京都","city":"墨田区","address":"東京都墨田区横網1丁目8-1","lat":35.69748355,"lon":139.79611518},{"name":"隅田小学校","province":"東京都","city":"墨田区","address":"東京都墨田区墨田4丁目6-5","lat":35.73392317,"lon":139.82186348}]}