{"keyword":"病院","data":[{"name":"墨東病院","province":"東京都","city":"墨田区","address":"東京都墨田区江東橋4丁目23-15","lat":35.69530033,"lon":139.81879578},{"name":"東京都立墨東病院","province":"東京都","city":"墨田区","address":"東京都墨田区江東橋4丁目23-15","lat":35.69530033,"lon":139.81879578},{"name":"白鬚橋病院","province":"東京都","city":"墨田区","address":"東京都墨田区東向島4丁目2-10","lat":35.72795443,"lon":139.81372652},{"name":"都立墨東病院","province":"東京都","city":"墨田区","address":"東京都墨田区江東橋4丁目23-15","lat":35.69530033,"lon":139.81879578},{"name":"墨田区保健所","province":"東京都","city":"墨田区","address":"墨田区吾妻橋一丁目23番20号墨田区役所内","lat":35.710722,"lon":139.801497},{"name":"向島保健センター","province":"東京都","city":"墨田区","address":"墨田区東向島五丁目16番2号","lat":35.725863,"lon":139.821147},{"name":"本所保健センター","province":"東京都","city":"墨田区","address":"墨田区東駒形一丁目6番4号","lat":35.705436,"lon":139.798058},{"name":"墨田区休日応急診療所","province":"東京都","city":"墨田区","address":"墨田区向島三丁目36番7号すみだ福祉保健センター内","lat":35.713317,"lon":139.810828},{"name":"すみだ平日夜間救急こどもクリニック","province":"東京都","city":"墨田区","address":"墨田区横網二丁目1番11号同愛記念病院1階救急外来内","lat":35.699784,"lon":139.794502},{"name":"東京都立墨東病院","province":"東京都","city":"墨田区","address":"墨田区江東橋四丁目23番15号","lat":35.694673,"lon":139.818436},{"name":"社会福祉法人賛育会 賛育会病院","province":"東京都","city":"墨田区","address":"墨田区太平三丁目20番2号","lat":35.702404,"lon":139.814125},{"name":"同愛記念病院","province":"東京都","city":"墨田区","address":"墨田区横網二丁目1番11号","lat":35.699812,"lon":139.794349},{"name":"医療法人財団正明会 山田記念病院","province":"東京都","city":"墨田区","address":"墨田区石原二丁目20番1号","lat":35.700995,"lon":139.800764},{"name":"医療法人伯鳳会 東京曳舟病院","province":"東京都","city":"墨田区","address":"墨田区東向島二丁目27番1号","lat":35.717706,"lon":139.817028},{"name":"医療法人社団隆靖会 墨田中央病院","province":"東京都","city":"墨田区","address":"墨田区京島三丁目67番1号","lat":35.713006,"lon":139.826341},{"name":"東京都済生会 向島病院","province":"東京都","city":"墨田区","address":"墨田区八広一丁目5番10号","lat":35.720624,"lon":139.822283},{"name":"医療法人社団仁寿会 中村病院","province":"東京都","city":"墨田区","address":"墨田区八広二丁目1番1号","lat":35.717419,"lon":139.823686},{"name":"東京都リハビリテーション病院","province":"東京都","city":"墨田区","address":"墨田区堤通二丁目14番1号","lat":35.735863,"lon":139.815807},{"name":"湘南メディカル記念病院","province":"東京都","city":"墨田区","address":"墨田区両国二丁目21番1号","lat":35.695552,"lon":139.792458},{"name":"医療法人社団 中林病院","province":"東京都","city":"墨田区","address":"墨田区東向島三丁目29番9号","lat":35.723617,"lon":139.814957},{"name":"医療法人社団敬智会 梶原病院","province":"東京都","city":"墨田区","address":"墨田区墨田三丁目31番12号","lat":35.732322,"lon":139.820372}]}