{"keyword":"破損","data":[{"name":"言問橋東詰","province":"東京都","city":"墨田区","address":"東京都墨田区向島1丁目5-6","lat":35.71296269,"lon":139.80529822},{"name":"錦糸町駅前","province":"東京都","city":"墨田区","address":"東京都墨田区江東橋3丁目14-5","lat":35.69643352,"lon":139.81393804},{"name":"緑三丁目","province":"東京都","city":"墨田区","address":"東京都墨田区緑3丁目11-5","lat":35.69483935,"lon":139.8052505},{"name":"向島三丁目","province":"東京都","city":"墨田区","address":"東京都墨田区向島4丁目1-1","lat":35.71578252,"lon":139.81036196},{"name":"両国二丁目","province":"東京都","city":"墨田区","address":"東京都墨田区両国2丁目10-8","lat":35.69390891,"lon":139.79173237},{"name":"菊川二丁目","province":"東京都","city":"墨田区","address":"東京都墨田区菊川2丁目6-11","lat":35.68858743,"lon":139.80581487},{"name":"石原一丁目","province":"東京都","city":"墨田区","address":"東京都墨田区横網2丁目4-11","lat":35.70047765,"lon":139.79677302},{"name":"本所一丁目","province":"東京都","city":"墨田区","address":"東京都墨田区本所1丁目4-10","lat":35.70358282,"lon":139.79663645},{"name":"吾妻橋三丁目","province":"東京都","city":"墨田区","address":"東京都墨田区吾妻橋3丁目7-1","lat":35.70885733,"lon":139.8044403},{"name":"亀沢四丁目","province":"東京都","city":"墨田区","address":"東京都墨田区亀沢4丁目11-6","lat":35.69718074,"lon":139.80547237},{"name":"吾妻橋五差路","province":"東京都","city":"墨田区","address":"東京都墨田区吾妻橋2丁目4-1","lat":35.70888232,"lon":139.80236003},{"name":"向島五丁目","province":"東京都","city":"墨田区","address":"東京都墨田区向島4丁目8-1","lat":35.7169299,"lon":139.81198973},{"name":"石原四丁目","province":"東京都","city":"墨田区","address":"東京都墨田区石原4丁目1-1","lat":35.6992055,"lon":139.80531657},{"name":"錦糸町駅南口","province":"東京都","city":"墨田区","address":"東京都墨田区江東橋3丁目13-1","lat":35.69586694,"lon":139.81362423},{"name":"曳舟川通り西","province":"東京都","city":"墨田区","address":"東京都墨田区押上2丁目1-1","lat":35.71079886,"lon":139.80891988},{"name":"吾妻橋東詰","province":"東京都","city":"墨田区","address":"東京都墨田区吾妻橋1丁目12-15","lat":35.70809627,"lon":139.79825794},{"name":"江戸東京博物館前","province":"東京都","city":"墨田区","address":"東京都墨田区横網1丁目5-1","lat":35.69762521,"lon":139.7971151},{"name":"長崎橋東詰","province":"東京都","city":"墨田区","address":"東京都墨田区錦糸1丁目17-10","lat":35.69788896,"lon":139.80895792},{"name":"押上二丁目","province":"東京都","city":"墨田区","address":"東京都墨田区押上2丁目20-14","lat":35.71371045,"lon":139.81295033},{"name":"横網公園前","province":"東京都","city":"墨田区","address":"東京都墨田区横網2丁目3","lat":35.69926945,"lon":139.79650933},{"name":"墨田中学校前","province":"東京都","city":"墨田区","address":"東京都墨田区向島4丁目28-1","lat":35.71407153,"lon":139.81255041},{"name":"錦糸公園前","province":"東京都","city":"墨田区","address":"東京都墨田区錦糸3丁目4-9","lat":35.6979833,"lon":139.81474616},{"name":"牛島神社前","province":"東京都","city":"墨田区","address":"東京都墨田区向島1丁目6-9","lat":35.711971,"lon":139.80486209},{"name":"秋葉神社前","province":"東京都","city":"墨田区","address":"東京都墨田区向島5丁目37-4","lat":35.71760495,"lon":139.81249254},{"name":"曳舟川通り第二","province":"東京都","city":"墨田区","address":"東京都墨田区向島3丁目43-10","lat":35.71162665,"lon":139.80970857},{"name":"錦糸町駅前第二","province":"東京都","city":"墨田区","address":"東京都墨田区江東橋4丁目29-15","lat":35.6960169,"lon":139.81651829},{"name":"高速駒形入口","province":"東京都","city":"墨田区","address":"東京都墨田区東駒形1丁目15-2","lat":35.70625478,"lon":139.79821929},{"name":"東京スカイツリー駅前","province":"東京都","city":"墨田区","address":"東京都墨田区押上1丁目1-2","lat":35.71005462,"lon":139.81070876},{"name":"石原四丁目第二","province":"東京都","city":"墨田区","address":"東京都墨田区石原4丁目26-1","lat":35.70087475,"lon":139.80633565},{"name":"千歳三丁目","province":"東京都","city":"墨田区","address":"東京都墨田区千歳3丁目6-6","lat":35.6902762,"lon":139.79780514},{"name":"小梅通り西","province":"東京都","city":"墨田区","address":"東京都墨田区向島3丁目45-1","lat":35.71152381,"lon":139.80867257},{"name":"錦糸町駅ガード南","province":"東京都","city":"墨田区","address":"東京都墨田区江東橋4丁目27-14","lat":35.69632797,"lon":139.81565727},{"name":"本所一之橋北詰","province":"東京都","city":"墨田区","address":"東京都墨田区両国2丁目1-3","lat":35.69205637,"lon":139.79178259},{"name":"すみだ共生社会推進センター","province":"東京都","city":"墨田区","address":"東京都墨田区向島3丁目39-19","lat":35.71293249,"lon":139.81156977},{"name":"向島交番前","province":"東京都","city":"墨田区","address":"東京都墨田区向島4丁目1-5","lat":35.71615479,"lon":139.81085363},{"name":"枕橋","province":"東京都","city":"墨田区","address":"東京都墨田区吾妻橋2丁目19-7","lat":35.71097102,"lon":139.80224865},{"name":"両国駅西口第二","province":"東京都","city":"墨田区","address":"東京都墨田区両国2丁目13-6","lat":35.69576978,"lon":139.7915877},{"name":"清平橋西","province":"東京都","city":"墨田区","address":"東京都墨田区石原4丁目11-13","lat":35.69930825,"lon":139.80733851},{"name":"八反目東第二","province":"東京都","city":"墨田区","address":"東京都墨田区向島3丁目44-10","lat":35.71187387,"lon":139.80959473},{"name":"福祉保健センター前","province":"東京都","city":"墨田区","address":"東京都墨田区向島3丁目40-7","lat":35.71289911,"lon":139.81113646},{"name":"墨田リバーピア前","province":"東京都","city":"墨田区","address":"東京都墨田区吾妻橋1丁目22-7","lat":35.70991834,"lon":139.80199884},{"name":"東向島","province":"東京都","city":"墨田区","address":"東京都墨田区東向島4丁目26-7","lat":35.72272992,"lon":139.81843096},{"name":"四ツ木橋南詰","province":"東京都","city":"墨田区","address":"東京都墨田区墨田4丁目54","lat":35.72883509,"lon":139.82489398},{"name":"東向島三丁目","province":"東京都","city":"墨田区","address":"東京都墨田区東向島2丁目23-5","lat":35.72041618,"lon":139.81628397},{"name":"白鬚橋東詰","province":"東京都","city":"墨田区","address":"東京都墨田区東向島4丁目1-7","lat":35.72769889,"lon":139.81332658},{"name":"仲居堀","province":"東京都","city":"墨田区","address":"東京都墨田区文花3丁目16-5","lat":35.7128443,"lon":139.8271685},{"name":"小村井","province":"東京都","city":"墨田区","address":"東京都墨田区立花4丁目1-5","lat":35.71096092,"lon":139.82908505},{"name":"京島","province":"東京都","city":"墨田区","address":"東京都墨田区京島1丁目53-12","lat":35.71734424,"lon":139.82299402},{"name":"東向島六丁目","province":"東京都","city":"墨田区","address":"東京都墨田区東向島5丁目18-1","lat":35.7259436,"lon":139.82155274},{"name":"曳舟川","province":"東京都","city":"墨田区","address":"東京都墨田区東向島2丁目41-11","lat":35.72039126,"lon":139.82010007},{"name":"更正橋","province":"東京都","city":"墨田区","address":"東京都墨田区八広5丁目12-13","lat":35.72742135,"lon":139.82628826},{"name":"曳舟","province":"東京都","city":"墨田区","address":"東京都墨田区東向島2丁目31-15","lat":35.71844687,"lon":139.81811136},{"name":"白鬚橋交番前","province":"東京都","city":"墨田区","address":"東京都墨田区堤通2丁目3-2","lat":35.72869044,"lon":139.81288497},{"name":"東向島二丁目","province":"東京都","city":"墨田区","address":"東京都墨田区東向島2丁目21-2","lat":35.71962175,"lon":139.81537016},{"name":"京島二丁目","province":"東京都","city":"墨田区","address":"東京都墨田区京島1丁目27-4","lat":35.71593046,"lon":139.820036},{"name":"東向島一丁目","province":"東京都","city":"墨田区","address":"東京都墨田区東向島2丁目1-17","lat":35.71792724,"lon":139.81358967},{"name":"押上二丁目北","province":"東京都","city":"墨田区","address":"東京都墨田区東向島2丁目12-9","lat":35.71627736,"lon":139.81555038},{"name":"吾嬬西公園前","province":"東京都","city":"墨田区","address":"東京都墨田区八広6丁目53-16","lat":35.72424908,"lon":139.83025702},{"name":"八広六丁目","province":"東京都","city":"墨田区","address":"東京都墨田区八広6丁目29-8","lat":35.72690473,"lon":139.82919342},{"name":"高木神社入口","province":"東京都","city":"墨田区","address":"東京都墨田区東向島2丁目11-17","lat":35.71554674,"lon":139.81468372},{"name":"十間橋北","province":"東京都","city":"墨田区","address":"東京都墨田区文花1丁目1-5","lat":35.70885807,"lon":139.81870855},{"name":"八広一丁目","province":"東京都","city":"墨田区","address":"東京都墨田区八広1丁目7-1","lat":35.72122734,"lon":139.82175262},{"name":"曳舟小学校角","province":"東京都","city":"墨田区","address":"東京都墨田区京島3丁目9-7","lat":35.71656384,"lon":139.82213857},{"name":"八広小前","province":"東京都","city":"墨田区","address":"東京都墨田区八広6丁目9-14","lat":35.72731304,"lon":139.82709371},{"name":"東向島一丁目第二","province":"東京都","city":"墨田区","address":"東京都墨田区東向島2丁目20-1","lat":35.71878006,"lon":139.8144702},{"name":"曳舟文化センター","province":"東京都","city":"墨田区","address":"東京都墨田区京島1丁目38-11","lat":35.71831636,"lon":139.81876127},{"name":"墨田特別支援学校南","province":"東京都","city":"墨田区","address":"東京都墨田区東向島6丁目45","lat":35.72467145,"lon":139.82349966},{"name":"長浦神社前","province":"東京都","city":"墨田区","address":"東京都墨田区東向島6丁目27-7","lat":35.72352711,"lon":139.82273307},{"name":"東あづま駅前","province":"東京都","city":"墨田区","address":"東京都墨田区立花3丁目13-4","lat":35.70697755,"lon":139.83248773},{"name":"東向島四丁目","province":"東京都","city":"墨田区","address":"東京都墨田区東向島4丁目20-20","lat":35.72537966,"lon":139.81565934},{"name":"京成曳舟駅前","province":"東京都","city":"墨田区","address":"東京都墨田区京島1丁目43","lat":35.71936079,"lon":139.82040277},{"name":"平井橋第一公園前","province":"東京都","city":"墨田区","address":"東京都墨田区立花4丁目30-17","lat":35.71011618,"lon":139.83457064},{"name":"墨田特別支援学校北","province":"東京都","city":"墨田区","address":"東京都墨田区東向島6丁目56-9","lat":35.72597138,"lon":139.82461065},{"name":"墨田生涯学習センター前","province":"東京都","city":"墨田区","address":"東京都墨田区東向島6丁目6-12","lat":35.72145228,"lon":139.81971127},{"name":"墨田特別支援学校前","province":"東京都","city":"墨田区","address":"東京都墨田区八広5丁目9","lat":35.7235048,"lon":139.82482722},{"name":"白鬚橋東詰第二","province":"東京都","city":"墨田区","address":"東京都墨田区堤通2丁目3-1","lat":35.72857378,"lon":139.81259338},{"name":"曳舟交番前","province":"東京都","city":"墨田区","address":"東京都墨田区東向島2丁目27-1","lat":35.71769963,"lon":139.81702811},{"name":"墨田川高校前","province":"東京都","city":"墨田区","address":"東京都墨田区東向島3丁目37-7","lat":35.72178275,"lon":139.81717279},{"name":"東向島五丁目北","province":"東京都","city":"墨田区","address":"東京都墨田区東向島5丁目22-7","lat":35.72698798,"lon":139.823022},{"name":"向島消防署前","province":"東京都","city":"墨田区","address":"東京都墨田区東向島6丁目22-3","lat":35.723566,"lon":139.81996685},{"name":"白鬚公園南","province":"東京都","city":"墨田区","address":"東京都墨田区墨田1丁目4-2","lat":35.72907095,"lon":139.81423744},{"name":"区立文花公園","province":"東京都","city":"墨田区","address":"東京都墨田区文花1丁目27-5","lat":35.7094556,"lon":139.82244155},{"name":"区立両国公園","province":"東京都","city":"墨田区","address":"東京都墨田区両国4丁目25-3","lat":35.6937507,"lon":139.79611856},{"name":"白鬚東地区防災拠点","province":"東京都","city":"墨田区","address":"東京都墨田区堤通2丁目","lat":35.73410354,"lon":139.81657811},{"name":"３墨田清掃工場","province":"東京都","city":"墨田区","address":"東京都墨田区東墨田1丁目10-23","lat":35.7174879,"lon":139.83172056},{"name":"言問橋東詰","province":"東京都","city":"墨田区","address":"東京都墨田区向島1丁目5-6","lat":35.71296269,"lon":139.80529822},{"name":"錦糸町駅前","province":"東京都","city":"墨田区","address":"東京都墨田区江東橋3丁目14-5","lat":35.69643352,"lon":139.81393804},{"name":"緑三丁目","province":"東京都","city":"墨田区","address":"東京都墨田区緑3丁目11-5","lat":35.69483935,"lon":139.8052505},{"name":"向島三丁目","province":"東京都","city":"墨田区","address":"東京都墨田区向島4丁目1-1","lat":35.71578252,"lon":139.81036196},{"name":"両国二丁目","province":"東京都","city":"墨田区","address":"東京都墨田区両国2丁目10-8","lat":35.69390891,"lon":139.79173237},{"name":"菊川二丁目","province":"東京都","city":"墨田区","address":"東京都墨田区菊川2丁目6-11","lat":35.68858743,"lon":139.80581487},{"name":"石原一丁目","province":"東京都","city":"墨田区","address":"東京都墨田区横網2丁目4-11","lat":35.70047765,"lon":139.79677302},{"name":"本所一丁目","province":"東京都","city":"墨田区","address":"東京都墨田区本所1丁目4-10","lat":35.70358282,"lon":139.79663645},{"name":"吾妻橋三丁目","province":"東京都","city":"墨田区","address":"東京都墨田区吾妻橋3丁目7-1","lat":35.70885733,"lon":139.8044403},{"name":"亀沢四丁目","province":"東京都","city":"墨田区","address":"東京都墨田区亀沢4丁目11-6","lat":35.69718074,"lon":139.80547237},{"name":"吾妻橋五差路","province":"東京都","city":"墨田区","address":"東京都墨田区吾妻橋2丁目4-1","lat":35.70888232,"lon":139.80236003},{"name":"向島五丁目","province":"東京都","city":"墨田区","address":"東京都墨田区向島4丁目8-1","lat":35.7169299,"lon":139.81198973},{"name":"石原四丁目","province":"東京都","city":"墨田区","address":"東京都墨田区石原4丁目1-1","lat":35.6992055,"lon":139.80531657},{"name":"錦糸町駅南口","province":"東京都","city":"墨田区","address":"東京都墨田区江東橋3丁目13-1","lat":35.69586694,"lon":139.81362423},{"name":"曳舟川通り西","province":"東京都","city":"墨田区","address":"東京都墨田区押上2丁目1-1","lat":35.71079886,"lon":139.80891988},{"name":"吾妻橋東詰","province":"東京都","city":"墨田区","address":"東京都墨田区吾妻橋1丁目12-15","lat":35.70809627,"lon":139.79825794},{"name":"江戸東京博物館前","province":"東京都","city":"墨田区","address":"東京都墨田区横網1丁目5-1","lat":35.69762521,"lon":139.7971151},{"name":"長崎橋東詰","province":"東京都","city":"墨田区","address":"東京都墨田区錦糸1丁目17-10","lat":35.69788896,"lon":139.80895792},{"name":"押上二丁目","province":"東京都","city":"墨田区","address":"東京都墨田区押上2丁目20-14","lat":35.71371045,"lon":139.81295033},{"name":"横網公園前","province":"東京都","city":"墨田区","address":"東京都墨田区横網2丁目3","lat":35.69926945,"lon":139.79650933},{"name":"墨田中学校前","province":"東京都","city":"墨田区","address":"東京都墨田区向島4丁目28-1","lat":35.71407153,"lon":139.81255041},{"name":"錦糸公園前","province":"東京都","city":"墨田区","address":"東京都墨田区錦糸3丁目4-9","lat":35.6979833,"lon":139.81474616},{"name":"牛島神社前","province":"東京都","city":"墨田区","address":"東京都墨田区向島1丁目6-9","lat":35.711971,"lon":139.80486209},{"name":"秋葉神社前","province":"東京都","city":"墨田区","address":"東京都墨田区向島5丁目37-4","lat":35.71760495,"lon":139.81249254},{"name":"曳舟川通り第二","province":"東京都","city":"墨田区","address":"東京都墨田区向島3丁目43-10","lat":35.71162665,"lon":139.80970857},{"name":"錦糸町駅前第二","province":"東京都","city":"墨田区","address":"東京都墨田区江東橋4丁目29-15","lat":35.6960169,"lon":139.81651829},{"name":"高速駒形入口","province":"東京都","city":"墨田区","address":"東京都墨田区東駒形1丁目15-2","lat":35.70625478,"lon":139.79821929},{"name":"東京スカイツリー駅前","province":"東京都","city":"墨田区","address":"東京都墨田区押上1丁目1-2","lat":35.71005462,"lon":139.81070876},{"name":"石原四丁目第二","province":"東京都","city":"墨田区","address":"東京都墨田区石原4丁目26-1","lat":35.70087475,"lon":139.80633565},{"name":"千歳三丁目","province":"東京都","city":"墨田区","address":"東京都墨田区千歳3丁目6-6","lat":35.6902762,"lon":139.79780514},{"name":"小梅通り西","province":"東京都","city":"墨田区","address":"東京都墨田区向島3丁目45-1","lat":35.71152381,"lon":139.80867257},{"name":"錦糸町駅ガード南","province":"東京都","city":"墨田区","address":"東京都墨田区江東橋4丁目27-14","lat":35.69632797,"lon":139.81565727},{"name":"本所一之橋北詰","province":"東京都","city":"墨田区","address":"東京都墨田区両国2丁目1-3","lat":35.69205637,"lon":139.79178259},{"name":"すみだ共生社会推進センター","province":"東京都","city":"墨田区","address":"東京都墨田区向島3丁目39-19","lat":35.71293249,"lon":139.81156977},{"name":"向島交番前","province":"東京都","city":"墨田区","address":"東京都墨田区向島4丁目1-5","lat":35.71615479,"lon":139.81085363},{"name":"枕橋","province":"東京都","city":"墨田区","address":"東京都墨田区吾妻橋2丁目19-7","lat":35.71097102,"lon":139.80224865},{"name":"両国駅西口第二","province":"東京都","city":"墨田区","address":"東京都墨田区両国2丁目13-6","lat":35.69576978,"lon":139.7915877},{"name":"清平橋西","province":"東京都","city":"墨田区","address":"東京都墨田区石原4丁目11-13","lat":35.69930825,"lon":139.80733851},{"name":"八反目東第二","province":"東京都","city":"墨田区","address":"東京都墨田区向島3丁目44-10","lat":35.71187387,"lon":139.80959473},{"name":"福祉保健センター前","province":"東京都","city":"墨田区","address":"東京都墨田区向島3丁目40-7","lat":35.71289911,"lon":139.81113646},{"name":"墨田リバーピア前","province":"東京都","city":"墨田区","address":"東京都墨田区吾妻橋1丁目22-7","lat":35.70991834,"lon":139.80199884},{"name":"東向島","province":"東京都","city":"墨田区","address":"東京都墨田区東向島4丁目26-7","lat":35.72272992,"lon":139.81843096},{"name":"四ツ木橋南詰","province":"東京都","city":"墨田区","address":"東京都墨田区墨田4丁目54","lat":35.72883509,"lon":139.82489398},{"name":"東向島三丁目","province":"東京都","city":"墨田区","address":"東京都墨田区東向島2丁目23-5","lat":35.72041618,"lon":139.81628397},{"name":"白鬚橋東詰","province":"東京都","city":"墨田区","address":"東京都墨田区東向島4丁目1-7","lat":35.72769889,"lon":139.81332658},{"name":"仲居堀","province":"東京都","city":"墨田区","address":"東京都墨田区文花3丁目16-5","lat":35.7128443,"lon":139.8271685},{"name":"小村井","province":"東京都","city":"墨田区","address":"東京都墨田区立花4丁目1-5","lat":35.71096092,"lon":139.82908505},{"name":"京島","province":"東京都","city":"墨田区","address":"東京都墨田区京島1丁目53-12","lat":35.71734424,"lon":139.82299402},{"name":"東向島六丁目","province":"東京都","city":"墨田区","address":"東京都墨田区東向島5丁目18-1","lat":35.7259436,"lon":139.82155274},{"name":"曳舟川","province":"東京都","city":"墨田区","address":"東京都墨田区東向島2丁目41-11","lat":35.72039126,"lon":139.82010007},{"name":"更正橋","province":"東京都","city":"墨田区","address":"東京都墨田区八広5丁目12-13","lat":35.72742135,"lon":139.82628826},{"name":"曳舟","province":"東京都","city":"墨田区","address":"東京都墨田区東向島2丁目31-15","lat":35.71844687,"lon":139.81811136},{"name":"白鬚橋交番前","province":"東京都","city":"墨田区","address":"東京都墨田区堤通2丁目3-2","lat":35.72869044,"lon":139.81288497},{"name":"東向島二丁目","province":"東京都","city":"墨田区","address":"東京都墨田区東向島2丁目21-2","lat":35.71962175,"lon":139.81537016},{"name":"京島二丁目","province":"東京都","city":"墨田区","address":"東京都墨田区京島1丁目27-4","lat":35.71593046,"lon":139.820036},{"name":"東向島一丁目","province":"東京都","city":"墨田区","address":"東京都墨田区東向島2丁目1-17","lat":35.71792724,"lon":139.81358967},{"name":"押上二丁目北","province":"東京都","city":"墨田区","address":"東京都墨田区東向島2丁目12-9","lat":35.71627736,"lon":139.81555038},{"name":"吾嬬西公園前","province":"東京都","city":"墨田区","address":"東京都墨田区八広6丁目53-16","lat":35.72424908,"lon":139.83025702},{"name":"八広六丁目","province":"東京都","city":"墨田区","address":"東京都墨田区八広6丁目29-8","lat":35.72690473,"lon":139.82919342},{"name":"高木神社入口","province":"東京都","city":"墨田区","address":"東京都墨田区東向島2丁目11-17","lat":35.71554674,"lon":139.81468372},{"name":"十間橋北","province":"東京都","city":"墨田区","address":"東京都墨田区文花1丁目1-5","lat":35.70885807,"lon":139.81870855},{"name":"八広一丁目","province":"東京都","city":"墨田区","address":"東京都墨田区八広1丁目7-1","lat":35.72122734,"lon":139.82175262},{"name":"曳舟小学校角","province":"東京都","city":"墨田区","address":"東京都墨田区京島3丁目9-7","lat":35.71656384,"lon":139.82213857},{"name":"八広小前","province":"東京都","city":"墨田区","address":"東京都墨田区八広6丁目9-14","lat":35.72731304,"lon":139.82709371},{"name":"東向島一丁目第二","province":"東京都","city":"墨田区","address":"東京都墨田区東向島2丁目20-1","lat":35.71878006,"lon":139.8144702},{"name":"曳舟文化センター","province":"東京都","city":"墨田区","address":"東京都墨田区京島1丁目38-11","lat":35.71831636,"lon":139.81876127},{"name":"墨田特別支援学校南","province":"東京都","city":"墨田区","address":"東京都墨田区東向島6丁目45","lat":35.72467145,"lon":139.82349966},{"name":"長浦神社前","province":"東京都","city":"墨田区","address":"東京都墨田区東向島6丁目27-7","lat":35.72352711,"lon":139.82273307},{"name":"東あづま駅前","province":"東京都","city":"墨田区","address":"東京都墨田区立花3丁目13-4","lat":35.70697755,"lon":139.83248773},{"name":"東向島四丁目","province":"東京都","city":"墨田区","address":"東京都墨田区東向島4丁目20-20","lat":35.72537966,"lon":139.81565934},{"name":"京成曳舟駅前","province":"東京都","city":"墨田区","address":"東京都墨田区京島1丁目43","lat":35.71936079,"lon":139.82040277},{"name":"平井橋第一公園前","province":"東京都","city":"墨田区","address":"東京都墨田区立花4丁目30-17","lat":35.71011618,"lon":139.83457064},{"name":"墨田特別支援学校北","province":"東京都","city":"墨田区","address":"東京都墨田区東向島6丁目56-9","lat":35.72597138,"lon":139.82461065},{"name":"墨田生涯学習センター前","province":"東京都","city":"墨田区","address":"東京都墨田区東向島6丁目6-12","lat":35.72145228,"lon":139.81971127},{"name":"墨田特別支援学校前","province":"東京都","city":"墨田区","address":"東京都墨田区八広5丁目9","lat":35.7235048,"lon":139.82482722},{"name":"白鬚橋東詰第二","province":"東京都","city":"墨田区","address":"東京都墨田区堤通2丁目3-1","lat":35.72857378,"lon":139.81259338},{"name":"曳舟交番前","province":"東京都","city":"墨田区","address":"東京都墨田区東向島2丁目27-1","lat":35.71769963,"lon":139.81702811},{"name":"墨田川高校前","province":"東京都","city":"墨田区","address":"東京都墨田区東向島3丁目37-7","lat":35.72178275,"lon":139.81717279},{"name":"東向島五丁目北","province":"東京都","city":"墨田区","address":"東京都墨田区東向島5丁目22-7","lat":35.72698798,"lon":139.823022},{"name":"向島消防署前","province":"東京都","city":"墨田区","address":"東京都墨田区東向島6丁目22-3","lat":35.723566,"lon":139.81996685},{"name":"白鬚公園南","province":"東京都","city":"墨田区","address":"東京都墨田区墨田1丁目4-2","lat":35.72907095,"lon":139.81423744},{"name":"区立文花公園","province":"東京都","city":"墨田区","address":"東京都墨田区文花1丁目27-5","lat":35.7094556,"lon":139.82244155},{"name":"区立両国公園","province":"東京都","city":"墨田区","address":"東京都墨田区両国4丁目25-3","lat":35.6937507,"lon":139.79611856},{"name":"白鬚東地区防災拠点","province":"東京都","city":"墨田区","address":"東京都墨田区堤通2丁目","lat":35.73410354,"lon":139.81657811},{"name":"３墨田清掃工場","province":"東京都","city":"墨田区","address":"東京都墨田区東墨田1丁目10-23","lat":35.7174879,"lon":139.83172056},{"name":"言問橋東詰","province":"東京都","city":"墨田区","address":"東京都墨田区向島1丁目5-6","lat":35.71296269,"lon":139.80529822},{"name":"錦糸町駅前","province":"東京都","city":"墨田区","address":"東京都墨田区江東橋3丁目14-5","lat":35.69643352,"lon":139.81393804},{"name":"緑三丁目","province":"東京都","city":"墨田区","address":"東京都墨田区緑3丁目11-5","lat":35.69483935,"lon":139.8052505},{"name":"向島三丁目","province":"東京都","city":"墨田区","address":"東京都墨田区向島4丁目1-1","lat":35.71578252,"lon":139.81036196},{"name":"両国二丁目","province":"東京都","city":"墨田区","address":"東京都墨田区両国2丁目10-8","lat":35.69390891,"lon":139.79173237},{"name":"菊川二丁目","province":"東京都","city":"墨田区","address":"東京都墨田区菊川2丁目6-11","lat":35.68858743,"lon":139.80581487},{"name":"石原一丁目","province":"東京都","city":"墨田区","address":"東京都墨田区横網2丁目4-11","lat":35.70047765,"lon":139.79677302},{"name":"本所一丁目","province":"東京都","city":"墨田区","address":"東京都墨田区本所1丁目4-10","lat":35.70358282,"lon":139.79663645},{"name":"吾妻橋三丁目","province":"東京都","city":"墨田区","address":"東京都墨田区吾妻橋3丁目7-1","lat":35.70885733,"lon":139.8044403},{"name":"亀沢四丁目","province":"東京都","city":"墨田区","address":"東京都墨田区亀沢4丁目11-6","lat":35.69718074,"lon":139.80547237},{"name":"吾妻橋五差路","province":"東京都","city":"墨田区","address":"東京都墨田区吾妻橋2丁目4-1","lat":35.70888232,"lon":139.80236003},{"name":"向島五丁目","province":"東京都","city":"墨田区","address":"東京都墨田区向島4丁目8-1","lat":35.7169299,"lon":139.81198973},{"name":"石原四丁目","province":"東京都","city":"墨田区","address":"東京都墨田区石原4丁目1-1","lat":35.6992055,"lon":139.80531657},{"name":"錦糸町駅南口","province":"東京都","city":"墨田区","address":"東京都墨田区江東橋3丁目13-1","lat":35.69586694,"lon":139.81362423},{"name":"曳舟川通り西","province":"東京都","city":"墨田区","address":"東京都墨田区押上2丁目1-1","lat":35.71079886,"lon":139.80891988},{"name":"吾妻橋東詰","province":"東京都","city":"墨田区","address":"東京都墨田区吾妻橋1丁目12-15","lat":35.70809627,"lon":139.79825794},{"name":"江戸東京博物館前","province":"東京都","city":"墨田区","address":"東京都墨田区横網1丁目5-1","lat":35.69762521,"lon":139.7971151},{"name":"長崎橋東詰","province":"東京都","city":"墨田区","address":"東京都墨田区錦糸1丁目17-10","lat":35.69788896,"lon":139.80895792},{"name":"押上二丁目","province":"東京都","city":"墨田区","address":"東京都墨田区押上2丁目20-14","lat":35.71371045,"lon":139.81295033},{"name":"横網公園前","province":"東京都","city":"墨田区","address":"東京都墨田区横網2丁目3","lat":35.69926945,"lon":139.79650933},{"name":"墨田中学校前","province":"東京都","city":"墨田区","address":"東京都墨田区向島4丁目28-1","lat":35.71407153,"lon":139.81255041},{"name":"錦糸公園前","province":"東京都","city":"墨田区","address":"東京都墨田区錦糸3丁目4-9","lat":35.6979833,"lon":139.81474616},{"name":"牛島神社前","province":"東京都","city":"墨田区","address":"東京都墨田区向島1丁目6-9","lat":35.711971,"lon":139.80486209},{"name":"秋葉神社前","province":"東京都","city":"墨田区","address":"東京都墨田区向島5丁目37-4","lat":35.71760495,"lon":139.81249254},{"name":"曳舟川通り第二","province":"東京都","city":"墨田区","address":"東京都墨田区向島3丁目43-10","lat":35.71162665,"lon":139.80970857},{"name":"錦糸町駅前第二","province":"東京都","city":"墨田区","address":"東京都墨田区江東橋4丁目29-15","lat":35.6960169,"lon":139.81651829},{"name":"高速駒形入口","province":"東京都","city":"墨田区","address":"東京都墨田区東駒形1丁目15-2","lat":35.70625478,"lon":139.79821929},{"name":"東京スカイツリー駅前","province":"東京都","city":"墨田区","address":"東京都墨田区押上1丁目1-2","lat":35.71005462,"lon":139.81070876},{"name":"石原四丁目第二","province":"東京都","city":"墨田区","address":"東京都墨田区石原4丁目26-1","lat":35.70087475,"lon":139.80633565},{"name":"千歳三丁目","province":"東京都","city":"墨田区","address":"東京都墨田区千歳3丁目6-6","lat":35.6902762,"lon":139.79780514},{"name":"小梅通り西","province":"東京都","city":"墨田区","address":"東京都墨田区向島3丁目45-1","lat":35.71152381,"lon":139.80867257},{"name":"錦糸町駅ガード南","province":"東京都","city":"墨田区","address":"東京都墨田区江東橋4丁目27-14","lat":35.69632797,"lon":139.81565727},{"name":"本所一之橋北詰","province":"東京都","city":"墨田区","address":"東京都墨田区両国2丁目1-3","lat":35.69205637,"lon":139.79178259},{"name":"すみだ共生社会推進センター","province":"東京都","city":"墨田区","address":"東京都墨田区向島3丁目39-19","lat":35.71293249,"lon":139.81156977},{"name":"向島交番前","province":"東京都","city":"墨田区","address":"東京都墨田区向島4丁目1-5","lat":35.71615479,"lon":139.81085363},{"name":"枕橋","province":"東京都","city":"墨田区","address":"東京都墨田区吾妻橋2丁目19-7","lat":35.71097102,"lon":139.80224865},{"name":"両国駅西口第二","province":"東京都","city":"墨田区","address":"東京都墨田区両国2丁目13-6","lat":35.69576978,"lon":139.7915877},{"name":"清平橋西","province":"東京都","city":"墨田区","address":"東京都墨田区石原4丁目11-13","lat":35.69930825,"lon":139.80733851},{"name":"八反目東第二","province":"東京都","city":"墨田区","address":"東京都墨田区向島3丁目44-10","lat":35.71187387,"lon":139.80959473},{"name":"福祉保健センター前","province":"東京都","city":"墨田区","address":"東京都墨田区向島3丁目40-7","lat":35.71289911,"lon":139.81113646},{"name":"墨田リバーピア前","province":"東京都","city":"墨田区","address":"東京都墨田区吾妻橋1丁目22-7","lat":35.70991834,"lon":139.80199884},{"name":"東向島","province":"東京都","city":"墨田区","address":"東京都墨田区東向島4丁目26-7","lat":35.72272992,"lon":139.81843096},{"name":"四ツ木橋南詰","province":"東京都","city":"墨田区","address":"東京都墨田区墨田4丁目54","lat":35.72883509,"lon":139.82489398},{"name":"東向島三丁目","province":"東京都","city":"墨田区","address":"東京都墨田区東向島2丁目23-5","lat":35.72041618,"lon":139.81628397},{"name":"白鬚橋東詰","province":"東京都","city":"墨田区","address":"東京都墨田区東向島4丁目1-7","lat":35.72769889,"lon":139.81332658},{"name":"仲居堀","province":"東京都","city":"墨田区","address":"東京都墨田区文花3丁目16-5","lat":35.7128443,"lon":139.8271685},{"name":"小村井","province":"東京都","city":"墨田区","address":"東京都墨田区立花4丁目1-5","lat":35.71096092,"lon":139.82908505},{"name":"京島","province":"東京都","city":"墨田区","address":"東京都墨田区京島1丁目53-12","lat":35.71734424,"lon":139.82299402},{"name":"東向島六丁目","province":"東京都","city":"墨田区","address":"東京都墨田区東向島5丁目18-1","lat":35.7259436,"lon":139.82155274},{"name":"曳舟川","province":"東京都","city":"墨田区","address":"東京都墨田区東向島2丁目41-11","lat":35.72039126,"lon":139.82010007},{"name":"更正橋","province":"東京都","city":"墨田区","address":"東京都墨田区八広5丁目12-13","lat":35.72742135,"lon":139.82628826},{"name":"曳舟","province":"東京都","city":"墨田区","address":"東京都墨田区東向島2丁目31-15","lat":35.71844687,"lon":139.81811136},{"name":"白鬚橋交番前","province":"東京都","city":"墨田区","address":"東京都墨田区堤通2丁目3-2","lat":35.72869044,"lon":139.81288497},{"name":"東向島二丁目","province":"東京都","city":"墨田区","address":"東京都墨田区東向島2丁目21-2","lat":35.71962175,"lon":139.81537016},{"name":"京島二丁目","province":"東京都","city":"墨田区","address":"東京都墨田区京島1丁目27-4","lat":35.71593046,"lon":139.820036},{"name":"東向島一丁目","province":"東京都","city":"墨田区","address":"東京都墨田区東向島2丁目1-17","lat":35.71792724,"lon":139.81358967},{"name":"押上二丁目北","province":"東京都","city":"墨田区","address":"東京都墨田区東向島2丁目12-9","lat":35.71627736,"lon":139.81555038},{"name":"吾嬬西公園前","province":"東京都","city":"墨田区","address":"東京都墨田区八広6丁目53-16","lat":35.72424908,"lon":139.83025702},{"name":"八広六丁目","province":"東京都","city":"墨田区","address":"東京都墨田区八広6丁目29-8","lat":35.72690473,"lon":139.82919342},{"name":"高木神社入口","province":"東京都","city":"墨田区","address":"東京都墨田区東向島2丁目11-17","lat":35.71554674,"lon":139.81468372},{"name":"十間橋北","province":"東京都","city":"墨田区","address":"東京都墨田区文花1丁目1-5","lat":35.70885807,"lon":139.81870855},{"name":"八広一丁目","province":"東京都","city":"墨田区","address":"東京都墨田区八広1丁目7-1","lat":35.72122734,"lon":139.82175262},{"name":"曳舟小学校角","province":"東京都","city":"墨田区","address":"東京都墨田区京島3丁目9-7","lat":35.71656384,"lon":139.82213857},{"name":"八広小前","province":"東京都","city":"墨田区","address":"東京都墨田区八広6丁目9-14","lat":35.72731304,"lon":139.82709371},{"name":"東向島一丁目第二","province":"東京都","city":"墨田区","address":"東京都墨田区東向島2丁目20-1","lat":35.71878006,"lon":139.8144702},{"name":"曳舟文化センター","province":"東京都","city":"墨田区","address":"東京都墨田区京島1丁目38-11","lat":35.71831636,"lon":139.81876127},{"name":"墨田特別支援学校南","province":"東京都","city":"墨田区","address":"東京都墨田区東向島6丁目45","lat":35.72467145,"lon":139.82349966},{"name":"長浦神社前","province":"東京都","city":"墨田区","address":"東京都墨田区東向島6丁目27-7","lat":35.72352711,"lon":139.82273307},{"name":"東あづま駅前","province":"東京都","city":"墨田区","address":"東京都墨田区立花3丁目13-4","lat":35.70697755,"lon":139.83248773},{"name":"東向島四丁目","province":"東京都","city":"墨田区","address":"東京都墨田区東向島4丁目20-20","lat":35.72537966,"lon":139.81565934},{"name":"京成曳舟駅前","province":"東京都","city":"墨田区","address":"東京都墨田区京島1丁目43","lat":35.71936079,"lon":139.82040277},{"name":"平井橋第一公園前","province":"東京都","city":"墨田区","address":"東京都墨田区立花4丁目30-17","lat":35.71011618,"lon":139.83457064},{"name":"墨田特別支援学校北","province":"東京都","city":"墨田区","address":"東京都墨田区東向島6丁目56-9","lat":35.72597138,"lon":139.82461065},{"name":"墨田生涯学習センター前","province":"東京都","city":"墨田区","address":"東京都墨田区東向島6丁目6-12","lat":35.72145228,"lon":139.81971127},{"name":"墨田特別支援学校前","province":"東京都","city":"墨田区","address":"東京都墨田区八広5丁目9","lat":35.7235048,"lon":139.82482722},{"name":"白鬚橋東詰第二","province":"東京都","city":"墨田区","address":"東京都墨田区堤通2丁目3-1","lat":35.72857378,"lon":139.81259338},{"name":"曳舟交番前","province":"東京都","city":"墨田区","address":"東京都墨田区東向島2丁目27-1","lat":35.71769963,"lon":139.81702811},{"name":"墨田川高校前","province":"東京都","city":"墨田区","address":"東京都墨田区東向島3丁目37-7","lat":35.72178275,"lon":139.81717279},{"name":"東向島五丁目北","province":"東京都","city":"墨田区","address":"東京都墨田区東向島5丁目22-7","lat":35.72698798,"lon":139.823022},{"name":"向島消防署前","province":"東京都","city":"墨田区","address":"東京都墨田区東向島6丁目22-3","lat":35.723566,"lon":139.81996685},{"name":"白鬚公園南","province":"東京都","city":"墨田区","address":"東京都墨田区墨田1丁目4-2","lat":35.72907095,"lon":139.81423744},{"name":"区立文花公園","province":"東京都","city":"墨田区","address":"東京都墨田区文花1丁目27-5","lat":35.7094556,"lon":139.82244155},{"name":"区立両国公園","province":"東京都","city":"墨田区","address":"東京都墨田区両国4丁目25-3","lat":35.6937507,"lon":139.79611856},{"name":"白鬚東地区防災拠点","province":"東京都","city":"墨田区","address":"東京都墨田区堤通2丁目","lat":35.73410354,"lon":139.81657811},{"name":"３墨田清掃工場","province":"東京都","city":"墨田区","address":"東京都墨田区東墨田1丁目10-23","lat":35.7174879,"lon":139.83172056},{"name":"言問橋東詰","province":"東京都","city":"墨田区","address":"東京都墨田区向島1丁目5-6","lat":35.71296269,"lon":139.80529822},{"name":"錦糸町駅前","province":"東京都","city":"墨田区","address":"東京都墨田区江東橋3丁目14-5","lat":35.69643352,"lon":139.81393804},{"name":"緑三丁目","province":"東京都","city":"墨田区","address":"東京都墨田区緑3丁目11-5","lat":35.69483935,"lon":139.8052505},{"name":"向島三丁目","province":"東京都","city":"墨田区","address":"東京都墨田区向島4丁目1-1","lat":35.71578252,"lon":139.81036196},{"name":"両国二丁目","province":"東京都","city":"墨田区","address":"東京都墨田区両国2丁目10-8","lat":35.69390891,"lon":139.79173237},{"name":"菊川二丁目","province":"東京都","city":"墨田区","address":"東京都墨田区菊川2丁目6-11","lat":35.68858743,"lon":139.80581487},{"name":"石原一丁目","province":"東京都","city":"墨田区","address":"東京都墨田区横網2丁目4-11","lat":35.70047765,"lon":139.79677302},{"name":"本所一丁目","province":"東京都","city":"墨田区","address":"東京都墨田区本所1丁目4-10","lat":35.70358282,"lon":139.79663645},{"name":"吾妻橋三丁目","province":"東京都","city":"墨田区","address":"東京都墨田区吾妻橋3丁目7-1","lat":35.70885733,"lon":139.8044403},{"name":"亀沢四丁目","province":"東京都","city":"墨田区","address":"東京都墨田区亀沢4丁目11-6","lat":35.69718074,"lon":139.80547237},{"name":"吾妻橋五差路","province":"東京都","city":"墨田区","address":"東京都墨田区吾妻橋2丁目4-1","lat":35.70888232,"lon":139.80236003},{"name":"向島五丁目","province":"東京都","city":"墨田区","address":"東京都墨田区向島4丁目8-1","lat":35.7169299,"lon":139.81198973},{"name":"石原四丁目","province":"東京都","city":"墨田区","address":"東京都墨田区石原4丁目1-1","lat":35.6992055,"lon":139.80531657},{"name":"錦糸町駅南口","province":"東京都","city":"墨田区","address":"東京都墨田区江東橋3丁目13-1","lat":35.69586694,"lon":139.81362423},{"name":"曳舟川通り西","province":"東京都","city":"墨田区","address":"東京都墨田区押上2丁目1-1","lat":35.71079886,"lon":139.80891988},{"name":"吾妻橋東詰","province":"東京都","city":"墨田区","address":"東京都墨田区吾妻橋1丁目12-15","lat":35.70809627,"lon":139.79825794},{"name":"江戸東京博物館前","province":"東京都","city":"墨田区","address":"東京都墨田区横網1丁目5-1","lat":35.69762521,"lon":139.7971151},{"name":"長崎橋東詰","province":"東京都","city":"墨田区","address":"東京都墨田区錦糸1丁目17-10","lat":35.69788896,"lon":139.80895792},{"name":"押上二丁目","province":"東京都","city":"墨田区","address":"東京都墨田区押上2丁目20-14","lat":35.71371045,"lon":139.81295033},{"name":"横網公園前","province":"東京都","city":"墨田区","address":"東京都墨田区横網2丁目3","lat":35.69926945,"lon":139.79650933},{"name":"墨田中学校前","province":"東京都","city":"墨田区","address":"東京都墨田区向島4丁目28-1","lat":35.71407153,"lon":139.81255041},{"name":"錦糸公園前","province":"東京都","city":"墨田区","address":"東京都墨田区錦糸3丁目4-9","lat":35.6979833,"lon":139.81474616},{"name":"牛島神社前","province":"東京都","city":"墨田区","address":"東京都墨田区向島1丁目6-9","lat":35.711971,"lon":139.80486209},{"name":"秋葉神社前","province":"東京都","city":"墨田区","address":"東京都墨田区向島5丁目37-4","lat":35.71760495,"lon":139.81249254},{"name":"曳舟川通り第二","province":"東京都","city":"墨田区","address":"東京都墨田区向島3丁目43-10","lat":35.71162665,"lon":139.80970857},{"name":"錦糸町駅前第二","province":"東京都","city":"墨田区","address":"東京都墨田区江東橋4丁目29-15","lat":35.6960169,"lon":139.81651829},{"name":"高速駒形入口","province":"東京都","city":"墨田区","address":"東京都墨田区東駒形1丁目15-2","lat":35.70625478,"lon":139.79821929},{"name":"東京スカイツリー駅前","province":"東京都","city":"墨田区","address":"東京都墨田区押上1丁目1-2","lat":35.71005462,"lon":139.81070876},{"name":"石原四丁目第二","province":"東京都","city":"墨田区","address":"東京都墨田区石原4丁目26-1","lat":35.70087475,"lon":139.80633565},{"name":"千歳三丁目","province":"東京都","city":"墨田区","address":"東京都墨田区千歳3丁目6-6","lat":35.6902762,"lon":139.79780514},{"name":"小梅通り西","province":"東京都","city":"墨田区","address":"東京都墨田区向島3丁目45-1","lat":35.71152381,"lon":139.80867257},{"name":"錦糸町駅ガード南","province":"東京都","city":"墨田区","address":"東京都墨田区江東橋4丁目27-14","lat":35.69632797,"lon":139.81565727},{"name":"本所一之橋北詰","province":"東京都","city":"墨田区","address":"東京都墨田区両国2丁目1-3","lat":35.69205637,"lon":139.79178259},{"name":"すみだ共生社会推進センター","province":"東京都","city":"墨田区","address":"東京都墨田区向島3丁目39-19","lat":35.71293249,"lon":139.81156977},{"name":"向島交番前","province":"東京都","city":"墨田区","address":"東京都墨田区向島4丁目1-5","lat":35.71615479,"lon":139.81085363},{"name":"枕橋","province":"東京都","city":"墨田区","address":"東京都墨田区吾妻橋2丁目19-7","lat":35.71097102,"lon":139.80224865},{"name":"両国駅西口第二","province":"東京都","city":"墨田区","address":"東京都墨田区両国2丁目13-6","lat":35.69576978,"lon":139.7915877},{"name":"清平橋西","province":"東京都","city":"墨田区","address":"東京都墨田区石原4丁目11-13","lat":35.69930825,"lon":139.80733851},{"name":"八反目東第二","province":"東京都","city":"墨田区","address":"東京都墨田区向島3丁目44-10","lat":35.71187387,"lon":139.80959473},{"name":"福祉保健センター前","province":"東京都","city":"墨田区","address":"東京都墨田区向島3丁目40-7","lat":35.71289911,"lon":139.81113646},{"name":"墨田リバーピア前","province":"東京都","city":"墨田区","address":"東京都墨田区吾妻橋1丁目22-7","lat":35.70991834,"lon":139.80199884},{"name":"東向島","province":"東京都","city":"墨田区","address":"東京都墨田区東向島4丁目26-7","lat":35.72272992,"lon":139.81843096},{"name":"四ツ木橋南詰","province":"東京都","city":"墨田区","address":"東京都墨田区墨田4丁目54","lat":35.72883509,"lon":139.82489398},{"name":"東向島三丁目","province":"東京都","city":"墨田区","address":"東京都墨田区東向島2丁目23-5","lat":35.72041618,"lon":139.81628397},{"name":"白鬚橋東詰","province":"東京都","city":"墨田区","address":"東京都墨田区東向島4丁目1-7","lat":35.72769889,"lon":139.81332658},{"name":"仲居堀","province":"東京都","city":"墨田区","address":"東京都墨田区文花3丁目16-5","lat":35.7128443,"lon":139.8271685},{"name":"小村井","province":"東京都","city":"墨田区","address":"東京都墨田区立花4丁目1-5","lat":35.71096092,"lon":139.82908505},{"name":"京島","province":"東京都","city":"墨田区","address":"東京都墨田区京島1丁目53-12","lat":35.71734424,"lon":139.82299402},{"name":"東向島六丁目","province":"東京都","city":"墨田区","address":"東京都墨田区東向島5丁目18-1","lat":35.7259436,"lon":139.82155274},{"name":"曳舟川","province":"東京都","city":"墨田区","address":"東京都墨田区東向島2丁目41-11","lat":35.72039126,"lon":139.82010007},{"name":"更正橋","province":"東京都","city":"墨田区","address":"東京都墨田区八広5丁目12-13","lat":35.72742135,"lon":139.82628826},{"name":"曳舟","province":"東京都","city":"墨田区","address":"東京都墨田区東向島2丁目31-15","lat":35.71844687,"lon":139.81811136},{"name":"白鬚橋交番前","province":"東京都","city":"墨田区","address":"東京都墨田区堤通2丁目3-2","lat":35.72869044,"lon":139.81288497},{"name":"東向島二丁目","province":"東京都","city":"墨田区","address":"東京都墨田区東向島2丁目21-2","lat":35.71962175,"lon":139.81537016},{"name":"京島二丁目","province":"東京都","city":"墨田区","address":"東京都墨田区京島1丁目27-4","lat":35.71593046,"lon":139.820036},{"name":"東向島一丁目","province":"東京都","city":"墨田区","address":"東京都墨田区東向島2丁目1-17","lat":35.71792724,"lon":139.81358967},{"name":"押上二丁目北","province":"東京都","city":"墨田区","address":"東京都墨田区東向島2丁目12-9","lat":35.71627736,"lon":139.81555038},{"name":"吾嬬西公園前","province":"東京都","city":"墨田区","address":"東京都墨田区八広6丁目53-16","lat":35.72424908,"lon":139.83025702},{"name":"八広六丁目","province":"東京都","city":"墨田区","address":"東京都墨田区八広6丁目29-8","lat":35.72690473,"lon":139.82919342},{"name":"高木神社入口","province":"東京都","city":"墨田区","address":"東京都墨田区東向島2丁目11-17","lat":35.71554674,"lon":139.81468372},{"name":"十間橋北","province":"東京都","city":"墨田区","address":"東京都墨田区文花1丁目1-5","lat":35.70885807,"lon":139.81870855},{"name":"八広一丁目","province":"東京都","city":"墨田区","address":"東京都墨田区八広1丁目7-1","lat":35.72122734,"lon":139.82175262},{"name":"曳舟小学校角","province":"東京都","city":"墨田区","address":"東京都墨田区京島3丁目9-7","lat":35.71656384,"lon":139.82213857},{"name":"八広小前","province":"東京都","city":"墨田区","address":"東京都墨田区八広6丁目9-14","lat":35.72731304,"lon":139.82709371},{"name":"東向島一丁目第二","province":"東京都","city":"墨田区","address":"東京都墨田区東向島2丁目20-1","lat":35.71878006,"lon":139.8144702},{"name":"曳舟文化センター","province":"東京都","city":"墨田区","address":"東京都墨田区京島1丁目38-11","lat":35.71831636,"lon":139.81876127},{"name":"墨田特別支援学校南","province":"東京都","city":"墨田区","address":"東京都墨田区東向島6丁目45","lat":35.72467145,"lon":139.82349966},{"name":"長浦神社前","province":"東京都","city":"墨田区","address":"東京都墨田区東向島6丁目27-7","lat":35.72352711,"lon":139.82273307},{"name":"東あづま駅前","province":"東京都","city":"墨田区","address":"東京都墨田区立花3丁目13-4","lat":35.70697755,"lon":139.83248773},{"name":"東向島四丁目","province":"東京都","city":"墨田区","address":"東京都墨田区東向島4丁目20-20","lat":35.72537966,"lon":139.81565934},{"name":"京成曳舟駅前","province":"東京都","city":"墨田区","address":"東京都墨田区京島1丁目43","lat":35.71936079,"lon":139.82040277},{"name":"平井橋第一公園前","province":"東京都","city":"墨田区","address":"東京都墨田区立花4丁目30-17","lat":35.71011618,"lon":139.83457064},{"name":"墨田特別支援学校北","province":"東京都","city":"墨田区","address":"東京都墨田区東向島6丁目56-9","lat":35.72597138,"lon":139.82461065},{"name":"墨田生涯学習センター前","province":"東京都","city":"墨田区","address":"東京都墨田区東向島6丁目6-12","lat":35.72145228,"lon":139.81971127},{"name":"墨田特別支援学校前","province":"東京都","city":"墨田区","address":"東京都墨田区八広5丁目9","lat":35.7235048,"lon":139.82482722},{"name":"白鬚橋東詰第二","province":"東京都","city":"墨田区","address":"東京都墨田区堤通2丁目3-1","lat":35.72857378,"lon":139.81259338},{"name":"曳舟交番前","province":"東京都","city":"墨田区","address":"東京都墨田区東向島2丁目27-1","lat":35.71769963,"lon":139.81702811},{"name":"墨田川高校前","province":"東京都","city":"墨田区","address":"東京都墨田区東向島3丁目37-7","lat":35.72178275,"lon":139.81717279},{"name":"東向島五丁目北","province":"東京都","city":"墨田区","address":"東京都墨田区東向島5丁目22-7","lat":35.72698798,"lon":139.823022},{"name":"向島消防署前","province":"東京都","city":"墨田区","address":"東京都墨田区東向島6丁目22-3","lat":35.723566,"lon":139.81996685},{"name":"白鬚公園南","province":"東京都","city":"墨田区","address":"東京都墨田区墨田1丁目4-2","lat":35.72907095,"lon":139.81423744},{"name":"区立文花公園","province":"東京都","city":"墨田区","address":"東京都墨田区文花1丁目27-5","lat":35.7094556,"lon":139.82244155},{"name":"区立両国公園","province":"東京都","city":"墨田区","address":"東京都墨田区両国4丁目25-3","lat":35.6937507,"lon":139.79611856},{"name":"白鬚東地区防災拠点","province":"東京都","city":"墨田区","address":"東京都墨田区堤通2丁目","lat":35.73410354,"lon":139.81657811},{"name":"３墨田清掃工場","province":"東京都","city":"墨田区","address":"東京都墨田区東墨田1丁目10-23","lat":35.7174879,"lon":139.83172056},{"name":"言問橋東詰","province":"東京都","city":"墨田区","address":"東京都墨田区向島1丁目5-6","lat":35.71296269,"lon":139.80529822},{"name":"錦糸町駅前","province":"東京都","city":"墨田区","address":"東京都墨田区江東橋3丁目14-5","lat":35.69643352,"lon":139.81393804},{"name":"緑三丁目","province":"東京都","city":"墨田区","address":"東京都墨田区緑3丁目11-5","lat":35.69483935,"lon":139.8052505},{"name":"向島三丁目","province":"東京都","city":"墨田区","address":"東京都墨田区向島4丁目1-1","lat":35.71578252,"lon":139.81036196},{"name":"両国二丁目","province":"東京都","city":"墨田区","address":"東京都墨田区両国2丁目10-8","lat":35.69390891,"lon":139.79173237},{"name":"菊川二丁目","province":"東京都","city":"墨田区","address":"東京都墨田区菊川2丁目6-11","lat":35.68858743,"lon":139.80581487},{"name":"石原一丁目","province":"東京都","city":"墨田区","address":"東京都墨田区横網2丁目4-11","lat":35.70047765,"lon":139.79677302},{"name":"本所一丁目","province":"東京都","city":"墨田区","address":"東京都墨田区本所1丁目4-10","lat":35.70358282,"lon":139.79663645},{"name":"吾妻橋三丁目","province":"東京都","city":"墨田区","address":"東京都墨田区吾妻橋3丁目7-1","lat":35.70885733,"lon":139.8044403},{"name":"亀沢四丁目","province":"東京都","city":"墨田区","address":"東京都墨田区亀沢4丁目11-6","lat":35.69718074,"lon":139.80547237},{"name":"吾妻橋五差路","province":"東京都","city":"墨田区","address":"東京都墨田区吾妻橋2丁目4-1","lat":35.70888232,"lon":139.80236003},{"name":"向島五丁目","province":"東京都","city":"墨田区","address":"東京都墨田区向島4丁目8-1","lat":35.7169299,"lon":139.81198973},{"name":"石原四丁目","province":"東京都","city":"墨田区","address":"東京都墨田区石原4丁目1-1","lat":35.6992055,"lon":139.80531657},{"name":"錦糸町駅南口","province":"東京都","city":"墨田区","address":"東京都墨田区江東橋3丁目13-1","lat":35.69586694,"lon":139.81362423},{"name":"曳舟川通り西","province":"東京都","city":"墨田区","address":"東京都墨田区押上2丁目1-1","lat":35.71079886,"lon":139.80891988},{"name":"吾妻橋東詰","province":"東京都","city":"墨田区","address":"東京都墨田区吾妻橋1丁目12-15","lat":35.70809627,"lon":139.79825794},{"name":"江戸東京博物館前","province":"東京都","city":"墨田区","address":"東京都墨田区横網1丁目5-1","lat":35.69762521,"lon":139.7971151},{"name":"長崎橋東詰","province":"東京都","city":"墨田区","address":"東京都墨田区錦糸1丁目17-10","lat":35.69788896,"lon":139.80895792},{"name":"押上二丁目","province":"東京都","city":"墨田区","address":"東京都墨田区押上2丁目20-14","lat":35.71371045,"lon":139.81295033},{"name":"横網公園前","province":"東京都","city":"墨田区","address":"東京都墨田区横網2丁目3","lat":35.69926945,"lon":139.79650933},{"name":"墨田中学校前","province":"東京都","city":"墨田区","address":"東京都墨田区向島4丁目28-1","lat":35.71407153,"lon":139.81255041},{"name":"錦糸公園前","province":"東京都","city":"墨田区","address":"東京都墨田区錦糸3丁目4-9","lat":35.6979833,"lon":139.81474616},{"name":"牛島神社前","province":"東京都","city":"墨田区","address":"東京都墨田区向島1丁目6-9","lat":35.711971,"lon":139.80486209},{"name":"秋葉神社前","province":"東京都","city":"墨田区","address":"東京都墨田区向島5丁目37-4","lat":35.71760495,"lon":139.81249254},{"name":"曳舟川通り第二","province":"東京都","city":"墨田区","address":"東京都墨田区向島3丁目43-10","lat":35.71162665,"lon":139.80970857},{"name":"錦糸町駅前第二","province":"東京都","city":"墨田区","address":"東京都墨田区江東橋4丁目29-15","lat":35.6960169,"lon":139.81651829},{"name":"高速駒形入口","province":"東京都","city":"墨田区","address":"東京都墨田区東駒形1丁目15-2","lat":35.70625478,"lon":139.79821929},{"name":"東京スカイツリー駅前","province":"東京都","city":"墨田区","address":"東京都墨田区押上1丁目1-2","lat":35.71005462,"lon":139.81070876},{"name":"石原四丁目第二","province":"東京都","city":"墨田区","address":"東京都墨田区石原4丁目26-1","lat":35.70087475,"lon":139.80633565},{"name":"千歳三丁目","province":"東京都","city":"墨田区","address":"東京都墨田区千歳3丁目6-6","lat":35.6902762,"lon":139.79780514},{"name":"小梅通り西","province":"東京都","city":"墨田区","address":"東京都墨田区向島3丁目45-1","lat":35.71152381,"lon":139.80867257},{"name":"錦糸町駅ガード南","province":"東京都","city":"墨田区","address":"東京都墨田区江東橋4丁目27-14","lat":35.69632797,"lon":139.81565727},{"name":"本所一之橋北詰","province":"東京都","city":"墨田区","address":"東京都墨田区両国2丁目1-3","lat":35.69205637,"lon":139.79178259},{"name":"すみだ共生社会推進センター","province":"東京都","city":"墨田区","address":"東京都墨田区向島3丁目39-19","lat":35.71293249,"lon":139.81156977},{"name":"向島交番前","province":"東京都","city":"墨田区","address":"東京都墨田区向島4丁目1-5","lat":35.71615479,"lon":139.81085363},{"name":"枕橋","province":"東京都","city":"墨田区","address":"東京都墨田区吾妻橋2丁目19-7","lat":35.71097102,"lon":139.80224865},{"name":"両国駅西口第二","province":"東京都","city":"墨田区","address":"東京都墨田区両国2丁目13-6","lat":35.69576978,"lon":139.7915877},{"name":"清平橋西","province":"東京都","city":"墨田区","address":"東京都墨田区石原4丁目11-13","lat":35.69930825,"lon":139.80733851},{"name":"八反目東第二","province":"東京都","city":"墨田区","address":"東京都墨田区向島3丁目44-10","lat":35.71187387,"lon":139.80959473},{"name":"福祉保健センター前","province":"東京都","city":"墨田区","address":"東京都墨田区向島3丁目40-7","lat":35.71289911,"lon":139.81113646},{"name":"墨田リバーピア前","province":"東京都","city":"墨田区","address":"東京都墨田区吾妻橋1丁目22-7","lat":35.70991834,"lon":139.80199884},{"name":"東向島","province":"東京都","city":"墨田区","address":"東京都墨田区東向島4丁目26-7","lat":35.72272992,"lon":139.81843096},{"name":"四ツ木橋南詰","province":"東京都","city":"墨田区","address":"東京都墨田区墨田4丁目54","lat":35.72883509,"lon":139.82489398},{"name":"東向島三丁目","province":"東京都","city":"墨田区","address":"東京都墨田区東向島2丁目23-5","lat":35.72041618,"lon":139.81628397},{"name":"白鬚橋東詰","province":"東京都","city":"墨田区","address":"東京都墨田区東向島4丁目1-7","lat":35.72769889,"lon":139.81332658},{"name":"仲居堀","province":"東京都","city":"墨田区","address":"東京都墨田区文花3丁目16-5","lat":35.7128443,"lon":139.8271685},{"name":"小村井","province":"東京都","city":"墨田区","address":"東京都墨田区立花4丁目1-5","lat":35.71096092,"lon":139.82908505},{"name":"京島","province":"東京都","city":"墨田区","address":"東京都墨田区京島1丁目53-12","lat":35.71734424,"lon":139.82299402},{"name":"東向島六丁目","province":"東京都","city":"墨田区","address":"東京都墨田区東向島5丁目18-1","lat":35.7259436,"lon":139.82155274},{"name":"曳舟川","province":"東京都","city":"墨田区","address":"東京都墨田区東向島2丁目41-11","lat":35.72039126,"lon":139.82010007},{"name":"更正橋","province":"東京都","city":"墨田区","address":"東京都墨田区八広5丁目12-13","lat":35.72742135,"lon":139.82628826},{"name":"曳舟","province":"東京都","city":"墨田区","address":"東京都墨田区東向島2丁目31-15","lat":35.71844687,"lon":139.81811136},{"name":"白鬚橋交番前","province":"東京都","city":"墨田区","address":"東京都墨田区堤通2丁目3-2","lat":35.72869044,"lon":139.81288497},{"name":"東向島二丁目","province":"東京都","city":"墨田区","address":"東京都墨田区東向島2丁目21-2","lat":35.71962175,"lon":139.81537016},{"name":"京島二丁目","province":"東京都","city":"墨田区","address":"東京都墨田区京島1丁目27-4","lat":35.71593046,"lon":139.820036},{"name":"東向島一丁目","province":"東京都","city":"墨田区","address":"東京都墨田区東向島2丁目1-17","lat":35.71792724,"lon":139.81358967},{"name":"押上二丁目北","province":"東京都","city":"墨田区","address":"東京都墨田区東向島2丁目12-9","lat":35.71627736,"lon":139.81555038},{"name":"吾嬬西公園前","province":"東京都","city":"墨田区","address":"東京都墨田区八広6丁目53-16","lat":35.72424908,"lon":139.83025702},{"name":"八広六丁目","province":"東京都","city":"墨田区","address":"東京都墨田区八広6丁目29-8","lat":35.72690473,"lon":139.82919342},{"name":"高木神社入口","province":"東京都","city":"墨田区","address":"東京都墨田区東向島2丁目11-17","lat":35.71554674,"lon":139.81468372},{"name":"十間橋北","province":"東京都","city":"墨田区","address":"東京都墨田区文花1丁目1-5","lat":35.70885807,"lon":139.81870855},{"name":"八広一丁目","province":"東京都","city":"墨田区","address":"東京都墨田区八広1丁目7-1","lat":35.72122734,"lon":139.82175262},{"name":"曳舟小学校角","province":"東京都","city":"墨田区","address":"東京都墨田区京島3丁目9-7","lat":35.71656384,"lon":139.82213857},{"name":"八広小前","province":"東京都","city":"墨田区","address":"東京都墨田区八広6丁目9-14","lat":35.72731304,"lon":139.82709371},{"name":"東向島一丁目第二","province":"東京都","city":"墨田区","address":"東京都墨田区東向島2丁目20-1","lat":35.71878006,"lon":139.8144702},{"name":"曳舟文化センター","province":"東京都","city":"墨田区","address":"東京都墨田区京島1丁目38-11","lat":35.71831636,"lon":139.81876127},{"name":"墨田特別支援学校南","province":"東京都","city":"墨田区","address":"東京都墨田区東向島6丁目45","lat":35.72467145,"lon":139.82349966},{"name":"長浦神社前","province":"東京都","city":"墨田区","address":"東京都墨田区東向島6丁目27-7","lat":35.72352711,"lon":139.82273307},{"name":"東あづま駅前","province":"東京都","city":"墨田区","address":"東京都墨田区立花3丁目13-4","lat":35.70697755,"lon":139.83248773},{"name":"東向島四丁目","province":"東京都","city":"墨田区","address":"東京都墨田区東向島4丁目20-20","lat":35.72537966,"lon":139.81565934},{"name":"京成曳舟駅前","province":"東京都","city":"墨田区","address":"東京都墨田区京島1丁目43","lat":35.71936079,"lon":139.82040277},{"name":"平井橋第一公園前","province":"東京都","city":"墨田区","address":"東京都墨田区立花4丁目30-17","lat":35.71011618,"lon":139.83457064},{"name":"墨田特別支援学校北","province":"東京都","city":"墨田区","address":"東京都墨田区東向島6丁目56-9","lat":35.72597138,"lon":139.82461065},{"name":"墨田生涯学習センター前","province":"東京都","city":"墨田区","address":"東京都墨田区東向島6丁目6-12","lat":35.72145228,"lon":139.81971127},{"name":"墨田特別支援学校前","province":"東京都","city":"墨田区","address":"東京都墨田区八広5丁目9","lat":35.7235048,"lon":139.82482722},{"name":"白鬚橋東詰第二","province":"東京都","city":"墨田区","address":"東京都墨田区堤通2丁目3-1","lat":35.72857378,"lon":139.81259338},{"name":"曳舟交番前","province":"東京都","city":"墨田区","address":"東京都墨田区東向島2丁目27-1","lat":35.71769963,"lon":139.81702811},{"name":"墨田川高校前","province":"東京都","city":"墨田区","address":"東京都墨田区東向島3丁目37-7","lat":35.72178275,"lon":139.81717279},{"name":"東向島五丁目北","province":"東京都","city":"墨田区","address":"東京都墨田区東向島5丁目22-7","lat":35.72698798,"lon":139.823022},{"name":"向島消防署前","province":"東京都","city":"墨田区","address":"東京都墨田区東向島6丁目22-3","lat":35.723566,"lon":139.81996685},{"name":"白鬚公園南","province":"東京都","city":"墨田区","address":"東京都墨田区墨田1丁目4-2","lat":35.72907095,"lon":139.81423744},{"name":"区立文花公園","province":"東京都","city":"墨田区","address":"東京都墨田区文花1丁目27-5","lat":35.7094556,"lon":139.82244155},{"name":"区立両国公園","province":"東京都","city":"墨田区","address":"東京都墨田区両国4丁目25-3","lat":35.6937507,"lon":139.79611856},{"name":"白鬚東地区防災拠点","province":"東京都","city":"墨田区","address":"東京都墨田区堤通2丁目","lat":35.73410354,"lon":139.81657811},{"name":"３墨田清掃工場","province":"東京都","city":"墨田区","address":"東京都墨田区東墨田1丁目10-23","lat":35.7174879,"lon":139.83172056},{"name":"言問橋東詰","province":"東京都","city":"墨田区","address":"東京都墨田区向島1丁目5-6","lat":35.71296269,"lon":139.80529822},{"name":"錦糸町駅前","province":"東京都","city":"墨田区","address":"東京都墨田区江東橋3丁目14-5","lat":35.69643352,"lon":139.81393804},{"name":"緑三丁目","province":"東京都","city":"墨田区","address":"東京都墨田区緑3丁目11-5","lat":35.69483935,"lon":139.8052505},{"name":"向島三丁目","province":"東京都","city":"墨田区","address":"東京都墨田区向島4丁目1-1","lat":35.71578252,"lon":139.81036196},{"name":"両国二丁目","province":"東京都","city":"墨田区","address":"東京都墨田区両国2丁目10-8","lat":35.69390891,"lon":139.79173237},{"name":"菊川二丁目","province":"東京都","city":"墨田区","address":"東京都墨田区菊川2丁目6-11","lat":35.68858743,"lon":139.80581487},{"name":"石原一丁目","province":"東京都","city":"墨田区","address":"東京都墨田区横網2丁目4-11","lat":35.70047765,"lon":139.79677302},{"name":"本所一丁目","province":"東京都","city":"墨田区","address":"東京都墨田区本所1丁目4-10","lat":35.70358282,"lon":139.79663645},{"name":"吾妻橋三丁目","province":"東京都","city":"墨田区","address":"東京都墨田区吾妻橋3丁目7-1","lat":35.70885733,"lon":139.8044403},{"name":"亀沢四丁目","province":"東京都","city":"墨田区","address":"東京都墨田区亀沢4丁目11-6","lat":35.69718074,"lon":139.80547237},{"name":"吾妻橋五差路","province":"東京都","city":"墨田区","address":"東京都墨田区吾妻橋2丁目4-1","lat":35.70888232,"lon":139.80236003},{"name":"向島五丁目","province":"東京都","city":"墨田区","address":"東京都墨田区向島4丁目8-1","lat":35.7169299,"lon":139.81198973},{"name":"石原四丁目","province":"東京都","city":"墨田区","address":"東京都墨田区石原4丁目1-1","lat":35.6992055,"lon":139.80531657},{"name":"錦糸町駅南口","province":"東京都","city":"墨田区","address":"東京都墨田区江東橋3丁目13-1","lat":35.69586694,"lon":139.81362423},{"name":"曳舟川通り西","province":"東京都","city":"墨田区","address":"東京都墨田区押上2丁目1-1","lat":35.71079886,"lon":139.80891988},{"name":"吾妻橋東詰","province":"東京都","city":"墨田区","address":"東京都墨田区吾妻橋1丁目12-15","lat":35.70809627,"lon":139.79825794},{"name":"江戸東京博物館前","province":"東京都","city":"墨田区","address":"東京都墨田区横網1丁目5-1","lat":35.69762521,"lon":139.7971151},{"name":"長崎橋東詰","province":"東京都","city":"墨田区","address":"東京都墨田区錦糸1丁目17-10","lat":35.69788896,"lon":139.80895792},{"name":"押上二丁目","province":"東京都","city":"墨田区","address":"東京都墨田区押上2丁目20-14","lat":35.71371045,"lon":139.81295033},{"name":"横網公園前","province":"東京都","city":"墨田区","address":"東京都墨田区横網2丁目3","lat":35.69926945,"lon":139.79650933},{"name":"墨田中学校前","province":"東京都","city":"墨田区","address":"東京都墨田区向島4丁目28-1","lat":35.71407153,"lon":139.81255041},{"name":"錦糸公園前","province":"東京都","city":"墨田区","address":"東京都墨田区錦糸3丁目4-9","lat":35.6979833,"lon":139.81474616},{"name":"牛島神社前","province":"東京都","city":"墨田区","address":"東京都墨田区向島1丁目6-9","lat":35.711971,"lon":139.80486209},{"name":"秋葉神社前","province":"東京都","city":"墨田区","address":"東京都墨田区向島5丁目37-4","lat":35.71760495,"lon":139.81249254},{"name":"曳舟川通り第二","province":"東京都","city":"墨田区","address":"東京都墨田区向島3丁目43-10","lat":35.71162665,"lon":139.80970857},{"name":"錦糸町駅前第二","province":"東京都","city":"墨田区","address":"東京都墨田区江東橋4丁目29-15","lat":35.6960169,"lon":139.81651829},{"name":"高速駒形入口","province":"東京都","city":"墨田区","address":"東京都墨田区東駒形1丁目15-2","lat":35.70625478,"lon":139.79821929},{"name":"東京スカイツリー駅前","province":"東京都","city":"墨田区","address":"東京都墨田区押上1丁目1-2","lat":35.71005462,"lon":139.81070876},{"name":"石原四丁目第二","province":"東京都","city":"墨田区","address":"東京都墨田区石原4丁目26-1","lat":35.70087475,"lon":139.80633565},{"name":"千歳三丁目","province":"東京都","city":"墨田区","address":"東京都墨田区千歳3丁目6-6","lat":35.6902762,"lon":139.79780514},{"name":"小梅通り西","province":"東京都","city":"墨田区","address":"東京都墨田区向島3丁目45-1","lat":35.71152381,"lon":139.80867257},{"name":"錦糸町駅ガード南","province":"東京都","city":"墨田区","address":"東京都墨田区江東橋4丁目27-14","lat":35.69632797,"lon":139.81565727},{"name":"本所一之橋北詰","province":"東京都","city":"墨田区","address":"東京都墨田区両国2丁目1-3","lat":35.69205637,"lon":139.79178259},{"name":"すみだ共生社会推進センター","province":"東京都","city":"墨田区","address":"東京都墨田区向島3丁目39-19","lat":35.71293249,"lon":139.81156977},{"name":"向島交番前","province":"東京都","city":"墨田区","address":"東京都墨田区向島4丁目1-5","lat":35.71615479,"lon":139.81085363},{"name":"枕橋","province":"東京都","city":"墨田区","address":"東京都墨田区吾妻橋2丁目19-7","lat":35.71097102,"lon":139.80224865},{"name":"両国駅西口第二","province":"東京都","city":"墨田区","address":"東京都墨田区両国2丁目13-6","lat":35.69576978,"lon":139.7915877},{"name":"清平橋西","province":"東京都","city":"墨田区","address":"東京都墨田区石原4丁目11-13","lat":35.69930825,"lon":139.80733851},{"name":"八反目東第二","province":"東京都","city":"墨田区","address":"東京都墨田区向島3丁目44-10","lat":35.71187387,"lon":139.80959473},{"name":"福祉保健センター前","province":"東京都","city":"墨田区","address":"東京都墨田区向島3丁目40-7","lat":35.71289911,"lon":139.81113646},{"name":"墨田リバーピア前","province":"東京都","city":"墨田区","address":"東京都墨田区吾妻橋1丁目22-7","lat":35.70991834,"lon":139.80199884},{"name":"東向島","province":"東京都","city":"墨田区","address":"東京都墨田区東向島4丁目26-7","lat":35.72272992,"lon":139.81843096},{"name":"四ツ木橋南詰","province":"東京都","city":"墨田区","address":"東京都墨田区墨田4丁目54","lat":35.72883509,"lon":139.82489398},{"name":"東向島三丁目","province":"東京都","city":"墨田区","address":"東京都墨田区東向島2丁目23-5","lat":35.72041618,"lon":139.81628397},{"name":"白鬚橋東詰","province":"東京都","city":"墨田区","address":"東京都墨田区東向島4丁目1-7","lat":35.72769889,"lon":139.81332658},{"name":"仲居堀","province":"東京都","city":"墨田区","address":"東京都墨田区文花3丁目16-5","lat":35.7128443,"lon":139.8271685},{"name":"小村井","province":"東京都","city":"墨田区","address":"東京都墨田区立花4丁目1-5","lat":35.71096092,"lon":139.82908505},{"name":"京島","province":"東京都","city":"墨田区","address":"東京都墨田区京島1丁目53-12","lat":35.71734424,"lon":139.82299402},{"name":"東向島六丁目","province":"東京都","city":"墨田区","address":"東京都墨田区東向島5丁目18-1","lat":35.7259436,"lon":139.82155274},{"name":"曳舟川","province":"東京都","city":"墨田区","address":"東京都墨田区東向島2丁目41-11","lat":35.72039126,"lon":139.82010007},{"name":"更正橋","province":"東京都","city":"墨田区","address":"東京都墨田区八広5丁目12-13","lat":35.72742135,"lon":139.82628826},{"name":"曳舟","province":"東京都","city":"墨田区","address":"東京都墨田区東向島2丁目31-15","lat":35.71844687,"lon":139.81811136},{"name":"白鬚橋交番前","province":"東京都","city":"墨田区","address":"東京都墨田区堤通2丁目3-2","lat":35.72869044,"lon":139.81288497},{"name":"東向島二丁目","province":"東京都","city":"墨田区","address":"東京都墨田区東向島2丁目21-2","lat":35.71962175,"lon":139.81537016},{"name":"京島二丁目","province":"東京都","city":"墨田区","address":"東京都墨田区京島1丁目27-4","lat":35.71593046,"lon":139.820036},{"name":"東向島一丁目","province":"東京都","city":"墨田区","address":"東京都墨田区東向島2丁目1-17","lat":35.71792724,"lon":139.81358967},{"name":"押上二丁目北","province":"東京都","city":"墨田区","address":"東京都墨田区東向島2丁目12-9","lat":35.71627736,"lon":139.81555038},{"name":"吾嬬西公園前","province":"東京都","city":"墨田区","address":"東京都墨田区八広6丁目53-16","lat":35.72424908,"lon":139.83025702},{"name":"八広六丁目","province":"東京都","city":"墨田区","address":"東京都墨田区八広6丁目29-8","lat":35.72690473,"lon":139.82919342},{"name":"高木神社入口","province":"東京都","city":"墨田区","address":"東京都墨田区東向島2丁目11-17","lat":35.71554674,"lon":139.81468372},{"name":"十間橋北","province":"東京都","city":"墨田区","address":"東京都墨田区文花1丁目1-5","lat":35.70885807,"lon":139.81870855},{"name":"八広一丁目","province":"東京都","city":"墨田区","address":"東京都墨田区八広1丁目7-1","lat":35.72122734,"lon":139.82175262},{"name":"曳舟小学校角","province":"東京都","city":"墨田区","address":"東京都墨田区京島3丁目9-7","lat":35.71656384,"lon":139.82213857},{"name":"八広小前","province":"東京都","city":"墨田区","address":"東京都墨田区八広6丁目9-14","lat":35.72731304,"lon":139.82709371},{"name":"東向島一丁目第二","province":"東京都","city":"墨田区","address":"東京都墨田区東向島2丁目20-1","lat":35.71878006,"lon":139.8144702},{"name":"曳舟文化センター","province":"東京都","city":"墨田区","address":"東京都墨田区京島1丁目38-11","lat":35.71831636,"lon":139.81876127},{"name":"墨田特別支援学校南","province":"東京都","city":"墨田区","address":"東京都墨田区東向島6丁目45","lat":35.72467145,"lon":139.82349966},{"name":"長浦神社前","province":"東京都","city":"墨田区","address":"東京都墨田区東向島6丁目27-7","lat":35.72352711,"lon":139.82273307},{"name":"東あづま駅前","province":"東京都","city":"墨田区","address":"東京都墨田区立花3丁目13-4","lat":35.70697755,"lon":139.83248773},{"name":"東向島四丁目","province":"東京都","city":"墨田区","address":"東京都墨田区東向島4丁目20-20","lat":35.72537966,"lon":139.81565934},{"name":"京成曳舟駅前","province":"東京都","city":"墨田区","address":"東京都墨田区京島1丁目43","lat":35.71936079,"lon":139.82040277},{"name":"平井橋第一公園前","province":"東京都","city":"墨田区","address":"東京都墨田区立花4丁目30-17","lat":35.71011618,"lon":139.83457064},{"name":"墨田特別支援学校北","province":"東京都","city":"墨田区","address":"東京都墨田区東向島6丁目56-9","lat":35.72597138,"lon":139.82461065},{"name":"墨田生涯学習センター前","province":"東京都","city":"墨田区","address":"東京都墨田区東向島6丁目6-12","lat":35.72145228,"lon":139.81971127},{"name":"墨田特別支援学校前","province":"東京都","city":"墨田区","address":"東京都墨田区八広5丁目9","lat":35.7235048,"lon":139.82482722},{"name":"白鬚橋東詰第二","province":"東京都","city":"墨田区","address":"東京都墨田区堤通2丁目3-1","lat":35.72857378,"lon":139.81259338},{"name":"曳舟交番前","province":"東京都","city":"墨田区","address":"東京都墨田区東向島2丁目27-1","lat":35.71769963,"lon":139.81702811},{"name":"墨田川高校前","province":"東京都","city":"墨田区","address":"東京都墨田区東向島3丁目37-7","lat":35.72178275,"lon":139.81717279},{"name":"東向島五丁目北","province":"東京都","city":"墨田区","address":"東京都墨田区東向島5丁目22-7","lat":35.72698798,"lon":139.823022},{"name":"向島消防署前","province":"東京都","city":"墨田区","address":"東京都墨田区東向島6丁目22-3","lat":35.723566,"lon":139.81996685},{"name":"白鬚公園南","province":"東京都","city":"墨田区","address":"東京都墨田区墨田1丁目4-2","lat":35.72907095,"lon":139.81423744},{"name":"区立文花公園","province":"東京都","city":"墨田区","address":"東京都墨田区文花1丁目27-5","lat":35.7094556,"lon":139.82244155},{"name":"区立両国公園","province":"東京都","city":"墨田区","address":"東京都墨田区両国4丁目25-3","lat":35.6937507,"lon":139.79611856},{"name":"白鬚東地区防災拠点","province":"東京都","city":"墨田区","address":"東京都墨田区堤通2丁目","lat":35.73410354,"lon":139.81657811},{"name":"３墨田清掃工場","province":"東京都","city":"墨田区","address":"東京都墨田区東墨田1丁目10-23","lat":35.7174879,"lon":139.83172056},{"name":"言問橋東詰","province":"東京都","city":"墨田区","address":"東京都墨田区向島1丁目5-6","lat":35.71296269,"lon":139.80529822},{"name":"錦糸町駅前","province":"東京都","city":"墨田区","address":"東京都墨田区江東橋3丁目14-5","lat":35.69643352,"lon":139.81393804},{"name":"緑三丁目","province":"東京都","city":"墨田区","address":"東京都墨田区緑3丁目11-5","lat":35.69483935,"lon":139.8052505},{"name":"向島三丁目","province":"東京都","city":"墨田区","address":"東京都墨田区向島4丁目1-1","lat":35.71578252,"lon":139.81036196},{"name":"両国二丁目","province":"東京都","city":"墨田区","address":"東京都墨田区両国2丁目10-8","lat":35.69390891,"lon":139.79173237},{"name":"菊川二丁目","province":"東京都","city":"墨田区","address":"東京都墨田区菊川2丁目6-11","lat":35.68858743,"lon":139.80581487},{"name":"石原一丁目","province":"東京都","city":"墨田区","address":"東京都墨田区横網2丁目4-11","lat":35.70047765,"lon":139.79677302},{"name":"本所一丁目","province":"東京都","city":"墨田区","address":"東京都墨田区本所1丁目4-10","lat":35.70358282,"lon":139.79663645},{"name":"吾妻橋三丁目","province":"東京都","city":"墨田区","address":"東京都墨田区吾妻橋3丁目7-1","lat":35.70885733,"lon":139.8044403},{"name":"亀沢四丁目","province":"東京都","city":"墨田区","address":"東京都墨田区亀沢4丁目11-6","lat":35.69718074,"lon":139.80547237},{"name":"吾妻橋五差路","province":"東京都","city":"墨田区","address":"東京都墨田区吾妻橋2丁目4-1","lat":35.70888232,"lon":139.80236003},{"name":"向島五丁目","province":"東京都","city":"墨田区","address":"東京都墨田区向島4丁目8-1","lat":35.7169299,"lon":139.81198973},{"name":"石原四丁目","province":"東京都","city":"墨田区","address":"東京都墨田区石原4丁目1-1","lat":35.6992055,"lon":139.80531657},{"name":"錦糸町駅南口","province":"東京都","city":"墨田区","address":"東京都墨田区江東橋3丁目13-1","lat":35.69586694,"lon":139.81362423},{"name":"曳舟川通り西","province":"東京都","city":"墨田区","address":"東京都墨田区押上2丁目1-1","lat":35.71079886,"lon":139.80891988},{"name":"吾妻橋東詰","province":"東京都","city":"墨田区","address":"東京都墨田区吾妻橋1丁目12-15","lat":35.70809627,"lon":139.79825794},{"name":"江戸東京博物館前","province":"東京都","city":"墨田区","address":"東京都墨田区横網1丁目5-1","lat":35.69762521,"lon":139.7971151},{"name":"長崎橋東詰","province":"東京都","city":"墨田区","address":"東京都墨田区錦糸1丁目17-10","lat":35.69788896,"lon":139.80895792},{"name":"押上二丁目","province":"東京都","city":"墨田区","address":"東京都墨田区押上2丁目20-14","lat":35.71371045,"lon":139.81295033},{"name":"横網公園前","province":"東京都","city":"墨田区","address":"東京都墨田区横網2丁目3","lat":35.69926945,"lon":139.79650933},{"name":"墨田中学校前","province":"東京都","city":"墨田区","address":"東京都墨田区向島4丁目28-1","lat":35.71407153,"lon":139.81255041},{"name":"錦糸公園前","province":"東京都","city":"墨田区","address":"東京都墨田区錦糸3丁目4-9","lat":35.6979833,"lon":139.81474616},{"name":"牛島神社前","province":"東京都","city":"墨田区","address":"東京都墨田区向島1丁目6-9","lat":35.711971,"lon":139.80486209},{"name":"秋葉神社前","province":"東京都","city":"墨田区","address":"東京都墨田区向島5丁目37-4","lat":35.71760495,"lon":139.81249254},{"name":"曳舟川通り第二","province":"東京都","city":"墨田区","address":"東京都墨田区向島3丁目43-10","lat":35.71162665,"lon":139.80970857},{"name":"錦糸町駅前第二","province":"東京都","city":"墨田区","address":"東京都墨田区江東橋4丁目29-15","lat":35.6960169,"lon":139.81651829},{"name":"高速駒形入口","province":"東京都","city":"墨田区","address":"東京都墨田区東駒形1丁目15-2","lat":35.70625478,"lon":139.79821929},{"name":"東京スカイツリー駅前","province":"東京都","city":"墨田区","address":"東京都墨田区押上1丁目1-2","lat":35.71005462,"lon":139.81070876},{"name":"石原四丁目第二","province":"東京都","city":"墨田区","address":"東京都墨田区石原4丁目26-1","lat":35.70087475,"lon":139.80633565},{"name":"千歳三丁目","province":"東京都","city":"墨田区","address":"東京都墨田区千歳3丁目6-6","lat":35.6902762,"lon":139.79780514},{"name":"小梅通り西","province":"東京都","city":"墨田区","address":"東京都墨田区向島3丁目45-1","lat":35.71152381,"lon":139.80867257},{"name":"錦糸町駅ガード南","province":"東京都","city":"墨田区","address":"東京都墨田区江東橋4丁目27-14","lat":35.69632797,"lon":139.81565727},{"name":"本所一之橋北詰","province":"東京都","city":"墨田区","address":"東京都墨田区両国2丁目1-3","lat":35.69205637,"lon":139.79178259},{"name":"すみだ共生社会推進センター","province":"東京都","city":"墨田区","address":"東京都墨田区向島3丁目39-19","lat":35.71293249,"lon":139.81156977},{"name":"向島交番前","province":"東京都","city":"墨田区","address":"東京都墨田区向島4丁目1-5","lat":35.71615479,"lon":139.81085363},{"name":"枕橋","province":"東京都","city":"墨田区","address":"東京都墨田区吾妻橋2丁目19-7","lat":35.71097102,"lon":139.80224865},{"name":"両国駅西口第二","province":"東京都","city":"墨田区","address":"東京都墨田区両国2丁目13-6","lat":35.69576978,"lon":139.7915877},{"name":"清平橋西","province":"東京都","city":"墨田区","address":"東京都墨田区石原4丁目11-13","lat":35.69930825,"lon":139.80733851},{"name":"八反目東第二","province":"東京都","city":"墨田区","address":"東京都墨田区向島3丁目44-10","lat":35.71187387,"lon":139.80959473},{"name":"福祉保健センター前","province":"東京都","city":"墨田区","address":"東京都墨田区向島3丁目40-7","lat":35.71289911,"lon":139.81113646},{"name":"墨田リバーピア前","province":"東京都","city":"墨田区","address":"東京都墨田区吾妻橋1丁目22-7","lat":35.70991834,"lon":139.80199884},{"name":"東向島","province":"東京都","city":"墨田区","address":"東京都墨田区東向島4丁目26-7","lat":35.72272992,"lon":139.81843096},{"name":"四ツ木橋南詰","province":"東京都","city":"墨田区","address":"東京都墨田区墨田4丁目54","lat":35.72883509,"lon":139.82489398},{"name":"東向島三丁目","province":"東京都","city":"墨田区","address":"東京都墨田区東向島2丁目23-5","lat":35.72041618,"lon":139.81628397},{"name":"白鬚橋東詰","province":"東京都","city":"墨田区","address":"東京都墨田区東向島4丁目1-7","lat":35.72769889,"lon":139.81332658},{"name":"仲居堀","province":"東京都","city":"墨田区","address":"東京都墨田区文花3丁目16-5","lat":35.7128443,"lon":139.8271685},{"name":"小村井","province":"東京都","city":"墨田区","address":"東京都墨田区立花4丁目1-5","lat":35.71096092,"lon":139.82908505},{"name":"京島","province":"東京都","city":"墨田区","address":"東京都墨田区京島1丁目53-12","lat":35.71734424,"lon":139.82299402},{"name":"東向島六丁目","province":"東京都","city":"墨田区","address":"東京都墨田区東向島5丁目18-1","lat":35.7259436,"lon":139.82155274},{"name":"曳舟川","province":"東京都","city":"墨田区","address":"東京都墨田区東向島2丁目41-11","lat":35.72039126,"lon":139.82010007},{"name":"更正橋","province":"東京都","city":"墨田区","address":"東京都墨田区八広5丁目12-13","lat":35.72742135,"lon":139.82628826},{"name":"曳舟","province":"東京都","city":"墨田区","address":"東京都墨田区東向島2丁目31-15","lat":35.71844687,"lon":139.81811136},{"name":"白鬚橋交番前","province":"東京都","city":"墨田区","address":"東京都墨田区堤通2丁目3-2","lat":35.72869044,"lon":139.81288497},{"name":"東向島二丁目","province":"東京都","city":"墨田区","address":"東京都墨田区東向島2丁目21-2","lat":35.71962175,"lon":139.81537016},{"name":"京島二丁目","province":"東京都","city":"墨田区","address":"東京都墨田区京島1丁目27-4","lat":35.71593046,"lon":139.820036},{"name":"東向島一丁目","province":"東京都","city":"墨田区","address":"東京都墨田区東向島2丁目1-17","lat":35.71792724,"lon":139.81358967},{"name":"押上二丁目北","province":"東京都","city":"墨田区","address":"東京都墨田区東向島2丁目12-9","lat":35.71627736,"lon":139.81555038},{"name":"吾嬬西公園前","province":"東京都","city":"墨田区","address":"東京都墨田区八広6丁目53-16","lat":35.72424908,"lon":139.83025702},{"name":"八広六丁目","province":"東京都","city":"墨田区","address":"東京都墨田区八広6丁目29-8","lat":35.72690473,"lon":139.82919342},{"name":"高木神社入口","province":"東京都","city":"墨田区","address":"東京都墨田区東向島2丁目11-17","lat":35.71554674,"lon":139.81468372},{"name":"十間橋北","province":"東京都","city":"墨田区","address":"東京都墨田区文花1丁目1-5","lat":35.70885807,"lon":139.81870855},{"name":"八広一丁目","province":"東京都","city":"墨田区","address":"東京都墨田区八広1丁目7-1","lat":35.72122734,"lon":139.82175262},{"name":"曳舟小学校角","province":"東京都","city":"墨田区","address":"東京都墨田区京島3丁目9-7","lat":35.71656384,"lon":139.82213857},{"name":"八広小前","province":"東京都","city":"墨田区","address":"東京都墨田区八広6丁目9-14","lat":35.72731304,"lon":139.82709371},{"name":"東向島一丁目第二","province":"東京都","city":"墨田区","address":"東京都墨田区東向島2丁目20-1","lat":35.71878006,"lon":139.8144702},{"name":"曳舟文化センター","province":"東京都","city":"墨田区","address":"東京都墨田区京島1丁目38-11","lat":35.71831636,"lon":139.81876127},{"name":"墨田特別支援学校南","province":"東京都","city":"墨田区","address":"東京都墨田区東向島6丁目45","lat":35.72467145,"lon":139.82349966},{"name":"長浦神社前","province":"東京都","city":"墨田区","address":"東京都墨田区東向島6丁目27-7","lat":35.72352711,"lon":139.82273307},{"name":"東あづま駅前","province":"東京都","city":"墨田区","address":"東京都墨田区立花3丁目13-4","lat":35.70697755,"lon":139.83248773},{"name":"東向島四丁目","province":"東京都","city":"墨田区","address":"東京都墨田区東向島4丁目20-20","lat":35.72537966,"lon":139.81565934},{"name":"京成曳舟駅前","province":"東京都","city":"墨田区","address":"東京都墨田区京島1丁目43","lat":35.71936079,"lon":139.82040277},{"name":"平井橋第一公園前","province":"東京都","city":"墨田区","address":"東京都墨田区立花4丁目30-17","lat":35.71011618,"lon":139.83457064},{"name":"墨田特別支援学校北","province":"東京都","city":"墨田区","address":"東京都墨田区東向島6丁目56-9","lat":35.72597138,"lon":139.82461065},{"name":"墨田生涯学習センター前","province":"東京都","city":"墨田区","address":"東京都墨田区東向島6丁目6-12","lat":35.72145228,"lon":139.81971127},{"name":"墨田特別支援学校前","province":"東京都","city":"墨田区","address":"東京都墨田区八広5丁目9","lat":35.7235048,"lon":139.82482722},{"name":"白鬚橋東詰第二","province":"東京都","city":"墨田区","address":"東京都墨田区堤通2丁目3-1","lat":35.72857378,"lon":139.81259338},{"name":"曳舟交番前","province":"東京都","city":"墨田区","address":"東京都墨田区東向島2丁目27-1","lat":35.71769963,"lon":139.81702811},{"name":"墨田川高校前","province":"東京都","city":"墨田区","address":"東京都墨田区東向島3丁目37-7","lat":35.72178275,"lon":139.81717279},{"name":"東向島五丁目北","province":"東京都","city":"墨田区","address":"東京都墨田区東向島5丁目22-7","lat":35.72698798,"lon":139.823022},{"name":"向島消防署前","province":"東京都","city":"墨田区","address":"東京都墨田区東向島6丁目22-3","lat":35.723566,"lon":139.81996685},{"name":"白鬚公園南","province":"東京都","city":"墨田区","address":"東京都墨田区墨田1丁目4-2","lat":35.72907095,"lon":139.81423744},{"name":"区立文花公園","province":"東京都","city":"墨田区","address":"東京都墨田区文花1丁目27-5","lat":35.7094556,"lon":139.82244155},{"name":"区立両国公園","province":"東京都","city":"墨田区","address":"東京都墨田区両国4丁目25-3","lat":35.6937507,"lon":139.79611856},{"name":"白鬚東地区防災拠点","province":"東京都","city":"墨田区","address":"東京都墨田区堤通2丁目","lat":35.73410354,"lon":139.81657811},{"name":"３墨田清掃工場","province":"東京都","city":"墨田区","address":"東京都墨田区東墨田1丁目10-23","lat":35.7174879,"lon":139.83172056},{"name":"言問橋東詰","province":"東京都","city":"墨田区","address":"東京都墨田区向島1丁目5-6","lat":35.71296269,"lon":139.80529822},{"name":"錦糸町駅前","province":"東京都","city":"墨田区","address":"東京都墨田区江東橋3丁目14-5","lat":35.69643352,"lon":139.81393804},{"name":"緑三丁目","province":"東京都","city":"墨田区","address":"東京都墨田区緑3丁目11-5","lat":35.69483935,"lon":139.8052505},{"name":"向島三丁目","province":"東京都","city":"墨田区","address":"東京都墨田区向島4丁目1-1","lat":35.71578252,"lon":139.81036196},{"name":"両国二丁目","province":"東京都","city":"墨田区","address":"東京都墨田区両国2丁目10-8","lat":35.69390891,"lon":139.79173237},{"name":"菊川二丁目","province":"東京都","city":"墨田区","address":"東京都墨田区菊川2丁目6-11","lat":35.68858743,"lon":139.80581487},{"name":"石原一丁目","province":"東京都","city":"墨田区","address":"東京都墨田区横網2丁目4-11","lat":35.70047765,"lon":139.79677302},{"name":"本所一丁目","province":"東京都","city":"墨田区","address":"東京都墨田区本所1丁目4-10","lat":35.70358282,"lon":139.79663645},{"name":"吾妻橋三丁目","province":"東京都","city":"墨田区","address":"東京都墨田区吾妻橋3丁目7-1","lat":35.70885733,"lon":139.8044403},{"name":"亀沢四丁目","province":"東京都","city":"墨田区","address":"東京都墨田区亀沢4丁目11-6","lat":35.69718074,"lon":139.80547237},{"name":"吾妻橋五差路","province":"東京都","city":"墨田区","address":"東京都墨田区吾妻橋2丁目4-1","lat":35.70888232,"lon":139.80236003},{"name":"向島五丁目","province":"東京都","city":"墨田区","address":"東京都墨田区向島4丁目8-1","lat":35.7169299,"lon":139.81198973},{"name":"石原四丁目","province":"東京都","city":"墨田区","address":"東京都墨田区石原4丁目1-1","lat":35.6992055,"lon":139.80531657},{"name":"錦糸町駅南口","province":"東京都","city":"墨田区","address":"東京都墨田区江東橋3丁目13-1","lat":35.69586694,"lon":139.81362423},{"name":"曳舟川通り西","province":"東京都","city":"墨田区","address":"東京都墨田区押上2丁目1-1","lat":35.71079886,"lon":139.80891988},{"name":"吾妻橋東詰","province":"東京都","city":"墨田区","address":"東京都墨田区吾妻橋1丁目12-15","lat":35.70809627,"lon":139.79825794},{"name":"江戸東京博物館前","province":"東京都","city":"墨田区","address":"東京都墨田区横網1丁目5-1","lat":35.69762521,"lon":139.7971151},{"name":"長崎橋東詰","province":"東京都","city":"墨田区","address":"東京都墨田区錦糸1丁目17-10","lat":35.69788896,"lon":139.80895792},{"name":"押上二丁目","province":"東京都","city":"墨田区","address":"東京都墨田区押上2丁目20-14","lat":35.71371045,"lon":139.81295033},{"name":"横網公園前","province":"東京都","city":"墨田区","address":"東京都墨田区横網2丁目3","lat":35.69926945,"lon":139.79650933},{"name":"墨田中学校前","province":"東京都","city":"墨田区","address":"東京都墨田区向島4丁目28-1","lat":35.71407153,"lon":139.81255041},{"name":"錦糸公園前","province":"東京都","city":"墨田区","address":"東京都墨田区錦糸3丁目4-9","lat":35.6979833,"lon":139.81474616},{"name":"牛島神社前","province":"東京都","city":"墨田区","address":"東京都墨田区向島1丁目6-9","lat":35.711971,"lon":139.80486209},{"name":"秋葉神社前","province":"東京都","city":"墨田区","address":"東京都墨田区向島5丁目37-4","lat":35.71760495,"lon":139.81249254},{"name":"曳舟川通り第二","province":"東京都","city":"墨田区","address":"東京都墨田区向島3丁目43-10","lat":35.71162665,"lon":139.80970857},{"name":"錦糸町駅前第二","province":"東京都","city":"墨田区","address":"東京都墨田区江東橋4丁目29-15","lat":35.6960169,"lon":139.81651829},{"name":"高速駒形入口","province":"東京都","city":"墨田区","address":"東京都墨田区東駒形1丁目15-2","lat":35.70625478,"lon":139.79821929},{"name":"東京スカイツリー駅前","province":"東京都","city":"墨田区","address":"東京都墨田区押上1丁目1-2","lat":35.71005462,"lon":139.81070876},{"name":"石原四丁目第二","province":"東京都","city":"墨田区","address":"東京都墨田区石原4丁目26-1","lat":35.70087475,"lon":139.80633565},{"name":"千歳三丁目","province":"東京都","city":"墨田区","address":"東京都墨田区千歳3丁目6-6","lat":35.6902762,"lon":139.79780514},{"name":"小梅通り西","province":"東京都","city":"墨田区","address":"東京都墨田区向島3丁目45-1","lat":35.71152381,"lon":139.80867257},{"name":"錦糸町駅ガード南","province":"東京都","city":"墨田区","address":"東京都墨田区江東橋4丁目27-14","lat":35.69632797,"lon":139.81565727},{"name":"本所一之橋北詰","province":"東京都","city":"墨田区","address":"東京都墨田区両国2丁目1-3","lat":35.69205637,"lon":139.79178259},{"name":"すみだ共生社会推進センター","province":"東京都","city":"墨田区","address":"東京都墨田区向島3丁目39-19","lat":35.71293249,"lon":139.81156977},{"name":"向島交番前","province":"東京都","city":"墨田区","address":"東京都墨田区向島4丁目1-5","lat":35.71615479,"lon":139.81085363},{"name":"枕橋","province":"東京都","city":"墨田区","address":"東京都墨田区吾妻橋2丁目19-7","lat":35.71097102,"lon":139.80224865},{"name":"両国駅西口第二","province":"東京都","city":"墨田区","address":"東京都墨田区両国2丁目13-6","lat":35.69576978,"lon":139.7915877},{"name":"清平橋西","province":"東京都","city":"墨田区","address":"東京都墨田区石原4丁目11-13","lat":35.69930825,"lon":139.80733851},{"name":"八反目東第二","province":"東京都","city":"墨田区","address":"東京都墨田区向島3丁目44-10","lat":35.71187387,"lon":139.80959473},{"name":"福祉保健センター前","province":"東京都","city":"墨田区","address":"東京都墨田区向島3丁目40-7","lat":35.71289911,"lon":139.81113646},{"name":"墨田リバーピア前","province":"東京都","city":"墨田区","address":"東京都墨田区吾妻橋1丁目22-7","lat":35.70991834,"lon":139.80199884},{"name":"東向島","province":"東京都","city":"墨田区","address":"東京都墨田区東向島4丁目26-7","lat":35.72272992,"lon":139.81843096},{"name":"四ツ木橋南詰","province":"東京都","city":"墨田区","address":"東京都墨田区墨田4丁目54","lat":35.72883509,"lon":139.82489398},{"name":"東向島三丁目","province":"東京都","city":"墨田区","address":"東京都墨田区東向島2丁目23-5","lat":35.72041618,"lon":139.81628397},{"name":"白鬚橋東詰","province":"東京都","city":"墨田区","address":"東京都墨田区東向島4丁目1-7","lat":35.72769889,"lon":139.81332658},{"name":"仲居堀","province":"東京都","city":"墨田区","address":"東京都墨田区文花3丁目16-5","lat":35.7128443,"lon":139.8271685},{"name":"小村井","province":"東京都","city":"墨田区","address":"東京都墨田区立花4丁目1-5","lat":35.71096092,"lon":139.82908505},{"name":"京島","province":"東京都","city":"墨田区","address":"東京都墨田区京島1丁目53-12","lat":35.71734424,"lon":139.82299402},{"name":"東向島六丁目","province":"東京都","city":"墨田区","address":"東京都墨田区東向島5丁目18-1","lat":35.7259436,"lon":139.82155274},{"name":"曳舟川","province":"東京都","city":"墨田区","address":"東京都墨田区東向島2丁目41-11","lat":35.72039126,"lon":139.82010007},{"name":"更正橋","province":"東京都","city":"墨田区","address":"東京都墨田区八広5丁目12-13","lat":35.72742135,"lon":139.82628826},{"name":"曳舟","province":"東京都","city":"墨田区","address":"東京都墨田区東向島2丁目31-15","lat":35.71844687,"lon":139.81811136},{"name":"白鬚橋交番前","province":"東京都","city":"墨田区","address":"東京都墨田区堤通2丁目3-2","lat":35.72869044,"lon":139.81288497},{"name":"東向島二丁目","province":"東京都","city":"墨田区","address":"東京都墨田区東向島2丁目21-2","lat":35.71962175,"lon":139.81537016},{"name":"京島二丁目","province":"東京都","city":"墨田区","address":"東京都墨田区京島1丁目27-4","lat":35.71593046,"lon":139.820036},{"name":"東向島一丁目","province":"東京都","city":"墨田区","address":"東京都墨田区東向島2丁目1-17","lat":35.71792724,"lon":139.81358967},{"name":"押上二丁目北","province":"東京都","city":"墨田区","address":"東京都墨田区東向島2丁目12-9","lat":35.71627736,"lon":139.81555038},{"name":"吾嬬西公園前","province":"東京都","city":"墨田区","address":"東京都墨田区八広6丁目53-16","lat":35.72424908,"lon":139.83025702},{"name":"八広六丁目","province":"東京都","city":"墨田区","address":"東京都墨田区八広6丁目29-8","lat":35.72690473,"lon":139.82919342},{"name":"高木神社入口","province":"東京都","city":"墨田区","address":"東京都墨田区東向島2丁目11-17","lat":35.71554674,"lon":139.81468372},{"name":"十間橋北","province":"東京都","city":"墨田区","address":"東京都墨田区文花1丁目1-5","lat":35.70885807,"lon":139.81870855},{"name":"八広一丁目","province":"東京都","city":"墨田区","address":"東京都墨田区八広1丁目7-1","lat":35.72122734,"lon":139.82175262},{"name":"曳舟小学校角","province":"東京都","city":"墨田区","address":"東京都墨田区京島3丁目9-7","lat":35.71656384,"lon":139.82213857},{"name":"八広小前","province":"東京都","city":"墨田区","address":"東京都墨田区八広6丁目9-14","lat":35.72731304,"lon":139.82709371},{"name":"東向島一丁目第二","province":"東京都","city":"墨田区","address":"東京都墨田区東向島2丁目20-1","lat":35.71878006,"lon":139.8144702},{"name":"曳舟文化センター","province":"東京都","city":"墨田区","address":"東京都墨田区京島1丁目38-11","lat":35.71831636,"lon":139.81876127},{"name":"墨田特別支援学校南","province":"東京都","city":"墨田区","address":"東京都墨田区東向島6丁目45","lat":35.72467145,"lon":139.82349966},{"name":"長浦神社前","province":"東京都","city":"墨田区","address":"東京都墨田区東向島6丁目27-7","lat":35.72352711,"lon":139.82273307},{"name":"東あづま駅前","province":"東京都","city":"墨田区","address":"東京都墨田区立花3丁目13-4","lat":35.70697755,"lon":139.83248773},{"name":"東向島四丁目","province":"東京都","city":"墨田区","address":"東京都墨田区東向島4丁目20-20","lat":35.72537966,"lon":139.81565934},{"name":"京成曳舟駅前","province":"東京都","city":"墨田区","address":"東京都墨田区京島1丁目43","lat":35.71936079,"lon":139.82040277},{"name":"平井橋第一公園前","province":"東京都","city":"墨田区","address":"東京都墨田区立花4丁目30-17","lat":35.71011618,"lon":139.83457064},{"name":"墨田特別支援学校北","province":"東京都","city":"墨田区","address":"東京都墨田区東向島6丁目56-9","lat":35.72597138,"lon":139.82461065},{"name":"墨田生涯学習センター前","province":"東京都","city":"墨田区","address":"東京都墨田区東向島6丁目6-12","lat":35.72145228,"lon":139.81971127},{"name":"墨田特別支援学校前","province":"東京都","city":"墨田区","address":"東京都墨田区八広5丁目9","lat":35.7235048,"lon":139.82482722},{"name":"白鬚橋東詰第二","province":"東京都","city":"墨田区","address":"東京都墨田区堤通2丁目3-1","lat":35.72857378,"lon":139.81259338},{"name":"曳舟交番前","province":"東京都","city":"墨田区","address":"東京都墨田区東向島2丁目27-1","lat":35.71769963,"lon":139.81702811},{"name":"墨田川高校前","province":"東京都","city":"墨田区","address":"東京都墨田区東向島3丁目37-7","lat":35.72178275,"lon":139.81717279},{"name":"東向島五丁目北","province":"東京都","city":"墨田区","address":"東京都墨田区東向島5丁目22-7","lat":35.72698798,"lon":139.823022},{"name":"向島消防署前","province":"東京都","city":"墨田区","address":"東京都墨田区東向島6丁目22-3","lat":35.723566,"lon":139.81996685},{"name":"白鬚公園南","province":"東京都","city":"墨田区","address":"東京都墨田区墨田1丁目4-2","lat":35.72907095,"lon":139.81423744},{"name":"区立文花公園","province":"東京都","city":"墨田区","address":"東京都墨田区文花1丁目27-5","lat":35.7094556,"lon":139.82244155},{"name":"区立両国公園","province":"東京都","city":"墨田区","address":"東京都墨田区両国4丁目25-3","lat":35.6937507,"lon":139.79611856},{"name":"白鬚東地区防災拠点","province":"東京都","city":"墨田区","address":"東京都墨田区堤通2丁目","lat":35.73410354,"lon":139.81657811},{"name":"３墨田清掃工場","province":"東京都","city":"墨田区","address":"東京都墨田区東墨田1丁目10-23","lat":35.7174879,"lon":139.83172056},{"name":"言問橋東詰","province":"東京都","city":"墨田区","address":"東京都墨田区向島1丁目5-6","lat":35.71296269,"lon":139.80529822},{"name":"錦糸町駅前","province":"東京都","city":"墨田区","address":"東京都墨田区江東橋3丁目14-5","lat":35.69643352,"lon":139.81393804},{"name":"緑三丁目","province":"東京都","city":"墨田区","address":"東京都墨田区緑3丁目11-5","lat":35.69483935,"lon":139.8052505},{"name":"向島三丁目","province":"東京都","city":"墨田区","address":"東京都墨田区向島4丁目1-1","lat":35.71578252,"lon":139.81036196},{"name":"両国二丁目","province":"東京都","city":"墨田区","address":"東京都墨田区両国2丁目10-8","lat":35.69390891,"lon":139.79173237},{"name":"菊川二丁目","province":"東京都","city":"墨田区","address":"東京都墨田区菊川2丁目6-11","lat":35.68858743,"lon":139.80581487},{"name":"石原一丁目","province":"東京都","city":"墨田区","address":"東京都墨田区横網2丁目4-11","lat":35.70047765,"lon":139.79677302},{"name":"本所一丁目","province":"東京都","city":"墨田区","address":"東京都墨田区本所1丁目4-10","lat":35.70358282,"lon":139.79663645},{"name":"吾妻橋三丁目","province":"東京都","city":"墨田区","address":"東京都墨田区吾妻橋3丁目7-1","lat":35.70885733,"lon":139.8044403},{"name":"亀沢四丁目","province":"東京都","city":"墨田区","address":"東京都墨田区亀沢4丁目11-6","lat":35.69718074,"lon":139.80547237},{"name":"吾妻橋五差路","province":"東京都","city":"墨田区","address":"東京都墨田区吾妻橋2丁目4-1","lat":35.70888232,"lon":139.80236003},{"name":"向島五丁目","province":"東京都","city":"墨田区","address":"東京都墨田区向島4丁目8-1","lat":35.7169299,"lon":139.81198973},{"name":"石原四丁目","province":"東京都","city":"墨田区","address":"東京都墨田区石原4丁目1-1","lat":35.6992055,"lon":139.80531657},{"name":"錦糸町駅南口","province":"東京都","city":"墨田区","address":"東京都墨田区江東橋3丁目13-1","lat":35.69586694,"lon":139.81362423},{"name":"曳舟川通り西","province":"東京都","city":"墨田区","address":"東京都墨田区押上2丁目1-1","lat":35.71079886,"lon":139.80891988},{"name":"吾妻橋東詰","province":"東京都","city":"墨田区","address":"東京都墨田区吾妻橋1丁目12-15","lat":35.70809627,"lon":139.79825794},{"name":"江戸東京博物館前","province":"東京都","city":"墨田区","address":"東京都墨田区横網1丁目5-1","lat":35.69762521,"lon":139.7971151},{"name":"長崎橋東詰","province":"東京都","city":"墨田区","address":"東京都墨田区錦糸1丁目17-10","lat":35.69788896,"lon":139.80895792},{"name":"押上二丁目","province":"東京都","city":"墨田区","address":"東京都墨田区押上2丁目20-14","lat":35.71371045,"lon":139.81295033},{"name":"横網公園前","province":"東京都","city":"墨田区","address":"東京都墨田区横網2丁目3","lat":35.69926945,"lon":139.79650933},{"name":"墨田中学校前","province":"東京都","city":"墨田区","address":"東京都墨田区向島4丁目28-1","lat":35.71407153,"lon":139.81255041},{"name":"錦糸公園前","province":"東京都","city":"墨田区","address":"東京都墨田区錦糸3丁目4-9","lat":35.6979833,"lon":139.81474616},{"name":"牛島神社前","province":"東京都","city":"墨田区","address":"東京都墨田区向島1丁目6-9","lat":35.711971,"lon":139.80486209},{"name":"秋葉神社前","province":"東京都","city":"墨田区","address":"東京都墨田区向島5丁目37-4","lat":35.71760495,"lon":139.81249254},{"name":"曳舟川通り第二","province":"東京都","city":"墨田区","address":"東京都墨田区向島3丁目43-10","lat":35.71162665,"lon":139.80970857},{"name":"錦糸町駅前第二","province":"東京都","city":"墨田区","address":"東京都墨田区江東橋4丁目29-15","lat":35.6960169,"lon":139.81651829},{"name":"高速駒形入口","province":"東京都","city":"墨田区","address":"東京都墨田区東駒形1丁目15-2","lat":35.70625478,"lon":139.79821929},{"name":"東京スカイツリー駅前","province":"東京都","city":"墨田区","address":"東京都墨田区押上1丁目1-2","lat":35.71005462,"lon":139.81070876},{"name":"石原四丁目第二","province":"東京都","city":"墨田区","address":"東京都墨田区石原4丁目26-1","lat":35.70087475,"lon":139.80633565},{"name":"千歳三丁目","province":"東京都","city":"墨田区","address":"東京都墨田区千歳3丁目6-6","lat":35.6902762,"lon":139.79780514},{"name":"小梅通り西","province":"東京都","city":"墨田区","address":"東京都墨田区向島3丁目45-1","lat":35.71152381,"lon":139.80867257},{"name":"錦糸町駅ガード南","province":"東京都","city":"墨田区","address":"東京都墨田区江東橋4丁目27-14","lat":35.69632797,"lon":139.81565727},{"name":"本所一之橋北詰","province":"東京都","city":"墨田区","address":"東京都墨田区両国2丁目1-3","lat":35.69205637,"lon":139.79178259},{"name":"すみだ共生社会推進センター","province":"東京都","city":"墨田区","address":"東京都墨田区向島3丁目39-19","lat":35.71293249,"lon":139.81156977},{"name":"向島交番前","province":"東京都","city":"墨田区","address":"東京都墨田区向島4丁目1-5","lat":35.71615479,"lon":139.81085363},{"name":"枕橋","province":"東京都","city":"墨田区","address":"東京都墨田区吾妻橋2丁目19-7","lat":35.71097102,"lon":139.80224865},{"name":"両国駅西口第二","province":"東京都","city":"墨田区","address":"東京都墨田区両国2丁目13-6","lat":35.69576978,"lon":139.7915877},{"name":"清平橋西","province":"東京都","city":"墨田区","address":"東京都墨田区石原4丁目11-13","lat":35.69930825,"lon":139.80733851},{"name":"八反目東第二","province":"東京都","city":"墨田区","address":"東京都墨田区向島3丁目44-10","lat":35.71187387,"lon":139.80959473},{"name":"福祉保健センター前","province":"東京都","city":"墨田区","address":"東京都墨田区向島3丁目40-7","lat":35.71289911,"lon":139.81113646},{"name":"墨田リバーピア前","province":"東京都","city":"墨田区","address":"東京都墨田区吾妻橋1丁目22-7","lat":35.70991834,"lon":139.80199884},{"name":"東向島","province":"東京都","city":"墨田区","address":"東京都墨田区東向島4丁目26-7","lat":35.72272992,"lon":139.81843096},{"name":"四ツ木橋南詰","province":"東京都","city":"墨田区","address":"東京都墨田区墨田4丁目54","lat":35.72883509,"lon":139.82489398},{"name":"東向島三丁目","province":"東京都","city":"墨田区","address":"東京都墨田区東向島2丁目23-5","lat":35.72041618,"lon":139.81628397},{"name":"白鬚橋東詰","province":"東京都","city":"墨田区","address":"東京都墨田区東向島4丁目1-7","lat":35.72769889,"lon":139.81332658},{"name":"仲居堀","province":"東京都","city":"墨田区","address":"東京都墨田区文花3丁目16-5","lat":35.7128443,"lon":139.8271685},{"name":"小村井","province":"東京都","city":"墨田区","address":"東京都墨田区立花4丁目1-5","lat":35.71096092,"lon":139.82908505},{"name":"京島","province":"東京都","city":"墨田区","address":"東京都墨田区京島1丁目53-12","lat":35.71734424,"lon":139.82299402},{"name":"東向島六丁目","province":"東京都","city":"墨田区","address":"東京都墨田区東向島5丁目18-1","lat":35.7259436,"lon":139.82155274},{"name":"曳舟川","province":"東京都","city":"墨田区","address":"東京都墨田区東向島2丁目41-11","lat":35.72039126,"lon":139.82010007},{"name":"更正橋","province":"東京都","city":"墨田区","address":"東京都墨田区八広5丁目12-13","lat":35.72742135,"lon":139.82628826},{"name":"曳舟","province":"東京都","city":"墨田区","address":"東京都墨田区東向島2丁目31-15","lat":35.71844687,"lon":139.81811136},{"name":"白鬚橋交番前","province":"東京都","city":"墨田区","address":"東京都墨田区堤通2丁目3-2","lat":35.72869044,"lon":139.81288497},{"name":"東向島二丁目","province":"東京都","city":"墨田区","address":"東京都墨田区東向島2丁目21-2","lat":35.71962175,"lon":139.81537016},{"name":"京島二丁目","province":"東京都","city":"墨田区","address":"東京都墨田区京島1丁目27-4","lat":35.71593046,"lon":139.820036},{"name":"東向島一丁目","province":"東京都","city":"墨田区","address":"東京都墨田区東向島2丁目1-17","lat":35.71792724,"lon":139.81358967},{"name":"押上二丁目北","province":"東京都","city":"墨田区","address":"東京都墨田区東向島2丁目12-9","lat":35.71627736,"lon":139.81555038},{"name":"吾嬬西公園前","province":"東京都","city":"墨田区","address":"東京都墨田区八広6丁目53-16","lat":35.72424908,"lon":139.83025702},{"name":"八広六丁目","province":"東京都","city":"墨田区","address":"東京都墨田区八広6丁目29-8","lat":35.72690473,"lon":139.82919342},{"name":"高木神社入口","province":"東京都","city":"墨田区","address":"東京都墨田区東向島2丁目11-17","lat":35.71554674,"lon":139.81468372},{"name":"十間橋北","province":"東京都","city":"墨田区","address":"東京都墨田区文花1丁目1-5","lat":35.70885807,"lon":139.81870855},{"name":"八広一丁目","province":"東京都","city":"墨田区","address":"東京都墨田区八広1丁目7-1","lat":35.72122734,"lon":139.82175262},{"name":"曳舟小学校角","province":"東京都","city":"墨田区","address":"東京都墨田区京島3丁目9-7","lat":35.71656384,"lon":139.82213857},{"name":"八広小前","province":"東京都","city":"墨田区","address":"東京都墨田区八広6丁目9-14","lat":35.72731304,"lon":139.82709371},{"name":"東向島一丁目第二","province":"東京都","city":"墨田区","address":"東京都墨田区東向島2丁目20-1","lat":35.71878006,"lon":139.8144702},{"name":"曳舟文化センター","province":"東京都","city":"墨田区","address":"東京都墨田区京島1丁目38-11","lat":35.71831636,"lon":139.81876127},{"name":"墨田特別支援学校南","province":"東京都","city":"墨田区","address":"東京都墨田区東向島6丁目45","lat":35.72467145,"lon":139.82349966},{"name":"長浦神社前","province":"東京都","city":"墨田区","address":"東京都墨田区東向島6丁目27-7","lat":35.72352711,"lon":139.82273307},{"name":"東あづま駅前","province":"東京都","city":"墨田区","address":"東京都墨田区立花3丁目13-4","lat":35.70697755,"lon":139.83248773},{"name":"東向島四丁目","province":"東京都","city":"墨田区","address":"東京都墨田区東向島4丁目20-20","lat":35.72537966,"lon":139.81565934},{"name":"京成曳舟駅前","province":"東京都","city":"墨田区","address":"東京都墨田区京島1丁目43","lat":35.71936079,"lon":139.82040277},{"name":"平井橋第一公園前","province":"東京都","city":"墨田区","address":"東京都墨田区立花4丁目30-17","lat":35.71011618,"lon":139.83457064},{"name":"墨田特別支援学校北","province":"東京都","city":"墨田区","address":"東京都墨田区東向島6丁目56-9","lat":35.72597138,"lon":139.82461065},{"name":"墨田生涯学習センター前","province":"東京都","city":"墨田区","address":"東京都墨田区東向島6丁目6-12","lat":35.72145228,"lon":139.81971127},{"name":"墨田特別支援学校前","province":"東京都","city":"墨田区","address":"東京都墨田区八広5丁目9","lat":35.7235048,"lon":139.82482722},{"name":"白鬚橋東詰第二","province":"東京都","city":"墨田区","address":"東京都墨田区堤通2丁目3-1","lat":35.72857378,"lon":139.81259338},{"name":"曳舟交番前","province":"東京都","city":"墨田区","address":"東京都墨田区東向島2丁目27-1","lat":35.71769963,"lon":139.81702811},{"name":"墨田川高校前","province":"東京都","city":"墨田区","address":"東京都墨田区東向島3丁目37-7","lat":35.72178275,"lon":139.81717279},{"name":"東向島五丁目北","province":"東京都","city":"墨田区","address":"東京都墨田区東向島5丁目22-7","lat":35.72698798,"lon":139.823022},{"name":"向島消防署前","province":"東京都","city":"墨田区","address":"東京都墨田区東向島6丁目22-3","lat":35.723566,"lon":139.81996685},{"name":"白鬚公園南","province":"東京都","city":"墨田区","address":"東京都墨田区墨田1丁目4-2","lat":35.72907095,"lon":139.81423744},{"name":"区立文花公園","province":"東京都","city":"墨田区","address":"東京都墨田区文花1丁目27-5","lat":35.7094556,"lon":139.82244155},{"name":"区立両国公園","province":"東京都","city":"墨田区","address":"東京都墨田区両国4丁目25-3","lat":35.6937507,"lon":139.79611856},{"name":"白鬚東地区防災拠点","province":"東京都","city":"墨田区","address":"東京都墨田区堤通2丁目","lat":35.73410354,"lon":139.81657811},{"name":"３墨田清掃工場","province":"東京都","city":"墨田区","address":"東京都墨田区東墨田1丁目10-23","lat":35.7174879,"lon":139.83172056},{"name":"言問橋東詰","province":"東京都","city":"墨田区","address":"東京都墨田区向島1丁目5-6","lat":35.71296269,"lon":139.80529822},{"name":"錦糸町駅前","province":"東京都","city":"墨田区","address":"東京都墨田区江東橋3丁目14-5","lat":35.69643352,"lon":139.81393804},{"name":"緑三丁目","province":"東京都","city":"墨田区","address":"東京都墨田区緑3丁目11-5","lat":35.69483935,"lon":139.8052505},{"name":"向島三丁目","province":"東京都","city":"墨田区","address":"東京都墨田区向島4丁目1-1","lat":35.71578252,"lon":139.81036196},{"name":"両国二丁目","province":"東京都","city":"墨田区","address":"東京都墨田区両国2丁目10-8","lat":35.69390891,"lon":139.79173237},{"name":"菊川二丁目","province":"東京都","city":"墨田区","address":"東京都墨田区菊川2丁目6-11","lat":35.68858743,"lon":139.80581487},{"name":"石原一丁目","province":"東京都","city":"墨田区","address":"東京都墨田区横網2丁目4-11","lat":35.70047765,"lon":139.79677302},{"name":"本所一丁目","province":"東京都","city":"墨田区","address":"東京都墨田区本所1丁目4-10","lat":35.70358282,"lon":139.79663645},{"name":"吾妻橋三丁目","province":"東京都","city":"墨田区","address":"東京都墨田区吾妻橋3丁目7-1","lat":35.70885733,"lon":139.8044403},{"name":"亀沢四丁目","province":"東京都","city":"墨田区","address":"東京都墨田区亀沢4丁目11-6","lat":35.69718074,"lon":139.80547237},{"name":"吾妻橋五差路","province":"東京都","city":"墨田区","address":"東京都墨田区吾妻橋2丁目4-1","lat":35.70888232,"lon":139.80236003},{"name":"向島五丁目","province":"東京都","city":"墨田区","address":"東京都墨田区向島4丁目8-1","lat":35.7169299,"lon":139.81198973},{"name":"石原四丁目","province":"東京都","city":"墨田区","address":"東京都墨田区石原4丁目1-1","lat":35.6992055,"lon":139.80531657},{"name":"錦糸町駅南口","province":"東京都","city":"墨田区","address":"東京都墨田区江東橋3丁目13-1","lat":35.69586694,"lon":139.81362423},{"name":"曳舟川通り西","province":"東京都","city":"墨田区","address":"東京都墨田区押上2丁目1-1","lat":35.71079886,"lon":139.80891988},{"name":"吾妻橋東詰","province":"東京都","city":"墨田区","address":"東京都墨田区吾妻橋1丁目12-15","lat":35.70809627,"lon":139.79825794},{"name":"江戸東京博物館前","province":"東京都","city":"墨田区","address":"東京都墨田区横網1丁目5-1","lat":35.69762521,"lon":139.7971151},{"name":"長崎橋東詰","province":"東京都","city":"墨田区","address":"東京都墨田区錦糸1丁目17-10","lat":35.69788896,"lon":139.80895792},{"name":"押上二丁目","province":"東京都","city":"墨田区","address":"東京都墨田区押上2丁目20-14","lat":35.71371045,"lon":139.81295033},{"name":"横網公園前","province":"東京都","city":"墨田区","address":"東京都墨田区横網2丁目3","lat":35.69926945,"lon":139.79650933},{"name":"墨田中学校前","province":"東京都","city":"墨田区","address":"東京都墨田区向島4丁目28-1","lat":35.71407153,"lon":139.81255041},{"name":"錦糸公園前","province":"東京都","city":"墨田区","address":"東京都墨田区錦糸3丁目4-9","lat":35.6979833,"lon":139.81474616},{"name":"牛島神社前","province":"東京都","city":"墨田区","address":"東京都墨田区向島1丁目6-9","lat":35.711971,"lon":139.80486209},{"name":"秋葉神社前","province":"東京都","city":"墨田区","address":"東京都墨田区向島5丁目37-4","lat":35.71760495,"lon":139.81249254},{"name":"曳舟川通り第二","province":"東京都","city":"墨田区","address":"東京都墨田区向島3丁目43-10","lat":35.71162665,"lon":139.80970857},{"name":"錦糸町駅前第二","province":"東京都","city":"墨田区","address":"東京都墨田区江東橋4丁目29-15","lat":35.6960169,"lon":139.81651829},{"name":"高速駒形入口","province":"東京都","city":"墨田区","address":"東京都墨田区東駒形1丁目15-2","lat":35.70625478,"lon":139.79821929},{"name":"東京スカイツリー駅前","province":"東京都","city":"墨田区","address":"東京都墨田区押上1丁目1-2","lat":35.71005462,"lon":139.81070876},{"name":"石原四丁目第二","province":"東京都","city":"墨田区","address":"東京都墨田区石原4丁目26-1","lat":35.70087475,"lon":139.80633565},{"name":"千歳三丁目","province":"東京都","city":"墨田区","address":"東京都墨田区千歳3丁目6-6","lat":35.6902762,"lon":139.79780514},{"name":"小梅通り西","province":"東京都","city":"墨田区","address":"東京都墨田区向島3丁目45-1","lat":35.71152381,"lon":139.80867257},{"name":"錦糸町駅ガード南","province":"東京都","city":"墨田区","address":"東京都墨田区江東橋4丁目27-14","lat":35.69632797,"lon":139.81565727},{"name":"本所一之橋北詰","province":"東京都","city":"墨田区","address":"東京都墨田区両国2丁目1-3","lat":35.69205637,"lon":139.79178259},{"name":"すみだ共生社会推進センター","province":"東京都","city":"墨田区","address":"東京都墨田区向島3丁目39-19","lat":35.71293249,"lon":139.81156977},{"name":"向島交番前","province":"東京都","city":"墨田区","address":"東京都墨田区向島4丁目1-5","lat":35.71615479,"lon":139.81085363},{"name":"枕橋","province":"東京都","city":"墨田区","address":"東京都墨田区吾妻橋2丁目19-7","lat":35.71097102,"lon":139.80224865},{"name":"両国駅西口第二","province":"東京都","city":"墨田区","address":"東京都墨田区両国2丁目13-6","lat":35.69576978,"lon":139.7915877},{"name":"清平橋西","province":"東京都","city":"墨田区","address":"東京都墨田区石原4丁目11-13","lat":35.69930825,"lon":139.80733851},{"name":"八反目東第二","province":"東京都","city":"墨田区","address":"東京都墨田区向島3丁目44-10","lat":35.71187387,"lon":139.80959473},{"name":"福祉保健センター前","province":"東京都","city":"墨田区","address":"東京都墨田区向島3丁目40-7","lat":35.71289911,"lon":139.81113646},{"name":"墨田リバーピア前","province":"東京都","city":"墨田区","address":"東京都墨田区吾妻橋1丁目22-7","lat":35.70991834,"lon":139.80199884},{"name":"東向島","province":"東京都","city":"墨田区","address":"東京都墨田区東向島4丁目26-7","lat":35.72272992,"lon":139.81843096},{"name":"四ツ木橋南詰","province":"東京都","city":"墨田区","address":"東京都墨田区墨田4丁目54","lat":35.72883509,"lon":139.82489398},{"name":"東向島三丁目","province":"東京都","city":"墨田区","address":"東京都墨田区東向島2丁目23-5","lat":35.72041618,"lon":139.81628397},{"name":"白鬚橋東詰","province":"東京都","city":"墨田区","address":"東京都墨田区東向島4丁目1-7","lat":35.72769889,"lon":139.81332658},{"name":"仲居堀","province":"東京都","city":"墨田区","address":"東京都墨田区文花3丁目16-5","lat":35.7128443,"lon":139.8271685},{"name":"小村井","province":"東京都","city":"墨田区","address":"東京都墨田区立花4丁目1-5","lat":35.71096092,"lon":139.82908505},{"name":"京島","province":"東京都","city":"墨田区","address":"東京都墨田区京島1丁目53-12","lat":35.71734424,"lon":139.82299402},{"name":"東向島六丁目","province":"東京都","city":"墨田区","address":"東京都墨田区東向島5丁目18-1","lat":35.7259436,"lon":139.82155274},{"name":"曳舟川","province":"東京都","city":"墨田区","address":"東京都墨田区東向島2丁目41-11","lat":35.72039126,"lon":139.82010007},{"name":"更正橋","province":"東京都","city":"墨田区","address":"東京都墨田区八広5丁目12-13","lat":35.72742135,"lon":139.82628826},{"name":"曳舟","province":"東京都","city":"墨田区","address":"東京都墨田区東向島2丁目31-15","lat":35.71844687,"lon":139.81811136},{"name":"白鬚橋交番前","province":"東京都","city":"墨田区","address":"東京都墨田区堤通2丁目3-2","lat":35.72869044,"lon":139.81288497},{"name":"東向島二丁目","province":"東京都","city":"墨田区","address":"東京都墨田区東向島2丁目21-2","lat":35.71962175,"lon":139.81537016},{"name":"京島二丁目","province":"東京都","city":"墨田区","address":"東京都墨田区京島1丁目27-4","lat":35.71593046,"lon":139.820036},{"name":"東向島一丁目","province":"東京都","city":"墨田区","address":"東京都墨田区東向島2丁目1-17","lat":35.71792724,"lon":139.81358967},{"name":"押上二丁目北","province":"東京都","city":"墨田区","address":"東京都墨田区東向島2丁目12-9","lat":35.71627736,"lon":139.81555038},{"name":"吾嬬西公園前","province":"東京都","city":"墨田区","address":"東京都墨田区八広6丁目53-16","lat":35.72424908,"lon":139.83025702},{"name":"八広六丁目","province":"東京都","city":"墨田区","address":"東京都墨田区八広6丁目29-8","lat":35.72690473,"lon":139.82919342},{"name":"高木神社入口","province":"東京都","city":"墨田区","address":"東京都墨田区東向島2丁目11-17","lat":35.71554674,"lon":139.81468372},{"name":"十間橋北","province":"東京都","city":"墨田区","address":"東京都墨田区文花1丁目1-5","lat":35.70885807,"lon":139.81870855},{"name":"八広一丁目","province":"東京都","city":"墨田区","address":"東京都墨田区八広1丁目7-1","lat":35.72122734,"lon":139.82175262},{"name":"曳舟小学校角","province":"東京都","city":"墨田区","address":"東京都墨田区京島3丁目9-7","lat":35.71656384,"lon":139.82213857},{"name":"八広小前","province":"東京都","city":"墨田区","address":"東京都墨田区八広6丁目9-14","lat":35.72731304,"lon":139.82709371},{"name":"東向島一丁目第二","province":"東京都","city":"墨田区","address":"東京都墨田区東向島2丁目20-1","lat":35.71878006,"lon":139.8144702},{"name":"曳舟文化センター","province":"東京都","city":"墨田区","address":"東京都墨田区京島1丁目38-11","lat":35.71831636,"lon":139.81876127},{"name":"墨田特別支援学校南","province":"東京都","city":"墨田区","address":"東京都墨田区東向島6丁目45","lat":35.72467145,"lon":139.82349966},{"name":"長浦神社前","province":"東京都","city":"墨田区","address":"東京都墨田区東向島6丁目27-7","lat":35.72352711,"lon":139.82273307},{"name":"東あづま駅前","province":"東京都","city":"墨田区","address":"東京都墨田区立花3丁目13-4","lat":35.70697755,"lon":139.83248773},{"name":"東向島四丁目","province":"東京都","city":"墨田区","address":"東京都墨田区東向島4丁目20-20","lat":35.72537966,"lon":139.81565934},{"name":"京成曳舟駅前","province":"東京都","city":"墨田区","address":"東京都墨田区京島1丁目43","lat":35.71936079,"lon":139.82040277},{"name":"平井橋第一公園前","province":"東京都","city":"墨田区","address":"東京都墨田区立花4丁目30-17","lat":35.71011618,"lon":139.83457064},{"name":"墨田特別支援学校北","province":"東京都","city":"墨田区","address":"東京都墨田区東向島6丁目56-9","lat":35.72597138,"lon":139.82461065},{"name":"墨田生涯学習センター前","province":"東京都","city":"墨田区","address":"東京都墨田区東向島6丁目6-12","lat":35.72145228,"lon":139.81971127},{"name":"墨田特別支援学校前","province":"東京都","city":"墨田区","address":"東京都墨田区八広5丁目9","lat":35.7235048,"lon":139.82482722},{"name":"白鬚橋東詰第二","province":"東京都","city":"墨田区","address":"東京都墨田区堤通2丁目3-1","lat":35.72857378,"lon":139.81259338},{"name":"曳舟交番前","province":"東京都","city":"墨田区","address":"東京都墨田区東向島2丁目27-1","lat":35.71769963,"lon":139.81702811},{"name":"墨田川高校前","province":"東京都","city":"墨田区","address":"東京都墨田区東向島3丁目37-7","lat":35.72178275,"lon":139.81717279},{"name":"東向島五丁目北","province":"東京都","city":"墨田区","address":"東京都墨田区東向島5丁目22-7","lat":35.72698798,"lon":139.823022},{"name":"向島消防署前","province":"東京都","city":"墨田区","address":"東京都墨田区東向島6丁目22-3","lat":35.723566,"lon":139.81996685},{"name":"白鬚公園南","province":"東京都","city":"墨田区","address":"東京都墨田区墨田1丁目4-2","lat":35.72907095,"lon":139.81423744},{"name":"区立文花公園","province":"東京都","city":"墨田区","address":"東京都墨田区文花1丁目27-5","lat":35.7094556,"lon":139.82244155},{"name":"区立両国公園","province":"東京都","city":"墨田区","address":"東京都墨田区両国4丁目25-3","lat":35.6937507,"lon":139.79611856},{"name":"白鬚東地区防災拠点","province":"東京都","city":"墨田区","address":"東京都墨田区堤通2丁目","lat":35.73410354,"lon":139.81657811},{"name":"３墨田清掃工場","province":"東京都","city":"墨田区","address":"東京都墨田区東墨田1丁目10-23","lat":35.7174879,"lon":139.83172056},{"name":"言問橋東詰","province":"東京都","city":"墨田区","address":"東京都墨田区向島1丁目5-6","lat":35.71296269,"lon":139.80529822},{"name":"錦糸町駅前","province":"東京都","city":"墨田区","address":"東京都墨田区江東橋3丁目14-5","lat":35.69643352,"lon":139.81393804},{"name":"緑三丁目","province":"東京都","city":"墨田区","address":"東京都墨田区緑3丁目11-5","lat":35.69483935,"lon":139.8052505},{"name":"向島三丁目","province":"東京都","city":"墨田区","address":"東京都墨田区向島4丁目1-1","lat":35.71578252,"lon":139.81036196},{"name":"両国二丁目","province":"東京都","city":"墨田区","address":"東京都墨田区両国2丁目10-8","lat":35.69390891,"lon":139.79173237},{"name":"菊川二丁目","province":"東京都","city":"墨田区","address":"東京都墨田区菊川2丁目6-11","lat":35.68858743,"lon":139.80581487},{"name":"石原一丁目","province":"東京都","city":"墨田区","address":"東京都墨田区横網2丁目4-11","lat":35.70047765,"lon":139.79677302},{"name":"本所一丁目","province":"東京都","city":"墨田区","address":"東京都墨田区本所1丁目4-10","lat":35.70358282,"lon":139.79663645},{"name":"吾妻橋三丁目","province":"東京都","city":"墨田区","address":"東京都墨田区吾妻橋3丁目7-1","lat":35.70885733,"lon":139.8044403},{"name":"亀沢四丁目","province":"東京都","city":"墨田区","address":"東京都墨田区亀沢4丁目11-6","lat":35.69718074,"lon":139.80547237},{"name":"吾妻橋五差路","province":"東京都","city":"墨田区","address":"東京都墨田区吾妻橋2丁目4-1","lat":35.70888232,"lon":139.80236003},{"name":"向島五丁目","province":"東京都","city":"墨田区","address":"東京都墨田区向島4丁目8-1","lat":35.7169299,"lon":139.81198973},{"name":"石原四丁目","province":"東京都","city":"墨田区","address":"東京都墨田区石原4丁目1-1","lat":35.6992055,"lon":139.80531657},{"name":"錦糸町駅南口","province":"東京都","city":"墨田区","address":"東京都墨田区江東橋3丁目13-1","lat":35.69586694,"lon":139.81362423},{"name":"曳舟川通り西","province":"東京都","city":"墨田区","address":"東京都墨田区押上2丁目1-1","lat":35.71079886,"lon":139.80891988},{"name":"吾妻橋東詰","province":"東京都","city":"墨田区","address":"東京都墨田区吾妻橋1丁目12-15","lat":35.70809627,"lon":139.79825794},{"name":"江戸東京博物館前","province":"東京都","city":"墨田区","address":"東京都墨田区横網1丁目5-1","lat":35.69762521,"lon":139.7971151},{"name":"長崎橋東詰","province":"東京都","city":"墨田区","address":"東京都墨田区錦糸1丁目17-10","lat":35.69788896,"lon":139.80895792},{"name":"押上二丁目","province":"東京都","city":"墨田区","address":"東京都墨田区押上2丁目20-14","lat":35.71371045,"lon":139.81295033},{"name":"横網公園前","province":"東京都","city":"墨田区","address":"東京都墨田区横網2丁目3","lat":35.69926945,"lon":139.79650933},{"name":"墨田中学校前","province":"東京都","city":"墨田区","address":"東京都墨田区向島4丁目28-1","lat":35.71407153,"lon":139.81255041},{"name":"錦糸公園前","province":"東京都","city":"墨田区","address":"東京都墨田区錦糸3丁目4-9","lat":35.6979833,"lon":139.81474616},{"name":"牛島神社前","province":"東京都","city":"墨田区","address":"東京都墨田区向島1丁目6-9","lat":35.711971,"lon":139.80486209},{"name":"秋葉神社前","province":"東京都","city":"墨田区","address":"東京都墨田区向島5丁目37-4","lat":35.71760495,"lon":139.81249254},{"name":"曳舟川通り第二","province":"東京都","city":"墨田区","address":"東京都墨田区向島3丁目43-10","lat":35.71162665,"lon":139.80970857},{"name":"錦糸町駅前第二","province":"東京都","city":"墨田区","address":"東京都墨田区江東橋4丁目29-15","lat":35.6960169,"lon":139.81651829},{"name":"高速駒形入口","province":"東京都","city":"墨田区","address":"東京都墨田区東駒形1丁目15-2","lat":35.70625478,"lon":139.79821929},{"name":"東京スカイツリー駅前","province":"東京都","city":"墨田区","address":"東京都墨田区押上1丁目1-2","lat":35.71005462,"lon":139.81070876},{"name":"石原四丁目第二","province":"東京都","city":"墨田区","address":"東京都墨田区石原4丁目26-1","lat":35.70087475,"lon":139.80633565},{"name":"千歳三丁目","province":"東京都","city":"墨田区","address":"東京都墨田区千歳3丁目6-6","lat":35.6902762,"lon":139.79780514},{"name":"小梅通り西","province":"東京都","city":"墨田区","address":"東京都墨田区向島3丁目45-1","lat":35.71152381,"lon":139.80867257},{"name":"錦糸町駅ガード南","province":"東京都","city":"墨田区","address":"東京都墨田区江東橋4丁目27-14","lat":35.69632797,"lon":139.81565727},{"name":"本所一之橋北詰","province":"東京都","city":"墨田区","address":"東京都墨田区両国2丁目1-3","lat":35.69205637,"lon":139.79178259},{"name":"すみだ共生社会推進センター","province":"東京都","city":"墨田区","address":"東京都墨田区向島3丁目39-19","lat":35.71293249,"lon":139.81156977},{"name":"向島交番前","province":"東京都","city":"墨田区","address":"東京都墨田区向島4丁目1-5","lat":35.71615479,"lon":139.81085363},{"name":"枕橋","province":"東京都","city":"墨田区","address":"東京都墨田区吾妻橋2丁目19-7","lat":35.71097102,"lon":139.80224865},{"name":"両国駅西口第二","province":"東京都","city":"墨田区","address":"東京都墨田区両国2丁目13-6","lat":35.69576978,"lon":139.7915877},{"name":"清平橋西","province":"東京都","city":"墨田区","address":"東京都墨田区石原4丁目11-13","lat":35.69930825,"lon":139.80733851},{"name":"八反目東第二","province":"東京都","city":"墨田区","address":"東京都墨田区向島3丁目44-10","lat":35.71187387,"lon":139.80959473},{"name":"福祉保健センター前","province":"東京都","city":"墨田区","address":"東京都墨田区向島3丁目40-7","lat":35.71289911,"lon":139.81113646},{"name":"墨田リバーピア前","province":"東京都","city":"墨田区","address":"東京都墨田区吾妻橋1丁目22-7","lat":35.70991834,"lon":139.80199884},{"name":"東向島","province":"東京都","city":"墨田区","address":"東京都墨田区東向島4丁目26-7","lat":35.72272992,"lon":139.81843096},{"name":"四ツ木橋南詰","province":"東京都","city":"墨田区","address":"東京都墨田区墨田4丁目54","lat":35.72883509,"lon":139.82489398},{"name":"東向島三丁目","province":"東京都","city":"墨田区","address":"東京都墨田区東向島2丁目23-5","lat":35.72041618,"lon":139.81628397},{"name":"白鬚橋東詰","province":"東京都","city":"墨田区","address":"東京都墨田区東向島4丁目1-7","lat":35.72769889,"lon":139.81332658},{"name":"仲居堀","province":"東京都","city":"墨田区","address":"東京都墨田区文花3丁目16-5","lat":35.7128443,"lon":139.8271685},{"name":"小村井","province":"東京都","city":"墨田区","address":"東京都墨田区立花4丁目1-5","lat":35.71096092,"lon":139.82908505},{"name":"京島","province":"東京都","city":"墨田区","address":"東京都墨田区京島1丁目53-12","lat":35.71734424,"lon":139.82299402},{"name":"東向島六丁目","province":"東京都","city":"墨田区","address":"東京都墨田区東向島5丁目18-1","lat":35.7259436,"lon":139.82155274},{"name":"曳舟川","province":"東京都","city":"墨田区","address":"東京都墨田区東向島2丁目41-11","lat":35.72039126,"lon":139.82010007},{"name":"更正橋","province":"東京都","city":"墨田区","address":"東京都墨田区八広5丁目12-13","lat":35.72742135,"lon":139.82628826},{"name":"曳舟","province":"東京都","city":"墨田区","address":"東京都墨田区東向島2丁目31-15","lat":35.71844687,"lon":139.81811136},{"name":"白鬚橋交番前","province":"東京都","city":"墨田区","address":"東京都墨田区堤通2丁目3-2","lat":35.72869044,"lon":139.81288497},{"name":"東向島二丁目","province":"東京都","city":"墨田区","address":"東京都墨田区東向島2丁目21-2","lat":35.71962175,"lon":139.81537016},{"name":"京島二丁目","province":"東京都","city":"墨田区","address":"東京都墨田区京島1丁目27-4","lat":35.71593046,"lon":139.820036},{"name":"東向島一丁目","province":"東京都","city":"墨田区","address":"東京都墨田区東向島2丁目1-17","lat":35.71792724,"lon":139.81358967},{"name":"押上二丁目北","province":"東京都","city":"墨田区","address":"東京都墨田区東向島2丁目12-9","lat":35.71627736,"lon":139.81555038},{"name":"吾嬬西公園前","province":"東京都","city":"墨田区","address":"東京都墨田区八広6丁目53-16","lat":35.72424908,"lon":139.83025702},{"name":"八広六丁目","province":"東京都","city":"墨田区","address":"東京都墨田区八広6丁目29-8","lat":35.72690473,"lon":139.82919342},{"name":"高木神社入口","province":"東京都","city":"墨田区","address":"東京都墨田区東向島2丁目11-17","lat":35.71554674,"lon":139.81468372},{"name":"十間橋北","province":"東京都","city":"墨田区","address":"東京都墨田区文花1丁目1-5","lat":35.70885807,"lon":139.81870855},{"name":"八広一丁目","province":"東京都","city":"墨田区","address":"東京都墨田区八広1丁目7-1","lat":35.72122734,"lon":139.82175262},{"name":"曳舟小学校角","province":"東京都","city":"墨田区","address":"東京都墨田区京島3丁目9-7","lat":35.71656384,"lon":139.82213857},{"name":"八広小前","province":"東京都","city":"墨田区","address":"東京都墨田区八広6丁目9-14","lat":35.72731304,"lon":139.82709371},{"name":"東向島一丁目第二","province":"東京都","city":"墨田区","address":"東京都墨田区東向島2丁目20-1","lat":35.71878006,"lon":139.8144702},{"name":"曳舟文化センター","province":"東京都","city":"墨田区","address":"東京都墨田区京島1丁目38-11","lat":35.71831636,"lon":139.81876127},{"name":"墨田特別支援学校南","province":"東京都","city":"墨田区","address":"東京都墨田区東向島6丁目45","lat":35.72467145,"lon":139.82349966},{"name":"長浦神社前","province":"東京都","city":"墨田区","address":"東京都墨田区東向島6丁目27-7","lat":35.72352711,"lon":139.82273307},{"name":"東あづま駅前","province":"東京都","city":"墨田区","address":"東京都墨田区立花3丁目13-4","lat":35.70697755,"lon":139.83248773},{"name":"東向島四丁目","province":"東京都","city":"墨田区","address":"東京都墨田区東向島4丁目20-20","lat":35.72537966,"lon":139.81565934},{"name":"京成曳舟駅前","province":"東京都","city":"墨田区","address":"東京都墨田区京島1丁目43","lat":35.71936079,"lon":139.82040277},{"name":"平井橋第一公園前","province":"東京都","city":"墨田区","address":"東京都墨田区立花4丁目30-17","lat":35.71011618,"lon":139.83457064},{"name":"墨田特別支援学校北","province":"東京都","city":"墨田区","address":"東京都墨田区東向島6丁目56-9","lat":35.72597138,"lon":139.82461065},{"name":"墨田生涯学習センター前","province":"東京都","city":"墨田区","address":"東京都墨田区東向島6丁目6-12","lat":35.72145228,"lon":139.81971127},{"name":"墨田特別支援学校前","province":"東京都","city":"墨田区","address":"東京都墨田区八広5丁目9","lat":35.7235048,"lon":139.82482722},{"name":"白鬚橋東詰第二","province":"東京都","city":"墨田区","address":"東京都墨田区堤通2丁目3-1","lat":35.72857378,"lon":139.81259338},{"name":"曳舟交番前","province":"東京都","city":"墨田区","address":"東京都墨田区東向島2丁目27-1","lat":35.71769963,"lon":139.81702811},{"name":"墨田川高校前","province":"東京都","city":"墨田区","address":"東京都墨田区東向島3丁目37-7","lat":35.72178275,"lon":139.81717279},{"name":"東向島五丁目北","province":"東京都","city":"墨田区","address":"東京都墨田区東向島5丁目22-7","lat":35.72698798,"lon":139.823022},{"name":"向島消防署前","province":"東京都","city":"墨田区","address":"東京都墨田区東向島6丁目22-3","lat":35.723566,"lon":139.81996685},{"name":"白鬚公園南","province":"東京都","city":"墨田区","address":"東京都墨田区墨田1丁目4-2","lat":35.72907095,"lon":139.81423744},{"name":"区立文花公園","province":"東京都","city":"墨田区","address":"東京都墨田区文花1丁目27-5","lat":35.7094556,"lon":139.82244155},{"name":"区立両国公園","province":"東京都","city":"墨田区","address":"東京都墨田区両国4丁目25-3","lat":35.6937507,"lon":139.79611856},{"name":"白鬚東地区防災拠点","province":"東京都","city":"墨田区","address":"東京都墨田区堤通2丁目","lat":35.73410354,"lon":139.81657811},{"name":"３墨田清掃工場","province":"東京都","city":"墨田区","address":"東京都墨田区東墨田1丁目10-23","lat":35.7174879,"lon":139.83172056},{"name":"言問橋東詰","province":"東京都","city":"墨田区","address":"東京都墨田区向島1丁目5-6","lat":35.71296269,"lon":139.80529822},{"name":"錦糸町駅前","province":"東京都","city":"墨田区","address":"東京都墨田区江東橋3丁目14-5","lat":35.69643352,"lon":139.81393804},{"name":"緑三丁目","province":"東京都","city":"墨田区","address":"東京都墨田区緑3丁目11-5","lat":35.69483935,"lon":139.8052505},{"name":"向島三丁目","province":"東京都","city":"墨田区","address":"東京都墨田区向島4丁目1-1","lat":35.71578252,"lon":139.81036196},{"name":"両国二丁目","province":"東京都","city":"墨田区","address":"東京都墨田区両国2丁目10-8","lat":35.69390891,"lon":139.79173237},{"name":"菊川二丁目","province":"東京都","city":"墨田区","address":"東京都墨田区菊川2丁目6-11","lat":35.68858743,"lon":139.80581487},{"name":"石原一丁目","province":"東京都","city":"墨田区","address":"東京都墨田区横網2丁目4-11","lat":35.70047765,"lon":139.79677302},{"name":"本所一丁目","province":"東京都","city":"墨田区","address":"東京都墨田区本所1丁目4-10","lat":35.70358282,"lon":139.79663645},{"name":"吾妻橋三丁目","province":"東京都","city":"墨田区","address":"東京都墨田区吾妻橋3丁目7-1","lat":35.70885733,"lon":139.8044403},{"name":"亀沢四丁目","province":"東京都","city":"墨田区","address":"東京都墨田区亀沢4丁目11-6","lat":35.69718074,"lon":139.80547237},{"name":"吾妻橋五差路","province":"東京都","city":"墨田区","address":"東京都墨田区吾妻橋2丁目4-1","lat":35.70888232,"lon":139.80236003},{"name":"向島五丁目","province":"東京都","city":"墨田区","address":"東京都墨田区向島4丁目8-1","lat":35.7169299,"lon":139.81198973},{"name":"石原四丁目","province":"東京都","city":"墨田区","address":"東京都墨田区石原4丁目1-1","lat":35.6992055,"lon":139.80531657},{"name":"錦糸町駅南口","province":"東京都","city":"墨田区","address":"東京都墨田区江東橋3丁目13-1","lat":35.69586694,"lon":139.81362423},{"name":"曳舟川通り西","province":"東京都","city":"墨田区","address":"東京都墨田区押上2丁目1-1","lat":35.71079886,"lon":139.80891988},{"name":"吾妻橋東詰","province":"東京都","city":"墨田区","address":"東京都墨田区吾妻橋1丁目12-15","lat":35.70809627,"lon":139.79825794},{"name":"江戸東京博物館前","province":"東京都","city":"墨田区","address":"東京都墨田区横網1丁目5-1","lat":35.69762521,"lon":139.7971151},{"name":"長崎橋東詰","province":"東京都","city":"墨田区","address":"東京都墨田区錦糸1丁目17-10","lat":35.69788896,"lon":139.80895792},{"name":"押上二丁目","province":"東京都","city":"墨田区","address":"東京都墨田区押上2丁目20-14","lat":35.71371045,"lon":139.81295033},{"name":"横網公園前","province":"東京都","city":"墨田区","address":"東京都墨田区横網2丁目3","lat":35.69926945,"lon":139.79650933},{"name":"墨田中学校前","province":"東京都","city":"墨田区","address":"東京都墨田区向島4丁目28-1","lat":35.71407153,"lon":139.81255041},{"name":"錦糸公園前","province":"東京都","city":"墨田区","address":"東京都墨田区錦糸3丁目4-9","lat":35.6979833,"lon":139.81474616},{"name":"牛島神社前","province":"東京都","city":"墨田区","address":"東京都墨田区向島1丁目6-9","lat":35.711971,"lon":139.80486209},{"name":"秋葉神社前","province":"東京都","city":"墨田区","address":"東京都墨田区向島5丁目37-4","lat":35.71760495,"lon":139.81249254},{"name":"曳舟川通り第二","province":"東京都","city":"墨田区","address":"東京都墨田区向島3丁目43-10","lat":35.71162665,"lon":139.80970857},{"name":"錦糸町駅前第二","province":"東京都","city":"墨田区","address":"東京都墨田区江東橋4丁目29-15","lat":35.6960169,"lon":139.81651829},{"name":"高速駒形入口","province":"東京都","city":"墨田区","address":"東京都墨田区東駒形1丁目15-2","lat":35.70625478,"lon":139.79821929},{"name":"東京スカイツリー駅前","province":"東京都","city":"墨田区","address":"東京都墨田区押上1丁目1-2","lat":35.71005462,"lon":139.81070876},{"name":"石原四丁目第二","province":"東京都","city":"墨田区","address":"東京都墨田区石原4丁目26-1","lat":35.70087475,"lon":139.80633565},{"name":"千歳三丁目","province":"東京都","city":"墨田区","address":"東京都墨田区千歳3丁目6-6","lat":35.6902762,"lon":139.79780514},{"name":"小梅通り西","province":"東京都","city":"墨田区","address":"東京都墨田区向島3丁目45-1","lat":35.71152381,"lon":139.80867257},{"name":"錦糸町駅ガード南","province":"東京都","city":"墨田区","address":"東京都墨田区江東橋4丁目27-14","lat":35.69632797,"lon":139.81565727},{"name":"本所一之橋北詰","province":"東京都","city":"墨田区","address":"東京都墨田区両国2丁目1-3","lat":35.69205637,"lon":139.79178259},{"name":"すみだ共生社会推進センター","province":"東京都","city":"墨田区","address":"東京都墨田区向島3丁目39-19","lat":35.71293249,"lon":139.81156977},{"name":"向島交番前","province":"東京都","city":"墨田区","address":"東京都墨田区向島4丁目1-5","lat":35.71615479,"lon":139.81085363},{"name":"枕橋","province":"東京都","city":"墨田区","address":"東京都墨田区吾妻橋2丁目19-7","lat":35.71097102,"lon":139.80224865},{"name":"両国駅西口第二","province":"東京都","city":"墨田区","address":"東京都墨田区両国2丁目13-6","lat":35.69576978,"lon":139.7915877},{"name":"清平橋西","province":"東京都","city":"墨田区","address":"東京都墨田区石原4丁目11-13","lat":35.69930825,"lon":139.80733851},{"name":"八反目東第二","province":"東京都","city":"墨田区","address":"東京都墨田区向島3丁目44-10","lat":35.71187387,"lon":139.80959473},{"name":"福祉保健センター前","province":"東京都","city":"墨田区","address":"東京都墨田区向島3丁目40-7","lat":35.71289911,"lon":139.81113646},{"name":"墨田リバーピア前","province":"東京都","city":"墨田区","address":"東京都墨田区吾妻橋1丁目22-7","lat":35.70991834,"lon":139.80199884},{"name":"東向島","province":"東京都","city":"墨田区","address":"東京都墨田区東向島4丁目26-7","lat":35.72272992,"lon":139.81843096},{"name":"四ツ木橋南詰","province":"東京都","city":"墨田区","address":"東京都墨田区墨田4丁目54","lat":35.72883509,"lon":139.82489398},{"name":"東向島三丁目","province":"東京都","city":"墨田区","address":"東京都墨田区東向島2丁目23-5","lat":35.72041618,"lon":139.81628397},{"name":"白鬚橋東詰","province":"東京都","city":"墨田区","address":"東京都墨田区東向島4丁目1-7","lat":35.72769889,"lon":139.81332658},{"name":"仲居堀","province":"東京都","city":"墨田区","address":"東京都墨田区文花3丁目16-5","lat":35.7128443,"lon":139.8271685},{"name":"小村井","province":"東京都","city":"墨田区","address":"東京都墨田区立花4丁目1-5","lat":35.71096092,"lon":139.82908505},{"name":"京島","province":"東京都","city":"墨田区","address":"東京都墨田区京島1丁目53-12","lat":35.71734424,"lon":139.82299402},{"name":"東向島六丁目","province":"東京都","city":"墨田区","address":"東京都墨田区東向島5丁目18-1","lat":35.7259436,"lon":139.82155274},{"name":"曳舟川","province":"東京都","city":"墨田区","address":"東京都墨田区東向島2丁目41-11","lat":35.72039126,"lon":139.82010007},{"name":"更正橋","province":"東京都","city":"墨田区","address":"東京都墨田区八広5丁目12-13","lat":35.72742135,"lon":139.82628826},{"name":"曳舟","province":"東京都","city":"墨田区","address":"東京都墨田区東向島2丁目31-15","lat":35.71844687,"lon":139.81811136},{"name":"白鬚橋交番前","province":"東京都","city":"墨田区","address":"東京都墨田区堤通2丁目3-2","lat":35.72869044,"lon":139.81288497},{"name":"東向島二丁目","province":"東京都","city":"墨田区","address":"東京都墨田区東向島2丁目21-2","lat":35.71962175,"lon":139.81537016},{"name":"京島二丁目","province":"東京都","city":"墨田区","address":"東京都墨田区京島1丁目27-4","lat":35.71593046,"lon":139.820036},{"name":"東向島一丁目","province":"東京都","city":"墨田区","address":"東京都墨田区東向島2丁目1-17","lat":35.71792724,"lon":139.81358967},{"name":"押上二丁目北","province":"東京都","city":"墨田区","address":"東京都墨田区東向島2丁目12-9","lat":35.71627736,"lon":139.81555038},{"name":"吾嬬西公園前","province":"東京都","city":"墨田区","address":"東京都墨田区八広6丁目53-16","lat":35.72424908,"lon":139.83025702},{"name":"八広六丁目","province":"東京都","city":"墨田区","address":"東京都墨田区八広6丁目29-8","lat":35.72690473,"lon":139.82919342},{"name":"高木神社入口","province":"東京都","city":"墨田区","address":"東京都墨田区東向島2丁目11-17","lat":35.71554674,"lon":139.81468372},{"name":"十間橋北","province":"東京都","city":"墨田区","address":"東京都墨田区文花1丁目1-5","lat":35.70885807,"lon":139.81870855},{"name":"八広一丁目","province":"東京都","city":"墨田区","address":"東京都墨田区八広1丁目7-1","lat":35.72122734,"lon":139.82175262},{"name":"曳舟小学校角","province":"東京都","city":"墨田区","address":"東京都墨田区京島3丁目9-7","lat":35.71656384,"lon":139.82213857},{"name":"八広小前","province":"東京都","city":"墨田区","address":"東京都墨田区八広6丁目9-14","lat":35.72731304,"lon":139.82709371},{"name":"東向島一丁目第二","province":"東京都","city":"墨田区","address":"東京都墨田区東向島2丁目20-1","lat":35.71878006,"lon":139.8144702},{"name":"曳舟文化センター","province":"東京都","city":"墨田区","address":"東京都墨田区京島1丁目38-11","lat":35.71831636,"lon":139.81876127},{"name":"墨田特別支援学校南","province":"東京都","city":"墨田区","address":"東京都墨田区東向島6丁目45","lat":35.72467145,"lon":139.82349966},{"name":"長浦神社前","province":"東京都","city":"墨田区","address":"東京都墨田区東向島6丁目27-7","lat":35.72352711,"lon":139.82273307},{"name":"東あづま駅前","province":"東京都","city":"墨田区","address":"東京都墨田区立花3丁目13-4","lat":35.70697755,"lon":139.83248773},{"name":"東向島四丁目","province":"東京都","city":"墨田区","address":"東京都墨田区東向島4丁目20-20","lat":35.72537966,"lon":139.81565934},{"name":"京成曳舟駅前","province":"東京都","city":"墨田区","address":"東京都墨田区京島1丁目43","lat":35.71936079,"lon":139.82040277},{"name":"平井橋第一公園前","province":"東京都","city":"墨田区","address":"東京都墨田区立花4丁目30-17","lat":35.71011618,"lon":139.83457064},{"name":"墨田特別支援学校北","province":"東京都","city":"墨田区","address":"東京都墨田区東向島6丁目56-9","lat":35.72597138,"lon":139.82461065},{"name":"墨田生涯学習センター前","province":"東京都","city":"墨田区","address":"東京都墨田区東向島6丁目6-12","lat":35.72145228,"lon":139.81971127},{"name":"墨田特別支援学校前","province":"東京都","city":"墨田区","address":"東京都墨田区八広5丁目9","lat":35.7235048,"lon":139.82482722},{"name":"白鬚橋東詰第二","province":"東京都","city":"墨田区","address":"東京都墨田区堤通2丁目3-1","lat":35.72857378,"lon":139.81259338},{"name":"曳舟交番前","province":"東京都","city":"墨田区","address":"東京都墨田区東向島2丁目27-1","lat":35.71769963,"lon":139.81702811},{"name":"墨田川高校前","province":"東京都","city":"墨田区","address":"東京都墨田区東向島3丁目37-7","lat":35.72178275,"lon":139.81717279},{"name":"東向島五丁目北","province":"東京都","city":"墨田区","address":"東京都墨田区東向島5丁目22-7","lat":35.72698798,"lon":139.823022},{"name":"向島消防署前","province":"東京都","city":"墨田区","address":"東京都墨田区東向島6丁目22-3","lat":35.723566,"lon":139.81996685},{"name":"白鬚公園南","province":"東京都","city":"墨田区","address":"東京都墨田区墨田1丁目4-2","lat":35.72907095,"lon":139.81423744},{"name":"区立文花公園","province":"東京都","city":"墨田区","address":"東京都墨田区文花1丁目27-5","lat":35.7094556,"lon":139.82244155},{"name":"区立両国公園","province":"東京都","city":"墨田区","address":"東京都墨田区両国4丁目25-3","lat":35.6937507,"lon":139.79611856},{"name":"白鬚東地区防災拠点","province":"東京都","city":"墨田区","address":"東京都墨田区堤通2丁目","lat":35.73410354,"lon":139.81657811},{"name":"３墨田清掃工場","province":"東京都","city":"墨田区","address":"東京都墨田区東墨田1丁目10-23","lat":35.7174879,"lon":139.83172056},{"name":"言問橋東詰","province":"東京都","city":"墨田区","address":"東京都墨田区向島1丁目5-6","lat":35.71296269,"lon":139.80529822},{"name":"錦糸町駅前","province":"東京都","city":"墨田区","address":"東京都墨田区江東橋3丁目14-5","lat":35.69643352,"lon":139.81393804},{"name":"緑三丁目","province":"東京都","city":"墨田区","address":"東京都墨田区緑3丁目11-5","lat":35.69483935,"lon":139.8052505},{"name":"向島三丁目","province":"東京都","city":"墨田区","address":"東京都墨田区向島4丁目1-1","lat":35.71578252,"lon":139.81036196},{"name":"両国二丁目","province":"東京都","city":"墨田区","address":"東京都墨田区両国2丁目10-8","lat":35.69390891,"lon":139.79173237},{"name":"菊川二丁目","province":"東京都","city":"墨田区","address":"東京都墨田区菊川2丁目6-11","lat":35.68858743,"lon":139.80581487},{"name":"石原一丁目","province":"東京都","city":"墨田区","address":"東京都墨田区横網2丁目4-11","lat":35.70047765,"lon":139.79677302},{"name":"本所一丁目","province":"東京都","city":"墨田区","address":"東京都墨田区本所1丁目4-10","lat":35.70358282,"lon":139.79663645},{"name":"吾妻橋三丁目","province":"東京都","city":"墨田区","address":"東京都墨田区吾妻橋3丁目7-1","lat":35.70885733,"lon":139.8044403},{"name":"亀沢四丁目","province":"東京都","city":"墨田区","address":"東京都墨田区亀沢4丁目11-6","lat":35.69718074,"lon":139.80547237},{"name":"吾妻橋五差路","province":"東京都","city":"墨田区","address":"東京都墨田区吾妻橋2丁目4-1","lat":35.70888232,"lon":139.80236003},{"name":"向島五丁目","province":"東京都","city":"墨田区","address":"東京都墨田区向島4丁目8-1","lat":35.7169299,"lon":139.81198973},{"name":"石原四丁目","province":"東京都","city":"墨田区","address":"東京都墨田区石原4丁目1-1","lat":35.6992055,"lon":139.80531657},{"name":"錦糸町駅南口","province":"東京都","city":"墨田区","address":"東京都墨田区江東橋3丁目13-1","lat":35.69586694,"lon":139.81362423},{"name":"曳舟川通り西","province":"東京都","city":"墨田区","address":"東京都墨田区押上2丁目1-1","lat":35.71079886,"lon":139.80891988},{"name":"吾妻橋東詰","province":"東京都","city":"墨田区","address":"東京都墨田区吾妻橋1丁目12-15","lat":35.70809627,"lon":139.79825794},{"name":"江戸東京博物館前","province":"東京都","city":"墨田区","address":"東京都墨田区横網1丁目5-1","lat":35.69762521,"lon":139.7971151},{"name":"長崎橋東詰","province":"東京都","city":"墨田区","address":"東京都墨田区錦糸1丁目17-10","lat":35.69788896,"lon":139.80895792},{"name":"押上二丁目","province":"東京都","city":"墨田区","address":"東京都墨田区押上2丁目20-14","lat":35.71371045,"lon":139.81295033},{"name":"横網公園前","province":"東京都","city":"墨田区","address":"東京都墨田区横網2丁目3","lat":35.69926945,"lon":139.79650933},{"name":"墨田中学校前","province":"東京都","city":"墨田区","address":"東京都墨田区向島4丁目28-1","lat":35.71407153,"lon":139.81255041},{"name":"錦糸公園前","province":"東京都","city":"墨田区","address":"東京都墨田区錦糸3丁目4-9","lat":35.6979833,"lon":139.81474616},{"name":"牛島神社前","province":"東京都","city":"墨田区","address":"東京都墨田区向島1丁目6-9","lat":35.711971,"lon":139.80486209},{"name":"秋葉神社前","province":"東京都","city":"墨田区","address":"東京都墨田区向島5丁目37-4","lat":35.71760495,"lon":139.81249254},{"name":"曳舟川通り第二","province":"東京都","city":"墨田区","address":"東京都墨田区向島3丁目43-10","lat":35.71162665,"lon":139.80970857},{"name":"錦糸町駅前第二","province":"東京都","city":"墨田区","address":"東京都墨田区江東橋4丁目29-15","lat":35.6960169,"lon":139.81651829},{"name":"高速駒形入口","province":"東京都","city":"墨田区","address":"東京都墨田区東駒形1丁目15-2","lat":35.70625478,"lon":139.79821929},{"name":"東京スカイツリー駅前","province":"東京都","city":"墨田区","address":"東京都墨田区押上1丁目1-2","lat":35.71005462,"lon":139.81070876},{"name":"石原四丁目第二","province":"東京都","city":"墨田区","address":"東京都墨田区石原4丁目26-1","lat":35.70087475,"lon":139.80633565},{"name":"千歳三丁目","province":"東京都","city":"墨田区","address":"東京都墨田区千歳3丁目6-6","lat":35.6902762,"lon":139.79780514},{"name":"小梅通り西","province":"東京都","city":"墨田区","address":"東京都墨田区向島3丁目45-1","lat":35.71152381,"lon":139.80867257},{"name":"錦糸町駅ガード南","province":"東京都","city":"墨田区","address":"東京都墨田区江東橋4丁目27-14","lat":35.69632797,"lon":139.81565727},{"name":"本所一之橋北詰","province":"東京都","city":"墨田区","address":"東京都墨田区両国2丁目1-3","lat":35.69205637,"lon":139.79178259},{"name":"すみだ共生社会推進センター","province":"東京都","city":"墨田区","address":"東京都墨田区向島3丁目39-19","lat":35.71293249,"lon":139.81156977},{"name":"向島交番前","province":"東京都","city":"墨田区","address":"東京都墨田区向島4丁目1-5","lat":35.71615479,"lon":139.81085363},{"name":"枕橋","province":"東京都","city":"墨田区","address":"東京都墨田区吾妻橋2丁目19-7","lat":35.71097102,"lon":139.80224865},{"name":"両国駅西口第二","province":"東京都","city":"墨田区","address":"東京都墨田区両国2丁目13-6","lat":35.69576978,"lon":139.7915877},{"name":"清平橋西","province":"東京都","city":"墨田区","address":"東京都墨田区石原4丁目11-13","lat":35.69930825,"lon":139.80733851},{"name":"八反目東第二","province":"東京都","city":"墨田区","address":"東京都墨田区向島3丁目44-10","lat":35.71187387,"lon":139.80959473},{"name":"福祉保健センター前","province":"東京都","city":"墨田区","address":"東京都墨田区向島3丁目40-7","lat":35.71289911,"lon":139.81113646},{"name":"墨田リバーピア前","province":"東京都","city":"墨田区","address":"東京都墨田区吾妻橋1丁目22-7","lat":35.70991834,"lon":139.80199884},{"name":"東向島","province":"東京都","city":"墨田区","address":"東京都墨田区東向島4丁目26-7","lat":35.72272992,"lon":139.81843096},{"name":"四ツ木橋南詰","province":"東京都","city":"墨田区","address":"東京都墨田区墨田4丁目54","lat":35.72883509,"lon":139.82489398},{"name":"東向島三丁目","province":"東京都","city":"墨田区","address":"東京都墨田区東向島2丁目23-5","lat":35.72041618,"lon":139.81628397},{"name":"白鬚橋東詰","province":"東京都","city":"墨田区","address":"東京都墨田区東向島4丁目1-7","lat":35.72769889,"lon":139.81332658},{"name":"仲居堀","province":"東京都","city":"墨田区","address":"東京都墨田区文花3丁目16-5","lat":35.7128443,"lon":139.8271685},{"name":"小村井","province":"東京都","city":"墨田区","address":"東京都墨田区立花4丁目1-5","lat":35.71096092,"lon":139.82908505},{"name":"京島","province":"東京都","city":"墨田区","address":"東京都墨田区京島1丁目53-12","lat":35.71734424,"lon":139.82299402},{"name":"東向島六丁目","province":"東京都","city":"墨田区","address":"東京都墨田区東向島5丁目18-1","lat":35.7259436,"lon":139.82155274},{"name":"曳舟川","province":"東京都","city":"墨田区","address":"東京都墨田区東向島2丁目41-11","lat":35.72039126,"lon":139.82010007},{"name":"更正橋","province":"東京都","city":"墨田区","address":"東京都墨田区八広5丁目12-13","lat":35.72742135,"lon":139.82628826},{"name":"曳舟","province":"東京都","city":"墨田区","address":"東京都墨田区東向島2丁目31-15","lat":35.71844687,"lon":139.81811136},{"name":"白鬚橋交番前","province":"東京都","city":"墨田区","address":"東京都墨田区堤通2丁目3-2","lat":35.72869044,"lon":139.81288497},{"name":"東向島二丁目","province":"東京都","city":"墨田区","address":"東京都墨田区東向島2丁目21-2","lat":35.71962175,"lon":139.81537016},{"name":"京島二丁目","province":"東京都","city":"墨田区","address":"東京都墨田区京島1丁目27-4","lat":35.71593046,"lon":139.820036},{"name":"東向島一丁目","province":"東京都","city":"墨田区","address":"東京都墨田区東向島2丁目1-17","lat":35.71792724,"lon":139.81358967},{"name":"押上二丁目北","province":"東京都","city":"墨田区","address":"東京都墨田区東向島2丁目12-9","lat":35.71627736,"lon":139.81555038},{"name":"吾嬬西公園前","province":"東京都","city":"墨田区","address":"東京都墨田区八広6丁目53-16","lat":35.72424908,"lon":139.83025702},{"name":"八広六丁目","province":"東京都","city":"墨田区","address":"東京都墨田区八広6丁目29-8","lat":35.72690473,"lon":139.82919342},{"name":"高木神社入口","province":"東京都","city":"墨田区","address":"東京都墨田区東向島2丁目11-17","lat":35.71554674,"lon":139.81468372},{"name":"十間橋北","province":"東京都","city":"墨田区","address":"東京都墨田区文花1丁目1-5","lat":35.70885807,"lon":139.81870855},{"name":"八広一丁目","province":"東京都","city":"墨田区","address":"東京都墨田区八広1丁目7-1","lat":35.72122734,"lon":139.82175262},{"name":"曳舟小学校角","province":"東京都","city":"墨田区","address":"東京都墨田区京島3丁目9-7","lat":35.71656384,"lon":139.82213857},{"name":"八広小前","province":"東京都","city":"墨田区","address":"東京都墨田区八広6丁目9-14","lat":35.72731304,"lon":139.82709371},{"name":"東向島一丁目第二","province":"東京都","city":"墨田区","address":"東京都墨田区東向島2丁目20-1","lat":35.71878006,"lon":139.8144702},{"name":"曳舟文化センター","province":"東京都","city":"墨田区","address":"東京都墨田区京島1丁目38-11","lat":35.71831636,"lon":139.81876127},{"name":"墨田特別支援学校南","province":"東京都","city":"墨田区","address":"東京都墨田区東向島6丁目45","lat":35.72467145,"lon":139.82349966},{"name":"長浦神社前","province":"東京都","city":"墨田区","address":"東京都墨田区東向島6丁目27-7","lat":35.72352711,"lon":139.82273307},{"name":"東あづま駅前","province":"東京都","city":"墨田区","address":"東京都墨田区立花3丁目13-4","lat":35.70697755,"lon":139.83248773},{"name":"東向島四丁目","province":"東京都","city":"墨田区","address":"東京都墨田区東向島4丁目20-20","lat":35.72537966,"lon":139.81565934},{"name":"京成曳舟駅前","province":"東京都","city":"墨田区","address":"東京都墨田区京島1丁目43","lat":35.71936079,"lon":139.82040277},{"name":"平井橋第一公園前","province":"東京都","city":"墨田区","address":"東京都墨田区立花4丁目30-17","lat":35.71011618,"lon":139.83457064},{"name":"墨田特別支援学校北","province":"東京都","city":"墨田区","address":"東京都墨田区東向島6丁目56-9","lat":35.72597138,"lon":139.82461065},{"name":"墨田生涯学習センター前","province":"東京都","city":"墨田区","address":"東京都墨田区東向島6丁目6-12","lat":35.72145228,"lon":139.81971127},{"name":"墨田特別支援学校前","province":"東京都","city":"墨田区","address":"東京都墨田区八広5丁目9","lat":35.7235048,"lon":139.82482722},{"name":"白鬚橋東詰第二","province":"東京都","city":"墨田区","address":"東京都墨田区堤通2丁目3-1","lat":35.72857378,"lon":139.81259338},{"name":"曳舟交番前","province":"東京都","city":"墨田区","address":"東京都墨田区東向島2丁目27-1","lat":35.71769963,"lon":139.81702811},{"name":"墨田川高校前","province":"東京都","city":"墨田区","address":"東京都墨田区東向島3丁目37-7","lat":35.72178275,"lon":139.81717279},{"name":"東向島五丁目北","province":"東京都","city":"墨田区","address":"東京都墨田区東向島5丁目22-7","lat":35.72698798,"lon":139.823022},{"name":"向島消防署前","province":"東京都","city":"墨田区","address":"東京都墨田区東向島6丁目22-3","lat":35.723566,"lon":139.81996685},{"name":"白鬚公園南","province":"東京都","city":"墨田区","address":"東京都墨田区墨田1丁目4-2","lat":35.72907095,"lon":139.81423744},{"name":"区立文花公園","province":"東京都","city":"墨田区","address":"東京都墨田区文花1丁目27-5","lat":35.7094556,"lon":139.82244155},{"name":"区立両国公園","province":"東京都","city":"墨田区","address":"東京都墨田区両国4丁目25-3","lat":35.6937507,"lon":139.79611856},{"name":"白鬚東地区防災拠点","province":"東京都","city":"墨田区","address":"東京都墨田区堤通2丁目","lat":35.73410354,"lon":139.81657811},{"name":"３墨田清掃工場","province":"東京都","city":"墨田区","address":"東京都墨田区東墨田1丁目10-23","lat":35.7174879,"lon":139.83172056},{"name":"言問橋東詰","province":"東京都","city":"墨田区","address":"東京都墨田区向島1丁目5-6","lat":35.71296269,"lon":139.80529822},{"name":"錦糸町駅前","province":"東京都","city":"墨田区","address":"東京都墨田区江東橋3丁目14-5","lat":35.69643352,"lon":139.81393804},{"name":"緑三丁目","province":"東京都","city":"墨田区","address":"東京都墨田区緑3丁目11-5","lat":35.69483935,"lon":139.8052505},{"name":"向島三丁目","province":"東京都","city":"墨田区","address":"東京都墨田区向島4丁目1-1","lat":35.71578252,"lon":139.81036196},{"name":"両国二丁目","province":"東京都","city":"墨田区","address":"東京都墨田区両国2丁目10-8","lat":35.69390891,"lon":139.79173237},{"name":"菊川二丁目","province":"東京都","city":"墨田区","address":"東京都墨田区菊川2丁目6-11","lat":35.68858743,"lon":139.80581487},{"name":"石原一丁目","province":"東京都","city":"墨田区","address":"東京都墨田区横網2丁目4-11","lat":35.70047765,"lon":139.79677302},{"name":"本所一丁目","province":"東京都","city":"墨田区","address":"東京都墨田区本所1丁目4-10","lat":35.70358282,"lon":139.79663645},{"name":"吾妻橋三丁目","province":"東京都","city":"墨田区","address":"東京都墨田区吾妻橋3丁目7-1","lat":35.70885733,"lon":139.8044403},{"name":"亀沢四丁目","province":"東京都","city":"墨田区","address":"東京都墨田区亀沢4丁目11-6","lat":35.69718074,"lon":139.80547237},{"name":"吾妻橋五差路","province":"東京都","city":"墨田区","address":"東京都墨田区吾妻橋2丁目4-1","lat":35.70888232,"lon":139.80236003},{"name":"向島五丁目","province":"東京都","city":"墨田区","address":"東京都墨田区向島4丁目8-1","lat":35.7169299,"lon":139.81198973},{"name":"石原四丁目","province":"東京都","city":"墨田区","address":"東京都墨田区石原4丁目1-1","lat":35.6992055,"lon":139.80531657},{"name":"錦糸町駅南口","province":"東京都","city":"墨田区","address":"東京都墨田区江東橋3丁目13-1","lat":35.69586694,"lon":139.81362423},{"name":"曳舟川通り西","province":"東京都","city":"墨田区","address":"東京都墨田区押上2丁目1-1","lat":35.71079886,"lon":139.80891988},{"name":"吾妻橋東詰","province":"東京都","city":"墨田区","address":"東京都墨田区吾妻橋1丁目12-15","lat":35.70809627,"lon":139.79825794},{"name":"江戸東京博物館前","province":"東京都","city":"墨田区","address":"東京都墨田区横網1丁目5-1","lat":35.69762521,"lon":139.7971151},{"name":"長崎橋東詰","province":"東京都","city":"墨田区","address":"東京都墨田区錦糸1丁目17-10","lat":35.69788896,"lon":139.80895792},{"name":"押上二丁目","province":"東京都","city":"墨田区","address":"東京都墨田区押上2丁目20-14","lat":35.71371045,"lon":139.81295033},{"name":"横網公園前","province":"東京都","city":"墨田区","address":"東京都墨田区横網2丁目3","lat":35.69926945,"lon":139.79650933},{"name":"墨田中学校前","province":"東京都","city":"墨田区","address":"東京都墨田区向島4丁目28-1","lat":35.71407153,"lon":139.81255041},{"name":"錦糸公園前","province":"東京都","city":"墨田区","address":"東京都墨田区錦糸3丁目4-9","lat":35.6979833,"lon":139.81474616},{"name":"牛島神社前","province":"東京都","city":"墨田区","address":"東京都墨田区向島1丁目6-9","lat":35.711971,"lon":139.80486209},{"name":"秋葉神社前","province":"東京都","city":"墨田区","address":"東京都墨田区向島5丁目37-4","lat":35.71760495,"lon":139.81249254},{"name":"曳舟川通り第二","province":"東京都","city":"墨田区","address":"東京都墨田区向島3丁目43-10","lat":35.71162665,"lon":139.80970857},{"name":"錦糸町駅前第二","province":"東京都","city":"墨田区","address":"東京都墨田区江東橋4丁目29-15","lat":35.6960169,"lon":139.81651829},{"name":"高速駒形入口","province":"東京都","city":"墨田区","address":"東京都墨田区東駒形1丁目15-2","lat":35.70625478,"lon":139.79821929},{"name":"東京スカイツリー駅前","province":"東京都","city":"墨田区","address":"東京都墨田区押上1丁目1-2","lat":35.71005462,"lon":139.81070876},{"name":"石原四丁目第二","province":"東京都","city":"墨田区","address":"東京都墨田区石原4丁目26-1","lat":35.70087475,"lon":139.80633565},{"name":"千歳三丁目","province":"東京都","city":"墨田区","address":"東京都墨田区千歳3丁目6-6","lat":35.6902762,"lon":139.79780514},{"name":"小梅通り西","province":"東京都","city":"墨田区","address":"東京都墨田区向島3丁目45-1","lat":35.71152381,"lon":139.80867257},{"name":"錦糸町駅ガード南","province":"東京都","city":"墨田区","address":"東京都墨田区江東橋4丁目27-14","lat":35.69632797,"lon":139.81565727},{"name":"本所一之橋北詰","province":"東京都","city":"墨田区","address":"東京都墨田区両国2丁目1-3","lat":35.69205637,"lon":139.79178259},{"name":"すみだ共生社会推進センター","province":"東京都","city":"墨田区","address":"東京都墨田区向島3丁目39-19","lat":35.71293249,"lon":139.81156977},{"name":"向島交番前","province":"東京都","city":"墨田区","address":"東京都墨田区向島4丁目1-5","lat":35.71615479,"lon":139.81085363},{"name":"枕橋","province":"東京都","city":"墨田区","address":"東京都墨田区吾妻橋2丁目19-7","lat":35.71097102,"lon":139.80224865},{"name":"両国駅西口第二","province":"東京都","city":"墨田区","address":"東京都墨田区両国2丁目13-6","lat":35.69576978,"lon":139.7915877},{"name":"清平橋西","province":"東京都","city":"墨田区","address":"東京都墨田区石原4丁目11-13","lat":35.69930825,"lon":139.80733851},{"name":"八反目東第二","province":"東京都","city":"墨田区","address":"東京都墨田区向島3丁目44-10","lat":35.71187387,"lon":139.80959473},{"name":"福祉保健センター前","province":"東京都","city":"墨田区","address":"東京都墨田区向島3丁目40-7","lat":35.71289911,"lon":139.81113646},{"name":"墨田リバーピア前","province":"東京都","city":"墨田区","address":"東京都墨田区吾妻橋1丁目22-7","lat":35.70991834,"lon":139.80199884},{"name":"東向島","province":"東京都","city":"墨田区","address":"東京都墨田区東向島4丁目26-7","lat":35.72272992,"lon":139.81843096},{"name":"四ツ木橋南詰","province":"東京都","city":"墨田区","address":"東京都墨田区墨田4丁目54","lat":35.72883509,"lon":139.82489398},{"name":"東向島三丁目","province":"東京都","city":"墨田区","address":"東京都墨田区東向島2丁目23-5","lat":35.72041618,"lon":139.81628397},{"name":"白鬚橋東詰","province":"東京都","city":"墨田区","address":"東京都墨田区東向島4丁目1-7","lat":35.72769889,"lon":139.81332658},{"name":"仲居堀","province":"東京都","city":"墨田区","address":"東京都墨田区文花3丁目16-5","lat":35.7128443,"lon":139.8271685},{"name":"小村井","province":"東京都","city":"墨田区","address":"東京都墨田区立花4丁目1-5","lat":35.71096092,"lon":139.82908505},{"name":"京島","province":"東京都","city":"墨田区","address":"東京都墨田区京島1丁目53-12","lat":35.71734424,"lon":139.82299402},{"name":"東向島六丁目","province":"東京都","city":"墨田区","address":"東京都墨田区東向島5丁目18-1","lat":35.7259436,"lon":139.82155274},{"name":"曳舟川","province":"東京都","city":"墨田区","address":"東京都墨田区東向島2丁目41-11","lat":35.72039126,"lon":139.82010007},{"name":"更正橋","province":"東京都","city":"墨田区","address":"東京都墨田区八広5丁目12-13","lat":35.72742135,"lon":139.82628826},{"name":"曳舟","province":"東京都","city":"墨田区","address":"東京都墨田区東向島2丁目31-15","lat":35.71844687,"lon":139.81811136},{"name":"白鬚橋交番前","province":"東京都","city":"墨田区","address":"東京都墨田区堤通2丁目3-2","lat":35.72869044,"lon":139.81288497},{"name":"東向島二丁目","province":"東京都","city":"墨田区","address":"東京都墨田区東向島2丁目21-2","lat":35.71962175,"lon":139.81537016},{"name":"京島二丁目","province":"東京都","city":"墨田区","address":"東京都墨田区京島1丁目27-4","lat":35.71593046,"lon":139.820036},{"name":"東向島一丁目","province":"東京都","city":"墨田区","address":"東京都墨田区東向島2丁目1-17","lat":35.71792724,"lon":139.81358967},{"name":"押上二丁目北","province":"東京都","city":"墨田区","address":"東京都墨田区東向島2丁目12-9","lat":35.71627736,"lon":139.81555038},{"name":"吾嬬西公園前","province":"東京都","city":"墨田区","address":"東京都墨田区八広6丁目53-16","lat":35.72424908,"lon":139.83025702},{"name":"八広六丁目","province":"東京都","city":"墨田区","address":"東京都墨田区八広6丁目29-8","lat":35.72690473,"lon":139.82919342},{"name":"高木神社入口","province":"東京都","city":"墨田区","address":"東京都墨田区東向島2丁目11-17","lat":35.71554674,"lon":139.81468372},{"name":"十間橋北","province":"東京都","city":"墨田区","address":"東京都墨田区文花1丁目1-5","lat":35.70885807,"lon":139.81870855},{"name":"八広一丁目","province":"東京都","city":"墨田区","address":"東京都墨田区八広1丁目7-1","lat":35.72122734,"lon":139.82175262},{"name":"曳舟小学校角","province":"東京都","city":"墨田区","address":"東京都墨田区京島3丁目9-7","lat":35.71656384,"lon":139.82213857},{"name":"八広小前","province":"東京都","city":"墨田区","address":"東京都墨田区八広6丁目9-14","lat":35.72731304,"lon":139.82709371},{"name":"東向島一丁目第二","province":"東京都","city":"墨田区","address":"東京都墨田区東向島2丁目20-1","lat":35.71878006,"lon":139.8144702},{"name":"曳舟文化センター","province":"東京都","city":"墨田区","address":"東京都墨田区京島1丁目38-11","lat":35.71831636,"lon":139.81876127},{"name":"墨田特別支援学校南","province":"東京都","city":"墨田区","address":"東京都墨田区東向島6丁目45","lat":35.72467145,"lon":139.82349966},{"name":"長浦神社前","province":"東京都","city":"墨田区","address":"東京都墨田区東向島6丁目27-7","lat":35.72352711,"lon":139.82273307},{"name":"東あづま駅前","province":"東京都","city":"墨田区","address":"東京都墨田区立花3丁目13-4","lat":35.70697755,"lon":139.83248773},{"name":"東向島四丁目","province":"東京都","city":"墨田区","address":"東京都墨田区東向島4丁目20-20","lat":35.72537966,"lon":139.81565934},{"name":"京成曳舟駅前","province":"東京都","city":"墨田区","address":"東京都墨田区京島1丁目43","lat":35.71936079,"lon":139.82040277},{"name":"平井橋第一公園前","province":"東京都","city":"墨田区","address":"東京都墨田区立花4丁目30-17","lat":35.71011618,"lon":139.83457064},{"name":"墨田特別支援学校北","province":"東京都","city":"墨田区","address":"東京都墨田区東向島6丁目56-9","lat":35.72597138,"lon":139.82461065},{"name":"墨田生涯学習センター前","province":"東京都","city":"墨田区","address":"東京都墨田区東向島6丁目6-12","lat":35.72145228,"lon":139.81971127},{"name":"墨田特別支援学校前","province":"東京都","city":"墨田区","address":"東京都墨田区八広5丁目9","lat":35.7235048,"lon":139.82482722},{"name":"白鬚橋東詰第二","province":"東京都","city":"墨田区","address":"東京都墨田区堤通2丁目3-1","lat":35.72857378,"lon":139.81259338},{"name":"曳舟交番前","province":"東京都","city":"墨田区","address":"東京都墨田区東向島2丁目27-1","lat":35.71769963,"lon":139.81702811},{"name":"墨田川高校前","province":"東京都","city":"墨田区","address":"東京都墨田区東向島3丁目37-7","lat":35.72178275,"lon":139.81717279},{"name":"東向島五丁目北","province":"東京都","city":"墨田区","address":"東京都墨田区東向島5丁目22-7","lat":35.72698798,"lon":139.823022},{"name":"向島消防署前","province":"東京都","city":"墨田区","address":"東京都墨田区東向島6丁目22-3","lat":35.723566,"lon":139.81996685},{"name":"白鬚公園南","province":"東京都","city":"墨田区","address":"東京都墨田区墨田1丁目4-2","lat":35.72907095,"lon":139.81423744},{"name":"区立文花公園","province":"東京都","city":"墨田区","address":"東京都墨田区文花1丁目27-5","lat":35.7094556,"lon":139.82244155},{"name":"区立両国公園","province":"東京都","city":"墨田区","address":"東京都墨田区両国4丁目25-3","lat":35.6937507,"lon":139.79611856},{"name":"白鬚東地区防災拠点","province":"東京都","city":"墨田区","address":"東京都墨田区堤通2丁目","lat":35.73410354,"lon":139.81657811},{"name":"３墨田清掃工場","province":"東京都","city":"墨田区","address":"東京都墨田区東墨田1丁目10-23","lat":35.7174879,"lon":139.83172056},{"name":"言問橋東詰","province":"東京都","city":"墨田区","address":"東京都墨田区向島1丁目5-6","lat":35.71296269,"lon":139.80529822},{"name":"錦糸町駅前","province":"東京都","city":"墨田区","address":"東京都墨田区江東橋3丁目14-5","lat":35.69643352,"lon":139.81393804},{"name":"緑三丁目","province":"東京都","city":"墨田区","address":"東京都墨田区緑3丁目11-5","lat":35.69483935,"lon":139.8052505},{"name":"向島三丁目","province":"東京都","city":"墨田区","address":"東京都墨田区向島4丁目1-1","lat":35.71578252,"lon":139.81036196},{"name":"両国二丁目","province":"東京都","city":"墨田区","address":"東京都墨田区両国2丁目10-8","lat":35.69390891,"lon":139.79173237},{"name":"菊川二丁目","province":"東京都","city":"墨田区","address":"東京都墨田区菊川2丁目6-11","lat":35.68858743,"lon":139.80581487},{"name":"石原一丁目","province":"東京都","city":"墨田区","address":"東京都墨田区横網2丁目4-11","lat":35.70047765,"lon":139.79677302},{"name":"本所一丁目","province":"東京都","city":"墨田区","address":"東京都墨田区本所1丁目4-10","lat":35.70358282,"lon":139.79663645},{"name":"吾妻橋三丁目","province":"東京都","city":"墨田区","address":"東京都墨田区吾妻橋3丁目7-1","lat":35.70885733,"lon":139.8044403},{"name":"亀沢四丁目","province":"東京都","city":"墨田区","address":"東京都墨田区亀沢4丁目11-6","lat":35.69718074,"lon":139.80547237},{"name":"吾妻橋五差路","province":"東京都","city":"墨田区","address":"東京都墨田区吾妻橋2丁目4-1","lat":35.70888232,"lon":139.80236003},{"name":"向島五丁目","province":"東京都","city":"墨田区","address":"東京都墨田区向島4丁目8-1","lat":35.7169299,"lon":139.81198973},{"name":"石原四丁目","province":"東京都","city":"墨田区","address":"東京都墨田区石原4丁目1-1","lat":35.6992055,"lon":139.80531657},{"name":"錦糸町駅南口","province":"東京都","city":"墨田区","address":"東京都墨田区江東橋3丁目13-1","lat":35.69586694,"lon":139.81362423},{"name":"曳舟川通り西","province":"東京都","city":"墨田区","address":"東京都墨田区押上2丁目1-1","lat":35.71079886,"lon":139.80891988},{"name":"吾妻橋東詰","province":"東京都","city":"墨田区","address":"東京都墨田区吾妻橋1丁目12-15","lat":35.70809627,"lon":139.79825794},{"name":"江戸東京博物館前","province":"東京都","city":"墨田区","address":"東京都墨田区横網1丁目5-1","lat":35.69762521,"lon":139.7971151},{"name":"長崎橋東詰","province":"東京都","city":"墨田区","address":"東京都墨田区錦糸1丁目17-10","lat":35.69788896,"lon":139.80895792},{"name":"押上二丁目","province":"東京都","city":"墨田区","address":"東京都墨田区押上2丁目20-14","lat":35.71371045,"lon":139.81295033},{"name":"横網公園前","province":"東京都","city":"墨田区","address":"東京都墨田区横網2丁目3","lat":35.69926945,"lon":139.79650933},{"name":"墨田中学校前","province":"東京都","city":"墨田区","address":"東京都墨田区向島4丁目28-1","lat":35.71407153,"lon":139.81255041},{"name":"錦糸公園前","province":"東京都","city":"墨田区","address":"東京都墨田区錦糸3丁目4-9","lat":35.6979833,"lon":139.81474616},{"name":"牛島神社前","province":"東京都","city":"墨田区","address":"東京都墨田区向島1丁目6-9","lat":35.711971,"lon":139.80486209},{"name":"秋葉神社前","province":"東京都","city":"墨田区","address":"東京都墨田区向島5丁目37-4","lat":35.71760495,"lon":139.81249254},{"name":"曳舟川通り第二","province":"東京都","city":"墨田区","address":"東京都墨田区向島3丁目43-10","lat":35.71162665,"lon":139.80970857},{"name":"錦糸町駅前第二","province":"東京都","city":"墨田区","address":"東京都墨田区江東橋4丁目29-15","lat":35.6960169,"lon":139.81651829},{"name":"高速駒形入口","province":"東京都","city":"墨田区","address":"東京都墨田区東駒形1丁目15-2","lat":35.70625478,"lon":139.79821929},{"name":"東京スカイツリー駅前","province":"東京都","city":"墨田区","address":"東京都墨田区押上1丁目1-2","lat":35.71005462,"lon":139.81070876},{"name":"石原四丁目第二","province":"東京都","city":"墨田区","address":"東京都墨田区石原4丁目26-1","lat":35.70087475,"lon":139.80633565},{"name":"千歳三丁目","province":"東京都","city":"墨田区","address":"東京都墨田区千歳3丁目6-6","lat":35.6902762,"lon":139.79780514},{"name":"小梅通り西","province":"東京都","city":"墨田区","address":"東京都墨田区向島3丁目45-1","lat":35.71152381,"lon":139.80867257},{"name":"錦糸町駅ガード南","province":"東京都","city":"墨田区","address":"東京都墨田区江東橋4丁目27-14","lat":35.69632797,"lon":139.81565727},{"name":"本所一之橋北詰","province":"東京都","city":"墨田区","address":"東京都墨田区両国2丁目1-3","lat":35.69205637,"lon":139.79178259},{"name":"すみだ共生社会推進センター","province":"東京都","city":"墨田区","address":"東京都墨田区向島3丁目39-19","lat":35.71293249,"lon":139.81156977},{"name":"向島交番前","province":"東京都","city":"墨田区","address":"東京都墨田区向島4丁目1-5","lat":35.71615479,"lon":139.81085363},{"name":"枕橋","province":"東京都","city":"墨田区","address":"東京都墨田区吾妻橋2丁目19-7","lat":35.71097102,"lon":139.80224865},{"name":"両国駅西口第二","province":"東京都","city":"墨田区","address":"東京都墨田区両国2丁目13-6","lat":35.69576978,"lon":139.7915877},{"name":"清平橋西","province":"東京都","city":"墨田区","address":"東京都墨田区石原4丁目11-13","lat":35.69930825,"lon":139.80733851},{"name":"八反目東第二","province":"東京都","city":"墨田区","address":"東京都墨田区向島3丁目44-10","lat":35.71187387,"lon":139.80959473},{"name":"福祉保健センター前","province":"東京都","city":"墨田区","address":"東京都墨田区向島3丁目40-7","lat":35.71289911,"lon":139.81113646},{"name":"墨田リバーピア前","province":"東京都","city":"墨田区","address":"東京都墨田区吾妻橋1丁目22-7","lat":35.70991834,"lon":139.80199884},{"name":"東向島","province":"東京都","city":"墨田区","address":"東京都墨田区東向島4丁目26-7","lat":35.72272992,"lon":139.81843096},{"name":"四ツ木橋南詰","province":"東京都","city":"墨田区","address":"東京都墨田区墨田4丁目54","lat":35.72883509,"lon":139.82489398},{"name":"東向島三丁目","province":"東京都","city":"墨田区","address":"東京都墨田区東向島2丁目23-5","lat":35.72041618,"lon":139.81628397},{"name":"白鬚橋東詰","province":"東京都","city":"墨田区","address":"東京都墨田区東向島4丁目1-7","lat":35.72769889,"lon":139.81332658},{"name":"仲居堀","province":"東京都","city":"墨田区","address":"東京都墨田区文花3丁目16-5","lat":35.7128443,"lon":139.8271685},{"name":"小村井","province":"東京都","city":"墨田区","address":"東京都墨田区立花4丁目1-5","lat":35.71096092,"lon":139.82908505},{"name":"京島","province":"東京都","city":"墨田区","address":"東京都墨田区京島1丁目53-12","lat":35.71734424,"lon":139.82299402},{"name":"東向島六丁目","province":"東京都","city":"墨田区","address":"東京都墨田区東向島5丁目18-1","lat":35.7259436,"lon":139.82155274},{"name":"曳舟川","province":"東京都","city":"墨田区","address":"東京都墨田区東向島2丁目41-11","lat":35.72039126,"lon":139.82010007},{"name":"更正橋","province":"東京都","city":"墨田区","address":"東京都墨田区八広5丁目12-13","lat":35.72742135,"lon":139.82628826},{"name":"曳舟","province":"東京都","city":"墨田区","address":"東京都墨田区東向島2丁目31-15","lat":35.71844687,"lon":139.81811136},{"name":"白鬚橋交番前","province":"東京都","city":"墨田区","address":"東京都墨田区堤通2丁目3-2","lat":35.72869044,"lon":139.81288497},{"name":"東向島二丁目","province":"東京都","city":"墨田区","address":"東京都墨田区東向島2丁目21-2","lat":35.71962175,"lon":139.81537016},{"name":"京島二丁目","province":"東京都","city":"墨田区","address":"東京都墨田区京島1丁目27-4","lat":35.71593046,"lon":139.820036},{"name":"東向島一丁目","province":"東京都","city":"墨田区","address":"東京都墨田区東向島2丁目1-17","lat":35.71792724,"lon":139.81358967},{"name":"押上二丁目北","province":"東京都","city":"墨田区","address":"東京都墨田区東向島2丁目12-9","lat":35.71627736,"lon":139.81555038},{"name":"吾嬬西公園前","province":"東京都","city":"墨田区","address":"東京都墨田区八広6丁目53-16","lat":35.72424908,"lon":139.83025702},{"name":"八広六丁目","province":"東京都","city":"墨田区","address":"東京都墨田区八広6丁目29-8","lat":35.72690473,"lon":139.82919342},{"name":"高木神社入口","province":"東京都","city":"墨田区","address":"東京都墨田区東向島2丁目11-17","lat":35.71554674,"lon":139.81468372},{"name":"十間橋北","province":"東京都","city":"墨田区","address":"東京都墨田区文花1丁目1-5","lat":35.70885807,"lon":139.81870855},{"name":"八広一丁目","province":"東京都","city":"墨田区","address":"東京都墨田区八広1丁目7-1","lat":35.72122734,"lon":139.82175262},{"name":"曳舟小学校角","province":"東京都","city":"墨田区","address":"東京都墨田区京島3丁目9-7","lat":35.71656384,"lon":139.82213857},{"name":"八広小前","province":"東京都","city":"墨田区","address":"東京都墨田区八広6丁目9-14","lat":35.72731304,"lon":139.82709371},{"name":"東向島一丁目第二","province":"東京都","city":"墨田区","address":"東京都墨田区東向島2丁目20-1","lat":35.71878006,"lon":139.8144702},{"name":"曳舟文化センター","province":"東京都","city":"墨田区","address":"東京都墨田区京島1丁目38-11","lat":35.71831636,"lon":139.81876127},{"name":"墨田特別支援学校南","province":"東京都","city":"墨田区","address":"東京都墨田区東向島6丁目45","lat":35.72467145,"lon":139.82349966},{"name":"長浦神社前","province":"東京都","city":"墨田区","address":"東京都墨田区東向島6丁目27-7","lat":35.72352711,"lon":139.82273307},{"name":"東あづま駅前","province":"東京都","city":"墨田区","address":"東京都墨田区立花3丁目13-4","lat":35.70697755,"lon":139.83248773},{"name":"東向島四丁目","province":"東京都","city":"墨田区","address":"東京都墨田区東向島4丁目20-20","lat":35.72537966,"lon":139.81565934},{"name":"京成曳舟駅前","province":"東京都","city":"墨田区","address":"東京都墨田区京島1丁目43","lat":35.71936079,"lon":139.82040277},{"name":"平井橋第一公園前","province":"東京都","city":"墨田区","address":"東京都墨田区立花4丁目30-17","lat":35.71011618,"lon":139.83457064},{"name":"墨田特別支援学校北","province":"東京都","city":"墨田区","address":"東京都墨田区東向島6丁目56-9","lat":35.72597138,"lon":139.82461065},{"name":"墨田生涯学習センター前","province":"東京都","city":"墨田区","address":"東京都墨田区東向島6丁目6-12","lat":35.72145228,"lon":139.81971127},{"name":"墨田特別支援学校前","province":"東京都","city":"墨田区","address":"東京都墨田区八広5丁目9","lat":35.7235048,"lon":139.82482722},{"name":"白鬚橋東詰第二","province":"東京都","city":"墨田区","address":"東京都墨田区堤通2丁目3-1","lat":35.72857378,"lon":139.81259338},{"name":"曳舟交番前","province":"東京都","city":"墨田区","address":"東京都墨田区東向島2丁目27-1","lat":35.71769963,"lon":139.81702811},{"name":"墨田川高校前","province":"東京都","city":"墨田区","address":"東京都墨田区東向島3丁目37-7","lat":35.72178275,"lon":139.81717279},{"name":"東向島五丁目北","province":"東京都","city":"墨田区","address":"東京都墨田区東向島5丁目22-7","lat":35.72698798,"lon":139.823022},{"name":"向島消防署前","province":"東京都","city":"墨田区","address":"東京都墨田区東向島6丁目22-3","lat":35.723566,"lon":139.81996685},{"name":"白鬚公園南","province":"東京都","city":"墨田区","address":"東京都墨田区墨田1丁目4-2","lat":35.72907095,"lon":139.81423744},{"name":"区立文花公園","province":"東京都","city":"墨田区","address":"東京都墨田区文花1丁目27-5","lat":35.7094556,"lon":139.82244155},{"name":"区立両国公園","province":"東京都","city":"墨田区","address":"東京都墨田区両国4丁目25-3","lat":35.6937507,"lon":139.79611856},{"name":"白鬚東地区防災拠点","province":"東京都","city":"墨田区","address":"東京都墨田区堤通2丁目","lat":35.73410354,"lon":139.81657811},{"name":"３墨田清掃工場","province":"東京都","city":"墨田区","address":"東京都墨田区東墨田1丁目10-23","lat":35.7174879,"lon":139.83172056},{"name":"言問橋東詰","province":"東京都","city":"墨田区","address":"東京都墨田区向島1丁目5-6","lat":35.71296269,"lon":139.80529822},{"name":"錦糸町駅前","province":"東京都","city":"墨田区","address":"東京都墨田区江東橋3丁目14-5","lat":35.69643352,"lon":139.81393804},{"name":"緑三丁目","province":"東京都","city":"墨田区","address":"東京都墨田区緑3丁目11-5","lat":35.69483935,"lon":139.8052505},{"name":"向島三丁目","province":"東京都","city":"墨田区","address":"東京都墨田区向島4丁目1-1","lat":35.71578252,"lon":139.81036196},{"name":"両国二丁目","province":"東京都","city":"墨田区","address":"東京都墨田区両国2丁目10-8","lat":35.69390891,"lon":139.79173237},{"name":"菊川二丁目","province":"東京都","city":"墨田区","address":"東京都墨田区菊川2丁目6-11","lat":35.68858743,"lon":139.80581487},{"name":"石原一丁目","province":"東京都","city":"墨田区","address":"東京都墨田区横網2丁目4-11","lat":35.70047765,"lon":139.79677302},{"name":"本所一丁目","province":"東京都","city":"墨田区","address":"東京都墨田区本所1丁目4-10","lat":35.70358282,"lon":139.79663645},{"name":"吾妻橋三丁目","province":"東京都","city":"墨田区","address":"東京都墨田区吾妻橋3丁目7-1","lat":35.70885733,"lon":139.8044403},{"name":"亀沢四丁目","province":"東京都","city":"墨田区","address":"東京都墨田区亀沢4丁目11-6","lat":35.69718074,"lon":139.80547237},{"name":"吾妻橋五差路","province":"東京都","city":"墨田区","address":"東京都墨田区吾妻橋2丁目4-1","lat":35.70888232,"lon":139.80236003},{"name":"向島五丁目","province":"東京都","city":"墨田区","address":"東京都墨田区向島4丁目8-1","lat":35.7169299,"lon":139.81198973},{"name":"石原四丁目","province":"東京都","city":"墨田区","address":"東京都墨田区石原4丁目1-1","lat":35.6992055,"lon":139.80531657},{"name":"錦糸町駅南口","province":"東京都","city":"墨田区","address":"東京都墨田区江東橋3丁目13-1","lat":35.69586694,"lon":139.81362423},{"name":"曳舟川通り西","province":"東京都","city":"墨田区","address":"東京都墨田区押上2丁目1-1","lat":35.71079886,"lon":139.80891988},{"name":"吾妻橋東詰","province":"東京都","city":"墨田区","address":"東京都墨田区吾妻橋1丁目12-15","lat":35.70809627,"lon":139.79825794},{"name":"江戸東京博物館前","province":"東京都","city":"墨田区","address":"東京都墨田区横網1丁目5-1","lat":35.69762521,"lon":139.7971151},{"name":"長崎橋東詰","province":"東京都","city":"墨田区","address":"東京都墨田区錦糸1丁目17-10","lat":35.69788896,"lon":139.80895792},{"name":"押上二丁目","province":"東京都","city":"墨田区","address":"東京都墨田区押上2丁目20-14","lat":35.71371045,"lon":139.81295033},{"name":"横網公園前","province":"東京都","city":"墨田区","address":"東京都墨田区横網2丁目3","lat":35.69926945,"lon":139.79650933},{"name":"墨田中学校前","province":"東京都","city":"墨田区","address":"東京都墨田区向島4丁目28-1","lat":35.71407153,"lon":139.81255041},{"name":"錦糸公園前","province":"東京都","city":"墨田区","address":"東京都墨田区錦糸3丁目4-9","lat":35.6979833,"lon":139.81474616},{"name":"牛島神社前","province":"東京都","city":"墨田区","address":"東京都墨田区向島1丁目6-9","lat":35.711971,"lon":139.80486209},{"name":"秋葉神社前","province":"東京都","city":"墨田区","address":"東京都墨田区向島5丁目37-4","lat":35.71760495,"lon":139.81249254},{"name":"曳舟川通り第二","province":"東京都","city":"墨田区","address":"東京都墨田区向島3丁目43-10","lat":35.71162665,"lon":139.80970857},{"name":"錦糸町駅前第二","province":"東京都","city":"墨田区","address":"東京都墨田区江東橋4丁目29-15","lat":35.6960169,"lon":139.81651829},{"name":"高速駒形入口","province":"東京都","city":"墨田区","address":"東京都墨田区東駒形1丁目15-2","lat":35.70625478,"lon":139.79821929},{"name":"東京スカイツリー駅前","province":"東京都","city":"墨田区","address":"東京都墨田区押上1丁目1-2","lat":35.71005462,"lon":139.81070876},{"name":"石原四丁目第二","province":"東京都","city":"墨田区","address":"東京都墨田区石原4丁目26-1","lat":35.70087475,"lon":139.80633565},{"name":"千歳三丁目","province":"東京都","city":"墨田区","address":"東京都墨田区千歳3丁目6-6","lat":35.6902762,"lon":139.79780514},{"name":"小梅通り西","province":"東京都","city":"墨田区","address":"東京都墨田区向島3丁目45-1","lat":35.71152381,"lon":139.80867257},{"name":"錦糸町駅ガード南","province":"東京都","city":"墨田区","address":"東京都墨田区江東橋4丁目27-14","lat":35.69632797,"lon":139.81565727},{"name":"本所一之橋北詰","province":"東京都","city":"墨田区","address":"東京都墨田区両国2丁目1-3","lat":35.69205637,"lon":139.79178259},{"name":"すみだ共生社会推進センター","province":"東京都","city":"墨田区","address":"東京都墨田区向島3丁目39-19","lat":35.71293249,"lon":139.81156977},{"name":"向島交番前","province":"東京都","city":"墨田区","address":"東京都墨田区向島4丁目1-5","lat":35.71615479,"lon":139.81085363},{"name":"枕橋","province":"東京都","city":"墨田区","address":"東京都墨田区吾妻橋2丁目19-7","lat":35.71097102,"lon":139.80224865},{"name":"両国駅西口第二","province":"東京都","city":"墨田区","address":"東京都墨田区両国2丁目13-6","lat":35.69576978,"lon":139.7915877},{"name":"清平橋西","province":"東京都","city":"墨田区","address":"東京都墨田区石原4丁目11-13","lat":35.69930825,"lon":139.80733851},{"name":"八反目東第二","province":"東京都","city":"墨田区","address":"東京都墨田区向島3丁目44-10","lat":35.71187387,"lon":139.80959473},{"name":"福祉保健センター前","province":"東京都","city":"墨田区","address":"東京都墨田区向島3丁目40-7","lat":35.71289911,"lon":139.81113646},{"name":"墨田リバーピア前","province":"東京都","city":"墨田区","address":"東京都墨田区吾妻橋1丁目22-7","lat":35.70991834,"lon":139.80199884},{"name":"東向島","province":"東京都","city":"墨田区","address":"東京都墨田区東向島4丁目26-7","lat":35.72272992,"lon":139.81843096},{"name":"四ツ木橋南詰","province":"東京都","city":"墨田区","address":"東京都墨田区墨田4丁目54","lat":35.72883509,"lon":139.82489398},{"name":"東向島三丁目","province":"東京都","city":"墨田区","address":"東京都墨田区東向島2丁目23-5","lat":35.72041618,"lon":139.81628397},{"name":"白鬚橋東詰","province":"東京都","city":"墨田区","address":"東京都墨田区東向島4丁目1-7","lat":35.72769889,"lon":139.81332658},{"name":"仲居堀","province":"東京都","city":"墨田区","address":"東京都墨田区文花3丁目16-5","lat":35.7128443,"lon":139.8271685},{"name":"小村井","province":"東京都","city":"墨田区","address":"東京都墨田区立花4丁目1-5","lat":35.71096092,"lon":139.82908505},{"name":"京島","province":"東京都","city":"墨田区","address":"東京都墨田区京島1丁目53-12","lat":35.71734424,"lon":139.82299402},{"name":"東向島六丁目","province":"東京都","city":"墨田区","address":"東京都墨田区東向島5丁目18-1","lat":35.7259436,"lon":139.82155274},{"name":"曳舟川","province":"東京都","city":"墨田区","address":"東京都墨田区東向島2丁目41-11","lat":35.72039126,"lon":139.82010007},{"name":"更正橋","province":"東京都","city":"墨田区","address":"東京都墨田区八広5丁目12-13","lat":35.72742135,"lon":139.82628826},{"name":"曳舟","province":"東京都","city":"墨田区","address":"東京都墨田区東向島2丁目31-15","lat":35.71844687,"lon":139.81811136},{"name":"白鬚橋交番前","province":"東京都","city":"墨田区","address":"東京都墨田区堤通2丁目3-2","lat":35.72869044,"lon":139.81288497},{"name":"東向島二丁目","province":"東京都","city":"墨田区","address":"東京都墨田区東向島2丁目21-2","lat":35.71962175,"lon":139.81537016},{"name":"京島二丁目","province":"東京都","city":"墨田区","address":"東京都墨田区京島1丁目27-4","lat":35.71593046,"lon":139.820036},{"name":"東向島一丁目","province":"東京都","city":"墨田区","address":"東京都墨田区東向島2丁目1-17","lat":35.71792724,"lon":139.81358967},{"name":"押上二丁目北","province":"東京都","city":"墨田区","address":"東京都墨田区東向島2丁目12-9","lat":35.71627736,"lon":139.81555038},{"name":"吾嬬西公園前","province":"東京都","city":"墨田区","address":"東京都墨田区八広6丁目53-16","lat":35.72424908,"lon":139.83025702},{"name":"八広六丁目","province":"東京都","city":"墨田区","address":"東京都墨田区八広6丁目29-8","lat":35.72690473,"lon":139.82919342},{"name":"高木神社入口","province":"東京都","city":"墨田区","address":"東京都墨田区東向島2丁目11-17","lat":35.71554674,"lon":139.81468372},{"name":"十間橋北","province":"東京都","city":"墨田区","address":"東京都墨田区文花1丁目1-5","lat":35.70885807,"lon":139.81870855},{"name":"八広一丁目","province":"東京都","city":"墨田区","address":"東京都墨田区八広1丁目7-1","lat":35.72122734,"lon":139.82175262},{"name":"曳舟小学校角","province":"東京都","city":"墨田区","address":"東京都墨田区京島3丁目9-7","lat":35.71656384,"lon":139.82213857},{"name":"八広小前","province":"東京都","city":"墨田区","address":"東京都墨田区八広6丁目9-14","lat":35.72731304,"lon":139.82709371},{"name":"東向島一丁目第二","province":"東京都","city":"墨田区","address":"東京都墨田区東向島2丁目20-1","lat":35.71878006,"lon":139.8144702},{"name":"曳舟文化センター","province":"東京都","city":"墨田区","address":"東京都墨田区京島1丁目38-11","lat":35.71831636,"lon":139.81876127},{"name":"墨田特別支援学校南","province":"東京都","city":"墨田区","address":"東京都墨田区東向島6丁目45","lat":35.72467145,"lon":139.82349966},{"name":"長浦神社前","province":"東京都","city":"墨田区","address":"東京都墨田区東向島6丁目27-7","lat":35.72352711,"lon":139.82273307},{"name":"東あづま駅前","province":"東京都","city":"墨田区","address":"東京都墨田区立花3丁目13-4","lat":35.70697755,"lon":139.83248773},{"name":"東向島四丁目","province":"東京都","city":"墨田区","address":"東京都墨田区東向島4丁目20-20","lat":35.72537966,"lon":139.81565934},{"name":"京成曳舟駅前","province":"東京都","city":"墨田区","address":"東京都墨田区京島1丁目43","lat":35.71936079,"lon":139.82040277},{"name":"平井橋第一公園前","province":"東京都","city":"墨田区","address":"東京都墨田区立花4丁目30-17","lat":35.71011618,"lon":139.83457064},{"name":"墨田特別支援学校北","province":"東京都","city":"墨田区","address":"東京都墨田区東向島6丁目56-9","lat":35.72597138,"lon":139.82461065},{"name":"墨田生涯学習センター前","province":"東京都","city":"墨田区","address":"東京都墨田区東向島6丁目6-12","lat":35.72145228,"lon":139.81971127},{"name":"墨田特別支援学校前","province":"東京都","city":"墨田区","address":"東京都墨田区八広5丁目9","lat":35.7235048,"lon":139.82482722},{"name":"白鬚橋東詰第二","province":"東京都","city":"墨田区","address":"東京都墨田区堤通2丁目3-1","lat":35.72857378,"lon":139.81259338},{"name":"曳舟交番前","province":"東京都","city":"墨田区","address":"東京都墨田区東向島2丁目27-1","lat":35.71769963,"lon":139.81702811},{"name":"墨田川高校前","province":"東京都","city":"墨田区","address":"東京都墨田区東向島3丁目37-7","lat":35.72178275,"lon":139.81717279},{"name":"東向島五丁目北","province":"東京都","city":"墨田区","address":"東京都墨田区東向島5丁目22-7","lat":35.72698798,"lon":139.823022},{"name":"向島消防署前","province":"東京都","city":"墨田区","address":"東京都墨田区東向島6丁目22-3","lat":35.723566,"lon":139.81996685},{"name":"白鬚公園南","province":"東京都","city":"墨田区","address":"東京都墨田区墨田1丁目4-2","lat":35.72907095,"lon":139.81423744},{"name":"区立文花公園","province":"東京都","city":"墨田区","address":"東京都墨田区文花1丁目27-5","lat":35.7094556,"lon":139.82244155},{"name":"区立両国公園","province":"東京都","city":"墨田区","address":"東京都墨田区両国4丁目25-3","lat":35.6937507,"lon":139.79611856},{"name":"白鬚東地区防災拠点","province":"東京都","city":"墨田区","address":"東京都墨田区堤通2丁目","lat":35.73410354,"lon":139.81657811},{"name":"３墨田清掃工場","province":"東京都","city":"墨田区","address":"東京都墨田区東墨田1丁目10-23","lat":35.7174879,"lon":139.83172056},{"name":"言問橋東詰","province":"東京都","city":"墨田区","address":"東京都墨田区向島1丁目5-6","lat":35.71296269,"lon":139.80529822},{"name":"錦糸町駅前","province":"東京都","city":"墨田区","address":"東京都墨田区江東橋3丁目14-5","lat":35.69643352,"lon":139.81393804},{"name":"緑三丁目","province":"東京都","city":"墨田区","address":"東京都墨田区緑3丁目11-5","lat":35.69483935,"lon":139.8052505},{"name":"向島三丁目","province":"東京都","city":"墨田区","address":"東京都墨田区向島4丁目1-1","lat":35.71578252,"lon":139.81036196},{"name":"両国二丁目","province":"東京都","city":"墨田区","address":"東京都墨田区両国2丁目10-8","lat":35.69390891,"lon":139.79173237},{"name":"菊川二丁目","province":"東京都","city":"墨田区","address":"東京都墨田区菊川2丁目6-11","lat":35.68858743,"lon":139.80581487},{"name":"石原一丁目","province":"東京都","city":"墨田区","address":"東京都墨田区横網2丁目4-11","lat":35.70047765,"lon":139.79677302},{"name":"本所一丁目","province":"東京都","city":"墨田区","address":"東京都墨田区本所1丁目4-10","lat":35.70358282,"lon":139.79663645},{"name":"吾妻橋三丁目","province":"東京都","city":"墨田区","address":"東京都墨田区吾妻橋3丁目7-1","lat":35.70885733,"lon":139.8044403},{"name":"亀沢四丁目","province":"東京都","city":"墨田区","address":"東京都墨田区亀沢4丁目11-6","lat":35.69718074,"lon":139.80547237},{"name":"吾妻橋五差路","province":"東京都","city":"墨田区","address":"東京都墨田区吾妻橋2丁目4-1","lat":35.70888232,"lon":139.80236003},{"name":"向島五丁目","province":"東京都","city":"墨田区","address":"東京都墨田区向島4丁目8-1","lat":35.7169299,"lon":139.81198973},{"name":"石原四丁目","province":"東京都","city":"墨田区","address":"東京都墨田区石原4丁目1-1","lat":35.6992055,"lon":139.80531657},{"name":"錦糸町駅南口","province":"東京都","city":"墨田区","address":"東京都墨田区江東橋3丁目13-1","lat":35.69586694,"lon":139.81362423},{"name":"曳舟川通り西","province":"東京都","city":"墨田区","address":"東京都墨田区押上2丁目1-1","lat":35.71079886,"lon":139.80891988},{"name":"吾妻橋東詰","province":"東京都","city":"墨田区","address":"東京都墨田区吾妻橋1丁目12-15","lat":35.70809627,"lon":139.79825794},{"name":"江戸東京博物館前","province":"東京都","city":"墨田区","address":"東京都墨田区横網1丁目5-1","lat":35.69762521,"lon":139.7971151},{"name":"長崎橋東詰","province":"東京都","city":"墨田区","address":"東京都墨田区錦糸1丁目17-10","lat":35.69788896,"lon":139.80895792},{"name":"押上二丁目","province":"東京都","city":"墨田区","address":"東京都墨田区押上2丁目20-14","lat":35.71371045,"lon":139.81295033},{"name":"横網公園前","province":"東京都","city":"墨田区","address":"東京都墨田区横網2丁目3","lat":35.69926945,"lon":139.79650933},{"name":"墨田中学校前","province":"東京都","city":"墨田区","address":"東京都墨田区向島4丁目28-1","lat":35.71407153,"lon":139.81255041},{"name":"錦糸公園前","province":"東京都","city":"墨田区","address":"東京都墨田区錦糸3丁目4-9","lat":35.6979833,"lon":139.81474616},{"name":"牛島神社前","province":"東京都","city":"墨田区","address":"東京都墨田区向島1丁目6-9","lat":35.711971,"lon":139.80486209},{"name":"秋葉神社前","province":"東京都","city":"墨田区","address":"東京都墨田区向島5丁目37-4","lat":35.71760495,"lon":139.81249254},{"name":"曳舟川通り第二","province":"東京都","city":"墨田区","address":"東京都墨田区向島3丁目43-10","lat":35.71162665,"lon":139.80970857},{"name":"錦糸町駅前第二","province":"東京都","city":"墨田区","address":"東京都墨田区江東橋4丁目29-15","lat":35.6960169,"lon":139.81651829},{"name":"高速駒形入口","province":"東京都","city":"墨田区","address":"東京都墨田区東駒形1丁目15-2","lat":35.70625478,"lon":139.79821929},{"name":"東京スカイツリー駅前","province":"東京都","city":"墨田区","address":"東京都墨田区押上1丁目1-2","lat":35.71005462,"lon":139.81070876},{"name":"石原四丁目第二","province":"東京都","city":"墨田区","address":"東京都墨田区石原4丁目26-1","lat":35.70087475,"lon":139.80633565},{"name":"千歳三丁目","province":"東京都","city":"墨田区","address":"東京都墨田区千歳3丁目6-6","lat":35.6902762,"lon":139.79780514},{"name":"小梅通り西","province":"東京都","city":"墨田区","address":"東京都墨田区向島3丁目45-1","lat":35.71152381,"lon":139.80867257},{"name":"錦糸町駅ガード南","province":"東京都","city":"墨田区","address":"東京都墨田区江東橋4丁目27-14","lat":35.69632797,"lon":139.81565727},{"name":"本所一之橋北詰","province":"東京都","city":"墨田区","address":"東京都墨田区両国2丁目1-3","lat":35.69205637,"lon":139.79178259},{"name":"すみだ共生社会推進センター","province":"東京都","city":"墨田区","address":"東京都墨田区向島3丁目39-19","lat":35.71293249,"lon":139.81156977},{"name":"向島交番前","province":"東京都","city":"墨田区","address":"東京都墨田区向島4丁目1-5","lat":35.71615479,"lon":139.81085363},{"name":"枕橋","province":"東京都","city":"墨田区","address":"東京都墨田区吾妻橋2丁目19-7","lat":35.71097102,"lon":139.80224865},{"name":"両国駅西口第二","province":"東京都","city":"墨田区","address":"東京都墨田区両国2丁目13-6","lat":35.69576978,"lon":139.7915877},{"name":"清平橋西","province":"東京都","city":"墨田区","address":"東京都墨田区石原4丁目11-13","lat":35.69930825,"lon":139.80733851},{"name":"八反目東第二","province":"東京都","city":"墨田区","address":"東京都墨田区向島3丁目44-10","lat":35.71187387,"lon":139.80959473},{"name":"福祉保健センター前","province":"東京都","city":"墨田区","address":"東京都墨田区向島3丁目40-7","lat":35.71289911,"lon":139.81113646},{"name":"墨田リバーピア前","province":"東京都","city":"墨田区","address":"東京都墨田区吾妻橋1丁目22-7","lat":35.70991834,"lon":139.80199884},{"name":"東向島","province":"東京都","city":"墨田区","address":"東京都墨田区東向島4丁目26-7","lat":35.72272992,"lon":139.81843096},{"name":"四ツ木橋南詰","province":"東京都","city":"墨田区","address":"東京都墨田区墨田4丁目54","lat":35.72883509,"lon":139.82489398},{"name":"東向島三丁目","province":"東京都","city":"墨田区","address":"東京都墨田区東向島2丁目23-5","lat":35.72041618,"lon":139.81628397},{"name":"白鬚橋東詰","province":"東京都","city":"墨田区","address":"東京都墨田区東向島4丁目1-7","lat":35.72769889,"lon":139.81332658},{"name":"仲居堀","province":"東京都","city":"墨田区","address":"東京都墨田区文花3丁目16-5","lat":35.7128443,"lon":139.8271685},{"name":"小村井","province":"東京都","city":"墨田区","address":"東京都墨田区立花4丁目1-5","lat":35.71096092,"lon":139.82908505},{"name":"京島","province":"東京都","city":"墨田区","address":"東京都墨田区京島1丁目53-12","lat":35.71734424,"lon":139.82299402},{"name":"東向島六丁目","province":"東京都","city":"墨田区","address":"東京都墨田区東向島5丁目18-1","lat":35.7259436,"lon":139.82155274},{"name":"曳舟川","province":"東京都","city":"墨田区","address":"東京都墨田区東向島2丁目41-11","lat":35.72039126,"lon":139.82010007},{"name":"更正橋","province":"東京都","city":"墨田区","address":"東京都墨田区八広5丁目12-13","lat":35.72742135,"lon":139.82628826},{"name":"曳舟","province":"東京都","city":"墨田区","address":"東京都墨田区東向島2丁目31-15","lat":35.71844687,"lon":139.81811136},{"name":"白鬚橋交番前","province":"東京都","city":"墨田区","address":"東京都墨田区堤通2丁目3-2","lat":35.72869044,"lon":139.81288497},{"name":"東向島二丁目","province":"東京都","city":"墨田区","address":"東京都墨田区東向島2丁目21-2","lat":35.71962175,"lon":139.81537016},{"name":"京島二丁目","province":"東京都","city":"墨田区","address":"東京都墨田区京島1丁目27-4","lat":35.71593046,"lon":139.820036},{"name":"東向島一丁目","province":"東京都","city":"墨田区","address":"東京都墨田区東向島2丁目1-17","lat":35.71792724,"lon":139.81358967},{"name":"押上二丁目北","province":"東京都","city":"墨田区","address":"東京都墨田区東向島2丁目12-9","lat":35.71627736,"lon":139.81555038},{"name":"吾嬬西公園前","province":"東京都","city":"墨田区","address":"東京都墨田区八広6丁目53-16","lat":35.72424908,"lon":139.83025702},{"name":"八広六丁目","province":"東京都","city":"墨田区","address":"東京都墨田区八広6丁目29-8","lat":35.72690473,"lon":139.82919342},{"name":"高木神社入口","province":"東京都","city":"墨田区","address":"東京都墨田区東向島2丁目11-17","lat":35.71554674,"lon":139.81468372},{"name":"十間橋北","province":"東京都","city":"墨田区","address":"東京都墨田区文花1丁目1-5","lat":35.70885807,"lon":139.81870855},{"name":"八広一丁目","province":"東京都","city":"墨田区","address":"東京都墨田区八広1丁目7-1","lat":35.72122734,"lon":139.82175262},{"name":"曳舟小学校角","province":"東京都","city":"墨田区","address":"東京都墨田区京島3丁目9-7","lat":35.71656384,"lon":139.82213857},{"name":"八広小前","province":"東京都","city":"墨田区","address":"東京都墨田区八広6丁目9-14","lat":35.72731304,"lon":139.82709371},{"name":"東向島一丁目第二","province":"東京都","city":"墨田区","address":"東京都墨田区東向島2丁目20-1","lat":35.71878006,"lon":139.8144702},{"name":"曳舟文化センター","province":"東京都","city":"墨田区","address":"東京都墨田区京島1丁目38-11","lat":35.71831636,"lon":139.81876127},{"name":"墨田特別支援学校南","province":"東京都","city":"墨田区","address":"東京都墨田区東向島6丁目45","lat":35.72467145,"lon":139.82349966},{"name":"長浦神社前","province":"東京都","city":"墨田区","address":"東京都墨田区東向島6丁目27-7","lat":35.72352711,"lon":139.82273307},{"name":"東あづま駅前","province":"東京都","city":"墨田区","address":"東京都墨田区立花3丁目13-4","lat":35.70697755,"lon":139.83248773},{"name":"東向島四丁目","province":"東京都","city":"墨田区","address":"東京都墨田区東向島4丁目20-20","lat":35.72537966,"lon":139.81565934},{"name":"京成曳舟駅前","province":"東京都","city":"墨田区","address":"東京都墨田区京島1丁目43","lat":35.71936079,"lon":139.82040277},{"name":"平井橋第一公園前","province":"東京都","city":"墨田区","address":"東京都墨田区立花4丁目30-17","lat":35.71011618,"lon":139.83457064},{"name":"墨田特別支援学校北","province":"東京都","city":"墨田区","address":"東京都墨田区東向島6丁目56-9","lat":35.72597138,"lon":139.82461065},{"name":"墨田生涯学習センター前","province":"東京都","city":"墨田区","address":"東京都墨田区東向島6丁目6-12","lat":35.72145228,"lon":139.81971127},{"name":"墨田特別支援学校前","province":"東京都","city":"墨田区","address":"東京都墨田区八広5丁目9","lat":35.7235048,"lon":139.82482722},{"name":"白鬚橋東詰第二","province":"東京都","city":"墨田区","address":"東京都墨田区堤通2丁目3-1","lat":35.72857378,"lon":139.81259338},{"name":"曳舟交番前","province":"東京都","city":"墨田区","address":"東京都墨田区東向島2丁目27-1","lat":35.71769963,"lon":139.81702811},{"name":"墨田川高校前","province":"東京都","city":"墨田区","address":"東京都墨田区東向島3丁目37-7","lat":35.72178275,"lon":139.81717279},{"name":"東向島五丁目北","province":"東京都","city":"墨田区","address":"東京都墨田区東向島5丁目22-7","lat":35.72698798,"lon":139.823022},{"name":"向島消防署前","province":"東京都","city":"墨田区","address":"東京都墨田区東向島6丁目22-3","lat":35.723566,"lon":139.81996685},{"name":"白鬚公園南","province":"東京都","city":"墨田区","address":"東京都墨田区墨田1丁目4-2","lat":35.72907095,"lon":139.81423744},{"name":"区立文花公園","province":"東京都","city":"墨田区","address":"東京都墨田区文花1丁目27-5","lat":35.7094556,"lon":139.82244155},{"name":"区立両国公園","province":"東京都","city":"墨田区","address":"東京都墨田区両国4丁目25-3","lat":35.6937507,"lon":139.79611856},{"name":"白鬚東地区防災拠点","province":"東京都","city":"墨田区","address":"東京都墨田区堤通2丁目","lat":35.73410354,"lon":139.81657811},{"name":"３墨田清掃工場","province":"東京都","city":"墨田区","address":"東京都墨田区東墨田1丁目10-23","lat":35.7174879,"lon":139.83172056},{"name":"言問橋東詰","province":"東京都","city":"墨田区","address":"東京都墨田区向島1丁目5-6","lat":35.71296269,"lon":139.80529822},{"name":"錦糸町駅前","province":"東京都","city":"墨田区","address":"東京都墨田区江東橋3丁目14-5","lat":35.69643352,"lon":139.81393804},{"name":"緑三丁目","province":"東京都","city":"墨田区","address":"東京都墨田区緑3丁目11-5","lat":35.69483935,"lon":139.8052505},{"name":"向島三丁目","province":"東京都","city":"墨田区","address":"東京都墨田区向島4丁目1-1","lat":35.71578252,"lon":139.81036196},{"name":"両国二丁目","province":"東京都","city":"墨田区","address":"東京都墨田区両国2丁目10-8","lat":35.69390891,"lon":139.79173237},{"name":"菊川二丁目","province":"東京都","city":"墨田区","address":"東京都墨田区菊川2丁目6-11","lat":35.68858743,"lon":139.80581487},{"name":"石原一丁目","province":"東京都","city":"墨田区","address":"東京都墨田区横網2丁目4-11","lat":35.70047765,"lon":139.79677302},{"name":"本所一丁目","province":"東京都","city":"墨田区","address":"東京都墨田区本所1丁目4-10","lat":35.70358282,"lon":139.79663645},{"name":"吾妻橋三丁目","province":"東京都","city":"墨田区","address":"東京都墨田区吾妻橋3丁目7-1","lat":35.70885733,"lon":139.8044403},{"name":"亀沢四丁目","province":"東京都","city":"墨田区","address":"東京都墨田区亀沢4丁目11-6","lat":35.69718074,"lon":139.80547237},{"name":"吾妻橋五差路","province":"東京都","city":"墨田区","address":"東京都墨田区吾妻橋2丁目4-1","lat":35.70888232,"lon":139.80236003},{"name":"向島五丁目","province":"東京都","city":"墨田区","address":"東京都墨田区向島4丁目8-1","lat":35.7169299,"lon":139.81198973},{"name":"石原四丁目","province":"東京都","city":"墨田区","address":"東京都墨田区石原4丁目1-1","lat":35.6992055,"lon":139.80531657},{"name":"錦糸町駅南口","province":"東京都","city":"墨田区","address":"東京都墨田区江東橋3丁目13-1","lat":35.69586694,"lon":139.81362423},{"name":"曳舟川通り西","province":"東京都","city":"墨田区","address":"東京都墨田区押上2丁目1-1","lat":35.71079886,"lon":139.80891988},{"name":"吾妻橋東詰","province":"東京都","city":"墨田区","address":"東京都墨田区吾妻橋1丁目12-15","lat":35.70809627,"lon":139.79825794},{"name":"江戸東京博物館前","province":"東京都","city":"墨田区","address":"東京都墨田区横網1丁目5-1","lat":35.69762521,"lon":139.7971151},{"name":"長崎橋東詰","province":"東京都","city":"墨田区","address":"東京都墨田区錦糸1丁目17-10","lat":35.69788896,"lon":139.80895792},{"name":"押上二丁目","province":"東京都","city":"墨田区","address":"東京都墨田区押上2丁目20-14","lat":35.71371045,"lon":139.81295033},{"name":"横網公園前","province":"東京都","city":"墨田区","address":"東京都墨田区横網2丁目3","lat":35.69926945,"lon":139.79650933},{"name":"墨田中学校前","province":"東京都","city":"墨田区","address":"東京都墨田区向島4丁目28-1","lat":35.71407153,"lon":139.81255041},{"name":"錦糸公園前","province":"東京都","city":"墨田区","address":"東京都墨田区錦糸3丁目4-9","lat":35.6979833,"lon":139.81474616},{"name":"牛島神社前","province":"東京都","city":"墨田区","address":"東京都墨田区向島1丁目6-9","lat":35.711971,"lon":139.80486209},{"name":"秋葉神社前","province":"東京都","city":"墨田区","address":"東京都墨田区向島5丁目37-4","lat":35.71760495,"lon":139.81249254},{"name":"曳舟川通り第二","province":"東京都","city":"墨田区","address":"東京都墨田区向島3丁目43-10","lat":35.71162665,"lon":139.80970857},{"name":"錦糸町駅前第二","province":"東京都","city":"墨田区","address":"東京都墨田区江東橋4丁目29-15","lat":35.6960169,"lon":139.81651829},{"name":"高速駒形入口","province":"東京都","city":"墨田区","address":"東京都墨田区東駒形1丁目15-2","lat":35.70625478,"lon":139.79821929},{"name":"東京スカイツリー駅前","province":"東京都","city":"墨田区","address":"東京都墨田区押上1丁目1-2","lat":35.71005462,"lon":139.81070876},{"name":"石原四丁目第二","province":"東京都","city":"墨田区","address":"東京都墨田区石原4丁目26-1","lat":35.70087475,"lon":139.80633565},{"name":"千歳三丁目","province":"東京都","city":"墨田区","address":"東京都墨田区千歳3丁目6-6","lat":35.6902762,"lon":139.79780514},{"name":"小梅通り西","province":"東京都","city":"墨田区","address":"東京都墨田区向島3丁目45-1","lat":35.71152381,"lon":139.80867257},{"name":"錦糸町駅ガード南","province":"東京都","city":"墨田区","address":"東京都墨田区江東橋4丁目27-14","lat":35.69632797,"lon":139.81565727},{"name":"本所一之橋北詰","province":"東京都","city":"墨田区","address":"東京都墨田区両国2丁目1-3","lat":35.69205637,"lon":139.79178259},{"name":"すみだ共生社会推進センター","province":"東京都","city":"墨田区","address":"東京都墨田区向島3丁目39-19","lat":35.71293249,"lon":139.81156977},{"name":"向島交番前","province":"東京都","city":"墨田区","address":"東京都墨田区向島4丁目1-5","lat":35.71615479,"lon":139.81085363},{"name":"枕橋","province":"東京都","city":"墨田区","address":"東京都墨田区吾妻橋2丁目19-7","lat":35.71097102,"lon":139.80224865},{"name":"両国駅西口第二","province":"東京都","city":"墨田区","address":"東京都墨田区両国2丁目13-6","lat":35.69576978,"lon":139.7915877},{"name":"清平橋西","province":"東京都","city":"墨田区","address":"東京都墨田区石原4丁目11-13","lat":35.69930825,"lon":139.80733851},{"name":"八反目東第二","province":"東京都","city":"墨田区","address":"東京都墨田区向島3丁目44-10","lat":35.71187387,"lon":139.80959473},{"name":"福祉保健センター前","province":"東京都","city":"墨田区","address":"東京都墨田区向島3丁目40-7","lat":35.71289911,"lon":139.81113646},{"name":"墨田リバーピア前","province":"東京都","city":"墨田区","address":"東京都墨田区吾妻橋1丁目22-7","lat":35.70991834,"lon":139.80199884},{"name":"東向島","province":"東京都","city":"墨田区","address":"東京都墨田区東向島4丁目26-7","lat":35.72272992,"lon":139.81843096},{"name":"四ツ木橋南詰","province":"東京都","city":"墨田区","address":"東京都墨田区墨田4丁目54","lat":35.72883509,"lon":139.82489398},{"name":"東向島三丁目","province":"東京都","city":"墨田区","address":"東京都墨田区東向島2丁目23-5","lat":35.72041618,"lon":139.81628397},{"name":"白鬚橋東詰","province":"東京都","city":"墨田区","address":"東京都墨田区東向島4丁目1-7","lat":35.72769889,"lon":139.81332658},{"name":"仲居堀","province":"東京都","city":"墨田区","address":"東京都墨田区文花3丁目16-5","lat":35.7128443,"lon":139.8271685},{"name":"小村井","province":"東京都","city":"墨田区","address":"東京都墨田区立花4丁目1-5","lat":35.71096092,"lon":139.82908505},{"name":"京島","province":"東京都","city":"墨田区","address":"東京都墨田区京島1丁目53-12","lat":35.71734424,"lon":139.82299402},{"name":"東向島六丁目","province":"東京都","city":"墨田区","address":"東京都墨田区東向島5丁目18-1","lat":35.7259436,"lon":139.82155274},{"name":"曳舟川","province":"東京都","city":"墨田区","address":"東京都墨田区東向島2丁目41-11","lat":35.72039126,"lon":139.82010007},{"name":"更正橋","province":"東京都","city":"墨田区","address":"東京都墨田区八広5丁目12-13","lat":35.72742135,"lon":139.82628826},{"name":"曳舟","province":"東京都","city":"墨田区","address":"東京都墨田区東向島2丁目31-15","lat":35.71844687,"lon":139.81811136},{"name":"白鬚橋交番前","province":"東京都","city":"墨田区","address":"東京都墨田区堤通2丁目3-2","lat":35.72869044,"lon":139.81288497},{"name":"東向島二丁目","province":"東京都","city":"墨田区","address":"東京都墨田区東向島2丁目21-2","lat":35.71962175,"lon":139.81537016},{"name":"京島二丁目","province":"東京都","city":"墨田区","address":"東京都墨田区京島1丁目27-4","lat":35.71593046,"lon":139.820036},{"name":"東向島一丁目","province":"東京都","city":"墨田区","address":"東京都墨田区東向島2丁目1-17","lat":35.71792724,"lon":139.81358967},{"name":"押上二丁目北","province":"東京都","city":"墨田区","address":"東京都墨田区東向島2丁目12-9","lat":35.71627736,"lon":139.81555038},{"name":"吾嬬西公園前","province":"東京都","city":"墨田区","address":"東京都墨田区八広6丁目53-16","lat":35.72424908,"lon":139.83025702},{"name":"八広六丁目","province":"東京都","city":"墨田区","address":"東京都墨田区八広6丁目29-8","lat":35.72690473,"lon":139.82919342},{"name":"高木神社入口","province":"東京都","city":"墨田区","address":"東京都墨田区東向島2丁目11-17","lat":35.71554674,"lon":139.81468372},{"name":"十間橋北","province":"東京都","city":"墨田区","address":"東京都墨田区文花1丁目1-5","lat":35.70885807,"lon":139.81870855},{"name":"八広一丁目","province":"東京都","city":"墨田区","address":"東京都墨田区八広1丁目7-1","lat":35.72122734,"lon":139.82175262},{"name":"曳舟小学校角","province":"東京都","city":"墨田区","address":"東京都墨田区京島3丁目9-7","lat":35.71656384,"lon":139.82213857},{"name":"八広小前","province":"東京都","city":"墨田区","address":"東京都墨田区八広6丁目9-14","lat":35.72731304,"lon":139.82709371},{"name":"東向島一丁目第二","province":"東京都","city":"墨田区","address":"東京都墨田区東向島2丁目20-1","lat":35.71878006,"lon":139.8144702},{"name":"曳舟文化センター","province":"東京都","city":"墨田区","address":"東京都墨田区京島1丁目38-11","lat":35.71831636,"lon":139.81876127},{"name":"墨田特別支援学校南","province":"東京都","city":"墨田区","address":"東京都墨田区東向島6丁目45","lat":35.72467145,"lon":139.82349966},{"name":"長浦神社前","province":"東京都","city":"墨田区","address":"東京都墨田区東向島6丁目27-7","lat":35.72352711,"lon":139.82273307},{"name":"東あづま駅前","province":"東京都","city":"墨田区","address":"東京都墨田区立花3丁目13-4","lat":35.70697755,"lon":139.83248773},{"name":"東向島四丁目","province":"東京都","city":"墨田区","address":"東京都墨田区東向島4丁目20-20","lat":35.72537966,"lon":139.81565934},{"name":"京成曳舟駅前","province":"東京都","city":"墨田区","address":"東京都墨田区京島1丁目43","lat":35.71936079,"lon":139.82040277},{"name":"平井橋第一公園前","province":"東京都","city":"墨田区","address":"東京都墨田区立花4丁目30-17","lat":35.71011618,"lon":139.83457064},{"name":"墨田特別支援学校北","province":"東京都","city":"墨田区","address":"東京都墨田区東向島6丁目56-9","lat":35.72597138,"lon":139.82461065},{"name":"墨田生涯学習センター前","province":"東京都","city":"墨田区","address":"東京都墨田区東向島6丁目6-12","lat":35.72145228,"lon":139.81971127},{"name":"墨田特別支援学校前","province":"東京都","city":"墨田区","address":"東京都墨田区八広5丁目9","lat":35.7235048,"lon":139.82482722},{"name":"白鬚橋東詰第二","province":"東京都","city":"墨田区","address":"東京都墨田区堤通2丁目3-1","lat":35.72857378,"lon":139.81259338},{"name":"曳舟交番前","province":"東京都","city":"墨田区","address":"東京都墨田区東向島2丁目27-1","lat":35.71769963,"lon":139.81702811},{"name":"墨田川高校前","province":"東京都","city":"墨田区","address":"東京都墨田区東向島3丁目37-7","lat":35.72178275,"lon":139.81717279},{"name":"東向島五丁目北","province":"東京都","city":"墨田区","address":"東京都墨田区東向島5丁目22-7","lat":35.72698798,"lon":139.823022},{"name":"向島消防署前","province":"東京都","city":"墨田区","address":"東京都墨田区東向島6丁目22-3","lat":35.723566,"lon":139.81996685},{"name":"白鬚公園南","province":"東京都","city":"墨田区","address":"東京都墨田区墨田1丁目4-2","lat":35.72907095,"lon":139.81423744},{"name":"区立文花公園","province":"東京都","city":"墨田区","address":"東京都墨田区文花1丁目27-5","lat":35.7094556,"lon":139.82244155},{"name":"区立両国公園","province":"東京都","city":"墨田区","address":"東京都墨田区両国4丁目25-3","lat":35.6937507,"lon":139.79611856},{"name":"白鬚東地区防災拠点","province":"東京都","city":"墨田区","address":"東京都墨田区堤通2丁目","lat":35.73410354,"lon":139.81657811},{"name":"３墨田清掃工場","province":"東京都","city":"墨田区","address":"東京都墨田区東墨田1丁目10-23","lat":35.7174879,"lon":139.83172056},{"name":"言問橋東詰","province":"東京都","city":"墨田区","address":"東京都墨田区向島1丁目5-6","lat":35.71296269,"lon":139.80529822},{"name":"錦糸町駅前","province":"東京都","city":"墨田区","address":"東京都墨田区江東橋3丁目14-5","lat":35.69643352,"lon":139.81393804},{"name":"緑三丁目","province":"東京都","city":"墨田区","address":"東京都墨田区緑3丁目11-5","lat":35.69483935,"lon":139.8052505},{"name":"向島三丁目","province":"東京都","city":"墨田区","address":"東京都墨田区向島4丁目1-1","lat":35.71578252,"lon":139.81036196},{"name":"両国二丁目","province":"東京都","city":"墨田区","address":"東京都墨田区両国2丁目10-8","lat":35.69390891,"lon":139.79173237},{"name":"菊川二丁目","province":"東京都","city":"墨田区","address":"東京都墨田区菊川2丁目6-11","lat":35.68858743,"lon":139.80581487},{"name":"石原一丁目","province":"東京都","city":"墨田区","address":"東京都墨田区横網2丁目4-11","lat":35.70047765,"lon":139.79677302},{"name":"本所一丁目","province":"東京都","city":"墨田区","address":"東京都墨田区本所1丁目4-10","lat":35.70358282,"lon":139.79663645},{"name":"吾妻橋三丁目","province":"東京都","city":"墨田区","address":"東京都墨田区吾妻橋3丁目7-1","lat":35.70885733,"lon":139.8044403},{"name":"亀沢四丁目","province":"東京都","city":"墨田区","address":"東京都墨田区亀沢4丁目11-6","lat":35.69718074,"lon":139.80547237},{"name":"吾妻橋五差路","province":"東京都","city":"墨田区","address":"東京都墨田区吾妻橋2丁目4-1","lat":35.70888232,"lon":139.80236003},{"name":"向島五丁目","province":"東京都","city":"墨田区","address":"東京都墨田区向島4丁目8-1","lat":35.7169299,"lon":139.81198973},{"name":"石原四丁目","province":"東京都","city":"墨田区","address":"東京都墨田区石原4丁目1-1","lat":35.6992055,"lon":139.80531657},{"name":"錦糸町駅南口","province":"東京都","city":"墨田区","address":"東京都墨田区江東橋3丁目13-1","lat":35.69586694,"lon":139.81362423},{"name":"曳舟川通り西","province":"東京都","city":"墨田区","address":"東京都墨田区押上2丁目1-1","lat":35.71079886,"lon":139.80891988},{"name":"吾妻橋東詰","province":"東京都","city":"墨田区","address":"東京都墨田区吾妻橋1丁目12-15","lat":35.70809627,"lon":139.79825794},{"name":"江戸東京博物館前","province":"東京都","city":"墨田区","address":"東京都墨田区横網1丁目5-1","lat":35.69762521,"lon":139.7971151},{"name":"長崎橋東詰","province":"東京都","city":"墨田区","address":"東京都墨田区錦糸1丁目17-10","lat":35.69788896,"lon":139.80895792},{"name":"押上二丁目","province":"東京都","city":"墨田区","address":"東京都墨田区押上2丁目20-14","lat":35.71371045,"lon":139.81295033},{"name":"横網公園前","province":"東京都","city":"墨田区","address":"東京都墨田区横網2丁目3","lat":35.69926945,"lon":139.79650933},{"name":"墨田中学校前","province":"東京都","city":"墨田区","address":"東京都墨田区向島4丁目28-1","lat":35.71407153,"lon":139.81255041},{"name":"錦糸公園前","province":"東京都","city":"墨田区","address":"東京都墨田区錦糸3丁目4-9","lat":35.6979833,"lon":139.81474616},{"name":"牛島神社前","province":"東京都","city":"墨田区","address":"東京都墨田区向島1丁目6-9","lat":35.711971,"lon":139.80486209},{"name":"秋葉神社前","province":"東京都","city":"墨田区","address":"東京都墨田区向島5丁目37-4","lat":35.71760495,"lon":139.81249254},{"name":"曳舟川通り第二","province":"東京都","city":"墨田区","address":"東京都墨田区向島3丁目43-10","lat":35.71162665,"lon":139.80970857},{"name":"錦糸町駅前第二","province":"東京都","city":"墨田区","address":"東京都墨田区江東橋4丁目29-15","lat":35.6960169,"lon":139.81651829},{"name":"高速駒形入口","province":"東京都","city":"墨田区","address":"東京都墨田区東駒形1丁目15-2","lat":35.70625478,"lon":139.79821929},{"name":"東京スカイツリー駅前","province":"東京都","city":"墨田区","address":"東京都墨田区押上1丁目1-2","lat":35.71005462,"lon":139.81070876},{"name":"石原四丁目第二","province":"東京都","city":"墨田区","address":"東京都墨田区石原4丁目26-1","lat":35.70087475,"lon":139.80633565},{"name":"千歳三丁目","province":"東京都","city":"墨田区","address":"東京都墨田区千歳3丁目6-6","lat":35.6902762,"lon":139.79780514},{"name":"小梅通り西","province":"東京都","city":"墨田区","address":"東京都墨田区向島3丁目45-1","lat":35.71152381,"lon":139.80867257},{"name":"錦糸町駅ガード南","province":"東京都","city":"墨田区","address":"東京都墨田区江東橋4丁目27-14","lat":35.69632797,"lon":139.81565727},{"name":"本所一之橋北詰","province":"東京都","city":"墨田区","address":"東京都墨田区両国2丁目1-3","lat":35.69205637,"lon":139.79178259},{"name":"すみだ共生社会推進センター","province":"東京都","city":"墨田区","address":"東京都墨田区向島3丁目39-19","lat":35.71293249,"lon":139.81156977},{"name":"向島交番前","province":"東京都","city":"墨田区","address":"東京都墨田区向島4丁目1-5","lat":35.71615479,"lon":139.81085363},{"name":"枕橋","province":"東京都","city":"墨田区","address":"東京都墨田区吾妻橋2丁目19-7","lat":35.71097102,"lon":139.80224865},{"name":"両国駅西口第二","province":"東京都","city":"墨田区","address":"東京都墨田区両国2丁目13-6","lat":35.69576978,"lon":139.7915877},{"name":"清平橋西","province":"東京都","city":"墨田区","address":"東京都墨田区石原4丁目11-13","lat":35.69930825,"lon":139.80733851},{"name":"八反目東第二","province":"東京都","city":"墨田区","address":"東京都墨田区向島3丁目44-10","lat":35.71187387,"lon":139.80959473},{"name":"福祉保健センター前","province":"東京都","city":"墨田区","address":"東京都墨田区向島3丁目40-7","lat":35.71289911,"lon":139.81113646},{"name":"墨田リバーピア前","province":"東京都","city":"墨田区","address":"東京都墨田区吾妻橋1丁目22-7","lat":35.70991834,"lon":139.80199884},{"name":"東向島","province":"東京都","city":"墨田区","address":"東京都墨田区東向島4丁目26-7","lat":35.72272992,"lon":139.81843096},{"name":"四ツ木橋南詰","province":"東京都","city":"墨田区","address":"東京都墨田区墨田4丁目54","lat":35.72883509,"lon":139.82489398},{"name":"東向島三丁目","province":"東京都","city":"墨田区","address":"東京都墨田区東向島2丁目23-5","lat":35.72041618,"lon":139.81628397},{"name":"白鬚橋東詰","province":"東京都","city":"墨田区","address":"東京都墨田区東向島4丁目1-7","lat":35.72769889,"lon":139.81332658},{"name":"仲居堀","province":"東京都","city":"墨田区","address":"東京都墨田区文花3丁目16-5","lat":35.7128443,"lon":139.8271685},{"name":"小村井","province":"東京都","city":"墨田区","address":"東京都墨田区立花4丁目1-5","lat":35.71096092,"lon":139.82908505},{"name":"京島","province":"東京都","city":"墨田区","address":"東京都墨田区京島1丁目53-12","lat":35.71734424,"lon":139.82299402},{"name":"東向島六丁目","province":"東京都","city":"墨田区","address":"東京都墨田区東向島5丁目18-1","lat":35.7259436,"lon":139.82155274},{"name":"曳舟川","province":"東京都","city":"墨田区","address":"東京都墨田区東向島2丁目41-11","lat":35.72039126,"lon":139.82010007},{"name":"更正橋","province":"東京都","city":"墨田区","address":"東京都墨田区八広5丁目12-13","lat":35.72742135,"lon":139.82628826},{"name":"曳舟","province":"東京都","city":"墨田区","address":"東京都墨田区東向島2丁目31-15","lat":35.71844687,"lon":139.81811136},{"name":"白鬚橋交番前","province":"東京都","city":"墨田区","address":"東京都墨田区堤通2丁目3-2","lat":35.72869044,"lon":139.81288497},{"name":"東向島二丁目","province":"東京都","city":"墨田区","address":"東京都墨田区東向島2丁目21-2","lat":35.71962175,"lon":139.81537016},{"name":"京島二丁目","province":"東京都","city":"墨田区","address":"東京都墨田区京島1丁目27-4","lat":35.71593046,"lon":139.820036},{"name":"東向島一丁目","province":"東京都","city":"墨田区","address":"東京都墨田区東向島2丁目1-17","lat":35.71792724,"lon":139.81358967},{"name":"押上二丁目北","province":"東京都","city":"墨田区","address":"東京都墨田区東向島2丁目12-9","lat":35.71627736,"lon":139.81555038},{"name":"吾嬬西公園前","province":"東京都","city":"墨田区","address":"東京都墨田区八広6丁目53-16","lat":35.72424908,"lon":139.83025702},{"name":"八広六丁目","province":"東京都","city":"墨田区","address":"東京都墨田区八広6丁目29-8","lat":35.72690473,"lon":139.82919342},{"name":"高木神社入口","province":"東京都","city":"墨田区","address":"東京都墨田区東向島2丁目11-17","lat":35.71554674,"lon":139.81468372},{"name":"十間橋北","province":"東京都","city":"墨田区","address":"東京都墨田区文花1丁目1-5","lat":35.70885807,"lon":139.81870855},{"name":"八広一丁目","province":"東京都","city":"墨田区","address":"東京都墨田区八広1丁目7-1","lat":35.72122734,"lon":139.82175262},{"name":"曳舟小学校角","province":"東京都","city":"墨田区","address":"東京都墨田区京島3丁目9-7","lat":35.71656384,"lon":139.82213857},{"name":"八広小前","province":"東京都","city":"墨田区","address":"東京都墨田区八広6丁目9-14","lat":35.72731304,"lon":139.82709371},{"name":"東向島一丁目第二","province":"東京都","city":"墨田区","address":"東京都墨田区東向島2丁目20-1","lat":35.71878006,"lon":139.8144702},{"name":"曳舟文化センター","province":"東京都","city":"墨田区","address":"東京都墨田区京島1丁目38-11","lat":35.71831636,"lon":139.81876127},{"name":"墨田特別支援学校南","province":"東京都","city":"墨田区","address":"東京都墨田区東向島6丁目45","lat":35.72467145,"lon":139.82349966},{"name":"長浦神社前","province":"東京都","city":"墨田区","address":"東京都墨田区東向島6丁目27-7","lat":35.72352711,"lon":139.82273307},{"name":"東あづま駅前","province":"東京都","city":"墨田区","address":"東京都墨田区立花3丁目13-4","lat":35.70697755,"lon":139.83248773},{"name":"東向島四丁目","province":"東京都","city":"墨田区","address":"東京都墨田区東向島4丁目20-20","lat":35.72537966,"lon":139.81565934},{"name":"京成曳舟駅前","province":"東京都","city":"墨田区","address":"東京都墨田区京島1丁目43","lat":35.71936079,"lon":139.82040277},{"name":"平井橋第一公園前","province":"東京都","city":"墨田区","address":"東京都墨田区立花4丁目30-17","lat":35.71011618,"lon":139.83457064},{"name":"墨田特別支援学校北","province":"東京都","city":"墨田区","address":"東京都墨田区東向島6丁目56-9","lat":35.72597138,"lon":139.82461065},{"name":"墨田生涯学習センター前","province":"東京都","city":"墨田区","address":"東京都墨田区東向島6丁目6-12","lat":35.72145228,"lon":139.81971127},{"name":"墨田特別支援学校前","province":"東京都","city":"墨田区","address":"東京都墨田区八広5丁目9","lat":35.7235048,"lon":139.82482722},{"name":"白鬚橋東詰第二","province":"東京都","city":"墨田区","address":"東京都墨田区堤通2丁目3-1","lat":35.72857378,"lon":139.81259338},{"name":"曳舟交番前","province":"東京都","city":"墨田区","address":"東京都墨田区東向島2丁目27-1","lat":35.71769963,"lon":139.81702811},{"name":"墨田川高校前","province":"東京都","city":"墨田区","address":"東京都墨田区東向島3丁目37-7","lat":35.72178275,"lon":139.81717279},{"name":"東向島五丁目北","province":"東京都","city":"墨田区","address":"東京都墨田区東向島5丁目22-7","lat":35.72698798,"lon":139.823022},{"name":"向島消防署前","province":"東京都","city":"墨田区","address":"東京都墨田区東向島6丁目22-3","lat":35.723566,"lon":139.81996685},{"name":"白鬚公園南","province":"東京都","city":"墨田区","address":"東京都墨田区墨田1丁目4-2","lat":35.72907095,"lon":139.81423744},{"name":"区立文花公園","province":"東京都","city":"墨田区","address":"東京都墨田区文花1丁目27-5","lat":35.7094556,"lon":139.82244155},{"name":"区立両国公園","province":"東京都","city":"墨田区","address":"東京都墨田区両国4丁目25-3","lat":35.6937507,"lon":139.79611856},{"name":"白鬚東地区防災拠点","province":"東京都","city":"墨田区","address":"東京都墨田区堤通2丁目","lat":35.73410354,"lon":139.81657811},{"name":"３墨田清掃工場","province":"東京都","city":"墨田区","address":"東京都墨田区東墨田1丁目10-23","lat":35.7174879,"lon":139.83172056},{"name":"言問橋東詰","province":"東京都","city":"墨田区","address":"東京都墨田区向島1丁目5-6","lat":35.71296269,"lon":139.80529822},{"name":"錦糸町駅前","province":"東京都","city":"墨田区","address":"東京都墨田区江東橋3丁目14-5","lat":35.69643352,"lon":139.81393804},{"name":"緑三丁目","province":"東京都","city":"墨田区","address":"東京都墨田区緑3丁目11-5","lat":35.69483935,"lon":139.8052505},{"name":"向島三丁目","province":"東京都","city":"墨田区","address":"東京都墨田区向島4丁目1-1","lat":35.71578252,"lon":139.81036196},{"name":"両国二丁目","province":"東京都","city":"墨田区","address":"東京都墨田区両国2丁目10-8","lat":35.69390891,"lon":139.79173237},{"name":"菊川二丁目","province":"東京都","city":"墨田区","address":"東京都墨田区菊川2丁目6-11","lat":35.68858743,"lon":139.80581487},{"name":"石原一丁目","province":"東京都","city":"墨田区","address":"東京都墨田区横網2丁目4-11","lat":35.70047765,"lon":139.79677302},{"name":"本所一丁目","province":"東京都","city":"墨田区","address":"東京都墨田区本所1丁目4-10","lat":35.70358282,"lon":139.79663645},{"name":"吾妻橋三丁目","province":"東京都","city":"墨田区","address":"東京都墨田区吾妻橋3丁目7-1","lat":35.70885733,"lon":139.8044403},{"name":"亀沢四丁目","province":"東京都","city":"墨田区","address":"東京都墨田区亀沢4丁目11-6","lat":35.69718074,"lon":139.80547237},{"name":"吾妻橋五差路","province":"東京都","city":"墨田区","address":"東京都墨田区吾妻橋2丁目4-1","lat":35.70888232,"lon":139.80236003},{"name":"向島五丁目","province":"東京都","city":"墨田区","address":"東京都墨田区向島4丁目8-1","lat":35.7169299,"lon":139.81198973},{"name":"石原四丁目","province":"東京都","city":"墨田区","address":"東京都墨田区石原4丁目1-1","lat":35.6992055,"lon":139.80531657},{"name":"錦糸町駅南口","province":"東京都","city":"墨田区","address":"東京都墨田区江東橋3丁目13-1","lat":35.69586694,"lon":139.81362423},{"name":"曳舟川通り西","province":"東京都","city":"墨田区","address":"東京都墨田区押上2丁目1-1","lat":35.71079886,"lon":139.80891988},{"name":"吾妻橋東詰","province":"東京都","city":"墨田区","address":"東京都墨田区吾妻橋1丁目12-15","lat":35.70809627,"lon":139.79825794},{"name":"江戸東京博物館前","province":"東京都","city":"墨田区","address":"東京都墨田区横網1丁目5-1","lat":35.69762521,"lon":139.7971151},{"name":"長崎橋東詰","province":"東京都","city":"墨田区","address":"東京都墨田区錦糸1丁目17-10","lat":35.69788896,"lon":139.80895792},{"name":"押上二丁目","province":"東京都","city":"墨田区","address":"東京都墨田区押上2丁目20-14","lat":35.71371045,"lon":139.81295033},{"name":"横網公園前","province":"東京都","city":"墨田区","address":"東京都墨田区横網2丁目3","lat":35.69926945,"lon":139.79650933},{"name":"墨田中学校前","province":"東京都","city":"墨田区","address":"東京都墨田区向島4丁目28-1","lat":35.71407153,"lon":139.81255041},{"name":"錦糸公園前","province":"東京都","city":"墨田区","address":"東京都墨田区錦糸3丁目4-9","lat":35.6979833,"lon":139.81474616},{"name":"牛島神社前","province":"東京都","city":"墨田区","address":"東京都墨田区向島1丁目6-9","lat":35.711971,"lon":139.80486209},{"name":"秋葉神社前","province":"東京都","city":"墨田区","address":"東京都墨田区向島5丁目37-4","lat":35.71760495,"lon":139.81249254},{"name":"曳舟川通り第二","province":"東京都","city":"墨田区","address":"東京都墨田区向島3丁目43-10","lat":35.71162665,"lon":139.80970857},{"name":"錦糸町駅前第二","province":"東京都","city":"墨田区","address":"東京都墨田区江東橋4丁目29-15","lat":35.6960169,"lon":139.81651829},{"name":"高速駒形入口","province":"東京都","city":"墨田区","address":"東京都墨田区東駒形1丁目15-2","lat":35.70625478,"lon":139.79821929},{"name":"東京スカイツリー駅前","province":"東京都","city":"墨田区","address":"東京都墨田区押上1丁目1-2","lat":35.71005462,"lon":139.81070876},{"name":"石原四丁目第二","province":"東京都","city":"墨田区","address":"東京都墨田区石原4丁目26-1","lat":35.70087475,"lon":139.80633565},{"name":"千歳三丁目","province":"東京都","city":"墨田区","address":"東京都墨田区千歳3丁目6-6","lat":35.6902762,"lon":139.79780514},{"name":"小梅通り西","province":"東京都","city":"墨田区","address":"東京都墨田区向島3丁目45-1","lat":35.71152381,"lon":139.80867257},{"name":"錦糸町駅ガード南","province":"東京都","city":"墨田区","address":"東京都墨田区江東橋4丁目27-14","lat":35.69632797,"lon":139.81565727},{"name":"本所一之橋北詰","province":"東京都","city":"墨田区","address":"東京都墨田区両国2丁目1-3","lat":35.69205637,"lon":139.79178259},{"name":"すみだ共生社会推進センター","province":"東京都","city":"墨田区","address":"東京都墨田区向島3丁目39-19","lat":35.71293249,"lon":139.81156977},{"name":"向島交番前","province":"東京都","city":"墨田区","address":"東京都墨田区向島4丁目1-5","lat":35.71615479,"lon":139.81085363},{"name":"枕橋","province":"東京都","city":"墨田区","address":"東京都墨田区吾妻橋2丁目19-7","lat":35.71097102,"lon":139.80224865},{"name":"両国駅西口第二","province":"東京都","city":"墨田区","address":"東京都墨田区両国2丁目13-6","lat":35.69576978,"lon":139.7915877},{"name":"清平橋西","province":"東京都","city":"墨田区","address":"東京都墨田区石原4丁目11-13","lat":35.69930825,"lon":139.80733851},{"name":"八反目東第二","province":"東京都","city":"墨田区","address":"東京都墨田区向島3丁目44-10","lat":35.71187387,"lon":139.80959473},{"name":"福祉保健センター前","province":"東京都","city":"墨田区","address":"東京都墨田区向島3丁目40-7","lat":35.71289911,"lon":139.81113646},{"name":"墨田リバーピア前","province":"東京都","city":"墨田区","address":"東京都墨田区吾妻橋1丁目22-7","lat":35.70991834,"lon":139.80199884},{"name":"東向島","province":"東京都","city":"墨田区","address":"東京都墨田区東向島4丁目26-7","lat":35.72272992,"lon":139.81843096},{"name":"四ツ木橋南詰","province":"東京都","city":"墨田区","address":"東京都墨田区墨田4丁目54","lat":35.72883509,"lon":139.82489398},{"name":"東向島三丁目","province":"東京都","city":"墨田区","address":"東京都墨田区東向島2丁目23-5","lat":35.72041618,"lon":139.81628397},{"name":"白鬚橋東詰","province":"東京都","city":"墨田区","address":"東京都墨田区東向島4丁目1-7","lat":35.72769889,"lon":139.81332658},{"name":"仲居堀","province":"東京都","city":"墨田区","address":"東京都墨田区文花3丁目16-5","lat":35.7128443,"lon":139.8271685},{"name":"小村井","province":"東京都","city":"墨田区","address":"東京都墨田区立花4丁目1-5","lat":35.71096092,"lon":139.82908505},{"name":"京島","province":"東京都","city":"墨田区","address":"東京都墨田区京島1丁目53-12","lat":35.71734424,"lon":139.82299402},{"name":"東向島六丁目","province":"東京都","city":"墨田区","address":"東京都墨田区東向島5丁目18-1","lat":35.7259436,"lon":139.82155274},{"name":"曳舟川","province":"東京都","city":"墨田区","address":"東京都墨田区東向島2丁目41-11","lat":35.72039126,"lon":139.82010007},{"name":"更正橋","province":"東京都","city":"墨田区","address":"東京都墨田区八広5丁目12-13","lat":35.72742135,"lon":139.82628826},{"name":"曳舟","province":"東京都","city":"墨田区","address":"東京都墨田区東向島2丁目31-15","lat":35.71844687,"lon":139.81811136},{"name":"白鬚橋交番前","province":"東京都","city":"墨田区","address":"東京都墨田区堤通2丁目3-2","lat":35.72869044,"lon":139.81288497},{"name":"東向島二丁目","province":"東京都","city":"墨田区","address":"東京都墨田区東向島2丁目21-2","lat":35.71962175,"lon":139.81537016},{"name":"京島二丁目","province":"東京都","city":"墨田区","address":"東京都墨田区京島1丁目27-4","lat":35.71593046,"lon":139.820036},{"name":"東向島一丁目","province":"東京都","city":"墨田区","address":"東京都墨田区東向島2丁目1-17","lat":35.71792724,"lon":139.81358967},{"name":"押上二丁目北","province":"東京都","city":"墨田区","address":"東京都墨田区東向島2丁目12-9","lat":35.71627736,"lon":139.81555038},{"name":"吾嬬西公園前","province":"東京都","city":"墨田区","address":"東京都墨田区八広6丁目53-16","lat":35.72424908,"lon":139.83025702},{"name":"八広六丁目","province":"東京都","city":"墨田区","address":"東京都墨田区八広6丁目29-8","lat":35.72690473,"lon":139.82919342},{"name":"高木神社入口","province":"東京都","city":"墨田区","address":"東京都墨田区東向島2丁目11-17","lat":35.71554674,"lon":139.81468372},{"name":"十間橋北","province":"東京都","city":"墨田区","address":"東京都墨田区文花1丁目1-5","lat":35.70885807,"lon":139.81870855},{"name":"八広一丁目","province":"東京都","city":"墨田区","address":"東京都墨田区八広1丁目7-1","lat":35.72122734,"lon":139.82175262},{"name":"曳舟小学校角","province":"東京都","city":"墨田区","address":"東京都墨田区京島3丁目9-7","lat":35.71656384,"lon":139.82213857},{"name":"八広小前","province":"東京都","city":"墨田区","address":"東京都墨田区八広6丁目9-14","lat":35.72731304,"lon":139.82709371},{"name":"東向島一丁目第二","province":"東京都","city":"墨田区","address":"東京都墨田区東向島2丁目20-1","lat":35.71878006,"lon":139.8144702},{"name":"曳舟文化センター","province":"東京都","city":"墨田区","address":"東京都墨田区京島1丁目38-11","lat":35.71831636,"lon":139.81876127},{"name":"墨田特別支援学校南","province":"東京都","city":"墨田区","address":"東京都墨田区東向島6丁目45","lat":35.72467145,"lon":139.82349966},{"name":"長浦神社前","province":"東京都","city":"墨田区","address":"東京都墨田区東向島6丁目27-7","lat":35.72352711,"lon":139.82273307},{"name":"東あづま駅前","province":"東京都","city":"墨田区","address":"東京都墨田区立花3丁目13-4","lat":35.70697755,"lon":139.83248773},{"name":"東向島四丁目","province":"東京都","city":"墨田区","address":"東京都墨田区東向島4丁目20-20","lat":35.72537966,"lon":139.81565934},{"name":"京成曳舟駅前","province":"東京都","city":"墨田区","address":"東京都墨田区京島1丁目43","lat":35.71936079,"lon":139.82040277},{"name":"平井橋第一公園前","province":"東京都","city":"墨田区","address":"東京都墨田区立花4丁目30-17","lat":35.71011618,"lon":139.83457064},{"name":"墨田特別支援学校北","province":"東京都","city":"墨田区","address":"東京都墨田区東向島6丁目56-9","lat":35.72597138,"lon":139.82461065},{"name":"墨田生涯学習センター前","province":"東京都","city":"墨田区","address":"東京都墨田区東向島6丁目6-12","lat":35.72145228,"lon":139.81971127},{"name":"墨田特別支援学校前","province":"東京都","city":"墨田区","address":"東京都墨田区八広5丁目9","lat":35.7235048,"lon":139.82482722},{"name":"白鬚橋東詰第二","province":"東京都","city":"墨田区","address":"東京都墨田区堤通2丁目3-1","lat":35.72857378,"lon":139.81259338},{"name":"曳舟交番前","province":"東京都","city":"墨田区","address":"東京都墨田区東向島2丁目27-1","lat":35.71769963,"lon":139.81702811},{"name":"墨田川高校前","province":"東京都","city":"墨田区","address":"東京都墨田区東向島3丁目37-7","lat":35.72178275,"lon":139.81717279},{"name":"東向島五丁目北","province":"東京都","city":"墨田区","address":"東京都墨田区東向島5丁目22-7","lat":35.72698798,"lon":139.823022},{"name":"向島消防署前","province":"東京都","city":"墨田区","address":"東京都墨田区東向島6丁目22-3","lat":35.723566,"lon":139.81996685},{"name":"白鬚公園南","province":"東京都","city":"墨田区","address":"東京都墨田区墨田1丁目4-2","lat":35.72907095,"lon":139.81423744},{"name":"区立文花公園","province":"東京都","city":"墨田区","address":"東京都墨田区文花1丁目27-5","lat":35.7094556,"lon":139.82244155},{"name":"区立両国公園","province":"東京都","city":"墨田区","address":"東京都墨田区両国4丁目25-3","lat":35.6937507,"lon":139.79611856},{"name":"白鬚東地区防災拠点","province":"東京都","city":"墨田区","address":"東京都墨田区堤通2丁目","lat":35.73410354,"lon":139.81657811},{"name":"３墨田清掃工場","province":"東京都","city":"墨田区","address":"東京都墨田区東墨田1丁目10-23","lat":35.7174879,"lon":139.83172056},{"name":"３墨田清掃工場","province":"東京都","city":"墨田区","address":"東京都墨田区東墨田1丁目10-23","lat":35.7174879,"lon":139.83172056},{"name":"３墨田清掃工場","province":"東京都","city":"墨田区","address":"東京都墨田区東墨田1丁目10-23","lat":35.7174879,"lon":139.83172056},{"name":"３墨田清掃工場","province":"東京都","city":"墨田区","address":"東京都墨田区東墨田1丁目10-23","lat":35.7174879,"lon":139.83172056},{"name":"３墨田清掃工場","province":"東京都","city":"墨田区","address":"東京都墨田区東墨田1丁目10-23","lat":35.7174879,"lon":139.83172056},{"name":"３墨田清掃工場","province":"東京都","city":"墨田区","address":"東京都墨田区東墨田1丁目10-23","lat":35.7174879,"lon":139.83172056},{"name":"３墨田清掃工場","province":"東京都","city":"墨田区","address":"東京都墨田区東墨田1丁目10-23","lat":35.7174879,"lon":139.83172056},{"name":"３墨田清掃工場","province":"東京都","city":"墨田区","address":"東京都墨田区東墨田1丁目10-23","lat":35.7174879,"lon":139.83172056},{"name":"３墨田清掃工場","province":"東京都","city":"墨田区","address":"東京都墨田区東墨田1丁目10-23","lat":35.7174879,"lon":139.83172056},{"name":"３墨田清掃工場","province":"東京都","city":"墨田区","address":"東京都墨田区東墨田1丁目10-23","lat":35.7174879,"lon":139.83172056},{"name":"３墨田清掃工場","province":"東京都","city":"墨田区","address":"東京都墨田区東墨田1丁目10-23","lat":35.7174879,"lon":139.83172056},{"name":"３墨田清掃工場","province":"東京都","city":"墨田区","address":"東京都墨田区東墨田1丁目10-23","lat":35.7174879,"lon":139.83172056},{"name":"３墨田清掃工場","province":"東京都","city":"墨田区","address":"東京都墨田区東墨田1丁目10-23","lat":35.7174879,"lon":139.83172056},{"name":"３墨田清掃工場","province":"東京都","city":"墨田区","address":"東京都墨田区東墨田1丁目10-23","lat":35.7174879,"lon":139.83172056}]}