{"keyword":"福祉","data":[{"name":"墨田区福祉事務所","province":"東京都","city":"墨田区","address":"墨田区吾妻橋一丁目23番20号墨田区役所内","lat":35.710722,"lon":139.801497},{"name":"すみだ福祉保健センター","province":"東京都","city":"墨田区","address":"墨田区向島三丁目36番7号","lat":35.713253,"lon":139.810724},{"name":"すみだ福祉サービス権利擁護センター","province":"東京都","city":"墨田区","address":"墨田区東向島二丁目17番14号すみだボランティアセンター内","lat":35.718436,"lon":139.815564},{"name":"社会福祉法人墨田区社会福祉協議会","province":"東京都","city":"墨田区","address":"墨田区東向島二丁目17番14号すみだボランティアセンター内","lat":35.718436,"lon":139.815564},{"name":"シルバープラザ梅若","province":"東京都","city":"墨田区","address":"墨田区墨田一丁目4番4号","lat":35.729285,"lon":139.815412},{"name":"特別養護老人ホーム たちばなホーム","province":"東京都","city":"墨田区","address":"墨田区立花三丁目10番1号","lat":35.705338,"lon":139.833116},{"name":"特別養護老人ホーム はなみずきホーム","province":"東京都","city":"墨田区","address":"墨田区八広三丁目22番14号","lat":35.718382,"lon":139.827984},{"name":"特別養護老人ホーム なりひらホーム","province":"東京都","city":"墨田区","address":"墨田区業平五丁目6番2号","lat":35.707082,"lon":139.817985},{"name":"特別養護老人ホーム 東京清風園","province":"東京都","city":"墨田区","address":"墨田区立花一丁目25番12号","lat":35.705136,"lon":139.8310043},{"name":"特別養護老人ホーム 同愛記念ホーム","province":"東京都","city":"墨田区","address":"墨田区横網二丁目1番11号","lat":35.700231,"lon":139.794567},{"name":"特別養護老人ホーム 和翔苑","province":"東京都","city":"墨田区","address":"墨田区八広六丁目55番17号","lat":35.724003,"lon":139.830987},{"name":"特別養護老人ホーム ケアホームズ両国","province":"東京都","city":"墨田区","address":"墨田区両国二丁目5番13号","lat":35.692823,"lon":139.792454},{"name":"特別養護老人ホーム 寿老の里","province":"東京都","city":"墨田区","address":"墨田区東墨田三丁目13番4号","lat":35.720703,"lon":139.8360362},{"name":"特別養護老人ホーム 木下川吾亦紅","province":"東京都","city":"墨田区","address":"墨田区東墨田二丁目15番2号","lat":35.721849,"lon":139.833311},{"name":"すみだ福祉保健センター・高齢者在宅サービスセンター","province":"東京都","city":"墨田区","address":"墨田区向島三丁目36番7号","lat":35.713277,"lon":139.810703},{"name":"うめわか高齢者在宅サービスセンター","province":"東京都","city":"墨田区","address":"墨田区墨田一丁目4番4号シルバープラザ梅若内","lat":35.729211,"lon":139.815316},{"name":"たちばな高齢者在宅サービスセンター","province":"東京都","city":"墨田区","address":"墨田区立花三丁目2番9号","lat":35.705247,"lon":139.832576},{"name":"なりひら高齢者在宅サービスセンター","province":"東京都","city":"墨田区","address":"墨田区業平五丁目6番2号","lat":35.707179,"lon":139.817988},{"name":"はなみずき高齢者在宅サービスセンター","province":"東京都","city":"墨田区","address":"墨田区八広三丁目22番14号","lat":35.718477,"lon":139.827982},{"name":"高齢者在宅サービスセンター同愛記念ホーム","province":"東京都","city":"墨田区","address":"墨田区横網二丁目1番11号","lat":35.700318,"lon":139.794368},{"name":"みどり高齢者在宅サービスセンター","province":"東京都","city":"墨田区","address":"墨田区緑二丁目5番12号オウトピアみどり苑内","lat":35.69282,"lon":139.801253},{"name":"高齢者在宅サービスセンター東京清風園","province":"東京都","city":"墨田区","address":"墨田区立花一丁目25番12号","lat":35.705136,"lon":139.8310043},{"name":"高齢者在宅サービスセンター和翔苑","province":"東京都","city":"墨田区","address":"墨田区八広六丁目55番17号","lat":35.723967,"lon":139.830986},{"name":"高齢者在宅サービスセンターケアホームズ両国","province":"東京都","city":"墨田区","address":"墨田区両国二丁目5番13号","lat":35.692823,"lon":139.792454},{"name":"介護老人保健施設　ベレール向島","province":"東京都","city":"墨田区","address":"墨田区東向島二丁目36番11号","lat":35.721709,"lon":139.818256},{"name":"介護老人保健施設　ろうけん隅田秋光園","province":"東京都","city":"墨田区","address":"墨田区横網二丁目7番13号","lat":35.701181,"lon":139.794835},{"name":"介護老人保健施設　葵の園・向島","province":"東京都","city":"墨田区","address":"墨田区向島三丁目1番13号","lat":35.712944,"lon":139.806408},{"name":"櫻川介護老人保健施設","province":"東京都","city":"墨田区","address":"墨田区堤通一丁目9番8号","lat":35.724583,"lon":139.811148},{"name":"みどり高齢者支援総合センター(地域包括支援センター)","province":"東京都","city":"墨田区","address":"墨田区緑二丁目5番12号オウトピアみどり苑内","lat":35.692844,"lon":139.801278},{"name":"同愛高齢者支援総合センター(地域包括支援センター)","province":"東京都","city":"墨田区","address":"墨田区亀沢二丁目23番7号","lat":35.698126,"lon":139.801747},{"name":"なりひら高齢者支援総合センター(地域包括支援センター)","province":"東京都","city":"墨田区","address":"墨田区業平五丁目6番2号なりひらホーム内","lat":35.707101,"lon":139.818124},{"name":"こうめ高齢者支援総合センター(地域包括支援センター)","province":"東京都","city":"墨田区","address":"墨田区向島三丁目36番7号すみだ福祉保健センター内","lat":35.71338,"lon":139.810876},{"name":"むこうじま高齢者支援総合センター(地域包括支援センター)","province":"東京都","city":"墨田区","address":"墨田区東向島二丁目36番11号ベレール向島内","lat":35.721612,"lon":139.818255},{"name":"うめわか高齢者支援総合センター(地域包括支援センター)","province":"東京都","city":"墨田区","address":"墨田区墨田一丁目4番4号シルバープラザ梅若内","lat":35.729285,"lon":139.815412},{"name":"ぶんか高齢者支援総合センター(地域包括支援センター)","province":"東京都","city":"墨田区","address":"墨田区文花一丁目29番5号都営文花一丁目アパート5号棟1階","lat":35.708229,"lon":139.820006},{"name":"八広はなみずき高齢者支援総合センター(地域包括支援センター)","province":"東京都","city":"墨田区","address":"墨田区八広五丁目18番23号","lat":35.725103,"lon":139.826412},{"name":"みどり高齢者みまもり相談室","province":"東京都","city":"墨田区","address":"墨田区緑二丁目5番12号オウトピアみどり苑内","lat":35.692844,"lon":139.801278},{"name":"同愛高齢者みまもり相談室","province":"東京都","city":"墨田区","address":"墨田区亀沢二丁目23番7号","lat":35.698126,"lon":139.801747},{"name":"なりひら高齢者みまもり相談室","province":"東京都","city":"墨田区","address":"墨田区業平五丁目6番2号なりひらホーム内","lat":35.707101,"lon":139.818124},{"name":"こうめ高齢者みまもり相談室","province":"東京都","city":"墨田区","address":"墨田区向島三丁目36番7号すみだ福祉保健センター内","lat":35.71338,"lon":139.810876},{"name":"むこうじま高齢者みまもり相談室","province":"東京都","city":"墨田区","address":"墨田区東向島二丁目36番11号ベレール向島内","lat":35.721612,"lon":139.818255},{"name":"うめわか高齢者みまもり相談室","province":"東京都","city":"墨田区","address":"墨田区墨田一丁目4番4号シルバープラザ梅若内","lat":35.729285,"lon":139.815412},{"name":"ぶんか高齢者みまもり相談室","province":"東京都","city":"墨田区","address":"墨田区文花一丁目29番5号都営文花一丁目アパート5号棟1階","lat":35.708229,"lon":139.820006},{"name":"八広はなみずき高齢者みまもり相談室","province":"東京都","city":"墨田区","address":"墨田区八広五丁目18番23号","lat":35.725103,"lon":139.826412},{"name":"梅若ゆうゆう館(高齢者福祉センター)","province":"東京都","city":"墨田区","address":"墨田区墨田一丁目4番4号シルバープラザ梅若内","lat":35.729285,"lon":139.815412},{"name":"立花ゆうゆう館(高齢者福祉センター)","province":"東京都","city":"墨田区","address":"墨田区立花六丁目8番1号102号室","lat":35.710595,"lon":139.834744},{"name":"いきいきプラザ","province":"東京都","city":"墨田区","address":"墨田区文花一丁目32番2号","lat":35.707571,"lon":139.823438},{"name":"すみだふれあいセンター福祉作業所","province":"東京都","city":"墨田区","address":"墨田区緑四丁目35番6号","lat":35.695825,"lon":139.807408},{"name":"すみだ障害者就労支援総合センター","province":"東京都","city":"墨田区","address":"墨田区緑四丁目25番4号","lat":35.695559,"lon":139.807706},{"name":"亀沢のぞみの家","province":"東京都","city":"墨田区","address":"墨田区亀沢四丁目18番11号","lat":35.699028,"lon":139.808257},{"name":"すみだステップハウスおおぞら","province":"東京都","city":"墨田区","address":"墨田区文花一丁目32番7号","lat":35.708166,"lon":139.823781},{"name":"すみだボランティアセンター","province":"東京都","city":"墨田区","address":"墨田区東向島二丁目17番14号","lat":35.718436,"lon":139.815564},{"name":"すみだボランティアセンター分館","province":"東京都","city":"墨田区","address":"墨田区亀沢三丁目20番11号関根ビル4階","lat":35.697483,"lon":139.803467}]}