{"keyword":"自転車","data":[{"name":"両国駅西口自転車駐車場","province":"東京都","city":"墨田区","address":"東京都墨田区横網1丁目2","lat":35.69716407,"lon":139.79182642},{"name":"両国駅高架下自転車駐車場","province":"東京都","city":"墨田区","address":"東京都墨田区亀沢1丁目1","lat":35.6958282,"lon":139.79822079},{"name":"錦糸町駅南口地下自転車駐車場","province":"東京都","city":"墨田区","address":"東京都墨田区江東橋3丁目14-4","lat":35.69607523,"lon":139.81461854},{"name":"錦糸町駅牡丹橋通り自転車駐車場","province":"東京都","city":"墨田区","address":"東京都墨田区江東橋3丁目1","lat":35.69318953,"lon":139.81466311},{"name":"押上駅中之郷自転車駐車場","province":"東京都","city":"墨田区","address":"東京都墨田区押上2丁目17","lat":35.71237432,"lon":139.81305294},{"name":"押上駅駅前自転車駐車場","province":"東京都","city":"墨田区","address":"東京都墨田区押上1丁目8-25","lat":35.71136332,"lon":139.81407504},{"name":"東武曳舟駅高架下自転車駐車場","province":"東京都","city":"墨田区","address":"東京都墨田区東向島2丁目27","lat":35.71824129,"lon":139.8169976},{"name":"鐘ヶ淵駅北自転車駐車場","province":"東京都","city":"墨田区","address":"東京都墨田区墨田5丁目50","lat":35.73393424,"lon":139.82069698},{"name":"鐘ヶ淵駅南自転車駐車場","province":"東京都","city":"墨田区","address":"東京都墨田区墨田3丁目31-12","lat":35.73230947,"lon":139.82037493},{"name":"とうきょうスカイツリー駅第一自転車等駐車場","province":"東京都","city":"墨田区","address":"東京都墨田区向島1丁目32","lat":35.70982394,"lon":139.80806183},{"name":"とうきょうスカイツリー駅第二自転車等駐車場","province":"東京都","city":"墨田区","address":"東京都墨田区業平1丁目17-5","lat":35.70934065,"lon":139.8082591},{"name":"本所吾妻橋駅第一自転車駐車場","province":"東京都","city":"墨田区","address":"東京都墨田区吾妻橋2丁目2","lat":35.70834626,"lon":139.80381824},{"name":"本所吾妻橋駅第二自転車駐車場","province":"東京都","city":"墨田区","address":"東京都墨田区吾妻橋2丁目3","lat":35.708849,"lon":139.80373206},{"name":"本所吾妻橋駅第三自転車駐車場","province":"東京都","city":"墨田区","address":"東京都墨田区吾妻橋3丁目7-8","lat":35.70900732,"lon":139.80533736},{"name":"本所吾妻橋駅第四自転車駐車場","province":"東京都","city":"墨田区","address":"東京都墨田区吾妻橋3丁目1","lat":35.70828516,"lon":139.80487087},{"name":"本所吾妻橋駅西臨時自転車駐車場","province":"東京都","city":"墨田区","address":"東京都墨田区吾妻橋1丁目12","lat":35.70811849,"lon":139.79838292},{"name":"八広駅第二自転車駐車場","province":"東京都","city":"墨田区","address":"東京都墨田区八広6丁目32","lat":35.7268603,"lon":139.83024328},{"name":"菊川駅北口自転車駐車場","province":"東京都","city":"墨田区","address":"東京都墨田区菊川3丁目16","lat":35.68865408,"lon":139.80683132},{"name":"菊川駅北口第二自転車駐車場","province":"東京都","city":"墨田区","address":"東京都墨田区菊川3丁目17-2","lat":35.68928454,"lon":139.8065591},{"name":"菊川駅新大橋通り北自転車駐車場","province":"東京都","city":"墨田区","address":"東京都墨田区菊川2丁目6","lat":35.68860965,"lon":139.80549549},{"name":"菊川駅新大橋通り南自転車駐車場","province":"東京都","city":"墨田区","address":"東京都墨田区菊川2丁目5","lat":35.6879903,"lon":139.8052706},{"name":"小村井駅第一自転車駐車場","province":"東京都","city":"墨田区","address":"東京都墨田区文花2丁目20","lat":35.7103999,"lon":139.82737141},{"name":"小村井駅第二自転車駐車場","province":"東京都","city":"墨田区","address":"東京都墨田区文花2丁目19","lat":35.71059997,"lon":139.82644927},{"name":"錦糸町駅四ツ目通り路上自転車駐車場","province":"東京都","city":"墨田区","address":"東京都墨田区錦糸1丁目2","lat":35.6968835,"lon":139.81061897},{"name":"両国駅国技館通り路上自転車駐車場","province":"東京都","city":"墨田区","address":"東京都墨田区横網1丁目3","lat":35.69637252,"lon":139.79309595},{"name":"錦糸町駅北斎通り路上自転車駐車場","province":"東京都","city":"墨田区","address":"東京都墨田区錦糸1丁目5","lat":35.69772229,"lon":139.81023003},{"name":"錦糸町駅南口駅前広場路上自転車駐車場","province":"東京都","city":"墨田区","address":"東京都墨田区江東橋3丁目14-5","lat":35.69643352,"lon":139.81393804},{"name":"錦糸町駅京葉道路第一路上自転車駐車場","province":"東京都","city":"墨田区","address":"東京都墨田区江東橋3丁目8","lat":35.6948504,"lon":139.81475193},{"name":"錦糸町駅京葉道路第二路上自転車駐車場","province":"東京都","city":"墨田区","address":"東京都墨田区江東橋4丁目26","lat":35.6953781,"lon":139.81609338},{"name":"錦糸町駅京葉道路第三路上自転車駐車場","province":"東京都","city":"墨田区","address":"東京都墨田区江東橋4丁目27","lat":35.69641962,"lon":139.81597389},{"name":"錦糸町駅北斎通り第二路上自転車駐車場","province":"東京都","city":"墨田区","address":"東京都墨田区錦糸2丁目2","lat":35.69762228,"lon":139.81189096},{"name":"錦糸町駅四ツ目通り第二路上自転車駐車場","province":"東京都","city":"墨田区","address":"東京都墨田区江東橋3丁目8","lat":35.6948504,"lon":139.81475193},{"name":"錦糸町駅南口機械式自転車駐車場","province":"東京都","city":"墨田区","address":"東京都墨田区江東橋2丁目18-6先","lat":35.6959947,"lon":139.81206332},{"name":"両国駅西口臨時自転車駐車場","province":"東京都","city":"墨田区","address":"東京都墨田区横網1丁目2","lat":35.69716407,"lon":139.79182642},{"name":"浅草通り押上側","province":"東京都","city":"墨田区","address":"東京都墨田区業平2丁目17-9","lat":35.70920755,"lon":139.81204218},{"name":"浅草通り業平側","province":"東京都","city":"墨田区","address":"東京都墨田区業平3丁目13","lat":35.70864096,"lon":139.81275611},{"name":"駅前","province":"東京都","city":"墨田区","address":"東京都墨田区押上1丁目8-25","lat":35.71136332,"lon":139.81407504},{"name":"桜橋通り際仮設","province":"東京都","city":"墨田区","address":"東京都墨田区押上2丁目26","lat":35.71233565,"lon":139.81485838},{"name":"第二","province":"東京都","city":"墨田区","address":"東京都墨田区押上2丁目26","lat":35.71233565,"lon":139.81485838},{"name":"中之郷","province":"東京都","city":"墨田区","address":"東京都墨田区押上2丁目17","lat":35.71237432,"lon":139.81305294},{"name":"南口臨時","province":"東京都","city":"墨田区","address":"東京都墨田区押上1丁目25","lat":35.7097467,"lon":139.81495027},{"name":"第一","province":"東京都","city":"墨田区","address":"東京都墨田区文花2丁目20","lat":35.7103999,"lon":139.82737141},{"name":"第二","province":"東京都","city":"墨田区","address":"東京都墨田区文花2丁目19","lat":35.71059997,"lon":139.82644927},{"name":"北","province":"東京都","city":"墨田区","address":"東京都墨田区墨田5丁目50","lat":35.73393424,"lon":139.82069698},{"name":"南","province":"東京都","city":"墨田区","address":"東京都墨田区墨田3丁目31-12","lat":35.73230947,"lon":139.82037493},{"name":"北口","province":"東京都","city":"墨田区","address":"東京都墨田区菊川3丁目16","lat":35.68865408,"lon":139.80683132},{"name":"北口第二","province":"東京都","city":"墨田区","address":"東京都墨田区菊川3丁目17-2","lat":35.68928454,"lon":139.8065591},{"name":"新大橋通り北","province":"東京都","city":"墨田区","address":"東京都墨田区菊川2丁目6","lat":35.68860965,"lon":139.80549549},{"name":"新大橋通り南","province":"東京都","city":"墨田区","address":"東京都墨田区菊川2丁目5","lat":35.6879903,"lon":139.8052706},{"name":"北斎通り路上","province":"東京都","city":"墨田区","address":"東京都墨田区錦糸1丁目5","lat":35.69772229,"lon":139.81023003},{"name":"牡丹橋通り","province":"東京都","city":"墨田区","address":"東京都墨田区江東橋3丁目1","lat":35.69318953,"lon":139.81466311},{"name":"南口地下","province":"東京都","city":"墨田区","address":"東京都墨田区江東橋3丁目14-4","lat":35.69607523,"lon":139.81461854},{"name":"四ツ目通り路上","province":"東京都","city":"墨田区","address":"東京都墨田区錦糸1丁目2","lat":35.6968835,"lon":139.81061897},{"name":"西臨時","province":"東京都","city":"墨田区","address":"東京都墨田区京島1丁目39","lat":35.71863582,"lon":139.81964728},{"name":"南臨時","province":"東京都","city":"墨田区","address":"東京都墨田区京島1丁目1","lat":35.71623582,"lon":139.81742796},{"name":"南臨時","province":"東京都","city":"墨田区","address":"東京都墨田区京島1丁目8","lat":35.71598863,"lon":139.81777512},{"name":"仮設","province":"東京都","city":"墨田区","address":"東京都墨田区業平1丁目16","lat":35.70923509,"lon":139.80794806},{"name":"第一","province":"東京都","city":"墨田区","address":"東京都墨田区向島1丁目32","lat":35.70982394,"lon":139.80806183},{"name":"第二","province":"東京都","city":"墨田区","address":"東京都墨田区業平1丁目17-5","lat":35.70934065,"lon":139.8082591},{"name":"駅前","province":"東京都","city":"墨田区","address":"東京都墨田区立花4丁目23-7","lat":35.70720253,"lon":139.83185169},{"name":"線路沿","province":"東京都","city":"墨田区","address":"東京都墨田区立花4丁目23-7","lat":35.70720253,"lon":139.83185169},{"name":"西臨時","province":"東京都","city":"墨田区","address":"東京都墨田区立花1丁目23","lat":35.70658864,"lon":139.83072412},{"name":"高架下","province":"東京都","city":"墨田区","address":"東京都墨田区東向島4丁目35","lat":35.72618799,"lon":139.81953645},{"name":"高架下","province":"東京都","city":"墨田区","address":"東京都墨田区東向島2丁目27","lat":35.71824129,"lon":139.8169976},{"name":"東","province":"東京都","city":"墨田区","address":"東京都墨田区東向島2丁目27","lat":35.71824129,"lon":139.8169976},{"name":"第一","province":"東京都","city":"墨田区","address":"東京都墨田区吾妻橋2丁目2","lat":35.70834626,"lon":139.80381824},{"name":"第二","province":"東京都","city":"墨田区","address":"東京都墨田区吾妻橋2丁目3","lat":35.708849,"lon":139.80373206},{"name":"第三","province":"東京都","city":"墨田区","address":"東京都墨田区吾妻橋3丁目6-15","lat":35.70901011,"lon":139.80632333},{"name":"第四","province":"東京都","city":"墨田区","address":"東京都墨田区吾妻橋3丁目1","lat":35.70828516,"lon":139.80487087},{"name":"西臨時","province":"東京都","city":"墨田区","address":"東京都墨田区吾妻橋1丁目12","lat":35.70811849,"lon":139.79838292},{"name":"高架下","province":"東京都","city":"墨田区","address":"東京都墨田区八広6丁目25","lat":35.72683527,"lon":139.82786582},{"name":"新四ツ木橋下","province":"東京都","city":"墨田区","address":"東京都墨田区八広6丁目5","lat":35.72904346,"lon":139.82710758},{"name":"第一","province":"東京都","city":"墨田区","address":"東京都墨田区八広6丁目35-1","lat":35.72651028,"lon":139.82940171},{"name":"第二","province":"東京都","city":"墨田区","address":"東京都墨田区八広6丁目32","lat":35.7268603,"lon":139.83024328},{"name":"高架下","province":"東京都","city":"墨田区","address":"東京都墨田区亀沢1丁目1","lat":35.6958282,"lon":139.79822079},{"name":"国技館通り路上","province":"東京都","city":"墨田区","address":"東京都墨田区横網1丁目3","lat":35.69637252,"lon":139.79309595},{"name":"西口","province":"東京都","city":"墨田区","address":"東京都墨田区横網1丁目2","lat":35.69716407,"lon":139.79182642},{"name":"東口","province":"東京都","city":"墨田区","address":"東京都墨田区横網1丁目3","lat":35.69637252,"lon":139.79309595}]}