{"keyword":"観光","data":[{"name":"東京スカイツリー","province":"東京都","city":"墨田区","address":"墨田区押上一丁目1番2号","lat":35.710063,"lon":139.8107},{"name":"一般社団法人　墨田区観光協会","province":"東京都","city":"墨田区","address":"墨田区押上一丁目1番2号東京スカイツリータウン・ソラマチ5階産業観光プラザすみだまち処内","lat":35.710341,"lon":139.811963},{"name":"産業観光プラザ すみだ まち処","province":"東京都","city":"墨田区","address":"墨田区押上一丁目1番2号東京スカイツリータウン・ソラマチ5階","lat":35.710341,"lon":139.811963},{"name":"両国観光案内所","province":"東京都","city":"墨田区","address":"墨田区横網一丁目3番20号-両国-江戸NOREN1階","lat":35.696155,"lon":139.792423},{"name":"江戸東京博物館内墨田区文化観光コーナー","province":"東京都","city":"墨田区","address":"墨田区横網一丁目4番1号","lat":35.696599,"lon":139.7959929},{"name":"すみだトリフォニーホール","province":"東京都","city":"墨田区","address":"墨田区錦糸一丁目2番3号","lat":35.697215,"lon":139.8101},{"name":"江戸東京博物館","province":"東京都","city":"墨田区","address":"墨田区横網一丁目4番1号","lat":35.696593,"lon":139.795855},{"name":"両国花火資料館","province":"東京都","city":"墨田区","address":"墨田区両国二丁目10番8号","lat":35.693888,"lon":139.791756},{"name":"東京都復興記念館","province":"東京都","city":"墨田区","address":"墨田区横網二丁目3番25号","lat":35.699826,"lon":139.796895},{"name":"相撲博物館","province":"東京都","city":"墨田区","address":"墨田区横網一丁目3番28号","lat":35.697228,"lon":139.793365},{"name":"東武博物館","province":"東京都","city":"墨田区","address":"墨田区東向島四丁目28番16号","lat":35.724491,"lon":139.819319},{"name":"すみだ郷土文化資料館","province":"東京都","city":"墨田区","address":"墨田区向島二丁目3番5号","lat":35.7139,"lon":139.805885},{"name":"立花大正民家園・旧小山家住宅","province":"東京都","city":"墨田区","address":"墨田区立花六丁目13番17号","lat":35.709865,"lon":139.838094},{"name":"すみだ北斎美術館","province":"東京都","city":"墨田区","address":"墨田区亀沢二丁目7番2号","lat":35.696361,"lon":139.800515},{"name":"たばこと塩の博物館","province":"東京都","city":"墨田区","address":"墨田区横川一丁目16番3号","lat":35.70575,"lon":139.808532},{"name":"刀剣博物館","province":"東京都","city":"墨田区","address":"墨田区横網一丁目12番9号","lat":35.698874,"lon":139.793726}]}