{"keyword":"認可","data":[{"name":"キッズガーデン業平","province":"東京都","city":"墨田区","address":"墨田区業平3-1-6","lat":35.70584,"lon":139.81302},{"name":"ひらがなのツリーほいくえん","province":"東京都","city":"墨田区","address":"墨田区業平3-9-2","lat":35.70774,"lon":139.8129},{"name":"そらまめ保育園すみだ横川","province":"東京都","city":"墨田区","address":"墨田区横川1-1-10","lat":35.70325,"lon":139.80884},{"name":"横川さくら保育園","province":"東京都","city":"墨田区","address":"墨田区横川5-9-1","lat":35.70591,"lon":139.81725},{"name":"すこやか本所保育園","province":"東京都","city":"墨田区","address":"墨田区本所2-13-9","lat":35.70411,"lon":139.80119},{"name":"育正保育園","province":"東京都","city":"墨田区","address":"墨田区東駒形1-3-15","lat":35.70697,"lon":139.798},{"name":"東駒形保育園","province":"東京都","city":"墨田区","address":"墨田区東駒形1-6-8","lat":35.70532,"lon":139.79796},{"name":"うぃず東駒形保育園","province":"東京都","city":"墨田区","address":"墨田区東駒形2-9-9","lat":35.70633,"lon":139.8006},{"name":"本所たから保育園","province":"東京都","city":"墨田区","address":"墨田区東駒形4-4-7","lat":35.70556,"lon":139.8051},{"name":"光の園保育学校","province":"東京都","city":"墨田区","address":"墨田区東駒形4-6-2","lat":35.70623,"lon":139.80548},{"name":"アスク両国保育園","province":"東京都","city":"墨田区","address":"墨田区石原2-7-3","lat":35.69979,"lon":139.80154},{"name":"石原ここわ保育園","province":"東京都","city":"墨田区","address":"墨田区石原3-5-7","lat":35.6996,"lon":139.80472},{"name":"ＡＩＡＩ　ＮＵＲＳＥＲＹ　石原","province":"東京都","city":"墨田区","address":"墨田区石原4-37-4","lat":35.70196,"lon":139.8053},{"name":"太平保育園","province":"東京都","city":"墨田区","address":"墨田区太平1-13-10","lat":35.70029,"lon":139.81049},{"name":"横川橋保育園","province":"東京都","city":"墨田区","address":"墨田区太平1-27-13","lat":35.70213,"lon":139.81108},{"name":"まなびの森保育園錦糸町","province":"東京都","city":"墨田区","address":"墨田区太平2-4-4","lat":35.69989,"lon":139.8131},{"name":"すこやか錦糸保育園","province":"東京都","city":"墨田区","address":"墨田区錦糸3-7-1","lat":35.69862,"lon":139.81374},{"name":"亀沢保育園","province":"東京都","city":"墨田区","address":"墨田区亀沢1-27-5","lat":35.69852,"lon":139.79959},{"name":"タムスわんぱく保育園墨田","province":"東京都","city":"墨田区","address":"墨田区亀沢3-24-1","lat":35.69862,"lon":139.80426},{"name":"墨田みどり保育園","province":"東京都","city":"墨田区","address":"墨田区亀沢3-7-11","lat":35.69654,"lon":139.80348},{"name":"ＡＩＡＩ　ＮＵＲＳＥＲＹ　錦糸町","province":"東京都","city":"墨田区","address":"墨田区亀沢4-5-4","lat":35.69693,"lon":139.80852},{"name":"アスク緑保育園","province":"東京都","city":"墨田区","address":"墨田区緑1-5-9","lat":35.69336,"lon":139.80011},{"name":"こひつじ保育園","province":"東京都","city":"墨田区","address":"墨田区緑2-23-3","lat":35.6958,"lon":139.80118},{"name":"オウトピア保育園","province":"東京都","city":"墨田区","address":"墨田区緑2-5-12","lat":35.69292,"lon":139.80118},{"name":"わらべみどり保育園","province":"東京都","city":"墨田区","address":"墨田区緑3-12-2","lat":35.69466,"lon":139.80463},{"name":"江東橋保育園","province":"東京都","city":"墨田区","address":"墨田区緑4-35-9","lat":35.69579,"lon":139.8075},{"name":"チェリッシュあおぞら保育園","province":"東京都","city":"墨田区","address":"墨田区緑4-38-1","lat":35.69604,"lon":139.80643},{"name":"きんし保育園","province":"東京都","city":"墨田区","address":"墨田区江東橋4-30-2-301","lat":35.69648,"lon":139.81834},{"name":"菊川保育園","province":"東京都","city":"墨田区","address":"墨田区江東橋5-3-3","lat":35.68894,"lon":139.81122},{"name":"立川保育園","province":"東京都","city":"墨田区","address":"墨田区立川1-5-2","lat":35.69039,"lon":139.79994},{"name":"すみだ川のほとりに笑顔咲くほいくえん","province":"東京都","city":"墨田区","address":"墨田区立川2-12-16","lat":35.69175,"lon":139.80115},{"name":"にじいろ保育園菊川","province":"東京都","city":"墨田区","address":"墨田区立川3-18-13","lat":35.69233,"lon":139.80441},{"name":"ベネッセ　菊川北保育園","province":"東京都","city":"墨田区","address":"墨田区立川4-10-9","lat":35.69159,"lon":139.80664},{"name":"クオリスキッズ菊川保育園","province":"東京都","city":"墨田区","address":"墨田区立川4-13-29","lat":35.69103,"lon":139.80849},{"name":"ベネッセ菊川保育園","province":"東京都","city":"墨田区","address":"墨田区立川4-6-6","lat":35.69075,"lon":139.80684},{"name":"すみだ中和こころ保育園","province":"東京都","city":"墨田区","address":"墨田区菊川1-18ー5","lat":35.68985,"lon":139.80263},{"name":"キッズパートナー菊川","province":"東京都","city":"墨田区","address":"墨田区菊川3-19-2","lat":35.68931,"lon":139.80777},{"name":"のびのび保育園","province":"東京都","city":"墨田区","address":"墨田区千歳3-8-13","lat":35.69019,"lon":139.79674},{"name":"両国・なかよし保育園","province":"東京都","city":"墨田区","address":"墨田区両国1-10-7","lat":35.694,"lon":139.7906},{"name":"両国すきっぷ保育園","province":"東京都","city":"墨田区","address":"墨田区両国4-25-9","lat":35.69366,"lon":139.79602},{"name":"梅若保育園","province":"東京都","city":"墨田区","address":"墨田区墨田2-38-13","lat":35.73083,"lon":139.8177},{"name":"すみだ保育園","province":"東京都","city":"墨田区","address":"墨田区墨田4-22-4-101","lat":35.73203,"lon":139.82285},{"name":"ほがらか保育園","province":"東京都","city":"墨田区","address":"墨田区墨田4-30-14","lat":35.73373,"lon":139.82297},{"name":"木ノ下保育園","province":"東京都","city":"墨田区","address":"墨田区墨田4-60-13","lat":35.73047,"lon":139.82619},{"name":"杉の子学園保育所","province":"東京都","city":"墨田区","address":"墨田区東向島2-13-6","lat":35.71728,"lon":139.81613},{"name":"寺島保育園","province":"東京都","city":"墨田区","address":"墨田区東向島1-23-10","lat":35.72027,"lon":139.8125},{"name":"ミアヘルサ保育園ひびき曳舟","province":"東京都","city":"墨田区","address":"墨田区東向島2-42-5","lat":35.72065,"lon":139.81804},{"name":"花園保育園","province":"東京都","city":"墨田区","address":"墨田区東向島3-16-2","lat":35.72464,"lon":139.81476},{"name":"さくらさくみらい東向島","province":"東京都","city":"墨田区","address":"墨田区東向島3-20-8","lat":35.72351,"lon":139.81682},{"name":"あおやぎ保育園","province":"東京都","city":"墨田区","address":"墨田区東向島4-37-17","lat":35.72634,"lon":139.81863},{"name":"ナースリー保育園","province":"東京都","city":"墨田区","address":"墨田区東向島6-15-5","lat":35.72223,"lon":139.82152},{"name":"東京愛育苑さゆり保育園","province":"東京都","city":"墨田区","address":"墨田区東向島6-7-8","lat":35.72155,"lon":139.82021},{"name":"わらべ向島保育園","province":"東京都","city":"墨田区","address":"墨田区向島3-19-5","lat":35.71442,"lon":139.81052},{"name":"向島ひまわり保育園","province":"東京都","city":"墨田区","address":"墨田区向島3-22-8","lat":35.71315,"lon":139.80867},{"name":"小梅保育園","province":"東京都","city":"墨田区","address":"墨田区向島3-42-1","lat":35.71214,"lon":139.8102},{"name":"にじいろ保育園向島","province":"東京都","city":"墨田区","address":"墨田区向島5-13-18","lat":35.71927,"lon":139.81062},{"name":"しらひげ保育園","province":"東京都","city":"墨田区","address":"墨田区堤通2-5-5-101","lat":35.73111,"lon":139.81401},{"name":"水神保育園","province":"東京都","city":"墨田区","address":"墨田区堤通2-6-9-103","lat":35.733,"lon":139.81552},{"name":"鐘ヶ淵北保育園","province":"東京都","city":"墨田区","address":"墨田区堤通2-8-15-109","lat":35.73563,"lon":139.81732},{"name":"クローバーこども園","province":"東京都","city":"墨田区","address":"墨田区八広1-16-22","lat":35.72597,"lon":139.8268},{"name":"キッズガーデン墨田八広","province":"東京都","city":"墨田区","address":"墨田区八広2-54-9","lat":35.71318,"lon":139.82767},{"name":"うれしい保育園八広","province":"東京都","city":"墨田区","address":"墨田区八広4-33-9","lat":35.7235,"lon":139.82875},{"name":"長浦保育園","province":"東京都","city":"墨田区","address":"墨田区八広5-10-1-105","lat":35.72542,"lon":139.82515},{"name":"たんぽぽ保育所八広園","province":"東京都","city":"墨田区","address":"墨田区八広5-20-5","lat":35.72277,"lon":139.82458},{"name":"グローバルキッズ八広園","province":"東京都","city":"墨田区","address":"墨田区八広5-5-12","lat":35.723,"lon":139.82428},{"name":"まなびの森保育園八広","province":"東京都","city":"墨田区","address":"墨田区八広6-27-6","lat":35.72725,"lon":139.82877},{"name":"キッズガーデン第二墨田八広","province":"東京都","city":"墨田区","address":"墨田区八広6ー34-1","lat":35.72649,"lon":139.83026},{"name":"中川保育園","province":"東京都","city":"墨田区","address":"墨田区東墨田2-1-15","lat":35.71786,"lon":139.83038},{"name":"東あずま保育園","province":"東京都","city":"墨田区","address":"墨田区立花1-27-6-101","lat":35.70456,"lon":139.82912},{"name":"厚生館保育園","province":"東京都","city":"墨田区","address":"墨田区立花5-21-3","lat":35.7121,"lon":139.8309},{"name":"中川南保育園","province":"東京都","city":"墨田区","address":"墨田区立花6-8-2-106","lat":35.71073,"lon":139.83429},{"name":"文花保育園","province":"東京都","city":"墨田区","address":"墨田区文花1-24-5","lat":35.70965,"lon":139.82317},{"name":"福神橋保育園","province":"東京都","city":"墨田区","address":"墨田区文花1-30-21-101","lat":35.70707,"lon":139.82187},{"name":"おむらい保育園","province":"東京都","city":"墨田区","address":"墨田区文花1-32-1-103","lat":35.70822,"lon":139.82426},{"name":"押上保育園","province":"東京都","city":"墨田区","address":"墨田区押上2-10-17","lat":35.7115,"lon":139.812},{"name":"グローバルキッズ押上園","province":"東京都","city":"墨田区","address":"墨田区押上2-19-2","lat":35.71333,"lon":139.81369},{"name":"小学館アカデミーひきふね駅前保育園","province":"東京都","city":"墨田区","address":"墨田区京島1-1-1-314","lat":35.71632,"lon":139.81711},{"name":"まなびの森保育園曳舟","province":"東京都","city":"墨田区","address":"墨田区京島1-44-17","lat":35.7188,"lon":139.82108},{"name":"じょうえん曳舟保育園","province":"東京都","city":"墨田区","address":"墨田区京島1-6-6-107-108","lat":35.71672,"lon":139.81841},{"name":"グローバルキッズ曳舟保育園","province":"東京都","city":"墨田区","address":"墨田区京島3-62-5","lat":35.71236,"lon":139.82388},{"name":"AIAI NURSERY 石原","province":"東京都","city":"墨田区","address":"墨田区石原4-37-4","lat":35.70196,"lon":139.8053},{"name":"墨田わんぱく保育園","province":"東京都","city":"墨田区","address":"墨田区亀沢3-24-1","lat":35.69862,"lon":139.80426},{"name":"AIAI NURSERY 錦糸町","province":"東京都","city":"墨田区","address":"墨田区亀沢4-5-4","lat":35.69693,"lon":139.80852},{"name":"墨田区ひきふね保育園","province":"東京都","city":"墨田区","address":"墨田区八広1-1-18","lat":35.72014,"lon":139.82109},{"name":"あい・あい保育園石原園","province":"東京都","city":"墨田区","address":"墨田区石原4-37-4","lat":35.70196,"lon":139.8053},{"name":"あい・あい保育園錦糸町園","province":"東京都","city":"墨田区","address":"墨田区亀沢4-5-4","lat":35.69693,"lon":139.80852},{"name":"さゆり保育園","province":"東京都","city":"墨田区","address":"墨田区東向島6-7-8","lat":35.72155,"lon":139.82021},{"name":"日生曳舟駅前保育園ひびき","province":"東京都","city":"墨田区","address":"墨田区東向島2-42-5","lat":35.72065,"lon":139.81804},{"name":"興望館保育園","province":"東京都","city":"墨田区","address":"墨田区京島1-11-6","lat":35.71526,"lon":139.81757},{"name":"立川保育園","province":"東京都","city":"墨田区","address":"墨田区亀沢2-24-6(仮園舎)","lat":35.69829,"lon":139.80232},{"name":"東あずま保育園","province":"東京都","city":"墨田区","address":"墨田区立花2-32-12(仮園舎)","lat":35.70808,"lon":139.83066},{"name":"こひつじ保育園","province":"東京都","city":"墨田区","address":"墨田区緑2-23-3","lat":35.69581,"lon":139.80118},{"name":"たんぽぽ保育所八広園","province":"東京都","city":"墨田区","address":"墨田区八広5-20-5","lat":35.72277,"lon":139.82459},{"name":"おむらい保育園","province":"東京都","city":"墨田区","address":"墨田区文花1-32-1-103","lat":35.70822,"lon":139.82427},{"name":"鐘ヶ淵北保育園","province":"東京都","city":"墨田区","address":"墨田区堤通2-8-15-109","lat":35.73496,"lon":139.81551},{"name":"水神保育園","province":"東京都","city":"墨田区","address":"墨田区堤通2-6-9-103","lat":35.73567,"lon":139.81668}]}