{"keyword":"認証","data":[{"name":"ムーミン保育室","province":"東京都","city":"墨田区","address":"墨田区太平三丁目19番1号","lat":35.7024639,"lon":139.813185},{"name":"ピノキオ幼児舎鐘ヶ淵園","province":"東京都","city":"墨田区","address":"墨田区堤通二丁目8番2号","lat":35.735087,"lon":139.817538},{"name":"こすもす保育園","province":"東京都","city":"墨田区","address":"墨田区錦糸一丁目14番7号","lat":35.699278,"lon":139.81151},{"name":"ポピンズナーサリースクールすみだ","province":"東京都","city":"墨田区","address":"墨田区太平四丁目1番1号","lat":35.7003974,"lon":139.8161542},{"name":"ゆらりん曳舟保育園","province":"東京都","city":"墨田区","address":"墨田区京島一丁目38番1-107号","lat":35.718049,"lon":139.81832},{"name":"マミーズエンジェル墨田みなみ保育園","province":"東京都","city":"墨田区","address":"墨田区亀沢四丁目24番13号","lat":35.6983866,"lon":139.8058635},{"name":"保育園夢未来錦糸町園","province":"東京都","city":"墨田区","address":"墨田区太平三丁目3番12号","lat":35.699717,"lon":139.814096},{"name":"ひまわり保育園","province":"東京都","city":"墨田区","address":"東京都墨田区押上2丁目32-10","lat":35.7156524,"lon":139.81605305},{"name":"アスク両国保育園","province":"東京都","city":"墨田区","address":"東京都墨田区亀沢2丁目14-9","lat":35.69765017,"lon":139.8012701},{"name":"ポピンズナーサリースクールすみだ","province":"東京都","city":"墨田区","address":"東京都墨田区太平4丁目1-1","lat":35.70039682,"lon":139.81615422},{"name":"マミーズエンジェル墨田みなみ保育園","province":"東京都","city":"墨田区","address":"東京都墨田区亀沢4丁目24-13","lat":35.69838615,"lon":139.80586383},{"name":"保育園夢未来錦糸町園","province":"東京都","city":"墨田区","address":"東京都墨田区太平3丁目3-12","lat":35.69971642,"lon":139.8140961}]}