{"keyword":"象","data":[{"name":"NewWork錦糸町2nd","province":"東京都","city":"墨田区","address":"東京都墨田区江東橋3丁目10-8","lat":35.69577251,"lon":139.81295211},{"name":"墨田区役所（1階エントランスホール）","province":"東京都","city":"墨田区","address":"墨田区吾妻橋一丁目23番20号","lat":35.710722,"lon":139.801497},{"name":"緑出張所","province":"東京都","city":"墨田区","address":"墨田区緑三丁目7番3号","lat":35.693716,"lon":139.803289},{"name":"横川出張所","province":"東京都","city":"墨田区","address":"墨田区横川五丁目10番1号111号室","lat":35.705911,"lon":139.816341},{"name":"文花出張所","province":"東京都","city":"墨田区","address":"墨田区文花一丁目32番1号102号室","lat":35.708094,"lon":139.824656},{"name":"墨田二丁目出張所","province":"東京都","city":"墨田区","address":"墨田区墨田二丁目36番11号(ベルクス墨田店商業施設パシオス2階)","lat":35.7325,"lon":139.801497},{"name":"東向島出張所","province":"東京都","city":"墨田区","address":"墨田区東向島二丁目38番7号","lat":35.721213,"lon":139.818441},{"name":"ひきふね図書館","province":"東京都","city":"墨田区","address":"墨田区京島一丁目36番5号","lat":35.7171006,"lon":139.8191516},{"name":"緑図書館","province":"東京都","city":"墨田区","address":"墨田区緑二丁目24番5号","lat":35.69574,"lon":139.800613},{"name":"立花図書館","province":"東京都","city":"墨田区","address":"墨田区立花六丁目8番1号101号室","lat":35.710595,"lon":139.834744},{"name":"八広図書館","province":"東京都","city":"墨田区","address":"墨田区八広五丁目10番1号104号室","lat":35.72481,"lon":139.825793},{"name":"すみだ清掃事業所","province":"東京都","city":"墨田区","address":"墨田区業平五丁目6番2号","lat":35.707082,"lon":139.817985},{"name":"すみだ清掃事務所分室","province":"東京都","city":"墨田区","address":"墨田区東向島五丁目9番11号","lat":35.726142,"lon":139.820711},{"name":"墨田区総合体育館","province":"東京都","city":"墨田区","address":"墨田区錦糸四丁目15番1号","lat":35.733338,"lon":139.8171884},{"name":"すみだ女性センター","province":"東京都","city":"墨田区","address":"墨田区押上二丁目12番7号111号室","lat":35.712706,"lon":139.811982},{"name":"社会福祉会館","province":"東京都","city":"墨田区","address":"墨田区東墨田二丁目7番1号","lat":35.718986,"lon":139.830341},{"name":"墨田区役所（1階　喫煙所前）","province":"東京都","city":"墨田区","address":"墨田区吾妻橋一丁目23番20号","lat":35.710722,"lon":139.801497},{"name":"NewWork錦糸町2nd","province":"東京都","city":"墨田区","address":"東京都墨田区江東橋3丁目10-8","lat":35.69577251,"lon":139.81295211},{"name":"墨田区役所（1階エントランスホール）","province":"東京都","city":"墨田区","address":"墨田区吾妻橋一丁目23番20号","lat":35.710722,"lon":139.801497},{"name":"緑出張所","province":"東京都","city":"墨田区","address":"墨田区緑三丁目7番3号","lat":35.693716,"lon":139.803289},{"name":"横川出張所","province":"東京都","city":"墨田区","address":"墨田区横川五丁目10番1号111号室","lat":35.705911,"lon":139.816341},{"name":"文花出張所","province":"東京都","city":"墨田区","address":"墨田区文花一丁目32番1号102号室","lat":35.708094,"lon":139.824656},{"name":"墨田二丁目出張所","province":"東京都","city":"墨田区","address":"墨田区墨田二丁目36番11号(ベルクス墨田店商業施設パシオス2階)","lat":35.7325,"lon":139.801497},{"name":"東向島出張所","province":"東京都","city":"墨田区","address":"墨田区東向島二丁目38番7号","lat":35.721213,"lon":139.818441},{"name":"ひきふね図書館","province":"東京都","city":"墨田区","address":"墨田区京島一丁目36番5号","lat":35.7171006,"lon":139.8191516},{"name":"緑図書館","province":"東京都","city":"墨田区","address":"墨田区緑二丁目24番5号","lat":35.69574,"lon":139.800613},{"name":"立花図書館","province":"東京都","city":"墨田区","address":"墨田区立花六丁目8番1号101号室","lat":35.710595,"lon":139.834744},{"name":"八広図書館","province":"東京都","city":"墨田区","address":"墨田区八広五丁目10番1号104号室","lat":35.72481,"lon":139.825793},{"name":"すみだ清掃事業所","province":"東京都","city":"墨田区","address":"墨田区業平五丁目6番2号","lat":35.707082,"lon":139.817985},{"name":"すみだ清掃事務所分室","province":"東京都","city":"墨田区","address":"墨田区東向島五丁目9番11号","lat":35.726142,"lon":139.820711},{"name":"墨田区総合体育館","province":"東京都","city":"墨田区","address":"墨田区錦糸四丁目15番1号","lat":35.733338,"lon":139.8171884},{"name":"すみだ女性センター","province":"東京都","city":"墨田区","address":"墨田区押上二丁目12番7号111号室","lat":35.712706,"lon":139.811982},{"name":"社会福祉会館","province":"東京都","city":"墨田区","address":"墨田区東墨田二丁目7番1号","lat":35.718986,"lon":139.830341},{"name":"墨田区役所（1階　喫煙所前）","province":"東京都","city":"墨田区","address":"墨田区吾妻橋一丁目23番20号","lat":35.710722,"lon":139.801497},{"name":"NewWork錦糸町2nd","province":"東京都","city":"墨田区","address":"東京都墨田区江東橋3丁目10-8","lat":35.69577251,"lon":139.81295211},{"name":"墨田区役所（1階エントランスホール）","province":"東京都","city":"墨田区","address":"墨田区吾妻橋一丁目23番20号","lat":35.710722,"lon":139.801497},{"name":"緑出張所","province":"東京都","city":"墨田区","address":"墨田区緑三丁目7番3号","lat":35.693716,"lon":139.803289},{"name":"横川出張所","province":"東京都","city":"墨田区","address":"墨田区横川五丁目10番1号111号室","lat":35.705911,"lon":139.816341},{"name":"文花出張所","province":"東京都","city":"墨田区","address":"墨田区文花一丁目32番1号102号室","lat":35.708094,"lon":139.824656},{"name":"墨田二丁目出張所","province":"東京都","city":"墨田区","address":"墨田区墨田二丁目36番11号(ベルクス墨田店商業施設パシオス2階)","lat":35.7325,"lon":139.801497},{"name":"東向島出張所","province":"東京都","city":"墨田区","address":"墨田区東向島二丁目38番7号","lat":35.721213,"lon":139.818441},{"name":"ひきふね図書館","province":"東京都","city":"墨田区","address":"墨田区京島一丁目36番5号","lat":35.7171006,"lon":139.8191516},{"name":"緑図書館","province":"東京都","city":"墨田区","address":"墨田区緑二丁目24番5号","lat":35.69574,"lon":139.800613},{"name":"立花図書館","province":"東京都","city":"墨田区","address":"墨田区立花六丁目8番1号101号室","lat":35.710595,"lon":139.834744},{"name":"八広図書館","province":"東京都","city":"墨田区","address":"墨田区八広五丁目10番1号104号室","lat":35.72481,"lon":139.825793},{"name":"すみだ清掃事業所","province":"東京都","city":"墨田区","address":"墨田区業平五丁目6番2号","lat":35.707082,"lon":139.817985},{"name":"すみだ清掃事務所分室","province":"東京都","city":"墨田区","address":"墨田区東向島五丁目9番11号","lat":35.726142,"lon":139.820711},{"name":"墨田区総合体育館","province":"東京都","city":"墨田区","address":"墨田区錦糸四丁目15番1号","lat":35.733338,"lon":139.8171884},{"name":"すみだ女性センター","province":"東京都","city":"墨田区","address":"墨田区押上二丁目12番7号111号室","lat":35.712706,"lon":139.811982},{"name":"社会福祉会館","province":"東京都","city":"墨田区","address":"墨田区東墨田二丁目7番1号","lat":35.718986,"lon":139.830341},{"name":"墨田区役所（1階　喫煙所前）","province":"東京都","city":"墨田区","address":"墨田区吾妻橋一丁目23番20号","lat":35.710722,"lon":139.801497}]}