{"keyword":"貯水槽","data":[{"name":"日進公園","province":"東京都","city":"墨田区","address":"東京都墨田区亀沢3丁目24-3","lat":35.69862503,"lon":139.80441676},{"name":"なつめ公園","province":"東京都","city":"墨田区","address":"東京都墨田区東向島6丁目40-2","lat":35.72445761,"lon":139.82188321},{"name":"すみだボランティアセンター","province":"東京都","city":"墨田区","address":"東京都墨田区東向島2丁目17-14","lat":35.71838566,"lon":139.81561446},{"name":"かつら児童遊園","province":"東京都","city":"墨田区","address":"東京都墨田区墨田3丁目36-13","lat":35.73147348,"lon":139.82056385},{"name":"堤通公園","province":"東京都","city":"墨田区","address":"東京都墨田区堤通1丁目8-1","lat":35.72447964,"lon":139.81077124},{"name":"すみだ健康ハウス","province":"東京都","city":"墨田区","address":"東京都墨田区東墨田1丁目2-6","lat":35.71772695,"lon":139.82970417},{"name":"文花公園","province":"東京都","city":"墨田区","address":"東京都墨田区文花1丁目27-5","lat":35.7094556,"lon":139.82244155},{"name":"とちのき児童遊園","province":"東京都","city":"墨田区","address":"東京都墨田区緑2丁目8-12","lat":35.69324795,"lon":139.80130406},{"name":"立川第二児童遊園","province":"東京都","city":"墨田区","address":"東京都墨田区立川3丁目15-6","lat":35.69203976,"lon":139.80390933},{"name":"押上第一児童遊園","province":"東京都","city":"墨田区","address":"東京都墨田区押上3丁目48-1","lat":35.71179188,"lon":139.82010526},{"name":"京島西公園","province":"東京都","city":"墨田区","address":"東京都墨田区京島1丁目22-3","lat":35.71567483,"lon":139.81871112},{"name":"東向島ふじ公園","province":"東京都","city":"墨田区","address":"東京都墨田区東向島2丁目46-7","lat":35.72032456,"lon":139.81849198},{"name":"曳舟さくら公園","province":"東京都","city":"墨田区","address":"東京都墨田区京島1丁目40-1","lat":35.71877194,"lon":139.82017778},{"name":"本四三ツ目児童遊園","province":"東京都","city":"墨田区","address":"東京都墨田区本所4丁目1-4","lat":35.70288841,"lon":139.80498554},{"name":"請地児童遊園","province":"東京都","city":"墨田区","address":"東京都墨田区向島4丁目12-11","lat":35.71693833,"lon":139.81343679},{"name":"八広中央公園","province":"東京都","city":"墨田区","address":"東京都墨田区八広3丁目13-19","lat":35.71918814,"lon":139.82718507},{"name":"たちばな仲よし公園","province":"東京都","city":"墨田区","address":"東京都墨田区立花5丁目19-2","lat":35.71244966,"lon":139.82994877},{"name":"東あずま公園南","province":"東京都","city":"墨田区","address":"東京都墨田区立花2丁目32-12","lat":35.70834973,"lon":139.83030736},{"name":"東あずま公園北","province":"東京都","city":"墨田区","address":"東京都墨田区立花2丁目32-12","lat":35.70834973,"lon":139.83030736},{"name":"千歳公園","province":"東京都","city":"墨田区","address":"東京都墨田区千歳2丁目2-1","lat":35.69036782,"lon":139.79502744},{"name":"墨田二丁目児童遊園","province":"東京都","city":"墨田区","address":"東京都墨田区墨田2丁目42-4","lat":35.73228443,"lon":139.81873074},{"name":"曳舟西ビューハイツ","province":"東京都","city":"墨田区","address":"東京都墨田区京島1丁目39-1","lat":35.71855525,"lon":139.81929177},{"name":"曳舟東ビューハイツ","province":"東京都","city":"墨田区","address":"東京都墨田区京島1丁目45-1","lat":35.71817198,"lon":139.8202444},{"name":"六軒児童遊園","province":"東京都","city":"墨田区","address":"東京都墨田区立花3丁目18-12","lat":35.70610819,"lon":139.83438194},{"name":"舟原公園","province":"東京都","city":"墨田区","address":"東京都墨田区八広2丁目43-16","lat":35.71514967,"lon":139.8267824},{"name":"亀沢第一児童遊園","province":"東京都","city":"墨田区","address":"東京都墨田区亀沢2丁目13-7","lat":35.69784458,"lon":139.80188665},{"name":"都営立花四丁目団地","province":"東京都","city":"墨田区","address":"東京都墨田区立花4丁目30-1","lat":35.70956343,"lon":139.83534283},{"name":"隅田第二児童遊園","province":"東京都","city":"墨田区","address":"東京都墨田区墨田4丁目8-14","lat":35.73288164,"lon":139.82186355},{"name":"墨田第三児童遊園","province":"東京都","city":"墨田区","address":"東京都墨田区墨田2丁目17-6","lat":35.7314956,"lon":139.81623679},{"name":"ごあずま児童遊園","province":"東京都","city":"墨田区","address":"東京都墨田区八広4丁目36-24","lat":35.7227685,"lon":139.82939596},{"name":"立花第一児童遊園","province":"東京都","city":"墨田区","address":"東京都墨田区立花4丁目9-6","lat":35.71009965,"lon":139.83163207},{"name":"隅田東児童遊園","province":"東京都","city":"墨田区","address":"東京都墨田区墨田4丁目52-12","lat":35.72950444,"lon":139.82512169},{"name":"押上第二児童遊園","province":"東京都","city":"墨田区","address":"東京都墨田区押上3丁目57-3","lat":35.71191978,"lon":139.82117743},{"name":"八広六西児童遊園","province":"東京都","city":"墨田区","address":"東京都墨田区八広6丁目13-1","lat":35.72851578,"lon":139.82735203},{"name":"墨田第六児童遊園","province":"東京都","city":"墨田区","address":"東京都墨田区墨田2丁目20-15","lat":35.73052355,"lon":139.81718117},{"name":"みわさと公園","province":"東京都","city":"墨田区","address":"東京都墨田区八広1丁目38-13","lat":35.72107709,"lon":139.82532706},{"name":"隅田東第二児童遊園","province":"東京都","city":"墨田区","address":"東京都墨田区墨田4丁目34-20","lat":35.73275392,"lon":139.82414937},{"name":"八広あずま公園","province":"東京都","city":"墨田区","address":"東京都墨田区八広4丁目19-14","lat":35.72376025,"lon":139.82809342},{"name":"露伴児童遊園","province":"東京都","city":"墨田区","address":"東京都墨田区東向島1丁目7-11","lat":35.72189933,"lon":139.81308177},{"name":"小梅児童遊園","province":"東京都","city":"墨田区","address":"東京都墨田区向島1丁目33-3","lat":35.71042667,"lon":139.80815339},{"name":"さつき公園","province":"東京都","city":"墨田区","address":"東京都墨田区東向島6丁目19-12","lat":35.72262441,"lon":139.82039453},{"name":"きねがわ公園","province":"東京都","city":"墨田区","address":"東京都墨田区東墨田2丁目25-8","lat":35.724149,"lon":139.83316217},{"name":"竪川親水公園","province":"東京都","city":"墨田区","address":"東京都墨田区江東橋2丁目1","lat":35.69309787,"lon":139.81198851},{"name":"菊川駐輪場","province":"東京都","city":"墨田区","address":"東京都墨田区菊川3丁目6-14","lat":35.68755145,"lon":139.80696471},{"name":"みどりコミュニティセンター","province":"東京都","city":"墨田区","address":"東京都墨田区緑3丁目7-3","lat":35.69361455,"lon":139.8032676},{"name":"業平防災待機職員住宅","province":"東京都","city":"墨田区","address":"東京都墨田区業平3丁目2-5","lat":35.70634375,"lon":139.8130676},{"name":"すみだ清掃事務所","province":"東京都","city":"墨田区","address":"東京都墨田区業平5丁目6-2","lat":35.70709118,"lon":139.81802555},{"name":"八広認定こども園","province":"東京都","city":"墨田区","address":"東京都墨田区八広3丁目7-5","lat":35.72091034,"lon":139.82649354},{"name":"江東橋二丁目その他緑地","province":"東京都","city":"墨田区","address":"東京都墨田区江東橋2丁目18","lat":35.6959086,"lon":139.81198834}]}