{"keyword":"集会","data":[{"name":"立川集会所","province":"東京都","city":"墨田区","address":"墨田区立川一丁目5番2号","lat":35.6905,"lon":139.799531},{"name":"寺島集会所","province":"東京都","city":"墨田区","address":"墨田区東向島一丁目23番10号","lat":35.720181,"lon":139.812601},{"name":"千歳集会所","province":"東京都","city":"墨田区","address":"墨田区千歳二丁目2番5号","lat":35.690696,"lon":139.795273},{"name":"八広中央集会所","province":"東京都","city":"墨田区","address":"墨田区八広三丁目14番5号","lat":35.71911,"lon":139.826839},{"name":"東あずま公園集会所","province":"東京都","city":"墨田区","address":"墨田区立花二丁目32番12号","lat":35.708436,"lon":139.830708},{"name":"東駒形集会所","province":"東京都","city":"墨田区","address":"墨田区東駒形四丁目14番1号","lat":35.705524,"lon":139.807754},{"name":"曳舟集会所","province":"東京都","city":"墨田区","address":"墨田区東向島二丁目17番14号","lat":35.718484,"lon":139.815563},{"name":"押上集会所","province":"東京都","city":"墨田区","address":"墨田区押上一丁目47番6号","lat":35.709283,"lon":139.817543},{"name":"東向島集会所","province":"東京都","city":"墨田区","address":"墨田区東向島四丁目8番12号","lat":35.727562,"lon":139.815476},{"name":"八広一丁目集会所","province":"東京都","city":"墨田区","address":"墨田区八広一丁目19番14号","lat":35.718802,"lon":139.822942},{"name":"梅若橋集会所","province":"東京都","city":"墨田区","address":"墨田区堤通二丁目9番1号","lat":35.735395,"lon":139.816696},{"name":"東墨田うめぞの集会所","province":"東京都","city":"墨田区","address":"墨田区東墨田三丁目19番1号","lat":35.718449,"lon":139.837679},{"name":"横川三丁目集会所","province":"東京都","city":"墨田区","address":"墨田区横川三丁目12番12号","lat":35.70536,"lon":139.813658},{"name":"横川集会所","province":"東京都","city":"墨田区","address":"墨田区横川五丁目9番1号","lat":35.705116,"lon":139.81758},{"name":"江東橋集会所","province":"東京都","city":"墨田区","address":"墨田区江東橋五丁目16番15号","lat":35.692618,"lon":139.810783},{"name":"一寺言問集会所","province":"東京都","city":"墨田区","address":"墨田区東向島一丁目20番6号","lat":35.720655,"lon":139.813889},{"name":"業平三丁目集会所","province":"東京都","city":"墨田区","address":"墨田区業平三丁目2番5号","lat":35.706341,"lon":139.813065},{"name":"立花四丁目集会所","province":"東京都","city":"墨田区","address":"墨田区立花四丁目8番10号","lat":35.710535,"lon":139.8309},{"name":"京島第一集会所","province":"東京都","city":"墨田区","address":"墨田区京島三丁目3番6号","lat":35.715163,"lon":139.821389},{"name":"京島第二集会所","province":"東京都","city":"墨田区","address":"墨田区京島三丁目52番8号","lat":35.714724,"lon":139.82455},{"name":"なりひら神明橋集会所","province":"東京都","city":"墨田区","address":"墨田区業平五丁目6番2号","lat":35.707082,"lon":139.817985},{"name":"太平四丁目集会所","province":"東京都","city":"墨田区","address":"墨田区太平四丁目1番4号","lat":35.700854,"lon":139.81758},{"name":"吾妻橋会館","province":"東京都","city":"墨田区","address":"墨田区吾妻橋一丁目23番27号","lat":35.709744,"lon":139.801425},{"name":"両国駅前会館","province":"東京都","city":"墨田区","address":"墨田区両国二丁目20番12号101号室","lat":35.695345,"lon":139.79262}]}