{"keyword":"館","data":[{"name":"横川コミュニティ会館","province":"東京都","city":"墨田区","address":"墨田区横川5-9-1","lat":35.705202,"lon":139.817495},{"name":"外手児童館","province":"東京都","city":"墨田区","address":"墨田区本所2-6-9","lat":35.703005,"lon":139.800755},{"name":"本所賀川記念館児童クラブ・学童クラブ","province":"東京都","city":"墨田区","address":"墨田区東駒形4-6-2","lat":35.706038,"lon":139.805321},{"name":"東駒形コミュニティ会館","province":"東京都","city":"墨田区","address":"墨田区東駒形4-14-1","lat":35.705474,"lon":139.807738},{"name":"江東橋児童館","province":"東京都","city":"墨田区","address":"墨田区江東橋1-15-4","lat":35.695914,"lon":139.809686},{"name":"立川児童館","province":"東京都","city":"墨田区","address":"墨田区立川1-5-2","lat":35.690462,"lon":139.799502},{"name":"墨田児童会館","province":"東京都","city":"墨田区","address":"墨田区墨田2-30-15","lat":35.729263,"lon":139.8189},{"name":"フレンドリープラザ東向島児童館","province":"東京都","city":"墨田区","address":"墨田区東向島6-6-12","lat":35.721452,"lon":139.819711},{"name":"さくら橋コミュニティセンター","province":"東京都","city":"墨田区","address":"墨田区向島2-3-8","lat":35.713688,"lon":139.805843},{"name":"梅若橋コミュニティ会館","province":"東京都","city":"墨田区","address":"墨田区堤通2-9-1","lat":35.735423,"lon":139.816714},{"name":"八広児童館","province":"東京都","city":"墨田区","address":"墨田区八広2-38-14","lat":35.715861,"lon":139.827924},{"name":"八広はなみずき児童館","province":"東京都","city":"墨田区","address":"墨田区八広4-27-8","lat":35.724566,"lon":139.829407},{"name":"立花児童館","province":"東京都","city":"墨田区","address":"墨田区立花1-27-9","lat":35.705552,"lon":139.828816},{"name":"中川児童館","province":"東京都","city":"墨田区","address":"墨田区立花5-18-9","lat":35.712944,"lon":139.830971},{"name":"文花児童館","province":"東京都","city":"墨田区","address":"墨田区文花1-32-11","lat":35.708711,"lon":139.824372},{"name":"興望館地域活動部","province":"東京都","city":"墨田区","address":"墨田区京島1-11-6","lat":35.715205,"lon":139.817778},{"name":"横川コミュニティ会館","province":"東京都","city":"墨田区","address":"墨田区横川5-9-1","lat":35.70591,"lon":139.81725},{"name":"外手児童館","province":"東京都","city":"墨田区","address":"墨田区本所2-6-9","lat":35.70309,"lon":139.80077},{"name":"東駒形コミュニティ会館","province":"東京都","city":"墨田区","address":"墨田区東駒形4-14-1","lat":35.70609,"lon":139.80779},{"name":"本所賀川記念館児童クラブ","province":"東京都","city":"墨田区","address":"墨田区東駒形4-6-2","lat":35.70623,"lon":139.80548},{"name":"江東橋児童館","province":"東京都","city":"墨田区","address":"墨田区江東橋1-15-4","lat":35.69584,"lon":139.80962},{"name":"立川児童館","province":"東京都","city":"墨田区","address":"墨田区立川1-5-2","lat":35.69039,"lon":139.79994},{"name":"墨田児童会館","province":"東京都","city":"墨田区","address":"墨田区墨田2-30-15","lat":35.7294,"lon":139.81886},{"name":"フレンドリープラザ東向島児童館","province":"東京都","city":"墨田区","address":"墨田区東向島6-6-12","lat":35.7215,"lon":139.81963},{"name":"さくら橋コミュニティセンター","province":"東京都","city":"墨田区","address":"墨田区向島2-3-8","lat":35.71382,"lon":139.8058},{"name":"梅若橋コミュニティ会館","province":"東京都","city":"墨田区","address":"墨田区堤通2-9-1","lat":35.73567,"lon":139.81668},{"name":"八広児童館","province":"東京都","city":"墨田区","address":"墨田区八広2-38-14","lat":35.71611,"lon":139.82811},{"name":"八広はなみずき児童館","province":"東京都","city":"墨田区","address":"墨田区八広4-27-8","lat":35.72468,"lon":139.8293},{"name":"立花児童館","province":"東京都","city":"墨田区","address":"墨田区立花1-27-9","lat":35.70456,"lon":139.82912},{"name":"中川児童館","province":"東京都","city":"墨田区","address":"墨田区立花5-18-9","lat":35.71284,"lon":139.83092},{"name":"文花児童館","province":"東京都","city":"墨田区","address":"墨田区文花1-32-11","lat":35.70822,"lon":139.82426},{"name":"興望館地域活動部","province":"東京都","city":"墨田区","address":"墨田区京島1-11-6","lat":35.71526,"lon":139.81757},{"name":"本所賀川記念館児童クラブ・学童クラブ","province":"東京都","city":"墨田区","address":"墨田区東駒形4-6-2","lat":35.70623,"lon":139.80548},{"name":"中川児童館","province":"東京都","city":"墨田区","address":"墨田区立花5-18-9","lat":35.71285,"lon":139.83092},{"name":"文花児童館","province":"東京都","city":"墨田区","address":"墨田区文花1-32-11","lat":35.70822,"lon":139.82427},{"name":"フレンドリープラザ東向島児童館","province":"東京都","city":"墨田区","address":"墨田区東向島6-6-12","lat":35.71515,"lon":139.80682},{"name":"東向島児童館分館","province":"東京都","city":"墨田区","address":"墨田区京島1-44-21","lat":35.71932,"lon":139.820908},{"name":"＊?墨田区立ひきふね図書館","province":"東京都","city":"墨田区","address":"墨田区京島1-36-5","lat":35.717105,"lon":139.819579},{"name":"＊?墨田区立八広図書館","province":"東京都","city":"墨田区","address":"墨田区八広5-10-1-104","lat":35.725003,"lon":139.825802},{"name":"＊?墨田区立立花図書館","province":"東京都","city":"墨田区","address":"墨田区立花6-8-1-101","lat":35.710679,"lon":139.834917},{"name":"＊?墨田区立緑図書館","province":"東京都","city":"墨田区","address":"墨田区緑2-24-5","lat":35.695762,"lon":139.800611},{"name":"ひきふね図書館","province":"東京都","city":"墨田区","address":"墨田区京島一丁目36番5号","lat":35.717058,"lon":139.819491},{"name":"立花図書館","province":"東京都","city":"墨田区","address":"墨田区立花六丁目8番1号101号室","lat":35.710694,"lon":139.834842},{"name":"東駒形コミュニティ会館図書室","province":"東京都","city":"墨田区","address":"墨田区東駒形四丁目14番1号","lat":35.705517,"lon":139.807746},{"name":"梅若橋コミュニティ会館図書室","province":"東京都","city":"墨田区","address":"墨田区堤通二丁目9番1号","lat":35.735335,"lon":139.816746},{"name":"横川コミュニティ会館図書室","province":"東京都","city":"墨田区","address":"墨田区横川五丁目9番1号","lat":35.705116,"lon":139.81758}]}