{"keyword":"時","data":[{"name":"上野小学校","province":"東京都","city":"台東区","address":"東京都台東区東上野6-16-8","lat":35.713688,"lon":139.783112},{"name":"平成小学校","province":"東京都","city":"台東区","address":"東京都台東区台東4-21-15","lat":35.706608,"lon":139.780212},{"name":"根岸小学校","province":"東京都","city":"台東区","address":"東京都台東区根岸3-9-8","lat":35.839325,"lon":139.662094},{"name":"東泉小学校","province":"東京都","city":"台東区","address":"東京都台東区三ノ輪1-23-9","lat":35.728325,"lon":139.791946},{"name":"忍岡小学校","province":"東京都","city":"台東区","address":"東京都台東区池之端2-1-22","lat":35.713993,"lon":139.766296},{"name":"谷中小学校","province":"東京都","city":"台東区","address":"東京都台東区谷中2-9-16","lat":35.776318,"lon":139.833298},{"name":"金曽木小学校","province":"東京都","city":"台東区","address":"東京都台東区根岸4-16-22","lat":35.725914,"lon":139.785278},{"name":"黒門小学校","province":"東京都","city":"台東区","address":"東京都台東区上野1-16-20","lat":35.706875,"lon":139.771515},{"name":"大正小学校","province":"東京都","city":"台東区","address":"東京都台東区入谷2-23-8","lat":35.810207,"lon":139.763199},{"name":"浅草小学校","province":"東京都","city":"台東区","address":"東京都台東区花川戸1-14-15","lat":35.713947,"lon":139.799438},{"name":"台東育英小学校","province":"東京都","city":"台東区","address":"東京都台東区浅草橋2-26-8","lat":35.700176,"lon":139.785522},{"name":"蔵前小学校","province":"東京都","city":"台東区","address":"東京都台東区蔵前4-19-11","lat":35.70462,"lon":139.789398},{"name":"東浅草小学校","province":"東京都","city":"台東区","address":"東京都台東区東浅草2-27-19","lat":35.72456,"lon":139.798569},{"name":"富士小学校","province":"東京都","city":"台東区","address":"東京都台東区浅草4-48-9","lat":35.718922,"lon":139.798248},{"name":"松葉小学校","province":"東京都","city":"台東区","address":"東京都台東区松が谷1-13-16","lat":35.712242,"lon":139.786926},{"name":"千束小学校","province":"東京都","city":"台東区","address":"東京都台東区浅草4-24-11","lat":35.719379,"lon":139.793869},{"name":"石浜小学校","province":"東京都","city":"台東区","address":"東京都台東区清川1-14-21","lat":35.725018,"lon":139.80423},{"name":"田原小学校","province":"東京都","city":"台東区","address":"東京都台東区雷門1-5-14","lat":35.710236,"lon":139.793045},{"name":"金竜小学校","province":"東京都","city":"台東区","address":"東京都台東区千束1-9-9","lat":35.718483,"lon":139.789505},{"name":"旧下谷小学校","province":"東京都","city":"台東区","address":"東京都台東区東上野4-7-9","lat":35.713081,"lon":139.779587},{"name":"旧柳北小学校","province":"東京都","city":"台東区","address":"東京都台東区浅草橋5-1-35","lat":35.699646,"lon":139.783142},{"name":"台東区中小企業振興センター","province":"東京都","city":"台東区","address":"東京都台東区小島2-9-18","lat":35.706062,"lon":139.784302},{"name":"たなか多目的センター","province":"東京都","city":"台東区","address":"東京都台東区日本堤2-25-4","lat":35.727772,"lon":139.797363},{"name":"ことぶきこども園","province":"東京都","city":"台東区","address":"東京都台東区寿1-10-9","lat":42.830894,"lon":141.686371},{"name":"御徒町台東中学校","province":"東京都","city":"台東区","address":"東京都台東区台東4-13-16","lat":35.707054,"lon":139.777481},{"name":"柏葉中学校","province":"東京都","city":"台東区","address":"東京都台東区下谷3-1-29","lat":35.723251,"lon":139.786255},{"name":"上野中学校","province":"東京都","city":"台東区","address":"東京都台東区上野桜木1-14-55","lat":35.721287,"lon":139.775253},{"name":"忍岡中学校","province":"東京都","city":"台東区","address":"東京都台東区上野公園18-20","lat":35.719437,"lon":139.778809},{"name":"浅草中学校","province":"東京都","city":"台東区","address":"東京都台東区蔵前1-3-4","lat":35.699577,"lon":139.789902},{"name":"駒形中学校","province":"東京都","city":"台東区","address":"東京都台東区北上野2-15-1","lat":35.717178,"lon":139.784317},{"name":"桜橋中学校","province":"東京都","city":"台東区","address":"東京都台東区今戸2-1-8","lat":35.720776,"lon":139.806732},{"name":"白?高等学校附属中学校","province":"東京都","city":"台東区","address":"東京都台東区元浅草3-12-12","lat":35.70734,"lon":139.787598},{"name":"白?高等学校","province":"東京都","city":"台東区","address":"東京都台東区元浅草1-6-22","lat":35.708439,"lon":139.78302},{"name":"忍岡高等学校","province":"東京都","city":"台東区","address":"東京都台東区浅草橋5-1-24","lat":35.700806,"lon":139.783218},{"name":"浅草高等学校","province":"東京都","city":"台東区","address":"東京都台東区今戸1-8-13","lat":35.719707,"lon":139.803101},{"name":"蔵前工業高等学校","province":"東京都","city":"台東区","address":"東京都台東区蔵前1-3-57","lat":35.699936,"lon":139.790985},{"name":"上野高等学校","province":"東京都","city":"台東区","address":"東京都台東区上野公園10-14","lat":35.719238,"lon":139.769653},{"name":"台東一丁目区民館","province":"東京都","city":"台東区","address":"東京都台東区台東1-25-5","lat":35.701527,"lon":139.777618},{"name":"東上野区民館","province":"東京都","city":"台東区","address":"東京都台東区東上野3-24-6","lat":35.711369,"lon":139.779602},{"name":"老人福祉センター","province":"東京都","city":"台東区","address":"東京都台東区東上野2-25-14","lat":35.709518,"lon":139.781677},{"name":"生涯学習センター","province":"東京都","city":"台東区","address":"東京都台東区西浅草3-25-16","lat":35.717503,"lon":139.789352},{"name":"産業研修センター","province":"東京都","city":"台東区","address":"東京都台東区橋場1-36-2","lat":35.723991,"lon":139.808075},{"name":"福祉プラザ台東清峰会","province":"東京都","city":"台東区","address":"東京都台東区清川2-14-7","lat":35.389606,"lon":139.964645},{"name":"町田第二小学校","province":"東京都","city":"町田市","address":"東京都町田市原町田4丁目26-40","lat":35.54567525,"lon":139.45355312},{"name":"町田第一小学校","province":"東京都","city":"町田市","address":"東京都町田市中町1丁目20-30","lat":35.5483303,"lon":139.44582031},{"name":"町田第一中学校","province":"東京都","city":"町田市","address":"東京都町田市中町1丁目27-5","lat":35.55078284,"lon":139.44640907},{"name":"都立町田高等学校","province":"東京都","city":"町田市","address":"東京都町田市中町4丁目25-3","lat":35.55337986,"lon":139.44872268},{"name":"町田第四小学校","province":"東京都","city":"町田市","address":"東京都町田市森野2丁目21-28","lat":35.54990233,"lon":139.43824871},{"name":"本町田小学校","province":"東京都","city":"町田市","address":"東京都町田市本町田2032","lat":35.56336483,"lon":139.43682343},{"name":"町田第三小学校","province":"東京都","city":"町田市","address":"東京都町田市本町田1212","lat":35.56417318,"lon":139.44604758},{"name":"本町田東小学校","province":"東京都","city":"町田市","address":"東京都町田市本町田3350","lat":35.56977814,"lon":139.44405873},{"name":"町田第三中学校","province":"東京都","city":"町田市","address":"東京都町田市本町田1853","lat":35.56150942,"lon":139.43208224},{"name":"町田第五小学校","province":"東京都","city":"町田市","address":"東京都町田市玉川学園4丁目14-7","lat":35.56464281,"lon":139.45687445},{"name":"町田第六小学校","province":"東京都","city":"町田市","address":"東京都町田市南大谷1260","lat":35.54935846,"lon":139.46030803},{"name":"南大谷小学校","province":"東京都","city":"町田市","address":"東京都町田市南大谷811-1","lat":35.55179454,"lon":139.46352722},{"name":"町田第二中学校","province":"東京都","city":"町田市","address":"東京都町田市南大谷1327","lat":35.54955267,"lon":139.45528618},{"name":"南大谷中学校","province":"東京都","city":"町田市","address":"東京都町田市南大谷985-1","lat":35.55084742,"lon":139.46345503},{"name":"南第一小学校","province":"東京都","city":"町田市","address":"東京都町田市南町田1丁目10-1","lat":35.52179017,"lon":139.46777519},{"name":"鶴間小学校","province":"東京都","city":"町田市","address":"東京都町田市鶴間4丁目17-1","lat":35.50529936,"lon":139.46952593},{"name":"都立小川高等学校","province":"東京都","city":"町田市","address":"東京都町田市小川2丁目1002-1","lat":35.53233046,"lon":139.46933859},{"name":"小川小学校","province":"東京都","city":"町田市","address":"東京都町田市小川3丁目10-1","lat":35.52704234,"lon":139.4708081},{"name":"南第三小学校","province":"東京都","city":"町田市","address":"東京都町田市金森東1丁目2-1","lat":35.53680688,"lon":139.45805583},{"name":"南第四小学校","province":"東京都","city":"町田市","address":"東京都町田市金森東3丁目21-1","lat":35.5328663,"lon":139.46667207},{"name":"南中学校","province":"東京都","city":"町田市","address":"東京都町田市金森3丁目27-1","lat":35.52704446,"lon":139.46252251},{"name":"南つくし野小学校","province":"東京都","city":"町田市","address":"東京都町田市南つくし野2丁目4-8","lat":35.51598109,"lon":139.47550294},{"name":"つくし野中学校","province":"東京都","city":"町田市","address":"東京都町田市南つくし野2丁目14-2","lat":35.51861414,"lon":139.47711666},{"name":"つくし野小学校","province":"東京都","city":"町田市","address":"東京都町田市つくし野2丁目21-11","lat":35.52573031,"lon":139.48194403},{"name":"南第二小学校","province":"東京都","city":"町田市","address":"東京都町田市成瀬7丁目11-1","lat":35.53926682,"lon":139.47797424},{"name":"都立成瀬高等学校","province":"東京都","city":"町田市","address":"東京都町田市成瀬7丁目4-1","lat":35.54228832,"lon":139.47506033},{"name":"南成瀬小学校","province":"東京都","city":"町田市","address":"東京都町田市南成瀬3丁目6","lat":35.53996581,"lon":139.47043},{"name":"南成瀬中学校","province":"東京都","city":"町田市","address":"東京都町田市南成瀬7丁目7-1","lat":35.53386803,"lon":139.48195486},{"name":"高ヶ坂小学校","province":"東京都","city":"町田市","address":"東京都町田市高ヶ坂6丁目7-1","lat":35.54101506,"lon":139.46231931},{"name":"成瀬中央小学校","province":"東京都","city":"町田市","address":"東京都町田市成瀬2丁目8","lat":35.54700182,"lon":139.47627404},{"name":"成瀬台小学校","province":"東京都","city":"町田市","address":"東京都町田市成瀬台2丁目5-2","lat":35.55048491,"lon":139.47770442},{"name":"成瀬台中学校","province":"東京都","city":"町田市","address":"東京都町田市成瀬台2丁目5-1","lat":35.55056537,"lon":139.47699055},{"name":"鶴川第四小学校","province":"東京都","city":"町田市","address":"東京都町田市鶴川3丁目22","lat":35.59324364,"lon":139.4629264},{"name":"真光寺中学校","province":"東京都","city":"町田市","address":"東京都町田市真光寺3丁目8-1","lat":35.59762391,"lon":139.46463177},{"name":"鶴川第二中学校","province":"東京都","city":"町田市","address":"東京都町田市鶴川6丁目4","lat":35.58990081,"lon":139.47507323},{"name":"鶴川第三小学校","province":"東京都","city":"町田市","address":"東京都町田市鶴川6丁目5","lat":35.59047275,"lon":139.47338157},{"name":"藤の台小学校","province":"東京都","city":"町田市","address":"東京都町田市藤の台3丁目1-1","lat":35.57277249,"lon":139.45173579},{"name":"薬師中学校","province":"東京都","city":"町田市","address":"東京都町田市金井1丁目20-1","lat":35.57593324,"lon":139.44909706},{"name":"金井小学校","province":"東京都","city":"町田市","address":"東京都町田市金井ヶ丘1丁目30-1","lat":35.56987566,"lon":139.45809642},{"name":"鶴川第一小学校","province":"東京都","city":"町田市","address":"東京都町田市野津田町1290","lat":35.5905323,"lon":139.45691843},{"name":"都立野津田高等学校","province":"東京都","city":"町田市","address":"東京都町田市野津田町2001","lat":35.58961486,"lon":139.43740885},{"name":"町田ＧＩＯＮスタジアム（町田市立陸上競技場）","province":"東京都","city":"町田市","address":"東京都町田市野津田町2035","lat":35.59190908,"lon":139.43862536},{"name":"鶴川中学校","province":"東京都","city":"町田市","address":"東京都町田市小野路町1905-1","lat":35.59366515,"lon":139.4537547},{"name":"大蔵小学校","province":"東京都","city":"町田市","address":"東京都町田市大蔵町286","lat":35.58672524,"lon":139.46810681},{"name":"鶴川第二小学校","province":"東京都","city":"町田市","address":"東京都町田市能ヶ谷7丁目24-1","lat":35.59187385,"lon":139.48163977},{"name":"三輪小学校","province":"東京都","city":"町田市","address":"東京都町田市三輪町330-1","lat":35.57797107,"lon":139.49638675},{"name":"金井中学校","province":"東京都","city":"町田市","address":"東京都町田市金井6丁目15-1","lat":35.5764004,"lon":139.46247936},{"name":"忠生第三小学校","province":"東京都","city":"町田市","address":"東京都町田市木曽東3丁目11-3","lat":35.56335634,"lon":139.42533839},{"name":"教育センター","province":"東京都","city":"町田市","address":"東京都町田市木曽東3丁目1-3","lat":35.55966784,"lon":139.42410527},{"name":"木曽境川小学校","province":"東京都","city":"町田市","address":"東京都町田市木曽西1丁目9-1","lat":35.56531984,"lon":139.41511154},{"name":"都立町田総合高等学校","province":"東京都","city":"町田市","address":"東京都町田市木曽西3丁目5-1","lat":35.57035541,"lon":139.41678624},{"name":"木曽中学校","province":"東京都","city":"町田市","address":"東京都町田市木曽西2丁目4-9","lat":35.56866387,"lon":139.41335883},{"name":"七国山小学校","province":"東京都","city":"町田市","address":"東京都町田市山崎町1314-2","lat":35.57645513,"lon":139.43528713},{"name":"山崎中学校","province":"東京都","city":"町田市","address":"東京都町田市山崎町1445","lat":35.57765494,"lon":139.43236515},{"name":"都立山崎高等学校","province":"東京都","city":"町田市","address":"東京都町田市山崎町1453-1","lat":35.57680228,"lon":139.43379559},{"name":"忠生小学校","province":"東京都","city":"町田市","address":"東京都町田市忠生3丁目10-2","lat":35.57919057,"lon":139.41731927},{"name":"山崎小学校","province":"東京都","city":"町田市","address":"東京都町田市忠生2丁目15-26","lat":35.57595775,"lon":139.42524918},{"name":"忠生中学校","province":"東京都","city":"町田市","address":"東京都町田市忠生3丁目14-1","lat":35.5775796,"lon":139.41563336},{"name":"小山田小学校","province":"東京都","city":"町田市","address":"東京都町田市上小山田町614","lat":35.5974048,"lon":139.40577246},{"name":"小山田南小学校","province":"東京都","city":"町田市","address":"東京都町田市小山田桜台2丁目7","lat":35.58909451,"lon":139.40062596},{"name":"小山田中学校","province":"東京都","city":"町田市","address":"東京都町田市小山田桜台1丁目12","lat":35.58793091,"lon":139.40416739},{"name":"都立町田工業高等学校","province":"東京都","city":"町田市","address":"東京都町田市忠生1丁目20-2","lat":35.5755605,"lon":139.42215504},{"name":"図師小学校","province":"東京都","city":"町田市","address":"東京都町田市図師町239-19","lat":35.58439555,"lon":139.41675806},{"name":"小山小学校","province":"東京都","city":"町田市","address":"東京都町田市小山町944","lat":35.59226283,"lon":139.37764714},{"name":"堺中学校","province":"東京都","city":"町田市","address":"東京都町田市相原町752","lat":35.60461426,"lon":139.33661698},{"name":"相原小学校","province":"東京都","city":"町田市","address":"東京都町田市相原町1673","lat":35.60650795,"lon":139.32341804},{"name":"ゆくのき学園（大戸小学校）","province":"東京都","city":"町田市","address":"東京都町田市相原町3765-3","lat":35.60948566,"lon":139.30322826},{"name":"ゆくのき学園（武蔵岡中学校）","province":"東京都","city":"町田市","address":"東京都町田市相原町3865","lat":35.60927454,"lon":139.30496144},{"name":"小山中央小学校","province":"東京都","city":"町田市","address":"東京都町田市小山ヶ丘3丁目7-1","lat":35.6020921,"lon":139.37327214},{"name":"小山ヶ丘小学校","province":"東京都","city":"町田市","address":"東京都町田市小山ヶ丘5丁目37","lat":35.60515838,"lon":139.35477364},{"name":"小山中学校","province":"東京都","city":"町田市","address":"東京都町田市小山ヶ丘1丁目2-4","lat":35.59525432,"lon":139.38595748},{"name":"サン町田旭体育館","province":"東京都","city":"町田市","address":"東京都町田市旭町3丁目20-60","lat":35.55634896,"lon":139.44662554},{"name":"市立総合体育館","province":"東京都","city":"町田市","address":"東京都町田市南成瀬5丁目12","lat":35.53652562,"lon":139.47901873},{"name":"南町田グランベリーパーク　パークライフ棟","province":"東京都","city":"町田市","address":"東京都町田市鶴間3丁目1-4","lat":35.51007035,"lon":139.46930345},{"name":"玉川学園コミュニティセンター","province":"東京都","city":"町田市","address":"東京都町田市玉川学園2丁目19-12","lat":35.56371258,"lon":139.46261016},{"name":"南市民センター","province":"東京都","city":"町田市","address":"東京都町田市金森4丁目5-6","lat":35.5237481,"lon":139.4667696},{"name":"なるせ駅前市民センター","province":"東京都","city":"町田市","address":"東京都町田市南成瀬1丁目2-5","lat":35.53680532,"lon":139.47301332},{"name":"鶴川市民センター","province":"東京都","city":"町田市","address":"東京都町田市大蔵町1981-4","lat":35.58888611,"lon":139.46739571},{"name":"三輪コミュニティセンター","province":"東京都","city":"町田市","address":"東京都町田市三輪緑山4丁目14-1","lat":35.5771346,"lon":139.4933507},{"name":"鶴見川クリーンセンター","province":"東京都","city":"町田市","address":"東京都町田市三輪緑山1丁目1","lat":35.56975115,"lon":139.48945637},{"name":"忠生市民センター","province":"東京都","city":"町田市","address":"東京都町田市忠生3丁目14-2","lat":35.57836563,"lon":139.41603053},{"name":"木曽山崎コミュニティセンター","province":"東京都","city":"町田市","address":"東京都町田市山崎町2160-4","lat":35.56853928,"lon":139.43666498},{"name":"堺市民センター","province":"東京都","city":"町田市","address":"東京都町田市相原町795-1","lat":35.60428931,"lon":139.33333118}]}