{"keyword":"類似","data":[{"name":"＊?日比谷図書文化館??文化財事務室","province":"東京都","city":"千代田区","address":"千代田区日比谷公園1-4","lat":35.671866,"lon":139.754602},{"name":"＊?港郷土資料館","province":"東京都","city":"港区","address":"港区芝5-28-4","lat":35.647064,"lon":139.745225},{"name":"＊?新宿区立林芙美子記念館","province":"東京都","city":"新宿区","address":"新宿区中井2-20-1","lat":35.71585,"lon":139.684264},{"name":"＊?佐伯祐三アトリエ記念館","province":"東京都","city":"新宿区","address":"新宿区中落合2-4-21","lat":35.721158,"lon":139.693642},{"name":"＊?中村彝アトリエ記念館","province":"東京都","city":"新宿区","address":"新宿区下落合3-5-7","lat":35.720809,"lon":139.701395},{"name":"＊?郷土天文館","province":"東京都","city":"中央区","address":"中央区明石町12-1","lat":35.666635,"lon":139.776739},{"name":"＊?文京ふるさと歴史館","province":"東京都","city":"文京区","address":"文京区本郷4-9-29","lat":35.707986,"lon":139.756653},{"name":"＊?文京区立森鴎外記念館","province":"東京都","city":"文京区","address":"文京区千駄木1-23-4","lat":35.724864,"lon":139.760659},{"name":"＊?朝倉彫塑館","province":"東京都","city":"台東区","address":"台東区谷中7-18-10","lat":35.726913,"lon":139.768837},{"name":"＊?下町風俗資料館","province":"東京都","city":"台東区","address":"台東区上野公園2-1","lat":35.709848,"lon":139.770753},{"name":"＊?書道博物館","province":"東京都","city":"台東区","address":"台東区根岸2-10-4","lat":35.724746,"lon":139.776452},{"name":"＊?一葉記念館","province":"東京都","city":"台東区","address":"台東区竜泉3-18-4","lat":35.725573,"lon":139.792807},{"name":"＊?中川船番所資料館","province":"東京都","city":"江東区","address":"江東区大島9-1-15","lat":35.687603,"lon":139.846361},{"name":"＊?芭蕉記念館","province":"東京都","city":"江東区","address":"江東区常盤1-6-3","lat":35.686134,"lon":139.794101},{"name":"＊?深川江戸資料館","province":"東京都","city":"江東区","address":"江東区白河1-3-28","lat":35.681221,"lon":139.800572},{"name":"＊?品川歴史館","province":"東京都","city":"品川区","address":"品川区大井6-11-1","lat":35.596766,"lon":139.730173},{"name":"＊?古民家（すずめのお宿緑地公園内）","province":"東京都","city":"目黒区","address":"目黒区碑文谷3-11-22","lat":35.61861,"lon":139.684503},{"name":"＊?めぐろ歴史資料館","province":"東京都","city":"目黒区","address":"目黒区中目黒3-6-10","lat":35.639414,"lon":139.702817},{"name":"＊?目黒区美術館","province":"東京都","city":"目黒区","address":"目黒区目黒2-4-36","lat":35.635734,"lon":139.708251},{"name":"＊?大森海苔のふるさと館","province":"東京都","city":"大田区","address":"大田区平和の森公園2-2","lat":35.57713,"lon":139.742695},{"name":"＊?向井潤吉アトリエ館","province":"東京都","city":"世田谷区","address":"世田谷区弦巻2-5-1","lat":35.635627,"lon":139.655717},{"name":"＊?宮本三郎記念美術館","province":"東京都","city":"世田谷区","address":"世田谷区奥沢5-38-13","lat":35.604609,"lon":139.666421},{"name":"＊?清川泰次記念ギャラリー","province":"東京都","city":"世田谷区","address":"世田谷区成城2-22-17","lat":35.638574,"lon":139.600809},{"name":"＊?松濤美術館","province":"東京都","city":"渋谷区","address":"渋谷区松濤2―14-14","lat":35.658706,"lon":139.691804},{"name":"＊?白根記念渋谷区郷土博物館・文学館","province":"東京都","city":"渋谷区","address":"渋谷区東4-9-1","lat":35.656393,"lon":139.712577},{"name":"＊?こども科学センター・ハチラボ","province":"東京都","city":"渋谷区","address":"渋谷区桜丘町23-21","lat":35.655458,"lon":139.699965},{"name":"＊?中野区立歴史民俗資料館","province":"東京都","city":"中野区","address":"中野区江古田4-3-4","lat":35.724336,"lon":139.665055},{"name":"＊?郷土資料館","province":"東京都","city":"豊島区","address":"豊島区西池袋2-37-4","lat":35.727732,"lon":139.70673},{"name":"＊?飛鳥山博物館","province":"東京都","city":"北区","address":"北区王子1-1-3","lat":35.749579,"lon":139.73896},{"name":"＊?荒川ふるさと文化館","province":"東京都","city":"荒川区","address":"荒川区南千住6-63-1","lat":35.73745,"lon":139.795424},{"name":"＊?美術館","province":"東京都","city":"板橋区","address":"板橋区赤塚5-34-27","lat":35.78422,"lon":139.644479},{"name":"＊?郷土資料館","province":"東京都","city":"板橋区","address":"板橋区赤塚5-35-25","lat":35.785481,"lon":139.643219},{"name":"＊?教育科学館","province":"東京都","city":"板橋区","address":"板橋区常盤台4-14-1","lat":35.763454,"lon":139.679618},{"name":"＊?石神井公園ふるさと文化館","province":"東京都","city":"練馬区","address":"練馬区石神井町5-12-16","lat":35.737614,"lon":139.599775},{"name":"＊?伊興遺跡公園展示館","province":"東京都","city":"足立区","address":"足立区東伊興4‐9‐1","lat":35.804413,"lon":139.786375},{"name":"＊?葛飾区科学教育センター「未来わくわく館」","province":"東京都","city":"葛飾区","address":"葛飾区新宿6-3-2","lat":35.772061,"lon":139.861946},{"name":"＊?葛飾区教育資料館","province":"東京都","city":"葛飾区","address":"葛飾区水元4-21-1","lat":35.787279,"lon":139.86425},{"name":"＊?江戸川区郷土資料室","province":"東京都","city":"江戸川区","address":"江戸川区松島1-38-1グリーンパレス内","lat":35.705979,"lon":139.866286},{"name":"＊?コニカミノルタ?サイエンスドーム(八王子市こども科学館)","province":"東京都","city":"八王子市","address":"八王子市大横町9-13","lat":35.664889,"lon":139.32783},{"name":"＊?立川市歴史民俗資料館","province":"東京都","city":"立川市","address":"立川市富士見町3-12-34","lat":35.696921,"lon":139.389952},{"name":"＊?川越道緑地古民家園","province":"東京都","city":"立川市","address":"立川市幸町4-65","lat":35.725468,"lon":139.426689},{"name":"＊?武蔵野ふるさと歴史館","province":"東京都","city":"武蔵野市","address":"武蔵野市境5-15-5","lat":35.702238,"lon":139.534605},{"name":"＊?ふるさと府中歴史館","province":"東京都","city":"府中市","address":"府中市宮町3-1","lat":35.668852,"lon":139.478696},{"name":"＊?国史跡武蔵府中熊野神社古墳展示館","province":"東京都","city":"府中市","address":"府中市西府町2-9","lat":35.674543,"lon":139.45674},{"name":"＊?調布市武者小路実篤記念館","province":"東京都","city":"調布市","address":"調布市若葉町1-8-30","lat":35.656682,"lon":139.581273},{"name":"＊?調布市深大寺水車館","province":"東京都","city":"調布市","address":"調布市深大寺元町5-10-6","lat":35.667708,"lon":139.548246},{"name":"＊?町田市立博物館","province":"東京都","city":"町田市","address":"町田市本町田3562","lat":35.567414,"lon":139.451188},{"name":"＊?町田市立自由民権資料館","province":"東京都","city":"町田市","address":"町田市野津田町897","lat":35.588888,"lon":139.453271},{"name":"＊?町田市立国際版画美術館","province":"東京都","city":"町田市","address":"町田市原町田4-28-1","lat":35.544106,"lon":139.455158},{"name":"＊?小金井市文化財センター","province":"東京都","city":"小金井市","address":"小金井市緑町3-2-37","lat":35.710144,"lon":139.517044},{"name":"＊?小平市鈴木遺跡資料館","province":"東京都","city":"小平市","address":"小平市鈴木町1-487-1","lat":35.718522,"lon":139.496532},{"name":"＊?小平市平櫛田中彫刻美術館","province":"東京都","city":"小平市","address":"小平市学園西町1-7-5","lat":35.718042,"lon":139.475584},{"name":"＊?郷土資料館","province":"東京都","city":"日野市","address":"日野市程久保550","lat":35.652479,"lon":139.411582},{"name":"＊?国分寺市民俗資料室","province":"東京都","city":"国分寺市","address":"国分寺市本多5-24-11","lat":35.706805,"lon":139.485146},{"name":"＊?武蔵国分寺跡資料館","province":"東京都","city":"国分寺市","address":"国分寺市西元町1-13-10","lat":35.69386,"lon":139.472785},{"name":"＊?歴史民俗資料館分館","province":"東京都","city":"武蔵村山市","address":"武蔵村山市大南3-5-7","lat":35.737605,"lon":139.400815},{"name":"＊?くにたち郷土文化館","province":"東京都","city":"国立市","address":"国立市谷保6231","lat":35.678996,"lon":139.432642},{"name":"＊?福生市郷土資料室","province":"東京都","city":"福生市","address":"福生市熊川850-1","lat":35.732073,"lon":139.337586},{"name":"＊?東久留米市郷土資料室","province":"東京都","city":"東久留米市","address":"東久留米市滝山4-3-14わくわく健康プラザ内","lat":35.742202,"lon":139.504451},{"name":"＊?瑞穂町郷土資料館","province":"東京都","city":"西多摩郡瑞穂町","address":"瑞穂町石畑1962","lat":35.774751,"lon":139.356739},{"name":"＊?小さな蔵の資料館","province":"東京都","city":"西多摩郡日の出町","address":"日の出町大字大久野4090-2","lat":35.770449,"lon":139.206461},{"name":"＊?郷土資料館","province":"東京都","city":"西多摩郡檜原村","address":"西多摩郡檜原村3221","lat":35.743475,"lon":139.130033},{"name":"＊?伊豆大島火山博物館","province":"東京都","city":"大島町","address":"大島町元町字神田屋敷617","lat":34.743999,"lon":139.360024},{"name":"＊?二宮考古館","province":"東京都","city":"あきる野市","address":"あきる野市二宮1151","lat":35.727477,"lon":139.313912},{"name":"＊?五日市郷土館","province":"東京都","city":"あきる野市","address":"あきる野市五日市920-1","lat":35.728392,"lon":139.217031},{"name":"＊?奥多摩町立せせらぎの里美術館","province":"東京都","city":"西多摩郡奥多摩町","address":"奥多摩町川井53","lat":35.807353,"lon":139.173765},{"name":"＊?郷土資料館","province":"東京都","city":"大島町","address":"大島町元町字地の岡30番2","lat":34.773678,"lon":139.358458},{"name":"＊?利島村郷土資料館","province":"東京都","city":"","address":"東京都利島村248","lat":34.529278,"lon":139.282449},{"name":"＊?新島村博物館","province":"東京都","city":"新島村","address":"新島村本村2-36-3","lat":34.381649,"lon":139.259257},{"name":"＊?神津島村郷土資料館","province":"東京都","city":"神津島村","address":"神津島村118","lat":34.20809,"lon":139.135829},{"name":"＊?御蔵島観光資料館（郷土資料館）","province":"東京都","city":"御蔵島村","address":"御蔵島村おうし屋敷","lat":33.896761,"lon":139.592174},{"name":"＊?三宅島郷土資料館","province":"東京都","city":"三宅村","address":"三宅村阿古497","lat":34.075968,"lon":139.479169},{"name":"八丈町歴史民俗資料館（閉館）","province":"東京都","city":"八丈町","address":"八丈町大賀郷1186","lat":33.102282,"lon":139.785832}]}