{"keyword":"医薬","data":[{"name":"大沢中台児童遊園（スポットガーデン）","province":"兵庫県","city":"丹波篠山市","address":"兵庫県丹波篠山市大沢1丁目9-1","lat":35.05746707,"lon":135.17296876},{"name":"大沢高台児童遊園","province":"兵庫県","city":"丹波篠山市","address":"兵庫県丹波篠山市大沢1丁目11-7","lat":35.05736153,"lon":135.17402144},{"name":"大沢中台児童遊園（スポットガーデン）","province":"兵庫県","city":"丹波篠山市","address":"兵庫県丹波篠山市大沢1丁目9-1","lat":35.05746707,"lon":135.17296876},{"name":"大沢高台児童遊園","province":"兵庫県","city":"丹波篠山市","address":"兵庫県丹波篠山市大沢1丁目11-7","lat":35.05736153,"lon":135.17402144},{"name":"大沢中台児童遊園（スポットガーデン）","province":"兵庫県","city":"丹波篠山市","address":"兵庫県丹波篠山市大沢1丁目9-1","lat":35.05746707,"lon":135.17296876},{"name":"大沢高台児童遊園","province":"兵庫県","city":"丹波篠山市","address":"兵庫県丹波篠山市大沢1丁目11-7","lat":35.05736153,"lon":135.17402144},{"name":"大沢中台児童遊園（スポットガーデン）","province":"兵庫県","city":"丹波篠山市","address":"兵庫県丹波篠山市大沢1丁目9-1","lat":35.05746707,"lon":135.17296876},{"name":"大沢高台児童遊園","province":"兵庫県","city":"丹波篠山市","address":"兵庫県丹波篠山市大沢1丁目11-7","lat":35.05736153,"lon":135.17402144},{"name":"大沢中台児童遊園（スポットガーデン）","province":"兵庫県","city":"丹波篠山市","address":"兵庫県丹波篠山市大沢1丁目9-1","lat":35.05746707,"lon":135.17296876},{"name":"大沢高台児童遊園","province":"兵庫県","city":"丹波篠山市","address":"兵庫県丹波篠山市大沢1丁目11-7","lat":35.05736153,"lon":135.17402144},{"name":"大沢中台児童遊園（スポットガーデン）","province":"兵庫県","city":"丹波篠山市","address":"兵庫県丹波篠山市大沢1丁目9-1","lat":35.05746707,"lon":135.17296876},{"name":"大沢高台児童遊園","province":"兵庫県","city":"丹波篠山市","address":"兵庫県丹波篠山市大沢1丁目11-7","lat":35.05736153,"lon":135.17402144},{"name":"大沢中台児童遊園（スポットガーデン）","province":"兵庫県","city":"丹波篠山市","address":"兵庫県丹波篠山市大沢1丁目9-1","lat":35.05746707,"lon":135.17296876},{"name":"大沢高台児童遊園","province":"兵庫県","city":"丹波篠山市","address":"兵庫県丹波篠山市大沢1丁目11-7","lat":35.05736153,"lon":135.17402144},{"name":"大沢中台児童遊園（スポットガーデン）","province":"兵庫県","city":"丹波篠山市","address":"兵庫県丹波篠山市大沢1丁目9-1","lat":35.05746707,"lon":135.17296876},{"name":"大沢高台児童遊園","province":"兵庫県","city":"丹波篠山市","address":"兵庫県丹波篠山市大沢1丁目11-7","lat":35.05736153,"lon":135.17402144},{"name":"大沢中台児童遊園（スポットガーデン）","province":"兵庫県","city":"丹波篠山市","address":"兵庫県丹波篠山市大沢1丁目9-1","lat":35.05746707,"lon":135.17296876},{"name":"大沢高台児童遊園","province":"兵庫県","city":"丹波篠山市","address":"兵庫県丹波篠山市大沢1丁目11-7","lat":35.05736153,"lon":135.17402144},{"name":"大沢中台児童遊園（スポットガーデン）","province":"兵庫県","city":"丹波篠山市","address":"兵庫県丹波篠山市大沢1丁目9-1","lat":35.05746707,"lon":135.17296876},{"name":"大沢高台児童遊園","province":"兵庫県","city":"丹波篠山市","address":"兵庫県丹波篠山市大沢1丁目11-7","lat":35.05736153,"lon":135.17402144},{"name":"大沢中台児童遊園（スポットガーデン）","province":"兵庫県","city":"丹波篠山市","address":"兵庫県丹波篠山市大沢1丁目9-1","lat":35.05746707,"lon":135.17296876},{"name":"大沢高台児童遊園","province":"兵庫県","city":"丹波篠山市","address":"兵庫県丹波篠山市大沢1丁目11-7","lat":35.05736153,"lon":135.17402144},{"name":"大沢中台児童遊園（スポットガーデン）","province":"兵庫県","city":"丹波篠山市","address":"兵庫県丹波篠山市大沢1丁目9-1","lat":35.05746707,"lon":135.17296876},{"name":"大沢高台児童遊園","province":"兵庫県","city":"丹波篠山市","address":"兵庫県丹波篠山市大沢1丁目11-7","lat":35.05736153,"lon":135.17402144},{"name":"大沢中台児童遊園（スポットガーデン）","province":"兵庫県","city":"丹波篠山市","address":"兵庫県丹波篠山市大沢1丁目9-1","lat":35.05746707,"lon":135.17296876},{"name":"大沢高台児童遊園","province":"兵庫県","city":"丹波篠山市","address":"兵庫県丹波篠山市大沢1丁目11-7","lat":35.05736153,"lon":135.17402144},{"name":"大沢中台児童遊園（スポットガーデン）","province":"兵庫県","city":"丹波篠山市","address":"兵庫県丹波篠山市大沢1丁目9-1","lat":35.05746707,"lon":135.17296876},{"name":"大沢高台児童遊園","province":"兵庫県","city":"丹波篠山市","address":"兵庫県丹波篠山市大沢1丁目11-7","lat":35.05736153,"lon":135.17402144},{"name":"大沢中台児童遊園（スポットガーデン）","province":"兵庫県","city":"丹波篠山市","address":"兵庫県丹波篠山市大沢1丁目9-1","lat":35.05746707,"lon":135.17296876},{"name":"大沢高台児童遊園","province":"兵庫県","city":"丹波篠山市","address":"兵庫県丹波篠山市大沢1丁目11-7","lat":35.05736153,"lon":135.17402144},{"name":"大沢中台児童遊園（スポットガーデン）","province":"兵庫県","city":"丹波篠山市","address":"兵庫県丹波篠山市大沢1丁目9-1","lat":35.05746707,"lon":135.17296876},{"name":"大沢高台児童遊園","province":"兵庫県","city":"丹波篠山市","address":"兵庫県丹波篠山市大沢1丁目11-7","lat":35.05736153,"lon":135.17402144},{"name":"大沢中台児童遊園（スポットガーデン）","province":"兵庫県","city":"丹波篠山市","address":"兵庫県丹波篠山市大沢1丁目9-1","lat":35.05746707,"lon":135.17296876},{"name":"大沢高台児童遊園","province":"兵庫県","city":"丹波篠山市","address":"兵庫県丹波篠山市大沢1丁目11-7","lat":35.05736153,"lon":135.17402144},{"name":"大沢中台児童遊園（スポットガーデン）","province":"兵庫県","city":"丹波篠山市","address":"兵庫県丹波篠山市大沢1丁目9-1","lat":35.05746707,"lon":135.17296876},{"name":"大沢高台児童遊園","province":"兵庫県","city":"丹波篠山市","address":"兵庫県丹波篠山市大沢1丁目11-7","lat":35.05736153,"lon":135.17402144},{"name":"大沢中台児童遊園（スポットガーデン）","province":"兵庫県","city":"丹波篠山市","address":"兵庫県丹波篠山市大沢1丁目9-1","lat":35.05746707,"lon":135.17296876},{"name":"大沢高台児童遊園","province":"兵庫県","city":"丹波篠山市","address":"兵庫県丹波篠山市大沢1丁目11-7","lat":35.05736153,"lon":135.17402144},{"name":"大沢中台児童遊園（スポットガーデン）","province":"兵庫県","city":"丹波篠山市","address":"兵庫県丹波篠山市大沢1丁目9-1","lat":35.05746707,"lon":135.17296876},{"name":"大沢高台児童遊園","province":"兵庫県","city":"丹波篠山市","address":"兵庫県丹波篠山市大沢1丁目11-7","lat":35.05736153,"lon":135.17402144},{"name":"大沢中台児童遊園（スポットガーデン）","province":"兵庫県","city":"丹波篠山市","address":"兵庫県丹波篠山市大沢1丁目9-1","lat":35.05746707,"lon":135.17296876},{"name":"大沢高台児童遊園","province":"兵庫県","city":"丹波篠山市","address":"兵庫県丹波篠山市大沢1丁目11-7","lat":35.05736153,"lon":135.17402144},{"name":"大沢中台児童遊園（スポットガーデン）","province":"兵庫県","city":"丹波篠山市","address":"兵庫県丹波篠山市大沢1丁目9-1","lat":35.05746707,"lon":135.17296876},{"name":"大沢高台児童遊園","province":"兵庫県","city":"丹波篠山市","address":"兵庫県丹波篠山市大沢1丁目11-7","lat":35.05736153,"lon":135.17402144},{"name":"大沢中台児童遊園（スポットガーデン）","province":"兵庫県","city":"丹波篠山市","address":"兵庫県丹波篠山市大沢1丁目9-1","lat":35.05746707,"lon":135.17296876},{"name":"大沢高台児童遊園","province":"兵庫県","city":"丹波篠山市","address":"兵庫県丹波篠山市大沢1丁目11-7","lat":35.05736153,"lon":135.17402144},{"name":"大沢中台児童遊園（スポットガーデン）","province":"兵庫県","city":"丹波篠山市","address":"兵庫県丹波篠山市大沢1丁目9-1","lat":35.05746707,"lon":135.17296876},{"name":"大沢高台児童遊園","province":"兵庫県","city":"丹波篠山市","address":"兵庫県丹波篠山市大沢1丁目11-7","lat":35.05736153,"lon":135.17402144},{"name":"大沢中台児童遊園（スポットガーデン）","province":"兵庫県","city":"丹波篠山市","address":"兵庫県丹波篠山市大沢1丁目9-1","lat":35.05746707,"lon":135.17296876},{"name":"大沢高台児童遊園","province":"兵庫県","city":"丹波篠山市","address":"兵庫県丹波篠山市大沢1丁目11-7","lat":35.05736153,"lon":135.17402144},{"name":"大沢中台児童遊園（スポットガーデン）","province":"兵庫県","city":"丹波篠山市","address":"兵庫県丹波篠山市大沢1丁目9-1","lat":35.05746707,"lon":135.17296876},{"name":"大沢高台児童遊園","province":"兵庫県","city":"丹波篠山市","address":"兵庫県丹波篠山市大沢1丁目11-7","lat":35.05736153,"lon":135.17402144},{"name":"大沢中台児童遊園（スポットガーデン）","province":"兵庫県","city":"丹波篠山市","address":"兵庫県丹波篠山市大沢1丁目9-1","lat":35.05746707,"lon":135.17296876},{"name":"大沢高台児童遊園","province":"兵庫県","city":"丹波篠山市","address":"兵庫県丹波篠山市大沢1丁目11-7","lat":35.05736153,"lon":135.17402144},{"name":"大沢中台児童遊園（スポットガーデン）","province":"兵庫県","city":"丹波篠山市","address":"兵庫県丹波篠山市大沢1丁目9-1","lat":35.05746707,"lon":135.17296876},{"name":"大沢高台児童遊園","province":"兵庫県","city":"丹波篠山市","address":"兵庫県丹波篠山市大沢1丁目11-7","lat":35.05736153,"lon":135.17402144},{"name":"大沢中台児童遊園（スポットガーデン）","province":"兵庫県","city":"丹波篠山市","address":"兵庫県丹波篠山市大沢1丁目9-1","lat":35.05746707,"lon":135.17296876},{"name":"大沢高台児童遊園","province":"兵庫県","city":"丹波篠山市","address":"兵庫県丹波篠山市大沢1丁目11-7","lat":35.05736153,"lon":135.17402144},{"name":"大沢中台児童遊園（スポットガーデン）","province":"兵庫県","city":"丹波篠山市","address":"兵庫県丹波篠山市大沢1丁目9-1","lat":35.05746707,"lon":135.17296876},{"name":"大沢高台児童遊園","province":"兵庫県","city":"丹波篠山市","address":"兵庫県丹波篠山市大沢1丁目11-7","lat":35.05736153,"lon":135.17402144},{"name":"大沢中台児童遊園（スポットガーデン）","province":"兵庫県","city":"丹波篠山市","address":"兵庫県丹波篠山市大沢1丁目9-1","lat":35.05746707,"lon":135.17296876},{"name":"大沢高台児童遊園","province":"兵庫県","city":"丹波篠山市","address":"兵庫県丹波篠山市大沢1丁目11-7","lat":35.05736153,"lon":135.17402144},{"name":"大沢中台児童遊園（スポットガーデン）","province":"兵庫県","city":"丹波篠山市","address":"兵庫県丹波篠山市大沢1丁目9-1","lat":35.05746707,"lon":135.17296876},{"name":"大沢高台児童遊園","province":"兵庫県","city":"丹波篠山市","address":"兵庫県丹波篠山市大沢1丁目11-7","lat":35.05736153,"lon":135.17402144},{"name":"大沢中台児童遊園（スポットガーデン）","province":"兵庫県","city":"丹波篠山市","address":"兵庫県丹波篠山市大沢1丁目9-1","lat":35.05746707,"lon":135.17296876},{"name":"大沢高台児童遊園","province":"兵庫県","city":"丹波篠山市","address":"兵庫県丹波篠山市大沢1丁目11-7","lat":35.05736153,"lon":135.17402144},{"name":"大沢中台児童遊園（スポットガーデン）","province":"兵庫県","city":"丹波篠山市","address":"兵庫県丹波篠山市大沢1丁目9-1","lat":35.05746707,"lon":135.17296876},{"name":"大沢高台児童遊園","province":"兵庫県","city":"丹波篠山市","address":"兵庫県丹波篠山市大沢1丁目11-7","lat":35.05736153,"lon":135.17402144},{"name":"大沢中台児童遊園（スポットガーデン）","province":"兵庫県","city":"丹波篠山市","address":"兵庫県丹波篠山市大沢1丁目9-1","lat":35.05746707,"lon":135.17296876},{"name":"大沢高台児童遊園","province":"兵庫県","city":"丹波篠山市","address":"兵庫県丹波篠山市大沢1丁目11-7","lat":35.05736153,"lon":135.17402144},{"name":"大沢中台児童遊園（スポットガーデン）","province":"兵庫県","city":"丹波篠山市","address":"兵庫県丹波篠山市大沢1丁目9-1","lat":35.05746707,"lon":135.17296876},{"name":"大沢高台児童遊園","province":"兵庫県","city":"丹波篠山市","address":"兵庫県丹波篠山市大沢1丁目11-7","lat":35.05736153,"lon":135.17402144},{"name":"大沢中台児童遊園（スポットガーデン）","province":"兵庫県","city":"丹波篠山市","address":"兵庫県丹波篠山市大沢1丁目9-1","lat":35.05746707,"lon":135.17296876},{"name":"大沢高台児童遊園","province":"兵庫県","city":"丹波篠山市","address":"兵庫県丹波篠山市大沢1丁目11-7","lat":35.05736153,"lon":135.17402144},{"name":"大沢中台児童遊園（スポットガーデン）","province":"兵庫県","city":"丹波篠山市","address":"兵庫県丹波篠山市大沢1丁目9-1","lat":35.05746707,"lon":135.17296876},{"name":"大沢高台児童遊園","province":"兵庫県","city":"丹波篠山市","address":"兵庫県丹波篠山市大沢1丁目11-7","lat":35.05736153,"lon":135.17402144},{"name":"大沢中台児童遊園（スポットガーデン）","province":"兵庫県","city":"丹波篠山市","address":"兵庫県丹波篠山市大沢1丁目9-1","lat":35.05746707,"lon":135.17296876},{"name":"大沢高台児童遊園","province":"兵庫県","city":"丹波篠山市","address":"兵庫県丹波篠山市大沢1丁目11-7","lat":35.05736153,"lon":135.17402144},{"name":"大沢中台児童遊園（スポットガーデン）","province":"兵庫県","city":"丹波篠山市","address":"兵庫県丹波篠山市大沢1丁目9-1","lat":35.05746707,"lon":135.17296876},{"name":"大沢高台児童遊園","province":"兵庫県","city":"丹波篠山市","address":"兵庫県丹波篠山市大沢1丁目11-7","lat":35.05736153,"lon":135.17402144},{"name":"大沢中台児童遊園（スポットガーデン）","province":"兵庫県","city":"丹波篠山市","address":"兵庫県丹波篠山市大沢1丁目9-1","lat":35.05746707,"lon":135.17296876},{"name":"大沢高台児童遊園","province":"兵庫県","city":"丹波篠山市","address":"兵庫県丹波篠山市大沢1丁目11-7","lat":35.05736153,"lon":135.17402144},{"name":"大沢中台児童遊園（スポットガーデン）","province":"兵庫県","city":"丹波篠山市","address":"兵庫県丹波篠山市大沢1丁目9-1","lat":35.05746707,"lon":135.17296876},{"name":"大沢高台児童遊園","province":"兵庫県","city":"丹波篠山市","address":"兵庫県丹波篠山市大沢1丁目11-7","lat":35.05736153,"lon":135.17402144},{"name":"大沢中台児童遊園（スポットガーデン）","province":"兵庫県","city":"丹波篠山市","address":"兵庫県丹波篠山市大沢1丁目9-1","lat":35.05746707,"lon":135.17296876},{"name":"大沢高台児童遊園","province":"兵庫県","city":"丹波篠山市","address":"兵庫県丹波篠山市大沢1丁目11-7","lat":35.05736153,"lon":135.17402144},{"name":"大沢中台児童遊園（スポットガーデン）","province":"兵庫県","city":"丹波篠山市","address":"兵庫県丹波篠山市大沢1丁目9-1","lat":35.05746707,"lon":135.17296876},{"name":"大沢高台児童遊園","province":"兵庫県","city":"丹波篠山市","address":"兵庫県丹波篠山市大沢1丁目11-7","lat":35.05736153,"lon":135.17402144},{"name":"大沢中台児童遊園（スポットガーデン）","province":"兵庫県","city":"丹波篠山市","address":"兵庫県丹波篠山市大沢1丁目9-1","lat":35.05746707,"lon":135.17296876},{"name":"大沢高台児童遊園","province":"兵庫県","city":"丹波篠山市","address":"兵庫県丹波篠山市大沢1丁目11-7","lat":35.05736153,"lon":135.17402144},{"name":"大沢中台児童遊園（スポットガーデン）","province":"兵庫県","city":"丹波篠山市","address":"兵庫県丹波篠山市大沢1丁目9-1","lat":35.05746707,"lon":135.17296876},{"name":"大沢高台児童遊園","province":"兵庫県","city":"丹波篠山市","address":"兵庫県丹波篠山市大沢1丁目11-7","lat":35.05736153,"lon":135.17402144},{"name":"大沢中台児童遊園（スポットガーデン）","province":"兵庫県","city":"丹波篠山市","address":"兵庫県丹波篠山市大沢1丁目9-1","lat":35.05746707,"lon":135.17296876},{"name":"大沢高台児童遊園","province":"兵庫県","city":"丹波篠山市","address":"兵庫県丹波篠山市大沢1丁目11-7","lat":35.05736153,"lon":135.17402144}]}