{"keyword":"スモッグ","data":[{"name":"六仙公園","province":"東京都","city":"東久留米市","address":"東久留米市中央町三丁目","lat":35.750302,"lon":139.522698},{"name":"南沢浄水所","province":"東京都","city":"東久留米市","address":"東京都東久留米市南沢3丁目9-21","lat":35.75193708,"lon":139.52583381},{"name":"滝山浄水所","province":"東京都","city":"東久留米市","address":"東京都東久留米市滝山6丁目1-1","lat":35.74739829,"lon":139.50739394},{"name":"東久留米市立滝山公園","province":"東京都","city":"東久留米市","address":"東京都東久留米市滝山2丁目4","lat":35.74556523,"lon":139.51002988},{"name":"柳泉園組合グラウンド","province":"東京都","city":"東久留米市","address":"東京都東久留米市下里4丁目3-10","lat":35.75475824,"lon":139.49449483},{"name":"(有)山下商事","province":"東京都","city":"東久留米市","address":"東久留米市八幡町2-11-53","lat":35.752308,"lon":139.510056},{"name":"六仙公園","province":"東京都","city":"東久留米市","address":"東久留米市中央町三丁目","lat":35.750302,"lon":139.522698},{"name":"(有)山下商事","province":"東京都","city":"東久留米市","address":"東久留米市八幡町2-11-53","lat":35.752308,"lon":139.510056},{"name":"六仙公園","province":"東京都","city":"東久留米市","address":"東久留米市中央町三丁目","lat":35.750302,"lon":139.522698},{"name":"(有)山下商事","province":"東京都","city":"東久留米市","address":"東久留米市八幡町2-11-53","lat":35.752308,"lon":139.510056},{"name":"六仙公園","province":"東京都","city":"東久留米市","address":"東久留米市中央町三丁目","lat":35.750302,"lon":139.522698},{"name":"(有)山下商事","province":"東京都","city":"東久留米市","address":"東久留米市八幡町2-11-53","lat":35.752308,"lon":139.510056},{"name":"六仙公園","province":"東京都","city":"東久留米市","address":"東久留米市中央町三丁目","lat":35.750302,"lon":139.522698},{"name":"(有)山下商事","province":"東京都","city":"東久留米市","address":"東久留米市八幡町2-11-53","lat":35.752308,"lon":139.510056},{"name":"六仙公園","province":"東京都","city":"東久留米市","address":"東久留米市中央町三丁目","lat":35.750302,"lon":139.522698},{"name":"(有)山下商事","province":"東京都","city":"東久留米市","address":"東久留米市八幡町2-11-53","lat":35.752308,"lon":139.510056},{"name":"六仙公園","province":"東京都","city":"東久留米市","address":"東久留米市中央町三丁目","lat":35.750302,"lon":139.522698},{"name":"(有)山下商事","province":"東京都","city":"東久留米市","address":"東久留米市八幡町2-11-53","lat":35.752308,"lon":139.510056},{"name":"六仙公園","province":"東京都","city":"東久留米市","address":"東久留米市中央町三丁目","lat":35.750302,"lon":139.522698},{"name":"(有)山下商事","province":"東京都","city":"東久留米市","address":"東久留米市八幡町2-11-53","lat":35.752308,"lon":139.510056},{"name":"六仙公園","province":"東京都","city":"東久留米市","address":"東久留米市中央町三丁目","lat":35.750302,"lon":139.522698},{"name":"(有)山下商事","province":"東京都","city":"東久留米市","address":"東久留米市八幡町2-11-53","lat":35.752308,"lon":139.510056},{"name":"六仙公園","province":"東京都","city":"東久留米市","address":"東久留米市中央町三丁目","lat":35.750302,"lon":139.522698},{"name":"(有)山下商事","province":"東京都","city":"東久留米市","address":"東久留米市八幡町2-11-53","lat":35.752308,"lon":139.510056},{"name":"六仙公園","province":"東京都","city":"東久留米市","address":"東久留米市中央町三丁目","lat":35.750302,"lon":139.522698},{"name":"(有)山下商事","province":"東京都","city":"東久留米市","address":"東久留米市八幡町2-11-53","lat":35.752308,"lon":139.510056},{"name":"六仙公園","province":"東京都","city":"東久留米市","address":"東久留米市中央町三丁目","lat":35.750302,"lon":139.522698},{"name":"(有)山下商事","province":"東京都","city":"東久留米市","address":"東久留米市八幡町2-11-53","lat":35.752308,"lon":139.510056},{"name":"六仙公園","province":"東京都","city":"東久留米市","address":"東久留米市中央町三丁目","lat":35.750302,"lon":139.522698},{"name":"(有)山下商事","province":"東京都","city":"東久留米市","address":"東久留米市八幡町2-11-53","lat":35.752308,"lon":139.510056},{"name":"六仙公園","province":"東京都","city":"東久留米市","address":"東久留米市中央町三丁目","lat":35.750302,"lon":139.522698},{"name":"(有)山下商事","province":"東京都","city":"東久留米市","address":"東久留米市八幡町2-11-53","lat":35.752308,"lon":139.510056},{"name":"六仙公園","province":"東京都","city":"東久留米市","address":"東久留米市中央町三丁目","lat":35.750302,"lon":139.522698},{"name":"(有)山下商事","province":"東京都","city":"東久留米市","address":"東久留米市八幡町2-11-53","lat":35.752308,"lon":139.510056},{"name":"六仙公園","province":"東京都","city":"東久留米市","address":"東久留米市中央町三丁目","lat":35.750302,"lon":139.522698},{"name":"(有)山下商事","province":"東京都","city":"東久留米市","address":"東久留米市八幡町2-11-53","lat":35.752308,"lon":139.510056},{"name":"六仙公園","province":"東京都","city":"東久留米市","address":"東久留米市中央町三丁目","lat":35.750302,"lon":139.522698},{"name":"(有)山下商事","province":"東京都","city":"東久留米市","address":"東久留米市八幡町2-11-53","lat":35.752308,"lon":139.510056},{"name":"六仙公園","province":"東京都","city":"東久留米市","address":"東久留米市中央町三丁目","lat":35.750302,"lon":139.522698},{"name":"(有)山下商事","province":"東京都","city":"東久留米市","address":"東久留米市八幡町2-11-53","lat":35.752308,"lon":139.510056},{"name":"六仙公園","province":"東京都","city":"東久留米市","address":"東久留米市中央町三丁目","lat":35.750302,"lon":139.522698},{"name":"(有)山下商事","province":"東京都","city":"東久留米市","address":"東久留米市八幡町2-11-53","lat":35.752308,"lon":139.510056},{"name":"六仙公園","province":"東京都","city":"東久留米市","address":"東久留米市中央町三丁目","lat":35.750302,"lon":139.522698},{"name":"(有)山下商事","province":"東京都","city":"東久留米市","address":"東久留米市八幡町2-11-53","lat":35.752308,"lon":139.510056},{"name":"六仙公園","province":"東京都","city":"東久留米市","address":"東久留米市中央町三丁目","lat":35.750302,"lon":139.522698},{"name":"(有)山下商事","province":"東京都","city":"東久留米市","address":"東久留米市八幡町2-11-53","lat":35.752308,"lon":139.510056},{"name":"六仙公園","province":"東京都","city":"東久留米市","address":"東久留米市中央町三丁目","lat":35.750302,"lon":139.522698},{"name":"(有)山下商事","province":"東京都","city":"東久留米市","address":"東久留米市八幡町2-11-53","lat":35.752308,"lon":139.510056},{"name":"六仙公園","province":"東京都","city":"東久留米市","address":"東久留米市中央町三丁目","lat":35.750302,"lon":139.522698},{"name":"(有)山下商事","province":"東京都","city":"東久留米市","address":"東久留米市八幡町2-11-53","lat":35.752308,"lon":139.510056},{"name":"六仙公園","province":"東京都","city":"東久留米市","address":"東久留米市中央町三丁目","lat":35.750302,"lon":139.522698},{"name":"(有)山下商事","province":"東京都","city":"東久留米市","address":"東久留米市八幡町2-11-53","lat":35.752308,"lon":139.510056},{"name":"六仙公園","province":"東京都","city":"東久留米市","address":"東久留米市中央町三丁目","lat":35.750302,"lon":139.522698},{"name":"(有)山下商事","province":"東京都","city":"東久留米市","address":"東久留米市八幡町2-11-53","lat":35.752308,"lon":139.510056},{"name":"六仙公園","province":"東京都","city":"東久留米市","address":"東久留米市中央町三丁目","lat":35.750302,"lon":139.522698},{"name":"(有)山下商事","province":"東京都","city":"東久留米市","address":"東久留米市八幡町2-11-53","lat":35.752308,"lon":139.510056},{"name":"六仙公園","province":"東京都","city":"東久留米市","address":"東久留米市中央町三丁目","lat":35.750302,"lon":139.522698},{"name":"(有)山下商事","province":"東京都","city":"東久留米市","address":"東久留米市八幡町2-11-53","lat":35.752308,"lon":139.510056},{"name":"六仙公園","province":"東京都","city":"東久留米市","address":"東久留米市中央町三丁目","lat":35.750302,"lon":139.522698},{"name":"(有)山下商事","province":"東京都","city":"東久留米市","address":"東久留米市八幡町2-11-53","lat":35.752308,"lon":139.510056},{"name":"六仙公園","province":"東京都","city":"東久留米市","address":"東久留米市中央町三丁目","lat":35.750302,"lon":139.522698},{"name":"(有)山下商事","province":"東京都","city":"東久留米市","address":"東久留米市八幡町2-11-53","lat":35.752308,"lon":139.510056},{"name":"六仙公園","province":"東京都","city":"東久留米市","address":"東久留米市中央町三丁目","lat":35.750302,"lon":139.522698},{"name":"(有)山下商事","province":"東京都","city":"東久留米市","address":"東久留米市八幡町2-11-53","lat":35.752308,"lon":139.510056},{"name":"六仙公園","province":"東京都","city":"東久留米市","address":"東久留米市中央町三丁目","lat":35.750302,"lon":139.522698},{"name":"(有)山下商事","province":"東京都","city":"東久留米市","address":"東久留米市八幡町2-11-53","lat":35.752308,"lon":139.510056},{"name":"六仙公園","province":"東京都","city":"東久留米市","address":"東久留米市中央町三丁目","lat":35.750302,"lon":139.522698},{"name":"(有)山下商事","province":"東京都","city":"東久留米市","address":"東久留米市八幡町2-11-53","lat":35.752308,"lon":139.510056},{"name":"六仙公園","province":"東京都","city":"東久留米市","address":"東久留米市中央町三丁目","lat":35.750302,"lon":139.522698},{"name":"(有)山下商事","province":"東京都","city":"東久留米市","address":"東久留米市八幡町2-11-53","lat":35.752308,"lon":139.510056},{"name":"六仙公園","province":"東京都","city":"東久留米市","address":"東久留米市中央町三丁目","lat":35.750302,"lon":139.522698},{"name":"(有)山下商事","province":"東京都","city":"東久留米市","address":"東久留米市八幡町2-11-53","lat":35.752308,"lon":139.510056},{"name":"六仙公園","province":"東京都","city":"東久留米市","address":"東久留米市中央町三丁目","lat":35.750302,"lon":139.522698},{"name":"(有)山下商事","province":"東京都","city":"東久留米市","address":"東久留米市八幡町2-11-53","lat":35.752308,"lon":139.510056},{"name":"六仙公園","province":"東京都","city":"東久留米市","address":"東久留米市中央町三丁目","lat":35.750302,"lon":139.522698},{"name":"(有)山下商事","province":"東京都","city":"東久留米市","address":"東久留米市八幡町2-11-53","lat":35.752308,"lon":139.510056},{"name":"六仙公園","province":"東京都","city":"東久留米市","address":"東久留米市中央町三丁目","lat":35.750302,"lon":139.522698},{"name":"(有)山下商事","province":"東京都","city":"東久留米市","address":"東久留米市八幡町2-11-53","lat":35.752308,"lon":139.510056},{"name":"六仙公園","province":"東京都","city":"東久留米市","address":"東久留米市中央町三丁目","lat":35.750302,"lon":139.522698},{"name":"(有)山下商事","province":"東京都","city":"東久留米市","address":"東久留米市八幡町2-11-53","lat":35.752308,"lon":139.510056},{"name":"六仙公園","province":"東京都","city":"東久留米市","address":"東久留米市中央町三丁目","lat":35.750302,"lon":139.522698},{"name":"(有)山下商事","province":"東京都","city":"東久留米市","address":"東久留米市八幡町2-11-53","lat":35.752308,"lon":139.510056},{"name":"六仙公園","province":"東京都","city":"東久留米市","address":"東久留米市中央町三丁目","lat":35.750302,"lon":139.522698},{"name":"(有)山下商事","province":"東京都","city":"東久留米市","address":"東久留米市八幡町2-11-53","lat":35.752308,"lon":139.510056},{"name":"六仙公園","province":"東京都","city":"東久留米市","address":"東久留米市中央町三丁目","lat":35.750302,"lon":139.522698},{"name":"(有)山下商事","province":"東京都","city":"東久留米市","address":"東久留米市八幡町2-11-53","lat":35.752308,"lon":139.510056},{"name":"六仙公園","province":"東京都","city":"東久留米市","address":"東久留米市中央町三丁目","lat":35.750302,"lon":139.522698},{"name":"(有)山下商事","province":"東京都","city":"東久留米市","address":"東久留米市八幡町2-11-53","lat":35.752308,"lon":139.510056},{"name":"六仙公園","province":"東京都","city":"東久留米市","address":"東久留米市中央町三丁目","lat":35.750302,"lon":139.522698},{"name":"(有)山下商事","province":"東京都","city":"東久留米市","address":"東久留米市八幡町2-11-53","lat":35.752308,"lon":139.510056},{"name":"六仙公園","province":"東京都","city":"東久留米市","address":"東久留米市中央町三丁目","lat":35.750302,"lon":139.522698},{"name":"(有)山下商事","province":"東京都","city":"東久留米市","address":"東久留米市八幡町2-11-53","lat":35.752308,"lon":139.510056},{"name":"六仙公園","province":"東京都","city":"東久留米市","address":"東久留米市中央町三丁目","lat":35.750302,"lon":139.522698},{"name":"(有)山下商事","province":"東京都","city":"東久留米市","address":"東久留米市八幡町2-11-53","lat":35.752308,"lon":139.510056},{"name":"六仙公園","province":"東京都","city":"東久留米市","address":"東久留米市中央町三丁目","lat":35.750302,"lon":139.522698},{"name":"(有)山下商事","province":"東京都","city":"東久留米市","address":"東久留米市八幡町2-11-53","lat":35.752308,"lon":139.510056}]}