{"keyword":"センター","data":[{"name":"滝山地区センター","province":"東京都","city":"東久留米市","address":"東久留米市滝山4-1-10","lat":35.74485,"lon":139.50525},{"name":"大門町地区センター","province":"東京都","city":"東久留米市","address":"東久留米市大門町2-10-5","lat":35.7648,"lon":139.54089},{"name":"浅間町地区センター","province":"東京都","city":"東久留米市","address":"東久留米市浅間町2-24-16","lat":35.75787,"lon":139.54146},{"name":"ひばりが丘地区センター","province":"東京都","city":"東久留米市","address":"東久留米市ひばりが丘団地185","lat":35.74645,"lon":139.53427},{"name":"南町地区センター","province":"東京都","city":"東久留米市","address":"東久留米市南町3-9-45","lat":35.74057,"lon":139.52034},{"name":"野火止地区センター","province":"東京都","city":"東久留米市","address":"東久留米市野火止2-1-83","lat":35.76219,"lon":139.51338},{"name":"中央町地区センター","province":"東京都","city":"東久留米市","address":"東久留米市中央町6-1-1","lat":35.75576,"lon":139.51939},{"name":"滝山地区センター","province":"東京都","city":"東久留米市","address":"東久留米市滝山4-1-10","lat":35.744901,"lon":139.504464},{"name":"大門町地区センター","province":"東京都","city":"東久留米市","address":"東久留米市大門町2-10-5","lat":35.764864,"lon":139.540735},{"name":"浅間町地区センター","province":"東京都","city":"東久留米市","address":"東久留米市浅間町2-24-16","lat":35.757842,"lon":139.541724},{"name":"ひばりが丘地区センター","province":"東京都","city":"東久留米市","address":"東久留米市ひばりが丘団地185","lat":35.746507,"lon":139.534244},{"name":"南町地区センター","province":"東京都","city":"東久留米市","address":"東久留米市南町3-9-45","lat":35.740758,"lon":139.520254},{"name":"野火止地区センター","province":"東京都","city":"東久留米市","address":"東久留米市野火止2-1-83","lat":35.763572,"lon":139.513323},{"name":"中央町地区センター","province":"東京都","city":"東久留米市","address":"東久留米市中央町6-1-1","lat":35.755912,"lon":139.519698}]}