{"keyword":"保健","data":[{"name":"上の原さくら保育園","province":"東京都","city":"東久留米市","address":"東久留米市上の原1-2-44","lat":35.768713,"lon":139.542057},{"name":"久留米みのり保育園","province":"東京都","city":"東久留米市","address":"東久留米市大門町1-3-4","lat":35.763708,"lon":139.538477},{"name":"しんかわ保育園","province":"東京都","city":"東久留米市","address":"東久留米市新川町1-1-12","lat":35.758064,"lon":139.537238},{"name":"Ｎｉｃｏｔ東久留米","province":"東京都","city":"東久留米市","address":"東久留米市東本町1-8Emio東久留米1F","lat":35.760772,"lon":139.533813},{"name":"ひばり保育園","province":"東京都","city":"東久留米市","address":"東久留米市ひばりが丘団地8-10","lat":35.747535,"lon":139.531614},{"name":"わらべみなみ保育園","province":"東京都","city":"東久留米市","address":"東久留米市南町1-8-51","lat":35.742263,"lon":139.525376},{"name":"かたばみ保育園","province":"東京都","city":"東久留米市","address":"東久留米市前沢1-4-35","lat":35.744877,"lon":139.517468},{"name":"まえさわ保育園","province":"東京都","city":"東久留米市","address":"東久留米市前沢1-5-30","lat":35.748096,"lon":139.515482},{"name":"たきやま保育園","province":"東京都","city":"東久留米市","address":"東久留米市滝山6-1-2","lat":35.74654,"lon":139.507266},{"name":"滝山しおん保育園","province":"東京都","city":"東久留米市","address":"東久留米市滝山7-5-12","lat":35.748073,"lon":139.507183},{"name":"はちまん保育園","province":"東京都","city":"東久留米市","address":"東久留米市八幡町2-14-22","lat":35.756222,"lon":139.513732},{"name":"あそか保育園","province":"東京都","city":"東久留米市","address":"東久留米市下里4-1-21","lat":35.7541,"lon":139.497181},{"name":"はくさん保育園","province":"東京都","city":"東久留米市","address":"東久留米市下里3-2-23","lat":35.752431,"lon":139.502886},{"name":"下里しおん保育園","province":"東京都","city":"東久留米市","address":"東久留米市下里7-8-20","lat":35.759916,"lon":139.502927},{"name":"くるみ保育園","province":"東京都","city":"東久留米市","address":"東久留米市柳窪2-15-6","lat":35.745165,"lon":139.49574},{"name":"さいわい保育園","province":"東京都","city":"東久留米市","address":"東久留米市幸町1-17-1","lat":35.761791,"lon":139.523534},{"name":"東久留米おひさま保育園","province":"東京都","city":"東久留米市","address":"東久留米市幸町1-21-14","lat":35.760678,"lon":139.523417},{"name":"いちご保育園","province":"東京都","city":"東久留米市","address":"東久留米市本町1-5-15","lat":35.759439,"lon":139.533936},{"name":"ちゅうおう保育園","province":"東京都","city":"東久留米市","address":"東久留米市中央町1-2-4","lat":35.756798,"lon":139.526867},{"name":"こでまり保育園","province":"東京都","city":"東久留米市","address":"東久留米市中央町2-3-57","lat":35.753765,"lon":139.521726},{"name":"ライフパートナーこぶし","province":"東京都","city":"東久留米市","address":"東久留米市氷川台2-31-19","lat":35.768602,"lon":139.531183},{"name":"東久留米市わくわく健康プラザ内保健センター","province":"東京都","city":"東久留米市","address":"東久留米市滝山4-3-14","lat":35.742288,"lon":139.504483},{"name":"六仙公園","province":"東京都","city":"東久留米市","address":"東京都東久留米市中央町3丁目24","lat":35.749351,"lon":139.522606},{"name":"東久留米サービスステーション１階　だれでもトイレ","province":"東京都","city":"東久留米市","address":"東京都東久留米市滝山6丁目1-1","lat":35.747463,"lon":139.507362},{"name":"竹林公園","province":"東京都","city":"東久留米市","address":"東京都東久留米市南沢1丁目7","lat":35.75444,"lon":139.534602},{"name":"東久留米市役所","province":"東京都","city":"東久留米市","address":"東京都東久留米市本町3丁目3-1","lat":35.757969,"lon":139.52975},{"name":"東久留米市役所","province":"東京都","city":"東久留米市","address":"東京都東久留米市本町3丁目3-1","lat":35.758033,"lon":139.529989},{"name":"東久留米市役所ごみ対策課庁舎","province":"東京都","city":"東久留米市","address":"東京都東久留米市八幡町2丁目10-10","lat":35.751762,"lon":139.509338},{"name":"東久留米市西部地域センター","province":"東京都","city":"東久留米市","address":"東京都東久留米市滝山4丁目1-10","lat":35.744934,"lon":139.504489},{"name":"東久留米市西部地域センター","province":"東京都","city":"東久留米市","address":"東京都東久留米市滝山4丁目1-10","lat":35.744936,"lon":139.504505},{"name":"東久留米市南部地域センター","province":"東京都","city":"東久留米市","address":"東京都東久留米市ひばりが丘団地185","lat":35.746469,"lon":139.534367},{"name":"東久留米市東部地域センター","province":"東京都","city":"東久留米市","address":"東京都東久留米市大門町2丁目10","lat":35.764784,"lon":139.541057},{"name":"東久留米市東部地域センター","province":"東京都","city":"東久留米市","address":"東京都東久留米市大門町2丁目10-5","lat":35.764888,"lon":139.540848},{"name":"東久留米市八幡町地区センター","province":"東京都","city":"東久留米市","address":"東京都東久留米市八幡町2丁目7-61","lat":35.753627,"lon":139.515253},{"name":"東久留米市南町地区センター","province":"東京都","city":"東久留米市","address":"東京都東久留米市南町3丁目9-45","lat":35.740801,"lon":139.520218},{"name":"東久留米市中央町地区センター","province":"東京都","city":"東久留米市","address":"東京都東久留米市中央町6丁目1-1","lat":35.755885,"lon":139.519682},{"name":"東久留米市浅間町地区センター","province":"東京都","city":"東久留米市","address":"東京都東久留米市浅間町2丁目24-16","lat":35.757763,"lon":139.541777},{"name":"東久留米市野火止地区センター","province":"東京都","city":"東久留米市","address":"東京都東久留米市野火止2丁目1-83","lat":35.763548,"lon":139.513354},{"name":"わくわく健康プラザ","province":"東京都","city":"東久留米市","address":"東京都東久留米市滝山4丁目3-14","lat":35.742014,"lon":139.504699},{"name":"わくわく健康プラザ","province":"東京都","city":"東久留米市","address":"東京都東久留米市滝山4丁目3-14","lat":35.742458,"lon":139.504162},{"name":"わくわく健康プラザ","province":"東京都","city":"東久留米市","address":"東京都東久留米市滝山4丁目3-14","lat":35.742305,"lon":139.504761},{"name":"わくわく健康プラザ","province":"東京都","city":"東久留米市","address":"東京都東久留米市滝山4丁目3-14","lat":35.742196,"lon":139.504016},{"name":"東久留米市立中央図書館","province":"東京都","city":"東久留米市","address":"東京都東久留米市中央町2丁目6-23","lat":35.755282,"lon":139.521758},{"name":"東久留米市立生涯学習センター","province":"東京都","city":"東久留米市","address":"東京都東久留米市中央町2丁目6-23","lat":35.755456,"lon":139.522474},{"name":"東久留米市スポーツセンター","province":"東京都","city":"東久留米市","address":"東京都東久留米市大門町2丁目14-37","lat":35.762061,"lon":139.544357},{"name":"東久留米市スポーツセンター","province":"東京都","city":"東久留米市","address":"東京都東久留米市大門町2丁目14-37","lat":35.762045,"lon":139.544367},{"name":"東久留米市スポーツセンター","province":"東京都","city":"東久留米市","address":"東京都東久留米市大門町2丁目14-37","lat":35.762025,"lon":139.544414},{"name":"東久留米市スポーツセンター","province":"東京都","city":"東久留米市","address":"東京都東久留米市大門町2丁目14-37","lat":35.762027,"lon":139.544428},{"name":"東久留米市スポーツセンター","province":"東京都","city":"東久留米市","address":"東京都東久留米市大門町2丁目14-37","lat":35.762247,"lon":139.544415},{"name":"白山公園","province":"東京都","city":"東久留米市","address":"東京都東久留米市滝山7丁目24","lat":35.751091,"lon":139.502263},{"name":"滝山公園","province":"東京都","city":"東久留米市","address":"東京都東久留米市滝山2丁目4","lat":35.745814,"lon":139.5095},{"name":"小山台遺跡公園","province":"東京都","city":"東久留米市","address":"東京都東久留米市小山1丁目10","lat":35.764981,"lon":139.529125},{"name":"神山堂阪公園","province":"東京都","city":"東久留米市","address":"東京都東久留米市神宝町2丁目10","lat":35.76999,"lon":139.54617},{"name":"下里本邑遺跡公園","province":"東京都","city":"東久留米市","address":"東京都東久留米市野火止3丁目4","lat":35.761256,"lon":139.508573},{"name":"西口中央公園","province":"東京都","city":"東久留米市","address":"東京都東久留米市本町1丁目12","lat":35.758743,"lon":139.534345},{"name":"小山れんげ公園","province":"東京都","city":"東久留米市","address":"東京都東久留米市小山2丁目1","lat":35.762059,"lon":139.528013},{"name":"東口中央公園","province":"東京都","city":"東久留米市","address":"東京都東久留米市新川町1丁目10","lat":35.760622,"lon":139.535873},{"name":"南沢水辺公園","province":"東京都","city":"東久留米市","address":"東京都東久留米市南沢3丁目4","lat":35.753535,"lon":139.527889},{"name":"さいかちの道","province":"東京都","city":"東久留米市","address":"東京都東久留米市柳窪4丁目7","lat":35.745958,"lon":139.487739},{"name":"しんやま親水広場","province":"東京都","city":"東久留米市","address":"東京都東久留米市下里4丁目1","lat":35.753862,"lon":139.500538},{"name":"上の原東公園","province":"東京都","city":"東久留米市","address":"東京都東久留米市上の原2丁目3","lat":35.772445,"lon":139.545384},{"name":"東久留米駅西口昇降施設身障者用便所","province":"東京都","city":"東久留米市","address":"東京都東久留米市本町1丁目4","lat":35.760148,"lon":139.533907},{"name":"南町運動広場","province":"東京都","city":"東久留米市","address":"東京都東久留米市南町1丁目8","lat":35.740759,"lon":139.525504},{"name":"上の原テニスコート","province":"東京都","city":"東久留米市","address":"東京都東久留米市上の原1丁目6","lat":35.772192,"lon":139.542943},{"name":"けやき児童館","province":"東京都","city":"東久留米市","address":"東京都東久留米市大門町2丁目10-5","lat":35.764808,"lon":139.541245},{"name":"子どもセンターひばり","province":"東京都","city":"東久留米市","address":"東京都東久留米市ひばりが丘団地8-11","lat":35.74719,"lon":139.531604},{"name":"子どもセンターあおぞら","province":"東京都","city":"東久留米市","address":"東京都東久留米市前沢4丁目25","lat":35.74582,"lon":139.511556},{"name":"東久留米市立中央児童館","province":"東京都","city":"東久留米市","address":"東京都東久留米市中央町1丁目10-11","lat":35.754914,"lon":139.524327},{"name":"上の原グラウンド","province":"東京都","city":"東久留米市","address":"東京都東久留米市上の原2丁目1","lat":35.770063,"lon":139.545554},{"name":"東久留米市立さいわい福祉センター","province":"東京都","city":"東久留米市","address":"東京都東久留米市幸町3丁目9-28","lat":35.759129,"lon":139.519197},{"name":"東久留米市立さいわい福祉センター","province":"東京都","city":"東久留米市","address":"東京都東久留米市幸町3丁目9-28","lat":35.759097,"lon":139.519163},{"name":"地域子ども家庭支援センター上の原","province":"東京都","city":"東久留米市","address":"東京都東久留米市上の原1丁目2-44","lat":35.768571,"lon":139.541898},{"name":"東久留米市わくわく健康プラザ","province":"東京都","city":"東久留米市","address":"東京都東久留米市滝山4丁目3-14","lat":35.74228769,"lon":139.5044833},{"name":"上の原さくら保育園","province":"東京都","city":"東久留米市","address":"東久留米市上の原1-2-44","lat":35.76878,"lon":139.54103},{"name":"久留米みのり保育園","province":"東京都","city":"東久留米市","address":"東久留米市大門町1-3-4","lat":35.76278,"lon":139.53877},{"name":"しんかわ保育園","province":"東京都","city":"東久留米市","address":"東久留米市新川町1-1-12","lat":35.7583,"lon":139.53708},{"name":"トレジャーキッズひがしくるめ保育園","province":"東京都","city":"東久留米市","address":"東久留米市新川町1-9-14サンライズ","lat":35.76189,"lon":139.53659},{"name":"Ｎｉｃｏｔ東久留米","province":"東京都","city":"東久留米市","address":"東久留米市東本町1-8Emio東久留米1F","lat":35.76096,"lon":139.53357},{"name":"まなびの森保育園ひばりヶ丘","province":"東京都","city":"東久留米市","address":"東久留米市学園町1-14-23","lat":35.75112,"lon":139.53976},{"name":"ひばり保育園","province":"東京都","city":"東久留米市","address":"東久留米市ひばりが丘団地8-10","lat":35.74722,"lon":139.53172},{"name":"わらべみなみ保育園","province":"東京都","city":"東久留米市","address":"東久留米市南町1-8-51","lat":35.74158,"lon":139.52573},{"name":"かたばみ保育園","province":"東京都","city":"東久留米市","address":"東久留米市前沢1-4-35","lat":35.74609,"lon":139.51709},{"name":"まえさわ保育園","province":"東京都","city":"東久留米市","address":"東久留米市前沢1-5-30","lat":35.74794,"lon":139.51509},{"name":"たきやま保育園","province":"東京都","city":"東久留米市","address":"東久留米市滝山6-1-2","lat":35.74607,"lon":139.5043},{"name":"滝山しおん保育園","province":"東京都","city":"東久留米市","address":"東久留米市滝山7-5-12","lat":35.74779,"lon":139.50757},{"name":"はちまん保育園","province":"東京都","city":"東久留米市","address":"東久留米市八幡町2-14-22","lat":35.75594,"lon":139.51439},{"name":"はくさん保育園","province":"東京都","city":"東久留米市","address":"東久留米市下里3-2-23","lat":35.75205,"lon":139.5031},{"name":"あそか保育園","province":"東京都","city":"東久留米市","address":"東久留米市下里4-1-21","lat":35.75221,"lon":139.49507},{"name":"下里しおん保育園","province":"東京都","city":"東久留米市","address":"東久留米市下里7-8-20","lat":35.76007,"lon":139.50226},{"name":"くるみ保育園","province":"東京都","city":"東久留米市","address":"東久留米市柳窪2-15-6","lat":35.74621,"lon":139.49533},{"name":"わらべ東久留米保育園","province":"東京都","city":"東久留米市","address":"東久留米市幸町1-1-24","lat":35.7595,"lon":139.52657},{"name":"東久留米おひさま保育園","province":"東京都","city":"東久留米市","address":"東久留米市幸町1-21-14","lat":35.7603,"lon":139.52333},{"name":"いちご保育園","province":"東京都","city":"東久留米市","address":"東久留米市本町1-5-15","lat":35.75942,"lon":139.53423},{"name":"ちゅうおう保育園","province":"東京都","city":"東久留米市","address":"東久留米市中央町1-2-4","lat":35.75691,"lon":139.5271},{"name":"こでまり保育園","province":"東京都","city":"東久留米市","address":"東久留米市中央町2-3-57","lat":35.75352,"lon":139.52118},{"name":"東久留米市わくわく健康プラザ","province":"東京都","city":"東久留米市","address":"東久留米市滝山4-3-14","lat":35.74133,"lon":139.50406},{"name":"社会福祉法人恩賜財団東京都同胞援護会東久留米市立さいわい福祉センター","province":"東京都","city":"東久留米市","address":"東京都東久留米市幸町3丁目9-28","lat":35.75904724,"lon":139.51928415},{"name":"特定非営利活動法人コイノニア就労支援事業所コイノニア","province":"東京都","city":"東久留米市","address":"東京都東久留米市滝山5丁目1-16","lat":35.74620665,"lon":139.50325825},{"name":"特定非営利活動法人武蔵野の里ぶどうの郷","province":"東京都","city":"東久留米市","address":"東京都東久留米市大門町1丁目2-4","lat":35.7638248,"lon":139.535802},{"name":"特定非営利活動法人武蔵野の里くるめパソコン作業所","province":"東京都","city":"東久留米市","address":"東京都東久留米市氷川台1丁目2-12","lat":35.76479967,"lon":139.53466594},{"name":"東久留米市わくわく健康プラザ内保健センター","province":"東京都","city":"東久留米市","address":"東久留米市滝山4-3-14","lat":35.74133,"lon":139.50406},{"name":"上の原さくら保育園","province":"東京都","city":"東久留米市","address":"東久留米市上の原1-2-44","lat":35.77181,"lon":139.54579},{"name":"南沢浄水所","province":"東京都","city":"東久留米市","address":"東京都東久留米市南沢3丁目9-21","lat":35.75193708,"lon":139.52583381},{"name":"滝山浄水所","province":"東京都","city":"東久留米市","address":"東京都東久留米市滝山6丁目1-1","lat":35.74739829,"lon":139.50739394},{"name":"東久留米市立滝山公園","province":"東京都","city":"東久留米市","address":"東京都東久留米市滝山2丁目4","lat":35.74556523,"lon":139.51002988},{"name":"柳泉園組合グラウンド","province":"東京都","city":"東久留米市","address":"東京都東久留米市下里4丁目3-10","lat":35.75475824,"lon":139.49449483},{"name":"東久留米市選挙管理委員会","province":"東京都","city":"東久留米市","address":"東久留米市本町3-3-1","lat":35.757965,"lon":139.529734},{"name":"東久留米市わくわく健康プラザ（健康課）","province":"東京都","city":"東久留米市","address":"東京都東久留米市滝山4丁目3-14","lat":35.74228769,"lon":139.5044833},{"name":"東久留米総合高等学校","province":"東京都","city":"東久留米市","address":"東京都東久留米市幸町5丁目8-46","lat":35.76245241,"lon":139.51957291},{"name":"久留米西高等学校","province":"東京都","city":"東久留米市","address":"東京都東久留米市野火止2丁目1-44","lat":35.76190233,"lon":139.51246801},{"name":"東久留米市本庁舎","province":"東京都","city":"東久留米市","address":"東京都東久留米市本町3丁目3-1","lat":35.75799202,"lon":139.52967216},{"name":"東久留米市立久留米中学校","province":"東京都","city":"東久留米市","address":"東京都東久留米市幸町5丁目9-11","lat":35.761708,"lon":139.51692595},{"name":"東久留米市立大門中学校","province":"東京都","city":"東久留米市","address":"東京都東久留米市大門町2丁目13-8","lat":35.7628556,"lon":139.54363203},{"name":"東久留米市本庁舎","province":"東京都","city":"東久留米市","address":"東久留米市本町3-3-1","lat":35.757992,"lon":139.529673},{"name":"※東久留米市本庁舎","province":"東京都","city":"東久留米市","address":"東京都東久留米市本町3丁目3-1","lat":35.75799202,"lon":139.52967216},{"name":"上の原さくら保育園","province":"東京都","city":"東久留米市","address":"東久留米市上の原1-2-44","lat":35.768713,"lon":139.542057},{"name":"久留米みのり保育園","province":"東京都","city":"東久留米市","address":"東久留米市大門町1-3-4","lat":35.763708,"lon":139.538477},{"name":"しんかわ保育園","province":"東京都","city":"東久留米市","address":"東久留米市新川町1-1-12","lat":35.758064,"lon":139.537238},{"name":"Ｎｉｃｏｔ東久留米","province":"東京都","city":"東久留米市","address":"東久留米市東本町1-8Emio東久留米1F","lat":35.760772,"lon":139.533813},{"name":"ひばり保育園","province":"東京都","city":"東久留米市","address":"東久留米市ひばりが丘団地8-10","lat":35.747535,"lon":139.531614},{"name":"わらべみなみ保育園","province":"東京都","city":"東久留米市","address":"東久留米市南町1-8-51","lat":35.742263,"lon":139.525376},{"name":"かたばみ保育園","province":"東京都","city":"東久留米市","address":"東久留米市前沢1-4-35","lat":35.744877,"lon":139.517468},{"name":"まえさわ保育園","province":"東京都","city":"東久留米市","address":"東久留米市前沢1-5-30","lat":35.748096,"lon":139.515482},{"name":"たきやま保育園","province":"東京都","city":"東久留米市","address":"東久留米市滝山6-1-2","lat":35.74654,"lon":139.507266},{"name":"滝山しおん保育園","province":"東京都","city":"東久留米市","address":"東久留米市滝山7-5-12","lat":35.748073,"lon":139.507183},{"name":"はちまん保育園","province":"東京都","city":"東久留米市","address":"東久留米市八幡町2-14-22","lat":35.756222,"lon":139.513732},{"name":"あそか保育園","province":"東京都","city":"東久留米市","address":"東久留米市下里4-1-21","lat":35.7541,"lon":139.497181},{"name":"はくさん保育園","province":"東京都","city":"東久留米市","address":"東久留米市下里3-2-23","lat":35.752431,"lon":139.502886},{"name":"下里しおん保育園","province":"東京都","city":"東久留米市","address":"東久留米市下里7-8-20","lat":35.759916,"lon":139.502927},{"name":"くるみ保育園","province":"東京都","city":"東久留米市","address":"東久留米市柳窪2-15-6","lat":35.745165,"lon":139.49574},{"name":"さいわい保育園","province":"東京都","city":"東久留米市","address":"東久留米市幸町1-17-1","lat":35.761791,"lon":139.523534},{"name":"東久留米おひさま保育園","province":"東京都","city":"東久留米市","address":"東久留米市幸町1-21-14","lat":35.760678,"lon":139.523417},{"name":"いちご保育園","province":"東京都","city":"東久留米市","address":"東久留米市本町1-5-15","lat":35.759439,"lon":139.533936},{"name":"ちゅうおう保育園","province":"東京都","city":"東久留米市","address":"東久留米市中央町1-2-4","lat":35.756798,"lon":139.526867},{"name":"こでまり保育園","province":"東京都","city":"東久留米市","address":"東久留米市中央町2-3-57","lat":35.753765,"lon":139.521726},{"name":"上の原さくら保育園","province":"東京都","city":"東久留米市","address":"東久留米市上の原1-2-44","lat":35.76878,"lon":139.54103},{"name":"久留米みのり保育園","province":"東京都","city":"東久留米市","address":"東久留米市大門町1-3-4","lat":35.76278,"lon":139.53877},{"name":"しんかわ保育園","province":"東京都","city":"東久留米市","address":"東久留米市新川町1-1-12","lat":35.7583,"lon":139.53708},{"name":"トレジャーキッズひがしくるめ保育園","province":"東京都","city":"東久留米市","address":"東久留米市新川町1-9-14サンライズ","lat":35.76189,"lon":139.53659},{"name":"Ｎｉｃｏｔ東久留米","province":"東京都","city":"東久留米市","address":"東久留米市東本町1-8Emio東久留米1F","lat":35.76096,"lon":139.53357},{"name":"まなびの森保育園ひばりヶ丘","province":"東京都","city":"東久留米市","address":"東久留米市学園町1-14-23","lat":35.75112,"lon":139.53976},{"name":"ひばり保育園","province":"東京都","city":"東久留米市","address":"東久留米市ひばりが丘団地8-10","lat":35.74722,"lon":139.53172},{"name":"わらべみなみ保育園","province":"東京都","city":"東久留米市","address":"東久留米市南町1-8-51","lat":35.74158,"lon":139.52573},{"name":"かたばみ保育園","province":"東京都","city":"東久留米市","address":"東久留米市前沢1-4-35","lat":35.74609,"lon":139.51709},{"name":"まえさわ保育園","province":"東京都","city":"東久留米市","address":"東久留米市前沢1-5-30","lat":35.74794,"lon":139.51509},{"name":"たきやま保育園","province":"東京都","city":"東久留米市","address":"東久留米市滝山6-1-2","lat":35.74607,"lon":139.5043},{"name":"滝山しおん保育園","province":"東京都","city":"東久留米市","address":"東久留米市滝山7-5-12","lat":35.74779,"lon":139.50757},{"name":"はちまん保育園","province":"東京都","city":"東久留米市","address":"東久留米市八幡町2-14-22","lat":35.75594,"lon":139.51439},{"name":"はくさん保育園","province":"東京都","city":"東久留米市","address":"東久留米市下里3-2-23","lat":35.75205,"lon":139.5031},{"name":"あそか保育園","province":"東京都","city":"東久留米市","address":"東久留米市下里4-1-21","lat":35.75221,"lon":139.49507},{"name":"下里しおん保育園","province":"東京都","city":"東久留米市","address":"東久留米市下里7-8-20","lat":35.76007,"lon":139.50226},{"name":"くるみ保育園","province":"東京都","city":"東久留米市","address":"東久留米市柳窪2-15-6","lat":35.74621,"lon":139.49533},{"name":"わらべ東久留米保育園","province":"東京都","city":"東久留米市","address":"東久留米市幸町1-1-24","lat":35.7595,"lon":139.52657},{"name":"東久留米おひさま保育園","province":"東京都","city":"東久留米市","address":"東久留米市幸町1-21-14","lat":35.7603,"lon":139.52333},{"name":"いちご保育園","province":"東京都","city":"東久留米市","address":"東久留米市本町1-5-15","lat":35.75942,"lon":139.53423},{"name":"ちゅうおう保育園","province":"東京都","city":"東久留米市","address":"東久留米市中央町1-2-4","lat":35.75691,"lon":139.5271},{"name":"こでまり保育園","province":"東京都","city":"東久留米市","address":"東久留米市中央町2-3-57","lat":35.75352,"lon":139.52118},{"name":"社会福祉法人恩賜財団東京都同胞援護会東久留米市立さいわい福祉センター","province":"東京都","city":"東久留米市","address":"東京都東久留米市幸町3丁目9-28","lat":35.75904724,"lon":139.51928415},{"name":"特定非営利活動法人コイノニア就労支援事業所コイノニア","province":"東京都","city":"東久留米市","address":"東京都東久留米市滝山5丁目1-16","lat":35.74620665,"lon":139.50325825},{"name":"特定非営利活動法人武蔵野の里ぶどうの郷","province":"東京都","city":"東久留米市","address":"東京都東久留米市大門町1丁目2-4","lat":35.7638248,"lon":139.535802},{"name":"特定非営利活動法人武蔵野の里くるめパソコン作業所","province":"東京都","city":"東久留米市","address":"東京都東久留米市氷川台1丁目2-12","lat":35.76479967,"lon":139.53466594},{"name":"上の原さくら保育園","province":"東京都","city":"東久留米市","address":"東久留米市上の原1-2-44","lat":35.77181,"lon":139.54579},{"name":"南沢浄水所","province":"東京都","city":"東久留米市","address":"東京都東久留米市南沢3丁目9-21","lat":35.75193708,"lon":139.52583381},{"name":"滝山浄水所","province":"東京都","city":"東久留米市","address":"東京都東久留米市滝山6丁目1-1","lat":35.74739829,"lon":139.50739394},{"name":"東久留米市立滝山公園","province":"東京都","city":"東久留米市","address":"東京都東久留米市滝山2丁目4","lat":35.74556523,"lon":139.51002988},{"name":"柳泉園組合グラウンド","province":"東京都","city":"東久留米市","address":"東京都東久留米市下里4丁目3-10","lat":35.75475824,"lon":139.49449483},{"name":"東久留米市選挙管理委員会","province":"東京都","city":"東久留米市","address":"東久留米市本町3-3-1","lat":35.757965,"lon":139.529734},{"name":"東久留米総合高等学校","province":"東京都","city":"東久留米市","address":"東京都東久留米市幸町5丁目8-46","lat":35.76245241,"lon":139.51957291},{"name":"久留米西高等学校","province":"東京都","city":"東久留米市","address":"東京都東久留米市野火止2丁目1-44","lat":35.76190233,"lon":139.51246801},{"name":"東久留米市本庁舎","province":"東京都","city":"東久留米市","address":"東京都東久留米市本町3丁目3-1","lat":35.75799202,"lon":139.52967216},{"name":"東久留米市立久留米中学校","province":"東京都","city":"東久留米市","address":"東京都東久留米市幸町5丁目9-11","lat":35.761708,"lon":139.51692595},{"name":"東久留米市立大門中学校","province":"東京都","city":"東久留米市","address":"東京都東久留米市大門町2丁目13-8","lat":35.7628556,"lon":139.54363203},{"name":"東久留米市本庁舎","province":"東京都","city":"東久留米市","address":"東久留米市本町3-3-1","lat":35.757992,"lon":139.529673},{"name":"※東久留米市本庁舎","province":"東京都","city":"東久留米市","address":"東京都東久留米市本町3丁目3-1","lat":35.75799202,"lon":139.52967216},{"name":"上の原さくら保育園","province":"東京都","city":"東久留米市","address":"東久留米市上の原1-2-44","lat":35.768713,"lon":139.542057},{"name":"久留米みのり保育園","province":"東京都","city":"東久留米市","address":"東久留米市大門町1-3-4","lat":35.763708,"lon":139.538477},{"name":"しんかわ保育園","province":"東京都","city":"東久留米市","address":"東久留米市新川町1-1-12","lat":35.758064,"lon":139.537238},{"name":"Ｎｉｃｏｔ東久留米","province":"東京都","city":"東久留米市","address":"東久留米市東本町1-8Emio東久留米1F","lat":35.760772,"lon":139.533813},{"name":"ひばり保育園","province":"東京都","city":"東久留米市","address":"東久留米市ひばりが丘団地8-10","lat":35.747535,"lon":139.531614},{"name":"わらべみなみ保育園","province":"東京都","city":"東久留米市","address":"東久留米市南町1-8-51","lat":35.742263,"lon":139.525376},{"name":"かたばみ保育園","province":"東京都","city":"東久留米市","address":"東久留米市前沢1-4-35","lat":35.744877,"lon":139.517468},{"name":"まえさわ保育園","province":"東京都","city":"東久留米市","address":"東久留米市前沢1-5-30","lat":35.748096,"lon":139.515482},{"name":"たきやま保育園","province":"東京都","city":"東久留米市","address":"東久留米市滝山6-1-2","lat":35.74654,"lon":139.507266},{"name":"滝山しおん保育園","province":"東京都","city":"東久留米市","address":"東久留米市滝山7-5-12","lat":35.748073,"lon":139.507183},{"name":"はちまん保育園","province":"東京都","city":"東久留米市","address":"東久留米市八幡町2-14-22","lat":35.756222,"lon":139.513732},{"name":"あそか保育園","province":"東京都","city":"東久留米市","address":"東久留米市下里4-1-21","lat":35.7541,"lon":139.497181},{"name":"はくさん保育園","province":"東京都","city":"東久留米市","address":"東久留米市下里3-2-23","lat":35.752431,"lon":139.502886},{"name":"下里しおん保育園","province":"東京都","city":"東久留米市","address":"東久留米市下里7-8-20","lat":35.759916,"lon":139.502927},{"name":"くるみ保育園","province":"東京都","city":"東久留米市","address":"東久留米市柳窪2-15-6","lat":35.745165,"lon":139.49574},{"name":"さいわい保育園","province":"東京都","city":"東久留米市","address":"東久留米市幸町1-17-1","lat":35.761791,"lon":139.523534},{"name":"東久留米おひさま保育園","province":"東京都","city":"東久留米市","address":"東久留米市幸町1-21-14","lat":35.760678,"lon":139.523417},{"name":"いちご保育園","province":"東京都","city":"東久留米市","address":"東久留米市本町1-5-15","lat":35.759439,"lon":139.533936},{"name":"ちゅうおう保育園","province":"東京都","city":"東久留米市","address":"東久留米市中央町1-2-4","lat":35.756798,"lon":139.526867},{"name":"こでまり保育園","province":"東京都","city":"東久留米市","address":"東久留米市中央町2-3-57","lat":35.753765,"lon":139.521726},{"name":"上の原さくら保育園","province":"東京都","city":"東久留米市","address":"東久留米市上の原1-2-44","lat":35.76878,"lon":139.54103},{"name":"久留米みのり保育園","province":"東京都","city":"東久留米市","address":"東久留米市大門町1-3-4","lat":35.76278,"lon":139.53877},{"name":"しんかわ保育園","province":"東京都","city":"東久留米市","address":"東久留米市新川町1-1-12","lat":35.7583,"lon":139.53708},{"name":"トレジャーキッズひがしくるめ保育園","province":"東京都","city":"東久留米市","address":"東久留米市新川町1-9-14サンライズ","lat":35.76189,"lon":139.53659},{"name":"Ｎｉｃｏｔ東久留米","province":"東京都","city":"東久留米市","address":"東久留米市東本町1-8Emio東久留米1F","lat":35.76096,"lon":139.53357},{"name":"まなびの森保育園ひばりヶ丘","province":"東京都","city":"東久留米市","address":"東久留米市学園町1-14-23","lat":35.75112,"lon":139.53976},{"name":"ひばり保育園","province":"東京都","city":"東久留米市","address":"東久留米市ひばりが丘団地8-10","lat":35.74722,"lon":139.53172},{"name":"わらべみなみ保育園","province":"東京都","city":"東久留米市","address":"東久留米市南町1-8-51","lat":35.74158,"lon":139.52573},{"name":"かたばみ保育園","province":"東京都","city":"東久留米市","address":"東久留米市前沢1-4-35","lat":35.74609,"lon":139.51709},{"name":"まえさわ保育園","province":"東京都","city":"東久留米市","address":"東久留米市前沢1-5-30","lat":35.74794,"lon":139.51509},{"name":"たきやま保育園","province":"東京都","city":"東久留米市","address":"東久留米市滝山6-1-2","lat":35.74607,"lon":139.5043},{"name":"滝山しおん保育園","province":"東京都","city":"東久留米市","address":"東久留米市滝山7-5-12","lat":35.74779,"lon":139.50757},{"name":"はちまん保育園","province":"東京都","city":"東久留米市","address":"東久留米市八幡町2-14-22","lat":35.75594,"lon":139.51439},{"name":"はくさん保育園","province":"東京都","city":"東久留米市","address":"東久留米市下里3-2-23","lat":35.75205,"lon":139.5031},{"name":"あそか保育園","province":"東京都","city":"東久留米市","address":"東久留米市下里4-1-21","lat":35.75221,"lon":139.49507},{"name":"下里しおん保育園","province":"東京都","city":"東久留米市","address":"東久留米市下里7-8-20","lat":35.76007,"lon":139.50226},{"name":"くるみ保育園","province":"東京都","city":"東久留米市","address":"東久留米市柳窪2-15-6","lat":35.74621,"lon":139.49533},{"name":"わらべ東久留米保育園","province":"東京都","city":"東久留米市","address":"東久留米市幸町1-1-24","lat":35.7595,"lon":139.52657},{"name":"東久留米おひさま保育園","province":"東京都","city":"東久留米市","address":"東久留米市幸町1-21-14","lat":35.7603,"lon":139.52333},{"name":"いちご保育園","province":"東京都","city":"東久留米市","address":"東久留米市本町1-5-15","lat":35.75942,"lon":139.53423},{"name":"ちゅうおう保育園","province":"東京都","city":"東久留米市","address":"東久留米市中央町1-2-4","lat":35.75691,"lon":139.5271},{"name":"こでまり保育園","province":"東京都","city":"東久留米市","address":"東久留米市中央町2-3-57","lat":35.75352,"lon":139.52118},{"name":"社会福祉法人恩賜財団東京都同胞援護会東久留米市立さいわい福祉センター","province":"東京都","city":"東久留米市","address":"東京都東久留米市幸町3丁目9-28","lat":35.75904724,"lon":139.51928415},{"name":"特定非営利活動法人コイノニア就労支援事業所コイノニア","province":"東京都","city":"東久留米市","address":"東京都東久留米市滝山5丁目1-16","lat":35.74620665,"lon":139.50325825},{"name":"特定非営利活動法人武蔵野の里ぶどうの郷","province":"東京都","city":"東久留米市","address":"東京都東久留米市大門町1丁目2-4","lat":35.7638248,"lon":139.535802},{"name":"特定非営利活動法人武蔵野の里くるめパソコン作業所","province":"東京都","city":"東久留米市","address":"東京都東久留米市氷川台1丁目2-12","lat":35.76479967,"lon":139.53466594},{"name":"上の原さくら保育園","province":"東京都","city":"東久留米市","address":"東久留米市上の原1-2-44","lat":35.77181,"lon":139.54579},{"name":"東久留米市本庁舎","province":"東京都","city":"東久留米市","address":"東京都東久留米市本町3丁目3-1","lat":35.75799202,"lon":139.52967216},{"name":"東久留米市立久留米中学校","province":"東京都","city":"東久留米市","address":"東京都東久留米市幸町5丁目9-11","lat":35.761708,"lon":139.51692595},{"name":"東久留米市立大門中学校","province":"東京都","city":"東久留米市","address":"東京都東久留米市大門町2丁目13-8","lat":35.7628556,"lon":139.54363203},{"name":"東久留米市本庁舎","province":"東京都","city":"東久留米市","address":"東久留米市本町3-3-1","lat":35.757992,"lon":139.529673},{"name":"※東久留米市本庁舎","province":"東京都","city":"東久留米市","address":"東京都東久留米市本町3丁目3-1","lat":35.75799202,"lon":139.52967216},{"name":"上の原さくら保育園","province":"東京都","city":"東久留米市","address":"東久留米市上の原1-2-44","lat":35.768713,"lon":139.542057},{"name":"久留米みのり保育園","province":"東京都","city":"東久留米市","address":"東久留米市大門町1-3-4","lat":35.763708,"lon":139.538477},{"name":"しんかわ保育園","province":"東京都","city":"東久留米市","address":"東久留米市新川町1-1-12","lat":35.758064,"lon":139.537238},{"name":"Ｎｉｃｏｔ東久留米","province":"東京都","city":"東久留米市","address":"東久留米市東本町1-8Emio東久留米1F","lat":35.760772,"lon":139.533813},{"name":"ひばり保育園","province":"東京都","city":"東久留米市","address":"東久留米市ひばりが丘団地8-10","lat":35.747535,"lon":139.531614},{"name":"わらべみなみ保育園","province":"東京都","city":"東久留米市","address":"東久留米市南町1-8-51","lat":35.742263,"lon":139.525376},{"name":"かたばみ保育園","province":"東京都","city":"東久留米市","address":"東久留米市前沢1-4-35","lat":35.744877,"lon":139.517468},{"name":"まえさわ保育園","province":"東京都","city":"東久留米市","address":"東久留米市前沢1-5-30","lat":35.748096,"lon":139.515482},{"name":"たきやま保育園","province":"東京都","city":"東久留米市","address":"東久留米市滝山6-1-2","lat":35.74654,"lon":139.507266},{"name":"滝山しおん保育園","province":"東京都","city":"東久留米市","address":"東久留米市滝山7-5-12","lat":35.748073,"lon":139.507183},{"name":"はちまん保育園","province":"東京都","city":"東久留米市","address":"東久留米市八幡町2-14-22","lat":35.756222,"lon":139.513732},{"name":"あそか保育園","province":"東京都","city":"東久留米市","address":"東久留米市下里4-1-21","lat":35.7541,"lon":139.497181},{"name":"はくさん保育園","province":"東京都","city":"東久留米市","address":"東久留米市下里3-2-23","lat":35.752431,"lon":139.502886},{"name":"下里しおん保育園","province":"東京都","city":"東久留米市","address":"東久留米市下里7-8-20","lat":35.759916,"lon":139.502927},{"name":"くるみ保育園","province":"東京都","city":"東久留米市","address":"東久留米市柳窪2-15-6","lat":35.745165,"lon":139.49574},{"name":"さいわい保育園","province":"東京都","city":"東久留米市","address":"東久留米市幸町1-17-1","lat":35.761791,"lon":139.523534},{"name":"東久留米おひさま保育園","province":"東京都","city":"東久留米市","address":"東久留米市幸町1-21-14","lat":35.760678,"lon":139.523417},{"name":"いちご保育園","province":"東京都","city":"東久留米市","address":"東久留米市本町1-5-15","lat":35.759439,"lon":139.533936},{"name":"ちゅうおう保育園","province":"東京都","city":"東久留米市","address":"東久留米市中央町1-2-4","lat":35.756798,"lon":139.526867},{"name":"こでまり保育園","province":"東京都","city":"東久留米市","address":"東久留米市中央町2-3-57","lat":35.753765,"lon":139.521726},{"name":"上の原さくら保育園","province":"東京都","city":"東久留米市","address":"東久留米市上の原1-2-44","lat":35.76878,"lon":139.54103},{"name":"久留米みのり保育園","province":"東京都","city":"東久留米市","address":"東久留米市大門町1-3-4","lat":35.76278,"lon":139.53877},{"name":"しんかわ保育園","province":"東京都","city":"東久留米市","address":"東久留米市新川町1-1-12","lat":35.7583,"lon":139.53708},{"name":"トレジャーキッズひがしくるめ保育園","province":"東京都","city":"東久留米市","address":"東久留米市新川町1-9-14サンライズ","lat":35.76189,"lon":139.53659},{"name":"Ｎｉｃｏｔ東久留米","province":"東京都","city":"東久留米市","address":"東久留米市東本町1-8Emio東久留米1F","lat":35.76096,"lon":139.53357},{"name":"まなびの森保育園ひばりヶ丘","province":"東京都","city":"東久留米市","address":"東久留米市学園町1-14-23","lat":35.75112,"lon":139.53976},{"name":"ひばり保育園","province":"東京都","city":"東久留米市","address":"東久留米市ひばりが丘団地8-10","lat":35.74722,"lon":139.53172},{"name":"わらべみなみ保育園","province":"東京都","city":"東久留米市","address":"東久留米市南町1-8-51","lat":35.74158,"lon":139.52573},{"name":"かたばみ保育園","province":"東京都","city":"東久留米市","address":"東久留米市前沢1-4-35","lat":35.74609,"lon":139.51709},{"name":"まえさわ保育園","province":"東京都","city":"東久留米市","address":"東久留米市前沢1-5-30","lat":35.74794,"lon":139.51509},{"name":"たきやま保育園","province":"東京都","city":"東久留米市","address":"東久留米市滝山6-1-2","lat":35.74607,"lon":139.5043},{"name":"滝山しおん保育園","province":"東京都","city":"東久留米市","address":"東久留米市滝山7-5-12","lat":35.74779,"lon":139.50757},{"name":"はちまん保育園","province":"東京都","city":"東久留米市","address":"東久留米市八幡町2-14-22","lat":35.75594,"lon":139.51439},{"name":"はくさん保育園","province":"東京都","city":"東久留米市","address":"東久留米市下里3-2-23","lat":35.75205,"lon":139.5031},{"name":"あそか保育園","province":"東京都","city":"東久留米市","address":"東久留米市下里4-1-21","lat":35.75221,"lon":139.49507},{"name":"下里しおん保育園","province":"東京都","city":"東久留米市","address":"東久留米市下里7-8-20","lat":35.76007,"lon":139.50226},{"name":"くるみ保育園","province":"東京都","city":"東久留米市","address":"東久留米市柳窪2-15-6","lat":35.74621,"lon":139.49533},{"name":"わらべ東久留米保育園","province":"東京都","city":"東久留米市","address":"東久留米市幸町1-1-24","lat":35.7595,"lon":139.52657},{"name":"東久留米おひさま保育園","province":"東京都","city":"東久留米市","address":"東久留米市幸町1-21-14","lat":35.7603,"lon":139.52333},{"name":"いちご保育園","province":"東京都","city":"東久留米市","address":"東久留米市本町1-5-15","lat":35.75942,"lon":139.53423},{"name":"ちゅうおう保育園","province":"東京都","city":"東久留米市","address":"東久留米市中央町1-2-4","lat":35.75691,"lon":139.5271},{"name":"こでまり保育園","province":"東京都","city":"東久留米市","address":"東久留米市中央町2-3-57","lat":35.75352,"lon":139.52118},{"name":"社会福祉法人恩賜財団東京都同胞援護会東久留米市立さいわい福祉センター","province":"東京都","city":"東久留米市","address":"東京都東久留米市幸町3丁目9-28","lat":35.75904724,"lon":139.51928415},{"name":"特定非営利活動法人コイノニア就労支援事業所コイノニア","province":"東京都","city":"東久留米市","address":"東京都東久留米市滝山5丁目1-16","lat":35.74620665,"lon":139.50325825},{"name":"特定非営利活動法人武蔵野の里ぶどうの郷","province":"東京都","city":"東久留米市","address":"東京都東久留米市大門町1丁目2-4","lat":35.7638248,"lon":139.535802},{"name":"特定非営利活動法人武蔵野の里くるめパソコン作業所","province":"東京都","city":"東久留米市","address":"東京都東久留米市氷川台1丁目2-12","lat":35.76479967,"lon":139.53466594},{"name":"上の原さくら保育園","province":"東京都","city":"東久留米市","address":"東久留米市上の原1-2-44","lat":35.77181,"lon":139.54579},{"name":"東久留米市本庁舎","province":"東京都","city":"東久留米市","address":"東京都東久留米市本町3丁目3-1","lat":35.75799202,"lon":139.52967216},{"name":"東久留米市立久留米中学校","province":"東京都","city":"東久留米市","address":"東京都東久留米市幸町5丁目9-11","lat":35.761708,"lon":139.51692595},{"name":"東久留米市立大門中学校","province":"東京都","city":"東久留米市","address":"東京都東久留米市大門町2丁目13-8","lat":35.7628556,"lon":139.54363203},{"name":"※東久留米市本庁舎","province":"東京都","city":"東久留米市","address":"東京都東久留米市本町3丁目3-1","lat":35.75799202,"lon":139.52967216},{"name":"上の原さくら保育園","province":"東京都","city":"東久留米市","address":"東久留米市上の原1-2-44","lat":35.768713,"lon":139.542057},{"name":"久留米みのり保育園","province":"東京都","city":"東久留米市","address":"東久留米市大門町1-3-4","lat":35.763708,"lon":139.538477},{"name":"しんかわ保育園","province":"東京都","city":"東久留米市","address":"東久留米市新川町1-1-12","lat":35.758064,"lon":139.537238},{"name":"Ｎｉｃｏｔ東久留米","province":"東京都","city":"東久留米市","address":"東久留米市東本町1-8Emio東久留米1F","lat":35.760772,"lon":139.533813},{"name":"ひばり保育園","province":"東京都","city":"東久留米市","address":"東久留米市ひばりが丘団地8-10","lat":35.747535,"lon":139.531614},{"name":"わらべみなみ保育園","province":"東京都","city":"東久留米市","address":"東久留米市南町1-8-51","lat":35.742263,"lon":139.525376},{"name":"かたばみ保育園","province":"東京都","city":"東久留米市","address":"東久留米市前沢1-4-35","lat":35.744877,"lon":139.517468},{"name":"まえさわ保育園","province":"東京都","city":"東久留米市","address":"東久留米市前沢1-5-30","lat":35.748096,"lon":139.515482},{"name":"たきやま保育園","province":"東京都","city":"東久留米市","address":"東久留米市滝山6-1-2","lat":35.74654,"lon":139.507266},{"name":"滝山しおん保育園","province":"東京都","city":"東久留米市","address":"東久留米市滝山7-5-12","lat":35.748073,"lon":139.507183},{"name":"はちまん保育園","province":"東京都","city":"東久留米市","address":"東久留米市八幡町2-14-22","lat":35.756222,"lon":139.513732},{"name":"あそか保育園","province":"東京都","city":"東久留米市","address":"東久留米市下里4-1-21","lat":35.7541,"lon":139.497181},{"name":"はくさん保育園","province":"東京都","city":"東久留米市","address":"東久留米市下里3-2-23","lat":35.752431,"lon":139.502886},{"name":"下里しおん保育園","province":"東京都","city":"東久留米市","address":"東久留米市下里7-8-20","lat":35.759916,"lon":139.502927},{"name":"くるみ保育園","province":"東京都","city":"東久留米市","address":"東久留米市柳窪2-15-6","lat":35.745165,"lon":139.49574},{"name":"さいわい保育園","province":"東京都","city":"東久留米市","address":"東久留米市幸町1-17-1","lat":35.761791,"lon":139.523534},{"name":"東久留米おひさま保育園","province":"東京都","city":"東久留米市","address":"東久留米市幸町1-21-14","lat":35.760678,"lon":139.523417},{"name":"いちご保育園","province":"東京都","city":"東久留米市","address":"東久留米市本町1-5-15","lat":35.759439,"lon":139.533936},{"name":"ちゅうおう保育園","province":"東京都","city":"東久留米市","address":"東久留米市中央町1-2-4","lat":35.756798,"lon":139.526867},{"name":"こでまり保育園","province":"東京都","city":"東久留米市","address":"東久留米市中央町2-3-57","lat":35.753765,"lon":139.521726},{"name":"上の原さくら保育園","province":"東京都","city":"東久留米市","address":"東久留米市上の原1-2-44","lat":35.76878,"lon":139.54103},{"name":"久留米みのり保育園","province":"東京都","city":"東久留米市","address":"東久留米市大門町1-3-4","lat":35.76278,"lon":139.53877},{"name":"しんかわ保育園","province":"東京都","city":"東久留米市","address":"東久留米市新川町1-1-12","lat":35.7583,"lon":139.53708},{"name":"トレジャーキッズひがしくるめ保育園","province":"東京都","city":"東久留米市","address":"東久留米市新川町1-9-14サンライズ","lat":35.76189,"lon":139.53659},{"name":"Ｎｉｃｏｔ東久留米","province":"東京都","city":"東久留米市","address":"東久留米市東本町1-8Emio東久留米1F","lat":35.76096,"lon":139.53357},{"name":"まなびの森保育園ひばりヶ丘","province":"東京都","city":"東久留米市","address":"東久留米市学園町1-14-23","lat":35.75112,"lon":139.53976},{"name":"ひばり保育園","province":"東京都","city":"東久留米市","address":"東久留米市ひばりが丘団地8-10","lat":35.74722,"lon":139.53172},{"name":"わらべみなみ保育園","province":"東京都","city":"東久留米市","address":"東久留米市南町1-8-51","lat":35.74158,"lon":139.52573},{"name":"かたばみ保育園","province":"東京都","city":"東久留米市","address":"東久留米市前沢1-4-35","lat":35.74609,"lon":139.51709},{"name":"まえさわ保育園","province":"東京都","city":"東久留米市","address":"東久留米市前沢1-5-30","lat":35.74794,"lon":139.51509},{"name":"たきやま保育園","province":"東京都","city":"東久留米市","address":"東久留米市滝山6-1-2","lat":35.74607,"lon":139.5043},{"name":"滝山しおん保育園","province":"東京都","city":"東久留米市","address":"東久留米市滝山7-5-12","lat":35.74779,"lon":139.50757},{"name":"はちまん保育園","province":"東京都","city":"東久留米市","address":"東久留米市八幡町2-14-22","lat":35.75594,"lon":139.51439},{"name":"はくさん保育園","province":"東京都","city":"東久留米市","address":"東久留米市下里3-2-23","lat":35.75205,"lon":139.5031},{"name":"あそか保育園","province":"東京都","city":"東久留米市","address":"東久留米市下里4-1-21","lat":35.75221,"lon":139.49507},{"name":"下里しおん保育園","province":"東京都","city":"東久留米市","address":"東久留米市下里7-8-20","lat":35.76007,"lon":139.50226},{"name":"くるみ保育園","province":"東京都","city":"東久留米市","address":"東久留米市柳窪2-15-6","lat":35.74621,"lon":139.49533},{"name":"わらべ東久留米保育園","province":"東京都","city":"東久留米市","address":"東久留米市幸町1-1-24","lat":35.7595,"lon":139.52657},{"name":"東久留米おひさま保育園","province":"東京都","city":"東久留米市","address":"東久留米市幸町1-21-14","lat":35.7603,"lon":139.52333},{"name":"いちご保育園","province":"東京都","city":"東久留米市","address":"東久留米市本町1-5-15","lat":35.75942,"lon":139.53423},{"name":"ちゅうおう保育園","province":"東京都","city":"東久留米市","address":"東久留米市中央町1-2-4","lat":35.75691,"lon":139.5271},{"name":"こでまり保育園","province":"東京都","city":"東久留米市","address":"東久留米市中央町2-3-57","lat":35.75352,"lon":139.52118},{"name":"社会福祉法人恩賜財団東京都同胞援護会東久留米市立さいわい福祉センター","province":"東京都","city":"東久留米市","address":"東京都東久留米市幸町3丁目9-28","lat":35.75904724,"lon":139.51928415},{"name":"特定非営利活動法人コイノニア就労支援事業所コイノニア","province":"東京都","city":"東久留米市","address":"東京都東久留米市滝山5丁目1-16","lat":35.74620665,"lon":139.50325825},{"name":"特定非営利活動法人武蔵野の里ぶどうの郷","province":"東京都","city":"東久留米市","address":"東京都東久留米市大門町1丁目2-4","lat":35.7638248,"lon":139.535802},{"name":"特定非営利活動法人武蔵野の里くるめパソコン作業所","province":"東京都","city":"東久留米市","address":"東京都東久留米市氷川台1丁目2-12","lat":35.76479967,"lon":139.53466594},{"name":"上の原さくら保育園","province":"東京都","city":"東久留米市","address":"東久留米市上の原1-2-44","lat":35.77181,"lon":139.54579},{"name":"東久留米市本庁舎","province":"東京都","city":"東久留米市","address":"東京都東久留米市本町3丁目3-1","lat":35.75799202,"lon":139.52967216},{"name":"東久留米市立久留米中学校","province":"東京都","city":"東久留米市","address":"東京都東久留米市幸町5丁目9-11","lat":35.761708,"lon":139.51692595},{"name":"東久留米市立大門中学校","province":"東京都","city":"東久留米市","address":"東京都東久留米市大門町2丁目13-8","lat":35.7628556,"lon":139.54363203},{"name":"上の原さくら保育園","province":"東京都","city":"東久留米市","address":"東久留米市上の原1-2-44","lat":35.768713,"lon":139.542057},{"name":"久留米みのり保育園","province":"東京都","city":"東久留米市","address":"東久留米市大門町1-3-4","lat":35.763708,"lon":139.538477},{"name":"しんかわ保育園","province":"東京都","city":"東久留米市","address":"東久留米市新川町1-1-12","lat":35.758064,"lon":139.537238},{"name":"Ｎｉｃｏｔ東久留米","province":"東京都","city":"東久留米市","address":"東久留米市東本町1-8Emio東久留米1F","lat":35.760772,"lon":139.533813},{"name":"ひばり保育園","province":"東京都","city":"東久留米市","address":"東久留米市ひばりが丘団地8-10","lat":35.747535,"lon":139.531614},{"name":"わらべみなみ保育園","province":"東京都","city":"東久留米市","address":"東久留米市南町1-8-51","lat":35.742263,"lon":139.525376},{"name":"かたばみ保育園","province":"東京都","city":"東久留米市","address":"東久留米市前沢1-4-35","lat":35.744877,"lon":139.517468},{"name":"まえさわ保育園","province":"東京都","city":"東久留米市","address":"東久留米市前沢1-5-30","lat":35.748096,"lon":139.515482},{"name":"たきやま保育園","province":"東京都","city":"東久留米市","address":"東久留米市滝山6-1-2","lat":35.74654,"lon":139.507266},{"name":"滝山しおん保育園","province":"東京都","city":"東久留米市","address":"東久留米市滝山7-5-12","lat":35.748073,"lon":139.507183},{"name":"はちまん保育園","province":"東京都","city":"東久留米市","address":"東久留米市八幡町2-14-22","lat":35.756222,"lon":139.513732},{"name":"あそか保育園","province":"東京都","city":"東久留米市","address":"東久留米市下里4-1-21","lat":35.7541,"lon":139.497181},{"name":"はくさん保育園","province":"東京都","city":"東久留米市","address":"東久留米市下里3-2-23","lat":35.752431,"lon":139.502886},{"name":"下里しおん保育園","province":"東京都","city":"東久留米市","address":"東久留米市下里7-8-20","lat":35.759916,"lon":139.502927},{"name":"くるみ保育園","province":"東京都","city":"東久留米市","address":"東久留米市柳窪2-15-6","lat":35.745165,"lon":139.49574},{"name":"さいわい保育園","province":"東京都","city":"東久留米市","address":"東久留米市幸町1-17-1","lat":35.761791,"lon":139.523534},{"name":"東久留米おひさま保育園","province":"東京都","city":"東久留米市","address":"東久留米市幸町1-21-14","lat":35.760678,"lon":139.523417},{"name":"いちご保育園","province":"東京都","city":"東久留米市","address":"東久留米市本町1-5-15","lat":35.759439,"lon":139.533936},{"name":"ちゅうおう保育園","province":"東京都","city":"東久留米市","address":"東久留米市中央町1-2-4","lat":35.756798,"lon":139.526867},{"name":"こでまり保育園","province":"東京都","city":"東久留米市","address":"東久留米市中央町2-3-57","lat":35.753765,"lon":139.521726},{"name":"上の原さくら保育園","province":"東京都","city":"東久留米市","address":"東久留米市上の原1-2-44","lat":35.76878,"lon":139.54103},{"name":"久留米みのり保育園","province":"東京都","city":"東久留米市","address":"東久留米市大門町1-3-4","lat":35.76278,"lon":139.53877},{"name":"しんかわ保育園","province":"東京都","city":"東久留米市","address":"東久留米市新川町1-1-12","lat":35.7583,"lon":139.53708},{"name":"トレジャーキッズひがしくるめ保育園","province":"東京都","city":"東久留米市","address":"東久留米市新川町1-9-14サンライズ","lat":35.76189,"lon":139.53659},{"name":"Ｎｉｃｏｔ東久留米","province":"東京都","city":"東久留米市","address":"東久留米市東本町1-8Emio東久留米1F","lat":35.76096,"lon":139.53357},{"name":"まなびの森保育園ひばりヶ丘","province":"東京都","city":"東久留米市","address":"東久留米市学園町1-14-23","lat":35.75112,"lon":139.53976},{"name":"ひばり保育園","province":"東京都","city":"東久留米市","address":"東久留米市ひばりが丘団地8-10","lat":35.74722,"lon":139.53172},{"name":"わらべみなみ保育園","province":"東京都","city":"東久留米市","address":"東久留米市南町1-8-51","lat":35.74158,"lon":139.52573},{"name":"かたばみ保育園","province":"東京都","city":"東久留米市","address":"東久留米市前沢1-4-35","lat":35.74609,"lon":139.51709},{"name":"まえさわ保育園","province":"東京都","city":"東久留米市","address":"東久留米市前沢1-5-30","lat":35.74794,"lon":139.51509},{"name":"たきやま保育園","province":"東京都","city":"東久留米市","address":"東久留米市滝山6-1-2","lat":35.74607,"lon":139.5043},{"name":"滝山しおん保育園","province":"東京都","city":"東久留米市","address":"東久留米市滝山7-5-12","lat":35.74779,"lon":139.50757},{"name":"はちまん保育園","province":"東京都","city":"東久留米市","address":"東久留米市八幡町2-14-22","lat":35.75594,"lon":139.51439},{"name":"はくさん保育園","province":"東京都","city":"東久留米市","address":"東久留米市下里3-2-23","lat":35.75205,"lon":139.5031},{"name":"あそか保育園","province":"東京都","city":"東久留米市","address":"東久留米市下里4-1-21","lat":35.75221,"lon":139.49507},{"name":"下里しおん保育園","province":"東京都","city":"東久留米市","address":"東久留米市下里7-8-20","lat":35.76007,"lon":139.50226},{"name":"くるみ保育園","province":"東京都","city":"東久留米市","address":"東久留米市柳窪2-15-6","lat":35.74621,"lon":139.49533},{"name":"わらべ東久留米保育園","province":"東京都","city":"東久留米市","address":"東久留米市幸町1-1-24","lat":35.7595,"lon":139.52657},{"name":"東久留米おひさま保育園","province":"東京都","city":"東久留米市","address":"東久留米市幸町1-21-14","lat":35.7603,"lon":139.52333},{"name":"いちご保育園","province":"東京都","city":"東久留米市","address":"東久留米市本町1-5-15","lat":35.75942,"lon":139.53423},{"name":"ちゅうおう保育園","province":"東京都","city":"東久留米市","address":"東久留米市中央町1-2-4","lat":35.75691,"lon":139.5271},{"name":"こでまり保育園","province":"東京都","city":"東久留米市","address":"東久留米市中央町2-3-57","lat":35.75352,"lon":139.52118},{"name":"社会福祉法人恩賜財団東京都同胞援護会東久留米市立さいわい福祉センター","province":"東京都","city":"東久留米市","address":"東京都東久留米市幸町3丁目9-28","lat":35.75904724,"lon":139.51928415},{"name":"特定非営利活動法人コイノニア就労支援事業所コイノニア","province":"東京都","city":"東久留米市","address":"東京都東久留米市滝山5丁目1-16","lat":35.74620665,"lon":139.50325825},{"name":"特定非営利活動法人武蔵野の里ぶどうの郷","province":"東京都","city":"東久留米市","address":"東京都東久留米市大門町1丁目2-4","lat":35.7638248,"lon":139.535802},{"name":"特定非営利活動法人武蔵野の里くるめパソコン作業所","province":"東京都","city":"東久留米市","address":"東京都東久留米市氷川台1丁目2-12","lat":35.76479967,"lon":139.53466594},{"name":"上の原さくら保育園","province":"東京都","city":"東久留米市","address":"東久留米市上の原1-2-44","lat":35.77181,"lon":139.54579},{"name":"上の原さくら保育園","province":"東京都","city":"東久留米市","address":"東久留米市上の原1-2-44","lat":35.768713,"lon":139.542057},{"name":"久留米みのり保育園","province":"東京都","city":"東久留米市","address":"東久留米市大門町1-3-4","lat":35.763708,"lon":139.538477},{"name":"しんかわ保育園","province":"東京都","city":"東久留米市","address":"東久留米市新川町1-1-12","lat":35.758064,"lon":139.537238},{"name":"Ｎｉｃｏｔ東久留米","province":"東京都","city":"東久留米市","address":"東久留米市東本町1-8Emio東久留米1F","lat":35.760772,"lon":139.533813},{"name":"ひばり保育園","province":"東京都","city":"東久留米市","address":"東久留米市ひばりが丘団地8-10","lat":35.747535,"lon":139.531614},{"name":"わらべみなみ保育園","province":"東京都","city":"東久留米市","address":"東久留米市南町1-8-51","lat":35.742263,"lon":139.525376},{"name":"かたばみ保育園","province":"東京都","city":"東久留米市","address":"東久留米市前沢1-4-35","lat":35.744877,"lon":139.517468},{"name":"まえさわ保育園","province":"東京都","city":"東久留米市","address":"東久留米市前沢1-5-30","lat":35.748096,"lon":139.515482},{"name":"たきやま保育園","province":"東京都","city":"東久留米市","address":"東久留米市滝山6-1-2","lat":35.74654,"lon":139.507266},{"name":"滝山しおん保育園","province":"東京都","city":"東久留米市","address":"東久留米市滝山7-5-12","lat":35.748073,"lon":139.507183},{"name":"はちまん保育園","province":"東京都","city":"東久留米市","address":"東久留米市八幡町2-14-22","lat":35.756222,"lon":139.513732},{"name":"あそか保育園","province":"東京都","city":"東久留米市","address":"東久留米市下里4-1-21","lat":35.7541,"lon":139.497181},{"name":"はくさん保育園","province":"東京都","city":"東久留米市","address":"東久留米市下里3-2-23","lat":35.752431,"lon":139.502886},{"name":"下里しおん保育園","province":"東京都","city":"東久留米市","address":"東久留米市下里7-8-20","lat":35.759916,"lon":139.502927},{"name":"くるみ保育園","province":"東京都","city":"東久留米市","address":"東久留米市柳窪2-15-6","lat":35.745165,"lon":139.49574},{"name":"さいわい保育園","province":"東京都","city":"東久留米市","address":"東久留米市幸町1-17-1","lat":35.761791,"lon":139.523534},{"name":"東久留米おひさま保育園","province":"東京都","city":"東久留米市","address":"東久留米市幸町1-21-14","lat":35.760678,"lon":139.523417},{"name":"いちご保育園","province":"東京都","city":"東久留米市","address":"東久留米市本町1-5-15","lat":35.759439,"lon":139.533936},{"name":"ちゅうおう保育園","province":"東京都","city":"東久留米市","address":"東久留米市中央町1-2-4","lat":35.756798,"lon":139.526867},{"name":"こでまり保育園","province":"東京都","city":"東久留米市","address":"東久留米市中央町2-3-57","lat":35.753765,"lon":139.521726},{"name":"上の原さくら保育園","province":"東京都","city":"東久留米市","address":"東久留米市上の原1-2-44","lat":35.76878,"lon":139.54103},{"name":"久留米みのり保育園","province":"東京都","city":"東久留米市","address":"東久留米市大門町1-3-4","lat":35.76278,"lon":139.53877},{"name":"しんかわ保育園","province":"東京都","city":"東久留米市","address":"東久留米市新川町1-1-12","lat":35.7583,"lon":139.53708},{"name":"トレジャーキッズひがしくるめ保育園","province":"東京都","city":"東久留米市","address":"東久留米市新川町1-9-14サンライズ","lat":35.76189,"lon":139.53659},{"name":"Ｎｉｃｏｔ東久留米","province":"東京都","city":"東久留米市","address":"東久留米市東本町1-8Emio東久留米1F","lat":35.76096,"lon":139.53357},{"name":"まなびの森保育園ひばりヶ丘","province":"東京都","city":"東久留米市","address":"東久留米市学園町1-14-23","lat":35.75112,"lon":139.53976},{"name":"ひばり保育園","province":"東京都","city":"東久留米市","address":"東久留米市ひばりが丘団地8-10","lat":35.74722,"lon":139.53172},{"name":"わらべみなみ保育園","province":"東京都","city":"東久留米市","address":"東久留米市南町1-8-51","lat":35.74158,"lon":139.52573},{"name":"かたばみ保育園","province":"東京都","city":"東久留米市","address":"東久留米市前沢1-4-35","lat":35.74609,"lon":139.51709},{"name":"まえさわ保育園","province":"東京都","city":"東久留米市","address":"東久留米市前沢1-5-30","lat":35.74794,"lon":139.51509},{"name":"たきやま保育園","province":"東京都","city":"東久留米市","address":"東久留米市滝山6-1-2","lat":35.74607,"lon":139.5043},{"name":"滝山しおん保育園","province":"東京都","city":"東久留米市","address":"東久留米市滝山7-5-12","lat":35.74779,"lon":139.50757},{"name":"はちまん保育園","province":"東京都","city":"東久留米市","address":"東久留米市八幡町2-14-22","lat":35.75594,"lon":139.51439},{"name":"はくさん保育園","province":"東京都","city":"東久留米市","address":"東久留米市下里3-2-23","lat":35.75205,"lon":139.5031},{"name":"あそか保育園","province":"東京都","city":"東久留米市","address":"東久留米市下里4-1-21","lat":35.75221,"lon":139.49507},{"name":"下里しおん保育園","province":"東京都","city":"東久留米市","address":"東久留米市下里7-8-20","lat":35.76007,"lon":139.50226},{"name":"くるみ保育園","province":"東京都","city":"東久留米市","address":"東久留米市柳窪2-15-6","lat":35.74621,"lon":139.49533},{"name":"わらべ東久留米保育園","province":"東京都","city":"東久留米市","address":"東久留米市幸町1-1-24","lat":35.7595,"lon":139.52657},{"name":"東久留米おひさま保育園","province":"東京都","city":"東久留米市","address":"東久留米市幸町1-21-14","lat":35.7603,"lon":139.52333},{"name":"いちご保育園","province":"東京都","city":"東久留米市","address":"東久留米市本町1-5-15","lat":35.75942,"lon":139.53423},{"name":"ちゅうおう保育園","province":"東京都","city":"東久留米市","address":"東久留米市中央町1-2-4","lat":35.75691,"lon":139.5271},{"name":"こでまり保育園","province":"東京都","city":"東久留米市","address":"東久留米市中央町2-3-57","lat":35.75352,"lon":139.52118},{"name":"社会福祉法人恩賜財団東京都同胞援護会東久留米市立さいわい福祉センター","province":"東京都","city":"東久留米市","address":"東京都東久留米市幸町3丁目9-28","lat":35.75904724,"lon":139.51928415},{"name":"特定非営利活動法人コイノニア就労支援事業所コイノニア","province":"東京都","city":"東久留米市","address":"東京都東久留米市滝山5丁目1-16","lat":35.74620665,"lon":139.50325825},{"name":"特定非営利活動法人武蔵野の里ぶどうの郷","province":"東京都","city":"東久留米市","address":"東京都東久留米市大門町1丁目2-4","lat":35.7638248,"lon":139.535802},{"name":"特定非営利活動法人武蔵野の里くるめパソコン作業所","province":"東京都","city":"東久留米市","address":"東京都東久留米市氷川台1丁目2-12","lat":35.76479967,"lon":139.53466594},{"name":"上の原さくら保育園","province":"東京都","city":"東久留米市","address":"東久留米市上の原1-2-44","lat":35.77181,"lon":139.54579},{"name":"上の原さくら保育園","province":"東京都","city":"東久留米市","address":"東久留米市上の原1-2-44","lat":35.768713,"lon":139.542057},{"name":"久留米みのり保育園","province":"東京都","city":"東久留米市","address":"東久留米市大門町1-3-4","lat":35.763708,"lon":139.538477},{"name":"しんかわ保育園","province":"東京都","city":"東久留米市","address":"東久留米市新川町1-1-12","lat":35.758064,"lon":139.537238},{"name":"Ｎｉｃｏｔ東久留米","province":"東京都","city":"東久留米市","address":"東久留米市東本町1-8Emio東久留米1F","lat":35.760772,"lon":139.533813},{"name":"ひばり保育園","province":"東京都","city":"東久留米市","address":"東久留米市ひばりが丘団地8-10","lat":35.747535,"lon":139.531614},{"name":"わらべみなみ保育園","province":"東京都","city":"東久留米市","address":"東久留米市南町1-8-51","lat":35.742263,"lon":139.525376},{"name":"かたばみ保育園","province":"東京都","city":"東久留米市","address":"東久留米市前沢1-4-35","lat":35.744877,"lon":139.517468},{"name":"まえさわ保育園","province":"東京都","city":"東久留米市","address":"東久留米市前沢1-5-30","lat":35.748096,"lon":139.515482},{"name":"たきやま保育園","province":"東京都","city":"東久留米市","address":"東久留米市滝山6-1-2","lat":35.74654,"lon":139.507266},{"name":"滝山しおん保育園","province":"東京都","city":"東久留米市","address":"東久留米市滝山7-5-12","lat":35.748073,"lon":139.507183},{"name":"はちまん保育園","province":"東京都","city":"東久留米市","address":"東久留米市八幡町2-14-22","lat":35.756222,"lon":139.513732},{"name":"あそか保育園","province":"東京都","city":"東久留米市","address":"東久留米市下里4-1-21","lat":35.7541,"lon":139.497181},{"name":"はくさん保育園","province":"東京都","city":"東久留米市","address":"東久留米市下里3-2-23","lat":35.752431,"lon":139.502886},{"name":"下里しおん保育園","province":"東京都","city":"東久留米市","address":"東久留米市下里7-8-20","lat":35.759916,"lon":139.502927},{"name":"くるみ保育園","province":"東京都","city":"東久留米市","address":"東久留米市柳窪2-15-6","lat":35.745165,"lon":139.49574},{"name":"さいわい保育園","province":"東京都","city":"東久留米市","address":"東久留米市幸町1-17-1","lat":35.761791,"lon":139.523534},{"name":"東久留米おひさま保育園","province":"東京都","city":"東久留米市","address":"東久留米市幸町1-21-14","lat":35.760678,"lon":139.523417},{"name":"いちご保育園","province":"東京都","city":"東久留米市","address":"東久留米市本町1-5-15","lat":35.759439,"lon":139.533936},{"name":"ちゅうおう保育園","province":"東京都","city":"東久留米市","address":"東久留米市中央町1-2-4","lat":35.756798,"lon":139.526867},{"name":"こでまり保育園","province":"東京都","city":"東久留米市","address":"東久留米市中央町2-3-57","lat":35.753765,"lon":139.521726},{"name":"社会福祉法人恩賜財団東京都同胞援護会東久留米市立さいわい福祉センター","province":"東京都","city":"東久留米市","address":"東京都東久留米市幸町3丁目9-28","lat":35.75904724,"lon":139.51928415},{"name":"特定非営利活動法人コイノニア就労支援事業所コイノニア","province":"東京都","city":"東久留米市","address":"東京都東久留米市滝山5丁目1-16","lat":35.74620665,"lon":139.50325825},{"name":"特定非営利活動法人武蔵野の里ぶどうの郷","province":"東京都","city":"東久留米市","address":"東京都東久留米市大門町1丁目2-4","lat":35.7638248,"lon":139.535802},{"name":"特定非営利活動法人武蔵野の里くるめパソコン作業所","province":"東京都","city":"東久留米市","address":"東京都東久留米市氷川台1丁目2-12","lat":35.76479967,"lon":139.53466594},{"name":"上の原さくら保育園","province":"東京都","city":"東久留米市","address":"東久留米市上の原1-2-44","lat":35.768713,"lon":139.542057},{"name":"久留米みのり保育園","province":"東京都","city":"東久留米市","address":"東久留米市大門町1-3-4","lat":35.763708,"lon":139.538477},{"name":"しんかわ保育園","province":"東京都","city":"東久留米市","address":"東久留米市新川町1-1-12","lat":35.758064,"lon":139.537238},{"name":"Ｎｉｃｏｔ東久留米","province":"東京都","city":"東久留米市","address":"東久留米市東本町1-8Emio東久留米1F","lat":35.760772,"lon":139.533813},{"name":"ひばり保育園","province":"東京都","city":"東久留米市","address":"東久留米市ひばりが丘団地8-10","lat":35.747535,"lon":139.531614},{"name":"わらべみなみ保育園","province":"東京都","city":"東久留米市","address":"東久留米市南町1-8-51","lat":35.742263,"lon":139.525376},{"name":"かたばみ保育園","province":"東京都","city":"東久留米市","address":"東久留米市前沢1-4-35","lat":35.744877,"lon":139.517468},{"name":"まえさわ保育園","province":"東京都","city":"東久留米市","address":"東久留米市前沢1-5-30","lat":35.748096,"lon":139.515482},{"name":"たきやま保育園","province":"東京都","city":"東久留米市","address":"東久留米市滝山6-1-2","lat":35.74654,"lon":139.507266},{"name":"滝山しおん保育園","province":"東京都","city":"東久留米市","address":"東久留米市滝山7-5-12","lat":35.748073,"lon":139.507183},{"name":"はちまん保育園","province":"東京都","city":"東久留米市","address":"東久留米市八幡町2-14-22","lat":35.756222,"lon":139.513732},{"name":"あそか保育園","province":"東京都","city":"東久留米市","address":"東久留米市下里4-1-21","lat":35.7541,"lon":139.497181},{"name":"はくさん保育園","province":"東京都","city":"東久留米市","address":"東久留米市下里3-2-23","lat":35.752431,"lon":139.502886},{"name":"下里しおん保育園","province":"東京都","city":"東久留米市","address":"東久留米市下里7-8-20","lat":35.759916,"lon":139.502927},{"name":"くるみ保育園","province":"東京都","city":"東久留米市","address":"東久留米市柳窪2-15-6","lat":35.745165,"lon":139.49574},{"name":"さいわい保育園","province":"東京都","city":"東久留米市","address":"東久留米市幸町1-17-1","lat":35.761791,"lon":139.523534},{"name":"東久留米おひさま保育園","province":"東京都","city":"東久留米市","address":"東久留米市幸町1-21-14","lat":35.760678,"lon":139.523417},{"name":"いちご保育園","province":"東京都","city":"東久留米市","address":"東久留米市本町1-5-15","lat":35.759439,"lon":139.533936},{"name":"ちゅうおう保育園","province":"東京都","city":"東久留米市","address":"東久留米市中央町1-2-4","lat":35.756798,"lon":139.526867},{"name":"こでまり保育園","province":"東京都","city":"東久留米市","address":"東久留米市中央町2-3-57","lat":35.753765,"lon":139.521726},{"name":"上の原さくら保育園","province":"東京都","city":"東久留米市","address":"東久留米市上の原1-2-44","lat":35.768713,"lon":139.542057},{"name":"久留米みのり保育園","province":"東京都","city":"東久留米市","address":"東久留米市大門町1-3-4","lat":35.763708,"lon":139.538477},{"name":"しんかわ保育園","province":"東京都","city":"東久留米市","address":"東久留米市新川町1-1-12","lat":35.758064,"lon":139.537238},{"name":"Ｎｉｃｏｔ東久留米","province":"東京都","city":"東久留米市","address":"東久留米市東本町1-8Emio東久留米1F","lat":35.760772,"lon":139.533813},{"name":"ひばり保育園","province":"東京都","city":"東久留米市","address":"東久留米市ひばりが丘団地8-10","lat":35.747535,"lon":139.531614},{"name":"わらべみなみ保育園","province":"東京都","city":"東久留米市","address":"東久留米市南町1-8-51","lat":35.742263,"lon":139.525376},{"name":"かたばみ保育園","province":"東京都","city":"東久留米市","address":"東久留米市前沢1-4-35","lat":35.744877,"lon":139.517468},{"name":"まえさわ保育園","province":"東京都","city":"東久留米市","address":"東久留米市前沢1-5-30","lat":35.748096,"lon":139.515482},{"name":"たきやま保育園","province":"東京都","city":"東久留米市","address":"東久留米市滝山6-1-2","lat":35.74654,"lon":139.507266},{"name":"滝山しおん保育園","province":"東京都","city":"東久留米市","address":"東久留米市滝山7-5-12","lat":35.748073,"lon":139.507183},{"name":"はちまん保育園","province":"東京都","city":"東久留米市","address":"東久留米市八幡町2-14-22","lat":35.756222,"lon":139.513732},{"name":"あそか保育園","province":"東京都","city":"東久留米市","address":"東久留米市下里4-1-21","lat":35.7541,"lon":139.497181},{"name":"はくさん保育園","province":"東京都","city":"東久留米市","address":"東久留米市下里3-2-23","lat":35.752431,"lon":139.502886},{"name":"下里しおん保育園","province":"東京都","city":"東久留米市","address":"東久留米市下里7-8-20","lat":35.759916,"lon":139.502927},{"name":"くるみ保育園","province":"東京都","city":"東久留米市","address":"東久留米市柳窪2-15-6","lat":35.745165,"lon":139.49574},{"name":"さいわい保育園","province":"東京都","city":"東久留米市","address":"東久留米市幸町1-17-1","lat":35.761791,"lon":139.523534},{"name":"東久留米おひさま保育園","province":"東京都","city":"東久留米市","address":"東久留米市幸町1-21-14","lat":35.760678,"lon":139.523417},{"name":"いちご保育園","province":"東京都","city":"東久留米市","address":"東久留米市本町1-5-15","lat":35.759439,"lon":139.533936},{"name":"ちゅうおう保育園","province":"東京都","city":"東久留米市","address":"東久留米市中央町1-2-4","lat":35.756798,"lon":139.526867},{"name":"こでまり保育園","province":"東京都","city":"東久留米市","address":"東久留米市中央町2-3-57","lat":35.753765,"lon":139.521726},{"name":"上の原さくら保育園","province":"東京都","city":"東久留米市","address":"東久留米市上の原1-2-44","lat":35.768713,"lon":139.542057},{"name":"久留米みのり保育園","province":"東京都","city":"東久留米市","address":"東久留米市大門町1-3-4","lat":35.763708,"lon":139.538477},{"name":"しんかわ保育園","province":"東京都","city":"東久留米市","address":"東久留米市新川町1-1-12","lat":35.758064,"lon":139.537238},{"name":"Ｎｉｃｏｔ東久留米","province":"東京都","city":"東久留米市","address":"東久留米市東本町1-8Emio東久留米1F","lat":35.760772,"lon":139.533813},{"name":"ひばり保育園","province":"東京都","city":"東久留米市","address":"東久留米市ひばりが丘団地8-10","lat":35.747535,"lon":139.531614},{"name":"わらべみなみ保育園","province":"東京都","city":"東久留米市","address":"東久留米市南町1-8-51","lat":35.742263,"lon":139.525376},{"name":"かたばみ保育園","province":"東京都","city":"東久留米市","address":"東久留米市前沢1-4-35","lat":35.744877,"lon":139.517468},{"name":"まえさわ保育園","province":"東京都","city":"東久留米市","address":"東久留米市前沢1-5-30","lat":35.748096,"lon":139.515482},{"name":"たきやま保育園","province":"東京都","city":"東久留米市","address":"東久留米市滝山6-1-2","lat":35.74654,"lon":139.507266},{"name":"滝山しおん保育園","province":"東京都","city":"東久留米市","address":"東久留米市滝山7-5-12","lat":35.748073,"lon":139.507183},{"name":"はちまん保育園","province":"東京都","city":"東久留米市","address":"東久留米市八幡町2-14-22","lat":35.756222,"lon":139.513732},{"name":"あそか保育園","province":"東京都","city":"東久留米市","address":"東久留米市下里4-1-21","lat":35.7541,"lon":139.497181},{"name":"はくさん保育園","province":"東京都","city":"東久留米市","address":"東久留米市下里3-2-23","lat":35.752431,"lon":139.502886},{"name":"下里しおん保育園","province":"東京都","city":"東久留米市","address":"東久留米市下里7-8-20","lat":35.759916,"lon":139.502927},{"name":"くるみ保育園","province":"東京都","city":"東久留米市","address":"東久留米市柳窪2-15-6","lat":35.745165,"lon":139.49574},{"name":"さいわい保育園","province":"東京都","city":"東久留米市","address":"東久留米市幸町1-17-1","lat":35.761791,"lon":139.523534},{"name":"東久留米おひさま保育園","province":"東京都","city":"東久留米市","address":"東久留米市幸町1-21-14","lat":35.760678,"lon":139.523417},{"name":"いちご保育園","province":"東京都","city":"東久留米市","address":"東久留米市本町1-5-15","lat":35.759439,"lon":139.533936},{"name":"ちゅうおう保育園","province":"東京都","city":"東久留米市","address":"東久留米市中央町1-2-4","lat":35.756798,"lon":139.526867},{"name":"こでまり保育園","province":"東京都","city":"東久留米市","address":"東久留米市中央町2-3-57","lat":35.753765,"lon":139.521726},{"name":"上の原さくら保育園","province":"東京都","city":"東久留米市","address":"東久留米市上の原1-2-44","lat":35.768713,"lon":139.542057},{"name":"久留米みのり保育園","province":"東京都","city":"東久留米市","address":"東久留米市大門町1-3-4","lat":35.763708,"lon":139.538477},{"name":"しんかわ保育園","province":"東京都","city":"東久留米市","address":"東久留米市新川町1-1-12","lat":35.758064,"lon":139.537238},{"name":"Ｎｉｃｏｔ東久留米","province":"東京都","city":"東久留米市","address":"東久留米市東本町1-8Emio東久留米1F","lat":35.760772,"lon":139.533813},{"name":"ひばり保育園","province":"東京都","city":"東久留米市","address":"東久留米市ひばりが丘団地8-10","lat":35.747535,"lon":139.531614},{"name":"わらべみなみ保育園","province":"東京都","city":"東久留米市","address":"東久留米市南町1-8-51","lat":35.742263,"lon":139.525376},{"name":"かたばみ保育園","province":"東京都","city":"東久留米市","address":"東久留米市前沢1-4-35","lat":35.744877,"lon":139.517468},{"name":"まえさわ保育園","province":"東京都","city":"東久留米市","address":"東久留米市前沢1-5-30","lat":35.748096,"lon":139.515482},{"name":"たきやま保育園","province":"東京都","city":"東久留米市","address":"東久留米市滝山6-1-2","lat":35.74654,"lon":139.507266},{"name":"滝山しおん保育園","province":"東京都","city":"東久留米市","address":"東久留米市滝山7-5-12","lat":35.748073,"lon":139.507183},{"name":"はちまん保育園","province":"東京都","city":"東久留米市","address":"東久留米市八幡町2-14-22","lat":35.756222,"lon":139.513732},{"name":"あそか保育園","province":"東京都","city":"東久留米市","address":"東久留米市下里4-1-21","lat":35.7541,"lon":139.497181},{"name":"はくさん保育園","province":"東京都","city":"東久留米市","address":"東久留米市下里3-2-23","lat":35.752431,"lon":139.502886},{"name":"下里しおん保育園","province":"東京都","city":"東久留米市","address":"東久留米市下里7-8-20","lat":35.759916,"lon":139.502927},{"name":"くるみ保育園","province":"東京都","city":"東久留米市","address":"東久留米市柳窪2-15-6","lat":35.745165,"lon":139.49574},{"name":"さいわい保育園","province":"東京都","city":"東久留米市","address":"東久留米市幸町1-17-1","lat":35.761791,"lon":139.523534},{"name":"東久留米おひさま保育園","province":"東京都","city":"東久留米市","address":"東久留米市幸町1-21-14","lat":35.760678,"lon":139.523417},{"name":"いちご保育園","province":"東京都","city":"東久留米市","address":"東久留米市本町1-5-15","lat":35.759439,"lon":139.533936},{"name":"ちゅうおう保育園","province":"東京都","city":"東久留米市","address":"東久留米市中央町1-2-4","lat":35.756798,"lon":139.526867},{"name":"こでまり保育園","province":"東京都","city":"東久留米市","address":"東久留米市中央町2-3-57","lat":35.753765,"lon":139.521726},{"name":"上の原さくら保育園","province":"東京都","city":"東久留米市","address":"東久留米市上の原1-2-44","lat":35.768713,"lon":139.542057},{"name":"久留米みのり保育園","province":"東京都","city":"東久留米市","address":"東久留米市大門町1-3-4","lat":35.763708,"lon":139.538477},{"name":"しんかわ保育園","province":"東京都","city":"東久留米市","address":"東久留米市新川町1-1-12","lat":35.758064,"lon":139.537238},{"name":"Ｎｉｃｏｔ東久留米","province":"東京都","city":"東久留米市","address":"東久留米市東本町1-8Emio東久留米1F","lat":35.760772,"lon":139.533813},{"name":"ひばり保育園","province":"東京都","city":"東久留米市","address":"東久留米市ひばりが丘団地8-10","lat":35.747535,"lon":139.531614},{"name":"わらべみなみ保育園","province":"東京都","city":"東久留米市","address":"東久留米市南町1-8-51","lat":35.742263,"lon":139.525376},{"name":"かたばみ保育園","province":"東京都","city":"東久留米市","address":"東久留米市前沢1-4-35","lat":35.744877,"lon":139.517468},{"name":"まえさわ保育園","province":"東京都","city":"東久留米市","address":"東久留米市前沢1-5-30","lat":35.748096,"lon":139.515482},{"name":"たきやま保育園","province":"東京都","city":"東久留米市","address":"東久留米市滝山6-1-2","lat":35.74654,"lon":139.507266},{"name":"滝山しおん保育園","province":"東京都","city":"東久留米市","address":"東久留米市滝山7-5-12","lat":35.748073,"lon":139.507183},{"name":"はちまん保育園","province":"東京都","city":"東久留米市","address":"東久留米市八幡町2-14-22","lat":35.756222,"lon":139.513732},{"name":"あそか保育園","province":"東京都","city":"東久留米市","address":"東久留米市下里4-1-21","lat":35.7541,"lon":139.497181},{"name":"はくさん保育園","province":"東京都","city":"東久留米市","address":"東久留米市下里3-2-23","lat":35.752431,"lon":139.502886},{"name":"下里しおん保育園","province":"東京都","city":"東久留米市","address":"東久留米市下里7-8-20","lat":35.759916,"lon":139.502927},{"name":"くるみ保育園","province":"東京都","city":"東久留米市","address":"東久留米市柳窪2-15-6","lat":35.745165,"lon":139.49574},{"name":"さいわい保育園","province":"東京都","city":"東久留米市","address":"東久留米市幸町1-17-1","lat":35.761791,"lon":139.523534},{"name":"東久留米おひさま保育園","province":"東京都","city":"東久留米市","address":"東久留米市幸町1-21-14","lat":35.760678,"lon":139.523417},{"name":"いちご保育園","province":"東京都","city":"東久留米市","address":"東久留米市本町1-5-15","lat":35.759439,"lon":139.533936},{"name":"ちゅうおう保育園","province":"東京都","city":"東久留米市","address":"東久留米市中央町1-2-4","lat":35.756798,"lon":139.526867},{"name":"こでまり保育園","province":"東京都","city":"東久留米市","address":"東久留米市中央町2-3-57","lat":35.753765,"lon":139.521726},{"name":"上の原さくら保育園","province":"東京都","city":"東久留米市","address":"東久留米市上の原1-2-44","lat":35.768713,"lon":139.542057},{"name":"久留米みのり保育園","province":"東京都","city":"東久留米市","address":"東久留米市大門町1-3-4","lat":35.763708,"lon":139.538477},{"name":"しんかわ保育園","province":"東京都","city":"東久留米市","address":"東久留米市新川町1-1-12","lat":35.758064,"lon":139.537238},{"name":"Ｎｉｃｏｔ東久留米","province":"東京都","city":"東久留米市","address":"東久留米市東本町1-8Emio東久留米1F","lat":35.760772,"lon":139.533813},{"name":"ひばり保育園","province":"東京都","city":"東久留米市","address":"東久留米市ひばりが丘団地8-10","lat":35.747535,"lon":139.531614},{"name":"わらべみなみ保育園","province":"東京都","city":"東久留米市","address":"東久留米市南町1-8-51","lat":35.742263,"lon":139.525376},{"name":"かたばみ保育園","province":"東京都","city":"東久留米市","address":"東久留米市前沢1-4-35","lat":35.744877,"lon":139.517468},{"name":"まえさわ保育園","province":"東京都","city":"東久留米市","address":"東久留米市前沢1-5-30","lat":35.748096,"lon":139.515482},{"name":"たきやま保育園","province":"東京都","city":"東久留米市","address":"東久留米市滝山6-1-2","lat":35.74654,"lon":139.507266},{"name":"滝山しおん保育園","province":"東京都","city":"東久留米市","address":"東久留米市滝山7-5-12","lat":35.748073,"lon":139.507183},{"name":"はちまん保育園","province":"東京都","city":"東久留米市","address":"東久留米市八幡町2-14-22","lat":35.756222,"lon":139.513732},{"name":"あそか保育園","province":"東京都","city":"東久留米市","address":"東久留米市下里4-1-21","lat":35.7541,"lon":139.497181},{"name":"はくさん保育園","province":"東京都","city":"東久留米市","address":"東久留米市下里3-2-23","lat":35.752431,"lon":139.502886},{"name":"下里しおん保育園","province":"東京都","city":"東久留米市","address":"東久留米市下里7-8-20","lat":35.759916,"lon":139.502927},{"name":"くるみ保育園","province":"東京都","city":"東久留米市","address":"東久留米市柳窪2-15-6","lat":35.745165,"lon":139.49574},{"name":"さいわい保育園","province":"東京都","city":"東久留米市","address":"東久留米市幸町1-17-1","lat":35.761791,"lon":139.523534},{"name":"東久留米おひさま保育園","province":"東京都","city":"東久留米市","address":"東久留米市幸町1-21-14","lat":35.760678,"lon":139.523417},{"name":"いちご保育園","province":"東京都","city":"東久留米市","address":"東久留米市本町1-5-15","lat":35.759439,"lon":139.533936},{"name":"ちゅうおう保育園","province":"東京都","city":"東久留米市","address":"東久留米市中央町1-2-4","lat":35.756798,"lon":139.526867},{"name":"こでまり保育園","province":"東京都","city":"東久留米市","address":"東久留米市中央町2-3-57","lat":35.753765,"lon":139.521726},{"name":"上の原さくら保育園","province":"東京都","city":"東久留米市","address":"東久留米市上の原1-2-44","lat":35.768713,"lon":139.542057},{"name":"久留米みのり保育園","province":"東京都","city":"東久留米市","address":"東久留米市大門町1-3-4","lat":35.763708,"lon":139.538477},{"name":"しんかわ保育園","province":"東京都","city":"東久留米市","address":"東久留米市新川町1-1-12","lat":35.758064,"lon":139.537238},{"name":"Ｎｉｃｏｔ東久留米","province":"東京都","city":"東久留米市","address":"東久留米市東本町1-8Emio東久留米1F","lat":35.760772,"lon":139.533813},{"name":"ひばり保育園","province":"東京都","city":"東久留米市","address":"東久留米市ひばりが丘団地8-10","lat":35.747535,"lon":139.531614},{"name":"わらべみなみ保育園","province":"東京都","city":"東久留米市","address":"東久留米市南町1-8-51","lat":35.742263,"lon":139.525376},{"name":"かたばみ保育園","province":"東京都","city":"東久留米市","address":"東久留米市前沢1-4-35","lat":35.744877,"lon":139.517468},{"name":"まえさわ保育園","province":"東京都","city":"東久留米市","address":"東久留米市前沢1-5-30","lat":35.748096,"lon":139.515482},{"name":"たきやま保育園","province":"東京都","city":"東久留米市","address":"東久留米市滝山6-1-2","lat":35.74654,"lon":139.507266},{"name":"滝山しおん保育園","province":"東京都","city":"東久留米市","address":"東久留米市滝山7-5-12","lat":35.748073,"lon":139.507183},{"name":"はちまん保育園","province":"東京都","city":"東久留米市","address":"東久留米市八幡町2-14-22","lat":35.756222,"lon":139.513732},{"name":"あそか保育園","province":"東京都","city":"東久留米市","address":"東久留米市下里4-1-21","lat":35.7541,"lon":139.497181},{"name":"はくさん保育園","province":"東京都","city":"東久留米市","address":"東久留米市下里3-2-23","lat":35.752431,"lon":139.502886},{"name":"下里しおん保育園","province":"東京都","city":"東久留米市","address":"東久留米市下里7-8-20","lat":35.759916,"lon":139.502927},{"name":"くるみ保育園","province":"東京都","city":"東久留米市","address":"東久留米市柳窪2-15-6","lat":35.745165,"lon":139.49574},{"name":"さいわい保育園","province":"東京都","city":"東久留米市","address":"東久留米市幸町1-17-1","lat":35.761791,"lon":139.523534},{"name":"東久留米おひさま保育園","province":"東京都","city":"東久留米市","address":"東久留米市幸町1-21-14","lat":35.760678,"lon":139.523417},{"name":"いちご保育園","province":"東京都","city":"東久留米市","address":"東久留米市本町1-5-15","lat":35.759439,"lon":139.533936},{"name":"ちゅうおう保育園","province":"東京都","city":"東久留米市","address":"東久留米市中央町1-2-4","lat":35.756798,"lon":139.526867},{"name":"こでまり保育園","province":"東京都","city":"東久留米市","address":"東久留米市中央町2-3-57","lat":35.753765,"lon":139.521726},{"name":"上の原さくら保育園","province":"東京都","city":"東久留米市","address":"東久留米市上の原1-2-44","lat":35.768713,"lon":139.542057},{"name":"久留米みのり保育園","province":"東京都","city":"東久留米市","address":"東久留米市大門町1-3-4","lat":35.763708,"lon":139.538477},{"name":"しんかわ保育園","province":"東京都","city":"東久留米市","address":"東久留米市新川町1-1-12","lat":35.758064,"lon":139.537238},{"name":"Ｎｉｃｏｔ東久留米","province":"東京都","city":"東久留米市","address":"東久留米市東本町1-8Emio東久留米1F","lat":35.760772,"lon":139.533813},{"name":"ひばり保育園","province":"東京都","city":"東久留米市","address":"東久留米市ひばりが丘団地8-10","lat":35.747535,"lon":139.531614},{"name":"わらべみなみ保育園","province":"東京都","city":"東久留米市","address":"東久留米市南町1-8-51","lat":35.742263,"lon":139.525376},{"name":"かたばみ保育園","province":"東京都","city":"東久留米市","address":"東久留米市前沢1-4-35","lat":35.744877,"lon":139.517468},{"name":"まえさわ保育園","province":"東京都","city":"東久留米市","address":"東久留米市前沢1-5-30","lat":35.748096,"lon":139.515482},{"name":"たきやま保育園","province":"東京都","city":"東久留米市","address":"東久留米市滝山6-1-2","lat":35.74654,"lon":139.507266},{"name":"滝山しおん保育園","province":"東京都","city":"東久留米市","address":"東久留米市滝山7-5-12","lat":35.748073,"lon":139.507183},{"name":"はちまん保育園","province":"東京都","city":"東久留米市","address":"東久留米市八幡町2-14-22","lat":35.756222,"lon":139.513732},{"name":"あそか保育園","province":"東京都","city":"東久留米市","address":"東久留米市下里4-1-21","lat":35.7541,"lon":139.497181},{"name":"はくさん保育園","province":"東京都","city":"東久留米市","address":"東久留米市下里3-2-23","lat":35.752431,"lon":139.502886},{"name":"下里しおん保育園","province":"東京都","city":"東久留米市","address":"東久留米市下里7-8-20","lat":35.759916,"lon":139.502927},{"name":"くるみ保育園","province":"東京都","city":"東久留米市","address":"東久留米市柳窪2-15-6","lat":35.745165,"lon":139.49574},{"name":"さいわい保育園","province":"東京都","city":"東久留米市","address":"東久留米市幸町1-17-1","lat":35.761791,"lon":139.523534},{"name":"東久留米おひさま保育園","province":"東京都","city":"東久留米市","address":"東久留米市幸町1-21-14","lat":35.760678,"lon":139.523417},{"name":"いちご保育園","province":"東京都","city":"東久留米市","address":"東久留米市本町1-5-15","lat":35.759439,"lon":139.533936},{"name":"ちゅうおう保育園","province":"東京都","city":"東久留米市","address":"東久留米市中央町1-2-4","lat":35.756798,"lon":139.526867},{"name":"こでまり保育園","province":"東京都","city":"東久留米市","address":"東久留米市中央町2-3-57","lat":35.753765,"lon":139.521726},{"name":"上の原さくら保育園","province":"東京都","city":"東久留米市","address":"東久留米市上の原1-2-44","lat":35.768713,"lon":139.542057},{"name":"久留米みのり保育園","province":"東京都","city":"東久留米市","address":"東久留米市大門町1-3-4","lat":35.763708,"lon":139.538477},{"name":"しんかわ保育園","province":"東京都","city":"東久留米市","address":"東久留米市新川町1-1-12","lat":35.758064,"lon":139.537238},{"name":"Ｎｉｃｏｔ東久留米","province":"東京都","city":"東久留米市","address":"東久留米市東本町1-8Emio東久留米1F","lat":35.760772,"lon":139.533813},{"name":"ひばり保育園","province":"東京都","city":"東久留米市","address":"東久留米市ひばりが丘団地8-10","lat":35.747535,"lon":139.531614},{"name":"わらべみなみ保育園","province":"東京都","city":"東久留米市","address":"東久留米市南町1-8-51","lat":35.742263,"lon":139.525376},{"name":"かたばみ保育園","province":"東京都","city":"東久留米市","address":"東久留米市前沢1-4-35","lat":35.744877,"lon":139.517468},{"name":"まえさわ保育園","province":"東京都","city":"東久留米市","address":"東久留米市前沢1-5-30","lat":35.748096,"lon":139.515482},{"name":"たきやま保育園","province":"東京都","city":"東久留米市","address":"東久留米市滝山6-1-2","lat":35.74654,"lon":139.507266},{"name":"滝山しおん保育園","province":"東京都","city":"東久留米市","address":"東久留米市滝山7-5-12","lat":35.748073,"lon":139.507183},{"name":"はちまん保育園","province":"東京都","city":"東久留米市","address":"東久留米市八幡町2-14-22","lat":35.756222,"lon":139.513732},{"name":"あそか保育園","province":"東京都","city":"東久留米市","address":"東久留米市下里4-1-21","lat":35.7541,"lon":139.497181},{"name":"はくさん保育園","province":"東京都","city":"東久留米市","address":"東久留米市下里3-2-23","lat":35.752431,"lon":139.502886},{"name":"下里しおん保育園","province":"東京都","city":"東久留米市","address":"東久留米市下里7-8-20","lat":35.759916,"lon":139.502927},{"name":"くるみ保育園","province":"東京都","city":"東久留米市","address":"東久留米市柳窪2-15-6","lat":35.745165,"lon":139.49574},{"name":"さいわい保育園","province":"東京都","city":"東久留米市","address":"東久留米市幸町1-17-1","lat":35.761791,"lon":139.523534},{"name":"東久留米おひさま保育園","province":"東京都","city":"東久留米市","address":"東久留米市幸町1-21-14","lat":35.760678,"lon":139.523417},{"name":"いちご保育園","province":"東京都","city":"東久留米市","address":"東久留米市本町1-5-15","lat":35.759439,"lon":139.533936},{"name":"ちゅうおう保育園","province":"東京都","city":"東久留米市","address":"東久留米市中央町1-2-4","lat":35.756798,"lon":139.526867},{"name":"こでまり保育園","province":"東京都","city":"東久留米市","address":"東久留米市中央町2-3-57","lat":35.753765,"lon":139.521726},{"name":"上の原さくら保育園","province":"東京都","city":"東久留米市","address":"東久留米市上の原1-2-44","lat":35.768713,"lon":139.542057},{"name":"久留米みのり保育園","province":"東京都","city":"東久留米市","address":"東久留米市大門町1-3-4","lat":35.763708,"lon":139.538477},{"name":"しんかわ保育園","province":"東京都","city":"東久留米市","address":"東久留米市新川町1-1-12","lat":35.758064,"lon":139.537238},{"name":"Ｎｉｃｏｔ東久留米","province":"東京都","city":"東久留米市","address":"東久留米市東本町1-8Emio東久留米1F","lat":35.760772,"lon":139.533813},{"name":"ひばり保育園","province":"東京都","city":"東久留米市","address":"東久留米市ひばりが丘団地8-10","lat":35.747535,"lon":139.531614},{"name":"わらべみなみ保育園","province":"東京都","city":"東久留米市","address":"東久留米市南町1-8-51","lat":35.742263,"lon":139.525376},{"name":"かたばみ保育園","province":"東京都","city":"東久留米市","address":"東久留米市前沢1-4-35","lat":35.744877,"lon":139.517468},{"name":"まえさわ保育園","province":"東京都","city":"東久留米市","address":"東久留米市前沢1-5-30","lat":35.748096,"lon":139.515482},{"name":"たきやま保育園","province":"東京都","city":"東久留米市","address":"東久留米市滝山6-1-2","lat":35.74654,"lon":139.507266},{"name":"滝山しおん保育園","province":"東京都","city":"東久留米市","address":"東久留米市滝山7-5-12","lat":35.748073,"lon":139.507183},{"name":"はちまん保育園","province":"東京都","city":"東久留米市","address":"東久留米市八幡町2-14-22","lat":35.756222,"lon":139.513732},{"name":"あそか保育園","province":"東京都","city":"東久留米市","address":"東久留米市下里4-1-21","lat":35.7541,"lon":139.497181},{"name":"はくさん保育園","province":"東京都","city":"東久留米市","address":"東久留米市下里3-2-23","lat":35.752431,"lon":139.502886},{"name":"下里しおん保育園","province":"東京都","city":"東久留米市","address":"東久留米市下里7-8-20","lat":35.759916,"lon":139.502927},{"name":"くるみ保育園","province":"東京都","city":"東久留米市","address":"東久留米市柳窪2-15-6","lat":35.745165,"lon":139.49574},{"name":"さいわい保育園","province":"東京都","city":"東久留米市","address":"東久留米市幸町1-17-1","lat":35.761791,"lon":139.523534},{"name":"東久留米おひさま保育園","province":"東京都","city":"東久留米市","address":"東久留米市幸町1-21-14","lat":35.760678,"lon":139.523417},{"name":"いちご保育園","province":"東京都","city":"東久留米市","address":"東久留米市本町1-5-15","lat":35.759439,"lon":139.533936},{"name":"ちゅうおう保育園","province":"東京都","city":"東久留米市","address":"東久留米市中央町1-2-4","lat":35.756798,"lon":139.526867},{"name":"こでまり保育園","province":"東京都","city":"東久留米市","address":"東久留米市中央町2-3-57","lat":35.753765,"lon":139.521726},{"name":"上の原さくら保育園","province":"東京都","city":"東久留米市","address":"東久留米市上の原1-2-44","lat":35.768713,"lon":139.542057},{"name":"久留米みのり保育園","province":"東京都","city":"東久留米市","address":"東久留米市大門町1-3-4","lat":35.763708,"lon":139.538477},{"name":"しんかわ保育園","province":"東京都","city":"東久留米市","address":"東久留米市新川町1-1-12","lat":35.758064,"lon":139.537238},{"name":"Ｎｉｃｏｔ東久留米","province":"東京都","city":"東久留米市","address":"東久留米市東本町1-8Emio東久留米1F","lat":35.760772,"lon":139.533813},{"name":"ひばり保育園","province":"東京都","city":"東久留米市","address":"東久留米市ひばりが丘団地8-10","lat":35.747535,"lon":139.531614},{"name":"わらべみなみ保育園","province":"東京都","city":"東久留米市","address":"東久留米市南町1-8-51","lat":35.742263,"lon":139.525376},{"name":"かたばみ保育園","province":"東京都","city":"東久留米市","address":"東久留米市前沢1-4-35","lat":35.744877,"lon":139.517468},{"name":"まえさわ保育園","province":"東京都","city":"東久留米市","address":"東久留米市前沢1-5-30","lat":35.748096,"lon":139.515482},{"name":"たきやま保育園","province":"東京都","city":"東久留米市","address":"東久留米市滝山6-1-2","lat":35.74654,"lon":139.507266},{"name":"滝山しおん保育園","province":"東京都","city":"東久留米市","address":"東久留米市滝山7-5-12","lat":35.748073,"lon":139.507183},{"name":"はちまん保育園","province":"東京都","city":"東久留米市","address":"東久留米市八幡町2-14-22","lat":35.756222,"lon":139.513732},{"name":"あそか保育園","province":"東京都","city":"東久留米市","address":"東久留米市下里4-1-21","lat":35.7541,"lon":139.497181},{"name":"はくさん保育園","province":"東京都","city":"東久留米市","address":"東久留米市下里3-2-23","lat":35.752431,"lon":139.502886},{"name":"下里しおん保育園","province":"東京都","city":"東久留米市","address":"東久留米市下里7-8-20","lat":35.759916,"lon":139.502927},{"name":"くるみ保育園","province":"東京都","city":"東久留米市","address":"東久留米市柳窪2-15-6","lat":35.745165,"lon":139.49574},{"name":"さいわい保育園","province":"東京都","city":"東久留米市","address":"東久留米市幸町1-17-1","lat":35.761791,"lon":139.523534},{"name":"東久留米おひさま保育園","province":"東京都","city":"東久留米市","address":"東久留米市幸町1-21-14","lat":35.760678,"lon":139.523417},{"name":"いちご保育園","province":"東京都","city":"東久留米市","address":"東久留米市本町1-5-15","lat":35.759439,"lon":139.533936},{"name":"ちゅうおう保育園","province":"東京都","city":"東久留米市","address":"東久留米市中央町1-2-4","lat":35.756798,"lon":139.526867},{"name":"こでまり保育園","province":"東京都","city":"東久留米市","address":"東久留米市中央町2-3-57","lat":35.753765,"lon":139.521726},{"name":"上の原さくら保育園","province":"東京都","city":"東久留米市","address":"東久留米市上の原1-2-44","lat":35.768713,"lon":139.542057},{"name":"久留米みのり保育園","province":"東京都","city":"東久留米市","address":"東久留米市大門町1-3-4","lat":35.763708,"lon":139.538477},{"name":"しんかわ保育園","province":"東京都","city":"東久留米市","address":"東久留米市新川町1-1-12","lat":35.758064,"lon":139.537238},{"name":"Ｎｉｃｏｔ東久留米","province":"東京都","city":"東久留米市","address":"東久留米市東本町1-8Emio東久留米1F","lat":35.760772,"lon":139.533813},{"name":"ひばり保育園","province":"東京都","city":"東久留米市","address":"東久留米市ひばりが丘団地8-10","lat":35.747535,"lon":139.531614},{"name":"わらべみなみ保育園","province":"東京都","city":"東久留米市","address":"東久留米市南町1-8-51","lat":35.742263,"lon":139.525376},{"name":"かたばみ保育園","province":"東京都","city":"東久留米市","address":"東久留米市前沢1-4-35","lat":35.744877,"lon":139.517468},{"name":"まえさわ保育園","province":"東京都","city":"東久留米市","address":"東久留米市前沢1-5-30","lat":35.748096,"lon":139.515482},{"name":"たきやま保育園","province":"東京都","city":"東久留米市","address":"東久留米市滝山6-1-2","lat":35.74654,"lon":139.507266},{"name":"滝山しおん保育園","province":"東京都","city":"東久留米市","address":"東久留米市滝山7-5-12","lat":35.748073,"lon":139.507183},{"name":"はちまん保育園","province":"東京都","city":"東久留米市","address":"東久留米市八幡町2-14-22","lat":35.756222,"lon":139.513732},{"name":"あそか保育園","province":"東京都","city":"東久留米市","address":"東久留米市下里4-1-21","lat":35.7541,"lon":139.497181},{"name":"はくさん保育園","province":"東京都","city":"東久留米市","address":"東久留米市下里3-2-23","lat":35.752431,"lon":139.502886},{"name":"下里しおん保育園","province":"東京都","city":"東久留米市","address":"東久留米市下里7-8-20","lat":35.759916,"lon":139.502927},{"name":"くるみ保育園","province":"東京都","city":"東久留米市","address":"東久留米市柳窪2-15-6","lat":35.745165,"lon":139.49574},{"name":"さいわい保育園","province":"東京都","city":"東久留米市","address":"東久留米市幸町1-17-1","lat":35.761791,"lon":139.523534},{"name":"東久留米おひさま保育園","province":"東京都","city":"東久留米市","address":"東久留米市幸町1-21-14","lat":35.760678,"lon":139.523417},{"name":"いちご保育園","province":"東京都","city":"東久留米市","address":"東久留米市本町1-5-15","lat":35.759439,"lon":139.533936},{"name":"ちゅうおう保育園","province":"東京都","city":"東久留米市","address":"東久留米市中央町1-2-4","lat":35.756798,"lon":139.526867},{"name":"こでまり保育園","province":"東京都","city":"東久留米市","address":"東久留米市中央町2-3-57","lat":35.753765,"lon":139.521726},{"name":"上の原さくら保育園","province":"東京都","city":"東久留米市","address":"東久留米市上の原1-2-44","lat":35.768713,"lon":139.542057},{"name":"久留米みのり保育園","province":"東京都","city":"東久留米市","address":"東久留米市大門町1-3-4","lat":35.763708,"lon":139.538477},{"name":"しんかわ保育園","province":"東京都","city":"東久留米市","address":"東久留米市新川町1-1-12","lat":35.758064,"lon":139.537238},{"name":"Ｎｉｃｏｔ東久留米","province":"東京都","city":"東久留米市","address":"東久留米市東本町1-8Emio東久留米1F","lat":35.760772,"lon":139.533813},{"name":"ひばり保育園","province":"東京都","city":"東久留米市","address":"東久留米市ひばりが丘団地8-10","lat":35.747535,"lon":139.531614},{"name":"わらべみなみ保育園","province":"東京都","city":"東久留米市","address":"東久留米市南町1-8-51","lat":35.742263,"lon":139.525376},{"name":"かたばみ保育園","province":"東京都","city":"東久留米市","address":"東久留米市前沢1-4-35","lat":35.744877,"lon":139.517468},{"name":"まえさわ保育園","province":"東京都","city":"東久留米市","address":"東久留米市前沢1-5-30","lat":35.748096,"lon":139.515482},{"name":"たきやま保育園","province":"東京都","city":"東久留米市","address":"東久留米市滝山6-1-2","lat":35.74654,"lon":139.507266},{"name":"滝山しおん保育園","province":"東京都","city":"東久留米市","address":"東久留米市滝山7-5-12","lat":35.748073,"lon":139.507183},{"name":"はちまん保育園","province":"東京都","city":"東久留米市","address":"東久留米市八幡町2-14-22","lat":35.756222,"lon":139.513732},{"name":"あそか保育園","province":"東京都","city":"東久留米市","address":"東久留米市下里4-1-21","lat":35.7541,"lon":139.497181},{"name":"はくさん保育園","province":"東京都","city":"東久留米市","address":"東久留米市下里3-2-23","lat":35.752431,"lon":139.502886},{"name":"下里しおん保育園","province":"東京都","city":"東久留米市","address":"東久留米市下里7-8-20","lat":35.759916,"lon":139.502927},{"name":"くるみ保育園","province":"東京都","city":"東久留米市","address":"東久留米市柳窪2-15-6","lat":35.745165,"lon":139.49574},{"name":"さいわい保育園","province":"東京都","city":"東久留米市","address":"東久留米市幸町1-17-1","lat":35.761791,"lon":139.523534},{"name":"東久留米おひさま保育園","province":"東京都","city":"東久留米市","address":"東久留米市幸町1-21-14","lat":35.760678,"lon":139.523417},{"name":"いちご保育園","province":"東京都","city":"東久留米市","address":"東久留米市本町1-5-15","lat":35.759439,"lon":139.533936},{"name":"ちゅうおう保育園","province":"東京都","city":"東久留米市","address":"東久留米市中央町1-2-4","lat":35.756798,"lon":139.526867},{"name":"こでまり保育園","province":"東京都","city":"東久留米市","address":"東久留米市中央町2-3-57","lat":35.753765,"lon":139.521726},{"name":"上の原さくら保育園","province":"東京都","city":"東久留米市","address":"東久留米市上の原1-2-44","lat":35.768713,"lon":139.542057},{"name":"久留米みのり保育園","province":"東京都","city":"東久留米市","address":"東久留米市大門町1-3-4","lat":35.763708,"lon":139.538477},{"name":"しんかわ保育園","province":"東京都","city":"東久留米市","address":"東久留米市新川町1-1-12","lat":35.758064,"lon":139.537238},{"name":"Ｎｉｃｏｔ東久留米","province":"東京都","city":"東久留米市","address":"東久留米市東本町1-8Emio東久留米1F","lat":35.760772,"lon":139.533813},{"name":"ひばり保育園","province":"東京都","city":"東久留米市","address":"東久留米市ひばりが丘団地8-10","lat":35.747535,"lon":139.531614},{"name":"わらべみなみ保育園","province":"東京都","city":"東久留米市","address":"東久留米市南町1-8-51","lat":35.742263,"lon":139.525376},{"name":"かたばみ保育園","province":"東京都","city":"東久留米市","address":"東久留米市前沢1-4-35","lat":35.744877,"lon":139.517468},{"name":"まえさわ保育園","province":"東京都","city":"東久留米市","address":"東久留米市前沢1-5-30","lat":35.748096,"lon":139.515482},{"name":"たきやま保育園","province":"東京都","city":"東久留米市","address":"東久留米市滝山6-1-2","lat":35.74654,"lon":139.507266},{"name":"滝山しおん保育園","province":"東京都","city":"東久留米市","address":"東久留米市滝山7-5-12","lat":35.748073,"lon":139.507183},{"name":"はちまん保育園","province":"東京都","city":"東久留米市","address":"東久留米市八幡町2-14-22","lat":35.756222,"lon":139.513732},{"name":"あそか保育園","province":"東京都","city":"東久留米市","address":"東久留米市下里4-1-21","lat":35.7541,"lon":139.497181},{"name":"はくさん保育園","province":"東京都","city":"東久留米市","address":"東久留米市下里3-2-23","lat":35.752431,"lon":139.502886},{"name":"下里しおん保育園","province":"東京都","city":"東久留米市","address":"東久留米市下里7-8-20","lat":35.759916,"lon":139.502927},{"name":"くるみ保育園","province":"東京都","city":"東久留米市","address":"東久留米市柳窪2-15-6","lat":35.745165,"lon":139.49574},{"name":"さいわい保育園","province":"東京都","city":"東久留米市","address":"東久留米市幸町1-17-1","lat":35.761791,"lon":139.523534},{"name":"東久留米おひさま保育園","province":"東京都","city":"東久留米市","address":"東久留米市幸町1-21-14","lat":35.760678,"lon":139.523417},{"name":"いちご保育園","province":"東京都","city":"東久留米市","address":"東久留米市本町1-5-15","lat":35.759439,"lon":139.533936},{"name":"ちゅうおう保育園","province":"東京都","city":"東久留米市","address":"東久留米市中央町1-2-4","lat":35.756798,"lon":139.526867},{"name":"こでまり保育園","province":"東京都","city":"東久留米市","address":"東久留米市中央町2-3-57","lat":35.753765,"lon":139.521726},{"name":"上の原さくら保育園","province":"東京都","city":"東久留米市","address":"東久留米市上の原1-2-44","lat":35.768713,"lon":139.542057},{"name":"久留米みのり保育園","province":"東京都","city":"東久留米市","address":"東久留米市大門町1-3-4","lat":35.763708,"lon":139.538477},{"name":"しんかわ保育園","province":"東京都","city":"東久留米市","address":"東久留米市新川町1-1-12","lat":35.758064,"lon":139.537238},{"name":"Ｎｉｃｏｔ東久留米","province":"東京都","city":"東久留米市","address":"東久留米市東本町1-8Emio東久留米1F","lat":35.760772,"lon":139.533813},{"name":"ひばり保育園","province":"東京都","city":"東久留米市","address":"東久留米市ひばりが丘団地8-10","lat":35.747535,"lon":139.531614},{"name":"わらべみなみ保育園","province":"東京都","city":"東久留米市","address":"東久留米市南町1-8-51","lat":35.742263,"lon":139.525376},{"name":"かたばみ保育園","province":"東京都","city":"東久留米市","address":"東久留米市前沢1-4-35","lat":35.744877,"lon":139.517468},{"name":"まえさわ保育園","province":"東京都","city":"東久留米市","address":"東久留米市前沢1-5-30","lat":35.748096,"lon":139.515482},{"name":"たきやま保育園","province":"東京都","city":"東久留米市","address":"東久留米市滝山6-1-2","lat":35.74654,"lon":139.507266},{"name":"滝山しおん保育園","province":"東京都","city":"東久留米市","address":"東久留米市滝山7-5-12","lat":35.748073,"lon":139.507183},{"name":"はちまん保育園","province":"東京都","city":"東久留米市","address":"東久留米市八幡町2-14-22","lat":35.756222,"lon":139.513732},{"name":"あそか保育園","province":"東京都","city":"東久留米市","address":"東久留米市下里4-1-21","lat":35.7541,"lon":139.497181},{"name":"はくさん保育園","province":"東京都","city":"東久留米市","address":"東久留米市下里3-2-23","lat":35.752431,"lon":139.502886},{"name":"下里しおん保育園","province":"東京都","city":"東久留米市","address":"東久留米市下里7-8-20","lat":35.759916,"lon":139.502927},{"name":"くるみ保育園","province":"東京都","city":"東久留米市","address":"東久留米市柳窪2-15-6","lat":35.745165,"lon":139.49574},{"name":"さいわい保育園","province":"東京都","city":"東久留米市","address":"東久留米市幸町1-17-1","lat":35.761791,"lon":139.523534},{"name":"東久留米おひさま保育園","province":"東京都","city":"東久留米市","address":"東久留米市幸町1-21-14","lat":35.760678,"lon":139.523417},{"name":"いちご保育園","province":"東京都","city":"東久留米市","address":"東久留米市本町1-5-15","lat":35.759439,"lon":139.533936},{"name":"ちゅうおう保育園","province":"東京都","city":"東久留米市","address":"東久留米市中央町1-2-4","lat":35.756798,"lon":139.526867},{"name":"こでまり保育園","province":"東京都","city":"東久留米市","address":"東久留米市中央町2-3-57","lat":35.753765,"lon":139.521726},{"name":"上の原さくら保育園","province":"東京都","city":"東久留米市","address":"東久留米市上の原1-2-44","lat":35.768713,"lon":139.542057},{"name":"久留米みのり保育園","province":"東京都","city":"東久留米市","address":"東久留米市大門町1-3-4","lat":35.763708,"lon":139.538477},{"name":"しんかわ保育園","province":"東京都","city":"東久留米市","address":"東久留米市新川町1-1-12","lat":35.758064,"lon":139.537238},{"name":"Ｎｉｃｏｔ東久留米","province":"東京都","city":"東久留米市","address":"東久留米市東本町1-8Emio東久留米1F","lat":35.760772,"lon":139.533813},{"name":"ひばり保育園","province":"東京都","city":"東久留米市","address":"東久留米市ひばりが丘団地8-10","lat":35.747535,"lon":139.531614},{"name":"わらべみなみ保育園","province":"東京都","city":"東久留米市","address":"東久留米市南町1-8-51","lat":35.742263,"lon":139.525376},{"name":"かたばみ保育園","province":"東京都","city":"東久留米市","address":"東久留米市前沢1-4-35","lat":35.744877,"lon":139.517468},{"name":"まえさわ保育園","province":"東京都","city":"東久留米市","address":"東久留米市前沢1-5-30","lat":35.748096,"lon":139.515482},{"name":"たきやま保育園","province":"東京都","city":"東久留米市","address":"東久留米市滝山6-1-2","lat":35.74654,"lon":139.507266},{"name":"滝山しおん保育園","province":"東京都","city":"東久留米市","address":"東久留米市滝山7-5-12","lat":35.748073,"lon":139.507183},{"name":"はちまん保育園","province":"東京都","city":"東久留米市","address":"東久留米市八幡町2-14-22","lat":35.756222,"lon":139.513732},{"name":"あそか保育園","province":"東京都","city":"東久留米市","address":"東久留米市下里4-1-21","lat":35.7541,"lon":139.497181},{"name":"はくさん保育園","province":"東京都","city":"東久留米市","address":"東久留米市下里3-2-23","lat":35.752431,"lon":139.502886},{"name":"下里しおん保育園","province":"東京都","city":"東久留米市","address":"東久留米市下里7-8-20","lat":35.759916,"lon":139.502927},{"name":"くるみ保育園","province":"東京都","city":"東久留米市","address":"東久留米市柳窪2-15-6","lat":35.745165,"lon":139.49574},{"name":"さいわい保育園","province":"東京都","city":"東久留米市","address":"東久留米市幸町1-17-1","lat":35.761791,"lon":139.523534},{"name":"東久留米おひさま保育園","province":"東京都","city":"東久留米市","address":"東久留米市幸町1-21-14","lat":35.760678,"lon":139.523417},{"name":"いちご保育園","province":"東京都","city":"東久留米市","address":"東久留米市本町1-5-15","lat":35.759439,"lon":139.533936},{"name":"ちゅうおう保育園","province":"東京都","city":"東久留米市","address":"東久留米市中央町1-2-4","lat":35.756798,"lon":139.526867},{"name":"こでまり保育園","province":"東京都","city":"東久留米市","address":"東久留米市中央町2-3-57","lat":35.753765,"lon":139.521726},{"name":"上の原さくら保育園","province":"東京都","city":"東久留米市","address":"東久留米市上の原1-2-44","lat":35.768713,"lon":139.542057},{"name":"久留米みのり保育園","province":"東京都","city":"東久留米市","address":"東久留米市大門町1-3-4","lat":35.763708,"lon":139.538477},{"name":"しんかわ保育園","province":"東京都","city":"東久留米市","address":"東久留米市新川町1-1-12","lat":35.758064,"lon":139.537238},{"name":"Ｎｉｃｏｔ東久留米","province":"東京都","city":"東久留米市","address":"東久留米市東本町1-8Emio東久留米1F","lat":35.760772,"lon":139.533813},{"name":"ひばり保育園","province":"東京都","city":"東久留米市","address":"東久留米市ひばりが丘団地8-10","lat":35.747535,"lon":139.531614},{"name":"わらべみなみ保育園","province":"東京都","city":"東久留米市","address":"東久留米市南町1-8-51","lat":35.742263,"lon":139.525376},{"name":"かたばみ保育園","province":"東京都","city":"東久留米市","address":"東久留米市前沢1-4-35","lat":35.744877,"lon":139.517468},{"name":"まえさわ保育園","province":"東京都","city":"東久留米市","address":"東久留米市前沢1-5-30","lat":35.748096,"lon":139.515482},{"name":"たきやま保育園","province":"東京都","city":"東久留米市","address":"東久留米市滝山6-1-2","lat":35.74654,"lon":139.507266},{"name":"滝山しおん保育園","province":"東京都","city":"東久留米市","address":"東久留米市滝山7-5-12","lat":35.748073,"lon":139.507183},{"name":"はちまん保育園","province":"東京都","city":"東久留米市","address":"東久留米市八幡町2-14-22","lat":35.756222,"lon":139.513732},{"name":"あそか保育園","province":"東京都","city":"東久留米市","address":"東久留米市下里4-1-21","lat":35.7541,"lon":139.497181},{"name":"はくさん保育園","province":"東京都","city":"東久留米市","address":"東久留米市下里3-2-23","lat":35.752431,"lon":139.502886},{"name":"下里しおん保育園","province":"東京都","city":"東久留米市","address":"東久留米市下里7-8-20","lat":35.759916,"lon":139.502927},{"name":"くるみ保育園","province":"東京都","city":"東久留米市","address":"東久留米市柳窪2-15-6","lat":35.745165,"lon":139.49574},{"name":"さいわい保育園","province":"東京都","city":"東久留米市","address":"東久留米市幸町1-17-1","lat":35.761791,"lon":139.523534},{"name":"東久留米おひさま保育園","province":"東京都","city":"東久留米市","address":"東久留米市幸町1-21-14","lat":35.760678,"lon":139.523417},{"name":"いちご保育園","province":"東京都","city":"東久留米市","address":"東久留米市本町1-5-15","lat":35.759439,"lon":139.533936},{"name":"ちゅうおう保育園","province":"東京都","city":"東久留米市","address":"東久留米市中央町1-2-4","lat":35.756798,"lon":139.526867},{"name":"こでまり保育園","province":"東京都","city":"東久留米市","address":"東久留米市中央町2-3-57","lat":35.753765,"lon":139.521726},{"name":"上の原さくら保育園","province":"東京都","city":"東久留米市","address":"東久留米市上の原1-2-44","lat":35.768713,"lon":139.542057},{"name":"久留米みのり保育園","province":"東京都","city":"東久留米市","address":"東久留米市大門町1-3-4","lat":35.763708,"lon":139.538477},{"name":"しんかわ保育園","province":"東京都","city":"東久留米市","address":"東久留米市新川町1-1-12","lat":35.758064,"lon":139.537238},{"name":"Ｎｉｃｏｔ東久留米","province":"東京都","city":"東久留米市","address":"東久留米市東本町1-8Emio東久留米1F","lat":35.760772,"lon":139.533813},{"name":"ひばり保育園","province":"東京都","city":"東久留米市","address":"東久留米市ひばりが丘団地8-10","lat":35.747535,"lon":139.531614},{"name":"わらべみなみ保育園","province":"東京都","city":"東久留米市","address":"東久留米市南町1-8-51","lat":35.742263,"lon":139.525376},{"name":"かたばみ保育園","province":"東京都","city":"東久留米市","address":"東久留米市前沢1-4-35","lat":35.744877,"lon":139.517468},{"name":"まえさわ保育園","province":"東京都","city":"東久留米市","address":"東久留米市前沢1-5-30","lat":35.748096,"lon":139.515482},{"name":"たきやま保育園","province":"東京都","city":"東久留米市","address":"東久留米市滝山6-1-2","lat":35.74654,"lon":139.507266},{"name":"滝山しおん保育園","province":"東京都","city":"東久留米市","address":"東久留米市滝山7-5-12","lat":35.748073,"lon":139.507183},{"name":"はちまん保育園","province":"東京都","city":"東久留米市","address":"東久留米市八幡町2-14-22","lat":35.756222,"lon":139.513732},{"name":"あそか保育園","province":"東京都","city":"東久留米市","address":"東久留米市下里4-1-21","lat":35.7541,"lon":139.497181},{"name":"はくさん保育園","province":"東京都","city":"東久留米市","address":"東久留米市下里3-2-23","lat":35.752431,"lon":139.502886},{"name":"下里しおん保育園","province":"東京都","city":"東久留米市","address":"東久留米市下里7-8-20","lat":35.759916,"lon":139.502927},{"name":"くるみ保育園","province":"東京都","city":"東久留米市","address":"東久留米市柳窪2-15-6","lat":35.745165,"lon":139.49574},{"name":"さいわい保育園","province":"東京都","city":"東久留米市","address":"東久留米市幸町1-17-1","lat":35.761791,"lon":139.523534},{"name":"東久留米おひさま保育園","province":"東京都","city":"東久留米市","address":"東久留米市幸町1-21-14","lat":35.760678,"lon":139.523417},{"name":"いちご保育園","province":"東京都","city":"東久留米市","address":"東久留米市本町1-5-15","lat":35.759439,"lon":139.533936},{"name":"ちゅうおう保育園","province":"東京都","city":"東久留米市","address":"東久留米市中央町1-2-4","lat":35.756798,"lon":139.526867},{"name":"こでまり保育園","province":"東京都","city":"東久留米市","address":"東久留米市中央町2-3-57","lat":35.753765,"lon":139.521726},{"name":"上の原さくら保育園","province":"東京都","city":"東久留米市","address":"東久留米市上の原1-2-44","lat":35.768713,"lon":139.542057},{"name":"久留米みのり保育園","province":"東京都","city":"東久留米市","address":"東久留米市大門町1-3-4","lat":35.763708,"lon":139.538477},{"name":"しんかわ保育園","province":"東京都","city":"東久留米市","address":"東久留米市新川町1-1-12","lat":35.758064,"lon":139.537238},{"name":"Ｎｉｃｏｔ東久留米","province":"東京都","city":"東久留米市","address":"東久留米市東本町1-8Emio東久留米1F","lat":35.760772,"lon":139.533813},{"name":"ひばり保育園","province":"東京都","city":"東久留米市","address":"東久留米市ひばりが丘団地8-10","lat":35.747535,"lon":139.531614},{"name":"わらべみなみ保育園","province":"東京都","city":"東久留米市","address":"東久留米市南町1-8-51","lat":35.742263,"lon":139.525376},{"name":"かたばみ保育園","province":"東京都","city":"東久留米市","address":"東久留米市前沢1-4-35","lat":35.744877,"lon":139.517468},{"name":"まえさわ保育園","province":"東京都","city":"東久留米市","address":"東久留米市前沢1-5-30","lat":35.748096,"lon":139.515482},{"name":"たきやま保育園","province":"東京都","city":"東久留米市","address":"東久留米市滝山6-1-2","lat":35.74654,"lon":139.507266},{"name":"滝山しおん保育園","province":"東京都","city":"東久留米市","address":"東久留米市滝山7-5-12","lat":35.748073,"lon":139.507183},{"name":"はちまん保育園","province":"東京都","city":"東久留米市","address":"東久留米市八幡町2-14-22","lat":35.756222,"lon":139.513732},{"name":"あそか保育園","province":"東京都","city":"東久留米市","address":"東久留米市下里4-1-21","lat":35.7541,"lon":139.497181},{"name":"はくさん保育園","province":"東京都","city":"東久留米市","address":"東久留米市下里3-2-23","lat":35.752431,"lon":139.502886},{"name":"下里しおん保育園","province":"東京都","city":"東久留米市","address":"東久留米市下里7-8-20","lat":35.759916,"lon":139.502927},{"name":"くるみ保育園","province":"東京都","city":"東久留米市","address":"東久留米市柳窪2-15-6","lat":35.745165,"lon":139.49574},{"name":"さいわい保育園","province":"東京都","city":"東久留米市","address":"東久留米市幸町1-17-1","lat":35.761791,"lon":139.523534},{"name":"東久留米おひさま保育園","province":"東京都","city":"東久留米市","address":"東久留米市幸町1-21-14","lat":35.760678,"lon":139.523417},{"name":"いちご保育園","province":"東京都","city":"東久留米市","address":"東久留米市本町1-5-15","lat":35.759439,"lon":139.533936},{"name":"ちゅうおう保育園","province":"東京都","city":"東久留米市","address":"東久留米市中央町1-2-4","lat":35.756798,"lon":139.526867},{"name":"こでまり保育園","province":"東京都","city":"東久留米市","address":"東久留米市中央町2-3-57","lat":35.753765,"lon":139.521726},{"name":"上の原さくら保育園","province":"東京都","city":"東久留米市","address":"東久留米市上の原1-2-44","lat":35.768713,"lon":139.542057},{"name":"久留米みのり保育園","province":"東京都","city":"東久留米市","address":"東久留米市大門町1-3-4","lat":35.763708,"lon":139.538477},{"name":"しんかわ保育園","province":"東京都","city":"東久留米市","address":"東久留米市新川町1-1-12","lat":35.758064,"lon":139.537238},{"name":"Ｎｉｃｏｔ東久留米","province":"東京都","city":"東久留米市","address":"東久留米市東本町1-8Emio東久留米1F","lat":35.760772,"lon":139.533813},{"name":"ひばり保育園","province":"東京都","city":"東久留米市","address":"東久留米市ひばりが丘団地8-10","lat":35.747535,"lon":139.531614},{"name":"わらべみなみ保育園","province":"東京都","city":"東久留米市","address":"東久留米市南町1-8-51","lat":35.742263,"lon":139.525376},{"name":"かたばみ保育園","province":"東京都","city":"東久留米市","address":"東久留米市前沢1-4-35","lat":35.744877,"lon":139.517468},{"name":"まえさわ保育園","province":"東京都","city":"東久留米市","address":"東久留米市前沢1-5-30","lat":35.748096,"lon":139.515482},{"name":"たきやま保育園","province":"東京都","city":"東久留米市","address":"東久留米市滝山6-1-2","lat":35.74654,"lon":139.507266},{"name":"滝山しおん保育園","province":"東京都","city":"東久留米市","address":"東久留米市滝山7-5-12","lat":35.748073,"lon":139.507183},{"name":"はちまん保育園","province":"東京都","city":"東久留米市","address":"東久留米市八幡町2-14-22","lat":35.756222,"lon":139.513732},{"name":"あそか保育園","province":"東京都","city":"東久留米市","address":"東久留米市下里4-1-21","lat":35.7541,"lon":139.497181},{"name":"はくさん保育園","province":"東京都","city":"東久留米市","address":"東久留米市下里3-2-23","lat":35.752431,"lon":139.502886},{"name":"下里しおん保育園","province":"東京都","city":"東久留米市","address":"東久留米市下里7-8-20","lat":35.759916,"lon":139.502927},{"name":"くるみ保育園","province":"東京都","city":"東久留米市","address":"東久留米市柳窪2-15-6","lat":35.745165,"lon":139.49574},{"name":"さいわい保育園","province":"東京都","city":"東久留米市","address":"東久留米市幸町1-17-1","lat":35.761791,"lon":139.523534},{"name":"東久留米おひさま保育園","province":"東京都","city":"東久留米市","address":"東久留米市幸町1-21-14","lat":35.760678,"lon":139.523417},{"name":"いちご保育園","province":"東京都","city":"東久留米市","address":"東久留米市本町1-5-15","lat":35.759439,"lon":139.533936},{"name":"ちゅうおう保育園","province":"東京都","city":"東久留米市","address":"東久留米市中央町1-2-4","lat":35.756798,"lon":139.526867},{"name":"こでまり保育園","province":"東京都","city":"東久留米市","address":"東久留米市中央町2-3-57","lat":35.753765,"lon":139.521726},{"name":"上の原さくら保育園","province":"東京都","city":"東久留米市","address":"東久留米市上の原1-2-44","lat":35.768713,"lon":139.542057},{"name":"久留米みのり保育園","province":"東京都","city":"東久留米市","address":"東久留米市大門町1-3-4","lat":35.763708,"lon":139.538477},{"name":"しんかわ保育園","province":"東京都","city":"東久留米市","address":"東久留米市新川町1-1-12","lat":35.758064,"lon":139.537238},{"name":"Ｎｉｃｏｔ東久留米","province":"東京都","city":"東久留米市","address":"東久留米市東本町1-8Emio東久留米1F","lat":35.760772,"lon":139.533813},{"name":"ひばり保育園","province":"東京都","city":"東久留米市","address":"東久留米市ひばりが丘団地8-10","lat":35.747535,"lon":139.531614},{"name":"わらべみなみ保育園","province":"東京都","city":"東久留米市","address":"東久留米市南町1-8-51","lat":35.742263,"lon":139.525376},{"name":"かたばみ保育園","province":"東京都","city":"東久留米市","address":"東久留米市前沢1-4-35","lat":35.744877,"lon":139.517468},{"name":"まえさわ保育園","province":"東京都","city":"東久留米市","address":"東久留米市前沢1-5-30","lat":35.748096,"lon":139.515482},{"name":"たきやま保育園","province":"東京都","city":"東久留米市","address":"東久留米市滝山6-1-2","lat":35.74654,"lon":139.507266},{"name":"滝山しおん保育園","province":"東京都","city":"東久留米市","address":"東久留米市滝山7-5-12","lat":35.748073,"lon":139.507183},{"name":"はちまん保育園","province":"東京都","city":"東久留米市","address":"東久留米市八幡町2-14-22","lat":35.756222,"lon":139.513732},{"name":"あそか保育園","province":"東京都","city":"東久留米市","address":"東久留米市下里4-1-21","lat":35.7541,"lon":139.497181},{"name":"はくさん保育園","province":"東京都","city":"東久留米市","address":"東久留米市下里3-2-23","lat":35.752431,"lon":139.502886},{"name":"下里しおん保育園","province":"東京都","city":"東久留米市","address":"東久留米市下里7-8-20","lat":35.759916,"lon":139.502927},{"name":"くるみ保育園","province":"東京都","city":"東久留米市","address":"東久留米市柳窪2-15-6","lat":35.745165,"lon":139.49574},{"name":"さいわい保育園","province":"東京都","city":"東久留米市","address":"東久留米市幸町1-17-1","lat":35.761791,"lon":139.523534},{"name":"東久留米おひさま保育園","province":"東京都","city":"東久留米市","address":"東久留米市幸町1-21-14","lat":35.760678,"lon":139.523417},{"name":"いちご保育園","province":"東京都","city":"東久留米市","address":"東久留米市本町1-5-15","lat":35.759439,"lon":139.533936},{"name":"ちゅうおう保育園","province":"東京都","city":"東久留米市","address":"東久留米市中央町1-2-4","lat":35.756798,"lon":139.526867},{"name":"こでまり保育園","province":"東京都","city":"東久留米市","address":"東久留米市中央町2-3-57","lat":35.753765,"lon":139.521726},{"name":"上の原さくら保育園","province":"東京都","city":"東久留米市","address":"東久留米市上の原1-2-44","lat":35.768713,"lon":139.542057},{"name":"久留米みのり保育園","province":"東京都","city":"東久留米市","address":"東久留米市大門町1-3-4","lat":35.763708,"lon":139.538477},{"name":"しんかわ保育園","province":"東京都","city":"東久留米市","address":"東久留米市新川町1-1-12","lat":35.758064,"lon":139.537238},{"name":"Ｎｉｃｏｔ東久留米","province":"東京都","city":"東久留米市","address":"東久留米市東本町1-8Emio東久留米1F","lat":35.760772,"lon":139.533813},{"name":"ひばり保育園","province":"東京都","city":"東久留米市","address":"東久留米市ひばりが丘団地8-10","lat":35.747535,"lon":139.531614},{"name":"わらべみなみ保育園","province":"東京都","city":"東久留米市","address":"東久留米市南町1-8-51","lat":35.742263,"lon":139.525376},{"name":"かたばみ保育園","province":"東京都","city":"東久留米市","address":"東久留米市前沢1-4-35","lat":35.744877,"lon":139.517468},{"name":"まえさわ保育園","province":"東京都","city":"東久留米市","address":"東久留米市前沢1-5-30","lat":35.748096,"lon":139.515482},{"name":"たきやま保育園","province":"東京都","city":"東久留米市","address":"東久留米市滝山6-1-2","lat":35.74654,"lon":139.507266},{"name":"滝山しおん保育園","province":"東京都","city":"東久留米市","address":"東久留米市滝山7-5-12","lat":35.748073,"lon":139.507183},{"name":"はちまん保育園","province":"東京都","city":"東久留米市","address":"東久留米市八幡町2-14-22","lat":35.756222,"lon":139.513732},{"name":"あそか保育園","province":"東京都","city":"東久留米市","address":"東久留米市下里4-1-21","lat":35.7541,"lon":139.497181},{"name":"はくさん保育園","province":"東京都","city":"東久留米市","address":"東久留米市下里3-2-23","lat":35.752431,"lon":139.502886},{"name":"下里しおん保育園","province":"東京都","city":"東久留米市","address":"東久留米市下里7-8-20","lat":35.759916,"lon":139.502927},{"name":"くるみ保育園","province":"東京都","city":"東久留米市","address":"東久留米市柳窪2-15-6","lat":35.745165,"lon":139.49574},{"name":"さいわい保育園","province":"東京都","city":"東久留米市","address":"東久留米市幸町1-17-1","lat":35.761791,"lon":139.523534},{"name":"東久留米おひさま保育園","province":"東京都","city":"東久留米市","address":"東久留米市幸町1-21-14","lat":35.760678,"lon":139.523417},{"name":"いちご保育園","province":"東京都","city":"東久留米市","address":"東久留米市本町1-5-15","lat":35.759439,"lon":139.533936},{"name":"ちゅうおう保育園","province":"東京都","city":"東久留米市","address":"東久留米市中央町1-2-4","lat":35.756798,"lon":139.526867},{"name":"こでまり保育園","province":"東京都","city":"東久留米市","address":"東久留米市中央町2-3-57","lat":35.753765,"lon":139.521726},{"name":"上の原さくら保育園","province":"東京都","city":"東久留米市","address":"東久留米市上の原1-2-44","lat":35.768713,"lon":139.542057},{"name":"久留米みのり保育園","province":"東京都","city":"東久留米市","address":"東久留米市大門町1-3-4","lat":35.763708,"lon":139.538477},{"name":"しんかわ保育園","province":"東京都","city":"東久留米市","address":"東久留米市新川町1-1-12","lat":35.758064,"lon":139.537238},{"name":"Ｎｉｃｏｔ東久留米","province":"東京都","city":"東久留米市","address":"東久留米市東本町1-8Emio東久留米1F","lat":35.760772,"lon":139.533813},{"name":"ひばり保育園","province":"東京都","city":"東久留米市","address":"東久留米市ひばりが丘団地8-10","lat":35.747535,"lon":139.531614},{"name":"わらべみなみ保育園","province":"東京都","city":"東久留米市","address":"東久留米市南町1-8-51","lat":35.742263,"lon":139.525376},{"name":"かたばみ保育園","province":"東京都","city":"東久留米市","address":"東久留米市前沢1-4-35","lat":35.744877,"lon":139.517468},{"name":"まえさわ保育園","province":"東京都","city":"東久留米市","address":"東久留米市前沢1-5-30","lat":35.748096,"lon":139.515482},{"name":"たきやま保育園","province":"東京都","city":"東久留米市","address":"東久留米市滝山6-1-2","lat":35.74654,"lon":139.507266},{"name":"滝山しおん保育園","province":"東京都","city":"東久留米市","address":"東久留米市滝山7-5-12","lat":35.748073,"lon":139.507183},{"name":"はちまん保育園","province":"東京都","city":"東久留米市","address":"東久留米市八幡町2-14-22","lat":35.756222,"lon":139.513732},{"name":"あそか保育園","province":"東京都","city":"東久留米市","address":"東久留米市下里4-1-21","lat":35.7541,"lon":139.497181},{"name":"はくさん保育園","province":"東京都","city":"東久留米市","address":"東久留米市下里3-2-23","lat":35.752431,"lon":139.502886},{"name":"下里しおん保育園","province":"東京都","city":"東久留米市","address":"東久留米市下里7-8-20","lat":35.759916,"lon":139.502927},{"name":"くるみ保育園","province":"東京都","city":"東久留米市","address":"東久留米市柳窪2-15-6","lat":35.745165,"lon":139.49574},{"name":"さいわい保育園","province":"東京都","city":"東久留米市","address":"東久留米市幸町1-17-1","lat":35.761791,"lon":139.523534},{"name":"東久留米おひさま保育園","province":"東京都","city":"東久留米市","address":"東久留米市幸町1-21-14","lat":35.760678,"lon":139.523417},{"name":"いちご保育園","province":"東京都","city":"東久留米市","address":"東久留米市本町1-5-15","lat":35.759439,"lon":139.533936},{"name":"ちゅうおう保育園","province":"東京都","city":"東久留米市","address":"東久留米市中央町1-2-4","lat":35.756798,"lon":139.526867},{"name":"こでまり保育園","province":"東京都","city":"東久留米市","address":"東久留米市中央町2-3-57","lat":35.753765,"lon":139.521726},{"name":"上の原さくら保育園","province":"東京都","city":"東久留米市","address":"東久留米市上の原1-2-44","lat":35.768713,"lon":139.542057},{"name":"久留米みのり保育園","province":"東京都","city":"東久留米市","address":"東久留米市大門町1-3-4","lat":35.763708,"lon":139.538477},{"name":"しんかわ保育園","province":"東京都","city":"東久留米市","address":"東久留米市新川町1-1-12","lat":35.758064,"lon":139.537238},{"name":"Ｎｉｃｏｔ東久留米","province":"東京都","city":"東久留米市","address":"東久留米市東本町1-8Emio東久留米1F","lat":35.760772,"lon":139.533813},{"name":"ひばり保育園","province":"東京都","city":"東久留米市","address":"東久留米市ひばりが丘団地8-10","lat":35.747535,"lon":139.531614},{"name":"わらべみなみ保育園","province":"東京都","city":"東久留米市","address":"東久留米市南町1-8-51","lat":35.742263,"lon":139.525376},{"name":"かたばみ保育園","province":"東京都","city":"東久留米市","address":"東久留米市前沢1-4-35","lat":35.744877,"lon":139.517468},{"name":"まえさわ保育園","province":"東京都","city":"東久留米市","address":"東久留米市前沢1-5-30","lat":35.748096,"lon":139.515482},{"name":"たきやま保育園","province":"東京都","city":"東久留米市","address":"東久留米市滝山6-1-2","lat":35.74654,"lon":139.507266},{"name":"滝山しおん保育園","province":"東京都","city":"東久留米市","address":"東久留米市滝山7-5-12","lat":35.748073,"lon":139.507183},{"name":"はちまん保育園","province":"東京都","city":"東久留米市","address":"東久留米市八幡町2-14-22","lat":35.756222,"lon":139.513732},{"name":"あそか保育園","province":"東京都","city":"東久留米市","address":"東久留米市下里4-1-21","lat":35.7541,"lon":139.497181},{"name":"はくさん保育園","province":"東京都","city":"東久留米市","address":"東久留米市下里3-2-23","lat":35.752431,"lon":139.502886},{"name":"下里しおん保育園","province":"東京都","city":"東久留米市","address":"東久留米市下里7-8-20","lat":35.759916,"lon":139.502927},{"name":"くるみ保育園","province":"東京都","city":"東久留米市","address":"東久留米市柳窪2-15-6","lat":35.745165,"lon":139.49574},{"name":"さいわい保育園","province":"東京都","city":"東久留米市","address":"東久留米市幸町1-17-1","lat":35.761791,"lon":139.523534},{"name":"東久留米おひさま保育園","province":"東京都","city":"東久留米市","address":"東久留米市幸町1-21-14","lat":35.760678,"lon":139.523417},{"name":"いちご保育園","province":"東京都","city":"東久留米市","address":"東久留米市本町1-5-15","lat":35.759439,"lon":139.533936},{"name":"ちゅうおう保育園","province":"東京都","city":"東久留米市","address":"東久留米市中央町1-2-4","lat":35.756798,"lon":139.526867},{"name":"こでまり保育園","province":"東京都","city":"東久留米市","address":"東久留米市中央町2-3-57","lat":35.753765,"lon":139.521726},{"name":"上の原さくら保育園","province":"東京都","city":"東久留米市","address":"東久留米市上の原1-2-44","lat":35.768713,"lon":139.542057},{"name":"久留米みのり保育園","province":"東京都","city":"東久留米市","address":"東久留米市大門町1-3-4","lat":35.763708,"lon":139.538477},{"name":"しんかわ保育園","province":"東京都","city":"東久留米市","address":"東久留米市新川町1-1-12","lat":35.758064,"lon":139.537238},{"name":"Ｎｉｃｏｔ東久留米","province":"東京都","city":"東久留米市","address":"東久留米市東本町1-8Emio東久留米1F","lat":35.760772,"lon":139.533813},{"name":"ひばり保育園","province":"東京都","city":"東久留米市","address":"東久留米市ひばりが丘団地8-10","lat":35.747535,"lon":139.531614},{"name":"わらべみなみ保育園","province":"東京都","city":"東久留米市","address":"東久留米市南町1-8-51","lat":35.742263,"lon":139.525376},{"name":"かたばみ保育園","province":"東京都","city":"東久留米市","address":"東久留米市前沢1-4-35","lat":35.744877,"lon":139.517468},{"name":"まえさわ保育園","province":"東京都","city":"東久留米市","address":"東久留米市前沢1-5-30","lat":35.748096,"lon":139.515482},{"name":"たきやま保育園","province":"東京都","city":"東久留米市","address":"東久留米市滝山6-1-2","lat":35.74654,"lon":139.507266},{"name":"滝山しおん保育園","province":"東京都","city":"東久留米市","address":"東久留米市滝山7-5-12","lat":35.748073,"lon":139.507183},{"name":"はちまん保育園","province":"東京都","city":"東久留米市","address":"東久留米市八幡町2-14-22","lat":35.756222,"lon":139.513732},{"name":"あそか保育園","province":"東京都","city":"東久留米市","address":"東久留米市下里4-1-21","lat":35.7541,"lon":139.497181},{"name":"はくさん保育園","province":"東京都","city":"東久留米市","address":"東久留米市下里3-2-23","lat":35.752431,"lon":139.502886},{"name":"下里しおん保育園","province":"東京都","city":"東久留米市","address":"東久留米市下里7-8-20","lat":35.759916,"lon":139.502927},{"name":"くるみ保育園","province":"東京都","city":"東久留米市","address":"東久留米市柳窪2-15-6","lat":35.745165,"lon":139.49574},{"name":"さいわい保育園","province":"東京都","city":"東久留米市","address":"東久留米市幸町1-17-1","lat":35.761791,"lon":139.523534},{"name":"東久留米おひさま保育園","province":"東京都","city":"東久留米市","address":"東久留米市幸町1-21-14","lat":35.760678,"lon":139.523417},{"name":"いちご保育園","province":"東京都","city":"東久留米市","address":"東久留米市本町1-5-15","lat":35.759439,"lon":139.533936},{"name":"ちゅうおう保育園","province":"東京都","city":"東久留米市","address":"東久留米市中央町1-2-4","lat":35.756798,"lon":139.526867},{"name":"こでまり保育園","province":"東京都","city":"東久留米市","address":"東久留米市中央町2-3-57","lat":35.753765,"lon":139.521726},{"name":"上の原さくら保育園","province":"東京都","city":"東久留米市","address":"東久留米市上の原1-2-44","lat":35.768713,"lon":139.542057},{"name":"久留米みのり保育園","province":"東京都","city":"東久留米市","address":"東久留米市大門町1-3-4","lat":35.763708,"lon":139.538477},{"name":"しんかわ保育園","province":"東京都","city":"東久留米市","address":"東久留米市新川町1-1-12","lat":35.758064,"lon":139.537238},{"name":"Ｎｉｃｏｔ東久留米","province":"東京都","city":"東久留米市","address":"東久留米市東本町1-8Emio東久留米1F","lat":35.760772,"lon":139.533813},{"name":"ひばり保育園","province":"東京都","city":"東久留米市","address":"東久留米市ひばりが丘団地8-10","lat":35.747535,"lon":139.531614},{"name":"わらべみなみ保育園","province":"東京都","city":"東久留米市","address":"東久留米市南町1-8-51","lat":35.742263,"lon":139.525376},{"name":"かたばみ保育園","province":"東京都","city":"東久留米市","address":"東久留米市前沢1-4-35","lat":35.744877,"lon":139.517468},{"name":"まえさわ保育園","province":"東京都","city":"東久留米市","address":"東久留米市前沢1-5-30","lat":35.748096,"lon":139.515482},{"name":"たきやま保育園","province":"東京都","city":"東久留米市","address":"東久留米市滝山6-1-2","lat":35.74654,"lon":139.507266},{"name":"滝山しおん保育園","province":"東京都","city":"東久留米市","address":"東久留米市滝山7-5-12","lat":35.748073,"lon":139.507183},{"name":"はちまん保育園","province":"東京都","city":"東久留米市","address":"東久留米市八幡町2-14-22","lat":35.756222,"lon":139.513732},{"name":"あそか保育園","province":"東京都","city":"東久留米市","address":"東久留米市下里4-1-21","lat":35.7541,"lon":139.497181},{"name":"はくさん保育園","province":"東京都","city":"東久留米市","address":"東久留米市下里3-2-23","lat":35.752431,"lon":139.502886},{"name":"下里しおん保育園","province":"東京都","city":"東久留米市","address":"東久留米市下里7-8-20","lat":35.759916,"lon":139.502927},{"name":"くるみ保育園","province":"東京都","city":"東久留米市","address":"東久留米市柳窪2-15-6","lat":35.745165,"lon":139.49574},{"name":"さいわい保育園","province":"東京都","city":"東久留米市","address":"東久留米市幸町1-17-1","lat":35.761791,"lon":139.523534},{"name":"東久留米おひさま保育園","province":"東京都","city":"東久留米市","address":"東久留米市幸町1-21-14","lat":35.760678,"lon":139.523417},{"name":"いちご保育園","province":"東京都","city":"東久留米市","address":"東久留米市本町1-5-15","lat":35.759439,"lon":139.533936},{"name":"ちゅうおう保育園","province":"東京都","city":"東久留米市","address":"東久留米市中央町1-2-4","lat":35.756798,"lon":139.526867},{"name":"こでまり保育園","province":"東京都","city":"東久留米市","address":"東久留米市中央町2-3-57","lat":35.753765,"lon":139.521726},{"name":"上の原さくら保育園","province":"東京都","city":"東久留米市","address":"東久留米市上の原1-2-44","lat":35.768713,"lon":139.542057},{"name":"久留米みのり保育園","province":"東京都","city":"東久留米市","address":"東久留米市大門町1-3-4","lat":35.763708,"lon":139.538477},{"name":"しんかわ保育園","province":"東京都","city":"東久留米市","address":"東久留米市新川町1-1-12","lat":35.758064,"lon":139.537238},{"name":"Ｎｉｃｏｔ東久留米","province":"東京都","city":"東久留米市","address":"東久留米市東本町1-8Emio東久留米1F","lat":35.760772,"lon":139.533813},{"name":"ひばり保育園","province":"東京都","city":"東久留米市","address":"東久留米市ひばりが丘団地8-10","lat":35.747535,"lon":139.531614},{"name":"わらべみなみ保育園","province":"東京都","city":"東久留米市","address":"東久留米市南町1-8-51","lat":35.742263,"lon":139.525376},{"name":"かたばみ保育園","province":"東京都","city":"東久留米市","address":"東久留米市前沢1-4-35","lat":35.744877,"lon":139.517468},{"name":"まえさわ保育園","province":"東京都","city":"東久留米市","address":"東久留米市前沢1-5-30","lat":35.748096,"lon":139.515482},{"name":"たきやま保育園","province":"東京都","city":"東久留米市","address":"東久留米市滝山6-1-2","lat":35.74654,"lon":139.507266},{"name":"滝山しおん保育園","province":"東京都","city":"東久留米市","address":"東久留米市滝山7-5-12","lat":35.748073,"lon":139.507183},{"name":"はちまん保育園","province":"東京都","city":"東久留米市","address":"東久留米市八幡町2-14-22","lat":35.756222,"lon":139.513732},{"name":"あそか保育園","province":"東京都","city":"東久留米市","address":"東久留米市下里4-1-21","lat":35.7541,"lon":139.497181},{"name":"はくさん保育園","province":"東京都","city":"東久留米市","address":"東久留米市下里3-2-23","lat":35.752431,"lon":139.502886},{"name":"下里しおん保育園","province":"東京都","city":"東久留米市","address":"東久留米市下里7-8-20","lat":35.759916,"lon":139.502927},{"name":"くるみ保育園","province":"東京都","city":"東久留米市","address":"東久留米市柳窪2-15-6","lat":35.745165,"lon":139.49574},{"name":"さいわい保育園","province":"東京都","city":"東久留米市","address":"東久留米市幸町1-17-1","lat":35.761791,"lon":139.523534},{"name":"東久留米おひさま保育園","province":"東京都","city":"東久留米市","address":"東久留米市幸町1-21-14","lat":35.760678,"lon":139.523417},{"name":"いちご保育園","province":"東京都","city":"東久留米市","address":"東久留米市本町1-5-15","lat":35.759439,"lon":139.533936},{"name":"ちゅうおう保育園","province":"東京都","city":"東久留米市","address":"東久留米市中央町1-2-4","lat":35.756798,"lon":139.526867},{"name":"こでまり保育園","province":"東京都","city":"東久留米市","address":"東久留米市中央町2-3-57","lat":35.753765,"lon":139.521726},{"name":"上の原さくら保育園","province":"東京都","city":"東久留米市","address":"東久留米市上の原1-2-44","lat":35.768713,"lon":139.542057},{"name":"久留米みのり保育園","province":"東京都","city":"東久留米市","address":"東久留米市大門町1-3-4","lat":35.763708,"lon":139.538477},{"name":"しんかわ保育園","province":"東京都","city":"東久留米市","address":"東久留米市新川町1-1-12","lat":35.758064,"lon":139.537238},{"name":"Ｎｉｃｏｔ東久留米","province":"東京都","city":"東久留米市","address":"東久留米市東本町1-8Emio東久留米1F","lat":35.760772,"lon":139.533813},{"name":"ひばり保育園","province":"東京都","city":"東久留米市","address":"東久留米市ひばりが丘団地8-10","lat":35.747535,"lon":139.531614},{"name":"わらべみなみ保育園","province":"東京都","city":"東久留米市","address":"東久留米市南町1-8-51","lat":35.742263,"lon":139.525376},{"name":"かたばみ保育園","province":"東京都","city":"東久留米市","address":"東久留米市前沢1-4-35","lat":35.744877,"lon":139.517468},{"name":"まえさわ保育園","province":"東京都","city":"東久留米市","address":"東久留米市前沢1-5-30","lat":35.748096,"lon":139.515482},{"name":"たきやま保育園","province":"東京都","city":"東久留米市","address":"東久留米市滝山6-1-2","lat":35.74654,"lon":139.507266},{"name":"滝山しおん保育園","province":"東京都","city":"東久留米市","address":"東久留米市滝山7-5-12","lat":35.748073,"lon":139.507183},{"name":"はちまん保育園","province":"東京都","city":"東久留米市","address":"東久留米市八幡町2-14-22","lat":35.756222,"lon":139.513732},{"name":"あそか保育園","province":"東京都","city":"東久留米市","address":"東久留米市下里4-1-21","lat":35.7541,"lon":139.497181},{"name":"はくさん保育園","province":"東京都","city":"東久留米市","address":"東久留米市下里3-2-23","lat":35.752431,"lon":139.502886},{"name":"下里しおん保育園","province":"東京都","city":"東久留米市","address":"東久留米市下里7-8-20","lat":35.759916,"lon":139.502927},{"name":"くるみ保育園","province":"東京都","city":"東久留米市","address":"東久留米市柳窪2-15-6","lat":35.745165,"lon":139.49574},{"name":"さいわい保育園","province":"東京都","city":"東久留米市","address":"東久留米市幸町1-17-1","lat":35.761791,"lon":139.523534},{"name":"東久留米おひさま保育園","province":"東京都","city":"東久留米市","address":"東久留米市幸町1-21-14","lat":35.760678,"lon":139.523417},{"name":"いちご保育園","province":"東京都","city":"東久留米市","address":"東久留米市本町1-5-15","lat":35.759439,"lon":139.533936},{"name":"ちゅうおう保育園","province":"東京都","city":"東久留米市","address":"東久留米市中央町1-2-4","lat":35.756798,"lon":139.526867},{"name":"こでまり保育園","province":"東京都","city":"東久留米市","address":"東久留米市中央町2-3-57","lat":35.753765,"lon":139.521726},{"name":"上の原さくら保育園","province":"東京都","city":"東久留米市","address":"東久留米市上の原1-2-44","lat":35.768713,"lon":139.542057},{"name":"久留米みのり保育園","province":"東京都","city":"東久留米市","address":"東久留米市大門町1-3-4","lat":35.763708,"lon":139.538477},{"name":"しんかわ保育園","province":"東京都","city":"東久留米市","address":"東久留米市新川町1-1-12","lat":35.758064,"lon":139.537238},{"name":"Ｎｉｃｏｔ東久留米","province":"東京都","city":"東久留米市","address":"東久留米市東本町1-8Emio東久留米1F","lat":35.760772,"lon":139.533813},{"name":"ひばり保育園","province":"東京都","city":"東久留米市","address":"東久留米市ひばりが丘団地8-10","lat":35.747535,"lon":139.531614},{"name":"わらべみなみ保育園","province":"東京都","city":"東久留米市","address":"東久留米市南町1-8-51","lat":35.742263,"lon":139.525376},{"name":"かたばみ保育園","province":"東京都","city":"東久留米市","address":"東久留米市前沢1-4-35","lat":35.744877,"lon":139.517468},{"name":"まえさわ保育園","province":"東京都","city":"東久留米市","address":"東久留米市前沢1-5-30","lat":35.748096,"lon":139.515482},{"name":"たきやま保育園","province":"東京都","city":"東久留米市","address":"東久留米市滝山6-1-2","lat":35.74654,"lon":139.507266},{"name":"滝山しおん保育園","province":"東京都","city":"東久留米市","address":"東久留米市滝山7-5-12","lat":35.748073,"lon":139.507183},{"name":"はちまん保育園","province":"東京都","city":"東久留米市","address":"東久留米市八幡町2-14-22","lat":35.756222,"lon":139.513732},{"name":"あそか保育園","province":"東京都","city":"東久留米市","address":"東久留米市下里4-1-21","lat":35.7541,"lon":139.497181},{"name":"はくさん保育園","province":"東京都","city":"東久留米市","address":"東久留米市下里3-2-23","lat":35.752431,"lon":139.502886},{"name":"下里しおん保育園","province":"東京都","city":"東久留米市","address":"東久留米市下里7-8-20","lat":35.759916,"lon":139.502927},{"name":"くるみ保育園","province":"東京都","city":"東久留米市","address":"東久留米市柳窪2-15-6","lat":35.745165,"lon":139.49574},{"name":"さいわい保育園","province":"東京都","city":"東久留米市","address":"東久留米市幸町1-17-1","lat":35.761791,"lon":139.523534},{"name":"東久留米おひさま保育園","province":"東京都","city":"東久留米市","address":"東久留米市幸町1-21-14","lat":35.760678,"lon":139.523417},{"name":"いちご保育園","province":"東京都","city":"東久留米市","address":"東久留米市本町1-5-15","lat":35.759439,"lon":139.533936},{"name":"ちゅうおう保育園","province":"東京都","city":"東久留米市","address":"東久留米市中央町1-2-4","lat":35.756798,"lon":139.526867},{"name":"こでまり保育園","province":"東京都","city":"東久留米市","address":"東久留米市中央町2-3-57","lat":35.753765,"lon":139.521726},{"name":"上の原さくら保育園","province":"東京都","city":"東久留米市","address":"東久留米市上の原1-2-44","lat":35.768713,"lon":139.542057},{"name":"久留米みのり保育園","province":"東京都","city":"東久留米市","address":"東久留米市大門町1-3-4","lat":35.763708,"lon":139.538477},{"name":"しんかわ保育園","province":"東京都","city":"東久留米市","address":"東久留米市新川町1-1-12","lat":35.758064,"lon":139.537238},{"name":"Ｎｉｃｏｔ東久留米","province":"東京都","city":"東久留米市","address":"東久留米市東本町1-8Emio東久留米1F","lat":35.760772,"lon":139.533813},{"name":"ひばり保育園","province":"東京都","city":"東久留米市","address":"東久留米市ひばりが丘団地8-10","lat":35.747535,"lon":139.531614},{"name":"わらべみなみ保育園","province":"東京都","city":"東久留米市","address":"東久留米市南町1-8-51","lat":35.742263,"lon":139.525376},{"name":"かたばみ保育園","province":"東京都","city":"東久留米市","address":"東久留米市前沢1-4-35","lat":35.744877,"lon":139.517468},{"name":"まえさわ保育園","province":"東京都","city":"東久留米市","address":"東久留米市前沢1-5-30","lat":35.748096,"lon":139.515482},{"name":"たきやま保育園","province":"東京都","city":"東久留米市","address":"東久留米市滝山6-1-2","lat":35.74654,"lon":139.507266},{"name":"滝山しおん保育園","province":"東京都","city":"東久留米市","address":"東久留米市滝山7-5-12","lat":35.748073,"lon":139.507183},{"name":"はちまん保育園","province":"東京都","city":"東久留米市","address":"東久留米市八幡町2-14-22","lat":35.756222,"lon":139.513732},{"name":"あそか保育園","province":"東京都","city":"東久留米市","address":"東久留米市下里4-1-21","lat":35.7541,"lon":139.497181},{"name":"はくさん保育園","province":"東京都","city":"東久留米市","address":"東久留米市下里3-2-23","lat":35.752431,"lon":139.502886},{"name":"下里しおん保育園","province":"東京都","city":"東久留米市","address":"東久留米市下里7-8-20","lat":35.759916,"lon":139.502927},{"name":"くるみ保育園","province":"東京都","city":"東久留米市","address":"東久留米市柳窪2-15-6","lat":35.745165,"lon":139.49574},{"name":"さいわい保育園","province":"東京都","city":"東久留米市","address":"東久留米市幸町1-17-1","lat":35.761791,"lon":139.523534},{"name":"東久留米おひさま保育園","province":"東京都","city":"東久留米市","address":"東久留米市幸町1-21-14","lat":35.760678,"lon":139.523417},{"name":"いちご保育園","province":"東京都","city":"東久留米市","address":"東久留米市本町1-5-15","lat":35.759439,"lon":139.533936},{"name":"ちゅうおう保育園","province":"東京都","city":"東久留米市","address":"東久留米市中央町1-2-4","lat":35.756798,"lon":139.526867},{"name":"こでまり保育園","province":"東京都","city":"東久留米市","address":"東久留米市中央町2-3-57","lat":35.753765,"lon":139.521726},{"name":"上の原さくら保育園","province":"東京都","city":"東久留米市","address":"東久留米市上の原1-2-44","lat":35.768713,"lon":139.542057},{"name":"久留米みのり保育園","province":"東京都","city":"東久留米市","address":"東久留米市大門町1-3-4","lat":35.763708,"lon":139.538477},{"name":"しんかわ保育園","province":"東京都","city":"東久留米市","address":"東久留米市新川町1-1-12","lat":35.758064,"lon":139.537238},{"name":"Ｎｉｃｏｔ東久留米","province":"東京都","city":"東久留米市","address":"東久留米市東本町1-8Emio東久留米1F","lat":35.760772,"lon":139.533813},{"name":"ひばり保育園","province":"東京都","city":"東久留米市","address":"東久留米市ひばりが丘団地8-10","lat":35.747535,"lon":139.531614},{"name":"わらべみなみ保育園","province":"東京都","city":"東久留米市","address":"東久留米市南町1-8-51","lat":35.742263,"lon":139.525376},{"name":"かたばみ保育園","province":"東京都","city":"東久留米市","address":"東久留米市前沢1-4-35","lat":35.744877,"lon":139.517468},{"name":"まえさわ保育園","province":"東京都","city":"東久留米市","address":"東久留米市前沢1-5-30","lat":35.748096,"lon":139.515482},{"name":"たきやま保育園","province":"東京都","city":"東久留米市","address":"東久留米市滝山6-1-2","lat":35.74654,"lon":139.507266},{"name":"滝山しおん保育園","province":"東京都","city":"東久留米市","address":"東久留米市滝山7-5-12","lat":35.748073,"lon":139.507183},{"name":"はちまん保育園","province":"東京都","city":"東久留米市","address":"東久留米市八幡町2-14-22","lat":35.756222,"lon":139.513732},{"name":"あそか保育園","province":"東京都","city":"東久留米市","address":"東久留米市下里4-1-21","lat":35.7541,"lon":139.497181},{"name":"はくさん保育園","province":"東京都","city":"東久留米市","address":"東久留米市下里3-2-23","lat":35.752431,"lon":139.502886},{"name":"下里しおん保育園","province":"東京都","city":"東久留米市","address":"東久留米市下里7-8-20","lat":35.759916,"lon":139.502927},{"name":"くるみ保育園","province":"東京都","city":"東久留米市","address":"東久留米市柳窪2-15-6","lat":35.745165,"lon":139.49574},{"name":"さいわい保育園","province":"東京都","city":"東久留米市","address":"東久留米市幸町1-17-1","lat":35.761791,"lon":139.523534},{"name":"東久留米おひさま保育園","province":"東京都","city":"東久留米市","address":"東久留米市幸町1-21-14","lat":35.760678,"lon":139.523417},{"name":"いちご保育園","province":"東京都","city":"東久留米市","address":"東久留米市本町1-5-15","lat":35.759439,"lon":139.533936},{"name":"ちゅうおう保育園","province":"東京都","city":"東久留米市","address":"東久留米市中央町1-2-4","lat":35.756798,"lon":139.526867},{"name":"こでまり保育園","province":"東京都","city":"東久留米市","address":"東久留米市中央町2-3-57","lat":35.753765,"lon":139.521726},{"name":"上の原さくら保育園","province":"東京都","city":"東久留米市","address":"東久留米市上の原1-2-44","lat":35.768713,"lon":139.542057},{"name":"久留米みのり保育園","province":"東京都","city":"東久留米市","address":"東久留米市大門町1-3-4","lat":35.763708,"lon":139.538477},{"name":"しんかわ保育園","province":"東京都","city":"東久留米市","address":"東久留米市新川町1-1-12","lat":35.758064,"lon":139.537238},{"name":"Ｎｉｃｏｔ東久留米","province":"東京都","city":"東久留米市","address":"東久留米市東本町1-8Emio東久留米1F","lat":35.760772,"lon":139.533813},{"name":"ひばり保育園","province":"東京都","city":"東久留米市","address":"東久留米市ひばりが丘団地8-10","lat":35.747535,"lon":139.531614},{"name":"わらべみなみ保育園","province":"東京都","city":"東久留米市","address":"東久留米市南町1-8-51","lat":35.742263,"lon":139.525376},{"name":"かたばみ保育園","province":"東京都","city":"東久留米市","address":"東久留米市前沢1-4-35","lat":35.744877,"lon":139.517468},{"name":"まえさわ保育園","province":"東京都","city":"東久留米市","address":"東久留米市前沢1-5-30","lat":35.748096,"lon":139.515482},{"name":"たきやま保育園","province":"東京都","city":"東久留米市","address":"東久留米市滝山6-1-2","lat":35.74654,"lon":139.507266},{"name":"滝山しおん保育園","province":"東京都","city":"東久留米市","address":"東久留米市滝山7-5-12","lat":35.748073,"lon":139.507183},{"name":"はちまん保育園","province":"東京都","city":"東久留米市","address":"東久留米市八幡町2-14-22","lat":35.756222,"lon":139.513732},{"name":"あそか保育園","province":"東京都","city":"東久留米市","address":"東久留米市下里4-1-21","lat":35.7541,"lon":139.497181},{"name":"はくさん保育園","province":"東京都","city":"東久留米市","address":"東久留米市下里3-2-23","lat":35.752431,"lon":139.502886},{"name":"下里しおん保育園","province":"東京都","city":"東久留米市","address":"東久留米市下里7-8-20","lat":35.759916,"lon":139.502927},{"name":"くるみ保育園","province":"東京都","city":"東久留米市","address":"東久留米市柳窪2-15-6","lat":35.745165,"lon":139.49574},{"name":"さいわい保育園","province":"東京都","city":"東久留米市","address":"東久留米市幸町1-17-1","lat":35.761791,"lon":139.523534},{"name":"東久留米おひさま保育園","province":"東京都","city":"東久留米市","address":"東久留米市幸町1-21-14","lat":35.760678,"lon":139.523417},{"name":"いちご保育園","province":"東京都","city":"東久留米市","address":"東久留米市本町1-5-15","lat":35.759439,"lon":139.533936},{"name":"ちゅうおう保育園","province":"東京都","city":"東久留米市","address":"東久留米市中央町1-2-4","lat":35.756798,"lon":139.526867},{"name":"こでまり保育園","province":"東京都","city":"東久留米市","address":"東久留米市中央町2-3-57","lat":35.753765,"lon":139.521726},{"name":"上の原さくら保育園","province":"東京都","city":"東久留米市","address":"東久留米市上の原1-2-44","lat":35.768713,"lon":139.542057},{"name":"久留米みのり保育園","province":"東京都","city":"東久留米市","address":"東久留米市大門町1-3-4","lat":35.763708,"lon":139.538477},{"name":"しんかわ保育園","province":"東京都","city":"東久留米市","address":"東久留米市新川町1-1-12","lat":35.758064,"lon":139.537238},{"name":"Ｎｉｃｏｔ東久留米","province":"東京都","city":"東久留米市","address":"東久留米市東本町1-8Emio東久留米1F","lat":35.760772,"lon":139.533813},{"name":"ひばり保育園","province":"東京都","city":"東久留米市","address":"東久留米市ひばりが丘団地8-10","lat":35.747535,"lon":139.531614},{"name":"わらべみなみ保育園","province":"東京都","city":"東久留米市","address":"東久留米市南町1-8-51","lat":35.742263,"lon":139.525376},{"name":"かたばみ保育園","province":"東京都","city":"東久留米市","address":"東久留米市前沢1-4-35","lat":35.744877,"lon":139.517468},{"name":"まえさわ保育園","province":"東京都","city":"東久留米市","address":"東久留米市前沢1-5-30","lat":35.748096,"lon":139.515482},{"name":"たきやま保育園","province":"東京都","city":"東久留米市","address":"東久留米市滝山6-1-2","lat":35.74654,"lon":139.507266},{"name":"滝山しおん保育園","province":"東京都","city":"東久留米市","address":"東久留米市滝山7-5-12","lat":35.748073,"lon":139.507183},{"name":"はちまん保育園","province":"東京都","city":"東久留米市","address":"東久留米市八幡町2-14-22","lat":35.756222,"lon":139.513732},{"name":"あそか保育園","province":"東京都","city":"東久留米市","address":"東久留米市下里4-1-21","lat":35.7541,"lon":139.497181},{"name":"はくさん保育園","province":"東京都","city":"東久留米市","address":"東久留米市下里3-2-23","lat":35.752431,"lon":139.502886},{"name":"下里しおん保育園","province":"東京都","city":"東久留米市","address":"東久留米市下里7-8-20","lat":35.759916,"lon":139.502927},{"name":"くるみ保育園","province":"東京都","city":"東久留米市","address":"東久留米市柳窪2-15-6","lat":35.745165,"lon":139.49574},{"name":"さいわい保育園","province":"東京都","city":"東久留米市","address":"東久留米市幸町1-17-1","lat":35.761791,"lon":139.523534},{"name":"東久留米おひさま保育園","province":"東京都","city":"東久留米市","address":"東久留米市幸町1-21-14","lat":35.760678,"lon":139.523417},{"name":"いちご保育園","province":"東京都","city":"東久留米市","address":"東久留米市本町1-5-15","lat":35.759439,"lon":139.533936},{"name":"ちゅうおう保育園","province":"東京都","city":"東久留米市","address":"東久留米市中央町1-2-4","lat":35.756798,"lon":139.526867},{"name":"こでまり保育園","province":"東京都","city":"東久留米市","address":"東久留米市中央町2-3-57","lat":35.753765,"lon":139.521726},{"name":"上の原さくら保育園","province":"東京都","city":"東久留米市","address":"東久留米市上の原1-2-44","lat":35.768713,"lon":139.542057},{"name":"久留米みのり保育園","province":"東京都","city":"東久留米市","address":"東久留米市大門町1-3-4","lat":35.763708,"lon":139.538477},{"name":"しんかわ保育園","province":"東京都","city":"東久留米市","address":"東久留米市新川町1-1-12","lat":35.758064,"lon":139.537238},{"name":"Ｎｉｃｏｔ東久留米","province":"東京都","city":"東久留米市","address":"東久留米市東本町1-8Emio東久留米1F","lat":35.760772,"lon":139.533813},{"name":"ひばり保育園","province":"東京都","city":"東久留米市","address":"東久留米市ひばりが丘団地8-10","lat":35.747535,"lon":139.531614},{"name":"わらべみなみ保育園","province":"東京都","city":"東久留米市","address":"東久留米市南町1-8-51","lat":35.742263,"lon":139.525376},{"name":"かたばみ保育園","province":"東京都","city":"東久留米市","address":"東久留米市前沢1-4-35","lat":35.744877,"lon":139.517468},{"name":"まえさわ保育園","province":"東京都","city":"東久留米市","address":"東久留米市前沢1-5-30","lat":35.748096,"lon":139.515482},{"name":"たきやま保育園","province":"東京都","city":"東久留米市","address":"東久留米市滝山6-1-2","lat":35.74654,"lon":139.507266},{"name":"滝山しおん保育園","province":"東京都","city":"東久留米市","address":"東久留米市滝山7-5-12","lat":35.748073,"lon":139.507183},{"name":"はちまん保育園","province":"東京都","city":"東久留米市","address":"東久留米市八幡町2-14-22","lat":35.756222,"lon":139.513732},{"name":"あそか保育園","province":"東京都","city":"東久留米市","address":"東久留米市下里4-1-21","lat":35.7541,"lon":139.497181},{"name":"はくさん保育園","province":"東京都","city":"東久留米市","address":"東久留米市下里3-2-23","lat":35.752431,"lon":139.502886},{"name":"下里しおん保育園","province":"東京都","city":"東久留米市","address":"東久留米市下里7-8-20","lat":35.759916,"lon":139.502927},{"name":"くるみ保育園","province":"東京都","city":"東久留米市","address":"東久留米市柳窪2-15-6","lat":35.745165,"lon":139.49574},{"name":"さいわい保育園","province":"東京都","city":"東久留米市","address":"東久留米市幸町1-17-1","lat":35.761791,"lon":139.523534},{"name":"東久留米おひさま保育園","province":"東京都","city":"東久留米市","address":"東久留米市幸町1-21-14","lat":35.760678,"lon":139.523417},{"name":"いちご保育園","province":"東京都","city":"東久留米市","address":"東久留米市本町1-5-15","lat":35.759439,"lon":139.533936},{"name":"ちゅうおう保育園","province":"東京都","city":"東久留米市","address":"東久留米市中央町1-2-4","lat":35.756798,"lon":139.526867},{"name":"こでまり保育園","province":"東京都","city":"東久留米市","address":"東久留米市中央町2-3-57","lat":35.753765,"lon":139.521726},{"name":"上の原さくら保育園","province":"東京都","city":"東久留米市","address":"東久留米市上の原1-2-44","lat":35.768713,"lon":139.542057},{"name":"久留米みのり保育園","province":"東京都","city":"東久留米市","address":"東久留米市大門町1-3-4","lat":35.763708,"lon":139.538477},{"name":"しんかわ保育園","province":"東京都","city":"東久留米市","address":"東久留米市新川町1-1-12","lat":35.758064,"lon":139.537238},{"name":"Ｎｉｃｏｔ東久留米","province":"東京都","city":"東久留米市","address":"東久留米市東本町1-8Emio東久留米1F","lat":35.760772,"lon":139.533813},{"name":"ひばり保育園","province":"東京都","city":"東久留米市","address":"東久留米市ひばりが丘団地8-10","lat":35.747535,"lon":139.531614},{"name":"わらべみなみ保育園","province":"東京都","city":"東久留米市","address":"東久留米市南町1-8-51","lat":35.742263,"lon":139.525376},{"name":"かたばみ保育園","province":"東京都","city":"東久留米市","address":"東久留米市前沢1-4-35","lat":35.744877,"lon":139.517468},{"name":"まえさわ保育園","province":"東京都","city":"東久留米市","address":"東久留米市前沢1-5-30","lat":35.748096,"lon":139.515482},{"name":"たきやま保育園","province":"東京都","city":"東久留米市","address":"東久留米市滝山6-1-2","lat":35.74654,"lon":139.507266},{"name":"滝山しおん保育園","province":"東京都","city":"東久留米市","address":"東久留米市滝山7-5-12","lat":35.748073,"lon":139.507183},{"name":"はちまん保育園","province":"東京都","city":"東久留米市","address":"東久留米市八幡町2-14-22","lat":35.756222,"lon":139.513732},{"name":"あそか保育園","province":"東京都","city":"東久留米市","address":"東久留米市下里4-1-21","lat":35.7541,"lon":139.497181},{"name":"はくさん保育園","province":"東京都","city":"東久留米市","address":"東久留米市下里3-2-23","lat":35.752431,"lon":139.502886},{"name":"下里しおん保育園","province":"東京都","city":"東久留米市","address":"東久留米市下里7-8-20","lat":35.759916,"lon":139.502927},{"name":"くるみ保育園","province":"東京都","city":"東久留米市","address":"東久留米市柳窪2-15-6","lat":35.745165,"lon":139.49574},{"name":"さいわい保育園","province":"東京都","city":"東久留米市","address":"東久留米市幸町1-17-1","lat":35.761791,"lon":139.523534},{"name":"東久留米おひさま保育園","province":"東京都","city":"東久留米市","address":"東久留米市幸町1-21-14","lat":35.760678,"lon":139.523417},{"name":"いちご保育園","province":"東京都","city":"東久留米市","address":"東久留米市本町1-5-15","lat":35.759439,"lon":139.533936},{"name":"ちゅうおう保育園","province":"東京都","city":"東久留米市","address":"東久留米市中央町1-2-4","lat":35.756798,"lon":139.526867},{"name":"こでまり保育園","province":"東京都","city":"東久留米市","address":"東久留米市中央町2-3-57","lat":35.753765,"lon":139.521726},{"name":"上の原さくら保育園","province":"東京都","city":"東久留米市","address":"東久留米市上の原1-2-44","lat":35.768713,"lon":139.542057},{"name":"久留米みのり保育園","province":"東京都","city":"東久留米市","address":"東久留米市大門町1-3-4","lat":35.763708,"lon":139.538477},{"name":"しんかわ保育園","province":"東京都","city":"東久留米市","address":"東久留米市新川町1-1-12","lat":35.758064,"lon":139.537238},{"name":"Ｎｉｃｏｔ東久留米","province":"東京都","city":"東久留米市","address":"東久留米市東本町1-8Emio東久留米1F","lat":35.760772,"lon":139.533813},{"name":"ひばり保育園","province":"東京都","city":"東久留米市","address":"東久留米市ひばりが丘団地8-10","lat":35.747535,"lon":139.531614},{"name":"わらべみなみ保育園","province":"東京都","city":"東久留米市","address":"東久留米市南町1-8-51","lat":35.742263,"lon":139.525376},{"name":"かたばみ保育園","province":"東京都","city":"東久留米市","address":"東久留米市前沢1-4-35","lat":35.744877,"lon":139.517468},{"name":"まえさわ保育園","province":"東京都","city":"東久留米市","address":"東久留米市前沢1-5-30","lat":35.748096,"lon":139.515482},{"name":"たきやま保育園","province":"東京都","city":"東久留米市","address":"東久留米市滝山6-1-2","lat":35.74654,"lon":139.507266},{"name":"滝山しおん保育園","province":"東京都","city":"東久留米市","address":"東久留米市滝山7-5-12","lat":35.748073,"lon":139.507183},{"name":"はちまん保育園","province":"東京都","city":"東久留米市","address":"東久留米市八幡町2-14-22","lat":35.756222,"lon":139.513732},{"name":"あそか保育園","province":"東京都","city":"東久留米市","address":"東久留米市下里4-1-21","lat":35.7541,"lon":139.497181},{"name":"はくさん保育園","province":"東京都","city":"東久留米市","address":"東久留米市下里3-2-23","lat":35.752431,"lon":139.502886},{"name":"下里しおん保育園","province":"東京都","city":"東久留米市","address":"東久留米市下里7-8-20","lat":35.759916,"lon":139.502927},{"name":"くるみ保育園","province":"東京都","city":"東久留米市","address":"東久留米市柳窪2-15-6","lat":35.745165,"lon":139.49574},{"name":"さいわい保育園","province":"東京都","city":"東久留米市","address":"東久留米市幸町1-17-1","lat":35.761791,"lon":139.523534},{"name":"東久留米おひさま保育園","province":"東京都","city":"東久留米市","address":"東久留米市幸町1-21-14","lat":35.760678,"lon":139.523417},{"name":"いちご保育園","province":"東京都","city":"東久留米市","address":"東久留米市本町1-5-15","lat":35.759439,"lon":139.533936},{"name":"ちゅうおう保育園","province":"東京都","city":"東久留米市","address":"東久留米市中央町1-2-4","lat":35.756798,"lon":139.526867},{"name":"こでまり保育園","province":"東京都","city":"東久留米市","address":"東久留米市中央町2-3-57","lat":35.753765,"lon":139.521726},{"name":"上の原さくら保育園","province":"東京都","city":"東久留米市","address":"東久留米市上の原1-2-44","lat":35.768713,"lon":139.542057},{"name":"久留米みのり保育園","province":"東京都","city":"東久留米市","address":"東久留米市大門町1-3-4","lat":35.763708,"lon":139.538477},{"name":"しんかわ保育園","province":"東京都","city":"東久留米市","address":"東久留米市新川町1-1-12","lat":35.758064,"lon":139.537238},{"name":"Ｎｉｃｏｔ東久留米","province":"東京都","city":"東久留米市","address":"東久留米市東本町1-8Emio東久留米1F","lat":35.760772,"lon":139.533813},{"name":"ひばり保育園","province":"東京都","city":"東久留米市","address":"東久留米市ひばりが丘団地8-10","lat":35.747535,"lon":139.531614},{"name":"わらべみなみ保育園","province":"東京都","city":"東久留米市","address":"東久留米市南町1-8-51","lat":35.742263,"lon":139.525376},{"name":"かたばみ保育園","province":"東京都","city":"東久留米市","address":"東久留米市前沢1-4-35","lat":35.744877,"lon":139.517468},{"name":"まえさわ保育園","province":"東京都","city":"東久留米市","address":"東久留米市前沢1-5-30","lat":35.748096,"lon":139.515482},{"name":"たきやま保育園","province":"東京都","city":"東久留米市","address":"東久留米市滝山6-1-2","lat":35.74654,"lon":139.507266},{"name":"滝山しおん保育園","province":"東京都","city":"東久留米市","address":"東久留米市滝山7-5-12","lat":35.748073,"lon":139.507183},{"name":"はちまん保育園","province":"東京都","city":"東久留米市","address":"東久留米市八幡町2-14-22","lat":35.756222,"lon":139.513732},{"name":"あそか保育園","province":"東京都","city":"東久留米市","address":"東久留米市下里4-1-21","lat":35.7541,"lon":139.497181},{"name":"はくさん保育園","province":"東京都","city":"東久留米市","address":"東久留米市下里3-2-23","lat":35.752431,"lon":139.502886},{"name":"下里しおん保育園","province":"東京都","city":"東久留米市","address":"東久留米市下里7-8-20","lat":35.759916,"lon":139.502927},{"name":"くるみ保育園","province":"東京都","city":"東久留米市","address":"東久留米市柳窪2-15-6","lat":35.745165,"lon":139.49574},{"name":"さいわい保育園","province":"東京都","city":"東久留米市","address":"東久留米市幸町1-17-1","lat":35.761791,"lon":139.523534},{"name":"東久留米おひさま保育園","province":"東京都","city":"東久留米市","address":"東久留米市幸町1-21-14","lat":35.760678,"lon":139.523417},{"name":"いちご保育園","province":"東京都","city":"東久留米市","address":"東久留米市本町1-5-15","lat":35.759439,"lon":139.533936},{"name":"ちゅうおう保育園","province":"東京都","city":"東久留米市","address":"東久留米市中央町1-2-4","lat":35.756798,"lon":139.526867},{"name":"こでまり保育園","province":"東京都","city":"東久留米市","address":"東久留米市中央町2-3-57","lat":35.753765,"lon":139.521726},{"name":"上の原さくら保育園","province":"東京都","city":"東久留米市","address":"東久留米市上の原1-2-44","lat":35.768713,"lon":139.542057},{"name":"久留米みのり保育園","province":"東京都","city":"東久留米市","address":"東久留米市大門町1-3-4","lat":35.763708,"lon":139.538477},{"name":"しんかわ保育園","province":"東京都","city":"東久留米市","address":"東久留米市新川町1-1-12","lat":35.758064,"lon":139.537238},{"name":"Ｎｉｃｏｔ東久留米","province":"東京都","city":"東久留米市","address":"東久留米市東本町1-8Emio東久留米1F","lat":35.760772,"lon":139.533813},{"name":"ひばり保育園","province":"東京都","city":"東久留米市","address":"東久留米市ひばりが丘団地8-10","lat":35.747535,"lon":139.531614},{"name":"わらべみなみ保育園","province":"東京都","city":"東久留米市","address":"東久留米市南町1-8-51","lat":35.742263,"lon":139.525376},{"name":"かたばみ保育園","province":"東京都","city":"東久留米市","address":"東久留米市前沢1-4-35","lat":35.744877,"lon":139.517468},{"name":"まえさわ保育園","province":"東京都","city":"東久留米市","address":"東久留米市前沢1-5-30","lat":35.748096,"lon":139.515482},{"name":"たきやま保育園","province":"東京都","city":"東久留米市","address":"東久留米市滝山6-1-2","lat":35.74654,"lon":139.507266},{"name":"滝山しおん保育園","province":"東京都","city":"東久留米市","address":"東久留米市滝山7-5-12","lat":35.748073,"lon":139.507183},{"name":"はちまん保育園","province":"東京都","city":"東久留米市","address":"東久留米市八幡町2-14-22","lat":35.756222,"lon":139.513732},{"name":"あそか保育園","province":"東京都","city":"東久留米市","address":"東久留米市下里4-1-21","lat":35.7541,"lon":139.497181},{"name":"はくさん保育園","province":"東京都","city":"東久留米市","address":"東久留米市下里3-2-23","lat":35.752431,"lon":139.502886},{"name":"下里しおん保育園","province":"東京都","city":"東久留米市","address":"東久留米市下里7-8-20","lat":35.759916,"lon":139.502927},{"name":"くるみ保育園","province":"東京都","city":"東久留米市","address":"東久留米市柳窪2-15-6","lat":35.745165,"lon":139.49574},{"name":"さいわい保育園","province":"東京都","city":"東久留米市","address":"東久留米市幸町1-17-1","lat":35.761791,"lon":139.523534},{"name":"東久留米おひさま保育園","province":"東京都","city":"東久留米市","address":"東久留米市幸町1-21-14","lat":35.760678,"lon":139.523417},{"name":"いちご保育園","province":"東京都","city":"東久留米市","address":"東久留米市本町1-5-15","lat":35.759439,"lon":139.533936},{"name":"ちゅうおう保育園","province":"東京都","city":"東久留米市","address":"東久留米市中央町1-2-4","lat":35.756798,"lon":139.526867},{"name":"こでまり保育園","province":"東京都","city":"東久留米市","address":"東久留米市中央町2-3-57","lat":35.753765,"lon":139.521726},{"name":"上の原さくら保育園","province":"東京都","city":"東久留米市","address":"東久留米市上の原1-2-44","lat":35.768713,"lon":139.542057},{"name":"久留米みのり保育園","province":"東京都","city":"東久留米市","address":"東久留米市大門町1-3-4","lat":35.763708,"lon":139.538477},{"name":"しんかわ保育園","province":"東京都","city":"東久留米市","address":"東久留米市新川町1-1-12","lat":35.758064,"lon":139.537238},{"name":"Ｎｉｃｏｔ東久留米","province":"東京都","city":"東久留米市","address":"東久留米市東本町1-8Emio東久留米1F","lat":35.760772,"lon":139.533813},{"name":"ひばり保育園","province":"東京都","city":"東久留米市","address":"東久留米市ひばりが丘団地8-10","lat":35.747535,"lon":139.531614},{"name":"わらべみなみ保育園","province":"東京都","city":"東久留米市","address":"東久留米市南町1-8-51","lat":35.742263,"lon":139.525376},{"name":"かたばみ保育園","province":"東京都","city":"東久留米市","address":"東久留米市前沢1-4-35","lat":35.744877,"lon":139.517468},{"name":"まえさわ保育園","province":"東京都","city":"東久留米市","address":"東久留米市前沢1-5-30","lat":35.748096,"lon":139.515482},{"name":"たきやま保育園","province":"東京都","city":"東久留米市","address":"東久留米市滝山6-1-2","lat":35.74654,"lon":139.507266},{"name":"滝山しおん保育園","province":"東京都","city":"東久留米市","address":"東久留米市滝山7-5-12","lat":35.748073,"lon":139.507183},{"name":"はちまん保育園","province":"東京都","city":"東久留米市","address":"東久留米市八幡町2-14-22","lat":35.756222,"lon":139.513732},{"name":"あそか保育園","province":"東京都","city":"東久留米市","address":"東久留米市下里4-1-21","lat":35.7541,"lon":139.497181},{"name":"はくさん保育園","province":"東京都","city":"東久留米市","address":"東久留米市下里3-2-23","lat":35.752431,"lon":139.502886},{"name":"下里しおん保育園","province":"東京都","city":"東久留米市","address":"東久留米市下里7-8-20","lat":35.759916,"lon":139.502927},{"name":"くるみ保育園","province":"東京都","city":"東久留米市","address":"東久留米市柳窪2-15-6","lat":35.745165,"lon":139.49574},{"name":"さいわい保育園","province":"東京都","city":"東久留米市","address":"東久留米市幸町1-17-1","lat":35.761791,"lon":139.523534},{"name":"東久留米おひさま保育園","province":"東京都","city":"東久留米市","address":"東久留米市幸町1-21-14","lat":35.760678,"lon":139.523417},{"name":"いちご保育園","province":"東京都","city":"東久留米市","address":"東久留米市本町1-5-15","lat":35.759439,"lon":139.533936},{"name":"ちゅうおう保育園","province":"東京都","city":"東久留米市","address":"東久留米市中央町1-2-4","lat":35.756798,"lon":139.526867},{"name":"こでまり保育園","province":"東京都","city":"東久留米市","address":"東久留米市中央町2-3-57","lat":35.753765,"lon":139.521726},{"name":"上の原さくら保育園","province":"東京都","city":"東久留米市","address":"東久留米市上の原1-2-44","lat":35.768713,"lon":139.542057},{"name":"久留米みのり保育園","province":"東京都","city":"東久留米市","address":"東久留米市大門町1-3-4","lat":35.763708,"lon":139.538477},{"name":"しんかわ保育園","province":"東京都","city":"東久留米市","address":"東久留米市新川町1-1-12","lat":35.758064,"lon":139.537238},{"name":"Ｎｉｃｏｔ東久留米","province":"東京都","city":"東久留米市","address":"東久留米市東本町1-8Emio東久留米1F","lat":35.760772,"lon":139.533813},{"name":"ひばり保育園","province":"東京都","city":"東久留米市","address":"東久留米市ひばりが丘団地8-10","lat":35.747535,"lon":139.531614},{"name":"わらべみなみ保育園","province":"東京都","city":"東久留米市","address":"東久留米市南町1-8-51","lat":35.742263,"lon":139.525376},{"name":"かたばみ保育園","province":"東京都","city":"東久留米市","address":"東久留米市前沢1-4-35","lat":35.744877,"lon":139.517468},{"name":"まえさわ保育園","province":"東京都","city":"東久留米市","address":"東久留米市前沢1-5-30","lat":35.748096,"lon":139.515482},{"name":"たきやま保育園","province":"東京都","city":"東久留米市","address":"東久留米市滝山6-1-2","lat":35.74654,"lon":139.507266},{"name":"滝山しおん保育園","province":"東京都","city":"東久留米市","address":"東久留米市滝山7-5-12","lat":35.748073,"lon":139.507183},{"name":"はちまん保育園","province":"東京都","city":"東久留米市","address":"東久留米市八幡町2-14-22","lat":35.756222,"lon":139.513732},{"name":"あそか保育園","province":"東京都","city":"東久留米市","address":"東久留米市下里4-1-21","lat":35.7541,"lon":139.497181},{"name":"はくさん保育園","province":"東京都","city":"東久留米市","address":"東久留米市下里3-2-23","lat":35.752431,"lon":139.502886},{"name":"下里しおん保育園","province":"東京都","city":"東久留米市","address":"東久留米市下里7-8-20","lat":35.759916,"lon":139.502927},{"name":"くるみ保育園","province":"東京都","city":"東久留米市","address":"東久留米市柳窪2-15-6","lat":35.745165,"lon":139.49574},{"name":"さいわい保育園","province":"東京都","city":"東久留米市","address":"東久留米市幸町1-17-1","lat":35.761791,"lon":139.523534},{"name":"東久留米おひさま保育園","province":"東京都","city":"東久留米市","address":"東久留米市幸町1-21-14","lat":35.760678,"lon":139.523417},{"name":"いちご保育園","province":"東京都","city":"東久留米市","address":"東久留米市本町1-5-15","lat":35.759439,"lon":139.533936},{"name":"ちゅうおう保育園","province":"東京都","city":"東久留米市","address":"東久留米市中央町1-2-4","lat":35.756798,"lon":139.526867},{"name":"こでまり保育園","province":"東京都","city":"東久留米市","address":"東久留米市中央町2-3-57","lat":35.753765,"lon":139.521726},{"name":"上の原さくら保育園","province":"東京都","city":"東久留米市","address":"東久留米市上の原1-2-44","lat":35.768713,"lon":139.542057},{"name":"久留米みのり保育園","province":"東京都","city":"東久留米市","address":"東久留米市大門町1-3-4","lat":35.763708,"lon":139.538477},{"name":"しんかわ保育園","province":"東京都","city":"東久留米市","address":"東久留米市新川町1-1-12","lat":35.758064,"lon":139.537238},{"name":"Ｎｉｃｏｔ東久留米","province":"東京都","city":"東久留米市","address":"東久留米市東本町1-8Emio東久留米1F","lat":35.760772,"lon":139.533813},{"name":"ひばり保育園","province":"東京都","city":"東久留米市","address":"東久留米市ひばりが丘団地8-10","lat":35.747535,"lon":139.531614},{"name":"わらべみなみ保育園","province":"東京都","city":"東久留米市","address":"東久留米市南町1-8-51","lat":35.742263,"lon":139.525376},{"name":"かたばみ保育園","province":"東京都","city":"東久留米市","address":"東久留米市前沢1-4-35","lat":35.744877,"lon":139.517468},{"name":"まえさわ保育園","province":"東京都","city":"東久留米市","address":"東久留米市前沢1-5-30","lat":35.748096,"lon":139.515482},{"name":"たきやま保育園","province":"東京都","city":"東久留米市","address":"東久留米市滝山6-1-2","lat":35.74654,"lon":139.507266},{"name":"滝山しおん保育園","province":"東京都","city":"東久留米市","address":"東久留米市滝山7-5-12","lat":35.748073,"lon":139.507183},{"name":"はちまん保育園","province":"東京都","city":"東久留米市","address":"東久留米市八幡町2-14-22","lat":35.756222,"lon":139.513732},{"name":"あそか保育園","province":"東京都","city":"東久留米市","address":"東久留米市下里4-1-21","lat":35.7541,"lon":139.497181},{"name":"はくさん保育園","province":"東京都","city":"東久留米市","address":"東久留米市下里3-2-23","lat":35.752431,"lon":139.502886},{"name":"下里しおん保育園","province":"東京都","city":"東久留米市","address":"東久留米市下里7-8-20","lat":35.759916,"lon":139.502927},{"name":"くるみ保育園","province":"東京都","city":"東久留米市","address":"東久留米市柳窪2-15-6","lat":35.745165,"lon":139.49574},{"name":"さいわい保育園","province":"東京都","city":"東久留米市","address":"東久留米市幸町1-17-1","lat":35.761791,"lon":139.523534},{"name":"東久留米おひさま保育園","province":"東京都","city":"東久留米市","address":"東久留米市幸町1-21-14","lat":35.760678,"lon":139.523417},{"name":"いちご保育園","province":"東京都","city":"東久留米市","address":"東久留米市本町1-5-15","lat":35.759439,"lon":139.533936},{"name":"ちゅうおう保育園","province":"東京都","city":"東久留米市","address":"東久留米市中央町1-2-4","lat":35.756798,"lon":139.526867},{"name":"こでまり保育園","province":"東京都","city":"東久留米市","address":"東久留米市中央町2-3-57","lat":35.753765,"lon":139.521726},{"name":"上の原さくら保育園","province":"東京都","city":"東久留米市","address":"東久留米市上の原1-2-44","lat":35.768713,"lon":139.542057},{"name":"久留米みのり保育園","province":"東京都","city":"東久留米市","address":"東久留米市大門町1-3-4","lat":35.763708,"lon":139.538477},{"name":"しんかわ保育園","province":"東京都","city":"東久留米市","address":"東久留米市新川町1-1-12","lat":35.758064,"lon":139.537238},{"name":"Ｎｉｃｏｔ東久留米","province":"東京都","city":"東久留米市","address":"東久留米市東本町1-8Emio東久留米1F","lat":35.760772,"lon":139.533813},{"name":"ひばり保育園","province":"東京都","city":"東久留米市","address":"東久留米市ひばりが丘団地8-10","lat":35.747535,"lon":139.531614},{"name":"わらべみなみ保育園","province":"東京都","city":"東久留米市","address":"東久留米市南町1-8-51","lat":35.742263,"lon":139.525376},{"name":"かたばみ保育園","province":"東京都","city":"東久留米市","address":"東久留米市前沢1-4-35","lat":35.744877,"lon":139.517468},{"name":"まえさわ保育園","province":"東京都","city":"東久留米市","address":"東久留米市前沢1-5-30","lat":35.748096,"lon":139.515482},{"name":"たきやま保育園","province":"東京都","city":"東久留米市","address":"東久留米市滝山6-1-2","lat":35.74654,"lon":139.507266},{"name":"滝山しおん保育園","province":"東京都","city":"東久留米市","address":"東久留米市滝山7-5-12","lat":35.748073,"lon":139.507183},{"name":"はちまん保育園","province":"東京都","city":"東久留米市","address":"東久留米市八幡町2-14-22","lat":35.756222,"lon":139.513732},{"name":"あそか保育園","province":"東京都","city":"東久留米市","address":"東久留米市下里4-1-21","lat":35.7541,"lon":139.497181},{"name":"はくさん保育園","province":"東京都","city":"東久留米市","address":"東久留米市下里3-2-23","lat":35.752431,"lon":139.502886},{"name":"下里しおん保育園","province":"東京都","city":"東久留米市","address":"東久留米市下里7-8-20","lat":35.759916,"lon":139.502927},{"name":"くるみ保育園","province":"東京都","city":"東久留米市","address":"東久留米市柳窪2-15-6","lat":35.745165,"lon":139.49574},{"name":"さいわい保育園","province":"東京都","city":"東久留米市","address":"東久留米市幸町1-17-1","lat":35.761791,"lon":139.523534},{"name":"東久留米おひさま保育園","province":"東京都","city":"東久留米市","address":"東久留米市幸町1-21-14","lat":35.760678,"lon":139.523417},{"name":"いちご保育園","province":"東京都","city":"東久留米市","address":"東久留米市本町1-5-15","lat":35.759439,"lon":139.533936},{"name":"ちゅうおう保育園","province":"東京都","city":"東久留米市","address":"東久留米市中央町1-2-4","lat":35.756798,"lon":139.526867},{"name":"こでまり保育園","province":"東京都","city":"東久留米市","address":"東久留米市中央町2-3-57","lat":35.753765,"lon":139.521726},{"name":"上の原さくら保育園","province":"東京都","city":"東久留米市","address":"東久留米市上の原1-2-44","lat":35.768713,"lon":139.542057},{"name":"久留米みのり保育園","province":"東京都","city":"東久留米市","address":"東久留米市大門町1-3-4","lat":35.763708,"lon":139.538477},{"name":"しんかわ保育園","province":"東京都","city":"東久留米市","address":"東久留米市新川町1-1-12","lat":35.758064,"lon":139.537238},{"name":"Ｎｉｃｏｔ東久留米","province":"東京都","city":"東久留米市","address":"東久留米市東本町1-8Emio東久留米1F","lat":35.760772,"lon":139.533813},{"name":"ひばり保育園","province":"東京都","city":"東久留米市","address":"東久留米市ひばりが丘団地8-10","lat":35.747535,"lon":139.531614},{"name":"わらべみなみ保育園","province":"東京都","city":"東久留米市","address":"東久留米市南町1-8-51","lat":35.742263,"lon":139.525376},{"name":"かたばみ保育園","province":"東京都","city":"東久留米市","address":"東久留米市前沢1-4-35","lat":35.744877,"lon":139.517468},{"name":"まえさわ保育園","province":"東京都","city":"東久留米市","address":"東久留米市前沢1-5-30","lat":35.748096,"lon":139.515482},{"name":"たきやま保育園","province":"東京都","city":"東久留米市","address":"東久留米市滝山6-1-2","lat":35.74654,"lon":139.507266},{"name":"滝山しおん保育園","province":"東京都","city":"東久留米市","address":"東久留米市滝山7-5-12","lat":35.748073,"lon":139.507183},{"name":"はちまん保育園","province":"東京都","city":"東久留米市","address":"東久留米市八幡町2-14-22","lat":35.756222,"lon":139.513732},{"name":"あそか保育園","province":"東京都","city":"東久留米市","address":"東久留米市下里4-1-21","lat":35.7541,"lon":139.497181},{"name":"はくさん保育園","province":"東京都","city":"東久留米市","address":"東久留米市下里3-2-23","lat":35.752431,"lon":139.502886},{"name":"下里しおん保育園","province":"東京都","city":"東久留米市","address":"東久留米市下里7-8-20","lat":35.759916,"lon":139.502927},{"name":"くるみ保育園","province":"東京都","city":"東久留米市","address":"東久留米市柳窪2-15-6","lat":35.745165,"lon":139.49574},{"name":"さいわい保育園","province":"東京都","city":"東久留米市","address":"東久留米市幸町1-17-1","lat":35.761791,"lon":139.523534},{"name":"東久留米おひさま保育園","province":"東京都","city":"東久留米市","address":"東久留米市幸町1-21-14","lat":35.760678,"lon":139.523417},{"name":"いちご保育園","province":"東京都","city":"東久留米市","address":"東久留米市本町1-5-15","lat":35.759439,"lon":139.533936},{"name":"ちゅうおう保育園","province":"東京都","city":"東久留米市","address":"東久留米市中央町1-2-4","lat":35.756798,"lon":139.526867},{"name":"こでまり保育園","province":"東京都","city":"東久留米市","address":"東久留米市中央町2-3-57","lat":35.753765,"lon":139.521726},{"name":"上の原さくら保育園","province":"東京都","city":"東久留米市","address":"東久留米市上の原1-2-44","lat":35.768713,"lon":139.542057},{"name":"久留米みのり保育園","province":"東京都","city":"東久留米市","address":"東久留米市大門町1-3-4","lat":35.763708,"lon":139.538477},{"name":"しんかわ保育園","province":"東京都","city":"東久留米市","address":"東久留米市新川町1-1-12","lat":35.758064,"lon":139.537238},{"name":"Ｎｉｃｏｔ東久留米","province":"東京都","city":"東久留米市","address":"東久留米市東本町1-8Emio東久留米1F","lat":35.760772,"lon":139.533813},{"name":"ひばり保育園","province":"東京都","city":"東久留米市","address":"東久留米市ひばりが丘団地8-10","lat":35.747535,"lon":139.531614},{"name":"わらべみなみ保育園","province":"東京都","city":"東久留米市","address":"東久留米市南町1-8-51","lat":35.742263,"lon":139.525376},{"name":"かたばみ保育園","province":"東京都","city":"東久留米市","address":"東久留米市前沢1-4-35","lat":35.744877,"lon":139.517468},{"name":"まえさわ保育園","province":"東京都","city":"東久留米市","address":"東久留米市前沢1-5-30","lat":35.748096,"lon":139.515482},{"name":"たきやま保育園","province":"東京都","city":"東久留米市","address":"東久留米市滝山6-1-2","lat":35.74654,"lon":139.507266},{"name":"滝山しおん保育園","province":"東京都","city":"東久留米市","address":"東久留米市滝山7-5-12","lat":35.748073,"lon":139.507183},{"name":"はちまん保育園","province":"東京都","city":"東久留米市","address":"東久留米市八幡町2-14-22","lat":35.756222,"lon":139.513732},{"name":"あそか保育園","province":"東京都","city":"東久留米市","address":"東久留米市下里4-1-21","lat":35.7541,"lon":139.497181},{"name":"はくさん保育園","province":"東京都","city":"東久留米市","address":"東久留米市下里3-2-23","lat":35.752431,"lon":139.502886},{"name":"下里しおん保育園","province":"東京都","city":"東久留米市","address":"東久留米市下里7-8-20","lat":35.759916,"lon":139.502927},{"name":"くるみ保育園","province":"東京都","city":"東久留米市","address":"東久留米市柳窪2-15-6","lat":35.745165,"lon":139.49574},{"name":"さいわい保育園","province":"東京都","city":"東久留米市","address":"東久留米市幸町1-17-1","lat":35.761791,"lon":139.523534},{"name":"東久留米おひさま保育園","province":"東京都","city":"東久留米市","address":"東久留米市幸町1-21-14","lat":35.760678,"lon":139.523417},{"name":"いちご保育園","province":"東京都","city":"東久留米市","address":"東久留米市本町1-5-15","lat":35.759439,"lon":139.533936},{"name":"ちゅうおう保育園","province":"東京都","city":"東久留米市","address":"東久留米市中央町1-2-4","lat":35.756798,"lon":139.526867},{"name":"こでまり保育園","province":"東京都","city":"東久留米市","address":"東久留米市中央町2-3-57","lat":35.753765,"lon":139.521726},{"name":"上の原さくら保育園","province":"東京都","city":"東久留米市","address":"東久留米市上の原1-2-44","lat":35.768713,"lon":139.542057},{"name":"久留米みのり保育園","province":"東京都","city":"東久留米市","address":"東久留米市大門町1-3-4","lat":35.763708,"lon":139.538477},{"name":"しんかわ保育園","province":"東京都","city":"東久留米市","address":"東久留米市新川町1-1-12","lat":35.758064,"lon":139.537238},{"name":"Ｎｉｃｏｔ東久留米","province":"東京都","city":"東久留米市","address":"東久留米市東本町1-8Emio東久留米1F","lat":35.760772,"lon":139.533813},{"name":"ひばり保育園","province":"東京都","city":"東久留米市","address":"東久留米市ひばりが丘団地8-10","lat":35.747535,"lon":139.531614},{"name":"わらべみなみ保育園","province":"東京都","city":"東久留米市","address":"東久留米市南町1-8-51","lat":35.742263,"lon":139.525376},{"name":"かたばみ保育園","province":"東京都","city":"東久留米市","address":"東久留米市前沢1-4-35","lat":35.744877,"lon":139.517468},{"name":"まえさわ保育園","province":"東京都","city":"東久留米市","address":"東久留米市前沢1-5-30","lat":35.748096,"lon":139.515482},{"name":"たきやま保育園","province":"東京都","city":"東久留米市","address":"東久留米市滝山6-1-2","lat":35.74654,"lon":139.507266},{"name":"滝山しおん保育園","province":"東京都","city":"東久留米市","address":"東久留米市滝山7-5-12","lat":35.748073,"lon":139.507183},{"name":"はちまん保育園","province":"東京都","city":"東久留米市","address":"東久留米市八幡町2-14-22","lat":35.756222,"lon":139.513732},{"name":"あそか保育園","province":"東京都","city":"東久留米市","address":"東久留米市下里4-1-21","lat":35.7541,"lon":139.497181},{"name":"はくさん保育園","province":"東京都","city":"東久留米市","address":"東久留米市下里3-2-23","lat":35.752431,"lon":139.502886},{"name":"下里しおん保育園","province":"東京都","city":"東久留米市","address":"東久留米市下里7-8-20","lat":35.759916,"lon":139.502927},{"name":"くるみ保育園","province":"東京都","city":"東久留米市","address":"東久留米市柳窪2-15-6","lat":35.745165,"lon":139.49574},{"name":"さいわい保育園","province":"東京都","city":"東久留米市","address":"東久留米市幸町1-17-1","lat":35.761791,"lon":139.523534},{"name":"東久留米おひさま保育園","province":"東京都","city":"東久留米市","address":"東久留米市幸町1-21-14","lat":35.760678,"lon":139.523417},{"name":"いちご保育園","province":"東京都","city":"東久留米市","address":"東久留米市本町1-5-15","lat":35.759439,"lon":139.533936},{"name":"ちゅうおう保育園","province":"東京都","city":"東久留米市","address":"東久留米市中央町1-2-4","lat":35.756798,"lon":139.526867},{"name":"こでまり保育園","province":"東京都","city":"東久留米市","address":"東久留米市中央町2-3-57","lat":35.753765,"lon":139.521726},{"name":"上の原さくら保育園","province":"東京都","city":"東久留米市","address":"東久留米市上の原1-2-44","lat":35.768713,"lon":139.542057},{"name":"久留米みのり保育園","province":"東京都","city":"東久留米市","address":"東久留米市大門町1-3-4","lat":35.763708,"lon":139.538477},{"name":"しんかわ保育園","province":"東京都","city":"東久留米市","address":"東久留米市新川町1-1-12","lat":35.758064,"lon":139.537238},{"name":"Ｎｉｃｏｔ東久留米","province":"東京都","city":"東久留米市","address":"東久留米市東本町1-8Emio東久留米1F","lat":35.760772,"lon":139.533813},{"name":"ひばり保育園","province":"東京都","city":"東久留米市","address":"東久留米市ひばりが丘団地8-10","lat":35.747535,"lon":139.531614},{"name":"わらべみなみ保育園","province":"東京都","city":"東久留米市","address":"東久留米市南町1-8-51","lat":35.742263,"lon":139.525376},{"name":"かたばみ保育園","province":"東京都","city":"東久留米市","address":"東久留米市前沢1-4-35","lat":35.744877,"lon":139.517468},{"name":"まえさわ保育園","province":"東京都","city":"東久留米市","address":"東久留米市前沢1-5-30","lat":35.748096,"lon":139.515482},{"name":"たきやま保育園","province":"東京都","city":"東久留米市","address":"東久留米市滝山6-1-2","lat":35.74654,"lon":139.507266},{"name":"滝山しおん保育園","province":"東京都","city":"東久留米市","address":"東久留米市滝山7-5-12","lat":35.748073,"lon":139.507183},{"name":"はちまん保育園","province":"東京都","city":"東久留米市","address":"東久留米市八幡町2-14-22","lat":35.756222,"lon":139.513732},{"name":"あそか保育園","province":"東京都","city":"東久留米市","address":"東久留米市下里4-1-21","lat":35.7541,"lon":139.497181},{"name":"はくさん保育園","province":"東京都","city":"東久留米市","address":"東久留米市下里3-2-23","lat":35.752431,"lon":139.502886},{"name":"下里しおん保育園","province":"東京都","city":"東久留米市","address":"東久留米市下里7-8-20","lat":35.759916,"lon":139.502927},{"name":"くるみ保育園","province":"東京都","city":"東久留米市","address":"東久留米市柳窪2-15-6","lat":35.745165,"lon":139.49574},{"name":"さいわい保育園","province":"東京都","city":"東久留米市","address":"東久留米市幸町1-17-1","lat":35.761791,"lon":139.523534},{"name":"東久留米おひさま保育園","province":"東京都","city":"東久留米市","address":"東久留米市幸町1-21-14","lat":35.760678,"lon":139.523417},{"name":"いちご保育園","province":"東京都","city":"東久留米市","address":"東久留米市本町1-5-15","lat":35.759439,"lon":139.533936},{"name":"ちゅうおう保育園","province":"東京都","city":"東久留米市","address":"東久留米市中央町1-2-4","lat":35.756798,"lon":139.526867},{"name":"こでまり保育園","province":"東京都","city":"東久留米市","address":"東久留米市中央町2-3-57","lat":35.753765,"lon":139.521726},{"name":"上の原さくら保育園","province":"東京都","city":"東久留米市","address":"東久留米市上の原1-2-44","lat":35.768713,"lon":139.542057},{"name":"久留米みのり保育園","province":"東京都","city":"東久留米市","address":"東久留米市大門町1-3-4","lat":35.763708,"lon":139.538477},{"name":"しんかわ保育園","province":"東京都","city":"東久留米市","address":"東久留米市新川町1-1-12","lat":35.758064,"lon":139.537238},{"name":"Ｎｉｃｏｔ東久留米","province":"東京都","city":"東久留米市","address":"東久留米市東本町1-8Emio東久留米1F","lat":35.760772,"lon":139.533813},{"name":"ひばり保育園","province":"東京都","city":"東久留米市","address":"東久留米市ひばりが丘団地8-10","lat":35.747535,"lon":139.531614},{"name":"わらべみなみ保育園","province":"東京都","city":"東久留米市","address":"東久留米市南町1-8-51","lat":35.742263,"lon":139.525376},{"name":"かたばみ保育園","province":"東京都","city":"東久留米市","address":"東久留米市前沢1-4-35","lat":35.744877,"lon":139.517468},{"name":"まえさわ保育園","province":"東京都","city":"東久留米市","address":"東久留米市前沢1-5-30","lat":35.748096,"lon":139.515482},{"name":"たきやま保育園","province":"東京都","city":"東久留米市","address":"東久留米市滝山6-1-2","lat":35.74654,"lon":139.507266},{"name":"滝山しおん保育園","province":"東京都","city":"東久留米市","address":"東久留米市滝山7-5-12","lat":35.748073,"lon":139.507183},{"name":"はちまん保育園","province":"東京都","city":"東久留米市","address":"東久留米市八幡町2-14-22","lat":35.756222,"lon":139.513732},{"name":"あそか保育園","province":"東京都","city":"東久留米市","address":"東久留米市下里4-1-21","lat":35.7541,"lon":139.497181},{"name":"はくさん保育園","province":"東京都","city":"東久留米市","address":"東久留米市下里3-2-23","lat":35.752431,"lon":139.502886},{"name":"下里しおん保育園","province":"東京都","city":"東久留米市","address":"東久留米市下里7-8-20","lat":35.759916,"lon":139.502927},{"name":"くるみ保育園","province":"東京都","city":"東久留米市","address":"東久留米市柳窪2-15-6","lat":35.745165,"lon":139.49574},{"name":"さいわい保育園","province":"東京都","city":"東久留米市","address":"東久留米市幸町1-17-1","lat":35.761791,"lon":139.523534},{"name":"東久留米おひさま保育園","province":"東京都","city":"東久留米市","address":"東久留米市幸町1-21-14","lat":35.760678,"lon":139.523417},{"name":"いちご保育園","province":"東京都","city":"東久留米市","address":"東久留米市本町1-5-15","lat":35.759439,"lon":139.533936},{"name":"ちゅうおう保育園","province":"東京都","city":"東久留米市","address":"東久留米市中央町1-2-4","lat":35.756798,"lon":139.526867},{"name":"こでまり保育園","province":"東京都","city":"東久留米市","address":"東久留米市中央町2-3-57","lat":35.753765,"lon":139.521726},{"name":"上の原さくら保育園","province":"東京都","city":"東久留米市","address":"東久留米市上の原1-2-44","lat":35.768713,"lon":139.542057},{"name":"久留米みのり保育園","province":"東京都","city":"東久留米市","address":"東久留米市大門町1-3-4","lat":35.763708,"lon":139.538477},{"name":"しんかわ保育園","province":"東京都","city":"東久留米市","address":"東久留米市新川町1-1-12","lat":35.758064,"lon":139.537238},{"name":"Ｎｉｃｏｔ東久留米","province":"東京都","city":"東久留米市","address":"東久留米市東本町1-8Emio東久留米1F","lat":35.760772,"lon":139.533813},{"name":"ひばり保育園","province":"東京都","city":"東久留米市","address":"東久留米市ひばりが丘団地8-10","lat":35.747535,"lon":139.531614},{"name":"わらべみなみ保育園","province":"東京都","city":"東久留米市","address":"東久留米市南町1-8-51","lat":35.742263,"lon":139.525376},{"name":"かたばみ保育園","province":"東京都","city":"東久留米市","address":"東久留米市前沢1-4-35","lat":35.744877,"lon":139.517468},{"name":"まえさわ保育園","province":"東京都","city":"東久留米市","address":"東久留米市前沢1-5-30","lat":35.748096,"lon":139.515482},{"name":"たきやま保育園","province":"東京都","city":"東久留米市","address":"東久留米市滝山6-1-2","lat":35.74654,"lon":139.507266},{"name":"滝山しおん保育園","province":"東京都","city":"東久留米市","address":"東久留米市滝山7-5-12","lat":35.748073,"lon":139.507183},{"name":"はちまん保育園","province":"東京都","city":"東久留米市","address":"東久留米市八幡町2-14-22","lat":35.756222,"lon":139.513732},{"name":"あそか保育園","province":"東京都","city":"東久留米市","address":"東久留米市下里4-1-21","lat":35.7541,"lon":139.497181},{"name":"はくさん保育園","province":"東京都","city":"東久留米市","address":"東久留米市下里3-2-23","lat":35.752431,"lon":139.502886},{"name":"下里しおん保育園","province":"東京都","city":"東久留米市","address":"東久留米市下里7-8-20","lat":35.759916,"lon":139.502927},{"name":"くるみ保育園","province":"東京都","city":"東久留米市","address":"東久留米市柳窪2-15-6","lat":35.745165,"lon":139.49574},{"name":"さいわい保育園","province":"東京都","city":"東久留米市","address":"東久留米市幸町1-17-1","lat":35.761791,"lon":139.523534},{"name":"東久留米おひさま保育園","province":"東京都","city":"東久留米市","address":"東久留米市幸町1-21-14","lat":35.760678,"lon":139.523417},{"name":"いちご保育園","province":"東京都","city":"東久留米市","address":"東久留米市本町1-5-15","lat":35.759439,"lon":139.533936},{"name":"ちゅうおう保育園","province":"東京都","city":"東久留米市","address":"東久留米市中央町1-2-4","lat":35.756798,"lon":139.526867},{"name":"こでまり保育園","province":"東京都","city":"東久留米市","address":"東久留米市中央町2-3-57","lat":35.753765,"lon":139.521726}]}