{"keyword":"保育","data":[{"name":"上の原さくら保育園","province":"東京都","city":"東久留米市","address":"東久留米市上の原1-2-44","lat":35.768713,"lon":139.542057},{"name":"久留米みのり保育園","province":"東京都","city":"東久留米市","address":"東久留米市大門町1-3-4","lat":35.763708,"lon":139.538477},{"name":"しんかわ保育園","province":"東京都","city":"東久留米市","address":"東久留米市新川町1-1-12","lat":35.758064,"lon":139.537238},{"name":"Ｎｉｃｏｔ東久留米","province":"東京都","city":"東久留米市","address":"東久留米市東本町1-8Emio東久留米1F","lat":35.760772,"lon":139.533813},{"name":"ひばり保育園","province":"東京都","city":"東久留米市","address":"東久留米市ひばりが丘団地8-10","lat":35.747535,"lon":139.531614},{"name":"わらべみなみ保育園","province":"東京都","city":"東久留米市","address":"東久留米市南町1-8-51","lat":35.742263,"lon":139.525376},{"name":"かたばみ保育園","province":"東京都","city":"東久留米市","address":"東久留米市前沢1-4-35","lat":35.744877,"lon":139.517468},{"name":"まえさわ保育園","province":"東京都","city":"東久留米市","address":"東久留米市前沢1-5-30","lat":35.748096,"lon":139.515482},{"name":"たきやま保育園","province":"東京都","city":"東久留米市","address":"東久留米市滝山6-1-2","lat":35.74654,"lon":139.507266},{"name":"滝山しおん保育園","province":"東京都","city":"東久留米市","address":"東久留米市滝山7-5-12","lat":35.748073,"lon":139.507183},{"name":"はちまん保育園","province":"東京都","city":"東久留米市","address":"東久留米市八幡町2-14-22","lat":35.756222,"lon":139.513732},{"name":"あそか保育園","province":"東京都","city":"東久留米市","address":"東久留米市下里4-1-21","lat":35.7541,"lon":139.497181},{"name":"はくさん保育園","province":"東京都","city":"東久留米市","address":"東久留米市下里3-2-23","lat":35.752431,"lon":139.502886},{"name":"下里しおん保育園","province":"東京都","city":"東久留米市","address":"東久留米市下里7-8-20","lat":35.759916,"lon":139.502927},{"name":"くるみ保育園","province":"東京都","city":"東久留米市","address":"東久留米市柳窪2-15-6","lat":35.745165,"lon":139.49574},{"name":"さいわい保育園","province":"東京都","city":"東久留米市","address":"東久留米市幸町1-17-1","lat":35.761791,"lon":139.523534},{"name":"東久留米おひさま保育園","province":"東京都","city":"東久留米市","address":"東久留米市幸町1-21-14","lat":35.760678,"lon":139.523417},{"name":"いちご保育園","province":"東京都","city":"東久留米市","address":"東久留米市本町1-5-15","lat":35.759439,"lon":139.533936},{"name":"ちゅうおう保育園","province":"東京都","city":"東久留米市","address":"東久留米市中央町1-2-4","lat":35.756798,"lon":139.526867},{"name":"こでまり保育園","province":"東京都","city":"東久留米市","address":"東久留米市中央町2-3-57","lat":35.753765,"lon":139.521726}]}