{"keyword":"医薬","data":[{"name":"東久留米市","province":"東京都","city":"東久留米市","address":"東久留米市本町3-3-1","lat":35.7579922,"lon":139.5296725},{"name":"六仙公園","province":"東京都","city":"東久留米市","address":"東京都東久留米市中央町3丁目24","lat":35.749351,"lon":139.522606},{"name":"東久留米サービスステーション１階　だれでもトイレ","province":"東京都","city":"東久留米市","address":"東京都東久留米市滝山6丁目1-1","lat":35.747463,"lon":139.507362},{"name":"竹林公園","province":"東京都","city":"東久留米市","address":"東京都東久留米市南沢1丁目7","lat":35.75444,"lon":139.534602},{"name":"東久留米市役所","province":"東京都","city":"東久留米市","address":"東京都東久留米市本町3丁目3-1","lat":35.757969,"lon":139.52975},{"name":"東久留米市役所","province":"東京都","city":"東久留米市","address":"東京都東久留米市本町3丁目3-1","lat":35.758033,"lon":139.529989},{"name":"東久留米市役所ごみ対策課庁舎","province":"東京都","city":"東久留米市","address":"東京都東久留米市八幡町2丁目10-10","lat":35.751762,"lon":139.509338},{"name":"東久留米市西部地域センター","province":"東京都","city":"東久留米市","address":"東京都東久留米市滝山4丁目1-10","lat":35.744934,"lon":139.504489},{"name":"東久留米市西部地域センター","province":"東京都","city":"東久留米市","address":"東京都東久留米市滝山4丁目1-10","lat":35.744936,"lon":139.504505},{"name":"東久留米市南部地域センター","province":"東京都","city":"東久留米市","address":"東京都東久留米市ひばりが丘団地185","lat":35.746469,"lon":139.534367},{"name":"東久留米市東部地域センター","province":"東京都","city":"東久留米市","address":"東京都東久留米市大門町2丁目10","lat":35.764784,"lon":139.541057},{"name":"東久留米市東部地域センター","province":"東京都","city":"東久留米市","address":"東京都東久留米市大門町2丁目10-5","lat":35.764888,"lon":139.540848},{"name":"東久留米市八幡町地区センター","province":"東京都","city":"東久留米市","address":"東京都東久留米市八幡町2丁目7-61","lat":35.753627,"lon":139.515253},{"name":"東久留米市南町地区センター","province":"東京都","city":"東久留米市","address":"東京都東久留米市南町3丁目9-45","lat":35.740801,"lon":139.520218},{"name":"東久留米市中央町地区センター","province":"東京都","city":"東久留米市","address":"東京都東久留米市中央町6丁目1-1","lat":35.755885,"lon":139.519682},{"name":"東久留米市浅間町地区センター","province":"東京都","city":"東久留米市","address":"東京都東久留米市浅間町2丁目24-16","lat":35.757763,"lon":139.541777},{"name":"東久留米市野火止地区センター","province":"東京都","city":"東久留米市","address":"東京都東久留米市野火止2丁目1-83","lat":35.763548,"lon":139.513354},{"name":"わくわく健康プラザ","province":"東京都","city":"東久留米市","address":"東京都東久留米市滝山4丁目3-14","lat":35.742014,"lon":139.504699},{"name":"わくわく健康プラザ","province":"東京都","city":"東久留米市","address":"東京都東久留米市滝山4丁目3-14","lat":35.742458,"lon":139.504162},{"name":"わくわく健康プラザ","province":"東京都","city":"東久留米市","address":"東京都東久留米市滝山4丁目3-14","lat":35.742305,"lon":139.504761},{"name":"わくわく健康プラザ","province":"東京都","city":"東久留米市","address":"東京都東久留米市滝山4丁目3-14","lat":35.742196,"lon":139.504016},{"name":"東久留米市立中央図書館","province":"東京都","city":"東久留米市","address":"東京都東久留米市中央町2丁目6-23","lat":35.755282,"lon":139.521758},{"name":"東久留米市立生涯学習センター","province":"東京都","city":"東久留米市","address":"東京都東久留米市中央町2丁目6-23","lat":35.755456,"lon":139.522474},{"name":"東久留米市スポーツセンター","province":"東京都","city":"東久留米市","address":"東京都東久留米市大門町2丁目14-37","lat":35.762061,"lon":139.544357},{"name":"東久留米市スポーツセンター","province":"東京都","city":"東久留米市","address":"東京都東久留米市大門町2丁目14-37","lat":35.762045,"lon":139.544367},{"name":"東久留米市スポーツセンター","province":"東京都","city":"東久留米市","address":"東京都東久留米市大門町2丁目14-37","lat":35.762025,"lon":139.544414},{"name":"東久留米市スポーツセンター","province":"東京都","city":"東久留米市","address":"東京都東久留米市大門町2丁目14-37","lat":35.762027,"lon":139.544428},{"name":"東久留米市スポーツセンター","province":"東京都","city":"東久留米市","address":"東京都東久留米市大門町2丁目14-37","lat":35.762247,"lon":139.544415},{"name":"白山公園","province":"東京都","city":"東久留米市","address":"東京都東久留米市滝山7丁目24","lat":35.751091,"lon":139.502263},{"name":"滝山公園","province":"東京都","city":"東久留米市","address":"東京都東久留米市滝山2丁目4","lat":35.745814,"lon":139.5095},{"name":"小山台遺跡公園","province":"東京都","city":"東久留米市","address":"東京都東久留米市小山1丁目10","lat":35.764981,"lon":139.529125},{"name":"神山堂阪公園","province":"東京都","city":"東久留米市","address":"東京都東久留米市神宝町2丁目10","lat":35.76999,"lon":139.54617},{"name":"下里本邑遺跡公園","province":"東京都","city":"東久留米市","address":"東京都東久留米市野火止3丁目4","lat":35.761256,"lon":139.508573},{"name":"西口中央公園","province":"東京都","city":"東久留米市","address":"東京都東久留米市本町1丁目12","lat":35.758743,"lon":139.534345},{"name":"小山れんげ公園","province":"東京都","city":"東久留米市","address":"東京都東久留米市小山2丁目1","lat":35.762059,"lon":139.528013},{"name":"東口中央公園","province":"東京都","city":"東久留米市","address":"東京都東久留米市新川町1丁目10","lat":35.760622,"lon":139.535873},{"name":"南沢水辺公園","province":"東京都","city":"東久留米市","address":"東京都東久留米市南沢3丁目4","lat":35.753535,"lon":139.527889},{"name":"さいかちの道","province":"東京都","city":"東久留米市","address":"東京都東久留米市柳窪4丁目7","lat":35.745958,"lon":139.487739},{"name":"しんやま親水広場","province":"東京都","city":"東久留米市","address":"東京都東久留米市下里4丁目1","lat":35.753862,"lon":139.500538},{"name":"上の原東公園","province":"東京都","city":"東久留米市","address":"東京都東久留米市上の原2丁目3","lat":35.772445,"lon":139.545384},{"name":"東久留米駅西口昇降施設身障者用便所","province":"東京都","city":"東久留米市","address":"東京都東久留米市本町1丁目4","lat":35.760148,"lon":139.533907},{"name":"南町運動広場","province":"東京都","city":"東久留米市","address":"東京都東久留米市南町1丁目8","lat":35.740759,"lon":139.525504},{"name":"上の原テニスコート","province":"東京都","city":"東久留米市","address":"東京都東久留米市上の原1丁目6","lat":35.772192,"lon":139.542943},{"name":"けやき児童館","province":"東京都","city":"東久留米市","address":"東京都東久留米市大門町2丁目10-5","lat":35.764808,"lon":139.541245},{"name":"子どもセンターひばり","province":"東京都","city":"東久留米市","address":"東京都東久留米市ひばりが丘団地8-11","lat":35.74719,"lon":139.531604},{"name":"子どもセンターあおぞら","province":"東京都","city":"東久留米市","address":"東京都東久留米市前沢4丁目25","lat":35.74582,"lon":139.511556},{"name":"東久留米市立中央児童館","province":"東京都","city":"東久留米市","address":"東京都東久留米市中央町1丁目10-11","lat":35.754914,"lon":139.524327},{"name":"上の原グラウンド","province":"東京都","city":"東久留米市","address":"東京都東久留米市上の原2丁目1","lat":35.770063,"lon":139.545554},{"name":"東久留米市立さいわい福祉センター","province":"東京都","city":"東久留米市","address":"東京都東久留米市幸町3丁目9-28","lat":35.759129,"lon":139.519197},{"name":"東久留米市立さいわい福祉センター","province":"東京都","city":"東久留米市","address":"東京都東久留米市幸町3丁目9-28","lat":35.759097,"lon":139.519163},{"name":"地域子ども家庭支援センター上の原","province":"東京都","city":"東久留米市","address":"東京都東久留米市上の原1丁目2-44","lat":35.768571,"lon":139.541898},{"name":"南沢給水所","province":"東京都","city":"東久留米市","address":"東京都東久留米市南沢3-9-21","lat":35.751937,"lon":139.525834},{"name":"滝山給水所","province":"東京都","city":"東久留米市","address":"東京都東久留米市滝山6-1-1","lat":35.7473841,"lon":139.507342},{"name":"市立東第２自転車等駐車場","province":"東京都","city":"東久留米市","address":"東京都東久留米市東本町14","lat":35.7627277,"lon":139.53515209},{"name":"日生サイクルプラザ東久留米第２","province":"東京都","city":"東久留米市","address":"東京都東久留米市新川町1丁目4","lat":35.7612862,"lon":139.5350827},{"name":"日生サイクルプラザ東久留米第１","province":"東京都","city":"東久留米市","address":"東京都東久留米市新川町1丁目3","lat":35.76013078,"lon":139.53539661},{"name":"市立西第９自転車駐車場","province":"東京都","city":"東久留米市","address":"東京都東久留米市本町1丁目5","lat":35.75972803,"lon":139.53402173},{"name":"市立西第１０一時利用自転車駐車場","province":"東京都","city":"東久留米市","address":"東京都東久留米市本町1丁目4","lat":35.75914751,"lon":139.53259409},{"name":"東久留米駅前駐輪場","province":"東京都","city":"東久留米市","address":"東京都東久留米市東本町1-15","lat":35.76086678,"lon":139.53414668},{"name":"東久留米駅前第２駐輪場","province":"東京都","city":"東久留米市","address":"東京都東久留米市東本町1-15","lat":35.76086678,"lon":139.53414668},{"name":"東久留米駅前第３駐輪場","province":"東京都","city":"東久留米市","address":"東京都東久留米市本町1丁目3-28","lat":35.75994184,"lon":139.53205522},{"name":"東久留米駅西口第１自転車駐車場","province":"東京都","city":"東久留米市","address":"東京都東久留米市新川町1丁目3","lat":35.76013078,"lon":139.53539661},{"name":"東久留米駅西口第２自転車駐車場","province":"東京都","city":"東久留米市","address":"東京都東久留米市新川町1丁目3","lat":35.76013078,"lon":139.53539661},{"name":"東久留米駅西口第３自転車駐車場","province":"東京都","city":"東久留米市","address":"東京都東久留米市本町1丁目14","lat":35.75794212,"lon":139.53427455},{"name":"東久留米駅東口自転車駐車場","province":"東京都","city":"東久留米市","address":"東京都東久留米市新川町1丁目3","lat":35.76013078,"lon":139.53539661},{"name":"東久留米駅北口自転車駐車場","province":"東京都","city":"東久留米市","address":"東京都東久留米市東本町1-6","lat":35.76136949,"lon":139.53344116},{"name":"サイクルスペース２４東久留米駐輪場","province":"東京都","city":"東久留米市","address":"東京都東久留米市新川町1丁目9","lat":35.76161952,"lon":139.53686034},{"name":"市立西第１０原付自転車駐車場","province":"東京都","city":"東久留米市","address":"東京都東久留米市本町1丁目4","lat":35.75914751,"lon":139.53259409},{"name":"リバーウエストビルズ駐輪場","province":"東京都","city":"東久留米市","address":"東京都東久留米市本町1丁目5","lat":35.75972803,"lon":139.53402173},{"name":"東久留米駅前第４駐輪場","province":"東京都","city":"東久留米市","address":"東京都東久留米市東本町5","lat":35.76224161,"lon":139.53360501},{"name":"市立臨時西第２自転車駐車場","province":"東京都","city":"東久留米市","address":"東京都東久留米市本町1丁目8-1","lat":35.7578366,"lon":139.53545501},{"name":"東久留米駅西口第１自転車駐車場","province":"東京都","city":"東久留米市","address":"東京都東久留米市本町1丁目3","lat":35.76054178,"lon":139.53217741},{"name":"東久留米駅西口第２自転車駐車場","province":"東京都","city":"東久留米市","address":"東京都東久留米市本町1丁目5","lat":35.75972803,"lon":139.53402173},{"name":"柳窪三丁目","province":"東京都","city":"東久留米市","address":"東京都東久留米市柳窪3丁目2-1","lat":35.74325401,"lon":139.4947647},{"name":"上の原交番前","province":"東京都","city":"東久留米市","address":"東京都東久留米市上の原1丁目2","lat":35.76894094,"lon":139.54174311},{"name":"東久留米市役所前","province":"東京都","city":"東久留米市","address":"東京都東久留米市本町3丁目1-41","lat":35.75827534,"lon":139.53039709},{"name":"東久留米市役所西","province":"東京都","city":"東久留米市","address":"東京都東久留米市中央町1丁目1","lat":35.75811417,"lon":139.52673352},{"name":"さいわい福祉センター前","province":"東京都","city":"東久留米市","address":"東京都東久留米市幸町2丁目1-10","lat":35.75915557,"lon":139.51983687},{"name":"東久留米公民館前","province":"東京都","city":"東久留米市","address":"東京都東久留米市中央町2丁目1-46","lat":35.75573938,"lon":139.52343944},{"name":"東久留米駅西","province":"東京都","city":"東久留米市","address":"東京都東久留米市本町1丁目4-53","lat":35.75968355,"lon":139.53264963},{"name":"神山大橋","province":"東京都","city":"東久留米市","address":"東京都東久留米市大門町2丁目12","lat":35.76377491,"lon":139.5419238},{"name":"南沢浄水所","province":"東京都","city":"東久留米市","address":"東京都東久留米市南沢3丁目9-21","lat":35.75193708,"lon":139.52583381},{"name":"滝山浄水所","province":"東京都","city":"東久留米市","address":"東京都東久留米市滝山6丁目1-1","lat":35.74739829,"lon":139.50739394},{"name":"＊?東久留米市立生涯学習センター","province":"東京都","city":"東久留米市","address":"東久留米市中央町2-6-23","lat":35.755517,"lon":139.522346},{"name":"東久留米市わくわく健康プラザ（健康課）","province":"東京都","city":"東久留米市","address":"東京都東久留米市滝山4丁目3-14","lat":35.74228769,"lon":139.5044833},{"name":"東久留米市本庁舎","province":"東京都","city":"東久留米市","address":"東京都東久留米市本町3丁目3-1","lat":35.75799202,"lon":139.52967216},{"name":"東久留米市立久留米中学校","province":"東京都","city":"東久留米市","address":"東京都東久留米市幸町5丁目9-11","lat":35.761708,"lon":139.51692595},{"name":"東久留米市立大門中学校","province":"東京都","city":"東久留米市","address":"東京都東久留米市大門町2丁目13-8","lat":35.7628556,"lon":139.54363203},{"name":"東久留米市本庁舎","province":"東京都","city":"東久留米市","address":"東久留米市本町3-3-1","lat":35.757992,"lon":139.529673},{"name":"東久留米消防署","province":"東京都","city":"東久留米市","address":"東久留米市幸町3-4-34","lat":35.75756,"lon":139.5217},{"name":"柳泉園クリーンポート","province":"東京都","city":"東久留米市","address":"東久留米市下里4-3-10","lat":35.75476,"lon":139.4945},{"name":"※東久留米市本庁舎","province":"東京都","city":"東久留米市","address":"東京都東久留米市本町3丁目3-1","lat":35.75799202,"lon":139.52967216},{"name":"東久留米市","province":"東京都","city":"東久留米市","address":"東久留米市本町3-3-1","lat":35.7579922,"lon":139.5296725},{"name":"六仙公園","province":"東京都","city":"東久留米市","address":"東京都東久留米市中央町3丁目24","lat":35.749351,"lon":139.522606},{"name":"東久留米サービスステーション１階　だれでもトイレ","province":"東京都","city":"東久留米市","address":"東京都東久留米市滝山6丁目1-1","lat":35.747463,"lon":139.507362},{"name":"竹林公園","province":"東京都","city":"東久留米市","address":"東京都東久留米市南沢1丁目7","lat":35.75444,"lon":139.534602},{"name":"東久留米市役所","province":"東京都","city":"東久留米市","address":"東京都東久留米市本町3丁目3-1","lat":35.757969,"lon":139.52975},{"name":"東久留米市役所","province":"東京都","city":"東久留米市","address":"東京都東久留米市本町3丁目3-1","lat":35.758033,"lon":139.529989},{"name":"東久留米市役所ごみ対策課庁舎","province":"東京都","city":"東久留米市","address":"東京都東久留米市八幡町2丁目10-10","lat":35.751762,"lon":139.509338},{"name":"東久留米市西部地域センター","province":"東京都","city":"東久留米市","address":"東京都東久留米市滝山4丁目1-10","lat":35.744934,"lon":139.504489},{"name":"東久留米市西部地域センター","province":"東京都","city":"東久留米市","address":"東京都東久留米市滝山4丁目1-10","lat":35.744936,"lon":139.504505},{"name":"東久留米市南部地域センター","province":"東京都","city":"東久留米市","address":"東京都東久留米市ひばりが丘団地185","lat":35.746469,"lon":139.534367},{"name":"東久留米市東部地域センター","province":"東京都","city":"東久留米市","address":"東京都東久留米市大門町2丁目10","lat":35.764784,"lon":139.541057},{"name":"東久留米市東部地域センター","province":"東京都","city":"東久留米市","address":"東京都東久留米市大門町2丁目10-5","lat":35.764888,"lon":139.540848},{"name":"東久留米市八幡町地区センター","province":"東京都","city":"東久留米市","address":"東京都東久留米市八幡町2丁目7-61","lat":35.753627,"lon":139.515253},{"name":"東久留米市南町地区センター","province":"東京都","city":"東久留米市","address":"東京都東久留米市南町3丁目9-45","lat":35.740801,"lon":139.520218},{"name":"東久留米市中央町地区センター","province":"東京都","city":"東久留米市","address":"東京都東久留米市中央町6丁目1-1","lat":35.755885,"lon":139.519682},{"name":"東久留米市浅間町地区センター","province":"東京都","city":"東久留米市","address":"東京都東久留米市浅間町2丁目24-16","lat":35.757763,"lon":139.541777},{"name":"東久留米市野火止地区センター","province":"東京都","city":"東久留米市","address":"東京都東久留米市野火止2丁目1-83","lat":35.763548,"lon":139.513354},{"name":"わくわく健康プラザ","province":"東京都","city":"東久留米市","address":"東京都東久留米市滝山4丁目3-14","lat":35.742014,"lon":139.504699},{"name":"わくわく健康プラザ","province":"東京都","city":"東久留米市","address":"東京都東久留米市滝山4丁目3-14","lat":35.742458,"lon":139.504162},{"name":"わくわく健康プラザ","province":"東京都","city":"東久留米市","address":"東京都東久留米市滝山4丁目3-14","lat":35.742305,"lon":139.504761},{"name":"わくわく健康プラザ","province":"東京都","city":"東久留米市","address":"東京都東久留米市滝山4丁目3-14","lat":35.742196,"lon":139.504016},{"name":"東久留米市立中央図書館","province":"東京都","city":"東久留米市","address":"東京都東久留米市中央町2丁目6-23","lat":35.755282,"lon":139.521758},{"name":"東久留米市立生涯学習センター","province":"東京都","city":"東久留米市","address":"東京都東久留米市中央町2丁目6-23","lat":35.755456,"lon":139.522474},{"name":"東久留米市スポーツセンター","province":"東京都","city":"東久留米市","address":"東京都東久留米市大門町2丁目14-37","lat":35.762061,"lon":139.544357},{"name":"東久留米市スポーツセンター","province":"東京都","city":"東久留米市","address":"東京都東久留米市大門町2丁目14-37","lat":35.762045,"lon":139.544367},{"name":"東久留米市スポーツセンター","province":"東京都","city":"東久留米市","address":"東京都東久留米市大門町2丁目14-37","lat":35.762025,"lon":139.544414},{"name":"東久留米市スポーツセンター","province":"東京都","city":"東久留米市","address":"東京都東久留米市大門町2丁目14-37","lat":35.762027,"lon":139.544428},{"name":"東久留米市スポーツセンター","province":"東京都","city":"東久留米市","address":"東京都東久留米市大門町2丁目14-37","lat":35.762247,"lon":139.544415},{"name":"白山公園","province":"東京都","city":"東久留米市","address":"東京都東久留米市滝山7丁目24","lat":35.751091,"lon":139.502263},{"name":"滝山公園","province":"東京都","city":"東久留米市","address":"東京都東久留米市滝山2丁目4","lat":35.745814,"lon":139.5095},{"name":"小山台遺跡公園","province":"東京都","city":"東久留米市","address":"東京都東久留米市小山1丁目10","lat":35.764981,"lon":139.529125},{"name":"神山堂阪公園","province":"東京都","city":"東久留米市","address":"東京都東久留米市神宝町2丁目10","lat":35.76999,"lon":139.54617},{"name":"下里本邑遺跡公園","province":"東京都","city":"東久留米市","address":"東京都東久留米市野火止3丁目4","lat":35.761256,"lon":139.508573},{"name":"西口中央公園","province":"東京都","city":"東久留米市","address":"東京都東久留米市本町1丁目12","lat":35.758743,"lon":139.534345},{"name":"小山れんげ公園","province":"東京都","city":"東久留米市","address":"東京都東久留米市小山2丁目1","lat":35.762059,"lon":139.528013},{"name":"東口中央公園","province":"東京都","city":"東久留米市","address":"東京都東久留米市新川町1丁目10","lat":35.760622,"lon":139.535873},{"name":"南沢水辺公園","province":"東京都","city":"東久留米市","address":"東京都東久留米市南沢3丁目4","lat":35.753535,"lon":139.527889},{"name":"さいかちの道","province":"東京都","city":"東久留米市","address":"東京都東久留米市柳窪4丁目7","lat":35.745958,"lon":139.487739},{"name":"しんやま親水広場","province":"東京都","city":"東久留米市","address":"東京都東久留米市下里4丁目1","lat":35.753862,"lon":139.500538},{"name":"上の原東公園","province":"東京都","city":"東久留米市","address":"東京都東久留米市上の原2丁目3","lat":35.772445,"lon":139.545384},{"name":"東久留米駅西口昇降施設身障者用便所","province":"東京都","city":"東久留米市","address":"東京都東久留米市本町1丁目4","lat":35.760148,"lon":139.533907},{"name":"南町運動広場","province":"東京都","city":"東久留米市","address":"東京都東久留米市南町1丁目8","lat":35.740759,"lon":139.525504},{"name":"上の原テニスコート","province":"東京都","city":"東久留米市","address":"東京都東久留米市上の原1丁目6","lat":35.772192,"lon":139.542943},{"name":"けやき児童館","province":"東京都","city":"東久留米市","address":"東京都東久留米市大門町2丁目10-5","lat":35.764808,"lon":139.541245},{"name":"子どもセンターひばり","province":"東京都","city":"東久留米市","address":"東京都東久留米市ひばりが丘団地8-11","lat":35.74719,"lon":139.531604},{"name":"子どもセンターあおぞら","province":"東京都","city":"東久留米市","address":"東京都東久留米市前沢4丁目25","lat":35.74582,"lon":139.511556},{"name":"東久留米市立中央児童館","province":"東京都","city":"東久留米市","address":"東京都東久留米市中央町1丁目10-11","lat":35.754914,"lon":139.524327},{"name":"上の原グラウンド","province":"東京都","city":"東久留米市","address":"東京都東久留米市上の原2丁目1","lat":35.770063,"lon":139.545554},{"name":"東久留米市立さいわい福祉センター","province":"東京都","city":"東久留米市","address":"東京都東久留米市幸町3丁目9-28","lat":35.759129,"lon":139.519197},{"name":"東久留米市立さいわい福祉センター","province":"東京都","city":"東久留米市","address":"東京都東久留米市幸町3丁目9-28","lat":35.759097,"lon":139.519163},{"name":"地域子ども家庭支援センター上の原","province":"東京都","city":"東久留米市","address":"東京都東久留米市上の原1丁目2-44","lat":35.768571,"lon":139.541898},{"name":"南沢給水所","province":"東京都","city":"東久留米市","address":"東京都東久留米市南沢3-9-21","lat":35.751937,"lon":139.525834},{"name":"滝山給水所","province":"東京都","city":"東久留米市","address":"東京都東久留米市滝山6-1-1","lat":35.7473841,"lon":139.507342},{"name":"市立東第２自転車等駐車場","province":"東京都","city":"東久留米市","address":"東京都東久留米市東本町14","lat":35.7627277,"lon":139.53515209},{"name":"日生サイクルプラザ東久留米第２","province":"東京都","city":"東久留米市","address":"東京都東久留米市新川町1丁目4","lat":35.7612862,"lon":139.5350827},{"name":"日生サイクルプラザ東久留米第１","province":"東京都","city":"東久留米市","address":"東京都東久留米市新川町1丁目3","lat":35.76013078,"lon":139.53539661},{"name":"市立西第９自転車駐車場","province":"東京都","city":"東久留米市","address":"東京都東久留米市本町1丁目5","lat":35.75972803,"lon":139.53402173},{"name":"市立西第１０一時利用自転車駐車場","province":"東京都","city":"東久留米市","address":"東京都東久留米市本町1丁目4","lat":35.75914751,"lon":139.53259409},{"name":"東久留米駅前駐輪場","province":"東京都","city":"東久留米市","address":"東京都東久留米市東本町1-15","lat":35.76086678,"lon":139.53414668},{"name":"東久留米駅前第２駐輪場","province":"東京都","city":"東久留米市","address":"東京都東久留米市東本町1-15","lat":35.76086678,"lon":139.53414668},{"name":"東久留米駅前第３駐輪場","province":"東京都","city":"東久留米市","address":"東京都東久留米市本町1丁目3-28","lat":35.75994184,"lon":139.53205522},{"name":"東久留米駅西口第１自転車駐車場","province":"東京都","city":"東久留米市","address":"東京都東久留米市新川町1丁目3","lat":35.76013078,"lon":139.53539661},{"name":"東久留米駅西口第２自転車駐車場","province":"東京都","city":"東久留米市","address":"東京都東久留米市新川町1丁目3","lat":35.76013078,"lon":139.53539661},{"name":"東久留米駅西口第３自転車駐車場","province":"東京都","city":"東久留米市","address":"東京都東久留米市本町1丁目14","lat":35.75794212,"lon":139.53427455},{"name":"東久留米駅東口自転車駐車場","province":"東京都","city":"東久留米市","address":"東京都東久留米市新川町1丁目3","lat":35.76013078,"lon":139.53539661},{"name":"東久留米駅北口自転車駐車場","province":"東京都","city":"東久留米市","address":"東京都東久留米市東本町1-6","lat":35.76136949,"lon":139.53344116},{"name":"サイクルスペース２４東久留米駐輪場","province":"東京都","city":"東久留米市","address":"東京都東久留米市新川町1丁目9","lat":35.76161952,"lon":139.53686034},{"name":"市立西第１０原付自転車駐車場","province":"東京都","city":"東久留米市","address":"東京都東久留米市本町1丁目4","lat":35.75914751,"lon":139.53259409},{"name":"リバーウエストビルズ駐輪場","province":"東京都","city":"東久留米市","address":"東京都東久留米市本町1丁目5","lat":35.75972803,"lon":139.53402173},{"name":"東久留米駅前第４駐輪場","province":"東京都","city":"東久留米市","address":"東京都東久留米市東本町5","lat":35.76224161,"lon":139.53360501},{"name":"市立臨時西第２自転車駐車場","province":"東京都","city":"東久留米市","address":"東京都東久留米市本町1丁目8-1","lat":35.7578366,"lon":139.53545501},{"name":"東久留米駅西口第１自転車駐車場","province":"東京都","city":"東久留米市","address":"東京都東久留米市本町1丁目3","lat":35.76054178,"lon":139.53217741},{"name":"東久留米駅西口第２自転車駐車場","province":"東京都","city":"東久留米市","address":"東京都東久留米市本町1丁目5","lat":35.75972803,"lon":139.53402173},{"name":"柳窪三丁目","province":"東京都","city":"東久留米市","address":"東京都東久留米市柳窪3丁目2-1","lat":35.74325401,"lon":139.4947647},{"name":"上の原交番前","province":"東京都","city":"東久留米市","address":"東京都東久留米市上の原1丁目2","lat":35.76894094,"lon":139.54174311},{"name":"東久留米市役所前","province":"東京都","city":"東久留米市","address":"東京都東久留米市本町3丁目1-41","lat":35.75827534,"lon":139.53039709},{"name":"東久留米市役所西","province":"東京都","city":"東久留米市","address":"東京都東久留米市中央町1丁目1","lat":35.75811417,"lon":139.52673352},{"name":"さいわい福祉センター前","province":"東京都","city":"東久留米市","address":"東京都東久留米市幸町2丁目1-10","lat":35.75915557,"lon":139.51983687},{"name":"東久留米公民館前","province":"東京都","city":"東久留米市","address":"東京都東久留米市中央町2丁目1-46","lat":35.75573938,"lon":139.52343944},{"name":"東久留米駅西","province":"東京都","city":"東久留米市","address":"東京都東久留米市本町1丁目4-53","lat":35.75968355,"lon":139.53264963},{"name":"神山大橋","province":"東京都","city":"東久留米市","address":"東京都東久留米市大門町2丁目12","lat":35.76377491,"lon":139.5419238},{"name":"＊?東久留米市立生涯学習センター","province":"東京都","city":"東久留米市","address":"東久留米市中央町2-6-23","lat":35.755517,"lon":139.522346},{"name":"東久留米市わくわく健康プラザ（健康課）","province":"東京都","city":"東久留米市","address":"東京都東久留米市滝山4丁目3-14","lat":35.74228769,"lon":139.5044833},{"name":"東久留米市本庁舎","province":"東京都","city":"東久留米市","address":"東京都東久留米市本町3丁目3-1","lat":35.75799202,"lon":139.52967216},{"name":"東久留米市立久留米中学校","province":"東京都","city":"東久留米市","address":"東京都東久留米市幸町5丁目9-11","lat":35.761708,"lon":139.51692595},{"name":"東久留米市立大門中学校","province":"東京都","city":"東久留米市","address":"東京都東久留米市大門町2丁目13-8","lat":35.7628556,"lon":139.54363203},{"name":"東久留米市本庁舎","province":"東京都","city":"東久留米市","address":"東久留米市本町3-3-1","lat":35.757992,"lon":139.529673},{"name":"東久留米消防署","province":"東京都","city":"東久留米市","address":"東久留米市幸町3-4-34","lat":35.75756,"lon":139.5217},{"name":"柳泉園クリーンポート","province":"東京都","city":"東久留米市","address":"東久留米市下里4-3-10","lat":35.75476,"lon":139.4945},{"name":"※東久留米市本庁舎","province":"東京都","city":"東久留米市","address":"東京都東久留米市本町3丁目3-1","lat":35.75799202,"lon":139.52967216},{"name":"東久留米市","province":"東京都","city":"東久留米市","address":"東久留米市本町3-3-1","lat":35.7579922,"lon":139.5296725},{"name":"六仙公園","province":"東京都","city":"東久留米市","address":"東京都東久留米市中央町3丁目24","lat":35.749351,"lon":139.522606},{"name":"東久留米サービスステーション１階　だれでもトイレ","province":"東京都","city":"東久留米市","address":"東京都東久留米市滝山6丁目1-1","lat":35.747463,"lon":139.507362},{"name":"竹林公園","province":"東京都","city":"東久留米市","address":"東京都東久留米市南沢1丁目7","lat":35.75444,"lon":139.534602},{"name":"東久留米市役所","province":"東京都","city":"東久留米市","address":"東京都東久留米市本町3丁目3-1","lat":35.757969,"lon":139.52975},{"name":"東久留米市役所","province":"東京都","city":"東久留米市","address":"東京都東久留米市本町3丁目3-1","lat":35.758033,"lon":139.529989},{"name":"東久留米市役所ごみ対策課庁舎","province":"東京都","city":"東久留米市","address":"東京都東久留米市八幡町2丁目10-10","lat":35.751762,"lon":139.509338},{"name":"東久留米市西部地域センター","province":"東京都","city":"東久留米市","address":"東京都東久留米市滝山4丁目1-10","lat":35.744934,"lon":139.504489},{"name":"東久留米市西部地域センター","province":"東京都","city":"東久留米市","address":"東京都東久留米市滝山4丁目1-10","lat":35.744936,"lon":139.504505},{"name":"東久留米市南部地域センター","province":"東京都","city":"東久留米市","address":"東京都東久留米市ひばりが丘団地185","lat":35.746469,"lon":139.534367},{"name":"東久留米市東部地域センター","province":"東京都","city":"東久留米市","address":"東京都東久留米市大門町2丁目10","lat":35.764784,"lon":139.541057},{"name":"東久留米市東部地域センター","province":"東京都","city":"東久留米市","address":"東京都東久留米市大門町2丁目10-5","lat":35.764888,"lon":139.540848},{"name":"東久留米市八幡町地区センター","province":"東京都","city":"東久留米市","address":"東京都東久留米市八幡町2丁目7-61","lat":35.753627,"lon":139.515253},{"name":"東久留米市南町地区センター","province":"東京都","city":"東久留米市","address":"東京都東久留米市南町3丁目9-45","lat":35.740801,"lon":139.520218},{"name":"東久留米市中央町地区センター","province":"東京都","city":"東久留米市","address":"東京都東久留米市中央町6丁目1-1","lat":35.755885,"lon":139.519682},{"name":"東久留米市浅間町地区センター","province":"東京都","city":"東久留米市","address":"東京都東久留米市浅間町2丁目24-16","lat":35.757763,"lon":139.541777},{"name":"東久留米市野火止地区センター","province":"東京都","city":"東久留米市","address":"東京都東久留米市野火止2丁目1-83","lat":35.763548,"lon":139.513354},{"name":"わくわく健康プラザ","province":"東京都","city":"東久留米市","address":"東京都東久留米市滝山4丁目3-14","lat":35.742014,"lon":139.504699},{"name":"わくわく健康プラザ","province":"東京都","city":"東久留米市","address":"東京都東久留米市滝山4丁目3-14","lat":35.742458,"lon":139.504162},{"name":"わくわく健康プラザ","province":"東京都","city":"東久留米市","address":"東京都東久留米市滝山4丁目3-14","lat":35.742305,"lon":139.504761},{"name":"わくわく健康プラザ","province":"東京都","city":"東久留米市","address":"東京都東久留米市滝山4丁目3-14","lat":35.742196,"lon":139.504016},{"name":"東久留米市立中央図書館","province":"東京都","city":"東久留米市","address":"東京都東久留米市中央町2丁目6-23","lat":35.755282,"lon":139.521758},{"name":"東久留米市立生涯学習センター","province":"東京都","city":"東久留米市","address":"東京都東久留米市中央町2丁目6-23","lat":35.755456,"lon":139.522474},{"name":"東久留米市スポーツセンター","province":"東京都","city":"東久留米市","address":"東京都東久留米市大門町2丁目14-37","lat":35.762061,"lon":139.544357},{"name":"東久留米市スポーツセンター","province":"東京都","city":"東久留米市","address":"東京都東久留米市大門町2丁目14-37","lat":35.762045,"lon":139.544367},{"name":"東久留米市スポーツセンター","province":"東京都","city":"東久留米市","address":"東京都東久留米市大門町2丁目14-37","lat":35.762025,"lon":139.544414},{"name":"東久留米市スポーツセンター","province":"東京都","city":"東久留米市","address":"東京都東久留米市大門町2丁目14-37","lat":35.762027,"lon":139.544428},{"name":"東久留米市スポーツセンター","province":"東京都","city":"東久留米市","address":"東京都東久留米市大門町2丁目14-37","lat":35.762247,"lon":139.544415},{"name":"白山公園","province":"東京都","city":"東久留米市","address":"東京都東久留米市滝山7丁目24","lat":35.751091,"lon":139.502263},{"name":"滝山公園","province":"東京都","city":"東久留米市","address":"東京都東久留米市滝山2丁目4","lat":35.745814,"lon":139.5095},{"name":"小山台遺跡公園","province":"東京都","city":"東久留米市","address":"東京都東久留米市小山1丁目10","lat":35.764981,"lon":139.529125},{"name":"神山堂阪公園","province":"東京都","city":"東久留米市","address":"東京都東久留米市神宝町2丁目10","lat":35.76999,"lon":139.54617},{"name":"下里本邑遺跡公園","province":"東京都","city":"東久留米市","address":"東京都東久留米市野火止3丁目4","lat":35.761256,"lon":139.508573},{"name":"西口中央公園","province":"東京都","city":"東久留米市","address":"東京都東久留米市本町1丁目12","lat":35.758743,"lon":139.534345},{"name":"小山れんげ公園","province":"東京都","city":"東久留米市","address":"東京都東久留米市小山2丁目1","lat":35.762059,"lon":139.528013},{"name":"東口中央公園","province":"東京都","city":"東久留米市","address":"東京都東久留米市新川町1丁目10","lat":35.760622,"lon":139.535873},{"name":"南沢水辺公園","province":"東京都","city":"東久留米市","address":"東京都東久留米市南沢3丁目4","lat":35.753535,"lon":139.527889},{"name":"さいかちの道","province":"東京都","city":"東久留米市","address":"東京都東久留米市柳窪4丁目7","lat":35.745958,"lon":139.487739},{"name":"しんやま親水広場","province":"東京都","city":"東久留米市","address":"東京都東久留米市下里4丁目1","lat":35.753862,"lon":139.500538},{"name":"上の原東公園","province":"東京都","city":"東久留米市","address":"東京都東久留米市上の原2丁目3","lat":35.772445,"lon":139.545384},{"name":"東久留米駅西口昇降施設身障者用便所","province":"東京都","city":"東久留米市","address":"東京都東久留米市本町1丁目4","lat":35.760148,"lon":139.533907},{"name":"南町運動広場","province":"東京都","city":"東久留米市","address":"東京都東久留米市南町1丁目8","lat":35.740759,"lon":139.525504},{"name":"上の原テニスコート","province":"東京都","city":"東久留米市","address":"東京都東久留米市上の原1丁目6","lat":35.772192,"lon":139.542943},{"name":"けやき児童館","province":"東京都","city":"東久留米市","address":"東京都東久留米市大門町2丁目10-5","lat":35.764808,"lon":139.541245},{"name":"子どもセンターひばり","province":"東京都","city":"東久留米市","address":"東京都東久留米市ひばりが丘団地8-11","lat":35.74719,"lon":139.531604},{"name":"子どもセンターあおぞら","province":"東京都","city":"東久留米市","address":"東京都東久留米市前沢4丁目25","lat":35.74582,"lon":139.511556},{"name":"東久留米市立中央児童館","province":"東京都","city":"東久留米市","address":"東京都東久留米市中央町1丁目10-11","lat":35.754914,"lon":139.524327},{"name":"上の原グラウンド","province":"東京都","city":"東久留米市","address":"東京都東久留米市上の原2丁目1","lat":35.770063,"lon":139.545554},{"name":"東久留米市立さいわい福祉センター","province":"東京都","city":"東久留米市","address":"東京都東久留米市幸町3丁目9-28","lat":35.759129,"lon":139.519197},{"name":"東久留米市立さいわい福祉センター","province":"東京都","city":"東久留米市","address":"東京都東久留米市幸町3丁目9-28","lat":35.759097,"lon":139.519163},{"name":"地域子ども家庭支援センター上の原","province":"東京都","city":"東久留米市","address":"東京都東久留米市上の原1丁目2-44","lat":35.768571,"lon":139.541898},{"name":"市立東第２自転車等駐車場","province":"東京都","city":"東久留米市","address":"東京都東久留米市東本町14","lat":35.7627277,"lon":139.53515209},{"name":"日生サイクルプラザ東久留米第２","province":"東京都","city":"東久留米市","address":"東京都東久留米市新川町1丁目4","lat":35.7612862,"lon":139.5350827},{"name":"日生サイクルプラザ東久留米第１","province":"東京都","city":"東久留米市","address":"東京都東久留米市新川町1丁目3","lat":35.76013078,"lon":139.53539661},{"name":"市立西第９自転車駐車場","province":"東京都","city":"東久留米市","address":"東京都東久留米市本町1丁目5","lat":35.75972803,"lon":139.53402173},{"name":"市立西第１０一時利用自転車駐車場","province":"東京都","city":"東久留米市","address":"東京都東久留米市本町1丁目4","lat":35.75914751,"lon":139.53259409},{"name":"東久留米駅前駐輪場","province":"東京都","city":"東久留米市","address":"東京都東久留米市東本町1-15","lat":35.76086678,"lon":139.53414668},{"name":"東久留米駅前第２駐輪場","province":"東京都","city":"東久留米市","address":"東京都東久留米市東本町1-15","lat":35.76086678,"lon":139.53414668},{"name":"東久留米駅前第３駐輪場","province":"東京都","city":"東久留米市","address":"東京都東久留米市本町1丁目3-28","lat":35.75994184,"lon":139.53205522},{"name":"東久留米駅西口第１自転車駐車場","province":"東京都","city":"東久留米市","address":"東京都東久留米市新川町1丁目3","lat":35.76013078,"lon":139.53539661},{"name":"東久留米駅西口第２自転車駐車場","province":"東京都","city":"東久留米市","address":"東京都東久留米市新川町1丁目3","lat":35.76013078,"lon":139.53539661},{"name":"東久留米駅西口第３自転車駐車場","province":"東京都","city":"東久留米市","address":"東京都東久留米市本町1丁目14","lat":35.75794212,"lon":139.53427455},{"name":"東久留米駅東口自転車駐車場","province":"東京都","city":"東久留米市","address":"東京都東久留米市新川町1丁目3","lat":35.76013078,"lon":139.53539661},{"name":"東久留米駅北口自転車駐車場","province":"東京都","city":"東久留米市","address":"東京都東久留米市東本町1-6","lat":35.76136949,"lon":139.53344116},{"name":"サイクルスペース２４東久留米駐輪場","province":"東京都","city":"東久留米市","address":"東京都東久留米市新川町1丁目9","lat":35.76161952,"lon":139.53686034},{"name":"市立西第１０原付自転車駐車場","province":"東京都","city":"東久留米市","address":"東京都東久留米市本町1丁目4","lat":35.75914751,"lon":139.53259409},{"name":"リバーウエストビルズ駐輪場","province":"東京都","city":"東久留米市","address":"東京都東久留米市本町1丁目5","lat":35.75972803,"lon":139.53402173},{"name":"東久留米駅前第４駐輪場","province":"東京都","city":"東久留米市","address":"東京都東久留米市東本町5","lat":35.76224161,"lon":139.53360501},{"name":"市立臨時西第２自転車駐車場","province":"東京都","city":"東久留米市","address":"東京都東久留米市本町1丁目8-1","lat":35.7578366,"lon":139.53545501},{"name":"東久留米駅西口第１自転車駐車場","province":"東京都","city":"東久留米市","address":"東京都東久留米市本町1丁目3","lat":35.76054178,"lon":139.53217741},{"name":"東久留米駅西口第２自転車駐車場","province":"東京都","city":"東久留米市","address":"東京都東久留米市本町1丁目5","lat":35.75972803,"lon":139.53402173},{"name":"柳窪三丁目","province":"東京都","city":"東久留米市","address":"東京都東久留米市柳窪3丁目2-1","lat":35.74325401,"lon":139.4947647},{"name":"上の原交番前","province":"東京都","city":"東久留米市","address":"東京都東久留米市上の原1丁目2","lat":35.76894094,"lon":139.54174311},{"name":"東久留米市役所前","province":"東京都","city":"東久留米市","address":"東京都東久留米市本町3丁目1-41","lat":35.75827534,"lon":139.53039709},{"name":"東久留米市役所西","province":"東京都","city":"東久留米市","address":"東京都東久留米市中央町1丁目1","lat":35.75811417,"lon":139.52673352},{"name":"さいわい福祉センター前","province":"東京都","city":"東久留米市","address":"東京都東久留米市幸町2丁目1-10","lat":35.75915557,"lon":139.51983687},{"name":"東久留米公民館前","province":"東京都","city":"東久留米市","address":"東京都東久留米市中央町2丁目1-46","lat":35.75573938,"lon":139.52343944},{"name":"東久留米駅西","province":"東京都","city":"東久留米市","address":"東京都東久留米市本町1丁目4-53","lat":35.75968355,"lon":139.53264963},{"name":"神山大橋","province":"東京都","city":"東久留米市","address":"東京都東久留米市大門町2丁目12","lat":35.76377491,"lon":139.5419238},{"name":"＊?東久留米市立生涯学習センター","province":"東京都","city":"東久留米市","address":"東久留米市中央町2-6-23","lat":35.755517,"lon":139.522346},{"name":"東久留米市わくわく健康プラザ（健康課）","province":"東京都","city":"東久留米市","address":"東京都東久留米市滝山4丁目3-14","lat":35.74228769,"lon":139.5044833},{"name":"東久留米市本庁舎","province":"東京都","city":"東久留米市","address":"東京都東久留米市本町3丁目3-1","lat":35.75799202,"lon":139.52967216},{"name":"東久留米市立久留米中学校","province":"東京都","city":"東久留米市","address":"東京都東久留米市幸町5丁目9-11","lat":35.761708,"lon":139.51692595},{"name":"東久留米市立大門中学校","province":"東京都","city":"東久留米市","address":"東京都東久留米市大門町2丁目13-8","lat":35.7628556,"lon":139.54363203},{"name":"東久留米市本庁舎","province":"東京都","city":"東久留米市","address":"東久留米市本町3-3-1","lat":35.757992,"lon":139.529673},{"name":"東久留米消防署","province":"東京都","city":"東久留米市","address":"東久留米市幸町3-4-34","lat":35.75756,"lon":139.5217},{"name":"柳泉園クリーンポート","province":"東京都","city":"東久留米市","address":"東久留米市下里4-3-10","lat":35.75476,"lon":139.4945},{"name":"※東久留米市本庁舎","province":"東京都","city":"東久留米市","address":"東京都東久留米市本町3丁目3-1","lat":35.75799202,"lon":139.52967216},{"name":"東久留米市","province":"東京都","city":"東久留米市","address":"東久留米市本町3-3-1","lat":35.7579922,"lon":139.5296725},{"name":"六仙公園","province":"東京都","city":"東久留米市","address":"東京都東久留米市中央町3丁目24","lat":35.749351,"lon":139.522606},{"name":"東久留米サービスステーション１階　だれでもトイレ","province":"東京都","city":"東久留米市","address":"東京都東久留米市滝山6丁目1-1","lat":35.747463,"lon":139.507362},{"name":"竹林公園","province":"東京都","city":"東久留米市","address":"東京都東久留米市南沢1丁目7","lat":35.75444,"lon":139.534602},{"name":"東久留米市役所","province":"東京都","city":"東久留米市","address":"東京都東久留米市本町3丁目3-1","lat":35.757969,"lon":139.52975},{"name":"東久留米市役所","province":"東京都","city":"東久留米市","address":"東京都東久留米市本町3丁目3-1","lat":35.758033,"lon":139.529989},{"name":"東久留米市役所ごみ対策課庁舎","province":"東京都","city":"東久留米市","address":"東京都東久留米市八幡町2丁目10-10","lat":35.751762,"lon":139.509338},{"name":"東久留米市西部地域センター","province":"東京都","city":"東久留米市","address":"東京都東久留米市滝山4丁目1-10","lat":35.744934,"lon":139.504489},{"name":"東久留米市西部地域センター","province":"東京都","city":"東久留米市","address":"東京都東久留米市滝山4丁目1-10","lat":35.744936,"lon":139.504505},{"name":"東久留米市南部地域センター","province":"東京都","city":"東久留米市","address":"東京都東久留米市ひばりが丘団地185","lat":35.746469,"lon":139.534367},{"name":"東久留米市東部地域センター","province":"東京都","city":"東久留米市","address":"東京都東久留米市大門町2丁目10","lat":35.764784,"lon":139.541057},{"name":"東久留米市東部地域センター","province":"東京都","city":"東久留米市","address":"東京都東久留米市大門町2丁目10-5","lat":35.764888,"lon":139.540848},{"name":"東久留米市八幡町地区センター","province":"東京都","city":"東久留米市","address":"東京都東久留米市八幡町2丁目7-61","lat":35.753627,"lon":139.515253},{"name":"東久留米市南町地区センター","province":"東京都","city":"東久留米市","address":"東京都東久留米市南町3丁目9-45","lat":35.740801,"lon":139.520218},{"name":"東久留米市中央町地区センター","province":"東京都","city":"東久留米市","address":"東京都東久留米市中央町6丁目1-1","lat":35.755885,"lon":139.519682},{"name":"東久留米市浅間町地区センター","province":"東京都","city":"東久留米市","address":"東京都東久留米市浅間町2丁目24-16","lat":35.757763,"lon":139.541777},{"name":"東久留米市野火止地区センター","province":"東京都","city":"東久留米市","address":"東京都東久留米市野火止2丁目1-83","lat":35.763548,"lon":139.513354},{"name":"わくわく健康プラザ","province":"東京都","city":"東久留米市","address":"東京都東久留米市滝山4丁目3-14","lat":35.742014,"lon":139.504699},{"name":"わくわく健康プラザ","province":"東京都","city":"東久留米市","address":"東京都東久留米市滝山4丁目3-14","lat":35.742458,"lon":139.504162},{"name":"わくわく健康プラザ","province":"東京都","city":"東久留米市","address":"東京都東久留米市滝山4丁目3-14","lat":35.742305,"lon":139.504761},{"name":"わくわく健康プラザ","province":"東京都","city":"東久留米市","address":"東京都東久留米市滝山4丁目3-14","lat":35.742196,"lon":139.504016},{"name":"東久留米市立中央図書館","province":"東京都","city":"東久留米市","address":"東京都東久留米市中央町2丁目6-23","lat":35.755282,"lon":139.521758},{"name":"東久留米市立生涯学習センター","province":"東京都","city":"東久留米市","address":"東京都東久留米市中央町2丁目6-23","lat":35.755456,"lon":139.522474},{"name":"東久留米市スポーツセンター","province":"東京都","city":"東久留米市","address":"東京都東久留米市大門町2丁目14-37","lat":35.762061,"lon":139.544357},{"name":"東久留米市スポーツセンター","province":"東京都","city":"東久留米市","address":"東京都東久留米市大門町2丁目14-37","lat":35.762045,"lon":139.544367},{"name":"東久留米市スポーツセンター","province":"東京都","city":"東久留米市","address":"東京都東久留米市大門町2丁目14-37","lat":35.762025,"lon":139.544414},{"name":"東久留米市スポーツセンター","province":"東京都","city":"東久留米市","address":"東京都東久留米市大門町2丁目14-37","lat":35.762027,"lon":139.544428},{"name":"東久留米市スポーツセンター","province":"東京都","city":"東久留米市","address":"東京都東久留米市大門町2丁目14-37","lat":35.762247,"lon":139.544415},{"name":"白山公園","province":"東京都","city":"東久留米市","address":"東京都東久留米市滝山7丁目24","lat":35.751091,"lon":139.502263},{"name":"滝山公園","province":"東京都","city":"東久留米市","address":"東京都東久留米市滝山2丁目4","lat":35.745814,"lon":139.5095},{"name":"小山台遺跡公園","province":"東京都","city":"東久留米市","address":"東京都東久留米市小山1丁目10","lat":35.764981,"lon":139.529125},{"name":"神山堂阪公園","province":"東京都","city":"東久留米市","address":"東京都東久留米市神宝町2丁目10","lat":35.76999,"lon":139.54617},{"name":"下里本邑遺跡公園","province":"東京都","city":"東久留米市","address":"東京都東久留米市野火止3丁目4","lat":35.761256,"lon":139.508573},{"name":"西口中央公園","province":"東京都","city":"東久留米市","address":"東京都東久留米市本町1丁目12","lat":35.758743,"lon":139.534345},{"name":"小山れんげ公園","province":"東京都","city":"東久留米市","address":"東京都東久留米市小山2丁目1","lat":35.762059,"lon":139.528013},{"name":"東口中央公園","province":"東京都","city":"東久留米市","address":"東京都東久留米市新川町1丁目10","lat":35.760622,"lon":139.535873},{"name":"南沢水辺公園","province":"東京都","city":"東久留米市","address":"東京都東久留米市南沢3丁目4","lat":35.753535,"lon":139.527889},{"name":"さいかちの道","province":"東京都","city":"東久留米市","address":"東京都東久留米市柳窪4丁目7","lat":35.745958,"lon":139.487739},{"name":"しんやま親水広場","province":"東京都","city":"東久留米市","address":"東京都東久留米市下里4丁目1","lat":35.753862,"lon":139.500538},{"name":"上の原東公園","province":"東京都","city":"東久留米市","address":"東京都東久留米市上の原2丁目3","lat":35.772445,"lon":139.545384},{"name":"東久留米駅西口昇降施設身障者用便所","province":"東京都","city":"東久留米市","address":"東京都東久留米市本町1丁目4","lat":35.760148,"lon":139.533907},{"name":"南町運動広場","province":"東京都","city":"東久留米市","address":"東京都東久留米市南町1丁目8","lat":35.740759,"lon":139.525504},{"name":"上の原テニスコート","province":"東京都","city":"東久留米市","address":"東京都東久留米市上の原1丁目6","lat":35.772192,"lon":139.542943},{"name":"けやき児童館","province":"東京都","city":"東久留米市","address":"東京都東久留米市大門町2丁目10-5","lat":35.764808,"lon":139.541245},{"name":"子どもセンターひばり","province":"東京都","city":"東久留米市","address":"東京都東久留米市ひばりが丘団地8-11","lat":35.74719,"lon":139.531604},{"name":"子どもセンターあおぞら","province":"東京都","city":"東久留米市","address":"東京都東久留米市前沢4丁目25","lat":35.74582,"lon":139.511556},{"name":"東久留米市立中央児童館","province":"東京都","city":"東久留米市","address":"東京都東久留米市中央町1丁目10-11","lat":35.754914,"lon":139.524327},{"name":"上の原グラウンド","province":"東京都","city":"東久留米市","address":"東京都東久留米市上の原2丁目1","lat":35.770063,"lon":139.545554},{"name":"東久留米市立さいわい福祉センター","province":"東京都","city":"東久留米市","address":"東京都東久留米市幸町3丁目9-28","lat":35.759129,"lon":139.519197},{"name":"東久留米市立さいわい福祉センター","province":"東京都","city":"東久留米市","address":"東京都東久留米市幸町3丁目9-28","lat":35.759097,"lon":139.519163},{"name":"地域子ども家庭支援センター上の原","province":"東京都","city":"東久留米市","address":"東京都東久留米市上の原1丁目2-44","lat":35.768571,"lon":139.541898},{"name":"市立東第２自転車等駐車場","province":"東京都","city":"東久留米市","address":"東京都東久留米市東本町14","lat":35.7627277,"lon":139.53515209},{"name":"日生サイクルプラザ東久留米第２","province":"東京都","city":"東久留米市","address":"東京都東久留米市新川町1丁目4","lat":35.7612862,"lon":139.5350827},{"name":"日生サイクルプラザ東久留米第１","province":"東京都","city":"東久留米市","address":"東京都東久留米市新川町1丁目3","lat":35.76013078,"lon":139.53539661},{"name":"市立西第９自転車駐車場","province":"東京都","city":"東久留米市","address":"東京都東久留米市本町1丁目5","lat":35.75972803,"lon":139.53402173},{"name":"市立西第１０一時利用自転車駐車場","province":"東京都","city":"東久留米市","address":"東京都東久留米市本町1丁目4","lat":35.75914751,"lon":139.53259409},{"name":"東久留米駅前駐輪場","province":"東京都","city":"東久留米市","address":"東京都東久留米市東本町1-15","lat":35.76086678,"lon":139.53414668},{"name":"東久留米駅前第２駐輪場","province":"東京都","city":"東久留米市","address":"東京都東久留米市東本町1-15","lat":35.76086678,"lon":139.53414668},{"name":"東久留米駅前第３駐輪場","province":"東京都","city":"東久留米市","address":"東京都東久留米市本町1丁目3-28","lat":35.75994184,"lon":139.53205522},{"name":"東久留米駅西口第１自転車駐車場","province":"東京都","city":"東久留米市","address":"東京都東久留米市新川町1丁目3","lat":35.76013078,"lon":139.53539661},{"name":"東久留米駅西口第２自転車駐車場","province":"東京都","city":"東久留米市","address":"東京都東久留米市新川町1丁目3","lat":35.76013078,"lon":139.53539661},{"name":"東久留米駅西口第３自転車駐車場","province":"東京都","city":"東久留米市","address":"東京都東久留米市本町1丁目14","lat":35.75794212,"lon":139.53427455},{"name":"東久留米駅東口自転車駐車場","province":"東京都","city":"東久留米市","address":"東京都東久留米市新川町1丁目3","lat":35.76013078,"lon":139.53539661},{"name":"東久留米駅北口自転車駐車場","province":"東京都","city":"東久留米市","address":"東京都東久留米市東本町1-6","lat":35.76136949,"lon":139.53344116},{"name":"サイクルスペース２４東久留米駐輪場","province":"東京都","city":"東久留米市","address":"東京都東久留米市新川町1丁目9","lat":35.76161952,"lon":139.53686034},{"name":"市立西第１０原付自転車駐車場","province":"東京都","city":"東久留米市","address":"東京都東久留米市本町1丁目4","lat":35.75914751,"lon":139.53259409},{"name":"リバーウエストビルズ駐輪場","province":"東京都","city":"東久留米市","address":"東京都東久留米市本町1丁目5","lat":35.75972803,"lon":139.53402173},{"name":"東久留米駅前第４駐輪場","province":"東京都","city":"東久留米市","address":"東京都東久留米市東本町5","lat":35.76224161,"lon":139.53360501},{"name":"市立臨時西第２自転車駐車場","province":"東京都","city":"東久留米市","address":"東京都東久留米市本町1丁目8-1","lat":35.7578366,"lon":139.53545501},{"name":"東久留米駅西口第１自転車駐車場","province":"東京都","city":"東久留米市","address":"東京都東久留米市本町1丁目3","lat":35.76054178,"lon":139.53217741},{"name":"東久留米駅西口第２自転車駐車場","province":"東京都","city":"東久留米市","address":"東京都東久留米市本町1丁目5","lat":35.75972803,"lon":139.53402173},{"name":"柳窪三丁目","province":"東京都","city":"東久留米市","address":"東京都東久留米市柳窪3丁目2-1","lat":35.74325401,"lon":139.4947647},{"name":"上の原交番前","province":"東京都","city":"東久留米市","address":"東京都東久留米市上の原1丁目2","lat":35.76894094,"lon":139.54174311},{"name":"東久留米市役所前","province":"東京都","city":"東久留米市","address":"東京都東久留米市本町3丁目1-41","lat":35.75827534,"lon":139.53039709},{"name":"東久留米市役所西","province":"東京都","city":"東久留米市","address":"東京都東久留米市中央町1丁目1","lat":35.75811417,"lon":139.52673352},{"name":"さいわい福祉センター前","province":"東京都","city":"東久留米市","address":"東京都東久留米市幸町2丁目1-10","lat":35.75915557,"lon":139.51983687},{"name":"東久留米公民館前","province":"東京都","city":"東久留米市","address":"東京都東久留米市中央町2丁目1-46","lat":35.75573938,"lon":139.52343944},{"name":"東久留米駅西","province":"東京都","city":"東久留米市","address":"東京都東久留米市本町1丁目4-53","lat":35.75968355,"lon":139.53264963},{"name":"神山大橋","province":"東京都","city":"東久留米市","address":"東京都東久留米市大門町2丁目12","lat":35.76377491,"lon":139.5419238},{"name":"＊?東久留米市立生涯学習センター","province":"東京都","city":"東久留米市","address":"東久留米市中央町2-6-23","lat":35.755517,"lon":139.522346},{"name":"東久留米市わくわく健康プラザ（健康課）","province":"東京都","city":"東久留米市","address":"東京都東久留米市滝山4丁目3-14","lat":35.74228769,"lon":139.5044833},{"name":"東久留米市本庁舎","province":"東京都","city":"東久留米市","address":"東京都東久留米市本町3丁目3-1","lat":35.75799202,"lon":139.52967216},{"name":"東久留米市立久留米中学校","province":"東京都","city":"東久留米市","address":"東京都東久留米市幸町5丁目9-11","lat":35.761708,"lon":139.51692595},{"name":"東久留米市立大門中学校","province":"東京都","city":"東久留米市","address":"東京都東久留米市大門町2丁目13-8","lat":35.7628556,"lon":139.54363203},{"name":"東久留米消防署","province":"東京都","city":"東久留米市","address":"東久留米市幸町3-4-34","lat":35.75756,"lon":139.5217},{"name":"柳泉園クリーンポート","province":"東京都","city":"東久留米市","address":"東久留米市下里4-3-10","lat":35.75476,"lon":139.4945},{"name":"※東久留米市本庁舎","province":"東京都","city":"東久留米市","address":"東京都東久留米市本町3丁目3-1","lat":35.75799202,"lon":139.52967216},{"name":"東久留米市","province":"東京都","city":"東久留米市","address":"東久留米市本町3-3-1","lat":35.7579922,"lon":139.5296725},{"name":"市立東第２自転車等駐車場","province":"東京都","city":"東久留米市","address":"東京都東久留米市東本町14","lat":35.7627277,"lon":139.53515209},{"name":"日生サイクルプラザ東久留米第２","province":"東京都","city":"東久留米市","address":"東京都東久留米市新川町1丁目4","lat":35.7612862,"lon":139.5350827},{"name":"日生サイクルプラザ東久留米第１","province":"東京都","city":"東久留米市","address":"東京都東久留米市新川町1丁目3","lat":35.76013078,"lon":139.53539661},{"name":"市立西第９自転車駐車場","province":"東京都","city":"東久留米市","address":"東京都東久留米市本町1丁目5","lat":35.75972803,"lon":139.53402173},{"name":"市立西第１０一時利用自転車駐車場","province":"東京都","city":"東久留米市","address":"東京都東久留米市本町1丁目4","lat":35.75914751,"lon":139.53259409},{"name":"東久留米駅前駐輪場","province":"東京都","city":"東久留米市","address":"東京都東久留米市東本町1-15","lat":35.76086678,"lon":139.53414668},{"name":"東久留米駅前第２駐輪場","province":"東京都","city":"東久留米市","address":"東京都東久留米市東本町1-15","lat":35.76086678,"lon":139.53414668},{"name":"東久留米駅前第３駐輪場","province":"東京都","city":"東久留米市","address":"東京都東久留米市本町1丁目3-28","lat":35.75994184,"lon":139.53205522},{"name":"東久留米駅西口第１自転車駐車場","province":"東京都","city":"東久留米市","address":"東京都東久留米市新川町1丁目3","lat":35.76013078,"lon":139.53539661},{"name":"東久留米駅西口第２自転車駐車場","province":"東京都","city":"東久留米市","address":"東京都東久留米市新川町1丁目3","lat":35.76013078,"lon":139.53539661},{"name":"東久留米駅西口第３自転車駐車場","province":"東京都","city":"東久留米市","address":"東京都東久留米市本町1丁目14","lat":35.75794212,"lon":139.53427455},{"name":"東久留米駅東口自転車駐車場","province":"東京都","city":"東久留米市","address":"東京都東久留米市新川町1丁目3","lat":35.76013078,"lon":139.53539661},{"name":"東久留米駅北口自転車駐車場","province":"東京都","city":"東久留米市","address":"東京都東久留米市東本町1-6","lat":35.76136949,"lon":139.53344116},{"name":"サイクルスペース２４東久留米駐輪場","province":"東京都","city":"東久留米市","address":"東京都東久留米市新川町1丁目9","lat":35.76161952,"lon":139.53686034},{"name":"市立西第１０原付自転車駐車場","province":"東京都","city":"東久留米市","address":"東京都東久留米市本町1丁目4","lat":35.75914751,"lon":139.53259409},{"name":"リバーウエストビルズ駐輪場","province":"東京都","city":"東久留米市","address":"東京都東久留米市本町1丁目5","lat":35.75972803,"lon":139.53402173},{"name":"東久留米駅前第４駐輪場","province":"東京都","city":"東久留米市","address":"東京都東久留米市東本町5","lat":35.76224161,"lon":139.53360501},{"name":"市立臨時西第２自転車駐車場","province":"東京都","city":"東久留米市","address":"東京都東久留米市本町1丁目8-1","lat":35.7578366,"lon":139.53545501},{"name":"東久留米駅西口第１自転車駐車場","province":"東京都","city":"東久留米市","address":"東京都東久留米市本町1丁目3","lat":35.76054178,"lon":139.53217741},{"name":"東久留米駅西口第２自転車駐車場","province":"東京都","city":"東久留米市","address":"東京都東久留米市本町1丁目5","lat":35.75972803,"lon":139.53402173},{"name":"柳窪三丁目","province":"東京都","city":"東久留米市","address":"東京都東久留米市柳窪3丁目2-1","lat":35.74325401,"lon":139.4947647},{"name":"上の原交番前","province":"東京都","city":"東久留米市","address":"東京都東久留米市上の原1丁目2","lat":35.76894094,"lon":139.54174311},{"name":"東久留米市役所前","province":"東京都","city":"東久留米市","address":"東京都東久留米市本町3丁目1-41","lat":35.75827534,"lon":139.53039709},{"name":"東久留米市役所西","province":"東京都","city":"東久留米市","address":"東京都東久留米市中央町1丁目1","lat":35.75811417,"lon":139.52673352},{"name":"さいわい福祉センター前","province":"東京都","city":"東久留米市","address":"東京都東久留米市幸町2丁目1-10","lat":35.75915557,"lon":139.51983687},{"name":"東久留米公民館前","province":"東京都","city":"東久留米市","address":"東京都東久留米市中央町2丁目1-46","lat":35.75573938,"lon":139.52343944},{"name":"東久留米駅西","province":"東京都","city":"東久留米市","address":"東京都東久留米市本町1丁目4-53","lat":35.75968355,"lon":139.53264963},{"name":"神山大橋","province":"東京都","city":"東久留米市","address":"東京都東久留米市大門町2丁目12","lat":35.76377491,"lon":139.5419238},{"name":"＊?東久留米市立生涯学習センター","province":"東京都","city":"東久留米市","address":"東久留米市中央町2-6-23","lat":35.755517,"lon":139.522346},{"name":"東久留米市わくわく健康プラザ（健康課）","province":"東京都","city":"東久留米市","address":"東京都東久留米市滝山4丁目3-14","lat":35.74228769,"lon":139.5044833},{"name":"東久留米市本庁舎","province":"東京都","city":"東久留米市","address":"東京都東久留米市本町3丁目3-1","lat":35.75799202,"lon":139.52967216},{"name":"東久留米市立久留米中学校","province":"東京都","city":"東久留米市","address":"東京都東久留米市幸町5丁目9-11","lat":35.761708,"lon":139.51692595},{"name":"東久留米市立大門中学校","province":"東京都","city":"東久留米市","address":"東京都東久留米市大門町2丁目13-8","lat":35.7628556,"lon":139.54363203},{"name":"東久留米消防署","province":"東京都","city":"東久留米市","address":"東久留米市幸町3-4-34","lat":35.75756,"lon":139.5217},{"name":"柳泉園クリーンポート","province":"東京都","city":"東久留米市","address":"東久留米市下里4-3-10","lat":35.75476,"lon":139.4945},{"name":"※東久留米市本庁舎","province":"東京都","city":"東久留米市","address":"東京都東久留米市本町3丁目3-1","lat":35.75799202,"lon":139.52967216},{"name":"東久留米市","province":"東京都","city":"東久留米市","address":"東久留米市本町3-3-1","lat":35.7579922,"lon":139.5296725},{"name":"市立東第２自転車等駐車場","province":"東京都","city":"東久留米市","address":"東京都東久留米市東本町14","lat":35.7627277,"lon":139.53515209},{"name":"日生サイクルプラザ東久留米第２","province":"東京都","city":"東久留米市","address":"東京都東久留米市新川町1丁目4","lat":35.7612862,"lon":139.5350827},{"name":"日生サイクルプラザ東久留米第１","province":"東京都","city":"東久留米市","address":"東京都東久留米市新川町1丁目3","lat":35.76013078,"lon":139.53539661},{"name":"市立西第９自転車駐車場","province":"東京都","city":"東久留米市","address":"東京都東久留米市本町1丁目5","lat":35.75972803,"lon":139.53402173},{"name":"市立西第１０一時利用自転車駐車場","province":"東京都","city":"東久留米市","address":"東京都東久留米市本町1丁目4","lat":35.75914751,"lon":139.53259409},{"name":"東久留米駅前駐輪場","province":"東京都","city":"東久留米市","address":"東京都東久留米市東本町1-15","lat":35.76086678,"lon":139.53414668},{"name":"東久留米駅前第２駐輪場","province":"東京都","city":"東久留米市","address":"東京都東久留米市東本町1-15","lat":35.76086678,"lon":139.53414668},{"name":"東久留米駅前第３駐輪場","province":"東京都","city":"東久留米市","address":"東京都東久留米市本町1丁目3-28","lat":35.75994184,"lon":139.53205522},{"name":"東久留米駅西口第１自転車駐車場","province":"東京都","city":"東久留米市","address":"東京都東久留米市新川町1丁目3","lat":35.76013078,"lon":139.53539661},{"name":"東久留米駅西口第２自転車駐車場","province":"東京都","city":"東久留米市","address":"東京都東久留米市新川町1丁目3","lat":35.76013078,"lon":139.53539661},{"name":"東久留米駅西口第３自転車駐車場","province":"東京都","city":"東久留米市","address":"東京都東久留米市本町1丁目14","lat":35.75794212,"lon":139.53427455},{"name":"東久留米駅東口自転車駐車場","province":"東京都","city":"東久留米市","address":"東京都東久留米市新川町1丁目3","lat":35.76013078,"lon":139.53539661},{"name":"東久留米駅北口自転車駐車場","province":"東京都","city":"東久留米市","address":"東京都東久留米市東本町1-6","lat":35.76136949,"lon":139.53344116},{"name":"サイクルスペース２４東久留米駐輪場","province":"東京都","city":"東久留米市","address":"東京都東久留米市新川町1丁目9","lat":35.76161952,"lon":139.53686034},{"name":"市立西第１０原付自転車駐車場","province":"東京都","city":"東久留米市","address":"東京都東久留米市本町1丁目4","lat":35.75914751,"lon":139.53259409},{"name":"リバーウエストビルズ駐輪場","province":"東京都","city":"東久留米市","address":"東京都東久留米市本町1丁目5","lat":35.75972803,"lon":139.53402173},{"name":"東久留米駅前第４駐輪場","province":"東京都","city":"東久留米市","address":"東京都東久留米市東本町5","lat":35.76224161,"lon":139.53360501},{"name":"市立臨時西第２自転車駐車場","province":"東京都","city":"東久留米市","address":"東京都東久留米市本町1丁目8-1","lat":35.7578366,"lon":139.53545501},{"name":"東久留米駅西口第１自転車駐車場","province":"東京都","city":"東久留米市","address":"東京都東久留米市本町1丁目3","lat":35.76054178,"lon":139.53217741},{"name":"東久留米駅西口第２自転車駐車場","province":"東京都","city":"東久留米市","address":"東京都東久留米市本町1丁目5","lat":35.75972803,"lon":139.53402173},{"name":"＊?東久留米市立生涯学習センター","province":"東京都","city":"東久留米市","address":"東久留米市中央町2-6-23","lat":35.755517,"lon":139.522346},{"name":"東久留米市わくわく健康プラザ（健康課）","province":"東京都","city":"東久留米市","address":"東京都東久留米市滝山4丁目3-14","lat":35.74228769,"lon":139.5044833},{"name":"東久留米市本庁舎","province":"東京都","city":"東久留米市","address":"東京都東久留米市本町3丁目3-1","lat":35.75799202,"lon":139.52967216},{"name":"東久留米市立久留米中学校","province":"東京都","city":"東久留米市","address":"東京都東久留米市幸町5丁目9-11","lat":35.761708,"lon":139.51692595},{"name":"東久留米市立大門中学校","province":"東京都","city":"東久留米市","address":"東京都東久留米市大門町2丁目13-8","lat":35.7628556,"lon":139.54363203},{"name":"東久留米消防署","province":"東京都","city":"東久留米市","address":"東久留米市幸町3-4-34","lat":35.75756,"lon":139.5217},{"name":"柳泉園クリーンポート","province":"東京都","city":"東久留米市","address":"東久留米市下里4-3-10","lat":35.75476,"lon":139.4945},{"name":"※東久留米市本庁舎","province":"東京都","city":"東久留米市","address":"東京都東久留米市本町3丁目3-1","lat":35.75799202,"lon":139.52967216},{"name":"市立東第２自転車等駐車場","province":"東京都","city":"東久留米市","address":"東京都東久留米市東本町14","lat":35.7627277,"lon":139.53515209},{"name":"日生サイクルプラザ東久留米第２","province":"東京都","city":"東久留米市","address":"東京都東久留米市新川町1丁目4","lat":35.7612862,"lon":139.5350827},{"name":"日生サイクルプラザ東久留米第１","province":"東京都","city":"東久留米市","address":"東京都東久留米市新川町1丁目3","lat":35.76013078,"lon":139.53539661},{"name":"市立西第９自転車駐車場","province":"東京都","city":"東久留米市","address":"東京都東久留米市本町1丁目5","lat":35.75972803,"lon":139.53402173},{"name":"市立西第１０一時利用自転車駐車場","province":"東京都","city":"東久留米市","address":"東京都東久留米市本町1丁目4","lat":35.75914751,"lon":139.53259409},{"name":"東久留米駅前駐輪場","province":"東京都","city":"東久留米市","address":"東京都東久留米市東本町1-15","lat":35.76086678,"lon":139.53414668},{"name":"東久留米駅前第２駐輪場","province":"東京都","city":"東久留米市","address":"東京都東久留米市東本町1-15","lat":35.76086678,"lon":139.53414668},{"name":"東久留米駅前第３駐輪場","province":"東京都","city":"東久留米市","address":"東京都東久留米市本町1丁目3-28","lat":35.75994184,"lon":139.53205522},{"name":"東久留米駅西口第１自転車駐車場","province":"東京都","city":"東久留米市","address":"東京都東久留米市新川町1丁目3","lat":35.76013078,"lon":139.53539661},{"name":"東久留米駅西口第２自転車駐車場","province":"東京都","city":"東久留米市","address":"東京都東久留米市新川町1丁目3","lat":35.76013078,"lon":139.53539661},{"name":"東久留米駅西口第３自転車駐車場","province":"東京都","city":"東久留米市","address":"東京都東久留米市本町1丁目14","lat":35.75794212,"lon":139.53427455},{"name":"東久留米駅東口自転車駐車場","province":"東京都","city":"東久留米市","address":"東京都東久留米市新川町1丁目3","lat":35.76013078,"lon":139.53539661},{"name":"東久留米駅北口自転車駐車場","province":"東京都","city":"東久留米市","address":"東京都東久留米市東本町1-6","lat":35.76136949,"lon":139.53344116},{"name":"サイクルスペース２４東久留米駐輪場","province":"東京都","city":"東久留米市","address":"東京都東久留米市新川町1丁目9","lat":35.76161952,"lon":139.53686034},{"name":"市立西第１０原付自転車駐車場","province":"東京都","city":"東久留米市","address":"東京都東久留米市本町1丁目4","lat":35.75914751,"lon":139.53259409},{"name":"リバーウエストビルズ駐輪場","province":"東京都","city":"東久留米市","address":"東京都東久留米市本町1丁目5","lat":35.75972803,"lon":139.53402173},{"name":"東久留米駅前第４駐輪場","province":"東京都","city":"東久留米市","address":"東京都東久留米市東本町5","lat":35.76224161,"lon":139.53360501},{"name":"市立臨時西第２自転車駐車場","province":"東京都","city":"東久留米市","address":"東京都東久留米市本町1丁目8-1","lat":35.7578366,"lon":139.53545501},{"name":"東久留米駅西口第１自転車駐車場","province":"東京都","city":"東久留米市","address":"東京都東久留米市本町1丁目3","lat":35.76054178,"lon":139.53217741},{"name":"東久留米駅西口第２自転車駐車場","province":"東京都","city":"東久留米市","address":"東京都東久留米市本町1丁目5","lat":35.75972803,"lon":139.53402173},{"name":"＊?東久留米市立生涯学習センター","province":"東京都","city":"東久留米市","address":"東久留米市中央町2-6-23","lat":35.755517,"lon":139.522346},{"name":"東久留米市わくわく健康プラザ（健康課）","province":"東京都","city":"東久留米市","address":"東京都東久留米市滝山4丁目3-14","lat":35.74228769,"lon":139.5044833},{"name":"東久留米市本庁舎","province":"東京都","city":"東久留米市","address":"東京都東久留米市本町3丁目3-1","lat":35.75799202,"lon":139.52967216},{"name":"東久留米市立久留米中学校","province":"東京都","city":"東久留米市","address":"東京都東久留米市幸町5丁目9-11","lat":35.761708,"lon":139.51692595},{"name":"東久留米市立大門中学校","province":"東京都","city":"東久留米市","address":"東京都東久留米市大門町2丁目13-8","lat":35.7628556,"lon":139.54363203},{"name":"東久留米消防署","province":"東京都","city":"東久留米市","address":"東久留米市幸町3-4-34","lat":35.75756,"lon":139.5217},{"name":"柳泉園クリーンポート","province":"東京都","city":"東久留米市","address":"東久留米市下里4-3-10","lat":35.75476,"lon":139.4945},{"name":"※東久留米市本庁舎","province":"東京都","city":"東久留米市","address":"東京都東久留米市本町3丁目3-1","lat":35.75799202,"lon":139.52967216},{"name":"市立東第２自転車等駐車場","province":"東京都","city":"東久留米市","address":"東京都東久留米市東本町14","lat":35.7627277,"lon":139.53515209},{"name":"日生サイクルプラザ東久留米第２","province":"東京都","city":"東久留米市","address":"東京都東久留米市新川町1丁目4","lat":35.7612862,"lon":139.5350827},{"name":"日生サイクルプラザ東久留米第１","province":"東京都","city":"東久留米市","address":"東京都東久留米市新川町1丁目3","lat":35.76013078,"lon":139.53539661},{"name":"市立西第９自転車駐車場","province":"東京都","city":"東久留米市","address":"東京都東久留米市本町1丁目5","lat":35.75972803,"lon":139.53402173},{"name":"市立西第１０一時利用自転車駐車場","province":"東京都","city":"東久留米市","address":"東京都東久留米市本町1丁目4","lat":35.75914751,"lon":139.53259409},{"name":"東久留米駅前駐輪場","province":"東京都","city":"東久留米市","address":"東京都東久留米市東本町1-15","lat":35.76086678,"lon":139.53414668},{"name":"東久留米駅前第２駐輪場","province":"東京都","city":"東久留米市","address":"東京都東久留米市東本町1-15","lat":35.76086678,"lon":139.53414668},{"name":"東久留米駅前第３駐輪場","province":"東京都","city":"東久留米市","address":"東京都東久留米市本町1丁目3-28","lat":35.75994184,"lon":139.53205522},{"name":"東久留米駅西口第１自転車駐車場","province":"東京都","city":"東久留米市","address":"東京都東久留米市新川町1丁目3","lat":35.76013078,"lon":139.53539661},{"name":"東久留米駅西口第２自転車駐車場","province":"東京都","city":"東久留米市","address":"東京都東久留米市新川町1丁目3","lat":35.76013078,"lon":139.53539661},{"name":"東久留米駅西口第３自転車駐車場","province":"東京都","city":"東久留米市","address":"東京都東久留米市本町1丁目14","lat":35.75794212,"lon":139.53427455},{"name":"東久留米駅東口自転車駐車場","province":"東京都","city":"東久留米市","address":"東京都東久留米市新川町1丁目3","lat":35.76013078,"lon":139.53539661},{"name":"東久留米駅北口自転車駐車場","province":"東京都","city":"東久留米市","address":"東京都東久留米市東本町1-6","lat":35.76136949,"lon":139.53344116},{"name":"サイクルスペース２４東久留米駐輪場","province":"東京都","city":"東久留米市","address":"東京都東久留米市新川町1丁目9","lat":35.76161952,"lon":139.53686034},{"name":"市立西第１０原付自転車駐車場","province":"東京都","city":"東久留米市","address":"東京都東久留米市本町1丁目4","lat":35.75914751,"lon":139.53259409},{"name":"リバーウエストビルズ駐輪場","province":"東京都","city":"東久留米市","address":"東京都東久留米市本町1丁目5","lat":35.75972803,"lon":139.53402173},{"name":"東久留米駅前第４駐輪場","province":"東京都","city":"東久留米市","address":"東京都東久留米市東本町5","lat":35.76224161,"lon":139.53360501},{"name":"市立臨時西第２自転車駐車場","province":"東京都","city":"東久留米市","address":"東京都東久留米市本町1丁目8-1","lat":35.7578366,"lon":139.53545501},{"name":"東久留米駅西口第１自転車駐車場","province":"東京都","city":"東久留米市","address":"東京都東久留米市本町1丁目3","lat":35.76054178,"lon":139.53217741},{"name":"東久留米駅西口第２自転車駐車場","province":"東京都","city":"東久留米市","address":"東京都東久留米市本町1丁目5","lat":35.75972803,"lon":139.53402173},{"name":"＊?東久留米市立生涯学習センター","province":"東京都","city":"東久留米市","address":"東久留米市中央町2-6-23","lat":35.755517,"lon":139.522346},{"name":"東久留米市わくわく健康プラザ（健康課）","province":"東京都","city":"東久留米市","address":"東京都東久留米市滝山4丁目3-14","lat":35.74228769,"lon":139.5044833},{"name":"東久留米市本庁舎","province":"東京都","city":"東久留米市","address":"東京都東久留米市本町3丁目3-1","lat":35.75799202,"lon":139.52967216},{"name":"東久留米市立久留米中学校","province":"東京都","city":"東久留米市","address":"東京都東久留米市幸町5丁目9-11","lat":35.761708,"lon":139.51692595},{"name":"東久留米市立大門中学校","province":"東京都","city":"東久留米市","address":"東京都東久留米市大門町2丁目13-8","lat":35.7628556,"lon":139.54363203},{"name":"東久留米消防署","province":"東京都","city":"東久留米市","address":"東久留米市幸町3-4-34","lat":35.75756,"lon":139.5217},{"name":"柳泉園クリーンポート","province":"東京都","city":"東久留米市","address":"東久留米市下里4-3-10","lat":35.75476,"lon":139.4945},{"name":"※東久留米市本庁舎","province":"東京都","city":"東久留米市","address":"東京都東久留米市本町3丁目3-1","lat":35.75799202,"lon":139.52967216},{"name":"市立東第２自転車等駐車場","province":"東京都","city":"東久留米市","address":"東京都東久留米市東本町14","lat":35.7627277,"lon":139.53515209},{"name":"日生サイクルプラザ東久留米第２","province":"東京都","city":"東久留米市","address":"東京都東久留米市新川町1丁目4","lat":35.7612862,"lon":139.5350827},{"name":"日生サイクルプラザ東久留米第１","province":"東京都","city":"東久留米市","address":"東京都東久留米市新川町1丁目3","lat":35.76013078,"lon":139.53539661},{"name":"市立西第９自転車駐車場","province":"東京都","city":"東久留米市","address":"東京都東久留米市本町1丁目5","lat":35.75972803,"lon":139.53402173},{"name":"市立西第１０一時利用自転車駐車場","province":"東京都","city":"東久留米市","address":"東京都東久留米市本町1丁目4","lat":35.75914751,"lon":139.53259409},{"name":"東久留米駅前駐輪場","province":"東京都","city":"東久留米市","address":"東京都東久留米市東本町1-15","lat":35.76086678,"lon":139.53414668},{"name":"東久留米駅前第２駐輪場","province":"東京都","city":"東久留米市","address":"東京都東久留米市東本町1-15","lat":35.76086678,"lon":139.53414668},{"name":"東久留米駅前第３駐輪場","province":"東京都","city":"東久留米市","address":"東京都東久留米市本町1丁目3-28","lat":35.75994184,"lon":139.53205522},{"name":"東久留米駅西口第１自転車駐車場","province":"東京都","city":"東久留米市","address":"東京都東久留米市新川町1丁目3","lat":35.76013078,"lon":139.53539661},{"name":"東久留米駅西口第２自転車駐車場","province":"東京都","city":"東久留米市","address":"東京都東久留米市新川町1丁目3","lat":35.76013078,"lon":139.53539661},{"name":"東久留米駅西口第３自転車駐車場","province":"東京都","city":"東久留米市","address":"東京都東久留米市本町1丁目14","lat":35.75794212,"lon":139.53427455},{"name":"東久留米駅東口自転車駐車場","province":"東京都","city":"東久留米市","address":"東京都東久留米市新川町1丁目3","lat":35.76013078,"lon":139.53539661},{"name":"東久留米駅北口自転車駐車場","province":"東京都","city":"東久留米市","address":"東京都東久留米市東本町1-6","lat":35.76136949,"lon":139.53344116},{"name":"サイクルスペース２４東久留米駐輪場","province":"東京都","city":"東久留米市","address":"東京都東久留米市新川町1丁目9","lat":35.76161952,"lon":139.53686034},{"name":"市立西第１０原付自転車駐車場","province":"東京都","city":"東久留米市","address":"東京都東久留米市本町1丁目4","lat":35.75914751,"lon":139.53259409},{"name":"リバーウエストビルズ駐輪場","province":"東京都","city":"東久留米市","address":"東京都東久留米市本町1丁目5","lat":35.75972803,"lon":139.53402173},{"name":"東久留米駅前第４駐輪場","province":"東京都","city":"東久留米市","address":"東京都東久留米市東本町5","lat":35.76224161,"lon":139.53360501},{"name":"市立臨時西第２自転車駐車場","province":"東京都","city":"東久留米市","address":"東京都東久留米市本町1丁目8-1","lat":35.7578366,"lon":139.53545501},{"name":"東久留米駅西口第１自転車駐車場","province":"東京都","city":"東久留米市","address":"東京都東久留米市本町1丁目3","lat":35.76054178,"lon":139.53217741},{"name":"東久留米駅西口第２自転車駐車場","province":"東京都","city":"東久留米市","address":"東京都東久留米市本町1丁目5","lat":35.75972803,"lon":139.53402173},{"name":"＊?東久留米市立生涯学習センター","province":"東京都","city":"東久留米市","address":"東久留米市中央町2-6-23","lat":35.755517,"lon":139.522346},{"name":"東久留米市わくわく健康プラザ（健康課）","province":"東京都","city":"東久留米市","address":"東京都東久留米市滝山4丁目3-14","lat":35.74228769,"lon":139.5044833},{"name":"東久留米市本庁舎","province":"東京都","city":"東久留米市","address":"東京都東久留米市本町3丁目3-1","lat":35.75799202,"lon":139.52967216},{"name":"東久留米市立久留米中学校","province":"東京都","city":"東久留米市","address":"東京都東久留米市幸町5丁目9-11","lat":35.761708,"lon":139.51692595},{"name":"東久留米市立大門中学校","province":"東京都","city":"東久留米市","address":"東京都東久留米市大門町2丁目13-8","lat":35.7628556,"lon":139.54363203},{"name":"東久留米消防署","province":"東京都","city":"東久留米市","address":"東久留米市幸町3-4-34","lat":35.75756,"lon":139.5217},{"name":"柳泉園クリーンポート","province":"東京都","city":"東久留米市","address":"東久留米市下里4-3-10","lat":35.75476,"lon":139.4945},{"name":"※東久留米市本庁舎","province":"東京都","city":"東久留米市","address":"東京都東久留米市本町3丁目3-1","lat":35.75799202,"lon":139.52967216},{"name":"市立東第２自転車等駐車場","province":"東京都","city":"東久留米市","address":"東京都東久留米市東本町14","lat":35.7627277,"lon":139.53515209},{"name":"日生サイクルプラザ東久留米第２","province":"東京都","city":"東久留米市","address":"東京都東久留米市新川町1丁目4","lat":35.7612862,"lon":139.5350827},{"name":"日生サイクルプラザ東久留米第１","province":"東京都","city":"東久留米市","address":"東京都東久留米市新川町1丁目3","lat":35.76013078,"lon":139.53539661},{"name":"市立西第９自転車駐車場","province":"東京都","city":"東久留米市","address":"東京都東久留米市本町1丁目5","lat":35.75972803,"lon":139.53402173},{"name":"市立西第１０一時利用自転車駐車場","province":"東京都","city":"東久留米市","address":"東京都東久留米市本町1丁目4","lat":35.75914751,"lon":139.53259409},{"name":"東久留米駅前駐輪場","province":"東京都","city":"東久留米市","address":"東京都東久留米市東本町1-15","lat":35.76086678,"lon":139.53414668},{"name":"東久留米駅前第２駐輪場","province":"東京都","city":"東久留米市","address":"東京都東久留米市東本町1-15","lat":35.76086678,"lon":139.53414668},{"name":"東久留米駅前第３駐輪場","province":"東京都","city":"東久留米市","address":"東京都東久留米市本町1丁目3-28","lat":35.75994184,"lon":139.53205522},{"name":"東久留米駅西口第１自転車駐車場","province":"東京都","city":"東久留米市","address":"東京都東久留米市新川町1丁目3","lat":35.76013078,"lon":139.53539661},{"name":"東久留米駅西口第２自転車駐車場","province":"東京都","city":"東久留米市","address":"東京都東久留米市新川町1丁目3","lat":35.76013078,"lon":139.53539661},{"name":"東久留米駅西口第３自転車駐車場","province":"東京都","city":"東久留米市","address":"東京都東久留米市本町1丁目14","lat":35.75794212,"lon":139.53427455},{"name":"東久留米駅東口自転車駐車場","province":"東京都","city":"東久留米市","address":"東京都東久留米市新川町1丁目3","lat":35.76013078,"lon":139.53539661},{"name":"東久留米駅北口自転車駐車場","province":"東京都","city":"東久留米市","address":"東京都東久留米市東本町1-6","lat":35.76136949,"lon":139.53344116},{"name":"サイクルスペース２４東久留米駐輪場","province":"東京都","city":"東久留米市","address":"東京都東久留米市新川町1丁目9","lat":35.76161952,"lon":139.53686034},{"name":"市立西第１０原付自転車駐車場","province":"東京都","city":"東久留米市","address":"東京都東久留米市本町1丁目4","lat":35.75914751,"lon":139.53259409},{"name":"リバーウエストビルズ駐輪場","province":"東京都","city":"東久留米市","address":"東京都東久留米市本町1丁目5","lat":35.75972803,"lon":139.53402173},{"name":"東久留米駅前第４駐輪場","province":"東京都","city":"東久留米市","address":"東京都東久留米市東本町5","lat":35.76224161,"lon":139.53360501},{"name":"市立臨時西第２自転車駐車場","province":"東京都","city":"東久留米市","address":"東京都東久留米市本町1丁目8-1","lat":35.7578366,"lon":139.53545501},{"name":"東久留米駅西口第１自転車駐車場","province":"東京都","city":"東久留米市","address":"東京都東久留米市本町1丁目3","lat":35.76054178,"lon":139.53217741},{"name":"東久留米駅西口第２自転車駐車場","province":"東京都","city":"東久留米市","address":"東京都東久留米市本町1丁目5","lat":35.75972803,"lon":139.53402173},{"name":"＊?東久留米市立生涯学習センター","province":"東京都","city":"東久留米市","address":"東久留米市中央町2-6-23","lat":35.755517,"lon":139.522346},{"name":"東久留米市わくわく健康プラザ（健康課）","province":"東京都","city":"東久留米市","address":"東京都東久留米市滝山4丁目3-14","lat":35.74228769,"lon":139.5044833},{"name":"東久留米市本庁舎","province":"東京都","city":"東久留米市","address":"東京都東久留米市本町3丁目3-1","lat":35.75799202,"lon":139.52967216},{"name":"東久留米市立久留米中学校","province":"東京都","city":"東久留米市","address":"東京都東久留米市幸町5丁目9-11","lat":35.761708,"lon":139.51692595},{"name":"東久留米市立大門中学校","province":"東京都","city":"東久留米市","address":"東京都東久留米市大門町2丁目13-8","lat":35.7628556,"lon":139.54363203},{"name":"東久留米消防署","province":"東京都","city":"東久留米市","address":"東久留米市幸町3-4-34","lat":35.75756,"lon":139.5217},{"name":"柳泉園クリーンポート","province":"東京都","city":"東久留米市","address":"東久留米市下里4-3-10","lat":35.75476,"lon":139.4945},{"name":"※東久留米市本庁舎","province":"東京都","city":"東久留米市","address":"東京都東久留米市本町3丁目3-1","lat":35.75799202,"lon":139.52967216},{"name":"市立東第２自転車等駐車場","province":"東京都","city":"東久留米市","address":"東京都東久留米市東本町14","lat":35.7627277,"lon":139.53515209},{"name":"日生サイクルプラザ東久留米第２","province":"東京都","city":"東久留米市","address":"東京都東久留米市新川町1丁目4","lat":35.7612862,"lon":139.5350827},{"name":"日生サイクルプラザ東久留米第１","province":"東京都","city":"東久留米市","address":"東京都東久留米市新川町1丁目3","lat":35.76013078,"lon":139.53539661},{"name":"市立西第９自転車駐車場","province":"東京都","city":"東久留米市","address":"東京都東久留米市本町1丁目5","lat":35.75972803,"lon":139.53402173},{"name":"市立西第１０一時利用自転車駐車場","province":"東京都","city":"東久留米市","address":"東京都東久留米市本町1丁目4","lat":35.75914751,"lon":139.53259409},{"name":"東久留米駅前駐輪場","province":"東京都","city":"東久留米市","address":"東京都東久留米市東本町1-15","lat":35.76086678,"lon":139.53414668},{"name":"東久留米駅前第２駐輪場","province":"東京都","city":"東久留米市","address":"東京都東久留米市東本町1-15","lat":35.76086678,"lon":139.53414668},{"name":"東久留米駅前第３駐輪場","province":"東京都","city":"東久留米市","address":"東京都東久留米市本町1丁目3-28","lat":35.75994184,"lon":139.53205522},{"name":"東久留米駅西口第１自転車駐車場","province":"東京都","city":"東久留米市","address":"東京都東久留米市新川町1丁目3","lat":35.76013078,"lon":139.53539661},{"name":"東久留米駅西口第２自転車駐車場","province":"東京都","city":"東久留米市","address":"東京都東久留米市新川町1丁目3","lat":35.76013078,"lon":139.53539661},{"name":"東久留米駅西口第３自転車駐車場","province":"東京都","city":"東久留米市","address":"東京都東久留米市本町1丁目14","lat":35.75794212,"lon":139.53427455},{"name":"東久留米駅東口自転車駐車場","province":"東京都","city":"東久留米市","address":"東京都東久留米市新川町1丁目3","lat":35.76013078,"lon":139.53539661},{"name":"東久留米駅北口自転車駐車場","province":"東京都","city":"東久留米市","address":"東京都東久留米市東本町1-6","lat":35.76136949,"lon":139.53344116},{"name":"サイクルスペース２４東久留米駐輪場","province":"東京都","city":"東久留米市","address":"東京都東久留米市新川町1丁目9","lat":35.76161952,"lon":139.53686034},{"name":"市立西第１０原付自転車駐車場","province":"東京都","city":"東久留米市","address":"東京都東久留米市本町1丁目4","lat":35.75914751,"lon":139.53259409},{"name":"リバーウエストビルズ駐輪場","province":"東京都","city":"東久留米市","address":"東京都東久留米市本町1丁目5","lat":35.75972803,"lon":139.53402173},{"name":"東久留米駅前第４駐輪場","province":"東京都","city":"東久留米市","address":"東京都東久留米市東本町5","lat":35.76224161,"lon":139.53360501},{"name":"市立臨時西第２自転車駐車場","province":"東京都","city":"東久留米市","address":"東京都東久留米市本町1丁目8-1","lat":35.7578366,"lon":139.53545501},{"name":"東久留米駅西口第１自転車駐車場","province":"東京都","city":"東久留米市","address":"東京都東久留米市本町1丁目3","lat":35.76054178,"lon":139.53217741},{"name":"東久留米駅西口第２自転車駐車場","province":"東京都","city":"東久留米市","address":"東京都東久留米市本町1丁目5","lat":35.75972803,"lon":139.53402173},{"name":"＊?東久留米市立生涯学習センター","province":"東京都","city":"東久留米市","address":"東久留米市中央町2-6-23","lat":35.755517,"lon":139.522346},{"name":"東久留米市わくわく健康プラザ（健康課）","province":"東京都","city":"東久留米市","address":"東京都東久留米市滝山4丁目3-14","lat":35.74228769,"lon":139.5044833},{"name":"東久留米市本庁舎","province":"東京都","city":"東久留米市","address":"東京都東久留米市本町3丁目3-1","lat":35.75799202,"lon":139.52967216},{"name":"東久留米市立久留米中学校","province":"東京都","city":"東久留米市","address":"東京都東久留米市幸町5丁目9-11","lat":35.761708,"lon":139.51692595},{"name":"東久留米市立大門中学校","province":"東京都","city":"東久留米市","address":"東京都東久留米市大門町2丁目13-8","lat":35.7628556,"lon":139.54363203},{"name":"東久留米消防署","province":"東京都","city":"東久留米市","address":"東久留米市幸町3-4-34","lat":35.75756,"lon":139.5217},{"name":"柳泉園クリーンポート","province":"東京都","city":"東久留米市","address":"東久留米市下里4-3-10","lat":35.75476,"lon":139.4945},{"name":"※東久留米市本庁舎","province":"東京都","city":"東久留米市","address":"東京都東久留米市本町3丁目3-1","lat":35.75799202,"lon":139.52967216},{"name":"市立東第２自転車等駐車場","province":"東京都","city":"東久留米市","address":"東京都東久留米市東本町14","lat":35.7627277,"lon":139.53515209},{"name":"日生サイクルプラザ東久留米第２","province":"東京都","city":"東久留米市","address":"東京都東久留米市新川町1丁目4","lat":35.7612862,"lon":139.5350827},{"name":"日生サイクルプラザ東久留米第１","province":"東京都","city":"東久留米市","address":"東京都東久留米市新川町1丁目3","lat":35.76013078,"lon":139.53539661},{"name":"市立西第９自転車駐車場","province":"東京都","city":"東久留米市","address":"東京都東久留米市本町1丁目5","lat":35.75972803,"lon":139.53402173},{"name":"市立西第１０一時利用自転車駐車場","province":"東京都","city":"東久留米市","address":"東京都東久留米市本町1丁目4","lat":35.75914751,"lon":139.53259409},{"name":"東久留米駅前駐輪場","province":"東京都","city":"東久留米市","address":"東京都東久留米市東本町1-15","lat":35.76086678,"lon":139.53414668},{"name":"東久留米駅前第２駐輪場","province":"東京都","city":"東久留米市","address":"東京都東久留米市東本町1-15","lat":35.76086678,"lon":139.53414668},{"name":"東久留米駅前第３駐輪場","province":"東京都","city":"東久留米市","address":"東京都東久留米市本町1丁目3-28","lat":35.75994184,"lon":139.53205522},{"name":"東久留米駅西口第１自転車駐車場","province":"東京都","city":"東久留米市","address":"東京都東久留米市新川町1丁目3","lat":35.76013078,"lon":139.53539661},{"name":"東久留米駅西口第２自転車駐車場","province":"東京都","city":"東久留米市","address":"東京都東久留米市新川町1丁目3","lat":35.76013078,"lon":139.53539661},{"name":"東久留米駅西口第３自転車駐車場","province":"東京都","city":"東久留米市","address":"東京都東久留米市本町1丁目14","lat":35.75794212,"lon":139.53427455},{"name":"東久留米駅東口自転車駐車場","province":"東京都","city":"東久留米市","address":"東京都東久留米市新川町1丁目3","lat":35.76013078,"lon":139.53539661},{"name":"東久留米駅北口自転車駐車場","province":"東京都","city":"東久留米市","address":"東京都東久留米市東本町1-6","lat":35.76136949,"lon":139.53344116},{"name":"サイクルスペース２４東久留米駐輪場","province":"東京都","city":"東久留米市","address":"東京都東久留米市新川町1丁目9","lat":35.76161952,"lon":139.53686034},{"name":"市立西第１０原付自転車駐車場","province":"東京都","city":"東久留米市","address":"東京都東久留米市本町1丁目4","lat":35.75914751,"lon":139.53259409},{"name":"リバーウエストビルズ駐輪場","province":"東京都","city":"東久留米市","address":"東京都東久留米市本町1丁目5","lat":35.75972803,"lon":139.53402173},{"name":"東久留米駅前第４駐輪場","province":"東京都","city":"東久留米市","address":"東京都東久留米市東本町5","lat":35.76224161,"lon":139.53360501},{"name":"市立臨時西第２自転車駐車場","province":"東京都","city":"東久留米市","address":"東京都東久留米市本町1丁目8-1","lat":35.7578366,"lon":139.53545501},{"name":"東久留米駅西口第１自転車駐車場","province":"東京都","city":"東久留米市","address":"東京都東久留米市本町1丁目3","lat":35.76054178,"lon":139.53217741},{"name":"東久留米駅西口第２自転車駐車場","province":"東京都","city":"東久留米市","address":"東京都東久留米市本町1丁目5","lat":35.75972803,"lon":139.53402173},{"name":"＊?東久留米市立生涯学習センター","province":"東京都","city":"東久留米市","address":"東久留米市中央町2-6-23","lat":35.755517,"lon":139.522346},{"name":"東久留米市わくわく健康プラザ（健康課）","province":"東京都","city":"東久留米市","address":"東京都東久留米市滝山4丁目3-14","lat":35.74228769,"lon":139.5044833},{"name":"東久留米市本庁舎","province":"東京都","city":"東久留米市","address":"東京都東久留米市本町3丁目3-1","lat":35.75799202,"lon":139.52967216},{"name":"東久留米市立久留米中学校","province":"東京都","city":"東久留米市","address":"東京都東久留米市幸町5丁目9-11","lat":35.761708,"lon":139.51692595},{"name":"東久留米市立大門中学校","province":"東京都","city":"東久留米市","address":"東京都東久留米市大門町2丁目13-8","lat":35.7628556,"lon":139.54363203},{"name":"東久留米消防署","province":"東京都","city":"東久留米市","address":"東久留米市幸町3-4-34","lat":35.75756,"lon":139.5217},{"name":"柳泉園クリーンポート","province":"東京都","city":"東久留米市","address":"東久留米市下里4-3-10","lat":35.75476,"lon":139.4945},{"name":"※東久留米市本庁舎","province":"東京都","city":"東久留米市","address":"東京都東久留米市本町3丁目3-1","lat":35.75799202,"lon":139.52967216},{"name":"市立東第２自転車等駐車場","province":"東京都","city":"東久留米市","address":"東京都東久留米市東本町14","lat":35.7627277,"lon":139.53515209},{"name":"日生サイクルプラザ東久留米第２","province":"東京都","city":"東久留米市","address":"東京都東久留米市新川町1丁目4","lat":35.7612862,"lon":139.5350827},{"name":"日生サイクルプラザ東久留米第１","province":"東京都","city":"東久留米市","address":"東京都東久留米市新川町1丁目3","lat":35.76013078,"lon":139.53539661},{"name":"市立西第９自転車駐車場","province":"東京都","city":"東久留米市","address":"東京都東久留米市本町1丁目5","lat":35.75972803,"lon":139.53402173},{"name":"市立西第１０一時利用自転車駐車場","province":"東京都","city":"東久留米市","address":"東京都東久留米市本町1丁目4","lat":35.75914751,"lon":139.53259409},{"name":"東久留米駅前駐輪場","province":"東京都","city":"東久留米市","address":"東京都東久留米市東本町1-15","lat":35.76086678,"lon":139.53414668},{"name":"東久留米駅前第２駐輪場","province":"東京都","city":"東久留米市","address":"東京都東久留米市東本町1-15","lat":35.76086678,"lon":139.53414668},{"name":"東久留米駅前第３駐輪場","province":"東京都","city":"東久留米市","address":"東京都東久留米市本町1丁目3-28","lat":35.75994184,"lon":139.53205522},{"name":"東久留米駅西口第１自転車駐車場","province":"東京都","city":"東久留米市","address":"東京都東久留米市新川町1丁目3","lat":35.76013078,"lon":139.53539661},{"name":"東久留米駅西口第２自転車駐車場","province":"東京都","city":"東久留米市","address":"東京都東久留米市新川町1丁目3","lat":35.76013078,"lon":139.53539661},{"name":"東久留米駅西口第３自転車駐車場","province":"東京都","city":"東久留米市","address":"東京都東久留米市本町1丁目14","lat":35.75794212,"lon":139.53427455},{"name":"東久留米駅東口自転車駐車場","province":"東京都","city":"東久留米市","address":"東京都東久留米市新川町1丁目3","lat":35.76013078,"lon":139.53539661},{"name":"東久留米駅北口自転車駐車場","province":"東京都","city":"東久留米市","address":"東京都東久留米市東本町1-6","lat":35.76136949,"lon":139.53344116},{"name":"サイクルスペース２４東久留米駐輪場","province":"東京都","city":"東久留米市","address":"東京都東久留米市新川町1丁目9","lat":35.76161952,"lon":139.53686034},{"name":"市立西第１０原付自転車駐車場","province":"東京都","city":"東久留米市","address":"東京都東久留米市本町1丁目4","lat":35.75914751,"lon":139.53259409},{"name":"リバーウエストビルズ駐輪場","province":"東京都","city":"東久留米市","address":"東京都東久留米市本町1丁目5","lat":35.75972803,"lon":139.53402173},{"name":"東久留米駅前第４駐輪場","province":"東京都","city":"東久留米市","address":"東京都東久留米市東本町5","lat":35.76224161,"lon":139.53360501},{"name":"市立臨時西第２自転車駐車場","province":"東京都","city":"東久留米市","address":"東京都東久留米市本町1丁目8-1","lat":35.7578366,"lon":139.53545501},{"name":"東久留米駅西口第１自転車駐車場","province":"東京都","city":"東久留米市","address":"東京都東久留米市本町1丁目3","lat":35.76054178,"lon":139.53217741},{"name":"東久留米駅西口第２自転車駐車場","province":"東京都","city":"東久留米市","address":"東京都東久留米市本町1丁目5","lat":35.75972803,"lon":139.53402173},{"name":"＊?東久留米市立生涯学習センター","province":"東京都","city":"東久留米市","address":"東久留米市中央町2-6-23","lat":35.755517,"lon":139.522346},{"name":"東久留米市わくわく健康プラザ（健康課）","province":"東京都","city":"東久留米市","address":"東京都東久留米市滝山4丁目3-14","lat":35.74228769,"lon":139.5044833},{"name":"東久留米市本庁舎","province":"東京都","city":"東久留米市","address":"東京都東久留米市本町3丁目3-1","lat":35.75799202,"lon":139.52967216},{"name":"東久留米市立久留米中学校","province":"東京都","city":"東久留米市","address":"東京都東久留米市幸町5丁目9-11","lat":35.761708,"lon":139.51692595},{"name":"東久留米市立大門中学校","province":"東京都","city":"東久留米市","address":"東京都東久留米市大門町2丁目13-8","lat":35.7628556,"lon":139.54363203},{"name":"東久留米消防署","province":"東京都","city":"東久留米市","address":"東久留米市幸町3-4-34","lat":35.75756,"lon":139.5217},{"name":"柳泉園クリーンポート","province":"東京都","city":"東久留米市","address":"東久留米市下里4-3-10","lat":35.75476,"lon":139.4945},{"name":"※東久留米市本庁舎","province":"東京都","city":"東久留米市","address":"東京都東久留米市本町3丁目3-1","lat":35.75799202,"lon":139.52967216},{"name":"市立東第２自転車等駐車場","province":"東京都","city":"東久留米市","address":"東京都東久留米市東本町14","lat":35.7627277,"lon":139.53515209},{"name":"日生サイクルプラザ東久留米第２","province":"東京都","city":"東久留米市","address":"東京都東久留米市新川町1丁目4","lat":35.7612862,"lon":139.5350827},{"name":"日生サイクルプラザ東久留米第１","province":"東京都","city":"東久留米市","address":"東京都東久留米市新川町1丁目3","lat":35.76013078,"lon":139.53539661},{"name":"市立西第９自転車駐車場","province":"東京都","city":"東久留米市","address":"東京都東久留米市本町1丁目5","lat":35.75972803,"lon":139.53402173},{"name":"市立西第１０一時利用自転車駐車場","province":"東京都","city":"東久留米市","address":"東京都東久留米市本町1丁目4","lat":35.75914751,"lon":139.53259409},{"name":"東久留米駅前駐輪場","province":"東京都","city":"東久留米市","address":"東京都東久留米市東本町1-15","lat":35.76086678,"lon":139.53414668},{"name":"東久留米駅前第２駐輪場","province":"東京都","city":"東久留米市","address":"東京都東久留米市東本町1-15","lat":35.76086678,"lon":139.53414668},{"name":"東久留米駅前第３駐輪場","province":"東京都","city":"東久留米市","address":"東京都東久留米市本町1丁目3-28","lat":35.75994184,"lon":139.53205522},{"name":"東久留米駅西口第１自転車駐車場","province":"東京都","city":"東久留米市","address":"東京都東久留米市新川町1丁目3","lat":35.76013078,"lon":139.53539661},{"name":"東久留米駅西口第２自転車駐車場","province":"東京都","city":"東久留米市","address":"東京都東久留米市新川町1丁目3","lat":35.76013078,"lon":139.53539661},{"name":"東久留米駅西口第３自転車駐車場","province":"東京都","city":"東久留米市","address":"東京都東久留米市本町1丁目14","lat":35.75794212,"lon":139.53427455},{"name":"東久留米駅東口自転車駐車場","province":"東京都","city":"東久留米市","address":"東京都東久留米市新川町1丁目3","lat":35.76013078,"lon":139.53539661},{"name":"東久留米駅北口自転車駐車場","province":"東京都","city":"東久留米市","address":"東京都東久留米市東本町1-6","lat":35.76136949,"lon":139.53344116},{"name":"サイクルスペース２４東久留米駐輪場","province":"東京都","city":"東久留米市","address":"東京都東久留米市新川町1丁目9","lat":35.76161952,"lon":139.53686034},{"name":"市立西第１０原付自転車駐車場","province":"東京都","city":"東久留米市","address":"東京都東久留米市本町1丁目4","lat":35.75914751,"lon":139.53259409},{"name":"リバーウエストビルズ駐輪場","province":"東京都","city":"東久留米市","address":"東京都東久留米市本町1丁目5","lat":35.75972803,"lon":139.53402173},{"name":"東久留米駅前第４駐輪場","province":"東京都","city":"東久留米市","address":"東京都東久留米市東本町5","lat":35.76224161,"lon":139.53360501},{"name":"市立臨時西第２自転車駐車場","province":"東京都","city":"東久留米市","address":"東京都東久留米市本町1丁目8-1","lat":35.7578366,"lon":139.53545501},{"name":"東久留米駅西口第１自転車駐車場","province":"東京都","city":"東久留米市","address":"東京都東久留米市本町1丁目3","lat":35.76054178,"lon":139.53217741},{"name":"東久留米駅西口第２自転車駐車場","province":"東京都","city":"東久留米市","address":"東京都東久留米市本町1丁目5","lat":35.75972803,"lon":139.53402173},{"name":"＊?東久留米市立生涯学習センター","province":"東京都","city":"東久留米市","address":"東久留米市中央町2-6-23","lat":35.755517,"lon":139.522346},{"name":"東久留米市わくわく健康プラザ（健康課）","province":"東京都","city":"東久留米市","address":"東京都東久留米市滝山4丁目3-14","lat":35.74228769,"lon":139.5044833},{"name":"東久留米市本庁舎","province":"東京都","city":"東久留米市","address":"東京都東久留米市本町3丁目3-1","lat":35.75799202,"lon":139.52967216},{"name":"東久留米市立久留米中学校","province":"東京都","city":"東久留米市","address":"東京都東久留米市幸町5丁目9-11","lat":35.761708,"lon":139.51692595},{"name":"東久留米市立大門中学校","province":"東京都","city":"東久留米市","address":"東京都東久留米市大門町2丁目13-8","lat":35.7628556,"lon":139.54363203},{"name":"東久留米消防署","province":"東京都","city":"東久留米市","address":"東久留米市幸町3-4-34","lat":35.75756,"lon":139.5217},{"name":"柳泉園クリーンポート","province":"東京都","city":"東久留米市","address":"東久留米市下里4-3-10","lat":35.75476,"lon":139.4945},{"name":"※東久留米市本庁舎","province":"東京都","city":"東久留米市","address":"東京都東久留米市本町3丁目3-1","lat":35.75799202,"lon":139.52967216},{"name":"市立東第２自転車等駐車場","province":"東京都","city":"東久留米市","address":"東京都東久留米市東本町14","lat":35.7627277,"lon":139.53515209},{"name":"日生サイクルプラザ東久留米第２","province":"東京都","city":"東久留米市","address":"東京都東久留米市新川町1丁目4","lat":35.7612862,"lon":139.5350827},{"name":"日生サイクルプラザ東久留米第１","province":"東京都","city":"東久留米市","address":"東京都東久留米市新川町1丁目3","lat":35.76013078,"lon":139.53539661},{"name":"市立西第９自転車駐車場","province":"東京都","city":"東久留米市","address":"東京都東久留米市本町1丁目5","lat":35.75972803,"lon":139.53402173},{"name":"市立西第１０一時利用自転車駐車場","province":"東京都","city":"東久留米市","address":"東京都東久留米市本町1丁目4","lat":35.75914751,"lon":139.53259409},{"name":"東久留米駅前駐輪場","province":"東京都","city":"東久留米市","address":"東京都東久留米市東本町1-15","lat":35.76086678,"lon":139.53414668},{"name":"東久留米駅前第２駐輪場","province":"東京都","city":"東久留米市","address":"東京都東久留米市東本町1-15","lat":35.76086678,"lon":139.53414668},{"name":"東久留米駅前第３駐輪場","province":"東京都","city":"東久留米市","address":"東京都東久留米市本町1丁目3-28","lat":35.75994184,"lon":139.53205522},{"name":"東久留米駅西口第１自転車駐車場","province":"東京都","city":"東久留米市","address":"東京都東久留米市新川町1丁目3","lat":35.76013078,"lon":139.53539661},{"name":"東久留米駅西口第２自転車駐車場","province":"東京都","city":"東久留米市","address":"東京都東久留米市新川町1丁目3","lat":35.76013078,"lon":139.53539661},{"name":"東久留米駅西口第３自転車駐車場","province":"東京都","city":"東久留米市","address":"東京都東久留米市本町1丁目14","lat":35.75794212,"lon":139.53427455},{"name":"東久留米駅東口自転車駐車場","province":"東京都","city":"東久留米市","address":"東京都東久留米市新川町1丁目3","lat":35.76013078,"lon":139.53539661},{"name":"東久留米駅北口自転車駐車場","province":"東京都","city":"東久留米市","address":"東京都東久留米市東本町1-6","lat":35.76136949,"lon":139.53344116},{"name":"サイクルスペース２４東久留米駐輪場","province":"東京都","city":"東久留米市","address":"東京都東久留米市新川町1丁目9","lat":35.76161952,"lon":139.53686034},{"name":"市立西第１０原付自転車駐車場","province":"東京都","city":"東久留米市","address":"東京都東久留米市本町1丁目4","lat":35.75914751,"lon":139.53259409},{"name":"リバーウエストビルズ駐輪場","province":"東京都","city":"東久留米市","address":"東京都東久留米市本町1丁目5","lat":35.75972803,"lon":139.53402173},{"name":"東久留米駅前第４駐輪場","province":"東京都","city":"東久留米市","address":"東京都東久留米市東本町5","lat":35.76224161,"lon":139.53360501},{"name":"市立臨時西第２自転車駐車場","province":"東京都","city":"東久留米市","address":"東京都東久留米市本町1丁目8-1","lat":35.7578366,"lon":139.53545501},{"name":"東久留米駅西口第１自転車駐車場","province":"東京都","city":"東久留米市","address":"東京都東久留米市本町1丁目3","lat":35.76054178,"lon":139.53217741},{"name":"東久留米駅西口第２自転車駐車場","province":"東京都","city":"東久留米市","address":"東京都東久留米市本町1丁目5","lat":35.75972803,"lon":139.53402173},{"name":"＊?東久留米市立生涯学習センター","province":"東京都","city":"東久留米市","address":"東久留米市中央町2-6-23","lat":35.755517,"lon":139.522346},{"name":"東久留米市わくわく健康プラザ（健康課）","province":"東京都","city":"東久留米市","address":"東京都東久留米市滝山4丁目3-14","lat":35.74228769,"lon":139.5044833},{"name":"東久留米市本庁舎","province":"東京都","city":"東久留米市","address":"東京都東久留米市本町3丁目3-1","lat":35.75799202,"lon":139.52967216},{"name":"東久留米市立久留米中学校","province":"東京都","city":"東久留米市","address":"東京都東久留米市幸町5丁目9-11","lat":35.761708,"lon":139.51692595},{"name":"東久留米市立大門中学校","province":"東京都","city":"東久留米市","address":"東京都東久留米市大門町2丁目13-8","lat":35.7628556,"lon":139.54363203},{"name":"東久留米消防署","province":"東京都","city":"東久留米市","address":"東久留米市幸町3-4-34","lat":35.75756,"lon":139.5217},{"name":"柳泉園クリーンポート","province":"東京都","city":"東久留米市","address":"東久留米市下里4-3-10","lat":35.75476,"lon":139.4945},{"name":"※東久留米市本庁舎","province":"東京都","city":"東久留米市","address":"東京都東久留米市本町3丁目3-1","lat":35.75799202,"lon":139.52967216},{"name":"市立東第２自転車等駐車場","province":"東京都","city":"東久留米市","address":"東京都東久留米市東本町14","lat":35.7627277,"lon":139.53515209},{"name":"日生サイクルプラザ東久留米第２","province":"東京都","city":"東久留米市","address":"東京都東久留米市新川町1丁目4","lat":35.7612862,"lon":139.5350827},{"name":"日生サイクルプラザ東久留米第１","province":"東京都","city":"東久留米市","address":"東京都東久留米市新川町1丁目3","lat":35.76013078,"lon":139.53539661},{"name":"市立西第９自転車駐車場","province":"東京都","city":"東久留米市","address":"東京都東久留米市本町1丁目5","lat":35.75972803,"lon":139.53402173},{"name":"市立西第１０一時利用自転車駐車場","province":"東京都","city":"東久留米市","address":"東京都東久留米市本町1丁目4","lat":35.75914751,"lon":139.53259409},{"name":"東久留米駅前駐輪場","province":"東京都","city":"東久留米市","address":"東京都東久留米市東本町1-15","lat":35.76086678,"lon":139.53414668},{"name":"東久留米駅前第２駐輪場","province":"東京都","city":"東久留米市","address":"東京都東久留米市東本町1-15","lat":35.76086678,"lon":139.53414668},{"name":"東久留米駅前第３駐輪場","province":"東京都","city":"東久留米市","address":"東京都東久留米市本町1丁目3-28","lat":35.75994184,"lon":139.53205522},{"name":"東久留米駅西口第１自転車駐車場","province":"東京都","city":"東久留米市","address":"東京都東久留米市新川町1丁目3","lat":35.76013078,"lon":139.53539661},{"name":"東久留米駅西口第２自転車駐車場","province":"東京都","city":"東久留米市","address":"東京都東久留米市新川町1丁目3","lat":35.76013078,"lon":139.53539661},{"name":"東久留米駅西口第３自転車駐車場","province":"東京都","city":"東久留米市","address":"東京都東久留米市本町1丁目14","lat":35.75794212,"lon":139.53427455},{"name":"東久留米駅東口自転車駐車場","province":"東京都","city":"東久留米市","address":"東京都東久留米市新川町1丁目3","lat":35.76013078,"lon":139.53539661},{"name":"東久留米駅北口自転車駐車場","province":"東京都","city":"東久留米市","address":"東京都東久留米市東本町1-6","lat":35.76136949,"lon":139.53344116},{"name":"サイクルスペース２４東久留米駐輪場","province":"東京都","city":"東久留米市","address":"東京都東久留米市新川町1丁目9","lat":35.76161952,"lon":139.53686034},{"name":"市立西第１０原付自転車駐車場","province":"東京都","city":"東久留米市","address":"東京都東久留米市本町1丁目4","lat":35.75914751,"lon":139.53259409},{"name":"リバーウエストビルズ駐輪場","province":"東京都","city":"東久留米市","address":"東京都東久留米市本町1丁目5","lat":35.75972803,"lon":139.53402173},{"name":"東久留米駅前第４駐輪場","province":"東京都","city":"東久留米市","address":"東京都東久留米市東本町5","lat":35.76224161,"lon":139.53360501},{"name":"市立臨時西第２自転車駐車場","province":"東京都","city":"東久留米市","address":"東京都東久留米市本町1丁目8-1","lat":35.7578366,"lon":139.53545501},{"name":"東久留米駅西口第１自転車駐車場","province":"東京都","city":"東久留米市","address":"東京都東久留米市本町1丁目3","lat":35.76054178,"lon":139.53217741},{"name":"東久留米駅西口第２自転車駐車場","province":"東京都","city":"東久留米市","address":"東京都東久留米市本町1丁目5","lat":35.75972803,"lon":139.53402173},{"name":"＊?東久留米市立生涯学習センター","province":"東京都","city":"東久留米市","address":"東久留米市中央町2-6-23","lat":35.755517,"lon":139.522346},{"name":"東久留米市わくわく健康プラザ（健康課）","province":"東京都","city":"東久留米市","address":"東京都東久留米市滝山4丁目3-14","lat":35.74228769,"lon":139.5044833},{"name":"東久留米市本庁舎","province":"東京都","city":"東久留米市","address":"東京都東久留米市本町3丁目3-1","lat":35.75799202,"lon":139.52967216},{"name":"東久留米市立久留米中学校","province":"東京都","city":"東久留米市","address":"東京都東久留米市幸町5丁目9-11","lat":35.761708,"lon":139.51692595},{"name":"東久留米市立大門中学校","province":"東京都","city":"東久留米市","address":"東京都東久留米市大門町2丁目13-8","lat":35.7628556,"lon":139.54363203},{"name":"東久留米消防署","province":"東京都","city":"東久留米市","address":"東久留米市幸町3-4-34","lat":35.75756,"lon":139.5217},{"name":"柳泉園クリーンポート","province":"東京都","city":"東久留米市","address":"東久留米市下里4-3-10","lat":35.75476,"lon":139.4945},{"name":"※東久留米市本庁舎","province":"東京都","city":"東久留米市","address":"東京都東久留米市本町3丁目3-1","lat":35.75799202,"lon":139.52967216},{"name":"市立東第２自転車等駐車場","province":"東京都","city":"東久留米市","address":"東京都東久留米市東本町14","lat":35.7627277,"lon":139.53515209},{"name":"日生サイクルプラザ東久留米第２","province":"東京都","city":"東久留米市","address":"東京都東久留米市新川町1丁目4","lat":35.7612862,"lon":139.5350827},{"name":"日生サイクルプラザ東久留米第１","province":"東京都","city":"東久留米市","address":"東京都東久留米市新川町1丁目3","lat":35.76013078,"lon":139.53539661},{"name":"市立西第９自転車駐車場","province":"東京都","city":"東久留米市","address":"東京都東久留米市本町1丁目5","lat":35.75972803,"lon":139.53402173},{"name":"市立西第１０一時利用自転車駐車場","province":"東京都","city":"東久留米市","address":"東京都東久留米市本町1丁目4","lat":35.75914751,"lon":139.53259409},{"name":"東久留米駅前駐輪場","province":"東京都","city":"東久留米市","address":"東京都東久留米市東本町1-15","lat":35.76086678,"lon":139.53414668},{"name":"東久留米駅前第２駐輪場","province":"東京都","city":"東久留米市","address":"東京都東久留米市東本町1-15","lat":35.76086678,"lon":139.53414668},{"name":"東久留米駅前第３駐輪場","province":"東京都","city":"東久留米市","address":"東京都東久留米市本町1丁目3-28","lat":35.75994184,"lon":139.53205522},{"name":"東久留米駅西口第１自転車駐車場","province":"東京都","city":"東久留米市","address":"東京都東久留米市新川町1丁目3","lat":35.76013078,"lon":139.53539661},{"name":"東久留米駅西口第２自転車駐車場","province":"東京都","city":"東久留米市","address":"東京都東久留米市新川町1丁目3","lat":35.76013078,"lon":139.53539661},{"name":"東久留米駅西口第３自転車駐車場","province":"東京都","city":"東久留米市","address":"東京都東久留米市本町1丁目14","lat":35.75794212,"lon":139.53427455},{"name":"東久留米駅東口自転車駐車場","province":"東京都","city":"東久留米市","address":"東京都東久留米市新川町1丁目3","lat":35.76013078,"lon":139.53539661},{"name":"東久留米駅北口自転車駐車場","province":"東京都","city":"東久留米市","address":"東京都東久留米市東本町1-6","lat":35.76136949,"lon":139.53344116},{"name":"サイクルスペース２４東久留米駐輪場","province":"東京都","city":"東久留米市","address":"東京都東久留米市新川町1丁目9","lat":35.76161952,"lon":139.53686034},{"name":"市立西第１０原付自転車駐車場","province":"東京都","city":"東久留米市","address":"東京都東久留米市本町1丁目4","lat":35.75914751,"lon":139.53259409},{"name":"リバーウエストビルズ駐輪場","province":"東京都","city":"東久留米市","address":"東京都東久留米市本町1丁目5","lat":35.75972803,"lon":139.53402173},{"name":"東久留米駅前第４駐輪場","province":"東京都","city":"東久留米市","address":"東京都東久留米市東本町5","lat":35.76224161,"lon":139.53360501},{"name":"市立臨時西第２自転車駐車場","province":"東京都","city":"東久留米市","address":"東京都東久留米市本町1丁目8-1","lat":35.7578366,"lon":139.53545501},{"name":"東久留米駅西口第１自転車駐車場","province":"東京都","city":"東久留米市","address":"東京都東久留米市本町1丁目3","lat":35.76054178,"lon":139.53217741},{"name":"東久留米駅西口第２自転車駐車場","province":"東京都","city":"東久留米市","address":"東京都東久留米市本町1丁目5","lat":35.75972803,"lon":139.53402173},{"name":"＊?東久留米市立生涯学習センター","province":"東京都","city":"東久留米市","address":"東久留米市中央町2-6-23","lat":35.755517,"lon":139.522346},{"name":"東久留米市わくわく健康プラザ（健康課）","province":"東京都","city":"東久留米市","address":"東京都東久留米市滝山4丁目3-14","lat":35.74228769,"lon":139.5044833},{"name":"東久留米市本庁舎","province":"東京都","city":"東久留米市","address":"東京都東久留米市本町3丁目3-1","lat":35.75799202,"lon":139.52967216},{"name":"東久留米市立久留米中学校","province":"東京都","city":"東久留米市","address":"東京都東久留米市幸町5丁目9-11","lat":35.761708,"lon":139.51692595},{"name":"東久留米市立大門中学校","province":"東京都","city":"東久留米市","address":"東京都東久留米市大門町2丁目13-8","lat":35.7628556,"lon":139.54363203},{"name":"東久留米消防署","province":"東京都","city":"東久留米市","address":"東久留米市幸町3-4-34","lat":35.75756,"lon":139.5217},{"name":"柳泉園クリーンポート","province":"東京都","city":"東久留米市","address":"東久留米市下里4-3-10","lat":35.75476,"lon":139.4945},{"name":"※東久留米市本庁舎","province":"東京都","city":"東久留米市","address":"東京都東久留米市本町3丁目3-1","lat":35.75799202,"lon":139.52967216},{"name":"市立東第２自転車等駐車場","province":"東京都","city":"東久留米市","address":"東京都東久留米市東本町14","lat":35.7627277,"lon":139.53515209},{"name":"日生サイクルプラザ東久留米第２","province":"東京都","city":"東久留米市","address":"東京都東久留米市新川町1丁目4","lat":35.7612862,"lon":139.5350827},{"name":"日生サイクルプラザ東久留米第１","province":"東京都","city":"東久留米市","address":"東京都東久留米市新川町1丁目3","lat":35.76013078,"lon":139.53539661},{"name":"市立西第９自転車駐車場","province":"東京都","city":"東久留米市","address":"東京都東久留米市本町1丁目5","lat":35.75972803,"lon":139.53402173},{"name":"市立西第１０一時利用自転車駐車場","province":"東京都","city":"東久留米市","address":"東京都東久留米市本町1丁目4","lat":35.75914751,"lon":139.53259409},{"name":"東久留米駅前駐輪場","province":"東京都","city":"東久留米市","address":"東京都東久留米市東本町1-15","lat":35.76086678,"lon":139.53414668},{"name":"東久留米駅前第２駐輪場","province":"東京都","city":"東久留米市","address":"東京都東久留米市東本町1-15","lat":35.76086678,"lon":139.53414668},{"name":"東久留米駅前第３駐輪場","province":"東京都","city":"東久留米市","address":"東京都東久留米市本町1丁目3-28","lat":35.75994184,"lon":139.53205522},{"name":"東久留米駅西口第１自転車駐車場","province":"東京都","city":"東久留米市","address":"東京都東久留米市新川町1丁目3","lat":35.76013078,"lon":139.53539661},{"name":"東久留米駅西口第２自転車駐車場","province":"東京都","city":"東久留米市","address":"東京都東久留米市新川町1丁目3","lat":35.76013078,"lon":139.53539661},{"name":"東久留米駅西口第３自転車駐車場","province":"東京都","city":"東久留米市","address":"東京都東久留米市本町1丁目14","lat":35.75794212,"lon":139.53427455},{"name":"東久留米駅東口自転車駐車場","province":"東京都","city":"東久留米市","address":"東京都東久留米市新川町1丁目3","lat":35.76013078,"lon":139.53539661},{"name":"東久留米駅北口自転車駐車場","province":"東京都","city":"東久留米市","address":"東京都東久留米市東本町1-6","lat":35.76136949,"lon":139.53344116},{"name":"サイクルスペース２４東久留米駐輪場","province":"東京都","city":"東久留米市","address":"東京都東久留米市新川町1丁目9","lat":35.76161952,"lon":139.53686034},{"name":"市立西第１０原付自転車駐車場","province":"東京都","city":"東久留米市","address":"東京都東久留米市本町1丁目4","lat":35.75914751,"lon":139.53259409},{"name":"リバーウエストビルズ駐輪場","province":"東京都","city":"東久留米市","address":"東京都東久留米市本町1丁目5","lat":35.75972803,"lon":139.53402173},{"name":"東久留米駅前第４駐輪場","province":"東京都","city":"東久留米市","address":"東京都東久留米市東本町5","lat":35.76224161,"lon":139.53360501},{"name":"市立臨時西第２自転車駐車場","province":"東京都","city":"東久留米市","address":"東京都東久留米市本町1丁目8-1","lat":35.7578366,"lon":139.53545501},{"name":"東久留米駅西口第１自転車駐車場","province":"東京都","city":"東久留米市","address":"東京都東久留米市本町1丁目3","lat":35.76054178,"lon":139.53217741},{"name":"東久留米駅西口第２自転車駐車場","province":"東京都","city":"東久留米市","address":"東京都東久留米市本町1丁目5","lat":35.75972803,"lon":139.53402173},{"name":"＊?東久留米市立生涯学習センター","province":"東京都","city":"東久留米市","address":"東久留米市中央町2-6-23","lat":35.755517,"lon":139.522346},{"name":"東久留米市わくわく健康プラザ（健康課）","province":"東京都","city":"東久留米市","address":"東京都東久留米市滝山4丁目3-14","lat":35.74228769,"lon":139.5044833},{"name":"東久留米市本庁舎","province":"東京都","city":"東久留米市","address":"東京都東久留米市本町3丁目3-1","lat":35.75799202,"lon":139.52967216},{"name":"東久留米市立久留米中学校","province":"東京都","city":"東久留米市","address":"東京都東久留米市幸町5丁目9-11","lat":35.761708,"lon":139.51692595},{"name":"東久留米市立大門中学校","province":"東京都","city":"東久留米市","address":"東京都東久留米市大門町2丁目13-8","lat":35.7628556,"lon":139.54363203},{"name":"東久留米消防署","province":"東京都","city":"東久留米市","address":"東久留米市幸町3-4-34","lat":35.75756,"lon":139.5217},{"name":"柳泉園クリーンポート","province":"東京都","city":"東久留米市","address":"東久留米市下里4-3-10","lat":35.75476,"lon":139.4945},{"name":"※東久留米市本庁舎","province":"東京都","city":"東久留米市","address":"東京都東久留米市本町3丁目3-1","lat":35.75799202,"lon":139.52967216},{"name":"市立東第２自転車等駐車場","province":"東京都","city":"東久留米市","address":"東京都東久留米市東本町14","lat":35.7627277,"lon":139.53515209},{"name":"日生サイクルプラザ東久留米第２","province":"東京都","city":"東久留米市","address":"東京都東久留米市新川町1丁目4","lat":35.7612862,"lon":139.5350827},{"name":"日生サイクルプラザ東久留米第１","province":"東京都","city":"東久留米市","address":"東京都東久留米市新川町1丁目3","lat":35.76013078,"lon":139.53539661},{"name":"市立西第９自転車駐車場","province":"東京都","city":"東久留米市","address":"東京都東久留米市本町1丁目5","lat":35.75972803,"lon":139.53402173},{"name":"市立西第１０一時利用自転車駐車場","province":"東京都","city":"東久留米市","address":"東京都東久留米市本町1丁目4","lat":35.75914751,"lon":139.53259409},{"name":"東久留米駅前駐輪場","province":"東京都","city":"東久留米市","address":"東京都東久留米市東本町1-15","lat":35.76086678,"lon":139.53414668},{"name":"東久留米駅前第２駐輪場","province":"東京都","city":"東久留米市","address":"東京都東久留米市東本町1-15","lat":35.76086678,"lon":139.53414668},{"name":"東久留米駅前第３駐輪場","province":"東京都","city":"東久留米市","address":"東京都東久留米市本町1丁目3-28","lat":35.75994184,"lon":139.53205522},{"name":"東久留米駅西口第１自転車駐車場","province":"東京都","city":"東久留米市","address":"東京都東久留米市新川町1丁目3","lat":35.76013078,"lon":139.53539661},{"name":"東久留米駅西口第２自転車駐車場","province":"東京都","city":"東久留米市","address":"東京都東久留米市新川町1丁目3","lat":35.76013078,"lon":139.53539661},{"name":"東久留米駅西口第３自転車駐車場","province":"東京都","city":"東久留米市","address":"東京都東久留米市本町1丁目14","lat":35.75794212,"lon":139.53427455},{"name":"東久留米駅東口自転車駐車場","province":"東京都","city":"東久留米市","address":"東京都東久留米市新川町1丁目3","lat":35.76013078,"lon":139.53539661},{"name":"東久留米駅北口自転車駐車場","province":"東京都","city":"東久留米市","address":"東京都東久留米市東本町1-6","lat":35.76136949,"lon":139.53344116},{"name":"サイクルスペース２４東久留米駐輪場","province":"東京都","city":"東久留米市","address":"東京都東久留米市新川町1丁目9","lat":35.76161952,"lon":139.53686034},{"name":"市立西第１０原付自転車駐車場","province":"東京都","city":"東久留米市","address":"東京都東久留米市本町1丁目4","lat":35.75914751,"lon":139.53259409},{"name":"リバーウエストビルズ駐輪場","province":"東京都","city":"東久留米市","address":"東京都東久留米市本町1丁目5","lat":35.75972803,"lon":139.53402173},{"name":"東久留米駅前第４駐輪場","province":"東京都","city":"東久留米市","address":"東京都東久留米市東本町5","lat":35.76224161,"lon":139.53360501},{"name":"市立臨時西第２自転車駐車場","province":"東京都","city":"東久留米市","address":"東京都東久留米市本町1丁目8-1","lat":35.7578366,"lon":139.53545501},{"name":"東久留米駅西口第１自転車駐車場","province":"東京都","city":"東久留米市","address":"東京都東久留米市本町1丁目3","lat":35.76054178,"lon":139.53217741},{"name":"東久留米駅西口第２自転車駐車場","province":"東京都","city":"東久留米市","address":"東京都東久留米市本町1丁目5","lat":35.75972803,"lon":139.53402173},{"name":"＊?東久留米市立生涯学習センター","province":"東京都","city":"東久留米市","address":"東久留米市中央町2-6-23","lat":35.755517,"lon":139.522346},{"name":"東久留米市わくわく健康プラザ（健康課）","province":"東京都","city":"東久留米市","address":"東京都東久留米市滝山4丁目3-14","lat":35.74228769,"lon":139.5044833},{"name":"東久留米市本庁舎","province":"東京都","city":"東久留米市","address":"東京都東久留米市本町3丁目3-1","lat":35.75799202,"lon":139.52967216},{"name":"東久留米市立久留米中学校","province":"東京都","city":"東久留米市","address":"東京都東久留米市幸町5丁目9-11","lat":35.761708,"lon":139.51692595},{"name":"東久留米市立大門中学校","province":"東京都","city":"東久留米市","address":"東京都東久留米市大門町2丁目13-8","lat":35.7628556,"lon":139.54363203},{"name":"東久留米消防署","province":"東京都","city":"東久留米市","address":"東久留米市幸町3-4-34","lat":35.75756,"lon":139.5217},{"name":"柳泉園クリーンポート","province":"東京都","city":"東久留米市","address":"東久留米市下里4-3-10","lat":35.75476,"lon":139.4945},{"name":"※東久留米市本庁舎","province":"東京都","city":"東久留米市","address":"東京都東久留米市本町3丁目3-1","lat":35.75799202,"lon":139.52967216},{"name":"市立東第２自転車等駐車場","province":"東京都","city":"東久留米市","address":"東京都東久留米市東本町14","lat":35.7627277,"lon":139.53515209},{"name":"日生サイクルプラザ東久留米第２","province":"東京都","city":"東久留米市","address":"東京都東久留米市新川町1丁目4","lat":35.7612862,"lon":139.5350827},{"name":"日生サイクルプラザ東久留米第１","province":"東京都","city":"東久留米市","address":"東京都東久留米市新川町1丁目3","lat":35.76013078,"lon":139.53539661},{"name":"市立西第９自転車駐車場","province":"東京都","city":"東久留米市","address":"東京都東久留米市本町1丁目5","lat":35.75972803,"lon":139.53402173},{"name":"市立西第１０一時利用自転車駐車場","province":"東京都","city":"東久留米市","address":"東京都東久留米市本町1丁目4","lat":35.75914751,"lon":139.53259409},{"name":"東久留米駅前駐輪場","province":"東京都","city":"東久留米市","address":"東京都東久留米市東本町1-15","lat":35.76086678,"lon":139.53414668},{"name":"東久留米駅前第２駐輪場","province":"東京都","city":"東久留米市","address":"東京都東久留米市東本町1-15","lat":35.76086678,"lon":139.53414668},{"name":"東久留米駅前第３駐輪場","province":"東京都","city":"東久留米市","address":"東京都東久留米市本町1丁目3-28","lat":35.75994184,"lon":139.53205522},{"name":"東久留米駅西口第１自転車駐車場","province":"東京都","city":"東久留米市","address":"東京都東久留米市新川町1丁目3","lat":35.76013078,"lon":139.53539661},{"name":"東久留米駅西口第２自転車駐車場","province":"東京都","city":"東久留米市","address":"東京都東久留米市新川町1丁目3","lat":35.76013078,"lon":139.53539661},{"name":"東久留米駅西口第３自転車駐車場","province":"東京都","city":"東久留米市","address":"東京都東久留米市本町1丁目14","lat":35.75794212,"lon":139.53427455},{"name":"東久留米駅東口自転車駐車場","province":"東京都","city":"東久留米市","address":"東京都東久留米市新川町1丁目3","lat":35.76013078,"lon":139.53539661},{"name":"東久留米駅北口自転車駐車場","province":"東京都","city":"東久留米市","address":"東京都東久留米市東本町1-6","lat":35.76136949,"lon":139.53344116},{"name":"サイクルスペース２４東久留米駐輪場","province":"東京都","city":"東久留米市","address":"東京都東久留米市新川町1丁目9","lat":35.76161952,"lon":139.53686034},{"name":"市立西第１０原付自転車駐車場","province":"東京都","city":"東久留米市","address":"東京都東久留米市本町1丁目4","lat":35.75914751,"lon":139.53259409},{"name":"リバーウエストビルズ駐輪場","province":"東京都","city":"東久留米市","address":"東京都東久留米市本町1丁目5","lat":35.75972803,"lon":139.53402173},{"name":"東久留米駅前第４駐輪場","province":"東京都","city":"東久留米市","address":"東京都東久留米市東本町5","lat":35.76224161,"lon":139.53360501},{"name":"市立臨時西第２自転車駐車場","province":"東京都","city":"東久留米市","address":"東京都東久留米市本町1丁目8-1","lat":35.7578366,"lon":139.53545501},{"name":"東久留米駅西口第１自転車駐車場","province":"東京都","city":"東久留米市","address":"東京都東久留米市本町1丁目3","lat":35.76054178,"lon":139.53217741},{"name":"東久留米駅西口第２自転車駐車場","province":"東京都","city":"東久留米市","address":"東京都東久留米市本町1丁目5","lat":35.75972803,"lon":139.53402173},{"name":"＊?東久留米市立生涯学習センター","province":"東京都","city":"東久留米市","address":"東久留米市中央町2-6-23","lat":35.755517,"lon":139.522346},{"name":"東久留米市わくわく健康プラザ（健康課）","province":"東京都","city":"東久留米市","address":"東京都東久留米市滝山4丁目3-14","lat":35.74228769,"lon":139.5044833},{"name":"東久留米市本庁舎","province":"東京都","city":"東久留米市","address":"東京都東久留米市本町3丁目3-1","lat":35.75799202,"lon":139.52967216},{"name":"東久留米市立久留米中学校","province":"東京都","city":"東久留米市","address":"東京都東久留米市幸町5丁目9-11","lat":35.761708,"lon":139.51692595},{"name":"東久留米市立大門中学校","province":"東京都","city":"東久留米市","address":"東京都東久留米市大門町2丁目13-8","lat":35.7628556,"lon":139.54363203},{"name":"東久留米消防署","province":"東京都","city":"東久留米市","address":"東久留米市幸町3-4-34","lat":35.75756,"lon":139.5217},{"name":"柳泉園クリーンポート","province":"東京都","city":"東久留米市","address":"東久留米市下里4-3-10","lat":35.75476,"lon":139.4945},{"name":"※東久留米市本庁舎","province":"東京都","city":"東久留米市","address":"東京都東久留米市本町3丁目3-1","lat":35.75799202,"lon":139.52967216},{"name":"市立東第２自転車等駐車場","province":"東京都","city":"東久留米市","address":"東京都東久留米市東本町14","lat":35.7627277,"lon":139.53515209},{"name":"日生サイクルプラザ東久留米第２","province":"東京都","city":"東久留米市","address":"東京都東久留米市新川町1丁目4","lat":35.7612862,"lon":139.5350827},{"name":"日生サイクルプラザ東久留米第１","province":"東京都","city":"東久留米市","address":"東京都東久留米市新川町1丁目3","lat":35.76013078,"lon":139.53539661},{"name":"市立西第９自転車駐車場","province":"東京都","city":"東久留米市","address":"東京都東久留米市本町1丁目5","lat":35.75972803,"lon":139.53402173},{"name":"市立西第１０一時利用自転車駐車場","province":"東京都","city":"東久留米市","address":"東京都東久留米市本町1丁目4","lat":35.75914751,"lon":139.53259409},{"name":"東久留米駅前駐輪場","province":"東京都","city":"東久留米市","address":"東京都東久留米市東本町1-15","lat":35.76086678,"lon":139.53414668},{"name":"東久留米駅前第２駐輪場","province":"東京都","city":"東久留米市","address":"東京都東久留米市東本町1-15","lat":35.76086678,"lon":139.53414668},{"name":"東久留米駅前第３駐輪場","province":"東京都","city":"東久留米市","address":"東京都東久留米市本町1丁目3-28","lat":35.75994184,"lon":139.53205522},{"name":"東久留米駅西口第１自転車駐車場","province":"東京都","city":"東久留米市","address":"東京都東久留米市新川町1丁目3","lat":35.76013078,"lon":139.53539661},{"name":"東久留米駅西口第２自転車駐車場","province":"東京都","city":"東久留米市","address":"東京都東久留米市新川町1丁目3","lat":35.76013078,"lon":139.53539661},{"name":"東久留米駅西口第３自転車駐車場","province":"東京都","city":"東久留米市","address":"東京都東久留米市本町1丁目14","lat":35.75794212,"lon":139.53427455},{"name":"東久留米駅東口自転車駐車場","province":"東京都","city":"東久留米市","address":"東京都東久留米市新川町1丁目3","lat":35.76013078,"lon":139.53539661},{"name":"東久留米駅北口自転車駐車場","province":"東京都","city":"東久留米市","address":"東京都東久留米市東本町1-6","lat":35.76136949,"lon":139.53344116},{"name":"サイクルスペース２４東久留米駐輪場","province":"東京都","city":"東久留米市","address":"東京都東久留米市新川町1丁目9","lat":35.76161952,"lon":139.53686034},{"name":"市立西第１０原付自転車駐車場","province":"東京都","city":"東久留米市","address":"東京都東久留米市本町1丁目4","lat":35.75914751,"lon":139.53259409},{"name":"リバーウエストビルズ駐輪場","province":"東京都","city":"東久留米市","address":"東京都東久留米市本町1丁目5","lat":35.75972803,"lon":139.53402173},{"name":"東久留米駅前第４駐輪場","province":"東京都","city":"東久留米市","address":"東京都東久留米市東本町5","lat":35.76224161,"lon":139.53360501},{"name":"市立臨時西第２自転車駐車場","province":"東京都","city":"東久留米市","address":"東京都東久留米市本町1丁目8-1","lat":35.7578366,"lon":139.53545501},{"name":"東久留米駅西口第１自転車駐車場","province":"東京都","city":"東久留米市","address":"東京都東久留米市本町1丁目3","lat":35.76054178,"lon":139.53217741},{"name":"東久留米駅西口第２自転車駐車場","province":"東京都","city":"東久留米市","address":"東京都東久留米市本町1丁目5","lat":35.75972803,"lon":139.53402173},{"name":"＊?東久留米市立生涯学習センター","province":"東京都","city":"東久留米市","address":"東久留米市中央町2-6-23","lat":35.755517,"lon":139.522346},{"name":"東久留米市わくわく健康プラザ（健康課）","province":"東京都","city":"東久留米市","address":"東京都東久留米市滝山4丁目3-14","lat":35.74228769,"lon":139.5044833},{"name":"東久留米市本庁舎","province":"東京都","city":"東久留米市","address":"東京都東久留米市本町3丁目3-1","lat":35.75799202,"lon":139.52967216},{"name":"東久留米市立久留米中学校","province":"東京都","city":"東久留米市","address":"東京都東久留米市幸町5丁目9-11","lat":35.761708,"lon":139.51692595},{"name":"東久留米市立大門中学校","province":"東京都","city":"東久留米市","address":"東京都東久留米市大門町2丁目13-8","lat":35.7628556,"lon":139.54363203},{"name":"東久留米消防署","province":"東京都","city":"東久留米市","address":"東久留米市幸町3-4-34","lat":35.75756,"lon":139.5217},{"name":"柳泉園クリーンポート","province":"東京都","city":"東久留米市","address":"東久留米市下里4-3-10","lat":35.75476,"lon":139.4945},{"name":"※東久留米市本庁舎","province":"東京都","city":"東久留米市","address":"東京都東久留米市本町3丁目3-1","lat":35.75799202,"lon":139.52967216},{"name":"市立東第２自転車等駐車場","province":"東京都","city":"東久留米市","address":"東京都東久留米市東本町14","lat":35.7627277,"lon":139.53515209},{"name":"日生サイクルプラザ東久留米第２","province":"東京都","city":"東久留米市","address":"東京都東久留米市新川町1丁目4","lat":35.7612862,"lon":139.5350827},{"name":"日生サイクルプラザ東久留米第１","province":"東京都","city":"東久留米市","address":"東京都東久留米市新川町1丁目3","lat":35.76013078,"lon":139.53539661},{"name":"市立西第９自転車駐車場","province":"東京都","city":"東久留米市","address":"東京都東久留米市本町1丁目5","lat":35.75972803,"lon":139.53402173},{"name":"市立西第１０一時利用自転車駐車場","province":"東京都","city":"東久留米市","address":"東京都東久留米市本町1丁目4","lat":35.75914751,"lon":139.53259409},{"name":"東久留米駅前駐輪場","province":"東京都","city":"東久留米市","address":"東京都東久留米市東本町1-15","lat":35.76086678,"lon":139.53414668},{"name":"東久留米駅前第２駐輪場","province":"東京都","city":"東久留米市","address":"東京都東久留米市東本町1-15","lat":35.76086678,"lon":139.53414668},{"name":"東久留米駅前第３駐輪場","province":"東京都","city":"東久留米市","address":"東京都東久留米市本町1丁目3-28","lat":35.75994184,"lon":139.53205522},{"name":"東久留米駅西口第１自転車駐車場","province":"東京都","city":"東久留米市","address":"東京都東久留米市新川町1丁目3","lat":35.76013078,"lon":139.53539661},{"name":"東久留米駅西口第２自転車駐車場","province":"東京都","city":"東久留米市","address":"東京都東久留米市新川町1丁目3","lat":35.76013078,"lon":139.53539661},{"name":"東久留米駅西口第３自転車駐車場","province":"東京都","city":"東久留米市","address":"東京都東久留米市本町1丁目14","lat":35.75794212,"lon":139.53427455},{"name":"東久留米駅東口自転車駐車場","province":"東京都","city":"東久留米市","address":"東京都東久留米市新川町1丁目3","lat":35.76013078,"lon":139.53539661},{"name":"東久留米駅北口自転車駐車場","province":"東京都","city":"東久留米市","address":"東京都東久留米市東本町1-6","lat":35.76136949,"lon":139.53344116},{"name":"サイクルスペース２４東久留米駐輪場","province":"東京都","city":"東久留米市","address":"東京都東久留米市新川町1丁目9","lat":35.76161952,"lon":139.53686034},{"name":"市立西第１０原付自転車駐車場","province":"東京都","city":"東久留米市","address":"東京都東久留米市本町1丁目4","lat":35.75914751,"lon":139.53259409},{"name":"リバーウエストビルズ駐輪場","province":"東京都","city":"東久留米市","address":"東京都東久留米市本町1丁目5","lat":35.75972803,"lon":139.53402173},{"name":"東久留米駅前第４駐輪場","province":"東京都","city":"東久留米市","address":"東京都東久留米市東本町5","lat":35.76224161,"lon":139.53360501},{"name":"市立臨時西第２自転車駐車場","province":"東京都","city":"東久留米市","address":"東京都東久留米市本町1丁目8-1","lat":35.7578366,"lon":139.53545501},{"name":"東久留米駅西口第１自転車駐車場","province":"東京都","city":"東久留米市","address":"東京都東久留米市本町1丁目3","lat":35.76054178,"lon":139.53217741},{"name":"東久留米駅西口第２自転車駐車場","province":"東京都","city":"東久留米市","address":"東京都東久留米市本町1丁目5","lat":35.75972803,"lon":139.53402173},{"name":"＊?東久留米市立生涯学習センター","province":"東京都","city":"東久留米市","address":"東久留米市中央町2-6-23","lat":35.755517,"lon":139.522346},{"name":"東久留米市わくわく健康プラザ（健康課）","province":"東京都","city":"東久留米市","address":"東京都東久留米市滝山4丁目3-14","lat":35.74228769,"lon":139.5044833},{"name":"東久留米市本庁舎","province":"東京都","city":"東久留米市","address":"東京都東久留米市本町3丁目3-1","lat":35.75799202,"lon":139.52967216},{"name":"東久留米市立久留米中学校","province":"東京都","city":"東久留米市","address":"東京都東久留米市幸町5丁目9-11","lat":35.761708,"lon":139.51692595},{"name":"東久留米市立大門中学校","province":"東京都","city":"東久留米市","address":"東京都東久留米市大門町2丁目13-8","lat":35.7628556,"lon":139.54363203},{"name":"東久留米消防署","province":"東京都","city":"東久留米市","address":"東久留米市幸町3-4-34","lat":35.75756,"lon":139.5217},{"name":"柳泉園クリーンポート","province":"東京都","city":"東久留米市","address":"東久留米市下里4-3-10","lat":35.75476,"lon":139.4945},{"name":"※東久留米市本庁舎","province":"東京都","city":"東久留米市","address":"東京都東久留米市本町3丁目3-1","lat":35.75799202,"lon":139.52967216},{"name":"市立東第２自転車等駐車場","province":"東京都","city":"東久留米市","address":"東京都東久留米市東本町14","lat":35.7627277,"lon":139.53515209},{"name":"日生サイクルプラザ東久留米第２","province":"東京都","city":"東久留米市","address":"東京都東久留米市新川町1丁目4","lat":35.7612862,"lon":139.5350827},{"name":"日生サイクルプラザ東久留米第１","province":"東京都","city":"東久留米市","address":"東京都東久留米市新川町1丁目3","lat":35.76013078,"lon":139.53539661},{"name":"市立西第９自転車駐車場","province":"東京都","city":"東久留米市","address":"東京都東久留米市本町1丁目5","lat":35.75972803,"lon":139.53402173},{"name":"市立西第１０一時利用自転車駐車場","province":"東京都","city":"東久留米市","address":"東京都東久留米市本町1丁目4","lat":35.75914751,"lon":139.53259409},{"name":"東久留米駅前駐輪場","province":"東京都","city":"東久留米市","address":"東京都東久留米市東本町1-15","lat":35.76086678,"lon":139.53414668},{"name":"東久留米駅前第２駐輪場","province":"東京都","city":"東久留米市","address":"東京都東久留米市東本町1-15","lat":35.76086678,"lon":139.53414668},{"name":"東久留米駅前第３駐輪場","province":"東京都","city":"東久留米市","address":"東京都東久留米市本町1丁目3-28","lat":35.75994184,"lon":139.53205522},{"name":"東久留米駅西口第１自転車駐車場","province":"東京都","city":"東久留米市","address":"東京都東久留米市新川町1丁目3","lat":35.76013078,"lon":139.53539661},{"name":"東久留米駅西口第２自転車駐車場","province":"東京都","city":"東久留米市","address":"東京都東久留米市新川町1丁目3","lat":35.76013078,"lon":139.53539661},{"name":"東久留米駅西口第３自転車駐車場","province":"東京都","city":"東久留米市","address":"東京都東久留米市本町1丁目14","lat":35.75794212,"lon":139.53427455},{"name":"東久留米駅東口自転車駐車場","province":"東京都","city":"東久留米市","address":"東京都東久留米市新川町1丁目3","lat":35.76013078,"lon":139.53539661},{"name":"東久留米駅北口自転車駐車場","province":"東京都","city":"東久留米市","address":"東京都東久留米市東本町1-6","lat":35.76136949,"lon":139.53344116},{"name":"サイクルスペース２４東久留米駐輪場","province":"東京都","city":"東久留米市","address":"東京都東久留米市新川町1丁目9","lat":35.76161952,"lon":139.53686034},{"name":"市立西第１０原付自転車駐車場","province":"東京都","city":"東久留米市","address":"東京都東久留米市本町1丁目4","lat":35.75914751,"lon":139.53259409},{"name":"リバーウエストビルズ駐輪場","province":"東京都","city":"東久留米市","address":"東京都東久留米市本町1丁目5","lat":35.75972803,"lon":139.53402173},{"name":"東久留米駅前第４駐輪場","province":"東京都","city":"東久留米市","address":"東京都東久留米市東本町5","lat":35.76224161,"lon":139.53360501},{"name":"市立臨時西第２自転車駐車場","province":"東京都","city":"東久留米市","address":"東京都東久留米市本町1丁目8-1","lat":35.7578366,"lon":139.53545501},{"name":"東久留米駅西口第１自転車駐車場","province":"東京都","city":"東久留米市","address":"東京都東久留米市本町1丁目3","lat":35.76054178,"lon":139.53217741},{"name":"東久留米駅西口第２自転車駐車場","province":"東京都","city":"東久留米市","address":"東京都東久留米市本町1丁目5","lat":35.75972803,"lon":139.53402173},{"name":"＊?東久留米市立生涯学習センター","province":"東京都","city":"東久留米市","address":"東久留米市中央町2-6-23","lat":35.755517,"lon":139.522346},{"name":"東久留米市わくわく健康プラザ（健康課）","province":"東京都","city":"東久留米市","address":"東京都東久留米市滝山4丁目3-14","lat":35.74228769,"lon":139.5044833},{"name":"東久留米市本庁舎","province":"東京都","city":"東久留米市","address":"東京都東久留米市本町3丁目3-1","lat":35.75799202,"lon":139.52967216},{"name":"東久留米市立久留米中学校","province":"東京都","city":"東久留米市","address":"東京都東久留米市幸町5丁目9-11","lat":35.761708,"lon":139.51692595},{"name":"東久留米市立大門中学校","province":"東京都","city":"東久留米市","address":"東京都東久留米市大門町2丁目13-8","lat":35.7628556,"lon":139.54363203},{"name":"東久留米消防署","province":"東京都","city":"東久留米市","address":"東久留米市幸町3-4-34","lat":35.75756,"lon":139.5217},{"name":"柳泉園クリーンポート","province":"東京都","city":"東久留米市","address":"東久留米市下里4-3-10","lat":35.75476,"lon":139.4945},{"name":"※東久留米市本庁舎","province":"東京都","city":"東久留米市","address":"東京都東久留米市本町3丁目3-1","lat":35.75799202,"lon":139.52967216},{"name":"市立東第２自転車等駐車場","province":"東京都","city":"東久留米市","address":"東京都東久留米市東本町14","lat":35.7627277,"lon":139.53515209},{"name":"日生サイクルプラザ東久留米第２","province":"東京都","city":"東久留米市","address":"東京都東久留米市新川町1丁目4","lat":35.7612862,"lon":139.5350827},{"name":"日生サイクルプラザ東久留米第１","province":"東京都","city":"東久留米市","address":"東京都東久留米市新川町1丁目3","lat":35.76013078,"lon":139.53539661},{"name":"市立西第９自転車駐車場","province":"東京都","city":"東久留米市","address":"東京都東久留米市本町1丁目5","lat":35.75972803,"lon":139.53402173},{"name":"市立西第１０一時利用自転車駐車場","province":"東京都","city":"東久留米市","address":"東京都東久留米市本町1丁目4","lat":35.75914751,"lon":139.53259409},{"name":"東久留米駅前駐輪場","province":"東京都","city":"東久留米市","address":"東京都東久留米市東本町1-15","lat":35.76086678,"lon":139.53414668},{"name":"東久留米駅前第２駐輪場","province":"東京都","city":"東久留米市","address":"東京都東久留米市東本町1-15","lat":35.76086678,"lon":139.53414668},{"name":"東久留米駅前第３駐輪場","province":"東京都","city":"東久留米市","address":"東京都東久留米市本町1丁目3-28","lat":35.75994184,"lon":139.53205522},{"name":"東久留米駅西口第１自転車駐車場","province":"東京都","city":"東久留米市","address":"東京都東久留米市新川町1丁目3","lat":35.76013078,"lon":139.53539661},{"name":"東久留米駅西口第２自転車駐車場","province":"東京都","city":"東久留米市","address":"東京都東久留米市新川町1丁目3","lat":35.76013078,"lon":139.53539661},{"name":"東久留米駅西口第３自転車駐車場","province":"東京都","city":"東久留米市","address":"東京都東久留米市本町1丁目14","lat":35.75794212,"lon":139.53427455},{"name":"東久留米駅東口自転車駐車場","province":"東京都","city":"東久留米市","address":"東京都東久留米市新川町1丁目3","lat":35.76013078,"lon":139.53539661},{"name":"東久留米駅北口自転車駐車場","province":"東京都","city":"東久留米市","address":"東京都東久留米市東本町1-6","lat":35.76136949,"lon":139.53344116},{"name":"サイクルスペース２４東久留米駐輪場","province":"東京都","city":"東久留米市","address":"東京都東久留米市新川町1丁目9","lat":35.76161952,"lon":139.53686034},{"name":"市立西第１０原付自転車駐車場","province":"東京都","city":"東久留米市","address":"東京都東久留米市本町1丁目4","lat":35.75914751,"lon":139.53259409},{"name":"リバーウエストビルズ駐輪場","province":"東京都","city":"東久留米市","address":"東京都東久留米市本町1丁目5","lat":35.75972803,"lon":139.53402173},{"name":"東久留米駅前第４駐輪場","province":"東京都","city":"東久留米市","address":"東京都東久留米市東本町5","lat":35.76224161,"lon":139.53360501},{"name":"市立臨時西第２自転車駐車場","province":"東京都","city":"東久留米市","address":"東京都東久留米市本町1丁目8-1","lat":35.7578366,"lon":139.53545501},{"name":"東久留米駅西口第１自転車駐車場","province":"東京都","city":"東久留米市","address":"東京都東久留米市本町1丁目3","lat":35.76054178,"lon":139.53217741},{"name":"東久留米駅西口第２自転車駐車場","province":"東京都","city":"東久留米市","address":"東京都東久留米市本町1丁目5","lat":35.75972803,"lon":139.53402173},{"name":"＊?東久留米市立生涯学習センター","province":"東京都","city":"東久留米市","address":"東久留米市中央町2-6-23","lat":35.755517,"lon":139.522346},{"name":"東久留米市わくわく健康プラザ（健康課）","province":"東京都","city":"東久留米市","address":"東京都東久留米市滝山4丁目3-14","lat":35.74228769,"lon":139.5044833},{"name":"東久留米市本庁舎","province":"東京都","city":"東久留米市","address":"東京都東久留米市本町3丁目3-1","lat":35.75799202,"lon":139.52967216},{"name":"東久留米市立久留米中学校","province":"東京都","city":"東久留米市","address":"東京都東久留米市幸町5丁目9-11","lat":35.761708,"lon":139.51692595},{"name":"東久留米市立大門中学校","province":"東京都","city":"東久留米市","address":"東京都東久留米市大門町2丁目13-8","lat":35.7628556,"lon":139.54363203},{"name":"東久留米消防署","province":"東京都","city":"東久留米市","address":"東久留米市幸町3-4-34","lat":35.75756,"lon":139.5217},{"name":"柳泉園クリーンポート","province":"東京都","city":"東久留米市","address":"東久留米市下里4-3-10","lat":35.75476,"lon":139.4945},{"name":"※東久留米市本庁舎","province":"東京都","city":"東久留米市","address":"東京都東久留米市本町3丁目3-1","lat":35.75799202,"lon":139.52967216},{"name":"市立東第２自転車等駐車場","province":"東京都","city":"東久留米市","address":"東京都東久留米市東本町14","lat":35.7627277,"lon":139.53515209},{"name":"日生サイクルプラザ東久留米第２","province":"東京都","city":"東久留米市","address":"東京都東久留米市新川町1丁目4","lat":35.7612862,"lon":139.5350827},{"name":"日生サイクルプラザ東久留米第１","province":"東京都","city":"東久留米市","address":"東京都東久留米市新川町1丁目3","lat":35.76013078,"lon":139.53539661},{"name":"市立西第９自転車駐車場","province":"東京都","city":"東久留米市","address":"東京都東久留米市本町1丁目5","lat":35.75972803,"lon":139.53402173},{"name":"市立西第１０一時利用自転車駐車場","province":"東京都","city":"東久留米市","address":"東京都東久留米市本町1丁目4","lat":35.75914751,"lon":139.53259409},{"name":"東久留米駅前駐輪場","province":"東京都","city":"東久留米市","address":"東京都東久留米市東本町1-15","lat":35.76086678,"lon":139.53414668},{"name":"東久留米駅前第２駐輪場","province":"東京都","city":"東久留米市","address":"東京都東久留米市東本町1-15","lat":35.76086678,"lon":139.53414668},{"name":"東久留米駅前第３駐輪場","province":"東京都","city":"東久留米市","address":"東京都東久留米市本町1丁目3-28","lat":35.75994184,"lon":139.53205522},{"name":"東久留米駅西口第１自転車駐車場","province":"東京都","city":"東久留米市","address":"東京都東久留米市新川町1丁目3","lat":35.76013078,"lon":139.53539661},{"name":"東久留米駅西口第２自転車駐車場","province":"東京都","city":"東久留米市","address":"東京都東久留米市新川町1丁目3","lat":35.76013078,"lon":139.53539661},{"name":"東久留米駅西口第３自転車駐車場","province":"東京都","city":"東久留米市","address":"東京都東久留米市本町1丁目14","lat":35.75794212,"lon":139.53427455},{"name":"東久留米駅東口自転車駐車場","province":"東京都","city":"東久留米市","address":"東京都東久留米市新川町1丁目3","lat":35.76013078,"lon":139.53539661},{"name":"東久留米駅北口自転車駐車場","province":"東京都","city":"東久留米市","address":"東京都東久留米市東本町1-6","lat":35.76136949,"lon":139.53344116},{"name":"サイクルスペース２４東久留米駐輪場","province":"東京都","city":"東久留米市","address":"東京都東久留米市新川町1丁目9","lat":35.76161952,"lon":139.53686034},{"name":"市立西第１０原付自転車駐車場","province":"東京都","city":"東久留米市","address":"東京都東久留米市本町1丁目4","lat":35.75914751,"lon":139.53259409},{"name":"リバーウエストビルズ駐輪場","province":"東京都","city":"東久留米市","address":"東京都東久留米市本町1丁目5","lat":35.75972803,"lon":139.53402173},{"name":"東久留米駅前第４駐輪場","province":"東京都","city":"東久留米市","address":"東京都東久留米市東本町5","lat":35.76224161,"lon":139.53360501},{"name":"市立臨時西第２自転車駐車場","province":"東京都","city":"東久留米市","address":"東京都東久留米市本町1丁目8-1","lat":35.7578366,"lon":139.53545501},{"name":"東久留米駅西口第１自転車駐車場","province":"東京都","city":"東久留米市","address":"東京都東久留米市本町1丁目3","lat":35.76054178,"lon":139.53217741},{"name":"東久留米駅西口第２自転車駐車場","province":"東京都","city":"東久留米市","address":"東京都東久留米市本町1丁目5","lat":35.75972803,"lon":139.53402173},{"name":"＊?東久留米市立生涯学習センター","province":"東京都","city":"東久留米市","address":"東久留米市中央町2-6-23","lat":35.755517,"lon":139.522346},{"name":"東久留米市わくわく健康プラザ（健康課）","province":"東京都","city":"東久留米市","address":"東京都東久留米市滝山4丁目3-14","lat":35.74228769,"lon":139.5044833},{"name":"東久留米市本庁舎","province":"東京都","city":"東久留米市","address":"東京都東久留米市本町3丁目3-1","lat":35.75799202,"lon":139.52967216},{"name":"東久留米市立久留米中学校","province":"東京都","city":"東久留米市","address":"東京都東久留米市幸町5丁目9-11","lat":35.761708,"lon":139.51692595},{"name":"東久留米市立大門中学校","province":"東京都","city":"東久留米市","address":"東京都東久留米市大門町2丁目13-8","lat":35.7628556,"lon":139.54363203},{"name":"東久留米消防署","province":"東京都","city":"東久留米市","address":"東久留米市幸町3-4-34","lat":35.75756,"lon":139.5217},{"name":"柳泉園クリーンポート","province":"東京都","city":"東久留米市","address":"東久留米市下里4-3-10","lat":35.75476,"lon":139.4945},{"name":"※東久留米市本庁舎","province":"東京都","city":"東久留米市","address":"東京都東久留米市本町3丁目3-1","lat":35.75799202,"lon":139.52967216},{"name":"市立東第２自転車等駐車場","province":"東京都","city":"東久留米市","address":"東京都東久留米市東本町14","lat":35.7627277,"lon":139.53515209},{"name":"日生サイクルプラザ東久留米第２","province":"東京都","city":"東久留米市","address":"東京都東久留米市新川町1丁目4","lat":35.7612862,"lon":139.5350827},{"name":"日生サイクルプラザ東久留米第１","province":"東京都","city":"東久留米市","address":"東京都東久留米市新川町1丁目3","lat":35.76013078,"lon":139.53539661},{"name":"市立西第９自転車駐車場","province":"東京都","city":"東久留米市","address":"東京都東久留米市本町1丁目5","lat":35.75972803,"lon":139.53402173},{"name":"市立西第１０一時利用自転車駐車場","province":"東京都","city":"東久留米市","address":"東京都東久留米市本町1丁目4","lat":35.75914751,"lon":139.53259409},{"name":"東久留米駅前駐輪場","province":"東京都","city":"東久留米市","address":"東京都東久留米市東本町1-15","lat":35.76086678,"lon":139.53414668},{"name":"東久留米駅前第２駐輪場","province":"東京都","city":"東久留米市","address":"東京都東久留米市東本町1-15","lat":35.76086678,"lon":139.53414668},{"name":"東久留米駅前第３駐輪場","province":"東京都","city":"東久留米市","address":"東京都東久留米市本町1丁目3-28","lat":35.75994184,"lon":139.53205522},{"name":"東久留米駅西口第１自転車駐車場","province":"東京都","city":"東久留米市","address":"東京都東久留米市新川町1丁目3","lat":35.76013078,"lon":139.53539661},{"name":"東久留米駅西口第２自転車駐車場","province":"東京都","city":"東久留米市","address":"東京都東久留米市新川町1丁目3","lat":35.76013078,"lon":139.53539661},{"name":"東久留米駅西口第３自転車駐車場","province":"東京都","city":"東久留米市","address":"東京都東久留米市本町1丁目14","lat":35.75794212,"lon":139.53427455},{"name":"東久留米駅東口自転車駐車場","province":"東京都","city":"東久留米市","address":"東京都東久留米市新川町1丁目3","lat":35.76013078,"lon":139.53539661},{"name":"東久留米駅北口自転車駐車場","province":"東京都","city":"東久留米市","address":"東京都東久留米市東本町1-6","lat":35.76136949,"lon":139.53344116},{"name":"サイクルスペース２４東久留米駐輪場","province":"東京都","city":"東久留米市","address":"東京都東久留米市新川町1丁目9","lat":35.76161952,"lon":139.53686034},{"name":"市立西第１０原付自転車駐車場","province":"東京都","city":"東久留米市","address":"東京都東久留米市本町1丁目4","lat":35.75914751,"lon":139.53259409},{"name":"リバーウエストビルズ駐輪場","province":"東京都","city":"東久留米市","address":"東京都東久留米市本町1丁目5","lat":35.75972803,"lon":139.53402173},{"name":"東久留米駅前第４駐輪場","province":"東京都","city":"東久留米市","address":"東京都東久留米市東本町5","lat":35.76224161,"lon":139.53360501},{"name":"市立臨時西第２自転車駐車場","province":"東京都","city":"東久留米市","address":"東京都東久留米市本町1丁目8-1","lat":35.7578366,"lon":139.53545501},{"name":"東久留米駅西口第１自転車駐車場","province":"東京都","city":"東久留米市","address":"東京都東久留米市本町1丁目3","lat":35.76054178,"lon":139.53217741},{"name":"東久留米駅西口第２自転車駐車場","province":"東京都","city":"東久留米市","address":"東京都東久留米市本町1丁目5","lat":35.75972803,"lon":139.53402173},{"name":"＊?東久留米市立生涯学習センター","province":"東京都","city":"東久留米市","address":"東久留米市中央町2-6-23","lat":35.755517,"lon":139.522346},{"name":"東久留米市わくわく健康プラザ（健康課）","province":"東京都","city":"東久留米市","address":"東京都東久留米市滝山4丁目3-14","lat":35.74228769,"lon":139.5044833},{"name":"東久留米市本庁舎","province":"東京都","city":"東久留米市","address":"東京都東久留米市本町3丁目3-1","lat":35.75799202,"lon":139.52967216},{"name":"東久留米市立久留米中学校","province":"東京都","city":"東久留米市","address":"東京都東久留米市幸町5丁目9-11","lat":35.761708,"lon":139.51692595},{"name":"東久留米市立大門中学校","province":"東京都","city":"東久留米市","address":"東京都東久留米市大門町2丁目13-8","lat":35.7628556,"lon":139.54363203},{"name":"東久留米消防署","province":"東京都","city":"東久留米市","address":"東久留米市幸町3-4-34","lat":35.75756,"lon":139.5217},{"name":"柳泉園クリーンポート","province":"東京都","city":"東久留米市","address":"東久留米市下里4-3-10","lat":35.75476,"lon":139.4945},{"name":"※東久留米市本庁舎","province":"東京都","city":"東久留米市","address":"東京都東久留米市本町3丁目3-1","lat":35.75799202,"lon":139.52967216},{"name":"市立東第２自転車等駐車場","province":"東京都","city":"東久留米市","address":"東京都東久留米市東本町14","lat":35.7627277,"lon":139.53515209},{"name":"日生サイクルプラザ東久留米第２","province":"東京都","city":"東久留米市","address":"東京都東久留米市新川町1丁目4","lat":35.7612862,"lon":139.5350827},{"name":"日生サイクルプラザ東久留米第１","province":"東京都","city":"東久留米市","address":"東京都東久留米市新川町1丁目3","lat":35.76013078,"lon":139.53539661},{"name":"市立西第９自転車駐車場","province":"東京都","city":"東久留米市","address":"東京都東久留米市本町1丁目5","lat":35.75972803,"lon":139.53402173},{"name":"市立西第１０一時利用自転車駐車場","province":"東京都","city":"東久留米市","address":"東京都東久留米市本町1丁目4","lat":35.75914751,"lon":139.53259409},{"name":"東久留米駅前駐輪場","province":"東京都","city":"東久留米市","address":"東京都東久留米市東本町1-15","lat":35.76086678,"lon":139.53414668},{"name":"東久留米駅前第２駐輪場","province":"東京都","city":"東久留米市","address":"東京都東久留米市東本町1-15","lat":35.76086678,"lon":139.53414668},{"name":"東久留米駅前第３駐輪場","province":"東京都","city":"東久留米市","address":"東京都東久留米市本町1丁目3-28","lat":35.75994184,"lon":139.53205522},{"name":"東久留米駅西口第１自転車駐車場","province":"東京都","city":"東久留米市","address":"東京都東久留米市新川町1丁目3","lat":35.76013078,"lon":139.53539661},{"name":"東久留米駅西口第２自転車駐車場","province":"東京都","city":"東久留米市","address":"東京都東久留米市新川町1丁目3","lat":35.76013078,"lon":139.53539661},{"name":"東久留米駅西口第３自転車駐車場","province":"東京都","city":"東久留米市","address":"東京都東久留米市本町1丁目14","lat":35.75794212,"lon":139.53427455},{"name":"東久留米駅東口自転車駐車場","province":"東京都","city":"東久留米市","address":"東京都東久留米市新川町1丁目3","lat":35.76013078,"lon":139.53539661},{"name":"東久留米駅北口自転車駐車場","province":"東京都","city":"東久留米市","address":"東京都東久留米市東本町1-6","lat":35.76136949,"lon":139.53344116},{"name":"サイクルスペース２４東久留米駐輪場","province":"東京都","city":"東久留米市","address":"東京都東久留米市新川町1丁目9","lat":35.76161952,"lon":139.53686034},{"name":"市立西第１０原付自転車駐車場","province":"東京都","city":"東久留米市","address":"東京都東久留米市本町1丁目4","lat":35.75914751,"lon":139.53259409},{"name":"リバーウエストビルズ駐輪場","province":"東京都","city":"東久留米市","address":"東京都東久留米市本町1丁目5","lat":35.75972803,"lon":139.53402173},{"name":"東久留米駅前第４駐輪場","province":"東京都","city":"東久留米市","address":"東京都東久留米市東本町5","lat":35.76224161,"lon":139.53360501},{"name":"市立臨時西第２自転車駐車場","province":"東京都","city":"東久留米市","address":"東京都東久留米市本町1丁目8-1","lat":35.7578366,"lon":139.53545501},{"name":"東久留米駅西口第１自転車駐車場","province":"東京都","city":"東久留米市","address":"東京都東久留米市本町1丁目3","lat":35.76054178,"lon":139.53217741},{"name":"東久留米駅西口第２自転車駐車場","province":"東京都","city":"東久留米市","address":"東京都東久留米市本町1丁目5","lat":35.75972803,"lon":139.53402173},{"name":"＊?東久留米市立生涯学習センター","province":"東京都","city":"東久留米市","address":"東久留米市中央町2-6-23","lat":35.755517,"lon":139.522346},{"name":"東久留米市わくわく健康プラザ（健康課）","province":"東京都","city":"東久留米市","address":"東京都東久留米市滝山4丁目3-14","lat":35.74228769,"lon":139.5044833},{"name":"東久留米市本庁舎","province":"東京都","city":"東久留米市","address":"東京都東久留米市本町3丁目3-1","lat":35.75799202,"lon":139.52967216},{"name":"東久留米市立久留米中学校","province":"東京都","city":"東久留米市","address":"東京都東久留米市幸町5丁目9-11","lat":35.761708,"lon":139.51692595},{"name":"東久留米市立大門中学校","province":"東京都","city":"東久留米市","address":"東京都東久留米市大門町2丁目13-8","lat":35.7628556,"lon":139.54363203},{"name":"東久留米消防署","province":"東京都","city":"東久留米市","address":"東久留米市幸町3-4-34","lat":35.75756,"lon":139.5217},{"name":"柳泉園クリーンポート","province":"東京都","city":"東久留米市","address":"東久留米市下里4-3-10","lat":35.75476,"lon":139.4945},{"name":"※東久留米市本庁舎","province":"東京都","city":"東久留米市","address":"東京都東久留米市本町3丁目3-1","lat":35.75799202,"lon":139.52967216},{"name":"市立東第２自転車等駐車場","province":"東京都","city":"東久留米市","address":"東京都東久留米市東本町14","lat":35.7627277,"lon":139.53515209},{"name":"日生サイクルプラザ東久留米第２","province":"東京都","city":"東久留米市","address":"東京都東久留米市新川町1丁目4","lat":35.7612862,"lon":139.5350827},{"name":"日生サイクルプラザ東久留米第１","province":"東京都","city":"東久留米市","address":"東京都東久留米市新川町1丁目3","lat":35.76013078,"lon":139.53539661},{"name":"市立西第９自転車駐車場","province":"東京都","city":"東久留米市","address":"東京都東久留米市本町1丁目5","lat":35.75972803,"lon":139.53402173},{"name":"市立西第１０一時利用自転車駐車場","province":"東京都","city":"東久留米市","address":"東京都東久留米市本町1丁目4","lat":35.75914751,"lon":139.53259409},{"name":"東久留米駅前駐輪場","province":"東京都","city":"東久留米市","address":"東京都東久留米市東本町1-15","lat":35.76086678,"lon":139.53414668},{"name":"東久留米駅前第２駐輪場","province":"東京都","city":"東久留米市","address":"東京都東久留米市東本町1-15","lat":35.76086678,"lon":139.53414668},{"name":"東久留米駅前第３駐輪場","province":"東京都","city":"東久留米市","address":"東京都東久留米市本町1丁目3-28","lat":35.75994184,"lon":139.53205522},{"name":"東久留米駅西口第１自転車駐車場","province":"東京都","city":"東久留米市","address":"東京都東久留米市新川町1丁目3","lat":35.76013078,"lon":139.53539661},{"name":"東久留米駅西口第２自転車駐車場","province":"東京都","city":"東久留米市","address":"東京都東久留米市新川町1丁目3","lat":35.76013078,"lon":139.53539661},{"name":"東久留米駅西口第３自転車駐車場","province":"東京都","city":"東久留米市","address":"東京都東久留米市本町1丁目14","lat":35.75794212,"lon":139.53427455},{"name":"東久留米駅東口自転車駐車場","province":"東京都","city":"東久留米市","address":"東京都東久留米市新川町1丁目3","lat":35.76013078,"lon":139.53539661},{"name":"東久留米駅北口自転車駐車場","province":"東京都","city":"東久留米市","address":"東京都東久留米市東本町1-6","lat":35.76136949,"lon":139.53344116},{"name":"サイクルスペース２４東久留米駐輪場","province":"東京都","city":"東久留米市","address":"東京都東久留米市新川町1丁目9","lat":35.76161952,"lon":139.53686034},{"name":"市立西第１０原付自転車駐車場","province":"東京都","city":"東久留米市","address":"東京都東久留米市本町1丁目4","lat":35.75914751,"lon":139.53259409},{"name":"リバーウエストビルズ駐輪場","province":"東京都","city":"東久留米市","address":"東京都東久留米市本町1丁目5","lat":35.75972803,"lon":139.53402173},{"name":"東久留米駅前第４駐輪場","province":"東京都","city":"東久留米市","address":"東京都東久留米市東本町5","lat":35.76224161,"lon":139.53360501},{"name":"市立臨時西第２自転車駐車場","province":"東京都","city":"東久留米市","address":"東京都東久留米市本町1丁目8-1","lat":35.7578366,"lon":139.53545501},{"name":"東久留米駅西口第１自転車駐車場","province":"東京都","city":"東久留米市","address":"東京都東久留米市本町1丁目3","lat":35.76054178,"lon":139.53217741},{"name":"東久留米駅西口第２自転車駐車場","province":"東京都","city":"東久留米市","address":"東京都東久留米市本町1丁目5","lat":35.75972803,"lon":139.53402173},{"name":"＊?東久留米市立生涯学習センター","province":"東京都","city":"東久留米市","address":"東久留米市中央町2-6-23","lat":35.755517,"lon":139.522346},{"name":"東久留米市わくわく健康プラザ（健康課）","province":"東京都","city":"東久留米市","address":"東京都東久留米市滝山4丁目3-14","lat":35.74228769,"lon":139.5044833},{"name":"東久留米市本庁舎","province":"東京都","city":"東久留米市","address":"東京都東久留米市本町3丁目3-1","lat":35.75799202,"lon":139.52967216},{"name":"東久留米市立久留米中学校","province":"東京都","city":"東久留米市","address":"東京都東久留米市幸町5丁目9-11","lat":35.761708,"lon":139.51692595},{"name":"東久留米市立大門中学校","province":"東京都","city":"東久留米市","address":"東京都東久留米市大門町2丁目13-8","lat":35.7628556,"lon":139.54363203},{"name":"東久留米消防署","province":"東京都","city":"東久留米市","address":"東久留米市幸町3-4-34","lat":35.75756,"lon":139.5217},{"name":"柳泉園クリーンポート","province":"東京都","city":"東久留米市","address":"東久留米市下里4-3-10","lat":35.75476,"lon":139.4945},{"name":"※東久留米市本庁舎","province":"東京都","city":"東久留米市","address":"東京都東久留米市本町3丁目3-1","lat":35.75799202,"lon":139.52967216},{"name":"市立東第２自転車等駐車場","province":"東京都","city":"東久留米市","address":"東京都東久留米市東本町14","lat":35.7627277,"lon":139.53515209},{"name":"日生サイクルプラザ東久留米第２","province":"東京都","city":"東久留米市","address":"東京都東久留米市新川町1丁目4","lat":35.7612862,"lon":139.5350827},{"name":"日生サイクルプラザ東久留米第１","province":"東京都","city":"東久留米市","address":"東京都東久留米市新川町1丁目3","lat":35.76013078,"lon":139.53539661},{"name":"市立西第９自転車駐車場","province":"東京都","city":"東久留米市","address":"東京都東久留米市本町1丁目5","lat":35.75972803,"lon":139.53402173},{"name":"市立西第１０一時利用自転車駐車場","province":"東京都","city":"東久留米市","address":"東京都東久留米市本町1丁目4","lat":35.75914751,"lon":139.53259409},{"name":"東久留米駅前駐輪場","province":"東京都","city":"東久留米市","address":"東京都東久留米市東本町1-15","lat":35.76086678,"lon":139.53414668},{"name":"東久留米駅前第２駐輪場","province":"東京都","city":"東久留米市","address":"東京都東久留米市東本町1-15","lat":35.76086678,"lon":139.53414668},{"name":"東久留米駅前第３駐輪場","province":"東京都","city":"東久留米市","address":"東京都東久留米市本町1丁目3-28","lat":35.75994184,"lon":139.53205522},{"name":"東久留米駅西口第１自転車駐車場","province":"東京都","city":"東久留米市","address":"東京都東久留米市新川町1丁目3","lat":35.76013078,"lon":139.53539661},{"name":"東久留米駅西口第２自転車駐車場","province":"東京都","city":"東久留米市","address":"東京都東久留米市新川町1丁目3","lat":35.76013078,"lon":139.53539661},{"name":"東久留米駅西口第３自転車駐車場","province":"東京都","city":"東久留米市","address":"東京都東久留米市本町1丁目14","lat":35.75794212,"lon":139.53427455},{"name":"東久留米駅東口自転車駐車場","province":"東京都","city":"東久留米市","address":"東京都東久留米市新川町1丁目3","lat":35.76013078,"lon":139.53539661},{"name":"東久留米駅北口自転車駐車場","province":"東京都","city":"東久留米市","address":"東京都東久留米市東本町1-6","lat":35.76136949,"lon":139.53344116},{"name":"サイクルスペース２４東久留米駐輪場","province":"東京都","city":"東久留米市","address":"東京都東久留米市新川町1丁目9","lat":35.76161952,"lon":139.53686034},{"name":"市立西第１０原付自転車駐車場","province":"東京都","city":"東久留米市","address":"東京都東久留米市本町1丁目4","lat":35.75914751,"lon":139.53259409},{"name":"リバーウエストビルズ駐輪場","province":"東京都","city":"東久留米市","address":"東京都東久留米市本町1丁目5","lat":35.75972803,"lon":139.53402173},{"name":"東久留米駅前第４駐輪場","province":"東京都","city":"東久留米市","address":"東京都東久留米市東本町5","lat":35.76224161,"lon":139.53360501},{"name":"市立臨時西第２自転車駐車場","province":"東京都","city":"東久留米市","address":"東京都東久留米市本町1丁目8-1","lat":35.7578366,"lon":139.53545501},{"name":"東久留米駅西口第１自転車駐車場","province":"東京都","city":"東久留米市","address":"東京都東久留米市本町1丁目3","lat":35.76054178,"lon":139.53217741},{"name":"東久留米駅西口第２自転車駐車場","province":"東京都","city":"東久留米市","address":"東京都東久留米市本町1丁目5","lat":35.75972803,"lon":139.53402173},{"name":"＊?東久留米市立生涯学習センター","province":"東京都","city":"東久留米市","address":"東久留米市中央町2-6-23","lat":35.755517,"lon":139.522346},{"name":"東久留米市わくわく健康プラザ（健康課）","province":"東京都","city":"東久留米市","address":"東京都東久留米市滝山4丁目3-14","lat":35.74228769,"lon":139.5044833},{"name":"東久留米市本庁舎","province":"東京都","city":"東久留米市","address":"東京都東久留米市本町3丁目3-1","lat":35.75799202,"lon":139.52967216},{"name":"東久留米市立久留米中学校","province":"東京都","city":"東久留米市","address":"東京都東久留米市幸町5丁目9-11","lat":35.761708,"lon":139.51692595},{"name":"東久留米市立大門中学校","province":"東京都","city":"東久留米市","address":"東京都東久留米市大門町2丁目13-8","lat":35.7628556,"lon":139.54363203},{"name":"東久留米消防署","province":"東京都","city":"東久留米市","address":"東久留米市幸町3-4-34","lat":35.75756,"lon":139.5217},{"name":"柳泉園クリーンポート","province":"東京都","city":"東久留米市","address":"東久留米市下里4-3-10","lat":35.75476,"lon":139.4945},{"name":"※東久留米市本庁舎","province":"東京都","city":"東久留米市","address":"東京都東久留米市本町3丁目3-1","lat":35.75799202,"lon":139.52967216},{"name":"市立東第２自転車等駐車場","province":"東京都","city":"東久留米市","address":"東京都東久留米市東本町14","lat":35.7627277,"lon":139.53515209},{"name":"日生サイクルプラザ東久留米第２","province":"東京都","city":"東久留米市","address":"東京都東久留米市新川町1丁目4","lat":35.7612862,"lon":139.5350827},{"name":"日生サイクルプラザ東久留米第１","province":"東京都","city":"東久留米市","address":"東京都東久留米市新川町1丁目3","lat":35.76013078,"lon":139.53539661},{"name":"市立西第９自転車駐車場","province":"東京都","city":"東久留米市","address":"東京都東久留米市本町1丁目5","lat":35.75972803,"lon":139.53402173},{"name":"市立西第１０一時利用自転車駐車場","province":"東京都","city":"東久留米市","address":"東京都東久留米市本町1丁目4","lat":35.75914751,"lon":139.53259409},{"name":"東久留米駅前駐輪場","province":"東京都","city":"東久留米市","address":"東京都東久留米市東本町1-15","lat":35.76086678,"lon":139.53414668},{"name":"東久留米駅前第２駐輪場","province":"東京都","city":"東久留米市","address":"東京都東久留米市東本町1-15","lat":35.76086678,"lon":139.53414668},{"name":"東久留米駅前第３駐輪場","province":"東京都","city":"東久留米市","address":"東京都東久留米市本町1丁目3-28","lat":35.75994184,"lon":139.53205522},{"name":"東久留米駅西口第１自転車駐車場","province":"東京都","city":"東久留米市","address":"東京都東久留米市新川町1丁目3","lat":35.76013078,"lon":139.53539661},{"name":"東久留米駅西口第２自転車駐車場","province":"東京都","city":"東久留米市","address":"東京都東久留米市新川町1丁目3","lat":35.76013078,"lon":139.53539661},{"name":"東久留米駅西口第３自転車駐車場","province":"東京都","city":"東久留米市","address":"東京都東久留米市本町1丁目14","lat":35.75794212,"lon":139.53427455},{"name":"東久留米駅東口自転車駐車場","province":"東京都","city":"東久留米市","address":"東京都東久留米市新川町1丁目3","lat":35.76013078,"lon":139.53539661},{"name":"東久留米駅北口自転車駐車場","province":"東京都","city":"東久留米市","address":"東京都東久留米市東本町1-6","lat":35.76136949,"lon":139.53344116},{"name":"サイクルスペース２４東久留米駐輪場","province":"東京都","city":"東久留米市","address":"東京都東久留米市新川町1丁目9","lat":35.76161952,"lon":139.53686034},{"name":"市立西第１０原付自転車駐車場","province":"東京都","city":"東久留米市","address":"東京都東久留米市本町1丁目4","lat":35.75914751,"lon":139.53259409},{"name":"リバーウエストビルズ駐輪場","province":"東京都","city":"東久留米市","address":"東京都東久留米市本町1丁目5","lat":35.75972803,"lon":139.53402173},{"name":"東久留米駅前第４駐輪場","province":"東京都","city":"東久留米市","address":"東京都東久留米市東本町5","lat":35.76224161,"lon":139.53360501},{"name":"市立臨時西第２自転車駐車場","province":"東京都","city":"東久留米市","address":"東京都東久留米市本町1丁目8-1","lat":35.7578366,"lon":139.53545501},{"name":"東久留米駅西口第１自転車駐車場","province":"東京都","city":"東久留米市","address":"東京都東久留米市本町1丁目3","lat":35.76054178,"lon":139.53217741},{"name":"東久留米駅西口第２自転車駐車場","province":"東京都","city":"東久留米市","address":"東京都東久留米市本町1丁目5","lat":35.75972803,"lon":139.53402173},{"name":"＊?東久留米市立生涯学習センター","province":"東京都","city":"東久留米市","address":"東久留米市中央町2-6-23","lat":35.755517,"lon":139.522346},{"name":"東久留米市わくわく健康プラザ（健康課）","province":"東京都","city":"東久留米市","address":"東京都東久留米市滝山4丁目3-14","lat":35.74228769,"lon":139.5044833},{"name":"東久留米市本庁舎","province":"東京都","city":"東久留米市","address":"東京都東久留米市本町3丁目3-1","lat":35.75799202,"lon":139.52967216},{"name":"東久留米市立久留米中学校","province":"東京都","city":"東久留米市","address":"東京都東久留米市幸町5丁目9-11","lat":35.761708,"lon":139.51692595},{"name":"東久留米市立大門中学校","province":"東京都","city":"東久留米市","address":"東京都東久留米市大門町2丁目13-8","lat":35.7628556,"lon":139.54363203},{"name":"東久留米消防署","province":"東京都","city":"東久留米市","address":"東久留米市幸町3-4-34","lat":35.75756,"lon":139.5217},{"name":"柳泉園クリーンポート","province":"東京都","city":"東久留米市","address":"東久留米市下里4-3-10","lat":35.75476,"lon":139.4945},{"name":"※東久留米市本庁舎","province":"東京都","city":"東久留米市","address":"東京都東久留米市本町3丁目3-1","lat":35.75799202,"lon":139.52967216},{"name":"市立東第２自転車等駐車場","province":"東京都","city":"東久留米市","address":"東京都東久留米市東本町14","lat":35.7627277,"lon":139.53515209},{"name":"日生サイクルプラザ東久留米第２","province":"東京都","city":"東久留米市","address":"東京都東久留米市新川町1丁目4","lat":35.7612862,"lon":139.5350827},{"name":"日生サイクルプラザ東久留米第１","province":"東京都","city":"東久留米市","address":"東京都東久留米市新川町1丁目3","lat":35.76013078,"lon":139.53539661},{"name":"市立西第９自転車駐車場","province":"東京都","city":"東久留米市","address":"東京都東久留米市本町1丁目5","lat":35.75972803,"lon":139.53402173},{"name":"市立西第１０一時利用自転車駐車場","province":"東京都","city":"東久留米市","address":"東京都東久留米市本町1丁目4","lat":35.75914751,"lon":139.53259409},{"name":"東久留米駅前駐輪場","province":"東京都","city":"東久留米市","address":"東京都東久留米市東本町1-15","lat":35.76086678,"lon":139.53414668},{"name":"東久留米駅前第２駐輪場","province":"東京都","city":"東久留米市","address":"東京都東久留米市東本町1-15","lat":35.76086678,"lon":139.53414668},{"name":"東久留米駅前第３駐輪場","province":"東京都","city":"東久留米市","address":"東京都東久留米市本町1丁目3-28","lat":35.75994184,"lon":139.53205522},{"name":"東久留米駅西口第１自転車駐車場","province":"東京都","city":"東久留米市","address":"東京都東久留米市新川町1丁目3","lat":35.76013078,"lon":139.53539661},{"name":"東久留米駅西口第２自転車駐車場","province":"東京都","city":"東久留米市","address":"東京都東久留米市新川町1丁目3","lat":35.76013078,"lon":139.53539661},{"name":"東久留米駅西口第３自転車駐車場","province":"東京都","city":"東久留米市","address":"東京都東久留米市本町1丁目14","lat":35.75794212,"lon":139.53427455},{"name":"東久留米駅東口自転車駐車場","province":"東京都","city":"東久留米市","address":"東京都東久留米市新川町1丁目3","lat":35.76013078,"lon":139.53539661},{"name":"東久留米駅北口自転車駐車場","province":"東京都","city":"東久留米市","address":"東京都東久留米市東本町1-6","lat":35.76136949,"lon":139.53344116},{"name":"サイクルスペース２４東久留米駐輪場","province":"東京都","city":"東久留米市","address":"東京都東久留米市新川町1丁目9","lat":35.76161952,"lon":139.53686034},{"name":"市立西第１０原付自転車駐車場","province":"東京都","city":"東久留米市","address":"東京都東久留米市本町1丁目4","lat":35.75914751,"lon":139.53259409},{"name":"リバーウエストビルズ駐輪場","province":"東京都","city":"東久留米市","address":"東京都東久留米市本町1丁目5","lat":35.75972803,"lon":139.53402173},{"name":"東久留米駅前第４駐輪場","province":"東京都","city":"東久留米市","address":"東京都東久留米市東本町5","lat":35.76224161,"lon":139.53360501},{"name":"市立臨時西第２自転車駐車場","province":"東京都","city":"東久留米市","address":"東京都東久留米市本町1丁目8-1","lat":35.7578366,"lon":139.53545501},{"name":"東久留米駅西口第１自転車駐車場","province":"東京都","city":"東久留米市","address":"東京都東久留米市本町1丁目3","lat":35.76054178,"lon":139.53217741},{"name":"東久留米駅西口第２自転車駐車場","province":"東京都","city":"東久留米市","address":"東京都東久留米市本町1丁目5","lat":35.75972803,"lon":139.53402173},{"name":"＊?東久留米市立生涯学習センター","province":"東京都","city":"東久留米市","address":"東久留米市中央町2-6-23","lat":35.755517,"lon":139.522346},{"name":"東久留米市わくわく健康プラザ（健康課）","province":"東京都","city":"東久留米市","address":"東京都東久留米市滝山4丁目3-14","lat":35.74228769,"lon":139.5044833},{"name":"東久留米市本庁舎","province":"東京都","city":"東久留米市","address":"東京都東久留米市本町3丁目3-1","lat":35.75799202,"lon":139.52967216},{"name":"東久留米市立久留米中学校","province":"東京都","city":"東久留米市","address":"東京都東久留米市幸町5丁目9-11","lat":35.761708,"lon":139.51692595},{"name":"東久留米市立大門中学校","province":"東京都","city":"東久留米市","address":"東京都東久留米市大門町2丁目13-8","lat":35.7628556,"lon":139.54363203},{"name":"東久留米消防署","province":"東京都","city":"東久留米市","address":"東久留米市幸町3-4-34","lat":35.75756,"lon":139.5217},{"name":"柳泉園クリーンポート","province":"東京都","city":"東久留米市","address":"東久留米市下里4-3-10","lat":35.75476,"lon":139.4945},{"name":"※東久留米市本庁舎","province":"東京都","city":"東久留米市","address":"東京都東久留米市本町3丁目3-1","lat":35.75799202,"lon":139.52967216},{"name":"市立東第２自転車等駐車場","province":"東京都","city":"東久留米市","address":"東京都東久留米市東本町14","lat":35.7627277,"lon":139.53515209},{"name":"日生サイクルプラザ東久留米第２","province":"東京都","city":"東久留米市","address":"東京都東久留米市新川町1丁目4","lat":35.7612862,"lon":139.5350827},{"name":"日生サイクルプラザ東久留米第１","province":"東京都","city":"東久留米市","address":"東京都東久留米市新川町1丁目3","lat":35.76013078,"lon":139.53539661},{"name":"市立西第９自転車駐車場","province":"東京都","city":"東久留米市","address":"東京都東久留米市本町1丁目5","lat":35.75972803,"lon":139.53402173},{"name":"市立西第１０一時利用自転車駐車場","province":"東京都","city":"東久留米市","address":"東京都東久留米市本町1丁目4","lat":35.75914751,"lon":139.53259409},{"name":"東久留米駅前駐輪場","province":"東京都","city":"東久留米市","address":"東京都東久留米市東本町1-15","lat":35.76086678,"lon":139.53414668},{"name":"東久留米駅前第２駐輪場","province":"東京都","city":"東久留米市","address":"東京都東久留米市東本町1-15","lat":35.76086678,"lon":139.53414668},{"name":"東久留米駅前第３駐輪場","province":"東京都","city":"東久留米市","address":"東京都東久留米市本町1丁目3-28","lat":35.75994184,"lon":139.53205522},{"name":"東久留米駅西口第１自転車駐車場","province":"東京都","city":"東久留米市","address":"東京都東久留米市新川町1丁目3","lat":35.76013078,"lon":139.53539661},{"name":"東久留米駅西口第２自転車駐車場","province":"東京都","city":"東久留米市","address":"東京都東久留米市新川町1丁目3","lat":35.76013078,"lon":139.53539661},{"name":"東久留米駅西口第３自転車駐車場","province":"東京都","city":"東久留米市","address":"東京都東久留米市本町1丁目14","lat":35.75794212,"lon":139.53427455},{"name":"東久留米駅東口自転車駐車場","province":"東京都","city":"東久留米市","address":"東京都東久留米市新川町1丁目3","lat":35.76013078,"lon":139.53539661},{"name":"東久留米駅北口自転車駐車場","province":"東京都","city":"東久留米市","address":"東京都東久留米市東本町1-6","lat":35.76136949,"lon":139.53344116},{"name":"サイクルスペース２４東久留米駐輪場","province":"東京都","city":"東久留米市","address":"東京都東久留米市新川町1丁目9","lat":35.76161952,"lon":139.53686034},{"name":"市立西第１０原付自転車駐車場","province":"東京都","city":"東久留米市","address":"東京都東久留米市本町1丁目4","lat":35.75914751,"lon":139.53259409},{"name":"リバーウエストビルズ駐輪場","province":"東京都","city":"東久留米市","address":"東京都東久留米市本町1丁目5","lat":35.75972803,"lon":139.53402173},{"name":"東久留米駅前第４駐輪場","province":"東京都","city":"東久留米市","address":"東京都東久留米市東本町5","lat":35.76224161,"lon":139.53360501},{"name":"市立臨時西第２自転車駐車場","province":"東京都","city":"東久留米市","address":"東京都東久留米市本町1丁目8-1","lat":35.7578366,"lon":139.53545501},{"name":"東久留米駅西口第１自転車駐車場","province":"東京都","city":"東久留米市","address":"東京都東久留米市本町1丁目3","lat":35.76054178,"lon":139.53217741},{"name":"東久留米駅西口第２自転車駐車場","province":"東京都","city":"東久留米市","address":"東京都東久留米市本町1丁目5","lat":35.75972803,"lon":139.53402173},{"name":"＊?東久留米市立生涯学習センター","province":"東京都","city":"東久留米市","address":"東久留米市中央町2-6-23","lat":35.755517,"lon":139.522346},{"name":"東久留米市わくわく健康プラザ（健康課）","province":"東京都","city":"東久留米市","address":"東京都東久留米市滝山4丁目3-14","lat":35.74228769,"lon":139.5044833},{"name":"東久留米市本庁舎","province":"東京都","city":"東久留米市","address":"東京都東久留米市本町3丁目3-1","lat":35.75799202,"lon":139.52967216},{"name":"東久留米市立久留米中学校","province":"東京都","city":"東久留米市","address":"東京都東久留米市幸町5丁目9-11","lat":35.761708,"lon":139.51692595},{"name":"東久留米市立大門中学校","province":"東京都","city":"東久留米市","address":"東京都東久留米市大門町2丁目13-8","lat":35.7628556,"lon":139.54363203},{"name":"東久留米消防署","province":"東京都","city":"東久留米市","address":"東久留米市幸町3-4-34","lat":35.75756,"lon":139.5217},{"name":"柳泉園クリーンポート","province":"東京都","city":"東久留米市","address":"東久留米市下里4-3-10","lat":35.75476,"lon":139.4945},{"name":"※東久留米市本庁舎","province":"東京都","city":"東久留米市","address":"東京都東久留米市本町3丁目3-1","lat":35.75799202,"lon":139.52967216},{"name":"市立東第２自転車等駐車場","province":"東京都","city":"東久留米市","address":"東京都東久留米市東本町14","lat":35.7627277,"lon":139.53515209},{"name":"日生サイクルプラザ東久留米第２","province":"東京都","city":"東久留米市","address":"東京都東久留米市新川町1丁目4","lat":35.7612862,"lon":139.5350827},{"name":"日生サイクルプラザ東久留米第１","province":"東京都","city":"東久留米市","address":"東京都東久留米市新川町1丁目3","lat":35.76013078,"lon":139.53539661},{"name":"市立西第９自転車駐車場","province":"東京都","city":"東久留米市","address":"東京都東久留米市本町1丁目5","lat":35.75972803,"lon":139.53402173},{"name":"市立西第１０一時利用自転車駐車場","province":"東京都","city":"東久留米市","address":"東京都東久留米市本町1丁目4","lat":35.75914751,"lon":139.53259409},{"name":"東久留米駅前駐輪場","province":"東京都","city":"東久留米市","address":"東京都東久留米市東本町1-15","lat":35.76086678,"lon":139.53414668},{"name":"東久留米駅前第２駐輪場","province":"東京都","city":"東久留米市","address":"東京都東久留米市東本町1-15","lat":35.76086678,"lon":139.53414668},{"name":"東久留米駅前第３駐輪場","province":"東京都","city":"東久留米市","address":"東京都東久留米市本町1丁目3-28","lat":35.75994184,"lon":139.53205522},{"name":"東久留米駅西口第１自転車駐車場","province":"東京都","city":"東久留米市","address":"東京都東久留米市新川町1丁目3","lat":35.76013078,"lon":139.53539661},{"name":"東久留米駅西口第２自転車駐車場","province":"東京都","city":"東久留米市","address":"東京都東久留米市新川町1丁目3","lat":35.76013078,"lon":139.53539661},{"name":"東久留米駅西口第３自転車駐車場","province":"東京都","city":"東久留米市","address":"東京都東久留米市本町1丁目14","lat":35.75794212,"lon":139.53427455},{"name":"東久留米駅東口自転車駐車場","province":"東京都","city":"東久留米市","address":"東京都東久留米市新川町1丁目3","lat":35.76013078,"lon":139.53539661},{"name":"東久留米駅北口自転車駐車場","province":"東京都","city":"東久留米市","address":"東京都東久留米市東本町1-6","lat":35.76136949,"lon":139.53344116},{"name":"サイクルスペース２４東久留米駐輪場","province":"東京都","city":"東久留米市","address":"東京都東久留米市新川町1丁目9","lat":35.76161952,"lon":139.53686034},{"name":"市立西第１０原付自転車駐車場","province":"東京都","city":"東久留米市","address":"東京都東久留米市本町1丁目4","lat":35.75914751,"lon":139.53259409},{"name":"リバーウエストビルズ駐輪場","province":"東京都","city":"東久留米市","address":"東京都東久留米市本町1丁目5","lat":35.75972803,"lon":139.53402173},{"name":"東久留米駅前第４駐輪場","province":"東京都","city":"東久留米市","address":"東京都東久留米市東本町5","lat":35.76224161,"lon":139.53360501},{"name":"市立臨時西第２自転車駐車場","province":"東京都","city":"東久留米市","address":"東京都東久留米市本町1丁目8-1","lat":35.7578366,"lon":139.53545501},{"name":"東久留米駅西口第１自転車駐車場","province":"東京都","city":"東久留米市","address":"東京都東久留米市本町1丁目3","lat":35.76054178,"lon":139.53217741},{"name":"東久留米駅西口第２自転車駐車場","province":"東京都","city":"東久留米市","address":"東京都東久留米市本町1丁目5","lat":35.75972803,"lon":139.53402173},{"name":"＊?東久留米市立生涯学習センター","province":"東京都","city":"東久留米市","address":"東久留米市中央町2-6-23","lat":35.755517,"lon":139.522346},{"name":"東久留米市わくわく健康プラザ（健康課）","province":"東京都","city":"東久留米市","address":"東京都東久留米市滝山4丁目3-14","lat":35.74228769,"lon":139.5044833},{"name":"東久留米市本庁舎","province":"東京都","city":"東久留米市","address":"東京都東久留米市本町3丁目3-1","lat":35.75799202,"lon":139.52967216},{"name":"東久留米市立久留米中学校","province":"東京都","city":"東久留米市","address":"東京都東久留米市幸町5丁目9-11","lat":35.761708,"lon":139.51692595},{"name":"東久留米市立大門中学校","province":"東京都","city":"東久留米市","address":"東京都東久留米市大門町2丁目13-8","lat":35.7628556,"lon":139.54363203},{"name":"東久留米消防署","province":"東京都","city":"東久留米市","address":"東久留米市幸町3-4-34","lat":35.75756,"lon":139.5217},{"name":"柳泉園クリーンポート","province":"東京都","city":"東久留米市","address":"東久留米市下里4-3-10","lat":35.75476,"lon":139.4945},{"name":"※東久留米市本庁舎","province":"東京都","city":"東久留米市","address":"東京都東久留米市本町3丁目3-1","lat":35.75799202,"lon":139.52967216},{"name":"市立東第２自転車等駐車場","province":"東京都","city":"東久留米市","address":"東京都東久留米市東本町14","lat":35.7627277,"lon":139.53515209},{"name":"日生サイクルプラザ東久留米第２","province":"東京都","city":"東久留米市","address":"東京都東久留米市新川町1丁目4","lat":35.7612862,"lon":139.5350827},{"name":"日生サイクルプラザ東久留米第１","province":"東京都","city":"東久留米市","address":"東京都東久留米市新川町1丁目3","lat":35.76013078,"lon":139.53539661},{"name":"市立西第９自転車駐車場","province":"東京都","city":"東久留米市","address":"東京都東久留米市本町1丁目5","lat":35.75972803,"lon":139.53402173},{"name":"市立西第１０一時利用自転車駐車場","province":"東京都","city":"東久留米市","address":"東京都東久留米市本町1丁目4","lat":35.75914751,"lon":139.53259409},{"name":"東久留米駅前駐輪場","province":"東京都","city":"東久留米市","address":"東京都東久留米市東本町1-15","lat":35.76086678,"lon":139.53414668},{"name":"東久留米駅前第２駐輪場","province":"東京都","city":"東久留米市","address":"東京都東久留米市東本町1-15","lat":35.76086678,"lon":139.53414668},{"name":"東久留米駅前第３駐輪場","province":"東京都","city":"東久留米市","address":"東京都東久留米市本町1丁目3-28","lat":35.75994184,"lon":139.53205522},{"name":"東久留米駅西口第１自転車駐車場","province":"東京都","city":"東久留米市","address":"東京都東久留米市新川町1丁目3","lat":35.76013078,"lon":139.53539661},{"name":"東久留米駅西口第２自転車駐車場","province":"東京都","city":"東久留米市","address":"東京都東久留米市新川町1丁目3","lat":35.76013078,"lon":139.53539661},{"name":"東久留米駅西口第３自転車駐車場","province":"東京都","city":"東久留米市","address":"東京都東久留米市本町1丁目14","lat":35.75794212,"lon":139.53427455},{"name":"東久留米駅東口自転車駐車場","province":"東京都","city":"東久留米市","address":"東京都東久留米市新川町1丁目3","lat":35.76013078,"lon":139.53539661},{"name":"東久留米駅北口自転車駐車場","province":"東京都","city":"東久留米市","address":"東京都東久留米市東本町1-6","lat":35.76136949,"lon":139.53344116},{"name":"サイクルスペース２４東久留米駐輪場","province":"東京都","city":"東久留米市","address":"東京都東久留米市新川町1丁目9","lat":35.76161952,"lon":139.53686034},{"name":"市立西第１０原付自転車駐車場","province":"東京都","city":"東久留米市","address":"東京都東久留米市本町1丁目4","lat":35.75914751,"lon":139.53259409},{"name":"リバーウエストビルズ駐輪場","province":"東京都","city":"東久留米市","address":"東京都東久留米市本町1丁目5","lat":35.75972803,"lon":139.53402173},{"name":"東久留米駅前第４駐輪場","province":"東京都","city":"東久留米市","address":"東京都東久留米市東本町5","lat":35.76224161,"lon":139.53360501},{"name":"市立臨時西第２自転車駐車場","province":"東京都","city":"東久留米市","address":"東京都東久留米市本町1丁目8-1","lat":35.7578366,"lon":139.53545501},{"name":"東久留米駅西口第１自転車駐車場","province":"東京都","city":"東久留米市","address":"東京都東久留米市本町1丁目3","lat":35.76054178,"lon":139.53217741},{"name":"東久留米駅西口第２自転車駐車場","province":"東京都","city":"東久留米市","address":"東京都東久留米市本町1丁目5","lat":35.75972803,"lon":139.53402173},{"name":"＊?東久留米市立生涯学習センター","province":"東京都","city":"東久留米市","address":"東久留米市中央町2-6-23","lat":35.755517,"lon":139.522346},{"name":"東久留米市わくわく健康プラザ（健康課）","province":"東京都","city":"東久留米市","address":"東京都東久留米市滝山4丁目3-14","lat":35.74228769,"lon":139.5044833},{"name":"東久留米市本庁舎","province":"東京都","city":"東久留米市","address":"東京都東久留米市本町3丁目3-1","lat":35.75799202,"lon":139.52967216},{"name":"東久留米市立久留米中学校","province":"東京都","city":"東久留米市","address":"東京都東久留米市幸町5丁目9-11","lat":35.761708,"lon":139.51692595},{"name":"東久留米市立大門中学校","province":"東京都","city":"東久留米市","address":"東京都東久留米市大門町2丁目13-8","lat":35.7628556,"lon":139.54363203},{"name":"東久留米消防署","province":"東京都","city":"東久留米市","address":"東久留米市幸町3-4-34","lat":35.75756,"lon":139.5217},{"name":"柳泉園クリーンポート","province":"東京都","city":"東久留米市","address":"東久留米市下里4-3-10","lat":35.75476,"lon":139.4945},{"name":"※東久留米市本庁舎","province":"東京都","city":"東久留米市","address":"東京都東久留米市本町3丁目3-1","lat":35.75799202,"lon":139.52967216},{"name":"市立東第２自転車等駐車場","province":"東京都","city":"東久留米市","address":"東京都東久留米市東本町14","lat":35.7627277,"lon":139.53515209},{"name":"日生サイクルプラザ東久留米第２","province":"東京都","city":"東久留米市","address":"東京都東久留米市新川町1丁目4","lat":35.7612862,"lon":139.5350827},{"name":"日生サイクルプラザ東久留米第１","province":"東京都","city":"東久留米市","address":"東京都東久留米市新川町1丁目3","lat":35.76013078,"lon":139.53539661},{"name":"市立西第９自転車駐車場","province":"東京都","city":"東久留米市","address":"東京都東久留米市本町1丁目5","lat":35.75972803,"lon":139.53402173},{"name":"市立西第１０一時利用自転車駐車場","province":"東京都","city":"東久留米市","address":"東京都東久留米市本町1丁目4","lat":35.75914751,"lon":139.53259409},{"name":"東久留米駅前駐輪場","province":"東京都","city":"東久留米市","address":"東京都東久留米市東本町1-15","lat":35.76086678,"lon":139.53414668},{"name":"東久留米駅前第２駐輪場","province":"東京都","city":"東久留米市","address":"東京都東久留米市東本町1-15","lat":35.76086678,"lon":139.53414668},{"name":"東久留米駅前第３駐輪場","province":"東京都","city":"東久留米市","address":"東京都東久留米市本町1丁目3-28","lat":35.75994184,"lon":139.53205522},{"name":"東久留米駅西口第１自転車駐車場","province":"東京都","city":"東久留米市","address":"東京都東久留米市新川町1丁目3","lat":35.76013078,"lon":139.53539661},{"name":"東久留米駅西口第２自転車駐車場","province":"東京都","city":"東久留米市","address":"東京都東久留米市新川町1丁目3","lat":35.76013078,"lon":139.53539661},{"name":"東久留米駅西口第３自転車駐車場","province":"東京都","city":"東久留米市","address":"東京都東久留米市本町1丁目14","lat":35.75794212,"lon":139.53427455},{"name":"東久留米駅東口自転車駐車場","province":"東京都","city":"東久留米市","address":"東京都東久留米市新川町1丁目3","lat":35.76013078,"lon":139.53539661},{"name":"東久留米駅北口自転車駐車場","province":"東京都","city":"東久留米市","address":"東京都東久留米市東本町1-6","lat":35.76136949,"lon":139.53344116},{"name":"サイクルスペース２４東久留米駐輪場","province":"東京都","city":"東久留米市","address":"東京都東久留米市新川町1丁目9","lat":35.76161952,"lon":139.53686034},{"name":"市立西第１０原付自転車駐車場","province":"東京都","city":"東久留米市","address":"東京都東久留米市本町1丁目4","lat":35.75914751,"lon":139.53259409},{"name":"リバーウエストビルズ駐輪場","province":"東京都","city":"東久留米市","address":"東京都東久留米市本町1丁目5","lat":35.75972803,"lon":139.53402173},{"name":"東久留米駅前第４駐輪場","province":"東京都","city":"東久留米市","address":"東京都東久留米市東本町5","lat":35.76224161,"lon":139.53360501},{"name":"市立臨時西第２自転車駐車場","province":"東京都","city":"東久留米市","address":"東京都東久留米市本町1丁目8-1","lat":35.7578366,"lon":139.53545501},{"name":"東久留米駅西口第１自転車駐車場","province":"東京都","city":"東久留米市","address":"東京都東久留米市本町1丁目3","lat":35.76054178,"lon":139.53217741},{"name":"東久留米駅西口第２自転車駐車場","province":"東京都","city":"東久留米市","address":"東京都東久留米市本町1丁目5","lat":35.75972803,"lon":139.53402173},{"name":"＊?東久留米市立生涯学習センター","province":"東京都","city":"東久留米市","address":"東久留米市中央町2-6-23","lat":35.755517,"lon":139.522346},{"name":"東久留米市本庁舎","province":"東京都","city":"東久留米市","address":"東京都東久留米市本町3丁目3-1","lat":35.75799202,"lon":139.52967216},{"name":"東久留米市立久留米中学校","province":"東京都","city":"東久留米市","address":"東京都東久留米市幸町5丁目9-11","lat":35.761708,"lon":139.51692595},{"name":"東久留米市立大門中学校","province":"東京都","city":"東久留米市","address":"東京都東久留米市大門町2丁目13-8","lat":35.7628556,"lon":139.54363203},{"name":"※東久留米市本庁舎","province":"東京都","city":"東久留米市","address":"東京都東久留米市本町3丁目3-1","lat":35.75799202,"lon":139.52967216},{"name":"市立東第２自転車等駐車場","province":"東京都","city":"東久留米市","address":"東京都東久留米市東本町14","lat":35.7627277,"lon":139.53515209},{"name":"日生サイクルプラザ東久留米第２","province":"東京都","city":"東久留米市","address":"東京都東久留米市新川町1丁目4","lat":35.7612862,"lon":139.5350827},{"name":"日生サイクルプラザ東久留米第１","province":"東京都","city":"東久留米市","address":"東京都東久留米市新川町1丁目3","lat":35.76013078,"lon":139.53539661},{"name":"市立西第９自転車駐車場","province":"東京都","city":"東久留米市","address":"東京都東久留米市本町1丁目5","lat":35.75972803,"lon":139.53402173},{"name":"市立西第１０一時利用自転車駐車場","province":"東京都","city":"東久留米市","address":"東京都東久留米市本町1丁目4","lat":35.75914751,"lon":139.53259409},{"name":"東久留米駅前駐輪場","province":"東京都","city":"東久留米市","address":"東京都東久留米市東本町1-15","lat":35.76086678,"lon":139.53414668},{"name":"東久留米駅前第２駐輪場","province":"東京都","city":"東久留米市","address":"東京都東久留米市東本町1-15","lat":35.76086678,"lon":139.53414668},{"name":"東久留米駅前第３駐輪場","province":"東京都","city":"東久留米市","address":"東京都東久留米市本町1丁目3-28","lat":35.75994184,"lon":139.53205522},{"name":"東久留米駅西口第１自転車駐車場","province":"東京都","city":"東久留米市","address":"東京都東久留米市新川町1丁目3","lat":35.76013078,"lon":139.53539661},{"name":"東久留米駅西口第２自転車駐車場","province":"東京都","city":"東久留米市","address":"東京都東久留米市新川町1丁目3","lat":35.76013078,"lon":139.53539661},{"name":"東久留米駅西口第３自転車駐車場","province":"東京都","city":"東久留米市","address":"東京都東久留米市本町1丁目14","lat":35.75794212,"lon":139.53427455},{"name":"東久留米駅東口自転車駐車場","province":"東京都","city":"東久留米市","address":"東京都東久留米市新川町1丁目3","lat":35.76013078,"lon":139.53539661},{"name":"東久留米駅北口自転車駐車場","province":"東京都","city":"東久留米市","address":"東京都東久留米市東本町1-6","lat":35.76136949,"lon":139.53344116},{"name":"サイクルスペース２４東久留米駐輪場","province":"東京都","city":"東久留米市","address":"東京都東久留米市新川町1丁目9","lat":35.76161952,"lon":139.53686034},{"name":"市立西第１０原付自転車駐車場","province":"東京都","city":"東久留米市","address":"東京都東久留米市本町1丁目4","lat":35.75914751,"lon":139.53259409},{"name":"リバーウエストビルズ駐輪場","province":"東京都","city":"東久留米市","address":"東京都東久留米市本町1丁目5","lat":35.75972803,"lon":139.53402173},{"name":"東久留米駅前第４駐輪場","province":"東京都","city":"東久留米市","address":"東京都東久留米市東本町5","lat":35.76224161,"lon":139.53360501},{"name":"市立臨時西第２自転車駐車場","province":"東京都","city":"東久留米市","address":"東京都東久留米市本町1丁目8-1","lat":35.7578366,"lon":139.53545501},{"name":"東久留米駅西口第１自転車駐車場","province":"東京都","city":"東久留米市","address":"東京都東久留米市本町1丁目3","lat":35.76054178,"lon":139.53217741},{"name":"東久留米駅西口第２自転車駐車場","province":"東京都","city":"東久留米市","address":"東京都東久留米市本町1丁目5","lat":35.75972803,"lon":139.53402173},{"name":"＊?東久留米市立生涯学習センター","province":"東京都","city":"東久留米市","address":"東久留米市中央町2-6-23","lat":35.755517,"lon":139.522346},{"name":"東久留米市本庁舎","province":"東京都","city":"東久留米市","address":"東京都東久留米市本町3丁目3-1","lat":35.75799202,"lon":139.52967216},{"name":"東久留米市立久留米中学校","province":"東京都","city":"東久留米市","address":"東京都東久留米市幸町5丁目9-11","lat":35.761708,"lon":139.51692595},{"name":"東久留米市立大門中学校","province":"東京都","city":"東久留米市","address":"東京都東久留米市大門町2丁目13-8","lat":35.7628556,"lon":139.54363203},{"name":"※東久留米市本庁舎","province":"東京都","city":"東久留米市","address":"東京都東久留米市本町3丁目3-1","lat":35.75799202,"lon":139.52967216},{"name":"市立東第２自転車等駐車場","province":"東京都","city":"東久留米市","address":"東京都東久留米市東本町14","lat":35.7627277,"lon":139.53515209},{"name":"日生サイクルプラザ東久留米第２","province":"東京都","city":"東久留米市","address":"東京都東久留米市新川町1丁目4","lat":35.7612862,"lon":139.5350827},{"name":"日生サイクルプラザ東久留米第１","province":"東京都","city":"東久留米市","address":"東京都東久留米市新川町1丁目3","lat":35.76013078,"lon":139.53539661},{"name":"市立西第９自転車駐車場","province":"東京都","city":"東久留米市","address":"東京都東久留米市本町1丁目5","lat":35.75972803,"lon":139.53402173},{"name":"市立西第１０一時利用自転車駐車場","province":"東京都","city":"東久留米市","address":"東京都東久留米市本町1丁目4","lat":35.75914751,"lon":139.53259409},{"name":"東久留米駅前駐輪場","province":"東京都","city":"東久留米市","address":"東京都東久留米市東本町1-15","lat":35.76086678,"lon":139.53414668},{"name":"東久留米駅前第２駐輪場","province":"東京都","city":"東久留米市","address":"東京都東久留米市東本町1-15","lat":35.76086678,"lon":139.53414668},{"name":"東久留米駅前第３駐輪場","province":"東京都","city":"東久留米市","address":"東京都東久留米市本町1丁目3-28","lat":35.75994184,"lon":139.53205522},{"name":"東久留米駅西口第１自転車駐車場","province":"東京都","city":"東久留米市","address":"東京都東久留米市新川町1丁目3","lat":35.76013078,"lon":139.53539661},{"name":"東久留米駅西口第２自転車駐車場","province":"東京都","city":"東久留米市","address":"東京都東久留米市新川町1丁目3","lat":35.76013078,"lon":139.53539661},{"name":"東久留米駅西口第３自転車駐車場","province":"東京都","city":"東久留米市","address":"東京都東久留米市本町1丁目14","lat":35.75794212,"lon":139.53427455},{"name":"東久留米駅東口自転車駐車場","province":"東京都","city":"東久留米市","address":"東京都東久留米市新川町1丁目3","lat":35.76013078,"lon":139.53539661},{"name":"東久留米駅北口自転車駐車場","province":"東京都","city":"東久留米市","address":"東京都東久留米市東本町1-6","lat":35.76136949,"lon":139.53344116},{"name":"サイクルスペース２４東久留米駐輪場","province":"東京都","city":"東久留米市","address":"東京都東久留米市新川町1丁目9","lat":35.76161952,"lon":139.53686034},{"name":"市立西第１０原付自転車駐車場","province":"東京都","city":"東久留米市","address":"東京都東久留米市本町1丁目4","lat":35.75914751,"lon":139.53259409},{"name":"リバーウエストビルズ駐輪場","province":"東京都","city":"東久留米市","address":"東京都東久留米市本町1丁目5","lat":35.75972803,"lon":139.53402173},{"name":"東久留米駅前第４駐輪場","province":"東京都","city":"東久留米市","address":"東京都東久留米市東本町5","lat":35.76224161,"lon":139.53360501},{"name":"市立臨時西第２自転車駐車場","province":"東京都","city":"東久留米市","address":"東京都東久留米市本町1丁目8-1","lat":35.7578366,"lon":139.53545501},{"name":"東久留米駅西口第１自転車駐車場","province":"東京都","city":"東久留米市","address":"東京都東久留米市本町1丁目3","lat":35.76054178,"lon":139.53217741},{"name":"東久留米駅西口第２自転車駐車場","province":"東京都","city":"東久留米市","address":"東京都東久留米市本町1丁目5","lat":35.75972803,"lon":139.53402173},{"name":"＊?東久留米市立生涯学習センター","province":"東京都","city":"東久留米市","address":"東久留米市中央町2-6-23","lat":35.755517,"lon":139.522346},{"name":"東久留米市本庁舎","province":"東京都","city":"東久留米市","address":"東京都東久留米市本町3丁目3-1","lat":35.75799202,"lon":139.52967216},{"name":"東久留米市立久留米中学校","province":"東京都","city":"東久留米市","address":"東京都東久留米市幸町5丁目9-11","lat":35.761708,"lon":139.51692595},{"name":"東久留米市立大門中学校","province":"東京都","city":"東久留米市","address":"東京都東久留米市大門町2丁目13-8","lat":35.7628556,"lon":139.54363203},{"name":"※東久留米市本庁舎","province":"東京都","city":"東久留米市","address":"東京都東久留米市本町3丁目3-1","lat":35.75799202,"lon":139.52967216},{"name":"市立東第２自転車等駐車場","province":"東京都","city":"東久留米市","address":"東京都東久留米市東本町14","lat":35.7627277,"lon":139.53515209},{"name":"日生サイクルプラザ東久留米第２","province":"東京都","city":"東久留米市","address":"東京都東久留米市新川町1丁目4","lat":35.7612862,"lon":139.5350827},{"name":"日生サイクルプラザ東久留米第１","province":"東京都","city":"東久留米市","address":"東京都東久留米市新川町1丁目3","lat":35.76013078,"lon":139.53539661},{"name":"市立西第９自転車駐車場","province":"東京都","city":"東久留米市","address":"東京都東久留米市本町1丁目5","lat":35.75972803,"lon":139.53402173},{"name":"市立西第１０一時利用自転車駐車場","province":"東京都","city":"東久留米市","address":"東京都東久留米市本町1丁目4","lat":35.75914751,"lon":139.53259409},{"name":"東久留米駅前駐輪場","province":"東京都","city":"東久留米市","address":"東京都東久留米市東本町1-15","lat":35.76086678,"lon":139.53414668},{"name":"東久留米駅前第２駐輪場","province":"東京都","city":"東久留米市","address":"東京都東久留米市東本町1-15","lat":35.76086678,"lon":139.53414668},{"name":"東久留米駅前第３駐輪場","province":"東京都","city":"東久留米市","address":"東京都東久留米市本町1丁目3-28","lat":35.75994184,"lon":139.53205522},{"name":"東久留米駅西口第１自転車駐車場","province":"東京都","city":"東久留米市","address":"東京都東久留米市新川町1丁目3","lat":35.76013078,"lon":139.53539661},{"name":"東久留米駅西口第２自転車駐車場","province":"東京都","city":"東久留米市","address":"東京都東久留米市新川町1丁目3","lat":35.76013078,"lon":139.53539661},{"name":"東久留米駅西口第３自転車駐車場","province":"東京都","city":"東久留米市","address":"東京都東久留米市本町1丁目14","lat":35.75794212,"lon":139.53427455},{"name":"東久留米駅東口自転車駐車場","province":"東京都","city":"東久留米市","address":"東京都東久留米市新川町1丁目3","lat":35.76013078,"lon":139.53539661},{"name":"東久留米駅北口自転車駐車場","province":"東京都","city":"東久留米市","address":"東京都東久留米市東本町1-6","lat":35.76136949,"lon":139.53344116},{"name":"サイクルスペース２４東久留米駐輪場","province":"東京都","city":"東久留米市","address":"東京都東久留米市新川町1丁目9","lat":35.76161952,"lon":139.53686034},{"name":"市立西第１０原付自転車駐車場","province":"東京都","city":"東久留米市","address":"東京都東久留米市本町1丁目4","lat":35.75914751,"lon":139.53259409},{"name":"リバーウエストビルズ駐輪場","province":"東京都","city":"東久留米市","address":"東京都東久留米市本町1丁目5","lat":35.75972803,"lon":139.53402173},{"name":"東久留米駅前第４駐輪場","province":"東京都","city":"東久留米市","address":"東京都東久留米市東本町5","lat":35.76224161,"lon":139.53360501},{"name":"市立臨時西第２自転車駐車場","province":"東京都","city":"東久留米市","address":"東京都東久留米市本町1丁目8-1","lat":35.7578366,"lon":139.53545501},{"name":"東久留米駅西口第１自転車駐車場","province":"東京都","city":"東久留米市","address":"東京都東久留米市本町1丁目3","lat":35.76054178,"lon":139.53217741},{"name":"東久留米駅西口第２自転車駐車場","province":"東京都","city":"東久留米市","address":"東京都東久留米市本町1丁目5","lat":35.75972803,"lon":139.53402173},{"name":"＊?東久留米市立生涯学習センター","province":"東京都","city":"東久留米市","address":"東久留米市中央町2-6-23","lat":35.755517,"lon":139.522346},{"name":"東久留米市本庁舎","province":"東京都","city":"東久留米市","address":"東京都東久留米市本町3丁目3-1","lat":35.75799202,"lon":139.52967216},{"name":"東久留米市立久留米中学校","province":"東京都","city":"東久留米市","address":"東京都東久留米市幸町5丁目9-11","lat":35.761708,"lon":139.51692595},{"name":"東久留米市立大門中学校","province":"東京都","city":"東久留米市","address":"東京都東久留米市大門町2丁目13-8","lat":35.7628556,"lon":139.54363203},{"name":"※東久留米市本庁舎","province":"東京都","city":"東久留米市","address":"東京都東久留米市本町3丁目3-1","lat":35.75799202,"lon":139.52967216},{"name":"市立東第２自転車等駐車場","province":"東京都","city":"東久留米市","address":"東京都東久留米市東本町14","lat":35.7627277,"lon":139.53515209},{"name":"日生サイクルプラザ東久留米第２","province":"東京都","city":"東久留米市","address":"東京都東久留米市新川町1丁目4","lat":35.7612862,"lon":139.5350827},{"name":"日生サイクルプラザ東久留米第１","province":"東京都","city":"東久留米市","address":"東京都東久留米市新川町1丁目3","lat":35.76013078,"lon":139.53539661},{"name":"市立西第９自転車駐車場","province":"東京都","city":"東久留米市","address":"東京都東久留米市本町1丁目5","lat":35.75972803,"lon":139.53402173},{"name":"市立西第１０一時利用自転車駐車場","province":"東京都","city":"東久留米市","address":"東京都東久留米市本町1丁目4","lat":35.75914751,"lon":139.53259409},{"name":"東久留米駅前駐輪場","province":"東京都","city":"東久留米市","address":"東京都東久留米市東本町1-15","lat":35.76086678,"lon":139.53414668},{"name":"東久留米駅前第２駐輪場","province":"東京都","city":"東久留米市","address":"東京都東久留米市東本町1-15","lat":35.76086678,"lon":139.53414668},{"name":"東久留米駅前第３駐輪場","province":"東京都","city":"東久留米市","address":"東京都東久留米市本町1丁目3-28","lat":35.75994184,"lon":139.53205522},{"name":"東久留米駅西口第１自転車駐車場","province":"東京都","city":"東久留米市","address":"東京都東久留米市新川町1丁目3","lat":35.76013078,"lon":139.53539661},{"name":"東久留米駅西口第２自転車駐車場","province":"東京都","city":"東久留米市","address":"東京都東久留米市新川町1丁目3","lat":35.76013078,"lon":139.53539661},{"name":"東久留米駅西口第３自転車駐車場","province":"東京都","city":"東久留米市","address":"東京都東久留米市本町1丁目14","lat":35.75794212,"lon":139.53427455},{"name":"東久留米駅東口自転車駐車場","province":"東京都","city":"東久留米市","address":"東京都東久留米市新川町1丁目3","lat":35.76013078,"lon":139.53539661},{"name":"東久留米駅北口自転車駐車場","province":"東京都","city":"東久留米市","address":"東京都東久留米市東本町1-6","lat":35.76136949,"lon":139.53344116},{"name":"サイクルスペース２４東久留米駐輪場","province":"東京都","city":"東久留米市","address":"東京都東久留米市新川町1丁目9","lat":35.76161952,"lon":139.53686034},{"name":"市立西第１０原付自転車駐車場","province":"東京都","city":"東久留米市","address":"東京都東久留米市本町1丁目4","lat":35.75914751,"lon":139.53259409},{"name":"リバーウエストビルズ駐輪場","province":"東京都","city":"東久留米市","address":"東京都東久留米市本町1丁目5","lat":35.75972803,"lon":139.53402173},{"name":"東久留米駅前第４駐輪場","province":"東京都","city":"東久留米市","address":"東京都東久留米市東本町5","lat":35.76224161,"lon":139.53360501},{"name":"市立臨時西第２自転車駐車場","province":"東京都","city":"東久留米市","address":"東京都東久留米市本町1丁目8-1","lat":35.7578366,"lon":139.53545501},{"name":"東久留米駅西口第１自転車駐車場","province":"東京都","city":"東久留米市","address":"東京都東久留米市本町1丁目3","lat":35.76054178,"lon":139.53217741},{"name":"東久留米駅西口第２自転車駐車場","province":"東京都","city":"東久留米市","address":"東京都東久留米市本町1丁目5","lat":35.75972803,"lon":139.53402173},{"name":"＊?東久留米市立生涯学習センター","province":"東京都","city":"東久留米市","address":"東久留米市中央町2-6-23","lat":35.755517,"lon":139.522346},{"name":"東久留米市本庁舎","province":"東京都","city":"東久留米市","address":"東京都東久留米市本町3丁目3-1","lat":35.75799202,"lon":139.52967216},{"name":"東久留米市立久留米中学校","province":"東京都","city":"東久留米市","address":"東京都東久留米市幸町5丁目9-11","lat":35.761708,"lon":139.51692595},{"name":"東久留米市立大門中学校","province":"東京都","city":"東久留米市","address":"東京都東久留米市大門町2丁目13-8","lat":35.7628556,"lon":139.54363203},{"name":"※東久留米市本庁舎","province":"東京都","city":"東久留米市","address":"東京都東久留米市本町3丁目3-1","lat":35.75799202,"lon":139.52967216},{"name":"市立東第２自転車等駐車場","province":"東京都","city":"東久留米市","address":"東京都東久留米市東本町14","lat":35.7627277,"lon":139.53515209},{"name":"日生サイクルプラザ東久留米第２","province":"東京都","city":"東久留米市","address":"東京都東久留米市新川町1丁目4","lat":35.7612862,"lon":139.5350827},{"name":"日生サイクルプラザ東久留米第１","province":"東京都","city":"東久留米市","address":"東京都東久留米市新川町1丁目3","lat":35.76013078,"lon":139.53539661},{"name":"市立西第９自転車駐車場","province":"東京都","city":"東久留米市","address":"東京都東久留米市本町1丁目5","lat":35.75972803,"lon":139.53402173},{"name":"市立西第１０一時利用自転車駐車場","province":"東京都","city":"東久留米市","address":"東京都東久留米市本町1丁目4","lat":35.75914751,"lon":139.53259409},{"name":"東久留米駅前駐輪場","province":"東京都","city":"東久留米市","address":"東京都東久留米市東本町1-15","lat":35.76086678,"lon":139.53414668},{"name":"東久留米駅前第２駐輪場","province":"東京都","city":"東久留米市","address":"東京都東久留米市東本町1-15","lat":35.76086678,"lon":139.53414668},{"name":"東久留米駅前第３駐輪場","province":"東京都","city":"東久留米市","address":"東京都東久留米市本町1丁目3-28","lat":35.75994184,"lon":139.53205522},{"name":"東久留米駅西口第１自転車駐車場","province":"東京都","city":"東久留米市","address":"東京都東久留米市新川町1丁目3","lat":35.76013078,"lon":139.53539661},{"name":"東久留米駅西口第２自転車駐車場","province":"東京都","city":"東久留米市","address":"東京都東久留米市新川町1丁目3","lat":35.76013078,"lon":139.53539661},{"name":"東久留米駅西口第３自転車駐車場","province":"東京都","city":"東久留米市","address":"東京都東久留米市本町1丁目14","lat":35.75794212,"lon":139.53427455},{"name":"東久留米駅東口自転車駐車場","province":"東京都","city":"東久留米市","address":"東京都東久留米市新川町1丁目3","lat":35.76013078,"lon":139.53539661},{"name":"東久留米駅北口自転車駐車場","province":"東京都","city":"東久留米市","address":"東京都東久留米市東本町1-6","lat":35.76136949,"lon":139.53344116},{"name":"サイクルスペース２４東久留米駐輪場","province":"東京都","city":"東久留米市","address":"東京都東久留米市新川町1丁目9","lat":35.76161952,"lon":139.53686034},{"name":"市立西第１０原付自転車駐車場","province":"東京都","city":"東久留米市","address":"東京都東久留米市本町1丁目4","lat":35.75914751,"lon":139.53259409},{"name":"リバーウエストビルズ駐輪場","province":"東京都","city":"東久留米市","address":"東京都東久留米市本町1丁目5","lat":35.75972803,"lon":139.53402173},{"name":"東久留米駅前第４駐輪場","province":"東京都","city":"東久留米市","address":"東京都東久留米市東本町5","lat":35.76224161,"lon":139.53360501},{"name":"市立臨時西第２自転車駐車場","province":"東京都","city":"東久留米市","address":"東京都東久留米市本町1丁目8-1","lat":35.7578366,"lon":139.53545501},{"name":"東久留米駅西口第１自転車駐車場","province":"東京都","city":"東久留米市","address":"東京都東久留米市本町1丁目3","lat":35.76054178,"lon":139.53217741},{"name":"東久留米駅西口第２自転車駐車場","province":"東京都","city":"東久留米市","address":"東京都東久留米市本町1丁目5","lat":35.75972803,"lon":139.53402173},{"name":"＊?東久留米市立生涯学習センター","province":"東京都","city":"東久留米市","address":"東久留米市中央町2-6-23","lat":35.755517,"lon":139.522346},{"name":"東久留米市本庁舎","province":"東京都","city":"東久留米市","address":"東京都東久留米市本町3丁目3-1","lat":35.75799202,"lon":139.52967216},{"name":"東久留米市立久留米中学校","province":"東京都","city":"東久留米市","address":"東京都東久留米市幸町5丁目9-11","lat":35.761708,"lon":139.51692595},{"name":"東久留米市立大門中学校","province":"東京都","city":"東久留米市","address":"東京都東久留米市大門町2丁目13-8","lat":35.7628556,"lon":139.54363203},{"name":"※東久留米市本庁舎","province":"東京都","city":"東久留米市","address":"東京都東久留米市本町3丁目3-1","lat":35.75799202,"lon":139.52967216},{"name":"市立東第２自転車等駐車場","province":"東京都","city":"東久留米市","address":"東京都東久留米市東本町14","lat":35.7627277,"lon":139.53515209},{"name":"日生サイクルプラザ東久留米第２","province":"東京都","city":"東久留米市","address":"東京都東久留米市新川町1丁目4","lat":35.7612862,"lon":139.5350827},{"name":"日生サイクルプラザ東久留米第１","province":"東京都","city":"東久留米市","address":"東京都東久留米市新川町1丁目3","lat":35.76013078,"lon":139.53539661},{"name":"市立西第９自転車駐車場","province":"東京都","city":"東久留米市","address":"東京都東久留米市本町1丁目5","lat":35.75972803,"lon":139.53402173},{"name":"市立西第１０一時利用自転車駐車場","province":"東京都","city":"東久留米市","address":"東京都東久留米市本町1丁目4","lat":35.75914751,"lon":139.53259409},{"name":"東久留米駅前駐輪場","province":"東京都","city":"東久留米市","address":"東京都東久留米市東本町1-15","lat":35.76086678,"lon":139.53414668},{"name":"東久留米駅前第２駐輪場","province":"東京都","city":"東久留米市","address":"東京都東久留米市東本町1-15","lat":35.76086678,"lon":139.53414668},{"name":"東久留米駅前第３駐輪場","province":"東京都","city":"東久留米市","address":"東京都東久留米市本町1丁目3-28","lat":35.75994184,"lon":139.53205522},{"name":"東久留米駅西口第１自転車駐車場","province":"東京都","city":"東久留米市","address":"東京都東久留米市新川町1丁目3","lat":35.76013078,"lon":139.53539661},{"name":"東久留米駅西口第２自転車駐車場","province":"東京都","city":"東久留米市","address":"東京都東久留米市新川町1丁目3","lat":35.76013078,"lon":139.53539661},{"name":"東久留米駅西口第３自転車駐車場","province":"東京都","city":"東久留米市","address":"東京都東久留米市本町1丁目14","lat":35.75794212,"lon":139.53427455},{"name":"東久留米駅東口自転車駐車場","province":"東京都","city":"東久留米市","address":"東京都東久留米市新川町1丁目3","lat":35.76013078,"lon":139.53539661},{"name":"東久留米駅北口自転車駐車場","province":"東京都","city":"東久留米市","address":"東京都東久留米市東本町1-6","lat":35.76136949,"lon":139.53344116},{"name":"サイクルスペース２４東久留米駐輪場","province":"東京都","city":"東久留米市","address":"東京都東久留米市新川町1丁目9","lat":35.76161952,"lon":139.53686034},{"name":"市立西第１０原付自転車駐車場","province":"東京都","city":"東久留米市","address":"東京都東久留米市本町1丁目4","lat":35.75914751,"lon":139.53259409},{"name":"リバーウエストビルズ駐輪場","province":"東京都","city":"東久留米市","address":"東京都東久留米市本町1丁目5","lat":35.75972803,"lon":139.53402173},{"name":"東久留米駅前第４駐輪場","province":"東京都","city":"東久留米市","address":"東京都東久留米市東本町5","lat":35.76224161,"lon":139.53360501},{"name":"市立臨時西第２自転車駐車場","province":"東京都","city":"東久留米市","address":"東京都東久留米市本町1丁目8-1","lat":35.7578366,"lon":139.53545501},{"name":"東久留米駅西口第１自転車駐車場","province":"東京都","city":"東久留米市","address":"東京都東久留米市本町1丁目3","lat":35.76054178,"lon":139.53217741},{"name":"東久留米駅西口第２自転車駐車場","province":"東京都","city":"東久留米市","address":"東京都東久留米市本町1丁目5","lat":35.75972803,"lon":139.53402173},{"name":"＊?東久留米市立生涯学習センター","province":"東京都","city":"東久留米市","address":"東久留米市中央町2-6-23","lat":35.755517,"lon":139.522346},{"name":"東久留米市本庁舎","province":"東京都","city":"東久留米市","address":"東京都東久留米市本町3丁目3-1","lat":35.75799202,"lon":139.52967216},{"name":"東久留米市立久留米中学校","province":"東京都","city":"東久留米市","address":"東京都東久留米市幸町5丁目9-11","lat":35.761708,"lon":139.51692595},{"name":"東久留米市立大門中学校","province":"東京都","city":"東久留米市","address":"東京都東久留米市大門町2丁目13-8","lat":35.7628556,"lon":139.54363203},{"name":"※東久留米市本庁舎","province":"東京都","city":"東久留米市","address":"東京都東久留米市本町3丁目3-1","lat":35.75799202,"lon":139.52967216},{"name":"市立東第２自転車等駐車場","province":"東京都","city":"東久留米市","address":"東京都東久留米市東本町14","lat":35.7627277,"lon":139.53515209},{"name":"日生サイクルプラザ東久留米第２","province":"東京都","city":"東久留米市","address":"東京都東久留米市新川町1丁目4","lat":35.7612862,"lon":139.5350827},{"name":"日生サイクルプラザ東久留米第１","province":"東京都","city":"東久留米市","address":"東京都東久留米市新川町1丁目3","lat":35.76013078,"lon":139.53539661},{"name":"市立西第９自転車駐車場","province":"東京都","city":"東久留米市","address":"東京都東久留米市本町1丁目5","lat":35.75972803,"lon":139.53402173},{"name":"市立西第１０一時利用自転車駐車場","province":"東京都","city":"東久留米市","address":"東京都東久留米市本町1丁目4","lat":35.75914751,"lon":139.53259409},{"name":"東久留米駅前駐輪場","province":"東京都","city":"東久留米市","address":"東京都東久留米市東本町1-15","lat":35.76086678,"lon":139.53414668},{"name":"東久留米駅前第２駐輪場","province":"東京都","city":"東久留米市","address":"東京都東久留米市東本町1-15","lat":35.76086678,"lon":139.53414668},{"name":"東久留米駅前第３駐輪場","province":"東京都","city":"東久留米市","address":"東京都東久留米市本町1丁目3-28","lat":35.75994184,"lon":139.53205522},{"name":"東久留米駅西口第１自転車駐車場","province":"東京都","city":"東久留米市","address":"東京都東久留米市新川町1丁目3","lat":35.76013078,"lon":139.53539661},{"name":"東久留米駅西口第２自転車駐車場","province":"東京都","city":"東久留米市","address":"東京都東久留米市新川町1丁目3","lat":35.76013078,"lon":139.53539661},{"name":"東久留米駅西口第３自転車駐車場","province":"東京都","city":"東久留米市","address":"東京都東久留米市本町1丁目14","lat":35.75794212,"lon":139.53427455},{"name":"東久留米駅東口自転車駐車場","province":"東京都","city":"東久留米市","address":"東京都東久留米市新川町1丁目3","lat":35.76013078,"lon":139.53539661},{"name":"東久留米駅北口自転車駐車場","province":"東京都","city":"東久留米市","address":"東京都東久留米市東本町1-6","lat":35.76136949,"lon":139.53344116},{"name":"サイクルスペース２４東久留米駐輪場","province":"東京都","city":"東久留米市","address":"東京都東久留米市新川町1丁目9","lat":35.76161952,"lon":139.53686034},{"name":"市立西第１０原付自転車駐車場","province":"東京都","city":"東久留米市","address":"東京都東久留米市本町1丁目4","lat":35.75914751,"lon":139.53259409},{"name":"リバーウエストビルズ駐輪場","province":"東京都","city":"東久留米市","address":"東京都東久留米市本町1丁目5","lat":35.75972803,"lon":139.53402173},{"name":"東久留米駅前第４駐輪場","province":"東京都","city":"東久留米市","address":"東京都東久留米市東本町5","lat":35.76224161,"lon":139.53360501},{"name":"市立臨時西第２自転車駐車場","province":"東京都","city":"東久留米市","address":"東京都東久留米市本町1丁目8-1","lat":35.7578366,"lon":139.53545501},{"name":"東久留米駅西口第１自転車駐車場","province":"東京都","city":"東久留米市","address":"東京都東久留米市本町1丁目3","lat":35.76054178,"lon":139.53217741},{"name":"東久留米駅西口第２自転車駐車場","province":"東京都","city":"東久留米市","address":"東京都東久留米市本町1丁目5","lat":35.75972803,"lon":139.53402173},{"name":"＊?東久留米市立生涯学習センター","province":"東京都","city":"東久留米市","address":"東久留米市中央町2-6-23","lat":35.755517,"lon":139.522346},{"name":"東久留米市本庁舎","province":"東京都","city":"東久留米市","address":"東京都東久留米市本町3丁目3-1","lat":35.75799202,"lon":139.52967216},{"name":"東久留米市立久留米中学校","province":"東京都","city":"東久留米市","address":"東京都東久留米市幸町5丁目9-11","lat":35.761708,"lon":139.51692595},{"name":"東久留米市立大門中学校","province":"東京都","city":"東久留米市","address":"東京都東久留米市大門町2丁目13-8","lat":35.7628556,"lon":139.54363203},{"name":"※東久留米市本庁舎","province":"東京都","city":"東久留米市","address":"東京都東久留米市本町3丁目3-1","lat":35.75799202,"lon":139.52967216},{"name":"市立東第２自転車等駐車場","province":"東京都","city":"東久留米市","address":"東京都東久留米市東本町14","lat":35.7627277,"lon":139.53515209},{"name":"日生サイクルプラザ東久留米第２","province":"東京都","city":"東久留米市","address":"東京都東久留米市新川町1丁目4","lat":35.7612862,"lon":139.5350827},{"name":"日生サイクルプラザ東久留米第１","province":"東京都","city":"東久留米市","address":"東京都東久留米市新川町1丁目3","lat":35.76013078,"lon":139.53539661},{"name":"市立西第９自転車駐車場","province":"東京都","city":"東久留米市","address":"東京都東久留米市本町1丁目5","lat":35.75972803,"lon":139.53402173},{"name":"市立西第１０一時利用自転車駐車場","province":"東京都","city":"東久留米市","address":"東京都東久留米市本町1丁目4","lat":35.75914751,"lon":139.53259409},{"name":"東久留米駅前駐輪場","province":"東京都","city":"東久留米市","address":"東京都東久留米市東本町1-15","lat":35.76086678,"lon":139.53414668},{"name":"東久留米駅前第２駐輪場","province":"東京都","city":"東久留米市","address":"東京都東久留米市東本町1-15","lat":35.76086678,"lon":139.53414668},{"name":"東久留米駅前第３駐輪場","province":"東京都","city":"東久留米市","address":"東京都東久留米市本町1丁目3-28","lat":35.75994184,"lon":139.53205522},{"name":"東久留米駅西口第１自転車駐車場","province":"東京都","city":"東久留米市","address":"東京都東久留米市新川町1丁目3","lat":35.76013078,"lon":139.53539661},{"name":"東久留米駅西口第２自転車駐車場","province":"東京都","city":"東久留米市","address":"東京都東久留米市新川町1丁目3","lat":35.76013078,"lon":139.53539661},{"name":"東久留米駅西口第３自転車駐車場","province":"東京都","city":"東久留米市","address":"東京都東久留米市本町1丁目14","lat":35.75794212,"lon":139.53427455},{"name":"東久留米駅東口自転車駐車場","province":"東京都","city":"東久留米市","address":"東京都東久留米市新川町1丁目3","lat":35.76013078,"lon":139.53539661},{"name":"東久留米駅北口自転車駐車場","province":"東京都","city":"東久留米市","address":"東京都東久留米市東本町1-6","lat":35.76136949,"lon":139.53344116},{"name":"サイクルスペース２４東久留米駐輪場","province":"東京都","city":"東久留米市","address":"東京都東久留米市新川町1丁目9","lat":35.76161952,"lon":139.53686034},{"name":"市立西第１０原付自転車駐車場","province":"東京都","city":"東久留米市","address":"東京都東久留米市本町1丁目4","lat":35.75914751,"lon":139.53259409},{"name":"リバーウエストビルズ駐輪場","province":"東京都","city":"東久留米市","address":"東京都東久留米市本町1丁目5","lat":35.75972803,"lon":139.53402173},{"name":"東久留米駅前第４駐輪場","province":"東京都","city":"東久留米市","address":"東京都東久留米市東本町5","lat":35.76224161,"lon":139.53360501},{"name":"市立臨時西第２自転車駐車場","province":"東京都","city":"東久留米市","address":"東京都東久留米市本町1丁目8-1","lat":35.7578366,"lon":139.53545501},{"name":"東久留米駅西口第１自転車駐車場","province":"東京都","city":"東久留米市","address":"東京都東久留米市本町1丁目3","lat":35.76054178,"lon":139.53217741},{"name":"東久留米駅西口第２自転車駐車場","province":"東京都","city":"東久留米市","address":"東京都東久留米市本町1丁目5","lat":35.75972803,"lon":139.53402173},{"name":"＊?東久留米市立生涯学習センター","province":"東京都","city":"東久留米市","address":"東久留米市中央町2-6-23","lat":35.755517,"lon":139.522346},{"name":"東久留米市本庁舎","province":"東京都","city":"東久留米市","address":"東京都東久留米市本町3丁目3-1","lat":35.75799202,"lon":139.52967216},{"name":"東久留米市立久留米中学校","province":"東京都","city":"東久留米市","address":"東京都東久留米市幸町5丁目9-11","lat":35.761708,"lon":139.51692595},{"name":"東久留米市立大門中学校","province":"東京都","city":"東久留米市","address":"東京都東久留米市大門町2丁目13-8","lat":35.7628556,"lon":139.54363203},{"name":"※東久留米市本庁舎","province":"東京都","city":"東久留米市","address":"東京都東久留米市本町3丁目3-1","lat":35.75799202,"lon":139.52967216},{"name":"市立東第２自転車等駐車場","province":"東京都","city":"東久留米市","address":"東京都東久留米市東本町14","lat":35.7627277,"lon":139.53515209},{"name":"日生サイクルプラザ東久留米第２","province":"東京都","city":"東久留米市","address":"東京都東久留米市新川町1丁目4","lat":35.7612862,"lon":139.5350827},{"name":"日生サイクルプラザ東久留米第１","province":"東京都","city":"東久留米市","address":"東京都東久留米市新川町1丁目3","lat":35.76013078,"lon":139.53539661},{"name":"市立西第９自転車駐車場","province":"東京都","city":"東久留米市","address":"東京都東久留米市本町1丁目5","lat":35.75972803,"lon":139.53402173},{"name":"市立西第１０一時利用自転車駐車場","province":"東京都","city":"東久留米市","address":"東京都東久留米市本町1丁目4","lat":35.75914751,"lon":139.53259409},{"name":"東久留米駅前駐輪場","province":"東京都","city":"東久留米市","address":"東京都東久留米市東本町1-15","lat":35.76086678,"lon":139.53414668},{"name":"東久留米駅前第２駐輪場","province":"東京都","city":"東久留米市","address":"東京都東久留米市東本町1-15","lat":35.76086678,"lon":139.53414668},{"name":"東久留米駅前第３駐輪場","province":"東京都","city":"東久留米市","address":"東京都東久留米市本町1丁目3-28","lat":35.75994184,"lon":139.53205522},{"name":"東久留米駅西口第１自転車駐車場","province":"東京都","city":"東久留米市","address":"東京都東久留米市新川町1丁目3","lat":35.76013078,"lon":139.53539661},{"name":"東久留米駅西口第２自転車駐車場","province":"東京都","city":"東久留米市","address":"東京都東久留米市新川町1丁目3","lat":35.76013078,"lon":139.53539661},{"name":"東久留米駅西口第３自転車駐車場","province":"東京都","city":"東久留米市","address":"東京都東久留米市本町1丁目14","lat":35.75794212,"lon":139.53427455},{"name":"東久留米駅東口自転車駐車場","province":"東京都","city":"東久留米市","address":"東京都東久留米市新川町1丁目3","lat":35.76013078,"lon":139.53539661},{"name":"東久留米駅北口自転車駐車場","province":"東京都","city":"東久留米市","address":"東京都東久留米市東本町1-6","lat":35.76136949,"lon":139.53344116},{"name":"サイクルスペース２４東久留米駐輪場","province":"東京都","city":"東久留米市","address":"東京都東久留米市新川町1丁目9","lat":35.76161952,"lon":139.53686034},{"name":"市立西第１０原付自転車駐車場","province":"東京都","city":"東久留米市","address":"東京都東久留米市本町1丁目4","lat":35.75914751,"lon":139.53259409},{"name":"リバーウエストビルズ駐輪場","province":"東京都","city":"東久留米市","address":"東京都東久留米市本町1丁目5","lat":35.75972803,"lon":139.53402173},{"name":"東久留米駅前第４駐輪場","province":"東京都","city":"東久留米市","address":"東京都東久留米市東本町5","lat":35.76224161,"lon":139.53360501},{"name":"市立臨時西第２自転車駐車場","province":"東京都","city":"東久留米市","address":"東京都東久留米市本町1丁目8-1","lat":35.7578366,"lon":139.53545501},{"name":"東久留米駅西口第１自転車駐車場","province":"東京都","city":"東久留米市","address":"東京都東久留米市本町1丁目3","lat":35.76054178,"lon":139.53217741},{"name":"東久留米駅西口第２自転車駐車場","province":"東京都","city":"東久留米市","address":"東京都東久留米市本町1丁目5","lat":35.75972803,"lon":139.53402173},{"name":"＊?東久留米市立生涯学習センター","province":"東京都","city":"東久留米市","address":"東久留米市中央町2-6-23","lat":35.755517,"lon":139.522346},{"name":"東久留米市本庁舎","province":"東京都","city":"東久留米市","address":"東京都東久留米市本町3丁目3-1","lat":35.75799202,"lon":139.52967216},{"name":"東久留米市立久留米中学校","province":"東京都","city":"東久留米市","address":"東京都東久留米市幸町5丁目9-11","lat":35.761708,"lon":139.51692595},{"name":"東久留米市立大門中学校","province":"東京都","city":"東久留米市","address":"東京都東久留米市大門町2丁目13-8","lat":35.7628556,"lon":139.54363203},{"name":"※東久留米市本庁舎","province":"東京都","city":"東久留米市","address":"東京都東久留米市本町3丁目3-1","lat":35.75799202,"lon":139.52967216},{"name":"市立東第２自転車等駐車場","province":"東京都","city":"東久留米市","address":"東京都東久留米市東本町14","lat":35.7627277,"lon":139.53515209},{"name":"日生サイクルプラザ東久留米第２","province":"東京都","city":"東久留米市","address":"東京都東久留米市新川町1丁目4","lat":35.7612862,"lon":139.5350827},{"name":"日生サイクルプラザ東久留米第１","province":"東京都","city":"東久留米市","address":"東京都東久留米市新川町1丁目3","lat":35.76013078,"lon":139.53539661},{"name":"市立西第９自転車駐車場","province":"東京都","city":"東久留米市","address":"東京都東久留米市本町1丁目5","lat":35.75972803,"lon":139.53402173},{"name":"市立西第１０一時利用自転車駐車場","province":"東京都","city":"東久留米市","address":"東京都東久留米市本町1丁目4","lat":35.75914751,"lon":139.53259409},{"name":"東久留米駅前駐輪場","province":"東京都","city":"東久留米市","address":"東京都東久留米市東本町1-15","lat":35.76086678,"lon":139.53414668},{"name":"東久留米駅前第２駐輪場","province":"東京都","city":"東久留米市","address":"東京都東久留米市東本町1-15","lat":35.76086678,"lon":139.53414668},{"name":"東久留米駅前第３駐輪場","province":"東京都","city":"東久留米市","address":"東京都東久留米市本町1丁目3-28","lat":35.75994184,"lon":139.53205522},{"name":"東久留米駅西口第１自転車駐車場","province":"東京都","city":"東久留米市","address":"東京都東久留米市新川町1丁目3","lat":35.76013078,"lon":139.53539661},{"name":"東久留米駅西口第２自転車駐車場","province":"東京都","city":"東久留米市","address":"東京都東久留米市新川町1丁目3","lat":35.76013078,"lon":139.53539661},{"name":"東久留米駅西口第３自転車駐車場","province":"東京都","city":"東久留米市","address":"東京都東久留米市本町1丁目14","lat":35.75794212,"lon":139.53427455},{"name":"東久留米駅東口自転車駐車場","province":"東京都","city":"東久留米市","address":"東京都東久留米市新川町1丁目3","lat":35.76013078,"lon":139.53539661},{"name":"東久留米駅北口自転車駐車場","province":"東京都","city":"東久留米市","address":"東京都東久留米市東本町1-6","lat":35.76136949,"lon":139.53344116},{"name":"サイクルスペース２４東久留米駐輪場","province":"東京都","city":"東久留米市","address":"東京都東久留米市新川町1丁目9","lat":35.76161952,"lon":139.53686034},{"name":"市立西第１０原付自転車駐車場","province":"東京都","city":"東久留米市","address":"東京都東久留米市本町1丁目4","lat":35.75914751,"lon":139.53259409},{"name":"リバーウエストビルズ駐輪場","province":"東京都","city":"東久留米市","address":"東京都東久留米市本町1丁目5","lat":35.75972803,"lon":139.53402173},{"name":"東久留米駅前第４駐輪場","province":"東京都","city":"東久留米市","address":"東京都東久留米市東本町5","lat":35.76224161,"lon":139.53360501},{"name":"市立臨時西第２自転車駐車場","province":"東京都","city":"東久留米市","address":"東京都東久留米市本町1丁目8-1","lat":35.7578366,"lon":139.53545501},{"name":"東久留米駅西口第１自転車駐車場","province":"東京都","city":"東久留米市","address":"東京都東久留米市本町1丁目3","lat":35.76054178,"lon":139.53217741},{"name":"東久留米駅西口第２自転車駐車場","province":"東京都","city":"東久留米市","address":"東京都東久留米市本町1丁目5","lat":35.75972803,"lon":139.53402173},{"name":"＊?東久留米市立生涯学習センター","province":"東京都","city":"東久留米市","address":"東久留米市中央町2-6-23","lat":35.755517,"lon":139.522346},{"name":"東久留米市本庁舎","province":"東京都","city":"東久留米市","address":"東京都東久留米市本町3丁目3-1","lat":35.75799202,"lon":139.52967216},{"name":"東久留米市立久留米中学校","province":"東京都","city":"東久留米市","address":"東京都東久留米市幸町5丁目9-11","lat":35.761708,"lon":139.51692595},{"name":"東久留米市立大門中学校","province":"東京都","city":"東久留米市","address":"東京都東久留米市大門町2丁目13-8","lat":35.7628556,"lon":139.54363203},{"name":"※東久留米市本庁舎","province":"東京都","city":"東久留米市","address":"東京都東久留米市本町3丁目3-1","lat":35.75799202,"lon":139.52967216},{"name":"市立東第２自転車等駐車場","province":"東京都","city":"東久留米市","address":"東京都東久留米市東本町14","lat":35.7627277,"lon":139.53515209},{"name":"日生サイクルプラザ東久留米第２","province":"東京都","city":"東久留米市","address":"東京都東久留米市新川町1丁目4","lat":35.7612862,"lon":139.5350827},{"name":"日生サイクルプラザ東久留米第１","province":"東京都","city":"東久留米市","address":"東京都東久留米市新川町1丁目3","lat":35.76013078,"lon":139.53539661},{"name":"市立西第９自転車駐車場","province":"東京都","city":"東久留米市","address":"東京都東久留米市本町1丁目5","lat":35.75972803,"lon":139.53402173},{"name":"市立西第１０一時利用自転車駐車場","province":"東京都","city":"東久留米市","address":"東京都東久留米市本町1丁目4","lat":35.75914751,"lon":139.53259409},{"name":"東久留米駅前駐輪場","province":"東京都","city":"東久留米市","address":"東京都東久留米市東本町1-15","lat":35.76086678,"lon":139.53414668},{"name":"東久留米駅前第２駐輪場","province":"東京都","city":"東久留米市","address":"東京都東久留米市東本町1-15","lat":35.76086678,"lon":139.53414668},{"name":"東久留米駅前第３駐輪場","province":"東京都","city":"東久留米市","address":"東京都東久留米市本町1丁目3-28","lat":35.75994184,"lon":139.53205522},{"name":"東久留米駅西口第１自転車駐車場","province":"東京都","city":"東久留米市","address":"東京都東久留米市新川町1丁目3","lat":35.76013078,"lon":139.53539661},{"name":"東久留米駅西口第２自転車駐車場","province":"東京都","city":"東久留米市","address":"東京都東久留米市新川町1丁目3","lat":35.76013078,"lon":139.53539661},{"name":"東久留米駅西口第３自転車駐車場","province":"東京都","city":"東久留米市","address":"東京都東久留米市本町1丁目14","lat":35.75794212,"lon":139.53427455},{"name":"東久留米駅東口自転車駐車場","province":"東京都","city":"東久留米市","address":"東京都東久留米市新川町1丁目3","lat":35.76013078,"lon":139.53539661},{"name":"東久留米駅北口自転車駐車場","province":"東京都","city":"東久留米市","address":"東京都東久留米市東本町1-6","lat":35.76136949,"lon":139.53344116},{"name":"サイクルスペース２４東久留米駐輪場","province":"東京都","city":"東久留米市","address":"東京都東久留米市新川町1丁目9","lat":35.76161952,"lon":139.53686034},{"name":"市立西第１０原付自転車駐車場","province":"東京都","city":"東久留米市","address":"東京都東久留米市本町1丁目4","lat":35.75914751,"lon":139.53259409},{"name":"リバーウエストビルズ駐輪場","province":"東京都","city":"東久留米市","address":"東京都東久留米市本町1丁目5","lat":35.75972803,"lon":139.53402173},{"name":"東久留米駅前第４駐輪場","province":"東京都","city":"東久留米市","address":"東京都東久留米市東本町5","lat":35.76224161,"lon":139.53360501},{"name":"市立臨時西第２自転車駐車場","province":"東京都","city":"東久留米市","address":"東京都東久留米市本町1丁目8-1","lat":35.7578366,"lon":139.53545501},{"name":"東久留米駅西口第１自転車駐車場","province":"東京都","city":"東久留米市","address":"東京都東久留米市本町1丁目3","lat":35.76054178,"lon":139.53217741},{"name":"東久留米駅西口第２自転車駐車場","province":"東京都","city":"東久留米市","address":"東京都東久留米市本町1丁目5","lat":35.75972803,"lon":139.53402173},{"name":"＊?東久留米市立生涯学習センター","province":"東京都","city":"東久留米市","address":"東久留米市中央町2-6-23","lat":35.755517,"lon":139.522346},{"name":"東久留米市本庁舎","province":"東京都","city":"東久留米市","address":"東京都東久留米市本町3丁目3-1","lat":35.75799202,"lon":139.52967216},{"name":"東久留米市立久留米中学校","province":"東京都","city":"東久留米市","address":"東京都東久留米市幸町5丁目9-11","lat":35.761708,"lon":139.51692595},{"name":"東久留米市立大門中学校","province":"東京都","city":"東久留米市","address":"東京都東久留米市大門町2丁目13-8","lat":35.7628556,"lon":139.54363203},{"name":"※東久留米市本庁舎","province":"東京都","city":"東久留米市","address":"東京都東久留米市本町3丁目3-1","lat":35.75799202,"lon":139.52967216},{"name":"市立東第２自転車等駐車場","province":"東京都","city":"東久留米市","address":"東京都東久留米市東本町14","lat":35.7627277,"lon":139.53515209},{"name":"日生サイクルプラザ東久留米第２","province":"東京都","city":"東久留米市","address":"東京都東久留米市新川町1丁目4","lat":35.7612862,"lon":139.5350827},{"name":"日生サイクルプラザ東久留米第１","province":"東京都","city":"東久留米市","address":"東京都東久留米市新川町1丁目3","lat":35.76013078,"lon":139.53539661},{"name":"市立西第９自転車駐車場","province":"東京都","city":"東久留米市","address":"東京都東久留米市本町1丁目5","lat":35.75972803,"lon":139.53402173},{"name":"市立西第１０一時利用自転車駐車場","province":"東京都","city":"東久留米市","address":"東京都東久留米市本町1丁目4","lat":35.75914751,"lon":139.53259409},{"name":"東久留米駅前駐輪場","province":"東京都","city":"東久留米市","address":"東京都東久留米市東本町1-15","lat":35.76086678,"lon":139.53414668},{"name":"東久留米駅前第２駐輪場","province":"東京都","city":"東久留米市","address":"東京都東久留米市東本町1-15","lat":35.76086678,"lon":139.53414668},{"name":"東久留米駅前第３駐輪場","province":"東京都","city":"東久留米市","address":"東京都東久留米市本町1丁目3-28","lat":35.75994184,"lon":139.53205522},{"name":"東久留米駅西口第１自転車駐車場","province":"東京都","city":"東久留米市","address":"東京都東久留米市新川町1丁目3","lat":35.76013078,"lon":139.53539661},{"name":"東久留米駅西口第２自転車駐車場","province":"東京都","city":"東久留米市","address":"東京都東久留米市新川町1丁目3","lat":35.76013078,"lon":139.53539661},{"name":"東久留米駅西口第３自転車駐車場","province":"東京都","city":"東久留米市","address":"東京都東久留米市本町1丁目14","lat":35.75794212,"lon":139.53427455},{"name":"東久留米駅東口自転車駐車場","province":"東京都","city":"東久留米市","address":"東京都東久留米市新川町1丁目3","lat":35.76013078,"lon":139.53539661},{"name":"東久留米駅北口自転車駐車場","province":"東京都","city":"東久留米市","address":"東京都東久留米市東本町1-6","lat":35.76136949,"lon":139.53344116},{"name":"サイクルスペース２４東久留米駐輪場","province":"東京都","city":"東久留米市","address":"東京都東久留米市新川町1丁目9","lat":35.76161952,"lon":139.53686034},{"name":"市立西第１０原付自転車駐車場","province":"東京都","city":"東久留米市","address":"東京都東久留米市本町1丁目4","lat":35.75914751,"lon":139.53259409},{"name":"リバーウエストビルズ駐輪場","province":"東京都","city":"東久留米市","address":"東京都東久留米市本町1丁目5","lat":35.75972803,"lon":139.53402173},{"name":"東久留米駅前第４駐輪場","province":"東京都","city":"東久留米市","address":"東京都東久留米市東本町5","lat":35.76224161,"lon":139.53360501},{"name":"市立臨時西第２自転車駐車場","province":"東京都","city":"東久留米市","address":"東京都東久留米市本町1丁目8-1","lat":35.7578366,"lon":139.53545501},{"name":"東久留米駅西口第１自転車駐車場","province":"東京都","city":"東久留米市","address":"東京都東久留米市本町1丁目3","lat":35.76054178,"lon":139.53217741},{"name":"東久留米駅西口第２自転車駐車場","province":"東京都","city":"東久留米市","address":"東京都東久留米市本町1丁目5","lat":35.75972803,"lon":139.53402173},{"name":"＊?東久留米市立生涯学習センター","province":"東京都","city":"東久留米市","address":"東久留米市中央町2-6-23","lat":35.755517,"lon":139.522346},{"name":"東久留米市本庁舎","province":"東京都","city":"東久留米市","address":"東京都東久留米市本町3丁目3-1","lat":35.75799202,"lon":139.52967216},{"name":"東久留米市立久留米中学校","province":"東京都","city":"東久留米市","address":"東京都東久留米市幸町5丁目9-11","lat":35.761708,"lon":139.51692595},{"name":"東久留米市立大門中学校","province":"東京都","city":"東久留米市","address":"東京都東久留米市大門町2丁目13-8","lat":35.7628556,"lon":139.54363203},{"name":"※東久留米市本庁舎","province":"東京都","city":"東久留米市","address":"東京都東久留米市本町3丁目3-1","lat":35.75799202,"lon":139.52967216}]}