{"keyword":"命令","data":[{"name":"上の原さくら保育園","province":"東京都","city":"東久留米市","address":"東久留米市上の原1-2-44","lat":35.76878,"lon":139.54103},{"name":"久留米みのり保育園","province":"東京都","city":"東久留米市","address":"東久留米市大門町1-3-4","lat":35.76278,"lon":139.53877},{"name":"しんかわ保育園","province":"東京都","city":"東久留米市","address":"東久留米市新川町1-1-12","lat":35.7583,"lon":139.53708},{"name":"トレジャーキッズひがしくるめ保育園","province":"東京都","city":"東久留米市","address":"東久留米市新川町1-9-14サンライズ","lat":35.76189,"lon":139.53659},{"name":"Ｎｉｃｏｔ東久留米","province":"東京都","city":"東久留米市","address":"東久留米市東本町1-8Emio東久留米1F","lat":35.76096,"lon":139.53357},{"name":"まなびの森保育園ひばりヶ丘","province":"東京都","city":"東久留米市","address":"東久留米市学園町1-14-23","lat":35.75112,"lon":139.53976},{"name":"ひばり保育園","province":"東京都","city":"東久留米市","address":"東久留米市ひばりが丘団地8-10","lat":35.74722,"lon":139.53172},{"name":"わらべみなみ保育園","province":"東京都","city":"東久留米市","address":"東久留米市南町1-8-51","lat":35.74158,"lon":139.52573},{"name":"かたばみ保育園","province":"東京都","city":"東久留米市","address":"東久留米市前沢1-4-35","lat":35.74609,"lon":139.51709},{"name":"まえさわ保育園","province":"東京都","city":"東久留米市","address":"東久留米市前沢1-5-30","lat":35.74794,"lon":139.51509},{"name":"たきやま保育園","province":"東京都","city":"東久留米市","address":"東久留米市滝山6-1-2","lat":35.74607,"lon":139.5043},{"name":"滝山しおん保育園","province":"東京都","city":"東久留米市","address":"東久留米市滝山7-5-12","lat":35.74779,"lon":139.50757},{"name":"はちまん保育園","province":"東京都","city":"東久留米市","address":"東久留米市八幡町2-14-22","lat":35.75594,"lon":139.51439},{"name":"はくさん保育園","province":"東京都","city":"東久留米市","address":"東久留米市下里3-2-23","lat":35.75205,"lon":139.5031},{"name":"あそか保育園","province":"東京都","city":"東久留米市","address":"東久留米市下里4-1-21","lat":35.75221,"lon":139.49507},{"name":"下里しおん保育園","province":"東京都","city":"東久留米市","address":"東久留米市下里7-8-20","lat":35.76007,"lon":139.50226},{"name":"くるみ保育園","province":"東京都","city":"東久留米市","address":"東久留米市柳窪2-15-6","lat":35.74621,"lon":139.49533},{"name":"わらべ東久留米保育園","province":"東京都","city":"東久留米市","address":"東久留米市幸町1-1-24","lat":35.7595,"lon":139.52657},{"name":"東久留米おひさま保育園","province":"東京都","city":"東久留米市","address":"東久留米市幸町1-21-14","lat":35.7603,"lon":139.52333},{"name":"いちご保育園","province":"東京都","city":"東久留米市","address":"東久留米市本町1-5-15","lat":35.75942,"lon":139.53423},{"name":"ちゅうおう保育園","province":"東京都","city":"東久留米市","address":"東久留米市中央町1-2-4","lat":35.75691,"lon":139.5271},{"name":"こでまり保育園","province":"東京都","city":"東久留米市","address":"東久留米市中央町2-3-57","lat":35.75352,"lon":139.52118},{"name":"上の原さくら保育園","province":"東京都","city":"東久留米市","address":"東久留米市上の原1-2-44","lat":35.77181,"lon":139.54579},{"name":"東久留米市わくわく健康プラザ（健康課）","province":"東京都","city":"東久留米市","address":"東京都東久留米市滝山4丁目3-14","lat":35.74228769,"lon":139.5044833},{"name":"東久留米市本庁舎","province":"東京都","city":"東久留米市","address":"東京都東久留米市本町3丁目3-1","lat":35.75799202,"lon":139.52967216},{"name":"東久留米市立久留米中学校","province":"東京都","city":"東久留米市","address":"東京都東久留米市幸町5丁目9-11","lat":35.761708,"lon":139.51692595},{"name":"東久留米市立大門中学校","province":"東京都","city":"東久留米市","address":"東京都東久留米市大門町2丁目13-8","lat":35.7628556,"lon":139.54363203},{"name":"東久留米市本庁舎","province":"東京都","city":"東久留米市","address":"東久留米市本町3-3-1","lat":35.757992,"lon":139.529673},{"name":"東久留米消防署","province":"東京都","city":"東久留米市","address":"東久留米市幸町3-4-34","lat":35.75756,"lon":139.5217},{"name":"柳泉園クリーンポート","province":"東京都","city":"東久留米市","address":"東久留米市下里4-3-10","lat":35.75476,"lon":139.4945},{"name":"※東久留米市本庁舎","province":"東京都","city":"東久留米市","address":"東京都東久留米市本町3丁目3-1","lat":35.75799202,"lon":139.52967216},{"name":"上の原さくら保育園","province":"東京都","city":"東久留米市","address":"東久留米市上の原1-2-44","lat":35.76878,"lon":139.54103},{"name":"久留米みのり保育園","province":"東京都","city":"東久留米市","address":"東久留米市大門町1-3-4","lat":35.76278,"lon":139.53877},{"name":"しんかわ保育園","province":"東京都","city":"東久留米市","address":"東久留米市新川町1-1-12","lat":35.7583,"lon":139.53708},{"name":"トレジャーキッズひがしくるめ保育園","province":"東京都","city":"東久留米市","address":"東久留米市新川町1-9-14サンライズ","lat":35.76189,"lon":139.53659},{"name":"Ｎｉｃｏｔ東久留米","province":"東京都","city":"東久留米市","address":"東久留米市東本町1-8Emio東久留米1F","lat":35.76096,"lon":139.53357},{"name":"まなびの森保育園ひばりヶ丘","province":"東京都","city":"東久留米市","address":"東久留米市学園町1-14-23","lat":35.75112,"lon":139.53976},{"name":"ひばり保育園","province":"東京都","city":"東久留米市","address":"東久留米市ひばりが丘団地8-10","lat":35.74722,"lon":139.53172},{"name":"わらべみなみ保育園","province":"東京都","city":"東久留米市","address":"東久留米市南町1-8-51","lat":35.74158,"lon":139.52573},{"name":"かたばみ保育園","province":"東京都","city":"東久留米市","address":"東久留米市前沢1-4-35","lat":35.74609,"lon":139.51709},{"name":"まえさわ保育園","province":"東京都","city":"東久留米市","address":"東久留米市前沢1-5-30","lat":35.74794,"lon":139.51509},{"name":"たきやま保育園","province":"東京都","city":"東久留米市","address":"東久留米市滝山6-1-2","lat":35.74607,"lon":139.5043},{"name":"滝山しおん保育園","province":"東京都","city":"東久留米市","address":"東久留米市滝山7-5-12","lat":35.74779,"lon":139.50757},{"name":"はちまん保育園","province":"東京都","city":"東久留米市","address":"東久留米市八幡町2-14-22","lat":35.75594,"lon":139.51439},{"name":"はくさん保育園","province":"東京都","city":"東久留米市","address":"東久留米市下里3-2-23","lat":35.75205,"lon":139.5031},{"name":"あそか保育園","province":"東京都","city":"東久留米市","address":"東久留米市下里4-1-21","lat":35.75221,"lon":139.49507},{"name":"下里しおん保育園","province":"東京都","city":"東久留米市","address":"東久留米市下里7-8-20","lat":35.76007,"lon":139.50226},{"name":"くるみ保育園","province":"東京都","city":"東久留米市","address":"東久留米市柳窪2-15-6","lat":35.74621,"lon":139.49533},{"name":"わらべ東久留米保育園","province":"東京都","city":"東久留米市","address":"東久留米市幸町1-1-24","lat":35.7595,"lon":139.52657},{"name":"東久留米おひさま保育園","province":"東京都","city":"東久留米市","address":"東久留米市幸町1-21-14","lat":35.7603,"lon":139.52333},{"name":"いちご保育園","province":"東京都","city":"東久留米市","address":"東久留米市本町1-5-15","lat":35.75942,"lon":139.53423},{"name":"ちゅうおう保育園","province":"東京都","city":"東久留米市","address":"東久留米市中央町1-2-4","lat":35.75691,"lon":139.5271},{"name":"こでまり保育園","province":"東京都","city":"東久留米市","address":"東久留米市中央町2-3-57","lat":35.75352,"lon":139.52118},{"name":"上の原さくら保育園","province":"東京都","city":"東久留米市","address":"東久留米市上の原1-2-44","lat":35.77181,"lon":139.54579},{"name":"東久留米市わくわく健康プラザ（健康課）","province":"東京都","city":"東久留米市","address":"東京都東久留米市滝山4丁目3-14","lat":35.74228769,"lon":139.5044833},{"name":"東久留米市本庁舎","province":"東京都","city":"東久留米市","address":"東京都東久留米市本町3丁目3-1","lat":35.75799202,"lon":139.52967216},{"name":"東久留米市立久留米中学校","province":"東京都","city":"東久留米市","address":"東京都東久留米市幸町5丁目9-11","lat":35.761708,"lon":139.51692595},{"name":"東久留米市立大門中学校","province":"東京都","city":"東久留米市","address":"東京都東久留米市大門町2丁目13-8","lat":35.7628556,"lon":139.54363203},{"name":"東久留米市本庁舎","province":"東京都","city":"東久留米市","address":"東久留米市本町3-3-1","lat":35.757992,"lon":139.529673},{"name":"東久留米消防署","province":"東京都","city":"東久留米市","address":"東久留米市幸町3-4-34","lat":35.75756,"lon":139.5217},{"name":"柳泉園クリーンポート","province":"東京都","city":"東久留米市","address":"東久留米市下里4-3-10","lat":35.75476,"lon":139.4945},{"name":"※東久留米市本庁舎","province":"東京都","city":"東久留米市","address":"東京都東久留米市本町3丁目3-1","lat":35.75799202,"lon":139.52967216},{"name":"上の原さくら保育園","province":"東京都","city":"東久留米市","address":"東久留米市上の原1-2-44","lat":35.76878,"lon":139.54103},{"name":"久留米みのり保育園","province":"東京都","city":"東久留米市","address":"東久留米市大門町1-3-4","lat":35.76278,"lon":139.53877},{"name":"しんかわ保育園","province":"東京都","city":"東久留米市","address":"東久留米市新川町1-1-12","lat":35.7583,"lon":139.53708},{"name":"トレジャーキッズひがしくるめ保育園","province":"東京都","city":"東久留米市","address":"東久留米市新川町1-9-14サンライズ","lat":35.76189,"lon":139.53659},{"name":"Ｎｉｃｏｔ東久留米","province":"東京都","city":"東久留米市","address":"東久留米市東本町1-8Emio東久留米1F","lat":35.76096,"lon":139.53357},{"name":"まなびの森保育園ひばりヶ丘","province":"東京都","city":"東久留米市","address":"東久留米市学園町1-14-23","lat":35.75112,"lon":139.53976},{"name":"ひばり保育園","province":"東京都","city":"東久留米市","address":"東久留米市ひばりが丘団地8-10","lat":35.74722,"lon":139.53172},{"name":"わらべみなみ保育園","province":"東京都","city":"東久留米市","address":"東久留米市南町1-8-51","lat":35.74158,"lon":139.52573},{"name":"かたばみ保育園","province":"東京都","city":"東久留米市","address":"東久留米市前沢1-4-35","lat":35.74609,"lon":139.51709},{"name":"まえさわ保育園","province":"東京都","city":"東久留米市","address":"東久留米市前沢1-5-30","lat":35.74794,"lon":139.51509},{"name":"たきやま保育園","province":"東京都","city":"東久留米市","address":"東久留米市滝山6-1-2","lat":35.74607,"lon":139.5043},{"name":"滝山しおん保育園","province":"東京都","city":"東久留米市","address":"東久留米市滝山7-5-12","lat":35.74779,"lon":139.50757},{"name":"はちまん保育園","province":"東京都","city":"東久留米市","address":"東久留米市八幡町2-14-22","lat":35.75594,"lon":139.51439},{"name":"はくさん保育園","province":"東京都","city":"東久留米市","address":"東久留米市下里3-2-23","lat":35.75205,"lon":139.5031},{"name":"あそか保育園","province":"東京都","city":"東久留米市","address":"東久留米市下里4-1-21","lat":35.75221,"lon":139.49507},{"name":"下里しおん保育園","province":"東京都","city":"東久留米市","address":"東久留米市下里7-8-20","lat":35.76007,"lon":139.50226},{"name":"くるみ保育園","province":"東京都","city":"東久留米市","address":"東久留米市柳窪2-15-6","lat":35.74621,"lon":139.49533},{"name":"わらべ東久留米保育園","province":"東京都","city":"東久留米市","address":"東久留米市幸町1-1-24","lat":35.7595,"lon":139.52657},{"name":"東久留米おひさま保育園","province":"東京都","city":"東久留米市","address":"東久留米市幸町1-21-14","lat":35.7603,"lon":139.52333},{"name":"いちご保育園","province":"東京都","city":"東久留米市","address":"東久留米市本町1-5-15","lat":35.75942,"lon":139.53423},{"name":"ちゅうおう保育園","province":"東京都","city":"東久留米市","address":"東久留米市中央町1-2-4","lat":35.75691,"lon":139.5271},{"name":"こでまり保育園","province":"東京都","city":"東久留米市","address":"東久留米市中央町2-3-57","lat":35.75352,"lon":139.52118},{"name":"上の原さくら保育園","province":"東京都","city":"東久留米市","address":"東久留米市上の原1-2-44","lat":35.77181,"lon":139.54579},{"name":"上の原さくら保育園","province":"東京都","city":"東久留米市","address":"東久留米市上の原1-2-44","lat":35.76878,"lon":139.54103},{"name":"久留米みのり保育園","province":"東京都","city":"東久留米市","address":"東久留米市大門町1-3-4","lat":35.76278,"lon":139.53877},{"name":"しんかわ保育園","province":"東京都","city":"東久留米市","address":"東久留米市新川町1-1-12","lat":35.7583,"lon":139.53708},{"name":"トレジャーキッズひがしくるめ保育園","province":"東京都","city":"東久留米市","address":"東久留米市新川町1-9-14サンライズ","lat":35.76189,"lon":139.53659},{"name":"Ｎｉｃｏｔ東久留米","province":"東京都","city":"東久留米市","address":"東久留米市東本町1-8Emio東久留米1F","lat":35.76096,"lon":139.53357},{"name":"まなびの森保育園ひばりヶ丘","province":"東京都","city":"東久留米市","address":"東久留米市学園町1-14-23","lat":35.75112,"lon":139.53976},{"name":"ひばり保育園","province":"東京都","city":"東久留米市","address":"東久留米市ひばりが丘団地8-10","lat":35.74722,"lon":139.53172},{"name":"わらべみなみ保育園","province":"東京都","city":"東久留米市","address":"東久留米市南町1-8-51","lat":35.74158,"lon":139.52573},{"name":"かたばみ保育園","province":"東京都","city":"東久留米市","address":"東久留米市前沢1-4-35","lat":35.74609,"lon":139.51709},{"name":"まえさわ保育園","province":"東京都","city":"東久留米市","address":"東久留米市前沢1-5-30","lat":35.74794,"lon":139.51509},{"name":"たきやま保育園","province":"東京都","city":"東久留米市","address":"東久留米市滝山6-1-2","lat":35.74607,"lon":139.5043},{"name":"滝山しおん保育園","province":"東京都","city":"東久留米市","address":"東久留米市滝山7-5-12","lat":35.74779,"lon":139.50757},{"name":"はちまん保育園","province":"東京都","city":"東久留米市","address":"東久留米市八幡町2-14-22","lat":35.75594,"lon":139.51439},{"name":"はくさん保育園","province":"東京都","city":"東久留米市","address":"東久留米市下里3-2-23","lat":35.75205,"lon":139.5031},{"name":"あそか保育園","province":"東京都","city":"東久留米市","address":"東久留米市下里4-1-21","lat":35.75221,"lon":139.49507},{"name":"下里しおん保育園","province":"東京都","city":"東久留米市","address":"東久留米市下里7-8-20","lat":35.76007,"lon":139.50226},{"name":"くるみ保育園","province":"東京都","city":"東久留米市","address":"東久留米市柳窪2-15-6","lat":35.74621,"lon":139.49533},{"name":"わらべ東久留米保育園","province":"東京都","city":"東久留米市","address":"東久留米市幸町1-1-24","lat":35.7595,"lon":139.52657},{"name":"東久留米おひさま保育園","province":"東京都","city":"東久留米市","address":"東久留米市幸町1-21-14","lat":35.7603,"lon":139.52333},{"name":"いちご保育園","province":"東京都","city":"東久留米市","address":"東久留米市本町1-5-15","lat":35.75942,"lon":139.53423},{"name":"ちゅうおう保育園","province":"東京都","city":"東久留米市","address":"東久留米市中央町1-2-4","lat":35.75691,"lon":139.5271},{"name":"こでまり保育園","province":"東京都","city":"東久留米市","address":"東久留米市中央町2-3-57","lat":35.75352,"lon":139.52118},{"name":"上の原さくら保育園","province":"東京都","city":"東久留米市","address":"東久留米市上の原1-2-44","lat":35.77181,"lon":139.54579},{"name":"上の原さくら保育園","province":"東京都","city":"東久留米市","address":"東久留米市上の原1-2-44","lat":35.76878,"lon":139.54103},{"name":"久留米みのり保育園","province":"東京都","city":"東久留米市","address":"東久留米市大門町1-3-4","lat":35.76278,"lon":139.53877},{"name":"しんかわ保育園","province":"東京都","city":"東久留米市","address":"東久留米市新川町1-1-12","lat":35.7583,"lon":139.53708},{"name":"トレジャーキッズひがしくるめ保育園","province":"東京都","city":"東久留米市","address":"東久留米市新川町1-9-14サンライズ","lat":35.76189,"lon":139.53659},{"name":"Ｎｉｃｏｔ東久留米","province":"東京都","city":"東久留米市","address":"東久留米市東本町1-8Emio東久留米1F","lat":35.76096,"lon":139.53357},{"name":"まなびの森保育園ひばりヶ丘","province":"東京都","city":"東久留米市","address":"東久留米市学園町1-14-23","lat":35.75112,"lon":139.53976},{"name":"ひばり保育園","province":"東京都","city":"東久留米市","address":"東久留米市ひばりが丘団地8-10","lat":35.74722,"lon":139.53172},{"name":"わらべみなみ保育園","province":"東京都","city":"東久留米市","address":"東久留米市南町1-8-51","lat":35.74158,"lon":139.52573},{"name":"かたばみ保育園","province":"東京都","city":"東久留米市","address":"東久留米市前沢1-4-35","lat":35.74609,"lon":139.51709},{"name":"まえさわ保育園","province":"東京都","city":"東久留米市","address":"東久留米市前沢1-5-30","lat":35.74794,"lon":139.51509},{"name":"たきやま保育園","province":"東京都","city":"東久留米市","address":"東久留米市滝山6-1-2","lat":35.74607,"lon":139.5043},{"name":"滝山しおん保育園","province":"東京都","city":"東久留米市","address":"東久留米市滝山7-5-12","lat":35.74779,"lon":139.50757},{"name":"はちまん保育園","province":"東京都","city":"東久留米市","address":"東久留米市八幡町2-14-22","lat":35.75594,"lon":139.51439},{"name":"はくさん保育園","province":"東京都","city":"東久留米市","address":"東久留米市下里3-2-23","lat":35.75205,"lon":139.5031},{"name":"あそか保育園","province":"東京都","city":"東久留米市","address":"東久留米市下里4-1-21","lat":35.75221,"lon":139.49507},{"name":"下里しおん保育園","province":"東京都","city":"東久留米市","address":"東久留米市下里7-8-20","lat":35.76007,"lon":139.50226},{"name":"くるみ保育園","province":"東京都","city":"東久留米市","address":"東久留米市柳窪2-15-6","lat":35.74621,"lon":139.49533},{"name":"わらべ東久留米保育園","province":"東京都","city":"東久留米市","address":"東久留米市幸町1-1-24","lat":35.7595,"lon":139.52657},{"name":"東久留米おひさま保育園","province":"東京都","city":"東久留米市","address":"東久留米市幸町1-21-14","lat":35.7603,"lon":139.52333},{"name":"いちご保育園","province":"東京都","city":"東久留米市","address":"東久留米市本町1-5-15","lat":35.75942,"lon":139.53423},{"name":"ちゅうおう保育園","province":"東京都","city":"東久留米市","address":"東久留米市中央町1-2-4","lat":35.75691,"lon":139.5271},{"name":"こでまり保育園","province":"東京都","city":"東久留米市","address":"東久留米市中央町2-3-57","lat":35.75352,"lon":139.52118},{"name":"上の原さくら保育園","province":"東京都","city":"東久留米市","address":"東久留米市上の原1-2-44","lat":35.77181,"lon":139.54579},{"name":"上の原さくら保育園","province":"東京都","city":"東久留米市","address":"東久留米市上の原1-2-44","lat":35.76878,"lon":139.54103},{"name":"久留米みのり保育園","province":"東京都","city":"東久留米市","address":"東久留米市大門町1-3-4","lat":35.76278,"lon":139.53877},{"name":"しんかわ保育園","province":"東京都","city":"東久留米市","address":"東久留米市新川町1-1-12","lat":35.7583,"lon":139.53708},{"name":"トレジャーキッズひがしくるめ保育園","province":"東京都","city":"東久留米市","address":"東久留米市新川町1-9-14サンライズ","lat":35.76189,"lon":139.53659},{"name":"Ｎｉｃｏｔ東久留米","province":"東京都","city":"東久留米市","address":"東久留米市東本町1-8Emio東久留米1F","lat":35.76096,"lon":139.53357},{"name":"まなびの森保育園ひばりヶ丘","province":"東京都","city":"東久留米市","address":"東久留米市学園町1-14-23","lat":35.75112,"lon":139.53976},{"name":"ひばり保育園","province":"東京都","city":"東久留米市","address":"東久留米市ひばりが丘団地8-10","lat":35.74722,"lon":139.53172},{"name":"わらべみなみ保育園","province":"東京都","city":"東久留米市","address":"東久留米市南町1-8-51","lat":35.74158,"lon":139.52573},{"name":"かたばみ保育園","province":"東京都","city":"東久留米市","address":"東久留米市前沢1-4-35","lat":35.74609,"lon":139.51709},{"name":"まえさわ保育園","province":"東京都","city":"東久留米市","address":"東久留米市前沢1-5-30","lat":35.74794,"lon":139.51509},{"name":"たきやま保育園","province":"東京都","city":"東久留米市","address":"東久留米市滝山6-1-2","lat":35.74607,"lon":139.5043},{"name":"滝山しおん保育園","province":"東京都","city":"東久留米市","address":"東久留米市滝山7-5-12","lat":35.74779,"lon":139.50757},{"name":"はちまん保育園","province":"東京都","city":"東久留米市","address":"東久留米市八幡町2-14-22","lat":35.75594,"lon":139.51439},{"name":"はくさん保育園","province":"東京都","city":"東久留米市","address":"東久留米市下里3-2-23","lat":35.75205,"lon":139.5031},{"name":"あそか保育園","province":"東京都","city":"東久留米市","address":"東久留米市下里4-1-21","lat":35.75221,"lon":139.49507},{"name":"下里しおん保育園","province":"東京都","city":"東久留米市","address":"東久留米市下里7-8-20","lat":35.76007,"lon":139.50226},{"name":"くるみ保育園","province":"東京都","city":"東久留米市","address":"東久留米市柳窪2-15-6","lat":35.74621,"lon":139.49533},{"name":"わらべ東久留米保育園","province":"東京都","city":"東久留米市","address":"東久留米市幸町1-1-24","lat":35.7595,"lon":139.52657},{"name":"東久留米おひさま保育園","province":"東京都","city":"東久留米市","address":"東久留米市幸町1-21-14","lat":35.7603,"lon":139.52333},{"name":"いちご保育園","province":"東京都","city":"東久留米市","address":"東久留米市本町1-5-15","lat":35.75942,"lon":139.53423},{"name":"ちゅうおう保育園","province":"東京都","city":"東久留米市","address":"東久留米市中央町1-2-4","lat":35.75691,"lon":139.5271},{"name":"こでまり保育園","province":"東京都","city":"東久留米市","address":"東久留米市中央町2-3-57","lat":35.75352,"lon":139.52118},{"name":"上の原さくら保育園","province":"東京都","city":"東久留米市","address":"東久留米市上の原1-2-44","lat":35.77181,"lon":139.54579},{"name":"上の原さくら保育園","province":"東京都","city":"東久留米市","address":"東久留米市上の原1-2-44","lat":35.76878,"lon":139.54103},{"name":"久留米みのり保育園","province":"東京都","city":"東久留米市","address":"東久留米市大門町1-3-4","lat":35.76278,"lon":139.53877},{"name":"しんかわ保育園","province":"東京都","city":"東久留米市","address":"東久留米市新川町1-1-12","lat":35.7583,"lon":139.53708},{"name":"トレジャーキッズひがしくるめ保育園","province":"東京都","city":"東久留米市","address":"東久留米市新川町1-9-14サンライズ","lat":35.76189,"lon":139.53659},{"name":"Ｎｉｃｏｔ東久留米","province":"東京都","city":"東久留米市","address":"東久留米市東本町1-8Emio東久留米1F","lat":35.76096,"lon":139.53357},{"name":"まなびの森保育園ひばりヶ丘","province":"東京都","city":"東久留米市","address":"東久留米市学園町1-14-23","lat":35.75112,"lon":139.53976},{"name":"ひばり保育園","province":"東京都","city":"東久留米市","address":"東久留米市ひばりが丘団地8-10","lat":35.74722,"lon":139.53172},{"name":"わらべみなみ保育園","province":"東京都","city":"東久留米市","address":"東久留米市南町1-8-51","lat":35.74158,"lon":139.52573},{"name":"かたばみ保育園","province":"東京都","city":"東久留米市","address":"東久留米市前沢1-4-35","lat":35.74609,"lon":139.51709},{"name":"まえさわ保育園","province":"東京都","city":"東久留米市","address":"東久留米市前沢1-5-30","lat":35.74794,"lon":139.51509},{"name":"たきやま保育園","province":"東京都","city":"東久留米市","address":"東久留米市滝山6-1-2","lat":35.74607,"lon":139.5043},{"name":"滝山しおん保育園","province":"東京都","city":"東久留米市","address":"東久留米市滝山7-5-12","lat":35.74779,"lon":139.50757},{"name":"はちまん保育園","province":"東京都","city":"東久留米市","address":"東久留米市八幡町2-14-22","lat":35.75594,"lon":139.51439},{"name":"はくさん保育園","province":"東京都","city":"東久留米市","address":"東久留米市下里3-2-23","lat":35.75205,"lon":139.5031},{"name":"あそか保育園","province":"東京都","city":"東久留米市","address":"東久留米市下里4-1-21","lat":35.75221,"lon":139.49507},{"name":"下里しおん保育園","province":"東京都","city":"東久留米市","address":"東久留米市下里7-8-20","lat":35.76007,"lon":139.50226},{"name":"くるみ保育園","province":"東京都","city":"東久留米市","address":"東久留米市柳窪2-15-6","lat":35.74621,"lon":139.49533},{"name":"わらべ東久留米保育園","province":"東京都","city":"東久留米市","address":"東久留米市幸町1-1-24","lat":35.7595,"lon":139.52657},{"name":"東久留米おひさま保育園","province":"東京都","city":"東久留米市","address":"東久留米市幸町1-21-14","lat":35.7603,"lon":139.52333},{"name":"いちご保育園","province":"東京都","city":"東久留米市","address":"東久留米市本町1-5-15","lat":35.75942,"lon":139.53423},{"name":"ちゅうおう保育園","province":"東京都","city":"東久留米市","address":"東久留米市中央町1-2-4","lat":35.75691,"lon":139.5271},{"name":"こでまり保育園","province":"東京都","city":"東久留米市","address":"東久留米市中央町2-3-57","lat":35.75352,"lon":139.52118},{"name":"上の原さくら保育園","province":"東京都","city":"東久留米市","address":"東久留米市上の原1-2-44","lat":35.77181,"lon":139.54579},{"name":"上の原さくら保育園","province":"東京都","city":"東久留米市","address":"東久留米市上の原1-2-44","lat":35.76878,"lon":139.54103},{"name":"久留米みのり保育園","province":"東京都","city":"東久留米市","address":"東久留米市大門町1-3-4","lat":35.76278,"lon":139.53877},{"name":"しんかわ保育園","province":"東京都","city":"東久留米市","address":"東久留米市新川町1-1-12","lat":35.7583,"lon":139.53708},{"name":"トレジャーキッズひがしくるめ保育園","province":"東京都","city":"東久留米市","address":"東久留米市新川町1-9-14サンライズ","lat":35.76189,"lon":139.53659},{"name":"Ｎｉｃｏｔ東久留米","province":"東京都","city":"東久留米市","address":"東久留米市東本町1-8Emio東久留米1F","lat":35.76096,"lon":139.53357},{"name":"まなびの森保育園ひばりヶ丘","province":"東京都","city":"東久留米市","address":"東久留米市学園町1-14-23","lat":35.75112,"lon":139.53976},{"name":"ひばり保育園","province":"東京都","city":"東久留米市","address":"東久留米市ひばりが丘団地8-10","lat":35.74722,"lon":139.53172},{"name":"わらべみなみ保育園","province":"東京都","city":"東久留米市","address":"東久留米市南町1-8-51","lat":35.74158,"lon":139.52573},{"name":"かたばみ保育園","province":"東京都","city":"東久留米市","address":"東久留米市前沢1-4-35","lat":35.74609,"lon":139.51709},{"name":"まえさわ保育園","province":"東京都","city":"東久留米市","address":"東久留米市前沢1-5-30","lat":35.74794,"lon":139.51509},{"name":"たきやま保育園","province":"東京都","city":"東久留米市","address":"東久留米市滝山6-1-2","lat":35.74607,"lon":139.5043},{"name":"滝山しおん保育園","province":"東京都","city":"東久留米市","address":"東久留米市滝山7-5-12","lat":35.74779,"lon":139.50757},{"name":"はちまん保育園","province":"東京都","city":"東久留米市","address":"東久留米市八幡町2-14-22","lat":35.75594,"lon":139.51439},{"name":"はくさん保育園","province":"東京都","city":"東久留米市","address":"東久留米市下里3-2-23","lat":35.75205,"lon":139.5031},{"name":"あそか保育園","province":"東京都","city":"東久留米市","address":"東久留米市下里4-1-21","lat":35.75221,"lon":139.49507},{"name":"下里しおん保育園","province":"東京都","city":"東久留米市","address":"東久留米市下里7-8-20","lat":35.76007,"lon":139.50226},{"name":"くるみ保育園","province":"東京都","city":"東久留米市","address":"東久留米市柳窪2-15-6","lat":35.74621,"lon":139.49533},{"name":"わらべ東久留米保育園","province":"東京都","city":"東久留米市","address":"東久留米市幸町1-1-24","lat":35.7595,"lon":139.52657},{"name":"東久留米おひさま保育園","province":"東京都","city":"東久留米市","address":"東久留米市幸町1-21-14","lat":35.7603,"lon":139.52333},{"name":"いちご保育園","province":"東京都","city":"東久留米市","address":"東久留米市本町1-5-15","lat":35.75942,"lon":139.53423},{"name":"ちゅうおう保育園","province":"東京都","city":"東久留米市","address":"東久留米市中央町1-2-4","lat":35.75691,"lon":139.5271},{"name":"こでまり保育園","province":"東京都","city":"東久留米市","address":"東久留米市中央町2-3-57","lat":35.75352,"lon":139.52118},{"name":"上の原さくら保育園","province":"東京都","city":"東久留米市","address":"東久留米市上の原1-2-44","lat":35.77181,"lon":139.54579},{"name":"上の原さくら保育園","province":"東京都","city":"東久留米市","address":"東久留米市上の原1-2-44","lat":35.76878,"lon":139.54103},{"name":"久留米みのり保育園","province":"東京都","city":"東久留米市","address":"東久留米市大門町1-3-4","lat":35.76278,"lon":139.53877},{"name":"しんかわ保育園","province":"東京都","city":"東久留米市","address":"東久留米市新川町1-1-12","lat":35.7583,"lon":139.53708},{"name":"トレジャーキッズひがしくるめ保育園","province":"東京都","city":"東久留米市","address":"東久留米市新川町1-9-14サンライズ","lat":35.76189,"lon":139.53659},{"name":"Ｎｉｃｏｔ東久留米","province":"東京都","city":"東久留米市","address":"東久留米市東本町1-8Emio東久留米1F","lat":35.76096,"lon":139.53357},{"name":"まなびの森保育園ひばりヶ丘","province":"東京都","city":"東久留米市","address":"東久留米市学園町1-14-23","lat":35.75112,"lon":139.53976},{"name":"ひばり保育園","province":"東京都","city":"東久留米市","address":"東久留米市ひばりが丘団地8-10","lat":35.74722,"lon":139.53172},{"name":"わらべみなみ保育園","province":"東京都","city":"東久留米市","address":"東久留米市南町1-8-51","lat":35.74158,"lon":139.52573},{"name":"かたばみ保育園","province":"東京都","city":"東久留米市","address":"東久留米市前沢1-4-35","lat":35.74609,"lon":139.51709},{"name":"まえさわ保育園","province":"東京都","city":"東久留米市","address":"東久留米市前沢1-5-30","lat":35.74794,"lon":139.51509},{"name":"たきやま保育園","province":"東京都","city":"東久留米市","address":"東久留米市滝山6-1-2","lat":35.74607,"lon":139.5043},{"name":"滝山しおん保育園","province":"東京都","city":"東久留米市","address":"東久留米市滝山7-5-12","lat":35.74779,"lon":139.50757},{"name":"はちまん保育園","province":"東京都","city":"東久留米市","address":"東久留米市八幡町2-14-22","lat":35.75594,"lon":139.51439},{"name":"はくさん保育園","province":"東京都","city":"東久留米市","address":"東久留米市下里3-2-23","lat":35.75205,"lon":139.5031},{"name":"あそか保育園","province":"東京都","city":"東久留米市","address":"東久留米市下里4-1-21","lat":35.75221,"lon":139.49507},{"name":"下里しおん保育園","province":"東京都","city":"東久留米市","address":"東久留米市下里7-8-20","lat":35.76007,"lon":139.50226},{"name":"くるみ保育園","province":"東京都","city":"東久留米市","address":"東久留米市柳窪2-15-6","lat":35.74621,"lon":139.49533},{"name":"わらべ東久留米保育園","province":"東京都","city":"東久留米市","address":"東久留米市幸町1-1-24","lat":35.7595,"lon":139.52657},{"name":"東久留米おひさま保育園","province":"東京都","city":"東久留米市","address":"東久留米市幸町1-21-14","lat":35.7603,"lon":139.52333},{"name":"いちご保育園","province":"東京都","city":"東久留米市","address":"東久留米市本町1-5-15","lat":35.75942,"lon":139.53423},{"name":"ちゅうおう保育園","province":"東京都","city":"東久留米市","address":"東久留米市中央町1-2-4","lat":35.75691,"lon":139.5271},{"name":"こでまり保育園","province":"東京都","city":"東久留米市","address":"東久留米市中央町2-3-57","lat":35.75352,"lon":139.52118},{"name":"上の原さくら保育園","province":"東京都","city":"東久留米市","address":"東久留米市上の原1-2-44","lat":35.77181,"lon":139.54579},{"name":"上の原さくら保育園","province":"東京都","city":"東久留米市","address":"東久留米市上の原1-2-44","lat":35.76878,"lon":139.54103},{"name":"久留米みのり保育園","province":"東京都","city":"東久留米市","address":"東久留米市大門町1-3-4","lat":35.76278,"lon":139.53877},{"name":"しんかわ保育園","province":"東京都","city":"東久留米市","address":"東久留米市新川町1-1-12","lat":35.7583,"lon":139.53708},{"name":"トレジャーキッズひがしくるめ保育園","province":"東京都","city":"東久留米市","address":"東久留米市新川町1-9-14サンライズ","lat":35.76189,"lon":139.53659},{"name":"Ｎｉｃｏｔ東久留米","province":"東京都","city":"東久留米市","address":"東久留米市東本町1-8Emio東久留米1F","lat":35.76096,"lon":139.53357},{"name":"まなびの森保育園ひばりヶ丘","province":"東京都","city":"東久留米市","address":"東久留米市学園町1-14-23","lat":35.75112,"lon":139.53976},{"name":"ひばり保育園","province":"東京都","city":"東久留米市","address":"東久留米市ひばりが丘団地8-10","lat":35.74722,"lon":139.53172},{"name":"わらべみなみ保育園","province":"東京都","city":"東久留米市","address":"東久留米市南町1-8-51","lat":35.74158,"lon":139.52573},{"name":"かたばみ保育園","province":"東京都","city":"東久留米市","address":"東久留米市前沢1-4-35","lat":35.74609,"lon":139.51709},{"name":"まえさわ保育園","province":"東京都","city":"東久留米市","address":"東久留米市前沢1-5-30","lat":35.74794,"lon":139.51509},{"name":"たきやま保育園","province":"東京都","city":"東久留米市","address":"東久留米市滝山6-1-2","lat":35.74607,"lon":139.5043},{"name":"滝山しおん保育園","province":"東京都","city":"東久留米市","address":"東久留米市滝山7-5-12","lat":35.74779,"lon":139.50757},{"name":"はちまん保育園","province":"東京都","city":"東久留米市","address":"東久留米市八幡町2-14-22","lat":35.75594,"lon":139.51439},{"name":"はくさん保育園","province":"東京都","city":"東久留米市","address":"東久留米市下里3-2-23","lat":35.75205,"lon":139.5031},{"name":"あそか保育園","province":"東京都","city":"東久留米市","address":"東久留米市下里4-1-21","lat":35.75221,"lon":139.49507},{"name":"下里しおん保育園","province":"東京都","city":"東久留米市","address":"東久留米市下里7-8-20","lat":35.76007,"lon":139.50226},{"name":"くるみ保育園","province":"東京都","city":"東久留米市","address":"東久留米市柳窪2-15-6","lat":35.74621,"lon":139.49533},{"name":"わらべ東久留米保育園","province":"東京都","city":"東久留米市","address":"東久留米市幸町1-1-24","lat":35.7595,"lon":139.52657},{"name":"東久留米おひさま保育園","province":"東京都","city":"東久留米市","address":"東久留米市幸町1-21-14","lat":35.7603,"lon":139.52333},{"name":"いちご保育園","province":"東京都","city":"東久留米市","address":"東久留米市本町1-5-15","lat":35.75942,"lon":139.53423},{"name":"ちゅうおう保育園","province":"東京都","city":"東久留米市","address":"東久留米市中央町1-2-4","lat":35.75691,"lon":139.5271},{"name":"こでまり保育園","province":"東京都","city":"東久留米市","address":"東久留米市中央町2-3-57","lat":35.75352,"lon":139.52118},{"name":"上の原さくら保育園","province":"東京都","city":"東久留米市","address":"東久留米市上の原1-2-44","lat":35.77181,"lon":139.54579},{"name":"上の原さくら保育園","province":"東京都","city":"東久留米市","address":"東久留米市上の原1-2-44","lat":35.76878,"lon":139.54103},{"name":"久留米みのり保育園","province":"東京都","city":"東久留米市","address":"東久留米市大門町1-3-4","lat":35.76278,"lon":139.53877},{"name":"しんかわ保育園","province":"東京都","city":"東久留米市","address":"東久留米市新川町1-1-12","lat":35.7583,"lon":139.53708},{"name":"トレジャーキッズひがしくるめ保育園","province":"東京都","city":"東久留米市","address":"東久留米市新川町1-9-14サンライズ","lat":35.76189,"lon":139.53659},{"name":"Ｎｉｃｏｔ東久留米","province":"東京都","city":"東久留米市","address":"東久留米市東本町1-8Emio東久留米1F","lat":35.76096,"lon":139.53357},{"name":"まなびの森保育園ひばりヶ丘","province":"東京都","city":"東久留米市","address":"東久留米市学園町1-14-23","lat":35.75112,"lon":139.53976},{"name":"ひばり保育園","province":"東京都","city":"東久留米市","address":"東久留米市ひばりが丘団地8-10","lat":35.74722,"lon":139.53172},{"name":"わらべみなみ保育園","province":"東京都","city":"東久留米市","address":"東久留米市南町1-8-51","lat":35.74158,"lon":139.52573},{"name":"かたばみ保育園","province":"東京都","city":"東久留米市","address":"東久留米市前沢1-4-35","lat":35.74609,"lon":139.51709},{"name":"まえさわ保育園","province":"東京都","city":"東久留米市","address":"東久留米市前沢1-5-30","lat":35.74794,"lon":139.51509},{"name":"たきやま保育園","province":"東京都","city":"東久留米市","address":"東久留米市滝山6-1-2","lat":35.74607,"lon":139.5043},{"name":"滝山しおん保育園","province":"東京都","city":"東久留米市","address":"東久留米市滝山7-5-12","lat":35.74779,"lon":139.50757},{"name":"はちまん保育園","province":"東京都","city":"東久留米市","address":"東久留米市八幡町2-14-22","lat":35.75594,"lon":139.51439},{"name":"はくさん保育園","province":"東京都","city":"東久留米市","address":"東久留米市下里3-2-23","lat":35.75205,"lon":139.5031},{"name":"あそか保育園","province":"東京都","city":"東久留米市","address":"東久留米市下里4-1-21","lat":35.75221,"lon":139.49507},{"name":"下里しおん保育園","province":"東京都","city":"東久留米市","address":"東久留米市下里7-8-20","lat":35.76007,"lon":139.50226},{"name":"くるみ保育園","province":"東京都","city":"東久留米市","address":"東久留米市柳窪2-15-6","lat":35.74621,"lon":139.49533},{"name":"わらべ東久留米保育園","province":"東京都","city":"東久留米市","address":"東久留米市幸町1-1-24","lat":35.7595,"lon":139.52657},{"name":"東久留米おひさま保育園","province":"東京都","city":"東久留米市","address":"東久留米市幸町1-21-14","lat":35.7603,"lon":139.52333},{"name":"いちご保育園","province":"東京都","city":"東久留米市","address":"東久留米市本町1-5-15","lat":35.75942,"lon":139.53423},{"name":"ちゅうおう保育園","province":"東京都","city":"東久留米市","address":"東久留米市中央町1-2-4","lat":35.75691,"lon":139.5271},{"name":"こでまり保育園","province":"東京都","city":"東久留米市","address":"東久留米市中央町2-3-57","lat":35.75352,"lon":139.52118},{"name":"上の原さくら保育園","province":"東京都","city":"東久留米市","address":"東久留米市上の原1-2-44","lat":35.77181,"lon":139.54579},{"name":"上の原さくら保育園","province":"東京都","city":"東久留米市","address":"東久留米市上の原1-2-44","lat":35.76878,"lon":139.54103},{"name":"久留米みのり保育園","province":"東京都","city":"東久留米市","address":"東久留米市大門町1-3-4","lat":35.76278,"lon":139.53877},{"name":"しんかわ保育園","province":"東京都","city":"東久留米市","address":"東久留米市新川町1-1-12","lat":35.7583,"lon":139.53708},{"name":"トレジャーキッズひがしくるめ保育園","province":"東京都","city":"東久留米市","address":"東久留米市新川町1-9-14サンライズ","lat":35.76189,"lon":139.53659},{"name":"Ｎｉｃｏｔ東久留米","province":"東京都","city":"東久留米市","address":"東久留米市東本町1-8Emio東久留米1F","lat":35.76096,"lon":139.53357},{"name":"まなびの森保育園ひばりヶ丘","province":"東京都","city":"東久留米市","address":"東久留米市学園町1-14-23","lat":35.75112,"lon":139.53976},{"name":"ひばり保育園","province":"東京都","city":"東久留米市","address":"東久留米市ひばりが丘団地8-10","lat":35.74722,"lon":139.53172},{"name":"わらべみなみ保育園","province":"東京都","city":"東久留米市","address":"東久留米市南町1-8-51","lat":35.74158,"lon":139.52573},{"name":"かたばみ保育園","province":"東京都","city":"東久留米市","address":"東久留米市前沢1-4-35","lat":35.74609,"lon":139.51709},{"name":"まえさわ保育園","province":"東京都","city":"東久留米市","address":"東久留米市前沢1-5-30","lat":35.74794,"lon":139.51509},{"name":"たきやま保育園","province":"東京都","city":"東久留米市","address":"東久留米市滝山6-1-2","lat":35.74607,"lon":139.5043},{"name":"滝山しおん保育園","province":"東京都","city":"東久留米市","address":"東久留米市滝山7-5-12","lat":35.74779,"lon":139.50757},{"name":"はちまん保育園","province":"東京都","city":"東久留米市","address":"東久留米市八幡町2-14-22","lat":35.75594,"lon":139.51439},{"name":"はくさん保育園","province":"東京都","city":"東久留米市","address":"東久留米市下里3-2-23","lat":35.75205,"lon":139.5031},{"name":"あそか保育園","province":"東京都","city":"東久留米市","address":"東久留米市下里4-1-21","lat":35.75221,"lon":139.49507},{"name":"下里しおん保育園","province":"東京都","city":"東久留米市","address":"東久留米市下里7-8-20","lat":35.76007,"lon":139.50226},{"name":"くるみ保育園","province":"東京都","city":"東久留米市","address":"東久留米市柳窪2-15-6","lat":35.74621,"lon":139.49533},{"name":"わらべ東久留米保育園","province":"東京都","city":"東久留米市","address":"東久留米市幸町1-1-24","lat":35.7595,"lon":139.52657},{"name":"東久留米おひさま保育園","province":"東京都","city":"東久留米市","address":"東久留米市幸町1-21-14","lat":35.7603,"lon":139.52333},{"name":"いちご保育園","province":"東京都","city":"東久留米市","address":"東久留米市本町1-5-15","lat":35.75942,"lon":139.53423},{"name":"ちゅうおう保育園","province":"東京都","city":"東久留米市","address":"東久留米市中央町1-2-4","lat":35.75691,"lon":139.5271},{"name":"こでまり保育園","province":"東京都","city":"東久留米市","address":"東久留米市中央町2-3-57","lat":35.75352,"lon":139.52118},{"name":"上の原さくら保育園","province":"東京都","city":"東久留米市","address":"東久留米市上の原1-2-44","lat":35.77181,"lon":139.54579},{"name":"上の原さくら保育園","province":"東京都","city":"東久留米市","address":"東久留米市上の原1-2-44","lat":35.76878,"lon":139.54103},{"name":"久留米みのり保育園","province":"東京都","city":"東久留米市","address":"東久留米市大門町1-3-4","lat":35.76278,"lon":139.53877},{"name":"しんかわ保育園","province":"東京都","city":"東久留米市","address":"東久留米市新川町1-1-12","lat":35.7583,"lon":139.53708},{"name":"トレジャーキッズひがしくるめ保育園","province":"東京都","city":"東久留米市","address":"東久留米市新川町1-9-14サンライズ","lat":35.76189,"lon":139.53659},{"name":"Ｎｉｃｏｔ東久留米","province":"東京都","city":"東久留米市","address":"東久留米市東本町1-8Emio東久留米1F","lat":35.76096,"lon":139.53357},{"name":"まなびの森保育園ひばりヶ丘","province":"東京都","city":"東久留米市","address":"東久留米市学園町1-14-23","lat":35.75112,"lon":139.53976},{"name":"ひばり保育園","province":"東京都","city":"東久留米市","address":"東久留米市ひばりが丘団地8-10","lat":35.74722,"lon":139.53172},{"name":"わらべみなみ保育園","province":"東京都","city":"東久留米市","address":"東久留米市南町1-8-51","lat":35.74158,"lon":139.52573},{"name":"かたばみ保育園","province":"東京都","city":"東久留米市","address":"東久留米市前沢1-4-35","lat":35.74609,"lon":139.51709},{"name":"まえさわ保育園","province":"東京都","city":"東久留米市","address":"東久留米市前沢1-5-30","lat":35.74794,"lon":139.51509},{"name":"たきやま保育園","province":"東京都","city":"東久留米市","address":"東久留米市滝山6-1-2","lat":35.74607,"lon":139.5043},{"name":"滝山しおん保育園","province":"東京都","city":"東久留米市","address":"東久留米市滝山7-5-12","lat":35.74779,"lon":139.50757},{"name":"はちまん保育園","province":"東京都","city":"東久留米市","address":"東久留米市八幡町2-14-22","lat":35.75594,"lon":139.51439},{"name":"はくさん保育園","province":"東京都","city":"東久留米市","address":"東久留米市下里3-2-23","lat":35.75205,"lon":139.5031},{"name":"あそか保育園","province":"東京都","city":"東久留米市","address":"東久留米市下里4-1-21","lat":35.75221,"lon":139.49507},{"name":"下里しおん保育園","province":"東京都","city":"東久留米市","address":"東久留米市下里7-8-20","lat":35.76007,"lon":139.50226},{"name":"くるみ保育園","province":"東京都","city":"東久留米市","address":"東久留米市柳窪2-15-6","lat":35.74621,"lon":139.49533},{"name":"わらべ東久留米保育園","province":"東京都","city":"東久留米市","address":"東久留米市幸町1-1-24","lat":35.7595,"lon":139.52657},{"name":"東久留米おひさま保育園","province":"東京都","city":"東久留米市","address":"東久留米市幸町1-21-14","lat":35.7603,"lon":139.52333},{"name":"いちご保育園","province":"東京都","city":"東久留米市","address":"東久留米市本町1-5-15","lat":35.75942,"lon":139.53423},{"name":"ちゅうおう保育園","province":"東京都","city":"東久留米市","address":"東久留米市中央町1-2-4","lat":35.75691,"lon":139.5271},{"name":"こでまり保育園","province":"東京都","city":"東久留米市","address":"東久留米市中央町2-3-57","lat":35.75352,"lon":139.52118},{"name":"上の原さくら保育園","province":"東京都","city":"東久留米市","address":"東久留米市上の原1-2-44","lat":35.77181,"lon":139.54579},{"name":"上の原さくら保育園","province":"東京都","city":"東久留米市","address":"東久留米市上の原1-2-44","lat":35.76878,"lon":139.54103},{"name":"久留米みのり保育園","province":"東京都","city":"東久留米市","address":"東久留米市大門町1-3-4","lat":35.76278,"lon":139.53877},{"name":"しんかわ保育園","province":"東京都","city":"東久留米市","address":"東久留米市新川町1-1-12","lat":35.7583,"lon":139.53708},{"name":"トレジャーキッズひがしくるめ保育園","province":"東京都","city":"東久留米市","address":"東久留米市新川町1-9-14サンライズ","lat":35.76189,"lon":139.53659},{"name":"Ｎｉｃｏｔ東久留米","province":"東京都","city":"東久留米市","address":"東久留米市東本町1-8Emio東久留米1F","lat":35.76096,"lon":139.53357},{"name":"まなびの森保育園ひばりヶ丘","province":"東京都","city":"東久留米市","address":"東久留米市学園町1-14-23","lat":35.75112,"lon":139.53976},{"name":"ひばり保育園","province":"東京都","city":"東久留米市","address":"東久留米市ひばりが丘団地8-10","lat":35.74722,"lon":139.53172},{"name":"わらべみなみ保育園","province":"東京都","city":"東久留米市","address":"東久留米市南町1-8-51","lat":35.74158,"lon":139.52573},{"name":"かたばみ保育園","province":"東京都","city":"東久留米市","address":"東久留米市前沢1-4-35","lat":35.74609,"lon":139.51709},{"name":"まえさわ保育園","province":"東京都","city":"東久留米市","address":"東久留米市前沢1-5-30","lat":35.74794,"lon":139.51509},{"name":"たきやま保育園","province":"東京都","city":"東久留米市","address":"東久留米市滝山6-1-2","lat":35.74607,"lon":139.5043},{"name":"滝山しおん保育園","province":"東京都","city":"東久留米市","address":"東久留米市滝山7-5-12","lat":35.74779,"lon":139.50757},{"name":"はちまん保育園","province":"東京都","city":"東久留米市","address":"東久留米市八幡町2-14-22","lat":35.75594,"lon":139.51439},{"name":"はくさん保育園","province":"東京都","city":"東久留米市","address":"東久留米市下里3-2-23","lat":35.75205,"lon":139.5031},{"name":"あそか保育園","province":"東京都","city":"東久留米市","address":"東久留米市下里4-1-21","lat":35.75221,"lon":139.49507},{"name":"下里しおん保育園","province":"東京都","city":"東久留米市","address":"東久留米市下里7-8-20","lat":35.76007,"lon":139.50226},{"name":"くるみ保育園","province":"東京都","city":"東久留米市","address":"東久留米市柳窪2-15-6","lat":35.74621,"lon":139.49533},{"name":"わらべ東久留米保育園","province":"東京都","city":"東久留米市","address":"東久留米市幸町1-1-24","lat":35.7595,"lon":139.52657},{"name":"東久留米おひさま保育園","province":"東京都","city":"東久留米市","address":"東久留米市幸町1-21-14","lat":35.7603,"lon":139.52333},{"name":"いちご保育園","province":"東京都","city":"東久留米市","address":"東久留米市本町1-5-15","lat":35.75942,"lon":139.53423},{"name":"ちゅうおう保育園","province":"東京都","city":"東久留米市","address":"東久留米市中央町1-2-4","lat":35.75691,"lon":139.5271},{"name":"こでまり保育園","province":"東京都","city":"東久留米市","address":"東久留米市中央町2-3-57","lat":35.75352,"lon":139.52118},{"name":"上の原さくら保育園","province":"東京都","city":"東久留米市","address":"東久留米市上の原1-2-44","lat":35.77181,"lon":139.54579},{"name":"上の原さくら保育園","province":"東京都","city":"東久留米市","address":"東久留米市上の原1-2-44","lat":35.76878,"lon":139.54103},{"name":"久留米みのり保育園","province":"東京都","city":"東久留米市","address":"東久留米市大門町1-3-4","lat":35.76278,"lon":139.53877},{"name":"しんかわ保育園","province":"東京都","city":"東久留米市","address":"東久留米市新川町1-1-12","lat":35.7583,"lon":139.53708},{"name":"トレジャーキッズひがしくるめ保育園","province":"東京都","city":"東久留米市","address":"東久留米市新川町1-9-14サンライズ","lat":35.76189,"lon":139.53659},{"name":"Ｎｉｃｏｔ東久留米","province":"東京都","city":"東久留米市","address":"東久留米市東本町1-8Emio東久留米1F","lat":35.76096,"lon":139.53357},{"name":"まなびの森保育園ひばりヶ丘","province":"東京都","city":"東久留米市","address":"東久留米市学園町1-14-23","lat":35.75112,"lon":139.53976},{"name":"ひばり保育園","province":"東京都","city":"東久留米市","address":"東久留米市ひばりが丘団地8-10","lat":35.74722,"lon":139.53172},{"name":"わらべみなみ保育園","province":"東京都","city":"東久留米市","address":"東久留米市南町1-8-51","lat":35.74158,"lon":139.52573},{"name":"かたばみ保育園","province":"東京都","city":"東久留米市","address":"東久留米市前沢1-4-35","lat":35.74609,"lon":139.51709},{"name":"まえさわ保育園","province":"東京都","city":"東久留米市","address":"東久留米市前沢1-5-30","lat":35.74794,"lon":139.51509},{"name":"たきやま保育園","province":"東京都","city":"東久留米市","address":"東久留米市滝山6-1-2","lat":35.74607,"lon":139.5043},{"name":"滝山しおん保育園","province":"東京都","city":"東久留米市","address":"東久留米市滝山7-5-12","lat":35.74779,"lon":139.50757},{"name":"はちまん保育園","province":"東京都","city":"東久留米市","address":"東久留米市八幡町2-14-22","lat":35.75594,"lon":139.51439},{"name":"はくさん保育園","province":"東京都","city":"東久留米市","address":"東久留米市下里3-2-23","lat":35.75205,"lon":139.5031},{"name":"あそか保育園","province":"東京都","city":"東久留米市","address":"東久留米市下里4-1-21","lat":35.75221,"lon":139.49507},{"name":"下里しおん保育園","province":"東京都","city":"東久留米市","address":"東久留米市下里7-8-20","lat":35.76007,"lon":139.50226},{"name":"くるみ保育園","province":"東京都","city":"東久留米市","address":"東久留米市柳窪2-15-6","lat":35.74621,"lon":139.49533},{"name":"わらべ東久留米保育園","province":"東京都","city":"東久留米市","address":"東久留米市幸町1-1-24","lat":35.7595,"lon":139.52657},{"name":"東久留米おひさま保育園","province":"東京都","city":"東久留米市","address":"東久留米市幸町1-21-14","lat":35.7603,"lon":139.52333},{"name":"いちご保育園","province":"東京都","city":"東久留米市","address":"東久留米市本町1-5-15","lat":35.75942,"lon":139.53423},{"name":"ちゅうおう保育園","province":"東京都","city":"東久留米市","address":"東久留米市中央町1-2-4","lat":35.75691,"lon":139.5271},{"name":"こでまり保育園","province":"東京都","city":"東久留米市","address":"東久留米市中央町2-3-57","lat":35.75352,"lon":139.52118},{"name":"上の原さくら保育園","province":"東京都","city":"東久留米市","address":"東久留米市上の原1-2-44","lat":35.77181,"lon":139.54579},{"name":"上の原さくら保育園","province":"東京都","city":"東久留米市","address":"東久留米市上の原1-2-44","lat":35.76878,"lon":139.54103},{"name":"久留米みのり保育園","province":"東京都","city":"東久留米市","address":"東久留米市大門町1-3-4","lat":35.76278,"lon":139.53877},{"name":"しんかわ保育園","province":"東京都","city":"東久留米市","address":"東久留米市新川町1-1-12","lat":35.7583,"lon":139.53708},{"name":"トレジャーキッズひがしくるめ保育園","province":"東京都","city":"東久留米市","address":"東久留米市新川町1-9-14サンライズ","lat":35.76189,"lon":139.53659},{"name":"Ｎｉｃｏｔ東久留米","province":"東京都","city":"東久留米市","address":"東久留米市東本町1-8Emio東久留米1F","lat":35.76096,"lon":139.53357},{"name":"まなびの森保育園ひばりヶ丘","province":"東京都","city":"東久留米市","address":"東久留米市学園町1-14-23","lat":35.75112,"lon":139.53976},{"name":"ひばり保育園","province":"東京都","city":"東久留米市","address":"東久留米市ひばりが丘団地8-10","lat":35.74722,"lon":139.53172},{"name":"わらべみなみ保育園","province":"東京都","city":"東久留米市","address":"東久留米市南町1-8-51","lat":35.74158,"lon":139.52573},{"name":"かたばみ保育園","province":"東京都","city":"東久留米市","address":"東久留米市前沢1-4-35","lat":35.74609,"lon":139.51709},{"name":"まえさわ保育園","province":"東京都","city":"東久留米市","address":"東久留米市前沢1-5-30","lat":35.74794,"lon":139.51509},{"name":"たきやま保育園","province":"東京都","city":"東久留米市","address":"東久留米市滝山6-1-2","lat":35.74607,"lon":139.5043},{"name":"滝山しおん保育園","province":"東京都","city":"東久留米市","address":"東久留米市滝山7-5-12","lat":35.74779,"lon":139.50757},{"name":"はちまん保育園","province":"東京都","city":"東久留米市","address":"東久留米市八幡町2-14-22","lat":35.75594,"lon":139.51439},{"name":"はくさん保育園","province":"東京都","city":"東久留米市","address":"東久留米市下里3-2-23","lat":35.75205,"lon":139.5031},{"name":"あそか保育園","province":"東京都","city":"東久留米市","address":"東久留米市下里4-1-21","lat":35.75221,"lon":139.49507},{"name":"下里しおん保育園","province":"東京都","city":"東久留米市","address":"東久留米市下里7-8-20","lat":35.76007,"lon":139.50226},{"name":"くるみ保育園","province":"東京都","city":"東久留米市","address":"東久留米市柳窪2-15-6","lat":35.74621,"lon":139.49533},{"name":"わらべ東久留米保育園","province":"東京都","city":"東久留米市","address":"東久留米市幸町1-1-24","lat":35.7595,"lon":139.52657},{"name":"東久留米おひさま保育園","province":"東京都","city":"東久留米市","address":"東久留米市幸町1-21-14","lat":35.7603,"lon":139.52333},{"name":"いちご保育園","province":"東京都","city":"東久留米市","address":"東久留米市本町1-5-15","lat":35.75942,"lon":139.53423},{"name":"ちゅうおう保育園","province":"東京都","city":"東久留米市","address":"東久留米市中央町1-2-4","lat":35.75691,"lon":139.5271},{"name":"こでまり保育園","province":"東京都","city":"東久留米市","address":"東久留米市中央町2-3-57","lat":35.75352,"lon":139.52118},{"name":"上の原さくら保育園","province":"東京都","city":"東久留米市","address":"東久留米市上の原1-2-44","lat":35.77181,"lon":139.54579},{"name":"上の原さくら保育園","province":"東京都","city":"東久留米市","address":"東久留米市上の原1-2-44","lat":35.76878,"lon":139.54103},{"name":"久留米みのり保育園","province":"東京都","city":"東久留米市","address":"東久留米市大門町1-3-4","lat":35.76278,"lon":139.53877},{"name":"しんかわ保育園","province":"東京都","city":"東久留米市","address":"東久留米市新川町1-1-12","lat":35.7583,"lon":139.53708},{"name":"トレジャーキッズひがしくるめ保育園","province":"東京都","city":"東久留米市","address":"東久留米市新川町1-9-14サンライズ","lat":35.76189,"lon":139.53659},{"name":"Ｎｉｃｏｔ東久留米","province":"東京都","city":"東久留米市","address":"東久留米市東本町1-8Emio東久留米1F","lat":35.76096,"lon":139.53357},{"name":"まなびの森保育園ひばりヶ丘","province":"東京都","city":"東久留米市","address":"東久留米市学園町1-14-23","lat":35.75112,"lon":139.53976},{"name":"ひばり保育園","province":"東京都","city":"東久留米市","address":"東久留米市ひばりが丘団地8-10","lat":35.74722,"lon":139.53172},{"name":"わらべみなみ保育園","province":"東京都","city":"東久留米市","address":"東久留米市南町1-8-51","lat":35.74158,"lon":139.52573},{"name":"かたばみ保育園","province":"東京都","city":"東久留米市","address":"東久留米市前沢1-4-35","lat":35.74609,"lon":139.51709},{"name":"まえさわ保育園","province":"東京都","city":"東久留米市","address":"東久留米市前沢1-5-30","lat":35.74794,"lon":139.51509},{"name":"たきやま保育園","province":"東京都","city":"東久留米市","address":"東久留米市滝山6-1-2","lat":35.74607,"lon":139.5043},{"name":"滝山しおん保育園","province":"東京都","city":"東久留米市","address":"東久留米市滝山7-5-12","lat":35.74779,"lon":139.50757},{"name":"はちまん保育園","province":"東京都","city":"東久留米市","address":"東久留米市八幡町2-14-22","lat":35.75594,"lon":139.51439},{"name":"はくさん保育園","province":"東京都","city":"東久留米市","address":"東久留米市下里3-2-23","lat":35.75205,"lon":139.5031},{"name":"あそか保育園","province":"東京都","city":"東久留米市","address":"東久留米市下里4-1-21","lat":35.75221,"lon":139.49507},{"name":"下里しおん保育園","province":"東京都","city":"東久留米市","address":"東久留米市下里7-8-20","lat":35.76007,"lon":139.50226},{"name":"くるみ保育園","province":"東京都","city":"東久留米市","address":"東久留米市柳窪2-15-6","lat":35.74621,"lon":139.49533},{"name":"わらべ東久留米保育園","province":"東京都","city":"東久留米市","address":"東久留米市幸町1-1-24","lat":35.7595,"lon":139.52657},{"name":"東久留米おひさま保育園","province":"東京都","city":"東久留米市","address":"東久留米市幸町1-21-14","lat":35.7603,"lon":139.52333},{"name":"いちご保育園","province":"東京都","city":"東久留米市","address":"東久留米市本町1-5-15","lat":35.75942,"lon":139.53423},{"name":"ちゅうおう保育園","province":"東京都","city":"東久留米市","address":"東久留米市中央町1-2-4","lat":35.75691,"lon":139.5271},{"name":"こでまり保育園","province":"東京都","city":"東久留米市","address":"東久留米市中央町2-3-57","lat":35.75352,"lon":139.52118},{"name":"上の原さくら保育園","province":"東京都","city":"東久留米市","address":"東久留米市上の原1-2-44","lat":35.77181,"lon":139.54579},{"name":"上の原さくら保育園","province":"東京都","city":"東久留米市","address":"東久留米市上の原1-2-44","lat":35.76878,"lon":139.54103},{"name":"久留米みのり保育園","province":"東京都","city":"東久留米市","address":"東久留米市大門町1-3-4","lat":35.76278,"lon":139.53877},{"name":"しんかわ保育園","province":"東京都","city":"東久留米市","address":"東久留米市新川町1-1-12","lat":35.7583,"lon":139.53708},{"name":"トレジャーキッズひがしくるめ保育園","province":"東京都","city":"東久留米市","address":"東久留米市新川町1-9-14サンライズ","lat":35.76189,"lon":139.53659},{"name":"Ｎｉｃｏｔ東久留米","province":"東京都","city":"東久留米市","address":"東久留米市東本町1-8Emio東久留米1F","lat":35.76096,"lon":139.53357},{"name":"まなびの森保育園ひばりヶ丘","province":"東京都","city":"東久留米市","address":"東久留米市学園町1-14-23","lat":35.75112,"lon":139.53976},{"name":"ひばり保育園","province":"東京都","city":"東久留米市","address":"東久留米市ひばりが丘団地8-10","lat":35.74722,"lon":139.53172},{"name":"わらべみなみ保育園","province":"東京都","city":"東久留米市","address":"東久留米市南町1-8-51","lat":35.74158,"lon":139.52573},{"name":"かたばみ保育園","province":"東京都","city":"東久留米市","address":"東久留米市前沢1-4-35","lat":35.74609,"lon":139.51709},{"name":"まえさわ保育園","province":"東京都","city":"東久留米市","address":"東久留米市前沢1-5-30","lat":35.74794,"lon":139.51509},{"name":"たきやま保育園","province":"東京都","city":"東久留米市","address":"東久留米市滝山6-1-2","lat":35.74607,"lon":139.5043},{"name":"滝山しおん保育園","province":"東京都","city":"東久留米市","address":"東久留米市滝山7-5-12","lat":35.74779,"lon":139.50757},{"name":"はちまん保育園","province":"東京都","city":"東久留米市","address":"東久留米市八幡町2-14-22","lat":35.75594,"lon":139.51439},{"name":"はくさん保育園","province":"東京都","city":"東久留米市","address":"東久留米市下里3-2-23","lat":35.75205,"lon":139.5031},{"name":"あそか保育園","province":"東京都","city":"東久留米市","address":"東久留米市下里4-1-21","lat":35.75221,"lon":139.49507},{"name":"下里しおん保育園","province":"東京都","city":"東久留米市","address":"東久留米市下里7-8-20","lat":35.76007,"lon":139.50226},{"name":"くるみ保育園","province":"東京都","city":"東久留米市","address":"東久留米市柳窪2-15-6","lat":35.74621,"lon":139.49533},{"name":"わらべ東久留米保育園","province":"東京都","city":"東久留米市","address":"東久留米市幸町1-1-24","lat":35.7595,"lon":139.52657},{"name":"東久留米おひさま保育園","province":"東京都","city":"東久留米市","address":"東久留米市幸町1-21-14","lat":35.7603,"lon":139.52333},{"name":"いちご保育園","province":"東京都","city":"東久留米市","address":"東久留米市本町1-5-15","lat":35.75942,"lon":139.53423},{"name":"ちゅうおう保育園","province":"東京都","city":"東久留米市","address":"東久留米市中央町1-2-4","lat":35.75691,"lon":139.5271},{"name":"こでまり保育園","province":"東京都","city":"東久留米市","address":"東久留米市中央町2-3-57","lat":35.75352,"lon":139.52118},{"name":"上の原さくら保育園","province":"東京都","city":"東久留米市","address":"東久留米市上の原1-2-44","lat":35.77181,"lon":139.54579},{"name":"上の原さくら保育園","province":"東京都","city":"東久留米市","address":"東久留米市上の原1-2-44","lat":35.76878,"lon":139.54103},{"name":"久留米みのり保育園","province":"東京都","city":"東久留米市","address":"東久留米市大門町1-3-4","lat":35.76278,"lon":139.53877},{"name":"しんかわ保育園","province":"東京都","city":"東久留米市","address":"東久留米市新川町1-1-12","lat":35.7583,"lon":139.53708},{"name":"トレジャーキッズひがしくるめ保育園","province":"東京都","city":"東久留米市","address":"東久留米市新川町1-9-14サンライズ","lat":35.76189,"lon":139.53659},{"name":"Ｎｉｃｏｔ東久留米","province":"東京都","city":"東久留米市","address":"東久留米市東本町1-8Emio東久留米1F","lat":35.76096,"lon":139.53357},{"name":"まなびの森保育園ひばりヶ丘","province":"東京都","city":"東久留米市","address":"東久留米市学園町1-14-23","lat":35.75112,"lon":139.53976},{"name":"ひばり保育園","province":"東京都","city":"東久留米市","address":"東久留米市ひばりが丘団地8-10","lat":35.74722,"lon":139.53172},{"name":"わらべみなみ保育園","province":"東京都","city":"東久留米市","address":"東久留米市南町1-8-51","lat":35.74158,"lon":139.52573},{"name":"かたばみ保育園","province":"東京都","city":"東久留米市","address":"東久留米市前沢1-4-35","lat":35.74609,"lon":139.51709},{"name":"まえさわ保育園","province":"東京都","city":"東久留米市","address":"東久留米市前沢1-5-30","lat":35.74794,"lon":139.51509},{"name":"たきやま保育園","province":"東京都","city":"東久留米市","address":"東久留米市滝山6-1-2","lat":35.74607,"lon":139.5043},{"name":"滝山しおん保育園","province":"東京都","city":"東久留米市","address":"東久留米市滝山7-5-12","lat":35.74779,"lon":139.50757},{"name":"はちまん保育園","province":"東京都","city":"東久留米市","address":"東久留米市八幡町2-14-22","lat":35.75594,"lon":139.51439},{"name":"はくさん保育園","province":"東京都","city":"東久留米市","address":"東久留米市下里3-2-23","lat":35.75205,"lon":139.5031},{"name":"あそか保育園","province":"東京都","city":"東久留米市","address":"東久留米市下里4-1-21","lat":35.75221,"lon":139.49507},{"name":"下里しおん保育園","province":"東京都","city":"東久留米市","address":"東久留米市下里7-8-20","lat":35.76007,"lon":139.50226},{"name":"くるみ保育園","province":"東京都","city":"東久留米市","address":"東久留米市柳窪2-15-6","lat":35.74621,"lon":139.49533},{"name":"わらべ東久留米保育園","province":"東京都","city":"東久留米市","address":"東久留米市幸町1-1-24","lat":35.7595,"lon":139.52657},{"name":"東久留米おひさま保育園","province":"東京都","city":"東久留米市","address":"東久留米市幸町1-21-14","lat":35.7603,"lon":139.52333},{"name":"いちご保育園","province":"東京都","city":"東久留米市","address":"東久留米市本町1-5-15","lat":35.75942,"lon":139.53423},{"name":"ちゅうおう保育園","province":"東京都","city":"東久留米市","address":"東久留米市中央町1-2-4","lat":35.75691,"lon":139.5271},{"name":"こでまり保育園","province":"東京都","city":"東久留米市","address":"東久留米市中央町2-3-57","lat":35.75352,"lon":139.52118},{"name":"上の原さくら保育園","province":"東京都","city":"東久留米市","address":"東久留米市上の原1-2-44","lat":35.77181,"lon":139.54579},{"name":"上の原さくら保育園","province":"東京都","city":"東久留米市","address":"東久留米市上の原1-2-44","lat":35.76878,"lon":139.54103},{"name":"久留米みのり保育園","province":"東京都","city":"東久留米市","address":"東久留米市大門町1-3-4","lat":35.76278,"lon":139.53877},{"name":"しんかわ保育園","province":"東京都","city":"東久留米市","address":"東久留米市新川町1-1-12","lat":35.7583,"lon":139.53708},{"name":"トレジャーキッズひがしくるめ保育園","province":"東京都","city":"東久留米市","address":"東久留米市新川町1-9-14サンライズ","lat":35.76189,"lon":139.53659},{"name":"Ｎｉｃｏｔ東久留米","province":"東京都","city":"東久留米市","address":"東久留米市東本町1-8Emio東久留米1F","lat":35.76096,"lon":139.53357},{"name":"まなびの森保育園ひばりヶ丘","province":"東京都","city":"東久留米市","address":"東久留米市学園町1-14-23","lat":35.75112,"lon":139.53976},{"name":"ひばり保育園","province":"東京都","city":"東久留米市","address":"東久留米市ひばりが丘団地8-10","lat":35.74722,"lon":139.53172},{"name":"わらべみなみ保育園","province":"東京都","city":"東久留米市","address":"東久留米市南町1-8-51","lat":35.74158,"lon":139.52573},{"name":"かたばみ保育園","province":"東京都","city":"東久留米市","address":"東久留米市前沢1-4-35","lat":35.74609,"lon":139.51709},{"name":"まえさわ保育園","province":"東京都","city":"東久留米市","address":"東久留米市前沢1-5-30","lat":35.74794,"lon":139.51509},{"name":"たきやま保育園","province":"東京都","city":"東久留米市","address":"東久留米市滝山6-1-2","lat":35.74607,"lon":139.5043},{"name":"滝山しおん保育園","province":"東京都","city":"東久留米市","address":"東久留米市滝山7-5-12","lat":35.74779,"lon":139.50757},{"name":"はちまん保育園","province":"東京都","city":"東久留米市","address":"東久留米市八幡町2-14-22","lat":35.75594,"lon":139.51439},{"name":"はくさん保育園","province":"東京都","city":"東久留米市","address":"東久留米市下里3-2-23","lat":35.75205,"lon":139.5031},{"name":"あそか保育園","province":"東京都","city":"東久留米市","address":"東久留米市下里4-1-21","lat":35.75221,"lon":139.49507},{"name":"下里しおん保育園","province":"東京都","city":"東久留米市","address":"東久留米市下里7-8-20","lat":35.76007,"lon":139.50226},{"name":"くるみ保育園","province":"東京都","city":"東久留米市","address":"東久留米市柳窪2-15-6","lat":35.74621,"lon":139.49533},{"name":"わらべ東久留米保育園","province":"東京都","city":"東久留米市","address":"東久留米市幸町1-1-24","lat":35.7595,"lon":139.52657},{"name":"東久留米おひさま保育園","province":"東京都","city":"東久留米市","address":"東久留米市幸町1-21-14","lat":35.7603,"lon":139.52333},{"name":"いちご保育園","province":"東京都","city":"東久留米市","address":"東久留米市本町1-5-15","lat":35.75942,"lon":139.53423},{"name":"ちゅうおう保育園","province":"東京都","city":"東久留米市","address":"東久留米市中央町1-2-4","lat":35.75691,"lon":139.5271},{"name":"こでまり保育園","province":"東京都","city":"東久留米市","address":"東久留米市中央町2-3-57","lat":35.75352,"lon":139.52118},{"name":"上の原さくら保育園","province":"東京都","city":"東久留米市","address":"東久留米市上の原1-2-44","lat":35.77181,"lon":139.54579},{"name":"上の原さくら保育園","province":"東京都","city":"東久留米市","address":"東久留米市上の原1-2-44","lat":35.76878,"lon":139.54103},{"name":"久留米みのり保育園","province":"東京都","city":"東久留米市","address":"東久留米市大門町1-3-4","lat":35.76278,"lon":139.53877},{"name":"しんかわ保育園","province":"東京都","city":"東久留米市","address":"東久留米市新川町1-1-12","lat":35.7583,"lon":139.53708},{"name":"トレジャーキッズひがしくるめ保育園","province":"東京都","city":"東久留米市","address":"東久留米市新川町1-9-14サンライズ","lat":35.76189,"lon":139.53659},{"name":"Ｎｉｃｏｔ東久留米","province":"東京都","city":"東久留米市","address":"東久留米市東本町1-8Emio東久留米1F","lat":35.76096,"lon":139.53357},{"name":"まなびの森保育園ひばりヶ丘","province":"東京都","city":"東久留米市","address":"東久留米市学園町1-14-23","lat":35.75112,"lon":139.53976},{"name":"ひばり保育園","province":"東京都","city":"東久留米市","address":"東久留米市ひばりが丘団地8-10","lat":35.74722,"lon":139.53172},{"name":"わらべみなみ保育園","province":"東京都","city":"東久留米市","address":"東久留米市南町1-8-51","lat":35.74158,"lon":139.52573},{"name":"かたばみ保育園","province":"東京都","city":"東久留米市","address":"東久留米市前沢1-4-35","lat":35.74609,"lon":139.51709},{"name":"まえさわ保育園","province":"東京都","city":"東久留米市","address":"東久留米市前沢1-5-30","lat":35.74794,"lon":139.51509},{"name":"たきやま保育園","province":"東京都","city":"東久留米市","address":"東久留米市滝山6-1-2","lat":35.74607,"lon":139.5043},{"name":"滝山しおん保育園","province":"東京都","city":"東久留米市","address":"東久留米市滝山7-5-12","lat":35.74779,"lon":139.50757},{"name":"はちまん保育園","province":"東京都","city":"東久留米市","address":"東久留米市八幡町2-14-22","lat":35.75594,"lon":139.51439},{"name":"はくさん保育園","province":"東京都","city":"東久留米市","address":"東久留米市下里3-2-23","lat":35.75205,"lon":139.5031},{"name":"あそか保育園","province":"東京都","city":"東久留米市","address":"東久留米市下里4-1-21","lat":35.75221,"lon":139.49507},{"name":"下里しおん保育園","province":"東京都","city":"東久留米市","address":"東久留米市下里7-8-20","lat":35.76007,"lon":139.50226},{"name":"くるみ保育園","province":"東京都","city":"東久留米市","address":"東久留米市柳窪2-15-6","lat":35.74621,"lon":139.49533},{"name":"わらべ東久留米保育園","province":"東京都","city":"東久留米市","address":"東久留米市幸町1-1-24","lat":35.7595,"lon":139.52657},{"name":"東久留米おひさま保育園","province":"東京都","city":"東久留米市","address":"東久留米市幸町1-21-14","lat":35.7603,"lon":139.52333},{"name":"いちご保育園","province":"東京都","city":"東久留米市","address":"東久留米市本町1-5-15","lat":35.75942,"lon":139.53423},{"name":"ちゅうおう保育園","province":"東京都","city":"東久留米市","address":"東久留米市中央町1-2-4","lat":35.75691,"lon":139.5271},{"name":"こでまり保育園","province":"東京都","city":"東久留米市","address":"東久留米市中央町2-3-57","lat":35.75352,"lon":139.52118},{"name":"上の原さくら保育園","province":"東京都","city":"東久留米市","address":"東久留米市上の原1-2-44","lat":35.77181,"lon":139.54579},{"name":"上の原さくら保育園","province":"東京都","city":"東久留米市","address":"東久留米市上の原1-2-44","lat":35.76878,"lon":139.54103},{"name":"久留米みのり保育園","province":"東京都","city":"東久留米市","address":"東久留米市大門町1-3-4","lat":35.76278,"lon":139.53877},{"name":"しんかわ保育園","province":"東京都","city":"東久留米市","address":"東久留米市新川町1-1-12","lat":35.7583,"lon":139.53708},{"name":"トレジャーキッズひがしくるめ保育園","province":"東京都","city":"東久留米市","address":"東久留米市新川町1-9-14サンライズ","lat":35.76189,"lon":139.53659},{"name":"Ｎｉｃｏｔ東久留米","province":"東京都","city":"東久留米市","address":"東久留米市東本町1-8Emio東久留米1F","lat":35.76096,"lon":139.53357},{"name":"まなびの森保育園ひばりヶ丘","province":"東京都","city":"東久留米市","address":"東久留米市学園町1-14-23","lat":35.75112,"lon":139.53976},{"name":"ひばり保育園","province":"東京都","city":"東久留米市","address":"東久留米市ひばりが丘団地8-10","lat":35.74722,"lon":139.53172},{"name":"わらべみなみ保育園","province":"東京都","city":"東久留米市","address":"東久留米市南町1-8-51","lat":35.74158,"lon":139.52573},{"name":"かたばみ保育園","province":"東京都","city":"東久留米市","address":"東久留米市前沢1-4-35","lat":35.74609,"lon":139.51709},{"name":"まえさわ保育園","province":"東京都","city":"東久留米市","address":"東久留米市前沢1-5-30","lat":35.74794,"lon":139.51509},{"name":"たきやま保育園","province":"東京都","city":"東久留米市","address":"東久留米市滝山6-1-2","lat":35.74607,"lon":139.5043},{"name":"滝山しおん保育園","province":"東京都","city":"東久留米市","address":"東久留米市滝山7-5-12","lat":35.74779,"lon":139.50757},{"name":"はちまん保育園","province":"東京都","city":"東久留米市","address":"東久留米市八幡町2-14-22","lat":35.75594,"lon":139.51439},{"name":"はくさん保育園","province":"東京都","city":"東久留米市","address":"東久留米市下里3-2-23","lat":35.75205,"lon":139.5031},{"name":"あそか保育園","province":"東京都","city":"東久留米市","address":"東久留米市下里4-1-21","lat":35.75221,"lon":139.49507},{"name":"下里しおん保育園","province":"東京都","city":"東久留米市","address":"東久留米市下里7-8-20","lat":35.76007,"lon":139.50226},{"name":"くるみ保育園","province":"東京都","city":"東久留米市","address":"東久留米市柳窪2-15-6","lat":35.74621,"lon":139.49533},{"name":"わらべ東久留米保育園","province":"東京都","city":"東久留米市","address":"東久留米市幸町1-1-24","lat":35.7595,"lon":139.52657},{"name":"東久留米おひさま保育園","province":"東京都","city":"東久留米市","address":"東久留米市幸町1-21-14","lat":35.7603,"lon":139.52333},{"name":"いちご保育園","province":"東京都","city":"東久留米市","address":"東久留米市本町1-5-15","lat":35.75942,"lon":139.53423},{"name":"ちゅうおう保育園","province":"東京都","city":"東久留米市","address":"東久留米市中央町1-2-4","lat":35.75691,"lon":139.5271},{"name":"こでまり保育園","province":"東京都","city":"東久留米市","address":"東久留米市中央町2-3-57","lat":35.75352,"lon":139.52118},{"name":"上の原さくら保育園","province":"東京都","city":"東久留米市","address":"東久留米市上の原1-2-44","lat":35.77181,"lon":139.54579},{"name":"上の原さくら保育園","province":"東京都","city":"東久留米市","address":"東久留米市上の原1-2-44","lat":35.76878,"lon":139.54103},{"name":"久留米みのり保育園","province":"東京都","city":"東久留米市","address":"東久留米市大門町1-3-4","lat":35.76278,"lon":139.53877},{"name":"しんかわ保育園","province":"東京都","city":"東久留米市","address":"東久留米市新川町1-1-12","lat":35.7583,"lon":139.53708},{"name":"トレジャーキッズひがしくるめ保育園","province":"東京都","city":"東久留米市","address":"東久留米市新川町1-9-14サンライズ","lat":35.76189,"lon":139.53659},{"name":"Ｎｉｃｏｔ東久留米","province":"東京都","city":"東久留米市","address":"東久留米市東本町1-8Emio東久留米1F","lat":35.76096,"lon":139.53357},{"name":"まなびの森保育園ひばりヶ丘","province":"東京都","city":"東久留米市","address":"東久留米市学園町1-14-23","lat":35.75112,"lon":139.53976},{"name":"ひばり保育園","province":"東京都","city":"東久留米市","address":"東久留米市ひばりが丘団地8-10","lat":35.74722,"lon":139.53172},{"name":"わらべみなみ保育園","province":"東京都","city":"東久留米市","address":"東久留米市南町1-8-51","lat":35.74158,"lon":139.52573},{"name":"かたばみ保育園","province":"東京都","city":"東久留米市","address":"東久留米市前沢1-4-35","lat":35.74609,"lon":139.51709},{"name":"まえさわ保育園","province":"東京都","city":"東久留米市","address":"東久留米市前沢1-5-30","lat":35.74794,"lon":139.51509},{"name":"たきやま保育園","province":"東京都","city":"東久留米市","address":"東久留米市滝山6-1-2","lat":35.74607,"lon":139.5043},{"name":"滝山しおん保育園","province":"東京都","city":"東久留米市","address":"東久留米市滝山7-5-12","lat":35.74779,"lon":139.50757},{"name":"はちまん保育園","province":"東京都","city":"東久留米市","address":"東久留米市八幡町2-14-22","lat":35.75594,"lon":139.51439},{"name":"はくさん保育園","province":"東京都","city":"東久留米市","address":"東久留米市下里3-2-23","lat":35.75205,"lon":139.5031},{"name":"あそか保育園","province":"東京都","city":"東久留米市","address":"東久留米市下里4-1-21","lat":35.75221,"lon":139.49507},{"name":"下里しおん保育園","province":"東京都","city":"東久留米市","address":"東久留米市下里7-8-20","lat":35.76007,"lon":139.50226},{"name":"くるみ保育園","province":"東京都","city":"東久留米市","address":"東久留米市柳窪2-15-6","lat":35.74621,"lon":139.49533},{"name":"わらべ東久留米保育園","province":"東京都","city":"東久留米市","address":"東久留米市幸町1-1-24","lat":35.7595,"lon":139.52657},{"name":"東久留米おひさま保育園","province":"東京都","city":"東久留米市","address":"東久留米市幸町1-21-14","lat":35.7603,"lon":139.52333},{"name":"いちご保育園","province":"東京都","city":"東久留米市","address":"東久留米市本町1-5-15","lat":35.75942,"lon":139.53423},{"name":"ちゅうおう保育園","province":"東京都","city":"東久留米市","address":"東久留米市中央町1-2-4","lat":35.75691,"lon":139.5271},{"name":"こでまり保育園","province":"東京都","city":"東久留米市","address":"東久留米市中央町2-3-57","lat":35.75352,"lon":139.52118},{"name":"上の原さくら保育園","province":"東京都","city":"東久留米市","address":"東久留米市上の原1-2-44","lat":35.77181,"lon":139.54579},{"name":"上の原さくら保育園","province":"東京都","city":"東久留米市","address":"東久留米市上の原1-2-44","lat":35.76878,"lon":139.54103},{"name":"久留米みのり保育園","province":"東京都","city":"東久留米市","address":"東久留米市大門町1-3-4","lat":35.76278,"lon":139.53877},{"name":"しんかわ保育園","province":"東京都","city":"東久留米市","address":"東久留米市新川町1-1-12","lat":35.7583,"lon":139.53708},{"name":"トレジャーキッズひがしくるめ保育園","province":"東京都","city":"東久留米市","address":"東久留米市新川町1-9-14サンライズ","lat":35.76189,"lon":139.53659},{"name":"Ｎｉｃｏｔ東久留米","province":"東京都","city":"東久留米市","address":"東久留米市東本町1-8Emio東久留米1F","lat":35.76096,"lon":139.53357},{"name":"まなびの森保育園ひばりヶ丘","province":"東京都","city":"東久留米市","address":"東久留米市学園町1-14-23","lat":35.75112,"lon":139.53976},{"name":"ひばり保育園","province":"東京都","city":"東久留米市","address":"東久留米市ひばりが丘団地8-10","lat":35.74722,"lon":139.53172},{"name":"わらべみなみ保育園","province":"東京都","city":"東久留米市","address":"東久留米市南町1-8-51","lat":35.74158,"lon":139.52573},{"name":"かたばみ保育園","province":"東京都","city":"東久留米市","address":"東久留米市前沢1-4-35","lat":35.74609,"lon":139.51709},{"name":"まえさわ保育園","province":"東京都","city":"東久留米市","address":"東久留米市前沢1-5-30","lat":35.74794,"lon":139.51509},{"name":"たきやま保育園","province":"東京都","city":"東久留米市","address":"東久留米市滝山6-1-2","lat":35.74607,"lon":139.5043},{"name":"滝山しおん保育園","province":"東京都","city":"東久留米市","address":"東久留米市滝山7-5-12","lat":35.74779,"lon":139.50757},{"name":"はちまん保育園","province":"東京都","city":"東久留米市","address":"東久留米市八幡町2-14-22","lat":35.75594,"lon":139.51439},{"name":"はくさん保育園","province":"東京都","city":"東久留米市","address":"東久留米市下里3-2-23","lat":35.75205,"lon":139.5031},{"name":"あそか保育園","province":"東京都","city":"東久留米市","address":"東久留米市下里4-1-21","lat":35.75221,"lon":139.49507},{"name":"下里しおん保育園","province":"東京都","city":"東久留米市","address":"東久留米市下里7-8-20","lat":35.76007,"lon":139.50226},{"name":"くるみ保育園","province":"東京都","city":"東久留米市","address":"東久留米市柳窪2-15-6","lat":35.74621,"lon":139.49533},{"name":"わらべ東久留米保育園","province":"東京都","city":"東久留米市","address":"東久留米市幸町1-1-24","lat":35.7595,"lon":139.52657},{"name":"東久留米おひさま保育園","province":"東京都","city":"東久留米市","address":"東久留米市幸町1-21-14","lat":35.7603,"lon":139.52333},{"name":"いちご保育園","province":"東京都","city":"東久留米市","address":"東久留米市本町1-5-15","lat":35.75942,"lon":139.53423},{"name":"ちゅうおう保育園","province":"東京都","city":"東久留米市","address":"東久留米市中央町1-2-4","lat":35.75691,"lon":139.5271},{"name":"こでまり保育園","province":"東京都","city":"東久留米市","address":"東久留米市中央町2-3-57","lat":35.75352,"lon":139.52118},{"name":"上の原さくら保育園","province":"東京都","city":"東久留米市","address":"東久留米市上の原1-2-44","lat":35.77181,"lon":139.54579},{"name":"上の原さくら保育園","province":"東京都","city":"東久留米市","address":"東久留米市上の原1-2-44","lat":35.76878,"lon":139.54103},{"name":"久留米みのり保育園","province":"東京都","city":"東久留米市","address":"東久留米市大門町1-3-4","lat":35.76278,"lon":139.53877},{"name":"しんかわ保育園","province":"東京都","city":"東久留米市","address":"東久留米市新川町1-1-12","lat":35.7583,"lon":139.53708},{"name":"トレジャーキッズひがしくるめ保育園","province":"東京都","city":"東久留米市","address":"東久留米市新川町1-9-14サンライズ","lat":35.76189,"lon":139.53659},{"name":"Ｎｉｃｏｔ東久留米","province":"東京都","city":"東久留米市","address":"東久留米市東本町1-8Emio東久留米1F","lat":35.76096,"lon":139.53357},{"name":"まなびの森保育園ひばりヶ丘","province":"東京都","city":"東久留米市","address":"東久留米市学園町1-14-23","lat":35.75112,"lon":139.53976},{"name":"ひばり保育園","province":"東京都","city":"東久留米市","address":"東久留米市ひばりが丘団地8-10","lat":35.74722,"lon":139.53172},{"name":"わらべみなみ保育園","province":"東京都","city":"東久留米市","address":"東久留米市南町1-8-51","lat":35.74158,"lon":139.52573},{"name":"かたばみ保育園","province":"東京都","city":"東久留米市","address":"東久留米市前沢1-4-35","lat":35.74609,"lon":139.51709},{"name":"まえさわ保育園","province":"東京都","city":"東久留米市","address":"東久留米市前沢1-5-30","lat":35.74794,"lon":139.51509},{"name":"たきやま保育園","province":"東京都","city":"東久留米市","address":"東久留米市滝山6-1-2","lat":35.74607,"lon":139.5043},{"name":"滝山しおん保育園","province":"東京都","city":"東久留米市","address":"東久留米市滝山7-5-12","lat":35.74779,"lon":139.50757},{"name":"はちまん保育園","province":"東京都","city":"東久留米市","address":"東久留米市八幡町2-14-22","lat":35.75594,"lon":139.51439},{"name":"はくさん保育園","province":"東京都","city":"東久留米市","address":"東久留米市下里3-2-23","lat":35.75205,"lon":139.5031},{"name":"あそか保育園","province":"東京都","city":"東久留米市","address":"東久留米市下里4-1-21","lat":35.75221,"lon":139.49507},{"name":"下里しおん保育園","province":"東京都","city":"東久留米市","address":"東久留米市下里7-8-20","lat":35.76007,"lon":139.50226},{"name":"くるみ保育園","province":"東京都","city":"東久留米市","address":"東久留米市柳窪2-15-6","lat":35.74621,"lon":139.49533},{"name":"わらべ東久留米保育園","province":"東京都","city":"東久留米市","address":"東久留米市幸町1-1-24","lat":35.7595,"lon":139.52657},{"name":"東久留米おひさま保育園","province":"東京都","city":"東久留米市","address":"東久留米市幸町1-21-14","lat":35.7603,"lon":139.52333},{"name":"いちご保育園","province":"東京都","city":"東久留米市","address":"東久留米市本町1-5-15","lat":35.75942,"lon":139.53423},{"name":"ちゅうおう保育園","province":"東京都","city":"東久留米市","address":"東久留米市中央町1-2-4","lat":35.75691,"lon":139.5271},{"name":"こでまり保育園","province":"東京都","city":"東久留米市","address":"東久留米市中央町2-3-57","lat":35.75352,"lon":139.52118},{"name":"上の原さくら保育園","province":"東京都","city":"東久留米市","address":"東久留米市上の原1-2-44","lat":35.77181,"lon":139.54579},{"name":"上の原さくら保育園","province":"東京都","city":"東久留米市","address":"東久留米市上の原1-2-44","lat":35.76878,"lon":139.54103},{"name":"久留米みのり保育園","province":"東京都","city":"東久留米市","address":"東久留米市大門町1-3-4","lat":35.76278,"lon":139.53877},{"name":"しんかわ保育園","province":"東京都","city":"東久留米市","address":"東久留米市新川町1-1-12","lat":35.7583,"lon":139.53708},{"name":"トレジャーキッズひがしくるめ保育園","province":"東京都","city":"東久留米市","address":"東久留米市新川町1-9-14サンライズ","lat":35.76189,"lon":139.53659},{"name":"Ｎｉｃｏｔ東久留米","province":"東京都","city":"東久留米市","address":"東久留米市東本町1-8Emio東久留米1F","lat":35.76096,"lon":139.53357},{"name":"まなびの森保育園ひばりヶ丘","province":"東京都","city":"東久留米市","address":"東久留米市学園町1-14-23","lat":35.75112,"lon":139.53976},{"name":"ひばり保育園","province":"東京都","city":"東久留米市","address":"東久留米市ひばりが丘団地8-10","lat":35.74722,"lon":139.53172},{"name":"わらべみなみ保育園","province":"東京都","city":"東久留米市","address":"東久留米市南町1-8-51","lat":35.74158,"lon":139.52573},{"name":"かたばみ保育園","province":"東京都","city":"東久留米市","address":"東久留米市前沢1-4-35","lat":35.74609,"lon":139.51709},{"name":"まえさわ保育園","province":"東京都","city":"東久留米市","address":"東久留米市前沢1-5-30","lat":35.74794,"lon":139.51509},{"name":"たきやま保育園","province":"東京都","city":"東久留米市","address":"東久留米市滝山6-1-2","lat":35.74607,"lon":139.5043},{"name":"滝山しおん保育園","province":"東京都","city":"東久留米市","address":"東久留米市滝山7-5-12","lat":35.74779,"lon":139.50757},{"name":"はちまん保育園","province":"東京都","city":"東久留米市","address":"東久留米市八幡町2-14-22","lat":35.75594,"lon":139.51439},{"name":"はくさん保育園","province":"東京都","city":"東久留米市","address":"東久留米市下里3-2-23","lat":35.75205,"lon":139.5031},{"name":"あそか保育園","province":"東京都","city":"東久留米市","address":"東久留米市下里4-1-21","lat":35.75221,"lon":139.49507},{"name":"下里しおん保育園","province":"東京都","city":"東久留米市","address":"東久留米市下里7-8-20","lat":35.76007,"lon":139.50226},{"name":"くるみ保育園","province":"東京都","city":"東久留米市","address":"東久留米市柳窪2-15-6","lat":35.74621,"lon":139.49533},{"name":"わらべ東久留米保育園","province":"東京都","city":"東久留米市","address":"東久留米市幸町1-1-24","lat":35.7595,"lon":139.52657},{"name":"東久留米おひさま保育園","province":"東京都","city":"東久留米市","address":"東久留米市幸町1-21-14","lat":35.7603,"lon":139.52333},{"name":"いちご保育園","province":"東京都","city":"東久留米市","address":"東久留米市本町1-5-15","lat":35.75942,"lon":139.53423},{"name":"ちゅうおう保育園","province":"東京都","city":"東久留米市","address":"東久留米市中央町1-2-4","lat":35.75691,"lon":139.5271},{"name":"こでまり保育園","province":"東京都","city":"東久留米市","address":"東久留米市中央町2-3-57","lat":35.75352,"lon":139.52118},{"name":"上の原さくら保育園","province":"東京都","city":"東久留米市","address":"東久留米市上の原1-2-44","lat":35.77181,"lon":139.54579},{"name":"上の原さくら保育園","province":"東京都","city":"東久留米市","address":"東久留米市上の原1-2-44","lat":35.76878,"lon":139.54103},{"name":"久留米みのり保育園","province":"東京都","city":"東久留米市","address":"東久留米市大門町1-3-4","lat":35.76278,"lon":139.53877},{"name":"しんかわ保育園","province":"東京都","city":"東久留米市","address":"東久留米市新川町1-1-12","lat":35.7583,"lon":139.53708},{"name":"トレジャーキッズひがしくるめ保育園","province":"東京都","city":"東久留米市","address":"東久留米市新川町1-9-14サンライズ","lat":35.76189,"lon":139.53659},{"name":"Ｎｉｃｏｔ東久留米","province":"東京都","city":"東久留米市","address":"東久留米市東本町1-8Emio東久留米1F","lat":35.76096,"lon":139.53357},{"name":"まなびの森保育園ひばりヶ丘","province":"東京都","city":"東久留米市","address":"東久留米市学園町1-14-23","lat":35.75112,"lon":139.53976},{"name":"ひばり保育園","province":"東京都","city":"東久留米市","address":"東久留米市ひばりが丘団地8-10","lat":35.74722,"lon":139.53172},{"name":"わらべみなみ保育園","province":"東京都","city":"東久留米市","address":"東久留米市南町1-8-51","lat":35.74158,"lon":139.52573},{"name":"かたばみ保育園","province":"東京都","city":"東久留米市","address":"東久留米市前沢1-4-35","lat":35.74609,"lon":139.51709},{"name":"まえさわ保育園","province":"東京都","city":"東久留米市","address":"東久留米市前沢1-5-30","lat":35.74794,"lon":139.51509},{"name":"たきやま保育園","province":"東京都","city":"東久留米市","address":"東久留米市滝山6-1-2","lat":35.74607,"lon":139.5043},{"name":"滝山しおん保育園","province":"東京都","city":"東久留米市","address":"東久留米市滝山7-5-12","lat":35.74779,"lon":139.50757},{"name":"はちまん保育園","province":"東京都","city":"東久留米市","address":"東久留米市八幡町2-14-22","lat":35.75594,"lon":139.51439},{"name":"はくさん保育園","province":"東京都","city":"東久留米市","address":"東久留米市下里3-2-23","lat":35.75205,"lon":139.5031},{"name":"あそか保育園","province":"東京都","city":"東久留米市","address":"東久留米市下里4-1-21","lat":35.75221,"lon":139.49507},{"name":"下里しおん保育園","province":"東京都","city":"東久留米市","address":"東久留米市下里7-8-20","lat":35.76007,"lon":139.50226},{"name":"くるみ保育園","province":"東京都","city":"東久留米市","address":"東久留米市柳窪2-15-6","lat":35.74621,"lon":139.49533},{"name":"わらべ東久留米保育園","province":"東京都","city":"東久留米市","address":"東久留米市幸町1-1-24","lat":35.7595,"lon":139.52657},{"name":"東久留米おひさま保育園","province":"東京都","city":"東久留米市","address":"東久留米市幸町1-21-14","lat":35.7603,"lon":139.52333},{"name":"いちご保育園","province":"東京都","city":"東久留米市","address":"東久留米市本町1-5-15","lat":35.75942,"lon":139.53423},{"name":"ちゅうおう保育園","province":"東京都","city":"東久留米市","address":"東久留米市中央町1-2-4","lat":35.75691,"lon":139.5271},{"name":"こでまり保育園","province":"東京都","city":"東久留米市","address":"東久留米市中央町2-3-57","lat":35.75352,"lon":139.52118},{"name":"上の原さくら保育園","province":"東京都","city":"東久留米市","address":"東久留米市上の原1-2-44","lat":35.77181,"lon":139.54579},{"name":"上の原さくら保育園","province":"東京都","city":"東久留米市","address":"東久留米市上の原1-2-44","lat":35.76878,"lon":139.54103},{"name":"久留米みのり保育園","province":"東京都","city":"東久留米市","address":"東久留米市大門町1-3-4","lat":35.76278,"lon":139.53877},{"name":"しんかわ保育園","province":"東京都","city":"東久留米市","address":"東久留米市新川町1-1-12","lat":35.7583,"lon":139.53708},{"name":"トレジャーキッズひがしくるめ保育園","province":"東京都","city":"東久留米市","address":"東久留米市新川町1-9-14サンライズ","lat":35.76189,"lon":139.53659},{"name":"Ｎｉｃｏｔ東久留米","province":"東京都","city":"東久留米市","address":"東久留米市東本町1-8Emio東久留米1F","lat":35.76096,"lon":139.53357},{"name":"まなびの森保育園ひばりヶ丘","province":"東京都","city":"東久留米市","address":"東久留米市学園町1-14-23","lat":35.75112,"lon":139.53976},{"name":"ひばり保育園","province":"東京都","city":"東久留米市","address":"東久留米市ひばりが丘団地8-10","lat":35.74722,"lon":139.53172},{"name":"わらべみなみ保育園","province":"東京都","city":"東久留米市","address":"東久留米市南町1-8-51","lat":35.74158,"lon":139.52573},{"name":"かたばみ保育園","province":"東京都","city":"東久留米市","address":"東久留米市前沢1-4-35","lat":35.74609,"lon":139.51709},{"name":"まえさわ保育園","province":"東京都","city":"東久留米市","address":"東久留米市前沢1-5-30","lat":35.74794,"lon":139.51509},{"name":"たきやま保育園","province":"東京都","city":"東久留米市","address":"東久留米市滝山6-1-2","lat":35.74607,"lon":139.5043},{"name":"滝山しおん保育園","province":"東京都","city":"東久留米市","address":"東久留米市滝山7-5-12","lat":35.74779,"lon":139.50757},{"name":"はちまん保育園","province":"東京都","city":"東久留米市","address":"東久留米市八幡町2-14-22","lat":35.75594,"lon":139.51439},{"name":"はくさん保育園","province":"東京都","city":"東久留米市","address":"東久留米市下里3-2-23","lat":35.75205,"lon":139.5031},{"name":"あそか保育園","province":"東京都","city":"東久留米市","address":"東久留米市下里4-1-21","lat":35.75221,"lon":139.49507},{"name":"下里しおん保育園","province":"東京都","city":"東久留米市","address":"東久留米市下里7-8-20","lat":35.76007,"lon":139.50226},{"name":"くるみ保育園","province":"東京都","city":"東久留米市","address":"東久留米市柳窪2-15-6","lat":35.74621,"lon":139.49533},{"name":"わらべ東久留米保育園","province":"東京都","city":"東久留米市","address":"東久留米市幸町1-1-24","lat":35.7595,"lon":139.52657},{"name":"東久留米おひさま保育園","province":"東京都","city":"東久留米市","address":"東久留米市幸町1-21-14","lat":35.7603,"lon":139.52333},{"name":"いちご保育園","province":"東京都","city":"東久留米市","address":"東久留米市本町1-5-15","lat":35.75942,"lon":139.53423},{"name":"ちゅうおう保育園","province":"東京都","city":"東久留米市","address":"東久留米市中央町1-2-4","lat":35.75691,"lon":139.5271},{"name":"こでまり保育園","province":"東京都","city":"東久留米市","address":"東久留米市中央町2-3-57","lat":35.75352,"lon":139.52118},{"name":"上の原さくら保育園","province":"東京都","city":"東久留米市","address":"東久留米市上の原1-2-44","lat":35.77181,"lon":139.54579},{"name":"上の原さくら保育園","province":"東京都","city":"東久留米市","address":"東久留米市上の原1-2-44","lat":35.76878,"lon":139.54103},{"name":"久留米みのり保育園","province":"東京都","city":"東久留米市","address":"東久留米市大門町1-3-4","lat":35.76278,"lon":139.53877},{"name":"しんかわ保育園","province":"東京都","city":"東久留米市","address":"東久留米市新川町1-1-12","lat":35.7583,"lon":139.53708},{"name":"トレジャーキッズひがしくるめ保育園","province":"東京都","city":"東久留米市","address":"東久留米市新川町1-9-14サンライズ","lat":35.76189,"lon":139.53659},{"name":"Ｎｉｃｏｔ東久留米","province":"東京都","city":"東久留米市","address":"東久留米市東本町1-8Emio東久留米1F","lat":35.76096,"lon":139.53357},{"name":"まなびの森保育園ひばりヶ丘","province":"東京都","city":"東久留米市","address":"東久留米市学園町1-14-23","lat":35.75112,"lon":139.53976},{"name":"ひばり保育園","province":"東京都","city":"東久留米市","address":"東久留米市ひばりが丘団地8-10","lat":35.74722,"lon":139.53172},{"name":"わらべみなみ保育園","province":"東京都","city":"東久留米市","address":"東久留米市南町1-8-51","lat":35.74158,"lon":139.52573},{"name":"かたばみ保育園","province":"東京都","city":"東久留米市","address":"東久留米市前沢1-4-35","lat":35.74609,"lon":139.51709},{"name":"まえさわ保育園","province":"東京都","city":"東久留米市","address":"東久留米市前沢1-5-30","lat":35.74794,"lon":139.51509},{"name":"たきやま保育園","province":"東京都","city":"東久留米市","address":"東久留米市滝山6-1-2","lat":35.74607,"lon":139.5043},{"name":"滝山しおん保育園","province":"東京都","city":"東久留米市","address":"東久留米市滝山7-5-12","lat":35.74779,"lon":139.50757},{"name":"はちまん保育園","province":"東京都","city":"東久留米市","address":"東久留米市八幡町2-14-22","lat":35.75594,"lon":139.51439},{"name":"はくさん保育園","province":"東京都","city":"東久留米市","address":"東久留米市下里3-2-23","lat":35.75205,"lon":139.5031},{"name":"あそか保育園","province":"東京都","city":"東久留米市","address":"東久留米市下里4-1-21","lat":35.75221,"lon":139.49507},{"name":"下里しおん保育園","province":"東京都","city":"東久留米市","address":"東久留米市下里7-8-20","lat":35.76007,"lon":139.50226},{"name":"くるみ保育園","province":"東京都","city":"東久留米市","address":"東久留米市柳窪2-15-6","lat":35.74621,"lon":139.49533},{"name":"わらべ東久留米保育園","province":"東京都","city":"東久留米市","address":"東久留米市幸町1-1-24","lat":35.7595,"lon":139.52657},{"name":"東久留米おひさま保育園","province":"東京都","city":"東久留米市","address":"東久留米市幸町1-21-14","lat":35.7603,"lon":139.52333},{"name":"いちご保育園","province":"東京都","city":"東久留米市","address":"東久留米市本町1-5-15","lat":35.75942,"lon":139.53423},{"name":"ちゅうおう保育園","province":"東京都","city":"東久留米市","address":"東久留米市中央町1-2-4","lat":35.75691,"lon":139.5271},{"name":"こでまり保育園","province":"東京都","city":"東久留米市","address":"東久留米市中央町2-3-57","lat":35.75352,"lon":139.52118},{"name":"上の原さくら保育園","province":"東京都","city":"東久留米市","address":"東久留米市上の原1-2-44","lat":35.77181,"lon":139.54579},{"name":"上の原さくら保育園","province":"東京都","city":"東久留米市","address":"東久留米市上の原1-2-44","lat":35.76878,"lon":139.54103},{"name":"久留米みのり保育園","province":"東京都","city":"東久留米市","address":"東久留米市大門町1-3-4","lat":35.76278,"lon":139.53877},{"name":"しんかわ保育園","province":"東京都","city":"東久留米市","address":"東久留米市新川町1-1-12","lat":35.7583,"lon":139.53708},{"name":"トレジャーキッズひがしくるめ保育園","province":"東京都","city":"東久留米市","address":"東久留米市新川町1-9-14サンライズ","lat":35.76189,"lon":139.53659},{"name":"Ｎｉｃｏｔ東久留米","province":"東京都","city":"東久留米市","address":"東久留米市東本町1-8Emio東久留米1F","lat":35.76096,"lon":139.53357},{"name":"まなびの森保育園ひばりヶ丘","province":"東京都","city":"東久留米市","address":"東久留米市学園町1-14-23","lat":35.75112,"lon":139.53976},{"name":"ひばり保育園","province":"東京都","city":"東久留米市","address":"東久留米市ひばりが丘団地8-10","lat":35.74722,"lon":139.53172},{"name":"わらべみなみ保育園","province":"東京都","city":"東久留米市","address":"東久留米市南町1-8-51","lat":35.74158,"lon":139.52573},{"name":"かたばみ保育園","province":"東京都","city":"東久留米市","address":"東久留米市前沢1-4-35","lat":35.74609,"lon":139.51709},{"name":"まえさわ保育園","province":"東京都","city":"東久留米市","address":"東久留米市前沢1-5-30","lat":35.74794,"lon":139.51509},{"name":"たきやま保育園","province":"東京都","city":"東久留米市","address":"東久留米市滝山6-1-2","lat":35.74607,"lon":139.5043},{"name":"滝山しおん保育園","province":"東京都","city":"東久留米市","address":"東久留米市滝山7-5-12","lat":35.74779,"lon":139.50757},{"name":"はちまん保育園","province":"東京都","city":"東久留米市","address":"東久留米市八幡町2-14-22","lat":35.75594,"lon":139.51439},{"name":"はくさん保育園","province":"東京都","city":"東久留米市","address":"東久留米市下里3-2-23","lat":35.75205,"lon":139.5031},{"name":"あそか保育園","province":"東京都","city":"東久留米市","address":"東久留米市下里4-1-21","lat":35.75221,"lon":139.49507},{"name":"下里しおん保育園","province":"東京都","city":"東久留米市","address":"東久留米市下里7-8-20","lat":35.76007,"lon":139.50226},{"name":"くるみ保育園","province":"東京都","city":"東久留米市","address":"東久留米市柳窪2-15-6","lat":35.74621,"lon":139.49533},{"name":"わらべ東久留米保育園","province":"東京都","city":"東久留米市","address":"東久留米市幸町1-1-24","lat":35.7595,"lon":139.52657},{"name":"東久留米おひさま保育園","province":"東京都","city":"東久留米市","address":"東久留米市幸町1-21-14","lat":35.7603,"lon":139.52333},{"name":"いちご保育園","province":"東京都","city":"東久留米市","address":"東久留米市本町1-5-15","lat":35.75942,"lon":139.53423},{"name":"ちゅうおう保育園","province":"東京都","city":"東久留米市","address":"東久留米市中央町1-2-4","lat":35.75691,"lon":139.5271},{"name":"こでまり保育園","province":"東京都","city":"東久留米市","address":"東久留米市中央町2-3-57","lat":35.75352,"lon":139.52118},{"name":"上の原さくら保育園","province":"東京都","city":"東久留米市","address":"東久留米市上の原1-2-44","lat":35.77181,"lon":139.54579},{"name":"上の原さくら保育園","province":"東京都","city":"東久留米市","address":"東久留米市上の原1-2-44","lat":35.76878,"lon":139.54103},{"name":"久留米みのり保育園","province":"東京都","city":"東久留米市","address":"東久留米市大門町1-3-4","lat":35.76278,"lon":139.53877},{"name":"しんかわ保育園","province":"東京都","city":"東久留米市","address":"東久留米市新川町1-1-12","lat":35.7583,"lon":139.53708},{"name":"トレジャーキッズひがしくるめ保育園","province":"東京都","city":"東久留米市","address":"東久留米市新川町1-9-14サンライズ","lat":35.76189,"lon":139.53659},{"name":"Ｎｉｃｏｔ東久留米","province":"東京都","city":"東久留米市","address":"東久留米市東本町1-8Emio東久留米1F","lat":35.76096,"lon":139.53357},{"name":"まなびの森保育園ひばりヶ丘","province":"東京都","city":"東久留米市","address":"東久留米市学園町1-14-23","lat":35.75112,"lon":139.53976},{"name":"ひばり保育園","province":"東京都","city":"東久留米市","address":"東久留米市ひばりが丘団地8-10","lat":35.74722,"lon":139.53172},{"name":"わらべみなみ保育園","province":"東京都","city":"東久留米市","address":"東久留米市南町1-8-51","lat":35.74158,"lon":139.52573},{"name":"かたばみ保育園","province":"東京都","city":"東久留米市","address":"東久留米市前沢1-4-35","lat":35.74609,"lon":139.51709},{"name":"まえさわ保育園","province":"東京都","city":"東久留米市","address":"東久留米市前沢1-5-30","lat":35.74794,"lon":139.51509},{"name":"たきやま保育園","province":"東京都","city":"東久留米市","address":"東久留米市滝山6-1-2","lat":35.74607,"lon":139.5043},{"name":"滝山しおん保育園","province":"東京都","city":"東久留米市","address":"東久留米市滝山7-5-12","lat":35.74779,"lon":139.50757},{"name":"はちまん保育園","province":"東京都","city":"東久留米市","address":"東久留米市八幡町2-14-22","lat":35.75594,"lon":139.51439},{"name":"はくさん保育園","province":"東京都","city":"東久留米市","address":"東久留米市下里3-2-23","lat":35.75205,"lon":139.5031},{"name":"あそか保育園","province":"東京都","city":"東久留米市","address":"東久留米市下里4-1-21","lat":35.75221,"lon":139.49507},{"name":"下里しおん保育園","province":"東京都","city":"東久留米市","address":"東久留米市下里7-8-20","lat":35.76007,"lon":139.50226},{"name":"くるみ保育園","province":"東京都","city":"東久留米市","address":"東久留米市柳窪2-15-6","lat":35.74621,"lon":139.49533},{"name":"わらべ東久留米保育園","province":"東京都","city":"東久留米市","address":"東久留米市幸町1-1-24","lat":35.7595,"lon":139.52657},{"name":"東久留米おひさま保育園","province":"東京都","city":"東久留米市","address":"東久留米市幸町1-21-14","lat":35.7603,"lon":139.52333},{"name":"いちご保育園","province":"東京都","city":"東久留米市","address":"東久留米市本町1-5-15","lat":35.75942,"lon":139.53423},{"name":"ちゅうおう保育園","province":"東京都","city":"東久留米市","address":"東久留米市中央町1-2-4","lat":35.75691,"lon":139.5271},{"name":"こでまり保育園","province":"東京都","city":"東久留米市","address":"東久留米市中央町2-3-57","lat":35.75352,"lon":139.52118},{"name":"上の原さくら保育園","province":"東京都","city":"東久留米市","address":"東久留米市上の原1-2-44","lat":35.77181,"lon":139.54579},{"name":"上の原さくら保育園","province":"東京都","city":"東久留米市","address":"東久留米市上の原1-2-44","lat":35.76878,"lon":139.54103},{"name":"久留米みのり保育園","province":"東京都","city":"東久留米市","address":"東久留米市大門町1-3-4","lat":35.76278,"lon":139.53877},{"name":"しんかわ保育園","province":"東京都","city":"東久留米市","address":"東久留米市新川町1-1-12","lat":35.7583,"lon":139.53708},{"name":"トレジャーキッズひがしくるめ保育園","province":"東京都","city":"東久留米市","address":"東久留米市新川町1-9-14サンライズ","lat":35.76189,"lon":139.53659},{"name":"Ｎｉｃｏｔ東久留米","province":"東京都","city":"東久留米市","address":"東久留米市東本町1-8Emio東久留米1F","lat":35.76096,"lon":139.53357},{"name":"まなびの森保育園ひばりヶ丘","province":"東京都","city":"東久留米市","address":"東久留米市学園町1-14-23","lat":35.75112,"lon":139.53976},{"name":"ひばり保育園","province":"東京都","city":"東久留米市","address":"東久留米市ひばりが丘団地8-10","lat":35.74722,"lon":139.53172},{"name":"わらべみなみ保育園","province":"東京都","city":"東久留米市","address":"東久留米市南町1-8-51","lat":35.74158,"lon":139.52573},{"name":"かたばみ保育園","province":"東京都","city":"東久留米市","address":"東久留米市前沢1-4-35","lat":35.74609,"lon":139.51709},{"name":"まえさわ保育園","province":"東京都","city":"東久留米市","address":"東久留米市前沢1-5-30","lat":35.74794,"lon":139.51509},{"name":"たきやま保育園","province":"東京都","city":"東久留米市","address":"東久留米市滝山6-1-2","lat":35.74607,"lon":139.5043},{"name":"滝山しおん保育園","province":"東京都","city":"東久留米市","address":"東久留米市滝山7-5-12","lat":35.74779,"lon":139.50757},{"name":"はちまん保育園","province":"東京都","city":"東久留米市","address":"東久留米市八幡町2-14-22","lat":35.75594,"lon":139.51439},{"name":"はくさん保育園","province":"東京都","city":"東久留米市","address":"東久留米市下里3-2-23","lat":35.75205,"lon":139.5031},{"name":"あそか保育園","province":"東京都","city":"東久留米市","address":"東久留米市下里4-1-21","lat":35.75221,"lon":139.49507},{"name":"下里しおん保育園","province":"東京都","city":"東久留米市","address":"東久留米市下里7-8-20","lat":35.76007,"lon":139.50226},{"name":"くるみ保育園","province":"東京都","city":"東久留米市","address":"東久留米市柳窪2-15-6","lat":35.74621,"lon":139.49533},{"name":"わらべ東久留米保育園","province":"東京都","city":"東久留米市","address":"東久留米市幸町1-1-24","lat":35.7595,"lon":139.52657},{"name":"東久留米おひさま保育園","province":"東京都","city":"東久留米市","address":"東久留米市幸町1-21-14","lat":35.7603,"lon":139.52333},{"name":"いちご保育園","province":"東京都","city":"東久留米市","address":"東久留米市本町1-5-15","lat":35.75942,"lon":139.53423},{"name":"ちゅうおう保育園","province":"東京都","city":"東久留米市","address":"東久留米市中央町1-2-4","lat":35.75691,"lon":139.5271},{"name":"こでまり保育園","province":"東京都","city":"東久留米市","address":"東久留米市中央町2-3-57","lat":35.75352,"lon":139.52118},{"name":"上の原さくら保育園","province":"東京都","city":"東久留米市","address":"東久留米市上の原1-2-44","lat":35.77181,"lon":139.54579},{"name":"上の原さくら保育園","province":"東京都","city":"東久留米市","address":"東久留米市上の原1-2-44","lat":35.76878,"lon":139.54103},{"name":"久留米みのり保育園","province":"東京都","city":"東久留米市","address":"東久留米市大門町1-3-4","lat":35.76278,"lon":139.53877},{"name":"しんかわ保育園","province":"東京都","city":"東久留米市","address":"東久留米市新川町1-1-12","lat":35.7583,"lon":139.53708},{"name":"トレジャーキッズひがしくるめ保育園","province":"東京都","city":"東久留米市","address":"東久留米市新川町1-9-14サンライズ","lat":35.76189,"lon":139.53659},{"name":"Ｎｉｃｏｔ東久留米","province":"東京都","city":"東久留米市","address":"東久留米市東本町1-8Emio東久留米1F","lat":35.76096,"lon":139.53357},{"name":"まなびの森保育園ひばりヶ丘","province":"東京都","city":"東久留米市","address":"東久留米市学園町1-14-23","lat":35.75112,"lon":139.53976},{"name":"ひばり保育園","province":"東京都","city":"東久留米市","address":"東久留米市ひばりが丘団地8-10","lat":35.74722,"lon":139.53172},{"name":"わらべみなみ保育園","province":"東京都","city":"東久留米市","address":"東久留米市南町1-8-51","lat":35.74158,"lon":139.52573},{"name":"かたばみ保育園","province":"東京都","city":"東久留米市","address":"東久留米市前沢1-4-35","lat":35.74609,"lon":139.51709},{"name":"まえさわ保育園","province":"東京都","city":"東久留米市","address":"東久留米市前沢1-5-30","lat":35.74794,"lon":139.51509},{"name":"たきやま保育園","province":"東京都","city":"東久留米市","address":"東久留米市滝山6-1-2","lat":35.74607,"lon":139.5043},{"name":"滝山しおん保育園","province":"東京都","city":"東久留米市","address":"東久留米市滝山7-5-12","lat":35.74779,"lon":139.50757},{"name":"はちまん保育園","province":"東京都","city":"東久留米市","address":"東久留米市八幡町2-14-22","lat":35.75594,"lon":139.51439},{"name":"はくさん保育園","province":"東京都","city":"東久留米市","address":"東久留米市下里3-2-23","lat":35.75205,"lon":139.5031},{"name":"あそか保育園","province":"東京都","city":"東久留米市","address":"東久留米市下里4-1-21","lat":35.75221,"lon":139.49507},{"name":"下里しおん保育園","province":"東京都","city":"東久留米市","address":"東久留米市下里7-8-20","lat":35.76007,"lon":139.50226},{"name":"くるみ保育園","province":"東京都","city":"東久留米市","address":"東久留米市柳窪2-15-6","lat":35.74621,"lon":139.49533},{"name":"わらべ東久留米保育園","province":"東京都","city":"東久留米市","address":"東久留米市幸町1-1-24","lat":35.7595,"lon":139.52657},{"name":"東久留米おひさま保育園","province":"東京都","city":"東久留米市","address":"東久留米市幸町1-21-14","lat":35.7603,"lon":139.52333},{"name":"いちご保育園","province":"東京都","city":"東久留米市","address":"東久留米市本町1-5-15","lat":35.75942,"lon":139.53423},{"name":"ちゅうおう保育園","province":"東京都","city":"東久留米市","address":"東久留米市中央町1-2-4","lat":35.75691,"lon":139.5271},{"name":"こでまり保育園","province":"東京都","city":"東久留米市","address":"東久留米市中央町2-3-57","lat":35.75352,"lon":139.52118},{"name":"上の原さくら保育園","province":"東京都","city":"東久留米市","address":"東久留米市上の原1-2-44","lat":35.77181,"lon":139.54579},{"name":"上の原さくら保育園","province":"東京都","city":"東久留米市","address":"東久留米市上の原1-2-44","lat":35.76878,"lon":139.54103},{"name":"久留米みのり保育園","province":"東京都","city":"東久留米市","address":"東久留米市大門町1-3-4","lat":35.76278,"lon":139.53877},{"name":"しんかわ保育園","province":"東京都","city":"東久留米市","address":"東久留米市新川町1-1-12","lat":35.7583,"lon":139.53708},{"name":"トレジャーキッズひがしくるめ保育園","province":"東京都","city":"東久留米市","address":"東久留米市新川町1-9-14サンライズ","lat":35.76189,"lon":139.53659},{"name":"Ｎｉｃｏｔ東久留米","province":"東京都","city":"東久留米市","address":"東久留米市東本町1-8Emio東久留米1F","lat":35.76096,"lon":139.53357},{"name":"まなびの森保育園ひばりヶ丘","province":"東京都","city":"東久留米市","address":"東久留米市学園町1-14-23","lat":35.75112,"lon":139.53976},{"name":"ひばり保育園","province":"東京都","city":"東久留米市","address":"東久留米市ひばりが丘団地8-10","lat":35.74722,"lon":139.53172},{"name":"わらべみなみ保育園","province":"東京都","city":"東久留米市","address":"東久留米市南町1-8-51","lat":35.74158,"lon":139.52573},{"name":"かたばみ保育園","province":"東京都","city":"東久留米市","address":"東久留米市前沢1-4-35","lat":35.74609,"lon":139.51709},{"name":"まえさわ保育園","province":"東京都","city":"東久留米市","address":"東久留米市前沢1-5-30","lat":35.74794,"lon":139.51509},{"name":"たきやま保育園","province":"東京都","city":"東久留米市","address":"東久留米市滝山6-1-2","lat":35.74607,"lon":139.5043},{"name":"滝山しおん保育園","province":"東京都","city":"東久留米市","address":"東久留米市滝山7-5-12","lat":35.74779,"lon":139.50757},{"name":"はちまん保育園","province":"東京都","city":"東久留米市","address":"東久留米市八幡町2-14-22","lat":35.75594,"lon":139.51439},{"name":"はくさん保育園","province":"東京都","city":"東久留米市","address":"東久留米市下里3-2-23","lat":35.75205,"lon":139.5031},{"name":"あそか保育園","province":"東京都","city":"東久留米市","address":"東久留米市下里4-1-21","lat":35.75221,"lon":139.49507},{"name":"下里しおん保育園","province":"東京都","city":"東久留米市","address":"東久留米市下里7-8-20","lat":35.76007,"lon":139.50226},{"name":"くるみ保育園","province":"東京都","city":"東久留米市","address":"東久留米市柳窪2-15-6","lat":35.74621,"lon":139.49533},{"name":"わらべ東久留米保育園","province":"東京都","city":"東久留米市","address":"東久留米市幸町1-1-24","lat":35.7595,"lon":139.52657},{"name":"東久留米おひさま保育園","province":"東京都","city":"東久留米市","address":"東久留米市幸町1-21-14","lat":35.7603,"lon":139.52333},{"name":"いちご保育園","province":"東京都","city":"東久留米市","address":"東久留米市本町1-5-15","lat":35.75942,"lon":139.53423},{"name":"ちゅうおう保育園","province":"東京都","city":"東久留米市","address":"東久留米市中央町1-2-4","lat":35.75691,"lon":139.5271},{"name":"こでまり保育園","province":"東京都","city":"東久留米市","address":"東久留米市中央町2-3-57","lat":35.75352,"lon":139.52118},{"name":"上の原さくら保育園","province":"東京都","city":"東久留米市","address":"東久留米市上の原1-2-44","lat":35.77181,"lon":139.54579},{"name":"上の原さくら保育園","province":"東京都","city":"東久留米市","address":"東久留米市上の原1-2-44","lat":35.76878,"lon":139.54103},{"name":"久留米みのり保育園","province":"東京都","city":"東久留米市","address":"東久留米市大門町1-3-4","lat":35.76278,"lon":139.53877},{"name":"しんかわ保育園","province":"東京都","city":"東久留米市","address":"東久留米市新川町1-1-12","lat":35.7583,"lon":139.53708},{"name":"トレジャーキッズひがしくるめ保育園","province":"東京都","city":"東久留米市","address":"東久留米市新川町1-9-14サンライズ","lat":35.76189,"lon":139.53659},{"name":"Ｎｉｃｏｔ東久留米","province":"東京都","city":"東久留米市","address":"東久留米市東本町1-8Emio東久留米1F","lat":35.76096,"lon":139.53357},{"name":"まなびの森保育園ひばりヶ丘","province":"東京都","city":"東久留米市","address":"東久留米市学園町1-14-23","lat":35.75112,"lon":139.53976},{"name":"ひばり保育園","province":"東京都","city":"東久留米市","address":"東久留米市ひばりが丘団地8-10","lat":35.74722,"lon":139.53172},{"name":"わらべみなみ保育園","province":"東京都","city":"東久留米市","address":"東久留米市南町1-8-51","lat":35.74158,"lon":139.52573},{"name":"かたばみ保育園","province":"東京都","city":"東久留米市","address":"東久留米市前沢1-4-35","lat":35.74609,"lon":139.51709},{"name":"まえさわ保育園","province":"東京都","city":"東久留米市","address":"東久留米市前沢1-5-30","lat":35.74794,"lon":139.51509},{"name":"たきやま保育園","province":"東京都","city":"東久留米市","address":"東久留米市滝山6-1-2","lat":35.74607,"lon":139.5043},{"name":"滝山しおん保育園","province":"東京都","city":"東久留米市","address":"東久留米市滝山7-5-12","lat":35.74779,"lon":139.50757},{"name":"はちまん保育園","province":"東京都","city":"東久留米市","address":"東久留米市八幡町2-14-22","lat":35.75594,"lon":139.51439},{"name":"はくさん保育園","province":"東京都","city":"東久留米市","address":"東久留米市下里3-2-23","lat":35.75205,"lon":139.5031},{"name":"あそか保育園","province":"東京都","city":"東久留米市","address":"東久留米市下里4-1-21","lat":35.75221,"lon":139.49507},{"name":"下里しおん保育園","province":"東京都","city":"東久留米市","address":"東久留米市下里7-8-20","lat":35.76007,"lon":139.50226},{"name":"くるみ保育園","province":"東京都","city":"東久留米市","address":"東久留米市柳窪2-15-6","lat":35.74621,"lon":139.49533},{"name":"わらべ東久留米保育園","province":"東京都","city":"東久留米市","address":"東久留米市幸町1-1-24","lat":35.7595,"lon":139.52657},{"name":"東久留米おひさま保育園","province":"東京都","city":"東久留米市","address":"東久留米市幸町1-21-14","lat":35.7603,"lon":139.52333},{"name":"いちご保育園","province":"東京都","city":"東久留米市","address":"東久留米市本町1-5-15","lat":35.75942,"lon":139.53423},{"name":"ちゅうおう保育園","province":"東京都","city":"東久留米市","address":"東久留米市中央町1-2-4","lat":35.75691,"lon":139.5271},{"name":"こでまり保育園","province":"東京都","city":"東久留米市","address":"東久留米市中央町2-3-57","lat":35.75352,"lon":139.52118},{"name":"上の原さくら保育園","province":"東京都","city":"東久留米市","address":"東久留米市上の原1-2-44","lat":35.77181,"lon":139.54579},{"name":"上の原さくら保育園","province":"東京都","city":"東久留米市","address":"東久留米市上の原1-2-44","lat":35.76878,"lon":139.54103},{"name":"久留米みのり保育園","province":"東京都","city":"東久留米市","address":"東久留米市大門町1-3-4","lat":35.76278,"lon":139.53877},{"name":"しんかわ保育園","province":"東京都","city":"東久留米市","address":"東久留米市新川町1-1-12","lat":35.7583,"lon":139.53708},{"name":"トレジャーキッズひがしくるめ保育園","province":"東京都","city":"東久留米市","address":"東久留米市新川町1-9-14サンライズ","lat":35.76189,"lon":139.53659},{"name":"Ｎｉｃｏｔ東久留米","province":"東京都","city":"東久留米市","address":"東久留米市東本町1-8Emio東久留米1F","lat":35.76096,"lon":139.53357},{"name":"まなびの森保育園ひばりヶ丘","province":"東京都","city":"東久留米市","address":"東久留米市学園町1-14-23","lat":35.75112,"lon":139.53976},{"name":"ひばり保育園","province":"東京都","city":"東久留米市","address":"東久留米市ひばりが丘団地8-10","lat":35.74722,"lon":139.53172},{"name":"わらべみなみ保育園","province":"東京都","city":"東久留米市","address":"東久留米市南町1-8-51","lat":35.74158,"lon":139.52573},{"name":"かたばみ保育園","province":"東京都","city":"東久留米市","address":"東久留米市前沢1-4-35","lat":35.74609,"lon":139.51709},{"name":"まえさわ保育園","province":"東京都","city":"東久留米市","address":"東久留米市前沢1-5-30","lat":35.74794,"lon":139.51509},{"name":"たきやま保育園","province":"東京都","city":"東久留米市","address":"東久留米市滝山6-1-2","lat":35.74607,"lon":139.5043},{"name":"滝山しおん保育園","province":"東京都","city":"東久留米市","address":"東久留米市滝山7-5-12","lat":35.74779,"lon":139.50757},{"name":"はちまん保育園","province":"東京都","city":"東久留米市","address":"東久留米市八幡町2-14-22","lat":35.75594,"lon":139.51439},{"name":"はくさん保育園","province":"東京都","city":"東久留米市","address":"東久留米市下里3-2-23","lat":35.75205,"lon":139.5031},{"name":"あそか保育園","province":"東京都","city":"東久留米市","address":"東久留米市下里4-1-21","lat":35.75221,"lon":139.49507},{"name":"下里しおん保育園","province":"東京都","city":"東久留米市","address":"東久留米市下里7-8-20","lat":35.76007,"lon":139.50226},{"name":"くるみ保育園","province":"東京都","city":"東久留米市","address":"東久留米市柳窪2-15-6","lat":35.74621,"lon":139.49533},{"name":"わらべ東久留米保育園","province":"東京都","city":"東久留米市","address":"東久留米市幸町1-1-24","lat":35.7595,"lon":139.52657},{"name":"東久留米おひさま保育園","province":"東京都","city":"東久留米市","address":"東久留米市幸町1-21-14","lat":35.7603,"lon":139.52333},{"name":"いちご保育園","province":"東京都","city":"東久留米市","address":"東久留米市本町1-5-15","lat":35.75942,"lon":139.53423},{"name":"ちゅうおう保育園","province":"東京都","city":"東久留米市","address":"東久留米市中央町1-2-4","lat":35.75691,"lon":139.5271},{"name":"こでまり保育園","province":"東京都","city":"東久留米市","address":"東久留米市中央町2-3-57","lat":35.75352,"lon":139.52118},{"name":"上の原さくら保育園","province":"東京都","city":"東久留米市","address":"東久留米市上の原1-2-44","lat":35.77181,"lon":139.54579},{"name":"上の原さくら保育園","province":"東京都","city":"東久留米市","address":"東久留米市上の原1-2-44","lat":35.76878,"lon":139.54103},{"name":"久留米みのり保育園","province":"東京都","city":"東久留米市","address":"東久留米市大門町1-3-4","lat":35.76278,"lon":139.53877},{"name":"しんかわ保育園","province":"東京都","city":"東久留米市","address":"東久留米市新川町1-1-12","lat":35.7583,"lon":139.53708},{"name":"トレジャーキッズひがしくるめ保育園","province":"東京都","city":"東久留米市","address":"東久留米市新川町1-9-14サンライズ","lat":35.76189,"lon":139.53659},{"name":"Ｎｉｃｏｔ東久留米","province":"東京都","city":"東久留米市","address":"東久留米市東本町1-8Emio東久留米1F","lat":35.76096,"lon":139.53357},{"name":"まなびの森保育園ひばりヶ丘","province":"東京都","city":"東久留米市","address":"東久留米市学園町1-14-23","lat":35.75112,"lon":139.53976},{"name":"ひばり保育園","province":"東京都","city":"東久留米市","address":"東久留米市ひばりが丘団地8-10","lat":35.74722,"lon":139.53172},{"name":"わらべみなみ保育園","province":"東京都","city":"東久留米市","address":"東久留米市南町1-8-51","lat":35.74158,"lon":139.52573},{"name":"かたばみ保育園","province":"東京都","city":"東久留米市","address":"東久留米市前沢1-4-35","lat":35.74609,"lon":139.51709},{"name":"まえさわ保育園","province":"東京都","city":"東久留米市","address":"東久留米市前沢1-5-30","lat":35.74794,"lon":139.51509},{"name":"たきやま保育園","province":"東京都","city":"東久留米市","address":"東久留米市滝山6-1-2","lat":35.74607,"lon":139.5043},{"name":"滝山しおん保育園","province":"東京都","city":"東久留米市","address":"東久留米市滝山7-5-12","lat":35.74779,"lon":139.50757},{"name":"はちまん保育園","province":"東京都","city":"東久留米市","address":"東久留米市八幡町2-14-22","lat":35.75594,"lon":139.51439},{"name":"はくさん保育園","province":"東京都","city":"東久留米市","address":"東久留米市下里3-2-23","lat":35.75205,"lon":139.5031},{"name":"あそか保育園","province":"東京都","city":"東久留米市","address":"東久留米市下里4-1-21","lat":35.75221,"lon":139.49507},{"name":"下里しおん保育園","province":"東京都","city":"東久留米市","address":"東久留米市下里7-8-20","lat":35.76007,"lon":139.50226},{"name":"くるみ保育園","province":"東京都","city":"東久留米市","address":"東久留米市柳窪2-15-6","lat":35.74621,"lon":139.49533},{"name":"わらべ東久留米保育園","province":"東京都","city":"東久留米市","address":"東久留米市幸町1-1-24","lat":35.7595,"lon":139.52657},{"name":"東久留米おひさま保育園","province":"東京都","city":"東久留米市","address":"東久留米市幸町1-21-14","lat":35.7603,"lon":139.52333},{"name":"いちご保育園","province":"東京都","city":"東久留米市","address":"東久留米市本町1-5-15","lat":35.75942,"lon":139.53423},{"name":"ちゅうおう保育園","province":"東京都","city":"東久留米市","address":"東久留米市中央町1-2-4","lat":35.75691,"lon":139.5271},{"name":"こでまり保育園","province":"東京都","city":"東久留米市","address":"東久留米市中央町2-3-57","lat":35.75352,"lon":139.52118},{"name":"上の原さくら保育園","province":"東京都","city":"東久留米市","address":"東久留米市上の原1-2-44","lat":35.77181,"lon":139.54579},{"name":"上の原さくら保育園","province":"東京都","city":"東久留米市","address":"東久留米市上の原1-2-44","lat":35.76878,"lon":139.54103},{"name":"久留米みのり保育園","province":"東京都","city":"東久留米市","address":"東久留米市大門町1-3-4","lat":35.76278,"lon":139.53877},{"name":"しんかわ保育園","province":"東京都","city":"東久留米市","address":"東久留米市新川町1-1-12","lat":35.7583,"lon":139.53708},{"name":"トレジャーキッズひがしくるめ保育園","province":"東京都","city":"東久留米市","address":"東久留米市新川町1-9-14サンライズ","lat":35.76189,"lon":139.53659},{"name":"Ｎｉｃｏｔ東久留米","province":"東京都","city":"東久留米市","address":"東久留米市東本町1-8Emio東久留米1F","lat":35.76096,"lon":139.53357},{"name":"まなびの森保育園ひばりヶ丘","province":"東京都","city":"東久留米市","address":"東久留米市学園町1-14-23","lat":35.75112,"lon":139.53976},{"name":"ひばり保育園","province":"東京都","city":"東久留米市","address":"東久留米市ひばりが丘団地8-10","lat":35.74722,"lon":139.53172},{"name":"わらべみなみ保育園","province":"東京都","city":"東久留米市","address":"東久留米市南町1-8-51","lat":35.74158,"lon":139.52573},{"name":"かたばみ保育園","province":"東京都","city":"東久留米市","address":"東久留米市前沢1-4-35","lat":35.74609,"lon":139.51709},{"name":"まえさわ保育園","province":"東京都","city":"東久留米市","address":"東久留米市前沢1-5-30","lat":35.74794,"lon":139.51509},{"name":"たきやま保育園","province":"東京都","city":"東久留米市","address":"東久留米市滝山6-1-2","lat":35.74607,"lon":139.5043},{"name":"滝山しおん保育園","province":"東京都","city":"東久留米市","address":"東久留米市滝山7-5-12","lat":35.74779,"lon":139.50757},{"name":"はちまん保育園","province":"東京都","city":"東久留米市","address":"東久留米市八幡町2-14-22","lat":35.75594,"lon":139.51439},{"name":"はくさん保育園","province":"東京都","city":"東久留米市","address":"東久留米市下里3-2-23","lat":35.75205,"lon":139.5031},{"name":"あそか保育園","province":"東京都","city":"東久留米市","address":"東久留米市下里4-1-21","lat":35.75221,"lon":139.49507},{"name":"下里しおん保育園","province":"東京都","city":"東久留米市","address":"東久留米市下里7-8-20","lat":35.76007,"lon":139.50226},{"name":"くるみ保育園","province":"東京都","city":"東久留米市","address":"東久留米市柳窪2-15-6","lat":35.74621,"lon":139.49533},{"name":"わらべ東久留米保育園","province":"東京都","city":"東久留米市","address":"東久留米市幸町1-1-24","lat":35.7595,"lon":139.52657},{"name":"東久留米おひさま保育園","province":"東京都","city":"東久留米市","address":"東久留米市幸町1-21-14","lat":35.7603,"lon":139.52333},{"name":"いちご保育園","province":"東京都","city":"東久留米市","address":"東久留米市本町1-5-15","lat":35.75942,"lon":139.53423},{"name":"ちゅうおう保育園","province":"東京都","city":"東久留米市","address":"東久留米市中央町1-2-4","lat":35.75691,"lon":139.5271},{"name":"こでまり保育園","province":"東京都","city":"東久留米市","address":"東久留米市中央町2-3-57","lat":35.75352,"lon":139.52118},{"name":"上の原さくら保育園","province":"東京都","city":"東久留米市","address":"東久留米市上の原1-2-44","lat":35.77181,"lon":139.54579},{"name":"上の原さくら保育園","province":"東京都","city":"東久留米市","address":"東久留米市上の原1-2-44","lat":35.76878,"lon":139.54103},{"name":"久留米みのり保育園","province":"東京都","city":"東久留米市","address":"東久留米市大門町1-3-4","lat":35.76278,"lon":139.53877},{"name":"しんかわ保育園","province":"東京都","city":"東久留米市","address":"東久留米市新川町1-1-12","lat":35.7583,"lon":139.53708},{"name":"トレジャーキッズひがしくるめ保育園","province":"東京都","city":"東久留米市","address":"東久留米市新川町1-9-14サンライズ","lat":35.76189,"lon":139.53659},{"name":"Ｎｉｃｏｔ東久留米","province":"東京都","city":"東久留米市","address":"東久留米市東本町1-8Emio東久留米1F","lat":35.76096,"lon":139.53357},{"name":"まなびの森保育園ひばりヶ丘","province":"東京都","city":"東久留米市","address":"東久留米市学園町1-14-23","lat":35.75112,"lon":139.53976},{"name":"ひばり保育園","province":"東京都","city":"東久留米市","address":"東久留米市ひばりが丘団地8-10","lat":35.74722,"lon":139.53172},{"name":"わらべみなみ保育園","province":"東京都","city":"東久留米市","address":"東久留米市南町1-8-51","lat":35.74158,"lon":139.52573},{"name":"かたばみ保育園","province":"東京都","city":"東久留米市","address":"東久留米市前沢1-4-35","lat":35.74609,"lon":139.51709},{"name":"まえさわ保育園","province":"東京都","city":"東久留米市","address":"東久留米市前沢1-5-30","lat":35.74794,"lon":139.51509},{"name":"たきやま保育園","province":"東京都","city":"東久留米市","address":"東久留米市滝山6-1-2","lat":35.74607,"lon":139.5043},{"name":"滝山しおん保育園","province":"東京都","city":"東久留米市","address":"東久留米市滝山7-5-12","lat":35.74779,"lon":139.50757},{"name":"はちまん保育園","province":"東京都","city":"東久留米市","address":"東久留米市八幡町2-14-22","lat":35.75594,"lon":139.51439},{"name":"はくさん保育園","province":"東京都","city":"東久留米市","address":"東久留米市下里3-2-23","lat":35.75205,"lon":139.5031},{"name":"あそか保育園","province":"東京都","city":"東久留米市","address":"東久留米市下里4-1-21","lat":35.75221,"lon":139.49507},{"name":"下里しおん保育園","province":"東京都","city":"東久留米市","address":"東久留米市下里7-8-20","lat":35.76007,"lon":139.50226},{"name":"くるみ保育園","province":"東京都","city":"東久留米市","address":"東久留米市柳窪2-15-6","lat":35.74621,"lon":139.49533},{"name":"わらべ東久留米保育園","province":"東京都","city":"東久留米市","address":"東久留米市幸町1-1-24","lat":35.7595,"lon":139.52657},{"name":"東久留米おひさま保育園","province":"東京都","city":"東久留米市","address":"東久留米市幸町1-21-14","lat":35.7603,"lon":139.52333},{"name":"いちご保育園","province":"東京都","city":"東久留米市","address":"東久留米市本町1-5-15","lat":35.75942,"lon":139.53423},{"name":"ちゅうおう保育園","province":"東京都","city":"東久留米市","address":"東久留米市中央町1-2-4","lat":35.75691,"lon":139.5271},{"name":"こでまり保育園","province":"東京都","city":"東久留米市","address":"東久留米市中央町2-3-57","lat":35.75352,"lon":139.52118},{"name":"上の原さくら保育園","province":"東京都","city":"東久留米市","address":"東久留米市上の原1-2-44","lat":35.77181,"lon":139.54579},{"name":"上の原さくら保育園","province":"東京都","city":"東久留米市","address":"東久留米市上の原1-2-44","lat":35.76878,"lon":139.54103},{"name":"久留米みのり保育園","province":"東京都","city":"東久留米市","address":"東久留米市大門町1-3-4","lat":35.76278,"lon":139.53877},{"name":"しんかわ保育園","province":"東京都","city":"東久留米市","address":"東久留米市新川町1-1-12","lat":35.7583,"lon":139.53708},{"name":"トレジャーキッズひがしくるめ保育園","province":"東京都","city":"東久留米市","address":"東久留米市新川町1-9-14サンライズ","lat":35.76189,"lon":139.53659},{"name":"Ｎｉｃｏｔ東久留米","province":"東京都","city":"東久留米市","address":"東久留米市東本町1-8Emio東久留米1F","lat":35.76096,"lon":139.53357},{"name":"まなびの森保育園ひばりヶ丘","province":"東京都","city":"東久留米市","address":"東久留米市学園町1-14-23","lat":35.75112,"lon":139.53976},{"name":"ひばり保育園","province":"東京都","city":"東久留米市","address":"東久留米市ひばりが丘団地8-10","lat":35.74722,"lon":139.53172},{"name":"わらべみなみ保育園","province":"東京都","city":"東久留米市","address":"東久留米市南町1-8-51","lat":35.74158,"lon":139.52573},{"name":"かたばみ保育園","province":"東京都","city":"東久留米市","address":"東久留米市前沢1-4-35","lat":35.74609,"lon":139.51709},{"name":"まえさわ保育園","province":"東京都","city":"東久留米市","address":"東久留米市前沢1-5-30","lat":35.74794,"lon":139.51509},{"name":"たきやま保育園","province":"東京都","city":"東久留米市","address":"東久留米市滝山6-1-2","lat":35.74607,"lon":139.5043},{"name":"滝山しおん保育園","province":"東京都","city":"東久留米市","address":"東久留米市滝山7-5-12","lat":35.74779,"lon":139.50757},{"name":"はちまん保育園","province":"東京都","city":"東久留米市","address":"東久留米市八幡町2-14-22","lat":35.75594,"lon":139.51439},{"name":"はくさん保育園","province":"東京都","city":"東久留米市","address":"東久留米市下里3-2-23","lat":35.75205,"lon":139.5031},{"name":"あそか保育園","province":"東京都","city":"東久留米市","address":"東久留米市下里4-1-21","lat":35.75221,"lon":139.49507},{"name":"下里しおん保育園","province":"東京都","city":"東久留米市","address":"東久留米市下里7-8-20","lat":35.76007,"lon":139.50226},{"name":"くるみ保育園","province":"東京都","city":"東久留米市","address":"東久留米市柳窪2-15-6","lat":35.74621,"lon":139.49533},{"name":"わらべ東久留米保育園","province":"東京都","city":"東久留米市","address":"東久留米市幸町1-1-24","lat":35.7595,"lon":139.52657},{"name":"東久留米おひさま保育園","province":"東京都","city":"東久留米市","address":"東久留米市幸町1-21-14","lat":35.7603,"lon":139.52333},{"name":"いちご保育園","province":"東京都","city":"東久留米市","address":"東久留米市本町1-5-15","lat":35.75942,"lon":139.53423},{"name":"ちゅうおう保育園","province":"東京都","city":"東久留米市","address":"東久留米市中央町1-2-4","lat":35.75691,"lon":139.5271},{"name":"こでまり保育園","province":"東京都","city":"東久留米市","address":"東久留米市中央町2-3-57","lat":35.75352,"lon":139.52118},{"name":"上の原さくら保育園","province":"東京都","city":"東久留米市","address":"東久留米市上の原1-2-44","lat":35.77181,"lon":139.54579},{"name":"上の原さくら保育園","province":"東京都","city":"東久留米市","address":"東久留米市上の原1-2-44","lat":35.76878,"lon":139.54103},{"name":"久留米みのり保育園","province":"東京都","city":"東久留米市","address":"東久留米市大門町1-3-4","lat":35.76278,"lon":139.53877},{"name":"しんかわ保育園","province":"東京都","city":"東久留米市","address":"東久留米市新川町1-1-12","lat":35.7583,"lon":139.53708},{"name":"トレジャーキッズひがしくるめ保育園","province":"東京都","city":"東久留米市","address":"東久留米市新川町1-9-14サンライズ","lat":35.76189,"lon":139.53659},{"name":"Ｎｉｃｏｔ東久留米","province":"東京都","city":"東久留米市","address":"東久留米市東本町1-8Emio東久留米1F","lat":35.76096,"lon":139.53357},{"name":"まなびの森保育園ひばりヶ丘","province":"東京都","city":"東久留米市","address":"東久留米市学園町1-14-23","lat":35.75112,"lon":139.53976},{"name":"ひばり保育園","province":"東京都","city":"東久留米市","address":"東久留米市ひばりが丘団地8-10","lat":35.74722,"lon":139.53172},{"name":"わらべみなみ保育園","province":"東京都","city":"東久留米市","address":"東久留米市南町1-8-51","lat":35.74158,"lon":139.52573},{"name":"かたばみ保育園","province":"東京都","city":"東久留米市","address":"東久留米市前沢1-4-35","lat":35.74609,"lon":139.51709},{"name":"まえさわ保育園","province":"東京都","city":"東久留米市","address":"東久留米市前沢1-5-30","lat":35.74794,"lon":139.51509},{"name":"たきやま保育園","province":"東京都","city":"東久留米市","address":"東久留米市滝山6-1-2","lat":35.74607,"lon":139.5043},{"name":"滝山しおん保育園","province":"東京都","city":"東久留米市","address":"東久留米市滝山7-5-12","lat":35.74779,"lon":139.50757},{"name":"はちまん保育園","province":"東京都","city":"東久留米市","address":"東久留米市八幡町2-14-22","lat":35.75594,"lon":139.51439},{"name":"はくさん保育園","province":"東京都","city":"東久留米市","address":"東久留米市下里3-2-23","lat":35.75205,"lon":139.5031},{"name":"あそか保育園","province":"東京都","city":"東久留米市","address":"東久留米市下里4-1-21","lat":35.75221,"lon":139.49507},{"name":"下里しおん保育園","province":"東京都","city":"東久留米市","address":"東久留米市下里7-8-20","lat":35.76007,"lon":139.50226},{"name":"くるみ保育園","province":"東京都","city":"東久留米市","address":"東久留米市柳窪2-15-6","lat":35.74621,"lon":139.49533},{"name":"わらべ東久留米保育園","province":"東京都","city":"東久留米市","address":"東久留米市幸町1-1-24","lat":35.7595,"lon":139.52657},{"name":"東久留米おひさま保育園","province":"東京都","city":"東久留米市","address":"東久留米市幸町1-21-14","lat":35.7603,"lon":139.52333},{"name":"いちご保育園","province":"東京都","city":"東久留米市","address":"東久留米市本町1-5-15","lat":35.75942,"lon":139.53423},{"name":"ちゅうおう保育園","province":"東京都","city":"東久留米市","address":"東久留米市中央町1-2-4","lat":35.75691,"lon":139.5271},{"name":"こでまり保育園","province":"東京都","city":"東久留米市","address":"東久留米市中央町2-3-57","lat":35.75352,"lon":139.52118},{"name":"上の原さくら保育園","province":"東京都","city":"東久留米市","address":"東久留米市上の原1-2-44","lat":35.77181,"lon":139.54579},{"name":"上の原さくら保育園","province":"東京都","city":"東久留米市","address":"東久留米市上の原1-2-44","lat":35.76878,"lon":139.54103},{"name":"久留米みのり保育園","province":"東京都","city":"東久留米市","address":"東久留米市大門町1-3-4","lat":35.76278,"lon":139.53877},{"name":"しんかわ保育園","province":"東京都","city":"東久留米市","address":"東久留米市新川町1-1-12","lat":35.7583,"lon":139.53708},{"name":"トレジャーキッズひがしくるめ保育園","province":"東京都","city":"東久留米市","address":"東久留米市新川町1-9-14サンライズ","lat":35.76189,"lon":139.53659},{"name":"Ｎｉｃｏｔ東久留米","province":"東京都","city":"東久留米市","address":"東久留米市東本町1-8Emio東久留米1F","lat":35.76096,"lon":139.53357},{"name":"まなびの森保育園ひばりヶ丘","province":"東京都","city":"東久留米市","address":"東久留米市学園町1-14-23","lat":35.75112,"lon":139.53976},{"name":"ひばり保育園","province":"東京都","city":"東久留米市","address":"東久留米市ひばりが丘団地8-10","lat":35.74722,"lon":139.53172},{"name":"わらべみなみ保育園","province":"東京都","city":"東久留米市","address":"東久留米市南町1-8-51","lat":35.74158,"lon":139.52573},{"name":"かたばみ保育園","province":"東京都","city":"東久留米市","address":"東久留米市前沢1-4-35","lat":35.74609,"lon":139.51709},{"name":"まえさわ保育園","province":"東京都","city":"東久留米市","address":"東久留米市前沢1-5-30","lat":35.74794,"lon":139.51509},{"name":"たきやま保育園","province":"東京都","city":"東久留米市","address":"東久留米市滝山6-1-2","lat":35.74607,"lon":139.5043},{"name":"滝山しおん保育園","province":"東京都","city":"東久留米市","address":"東久留米市滝山7-5-12","lat":35.74779,"lon":139.50757},{"name":"はちまん保育園","province":"東京都","city":"東久留米市","address":"東久留米市八幡町2-14-22","lat":35.75594,"lon":139.51439},{"name":"はくさん保育園","province":"東京都","city":"東久留米市","address":"東久留米市下里3-2-23","lat":35.75205,"lon":139.5031},{"name":"あそか保育園","province":"東京都","city":"東久留米市","address":"東久留米市下里4-1-21","lat":35.75221,"lon":139.49507},{"name":"下里しおん保育園","province":"東京都","city":"東久留米市","address":"東久留米市下里7-8-20","lat":35.76007,"lon":139.50226},{"name":"くるみ保育園","province":"東京都","city":"東久留米市","address":"東久留米市柳窪2-15-6","lat":35.74621,"lon":139.49533},{"name":"わらべ東久留米保育園","province":"東京都","city":"東久留米市","address":"東久留米市幸町1-1-24","lat":35.7595,"lon":139.52657},{"name":"東久留米おひさま保育園","province":"東京都","city":"東久留米市","address":"東久留米市幸町1-21-14","lat":35.7603,"lon":139.52333},{"name":"いちご保育園","province":"東京都","city":"東久留米市","address":"東久留米市本町1-5-15","lat":35.75942,"lon":139.53423},{"name":"ちゅうおう保育園","province":"東京都","city":"東久留米市","address":"東久留米市中央町1-2-4","lat":35.75691,"lon":139.5271},{"name":"こでまり保育園","province":"東京都","city":"東久留米市","address":"東久留米市中央町2-3-57","lat":35.75352,"lon":139.52118},{"name":"上の原さくら保育園","province":"東京都","city":"東久留米市","address":"東久留米市上の原1-2-44","lat":35.77181,"lon":139.54579},{"name":"上の原さくら保育園","province":"東京都","city":"東久留米市","address":"東久留米市上の原1-2-44","lat":35.76878,"lon":139.54103},{"name":"久留米みのり保育園","province":"東京都","city":"東久留米市","address":"東久留米市大門町1-3-4","lat":35.76278,"lon":139.53877},{"name":"しんかわ保育園","province":"東京都","city":"東久留米市","address":"東久留米市新川町1-1-12","lat":35.7583,"lon":139.53708},{"name":"トレジャーキッズひがしくるめ保育園","province":"東京都","city":"東久留米市","address":"東久留米市新川町1-9-14サンライズ","lat":35.76189,"lon":139.53659},{"name":"Ｎｉｃｏｔ東久留米","province":"東京都","city":"東久留米市","address":"東久留米市東本町1-8Emio東久留米1F","lat":35.76096,"lon":139.53357},{"name":"まなびの森保育園ひばりヶ丘","province":"東京都","city":"東久留米市","address":"東久留米市学園町1-14-23","lat":35.75112,"lon":139.53976},{"name":"ひばり保育園","province":"東京都","city":"東久留米市","address":"東久留米市ひばりが丘団地8-10","lat":35.74722,"lon":139.53172},{"name":"わらべみなみ保育園","province":"東京都","city":"東久留米市","address":"東久留米市南町1-8-51","lat":35.74158,"lon":139.52573},{"name":"かたばみ保育園","province":"東京都","city":"東久留米市","address":"東久留米市前沢1-4-35","lat":35.74609,"lon":139.51709},{"name":"まえさわ保育園","province":"東京都","city":"東久留米市","address":"東久留米市前沢1-5-30","lat":35.74794,"lon":139.51509},{"name":"たきやま保育園","province":"東京都","city":"東久留米市","address":"東久留米市滝山6-1-2","lat":35.74607,"lon":139.5043},{"name":"滝山しおん保育園","province":"東京都","city":"東久留米市","address":"東久留米市滝山7-5-12","lat":35.74779,"lon":139.50757},{"name":"はちまん保育園","province":"東京都","city":"東久留米市","address":"東久留米市八幡町2-14-22","lat":35.75594,"lon":139.51439},{"name":"はくさん保育園","province":"東京都","city":"東久留米市","address":"東久留米市下里3-2-23","lat":35.75205,"lon":139.5031},{"name":"あそか保育園","province":"東京都","city":"東久留米市","address":"東久留米市下里4-1-21","lat":35.75221,"lon":139.49507},{"name":"下里しおん保育園","province":"東京都","city":"東久留米市","address":"東久留米市下里7-8-20","lat":35.76007,"lon":139.50226},{"name":"くるみ保育園","province":"東京都","city":"東久留米市","address":"東久留米市柳窪2-15-6","lat":35.74621,"lon":139.49533},{"name":"わらべ東久留米保育園","province":"東京都","city":"東久留米市","address":"東久留米市幸町1-1-24","lat":35.7595,"lon":139.52657},{"name":"東久留米おひさま保育園","province":"東京都","city":"東久留米市","address":"東久留米市幸町1-21-14","lat":35.7603,"lon":139.52333},{"name":"いちご保育園","province":"東京都","city":"東久留米市","address":"東久留米市本町1-5-15","lat":35.75942,"lon":139.53423},{"name":"ちゅうおう保育園","province":"東京都","city":"東久留米市","address":"東久留米市中央町1-2-4","lat":35.75691,"lon":139.5271},{"name":"こでまり保育園","province":"東京都","city":"東久留米市","address":"東久留米市中央町2-3-57","lat":35.75352,"lon":139.52118},{"name":"上の原さくら保育園","province":"東京都","city":"東久留米市","address":"東久留米市上の原1-2-44","lat":35.77181,"lon":139.54579},{"name":"上の原さくら保育園","province":"東京都","city":"東久留米市","address":"東久留米市上の原1-2-44","lat":35.76878,"lon":139.54103},{"name":"久留米みのり保育園","province":"東京都","city":"東久留米市","address":"東久留米市大門町1-3-4","lat":35.76278,"lon":139.53877},{"name":"しんかわ保育園","province":"東京都","city":"東久留米市","address":"東久留米市新川町1-1-12","lat":35.7583,"lon":139.53708},{"name":"トレジャーキッズひがしくるめ保育園","province":"東京都","city":"東久留米市","address":"東久留米市新川町1-9-14サンライズ","lat":35.76189,"lon":139.53659},{"name":"Ｎｉｃｏｔ東久留米","province":"東京都","city":"東久留米市","address":"東久留米市東本町1-8Emio東久留米1F","lat":35.76096,"lon":139.53357},{"name":"まなびの森保育園ひばりヶ丘","province":"東京都","city":"東久留米市","address":"東久留米市学園町1-14-23","lat":35.75112,"lon":139.53976},{"name":"ひばり保育園","province":"東京都","city":"東久留米市","address":"東久留米市ひばりが丘団地8-10","lat":35.74722,"lon":139.53172},{"name":"わらべみなみ保育園","province":"東京都","city":"東久留米市","address":"東久留米市南町1-8-51","lat":35.74158,"lon":139.52573},{"name":"かたばみ保育園","province":"東京都","city":"東久留米市","address":"東久留米市前沢1-4-35","lat":35.74609,"lon":139.51709},{"name":"まえさわ保育園","province":"東京都","city":"東久留米市","address":"東久留米市前沢1-5-30","lat":35.74794,"lon":139.51509},{"name":"たきやま保育園","province":"東京都","city":"東久留米市","address":"東久留米市滝山6-1-2","lat":35.74607,"lon":139.5043},{"name":"滝山しおん保育園","province":"東京都","city":"東久留米市","address":"東久留米市滝山7-5-12","lat":35.74779,"lon":139.50757},{"name":"はちまん保育園","province":"東京都","city":"東久留米市","address":"東久留米市八幡町2-14-22","lat":35.75594,"lon":139.51439},{"name":"はくさん保育園","province":"東京都","city":"東久留米市","address":"東久留米市下里3-2-23","lat":35.75205,"lon":139.5031},{"name":"あそか保育園","province":"東京都","city":"東久留米市","address":"東久留米市下里4-1-21","lat":35.75221,"lon":139.49507},{"name":"下里しおん保育園","province":"東京都","city":"東久留米市","address":"東久留米市下里7-8-20","lat":35.76007,"lon":139.50226},{"name":"くるみ保育園","province":"東京都","city":"東久留米市","address":"東久留米市柳窪2-15-6","lat":35.74621,"lon":139.49533},{"name":"わらべ東久留米保育園","province":"東京都","city":"東久留米市","address":"東久留米市幸町1-1-24","lat":35.7595,"lon":139.52657},{"name":"東久留米おひさま保育園","province":"東京都","city":"東久留米市","address":"東久留米市幸町1-21-14","lat":35.7603,"lon":139.52333},{"name":"いちご保育園","province":"東京都","city":"東久留米市","address":"東久留米市本町1-5-15","lat":35.75942,"lon":139.53423},{"name":"ちゅうおう保育園","province":"東京都","city":"東久留米市","address":"東久留米市中央町1-2-4","lat":35.75691,"lon":139.5271},{"name":"こでまり保育園","province":"東京都","city":"東久留米市","address":"東久留米市中央町2-3-57","lat":35.75352,"lon":139.52118},{"name":"上の原さくら保育園","province":"東京都","city":"東久留米市","address":"東久留米市上の原1-2-44","lat":35.77181,"lon":139.54579},{"name":"上の原さくら保育園","province":"東京都","city":"東久留米市","address":"東久留米市上の原1-2-44","lat":35.76878,"lon":139.54103},{"name":"久留米みのり保育園","province":"東京都","city":"東久留米市","address":"東久留米市大門町1-3-4","lat":35.76278,"lon":139.53877},{"name":"しんかわ保育園","province":"東京都","city":"東久留米市","address":"東久留米市新川町1-1-12","lat":35.7583,"lon":139.53708},{"name":"トレジャーキッズひがしくるめ保育園","province":"東京都","city":"東久留米市","address":"東久留米市新川町1-9-14サンライズ","lat":35.76189,"lon":139.53659},{"name":"Ｎｉｃｏｔ東久留米","province":"東京都","city":"東久留米市","address":"東久留米市東本町1-8Emio東久留米1F","lat":35.76096,"lon":139.53357},{"name":"まなびの森保育園ひばりヶ丘","province":"東京都","city":"東久留米市","address":"東久留米市学園町1-14-23","lat":35.75112,"lon":139.53976},{"name":"ひばり保育園","province":"東京都","city":"東久留米市","address":"東久留米市ひばりが丘団地8-10","lat":35.74722,"lon":139.53172},{"name":"わらべみなみ保育園","province":"東京都","city":"東久留米市","address":"東久留米市南町1-8-51","lat":35.74158,"lon":139.52573},{"name":"かたばみ保育園","province":"東京都","city":"東久留米市","address":"東久留米市前沢1-4-35","lat":35.74609,"lon":139.51709},{"name":"まえさわ保育園","province":"東京都","city":"東久留米市","address":"東久留米市前沢1-5-30","lat":35.74794,"lon":139.51509},{"name":"たきやま保育園","province":"東京都","city":"東久留米市","address":"東久留米市滝山6-1-2","lat":35.74607,"lon":139.5043},{"name":"滝山しおん保育園","province":"東京都","city":"東久留米市","address":"東久留米市滝山7-5-12","lat":35.74779,"lon":139.50757},{"name":"はちまん保育園","province":"東京都","city":"東久留米市","address":"東久留米市八幡町2-14-22","lat":35.75594,"lon":139.51439},{"name":"はくさん保育園","province":"東京都","city":"東久留米市","address":"東久留米市下里3-2-23","lat":35.75205,"lon":139.5031},{"name":"あそか保育園","province":"東京都","city":"東久留米市","address":"東久留米市下里4-1-21","lat":35.75221,"lon":139.49507},{"name":"下里しおん保育園","province":"東京都","city":"東久留米市","address":"東久留米市下里7-8-20","lat":35.76007,"lon":139.50226},{"name":"くるみ保育園","province":"東京都","city":"東久留米市","address":"東久留米市柳窪2-15-6","lat":35.74621,"lon":139.49533},{"name":"わらべ東久留米保育園","province":"東京都","city":"東久留米市","address":"東久留米市幸町1-1-24","lat":35.7595,"lon":139.52657},{"name":"東久留米おひさま保育園","province":"東京都","city":"東久留米市","address":"東久留米市幸町1-21-14","lat":35.7603,"lon":139.52333},{"name":"いちご保育園","province":"東京都","city":"東久留米市","address":"東久留米市本町1-5-15","lat":35.75942,"lon":139.53423},{"name":"ちゅうおう保育園","province":"東京都","city":"東久留米市","address":"東久留米市中央町1-2-4","lat":35.75691,"lon":139.5271},{"name":"こでまり保育園","province":"東京都","city":"東久留米市","address":"東久留米市中央町2-3-57","lat":35.75352,"lon":139.52118},{"name":"上の原さくら保育園","province":"東京都","city":"東久留米市","address":"東久留米市上の原1-2-44","lat":35.77181,"lon":139.54579},{"name":"上の原さくら保育園","province":"東京都","city":"東久留米市","address":"東久留米市上の原1-2-44","lat":35.76878,"lon":139.54103},{"name":"久留米みのり保育園","province":"東京都","city":"東久留米市","address":"東久留米市大門町1-3-4","lat":35.76278,"lon":139.53877},{"name":"しんかわ保育園","province":"東京都","city":"東久留米市","address":"東久留米市新川町1-1-12","lat":35.7583,"lon":139.53708},{"name":"トレジャーキッズひがしくるめ保育園","province":"東京都","city":"東久留米市","address":"東久留米市新川町1-9-14サンライズ","lat":35.76189,"lon":139.53659},{"name":"Ｎｉｃｏｔ東久留米","province":"東京都","city":"東久留米市","address":"東久留米市東本町1-8Emio東久留米1F","lat":35.76096,"lon":139.53357},{"name":"まなびの森保育園ひばりヶ丘","province":"東京都","city":"東久留米市","address":"東久留米市学園町1-14-23","lat":35.75112,"lon":139.53976},{"name":"ひばり保育園","province":"東京都","city":"東久留米市","address":"東久留米市ひばりが丘団地8-10","lat":35.74722,"lon":139.53172},{"name":"わらべみなみ保育園","province":"東京都","city":"東久留米市","address":"東久留米市南町1-8-51","lat":35.74158,"lon":139.52573},{"name":"かたばみ保育園","province":"東京都","city":"東久留米市","address":"東久留米市前沢1-4-35","lat":35.74609,"lon":139.51709},{"name":"まえさわ保育園","province":"東京都","city":"東久留米市","address":"東久留米市前沢1-5-30","lat":35.74794,"lon":139.51509},{"name":"たきやま保育園","province":"東京都","city":"東久留米市","address":"東久留米市滝山6-1-2","lat":35.74607,"lon":139.5043},{"name":"滝山しおん保育園","province":"東京都","city":"東久留米市","address":"東久留米市滝山7-5-12","lat":35.74779,"lon":139.50757},{"name":"はちまん保育園","province":"東京都","city":"東久留米市","address":"東久留米市八幡町2-14-22","lat":35.75594,"lon":139.51439},{"name":"はくさん保育園","province":"東京都","city":"東久留米市","address":"東久留米市下里3-2-23","lat":35.75205,"lon":139.5031},{"name":"あそか保育園","province":"東京都","city":"東久留米市","address":"東久留米市下里4-1-21","lat":35.75221,"lon":139.49507},{"name":"下里しおん保育園","province":"東京都","city":"東久留米市","address":"東久留米市下里7-8-20","lat":35.76007,"lon":139.50226},{"name":"くるみ保育園","province":"東京都","city":"東久留米市","address":"東久留米市柳窪2-15-6","lat":35.74621,"lon":139.49533},{"name":"わらべ東久留米保育園","province":"東京都","city":"東久留米市","address":"東久留米市幸町1-1-24","lat":35.7595,"lon":139.52657},{"name":"東久留米おひさま保育園","province":"東京都","city":"東久留米市","address":"東久留米市幸町1-21-14","lat":35.7603,"lon":139.52333},{"name":"いちご保育園","province":"東京都","city":"東久留米市","address":"東久留米市本町1-5-15","lat":35.75942,"lon":139.53423},{"name":"ちゅうおう保育園","province":"東京都","city":"東久留米市","address":"東久留米市中央町1-2-4","lat":35.75691,"lon":139.5271},{"name":"こでまり保育園","province":"東京都","city":"東久留米市","address":"東久留米市中央町2-3-57","lat":35.75352,"lon":139.52118},{"name":"上の原さくら保育園","province":"東京都","city":"東久留米市","address":"東久留米市上の原1-2-44","lat":35.77181,"lon":139.54579},{"name":"上の原さくら保育園","province":"東京都","city":"東久留米市","address":"東久留米市上の原1-2-44","lat":35.76878,"lon":139.54103},{"name":"久留米みのり保育園","province":"東京都","city":"東久留米市","address":"東久留米市大門町1-3-4","lat":35.76278,"lon":139.53877},{"name":"しんかわ保育園","province":"東京都","city":"東久留米市","address":"東久留米市新川町1-1-12","lat":35.7583,"lon":139.53708},{"name":"トレジャーキッズひがしくるめ保育園","province":"東京都","city":"東久留米市","address":"東久留米市新川町1-9-14サンライズ","lat":35.76189,"lon":139.53659},{"name":"Ｎｉｃｏｔ東久留米","province":"東京都","city":"東久留米市","address":"東久留米市東本町1-8Emio東久留米1F","lat":35.76096,"lon":139.53357},{"name":"まなびの森保育園ひばりヶ丘","province":"東京都","city":"東久留米市","address":"東久留米市学園町1-14-23","lat":35.75112,"lon":139.53976},{"name":"ひばり保育園","province":"東京都","city":"東久留米市","address":"東久留米市ひばりが丘団地8-10","lat":35.74722,"lon":139.53172},{"name":"わらべみなみ保育園","province":"東京都","city":"東久留米市","address":"東久留米市南町1-8-51","lat":35.74158,"lon":139.52573},{"name":"かたばみ保育園","province":"東京都","city":"東久留米市","address":"東久留米市前沢1-4-35","lat":35.74609,"lon":139.51709},{"name":"まえさわ保育園","province":"東京都","city":"東久留米市","address":"東久留米市前沢1-5-30","lat":35.74794,"lon":139.51509},{"name":"たきやま保育園","province":"東京都","city":"東久留米市","address":"東久留米市滝山6-1-2","lat":35.74607,"lon":139.5043},{"name":"滝山しおん保育園","province":"東京都","city":"東久留米市","address":"東久留米市滝山7-5-12","lat":35.74779,"lon":139.50757},{"name":"はちまん保育園","province":"東京都","city":"東久留米市","address":"東久留米市八幡町2-14-22","lat":35.75594,"lon":139.51439},{"name":"はくさん保育園","province":"東京都","city":"東久留米市","address":"東久留米市下里3-2-23","lat":35.75205,"lon":139.5031},{"name":"あそか保育園","province":"東京都","city":"東久留米市","address":"東久留米市下里4-1-21","lat":35.75221,"lon":139.49507},{"name":"下里しおん保育園","province":"東京都","city":"東久留米市","address":"東久留米市下里7-8-20","lat":35.76007,"lon":139.50226},{"name":"くるみ保育園","province":"東京都","city":"東久留米市","address":"東久留米市柳窪2-15-6","lat":35.74621,"lon":139.49533},{"name":"わらべ東久留米保育園","province":"東京都","city":"東久留米市","address":"東久留米市幸町1-1-24","lat":35.7595,"lon":139.52657},{"name":"東久留米おひさま保育園","province":"東京都","city":"東久留米市","address":"東久留米市幸町1-21-14","lat":35.7603,"lon":139.52333},{"name":"いちご保育園","province":"東京都","city":"東久留米市","address":"東久留米市本町1-5-15","lat":35.75942,"lon":139.53423},{"name":"ちゅうおう保育園","province":"東京都","city":"東久留米市","address":"東久留米市中央町1-2-4","lat":35.75691,"lon":139.5271},{"name":"こでまり保育園","province":"東京都","city":"東久留米市","address":"東久留米市中央町2-3-57","lat":35.75352,"lon":139.52118},{"name":"上の原さくら保育園","province":"東京都","city":"東久留米市","address":"東久留米市上の原1-2-44","lat":35.77181,"lon":139.54579},{"name":"上の原さくら保育園","province":"東京都","city":"東久留米市","address":"東久留米市上の原1-2-44","lat":35.76878,"lon":139.54103},{"name":"久留米みのり保育園","province":"東京都","city":"東久留米市","address":"東久留米市大門町1-3-4","lat":35.76278,"lon":139.53877},{"name":"しんかわ保育園","province":"東京都","city":"東久留米市","address":"東久留米市新川町1-1-12","lat":35.7583,"lon":139.53708},{"name":"トレジャーキッズひがしくるめ保育園","province":"東京都","city":"東久留米市","address":"東久留米市新川町1-9-14サンライズ","lat":35.76189,"lon":139.53659},{"name":"Ｎｉｃｏｔ東久留米","province":"東京都","city":"東久留米市","address":"東久留米市東本町1-8Emio東久留米1F","lat":35.76096,"lon":139.53357},{"name":"まなびの森保育園ひばりヶ丘","province":"東京都","city":"東久留米市","address":"東久留米市学園町1-14-23","lat":35.75112,"lon":139.53976},{"name":"ひばり保育園","province":"東京都","city":"東久留米市","address":"東久留米市ひばりが丘団地8-10","lat":35.74722,"lon":139.53172},{"name":"わらべみなみ保育園","province":"東京都","city":"東久留米市","address":"東久留米市南町1-8-51","lat":35.74158,"lon":139.52573},{"name":"かたばみ保育園","province":"東京都","city":"東久留米市","address":"東久留米市前沢1-4-35","lat":35.74609,"lon":139.51709},{"name":"まえさわ保育園","province":"東京都","city":"東久留米市","address":"東久留米市前沢1-5-30","lat":35.74794,"lon":139.51509},{"name":"たきやま保育園","province":"東京都","city":"東久留米市","address":"東久留米市滝山6-1-2","lat":35.74607,"lon":139.5043},{"name":"滝山しおん保育園","province":"東京都","city":"東久留米市","address":"東久留米市滝山7-5-12","lat":35.74779,"lon":139.50757},{"name":"はちまん保育園","province":"東京都","city":"東久留米市","address":"東久留米市八幡町2-14-22","lat":35.75594,"lon":139.51439},{"name":"はくさん保育園","province":"東京都","city":"東久留米市","address":"東久留米市下里3-2-23","lat":35.75205,"lon":139.5031},{"name":"あそか保育園","province":"東京都","city":"東久留米市","address":"東久留米市下里4-1-21","lat":35.75221,"lon":139.49507},{"name":"下里しおん保育園","province":"東京都","city":"東久留米市","address":"東久留米市下里7-8-20","lat":35.76007,"lon":139.50226},{"name":"くるみ保育園","province":"東京都","city":"東久留米市","address":"東久留米市柳窪2-15-6","lat":35.74621,"lon":139.49533},{"name":"わらべ東久留米保育園","province":"東京都","city":"東久留米市","address":"東久留米市幸町1-1-24","lat":35.7595,"lon":139.52657},{"name":"東久留米おひさま保育園","province":"東京都","city":"東久留米市","address":"東久留米市幸町1-21-14","lat":35.7603,"lon":139.52333},{"name":"いちご保育園","province":"東京都","city":"東久留米市","address":"東久留米市本町1-5-15","lat":35.75942,"lon":139.53423},{"name":"ちゅうおう保育園","province":"東京都","city":"東久留米市","address":"東久留米市中央町1-2-4","lat":35.75691,"lon":139.5271},{"name":"こでまり保育園","province":"東京都","city":"東久留米市","address":"東久留米市中央町2-3-57","lat":35.75352,"lon":139.52118},{"name":"上の原さくら保育園","province":"東京都","city":"東久留米市","address":"東久留米市上の原1-2-44","lat":35.77181,"lon":139.54579},{"name":"上の原さくら保育園","province":"東京都","city":"東久留米市","address":"東久留米市上の原1-2-44","lat":35.76878,"lon":139.54103},{"name":"久留米みのり保育園","province":"東京都","city":"東久留米市","address":"東久留米市大門町1-3-4","lat":35.76278,"lon":139.53877},{"name":"しんかわ保育園","province":"東京都","city":"東久留米市","address":"東久留米市新川町1-1-12","lat":35.7583,"lon":139.53708},{"name":"トレジャーキッズひがしくるめ保育園","province":"東京都","city":"東久留米市","address":"東久留米市新川町1-9-14サンライズ","lat":35.76189,"lon":139.53659},{"name":"Ｎｉｃｏｔ東久留米","province":"東京都","city":"東久留米市","address":"東久留米市東本町1-8Emio東久留米1F","lat":35.76096,"lon":139.53357},{"name":"まなびの森保育園ひばりヶ丘","province":"東京都","city":"東久留米市","address":"東久留米市学園町1-14-23","lat":35.75112,"lon":139.53976},{"name":"ひばり保育園","province":"東京都","city":"東久留米市","address":"東久留米市ひばりが丘団地8-10","lat":35.74722,"lon":139.53172},{"name":"わらべみなみ保育園","province":"東京都","city":"東久留米市","address":"東久留米市南町1-8-51","lat":35.74158,"lon":139.52573},{"name":"かたばみ保育園","province":"東京都","city":"東久留米市","address":"東久留米市前沢1-4-35","lat":35.74609,"lon":139.51709},{"name":"まえさわ保育園","province":"東京都","city":"東久留米市","address":"東久留米市前沢1-5-30","lat":35.74794,"lon":139.51509},{"name":"たきやま保育園","province":"東京都","city":"東久留米市","address":"東久留米市滝山6-1-2","lat":35.74607,"lon":139.5043},{"name":"滝山しおん保育園","province":"東京都","city":"東久留米市","address":"東久留米市滝山7-5-12","lat":35.74779,"lon":139.50757},{"name":"はちまん保育園","province":"東京都","city":"東久留米市","address":"東久留米市八幡町2-14-22","lat":35.75594,"lon":139.51439},{"name":"はくさん保育園","province":"東京都","city":"東久留米市","address":"東久留米市下里3-2-23","lat":35.75205,"lon":139.5031},{"name":"あそか保育園","province":"東京都","city":"東久留米市","address":"東久留米市下里4-1-21","lat":35.75221,"lon":139.49507},{"name":"下里しおん保育園","province":"東京都","city":"東久留米市","address":"東久留米市下里7-8-20","lat":35.76007,"lon":139.50226},{"name":"くるみ保育園","province":"東京都","city":"東久留米市","address":"東久留米市柳窪2-15-6","lat":35.74621,"lon":139.49533},{"name":"わらべ東久留米保育園","province":"東京都","city":"東久留米市","address":"東久留米市幸町1-1-24","lat":35.7595,"lon":139.52657},{"name":"東久留米おひさま保育園","province":"東京都","city":"東久留米市","address":"東久留米市幸町1-21-14","lat":35.7603,"lon":139.52333},{"name":"いちご保育園","province":"東京都","city":"東久留米市","address":"東久留米市本町1-5-15","lat":35.75942,"lon":139.53423},{"name":"ちゅうおう保育園","province":"東京都","city":"東久留米市","address":"東久留米市中央町1-2-4","lat":35.75691,"lon":139.5271},{"name":"こでまり保育園","province":"東京都","city":"東久留米市","address":"東久留米市中央町2-3-57","lat":35.75352,"lon":139.52118},{"name":"上の原さくら保育園","province":"東京都","city":"東久留米市","address":"東久留米市上の原1-2-44","lat":35.77181,"lon":139.54579}]}