{"keyword":"店","data":[{"name":"さくら滝山ハウス","province":"東京都","city":"東久留米市","address":"東久留米市滝山7-1-22","lat":35.749565,"lon":139.508844},{"name":"東久留米市社会福祉協議会","province":"東京都","city":"東久留米市","address":"東久留米市滝山4-3-14わくわく健康プラザ2階","lat":35.742288,"lon":139.504483},{"name":"さくら滝山ハウス","province":"東京都","city":"東久留米市","address":"東久留米市滝山7-1-22","lat":35.74975,"lon":139.50836},{"name":"有限会社　市民葬祭センター","province":"東京都","city":"東久留米市","address":"東京都東久留米市東本町4-6","lat":35.7626027,"lon":139.53419939},{"name":"有限会社　小平典礼　東久留米支社","province":"東京都","city":"東久留米市","address":"東京都東久留米市滝山3丁目11-6","lat":35.74065177,"lon":139.50463613},{"name":"株式会社　コムウェル　小平営業所","province":"東京都","city":"東久留米市","address":"東京都東久留米市柳窪4丁目7-9","lat":35.74611182,"lon":139.48739857},{"name":"株式会社　奥野式典","province":"東京都","city":"東久留米市","address":"東京都東久留米市滝山4丁目1-40","lat":35.74466523,"lon":139.50567754},{"name":"有限会社　緑葬儀社　東久留米支店","province":"東京都","city":"東久留米市","address":"東京都東久留米市本町2丁目1-2","lat":35.76228045,"lon":139.53175239},{"name":"すずらん（株式会社　アイコス）","province":"東京都","city":"東久留米市","address":"東京都東久留米市下里3丁目5-9","lat":35.75130046,"lon":139.50049165},{"name":"有限会社　藤式典　東久留米店","province":"東京都","city":"東久留米市","address":"東京都東久留米市幸町4丁目4-1","lat":35.75557535,"lon":139.51599011},{"name":"有限会社　ウィズセレモニー","province":"東京都","city":"東久留米市","address":"東京都東久留米市東本町12-3","lat":35.76429974,"lon":139.53547979},{"name":"田中葬祭　株式会社　東久留米支店","province":"東京都","city":"東久留米市","address":"東京都東久留米市本町3丁目6-9","lat":35.75947237,"lon":139.52759451},{"name":"東久留米市社会福祉協議会","province":"東京都","city":"東久留米市","address":"東久留米市滝山4-3-14わくわく健康プラザ2階","lat":35.74133,"lon":139.50406},{"name":"社会福祉法人恩賜財団東京都同胞援護会東久留米市立さいわい福祉センター","province":"東京都","city":"東久留米市","address":"東京都東久留米市幸町3丁目9-28","lat":35.75904724,"lon":139.51928415},{"name":"特定非営利活動法人コイノニア就労支援事業所コイノニア","province":"東京都","city":"東久留米市","address":"東京都東久留米市滝山5丁目1-16","lat":35.74620665,"lon":139.50325825},{"name":"特定非営利活動法人武蔵野の里ぶどうの郷","province":"東京都","city":"東久留米市","address":"東京都東久留米市大門町1丁目2-4","lat":35.7638248,"lon":139.535802},{"name":"特定非営利活動法人武蔵野の里くるめパソコン作業所","province":"東京都","city":"東久留米市","address":"東京都東久留米市氷川台1丁目2-12","lat":35.76479967,"lon":139.53466594},{"name":"＊?東久留米市立生涯学習センター","province":"東京都","city":"東久留米市","address":"東久留米市中央町2-6-23","lat":35.755517,"lon":139.522346},{"name":"さくら滝山ハウス","province":"東京都","city":"東久留米市","address":"東久留米市滝山7-1-22","lat":35.749565,"lon":139.508844},{"name":"東久留米市社会福祉協議会","province":"東京都","city":"東久留米市","address":"東久留米市滝山4-3-14わくわく健康プラザ2階","lat":35.742288,"lon":139.504483},{"name":"さくら滝山ハウス","province":"東京都","city":"東久留米市","address":"東久留米市滝山7-1-22","lat":35.74975,"lon":139.50836},{"name":"有限会社　市民葬祭センター","province":"東京都","city":"東久留米市","address":"東京都東久留米市東本町4-6","lat":35.7626027,"lon":139.53419939},{"name":"有限会社　小平典礼　東久留米支社","province":"東京都","city":"東久留米市","address":"東京都東久留米市滝山3丁目11-6","lat":35.74065177,"lon":139.50463613},{"name":"株式会社　コムウェル　小平営業所","province":"東京都","city":"東久留米市","address":"東京都東久留米市柳窪4丁目7-9","lat":35.74611182,"lon":139.48739857},{"name":"株式会社　奥野式典","province":"東京都","city":"東久留米市","address":"東京都東久留米市滝山4丁目1-40","lat":35.74466523,"lon":139.50567754},{"name":"有限会社　緑葬儀社　東久留米支店","province":"東京都","city":"東久留米市","address":"東京都東久留米市本町2丁目1-2","lat":35.76228045,"lon":139.53175239},{"name":"すずらん（株式会社　アイコス）","province":"東京都","city":"東久留米市","address":"東京都東久留米市下里3丁目5-9","lat":35.75130046,"lon":139.50049165},{"name":"有限会社　藤式典　東久留米店","province":"東京都","city":"東久留米市","address":"東京都東久留米市幸町4丁目4-1","lat":35.75557535,"lon":139.51599011},{"name":"有限会社　ウィズセレモニー","province":"東京都","city":"東久留米市","address":"東京都東久留米市東本町12-3","lat":35.76429974,"lon":139.53547979},{"name":"田中葬祭　株式会社　東久留米支店","province":"東京都","city":"東久留米市","address":"東京都東久留米市本町3丁目6-9","lat":35.75947237,"lon":139.52759451},{"name":"東久留米市社会福祉協議会","province":"東京都","city":"東久留米市","address":"東久留米市滝山4-3-14わくわく健康プラザ2階","lat":35.74133,"lon":139.50406},{"name":"社会福祉法人恩賜財団東京都同胞援護会東久留米市立さいわい福祉センター","province":"東京都","city":"東久留米市","address":"東京都東久留米市幸町3丁目9-28","lat":35.75904724,"lon":139.51928415},{"name":"特定非営利活動法人コイノニア就労支援事業所コイノニア","province":"東京都","city":"東久留米市","address":"東京都東久留米市滝山5丁目1-16","lat":35.74620665,"lon":139.50325825},{"name":"特定非営利活動法人武蔵野の里ぶどうの郷","province":"東京都","city":"東久留米市","address":"東京都東久留米市大門町1丁目2-4","lat":35.7638248,"lon":139.535802},{"name":"特定非営利活動法人武蔵野の里くるめパソコン作業所","province":"東京都","city":"東久留米市","address":"東京都東久留米市氷川台1丁目2-12","lat":35.76479967,"lon":139.53466594},{"name":"さくら滝山ハウス","province":"東京都","city":"東久留米市","address":"東久留米市滝山7-1-22","lat":35.749565,"lon":139.508844},{"name":"東久留米市社会福祉協議会","province":"東京都","city":"東久留米市","address":"東久留米市滝山4-3-14わくわく健康プラザ2階","lat":35.742288,"lon":139.504483},{"name":"さくら滝山ハウス","province":"東京都","city":"東久留米市","address":"東久留米市滝山7-1-22","lat":35.74975,"lon":139.50836},{"name":"有限会社　市民葬祭センター","province":"東京都","city":"東久留米市","address":"東京都東久留米市東本町4-6","lat":35.7626027,"lon":139.53419939},{"name":"有限会社　小平典礼　東久留米支社","province":"東京都","city":"東久留米市","address":"東京都東久留米市滝山3丁目11-6","lat":35.74065177,"lon":139.50463613},{"name":"株式会社　コムウェル　小平営業所","province":"東京都","city":"東久留米市","address":"東京都東久留米市柳窪4丁目7-9","lat":35.74611182,"lon":139.48739857},{"name":"株式会社　奥野式典","province":"東京都","city":"東久留米市","address":"東京都東久留米市滝山4丁目1-40","lat":35.74466523,"lon":139.50567754},{"name":"有限会社　緑葬儀社　東久留米支店","province":"東京都","city":"東久留米市","address":"東京都東久留米市本町2丁目1-2","lat":35.76228045,"lon":139.53175239},{"name":"すずらん（株式会社　アイコス）","province":"東京都","city":"東久留米市","address":"東京都東久留米市下里3丁目5-9","lat":35.75130046,"lon":139.50049165},{"name":"有限会社　藤式典　東久留米店","province":"東京都","city":"東久留米市","address":"東京都東久留米市幸町4丁目4-1","lat":35.75557535,"lon":139.51599011},{"name":"有限会社　ウィズセレモニー","province":"東京都","city":"東久留米市","address":"東京都東久留米市東本町12-3","lat":35.76429974,"lon":139.53547979},{"name":"田中葬祭　株式会社　東久留米支店","province":"東京都","city":"東久留米市","address":"東京都東久留米市本町3丁目6-9","lat":35.75947237,"lon":139.52759451},{"name":"東久留米市社会福祉協議会","province":"東京都","city":"東久留米市","address":"東久留米市滝山4-3-14わくわく健康プラザ2階","lat":35.74133,"lon":139.50406},{"name":"社会福祉法人恩賜財団東京都同胞援護会東久留米市立さいわい福祉センター","province":"東京都","city":"東久留米市","address":"東京都東久留米市幸町3丁目9-28","lat":35.75904724,"lon":139.51928415},{"name":"特定非営利活動法人コイノニア就労支援事業所コイノニア","province":"東京都","city":"東久留米市","address":"東京都東久留米市滝山5丁目1-16","lat":35.74620665,"lon":139.50325825},{"name":"特定非営利活動法人武蔵野の里ぶどうの郷","province":"東京都","city":"東久留米市","address":"東京都東久留米市大門町1丁目2-4","lat":35.7638248,"lon":139.535802},{"name":"特定非営利活動法人武蔵野の里くるめパソコン作業所","province":"東京都","city":"東久留米市","address":"東京都東久留米市氷川台1丁目2-12","lat":35.76479967,"lon":139.53466594},{"name":"さくら滝山ハウス","province":"東京都","city":"東久留米市","address":"東久留米市滝山7-1-22","lat":35.749565,"lon":139.508844},{"name":"東久留米市社会福祉協議会","province":"東京都","city":"東久留米市","address":"東久留米市滝山4-3-14わくわく健康プラザ2階","lat":35.742288,"lon":139.504483},{"name":"さくら滝山ハウス","province":"東京都","city":"東久留米市","address":"東久留米市滝山7-1-22","lat":35.74975,"lon":139.50836},{"name":"有限会社　市民葬祭センター","province":"東京都","city":"東久留米市","address":"東京都東久留米市東本町4-6","lat":35.7626027,"lon":139.53419939},{"name":"有限会社　小平典礼　東久留米支社","province":"東京都","city":"東久留米市","address":"東京都東久留米市滝山3丁目11-6","lat":35.74065177,"lon":139.50463613},{"name":"株式会社　コムウェル　小平営業所","province":"東京都","city":"東久留米市","address":"東京都東久留米市柳窪4丁目7-9","lat":35.74611182,"lon":139.48739857},{"name":"株式会社　奥野式典","province":"東京都","city":"東久留米市","address":"東京都東久留米市滝山4丁目1-40","lat":35.74466523,"lon":139.50567754},{"name":"有限会社　緑葬儀社　東久留米支店","province":"東京都","city":"東久留米市","address":"東京都東久留米市本町2丁目1-2","lat":35.76228045,"lon":139.53175239},{"name":"すずらん（株式会社　アイコス）","province":"東京都","city":"東久留米市","address":"東京都東久留米市下里3丁目5-9","lat":35.75130046,"lon":139.50049165},{"name":"有限会社　藤式典　東久留米店","province":"東京都","city":"東久留米市","address":"東京都東久留米市幸町4丁目4-1","lat":35.75557535,"lon":139.51599011},{"name":"有限会社　ウィズセレモニー","province":"東京都","city":"東久留米市","address":"東京都東久留米市東本町12-3","lat":35.76429974,"lon":139.53547979},{"name":"田中葬祭　株式会社　東久留米支店","province":"東京都","city":"東久留米市","address":"東京都東久留米市本町3丁目6-9","lat":35.75947237,"lon":139.52759451},{"name":"東久留米市社会福祉協議会","province":"東京都","city":"東久留米市","address":"東久留米市滝山4-3-14わくわく健康プラザ2階","lat":35.74133,"lon":139.50406},{"name":"社会福祉法人恩賜財団東京都同胞援護会東久留米市立さいわい福祉センター","province":"東京都","city":"東久留米市","address":"東京都東久留米市幸町3丁目9-28","lat":35.75904724,"lon":139.51928415},{"name":"特定非営利活動法人コイノニア就労支援事業所コイノニア","province":"東京都","city":"東久留米市","address":"東京都東久留米市滝山5丁目1-16","lat":35.74620665,"lon":139.50325825},{"name":"特定非営利活動法人武蔵野の里ぶどうの郷","province":"東京都","city":"東久留米市","address":"東京都東久留米市大門町1丁目2-4","lat":35.7638248,"lon":139.535802},{"name":"特定非営利活動法人武蔵野の里くるめパソコン作業所","province":"東京都","city":"東久留米市","address":"東京都東久留米市氷川台1丁目2-12","lat":35.76479967,"lon":139.53466594},{"name":"さくら滝山ハウス","province":"東京都","city":"東久留米市","address":"東久留米市滝山7-1-22","lat":35.749565,"lon":139.508844},{"name":"東久留米市社会福祉協議会","province":"東京都","city":"東久留米市","address":"東久留米市滝山4-3-14わくわく健康プラザ2階","lat":35.742288,"lon":139.504483},{"name":"さくら滝山ハウス","province":"東京都","city":"東久留米市","address":"東久留米市滝山7-1-22","lat":35.74975,"lon":139.50836},{"name":"有限会社　市民葬祭センター","province":"東京都","city":"東久留米市","address":"東京都東久留米市東本町4-6","lat":35.7626027,"lon":139.53419939},{"name":"有限会社　小平典礼　東久留米支社","province":"東京都","city":"東久留米市","address":"東京都東久留米市滝山3丁目11-6","lat":35.74065177,"lon":139.50463613},{"name":"株式会社　コムウェル　小平営業所","province":"東京都","city":"東久留米市","address":"東京都東久留米市柳窪4丁目7-9","lat":35.74611182,"lon":139.48739857},{"name":"株式会社　奥野式典","province":"東京都","city":"東久留米市","address":"東京都東久留米市滝山4丁目1-40","lat":35.74466523,"lon":139.50567754},{"name":"有限会社　緑葬儀社　東久留米支店","province":"東京都","city":"東久留米市","address":"東京都東久留米市本町2丁目1-2","lat":35.76228045,"lon":139.53175239},{"name":"すずらん（株式会社　アイコス）","province":"東京都","city":"東久留米市","address":"東京都東久留米市下里3丁目5-9","lat":35.75130046,"lon":139.50049165},{"name":"有限会社　藤式典　東久留米店","province":"東京都","city":"東久留米市","address":"東京都東久留米市幸町4丁目4-1","lat":35.75557535,"lon":139.51599011},{"name":"有限会社　ウィズセレモニー","province":"東京都","city":"東久留米市","address":"東京都東久留米市東本町12-3","lat":35.76429974,"lon":139.53547979},{"name":"田中葬祭　株式会社　東久留米支店","province":"東京都","city":"東久留米市","address":"東京都東久留米市本町3丁目6-9","lat":35.75947237,"lon":139.52759451},{"name":"東久留米市社会福祉協議会","province":"東京都","city":"東久留米市","address":"東久留米市滝山4-3-14わくわく健康プラザ2階","lat":35.74133,"lon":139.50406},{"name":"社会福祉法人恩賜財団東京都同胞援護会東久留米市立さいわい福祉センター","province":"東京都","city":"東久留米市","address":"東京都東久留米市幸町3丁目9-28","lat":35.75904724,"lon":139.51928415},{"name":"特定非営利活動法人コイノニア就労支援事業所コイノニア","province":"東京都","city":"東久留米市","address":"東京都東久留米市滝山5丁目1-16","lat":35.74620665,"lon":139.50325825},{"name":"特定非営利活動法人武蔵野の里ぶどうの郷","province":"東京都","city":"東久留米市","address":"東京都東久留米市大門町1丁目2-4","lat":35.7638248,"lon":139.535802},{"name":"特定非営利活動法人武蔵野の里くるめパソコン作業所","province":"東京都","city":"東久留米市","address":"東京都東久留米市氷川台1丁目2-12","lat":35.76479967,"lon":139.53466594},{"name":"さくら滝山ハウス","province":"東京都","city":"東久留米市","address":"東久留米市滝山7-1-22","lat":35.749565,"lon":139.508844},{"name":"東久留米市社会福祉協議会","province":"東京都","city":"東久留米市","address":"東久留米市滝山4-3-14わくわく健康プラザ2階","lat":35.742288,"lon":139.504483},{"name":"さくら滝山ハウス","province":"東京都","city":"東久留米市","address":"東久留米市滝山7-1-22","lat":35.74975,"lon":139.50836},{"name":"東久留米市社会福祉協議会","province":"東京都","city":"東久留米市","address":"東久留米市滝山4-3-14わくわく健康プラザ2階","lat":35.74133,"lon":139.50406},{"name":"社会福祉法人恩賜財団東京都同胞援護会東久留米市立さいわい福祉センター","province":"東京都","city":"東久留米市","address":"東京都東久留米市幸町3丁目9-28","lat":35.75904724,"lon":139.51928415},{"name":"特定非営利活動法人コイノニア就労支援事業所コイノニア","province":"東京都","city":"東久留米市","address":"東京都東久留米市滝山5丁目1-16","lat":35.74620665,"lon":139.50325825},{"name":"特定非営利活動法人武蔵野の里ぶどうの郷","province":"東京都","city":"東久留米市","address":"東京都東久留米市大門町1丁目2-4","lat":35.7638248,"lon":139.535802},{"name":"特定非営利活動法人武蔵野の里くるめパソコン作業所","province":"東京都","city":"東久留米市","address":"東京都東久留米市氷川台1丁目2-12","lat":35.76479967,"lon":139.53466594},{"name":"さくら滝山ハウス","province":"東京都","city":"東久留米市","address":"東久留米市滝山7-1-22","lat":35.749565,"lon":139.508844},{"name":"東久留米市社会福祉協議会","province":"東京都","city":"東久留米市","address":"東久留米市滝山4-3-14わくわく健康プラザ2階","lat":35.742288,"lon":139.504483},{"name":"さくら滝山ハウス","province":"東京都","city":"東久留米市","address":"東久留米市滝山7-1-22","lat":35.74975,"lon":139.50836},{"name":"東久留米市社会福祉協議会","province":"東京都","city":"東久留米市","address":"東久留米市滝山4-3-14わくわく健康プラザ2階","lat":35.74133,"lon":139.50406},{"name":"社会福祉法人恩賜財団東京都同胞援護会東久留米市立さいわい福祉センター","province":"東京都","city":"東久留米市","address":"東京都東久留米市幸町3丁目9-28","lat":35.75904724,"lon":139.51928415},{"name":"特定非営利活動法人コイノニア就労支援事業所コイノニア","province":"東京都","city":"東久留米市","address":"東京都東久留米市滝山5丁目1-16","lat":35.74620665,"lon":139.50325825},{"name":"特定非営利活動法人武蔵野の里ぶどうの郷","province":"東京都","city":"東久留米市","address":"東京都東久留米市大門町1丁目2-4","lat":35.7638248,"lon":139.535802},{"name":"特定非営利活動法人武蔵野の里くるめパソコン作業所","province":"東京都","city":"東久留米市","address":"東京都東久留米市氷川台1丁目2-12","lat":35.76479967,"lon":139.53466594},{"name":"さくら滝山ハウス","province":"東京都","city":"東久留米市","address":"東久留米市滝山7-1-22","lat":35.749565,"lon":139.508844},{"name":"東久留米市社会福祉協議会","province":"東京都","city":"東久留米市","address":"東久留米市滝山4-3-14わくわく健康プラザ2階","lat":35.742288,"lon":139.504483},{"name":"さくら滝山ハウス","province":"東京都","city":"東久留米市","address":"東久留米市滝山7-1-22","lat":35.74975,"lon":139.50836},{"name":"東久留米市社会福祉協議会","province":"東京都","city":"東久留米市","address":"東久留米市滝山4-3-14わくわく健康プラザ2階","lat":35.74133,"lon":139.50406},{"name":"社会福祉法人恩賜財団東京都同胞援護会東久留米市立さいわい福祉センター","province":"東京都","city":"東久留米市","address":"東京都東久留米市幸町3丁目9-28","lat":35.75904724,"lon":139.51928415},{"name":"特定非営利活動法人コイノニア就労支援事業所コイノニア","province":"東京都","city":"東久留米市","address":"東京都東久留米市滝山5丁目1-16","lat":35.74620665,"lon":139.50325825},{"name":"特定非営利活動法人武蔵野の里ぶどうの郷","province":"東京都","city":"東久留米市","address":"東京都東久留米市大門町1丁目2-4","lat":35.7638248,"lon":139.535802},{"name":"特定非営利活動法人武蔵野の里くるめパソコン作業所","province":"東京都","city":"東久留米市","address":"東京都東久留米市氷川台1丁目2-12","lat":35.76479967,"lon":139.53466594},{"name":"さくら滝山ハウス","province":"東京都","city":"東久留米市","address":"東久留米市滝山7-1-22","lat":35.749565,"lon":139.508844},{"name":"東久留米市社会福祉協議会","province":"東京都","city":"東久留米市","address":"東久留米市滝山4-3-14わくわく健康プラザ2階","lat":35.742288,"lon":139.504483},{"name":"さくら滝山ハウス","province":"東京都","city":"東久留米市","address":"東久留米市滝山7-1-22","lat":35.74975,"lon":139.50836},{"name":"東久留米市社会福祉協議会","province":"東京都","city":"東久留米市","address":"東久留米市滝山4-3-14わくわく健康プラザ2階","lat":35.74133,"lon":139.50406},{"name":"社会福祉法人恩賜財団東京都同胞援護会東久留米市立さいわい福祉センター","province":"東京都","city":"東久留米市","address":"東京都東久留米市幸町3丁目9-28","lat":35.75904724,"lon":139.51928415},{"name":"特定非営利活動法人コイノニア就労支援事業所コイノニア","province":"東京都","city":"東久留米市","address":"東京都東久留米市滝山5丁目1-16","lat":35.74620665,"lon":139.50325825},{"name":"特定非営利活動法人武蔵野の里ぶどうの郷","province":"東京都","city":"東久留米市","address":"東京都東久留米市大門町1丁目2-4","lat":35.7638248,"lon":139.535802},{"name":"特定非営利活動法人武蔵野の里くるめパソコン作業所","province":"東京都","city":"東久留米市","address":"東京都東久留米市氷川台1丁目2-12","lat":35.76479967,"lon":139.53466594},{"name":"さくら滝山ハウス","province":"東京都","city":"東久留米市","address":"東久留米市滝山7-1-22","lat":35.749565,"lon":139.508844},{"name":"東久留米市社会福祉協議会","province":"東京都","city":"東久留米市","address":"東久留米市滝山4-3-14わくわく健康プラザ2階","lat":35.742288,"lon":139.504483},{"name":"さくら滝山ハウス","province":"東京都","city":"東久留米市","address":"東久留米市滝山7-1-22","lat":35.74975,"lon":139.50836},{"name":"東久留米市社会福祉協議会","province":"東京都","city":"東久留米市","address":"東久留米市滝山4-3-14わくわく健康プラザ2階","lat":35.74133,"lon":139.50406},{"name":"社会福祉法人恩賜財団東京都同胞援護会東久留米市立さいわい福祉センター","province":"東京都","city":"東久留米市","address":"東京都東久留米市幸町3丁目9-28","lat":35.75904724,"lon":139.51928415},{"name":"特定非営利活動法人コイノニア就労支援事業所コイノニア","province":"東京都","city":"東久留米市","address":"東京都東久留米市滝山5丁目1-16","lat":35.74620665,"lon":139.50325825},{"name":"特定非営利活動法人武蔵野の里ぶどうの郷","province":"東京都","city":"東久留米市","address":"東京都東久留米市大門町1丁目2-4","lat":35.7638248,"lon":139.535802},{"name":"特定非営利活動法人武蔵野の里くるめパソコン作業所","province":"東京都","city":"東久留米市","address":"東京都東久留米市氷川台1丁目2-12","lat":35.76479967,"lon":139.53466594},{"name":"さくら滝山ハウス","province":"東京都","city":"東久留米市","address":"東久留米市滝山7-1-22","lat":35.749565,"lon":139.508844},{"name":"東久留米市社会福祉協議会","province":"東京都","city":"東久留米市","address":"東久留米市滝山4-3-14わくわく健康プラザ2階","lat":35.742288,"lon":139.504483},{"name":"さくら滝山ハウス","province":"東京都","city":"東久留米市","address":"東久留米市滝山7-1-22","lat":35.74975,"lon":139.50836},{"name":"東久留米市社会福祉協議会","province":"東京都","city":"東久留米市","address":"東久留米市滝山4-3-14わくわく健康プラザ2階","lat":35.74133,"lon":139.50406},{"name":"社会福祉法人恩賜財団東京都同胞援護会東久留米市立さいわい福祉センター","province":"東京都","city":"東久留米市","address":"東京都東久留米市幸町3丁目9-28","lat":35.75904724,"lon":139.51928415},{"name":"特定非営利活動法人コイノニア就労支援事業所コイノニア","province":"東京都","city":"東久留米市","address":"東京都東久留米市滝山5丁目1-16","lat":35.74620665,"lon":139.50325825},{"name":"特定非営利活動法人武蔵野の里ぶどうの郷","province":"東京都","city":"東久留米市","address":"東京都東久留米市大門町1丁目2-4","lat":35.7638248,"lon":139.535802},{"name":"特定非営利活動法人武蔵野の里くるめパソコン作業所","province":"東京都","city":"東久留米市","address":"東京都東久留米市氷川台1丁目2-12","lat":35.76479967,"lon":139.53466594},{"name":"さくら滝山ハウス","province":"東京都","city":"東久留米市","address":"東久留米市滝山7-1-22","lat":35.749565,"lon":139.508844},{"name":"東久留米市社会福祉協議会","province":"東京都","city":"東久留米市","address":"東久留米市滝山4-3-14わくわく健康プラザ2階","lat":35.742288,"lon":139.504483},{"name":"さくら滝山ハウス","province":"東京都","city":"東久留米市","address":"東久留米市滝山7-1-22","lat":35.74975,"lon":139.50836},{"name":"東久留米市社会福祉協議会","province":"東京都","city":"東久留米市","address":"東久留米市滝山4-3-14わくわく健康プラザ2階","lat":35.74133,"lon":139.50406},{"name":"社会福祉法人恩賜財団東京都同胞援護会東久留米市立さいわい福祉センター","province":"東京都","city":"東久留米市","address":"東京都東久留米市幸町3丁目9-28","lat":35.75904724,"lon":139.51928415},{"name":"特定非営利活動法人コイノニア就労支援事業所コイノニア","province":"東京都","city":"東久留米市","address":"東京都東久留米市滝山5丁目1-16","lat":35.74620665,"lon":139.50325825},{"name":"特定非営利活動法人武蔵野の里ぶどうの郷","province":"東京都","city":"東久留米市","address":"東京都東久留米市大門町1丁目2-4","lat":35.7638248,"lon":139.535802},{"name":"特定非営利活動法人武蔵野の里くるめパソコン作業所","province":"東京都","city":"東久留米市","address":"東京都東久留米市氷川台1丁目2-12","lat":35.76479967,"lon":139.53466594},{"name":"さくら滝山ハウス","province":"東京都","city":"東久留米市","address":"東久留米市滝山7-1-22","lat":35.749565,"lon":139.508844},{"name":"東久留米市社会福祉協議会","province":"東京都","city":"東久留米市","address":"東久留米市滝山4-3-14わくわく健康プラザ2階","lat":35.742288,"lon":139.504483},{"name":"さくら滝山ハウス","province":"東京都","city":"東久留米市","address":"東久留米市滝山7-1-22","lat":35.74975,"lon":139.50836},{"name":"東久留米市社会福祉協議会","province":"東京都","city":"東久留米市","address":"東久留米市滝山4-3-14わくわく健康プラザ2階","lat":35.74133,"lon":139.50406},{"name":"社会福祉法人恩賜財団東京都同胞援護会東久留米市立さいわい福祉センター","province":"東京都","city":"東久留米市","address":"東京都東久留米市幸町3丁目9-28","lat":35.75904724,"lon":139.51928415},{"name":"特定非営利活動法人コイノニア就労支援事業所コイノニア","province":"東京都","city":"東久留米市","address":"東京都東久留米市滝山5丁目1-16","lat":35.74620665,"lon":139.50325825},{"name":"特定非営利活動法人武蔵野の里ぶどうの郷","province":"東京都","city":"東久留米市","address":"東京都東久留米市大門町1丁目2-4","lat":35.7638248,"lon":139.535802},{"name":"特定非営利活動法人武蔵野の里くるめパソコン作業所","province":"東京都","city":"東久留米市","address":"東京都東久留米市氷川台1丁目2-12","lat":35.76479967,"lon":139.53466594},{"name":"さくら滝山ハウス","province":"東京都","city":"東久留米市","address":"東久留米市滝山7-1-22","lat":35.749565,"lon":139.508844},{"name":"東久留米市社会福祉協議会","province":"東京都","city":"東久留米市","address":"東久留米市滝山4-3-14わくわく健康プラザ2階","lat":35.742288,"lon":139.504483},{"name":"さくら滝山ハウス","province":"東京都","city":"東久留米市","address":"東久留米市滝山7-1-22","lat":35.74975,"lon":139.50836},{"name":"東久留米市社会福祉協議会","province":"東京都","city":"東久留米市","address":"東久留米市滝山4-3-14わくわく健康プラザ2階","lat":35.74133,"lon":139.50406},{"name":"社会福祉法人恩賜財団東京都同胞援護会東久留米市立さいわい福祉センター","province":"東京都","city":"東久留米市","address":"東京都東久留米市幸町3丁目9-28","lat":35.75904724,"lon":139.51928415},{"name":"特定非営利活動法人コイノニア就労支援事業所コイノニア","province":"東京都","city":"東久留米市","address":"東京都東久留米市滝山5丁目1-16","lat":35.74620665,"lon":139.50325825},{"name":"特定非営利活動法人武蔵野の里ぶどうの郷","province":"東京都","city":"東久留米市","address":"東京都東久留米市大門町1丁目2-4","lat":35.7638248,"lon":139.535802},{"name":"特定非営利活動法人武蔵野の里くるめパソコン作業所","province":"東京都","city":"東久留米市","address":"東京都東久留米市氷川台1丁目2-12","lat":35.76479967,"lon":139.53466594},{"name":"さくら滝山ハウス","province":"東京都","city":"東久留米市","address":"東久留米市滝山7-1-22","lat":35.749565,"lon":139.508844},{"name":"東久留米市社会福祉協議会","province":"東京都","city":"東久留米市","address":"東久留米市滝山4-3-14わくわく健康プラザ2階","lat":35.742288,"lon":139.504483},{"name":"さくら滝山ハウス","province":"東京都","city":"東久留米市","address":"東久留米市滝山7-1-22","lat":35.74975,"lon":139.50836},{"name":"東久留米市社会福祉協議会","province":"東京都","city":"東久留米市","address":"東久留米市滝山4-3-14わくわく健康プラザ2階","lat":35.74133,"lon":139.50406},{"name":"社会福祉法人恩賜財団東京都同胞援護会東久留米市立さいわい福祉センター","province":"東京都","city":"東久留米市","address":"東京都東久留米市幸町3丁目9-28","lat":35.75904724,"lon":139.51928415},{"name":"特定非営利活動法人コイノニア就労支援事業所コイノニア","province":"東京都","city":"東久留米市","address":"東京都東久留米市滝山5丁目1-16","lat":35.74620665,"lon":139.50325825},{"name":"特定非営利活動法人武蔵野の里ぶどうの郷","province":"東京都","city":"東久留米市","address":"東京都東久留米市大門町1丁目2-4","lat":35.7638248,"lon":139.535802},{"name":"特定非営利活動法人武蔵野の里くるめパソコン作業所","province":"東京都","city":"東久留米市","address":"東京都東久留米市氷川台1丁目2-12","lat":35.76479967,"lon":139.53466594},{"name":"さくら滝山ハウス","province":"東京都","city":"東久留米市","address":"東久留米市滝山7-1-22","lat":35.749565,"lon":139.508844},{"name":"東久留米市社会福祉協議会","province":"東京都","city":"東久留米市","address":"東久留米市滝山4-3-14わくわく健康プラザ2階","lat":35.742288,"lon":139.504483},{"name":"さくら滝山ハウス","province":"東京都","city":"東久留米市","address":"東久留米市滝山7-1-22","lat":35.74975,"lon":139.50836},{"name":"東久留米市社会福祉協議会","province":"東京都","city":"東久留米市","address":"東久留米市滝山4-3-14わくわく健康プラザ2階","lat":35.74133,"lon":139.50406},{"name":"社会福祉法人恩賜財団東京都同胞援護会東久留米市立さいわい福祉センター","province":"東京都","city":"東久留米市","address":"東京都東久留米市幸町3丁目9-28","lat":35.75904724,"lon":139.51928415},{"name":"特定非営利活動法人コイノニア就労支援事業所コイノニア","province":"東京都","city":"東久留米市","address":"東京都東久留米市滝山5丁目1-16","lat":35.74620665,"lon":139.50325825},{"name":"特定非営利活動法人武蔵野の里ぶどうの郷","province":"東京都","city":"東久留米市","address":"東京都東久留米市大門町1丁目2-4","lat":35.7638248,"lon":139.535802},{"name":"特定非営利活動法人武蔵野の里くるめパソコン作業所","province":"東京都","city":"東久留米市","address":"東京都東久留米市氷川台1丁目2-12","lat":35.76479967,"lon":139.53466594},{"name":"さくら滝山ハウス","province":"東京都","city":"東久留米市","address":"東久留米市滝山7-1-22","lat":35.749565,"lon":139.508844},{"name":"東久留米市社会福祉協議会","province":"東京都","city":"東久留米市","address":"東久留米市滝山4-3-14わくわく健康プラザ2階","lat":35.742288,"lon":139.504483},{"name":"さくら滝山ハウス","province":"東京都","city":"東久留米市","address":"東久留米市滝山7-1-22","lat":35.74975,"lon":139.50836},{"name":"東久留米市社会福祉協議会","province":"東京都","city":"東久留米市","address":"東久留米市滝山4-3-14わくわく健康プラザ2階","lat":35.74133,"lon":139.50406},{"name":"社会福祉法人恩賜財団東京都同胞援護会東久留米市立さいわい福祉センター","province":"東京都","city":"東久留米市","address":"東京都東久留米市幸町3丁目9-28","lat":35.75904724,"lon":139.51928415},{"name":"特定非営利活動法人コイノニア就労支援事業所コイノニア","province":"東京都","city":"東久留米市","address":"東京都東久留米市滝山5丁目1-16","lat":35.74620665,"lon":139.50325825},{"name":"特定非営利活動法人武蔵野の里ぶどうの郷","province":"東京都","city":"東久留米市","address":"東京都東久留米市大門町1丁目2-4","lat":35.7638248,"lon":139.535802},{"name":"特定非営利活動法人武蔵野の里くるめパソコン作業所","province":"東京都","city":"東久留米市","address":"東京都東久留米市氷川台1丁目2-12","lat":35.76479967,"lon":139.53466594},{"name":"さくら滝山ハウス","province":"東京都","city":"東久留米市","address":"東久留米市滝山7-1-22","lat":35.749565,"lon":139.508844},{"name":"東久留米市社会福祉協議会","province":"東京都","city":"東久留米市","address":"東久留米市滝山4-3-14わくわく健康プラザ2階","lat":35.742288,"lon":139.504483},{"name":"さくら滝山ハウス","province":"東京都","city":"東久留米市","address":"東久留米市滝山7-1-22","lat":35.74975,"lon":139.50836},{"name":"東久留米市社会福祉協議会","province":"東京都","city":"東久留米市","address":"東久留米市滝山4-3-14わくわく健康プラザ2階","lat":35.74133,"lon":139.50406},{"name":"社会福祉法人恩賜財団東京都同胞援護会東久留米市立さいわい福祉センター","province":"東京都","city":"東久留米市","address":"東京都東久留米市幸町3丁目9-28","lat":35.75904724,"lon":139.51928415},{"name":"特定非営利活動法人コイノニア就労支援事業所コイノニア","province":"東京都","city":"東久留米市","address":"東京都東久留米市滝山5丁目1-16","lat":35.74620665,"lon":139.50325825},{"name":"特定非営利活動法人武蔵野の里ぶどうの郷","province":"東京都","city":"東久留米市","address":"東京都東久留米市大門町1丁目2-4","lat":35.7638248,"lon":139.535802},{"name":"特定非営利活動法人武蔵野の里くるめパソコン作業所","province":"東京都","city":"東久留米市","address":"東京都東久留米市氷川台1丁目2-12","lat":35.76479967,"lon":139.53466594},{"name":"さくら滝山ハウス","province":"東京都","city":"東久留米市","address":"東久留米市滝山7-1-22","lat":35.749565,"lon":139.508844},{"name":"東久留米市社会福祉協議会","province":"東京都","city":"東久留米市","address":"東久留米市滝山4-3-14わくわく健康プラザ2階","lat":35.742288,"lon":139.504483},{"name":"さくら滝山ハウス","province":"東京都","city":"東久留米市","address":"東久留米市滝山7-1-22","lat":35.74975,"lon":139.50836},{"name":"東久留米市社会福祉協議会","province":"東京都","city":"東久留米市","address":"東久留米市滝山4-3-14わくわく健康プラザ2階","lat":35.74133,"lon":139.50406},{"name":"社会福祉法人恩賜財団東京都同胞援護会東久留米市立さいわい福祉センター","province":"東京都","city":"東久留米市","address":"東京都東久留米市幸町3丁目9-28","lat":35.75904724,"lon":139.51928415},{"name":"特定非営利活動法人コイノニア就労支援事業所コイノニア","province":"東京都","city":"東久留米市","address":"東京都東久留米市滝山5丁目1-16","lat":35.74620665,"lon":139.50325825},{"name":"特定非営利活動法人武蔵野の里ぶどうの郷","province":"東京都","city":"東久留米市","address":"東京都東久留米市大門町1丁目2-4","lat":35.7638248,"lon":139.535802},{"name":"特定非営利活動法人武蔵野の里くるめパソコン作業所","province":"東京都","city":"東久留米市","address":"東京都東久留米市氷川台1丁目2-12","lat":35.76479967,"lon":139.53466594},{"name":"さくら滝山ハウス","province":"東京都","city":"東久留米市","address":"東久留米市滝山7-1-22","lat":35.749565,"lon":139.508844},{"name":"東久留米市社会福祉協議会","province":"東京都","city":"東久留米市","address":"東久留米市滝山4-3-14わくわく健康プラザ2階","lat":35.742288,"lon":139.504483},{"name":"さくら滝山ハウス","province":"東京都","city":"東久留米市","address":"東久留米市滝山7-1-22","lat":35.74975,"lon":139.50836},{"name":"東久留米市社会福祉協議会","province":"東京都","city":"東久留米市","address":"東久留米市滝山4-3-14わくわく健康プラザ2階","lat":35.74133,"lon":139.50406},{"name":"社会福祉法人恩賜財団東京都同胞援護会東久留米市立さいわい福祉センター","province":"東京都","city":"東久留米市","address":"東京都東久留米市幸町3丁目9-28","lat":35.75904724,"lon":139.51928415},{"name":"特定非営利活動法人コイノニア就労支援事業所コイノニア","province":"東京都","city":"東久留米市","address":"東京都東久留米市滝山5丁目1-16","lat":35.74620665,"lon":139.50325825},{"name":"特定非営利活動法人武蔵野の里ぶどうの郷","province":"東京都","city":"東久留米市","address":"東京都東久留米市大門町1丁目2-4","lat":35.7638248,"lon":139.535802},{"name":"特定非営利活動法人武蔵野の里くるめパソコン作業所","province":"東京都","city":"東久留米市","address":"東京都東久留米市氷川台1丁目2-12","lat":35.76479967,"lon":139.53466594},{"name":"さくら滝山ハウス","province":"東京都","city":"東久留米市","address":"東久留米市滝山7-1-22","lat":35.749565,"lon":139.508844},{"name":"東久留米市社会福祉協議会","province":"東京都","city":"東久留米市","address":"東久留米市滝山4-3-14わくわく健康プラザ2階","lat":35.742288,"lon":139.504483},{"name":"さくら滝山ハウス","province":"東京都","city":"東久留米市","address":"東久留米市滝山7-1-22","lat":35.74975,"lon":139.50836},{"name":"東久留米市社会福祉協議会","province":"東京都","city":"東久留米市","address":"東久留米市滝山4-3-14わくわく健康プラザ2階","lat":35.74133,"lon":139.50406},{"name":"社会福祉法人恩賜財団東京都同胞援護会東久留米市立さいわい福祉センター","province":"東京都","city":"東久留米市","address":"東京都東久留米市幸町3丁目9-28","lat":35.75904724,"lon":139.51928415},{"name":"特定非営利活動法人コイノニア就労支援事業所コイノニア","province":"東京都","city":"東久留米市","address":"東京都東久留米市滝山5丁目1-16","lat":35.74620665,"lon":139.50325825},{"name":"特定非営利活動法人武蔵野の里ぶどうの郷","province":"東京都","city":"東久留米市","address":"東京都東久留米市大門町1丁目2-4","lat":35.7638248,"lon":139.535802},{"name":"特定非営利活動法人武蔵野の里くるめパソコン作業所","province":"東京都","city":"東久留米市","address":"東京都東久留米市氷川台1丁目2-12","lat":35.76479967,"lon":139.53466594},{"name":"さくら滝山ハウス","province":"東京都","city":"東久留米市","address":"東久留米市滝山7-1-22","lat":35.749565,"lon":139.508844},{"name":"東久留米市社会福祉協議会","province":"東京都","city":"東久留米市","address":"東久留米市滝山4-3-14わくわく健康プラザ2階","lat":35.742288,"lon":139.504483},{"name":"さくら滝山ハウス","province":"東京都","city":"東久留米市","address":"東久留米市滝山7-1-22","lat":35.74975,"lon":139.50836},{"name":"東久留米市社会福祉協議会","province":"東京都","city":"東久留米市","address":"東久留米市滝山4-3-14わくわく健康プラザ2階","lat":35.74133,"lon":139.50406},{"name":"社会福祉法人恩賜財団東京都同胞援護会東久留米市立さいわい福祉センター","province":"東京都","city":"東久留米市","address":"東京都東久留米市幸町3丁目9-28","lat":35.75904724,"lon":139.51928415},{"name":"特定非営利活動法人コイノニア就労支援事業所コイノニア","province":"東京都","city":"東久留米市","address":"東京都東久留米市滝山5丁目1-16","lat":35.74620665,"lon":139.50325825},{"name":"特定非営利活動法人武蔵野の里ぶどうの郷","province":"東京都","city":"東久留米市","address":"東京都東久留米市大門町1丁目2-4","lat":35.7638248,"lon":139.535802},{"name":"特定非営利活動法人武蔵野の里くるめパソコン作業所","province":"東京都","city":"東久留米市","address":"東京都東久留米市氷川台1丁目2-12","lat":35.76479967,"lon":139.53466594},{"name":"さくら滝山ハウス","province":"東京都","city":"東久留米市","address":"東久留米市滝山7-1-22","lat":35.749565,"lon":139.508844},{"name":"東久留米市社会福祉協議会","province":"東京都","city":"東久留米市","address":"東久留米市滝山4-3-14わくわく健康プラザ2階","lat":35.742288,"lon":139.504483},{"name":"さくら滝山ハウス","province":"東京都","city":"東久留米市","address":"東久留米市滝山7-1-22","lat":35.74975,"lon":139.50836},{"name":"東久留米市社会福祉協議会","province":"東京都","city":"東久留米市","address":"東久留米市滝山4-3-14わくわく健康プラザ2階","lat":35.74133,"lon":139.50406},{"name":"社会福祉法人恩賜財団東京都同胞援護会東久留米市立さいわい福祉センター","province":"東京都","city":"東久留米市","address":"東京都東久留米市幸町3丁目9-28","lat":35.75904724,"lon":139.51928415},{"name":"特定非営利活動法人コイノニア就労支援事業所コイノニア","province":"東京都","city":"東久留米市","address":"東京都東久留米市滝山5丁目1-16","lat":35.74620665,"lon":139.50325825},{"name":"特定非営利活動法人武蔵野の里ぶどうの郷","province":"東京都","city":"東久留米市","address":"東京都東久留米市大門町1丁目2-4","lat":35.7638248,"lon":139.535802},{"name":"特定非営利活動法人武蔵野の里くるめパソコン作業所","province":"東京都","city":"東久留米市","address":"東京都東久留米市氷川台1丁目2-12","lat":35.76479967,"lon":139.53466594},{"name":"さくら滝山ハウス","province":"東京都","city":"東久留米市","address":"東久留米市滝山7-1-22","lat":35.749565,"lon":139.508844},{"name":"東久留米市社会福祉協議会","province":"東京都","city":"東久留米市","address":"東久留米市滝山4-3-14わくわく健康プラザ2階","lat":35.742288,"lon":139.504483},{"name":"さくら滝山ハウス","province":"東京都","city":"東久留米市","address":"東久留米市滝山7-1-22","lat":35.74975,"lon":139.50836},{"name":"東久留米市社会福祉協議会","province":"東京都","city":"東久留米市","address":"東久留米市滝山4-3-14わくわく健康プラザ2階","lat":35.74133,"lon":139.50406},{"name":"社会福祉法人恩賜財団東京都同胞援護会東久留米市立さいわい福祉センター","province":"東京都","city":"東久留米市","address":"東京都東久留米市幸町3丁目9-28","lat":35.75904724,"lon":139.51928415},{"name":"特定非営利活動法人コイノニア就労支援事業所コイノニア","province":"東京都","city":"東久留米市","address":"東京都東久留米市滝山5丁目1-16","lat":35.74620665,"lon":139.50325825},{"name":"特定非営利活動法人武蔵野の里ぶどうの郷","province":"東京都","city":"東久留米市","address":"東京都東久留米市大門町1丁目2-4","lat":35.7638248,"lon":139.535802},{"name":"特定非営利活動法人武蔵野の里くるめパソコン作業所","province":"東京都","city":"東久留米市","address":"東京都東久留米市氷川台1丁目2-12","lat":35.76479967,"lon":139.53466594},{"name":"さくら滝山ハウス","province":"東京都","city":"東久留米市","address":"東久留米市滝山7-1-22","lat":35.749565,"lon":139.508844},{"name":"東久留米市社会福祉協議会","province":"東京都","city":"東久留米市","address":"東久留米市滝山4-3-14わくわく健康プラザ2階","lat":35.742288,"lon":139.504483},{"name":"さくら滝山ハウス","province":"東京都","city":"東久留米市","address":"東久留米市滝山7-1-22","lat":35.74975,"lon":139.50836},{"name":"東久留米市社会福祉協議会","province":"東京都","city":"東久留米市","address":"東久留米市滝山4-3-14わくわく健康プラザ2階","lat":35.74133,"lon":139.50406},{"name":"社会福祉法人恩賜財団東京都同胞援護会東久留米市立さいわい福祉センター","province":"東京都","city":"東久留米市","address":"東京都東久留米市幸町3丁目9-28","lat":35.75904724,"lon":139.51928415},{"name":"特定非営利活動法人コイノニア就労支援事業所コイノニア","province":"東京都","city":"東久留米市","address":"東京都東久留米市滝山5丁目1-16","lat":35.74620665,"lon":139.50325825},{"name":"特定非営利活動法人武蔵野の里ぶどうの郷","province":"東京都","city":"東久留米市","address":"東京都東久留米市大門町1丁目2-4","lat":35.7638248,"lon":139.535802},{"name":"特定非営利活動法人武蔵野の里くるめパソコン作業所","province":"東京都","city":"東久留米市","address":"東京都東久留米市氷川台1丁目2-12","lat":35.76479967,"lon":139.53466594},{"name":"さくら滝山ハウス","province":"東京都","city":"東久留米市","address":"東久留米市滝山7-1-22","lat":35.749565,"lon":139.508844},{"name":"東久留米市社会福祉協議会","province":"東京都","city":"東久留米市","address":"東久留米市滝山4-3-14わくわく健康プラザ2階","lat":35.742288,"lon":139.504483},{"name":"さくら滝山ハウス","province":"東京都","city":"東久留米市","address":"東久留米市滝山7-1-22","lat":35.74975,"lon":139.50836},{"name":"東久留米市社会福祉協議会","province":"東京都","city":"東久留米市","address":"東久留米市滝山4-3-14わくわく健康プラザ2階","lat":35.74133,"lon":139.50406},{"name":"社会福祉法人恩賜財団東京都同胞援護会東久留米市立さいわい福祉センター","province":"東京都","city":"東久留米市","address":"東京都東久留米市幸町3丁目9-28","lat":35.75904724,"lon":139.51928415},{"name":"特定非営利活動法人コイノニア就労支援事業所コイノニア","province":"東京都","city":"東久留米市","address":"東京都東久留米市滝山5丁目1-16","lat":35.74620665,"lon":139.50325825},{"name":"特定非営利活動法人武蔵野の里ぶどうの郷","province":"東京都","city":"東久留米市","address":"東京都東久留米市大門町1丁目2-4","lat":35.7638248,"lon":139.535802},{"name":"特定非営利活動法人武蔵野の里くるめパソコン作業所","province":"東京都","city":"東久留米市","address":"東京都東久留米市氷川台1丁目2-12","lat":35.76479967,"lon":139.53466594},{"name":"さくら滝山ハウス","province":"東京都","city":"東久留米市","address":"東久留米市滝山7-1-22","lat":35.749565,"lon":139.508844},{"name":"東久留米市社会福祉協議会","province":"東京都","city":"東久留米市","address":"東久留米市滝山4-3-14わくわく健康プラザ2階","lat":35.742288,"lon":139.504483},{"name":"さくら滝山ハウス","province":"東京都","city":"東久留米市","address":"東久留米市滝山7-1-22","lat":35.74975,"lon":139.50836},{"name":"東久留米市社会福祉協議会","province":"東京都","city":"東久留米市","address":"東久留米市滝山4-3-14わくわく健康プラザ2階","lat":35.74133,"lon":139.50406},{"name":"社会福祉法人恩賜財団東京都同胞援護会東久留米市立さいわい福祉センター","province":"東京都","city":"東久留米市","address":"東京都東久留米市幸町3丁目9-28","lat":35.75904724,"lon":139.51928415},{"name":"特定非営利活動法人コイノニア就労支援事業所コイノニア","province":"東京都","city":"東久留米市","address":"東京都東久留米市滝山5丁目1-16","lat":35.74620665,"lon":139.50325825},{"name":"特定非営利活動法人武蔵野の里ぶどうの郷","province":"東京都","city":"東久留米市","address":"東京都東久留米市大門町1丁目2-4","lat":35.7638248,"lon":139.535802},{"name":"特定非営利活動法人武蔵野の里くるめパソコン作業所","province":"東京都","city":"東久留米市","address":"東京都東久留米市氷川台1丁目2-12","lat":35.76479967,"lon":139.53466594},{"name":"さくら滝山ハウス","province":"東京都","city":"東久留米市","address":"東久留米市滝山7-1-22","lat":35.749565,"lon":139.508844},{"name":"東久留米市社会福祉協議会","province":"東京都","city":"東久留米市","address":"東久留米市滝山4-3-14わくわく健康プラザ2階","lat":35.742288,"lon":139.504483},{"name":"さくら滝山ハウス","province":"東京都","city":"東久留米市","address":"東久留米市滝山7-1-22","lat":35.74975,"lon":139.50836},{"name":"東久留米市社会福祉協議会","province":"東京都","city":"東久留米市","address":"東久留米市滝山4-3-14わくわく健康プラザ2階","lat":35.74133,"lon":139.50406},{"name":"社会福祉法人恩賜財団東京都同胞援護会東久留米市立さいわい福祉センター","province":"東京都","city":"東久留米市","address":"東京都東久留米市幸町3丁目9-28","lat":35.75904724,"lon":139.51928415},{"name":"特定非営利活動法人コイノニア就労支援事業所コイノニア","province":"東京都","city":"東久留米市","address":"東京都東久留米市滝山5丁目1-16","lat":35.74620665,"lon":139.50325825},{"name":"特定非営利活動法人武蔵野の里ぶどうの郷","province":"東京都","city":"東久留米市","address":"東京都東久留米市大門町1丁目2-4","lat":35.7638248,"lon":139.535802},{"name":"特定非営利活動法人武蔵野の里くるめパソコン作業所","province":"東京都","city":"東久留米市","address":"東京都東久留米市氷川台1丁目2-12","lat":35.76479967,"lon":139.53466594},{"name":"さくら滝山ハウス","province":"東京都","city":"東久留米市","address":"東久留米市滝山7-1-22","lat":35.749565,"lon":139.508844},{"name":"東久留米市社会福祉協議会","province":"東京都","city":"東久留米市","address":"東久留米市滝山4-3-14わくわく健康プラザ2階","lat":35.742288,"lon":139.504483},{"name":"さくら滝山ハウス","province":"東京都","city":"東久留米市","address":"東久留米市滝山7-1-22","lat":35.74975,"lon":139.50836},{"name":"東久留米市社会福祉協議会","province":"東京都","city":"東久留米市","address":"東久留米市滝山4-3-14わくわく健康プラザ2階","lat":35.74133,"lon":139.50406},{"name":"さくら滝山ハウス","province":"東京都","city":"東久留米市","address":"東久留米市滝山7-1-22","lat":35.749565,"lon":139.508844},{"name":"東久留米市社会福祉協議会","province":"東京都","city":"東久留米市","address":"東久留米市滝山4-3-14わくわく健康プラザ2階","lat":35.742288,"lon":139.504483},{"name":"さくら滝山ハウス","province":"東京都","city":"東久留米市","address":"東久留米市滝山7-1-22","lat":35.74975,"lon":139.50836},{"name":"東久留米市社会福祉協議会","province":"東京都","city":"東久留米市","address":"東久留米市滝山4-3-14わくわく健康プラザ2階","lat":35.74133,"lon":139.50406},{"name":"さくら滝山ハウス","province":"東京都","city":"東久留米市","address":"東久留米市滝山7-1-22","lat":35.749565,"lon":139.508844},{"name":"東久留米市社会福祉協議会","province":"東京都","city":"東久留米市","address":"東久留米市滝山4-3-14わくわく健康プラザ2階","lat":35.742288,"lon":139.504483},{"name":"さくら滝山ハウス","province":"東京都","city":"東久留米市","address":"東久留米市滝山7-1-22","lat":35.74975,"lon":139.50836},{"name":"東久留米市社会福祉協議会","province":"東京都","city":"東久留米市","address":"東久留米市滝山4-3-14わくわく健康プラザ2階","lat":35.74133,"lon":139.50406},{"name":"さくら滝山ハウス","province":"東京都","city":"東久留米市","address":"東久留米市滝山7-1-22","lat":35.749565,"lon":139.508844},{"name":"東久留米市社会福祉協議会","province":"東京都","city":"東久留米市","address":"東久留米市滝山4-3-14わくわく健康プラザ2階","lat":35.742288,"lon":139.504483},{"name":"さくら滝山ハウス","province":"東京都","city":"東久留米市","address":"東久留米市滝山7-1-22","lat":35.74975,"lon":139.50836},{"name":"東久留米市社会福祉協議会","province":"東京都","city":"東久留米市","address":"東久留米市滝山4-3-14わくわく健康プラザ2階","lat":35.74133,"lon":139.50406},{"name":"さくら滝山ハウス","province":"東京都","city":"東久留米市","address":"東久留米市滝山7-1-22","lat":35.749565,"lon":139.508844},{"name":"東久留米市社会福祉協議会","province":"東京都","city":"東久留米市","address":"東久留米市滝山4-3-14わくわく健康プラザ2階","lat":35.742288,"lon":139.504483},{"name":"さくら滝山ハウス","province":"東京都","city":"東久留米市","address":"東久留米市滝山7-1-22","lat":35.74975,"lon":139.50836},{"name":"東久留米市社会福祉協議会","province":"東京都","city":"東久留米市","address":"東久留米市滝山4-3-14わくわく健康プラザ2階","lat":35.74133,"lon":139.50406},{"name":"さくら滝山ハウス","province":"東京都","city":"東久留米市","address":"東久留米市滝山7-1-22","lat":35.749565,"lon":139.508844},{"name":"東久留米市社会福祉協議会","province":"東京都","city":"東久留米市","address":"東久留米市滝山4-3-14わくわく健康プラザ2階","lat":35.742288,"lon":139.504483},{"name":"さくら滝山ハウス","province":"東京都","city":"東久留米市","address":"東久留米市滝山7-1-22","lat":35.74975,"lon":139.50836},{"name":"東久留米市社会福祉協議会","province":"東京都","city":"東久留米市","address":"東久留米市滝山4-3-14わくわく健康プラザ2階","lat":35.74133,"lon":139.50406},{"name":"さくら滝山ハウス","province":"東京都","city":"東久留米市","address":"東久留米市滝山7-1-22","lat":35.749565,"lon":139.508844},{"name":"東久留米市社会福祉協議会","province":"東京都","city":"東久留米市","address":"東久留米市滝山4-3-14わくわく健康プラザ2階","lat":35.742288,"lon":139.504483},{"name":"さくら滝山ハウス","province":"東京都","city":"東久留米市","address":"東久留米市滝山7-1-22","lat":35.74975,"lon":139.50836},{"name":"東久留米市社会福祉協議会","province":"東京都","city":"東久留米市","address":"東久留米市滝山4-3-14わくわく健康プラザ2階","lat":35.74133,"lon":139.50406},{"name":"さくら滝山ハウス","province":"東京都","city":"東久留米市","address":"東久留米市滝山7-1-22","lat":35.749565,"lon":139.508844},{"name":"東久留米市社会福祉協議会","province":"東京都","city":"東久留米市","address":"東久留米市滝山4-3-14わくわく健康プラザ2階","lat":35.742288,"lon":139.504483},{"name":"さくら滝山ハウス","province":"東京都","city":"東久留米市","address":"東久留米市滝山7-1-22","lat":35.74975,"lon":139.50836},{"name":"東久留米市社会福祉協議会","province":"東京都","city":"東久留米市","address":"東久留米市滝山4-3-14わくわく健康プラザ2階","lat":35.74133,"lon":139.50406},{"name":"さくら滝山ハウス","province":"東京都","city":"東久留米市","address":"東久留米市滝山7-1-22","lat":35.749565,"lon":139.508844},{"name":"東久留米市社会福祉協議会","province":"東京都","city":"東久留米市","address":"東久留米市滝山4-3-14わくわく健康プラザ2階","lat":35.742288,"lon":139.504483},{"name":"さくら滝山ハウス","province":"東京都","city":"東久留米市","address":"東久留米市滝山7-1-22","lat":35.74975,"lon":139.50836},{"name":"東久留米市社会福祉協議会","province":"東京都","city":"東久留米市","address":"東久留米市滝山4-3-14わくわく健康プラザ2階","lat":35.74133,"lon":139.50406},{"name":"さくら滝山ハウス","province":"東京都","city":"東久留米市","address":"東久留米市滝山7-1-22","lat":35.749565,"lon":139.508844},{"name":"東久留米市社会福祉協議会","province":"東京都","city":"東久留米市","address":"東久留米市滝山4-3-14わくわく健康プラザ2階","lat":35.742288,"lon":139.504483},{"name":"さくら滝山ハウス","province":"東京都","city":"東久留米市","address":"東久留米市滝山7-1-22","lat":35.74975,"lon":139.50836},{"name":"東久留米市社会福祉協議会","province":"東京都","city":"東久留米市","address":"東久留米市滝山4-3-14わくわく健康プラザ2階","lat":35.74133,"lon":139.50406},{"name":"さくら滝山ハウス","province":"東京都","city":"東久留米市","address":"東久留米市滝山7-1-22","lat":35.749565,"lon":139.508844},{"name":"東久留米市社会福祉協議会","province":"東京都","city":"東久留米市","address":"東久留米市滝山4-3-14わくわく健康プラザ2階","lat":35.742288,"lon":139.504483},{"name":"さくら滝山ハウス","province":"東京都","city":"東久留米市","address":"東久留米市滝山7-1-22","lat":35.74975,"lon":139.50836},{"name":"東久留米市社会福祉協議会","province":"東京都","city":"東久留米市","address":"東久留米市滝山4-3-14わくわく健康プラザ2階","lat":35.74133,"lon":139.50406},{"name":"さくら滝山ハウス","province":"東京都","city":"東久留米市","address":"東久留米市滝山7-1-22","lat":35.749565,"lon":139.508844},{"name":"東久留米市社会福祉協議会","province":"東京都","city":"東久留米市","address":"東久留米市滝山4-3-14わくわく健康プラザ2階","lat":35.742288,"lon":139.504483},{"name":"さくら滝山ハウス","province":"東京都","city":"東久留米市","address":"東久留米市滝山7-1-22","lat":35.74975,"lon":139.50836},{"name":"東久留米市社会福祉協議会","province":"東京都","city":"東久留米市","address":"東久留米市滝山4-3-14わくわく健康プラザ2階","lat":35.74133,"lon":139.50406},{"name":"さくら滝山ハウス","province":"東京都","city":"東久留米市","address":"東久留米市滝山7-1-22","lat":35.749565,"lon":139.508844},{"name":"東久留米市社会福祉協議会","province":"東京都","city":"東久留米市","address":"東久留米市滝山4-3-14わくわく健康プラザ2階","lat":35.742288,"lon":139.504483},{"name":"さくら滝山ハウス","province":"東京都","city":"東久留米市","address":"東久留米市滝山7-1-22","lat":35.74975,"lon":139.50836},{"name":"東久留米市社会福祉協議会","province":"東京都","city":"東久留米市","address":"東久留米市滝山4-3-14わくわく健康プラザ2階","lat":35.74133,"lon":139.50406},{"name":"さくら滝山ハウス","province":"東京都","city":"東久留米市","address":"東久留米市滝山7-1-22","lat":35.749565,"lon":139.508844},{"name":"東久留米市社会福祉協議会","province":"東京都","city":"東久留米市","address":"東久留米市滝山4-3-14わくわく健康プラザ2階","lat":35.742288,"lon":139.504483},{"name":"さくら滝山ハウス","province":"東京都","city":"東久留米市","address":"東久留米市滝山7-1-22","lat":35.74975,"lon":139.50836},{"name":"東久留米市社会福祉協議会","province":"東京都","city":"東久留米市","address":"東久留米市滝山4-3-14わくわく健康プラザ2階","lat":35.74133,"lon":139.50406},{"name":"さくら滝山ハウス","province":"東京都","city":"東久留米市","address":"東久留米市滝山7-1-22","lat":35.749565,"lon":139.508844},{"name":"東久留米市社会福祉協議会","province":"東京都","city":"東久留米市","address":"東久留米市滝山4-3-14わくわく健康プラザ2階","lat":35.742288,"lon":139.504483},{"name":"さくら滝山ハウス","province":"東京都","city":"東久留米市","address":"東久留米市滝山7-1-22","lat":35.74975,"lon":139.50836},{"name":"東久留米市社会福祉協議会","province":"東京都","city":"東久留米市","address":"東久留米市滝山4-3-14わくわく健康プラザ2階","lat":35.74133,"lon":139.50406},{"name":"さくら滝山ハウス","province":"東京都","city":"東久留米市","address":"東久留米市滝山7-1-22","lat":35.749565,"lon":139.508844},{"name":"東久留米市社会福祉協議会","province":"東京都","city":"東久留米市","address":"東久留米市滝山4-3-14わくわく健康プラザ2階","lat":35.742288,"lon":139.504483},{"name":"さくら滝山ハウス","province":"東京都","city":"東久留米市","address":"東久留米市滝山7-1-22","lat":35.74975,"lon":139.50836},{"name":"東久留米市社会福祉協議会","province":"東京都","city":"東久留米市","address":"東久留米市滝山4-3-14わくわく健康プラザ2階","lat":35.74133,"lon":139.50406},{"name":"さくら滝山ハウス","province":"東京都","city":"東久留米市","address":"東久留米市滝山7-1-22","lat":35.749565,"lon":139.508844},{"name":"東久留米市社会福祉協議会","province":"東京都","city":"東久留米市","address":"東久留米市滝山4-3-14わくわく健康プラザ2階","lat":35.742288,"lon":139.504483},{"name":"さくら滝山ハウス","province":"東京都","city":"東久留米市","address":"東久留米市滝山7-1-22","lat":35.74975,"lon":139.50836},{"name":"東久留米市社会福祉協議会","province":"東京都","city":"東久留米市","address":"東久留米市滝山4-3-14わくわく健康プラザ2階","lat":35.74133,"lon":139.50406},{"name":"さくら滝山ハウス","province":"東京都","city":"東久留米市","address":"東久留米市滝山7-1-22","lat":35.749565,"lon":139.508844},{"name":"東久留米市社会福祉協議会","province":"東京都","city":"東久留米市","address":"東久留米市滝山4-3-14わくわく健康プラザ2階","lat":35.742288,"lon":139.504483},{"name":"さくら滝山ハウス","province":"東京都","city":"東久留米市","address":"東久留米市滝山7-1-22","lat":35.74975,"lon":139.50836},{"name":"東久留米市社会福祉協議会","province":"東京都","city":"東久留米市","address":"東久留米市滝山4-3-14わくわく健康プラザ2階","lat":35.74133,"lon":139.50406},{"name":"さくら滝山ハウス","province":"東京都","city":"東久留米市","address":"東久留米市滝山7-1-22","lat":35.749565,"lon":139.508844},{"name":"東久留米市社会福祉協議会","province":"東京都","city":"東久留米市","address":"東久留米市滝山4-3-14わくわく健康プラザ2階","lat":35.742288,"lon":139.504483},{"name":"さくら滝山ハウス","province":"東京都","city":"東久留米市","address":"東久留米市滝山7-1-22","lat":35.74975,"lon":139.50836},{"name":"東久留米市社会福祉協議会","province":"東京都","city":"東久留米市","address":"東久留米市滝山4-3-14わくわく健康プラザ2階","lat":35.74133,"lon":139.50406},{"name":"さくら滝山ハウス","province":"東京都","city":"東久留米市","address":"東久留米市滝山7-1-22","lat":35.749565,"lon":139.508844},{"name":"東久留米市社会福祉協議会","province":"東京都","city":"東久留米市","address":"東久留米市滝山4-3-14わくわく健康プラザ2階","lat":35.742288,"lon":139.504483},{"name":"さくら滝山ハウス","province":"東京都","city":"東久留米市","address":"東久留米市滝山7-1-22","lat":35.74975,"lon":139.50836},{"name":"東久留米市社会福祉協議会","province":"東京都","city":"東久留米市","address":"東久留米市滝山4-3-14わくわく健康プラザ2階","lat":35.74133,"lon":139.50406}]}