{"keyword":"戸数","data":[{"name":"東久留米市社会福祉協議会","province":"東京都","city":"東久留米市","address":"東久留米市滝山4-3-14わくわく健康プラザ2階","lat":35.742288,"lon":139.504483},{"name":"東久留米市","province":"東京都","city":"東久留米市","address":"東久留米市本町3-3-1","lat":35.7579922,"lon":139.5296725},{"name":"有限会社　市民葬祭センター","province":"東京都","city":"東久留米市","address":"東京都東久留米市東本町4-6","lat":35.7626027,"lon":139.53419939},{"name":"有限会社　小平典礼　東久留米支社","province":"東京都","city":"東久留米市","address":"東京都東久留米市滝山3丁目11-6","lat":35.74065177,"lon":139.50463613},{"name":"株式会社　コムウェル　小平営業所","province":"東京都","city":"東久留米市","address":"東京都東久留米市柳窪4丁目7-9","lat":35.74611182,"lon":139.48739857},{"name":"株式会社　奥野式典","province":"東京都","city":"東久留米市","address":"東京都東久留米市滝山4丁目1-40","lat":35.74466523,"lon":139.50567754},{"name":"有限会社　緑葬儀社　東久留米支店","province":"東京都","city":"東久留米市","address":"東京都東久留米市本町2丁目1-2","lat":35.76228045,"lon":139.53175239},{"name":"すずらん（株式会社　アイコス）","province":"東京都","city":"東久留米市","address":"東京都東久留米市下里3丁目5-9","lat":35.75130046,"lon":139.50049165},{"name":"有限会社　藤式典　東久留米店","province":"東京都","city":"東久留米市","address":"東京都東久留米市幸町4丁目4-1","lat":35.75557535,"lon":139.51599011},{"name":"有限会社　ウィズセレモニー","province":"東京都","city":"東久留米市","address":"東京都東久留米市東本町12-3","lat":35.76429974,"lon":139.53547979},{"name":"田中葬祭　株式会社　東久留米支店","province":"東京都","city":"東久留米市","address":"東京都東久留米市本町3丁目6-9","lat":35.75947237,"lon":139.52759451},{"name":"東久留米市社会福祉協議会","province":"東京都","city":"東久留米市","address":"東久留米市滝山4-3-14わくわく健康プラザ2階","lat":35.74133,"lon":139.50406},{"name":"東部地域包括支援センター","province":"東京都","city":"東久留米市","address":"東久留米市大門町2-10-5東部地域センター内","lat":35.765045,"lon":139.54039},{"name":"東部地域包括支援センター本部","province":"東京都","city":"東久留米市","address":"東久留米市氷川台2-6-6社会福祉法人マザアス内","lat":35.767776,"lon":139.532547},{"name":"中部地域包括支援センター","province":"東京都","city":"東久留米市","address":"東久留米市幸町1-19-5幸町1丁目アパート5号棟1階幸町デイサービスセンター内","lat":35.761196,"lon":139.523743},{"name":"中部地域包括支援センター本部","province":"東京都","city":"東久留米市","address":"東久留米市南沢5-18-36特別養護老人ホームシャローム東久留米内","lat":35.743187,"lon":139.52681},{"name":"西部地域包括支援センター","province":"東京都","city":"東久留米市","address":"東久留米市下里4-2-50特別養護老人ホームけんちの里内","lat":35.752701,"lon":139.494797},{"name":"東久留米市在宅介護支援センター","province":"東京都","city":"東久留米市","address":"東久留米市幸町3-11-10介護老人保健施設ケア東久留米内","lat":35.757965,"lon":139.521652},{"name":"東久留米市役所福祉保健部介護福祉課","province":"東京都","city":"東久留米市","address":"東久留米市本町3-3-1","lat":35.758629,"lon":139.529709},{"name":"南沢浄水所","province":"東京都","city":"東久留米市","address":"東京都東久留米市南沢3丁目9-21","lat":35.75193708,"lon":139.52583381},{"name":"滝山浄水所","province":"東京都","city":"東久留米市","address":"東京都東久留米市滝山6丁目1-1","lat":35.74739829,"lon":139.50739394},{"name":"東久留米市立滝山公園","province":"東京都","city":"東久留米市","address":"東京都東久留米市滝山2丁目4","lat":35.74556523,"lon":139.51002988},{"name":"柳泉園組合グラウンド","province":"東京都","city":"東久留米市","address":"東京都東久留米市下里4丁目3-10","lat":35.75475824,"lon":139.49449483},{"name":"東久留米市選挙管理委員会","province":"東京都","city":"東久留米市","address":"東久留米市本町3-3-1","lat":35.757965,"lon":139.529734},{"name":"東久留米総合高等学校","province":"東京都","city":"東久留米市","address":"東京都東久留米市幸町5丁目8-46","lat":35.76245241,"lon":139.51957291},{"name":"久留米西高等学校","province":"東京都","city":"東久留米市","address":"東京都東久留米市野火止2丁目1-44","lat":35.76190233,"lon":139.51246801},{"name":"東久留米市社会福祉協議会","province":"東京都","city":"東久留米市","address":"東久留米市滝山4-3-14わくわく健康プラザ2階","lat":35.742288,"lon":139.504483},{"name":"東久留米市社会福祉協議会","province":"東京都","city":"東久留米市","address":"東久留米市滝山4-3-14わくわく健康プラザ2階","lat":35.74133,"lon":139.50406},{"name":"東部地域包括支援センター","province":"東京都","city":"東久留米市","address":"東久留米市大門町2-10-5東部地域センター内","lat":35.765045,"lon":139.54039},{"name":"東部地域包括支援センター本部","province":"東京都","city":"東久留米市","address":"東久留米市氷川台2-6-6社会福祉法人マザアス内","lat":35.767776,"lon":139.532547},{"name":"中部地域包括支援センター","province":"東京都","city":"東久留米市","address":"東久留米市幸町1-19-5幸町1丁目アパート5号棟1階幸町デイサービスセンター内","lat":35.761196,"lon":139.523743},{"name":"中部地域包括支援センター本部","province":"東京都","city":"東久留米市","address":"東久留米市南沢5-18-36特別養護老人ホームシャローム東久留米内","lat":35.743187,"lon":139.52681},{"name":"西部地域包括支援センター","province":"東京都","city":"東久留米市","address":"東久留米市下里4-2-50特別養護老人ホームけんちの里内","lat":35.752701,"lon":139.494797},{"name":"東久留米市在宅介護支援センター","province":"東京都","city":"東久留米市","address":"東久留米市幸町3-11-10介護老人保健施設ケア東久留米内","lat":35.757965,"lon":139.521652},{"name":"東久留米市役所福祉保健部介護福祉課","province":"東京都","city":"東久留米市","address":"東久留米市本町3-3-1","lat":35.758629,"lon":139.529709},{"name":"南沢浄水所","province":"東京都","city":"東久留米市","address":"東京都東久留米市南沢3丁目9-21","lat":35.75193708,"lon":139.52583381},{"name":"滝山浄水所","province":"東京都","city":"東久留米市","address":"東京都東久留米市滝山6丁目1-1","lat":35.74739829,"lon":139.50739394},{"name":"東久留米市立滝山公園","province":"東京都","city":"東久留米市","address":"東京都東久留米市滝山2丁目4","lat":35.74556523,"lon":139.51002988},{"name":"柳泉園組合グラウンド","province":"東京都","city":"東久留米市","address":"東京都東久留米市下里4丁目3-10","lat":35.75475824,"lon":139.49449483},{"name":"東久留米総合高等学校","province":"東京都","city":"東久留米市","address":"東京都東久留米市幸町5丁目8-46","lat":35.76245241,"lon":139.51957291},{"name":"久留米西高等学校","province":"東京都","city":"東久留米市","address":"東京都東久留米市野火止2丁目1-44","lat":35.76190233,"lon":139.51246801},{"name":"東部地域包括支援センター","province":"東京都","city":"東久留米市","address":"東久留米市大門町2-10-5東部地域センター内","lat":35.765045,"lon":139.54039},{"name":"東部地域包括支援センター本部","province":"東京都","city":"東久留米市","address":"東久留米市氷川台2-6-6社会福祉法人マザアス内","lat":35.767776,"lon":139.532547},{"name":"中部地域包括支援センター","province":"東京都","city":"東久留米市","address":"東久留米市幸町1-19-5幸町1丁目アパート5号棟1階幸町デイサービスセンター内","lat":35.761196,"lon":139.523743},{"name":"中部地域包括支援センター本部","province":"東京都","city":"東久留米市","address":"東久留米市南沢5-18-36特別養護老人ホームシャローム東久留米内","lat":35.743187,"lon":139.52681},{"name":"西部地域包括支援センター","province":"東京都","city":"東久留米市","address":"東久留米市下里4-2-50特別養護老人ホームけんちの里内","lat":35.752701,"lon":139.494797},{"name":"東久留米市在宅介護支援センター","province":"東京都","city":"東久留米市","address":"東久留米市幸町3-11-10介護老人保健施設ケア東久留米内","lat":35.757965,"lon":139.521652},{"name":"東久留米市役所福祉保健部介護福祉課","province":"東京都","city":"東久留米市","address":"東久留米市本町3-3-1","lat":35.758629,"lon":139.529709},{"name":"東久留米総合高等学校","province":"東京都","city":"東久留米市","address":"東京都東久留米市幸町5丁目8-46","lat":35.76245241,"lon":139.51957291},{"name":"久留米西高等学校","province":"東京都","city":"東久留米市","address":"東京都東久留米市野火止2丁目1-44","lat":35.76190233,"lon":139.51246801},{"name":"東部地域包括支援センター","province":"東京都","city":"東久留米市","address":"東久留米市大門町2-10-5東部地域センター内","lat":35.765045,"lon":139.54039},{"name":"東部地域包括支援センター本部","province":"東京都","city":"東久留米市","address":"東久留米市氷川台2-6-6社会福祉法人マザアス内","lat":35.767776,"lon":139.532547},{"name":"中部地域包括支援センター","province":"東京都","city":"東久留米市","address":"東久留米市幸町1-19-5幸町1丁目アパート5号棟1階幸町デイサービスセンター内","lat":35.761196,"lon":139.523743},{"name":"中部地域包括支援センター本部","province":"東京都","city":"東久留米市","address":"東久留米市南沢5-18-36特別養護老人ホームシャローム東久留米内","lat":35.743187,"lon":139.52681},{"name":"西部地域包括支援センター","province":"東京都","city":"東久留米市","address":"東久留米市下里4-2-50特別養護老人ホームけんちの里内","lat":35.752701,"lon":139.494797},{"name":"東久留米市在宅介護支援センター","province":"東京都","city":"東久留米市","address":"東久留米市幸町3-11-10介護老人保健施設ケア東久留米内","lat":35.757965,"lon":139.521652},{"name":"東久留米市役所福祉保健部介護福祉課","province":"東京都","city":"東久留米市","address":"東久留米市本町3-3-1","lat":35.758629,"lon":139.529709},{"name":"東久留米総合高等学校","province":"東京都","city":"東久留米市","address":"東京都東久留米市幸町5丁目8-46","lat":35.76245241,"lon":139.51957291},{"name":"久留米西高等学校","province":"東京都","city":"東久留米市","address":"東京都東久留米市野火止2丁目1-44","lat":35.76190233,"lon":139.51246801},{"name":"東部地域包括支援センター","province":"東京都","city":"東久留米市","address":"東久留米市大門町2-10-5東部地域センター内","lat":35.765045,"lon":139.54039},{"name":"東部地域包括支援センター本部","province":"東京都","city":"東久留米市","address":"東久留米市氷川台2-6-6社会福祉法人マザアス内","lat":35.767776,"lon":139.532547},{"name":"中部地域包括支援センター","province":"東京都","city":"東久留米市","address":"東久留米市幸町1-19-5幸町1丁目アパート5号棟1階幸町デイサービスセンター内","lat":35.761196,"lon":139.523743},{"name":"中部地域包括支援センター本部","province":"東京都","city":"東久留米市","address":"東久留米市南沢5-18-36特別養護老人ホームシャローム東久留米内","lat":35.743187,"lon":139.52681},{"name":"西部地域包括支援センター","province":"東京都","city":"東久留米市","address":"東久留米市下里4-2-50特別養護老人ホームけんちの里内","lat":35.752701,"lon":139.494797},{"name":"東久留米市在宅介護支援センター","province":"東京都","city":"東久留米市","address":"東久留米市幸町3-11-10介護老人保健施設ケア東久留米内","lat":35.757965,"lon":139.521652},{"name":"東久留米市役所福祉保健部介護福祉課","province":"東京都","city":"東久留米市","address":"東久留米市本町3-3-1","lat":35.758629,"lon":139.529709},{"name":"東部地域包括支援センター","province":"東京都","city":"東久留米市","address":"東久留米市大門町2-10-5東部地域センター内","lat":35.765045,"lon":139.54039},{"name":"東部地域包括支援センター本部","province":"東京都","city":"東久留米市","address":"東久留米市氷川台2-6-6社会福祉法人マザアス内","lat":35.767776,"lon":139.532547},{"name":"中部地域包括支援センター","province":"東京都","city":"東久留米市","address":"東久留米市幸町1-19-5幸町1丁目アパート5号棟1階幸町デイサービスセンター内","lat":35.761196,"lon":139.523743},{"name":"中部地域包括支援センター本部","province":"東京都","city":"東久留米市","address":"東久留米市南沢5-18-36特別養護老人ホームシャローム東久留米内","lat":35.743187,"lon":139.52681},{"name":"西部地域包括支援センター","province":"東京都","city":"東久留米市","address":"東久留米市下里4-2-50特別養護老人ホームけんちの里内","lat":35.752701,"lon":139.494797},{"name":"東久留米市在宅介護支援センター","province":"東京都","city":"東久留米市","address":"東久留米市幸町3-11-10介護老人保健施設ケア東久留米内","lat":35.757965,"lon":139.521652},{"name":"東久留米市役所福祉保健部介護福祉課","province":"東京都","city":"東久留米市","address":"東久留米市本町3-3-1","lat":35.758629,"lon":139.529709},{"name":"東部地域包括支援センター","province":"東京都","city":"東久留米市","address":"東久留米市大門町2-10-5東部地域センター内","lat":35.765045,"lon":139.54039},{"name":"東部地域包括支援センター本部","province":"東京都","city":"東久留米市","address":"東久留米市氷川台2-6-6社会福祉法人マザアス内","lat":35.767776,"lon":139.532547},{"name":"中部地域包括支援センター","province":"東京都","city":"東久留米市","address":"東久留米市幸町1-19-5幸町1丁目アパート5号棟1階幸町デイサービスセンター内","lat":35.761196,"lon":139.523743},{"name":"中部地域包括支援センター本部","province":"東京都","city":"東久留米市","address":"東久留米市南沢5-18-36特別養護老人ホームシャローム東久留米内","lat":35.743187,"lon":139.52681},{"name":"西部地域包括支援センター","province":"東京都","city":"東久留米市","address":"東久留米市下里4-2-50特別養護老人ホームけんちの里内","lat":35.752701,"lon":139.494797},{"name":"東久留米市在宅介護支援センター","province":"東京都","city":"東久留米市","address":"東久留米市幸町3-11-10介護老人保健施設ケア東久留米内","lat":35.757965,"lon":139.521652},{"name":"東久留米市役所福祉保健部介護福祉課","province":"東京都","city":"東久留米市","address":"東久留米市本町3-3-1","lat":35.758629,"lon":139.529709},{"name":"東部地域包括支援センター","province":"東京都","city":"東久留米市","address":"東久留米市大門町2-10-5東部地域センター内","lat":35.765045,"lon":139.54039},{"name":"東部地域包括支援センター本部","province":"東京都","city":"東久留米市","address":"東久留米市氷川台2-6-6社会福祉法人マザアス内","lat":35.767776,"lon":139.532547},{"name":"中部地域包括支援センター","province":"東京都","city":"東久留米市","address":"東久留米市幸町1-19-5幸町1丁目アパート5号棟1階幸町デイサービスセンター内","lat":35.761196,"lon":139.523743},{"name":"中部地域包括支援センター本部","province":"東京都","city":"東久留米市","address":"東久留米市南沢5-18-36特別養護老人ホームシャローム東久留米内","lat":35.743187,"lon":139.52681},{"name":"西部地域包括支援センター","province":"東京都","city":"東久留米市","address":"東久留米市下里4-2-50特別養護老人ホームけんちの里内","lat":35.752701,"lon":139.494797},{"name":"東久留米市在宅介護支援センター","province":"東京都","city":"東久留米市","address":"東久留米市幸町3-11-10介護老人保健施設ケア東久留米内","lat":35.757965,"lon":139.521652},{"name":"東久留米市役所福祉保健部介護福祉課","province":"東京都","city":"東久留米市","address":"東久留米市本町3-3-1","lat":35.758629,"lon":139.529709},{"name":"東部地域包括支援センター","province":"東京都","city":"東久留米市","address":"東久留米市大門町2-10-5東部地域センター内","lat":35.765045,"lon":139.54039},{"name":"東部地域包括支援センター本部","province":"東京都","city":"東久留米市","address":"東久留米市氷川台2-6-6社会福祉法人マザアス内","lat":35.767776,"lon":139.532547},{"name":"中部地域包括支援センター","province":"東京都","city":"東久留米市","address":"東久留米市幸町1-19-5幸町1丁目アパート5号棟1階幸町デイサービスセンター内","lat":35.761196,"lon":139.523743},{"name":"中部地域包括支援センター本部","province":"東京都","city":"東久留米市","address":"東久留米市南沢5-18-36特別養護老人ホームシャローム東久留米内","lat":35.743187,"lon":139.52681},{"name":"西部地域包括支援センター","province":"東京都","city":"東久留米市","address":"東久留米市下里4-2-50特別養護老人ホームけんちの里内","lat":35.752701,"lon":139.494797},{"name":"東久留米市在宅介護支援センター","province":"東京都","city":"東久留米市","address":"東久留米市幸町3-11-10介護老人保健施設ケア東久留米内","lat":35.757965,"lon":139.521652},{"name":"東久留米市役所福祉保健部介護福祉課","province":"東京都","city":"東久留米市","address":"東久留米市本町3-3-1","lat":35.758629,"lon":139.529709},{"name":"東部地域包括支援センター","province":"東京都","city":"東久留米市","address":"東久留米市大門町2-10-5東部地域センター内","lat":35.765045,"lon":139.54039},{"name":"東部地域包括支援センター本部","province":"東京都","city":"東久留米市","address":"東久留米市氷川台2-6-6社会福祉法人マザアス内","lat":35.767776,"lon":139.532547},{"name":"中部地域包括支援センター","province":"東京都","city":"東久留米市","address":"東久留米市幸町1-19-5幸町1丁目アパート5号棟1階幸町デイサービスセンター内","lat":35.761196,"lon":139.523743},{"name":"中部地域包括支援センター本部","province":"東京都","city":"東久留米市","address":"東久留米市南沢5-18-36特別養護老人ホームシャローム東久留米内","lat":35.743187,"lon":139.52681},{"name":"西部地域包括支援センター","province":"東京都","city":"東久留米市","address":"東久留米市下里4-2-50特別養護老人ホームけんちの里内","lat":35.752701,"lon":139.494797},{"name":"東久留米市在宅介護支援センター","province":"東京都","city":"東久留米市","address":"東久留米市幸町3-11-10介護老人保健施設ケア東久留米内","lat":35.757965,"lon":139.521652},{"name":"東久留米市役所福祉保健部介護福祉課","province":"東京都","city":"東久留米市","address":"東久留米市本町3-3-1","lat":35.758629,"lon":139.529709},{"name":"東部地域包括支援センター","province":"東京都","city":"東久留米市","address":"東久留米市大門町2-10-5東部地域センター内","lat":35.765045,"lon":139.54039},{"name":"東部地域包括支援センター本部","province":"東京都","city":"東久留米市","address":"東久留米市氷川台2-6-6社会福祉法人マザアス内","lat":35.767776,"lon":139.532547},{"name":"中部地域包括支援センター","province":"東京都","city":"東久留米市","address":"東久留米市幸町1-19-5幸町1丁目アパート5号棟1階幸町デイサービスセンター内","lat":35.761196,"lon":139.523743},{"name":"中部地域包括支援センター本部","province":"東京都","city":"東久留米市","address":"東久留米市南沢5-18-36特別養護老人ホームシャローム東久留米内","lat":35.743187,"lon":139.52681},{"name":"西部地域包括支援センター","province":"東京都","city":"東久留米市","address":"東久留米市下里4-2-50特別養護老人ホームけんちの里内","lat":35.752701,"lon":139.494797},{"name":"東久留米市在宅介護支援センター","province":"東京都","city":"東久留米市","address":"東久留米市幸町3-11-10介護老人保健施設ケア東久留米内","lat":35.757965,"lon":139.521652},{"name":"東久留米市役所福祉保健部介護福祉課","province":"東京都","city":"東久留米市","address":"東久留米市本町3-3-1","lat":35.758629,"lon":139.529709},{"name":"東部地域包括支援センター","province":"東京都","city":"東久留米市","address":"東久留米市大門町2-10-5東部地域センター内","lat":35.765045,"lon":139.54039},{"name":"東部地域包括支援センター本部","province":"東京都","city":"東久留米市","address":"東久留米市氷川台2-6-6社会福祉法人マザアス内","lat":35.767776,"lon":139.532547},{"name":"中部地域包括支援センター","province":"東京都","city":"東久留米市","address":"東久留米市幸町1-19-5幸町1丁目アパート5号棟1階幸町デイサービスセンター内","lat":35.761196,"lon":139.523743},{"name":"中部地域包括支援センター本部","province":"東京都","city":"東久留米市","address":"東久留米市南沢5-18-36特別養護老人ホームシャローム東久留米内","lat":35.743187,"lon":139.52681},{"name":"西部地域包括支援センター","province":"東京都","city":"東久留米市","address":"東久留米市下里4-2-50特別養護老人ホームけんちの里内","lat":35.752701,"lon":139.494797},{"name":"東久留米市在宅介護支援センター","province":"東京都","city":"東久留米市","address":"東久留米市幸町3-11-10介護老人保健施設ケア東久留米内","lat":35.757965,"lon":139.521652},{"name":"東久留米市役所福祉保健部介護福祉課","province":"東京都","city":"東久留米市","address":"東久留米市本町3-3-1","lat":35.758629,"lon":139.529709},{"name":"東部地域包括支援センター","province":"東京都","city":"東久留米市","address":"東久留米市大門町2-10-5東部地域センター内","lat":35.765045,"lon":139.54039},{"name":"東部地域包括支援センター本部","province":"東京都","city":"東久留米市","address":"東久留米市氷川台2-6-6社会福祉法人マザアス内","lat":35.767776,"lon":139.532547},{"name":"中部地域包括支援センター","province":"東京都","city":"東久留米市","address":"東久留米市幸町1-19-5幸町1丁目アパート5号棟1階幸町デイサービスセンター内","lat":35.761196,"lon":139.523743},{"name":"中部地域包括支援センター本部","province":"東京都","city":"東久留米市","address":"東久留米市南沢5-18-36特別養護老人ホームシャローム東久留米内","lat":35.743187,"lon":139.52681},{"name":"西部地域包括支援センター","province":"東京都","city":"東久留米市","address":"東久留米市下里4-2-50特別養護老人ホームけんちの里内","lat":35.752701,"lon":139.494797},{"name":"東久留米市在宅介護支援センター","province":"東京都","city":"東久留米市","address":"東久留米市幸町3-11-10介護老人保健施設ケア東久留米内","lat":35.757965,"lon":139.521652},{"name":"東久留米市役所福祉保健部介護福祉課","province":"東京都","city":"東久留米市","address":"東久留米市本町3-3-1","lat":35.758629,"lon":139.529709},{"name":"東部地域包括支援センター","province":"東京都","city":"東久留米市","address":"東久留米市大門町2-10-5東部地域センター内","lat":35.765045,"lon":139.54039},{"name":"東部地域包括支援センター本部","province":"東京都","city":"東久留米市","address":"東久留米市氷川台2-6-6社会福祉法人マザアス内","lat":35.767776,"lon":139.532547},{"name":"中部地域包括支援センター","province":"東京都","city":"東久留米市","address":"東久留米市幸町1-19-5幸町1丁目アパート5号棟1階幸町デイサービスセンター内","lat":35.761196,"lon":139.523743},{"name":"中部地域包括支援センター本部","province":"東京都","city":"東久留米市","address":"東久留米市南沢5-18-36特別養護老人ホームシャローム東久留米内","lat":35.743187,"lon":139.52681},{"name":"西部地域包括支援センター","province":"東京都","city":"東久留米市","address":"東久留米市下里4-2-50特別養護老人ホームけんちの里内","lat":35.752701,"lon":139.494797},{"name":"東久留米市在宅介護支援センター","province":"東京都","city":"東久留米市","address":"東久留米市幸町3-11-10介護老人保健施設ケア東久留米内","lat":35.757965,"lon":139.521652},{"name":"東久留米市役所福祉保健部介護福祉課","province":"東京都","city":"東久留米市","address":"東久留米市本町3-3-1","lat":35.758629,"lon":139.529709},{"name":"東部地域包括支援センター","province":"東京都","city":"東久留米市","address":"東久留米市大門町2-10-5東部地域センター内","lat":35.765045,"lon":139.54039},{"name":"東部地域包括支援センター本部","province":"東京都","city":"東久留米市","address":"東久留米市氷川台2-6-6社会福祉法人マザアス内","lat":35.767776,"lon":139.532547},{"name":"中部地域包括支援センター","province":"東京都","city":"東久留米市","address":"東久留米市幸町1-19-5幸町1丁目アパート5号棟1階幸町デイサービスセンター内","lat":35.761196,"lon":139.523743},{"name":"中部地域包括支援センター本部","province":"東京都","city":"東久留米市","address":"東久留米市南沢5-18-36特別養護老人ホームシャローム東久留米内","lat":35.743187,"lon":139.52681},{"name":"西部地域包括支援センター","province":"東京都","city":"東久留米市","address":"東久留米市下里4-2-50特別養護老人ホームけんちの里内","lat":35.752701,"lon":139.494797},{"name":"東久留米市在宅介護支援センター","province":"東京都","city":"東久留米市","address":"東久留米市幸町3-11-10介護老人保健施設ケア東久留米内","lat":35.757965,"lon":139.521652},{"name":"東久留米市役所福祉保健部介護福祉課","province":"東京都","city":"東久留米市","address":"東久留米市本町3-3-1","lat":35.758629,"lon":139.529709},{"name":"東部地域包括支援センター","province":"東京都","city":"東久留米市","address":"東久留米市大門町2-10-5東部地域センター内","lat":35.765045,"lon":139.54039},{"name":"東部地域包括支援センター本部","province":"東京都","city":"東久留米市","address":"東久留米市氷川台2-6-6社会福祉法人マザアス内","lat":35.767776,"lon":139.532547},{"name":"中部地域包括支援センター","province":"東京都","city":"東久留米市","address":"東久留米市幸町1-19-5幸町1丁目アパート5号棟1階幸町デイサービスセンター内","lat":35.761196,"lon":139.523743},{"name":"中部地域包括支援センター本部","province":"東京都","city":"東久留米市","address":"東久留米市南沢5-18-36特別養護老人ホームシャローム東久留米内","lat":35.743187,"lon":139.52681},{"name":"西部地域包括支援センター","province":"東京都","city":"東久留米市","address":"東久留米市下里4-2-50特別養護老人ホームけんちの里内","lat":35.752701,"lon":139.494797},{"name":"東久留米市在宅介護支援センター","province":"東京都","city":"東久留米市","address":"東久留米市幸町3-11-10介護老人保健施設ケア東久留米内","lat":35.757965,"lon":139.521652},{"name":"東久留米市役所福祉保健部介護福祉課","province":"東京都","city":"東久留米市","address":"東久留米市本町3-3-1","lat":35.758629,"lon":139.529709},{"name":"東部地域包括支援センター","province":"東京都","city":"東久留米市","address":"東久留米市大門町2-10-5東部地域センター内","lat":35.765045,"lon":139.54039},{"name":"東部地域包括支援センター本部","province":"東京都","city":"東久留米市","address":"東久留米市氷川台2-6-6社会福祉法人マザアス内","lat":35.767776,"lon":139.532547},{"name":"中部地域包括支援センター","province":"東京都","city":"東久留米市","address":"東久留米市幸町1-19-5幸町1丁目アパート5号棟1階幸町デイサービスセンター内","lat":35.761196,"lon":139.523743},{"name":"中部地域包括支援センター本部","province":"東京都","city":"東久留米市","address":"東久留米市南沢5-18-36特別養護老人ホームシャローム東久留米内","lat":35.743187,"lon":139.52681},{"name":"西部地域包括支援センター","province":"東京都","city":"東久留米市","address":"東久留米市下里4-2-50特別養護老人ホームけんちの里内","lat":35.752701,"lon":139.494797},{"name":"東久留米市在宅介護支援センター","province":"東京都","city":"東久留米市","address":"東久留米市幸町3-11-10介護老人保健施設ケア東久留米内","lat":35.757965,"lon":139.521652},{"name":"東久留米市役所福祉保健部介護福祉課","province":"東京都","city":"東久留米市","address":"東久留米市本町3-3-1","lat":35.758629,"lon":139.529709},{"name":"東部地域包括支援センター","province":"東京都","city":"東久留米市","address":"東久留米市大門町2-10-5東部地域センター内","lat":35.765045,"lon":139.54039},{"name":"東部地域包括支援センター本部","province":"東京都","city":"東久留米市","address":"東久留米市氷川台2-6-6社会福祉法人マザアス内","lat":35.767776,"lon":139.532547},{"name":"中部地域包括支援センター","province":"東京都","city":"東久留米市","address":"東久留米市幸町1-19-5幸町1丁目アパート5号棟1階幸町デイサービスセンター内","lat":35.761196,"lon":139.523743},{"name":"中部地域包括支援センター本部","province":"東京都","city":"東久留米市","address":"東久留米市南沢5-18-36特別養護老人ホームシャローム東久留米内","lat":35.743187,"lon":139.52681},{"name":"西部地域包括支援センター","province":"東京都","city":"東久留米市","address":"東久留米市下里4-2-50特別養護老人ホームけんちの里内","lat":35.752701,"lon":139.494797},{"name":"東久留米市在宅介護支援センター","province":"東京都","city":"東久留米市","address":"東久留米市幸町3-11-10介護老人保健施設ケア東久留米内","lat":35.757965,"lon":139.521652},{"name":"東久留米市役所福祉保健部介護福祉課","province":"東京都","city":"東久留米市","address":"東久留米市本町3-3-1","lat":35.758629,"lon":139.529709},{"name":"東部地域包括支援センター","province":"東京都","city":"東久留米市","address":"東久留米市大門町2-10-5東部地域センター内","lat":35.765045,"lon":139.54039},{"name":"東部地域包括支援センター本部","province":"東京都","city":"東久留米市","address":"東久留米市氷川台2-6-6社会福祉法人マザアス内","lat":35.767776,"lon":139.532547},{"name":"中部地域包括支援センター","province":"東京都","city":"東久留米市","address":"東久留米市幸町1-19-5幸町1丁目アパート5号棟1階幸町デイサービスセンター内","lat":35.761196,"lon":139.523743},{"name":"中部地域包括支援センター本部","province":"東京都","city":"東久留米市","address":"東久留米市南沢5-18-36特別養護老人ホームシャローム東久留米内","lat":35.743187,"lon":139.52681},{"name":"西部地域包括支援センター","province":"東京都","city":"東久留米市","address":"東久留米市下里4-2-50特別養護老人ホームけんちの里内","lat":35.752701,"lon":139.494797},{"name":"東久留米市在宅介護支援センター","province":"東京都","city":"東久留米市","address":"東久留米市幸町3-11-10介護老人保健施設ケア東久留米内","lat":35.757965,"lon":139.521652},{"name":"東久留米市役所福祉保健部介護福祉課","province":"東京都","city":"東久留米市","address":"東久留米市本町3-3-1","lat":35.758629,"lon":139.529709},{"name":"東部地域包括支援センター","province":"東京都","city":"東久留米市","address":"東久留米市大門町2-10-5東部地域センター内","lat":35.765045,"lon":139.54039},{"name":"東部地域包括支援センター本部","province":"東京都","city":"東久留米市","address":"東久留米市氷川台2-6-6社会福祉法人マザアス内","lat":35.767776,"lon":139.532547},{"name":"中部地域包括支援センター","province":"東京都","city":"東久留米市","address":"東久留米市幸町1-19-5幸町1丁目アパート5号棟1階幸町デイサービスセンター内","lat":35.761196,"lon":139.523743},{"name":"中部地域包括支援センター本部","province":"東京都","city":"東久留米市","address":"東久留米市南沢5-18-36特別養護老人ホームシャローム東久留米内","lat":35.743187,"lon":139.52681},{"name":"西部地域包括支援センター","province":"東京都","city":"東久留米市","address":"東久留米市下里4-2-50特別養護老人ホームけんちの里内","lat":35.752701,"lon":139.494797},{"name":"東久留米市在宅介護支援センター","province":"東京都","city":"東久留米市","address":"東久留米市幸町3-11-10介護老人保健施設ケア東久留米内","lat":35.757965,"lon":139.521652},{"name":"東久留米市役所福祉保健部介護福祉課","province":"東京都","city":"東久留米市","address":"東久留米市本町3-3-1","lat":35.758629,"lon":139.529709},{"name":"東部地域包括支援センター","province":"東京都","city":"東久留米市","address":"東久留米市大門町2-10-5東部地域センター内","lat":35.765045,"lon":139.54039},{"name":"東部地域包括支援センター本部","province":"東京都","city":"東久留米市","address":"東久留米市氷川台2-6-6社会福祉法人マザアス内","lat":35.767776,"lon":139.532547},{"name":"中部地域包括支援センター","province":"東京都","city":"東久留米市","address":"東久留米市幸町1-19-5幸町1丁目アパート5号棟1階幸町デイサービスセンター内","lat":35.761196,"lon":139.523743},{"name":"中部地域包括支援センター本部","province":"東京都","city":"東久留米市","address":"東久留米市南沢5-18-36特別養護老人ホームシャローム東久留米内","lat":35.743187,"lon":139.52681},{"name":"西部地域包括支援センター","province":"東京都","city":"東久留米市","address":"東久留米市下里4-2-50特別養護老人ホームけんちの里内","lat":35.752701,"lon":139.494797},{"name":"東久留米市在宅介護支援センター","province":"東京都","city":"東久留米市","address":"東久留米市幸町3-11-10介護老人保健施設ケア東久留米内","lat":35.757965,"lon":139.521652},{"name":"東久留米市役所福祉保健部介護福祉課","province":"東京都","city":"東久留米市","address":"東久留米市本町3-3-1","lat":35.758629,"lon":139.529709}]}