{"keyword":"月間","data":[{"name":"あいる","province":"東京都","city":"東久留米市","address":"東久留米市新川町1-9-26","lat":35.761545,"lon":139.536855},{"name":"てんとうむし","province":"東京都","city":"東久留米市","address":"東久留米市南町4-9-21","lat":35.744366,"lon":139.52214},{"name":"だっく","province":"東京都","city":"東久留米市","address":"東久留米市八幡町1-1-12","lat":35.757436,"lon":139.513174},{"name":"ぐ～す","province":"東京都","city":"東久留米市","address":"東久留米市八幡町2-13-29","lat":35.755661,"lon":139.513543},{"name":"シュプロス東久留米教室","province":"東京都","city":"東久留米市","address":"東久留米市八幡町2-4-18グランドール1階店舗","lat":35.754612,"lon":139.513713},{"name":"しおん学園","province":"東京都","city":"東久留米市","address":"東久留米市下里7-8-20","lat":35.759916,"lon":139.502927},{"name":"放課後等デイサービス　カーリッジ東久留米","province":"東京都","city":"東久留米市","address":"東久留米市下里3-23-13アズセナ101号室","lat":35.753425,"lon":139.500275},{"name":"このみ","province":"東京都","city":"東久留米市","address":"東久留米市幸町3-8-23","lat":35.758264,"lon":139.51912},{"name":"東久留米市子ども家庭支援センター","province":"東京都","city":"東久留米市","address":"東久留米市滝山4-3-14わくわく健康プラザ南棟2階","lat":35.742288,"lon":139.504483},{"name":"東久留米市子ども家庭支援センター","province":"東京都","city":"東久留米市","address":"東久留米市滝山4-3-14わくわく健康プラザ南棟2階","lat":35.74133,"lon":139.50406},{"name":"東久留米市子ども家庭支援センター","province":"東京都","city":"東久留米市","address":"東久留米市滝山4-3-14わくわく健康プラザ南棟2階","lat":35.74221,"lon":139.50792},{"name":"柳窪三丁目","province":"東京都","city":"東久留米市","address":"東京都東久留米市柳窪3丁目2-1","lat":35.74325401,"lon":139.4947647},{"name":"上の原交番前","province":"東京都","city":"東久留米市","address":"東京都東久留米市上の原1丁目2","lat":35.76894094,"lon":139.54174311},{"name":"東久留米市役所前","province":"東京都","city":"東久留米市","address":"東京都東久留米市本町3丁目1-41","lat":35.75827534,"lon":139.53039709},{"name":"東久留米市役所西","province":"東京都","city":"東久留米市","address":"東京都東久留米市中央町1丁目1","lat":35.75811417,"lon":139.52673352},{"name":"さいわい福祉センター前","province":"東京都","city":"東久留米市","address":"東京都東久留米市幸町2丁目1-10","lat":35.75915557,"lon":139.51983687},{"name":"東久留米公民館前","province":"東京都","city":"東久留米市","address":"東京都東久留米市中央町2丁目1-46","lat":35.75573938,"lon":139.52343944},{"name":"東久留米駅西","province":"東京都","city":"東久留米市","address":"東京都東久留米市本町1丁目4-53","lat":35.75968355,"lon":139.53264963},{"name":"神山大橋","province":"東京都","city":"東久留米市","address":"東京都東久留米市大門町2丁目12","lat":35.76377491,"lon":139.5419238},{"name":"南沢浄水所","province":"東京都","city":"東久留米市","address":"東京都東久留米市南沢3丁目9-21","lat":35.75193708,"lon":139.52583381},{"name":"滝山浄水所","province":"東京都","city":"東久留米市","address":"東京都東久留米市滝山6丁目1-1","lat":35.74739829,"lon":139.50739394},{"name":"東久留米市立滝山公園","province":"東京都","city":"東久留米市","address":"東京都東久留米市滝山2丁目4","lat":35.74556523,"lon":139.51002988},{"name":"柳泉園組合グラウンド","province":"東京都","city":"東久留米市","address":"東京都東久留米市下里4丁目3-10","lat":35.75475824,"lon":139.49449483},{"name":"東久留米市わくわく健康プラザ（健康課）","province":"東京都","city":"東久留米市","address":"東京都東久留米市滝山4丁目3-14","lat":35.74228769,"lon":139.5044833},{"name":"東久留米総合高等学校","province":"東京都","city":"東久留米市","address":"東京都東久留米市幸町5丁目8-46","lat":35.76245241,"lon":139.51957291},{"name":"久留米西高等学校","province":"東京都","city":"東久留米市","address":"東京都東久留米市野火止2丁目1-44","lat":35.76190233,"lon":139.51246801},{"name":"東久留米市本庁舎","province":"東京都","city":"東久留米市","address":"東京都東久留米市本町3丁目3-1","lat":35.75799202,"lon":139.52967216},{"name":"東久留米市立久留米中学校","province":"東京都","city":"東久留米市","address":"東京都東久留米市幸町5丁目9-11","lat":35.761708,"lon":139.51692595},{"name":"東久留米市立大門中学校","province":"東京都","city":"東久留米市","address":"東京都東久留米市大門町2丁目13-8","lat":35.7628556,"lon":139.54363203},{"name":"東久留米市本庁舎","province":"東京都","city":"東久留米市","address":"東久留米市本町3-3-1","lat":35.757992,"lon":139.529673},{"name":"東久留米消防署","province":"東京都","city":"東久留米市","address":"東久留米市幸町3-4-34","lat":35.75756,"lon":139.5217},{"name":"柳泉園クリーンポート","province":"東京都","city":"東久留米市","address":"東久留米市下里4-3-10","lat":35.75476,"lon":139.4945},{"name":"※東久留米市本庁舎","province":"東京都","city":"東久留米市","address":"東京都東久留米市本町3丁目3-1","lat":35.75799202,"lon":139.52967216},{"name":"あいる","province":"東京都","city":"東久留米市","address":"東久留米市新川町1-9-26","lat":35.761545,"lon":139.536855},{"name":"てんとうむし","province":"東京都","city":"東久留米市","address":"東久留米市南町4-9-21","lat":35.744366,"lon":139.52214},{"name":"だっく","province":"東京都","city":"東久留米市","address":"東久留米市八幡町1-1-12","lat":35.757436,"lon":139.513174},{"name":"ぐ～す","province":"東京都","city":"東久留米市","address":"東久留米市八幡町2-13-29","lat":35.755661,"lon":139.513543},{"name":"シュプロス東久留米教室","province":"東京都","city":"東久留米市","address":"東久留米市八幡町2-4-18グランドール1階店舗","lat":35.754612,"lon":139.513713},{"name":"しおん学園","province":"東京都","city":"東久留米市","address":"東久留米市下里7-8-20","lat":35.759916,"lon":139.502927},{"name":"放課後等デイサービス　カーリッジ東久留米","province":"東京都","city":"東久留米市","address":"東久留米市下里3-23-13アズセナ101号室","lat":35.753425,"lon":139.500275},{"name":"このみ","province":"東京都","city":"東久留米市","address":"東久留米市幸町3-8-23","lat":35.758264,"lon":139.51912},{"name":"東久留米市子ども家庭支援センター","province":"東京都","city":"東久留米市","address":"東久留米市滝山4-3-14わくわく健康プラザ南棟2階","lat":35.742288,"lon":139.504483},{"name":"東久留米市子ども家庭支援センター","province":"東京都","city":"東久留米市","address":"東久留米市滝山4-3-14わくわく健康プラザ南棟2階","lat":35.74133,"lon":139.50406},{"name":"東久留米市子ども家庭支援センター","province":"東京都","city":"東久留米市","address":"東久留米市滝山4-3-14わくわく健康プラザ南棟2階","lat":35.74221,"lon":139.50792},{"name":"柳窪三丁目","province":"東京都","city":"東久留米市","address":"東京都東久留米市柳窪3丁目2-1","lat":35.74325401,"lon":139.4947647},{"name":"上の原交番前","province":"東京都","city":"東久留米市","address":"東京都東久留米市上の原1丁目2","lat":35.76894094,"lon":139.54174311},{"name":"東久留米市役所前","province":"東京都","city":"東久留米市","address":"東京都東久留米市本町3丁目1-41","lat":35.75827534,"lon":139.53039709},{"name":"東久留米市役所西","province":"東京都","city":"東久留米市","address":"東京都東久留米市中央町1丁目1","lat":35.75811417,"lon":139.52673352},{"name":"さいわい福祉センター前","province":"東京都","city":"東久留米市","address":"東京都東久留米市幸町2丁目1-10","lat":35.75915557,"lon":139.51983687},{"name":"東久留米公民館前","province":"東京都","city":"東久留米市","address":"東京都東久留米市中央町2丁目1-46","lat":35.75573938,"lon":139.52343944},{"name":"東久留米駅西","province":"東京都","city":"東久留米市","address":"東京都東久留米市本町1丁目4-53","lat":35.75968355,"lon":139.53264963},{"name":"神山大橋","province":"東京都","city":"東久留米市","address":"東京都東久留米市大門町2丁目12","lat":35.76377491,"lon":139.5419238},{"name":"南沢浄水所","province":"東京都","city":"東久留米市","address":"東京都東久留米市南沢3丁目9-21","lat":35.75193708,"lon":139.52583381},{"name":"滝山浄水所","province":"東京都","city":"東久留米市","address":"東京都東久留米市滝山6丁目1-1","lat":35.74739829,"lon":139.50739394},{"name":"東久留米市立滝山公園","province":"東京都","city":"東久留米市","address":"東京都東久留米市滝山2丁目4","lat":35.74556523,"lon":139.51002988},{"name":"柳泉園組合グラウンド","province":"東京都","city":"東久留米市","address":"東京都東久留米市下里4丁目3-10","lat":35.75475824,"lon":139.49449483},{"name":"東久留米総合高等学校","province":"東京都","city":"東久留米市","address":"東京都東久留米市幸町5丁目8-46","lat":35.76245241,"lon":139.51957291},{"name":"久留米西高等学校","province":"東京都","city":"東久留米市","address":"東京都東久留米市野火止2丁目1-44","lat":35.76190233,"lon":139.51246801},{"name":"あいる","province":"東京都","city":"東久留米市","address":"東久留米市新川町1-9-26","lat":35.761545,"lon":139.536855},{"name":"てんとうむし","province":"東京都","city":"東久留米市","address":"東久留米市南町4-9-21","lat":35.744366,"lon":139.52214},{"name":"だっく","province":"東京都","city":"東久留米市","address":"東久留米市八幡町1-1-12","lat":35.757436,"lon":139.513174},{"name":"ぐ～す","province":"東京都","city":"東久留米市","address":"東久留米市八幡町2-13-29","lat":35.755661,"lon":139.513543},{"name":"シュプロス東久留米教室","province":"東京都","city":"東久留米市","address":"東久留米市八幡町2-4-18グランドール1階店舗","lat":35.754612,"lon":139.513713},{"name":"しおん学園","province":"東京都","city":"東久留米市","address":"東久留米市下里7-8-20","lat":35.759916,"lon":139.502927},{"name":"放課後等デイサービス　カーリッジ東久留米","province":"東京都","city":"東久留米市","address":"東久留米市下里3-23-13アズセナ101号室","lat":35.753425,"lon":139.500275},{"name":"このみ","province":"東京都","city":"東久留米市","address":"東久留米市幸町3-8-23","lat":35.758264,"lon":139.51912},{"name":"東久留米市子ども家庭支援センター","province":"東京都","city":"東久留米市","address":"東久留米市滝山4-3-14わくわく健康プラザ南棟2階","lat":35.742288,"lon":139.504483},{"name":"東久留米市子ども家庭支援センター","province":"東京都","city":"東久留米市","address":"東久留米市滝山4-3-14わくわく健康プラザ南棟2階","lat":35.74133,"lon":139.50406},{"name":"東久留米市子ども家庭支援センター","province":"東京都","city":"東久留米市","address":"東久留米市滝山4-3-14わくわく健康プラザ南棟2階","lat":35.74221,"lon":139.50792},{"name":"柳窪三丁目","province":"東京都","city":"東久留米市","address":"東京都東久留米市柳窪3丁目2-1","lat":35.74325401,"lon":139.4947647},{"name":"上の原交番前","province":"東京都","city":"東久留米市","address":"東京都東久留米市上の原1丁目2","lat":35.76894094,"lon":139.54174311},{"name":"東久留米市役所前","province":"東京都","city":"東久留米市","address":"東京都東久留米市本町3丁目1-41","lat":35.75827534,"lon":139.53039709},{"name":"東久留米市役所西","province":"東京都","city":"東久留米市","address":"東京都東久留米市中央町1丁目1","lat":35.75811417,"lon":139.52673352},{"name":"さいわい福祉センター前","province":"東京都","city":"東久留米市","address":"東京都東久留米市幸町2丁目1-10","lat":35.75915557,"lon":139.51983687},{"name":"東久留米公民館前","province":"東京都","city":"東久留米市","address":"東京都東久留米市中央町2丁目1-46","lat":35.75573938,"lon":139.52343944},{"name":"東久留米駅西","province":"東京都","city":"東久留米市","address":"東京都東久留米市本町1丁目4-53","lat":35.75968355,"lon":139.53264963},{"name":"神山大橋","province":"東京都","city":"東久留米市","address":"東京都東久留米市大門町2丁目12","lat":35.76377491,"lon":139.5419238},{"name":"南沢浄水所","province":"東京都","city":"東久留米市","address":"東京都東久留米市南沢3丁目9-21","lat":35.75193708,"lon":139.52583381},{"name":"滝山浄水所","province":"東京都","city":"東久留米市","address":"東京都東久留米市滝山6丁目1-1","lat":35.74739829,"lon":139.50739394},{"name":"東久留米市立滝山公園","province":"東京都","city":"東久留米市","address":"東京都東久留米市滝山2丁目4","lat":35.74556523,"lon":139.51002988},{"name":"柳泉園組合グラウンド","province":"東京都","city":"東久留米市","address":"東京都東久留米市下里4丁目3-10","lat":35.75475824,"lon":139.49449483},{"name":"東久留米総合高等学校","province":"東京都","city":"東久留米市","address":"東京都東久留米市幸町5丁目8-46","lat":35.76245241,"lon":139.51957291},{"name":"久留米西高等学校","province":"東京都","city":"東久留米市","address":"東京都東久留米市野火止2丁目1-44","lat":35.76190233,"lon":139.51246801},{"name":"あいる","province":"東京都","city":"東久留米市","address":"東久留米市新川町1-9-26","lat":35.761545,"lon":139.536855},{"name":"てんとうむし","province":"東京都","city":"東久留米市","address":"東久留米市南町4-9-21","lat":35.744366,"lon":139.52214},{"name":"だっく","province":"東京都","city":"東久留米市","address":"東久留米市八幡町1-1-12","lat":35.757436,"lon":139.513174},{"name":"ぐ～す","province":"東京都","city":"東久留米市","address":"東久留米市八幡町2-13-29","lat":35.755661,"lon":139.513543},{"name":"シュプロス東久留米教室","province":"東京都","city":"東久留米市","address":"東久留米市八幡町2-4-18グランドール1階店舗","lat":35.754612,"lon":139.513713},{"name":"しおん学園","province":"東京都","city":"東久留米市","address":"東久留米市下里7-8-20","lat":35.759916,"lon":139.502927},{"name":"放課後等デイサービス　カーリッジ東久留米","province":"東京都","city":"東久留米市","address":"東久留米市下里3-23-13アズセナ101号室","lat":35.753425,"lon":139.500275},{"name":"このみ","province":"東京都","city":"東久留米市","address":"東久留米市幸町3-8-23","lat":35.758264,"lon":139.51912},{"name":"東久留米市子ども家庭支援センター","province":"東京都","city":"東久留米市","address":"東久留米市滝山4-3-14わくわく健康プラザ南棟2階","lat":35.742288,"lon":139.504483},{"name":"東久留米市子ども家庭支援センター","province":"東京都","city":"東久留米市","address":"東久留米市滝山4-3-14わくわく健康プラザ南棟2階","lat":35.74133,"lon":139.50406},{"name":"東久留米市子ども家庭支援センター","province":"東京都","city":"東久留米市","address":"東久留米市滝山4-3-14わくわく健康プラザ南棟2階","lat":35.74221,"lon":139.50792},{"name":"東久留米市立滝山公園","province":"東京都","city":"東久留米市","address":"東京都東久留米市滝山2丁目4","lat":35.74556523,"lon":139.51002988},{"name":"柳泉園組合グラウンド","province":"東京都","city":"東久留米市","address":"東京都東久留米市下里4丁目3-10","lat":35.75475824,"lon":139.49449483},{"name":"東久留米総合高等学校","province":"東京都","city":"東久留米市","address":"東京都東久留米市幸町5丁目8-46","lat":35.76245241,"lon":139.51957291},{"name":"久留米西高等学校","province":"東京都","city":"東久留米市","address":"東京都東久留米市野火止2丁目1-44","lat":35.76190233,"lon":139.51246801},{"name":"あいる","province":"東京都","city":"東久留米市","address":"東久留米市新川町1-9-26","lat":35.761545,"lon":139.536855},{"name":"てんとうむし","province":"東京都","city":"東久留米市","address":"東久留米市南町4-9-21","lat":35.744366,"lon":139.52214},{"name":"だっく","province":"東京都","city":"東久留米市","address":"東久留米市八幡町1-1-12","lat":35.757436,"lon":139.513174},{"name":"ぐ～す","province":"東京都","city":"東久留米市","address":"東久留米市八幡町2-13-29","lat":35.755661,"lon":139.513543},{"name":"シュプロス東久留米教室","province":"東京都","city":"東久留米市","address":"東久留米市八幡町2-4-18グランドール1階店舗","lat":35.754612,"lon":139.513713},{"name":"しおん学園","province":"東京都","city":"東久留米市","address":"東久留米市下里7-8-20","lat":35.759916,"lon":139.502927},{"name":"放課後等デイサービス　カーリッジ東久留米","province":"東京都","city":"東久留米市","address":"東久留米市下里3-23-13アズセナ101号室","lat":35.753425,"lon":139.500275},{"name":"このみ","province":"東京都","city":"東久留米市","address":"東久留米市幸町3-8-23","lat":35.758264,"lon":139.51912},{"name":"東久留米市子ども家庭支援センター","province":"東京都","city":"東久留米市","address":"東久留米市滝山4-3-14わくわく健康プラザ南棟2階","lat":35.742288,"lon":139.504483},{"name":"東久留米市子ども家庭支援センター","province":"東京都","city":"東久留米市","address":"東久留米市滝山4-3-14わくわく健康プラザ南棟2階","lat":35.74133,"lon":139.50406},{"name":"東久留米市子ども家庭支援センター","province":"東京都","city":"東久留米市","address":"東久留米市滝山4-3-14わくわく健康プラザ南棟2階","lat":35.74221,"lon":139.50792},{"name":"東久留米総合高等学校","province":"東京都","city":"東久留米市","address":"東京都東久留米市幸町5丁目8-46","lat":35.76245241,"lon":139.51957291},{"name":"久留米西高等学校","province":"東京都","city":"東久留米市","address":"東京都東久留米市野火止2丁目1-44","lat":35.76190233,"lon":139.51246801},{"name":"あいる","province":"東京都","city":"東久留米市","address":"東久留米市新川町1-9-26","lat":35.761545,"lon":139.536855},{"name":"てんとうむし","province":"東京都","city":"東久留米市","address":"東久留米市南町4-9-21","lat":35.744366,"lon":139.52214},{"name":"だっく","province":"東京都","city":"東久留米市","address":"東久留米市八幡町1-1-12","lat":35.757436,"lon":139.513174},{"name":"ぐ～す","province":"東京都","city":"東久留米市","address":"東久留米市八幡町2-13-29","lat":35.755661,"lon":139.513543},{"name":"シュプロス東久留米教室","province":"東京都","city":"東久留米市","address":"東久留米市八幡町2-4-18グランドール1階店舗","lat":35.754612,"lon":139.513713},{"name":"しおん学園","province":"東京都","city":"東久留米市","address":"東久留米市下里7-8-20","lat":35.759916,"lon":139.502927},{"name":"放課後等デイサービス　カーリッジ東久留米","province":"東京都","city":"東久留米市","address":"東久留米市下里3-23-13アズセナ101号室","lat":35.753425,"lon":139.500275},{"name":"このみ","province":"東京都","city":"東久留米市","address":"東久留米市幸町3-8-23","lat":35.758264,"lon":139.51912},{"name":"東久留米市子ども家庭支援センター","province":"東京都","city":"東久留米市","address":"東久留米市滝山4-3-14わくわく健康プラザ南棟2階","lat":35.742288,"lon":139.504483},{"name":"東久留米市子ども家庭支援センター","province":"東京都","city":"東久留米市","address":"東久留米市滝山4-3-14わくわく健康プラザ南棟2階","lat":35.74133,"lon":139.50406},{"name":"東久留米市子ども家庭支援センター","province":"東京都","city":"東久留米市","address":"東久留米市滝山4-3-14わくわく健康プラザ南棟2階","lat":35.74221,"lon":139.50792},{"name":"東久留米総合高等学校","province":"東京都","city":"東久留米市","address":"東京都東久留米市幸町5丁目8-46","lat":35.76245241,"lon":139.51957291},{"name":"久留米西高等学校","province":"東京都","city":"東久留米市","address":"東京都東久留米市野火止2丁目1-44","lat":35.76190233,"lon":139.51246801},{"name":"あいる","province":"東京都","city":"東久留米市","address":"東久留米市新川町1-9-26","lat":35.761545,"lon":139.536855},{"name":"てんとうむし","province":"東京都","city":"東久留米市","address":"東久留米市南町4-9-21","lat":35.744366,"lon":139.52214},{"name":"だっく","province":"東京都","city":"東久留米市","address":"東久留米市八幡町1-1-12","lat":35.757436,"lon":139.513174},{"name":"ぐ～す","province":"東京都","city":"東久留米市","address":"東久留米市八幡町2-13-29","lat":35.755661,"lon":139.513543},{"name":"シュプロス東久留米教室","province":"東京都","city":"東久留米市","address":"東久留米市八幡町2-4-18グランドール1階店舗","lat":35.754612,"lon":139.513713},{"name":"しおん学園","province":"東京都","city":"東久留米市","address":"東久留米市下里7-8-20","lat":35.759916,"lon":139.502927},{"name":"放課後等デイサービス　カーリッジ東久留米","province":"東京都","city":"東久留米市","address":"東久留米市下里3-23-13アズセナ101号室","lat":35.753425,"lon":139.500275},{"name":"このみ","province":"東京都","city":"東久留米市","address":"東久留米市幸町3-8-23","lat":35.758264,"lon":139.51912},{"name":"東久留米市子ども家庭支援センター","province":"東京都","city":"東久留米市","address":"東久留米市滝山4-3-14わくわく健康プラザ南棟2階","lat":35.742288,"lon":139.504483},{"name":"東久留米市子ども家庭支援センター","province":"東京都","city":"東久留米市","address":"東久留米市滝山4-3-14わくわく健康プラザ南棟2階","lat":35.74133,"lon":139.50406},{"name":"東久留米市子ども家庭支援センター","province":"東京都","city":"東久留米市","address":"東久留米市滝山4-3-14わくわく健康プラザ南棟2階","lat":35.74221,"lon":139.50792},{"name":"東久留米総合高等学校","province":"東京都","city":"東久留米市","address":"東京都東久留米市幸町5丁目8-46","lat":35.76245241,"lon":139.51957291},{"name":"久留米西高等学校","province":"東京都","city":"東久留米市","address":"東京都東久留米市野火止2丁目1-44","lat":35.76190233,"lon":139.51246801},{"name":"あいる","province":"東京都","city":"東久留米市","address":"東久留米市新川町1-9-26","lat":35.761545,"lon":139.536855},{"name":"てんとうむし","province":"東京都","city":"東久留米市","address":"東久留米市南町4-9-21","lat":35.744366,"lon":139.52214},{"name":"だっく","province":"東京都","city":"東久留米市","address":"東久留米市八幡町1-1-12","lat":35.757436,"lon":139.513174},{"name":"ぐ～す","province":"東京都","city":"東久留米市","address":"東久留米市八幡町2-13-29","lat":35.755661,"lon":139.513543},{"name":"シュプロス東久留米教室","province":"東京都","city":"東久留米市","address":"東久留米市八幡町2-4-18グランドール1階店舗","lat":35.754612,"lon":139.513713},{"name":"しおん学園","province":"東京都","city":"東久留米市","address":"東久留米市下里7-8-20","lat":35.759916,"lon":139.502927},{"name":"放課後等デイサービス　カーリッジ東久留米","province":"東京都","city":"東久留米市","address":"東久留米市下里3-23-13アズセナ101号室","lat":35.753425,"lon":139.500275},{"name":"このみ","province":"東京都","city":"東久留米市","address":"東久留米市幸町3-8-23","lat":35.758264,"lon":139.51912},{"name":"東久留米市子ども家庭支援センター","province":"東京都","city":"東久留米市","address":"東久留米市滝山4-3-14わくわく健康プラザ南棟2階","lat":35.742288,"lon":139.504483},{"name":"東久留米市子ども家庭支援センター","province":"東京都","city":"東久留米市","address":"東久留米市滝山4-3-14わくわく健康プラザ南棟2階","lat":35.74133,"lon":139.50406},{"name":"東久留米市子ども家庭支援センター","province":"東京都","city":"東久留米市","address":"東久留米市滝山4-3-14わくわく健康プラザ南棟2階","lat":35.74221,"lon":139.50792},{"name":"東久留米総合高等学校","province":"東京都","city":"東久留米市","address":"東京都東久留米市幸町5丁目8-46","lat":35.76245241,"lon":139.51957291},{"name":"久留米西高等学校","province":"東京都","city":"東久留米市","address":"東京都東久留米市野火止2丁目1-44","lat":35.76190233,"lon":139.51246801},{"name":"あいる","province":"東京都","city":"東久留米市","address":"東久留米市新川町1-9-26","lat":35.761545,"lon":139.536855},{"name":"てんとうむし","province":"東京都","city":"東久留米市","address":"東久留米市南町4-9-21","lat":35.744366,"lon":139.52214},{"name":"だっく","province":"東京都","city":"東久留米市","address":"東久留米市八幡町1-1-12","lat":35.757436,"lon":139.513174},{"name":"ぐ～す","province":"東京都","city":"東久留米市","address":"東久留米市八幡町2-13-29","lat":35.755661,"lon":139.513543},{"name":"シュプロス東久留米教室","province":"東京都","city":"東久留米市","address":"東久留米市八幡町2-4-18グランドール1階店舗","lat":35.754612,"lon":139.513713},{"name":"しおん学園","province":"東京都","city":"東久留米市","address":"東久留米市下里7-8-20","lat":35.759916,"lon":139.502927},{"name":"放課後等デイサービス　カーリッジ東久留米","province":"東京都","city":"東久留米市","address":"東久留米市下里3-23-13アズセナ101号室","lat":35.753425,"lon":139.500275},{"name":"このみ","province":"東京都","city":"東久留米市","address":"東久留米市幸町3-8-23","lat":35.758264,"lon":139.51912},{"name":"東久留米市子ども家庭支援センター","province":"東京都","city":"東久留米市","address":"東久留米市滝山4-3-14わくわく健康プラザ南棟2階","lat":35.742288,"lon":139.504483},{"name":"東久留米市子ども家庭支援センター","province":"東京都","city":"東久留米市","address":"東久留米市滝山4-3-14わくわく健康プラザ南棟2階","lat":35.74133,"lon":139.50406},{"name":"東久留米市子ども家庭支援センター","province":"東京都","city":"東久留米市","address":"東久留米市滝山4-3-14わくわく健康プラザ南棟2階","lat":35.74221,"lon":139.50792},{"name":"東久留米総合高等学校","province":"東京都","city":"東久留米市","address":"東京都東久留米市幸町5丁目8-46","lat":35.76245241,"lon":139.51957291},{"name":"久留米西高等学校","province":"東京都","city":"東久留米市","address":"東京都東久留米市野火止2丁目1-44","lat":35.76190233,"lon":139.51246801},{"name":"あいる","province":"東京都","city":"東久留米市","address":"東久留米市新川町1-9-26","lat":35.761545,"lon":139.536855},{"name":"てんとうむし","province":"東京都","city":"東久留米市","address":"東久留米市南町4-9-21","lat":35.744366,"lon":139.52214},{"name":"だっく","province":"東京都","city":"東久留米市","address":"東久留米市八幡町1-1-12","lat":35.757436,"lon":139.513174},{"name":"ぐ～す","province":"東京都","city":"東久留米市","address":"東久留米市八幡町2-13-29","lat":35.755661,"lon":139.513543},{"name":"シュプロス東久留米教室","province":"東京都","city":"東久留米市","address":"東久留米市八幡町2-4-18グランドール1階店舗","lat":35.754612,"lon":139.513713},{"name":"しおん学園","province":"東京都","city":"東久留米市","address":"東久留米市下里7-8-20","lat":35.759916,"lon":139.502927},{"name":"放課後等デイサービス　カーリッジ東久留米","province":"東京都","city":"東久留米市","address":"東久留米市下里3-23-13アズセナ101号室","lat":35.753425,"lon":139.500275},{"name":"このみ","province":"東京都","city":"東久留米市","address":"東久留米市幸町3-8-23","lat":35.758264,"lon":139.51912},{"name":"東久留米市子ども家庭支援センター","province":"東京都","city":"東久留米市","address":"東久留米市滝山4-3-14わくわく健康プラザ南棟2階","lat":35.742288,"lon":139.504483},{"name":"東久留米市子ども家庭支援センター","province":"東京都","city":"東久留米市","address":"東久留米市滝山4-3-14わくわく健康プラザ南棟2階","lat":35.74133,"lon":139.50406},{"name":"東久留米市子ども家庭支援センター","province":"東京都","city":"東久留米市","address":"東久留米市滝山4-3-14わくわく健康プラザ南棟2階","lat":35.74221,"lon":139.50792},{"name":"東久留米総合高等学校","province":"東京都","city":"東久留米市","address":"東京都東久留米市幸町5丁目8-46","lat":35.76245241,"lon":139.51957291},{"name":"久留米西高等学校","province":"東京都","city":"東久留米市","address":"東京都東久留米市野火止2丁目1-44","lat":35.76190233,"lon":139.51246801},{"name":"あいる","province":"東京都","city":"東久留米市","address":"東久留米市新川町1-9-26","lat":35.761545,"lon":139.536855},{"name":"てんとうむし","province":"東京都","city":"東久留米市","address":"東久留米市南町4-9-21","lat":35.744366,"lon":139.52214},{"name":"だっく","province":"東京都","city":"東久留米市","address":"東久留米市八幡町1-1-12","lat":35.757436,"lon":139.513174},{"name":"ぐ～す","province":"東京都","city":"東久留米市","address":"東久留米市八幡町2-13-29","lat":35.755661,"lon":139.513543},{"name":"シュプロス東久留米教室","province":"東京都","city":"東久留米市","address":"東久留米市八幡町2-4-18グランドール1階店舗","lat":35.754612,"lon":139.513713},{"name":"しおん学園","province":"東京都","city":"東久留米市","address":"東久留米市下里7-8-20","lat":35.759916,"lon":139.502927},{"name":"放課後等デイサービス　カーリッジ東久留米","province":"東京都","city":"東久留米市","address":"東久留米市下里3-23-13アズセナ101号室","lat":35.753425,"lon":139.500275},{"name":"このみ","province":"東京都","city":"東久留米市","address":"東久留米市幸町3-8-23","lat":35.758264,"lon":139.51912},{"name":"東久留米市子ども家庭支援センター","province":"東京都","city":"東久留米市","address":"東久留米市滝山4-3-14わくわく健康プラザ南棟2階","lat":35.742288,"lon":139.504483},{"name":"東久留米市子ども家庭支援センター","province":"東京都","city":"東久留米市","address":"東久留米市滝山4-3-14わくわく健康プラザ南棟2階","lat":35.74133,"lon":139.50406},{"name":"東久留米市子ども家庭支援センター","province":"東京都","city":"東久留米市","address":"東久留米市滝山4-3-14わくわく健康プラザ南棟2階","lat":35.74221,"lon":139.50792},{"name":"東久留米総合高等学校","province":"東京都","city":"東久留米市","address":"東京都東久留米市幸町5丁目8-46","lat":35.76245241,"lon":139.51957291},{"name":"久留米西高等学校","province":"東京都","city":"東久留米市","address":"東京都東久留米市野火止2丁目1-44","lat":35.76190233,"lon":139.51246801},{"name":"あいる","province":"東京都","city":"東久留米市","address":"東久留米市新川町1-9-26","lat":35.761545,"lon":139.536855},{"name":"てんとうむし","province":"東京都","city":"東久留米市","address":"東久留米市南町4-9-21","lat":35.744366,"lon":139.52214},{"name":"だっく","province":"東京都","city":"東久留米市","address":"東久留米市八幡町1-1-12","lat":35.757436,"lon":139.513174},{"name":"ぐ～す","province":"東京都","city":"東久留米市","address":"東久留米市八幡町2-13-29","lat":35.755661,"lon":139.513543},{"name":"シュプロス東久留米教室","province":"東京都","city":"東久留米市","address":"東久留米市八幡町2-4-18グランドール1階店舗","lat":35.754612,"lon":139.513713},{"name":"しおん学園","province":"東京都","city":"東久留米市","address":"東久留米市下里7-8-20","lat":35.759916,"lon":139.502927},{"name":"放課後等デイサービス　カーリッジ東久留米","province":"東京都","city":"東久留米市","address":"東久留米市下里3-23-13アズセナ101号室","lat":35.753425,"lon":139.500275},{"name":"このみ","province":"東京都","city":"東久留米市","address":"東久留米市幸町3-8-23","lat":35.758264,"lon":139.51912},{"name":"東久留米市子ども家庭支援センター","province":"東京都","city":"東久留米市","address":"東久留米市滝山4-3-14わくわく健康プラザ南棟2階","lat":35.742288,"lon":139.504483},{"name":"東久留米市子ども家庭支援センター","province":"東京都","city":"東久留米市","address":"東久留米市滝山4-3-14わくわく健康プラザ南棟2階","lat":35.74133,"lon":139.50406},{"name":"東久留米市子ども家庭支援センター","province":"東京都","city":"東久留米市","address":"東久留米市滝山4-3-14わくわく健康プラザ南棟2階","lat":35.74221,"lon":139.50792},{"name":"東久留米総合高等学校","province":"東京都","city":"東久留米市","address":"東京都東久留米市幸町5丁目8-46","lat":35.76245241,"lon":139.51957291},{"name":"久留米西高等学校","province":"東京都","city":"東久留米市","address":"東京都東久留米市野火止2丁目1-44","lat":35.76190233,"lon":139.51246801},{"name":"あいる","province":"東京都","city":"東久留米市","address":"東久留米市新川町1-9-26","lat":35.761545,"lon":139.536855},{"name":"てんとうむし","province":"東京都","city":"東久留米市","address":"東久留米市南町4-9-21","lat":35.744366,"lon":139.52214},{"name":"だっく","province":"東京都","city":"東久留米市","address":"東久留米市八幡町1-1-12","lat":35.757436,"lon":139.513174},{"name":"ぐ～す","province":"東京都","city":"東久留米市","address":"東久留米市八幡町2-13-29","lat":35.755661,"lon":139.513543},{"name":"シュプロス東久留米教室","province":"東京都","city":"東久留米市","address":"東久留米市八幡町2-4-18グランドール1階店舗","lat":35.754612,"lon":139.513713},{"name":"しおん学園","province":"東京都","city":"東久留米市","address":"東久留米市下里7-8-20","lat":35.759916,"lon":139.502927},{"name":"放課後等デイサービス　カーリッジ東久留米","province":"東京都","city":"東久留米市","address":"東久留米市下里3-23-13アズセナ101号室","lat":35.753425,"lon":139.500275},{"name":"このみ","province":"東京都","city":"東久留米市","address":"東久留米市幸町3-8-23","lat":35.758264,"lon":139.51912},{"name":"東久留米市子ども家庭支援センター","province":"東京都","city":"東久留米市","address":"東久留米市滝山4-3-14わくわく健康プラザ南棟2階","lat":35.742288,"lon":139.504483},{"name":"東久留米市子ども家庭支援センター","province":"東京都","city":"東久留米市","address":"東久留米市滝山4-3-14わくわく健康プラザ南棟2階","lat":35.74133,"lon":139.50406},{"name":"東久留米市子ども家庭支援センター","province":"東京都","city":"東久留米市","address":"東久留米市滝山4-3-14わくわく健康プラザ南棟2階","lat":35.74221,"lon":139.50792},{"name":"東久留米総合高等学校","province":"東京都","city":"東久留米市","address":"東京都東久留米市幸町5丁目8-46","lat":35.76245241,"lon":139.51957291},{"name":"久留米西高等学校","province":"東京都","city":"東久留米市","address":"東京都東久留米市野火止2丁目1-44","lat":35.76190233,"lon":139.51246801},{"name":"あいる","province":"東京都","city":"東久留米市","address":"東久留米市新川町1-9-26","lat":35.761545,"lon":139.536855},{"name":"てんとうむし","province":"東京都","city":"東久留米市","address":"東久留米市南町4-9-21","lat":35.744366,"lon":139.52214},{"name":"だっく","province":"東京都","city":"東久留米市","address":"東久留米市八幡町1-1-12","lat":35.757436,"lon":139.513174},{"name":"ぐ～す","province":"東京都","city":"東久留米市","address":"東久留米市八幡町2-13-29","lat":35.755661,"lon":139.513543},{"name":"シュプロス東久留米教室","province":"東京都","city":"東久留米市","address":"東久留米市八幡町2-4-18グランドール1階店舗","lat":35.754612,"lon":139.513713},{"name":"しおん学園","province":"東京都","city":"東久留米市","address":"東久留米市下里7-8-20","lat":35.759916,"lon":139.502927},{"name":"放課後等デイサービス　カーリッジ東久留米","province":"東京都","city":"東久留米市","address":"東久留米市下里3-23-13アズセナ101号室","lat":35.753425,"lon":139.500275},{"name":"このみ","province":"東京都","city":"東久留米市","address":"東久留米市幸町3-8-23","lat":35.758264,"lon":139.51912},{"name":"東久留米市子ども家庭支援センター","province":"東京都","city":"東久留米市","address":"東久留米市滝山4-3-14わくわく健康プラザ南棟2階","lat":35.742288,"lon":139.504483},{"name":"東久留米市子ども家庭支援センター","province":"東京都","city":"東久留米市","address":"東久留米市滝山4-3-14わくわく健康プラザ南棟2階","lat":35.74133,"lon":139.50406},{"name":"東久留米市子ども家庭支援センター","province":"東京都","city":"東久留米市","address":"東久留米市滝山4-3-14わくわく健康プラザ南棟2階","lat":35.74221,"lon":139.50792},{"name":"東久留米総合高等学校","province":"東京都","city":"東久留米市","address":"東京都東久留米市幸町5丁目8-46","lat":35.76245241,"lon":139.51957291},{"name":"久留米西高等学校","province":"東京都","city":"東久留米市","address":"東京都東久留米市野火止2丁目1-44","lat":35.76190233,"lon":139.51246801},{"name":"あいる","province":"東京都","city":"東久留米市","address":"東久留米市新川町1-9-26","lat":35.761545,"lon":139.536855},{"name":"てんとうむし","province":"東京都","city":"東久留米市","address":"東久留米市南町4-9-21","lat":35.744366,"lon":139.52214},{"name":"だっく","province":"東京都","city":"東久留米市","address":"東久留米市八幡町1-1-12","lat":35.757436,"lon":139.513174},{"name":"ぐ～す","province":"東京都","city":"東久留米市","address":"東久留米市八幡町2-13-29","lat":35.755661,"lon":139.513543},{"name":"シュプロス東久留米教室","province":"東京都","city":"東久留米市","address":"東久留米市八幡町2-4-18グランドール1階店舗","lat":35.754612,"lon":139.513713},{"name":"しおん学園","province":"東京都","city":"東久留米市","address":"東久留米市下里7-8-20","lat":35.759916,"lon":139.502927},{"name":"放課後等デイサービス　カーリッジ東久留米","province":"東京都","city":"東久留米市","address":"東久留米市下里3-23-13アズセナ101号室","lat":35.753425,"lon":139.500275},{"name":"このみ","province":"東京都","city":"東久留米市","address":"東久留米市幸町3-8-23","lat":35.758264,"lon":139.51912},{"name":"東久留米市子ども家庭支援センター","province":"東京都","city":"東久留米市","address":"東久留米市滝山4-3-14わくわく健康プラザ南棟2階","lat":35.742288,"lon":139.504483},{"name":"東久留米市子ども家庭支援センター","province":"東京都","city":"東久留米市","address":"東久留米市滝山4-3-14わくわく健康プラザ南棟2階","lat":35.74133,"lon":139.50406},{"name":"東久留米市子ども家庭支援センター","province":"東京都","city":"東久留米市","address":"東久留米市滝山4-3-14わくわく健康プラザ南棟2階","lat":35.74221,"lon":139.50792},{"name":"東久留米総合高等学校","province":"東京都","city":"東久留米市","address":"東京都東久留米市幸町5丁目8-46","lat":35.76245241,"lon":139.51957291},{"name":"久留米西高等学校","province":"東京都","city":"東久留米市","address":"東京都東久留米市野火止2丁目1-44","lat":35.76190233,"lon":139.51246801},{"name":"あいる","province":"東京都","city":"東久留米市","address":"東久留米市新川町1-9-26","lat":35.761545,"lon":139.536855},{"name":"てんとうむし","province":"東京都","city":"東久留米市","address":"東久留米市南町4-9-21","lat":35.744366,"lon":139.52214},{"name":"だっく","province":"東京都","city":"東久留米市","address":"東久留米市八幡町1-1-12","lat":35.757436,"lon":139.513174},{"name":"ぐ～す","province":"東京都","city":"東久留米市","address":"東久留米市八幡町2-13-29","lat":35.755661,"lon":139.513543},{"name":"シュプロス東久留米教室","province":"東京都","city":"東久留米市","address":"東久留米市八幡町2-4-18グランドール1階店舗","lat":35.754612,"lon":139.513713},{"name":"しおん学園","province":"東京都","city":"東久留米市","address":"東久留米市下里7-8-20","lat":35.759916,"lon":139.502927},{"name":"放課後等デイサービス　カーリッジ東久留米","province":"東京都","city":"東久留米市","address":"東久留米市下里3-23-13アズセナ101号室","lat":35.753425,"lon":139.500275},{"name":"このみ","province":"東京都","city":"東久留米市","address":"東久留米市幸町3-8-23","lat":35.758264,"lon":139.51912},{"name":"東久留米市子ども家庭支援センター","province":"東京都","city":"東久留米市","address":"東久留米市滝山4-3-14わくわく健康プラザ南棟2階","lat":35.742288,"lon":139.504483},{"name":"東久留米市子ども家庭支援センター","province":"東京都","city":"東久留米市","address":"東久留米市滝山4-3-14わくわく健康プラザ南棟2階","lat":35.74133,"lon":139.50406},{"name":"東久留米市子ども家庭支援センター","province":"東京都","city":"東久留米市","address":"東久留米市滝山4-3-14わくわく健康プラザ南棟2階","lat":35.74221,"lon":139.50792},{"name":"東久留米総合高等学校","province":"東京都","city":"東久留米市","address":"東京都東久留米市幸町5丁目8-46","lat":35.76245241,"lon":139.51957291},{"name":"久留米西高等学校","province":"東京都","city":"東久留米市","address":"東京都東久留米市野火止2丁目1-44","lat":35.76190233,"lon":139.51246801},{"name":"あいる","province":"東京都","city":"東久留米市","address":"東久留米市新川町1-9-26","lat":35.761545,"lon":139.536855},{"name":"てんとうむし","province":"東京都","city":"東久留米市","address":"東久留米市南町4-9-21","lat":35.744366,"lon":139.52214},{"name":"だっく","province":"東京都","city":"東久留米市","address":"東久留米市八幡町1-1-12","lat":35.757436,"lon":139.513174},{"name":"ぐ～す","province":"東京都","city":"東久留米市","address":"東久留米市八幡町2-13-29","lat":35.755661,"lon":139.513543},{"name":"シュプロス東久留米教室","province":"東京都","city":"東久留米市","address":"東久留米市八幡町2-4-18グランドール1階店舗","lat":35.754612,"lon":139.513713},{"name":"しおん学園","province":"東京都","city":"東久留米市","address":"東久留米市下里7-8-20","lat":35.759916,"lon":139.502927},{"name":"放課後等デイサービス　カーリッジ東久留米","province":"東京都","city":"東久留米市","address":"東久留米市下里3-23-13アズセナ101号室","lat":35.753425,"lon":139.500275},{"name":"このみ","province":"東京都","city":"東久留米市","address":"東久留米市幸町3-8-23","lat":35.758264,"lon":139.51912},{"name":"東久留米市子ども家庭支援センター","province":"東京都","city":"東久留米市","address":"東久留米市滝山4-3-14わくわく健康プラザ南棟2階","lat":35.742288,"lon":139.504483},{"name":"東久留米市子ども家庭支援センター","province":"東京都","city":"東久留米市","address":"東久留米市滝山4-3-14わくわく健康プラザ南棟2階","lat":35.74133,"lon":139.50406},{"name":"東久留米市子ども家庭支援センター","province":"東京都","city":"東久留米市","address":"東久留米市滝山4-3-14わくわく健康プラザ南棟2階","lat":35.74221,"lon":139.50792},{"name":"東久留米総合高等学校","province":"東京都","city":"東久留米市","address":"東京都東久留米市幸町5丁目8-46","lat":35.76245241,"lon":139.51957291},{"name":"久留米西高等学校","province":"東京都","city":"東久留米市","address":"東京都東久留米市野火止2丁目1-44","lat":35.76190233,"lon":139.51246801},{"name":"あいる","province":"東京都","city":"東久留米市","address":"東久留米市新川町1-9-26","lat":35.761545,"lon":139.536855},{"name":"てんとうむし","province":"東京都","city":"東久留米市","address":"東久留米市南町4-9-21","lat":35.744366,"lon":139.52214},{"name":"だっく","province":"東京都","city":"東久留米市","address":"東久留米市八幡町1-1-12","lat":35.757436,"lon":139.513174},{"name":"ぐ～す","province":"東京都","city":"東久留米市","address":"東久留米市八幡町2-13-29","lat":35.755661,"lon":139.513543},{"name":"シュプロス東久留米教室","province":"東京都","city":"東久留米市","address":"東久留米市八幡町2-4-18グランドール1階店舗","lat":35.754612,"lon":139.513713},{"name":"しおん学園","province":"東京都","city":"東久留米市","address":"東久留米市下里7-8-20","lat":35.759916,"lon":139.502927},{"name":"放課後等デイサービス　カーリッジ東久留米","province":"東京都","city":"東久留米市","address":"東久留米市下里3-23-13アズセナ101号室","lat":35.753425,"lon":139.500275},{"name":"このみ","province":"東京都","city":"東久留米市","address":"東久留米市幸町3-8-23","lat":35.758264,"lon":139.51912},{"name":"東久留米市子ども家庭支援センター","province":"東京都","city":"東久留米市","address":"東久留米市滝山4-3-14わくわく健康プラザ南棟2階","lat":35.742288,"lon":139.504483},{"name":"東久留米市子ども家庭支援センター","province":"東京都","city":"東久留米市","address":"東久留米市滝山4-3-14わくわく健康プラザ南棟2階","lat":35.74133,"lon":139.50406},{"name":"東久留米市子ども家庭支援センター","province":"東京都","city":"東久留米市","address":"東久留米市滝山4-3-14わくわく健康プラザ南棟2階","lat":35.74221,"lon":139.50792},{"name":"東久留米総合高等学校","province":"東京都","city":"東久留米市","address":"東京都東久留米市幸町5丁目8-46","lat":35.76245241,"lon":139.51957291},{"name":"久留米西高等学校","province":"東京都","city":"東久留米市","address":"東京都東久留米市野火止2丁目1-44","lat":35.76190233,"lon":139.51246801},{"name":"あいる","province":"東京都","city":"東久留米市","address":"東久留米市新川町1-9-26","lat":35.761545,"lon":139.536855},{"name":"てんとうむし","province":"東京都","city":"東久留米市","address":"東久留米市南町4-9-21","lat":35.744366,"lon":139.52214},{"name":"だっく","province":"東京都","city":"東久留米市","address":"東久留米市八幡町1-1-12","lat":35.757436,"lon":139.513174},{"name":"ぐ～す","province":"東京都","city":"東久留米市","address":"東久留米市八幡町2-13-29","lat":35.755661,"lon":139.513543},{"name":"シュプロス東久留米教室","province":"東京都","city":"東久留米市","address":"東久留米市八幡町2-4-18グランドール1階店舗","lat":35.754612,"lon":139.513713},{"name":"しおん学園","province":"東京都","city":"東久留米市","address":"東久留米市下里7-8-20","lat":35.759916,"lon":139.502927},{"name":"放課後等デイサービス　カーリッジ東久留米","province":"東京都","city":"東久留米市","address":"東久留米市下里3-23-13アズセナ101号室","lat":35.753425,"lon":139.500275},{"name":"このみ","province":"東京都","city":"東久留米市","address":"東久留米市幸町3-8-23","lat":35.758264,"lon":139.51912},{"name":"東久留米市子ども家庭支援センター","province":"東京都","city":"東久留米市","address":"東久留米市滝山4-3-14わくわく健康プラザ南棟2階","lat":35.742288,"lon":139.504483},{"name":"東久留米市子ども家庭支援センター","province":"東京都","city":"東久留米市","address":"東久留米市滝山4-3-14わくわく健康プラザ南棟2階","lat":35.74133,"lon":139.50406},{"name":"東久留米市子ども家庭支援センター","province":"東京都","city":"東久留米市","address":"東久留米市滝山4-3-14わくわく健康プラザ南棟2階","lat":35.74221,"lon":139.50792},{"name":"あいる","province":"東京都","city":"東久留米市","address":"東久留米市新川町1-9-26","lat":35.761545,"lon":139.536855},{"name":"てんとうむし","province":"東京都","city":"東久留米市","address":"東久留米市南町4-9-21","lat":35.744366,"lon":139.52214},{"name":"だっく","province":"東京都","city":"東久留米市","address":"東久留米市八幡町1-1-12","lat":35.757436,"lon":139.513174},{"name":"ぐ～す","province":"東京都","city":"東久留米市","address":"東久留米市八幡町2-13-29","lat":35.755661,"lon":139.513543},{"name":"シュプロス東久留米教室","province":"東京都","city":"東久留米市","address":"東久留米市八幡町2-4-18グランドール1階店舗","lat":35.754612,"lon":139.513713},{"name":"しおん学園","province":"東京都","city":"東久留米市","address":"東久留米市下里7-8-20","lat":35.759916,"lon":139.502927},{"name":"放課後等デイサービス　カーリッジ東久留米","province":"東京都","city":"東久留米市","address":"東久留米市下里3-23-13アズセナ101号室","lat":35.753425,"lon":139.500275},{"name":"このみ","province":"東京都","city":"東久留米市","address":"東久留米市幸町3-8-23","lat":35.758264,"lon":139.51912},{"name":"東久留米市子ども家庭支援センター","province":"東京都","city":"東久留米市","address":"東久留米市滝山4-3-14わくわく健康プラザ南棟2階","lat":35.742288,"lon":139.504483},{"name":"東久留米市子ども家庭支援センター","province":"東京都","city":"東久留米市","address":"東久留米市滝山4-3-14わくわく健康プラザ南棟2階","lat":35.74133,"lon":139.50406},{"name":"東久留米市子ども家庭支援センター","province":"東京都","city":"東久留米市","address":"東久留米市滝山4-3-14わくわく健康プラザ南棟2階","lat":35.74221,"lon":139.50792},{"name":"あいる","province":"東京都","city":"東久留米市","address":"東久留米市新川町1-9-26","lat":35.761545,"lon":139.536855},{"name":"てんとうむし","province":"東京都","city":"東久留米市","address":"東久留米市南町4-9-21","lat":35.744366,"lon":139.52214},{"name":"だっく","province":"東京都","city":"東久留米市","address":"東久留米市八幡町1-1-12","lat":35.757436,"lon":139.513174},{"name":"ぐ～す","province":"東京都","city":"東久留米市","address":"東久留米市八幡町2-13-29","lat":35.755661,"lon":139.513543},{"name":"シュプロス東久留米教室","province":"東京都","city":"東久留米市","address":"東久留米市八幡町2-4-18グランドール1階店舗","lat":35.754612,"lon":139.513713},{"name":"しおん学園","province":"東京都","city":"東久留米市","address":"東久留米市下里7-8-20","lat":35.759916,"lon":139.502927},{"name":"放課後等デイサービス　カーリッジ東久留米","province":"東京都","city":"東久留米市","address":"東久留米市下里3-23-13アズセナ101号室","lat":35.753425,"lon":139.500275},{"name":"このみ","province":"東京都","city":"東久留米市","address":"東久留米市幸町3-8-23","lat":35.758264,"lon":139.51912},{"name":"東久留米市子ども家庭支援センター","province":"東京都","city":"東久留米市","address":"東久留米市滝山4-3-14わくわく健康プラザ南棟2階","lat":35.742288,"lon":139.504483},{"name":"東久留米市子ども家庭支援センター","province":"東京都","city":"東久留米市","address":"東久留米市滝山4-3-14わくわく健康プラザ南棟2階","lat":35.74133,"lon":139.50406},{"name":"東久留米市子ども家庭支援センター","province":"東京都","city":"東久留米市","address":"東久留米市滝山4-3-14わくわく健康プラザ南棟2階","lat":35.74221,"lon":139.50792},{"name":"あいる","province":"東京都","city":"東久留米市","address":"東久留米市新川町1-9-26","lat":35.761545,"lon":139.536855},{"name":"てんとうむし","province":"東京都","city":"東久留米市","address":"東久留米市南町4-9-21","lat":35.744366,"lon":139.52214},{"name":"だっく","province":"東京都","city":"東久留米市","address":"東久留米市八幡町1-1-12","lat":35.757436,"lon":139.513174},{"name":"ぐ～す","province":"東京都","city":"東久留米市","address":"東久留米市八幡町2-13-29","lat":35.755661,"lon":139.513543},{"name":"シュプロス東久留米教室","province":"東京都","city":"東久留米市","address":"東久留米市八幡町2-4-18グランドール1階店舗","lat":35.754612,"lon":139.513713},{"name":"しおん学園","province":"東京都","city":"東久留米市","address":"東久留米市下里7-8-20","lat":35.759916,"lon":139.502927},{"name":"放課後等デイサービス　カーリッジ東久留米","province":"東京都","city":"東久留米市","address":"東久留米市下里3-23-13アズセナ101号室","lat":35.753425,"lon":139.500275},{"name":"このみ","province":"東京都","city":"東久留米市","address":"東久留米市幸町3-8-23","lat":35.758264,"lon":139.51912},{"name":"東久留米市子ども家庭支援センター","province":"東京都","city":"東久留米市","address":"東久留米市滝山4-3-14わくわく健康プラザ南棟2階","lat":35.742288,"lon":139.504483},{"name":"東久留米市子ども家庭支援センター","province":"東京都","city":"東久留米市","address":"東久留米市滝山4-3-14わくわく健康プラザ南棟2階","lat":35.74133,"lon":139.50406},{"name":"東久留米市子ども家庭支援センター","province":"東京都","city":"東久留米市","address":"東久留米市滝山4-3-14わくわく健康プラザ南棟2階","lat":35.74221,"lon":139.50792},{"name":"あいる","province":"東京都","city":"東久留米市","address":"東久留米市新川町1-9-26","lat":35.761545,"lon":139.536855},{"name":"てんとうむし","province":"東京都","city":"東久留米市","address":"東久留米市南町4-9-21","lat":35.744366,"lon":139.52214},{"name":"だっく","province":"東京都","city":"東久留米市","address":"東久留米市八幡町1-1-12","lat":35.757436,"lon":139.513174},{"name":"ぐ～す","province":"東京都","city":"東久留米市","address":"東久留米市八幡町2-13-29","lat":35.755661,"lon":139.513543},{"name":"シュプロス東久留米教室","province":"東京都","city":"東久留米市","address":"東久留米市八幡町2-4-18グランドール1階店舗","lat":35.754612,"lon":139.513713},{"name":"しおん学園","province":"東京都","city":"東久留米市","address":"東久留米市下里7-8-20","lat":35.759916,"lon":139.502927},{"name":"放課後等デイサービス　カーリッジ東久留米","province":"東京都","city":"東久留米市","address":"東久留米市下里3-23-13アズセナ101号室","lat":35.753425,"lon":139.500275},{"name":"このみ","province":"東京都","city":"東久留米市","address":"東久留米市幸町3-8-23","lat":35.758264,"lon":139.51912},{"name":"東久留米市子ども家庭支援センター","province":"東京都","city":"東久留米市","address":"東久留米市滝山4-3-14わくわく健康プラザ南棟2階","lat":35.742288,"lon":139.504483},{"name":"東久留米市子ども家庭支援センター","province":"東京都","city":"東久留米市","address":"東久留米市滝山4-3-14わくわく健康プラザ南棟2階","lat":35.74133,"lon":139.50406},{"name":"東久留米市子ども家庭支援センター","province":"東京都","city":"東久留米市","address":"東久留米市滝山4-3-14わくわく健康プラザ南棟2階","lat":35.74221,"lon":139.50792},{"name":"あいる","province":"東京都","city":"東久留米市","address":"東久留米市新川町1-9-26","lat":35.761545,"lon":139.536855},{"name":"てんとうむし","province":"東京都","city":"東久留米市","address":"東久留米市南町4-9-21","lat":35.744366,"lon":139.52214},{"name":"だっく","province":"東京都","city":"東久留米市","address":"東久留米市八幡町1-1-12","lat":35.757436,"lon":139.513174},{"name":"ぐ～す","province":"東京都","city":"東久留米市","address":"東久留米市八幡町2-13-29","lat":35.755661,"lon":139.513543},{"name":"シュプロス東久留米教室","province":"東京都","city":"東久留米市","address":"東久留米市八幡町2-4-18グランドール1階店舗","lat":35.754612,"lon":139.513713},{"name":"しおん学園","province":"東京都","city":"東久留米市","address":"東久留米市下里7-8-20","lat":35.759916,"lon":139.502927},{"name":"放課後等デイサービス　カーリッジ東久留米","province":"東京都","city":"東久留米市","address":"東久留米市下里3-23-13アズセナ101号室","lat":35.753425,"lon":139.500275},{"name":"このみ","province":"東京都","city":"東久留米市","address":"東久留米市幸町3-8-23","lat":35.758264,"lon":139.51912},{"name":"東久留米市子ども家庭支援センター","province":"東京都","city":"東久留米市","address":"東久留米市滝山4-3-14わくわく健康プラザ南棟2階","lat":35.742288,"lon":139.504483},{"name":"東久留米市子ども家庭支援センター","province":"東京都","city":"東久留米市","address":"東久留米市滝山4-3-14わくわく健康プラザ南棟2階","lat":35.74133,"lon":139.50406},{"name":"東久留米市子ども家庭支援センター","province":"東京都","city":"東久留米市","address":"東久留米市滝山4-3-14わくわく健康プラザ南棟2階","lat":35.74221,"lon":139.50792},{"name":"あいる","province":"東京都","city":"東久留米市","address":"東久留米市新川町1-9-26","lat":35.761545,"lon":139.536855},{"name":"てんとうむし","province":"東京都","city":"東久留米市","address":"東久留米市南町4-9-21","lat":35.744366,"lon":139.52214},{"name":"だっく","province":"東京都","city":"東久留米市","address":"東久留米市八幡町1-1-12","lat":35.757436,"lon":139.513174},{"name":"ぐ～す","province":"東京都","city":"東久留米市","address":"東久留米市八幡町2-13-29","lat":35.755661,"lon":139.513543},{"name":"シュプロス東久留米教室","province":"東京都","city":"東久留米市","address":"東久留米市八幡町2-4-18グランドール1階店舗","lat":35.754612,"lon":139.513713},{"name":"しおん学園","province":"東京都","city":"東久留米市","address":"東久留米市下里7-8-20","lat":35.759916,"lon":139.502927},{"name":"放課後等デイサービス　カーリッジ東久留米","province":"東京都","city":"東久留米市","address":"東久留米市下里3-23-13アズセナ101号室","lat":35.753425,"lon":139.500275},{"name":"このみ","province":"東京都","city":"東久留米市","address":"東久留米市幸町3-8-23","lat":35.758264,"lon":139.51912},{"name":"東久留米市子ども家庭支援センター","province":"東京都","city":"東久留米市","address":"東久留米市滝山4-3-14わくわく健康プラザ南棟2階","lat":35.742288,"lon":139.504483},{"name":"東久留米市子ども家庭支援センター","province":"東京都","city":"東久留米市","address":"東久留米市滝山4-3-14わくわく健康プラザ南棟2階","lat":35.74133,"lon":139.50406},{"name":"東久留米市子ども家庭支援センター","province":"東京都","city":"東久留米市","address":"東久留米市滝山4-3-14わくわく健康プラザ南棟2階","lat":35.74221,"lon":139.50792},{"name":"あいる","province":"東京都","city":"東久留米市","address":"東久留米市新川町1-9-26","lat":35.761545,"lon":139.536855},{"name":"てんとうむし","province":"東京都","city":"東久留米市","address":"東久留米市南町4-9-21","lat":35.744366,"lon":139.52214},{"name":"だっく","province":"東京都","city":"東久留米市","address":"東久留米市八幡町1-1-12","lat":35.757436,"lon":139.513174},{"name":"ぐ～す","province":"東京都","city":"東久留米市","address":"東久留米市八幡町2-13-29","lat":35.755661,"lon":139.513543},{"name":"シュプロス東久留米教室","province":"東京都","city":"東久留米市","address":"東久留米市八幡町2-4-18グランドール1階店舗","lat":35.754612,"lon":139.513713},{"name":"しおん学園","province":"東京都","city":"東久留米市","address":"東久留米市下里7-8-20","lat":35.759916,"lon":139.502927},{"name":"放課後等デイサービス　カーリッジ東久留米","province":"東京都","city":"東久留米市","address":"東久留米市下里3-23-13アズセナ101号室","lat":35.753425,"lon":139.500275},{"name":"このみ","province":"東京都","city":"東久留米市","address":"東久留米市幸町3-8-23","lat":35.758264,"lon":139.51912},{"name":"東久留米市子ども家庭支援センター","province":"東京都","city":"東久留米市","address":"東久留米市滝山4-3-14わくわく健康プラザ南棟2階","lat":35.742288,"lon":139.504483},{"name":"東久留米市子ども家庭支援センター","province":"東京都","city":"東久留米市","address":"東久留米市滝山4-3-14わくわく健康プラザ南棟2階","lat":35.74133,"lon":139.50406},{"name":"東久留米市子ども家庭支援センター","province":"東京都","city":"東久留米市","address":"東久留米市滝山4-3-14わくわく健康プラザ南棟2階","lat":35.74221,"lon":139.50792},{"name":"あいる","province":"東京都","city":"東久留米市","address":"東久留米市新川町1-9-26","lat":35.761545,"lon":139.536855},{"name":"てんとうむし","province":"東京都","city":"東久留米市","address":"東久留米市南町4-9-21","lat":35.744366,"lon":139.52214},{"name":"だっく","province":"東京都","city":"東久留米市","address":"東久留米市八幡町1-1-12","lat":35.757436,"lon":139.513174},{"name":"ぐ～す","province":"東京都","city":"東久留米市","address":"東久留米市八幡町2-13-29","lat":35.755661,"lon":139.513543},{"name":"シュプロス東久留米教室","province":"東京都","city":"東久留米市","address":"東久留米市八幡町2-4-18グランドール1階店舗","lat":35.754612,"lon":139.513713},{"name":"しおん学園","province":"東京都","city":"東久留米市","address":"東久留米市下里7-8-20","lat":35.759916,"lon":139.502927},{"name":"放課後等デイサービス　カーリッジ東久留米","province":"東京都","city":"東久留米市","address":"東久留米市下里3-23-13アズセナ101号室","lat":35.753425,"lon":139.500275},{"name":"このみ","province":"東京都","city":"東久留米市","address":"東久留米市幸町3-8-23","lat":35.758264,"lon":139.51912},{"name":"東久留米市子ども家庭支援センター","province":"東京都","city":"東久留米市","address":"東久留米市滝山4-3-14わくわく健康プラザ南棟2階","lat":35.742288,"lon":139.504483},{"name":"東久留米市子ども家庭支援センター","province":"東京都","city":"東久留米市","address":"東久留米市滝山4-3-14わくわく健康プラザ南棟2階","lat":35.74133,"lon":139.50406},{"name":"東久留米市子ども家庭支援センター","province":"東京都","city":"東久留米市","address":"東久留米市滝山4-3-14わくわく健康プラザ南棟2階","lat":35.74221,"lon":139.50792},{"name":"あいる","province":"東京都","city":"東久留米市","address":"東久留米市新川町1-9-26","lat":35.761545,"lon":139.536855},{"name":"てんとうむし","province":"東京都","city":"東久留米市","address":"東久留米市南町4-9-21","lat":35.744366,"lon":139.52214},{"name":"だっく","province":"東京都","city":"東久留米市","address":"東久留米市八幡町1-1-12","lat":35.757436,"lon":139.513174},{"name":"ぐ～す","province":"東京都","city":"東久留米市","address":"東久留米市八幡町2-13-29","lat":35.755661,"lon":139.513543},{"name":"シュプロス東久留米教室","province":"東京都","city":"東久留米市","address":"東久留米市八幡町2-4-18グランドール1階店舗","lat":35.754612,"lon":139.513713},{"name":"しおん学園","province":"東京都","city":"東久留米市","address":"東久留米市下里7-8-20","lat":35.759916,"lon":139.502927},{"name":"放課後等デイサービス　カーリッジ東久留米","province":"東京都","city":"東久留米市","address":"東久留米市下里3-23-13アズセナ101号室","lat":35.753425,"lon":139.500275},{"name":"このみ","province":"東京都","city":"東久留米市","address":"東久留米市幸町3-8-23","lat":35.758264,"lon":139.51912},{"name":"東久留米市子ども家庭支援センター","province":"東京都","city":"東久留米市","address":"東久留米市滝山4-3-14わくわく健康プラザ南棟2階","lat":35.742288,"lon":139.504483},{"name":"東久留米市子ども家庭支援センター","province":"東京都","city":"東久留米市","address":"東久留米市滝山4-3-14わくわく健康プラザ南棟2階","lat":35.74133,"lon":139.50406},{"name":"東久留米市子ども家庭支援センター","province":"東京都","city":"東久留米市","address":"東久留米市滝山4-3-14わくわく健康プラザ南棟2階","lat":35.74221,"lon":139.50792},{"name":"あいる","province":"東京都","city":"東久留米市","address":"東久留米市新川町1-9-26","lat":35.761545,"lon":139.536855},{"name":"てんとうむし","province":"東京都","city":"東久留米市","address":"東久留米市南町4-9-21","lat":35.744366,"lon":139.52214},{"name":"だっく","province":"東京都","city":"東久留米市","address":"東久留米市八幡町1-1-12","lat":35.757436,"lon":139.513174},{"name":"ぐ～す","province":"東京都","city":"東久留米市","address":"東久留米市八幡町2-13-29","lat":35.755661,"lon":139.513543},{"name":"シュプロス東久留米教室","province":"東京都","city":"東久留米市","address":"東久留米市八幡町2-4-18グランドール1階店舗","lat":35.754612,"lon":139.513713},{"name":"しおん学園","province":"東京都","city":"東久留米市","address":"東久留米市下里7-8-20","lat":35.759916,"lon":139.502927},{"name":"放課後等デイサービス　カーリッジ東久留米","province":"東京都","city":"東久留米市","address":"東久留米市下里3-23-13アズセナ101号室","lat":35.753425,"lon":139.500275},{"name":"このみ","province":"東京都","city":"東久留米市","address":"東久留米市幸町3-8-23","lat":35.758264,"lon":139.51912},{"name":"東久留米市子ども家庭支援センター","province":"東京都","city":"東久留米市","address":"東久留米市滝山4-3-14わくわく健康プラザ南棟2階","lat":35.742288,"lon":139.504483},{"name":"東久留米市子ども家庭支援センター","province":"東京都","city":"東久留米市","address":"東久留米市滝山4-3-14わくわく健康プラザ南棟2階","lat":35.74133,"lon":139.50406},{"name":"東久留米市子ども家庭支援センター","province":"東京都","city":"東久留米市","address":"東久留米市滝山4-3-14わくわく健康プラザ南棟2階","lat":35.74221,"lon":139.50792},{"name":"あいる","province":"東京都","city":"東久留米市","address":"東久留米市新川町1-9-26","lat":35.761545,"lon":139.536855},{"name":"てんとうむし","province":"東京都","city":"東久留米市","address":"東久留米市南町4-9-21","lat":35.744366,"lon":139.52214},{"name":"だっく","province":"東京都","city":"東久留米市","address":"東久留米市八幡町1-1-12","lat":35.757436,"lon":139.513174},{"name":"ぐ～す","province":"東京都","city":"東久留米市","address":"東久留米市八幡町2-13-29","lat":35.755661,"lon":139.513543},{"name":"シュプロス東久留米教室","province":"東京都","city":"東久留米市","address":"東久留米市八幡町2-4-18グランドール1階店舗","lat":35.754612,"lon":139.513713},{"name":"しおん学園","province":"東京都","city":"東久留米市","address":"東久留米市下里7-8-20","lat":35.759916,"lon":139.502927},{"name":"放課後等デイサービス　カーリッジ東久留米","province":"東京都","city":"東久留米市","address":"東久留米市下里3-23-13アズセナ101号室","lat":35.753425,"lon":139.500275},{"name":"このみ","province":"東京都","city":"東久留米市","address":"東久留米市幸町3-8-23","lat":35.758264,"lon":139.51912},{"name":"東久留米市子ども家庭支援センター","province":"東京都","city":"東久留米市","address":"東久留米市滝山4-3-14わくわく健康プラザ南棟2階","lat":35.742288,"lon":139.504483},{"name":"東久留米市子ども家庭支援センター","province":"東京都","city":"東久留米市","address":"東久留米市滝山4-3-14わくわく健康プラザ南棟2階","lat":35.74133,"lon":139.50406},{"name":"東久留米市子ども家庭支援センター","province":"東京都","city":"東久留米市","address":"東久留米市滝山4-3-14わくわく健康プラザ南棟2階","lat":35.74221,"lon":139.50792},{"name":"あいる","province":"東京都","city":"東久留米市","address":"東久留米市新川町1-9-26","lat":35.761545,"lon":139.536855},{"name":"てんとうむし","province":"東京都","city":"東久留米市","address":"東久留米市南町4-9-21","lat":35.744366,"lon":139.52214},{"name":"だっく","province":"東京都","city":"東久留米市","address":"東久留米市八幡町1-1-12","lat":35.757436,"lon":139.513174},{"name":"ぐ～す","province":"東京都","city":"東久留米市","address":"東久留米市八幡町2-13-29","lat":35.755661,"lon":139.513543},{"name":"シュプロス東久留米教室","province":"東京都","city":"東久留米市","address":"東久留米市八幡町2-4-18グランドール1階店舗","lat":35.754612,"lon":139.513713},{"name":"しおん学園","province":"東京都","city":"東久留米市","address":"東久留米市下里7-8-20","lat":35.759916,"lon":139.502927},{"name":"放課後等デイサービス　カーリッジ東久留米","province":"東京都","city":"東久留米市","address":"東久留米市下里3-23-13アズセナ101号室","lat":35.753425,"lon":139.500275},{"name":"このみ","province":"東京都","city":"東久留米市","address":"東久留米市幸町3-8-23","lat":35.758264,"lon":139.51912},{"name":"東久留米市子ども家庭支援センター","province":"東京都","city":"東久留米市","address":"東久留米市滝山4-3-14わくわく健康プラザ南棟2階","lat":35.742288,"lon":139.504483},{"name":"東久留米市子ども家庭支援センター","province":"東京都","city":"東久留米市","address":"東久留米市滝山4-3-14わくわく健康プラザ南棟2階","lat":35.74133,"lon":139.50406},{"name":"東久留米市子ども家庭支援センター","province":"東京都","city":"東久留米市","address":"東久留米市滝山4-3-14わくわく健康プラザ南棟2階","lat":35.74221,"lon":139.50792},{"name":"あいる","province":"東京都","city":"東久留米市","address":"東久留米市新川町1-9-26","lat":35.761545,"lon":139.536855},{"name":"てんとうむし","province":"東京都","city":"東久留米市","address":"東久留米市南町4-9-21","lat":35.744366,"lon":139.52214},{"name":"だっく","province":"東京都","city":"東久留米市","address":"東久留米市八幡町1-1-12","lat":35.757436,"lon":139.513174},{"name":"ぐ～す","province":"東京都","city":"東久留米市","address":"東久留米市八幡町2-13-29","lat":35.755661,"lon":139.513543},{"name":"シュプロス東久留米教室","province":"東京都","city":"東久留米市","address":"東久留米市八幡町2-4-18グランドール1階店舗","lat":35.754612,"lon":139.513713},{"name":"しおん学園","province":"東京都","city":"東久留米市","address":"東久留米市下里7-8-20","lat":35.759916,"lon":139.502927},{"name":"放課後等デイサービス　カーリッジ東久留米","province":"東京都","city":"東久留米市","address":"東久留米市下里3-23-13アズセナ101号室","lat":35.753425,"lon":139.500275},{"name":"このみ","province":"東京都","city":"東久留米市","address":"東久留米市幸町3-8-23","lat":35.758264,"lon":139.51912},{"name":"東久留米市子ども家庭支援センター","province":"東京都","city":"東久留米市","address":"東久留米市滝山4-3-14わくわく健康プラザ南棟2階","lat":35.742288,"lon":139.504483},{"name":"東久留米市子ども家庭支援センター","province":"東京都","city":"東久留米市","address":"東久留米市滝山4-3-14わくわく健康プラザ南棟2階","lat":35.74133,"lon":139.50406},{"name":"東久留米市子ども家庭支援センター","province":"東京都","city":"東久留米市","address":"東久留米市滝山4-3-14わくわく健康プラザ南棟2階","lat":35.74221,"lon":139.50792},{"name":"あいる","province":"東京都","city":"東久留米市","address":"東久留米市新川町1-9-26","lat":35.761545,"lon":139.536855},{"name":"てんとうむし","province":"東京都","city":"東久留米市","address":"東久留米市南町4-9-21","lat":35.744366,"lon":139.52214},{"name":"だっく","province":"東京都","city":"東久留米市","address":"東久留米市八幡町1-1-12","lat":35.757436,"lon":139.513174},{"name":"ぐ～す","province":"東京都","city":"東久留米市","address":"東久留米市八幡町2-13-29","lat":35.755661,"lon":139.513543},{"name":"シュプロス東久留米教室","province":"東京都","city":"東久留米市","address":"東久留米市八幡町2-4-18グランドール1階店舗","lat":35.754612,"lon":139.513713},{"name":"しおん学園","province":"東京都","city":"東久留米市","address":"東久留米市下里7-8-20","lat":35.759916,"lon":139.502927},{"name":"放課後等デイサービス　カーリッジ東久留米","province":"東京都","city":"東久留米市","address":"東久留米市下里3-23-13アズセナ101号室","lat":35.753425,"lon":139.500275},{"name":"このみ","province":"東京都","city":"東久留米市","address":"東久留米市幸町3-8-23","lat":35.758264,"lon":139.51912},{"name":"東久留米市子ども家庭支援センター","province":"東京都","city":"東久留米市","address":"東久留米市滝山4-3-14わくわく健康プラザ南棟2階","lat":35.742288,"lon":139.504483},{"name":"東久留米市子ども家庭支援センター","province":"東京都","city":"東久留米市","address":"東久留米市滝山4-3-14わくわく健康プラザ南棟2階","lat":35.74133,"lon":139.50406},{"name":"東久留米市子ども家庭支援センター","province":"東京都","city":"東久留米市","address":"東久留米市滝山4-3-14わくわく健康プラザ南棟2階","lat":35.74221,"lon":139.50792},{"name":"あいる","province":"東京都","city":"東久留米市","address":"東久留米市新川町1-9-26","lat":35.761545,"lon":139.536855},{"name":"てんとうむし","province":"東京都","city":"東久留米市","address":"東久留米市南町4-9-21","lat":35.744366,"lon":139.52214},{"name":"だっく","province":"東京都","city":"東久留米市","address":"東久留米市八幡町1-1-12","lat":35.757436,"lon":139.513174},{"name":"ぐ～す","province":"東京都","city":"東久留米市","address":"東久留米市八幡町2-13-29","lat":35.755661,"lon":139.513543},{"name":"シュプロス東久留米教室","province":"東京都","city":"東久留米市","address":"東久留米市八幡町2-4-18グランドール1階店舗","lat":35.754612,"lon":139.513713},{"name":"しおん学園","province":"東京都","city":"東久留米市","address":"東久留米市下里7-8-20","lat":35.759916,"lon":139.502927},{"name":"放課後等デイサービス　カーリッジ東久留米","province":"東京都","city":"東久留米市","address":"東久留米市下里3-23-13アズセナ101号室","lat":35.753425,"lon":139.500275},{"name":"このみ","province":"東京都","city":"東久留米市","address":"東久留米市幸町3-8-23","lat":35.758264,"lon":139.51912},{"name":"東久留米市子ども家庭支援センター","province":"東京都","city":"東久留米市","address":"東久留米市滝山4-3-14わくわく健康プラザ南棟2階","lat":35.742288,"lon":139.504483},{"name":"東久留米市子ども家庭支援センター","province":"東京都","city":"東久留米市","address":"東久留米市滝山4-3-14わくわく健康プラザ南棟2階","lat":35.74133,"lon":139.50406},{"name":"東久留米市子ども家庭支援センター","province":"東京都","city":"東久留米市","address":"東久留米市滝山4-3-14わくわく健康プラザ南棟2階","lat":35.74221,"lon":139.50792},{"name":"あいる","province":"東京都","city":"東久留米市","address":"東久留米市新川町1-9-26","lat":35.761545,"lon":139.536855},{"name":"てんとうむし","province":"東京都","city":"東久留米市","address":"東久留米市南町4-9-21","lat":35.744366,"lon":139.52214},{"name":"だっく","province":"東京都","city":"東久留米市","address":"東久留米市八幡町1-1-12","lat":35.757436,"lon":139.513174},{"name":"ぐ～す","province":"東京都","city":"東久留米市","address":"東久留米市八幡町2-13-29","lat":35.755661,"lon":139.513543},{"name":"シュプロス東久留米教室","province":"東京都","city":"東久留米市","address":"東久留米市八幡町2-4-18グランドール1階店舗","lat":35.754612,"lon":139.513713},{"name":"しおん学園","province":"東京都","city":"東久留米市","address":"東久留米市下里7-8-20","lat":35.759916,"lon":139.502927},{"name":"放課後等デイサービス　カーリッジ東久留米","province":"東京都","city":"東久留米市","address":"東久留米市下里3-23-13アズセナ101号室","lat":35.753425,"lon":139.500275},{"name":"このみ","province":"東京都","city":"東久留米市","address":"東久留米市幸町3-8-23","lat":35.758264,"lon":139.51912},{"name":"東久留米市子ども家庭支援センター","province":"東京都","city":"東久留米市","address":"東久留米市滝山4-3-14わくわく健康プラザ南棟2階","lat":35.742288,"lon":139.504483},{"name":"東久留米市子ども家庭支援センター","province":"東京都","city":"東久留米市","address":"東久留米市滝山4-3-14わくわく健康プラザ南棟2階","lat":35.74133,"lon":139.50406},{"name":"東久留米市子ども家庭支援センター","province":"東京都","city":"東久留米市","address":"東久留米市滝山4-3-14わくわく健康プラザ南棟2階","lat":35.74221,"lon":139.50792},{"name":"あいる","province":"東京都","city":"東久留米市","address":"東久留米市新川町1-9-26","lat":35.761545,"lon":139.536855},{"name":"てんとうむし","province":"東京都","city":"東久留米市","address":"東久留米市南町4-9-21","lat":35.744366,"lon":139.52214},{"name":"だっく","province":"東京都","city":"東久留米市","address":"東久留米市八幡町1-1-12","lat":35.757436,"lon":139.513174},{"name":"ぐ～す","province":"東京都","city":"東久留米市","address":"東久留米市八幡町2-13-29","lat":35.755661,"lon":139.513543},{"name":"シュプロス東久留米教室","province":"東京都","city":"東久留米市","address":"東久留米市八幡町2-4-18グランドール1階店舗","lat":35.754612,"lon":139.513713},{"name":"しおん学園","province":"東京都","city":"東久留米市","address":"東久留米市下里7-8-20","lat":35.759916,"lon":139.502927},{"name":"放課後等デイサービス　カーリッジ東久留米","province":"東京都","city":"東久留米市","address":"東久留米市下里3-23-13アズセナ101号室","lat":35.753425,"lon":139.500275},{"name":"このみ","province":"東京都","city":"東久留米市","address":"東久留米市幸町3-8-23","lat":35.758264,"lon":139.51912},{"name":"東久留米市子ども家庭支援センター","province":"東京都","city":"東久留米市","address":"東久留米市滝山4-3-14わくわく健康プラザ南棟2階","lat":35.742288,"lon":139.504483},{"name":"東久留米市子ども家庭支援センター","province":"東京都","city":"東久留米市","address":"東久留米市滝山4-3-14わくわく健康プラザ南棟2階","lat":35.74133,"lon":139.50406},{"name":"東久留米市子ども家庭支援センター","province":"東京都","city":"東久留米市","address":"東久留米市滝山4-3-14わくわく健康プラザ南棟2階","lat":35.74221,"lon":139.50792},{"name":"あいる","province":"東京都","city":"東久留米市","address":"東久留米市新川町1-9-26","lat":35.761545,"lon":139.536855},{"name":"てんとうむし","province":"東京都","city":"東久留米市","address":"東久留米市南町4-9-21","lat":35.744366,"lon":139.52214},{"name":"だっく","province":"東京都","city":"東久留米市","address":"東久留米市八幡町1-1-12","lat":35.757436,"lon":139.513174},{"name":"ぐ～す","province":"東京都","city":"東久留米市","address":"東久留米市八幡町2-13-29","lat":35.755661,"lon":139.513543},{"name":"シュプロス東久留米教室","province":"東京都","city":"東久留米市","address":"東久留米市八幡町2-4-18グランドール1階店舗","lat":35.754612,"lon":139.513713},{"name":"しおん学園","province":"東京都","city":"東久留米市","address":"東久留米市下里7-8-20","lat":35.759916,"lon":139.502927},{"name":"放課後等デイサービス　カーリッジ東久留米","province":"東京都","city":"東久留米市","address":"東久留米市下里3-23-13アズセナ101号室","lat":35.753425,"lon":139.500275},{"name":"このみ","province":"東京都","city":"東久留米市","address":"東久留米市幸町3-8-23","lat":35.758264,"lon":139.51912},{"name":"東久留米市子ども家庭支援センター","province":"東京都","city":"東久留米市","address":"東久留米市滝山4-3-14わくわく健康プラザ南棟2階","lat":35.742288,"lon":139.504483},{"name":"東久留米市子ども家庭支援センター","province":"東京都","city":"東久留米市","address":"東久留米市滝山4-3-14わくわく健康プラザ南棟2階","lat":35.74133,"lon":139.50406},{"name":"東久留米市子ども家庭支援センター","province":"東京都","city":"東久留米市","address":"東久留米市滝山4-3-14わくわく健康プラザ南棟2階","lat":35.74221,"lon":139.50792},{"name":"あいる","province":"東京都","city":"東久留米市","address":"東久留米市新川町1-9-26","lat":35.761545,"lon":139.536855},{"name":"てんとうむし","province":"東京都","city":"東久留米市","address":"東久留米市南町4-9-21","lat":35.744366,"lon":139.52214},{"name":"だっく","province":"東京都","city":"東久留米市","address":"東久留米市八幡町1-1-12","lat":35.757436,"lon":139.513174},{"name":"ぐ～す","province":"東京都","city":"東久留米市","address":"東久留米市八幡町2-13-29","lat":35.755661,"lon":139.513543},{"name":"シュプロス東久留米教室","province":"東京都","city":"東久留米市","address":"東久留米市八幡町2-4-18グランドール1階店舗","lat":35.754612,"lon":139.513713},{"name":"しおん学園","province":"東京都","city":"東久留米市","address":"東久留米市下里7-8-20","lat":35.759916,"lon":139.502927},{"name":"放課後等デイサービス　カーリッジ東久留米","province":"東京都","city":"東久留米市","address":"東久留米市下里3-23-13アズセナ101号室","lat":35.753425,"lon":139.500275},{"name":"このみ","province":"東京都","city":"東久留米市","address":"東久留米市幸町3-8-23","lat":35.758264,"lon":139.51912},{"name":"東久留米市子ども家庭支援センター","province":"東京都","city":"東久留米市","address":"東久留米市滝山4-3-14わくわく健康プラザ南棟2階","lat":35.742288,"lon":139.504483},{"name":"東久留米市子ども家庭支援センター","province":"東京都","city":"東久留米市","address":"東久留米市滝山4-3-14わくわく健康プラザ南棟2階","lat":35.74133,"lon":139.50406},{"name":"東久留米市子ども家庭支援センター","province":"東京都","city":"東久留米市","address":"東久留米市滝山4-3-14わくわく健康プラザ南棟2階","lat":35.74221,"lon":139.50792},{"name":"あいる","province":"東京都","city":"東久留米市","address":"東久留米市新川町1-9-26","lat":35.761545,"lon":139.536855},{"name":"てんとうむし","province":"東京都","city":"東久留米市","address":"東久留米市南町4-9-21","lat":35.744366,"lon":139.52214},{"name":"だっく","province":"東京都","city":"東久留米市","address":"東久留米市八幡町1-1-12","lat":35.757436,"lon":139.513174},{"name":"ぐ～す","province":"東京都","city":"東久留米市","address":"東久留米市八幡町2-13-29","lat":35.755661,"lon":139.513543},{"name":"シュプロス東久留米教室","province":"東京都","city":"東久留米市","address":"東久留米市八幡町2-4-18グランドール1階店舗","lat":35.754612,"lon":139.513713},{"name":"しおん学園","province":"東京都","city":"東久留米市","address":"東久留米市下里7-8-20","lat":35.759916,"lon":139.502927},{"name":"放課後等デイサービス　カーリッジ東久留米","province":"東京都","city":"東久留米市","address":"東久留米市下里3-23-13アズセナ101号室","lat":35.753425,"lon":139.500275},{"name":"このみ","province":"東京都","city":"東久留米市","address":"東久留米市幸町3-8-23","lat":35.758264,"lon":139.51912},{"name":"東久留米市子ども家庭支援センター","province":"東京都","city":"東久留米市","address":"東久留米市滝山4-3-14わくわく健康プラザ南棟2階","lat":35.742288,"lon":139.504483},{"name":"東久留米市子ども家庭支援センター","province":"東京都","city":"東久留米市","address":"東久留米市滝山4-3-14わくわく健康プラザ南棟2階","lat":35.74133,"lon":139.50406},{"name":"東久留米市子ども家庭支援センター","province":"東京都","city":"東久留米市","address":"東久留米市滝山4-3-14わくわく健康プラザ南棟2階","lat":35.74221,"lon":139.50792},{"name":"あいる","province":"東京都","city":"東久留米市","address":"東久留米市新川町1-9-26","lat":35.761545,"lon":139.536855},{"name":"てんとうむし","province":"東京都","city":"東久留米市","address":"東久留米市南町4-9-21","lat":35.744366,"lon":139.52214},{"name":"だっく","province":"東京都","city":"東久留米市","address":"東久留米市八幡町1-1-12","lat":35.757436,"lon":139.513174},{"name":"ぐ～す","province":"東京都","city":"東久留米市","address":"東久留米市八幡町2-13-29","lat":35.755661,"lon":139.513543},{"name":"シュプロス東久留米教室","province":"東京都","city":"東久留米市","address":"東久留米市八幡町2-4-18グランドール1階店舗","lat":35.754612,"lon":139.513713},{"name":"しおん学園","province":"東京都","city":"東久留米市","address":"東久留米市下里7-8-20","lat":35.759916,"lon":139.502927},{"name":"放課後等デイサービス　カーリッジ東久留米","province":"東京都","city":"東久留米市","address":"東久留米市下里3-23-13アズセナ101号室","lat":35.753425,"lon":139.500275},{"name":"このみ","province":"東京都","city":"東久留米市","address":"東久留米市幸町3-8-23","lat":35.758264,"lon":139.51912},{"name":"東久留米市子ども家庭支援センター","province":"東京都","city":"東久留米市","address":"東久留米市滝山4-3-14わくわく健康プラザ南棟2階","lat":35.742288,"lon":139.504483},{"name":"東久留米市子ども家庭支援センター","province":"東京都","city":"東久留米市","address":"東久留米市滝山4-3-14わくわく健康プラザ南棟2階","lat":35.74133,"lon":139.50406},{"name":"東久留米市子ども家庭支援センター","province":"東京都","city":"東久留米市","address":"東久留米市滝山4-3-14わくわく健康プラザ南棟2階","lat":35.74221,"lon":139.50792},{"name":"あいる","province":"東京都","city":"東久留米市","address":"東久留米市新川町1-9-26","lat":35.761545,"lon":139.536855},{"name":"てんとうむし","province":"東京都","city":"東久留米市","address":"東久留米市南町4-9-21","lat":35.744366,"lon":139.52214},{"name":"だっく","province":"東京都","city":"東久留米市","address":"東久留米市八幡町1-1-12","lat":35.757436,"lon":139.513174},{"name":"ぐ～す","province":"東京都","city":"東久留米市","address":"東久留米市八幡町2-13-29","lat":35.755661,"lon":139.513543},{"name":"シュプロス東久留米教室","province":"東京都","city":"東久留米市","address":"東久留米市八幡町2-4-18グランドール1階店舗","lat":35.754612,"lon":139.513713},{"name":"しおん学園","province":"東京都","city":"東久留米市","address":"東久留米市下里7-8-20","lat":35.759916,"lon":139.502927},{"name":"放課後等デイサービス　カーリッジ東久留米","province":"東京都","city":"東久留米市","address":"東久留米市下里3-23-13アズセナ101号室","lat":35.753425,"lon":139.500275},{"name":"このみ","province":"東京都","city":"東久留米市","address":"東久留米市幸町3-8-23","lat":35.758264,"lon":139.51912},{"name":"東久留米市子ども家庭支援センター","province":"東京都","city":"東久留米市","address":"東久留米市滝山4-3-14わくわく健康プラザ南棟2階","lat":35.742288,"lon":139.504483},{"name":"東久留米市子ども家庭支援センター","province":"東京都","city":"東久留米市","address":"東久留米市滝山4-3-14わくわく健康プラザ南棟2階","lat":35.74133,"lon":139.50406},{"name":"東久留米市子ども家庭支援センター","province":"東京都","city":"東久留米市","address":"東久留米市滝山4-3-14わくわく健康プラザ南棟2階","lat":35.74221,"lon":139.50792},{"name":"あいる","province":"東京都","city":"東久留米市","address":"東久留米市新川町1-9-26","lat":35.761545,"lon":139.536855},{"name":"てんとうむし","province":"東京都","city":"東久留米市","address":"東久留米市南町4-9-21","lat":35.744366,"lon":139.52214},{"name":"だっく","province":"東京都","city":"東久留米市","address":"東久留米市八幡町1-1-12","lat":35.757436,"lon":139.513174},{"name":"ぐ～す","province":"東京都","city":"東久留米市","address":"東久留米市八幡町2-13-29","lat":35.755661,"lon":139.513543},{"name":"シュプロス東久留米教室","province":"東京都","city":"東久留米市","address":"東久留米市八幡町2-4-18グランドール1階店舗","lat":35.754612,"lon":139.513713},{"name":"しおん学園","province":"東京都","city":"東久留米市","address":"東久留米市下里7-8-20","lat":35.759916,"lon":139.502927},{"name":"放課後等デイサービス　カーリッジ東久留米","province":"東京都","city":"東久留米市","address":"東久留米市下里3-23-13アズセナ101号室","lat":35.753425,"lon":139.500275},{"name":"このみ","province":"東京都","city":"東久留米市","address":"東久留米市幸町3-8-23","lat":35.758264,"lon":139.51912},{"name":"東久留米市子ども家庭支援センター","province":"東京都","city":"東久留米市","address":"東久留米市滝山4-3-14わくわく健康プラザ南棟2階","lat":35.742288,"lon":139.504483},{"name":"東久留米市子ども家庭支援センター","province":"東京都","city":"東久留米市","address":"東久留米市滝山4-3-14わくわく健康プラザ南棟2階","lat":35.74133,"lon":139.50406},{"name":"東久留米市子ども家庭支援センター","province":"東京都","city":"東久留米市","address":"東久留米市滝山4-3-14わくわく健康プラザ南棟2階","lat":35.74221,"lon":139.50792},{"name":"あいる","province":"東京都","city":"東久留米市","address":"東久留米市新川町1-9-26","lat":35.761545,"lon":139.536855},{"name":"てんとうむし","province":"東京都","city":"東久留米市","address":"東久留米市南町4-9-21","lat":35.744366,"lon":139.52214},{"name":"だっく","province":"東京都","city":"東久留米市","address":"東久留米市八幡町1-1-12","lat":35.757436,"lon":139.513174},{"name":"ぐ～す","province":"東京都","city":"東久留米市","address":"東久留米市八幡町2-13-29","lat":35.755661,"lon":139.513543},{"name":"シュプロス東久留米教室","province":"東京都","city":"東久留米市","address":"東久留米市八幡町2-4-18グランドール1階店舗","lat":35.754612,"lon":139.513713},{"name":"しおん学園","province":"東京都","city":"東久留米市","address":"東久留米市下里7-8-20","lat":35.759916,"lon":139.502927},{"name":"放課後等デイサービス　カーリッジ東久留米","province":"東京都","city":"東久留米市","address":"東久留米市下里3-23-13アズセナ101号室","lat":35.753425,"lon":139.500275},{"name":"このみ","province":"東京都","city":"東久留米市","address":"東久留米市幸町3-8-23","lat":35.758264,"lon":139.51912},{"name":"東久留米市子ども家庭支援センター","province":"東京都","city":"東久留米市","address":"東久留米市滝山4-3-14わくわく健康プラザ南棟2階","lat":35.742288,"lon":139.504483},{"name":"東久留米市子ども家庭支援センター","province":"東京都","city":"東久留米市","address":"東久留米市滝山4-3-14わくわく健康プラザ南棟2階","lat":35.74133,"lon":139.50406},{"name":"東久留米市子ども家庭支援センター","province":"東京都","city":"東久留米市","address":"東久留米市滝山4-3-14わくわく健康プラザ南棟2階","lat":35.74221,"lon":139.50792},{"name":"あいる","province":"東京都","city":"東久留米市","address":"東久留米市新川町1-9-26","lat":35.761545,"lon":139.536855},{"name":"てんとうむし","province":"東京都","city":"東久留米市","address":"東久留米市南町4-9-21","lat":35.744366,"lon":139.52214},{"name":"だっく","province":"東京都","city":"東久留米市","address":"東久留米市八幡町1-1-12","lat":35.757436,"lon":139.513174},{"name":"ぐ～す","province":"東京都","city":"東久留米市","address":"東久留米市八幡町2-13-29","lat":35.755661,"lon":139.513543},{"name":"シュプロス東久留米教室","province":"東京都","city":"東久留米市","address":"東久留米市八幡町2-4-18グランドール1階店舗","lat":35.754612,"lon":139.513713},{"name":"しおん学園","province":"東京都","city":"東久留米市","address":"東久留米市下里7-8-20","lat":35.759916,"lon":139.502927},{"name":"放課後等デイサービス　カーリッジ東久留米","province":"東京都","city":"東久留米市","address":"東久留米市下里3-23-13アズセナ101号室","lat":35.753425,"lon":139.500275},{"name":"このみ","province":"東京都","city":"東久留米市","address":"東久留米市幸町3-8-23","lat":35.758264,"lon":139.51912},{"name":"東久留米市子ども家庭支援センター","province":"東京都","city":"東久留米市","address":"東久留米市滝山4-3-14わくわく健康プラザ南棟2階","lat":35.742288,"lon":139.504483},{"name":"東久留米市子ども家庭支援センター","province":"東京都","city":"東久留米市","address":"東久留米市滝山4-3-14わくわく健康プラザ南棟2階","lat":35.74133,"lon":139.50406},{"name":"東久留米市子ども家庭支援センター","province":"東京都","city":"東久留米市","address":"東久留米市滝山4-3-14わくわく健康プラザ南棟2階","lat":35.74221,"lon":139.50792},{"name":"あいる","province":"東京都","city":"東久留米市","address":"東久留米市新川町1-9-26","lat":35.761545,"lon":139.536855},{"name":"てんとうむし","province":"東京都","city":"東久留米市","address":"東久留米市南町4-9-21","lat":35.744366,"lon":139.52214},{"name":"だっく","province":"東京都","city":"東久留米市","address":"東久留米市八幡町1-1-12","lat":35.757436,"lon":139.513174},{"name":"ぐ～す","province":"東京都","city":"東久留米市","address":"東久留米市八幡町2-13-29","lat":35.755661,"lon":139.513543},{"name":"シュプロス東久留米教室","province":"東京都","city":"東久留米市","address":"東久留米市八幡町2-4-18グランドール1階店舗","lat":35.754612,"lon":139.513713},{"name":"しおん学園","province":"東京都","city":"東久留米市","address":"東久留米市下里7-8-20","lat":35.759916,"lon":139.502927},{"name":"放課後等デイサービス　カーリッジ東久留米","province":"東京都","city":"東久留米市","address":"東久留米市下里3-23-13アズセナ101号室","lat":35.753425,"lon":139.500275},{"name":"このみ","province":"東京都","city":"東久留米市","address":"東久留米市幸町3-8-23","lat":35.758264,"lon":139.51912},{"name":"東久留米市子ども家庭支援センター","province":"東京都","city":"東久留米市","address":"東久留米市滝山4-3-14わくわく健康プラザ南棟2階","lat":35.742288,"lon":139.504483},{"name":"東久留米市子ども家庭支援センター","province":"東京都","city":"東久留米市","address":"東久留米市滝山4-3-14わくわく健康プラザ南棟2階","lat":35.74133,"lon":139.50406},{"name":"東久留米市子ども家庭支援センター","province":"東京都","city":"東久留米市","address":"東久留米市滝山4-3-14わくわく健康プラザ南棟2階","lat":35.74221,"lon":139.50792},{"name":"あいる","province":"東京都","city":"東久留米市","address":"東久留米市新川町1-9-26","lat":35.761545,"lon":139.536855},{"name":"てんとうむし","province":"東京都","city":"東久留米市","address":"東久留米市南町4-9-21","lat":35.744366,"lon":139.52214},{"name":"だっく","province":"東京都","city":"東久留米市","address":"東久留米市八幡町1-1-12","lat":35.757436,"lon":139.513174},{"name":"ぐ～す","province":"東京都","city":"東久留米市","address":"東久留米市八幡町2-13-29","lat":35.755661,"lon":139.513543},{"name":"シュプロス東久留米教室","province":"東京都","city":"東久留米市","address":"東久留米市八幡町2-4-18グランドール1階店舗","lat":35.754612,"lon":139.513713},{"name":"しおん学園","province":"東京都","city":"東久留米市","address":"東久留米市下里7-8-20","lat":35.759916,"lon":139.502927},{"name":"放課後等デイサービス　カーリッジ東久留米","province":"東京都","city":"東久留米市","address":"東久留米市下里3-23-13アズセナ101号室","lat":35.753425,"lon":139.500275},{"name":"このみ","province":"東京都","city":"東久留米市","address":"東久留米市幸町3-8-23","lat":35.758264,"lon":139.51912},{"name":"東久留米市子ども家庭支援センター","province":"東京都","city":"東久留米市","address":"東久留米市滝山4-3-14わくわく健康プラザ南棟2階","lat":35.742288,"lon":139.504483},{"name":"東久留米市子ども家庭支援センター","province":"東京都","city":"東久留米市","address":"東久留米市滝山4-3-14わくわく健康プラザ南棟2階","lat":35.74133,"lon":139.50406},{"name":"東久留米市子ども家庭支援センター","province":"東京都","city":"東久留米市","address":"東久留米市滝山4-3-14わくわく健康プラザ南棟2階","lat":35.74221,"lon":139.50792},{"name":"あいる","province":"東京都","city":"東久留米市","address":"東久留米市新川町1-9-26","lat":35.761545,"lon":139.536855},{"name":"てんとうむし","province":"東京都","city":"東久留米市","address":"東久留米市南町4-9-21","lat":35.744366,"lon":139.52214},{"name":"だっく","province":"東京都","city":"東久留米市","address":"東久留米市八幡町1-1-12","lat":35.757436,"lon":139.513174},{"name":"ぐ～す","province":"東京都","city":"東久留米市","address":"東久留米市八幡町2-13-29","lat":35.755661,"lon":139.513543},{"name":"シュプロス東久留米教室","province":"東京都","city":"東久留米市","address":"東久留米市八幡町2-4-18グランドール1階店舗","lat":35.754612,"lon":139.513713},{"name":"しおん学園","province":"東京都","city":"東久留米市","address":"東久留米市下里7-8-20","lat":35.759916,"lon":139.502927},{"name":"放課後等デイサービス　カーリッジ東久留米","province":"東京都","city":"東久留米市","address":"東久留米市下里3-23-13アズセナ101号室","lat":35.753425,"lon":139.500275},{"name":"このみ","province":"東京都","city":"東久留米市","address":"東久留米市幸町3-8-23","lat":35.758264,"lon":139.51912},{"name":"東久留米市子ども家庭支援センター","province":"東京都","city":"東久留米市","address":"東久留米市滝山4-3-14わくわく健康プラザ南棟2階","lat":35.742288,"lon":139.504483},{"name":"東久留米市子ども家庭支援センター","province":"東京都","city":"東久留米市","address":"東久留米市滝山4-3-14わくわく健康プラザ南棟2階","lat":35.74133,"lon":139.50406},{"name":"東久留米市子ども家庭支援センター","province":"東京都","city":"東久留米市","address":"東久留米市滝山4-3-14わくわく健康プラザ南棟2階","lat":35.74221,"lon":139.50792},{"name":"あいる","province":"東京都","city":"東久留米市","address":"東久留米市新川町1-9-26","lat":35.761545,"lon":139.536855},{"name":"てんとうむし","province":"東京都","city":"東久留米市","address":"東久留米市南町4-9-21","lat":35.744366,"lon":139.52214},{"name":"だっく","province":"東京都","city":"東久留米市","address":"東久留米市八幡町1-1-12","lat":35.757436,"lon":139.513174},{"name":"ぐ～す","province":"東京都","city":"東久留米市","address":"東久留米市八幡町2-13-29","lat":35.755661,"lon":139.513543},{"name":"シュプロス東久留米教室","province":"東京都","city":"東久留米市","address":"東久留米市八幡町2-4-18グランドール1階店舗","lat":35.754612,"lon":139.513713},{"name":"しおん学園","province":"東京都","city":"東久留米市","address":"東久留米市下里7-8-20","lat":35.759916,"lon":139.502927},{"name":"放課後等デイサービス　カーリッジ東久留米","province":"東京都","city":"東久留米市","address":"東久留米市下里3-23-13アズセナ101号室","lat":35.753425,"lon":139.500275},{"name":"このみ","province":"東京都","city":"東久留米市","address":"東久留米市幸町3-8-23","lat":35.758264,"lon":139.51912},{"name":"東久留米市子ども家庭支援センター","province":"東京都","city":"東久留米市","address":"東久留米市滝山4-3-14わくわく健康プラザ南棟2階","lat":35.742288,"lon":139.504483},{"name":"東久留米市子ども家庭支援センター","province":"東京都","city":"東久留米市","address":"東久留米市滝山4-3-14わくわく健康プラザ南棟2階","lat":35.74133,"lon":139.50406},{"name":"東久留米市子ども家庭支援センター","province":"東京都","city":"東久留米市","address":"東久留米市滝山4-3-14わくわく健康プラザ南棟2階","lat":35.74221,"lon":139.50792},{"name":"あいる","province":"東京都","city":"東久留米市","address":"東久留米市新川町1-9-26","lat":35.761545,"lon":139.536855},{"name":"てんとうむし","province":"東京都","city":"東久留米市","address":"東久留米市南町4-9-21","lat":35.744366,"lon":139.52214},{"name":"だっく","province":"東京都","city":"東久留米市","address":"東久留米市八幡町1-1-12","lat":35.757436,"lon":139.513174},{"name":"ぐ～す","province":"東京都","city":"東久留米市","address":"東久留米市八幡町2-13-29","lat":35.755661,"lon":139.513543},{"name":"シュプロス東久留米教室","province":"東京都","city":"東久留米市","address":"東久留米市八幡町2-4-18グランドール1階店舗","lat":35.754612,"lon":139.513713},{"name":"しおん学園","province":"東京都","city":"東久留米市","address":"東久留米市下里7-8-20","lat":35.759916,"lon":139.502927},{"name":"放課後等デイサービス　カーリッジ東久留米","province":"東京都","city":"東久留米市","address":"東久留米市下里3-23-13アズセナ101号室","lat":35.753425,"lon":139.500275},{"name":"このみ","province":"東京都","city":"東久留米市","address":"東久留米市幸町3-8-23","lat":35.758264,"lon":139.51912},{"name":"東久留米市子ども家庭支援センター","province":"東京都","city":"東久留米市","address":"東久留米市滝山4-3-14わくわく健康プラザ南棟2階","lat":35.742288,"lon":139.504483},{"name":"東久留米市子ども家庭支援センター","province":"東京都","city":"東久留米市","address":"東久留米市滝山4-3-14わくわく健康プラザ南棟2階","lat":35.74133,"lon":139.50406},{"name":"東久留米市子ども家庭支援センター","province":"東京都","city":"東久留米市","address":"東久留米市滝山4-3-14わくわく健康プラザ南棟2階","lat":35.74221,"lon":139.50792},{"name":"あいる","province":"東京都","city":"東久留米市","address":"東久留米市新川町1-9-26","lat":35.761545,"lon":139.536855},{"name":"てんとうむし","province":"東京都","city":"東久留米市","address":"東久留米市南町4-9-21","lat":35.744366,"lon":139.52214},{"name":"だっく","province":"東京都","city":"東久留米市","address":"東久留米市八幡町1-1-12","lat":35.757436,"lon":139.513174},{"name":"ぐ～す","province":"東京都","city":"東久留米市","address":"東久留米市八幡町2-13-29","lat":35.755661,"lon":139.513543},{"name":"シュプロス東久留米教室","province":"東京都","city":"東久留米市","address":"東久留米市八幡町2-4-18グランドール1階店舗","lat":35.754612,"lon":139.513713},{"name":"しおん学園","province":"東京都","city":"東久留米市","address":"東久留米市下里7-8-20","lat":35.759916,"lon":139.502927},{"name":"放課後等デイサービス　カーリッジ東久留米","province":"東京都","city":"東久留米市","address":"東久留米市下里3-23-13アズセナ101号室","lat":35.753425,"lon":139.500275},{"name":"このみ","province":"東京都","city":"東久留米市","address":"東久留米市幸町3-8-23","lat":35.758264,"lon":139.51912},{"name":"東久留米市子ども家庭支援センター","province":"東京都","city":"東久留米市","address":"東久留米市滝山4-3-14わくわく健康プラザ南棟2階","lat":35.742288,"lon":139.504483},{"name":"東久留米市子ども家庭支援センター","province":"東京都","city":"東久留米市","address":"東久留米市滝山4-3-14わくわく健康プラザ南棟2階","lat":35.74133,"lon":139.50406},{"name":"東久留米市子ども家庭支援センター","province":"東京都","city":"東久留米市","address":"東久留米市滝山4-3-14わくわく健康プラザ南棟2階","lat":35.74221,"lon":139.50792}]}