{"keyword":"朝","data":[{"name":"有限会社　市民葬祭センター","province":"東京都","city":"東久留米市","address":"東京都東久留米市東本町4-6","lat":35.7626027,"lon":139.53419939},{"name":"有限会社　小平典礼　東久留米支社","province":"東京都","city":"東久留米市","address":"東京都東久留米市滝山3丁目11-6","lat":35.74065177,"lon":139.50463613},{"name":"株式会社　コムウェル　小平営業所","province":"東京都","city":"東久留米市","address":"東京都東久留米市柳窪4丁目7-9","lat":35.74611182,"lon":139.48739857},{"name":"株式会社　奥野式典","province":"東京都","city":"東久留米市","address":"東京都東久留米市滝山4丁目1-40","lat":35.74466523,"lon":139.50567754},{"name":"有限会社　緑葬儀社　東久留米支店","province":"東京都","city":"東久留米市","address":"東京都東久留米市本町2丁目1-2","lat":35.76228045,"lon":139.53175239},{"name":"すずらん（株式会社　アイコス）","province":"東京都","city":"東久留米市","address":"東京都東久留米市下里3丁目5-9","lat":35.75130046,"lon":139.50049165},{"name":"有限会社　藤式典　東久留米店","province":"東京都","city":"東久留米市","address":"東京都東久留米市幸町4丁目4-1","lat":35.75557535,"lon":139.51599011},{"name":"有限会社　ウィズセレモニー","province":"東京都","city":"東久留米市","address":"東京都東久留米市東本町12-3","lat":35.76429974,"lon":139.53547979},{"name":"田中葬祭　株式会社　東久留米支店","province":"東京都","city":"東久留米市","address":"東京都東久留米市本町3丁目6-9","lat":35.75947237,"lon":139.52759451},{"name":"柳窪三丁目","province":"東京都","city":"東久留米市","address":"東京都東久留米市柳窪3丁目2-1","lat":35.74325401,"lon":139.4947647},{"name":"上の原交番前","province":"東京都","city":"東久留米市","address":"東京都東久留米市上の原1丁目2","lat":35.76894094,"lon":139.54174311},{"name":"東久留米市役所前","province":"東京都","city":"東久留米市","address":"東京都東久留米市本町3丁目1-41","lat":35.75827534,"lon":139.53039709},{"name":"東久留米市役所西","province":"東京都","city":"東久留米市","address":"東京都東久留米市中央町1丁目1","lat":35.75811417,"lon":139.52673352},{"name":"さいわい福祉センター前","province":"東京都","city":"東久留米市","address":"東京都東久留米市幸町2丁目1-10","lat":35.75915557,"lon":139.51983687},{"name":"東久留米公民館前","province":"東京都","city":"東久留米市","address":"東京都東久留米市中央町2丁目1-46","lat":35.75573938,"lon":139.52343944},{"name":"東久留米駅西","province":"東京都","city":"東久留米市","address":"東京都東久留米市本町1丁目4-53","lat":35.75968355,"lon":139.53264963},{"name":"神山大橋","province":"東京都","city":"東久留米市","address":"東京都東久留米市大門町2丁目12","lat":35.76377491,"lon":139.5419238},{"name":"南沢浄水所","province":"東京都","city":"東久留米市","address":"東京都東久留米市南沢3丁目9-21","lat":35.75193708,"lon":139.52583381},{"name":"滝山浄水所","province":"東京都","city":"東久留米市","address":"東京都東久留米市滝山6丁目1-1","lat":35.74739829,"lon":139.50739394},{"name":"東久留米市立ひばりが丘図書館","province":"東京都","city":"東久留米市","address":"東久留米市ひばりが丘団地185南部地域センター内","lat":35.746452,"lon":139.534271},{"name":"東久留米市立滝山図書館","province":"東京都","city":"東久留米市","address":"東久留米市滝山4-1-10西部地域センター内","lat":35.744854,"lon":139.505249},{"name":"東久留米市立中央図書館","province":"東京都","city":"東久留米市","address":"東久留米市中央町2-6-23","lat":35.754429,"lon":139.517593},{"name":"東久留米市立東部図書館","province":"東京都","city":"東久留米市","address":"東久留米市大門町2-10-5東部地域センター内","lat":35.764797,"lon":139.540894},{"name":"東久留米市郷土資料室","province":"東京都","city":"東久留米市","address":"東久留米市滝山4-3-14わくわく健康プラザ内","lat":35.741329,"lon":139.504059},{"name":"東久留米市立生涯学習センター","province":"東京都","city":"東久留米市","address":"東久留米市中央町2-6-23","lat":35.754429,"lon":139.517593},{"name":"有限会社　市民葬祭センター","province":"東京都","city":"東久留米市","address":"東京都東久留米市東本町4-6","lat":35.7626027,"lon":139.53419939},{"name":"有限会社　小平典礼　東久留米支社","province":"東京都","city":"東久留米市","address":"東京都東久留米市滝山3丁目11-6","lat":35.74065177,"lon":139.50463613},{"name":"株式会社　コムウェル　小平営業所","province":"東京都","city":"東久留米市","address":"東京都東久留米市柳窪4丁目7-9","lat":35.74611182,"lon":139.48739857},{"name":"株式会社　奥野式典","province":"東京都","city":"東久留米市","address":"東京都東久留米市滝山4丁目1-40","lat":35.74466523,"lon":139.50567754},{"name":"有限会社　緑葬儀社　東久留米支店","province":"東京都","city":"東久留米市","address":"東京都東久留米市本町2丁目1-2","lat":35.76228045,"lon":139.53175239},{"name":"すずらん（株式会社　アイコス）","province":"東京都","city":"東久留米市","address":"東京都東久留米市下里3丁目5-9","lat":35.75130046,"lon":139.50049165},{"name":"有限会社　藤式典　東久留米店","province":"東京都","city":"東久留米市","address":"東京都東久留米市幸町4丁目4-1","lat":35.75557535,"lon":139.51599011},{"name":"有限会社　ウィズセレモニー","province":"東京都","city":"東久留米市","address":"東京都東久留米市東本町12-3","lat":35.76429974,"lon":139.53547979},{"name":"田中葬祭　株式会社　東久留米支店","province":"東京都","city":"東久留米市","address":"東京都東久留米市本町3丁目6-9","lat":35.75947237,"lon":139.52759451},{"name":"柳窪三丁目","province":"東京都","city":"東久留米市","address":"東京都東久留米市柳窪3丁目2-1","lat":35.74325401,"lon":139.4947647},{"name":"上の原交番前","province":"東京都","city":"東久留米市","address":"東京都東久留米市上の原1丁目2","lat":35.76894094,"lon":139.54174311},{"name":"東久留米市役所前","province":"東京都","city":"東久留米市","address":"東京都東久留米市本町3丁目1-41","lat":35.75827534,"lon":139.53039709},{"name":"東久留米市役所西","province":"東京都","city":"東久留米市","address":"東京都東久留米市中央町1丁目1","lat":35.75811417,"lon":139.52673352},{"name":"さいわい福祉センター前","province":"東京都","city":"東久留米市","address":"東京都東久留米市幸町2丁目1-10","lat":35.75915557,"lon":139.51983687},{"name":"東久留米公民館前","province":"東京都","city":"東久留米市","address":"東京都東久留米市中央町2丁目1-46","lat":35.75573938,"lon":139.52343944},{"name":"東久留米駅西","province":"東京都","city":"東久留米市","address":"東京都東久留米市本町1丁目4-53","lat":35.75968355,"lon":139.53264963},{"name":"神山大橋","province":"東京都","city":"東久留米市","address":"東京都東久留米市大門町2丁目12","lat":35.76377491,"lon":139.5419238},{"name":"南沢浄水所","province":"東京都","city":"東久留米市","address":"東京都東久留米市南沢3丁目9-21","lat":35.75193708,"lon":139.52583381},{"name":"滝山浄水所","province":"東京都","city":"東久留米市","address":"東京都東久留米市滝山6丁目1-1","lat":35.74739829,"lon":139.50739394},{"name":"東久留米市立ひばりが丘図書館","province":"東京都","city":"東久留米市","address":"東久留米市ひばりが丘団地185南部地域センター内","lat":35.746452,"lon":139.534271},{"name":"東久留米市立滝山図書館","province":"東京都","city":"東久留米市","address":"東久留米市滝山4-1-10西部地域センター内","lat":35.744854,"lon":139.505249},{"name":"東久留米市立中央図書館","province":"東京都","city":"東久留米市","address":"東久留米市中央町2-6-23","lat":35.754429,"lon":139.517593},{"name":"東久留米市立東部図書館","province":"東京都","city":"東久留米市","address":"東久留米市大門町2-10-5東部地域センター内","lat":35.764797,"lon":139.540894},{"name":"東久留米市郷土資料室","province":"東京都","city":"東久留米市","address":"東久留米市滝山4-3-14わくわく健康プラザ内","lat":35.741329,"lon":139.504059},{"name":"東久留米市立生涯学習センター","province":"東京都","city":"東久留米市","address":"東久留米市中央町2-6-23","lat":35.754429,"lon":139.517593},{"name":"有限会社　市民葬祭センター","province":"東京都","city":"東久留米市","address":"東京都東久留米市東本町4-6","lat":35.7626027,"lon":139.53419939},{"name":"有限会社　小平典礼　東久留米支社","province":"東京都","city":"東久留米市","address":"東京都東久留米市滝山3丁目11-6","lat":35.74065177,"lon":139.50463613},{"name":"株式会社　コムウェル　小平営業所","province":"東京都","city":"東久留米市","address":"東京都東久留米市柳窪4丁目7-9","lat":35.74611182,"lon":139.48739857},{"name":"株式会社　奥野式典","province":"東京都","city":"東久留米市","address":"東京都東久留米市滝山4丁目1-40","lat":35.74466523,"lon":139.50567754},{"name":"有限会社　緑葬儀社　東久留米支店","province":"東京都","city":"東久留米市","address":"東京都東久留米市本町2丁目1-2","lat":35.76228045,"lon":139.53175239},{"name":"すずらん（株式会社　アイコス）","province":"東京都","city":"東久留米市","address":"東京都東久留米市下里3丁目5-9","lat":35.75130046,"lon":139.50049165},{"name":"有限会社　藤式典　東久留米店","province":"東京都","city":"東久留米市","address":"東京都東久留米市幸町4丁目4-1","lat":35.75557535,"lon":139.51599011},{"name":"有限会社　ウィズセレモニー","province":"東京都","city":"東久留米市","address":"東京都東久留米市東本町12-3","lat":35.76429974,"lon":139.53547979},{"name":"田中葬祭　株式会社　東久留米支店","province":"東京都","city":"東久留米市","address":"東京都東久留米市本町3丁目6-9","lat":35.75947237,"lon":139.52759451},{"name":"柳窪三丁目","province":"東京都","city":"東久留米市","address":"東京都東久留米市柳窪3丁目2-1","lat":35.74325401,"lon":139.4947647},{"name":"上の原交番前","province":"東京都","city":"東久留米市","address":"東京都東久留米市上の原1丁目2","lat":35.76894094,"lon":139.54174311},{"name":"東久留米市役所前","province":"東京都","city":"東久留米市","address":"東京都東久留米市本町3丁目1-41","lat":35.75827534,"lon":139.53039709},{"name":"東久留米市役所西","province":"東京都","city":"東久留米市","address":"東京都東久留米市中央町1丁目1","lat":35.75811417,"lon":139.52673352},{"name":"さいわい福祉センター前","province":"東京都","city":"東久留米市","address":"東京都東久留米市幸町2丁目1-10","lat":35.75915557,"lon":139.51983687},{"name":"東久留米公民館前","province":"東京都","city":"東久留米市","address":"東京都東久留米市中央町2丁目1-46","lat":35.75573938,"lon":139.52343944},{"name":"東久留米駅西","province":"東京都","city":"東久留米市","address":"東京都東久留米市本町1丁目4-53","lat":35.75968355,"lon":139.53264963},{"name":"神山大橋","province":"東京都","city":"東久留米市","address":"東京都東久留米市大門町2丁目12","lat":35.76377491,"lon":139.5419238},{"name":"南沢浄水所","province":"東京都","city":"東久留米市","address":"東京都東久留米市南沢3丁目9-21","lat":35.75193708,"lon":139.52583381},{"name":"滝山浄水所","province":"東京都","city":"東久留米市","address":"東京都東久留米市滝山6丁目1-1","lat":35.74739829,"lon":139.50739394},{"name":"東久留米市立ひばりが丘図書館","province":"東京都","city":"東久留米市","address":"東久留米市ひばりが丘団地185南部地域センター内","lat":35.746452,"lon":139.534271},{"name":"東久留米市立滝山図書館","province":"東京都","city":"東久留米市","address":"東久留米市滝山4-1-10西部地域センター内","lat":35.744854,"lon":139.505249},{"name":"東久留米市立中央図書館","province":"東京都","city":"東久留米市","address":"東久留米市中央町2-6-23","lat":35.754429,"lon":139.517593},{"name":"東久留米市立東部図書館","province":"東京都","city":"東久留米市","address":"東久留米市大門町2-10-5東部地域センター内","lat":35.764797,"lon":139.540894},{"name":"東久留米市郷土資料室","province":"東京都","city":"東久留米市","address":"東久留米市滝山4-3-14わくわく健康プラザ内","lat":35.741329,"lon":139.504059},{"name":"東久留米市立生涯学習センター","province":"東京都","city":"東久留米市","address":"東久留米市中央町2-6-23","lat":35.754429,"lon":139.517593},{"name":"有限会社　市民葬祭センター","province":"東京都","city":"東久留米市","address":"東京都東久留米市東本町4-6","lat":35.7626027,"lon":139.53419939},{"name":"有限会社　小平典礼　東久留米支社","province":"東京都","city":"東久留米市","address":"東京都東久留米市滝山3丁目11-6","lat":35.74065177,"lon":139.50463613},{"name":"株式会社　コムウェル　小平営業所","province":"東京都","city":"東久留米市","address":"東京都東久留米市柳窪4丁目7-9","lat":35.74611182,"lon":139.48739857},{"name":"株式会社　奥野式典","province":"東京都","city":"東久留米市","address":"東京都東久留米市滝山4丁目1-40","lat":35.74466523,"lon":139.50567754},{"name":"有限会社　緑葬儀社　東久留米支店","province":"東京都","city":"東久留米市","address":"東京都東久留米市本町2丁目1-2","lat":35.76228045,"lon":139.53175239},{"name":"すずらん（株式会社　アイコス）","province":"東京都","city":"東久留米市","address":"東京都東久留米市下里3丁目5-9","lat":35.75130046,"lon":139.50049165},{"name":"有限会社　藤式典　東久留米店","province":"東京都","city":"東久留米市","address":"東京都東久留米市幸町4丁目4-1","lat":35.75557535,"lon":139.51599011},{"name":"有限会社　ウィズセレモニー","province":"東京都","city":"東久留米市","address":"東京都東久留米市東本町12-3","lat":35.76429974,"lon":139.53547979},{"name":"田中葬祭　株式会社　東久留米支店","province":"東京都","city":"東久留米市","address":"東京都東久留米市本町3丁目6-9","lat":35.75947237,"lon":139.52759451},{"name":"柳窪三丁目","province":"東京都","city":"東久留米市","address":"東京都東久留米市柳窪3丁目2-1","lat":35.74325401,"lon":139.4947647},{"name":"上の原交番前","province":"東京都","city":"東久留米市","address":"東京都東久留米市上の原1丁目2","lat":35.76894094,"lon":139.54174311},{"name":"東久留米市役所前","province":"東京都","city":"東久留米市","address":"東京都東久留米市本町3丁目1-41","lat":35.75827534,"lon":139.53039709},{"name":"東久留米市役所西","province":"東京都","city":"東久留米市","address":"東京都東久留米市中央町1丁目1","lat":35.75811417,"lon":139.52673352},{"name":"さいわい福祉センター前","province":"東京都","city":"東久留米市","address":"東京都東久留米市幸町2丁目1-10","lat":35.75915557,"lon":139.51983687},{"name":"東久留米公民館前","province":"東京都","city":"東久留米市","address":"東京都東久留米市中央町2丁目1-46","lat":35.75573938,"lon":139.52343944},{"name":"東久留米駅西","province":"東京都","city":"東久留米市","address":"東京都東久留米市本町1丁目4-53","lat":35.75968355,"lon":139.53264963},{"name":"神山大橋","province":"東京都","city":"東久留米市","address":"東京都東久留米市大門町2丁目12","lat":35.76377491,"lon":139.5419238},{"name":"南沢浄水所","province":"東京都","city":"東久留米市","address":"東京都東久留米市南沢3丁目9-21","lat":35.75193708,"lon":139.52583381},{"name":"滝山浄水所","province":"東京都","city":"東久留米市","address":"東京都東久留米市滝山6丁目1-1","lat":35.74739829,"lon":139.50739394},{"name":"東久留米市立ひばりが丘図書館","province":"東京都","city":"東久留米市","address":"東久留米市ひばりが丘団地185南部地域センター内","lat":35.746452,"lon":139.534271},{"name":"東久留米市立滝山図書館","province":"東京都","city":"東久留米市","address":"東久留米市滝山4-1-10西部地域センター内","lat":35.744854,"lon":139.505249},{"name":"東久留米市立中央図書館","province":"東京都","city":"東久留米市","address":"東久留米市中央町2-6-23","lat":35.754429,"lon":139.517593},{"name":"東久留米市立東部図書館","province":"東京都","city":"東久留米市","address":"東久留米市大門町2-10-5東部地域センター内","lat":35.764797,"lon":139.540894},{"name":"東久留米市郷土資料室","province":"東京都","city":"東久留米市","address":"東久留米市滝山4-3-14わくわく健康プラザ内","lat":35.741329,"lon":139.504059},{"name":"東久留米市立生涯学習センター","province":"東京都","city":"東久留米市","address":"東久留米市中央町2-6-23","lat":35.754429,"lon":139.517593},{"name":"有限会社　市民葬祭センター","province":"東京都","city":"東久留米市","address":"東京都東久留米市東本町4-6","lat":35.7626027,"lon":139.53419939},{"name":"有限会社　小平典礼　東久留米支社","province":"東京都","city":"東久留米市","address":"東京都東久留米市滝山3丁目11-6","lat":35.74065177,"lon":139.50463613},{"name":"株式会社　コムウェル　小平営業所","province":"東京都","city":"東久留米市","address":"東京都東久留米市柳窪4丁目7-9","lat":35.74611182,"lon":139.48739857},{"name":"株式会社　奥野式典","province":"東京都","city":"東久留米市","address":"東京都東久留米市滝山4丁目1-40","lat":35.74466523,"lon":139.50567754},{"name":"有限会社　緑葬儀社　東久留米支店","province":"東京都","city":"東久留米市","address":"東京都東久留米市本町2丁目1-2","lat":35.76228045,"lon":139.53175239},{"name":"すずらん（株式会社　アイコス）","province":"東京都","city":"東久留米市","address":"東京都東久留米市下里3丁目5-9","lat":35.75130046,"lon":139.50049165},{"name":"有限会社　藤式典　東久留米店","province":"東京都","city":"東久留米市","address":"東京都東久留米市幸町4丁目4-1","lat":35.75557535,"lon":139.51599011},{"name":"有限会社　ウィズセレモニー","province":"東京都","city":"東久留米市","address":"東京都東久留米市東本町12-3","lat":35.76429974,"lon":139.53547979},{"name":"田中葬祭　株式会社　東久留米支店","province":"東京都","city":"東久留米市","address":"東京都東久留米市本町3丁目6-9","lat":35.75947237,"lon":139.52759451},{"name":"柳窪三丁目","province":"東京都","city":"東久留米市","address":"東京都東久留米市柳窪3丁目2-1","lat":35.74325401,"lon":139.4947647},{"name":"上の原交番前","province":"東京都","city":"東久留米市","address":"東京都東久留米市上の原1丁目2","lat":35.76894094,"lon":139.54174311},{"name":"東久留米市役所前","province":"東京都","city":"東久留米市","address":"東京都東久留米市本町3丁目1-41","lat":35.75827534,"lon":139.53039709},{"name":"東久留米市役所西","province":"東京都","city":"東久留米市","address":"東京都東久留米市中央町1丁目1","lat":35.75811417,"lon":139.52673352},{"name":"さいわい福祉センター前","province":"東京都","city":"東久留米市","address":"東京都東久留米市幸町2丁目1-10","lat":35.75915557,"lon":139.51983687},{"name":"東久留米公民館前","province":"東京都","city":"東久留米市","address":"東京都東久留米市中央町2丁目1-46","lat":35.75573938,"lon":139.52343944},{"name":"東久留米駅西","province":"東京都","city":"東久留米市","address":"東京都東久留米市本町1丁目4-53","lat":35.75968355,"lon":139.53264963},{"name":"神山大橋","province":"東京都","city":"東久留米市","address":"東京都東久留米市大門町2丁目12","lat":35.76377491,"lon":139.5419238},{"name":"南沢浄水所","province":"東京都","city":"東久留米市","address":"東京都東久留米市南沢3丁目9-21","lat":35.75193708,"lon":139.52583381},{"name":"滝山浄水所","province":"東京都","city":"東久留米市","address":"東京都東久留米市滝山6丁目1-1","lat":35.74739829,"lon":139.50739394},{"name":"東久留米市立ひばりが丘図書館","province":"東京都","city":"東久留米市","address":"東久留米市ひばりが丘団地185南部地域センター内","lat":35.746452,"lon":139.534271},{"name":"東久留米市立滝山図書館","province":"東京都","city":"東久留米市","address":"東久留米市滝山4-1-10西部地域センター内","lat":35.744854,"lon":139.505249},{"name":"東久留米市立中央図書館","province":"東京都","city":"東久留米市","address":"東久留米市中央町2-6-23","lat":35.754429,"lon":139.517593},{"name":"東久留米市立東部図書館","province":"東京都","city":"東久留米市","address":"東久留米市大門町2-10-5東部地域センター内","lat":35.764797,"lon":139.540894},{"name":"東久留米市郷土資料室","province":"東京都","city":"東久留米市","address":"東久留米市滝山4-3-14わくわく健康プラザ内","lat":35.741329,"lon":139.504059},{"name":"東久留米市立生涯学習センター","province":"東京都","city":"東久留米市","address":"東久留米市中央町2-6-23","lat":35.754429,"lon":139.517593},{"name":"有限会社　市民葬祭センター","province":"東京都","city":"東久留米市","address":"東京都東久留米市東本町4-6","lat":35.7626027,"lon":139.53419939},{"name":"有限会社　小平典礼　東久留米支社","province":"東京都","city":"東久留米市","address":"東京都東久留米市滝山3丁目11-6","lat":35.74065177,"lon":139.50463613},{"name":"株式会社　コムウェル　小平営業所","province":"東京都","city":"東久留米市","address":"東京都東久留米市柳窪4丁目7-9","lat":35.74611182,"lon":139.48739857},{"name":"株式会社　奥野式典","province":"東京都","city":"東久留米市","address":"東京都東久留米市滝山4丁目1-40","lat":35.74466523,"lon":139.50567754},{"name":"有限会社　緑葬儀社　東久留米支店","province":"東京都","city":"東久留米市","address":"東京都東久留米市本町2丁目1-2","lat":35.76228045,"lon":139.53175239},{"name":"すずらん（株式会社　アイコス）","province":"東京都","city":"東久留米市","address":"東京都東久留米市下里3丁目5-9","lat":35.75130046,"lon":139.50049165},{"name":"有限会社　藤式典　東久留米店","province":"東京都","city":"東久留米市","address":"東京都東久留米市幸町4丁目4-1","lat":35.75557535,"lon":139.51599011},{"name":"有限会社　ウィズセレモニー","province":"東京都","city":"東久留米市","address":"東京都東久留米市東本町12-3","lat":35.76429974,"lon":139.53547979},{"name":"田中葬祭　株式会社　東久留米支店","province":"東京都","city":"東久留米市","address":"東京都東久留米市本町3丁目6-9","lat":35.75947237,"lon":139.52759451},{"name":"柳窪三丁目","province":"東京都","city":"東久留米市","address":"東京都東久留米市柳窪3丁目2-1","lat":35.74325401,"lon":139.4947647},{"name":"上の原交番前","province":"東京都","city":"東久留米市","address":"東京都東久留米市上の原1丁目2","lat":35.76894094,"lon":139.54174311},{"name":"東久留米市役所前","province":"東京都","city":"東久留米市","address":"東京都東久留米市本町3丁目1-41","lat":35.75827534,"lon":139.53039709},{"name":"東久留米市役所西","province":"東京都","city":"東久留米市","address":"東京都東久留米市中央町1丁目1","lat":35.75811417,"lon":139.52673352},{"name":"さいわい福祉センター前","province":"東京都","city":"東久留米市","address":"東京都東久留米市幸町2丁目1-10","lat":35.75915557,"lon":139.51983687},{"name":"東久留米公民館前","province":"東京都","city":"東久留米市","address":"東京都東久留米市中央町2丁目1-46","lat":35.75573938,"lon":139.52343944},{"name":"東久留米駅西","province":"東京都","city":"東久留米市","address":"東京都東久留米市本町1丁目4-53","lat":35.75968355,"lon":139.53264963},{"name":"神山大橋","province":"東京都","city":"東久留米市","address":"東京都東久留米市大門町2丁目12","lat":35.76377491,"lon":139.5419238},{"name":"南沢浄水所","province":"東京都","city":"東久留米市","address":"東京都東久留米市南沢3丁目9-21","lat":35.75193708,"lon":139.52583381},{"name":"滝山浄水所","province":"東京都","city":"東久留米市","address":"東京都東久留米市滝山6丁目1-1","lat":35.74739829,"lon":139.50739394},{"name":"東久留米市立ひばりが丘図書館","province":"東京都","city":"東久留米市","address":"東久留米市ひばりが丘団地185南部地域センター内","lat":35.746452,"lon":139.534271},{"name":"東久留米市立滝山図書館","province":"東京都","city":"東久留米市","address":"東久留米市滝山4-1-10西部地域センター内","lat":35.744854,"lon":139.505249},{"name":"東久留米市立中央図書館","province":"東京都","city":"東久留米市","address":"東久留米市中央町2-6-23","lat":35.754429,"lon":139.517593},{"name":"東久留米市立東部図書館","province":"東京都","city":"東久留米市","address":"東久留米市大門町2-10-5東部地域センター内","lat":35.764797,"lon":139.540894},{"name":"東久留米市郷土資料室","province":"東京都","city":"東久留米市","address":"東久留米市滝山4-3-14わくわく健康プラザ内","lat":35.741329,"lon":139.504059},{"name":"東久留米市立生涯学習センター","province":"東京都","city":"東久留米市","address":"東久留米市中央町2-6-23","lat":35.754429,"lon":139.517593},{"name":"有限会社　市民葬祭センター","province":"東京都","city":"東久留米市","address":"東京都東久留米市東本町4-6","lat":35.7626027,"lon":139.53419939},{"name":"有限会社　小平典礼　東久留米支社","province":"東京都","city":"東久留米市","address":"東京都東久留米市滝山3丁目11-6","lat":35.74065177,"lon":139.50463613},{"name":"株式会社　コムウェル　小平営業所","province":"東京都","city":"東久留米市","address":"東京都東久留米市柳窪4丁目7-9","lat":35.74611182,"lon":139.48739857},{"name":"株式会社　奥野式典","province":"東京都","city":"東久留米市","address":"東京都東久留米市滝山4丁目1-40","lat":35.74466523,"lon":139.50567754},{"name":"有限会社　緑葬儀社　東久留米支店","province":"東京都","city":"東久留米市","address":"東京都東久留米市本町2丁目1-2","lat":35.76228045,"lon":139.53175239},{"name":"すずらん（株式会社　アイコス）","province":"東京都","city":"東久留米市","address":"東京都東久留米市下里3丁目5-9","lat":35.75130046,"lon":139.50049165},{"name":"有限会社　藤式典　東久留米店","province":"東京都","city":"東久留米市","address":"東京都東久留米市幸町4丁目4-1","lat":35.75557535,"lon":139.51599011},{"name":"有限会社　ウィズセレモニー","province":"東京都","city":"東久留米市","address":"東京都東久留米市東本町12-3","lat":35.76429974,"lon":139.53547979},{"name":"田中葬祭　株式会社　東久留米支店","province":"東京都","city":"東久留米市","address":"東京都東久留米市本町3丁目6-9","lat":35.75947237,"lon":139.52759451},{"name":"柳窪三丁目","province":"東京都","city":"東久留米市","address":"東京都東久留米市柳窪3丁目2-1","lat":35.74325401,"lon":139.4947647},{"name":"上の原交番前","province":"東京都","city":"東久留米市","address":"東京都東久留米市上の原1丁目2","lat":35.76894094,"lon":139.54174311},{"name":"東久留米市役所前","province":"東京都","city":"東久留米市","address":"東京都東久留米市本町3丁目1-41","lat":35.75827534,"lon":139.53039709},{"name":"東久留米市役所西","province":"東京都","city":"東久留米市","address":"東京都東久留米市中央町1丁目1","lat":35.75811417,"lon":139.52673352},{"name":"さいわい福祉センター前","province":"東京都","city":"東久留米市","address":"東京都東久留米市幸町2丁目1-10","lat":35.75915557,"lon":139.51983687},{"name":"東久留米公民館前","province":"東京都","city":"東久留米市","address":"東京都東久留米市中央町2丁目1-46","lat":35.75573938,"lon":139.52343944},{"name":"東久留米駅西","province":"東京都","city":"東久留米市","address":"東京都東久留米市本町1丁目4-53","lat":35.75968355,"lon":139.53264963},{"name":"神山大橋","province":"東京都","city":"東久留米市","address":"東京都東久留米市大門町2丁目12","lat":35.76377491,"lon":139.5419238},{"name":"南沢浄水所","province":"東京都","city":"東久留米市","address":"東京都東久留米市南沢3丁目9-21","lat":35.75193708,"lon":139.52583381},{"name":"滝山浄水所","province":"東京都","city":"東久留米市","address":"東京都東久留米市滝山6丁目1-1","lat":35.74739829,"lon":139.50739394},{"name":"東久留米市立ひばりが丘図書館","province":"東京都","city":"東久留米市","address":"東久留米市ひばりが丘団地185南部地域センター内","lat":35.746452,"lon":139.534271},{"name":"東久留米市立滝山図書館","province":"東京都","city":"東久留米市","address":"東久留米市滝山4-1-10西部地域センター内","lat":35.744854,"lon":139.505249},{"name":"東久留米市立中央図書館","province":"東京都","city":"東久留米市","address":"東久留米市中央町2-6-23","lat":35.754429,"lon":139.517593},{"name":"東久留米市立東部図書館","province":"東京都","city":"東久留米市","address":"東久留米市大門町2-10-5東部地域センター内","lat":35.764797,"lon":139.540894},{"name":"東久留米市郷土資料室","province":"東京都","city":"東久留米市","address":"東久留米市滝山4-3-14わくわく健康プラザ内","lat":35.741329,"lon":139.504059},{"name":"東久留米市立生涯学習センター","province":"東京都","city":"東久留米市","address":"東久留米市中央町2-6-23","lat":35.754429,"lon":139.517593},{"name":"有限会社　市民葬祭センター","province":"東京都","city":"東久留米市","address":"東京都東久留米市東本町4-6","lat":35.7626027,"lon":139.53419939},{"name":"有限会社　小平典礼　東久留米支社","province":"東京都","city":"東久留米市","address":"東京都東久留米市滝山3丁目11-6","lat":35.74065177,"lon":139.50463613},{"name":"株式会社　コムウェル　小平営業所","province":"東京都","city":"東久留米市","address":"東京都東久留米市柳窪4丁目7-9","lat":35.74611182,"lon":139.48739857},{"name":"株式会社　奥野式典","province":"東京都","city":"東久留米市","address":"東京都東久留米市滝山4丁目1-40","lat":35.74466523,"lon":139.50567754},{"name":"有限会社　緑葬儀社　東久留米支店","province":"東京都","city":"東久留米市","address":"東京都東久留米市本町2丁目1-2","lat":35.76228045,"lon":139.53175239},{"name":"すずらん（株式会社　アイコス）","province":"東京都","city":"東久留米市","address":"東京都東久留米市下里3丁目5-9","lat":35.75130046,"lon":139.50049165},{"name":"有限会社　藤式典　東久留米店","province":"東京都","city":"東久留米市","address":"東京都東久留米市幸町4丁目4-1","lat":35.75557535,"lon":139.51599011},{"name":"有限会社　ウィズセレモニー","province":"東京都","city":"東久留米市","address":"東京都東久留米市東本町12-3","lat":35.76429974,"lon":139.53547979},{"name":"田中葬祭　株式会社　東久留米支店","province":"東京都","city":"東久留米市","address":"東京都東久留米市本町3丁目6-9","lat":35.75947237,"lon":139.52759451},{"name":"柳窪三丁目","province":"東京都","city":"東久留米市","address":"東京都東久留米市柳窪3丁目2-1","lat":35.74325401,"lon":139.4947647},{"name":"上の原交番前","province":"東京都","city":"東久留米市","address":"東京都東久留米市上の原1丁目2","lat":35.76894094,"lon":139.54174311},{"name":"東久留米市役所前","province":"東京都","city":"東久留米市","address":"東京都東久留米市本町3丁目1-41","lat":35.75827534,"lon":139.53039709},{"name":"東久留米市役所西","province":"東京都","city":"東久留米市","address":"東京都東久留米市中央町1丁目1","lat":35.75811417,"lon":139.52673352},{"name":"さいわい福祉センター前","province":"東京都","city":"東久留米市","address":"東京都東久留米市幸町2丁目1-10","lat":35.75915557,"lon":139.51983687},{"name":"東久留米公民館前","province":"東京都","city":"東久留米市","address":"東京都東久留米市中央町2丁目1-46","lat":35.75573938,"lon":139.52343944},{"name":"東久留米駅西","province":"東京都","city":"東久留米市","address":"東京都東久留米市本町1丁目4-53","lat":35.75968355,"lon":139.53264963},{"name":"神山大橋","province":"東京都","city":"東久留米市","address":"東京都東久留米市大門町2丁目12","lat":35.76377491,"lon":139.5419238},{"name":"南沢浄水所","province":"東京都","city":"東久留米市","address":"東京都東久留米市南沢3丁目9-21","lat":35.75193708,"lon":139.52583381},{"name":"滝山浄水所","province":"東京都","city":"東久留米市","address":"東京都東久留米市滝山6丁目1-1","lat":35.74739829,"lon":139.50739394},{"name":"東久留米市立ひばりが丘図書館","province":"東京都","city":"東久留米市","address":"東久留米市ひばりが丘団地185南部地域センター内","lat":35.746452,"lon":139.534271},{"name":"東久留米市立滝山図書館","province":"東京都","city":"東久留米市","address":"東久留米市滝山4-1-10西部地域センター内","lat":35.744854,"lon":139.505249},{"name":"東久留米市立中央図書館","province":"東京都","city":"東久留米市","address":"東久留米市中央町2-6-23","lat":35.754429,"lon":139.517593},{"name":"東久留米市立東部図書館","province":"東京都","city":"東久留米市","address":"東久留米市大門町2-10-5東部地域センター内","lat":35.764797,"lon":139.540894},{"name":"東久留米市郷土資料室","province":"東京都","city":"東久留米市","address":"東久留米市滝山4-3-14わくわく健康プラザ内","lat":35.741329,"lon":139.504059},{"name":"東久留米市立生涯学習センター","province":"東京都","city":"東久留米市","address":"東久留米市中央町2-6-23","lat":35.754429,"lon":139.517593},{"name":"有限会社　市民葬祭センター","province":"東京都","city":"東久留米市","address":"東京都東久留米市東本町4-6","lat":35.7626027,"lon":139.53419939},{"name":"有限会社　小平典礼　東久留米支社","province":"東京都","city":"東久留米市","address":"東京都東久留米市滝山3丁目11-6","lat":35.74065177,"lon":139.50463613},{"name":"株式会社　コムウェル　小平営業所","province":"東京都","city":"東久留米市","address":"東京都東久留米市柳窪4丁目7-9","lat":35.74611182,"lon":139.48739857},{"name":"株式会社　奥野式典","province":"東京都","city":"東久留米市","address":"東京都東久留米市滝山4丁目1-40","lat":35.74466523,"lon":139.50567754},{"name":"有限会社　緑葬儀社　東久留米支店","province":"東京都","city":"東久留米市","address":"東京都東久留米市本町2丁目1-2","lat":35.76228045,"lon":139.53175239},{"name":"すずらん（株式会社　アイコス）","province":"東京都","city":"東久留米市","address":"東京都東久留米市下里3丁目5-9","lat":35.75130046,"lon":139.50049165},{"name":"有限会社　藤式典　東久留米店","province":"東京都","city":"東久留米市","address":"東京都東久留米市幸町4丁目4-1","lat":35.75557535,"lon":139.51599011},{"name":"有限会社　ウィズセレモニー","province":"東京都","city":"東久留米市","address":"東京都東久留米市東本町12-3","lat":35.76429974,"lon":139.53547979},{"name":"田中葬祭　株式会社　東久留米支店","province":"東京都","city":"東久留米市","address":"東京都東久留米市本町3丁目6-9","lat":35.75947237,"lon":139.52759451},{"name":"柳窪三丁目","province":"東京都","city":"東久留米市","address":"東京都東久留米市柳窪3丁目2-1","lat":35.74325401,"lon":139.4947647},{"name":"上の原交番前","province":"東京都","city":"東久留米市","address":"東京都東久留米市上の原1丁目2","lat":35.76894094,"lon":139.54174311},{"name":"東久留米市役所前","province":"東京都","city":"東久留米市","address":"東京都東久留米市本町3丁目1-41","lat":35.75827534,"lon":139.53039709},{"name":"東久留米市役所西","province":"東京都","city":"東久留米市","address":"東京都東久留米市中央町1丁目1","lat":35.75811417,"lon":139.52673352},{"name":"さいわい福祉センター前","province":"東京都","city":"東久留米市","address":"東京都東久留米市幸町2丁目1-10","lat":35.75915557,"lon":139.51983687},{"name":"東久留米公民館前","province":"東京都","city":"東久留米市","address":"東京都東久留米市中央町2丁目1-46","lat":35.75573938,"lon":139.52343944},{"name":"東久留米駅西","province":"東京都","city":"東久留米市","address":"東京都東久留米市本町1丁目4-53","lat":35.75968355,"lon":139.53264963},{"name":"神山大橋","province":"東京都","city":"東久留米市","address":"東京都東久留米市大門町2丁目12","lat":35.76377491,"lon":139.5419238},{"name":"南沢浄水所","province":"東京都","city":"東久留米市","address":"東京都東久留米市南沢3丁目9-21","lat":35.75193708,"lon":139.52583381},{"name":"滝山浄水所","province":"東京都","city":"東久留米市","address":"東京都東久留米市滝山6丁目1-1","lat":35.74739829,"lon":139.50739394},{"name":"東久留米市立ひばりが丘図書館","province":"東京都","city":"東久留米市","address":"東久留米市ひばりが丘団地185南部地域センター内","lat":35.746452,"lon":139.534271},{"name":"東久留米市立滝山図書館","province":"東京都","city":"東久留米市","address":"東久留米市滝山4-1-10西部地域センター内","lat":35.744854,"lon":139.505249},{"name":"東久留米市立中央図書館","province":"東京都","city":"東久留米市","address":"東久留米市中央町2-6-23","lat":35.754429,"lon":139.517593},{"name":"東久留米市立東部図書館","province":"東京都","city":"東久留米市","address":"東久留米市大門町2-10-5東部地域センター内","lat":35.764797,"lon":139.540894},{"name":"東久留米市郷土資料室","province":"東京都","city":"東久留米市","address":"東久留米市滝山4-3-14わくわく健康プラザ内","lat":35.741329,"lon":139.504059},{"name":"東久留米市立生涯学習センター","province":"東京都","city":"東久留米市","address":"東久留米市中央町2-6-23","lat":35.754429,"lon":139.517593},{"name":"有限会社　市民葬祭センター","province":"東京都","city":"東久留米市","address":"東京都東久留米市東本町4-6","lat":35.7626027,"lon":139.53419939},{"name":"有限会社　小平典礼　東久留米支社","province":"東京都","city":"東久留米市","address":"東京都東久留米市滝山3丁目11-6","lat":35.74065177,"lon":139.50463613},{"name":"株式会社　コムウェル　小平営業所","province":"東京都","city":"東久留米市","address":"東京都東久留米市柳窪4丁目7-9","lat":35.74611182,"lon":139.48739857},{"name":"株式会社　奥野式典","province":"東京都","city":"東久留米市","address":"東京都東久留米市滝山4丁目1-40","lat":35.74466523,"lon":139.50567754},{"name":"有限会社　緑葬儀社　東久留米支店","province":"東京都","city":"東久留米市","address":"東京都東久留米市本町2丁目1-2","lat":35.76228045,"lon":139.53175239},{"name":"すずらん（株式会社　アイコス）","province":"東京都","city":"東久留米市","address":"東京都東久留米市下里3丁目5-9","lat":35.75130046,"lon":139.50049165},{"name":"有限会社　藤式典　東久留米店","province":"東京都","city":"東久留米市","address":"東京都東久留米市幸町4丁目4-1","lat":35.75557535,"lon":139.51599011},{"name":"有限会社　ウィズセレモニー","province":"東京都","city":"東久留米市","address":"東京都東久留米市東本町12-3","lat":35.76429974,"lon":139.53547979},{"name":"田中葬祭　株式会社　東久留米支店","province":"東京都","city":"東久留米市","address":"東京都東久留米市本町3丁目6-9","lat":35.75947237,"lon":139.52759451},{"name":"東久留米市立ひばりが丘図書館","province":"東京都","city":"東久留米市","address":"東久留米市ひばりが丘団地185南部地域センター内","lat":35.746452,"lon":139.534271},{"name":"東久留米市立滝山図書館","province":"東京都","city":"東久留米市","address":"東久留米市滝山4-1-10西部地域センター内","lat":35.744854,"lon":139.505249},{"name":"東久留米市立中央図書館","province":"東京都","city":"東久留米市","address":"東久留米市中央町2-6-23","lat":35.754429,"lon":139.517593},{"name":"東久留米市立東部図書館","province":"東京都","city":"東久留米市","address":"東久留米市大門町2-10-5東部地域センター内","lat":35.764797,"lon":139.540894},{"name":"東久留米市郷土資料室","province":"東京都","city":"東久留米市","address":"東久留米市滝山4-3-14わくわく健康プラザ内","lat":35.741329,"lon":139.504059},{"name":"東久留米市立生涯学習センター","province":"東京都","city":"東久留米市","address":"東久留米市中央町2-6-23","lat":35.754429,"lon":139.517593},{"name":"有限会社　市民葬祭センター","province":"東京都","city":"東久留米市","address":"東京都東久留米市東本町4-6","lat":35.7626027,"lon":139.53419939},{"name":"有限会社　小平典礼　東久留米支社","province":"東京都","city":"東久留米市","address":"東京都東久留米市滝山3丁目11-6","lat":35.74065177,"lon":139.50463613},{"name":"株式会社　コムウェル　小平営業所","province":"東京都","city":"東久留米市","address":"東京都東久留米市柳窪4丁目7-9","lat":35.74611182,"lon":139.48739857},{"name":"株式会社　奥野式典","province":"東京都","city":"東久留米市","address":"東京都東久留米市滝山4丁目1-40","lat":35.74466523,"lon":139.50567754},{"name":"有限会社　緑葬儀社　東久留米支店","province":"東京都","city":"東久留米市","address":"東京都東久留米市本町2丁目1-2","lat":35.76228045,"lon":139.53175239},{"name":"すずらん（株式会社　アイコス）","province":"東京都","city":"東久留米市","address":"東京都東久留米市下里3丁目5-9","lat":35.75130046,"lon":139.50049165},{"name":"有限会社　藤式典　東久留米店","province":"東京都","city":"東久留米市","address":"東京都東久留米市幸町4丁目4-1","lat":35.75557535,"lon":139.51599011},{"name":"有限会社　ウィズセレモニー","province":"東京都","city":"東久留米市","address":"東京都東久留米市東本町12-3","lat":35.76429974,"lon":139.53547979},{"name":"田中葬祭　株式会社　東久留米支店","province":"東京都","city":"東久留米市","address":"東京都東久留米市本町3丁目6-9","lat":35.75947237,"lon":139.52759451},{"name":"東久留米市立ひばりが丘図書館","province":"東京都","city":"東久留米市","address":"東久留米市ひばりが丘団地185南部地域センター内","lat":35.746452,"lon":139.534271},{"name":"東久留米市立滝山図書館","province":"東京都","city":"東久留米市","address":"東久留米市滝山4-1-10西部地域センター内","lat":35.744854,"lon":139.505249},{"name":"東久留米市立中央図書館","province":"東京都","city":"東久留米市","address":"東久留米市中央町2-6-23","lat":35.754429,"lon":139.517593},{"name":"東久留米市立東部図書館","province":"東京都","city":"東久留米市","address":"東久留米市大門町2-10-5東部地域センター内","lat":35.764797,"lon":139.540894},{"name":"東久留米市郷土資料室","province":"東京都","city":"東久留米市","address":"東久留米市滝山4-3-14わくわく健康プラザ内","lat":35.741329,"lon":139.504059},{"name":"東久留米市立生涯学習センター","province":"東京都","city":"東久留米市","address":"東久留米市中央町2-6-23","lat":35.754429,"lon":139.517593},{"name":"有限会社　市民葬祭センター","province":"東京都","city":"東久留米市","address":"東京都東久留米市東本町4-6","lat":35.7626027,"lon":139.53419939},{"name":"有限会社　小平典礼　東久留米支社","province":"東京都","city":"東久留米市","address":"東京都東久留米市滝山3丁目11-6","lat":35.74065177,"lon":139.50463613},{"name":"株式会社　コムウェル　小平営業所","province":"東京都","city":"東久留米市","address":"東京都東久留米市柳窪4丁目7-9","lat":35.74611182,"lon":139.48739857},{"name":"株式会社　奥野式典","province":"東京都","city":"東久留米市","address":"東京都東久留米市滝山4丁目1-40","lat":35.74466523,"lon":139.50567754},{"name":"有限会社　緑葬儀社　東久留米支店","province":"東京都","city":"東久留米市","address":"東京都東久留米市本町2丁目1-2","lat":35.76228045,"lon":139.53175239},{"name":"すずらん（株式会社　アイコス）","province":"東京都","city":"東久留米市","address":"東京都東久留米市下里3丁目5-9","lat":35.75130046,"lon":139.50049165},{"name":"有限会社　藤式典　東久留米店","province":"東京都","city":"東久留米市","address":"東京都東久留米市幸町4丁目4-1","lat":35.75557535,"lon":139.51599011},{"name":"有限会社　ウィズセレモニー","province":"東京都","city":"東久留米市","address":"東京都東久留米市東本町12-3","lat":35.76429974,"lon":139.53547979},{"name":"田中葬祭　株式会社　東久留米支店","province":"東京都","city":"東久留米市","address":"東京都東久留米市本町3丁目6-9","lat":35.75947237,"lon":139.52759451},{"name":"東久留米市立ひばりが丘図書館","province":"東京都","city":"東久留米市","address":"東久留米市ひばりが丘団地185南部地域センター内","lat":35.746452,"lon":139.534271},{"name":"東久留米市立滝山図書館","province":"東京都","city":"東久留米市","address":"東久留米市滝山4-1-10西部地域センター内","lat":35.744854,"lon":139.505249},{"name":"東久留米市立中央図書館","province":"東京都","city":"東久留米市","address":"東久留米市中央町2-6-23","lat":35.754429,"lon":139.517593},{"name":"東久留米市立東部図書館","province":"東京都","city":"東久留米市","address":"東久留米市大門町2-10-5東部地域センター内","lat":35.764797,"lon":139.540894},{"name":"東久留米市郷土資料室","province":"東京都","city":"東久留米市","address":"東久留米市滝山4-3-14わくわく健康プラザ内","lat":35.741329,"lon":139.504059},{"name":"東久留米市立生涯学習センター","province":"東京都","city":"東久留米市","address":"東久留米市中央町2-6-23","lat":35.754429,"lon":139.517593},{"name":"有限会社　市民葬祭センター","province":"東京都","city":"東久留米市","address":"東京都東久留米市東本町4-6","lat":35.7626027,"lon":139.53419939},{"name":"有限会社　小平典礼　東久留米支社","province":"東京都","city":"東久留米市","address":"東京都東久留米市滝山3丁目11-6","lat":35.74065177,"lon":139.50463613},{"name":"株式会社　コムウェル　小平営業所","province":"東京都","city":"東久留米市","address":"東京都東久留米市柳窪4丁目7-9","lat":35.74611182,"lon":139.48739857},{"name":"株式会社　奥野式典","province":"東京都","city":"東久留米市","address":"東京都東久留米市滝山4丁目1-40","lat":35.74466523,"lon":139.50567754},{"name":"有限会社　緑葬儀社　東久留米支店","province":"東京都","city":"東久留米市","address":"東京都東久留米市本町2丁目1-2","lat":35.76228045,"lon":139.53175239},{"name":"すずらん（株式会社　アイコス）","province":"東京都","city":"東久留米市","address":"東京都東久留米市下里3丁目5-9","lat":35.75130046,"lon":139.50049165},{"name":"有限会社　藤式典　東久留米店","province":"東京都","city":"東久留米市","address":"東京都東久留米市幸町4丁目4-1","lat":35.75557535,"lon":139.51599011},{"name":"有限会社　ウィズセレモニー","province":"東京都","city":"東久留米市","address":"東京都東久留米市東本町12-3","lat":35.76429974,"lon":139.53547979},{"name":"田中葬祭　株式会社　東久留米支店","province":"東京都","city":"東久留米市","address":"東京都東久留米市本町3丁目6-9","lat":35.75947237,"lon":139.52759451},{"name":"東久留米市立ひばりが丘図書館","province":"東京都","city":"東久留米市","address":"東久留米市ひばりが丘団地185南部地域センター内","lat":35.746452,"lon":139.534271},{"name":"東久留米市立滝山図書館","province":"東京都","city":"東久留米市","address":"東久留米市滝山4-1-10西部地域センター内","lat":35.744854,"lon":139.505249},{"name":"東久留米市立中央図書館","province":"東京都","city":"東久留米市","address":"東久留米市中央町2-6-23","lat":35.754429,"lon":139.517593},{"name":"東久留米市立東部図書館","province":"東京都","city":"東久留米市","address":"東久留米市大門町2-10-5東部地域センター内","lat":35.764797,"lon":139.540894},{"name":"東久留米市郷土資料室","province":"東京都","city":"東久留米市","address":"東久留米市滝山4-3-14わくわく健康プラザ内","lat":35.741329,"lon":139.504059},{"name":"東久留米市立生涯学習センター","province":"東京都","city":"東久留米市","address":"東久留米市中央町2-6-23","lat":35.754429,"lon":139.517593},{"name":"有限会社　市民葬祭センター","province":"東京都","city":"東久留米市","address":"東京都東久留米市東本町4-6","lat":35.7626027,"lon":139.53419939},{"name":"有限会社　小平典礼　東久留米支社","province":"東京都","city":"東久留米市","address":"東京都東久留米市滝山3丁目11-6","lat":35.74065177,"lon":139.50463613},{"name":"株式会社　コムウェル　小平営業所","province":"東京都","city":"東久留米市","address":"東京都東久留米市柳窪4丁目7-9","lat":35.74611182,"lon":139.48739857},{"name":"株式会社　奥野式典","province":"東京都","city":"東久留米市","address":"東京都東久留米市滝山4丁目1-40","lat":35.74466523,"lon":139.50567754},{"name":"有限会社　緑葬儀社　東久留米支店","province":"東京都","city":"東久留米市","address":"東京都東久留米市本町2丁目1-2","lat":35.76228045,"lon":139.53175239},{"name":"すずらん（株式会社　アイコス）","province":"東京都","city":"東久留米市","address":"東京都東久留米市下里3丁目5-9","lat":35.75130046,"lon":139.50049165},{"name":"有限会社　藤式典　東久留米店","province":"東京都","city":"東久留米市","address":"東京都東久留米市幸町4丁目4-1","lat":35.75557535,"lon":139.51599011},{"name":"有限会社　ウィズセレモニー","province":"東京都","city":"東久留米市","address":"東京都東久留米市東本町12-3","lat":35.76429974,"lon":139.53547979},{"name":"田中葬祭　株式会社　東久留米支店","province":"東京都","city":"東久留米市","address":"東京都東久留米市本町3丁目6-9","lat":35.75947237,"lon":139.52759451},{"name":"東久留米市立ひばりが丘図書館","province":"東京都","city":"東久留米市","address":"東久留米市ひばりが丘団地185南部地域センター内","lat":35.746452,"lon":139.534271},{"name":"東久留米市立滝山図書館","province":"東京都","city":"東久留米市","address":"東久留米市滝山4-1-10西部地域センター内","lat":35.744854,"lon":139.505249},{"name":"東久留米市立中央図書館","province":"東京都","city":"東久留米市","address":"東久留米市中央町2-6-23","lat":35.754429,"lon":139.517593},{"name":"東久留米市立東部図書館","province":"東京都","city":"東久留米市","address":"東久留米市大門町2-10-5東部地域センター内","lat":35.764797,"lon":139.540894},{"name":"東久留米市郷土資料室","province":"東京都","city":"東久留米市","address":"東久留米市滝山4-3-14わくわく健康プラザ内","lat":35.741329,"lon":139.504059},{"name":"東久留米市立生涯学習センター","province":"東京都","city":"東久留米市","address":"東久留米市中央町2-6-23","lat":35.754429,"lon":139.517593},{"name":"有限会社　市民葬祭センター","province":"東京都","city":"東久留米市","address":"東京都東久留米市東本町4-6","lat":35.7626027,"lon":139.53419939},{"name":"有限会社　小平典礼　東久留米支社","province":"東京都","city":"東久留米市","address":"東京都東久留米市滝山3丁目11-6","lat":35.74065177,"lon":139.50463613},{"name":"株式会社　コムウェル　小平営業所","province":"東京都","city":"東久留米市","address":"東京都東久留米市柳窪4丁目7-9","lat":35.74611182,"lon":139.48739857},{"name":"株式会社　奥野式典","province":"東京都","city":"東久留米市","address":"東京都東久留米市滝山4丁目1-40","lat":35.74466523,"lon":139.50567754},{"name":"有限会社　緑葬儀社　東久留米支店","province":"東京都","city":"東久留米市","address":"東京都東久留米市本町2丁目1-2","lat":35.76228045,"lon":139.53175239},{"name":"すずらん（株式会社　アイコス）","province":"東京都","city":"東久留米市","address":"東京都東久留米市下里3丁目5-9","lat":35.75130046,"lon":139.50049165},{"name":"有限会社　藤式典　東久留米店","province":"東京都","city":"東久留米市","address":"東京都東久留米市幸町4丁目4-1","lat":35.75557535,"lon":139.51599011},{"name":"有限会社　ウィズセレモニー","province":"東京都","city":"東久留米市","address":"東京都東久留米市東本町12-3","lat":35.76429974,"lon":139.53547979},{"name":"田中葬祭　株式会社　東久留米支店","province":"東京都","city":"東久留米市","address":"東京都東久留米市本町3丁目6-9","lat":35.75947237,"lon":139.52759451},{"name":"東久留米市立ひばりが丘図書館","province":"東京都","city":"東久留米市","address":"東久留米市ひばりが丘団地185南部地域センター内","lat":35.746452,"lon":139.534271},{"name":"東久留米市立滝山図書館","province":"東京都","city":"東久留米市","address":"東久留米市滝山4-1-10西部地域センター内","lat":35.744854,"lon":139.505249},{"name":"東久留米市立中央図書館","province":"東京都","city":"東久留米市","address":"東久留米市中央町2-6-23","lat":35.754429,"lon":139.517593},{"name":"東久留米市立東部図書館","province":"東京都","city":"東久留米市","address":"東久留米市大門町2-10-5東部地域センター内","lat":35.764797,"lon":139.540894},{"name":"東久留米市郷土資料室","province":"東京都","city":"東久留米市","address":"東久留米市滝山4-3-14わくわく健康プラザ内","lat":35.741329,"lon":139.504059},{"name":"東久留米市立生涯学習センター","province":"東京都","city":"東久留米市","address":"東久留米市中央町2-6-23","lat":35.754429,"lon":139.517593},{"name":"有限会社　市民葬祭センター","province":"東京都","city":"東久留米市","address":"東京都東久留米市東本町4-6","lat":35.7626027,"lon":139.53419939},{"name":"有限会社　小平典礼　東久留米支社","province":"東京都","city":"東久留米市","address":"東京都東久留米市滝山3丁目11-6","lat":35.74065177,"lon":139.50463613},{"name":"株式会社　コムウェル　小平営業所","province":"東京都","city":"東久留米市","address":"東京都東久留米市柳窪4丁目7-9","lat":35.74611182,"lon":139.48739857},{"name":"株式会社　奥野式典","province":"東京都","city":"東久留米市","address":"東京都東久留米市滝山4丁目1-40","lat":35.74466523,"lon":139.50567754},{"name":"有限会社　緑葬儀社　東久留米支店","province":"東京都","city":"東久留米市","address":"東京都東久留米市本町2丁目1-2","lat":35.76228045,"lon":139.53175239},{"name":"すずらん（株式会社　アイコス）","province":"東京都","city":"東久留米市","address":"東京都東久留米市下里3丁目5-9","lat":35.75130046,"lon":139.50049165},{"name":"有限会社　藤式典　東久留米店","province":"東京都","city":"東久留米市","address":"東京都東久留米市幸町4丁目4-1","lat":35.75557535,"lon":139.51599011},{"name":"有限会社　ウィズセレモニー","province":"東京都","city":"東久留米市","address":"東京都東久留米市東本町12-3","lat":35.76429974,"lon":139.53547979},{"name":"田中葬祭　株式会社　東久留米支店","province":"東京都","city":"東久留米市","address":"東京都東久留米市本町3丁目6-9","lat":35.75947237,"lon":139.52759451},{"name":"東久留米市立ひばりが丘図書館","province":"東京都","city":"東久留米市","address":"東久留米市ひばりが丘団地185南部地域センター内","lat":35.746452,"lon":139.534271},{"name":"東久留米市立滝山図書館","province":"東京都","city":"東久留米市","address":"東久留米市滝山4-1-10西部地域センター内","lat":35.744854,"lon":139.505249},{"name":"東久留米市立中央図書館","province":"東京都","city":"東久留米市","address":"東久留米市中央町2-6-23","lat":35.754429,"lon":139.517593},{"name":"東久留米市立東部図書館","province":"東京都","city":"東久留米市","address":"東久留米市大門町2-10-5東部地域センター内","lat":35.764797,"lon":139.540894},{"name":"東久留米市郷土資料室","province":"東京都","city":"東久留米市","address":"東久留米市滝山4-3-14わくわく健康プラザ内","lat":35.741329,"lon":139.504059},{"name":"東久留米市立生涯学習センター","province":"東京都","city":"東久留米市","address":"東久留米市中央町2-6-23","lat":35.754429,"lon":139.517593},{"name":"有限会社　市民葬祭センター","province":"東京都","city":"東久留米市","address":"東京都東久留米市東本町4-6","lat":35.7626027,"lon":139.53419939},{"name":"有限会社　小平典礼　東久留米支社","province":"東京都","city":"東久留米市","address":"東京都東久留米市滝山3丁目11-6","lat":35.74065177,"lon":139.50463613},{"name":"株式会社　コムウェル　小平営業所","province":"東京都","city":"東久留米市","address":"東京都東久留米市柳窪4丁目7-9","lat":35.74611182,"lon":139.48739857},{"name":"株式会社　奥野式典","province":"東京都","city":"東久留米市","address":"東京都東久留米市滝山4丁目1-40","lat":35.74466523,"lon":139.50567754},{"name":"有限会社　緑葬儀社　東久留米支店","province":"東京都","city":"東久留米市","address":"東京都東久留米市本町2丁目1-2","lat":35.76228045,"lon":139.53175239},{"name":"すずらん（株式会社　アイコス）","province":"東京都","city":"東久留米市","address":"東京都東久留米市下里3丁目5-9","lat":35.75130046,"lon":139.50049165},{"name":"有限会社　藤式典　東久留米店","province":"東京都","city":"東久留米市","address":"東京都東久留米市幸町4丁目4-1","lat":35.75557535,"lon":139.51599011},{"name":"有限会社　ウィズセレモニー","province":"東京都","city":"東久留米市","address":"東京都東久留米市東本町12-3","lat":35.76429974,"lon":139.53547979},{"name":"田中葬祭　株式会社　東久留米支店","province":"東京都","city":"東久留米市","address":"東京都東久留米市本町3丁目6-9","lat":35.75947237,"lon":139.52759451},{"name":"東久留米市立ひばりが丘図書館","province":"東京都","city":"東久留米市","address":"東久留米市ひばりが丘団地185南部地域センター内","lat":35.746452,"lon":139.534271},{"name":"東久留米市立滝山図書館","province":"東京都","city":"東久留米市","address":"東久留米市滝山4-1-10西部地域センター内","lat":35.744854,"lon":139.505249},{"name":"東久留米市立中央図書館","province":"東京都","city":"東久留米市","address":"東久留米市中央町2-6-23","lat":35.754429,"lon":139.517593},{"name":"東久留米市立東部図書館","province":"東京都","city":"東久留米市","address":"東久留米市大門町2-10-5東部地域センター内","lat":35.764797,"lon":139.540894},{"name":"東久留米市郷土資料室","province":"東京都","city":"東久留米市","address":"東久留米市滝山4-3-14わくわく健康プラザ内","lat":35.741329,"lon":139.504059},{"name":"東久留米市立生涯学習センター","province":"東京都","city":"東久留米市","address":"東久留米市中央町2-6-23","lat":35.754429,"lon":139.517593},{"name":"有限会社　市民葬祭センター","province":"東京都","city":"東久留米市","address":"東京都東久留米市東本町4-6","lat":35.7626027,"lon":139.53419939},{"name":"有限会社　小平典礼　東久留米支社","province":"東京都","city":"東久留米市","address":"東京都東久留米市滝山3丁目11-6","lat":35.74065177,"lon":139.50463613},{"name":"株式会社　コムウェル　小平営業所","province":"東京都","city":"東久留米市","address":"東京都東久留米市柳窪4丁目7-9","lat":35.74611182,"lon":139.48739857},{"name":"株式会社　奥野式典","province":"東京都","city":"東久留米市","address":"東京都東久留米市滝山4丁目1-40","lat":35.74466523,"lon":139.50567754},{"name":"有限会社　緑葬儀社　東久留米支店","province":"東京都","city":"東久留米市","address":"東京都東久留米市本町2丁目1-2","lat":35.76228045,"lon":139.53175239},{"name":"すずらん（株式会社　アイコス）","province":"東京都","city":"東久留米市","address":"東京都東久留米市下里3丁目5-9","lat":35.75130046,"lon":139.50049165},{"name":"有限会社　藤式典　東久留米店","province":"東京都","city":"東久留米市","address":"東京都東久留米市幸町4丁目4-1","lat":35.75557535,"lon":139.51599011},{"name":"有限会社　ウィズセレモニー","province":"東京都","city":"東久留米市","address":"東京都東久留米市東本町12-3","lat":35.76429974,"lon":139.53547979},{"name":"田中葬祭　株式会社　東久留米支店","province":"東京都","city":"東久留米市","address":"東京都東久留米市本町3丁目6-9","lat":35.75947237,"lon":139.52759451},{"name":"東久留米市立ひばりが丘図書館","province":"東京都","city":"東久留米市","address":"東久留米市ひばりが丘団地185南部地域センター内","lat":35.746452,"lon":139.534271},{"name":"東久留米市立滝山図書館","province":"東京都","city":"東久留米市","address":"東久留米市滝山4-1-10西部地域センター内","lat":35.744854,"lon":139.505249},{"name":"東久留米市立中央図書館","province":"東京都","city":"東久留米市","address":"東久留米市中央町2-6-23","lat":35.754429,"lon":139.517593},{"name":"東久留米市立東部図書館","province":"東京都","city":"東久留米市","address":"東久留米市大門町2-10-5東部地域センター内","lat":35.764797,"lon":139.540894},{"name":"東久留米市郷土資料室","province":"東京都","city":"東久留米市","address":"東久留米市滝山4-3-14わくわく健康プラザ内","lat":35.741329,"lon":139.504059},{"name":"東久留米市立生涯学習センター","province":"東京都","city":"東久留米市","address":"東久留米市中央町2-6-23","lat":35.754429,"lon":139.517593},{"name":"有限会社　市民葬祭センター","province":"東京都","city":"東久留米市","address":"東京都東久留米市東本町4-6","lat":35.7626027,"lon":139.53419939},{"name":"有限会社　小平典礼　東久留米支社","province":"東京都","city":"東久留米市","address":"東京都東久留米市滝山3丁目11-6","lat":35.74065177,"lon":139.50463613},{"name":"株式会社　コムウェル　小平営業所","province":"東京都","city":"東久留米市","address":"東京都東久留米市柳窪4丁目7-9","lat":35.74611182,"lon":139.48739857},{"name":"株式会社　奥野式典","province":"東京都","city":"東久留米市","address":"東京都東久留米市滝山4丁目1-40","lat":35.74466523,"lon":139.50567754},{"name":"有限会社　緑葬儀社　東久留米支店","province":"東京都","city":"東久留米市","address":"東京都東久留米市本町2丁目1-2","lat":35.76228045,"lon":139.53175239},{"name":"すずらん（株式会社　アイコス）","province":"東京都","city":"東久留米市","address":"東京都東久留米市下里3丁目5-9","lat":35.75130046,"lon":139.50049165},{"name":"有限会社　藤式典　東久留米店","province":"東京都","city":"東久留米市","address":"東京都東久留米市幸町4丁目4-1","lat":35.75557535,"lon":139.51599011},{"name":"有限会社　ウィズセレモニー","province":"東京都","city":"東久留米市","address":"東京都東久留米市東本町12-3","lat":35.76429974,"lon":139.53547979},{"name":"田中葬祭　株式会社　東久留米支店","province":"東京都","city":"東久留米市","address":"東京都東久留米市本町3丁目6-9","lat":35.75947237,"lon":139.52759451},{"name":"東久留米市立ひばりが丘図書館","province":"東京都","city":"東久留米市","address":"東久留米市ひばりが丘団地185南部地域センター内","lat":35.746452,"lon":139.534271},{"name":"東久留米市立滝山図書館","province":"東京都","city":"東久留米市","address":"東久留米市滝山4-1-10西部地域センター内","lat":35.744854,"lon":139.505249},{"name":"東久留米市立中央図書館","province":"東京都","city":"東久留米市","address":"東久留米市中央町2-6-23","lat":35.754429,"lon":139.517593},{"name":"東久留米市立東部図書館","province":"東京都","city":"東久留米市","address":"東久留米市大門町2-10-5東部地域センター内","lat":35.764797,"lon":139.540894},{"name":"東久留米市郷土資料室","province":"東京都","city":"東久留米市","address":"東久留米市滝山4-3-14わくわく健康プラザ内","lat":35.741329,"lon":139.504059},{"name":"東久留米市立生涯学習センター","province":"東京都","city":"東久留米市","address":"東久留米市中央町2-6-23","lat":35.754429,"lon":139.517593},{"name":"有限会社　市民葬祭センター","province":"東京都","city":"東久留米市","address":"東京都東久留米市東本町4-6","lat":35.7626027,"lon":139.53419939},{"name":"有限会社　小平典礼　東久留米支社","province":"東京都","city":"東久留米市","address":"東京都東久留米市滝山3丁目11-6","lat":35.74065177,"lon":139.50463613},{"name":"株式会社　コムウェル　小平営業所","province":"東京都","city":"東久留米市","address":"東京都東久留米市柳窪4丁目7-9","lat":35.74611182,"lon":139.48739857},{"name":"株式会社　奥野式典","province":"東京都","city":"東久留米市","address":"東京都東久留米市滝山4丁目1-40","lat":35.74466523,"lon":139.50567754},{"name":"有限会社　緑葬儀社　東久留米支店","province":"東京都","city":"東久留米市","address":"東京都東久留米市本町2丁目1-2","lat":35.76228045,"lon":139.53175239},{"name":"すずらん（株式会社　アイコス）","province":"東京都","city":"東久留米市","address":"東京都東久留米市下里3丁目5-9","lat":35.75130046,"lon":139.50049165},{"name":"有限会社　藤式典　東久留米店","province":"東京都","city":"東久留米市","address":"東京都東久留米市幸町4丁目4-1","lat":35.75557535,"lon":139.51599011},{"name":"有限会社　ウィズセレモニー","province":"東京都","city":"東久留米市","address":"東京都東久留米市東本町12-3","lat":35.76429974,"lon":139.53547979},{"name":"田中葬祭　株式会社　東久留米支店","province":"東京都","city":"東久留米市","address":"東京都東久留米市本町3丁目6-9","lat":35.75947237,"lon":139.52759451},{"name":"東久留米市立ひばりが丘図書館","province":"東京都","city":"東久留米市","address":"東久留米市ひばりが丘団地185南部地域センター内","lat":35.746452,"lon":139.534271},{"name":"東久留米市立滝山図書館","province":"東京都","city":"東久留米市","address":"東久留米市滝山4-1-10西部地域センター内","lat":35.744854,"lon":139.505249},{"name":"東久留米市立中央図書館","province":"東京都","city":"東久留米市","address":"東久留米市中央町2-6-23","lat":35.754429,"lon":139.517593},{"name":"東久留米市立東部図書館","province":"東京都","city":"東久留米市","address":"東久留米市大門町2-10-5東部地域センター内","lat":35.764797,"lon":139.540894},{"name":"東久留米市郷土資料室","province":"東京都","city":"東久留米市","address":"東久留米市滝山4-3-14わくわく健康プラザ内","lat":35.741329,"lon":139.504059},{"name":"東久留米市立生涯学習センター","province":"東京都","city":"東久留米市","address":"東久留米市中央町2-6-23","lat":35.754429,"lon":139.517593},{"name":"有限会社　市民葬祭センター","province":"東京都","city":"東久留米市","address":"東京都東久留米市東本町4-6","lat":35.7626027,"lon":139.53419939},{"name":"有限会社　小平典礼　東久留米支社","province":"東京都","city":"東久留米市","address":"東京都東久留米市滝山3丁目11-6","lat":35.74065177,"lon":139.50463613},{"name":"株式会社　コムウェル　小平営業所","province":"東京都","city":"東久留米市","address":"東京都東久留米市柳窪4丁目7-9","lat":35.74611182,"lon":139.48739857},{"name":"株式会社　奥野式典","province":"東京都","city":"東久留米市","address":"東京都東久留米市滝山4丁目1-40","lat":35.74466523,"lon":139.50567754},{"name":"有限会社　緑葬儀社　東久留米支店","province":"東京都","city":"東久留米市","address":"東京都東久留米市本町2丁目1-2","lat":35.76228045,"lon":139.53175239},{"name":"すずらん（株式会社　アイコス）","province":"東京都","city":"東久留米市","address":"東京都東久留米市下里3丁目5-9","lat":35.75130046,"lon":139.50049165},{"name":"有限会社　藤式典　東久留米店","province":"東京都","city":"東久留米市","address":"東京都東久留米市幸町4丁目4-1","lat":35.75557535,"lon":139.51599011},{"name":"有限会社　ウィズセレモニー","province":"東京都","city":"東久留米市","address":"東京都東久留米市東本町12-3","lat":35.76429974,"lon":139.53547979},{"name":"田中葬祭　株式会社　東久留米支店","province":"東京都","city":"東久留米市","address":"東京都東久留米市本町3丁目6-9","lat":35.75947237,"lon":139.52759451},{"name":"東久留米市立ひばりが丘図書館","province":"東京都","city":"東久留米市","address":"東久留米市ひばりが丘団地185南部地域センター内","lat":35.746452,"lon":139.534271},{"name":"東久留米市立滝山図書館","province":"東京都","city":"東久留米市","address":"東久留米市滝山4-1-10西部地域センター内","lat":35.744854,"lon":139.505249},{"name":"東久留米市立中央図書館","province":"東京都","city":"東久留米市","address":"東久留米市中央町2-6-23","lat":35.754429,"lon":139.517593},{"name":"東久留米市立東部図書館","province":"東京都","city":"東久留米市","address":"東久留米市大門町2-10-5東部地域センター内","lat":35.764797,"lon":139.540894},{"name":"東久留米市郷土資料室","province":"東京都","city":"東久留米市","address":"東久留米市滝山4-3-14わくわく健康プラザ内","lat":35.741329,"lon":139.504059},{"name":"東久留米市立生涯学習センター","province":"東京都","city":"東久留米市","address":"東久留米市中央町2-6-23","lat":35.754429,"lon":139.517593},{"name":"有限会社　市民葬祭センター","province":"東京都","city":"東久留米市","address":"東京都東久留米市東本町4-6","lat":35.7626027,"lon":139.53419939},{"name":"有限会社　小平典礼　東久留米支社","province":"東京都","city":"東久留米市","address":"東京都東久留米市滝山3丁目11-6","lat":35.74065177,"lon":139.50463613},{"name":"株式会社　コムウェル　小平営業所","province":"東京都","city":"東久留米市","address":"東京都東久留米市柳窪4丁目7-9","lat":35.74611182,"lon":139.48739857},{"name":"株式会社　奥野式典","province":"東京都","city":"東久留米市","address":"東京都東久留米市滝山4丁目1-40","lat":35.74466523,"lon":139.50567754},{"name":"有限会社　緑葬儀社　東久留米支店","province":"東京都","city":"東久留米市","address":"東京都東久留米市本町2丁目1-2","lat":35.76228045,"lon":139.53175239},{"name":"すずらん（株式会社　アイコス）","province":"東京都","city":"東久留米市","address":"東京都東久留米市下里3丁目5-9","lat":35.75130046,"lon":139.50049165},{"name":"有限会社　藤式典　東久留米店","province":"東京都","city":"東久留米市","address":"東京都東久留米市幸町4丁目4-1","lat":35.75557535,"lon":139.51599011},{"name":"有限会社　ウィズセレモニー","province":"東京都","city":"東久留米市","address":"東京都東久留米市東本町12-3","lat":35.76429974,"lon":139.53547979},{"name":"田中葬祭　株式会社　東久留米支店","province":"東京都","city":"東久留米市","address":"東京都東久留米市本町3丁目6-9","lat":35.75947237,"lon":139.52759451},{"name":"東久留米市立ひばりが丘図書館","province":"東京都","city":"東久留米市","address":"東久留米市ひばりが丘団地185南部地域センター内","lat":35.746452,"lon":139.534271},{"name":"東久留米市立滝山図書館","province":"東京都","city":"東久留米市","address":"東久留米市滝山4-1-10西部地域センター内","lat":35.744854,"lon":139.505249},{"name":"東久留米市立中央図書館","province":"東京都","city":"東久留米市","address":"東久留米市中央町2-6-23","lat":35.754429,"lon":139.517593},{"name":"東久留米市立東部図書館","province":"東京都","city":"東久留米市","address":"東久留米市大門町2-10-5東部地域センター内","lat":35.764797,"lon":139.540894},{"name":"東久留米市郷土資料室","province":"東京都","city":"東久留米市","address":"東久留米市滝山4-3-14わくわく健康プラザ内","lat":35.741329,"lon":139.504059},{"name":"東久留米市立生涯学習センター","province":"東京都","city":"東久留米市","address":"東久留米市中央町2-6-23","lat":35.754429,"lon":139.517593},{"name":"有限会社　市民葬祭センター","province":"東京都","city":"東久留米市","address":"東京都東久留米市東本町4-6","lat":35.7626027,"lon":139.53419939},{"name":"有限会社　小平典礼　東久留米支社","province":"東京都","city":"東久留米市","address":"東京都東久留米市滝山3丁目11-6","lat":35.74065177,"lon":139.50463613},{"name":"株式会社　コムウェル　小平営業所","province":"東京都","city":"東久留米市","address":"東京都東久留米市柳窪4丁目7-9","lat":35.74611182,"lon":139.48739857},{"name":"株式会社　奥野式典","province":"東京都","city":"東久留米市","address":"東京都東久留米市滝山4丁目1-40","lat":35.74466523,"lon":139.50567754},{"name":"有限会社　緑葬儀社　東久留米支店","province":"東京都","city":"東久留米市","address":"東京都東久留米市本町2丁目1-2","lat":35.76228045,"lon":139.53175239},{"name":"すずらん（株式会社　アイコス）","province":"東京都","city":"東久留米市","address":"東京都東久留米市下里3丁目5-9","lat":35.75130046,"lon":139.50049165},{"name":"有限会社　藤式典　東久留米店","province":"東京都","city":"東久留米市","address":"東京都東久留米市幸町4丁目4-1","lat":35.75557535,"lon":139.51599011},{"name":"有限会社　ウィズセレモニー","province":"東京都","city":"東久留米市","address":"東京都東久留米市東本町12-3","lat":35.76429974,"lon":139.53547979},{"name":"田中葬祭　株式会社　東久留米支店","province":"東京都","city":"東久留米市","address":"東京都東久留米市本町3丁目6-9","lat":35.75947237,"lon":139.52759451},{"name":"東久留米市立ひばりが丘図書館","province":"東京都","city":"東久留米市","address":"東久留米市ひばりが丘団地185南部地域センター内","lat":35.746452,"lon":139.534271},{"name":"東久留米市立滝山図書館","province":"東京都","city":"東久留米市","address":"東久留米市滝山4-1-10西部地域センター内","lat":35.744854,"lon":139.505249},{"name":"東久留米市立中央図書館","province":"東京都","city":"東久留米市","address":"東久留米市中央町2-6-23","lat":35.754429,"lon":139.517593},{"name":"東久留米市立東部図書館","province":"東京都","city":"東久留米市","address":"東久留米市大門町2-10-5東部地域センター内","lat":35.764797,"lon":139.540894},{"name":"東久留米市郷土資料室","province":"東京都","city":"東久留米市","address":"東久留米市滝山4-3-14わくわく健康プラザ内","lat":35.741329,"lon":139.504059},{"name":"東久留米市立生涯学習センター","province":"東京都","city":"東久留米市","address":"東久留米市中央町2-6-23","lat":35.754429,"lon":139.517593},{"name":"有限会社　市民葬祭センター","province":"東京都","city":"東久留米市","address":"東京都東久留米市東本町4-6","lat":35.7626027,"lon":139.53419939},{"name":"有限会社　小平典礼　東久留米支社","province":"東京都","city":"東久留米市","address":"東京都東久留米市滝山3丁目11-6","lat":35.74065177,"lon":139.50463613},{"name":"株式会社　コムウェル　小平営業所","province":"東京都","city":"東久留米市","address":"東京都東久留米市柳窪4丁目7-9","lat":35.74611182,"lon":139.48739857},{"name":"株式会社　奥野式典","province":"東京都","city":"東久留米市","address":"東京都東久留米市滝山4丁目1-40","lat":35.74466523,"lon":139.50567754},{"name":"有限会社　緑葬儀社　東久留米支店","province":"東京都","city":"東久留米市","address":"東京都東久留米市本町2丁目1-2","lat":35.76228045,"lon":139.53175239},{"name":"すずらん（株式会社　アイコス）","province":"東京都","city":"東久留米市","address":"東京都東久留米市下里3丁目5-9","lat":35.75130046,"lon":139.50049165},{"name":"有限会社　藤式典　東久留米店","province":"東京都","city":"東久留米市","address":"東京都東久留米市幸町4丁目4-1","lat":35.75557535,"lon":139.51599011},{"name":"有限会社　ウィズセレモニー","province":"東京都","city":"東久留米市","address":"東京都東久留米市東本町12-3","lat":35.76429974,"lon":139.53547979},{"name":"田中葬祭　株式会社　東久留米支店","province":"東京都","city":"東久留米市","address":"東京都東久留米市本町3丁目6-9","lat":35.75947237,"lon":139.52759451},{"name":"東久留米市立ひばりが丘図書館","province":"東京都","city":"東久留米市","address":"東久留米市ひばりが丘団地185南部地域センター内","lat":35.746452,"lon":139.534271},{"name":"東久留米市立滝山図書館","province":"東京都","city":"東久留米市","address":"東久留米市滝山4-1-10西部地域センター内","lat":35.744854,"lon":139.505249},{"name":"東久留米市立中央図書館","province":"東京都","city":"東久留米市","address":"東久留米市中央町2-6-23","lat":35.754429,"lon":139.517593},{"name":"東久留米市立東部図書館","province":"東京都","city":"東久留米市","address":"東久留米市大門町2-10-5東部地域センター内","lat":35.764797,"lon":139.540894},{"name":"東久留米市郷土資料室","province":"東京都","city":"東久留米市","address":"東久留米市滝山4-3-14わくわく健康プラザ内","lat":35.741329,"lon":139.504059},{"name":"東久留米市立生涯学習センター","province":"東京都","city":"東久留米市","address":"東久留米市中央町2-6-23","lat":35.754429,"lon":139.517593},{"name":"有限会社　市民葬祭センター","province":"東京都","city":"東久留米市","address":"東京都東久留米市東本町4-6","lat":35.7626027,"lon":139.53419939},{"name":"有限会社　小平典礼　東久留米支社","province":"東京都","city":"東久留米市","address":"東京都東久留米市滝山3丁目11-6","lat":35.74065177,"lon":139.50463613},{"name":"株式会社　コムウェル　小平営業所","province":"東京都","city":"東久留米市","address":"東京都東久留米市柳窪4丁目7-9","lat":35.74611182,"lon":139.48739857},{"name":"株式会社　奥野式典","province":"東京都","city":"東久留米市","address":"東京都東久留米市滝山4丁目1-40","lat":35.74466523,"lon":139.50567754},{"name":"有限会社　緑葬儀社　東久留米支店","province":"東京都","city":"東久留米市","address":"東京都東久留米市本町2丁目1-2","lat":35.76228045,"lon":139.53175239},{"name":"すずらん（株式会社　アイコス）","province":"東京都","city":"東久留米市","address":"東京都東久留米市下里3丁目5-9","lat":35.75130046,"lon":139.50049165},{"name":"有限会社　藤式典　東久留米店","province":"東京都","city":"東久留米市","address":"東京都東久留米市幸町4丁目4-1","lat":35.75557535,"lon":139.51599011},{"name":"有限会社　ウィズセレモニー","province":"東京都","city":"東久留米市","address":"東京都東久留米市東本町12-3","lat":35.76429974,"lon":139.53547979},{"name":"田中葬祭　株式会社　東久留米支店","province":"東京都","city":"東久留米市","address":"東京都東久留米市本町3丁目6-9","lat":35.75947237,"lon":139.52759451},{"name":"東久留米市立ひばりが丘図書館","province":"東京都","city":"東久留米市","address":"東久留米市ひばりが丘団地185南部地域センター内","lat":35.746452,"lon":139.534271},{"name":"東久留米市立滝山図書館","province":"東京都","city":"東久留米市","address":"東久留米市滝山4-1-10西部地域センター内","lat":35.744854,"lon":139.505249},{"name":"東久留米市立中央図書館","province":"東京都","city":"東久留米市","address":"東久留米市中央町2-6-23","lat":35.754429,"lon":139.517593},{"name":"東久留米市立東部図書館","province":"東京都","city":"東久留米市","address":"東久留米市大門町2-10-5東部地域センター内","lat":35.764797,"lon":139.540894},{"name":"東久留米市郷土資料室","province":"東京都","city":"東久留米市","address":"東久留米市滝山4-3-14わくわく健康プラザ内","lat":35.741329,"lon":139.504059},{"name":"東久留米市立生涯学習センター","province":"東京都","city":"東久留米市","address":"東久留米市中央町2-6-23","lat":35.754429,"lon":139.517593},{"name":"有限会社　市民葬祭センター","province":"東京都","city":"東久留米市","address":"東京都東久留米市東本町4-6","lat":35.7626027,"lon":139.53419939},{"name":"有限会社　小平典礼　東久留米支社","province":"東京都","city":"東久留米市","address":"東京都東久留米市滝山3丁目11-6","lat":35.74065177,"lon":139.50463613},{"name":"株式会社　コムウェル　小平営業所","province":"東京都","city":"東久留米市","address":"東京都東久留米市柳窪4丁目7-9","lat":35.74611182,"lon":139.48739857},{"name":"株式会社　奥野式典","province":"東京都","city":"東久留米市","address":"東京都東久留米市滝山4丁目1-40","lat":35.74466523,"lon":139.50567754},{"name":"有限会社　緑葬儀社　東久留米支店","province":"東京都","city":"東久留米市","address":"東京都東久留米市本町2丁目1-2","lat":35.76228045,"lon":139.53175239},{"name":"すずらん（株式会社　アイコス）","province":"東京都","city":"東久留米市","address":"東京都東久留米市下里3丁目5-9","lat":35.75130046,"lon":139.50049165},{"name":"有限会社　藤式典　東久留米店","province":"東京都","city":"東久留米市","address":"東京都東久留米市幸町4丁目4-1","lat":35.75557535,"lon":139.51599011},{"name":"有限会社　ウィズセレモニー","province":"東京都","city":"東久留米市","address":"東京都東久留米市東本町12-3","lat":35.76429974,"lon":139.53547979},{"name":"田中葬祭　株式会社　東久留米支店","province":"東京都","city":"東久留米市","address":"東京都東久留米市本町3丁目6-9","lat":35.75947237,"lon":139.52759451},{"name":"東久留米市立ひばりが丘図書館","province":"東京都","city":"東久留米市","address":"東久留米市ひばりが丘団地185南部地域センター内","lat":35.746452,"lon":139.534271},{"name":"東久留米市立滝山図書館","province":"東京都","city":"東久留米市","address":"東久留米市滝山4-1-10西部地域センター内","lat":35.744854,"lon":139.505249},{"name":"東久留米市立中央図書館","province":"東京都","city":"東久留米市","address":"東久留米市中央町2-6-23","lat":35.754429,"lon":139.517593},{"name":"東久留米市立東部図書館","province":"東京都","city":"東久留米市","address":"東久留米市大門町2-10-5東部地域センター内","lat":35.764797,"lon":139.540894},{"name":"東久留米市郷土資料室","province":"東京都","city":"東久留米市","address":"東久留米市滝山4-3-14わくわく健康プラザ内","lat":35.741329,"lon":139.504059},{"name":"東久留米市立生涯学習センター","province":"東京都","city":"東久留米市","address":"東久留米市中央町2-6-23","lat":35.754429,"lon":139.517593},{"name":"有限会社　市民葬祭センター","province":"東京都","city":"東久留米市","address":"東京都東久留米市東本町4-6","lat":35.7626027,"lon":139.53419939},{"name":"有限会社　小平典礼　東久留米支社","province":"東京都","city":"東久留米市","address":"東京都東久留米市滝山3丁目11-6","lat":35.74065177,"lon":139.50463613},{"name":"株式会社　コムウェル　小平営業所","province":"東京都","city":"東久留米市","address":"東京都東久留米市柳窪4丁目7-9","lat":35.74611182,"lon":139.48739857},{"name":"株式会社　奥野式典","province":"東京都","city":"東久留米市","address":"東京都東久留米市滝山4丁目1-40","lat":35.74466523,"lon":139.50567754},{"name":"有限会社　緑葬儀社　東久留米支店","province":"東京都","city":"東久留米市","address":"東京都東久留米市本町2丁目1-2","lat":35.76228045,"lon":139.53175239},{"name":"すずらん（株式会社　アイコス）","province":"東京都","city":"東久留米市","address":"東京都東久留米市下里3丁目5-9","lat":35.75130046,"lon":139.50049165},{"name":"有限会社　藤式典　東久留米店","province":"東京都","city":"東久留米市","address":"東京都東久留米市幸町4丁目4-1","lat":35.75557535,"lon":139.51599011},{"name":"有限会社　ウィズセレモニー","province":"東京都","city":"東久留米市","address":"東京都東久留米市東本町12-3","lat":35.76429974,"lon":139.53547979},{"name":"田中葬祭　株式会社　東久留米支店","province":"東京都","city":"東久留米市","address":"東京都東久留米市本町3丁目6-9","lat":35.75947237,"lon":139.52759451},{"name":"東久留米市立ひばりが丘図書館","province":"東京都","city":"東久留米市","address":"東久留米市ひばりが丘団地185南部地域センター内","lat":35.746452,"lon":139.534271},{"name":"東久留米市立滝山図書館","province":"東京都","city":"東久留米市","address":"東久留米市滝山4-1-10西部地域センター内","lat":35.744854,"lon":139.505249},{"name":"東久留米市立中央図書館","province":"東京都","city":"東久留米市","address":"東久留米市中央町2-6-23","lat":35.754429,"lon":139.517593},{"name":"東久留米市立東部図書館","province":"東京都","city":"東久留米市","address":"東久留米市大門町2-10-5東部地域センター内","lat":35.764797,"lon":139.540894},{"name":"東久留米市郷土資料室","province":"東京都","city":"東久留米市","address":"東久留米市滝山4-3-14わくわく健康プラザ内","lat":35.741329,"lon":139.504059},{"name":"東久留米市立生涯学習センター","province":"東京都","city":"東久留米市","address":"東久留米市中央町2-6-23","lat":35.754429,"lon":139.517593},{"name":"有限会社　市民葬祭センター","province":"東京都","city":"東久留米市","address":"東京都東久留米市東本町4-6","lat":35.7626027,"lon":139.53419939},{"name":"有限会社　小平典礼　東久留米支社","province":"東京都","city":"東久留米市","address":"東京都東久留米市滝山3丁目11-6","lat":35.74065177,"lon":139.50463613},{"name":"株式会社　コムウェル　小平営業所","province":"東京都","city":"東久留米市","address":"東京都東久留米市柳窪4丁目7-9","lat":35.74611182,"lon":139.48739857},{"name":"株式会社　奥野式典","province":"東京都","city":"東久留米市","address":"東京都東久留米市滝山4丁目1-40","lat":35.74466523,"lon":139.50567754},{"name":"有限会社　緑葬儀社　東久留米支店","province":"東京都","city":"東久留米市","address":"東京都東久留米市本町2丁目1-2","lat":35.76228045,"lon":139.53175239},{"name":"すずらん（株式会社　アイコス）","province":"東京都","city":"東久留米市","address":"東京都東久留米市下里3丁目5-9","lat":35.75130046,"lon":139.50049165},{"name":"有限会社　藤式典　東久留米店","province":"東京都","city":"東久留米市","address":"東京都東久留米市幸町4丁目4-1","lat":35.75557535,"lon":139.51599011},{"name":"有限会社　ウィズセレモニー","province":"東京都","city":"東久留米市","address":"東京都東久留米市東本町12-3","lat":35.76429974,"lon":139.53547979},{"name":"田中葬祭　株式会社　東久留米支店","province":"東京都","city":"東久留米市","address":"東京都東久留米市本町3丁目6-9","lat":35.75947237,"lon":139.52759451},{"name":"東久留米市立ひばりが丘図書館","province":"東京都","city":"東久留米市","address":"東久留米市ひばりが丘団地185南部地域センター内","lat":35.746452,"lon":139.534271},{"name":"東久留米市立滝山図書館","province":"東京都","city":"東久留米市","address":"東久留米市滝山4-1-10西部地域センター内","lat":35.744854,"lon":139.505249},{"name":"東久留米市立中央図書館","province":"東京都","city":"東久留米市","address":"東久留米市中央町2-6-23","lat":35.754429,"lon":139.517593},{"name":"東久留米市立東部図書館","province":"東京都","city":"東久留米市","address":"東久留米市大門町2-10-5東部地域センター内","lat":35.764797,"lon":139.540894},{"name":"東久留米市郷土資料室","province":"東京都","city":"東久留米市","address":"東久留米市滝山4-3-14わくわく健康プラザ内","lat":35.741329,"lon":139.504059},{"name":"東久留米市立生涯学習センター","province":"東京都","city":"東久留米市","address":"東久留米市中央町2-6-23","lat":35.754429,"lon":139.517593},{"name":"有限会社　市民葬祭センター","province":"東京都","city":"東久留米市","address":"東京都東久留米市東本町4-6","lat":35.7626027,"lon":139.53419939},{"name":"有限会社　小平典礼　東久留米支社","province":"東京都","city":"東久留米市","address":"東京都東久留米市滝山3丁目11-6","lat":35.74065177,"lon":139.50463613},{"name":"株式会社　コムウェル　小平営業所","province":"東京都","city":"東久留米市","address":"東京都東久留米市柳窪4丁目7-9","lat":35.74611182,"lon":139.48739857},{"name":"株式会社　奥野式典","province":"東京都","city":"東久留米市","address":"東京都東久留米市滝山4丁目1-40","lat":35.74466523,"lon":139.50567754},{"name":"有限会社　緑葬儀社　東久留米支店","province":"東京都","city":"東久留米市","address":"東京都東久留米市本町2丁目1-2","lat":35.76228045,"lon":139.53175239},{"name":"すずらん（株式会社　アイコス）","province":"東京都","city":"東久留米市","address":"東京都東久留米市下里3丁目5-9","lat":35.75130046,"lon":139.50049165},{"name":"有限会社　藤式典　東久留米店","province":"東京都","city":"東久留米市","address":"東京都東久留米市幸町4丁目4-1","lat":35.75557535,"lon":139.51599011},{"name":"有限会社　ウィズセレモニー","province":"東京都","city":"東久留米市","address":"東京都東久留米市東本町12-3","lat":35.76429974,"lon":139.53547979},{"name":"田中葬祭　株式会社　東久留米支店","province":"東京都","city":"東久留米市","address":"東京都東久留米市本町3丁目6-9","lat":35.75947237,"lon":139.52759451},{"name":"東久留米市立ひばりが丘図書館","province":"東京都","city":"東久留米市","address":"東久留米市ひばりが丘団地185南部地域センター内","lat":35.746452,"lon":139.534271},{"name":"東久留米市立滝山図書館","province":"東京都","city":"東久留米市","address":"東久留米市滝山4-1-10西部地域センター内","lat":35.744854,"lon":139.505249},{"name":"東久留米市立中央図書館","province":"東京都","city":"東久留米市","address":"東久留米市中央町2-6-23","lat":35.754429,"lon":139.517593},{"name":"東久留米市立東部図書館","province":"東京都","city":"東久留米市","address":"東久留米市大門町2-10-5東部地域センター内","lat":35.764797,"lon":139.540894},{"name":"東久留米市郷土資料室","province":"東京都","city":"東久留米市","address":"東久留米市滝山4-3-14わくわく健康プラザ内","lat":35.741329,"lon":139.504059},{"name":"東久留米市立生涯学習センター","province":"東京都","city":"東久留米市","address":"東久留米市中央町2-6-23","lat":35.754429,"lon":139.517593},{"name":"有限会社　市民葬祭センター","province":"東京都","city":"東久留米市","address":"東京都東久留米市東本町4-6","lat":35.7626027,"lon":139.53419939},{"name":"有限会社　小平典礼　東久留米支社","province":"東京都","city":"東久留米市","address":"東京都東久留米市滝山3丁目11-6","lat":35.74065177,"lon":139.50463613},{"name":"株式会社　コムウェル　小平営業所","province":"東京都","city":"東久留米市","address":"東京都東久留米市柳窪4丁目7-9","lat":35.74611182,"lon":139.48739857},{"name":"株式会社　奥野式典","province":"東京都","city":"東久留米市","address":"東京都東久留米市滝山4丁目1-40","lat":35.74466523,"lon":139.50567754},{"name":"有限会社　緑葬儀社　東久留米支店","province":"東京都","city":"東久留米市","address":"東京都東久留米市本町2丁目1-2","lat":35.76228045,"lon":139.53175239},{"name":"すずらん（株式会社　アイコス）","province":"東京都","city":"東久留米市","address":"東京都東久留米市下里3丁目5-9","lat":35.75130046,"lon":139.50049165},{"name":"有限会社　藤式典　東久留米店","province":"東京都","city":"東久留米市","address":"東京都東久留米市幸町4丁目4-1","lat":35.75557535,"lon":139.51599011},{"name":"有限会社　ウィズセレモニー","province":"東京都","city":"東久留米市","address":"東京都東久留米市東本町12-3","lat":35.76429974,"lon":139.53547979},{"name":"田中葬祭　株式会社　東久留米支店","province":"東京都","city":"東久留米市","address":"東京都東久留米市本町3丁目6-9","lat":35.75947237,"lon":139.52759451},{"name":"東久留米市立ひばりが丘図書館","province":"東京都","city":"東久留米市","address":"東久留米市ひばりが丘団地185南部地域センター内","lat":35.746452,"lon":139.534271},{"name":"東久留米市立滝山図書館","province":"東京都","city":"東久留米市","address":"東久留米市滝山4-1-10西部地域センター内","lat":35.744854,"lon":139.505249},{"name":"東久留米市立中央図書館","province":"東京都","city":"東久留米市","address":"東久留米市中央町2-6-23","lat":35.754429,"lon":139.517593},{"name":"東久留米市立東部図書館","province":"東京都","city":"東久留米市","address":"東久留米市大門町2-10-5東部地域センター内","lat":35.764797,"lon":139.540894},{"name":"東久留米市郷土資料室","province":"東京都","city":"東久留米市","address":"東久留米市滝山4-3-14わくわく健康プラザ内","lat":35.741329,"lon":139.504059},{"name":"東久留米市立生涯学習センター","province":"東京都","city":"東久留米市","address":"東久留米市中央町2-6-23","lat":35.754429,"lon":139.517593},{"name":"有限会社　市民葬祭センター","province":"東京都","city":"東久留米市","address":"東京都東久留米市東本町4-6","lat":35.7626027,"lon":139.53419939},{"name":"有限会社　小平典礼　東久留米支社","province":"東京都","city":"東久留米市","address":"東京都東久留米市滝山3丁目11-6","lat":35.74065177,"lon":139.50463613},{"name":"株式会社　コムウェル　小平営業所","province":"東京都","city":"東久留米市","address":"東京都東久留米市柳窪4丁目7-9","lat":35.74611182,"lon":139.48739857},{"name":"株式会社　奥野式典","province":"東京都","city":"東久留米市","address":"東京都東久留米市滝山4丁目1-40","lat":35.74466523,"lon":139.50567754},{"name":"有限会社　緑葬儀社　東久留米支店","province":"東京都","city":"東久留米市","address":"東京都東久留米市本町2丁目1-2","lat":35.76228045,"lon":139.53175239},{"name":"すずらん（株式会社　アイコス）","province":"東京都","city":"東久留米市","address":"東京都東久留米市下里3丁目5-9","lat":35.75130046,"lon":139.50049165},{"name":"有限会社　藤式典　東久留米店","province":"東京都","city":"東久留米市","address":"東京都東久留米市幸町4丁目4-1","lat":35.75557535,"lon":139.51599011},{"name":"有限会社　ウィズセレモニー","province":"東京都","city":"東久留米市","address":"東京都東久留米市東本町12-3","lat":35.76429974,"lon":139.53547979},{"name":"田中葬祭　株式会社　東久留米支店","province":"東京都","city":"東久留米市","address":"東京都東久留米市本町3丁目6-9","lat":35.75947237,"lon":139.52759451},{"name":"東久留米市立ひばりが丘図書館","province":"東京都","city":"東久留米市","address":"東久留米市ひばりが丘団地185南部地域センター内","lat":35.746452,"lon":139.534271},{"name":"東久留米市立滝山図書館","province":"東京都","city":"東久留米市","address":"東久留米市滝山4-1-10西部地域センター内","lat":35.744854,"lon":139.505249},{"name":"東久留米市立中央図書館","province":"東京都","city":"東久留米市","address":"東久留米市中央町2-6-23","lat":35.754429,"lon":139.517593},{"name":"東久留米市立東部図書館","province":"東京都","city":"東久留米市","address":"東久留米市大門町2-10-5東部地域センター内","lat":35.764797,"lon":139.540894},{"name":"東久留米市郷土資料室","province":"東京都","city":"東久留米市","address":"東久留米市滝山4-3-14わくわく健康プラザ内","lat":35.741329,"lon":139.504059},{"name":"東久留米市立生涯学習センター","province":"東京都","city":"東久留米市","address":"東久留米市中央町2-6-23","lat":35.754429,"lon":139.517593},{"name":"有限会社　市民葬祭センター","province":"東京都","city":"東久留米市","address":"東京都東久留米市東本町4-6","lat":35.7626027,"lon":139.53419939},{"name":"有限会社　小平典礼　東久留米支社","province":"東京都","city":"東久留米市","address":"東京都東久留米市滝山3丁目11-6","lat":35.74065177,"lon":139.50463613},{"name":"株式会社　コムウェル　小平営業所","province":"東京都","city":"東久留米市","address":"東京都東久留米市柳窪4丁目7-9","lat":35.74611182,"lon":139.48739857},{"name":"株式会社　奥野式典","province":"東京都","city":"東久留米市","address":"東京都東久留米市滝山4丁目1-40","lat":35.74466523,"lon":139.50567754},{"name":"有限会社　緑葬儀社　東久留米支店","province":"東京都","city":"東久留米市","address":"東京都東久留米市本町2丁目1-2","lat":35.76228045,"lon":139.53175239},{"name":"すずらん（株式会社　アイコス）","province":"東京都","city":"東久留米市","address":"東京都東久留米市下里3丁目5-9","lat":35.75130046,"lon":139.50049165},{"name":"有限会社　藤式典　東久留米店","province":"東京都","city":"東久留米市","address":"東京都東久留米市幸町4丁目4-1","lat":35.75557535,"lon":139.51599011},{"name":"有限会社　ウィズセレモニー","province":"東京都","city":"東久留米市","address":"東京都東久留米市東本町12-3","lat":35.76429974,"lon":139.53547979},{"name":"田中葬祭　株式会社　東久留米支店","province":"東京都","city":"東久留米市","address":"東京都東久留米市本町3丁目6-9","lat":35.75947237,"lon":139.52759451},{"name":"東久留米市立ひばりが丘図書館","province":"東京都","city":"東久留米市","address":"東久留米市ひばりが丘団地185南部地域センター内","lat":35.746452,"lon":139.534271},{"name":"東久留米市立滝山図書館","province":"東京都","city":"東久留米市","address":"東久留米市滝山4-1-10西部地域センター内","lat":35.744854,"lon":139.505249},{"name":"東久留米市立中央図書館","province":"東京都","city":"東久留米市","address":"東久留米市中央町2-6-23","lat":35.754429,"lon":139.517593},{"name":"東久留米市立東部図書館","province":"東京都","city":"東久留米市","address":"東久留米市大門町2-10-5東部地域センター内","lat":35.764797,"lon":139.540894},{"name":"東久留米市郷土資料室","province":"東京都","city":"東久留米市","address":"東久留米市滝山4-3-14わくわく健康プラザ内","lat":35.741329,"lon":139.504059},{"name":"東久留米市立生涯学習センター","province":"東京都","city":"東久留米市","address":"東久留米市中央町2-6-23","lat":35.754429,"lon":139.517593},{"name":"有限会社　市民葬祭センター","province":"東京都","city":"東久留米市","address":"東京都東久留米市東本町4-6","lat":35.7626027,"lon":139.53419939},{"name":"有限会社　小平典礼　東久留米支社","province":"東京都","city":"東久留米市","address":"東京都東久留米市滝山3丁目11-6","lat":35.74065177,"lon":139.50463613},{"name":"株式会社　コムウェル　小平営業所","province":"東京都","city":"東久留米市","address":"東京都東久留米市柳窪4丁目7-9","lat":35.74611182,"lon":139.48739857},{"name":"株式会社　奥野式典","province":"東京都","city":"東久留米市","address":"東京都東久留米市滝山4丁目1-40","lat":35.74466523,"lon":139.50567754},{"name":"有限会社　緑葬儀社　東久留米支店","province":"東京都","city":"東久留米市","address":"東京都東久留米市本町2丁目1-2","lat":35.76228045,"lon":139.53175239},{"name":"すずらん（株式会社　アイコス）","province":"東京都","city":"東久留米市","address":"東京都東久留米市下里3丁目5-9","lat":35.75130046,"lon":139.50049165},{"name":"有限会社　藤式典　東久留米店","province":"東京都","city":"東久留米市","address":"東京都東久留米市幸町4丁目4-1","lat":35.75557535,"lon":139.51599011},{"name":"有限会社　ウィズセレモニー","province":"東京都","city":"東久留米市","address":"東京都東久留米市東本町12-3","lat":35.76429974,"lon":139.53547979},{"name":"田中葬祭　株式会社　東久留米支店","province":"東京都","city":"東久留米市","address":"東京都東久留米市本町3丁目6-9","lat":35.75947237,"lon":139.52759451},{"name":"東久留米市立ひばりが丘図書館","province":"東京都","city":"東久留米市","address":"東久留米市ひばりが丘団地185南部地域センター内","lat":35.746452,"lon":139.534271},{"name":"東久留米市立滝山図書館","province":"東京都","city":"東久留米市","address":"東久留米市滝山4-1-10西部地域センター内","lat":35.744854,"lon":139.505249},{"name":"東久留米市立中央図書館","province":"東京都","city":"東久留米市","address":"東久留米市中央町2-6-23","lat":35.754429,"lon":139.517593},{"name":"東久留米市立東部図書館","province":"東京都","city":"東久留米市","address":"東久留米市大門町2-10-5東部地域センター内","lat":35.764797,"lon":139.540894},{"name":"東久留米市郷土資料室","province":"東京都","city":"東久留米市","address":"東久留米市滝山4-3-14わくわく健康プラザ内","lat":35.741329,"lon":139.504059},{"name":"東久留米市立生涯学習センター","province":"東京都","city":"東久留米市","address":"東久留米市中央町2-6-23","lat":35.754429,"lon":139.517593},{"name":"有限会社　市民葬祭センター","province":"東京都","city":"東久留米市","address":"東京都東久留米市東本町4-6","lat":35.7626027,"lon":139.53419939},{"name":"有限会社　小平典礼　東久留米支社","province":"東京都","city":"東久留米市","address":"東京都東久留米市滝山3丁目11-6","lat":35.74065177,"lon":139.50463613},{"name":"株式会社　コムウェル　小平営業所","province":"東京都","city":"東久留米市","address":"東京都東久留米市柳窪4丁目7-9","lat":35.74611182,"lon":139.48739857},{"name":"株式会社　奥野式典","province":"東京都","city":"東久留米市","address":"東京都東久留米市滝山4丁目1-40","lat":35.74466523,"lon":139.50567754},{"name":"有限会社　緑葬儀社　東久留米支店","province":"東京都","city":"東久留米市","address":"東京都東久留米市本町2丁目1-2","lat":35.76228045,"lon":139.53175239},{"name":"すずらん（株式会社　アイコス）","province":"東京都","city":"東久留米市","address":"東京都東久留米市下里3丁目5-9","lat":35.75130046,"lon":139.50049165},{"name":"有限会社　藤式典　東久留米店","province":"東京都","city":"東久留米市","address":"東京都東久留米市幸町4丁目4-1","lat":35.75557535,"lon":139.51599011},{"name":"有限会社　ウィズセレモニー","province":"東京都","city":"東久留米市","address":"東京都東久留米市東本町12-3","lat":35.76429974,"lon":139.53547979},{"name":"田中葬祭　株式会社　東久留米支店","province":"東京都","city":"東久留米市","address":"東京都東久留米市本町3丁目6-9","lat":35.75947237,"lon":139.52759451},{"name":"東久留米市立ひばりが丘図書館","province":"東京都","city":"東久留米市","address":"東久留米市ひばりが丘団地185南部地域センター内","lat":35.746452,"lon":139.534271},{"name":"東久留米市立滝山図書館","province":"東京都","city":"東久留米市","address":"東久留米市滝山4-1-10西部地域センター内","lat":35.744854,"lon":139.505249},{"name":"東久留米市立中央図書館","province":"東京都","city":"東久留米市","address":"東久留米市中央町2-6-23","lat":35.754429,"lon":139.517593},{"name":"東久留米市立東部図書館","province":"東京都","city":"東久留米市","address":"東久留米市大門町2-10-5東部地域センター内","lat":35.764797,"lon":139.540894},{"name":"東久留米市郷土資料室","province":"東京都","city":"東久留米市","address":"東久留米市滝山4-3-14わくわく健康プラザ内","lat":35.741329,"lon":139.504059},{"name":"東久留米市立生涯学習センター","province":"東京都","city":"東久留米市","address":"東久留米市中央町2-6-23","lat":35.754429,"lon":139.517593},{"name":"有限会社　市民葬祭センター","province":"東京都","city":"東久留米市","address":"東京都東久留米市東本町4-6","lat":35.7626027,"lon":139.53419939},{"name":"有限会社　小平典礼　東久留米支社","province":"東京都","city":"東久留米市","address":"東京都東久留米市滝山3丁目11-6","lat":35.74065177,"lon":139.50463613},{"name":"株式会社　コムウェル　小平営業所","province":"東京都","city":"東久留米市","address":"東京都東久留米市柳窪4丁目7-9","lat":35.74611182,"lon":139.48739857},{"name":"株式会社　奥野式典","province":"東京都","city":"東久留米市","address":"東京都東久留米市滝山4丁目1-40","lat":35.74466523,"lon":139.50567754},{"name":"有限会社　緑葬儀社　東久留米支店","province":"東京都","city":"東久留米市","address":"東京都東久留米市本町2丁目1-2","lat":35.76228045,"lon":139.53175239},{"name":"すずらん（株式会社　アイコス）","province":"東京都","city":"東久留米市","address":"東京都東久留米市下里3丁目5-9","lat":35.75130046,"lon":139.50049165},{"name":"有限会社　藤式典　東久留米店","province":"東京都","city":"東久留米市","address":"東京都東久留米市幸町4丁目4-1","lat":35.75557535,"lon":139.51599011},{"name":"有限会社　ウィズセレモニー","province":"東京都","city":"東久留米市","address":"東京都東久留米市東本町12-3","lat":35.76429974,"lon":139.53547979},{"name":"田中葬祭　株式会社　東久留米支店","province":"東京都","city":"東久留米市","address":"東京都東久留米市本町3丁目6-9","lat":35.75947237,"lon":139.52759451},{"name":"東久留米市立ひばりが丘図書館","province":"東京都","city":"東久留米市","address":"東久留米市ひばりが丘団地185南部地域センター内","lat":35.746452,"lon":139.534271},{"name":"東久留米市立滝山図書館","province":"東京都","city":"東久留米市","address":"東久留米市滝山4-1-10西部地域センター内","lat":35.744854,"lon":139.505249},{"name":"東久留米市立中央図書館","province":"東京都","city":"東久留米市","address":"東久留米市中央町2-6-23","lat":35.754429,"lon":139.517593},{"name":"東久留米市立東部図書館","province":"東京都","city":"東久留米市","address":"東久留米市大門町2-10-5東部地域センター内","lat":35.764797,"lon":139.540894},{"name":"東久留米市郷土資料室","province":"東京都","city":"東久留米市","address":"東久留米市滝山4-3-14わくわく健康プラザ内","lat":35.741329,"lon":139.504059},{"name":"東久留米市立生涯学習センター","province":"東京都","city":"東久留米市","address":"東久留米市中央町2-6-23","lat":35.754429,"lon":139.517593},{"name":"有限会社　市民葬祭センター","province":"東京都","city":"東久留米市","address":"東京都東久留米市東本町4-6","lat":35.7626027,"lon":139.53419939},{"name":"有限会社　小平典礼　東久留米支社","province":"東京都","city":"東久留米市","address":"東京都東久留米市滝山3丁目11-6","lat":35.74065177,"lon":139.50463613},{"name":"株式会社　コムウェル　小平営業所","province":"東京都","city":"東久留米市","address":"東京都東久留米市柳窪4丁目7-9","lat":35.74611182,"lon":139.48739857},{"name":"株式会社　奥野式典","province":"東京都","city":"東久留米市","address":"東京都東久留米市滝山4丁目1-40","lat":35.74466523,"lon":139.50567754},{"name":"有限会社　緑葬儀社　東久留米支店","province":"東京都","city":"東久留米市","address":"東京都東久留米市本町2丁目1-2","lat":35.76228045,"lon":139.53175239},{"name":"すずらん（株式会社　アイコス）","province":"東京都","city":"東久留米市","address":"東京都東久留米市下里3丁目5-9","lat":35.75130046,"lon":139.50049165},{"name":"有限会社　藤式典　東久留米店","province":"東京都","city":"東久留米市","address":"東京都東久留米市幸町4丁目4-1","lat":35.75557535,"lon":139.51599011},{"name":"有限会社　ウィズセレモニー","province":"東京都","city":"東久留米市","address":"東京都東久留米市東本町12-3","lat":35.76429974,"lon":139.53547979},{"name":"田中葬祭　株式会社　東久留米支店","province":"東京都","city":"東久留米市","address":"東京都東久留米市本町3丁目6-9","lat":35.75947237,"lon":139.52759451},{"name":"東久留米市立ひばりが丘図書館","province":"東京都","city":"東久留米市","address":"東久留米市ひばりが丘団地185南部地域センター内","lat":35.746452,"lon":139.534271},{"name":"東久留米市立滝山図書館","province":"東京都","city":"東久留米市","address":"東久留米市滝山4-1-10西部地域センター内","lat":35.744854,"lon":139.505249},{"name":"東久留米市立中央図書館","province":"東京都","city":"東久留米市","address":"東久留米市中央町2-6-23","lat":35.754429,"lon":139.517593},{"name":"東久留米市立東部図書館","province":"東京都","city":"東久留米市","address":"東久留米市大門町2-10-5東部地域センター内","lat":35.764797,"lon":139.540894},{"name":"東久留米市郷土資料室","province":"東京都","city":"東久留米市","address":"東久留米市滝山4-3-14わくわく健康プラザ内","lat":35.741329,"lon":139.504059},{"name":"東久留米市立生涯学習センター","province":"東京都","city":"東久留米市","address":"東久留米市中央町2-6-23","lat":35.754429,"lon":139.517593},{"name":"有限会社　市民葬祭センター","province":"東京都","city":"東久留米市","address":"東京都東久留米市東本町4-6","lat":35.7626027,"lon":139.53419939},{"name":"有限会社　小平典礼　東久留米支社","province":"東京都","city":"東久留米市","address":"東京都東久留米市滝山3丁目11-6","lat":35.74065177,"lon":139.50463613},{"name":"株式会社　コムウェル　小平営業所","province":"東京都","city":"東久留米市","address":"東京都東久留米市柳窪4丁目7-9","lat":35.74611182,"lon":139.48739857},{"name":"株式会社　奥野式典","province":"東京都","city":"東久留米市","address":"東京都東久留米市滝山4丁目1-40","lat":35.74466523,"lon":139.50567754},{"name":"有限会社　緑葬儀社　東久留米支店","province":"東京都","city":"東久留米市","address":"東京都東久留米市本町2丁目1-2","lat":35.76228045,"lon":139.53175239},{"name":"すずらん（株式会社　アイコス）","province":"東京都","city":"東久留米市","address":"東京都東久留米市下里3丁目5-9","lat":35.75130046,"lon":139.50049165},{"name":"有限会社　藤式典　東久留米店","province":"東京都","city":"東久留米市","address":"東京都東久留米市幸町4丁目4-1","lat":35.75557535,"lon":139.51599011},{"name":"有限会社　ウィズセレモニー","province":"東京都","city":"東久留米市","address":"東京都東久留米市東本町12-3","lat":35.76429974,"lon":139.53547979},{"name":"田中葬祭　株式会社　東久留米支店","province":"東京都","city":"東久留米市","address":"東京都東久留米市本町3丁目6-9","lat":35.75947237,"lon":139.52759451},{"name":"東久留米市立ひばりが丘図書館","province":"東京都","city":"東久留米市","address":"東久留米市ひばりが丘団地185南部地域センター内","lat":35.746452,"lon":139.534271},{"name":"東久留米市立滝山図書館","province":"東京都","city":"東久留米市","address":"東久留米市滝山4-1-10西部地域センター内","lat":35.744854,"lon":139.505249},{"name":"東久留米市立中央図書館","province":"東京都","city":"東久留米市","address":"東久留米市中央町2-6-23","lat":35.754429,"lon":139.517593},{"name":"東久留米市立東部図書館","province":"東京都","city":"東久留米市","address":"東久留米市大門町2-10-5東部地域センター内","lat":35.764797,"lon":139.540894},{"name":"東久留米市郷土資料室","province":"東京都","city":"東久留米市","address":"東久留米市滝山4-3-14わくわく健康プラザ内","lat":35.741329,"lon":139.504059},{"name":"東久留米市立生涯学習センター","province":"東京都","city":"東久留米市","address":"東久留米市中央町2-6-23","lat":35.754429,"lon":139.517593},{"name":"有限会社　市民葬祭センター","province":"東京都","city":"東久留米市","address":"東京都東久留米市東本町4-6","lat":35.7626027,"lon":139.53419939},{"name":"有限会社　小平典礼　東久留米支社","province":"東京都","city":"東久留米市","address":"東京都東久留米市滝山3丁目11-6","lat":35.74065177,"lon":139.50463613},{"name":"株式会社　コムウェル　小平営業所","province":"東京都","city":"東久留米市","address":"東京都東久留米市柳窪4丁目7-9","lat":35.74611182,"lon":139.48739857},{"name":"株式会社　奥野式典","province":"東京都","city":"東久留米市","address":"東京都東久留米市滝山4丁目1-40","lat":35.74466523,"lon":139.50567754},{"name":"有限会社　緑葬儀社　東久留米支店","province":"東京都","city":"東久留米市","address":"東京都東久留米市本町2丁目1-2","lat":35.76228045,"lon":139.53175239},{"name":"すずらん（株式会社　アイコス）","province":"東京都","city":"東久留米市","address":"東京都東久留米市下里3丁目5-9","lat":35.75130046,"lon":139.50049165},{"name":"有限会社　藤式典　東久留米店","province":"東京都","city":"東久留米市","address":"東京都東久留米市幸町4丁目4-1","lat":35.75557535,"lon":139.51599011},{"name":"有限会社　ウィズセレモニー","province":"東京都","city":"東久留米市","address":"東京都東久留米市東本町12-3","lat":35.76429974,"lon":139.53547979},{"name":"田中葬祭　株式会社　東久留米支店","province":"東京都","city":"東久留米市","address":"東京都東久留米市本町3丁目6-9","lat":35.75947237,"lon":139.52759451},{"name":"東久留米市立ひばりが丘図書館","province":"東京都","city":"東久留米市","address":"東久留米市ひばりが丘団地185南部地域センター内","lat":35.746452,"lon":139.534271},{"name":"東久留米市立滝山図書館","province":"東京都","city":"東久留米市","address":"東久留米市滝山4-1-10西部地域センター内","lat":35.744854,"lon":139.505249},{"name":"東久留米市立中央図書館","province":"東京都","city":"東久留米市","address":"東久留米市中央町2-6-23","lat":35.754429,"lon":139.517593},{"name":"東久留米市立東部図書館","province":"東京都","city":"東久留米市","address":"東久留米市大門町2-10-5東部地域センター内","lat":35.764797,"lon":139.540894},{"name":"東久留米市郷土資料室","province":"東京都","city":"東久留米市","address":"東久留米市滝山4-3-14わくわく健康プラザ内","lat":35.741329,"lon":139.504059},{"name":"東久留米市立生涯学習センター","province":"東京都","city":"東久留米市","address":"東久留米市中央町2-6-23","lat":35.754429,"lon":139.517593},{"name":"有限会社　市民葬祭センター","province":"東京都","city":"東久留米市","address":"東京都東久留米市東本町4-6","lat":35.7626027,"lon":139.53419939},{"name":"有限会社　小平典礼　東久留米支社","province":"東京都","city":"東久留米市","address":"東京都東久留米市滝山3丁目11-6","lat":35.74065177,"lon":139.50463613},{"name":"株式会社　コムウェル　小平営業所","province":"東京都","city":"東久留米市","address":"東京都東久留米市柳窪4丁目7-9","lat":35.74611182,"lon":139.48739857},{"name":"株式会社　奥野式典","province":"東京都","city":"東久留米市","address":"東京都東久留米市滝山4丁目1-40","lat":35.74466523,"lon":139.50567754},{"name":"有限会社　緑葬儀社　東久留米支店","province":"東京都","city":"東久留米市","address":"東京都東久留米市本町2丁目1-2","lat":35.76228045,"lon":139.53175239},{"name":"すずらん（株式会社　アイコス）","province":"東京都","city":"東久留米市","address":"東京都東久留米市下里3丁目5-9","lat":35.75130046,"lon":139.50049165},{"name":"有限会社　藤式典　東久留米店","province":"東京都","city":"東久留米市","address":"東京都東久留米市幸町4丁目4-1","lat":35.75557535,"lon":139.51599011},{"name":"有限会社　ウィズセレモニー","province":"東京都","city":"東久留米市","address":"東京都東久留米市東本町12-3","lat":35.76429974,"lon":139.53547979},{"name":"田中葬祭　株式会社　東久留米支店","province":"東京都","city":"東久留米市","address":"東京都東久留米市本町3丁目6-9","lat":35.75947237,"lon":139.52759451},{"name":"東久留米市立ひばりが丘図書館","province":"東京都","city":"東久留米市","address":"東久留米市ひばりが丘団地185南部地域センター内","lat":35.746452,"lon":139.534271},{"name":"東久留米市立滝山図書館","province":"東京都","city":"東久留米市","address":"東久留米市滝山4-1-10西部地域センター内","lat":35.744854,"lon":139.505249},{"name":"東久留米市立中央図書館","province":"東京都","city":"東久留米市","address":"東久留米市中央町2-6-23","lat":35.754429,"lon":139.517593},{"name":"東久留米市立東部図書館","province":"東京都","city":"東久留米市","address":"東久留米市大門町2-10-5東部地域センター内","lat":35.764797,"lon":139.540894},{"name":"東久留米市郷土資料室","province":"東京都","city":"東久留米市","address":"東久留米市滝山4-3-14わくわく健康プラザ内","lat":35.741329,"lon":139.504059},{"name":"東久留米市立生涯学習センター","province":"東京都","city":"東久留米市","address":"東久留米市中央町2-6-23","lat":35.754429,"lon":139.517593},{"name":"有限会社　市民葬祭センター","province":"東京都","city":"東久留米市","address":"東京都東久留米市東本町4-6","lat":35.7626027,"lon":139.53419939},{"name":"有限会社　小平典礼　東久留米支社","province":"東京都","city":"東久留米市","address":"東京都東久留米市滝山3丁目11-6","lat":35.74065177,"lon":139.50463613},{"name":"株式会社　コムウェル　小平営業所","province":"東京都","city":"東久留米市","address":"東京都東久留米市柳窪4丁目7-9","lat":35.74611182,"lon":139.48739857},{"name":"株式会社　奥野式典","province":"東京都","city":"東久留米市","address":"東京都東久留米市滝山4丁目1-40","lat":35.74466523,"lon":139.50567754},{"name":"有限会社　緑葬儀社　東久留米支店","province":"東京都","city":"東久留米市","address":"東京都東久留米市本町2丁目1-2","lat":35.76228045,"lon":139.53175239},{"name":"すずらん（株式会社　アイコス）","province":"東京都","city":"東久留米市","address":"東京都東久留米市下里3丁目5-9","lat":35.75130046,"lon":139.50049165},{"name":"有限会社　藤式典　東久留米店","province":"東京都","city":"東久留米市","address":"東京都東久留米市幸町4丁目4-1","lat":35.75557535,"lon":139.51599011},{"name":"有限会社　ウィズセレモニー","province":"東京都","city":"東久留米市","address":"東京都東久留米市東本町12-3","lat":35.76429974,"lon":139.53547979},{"name":"田中葬祭　株式会社　東久留米支店","province":"東京都","city":"東久留米市","address":"東京都東久留米市本町3丁目6-9","lat":35.75947237,"lon":139.52759451},{"name":"東久留米市立ひばりが丘図書館","province":"東京都","city":"東久留米市","address":"東久留米市ひばりが丘団地185南部地域センター内","lat":35.746452,"lon":139.534271},{"name":"東久留米市立滝山図書館","province":"東京都","city":"東久留米市","address":"東久留米市滝山4-1-10西部地域センター内","lat":35.744854,"lon":139.505249},{"name":"東久留米市立中央図書館","province":"東京都","city":"東久留米市","address":"東久留米市中央町2-6-23","lat":35.754429,"lon":139.517593},{"name":"東久留米市立東部図書館","province":"東京都","city":"東久留米市","address":"東久留米市大門町2-10-5東部地域センター内","lat":35.764797,"lon":139.540894},{"name":"東久留米市郷土資料室","province":"東京都","city":"東久留米市","address":"東久留米市滝山4-3-14わくわく健康プラザ内","lat":35.741329,"lon":139.504059},{"name":"東久留米市立生涯学習センター","province":"東京都","city":"東久留米市","address":"東久留米市中央町2-6-23","lat":35.754429,"lon":139.517593},{"name":"有限会社　市民葬祭センター","province":"東京都","city":"東久留米市","address":"東京都東久留米市東本町4-6","lat":35.7626027,"lon":139.53419939},{"name":"有限会社　小平典礼　東久留米支社","province":"東京都","city":"東久留米市","address":"東京都東久留米市滝山3丁目11-6","lat":35.74065177,"lon":139.50463613},{"name":"株式会社　コムウェル　小平営業所","province":"東京都","city":"東久留米市","address":"東京都東久留米市柳窪4丁目7-9","lat":35.74611182,"lon":139.48739857},{"name":"株式会社　奥野式典","province":"東京都","city":"東久留米市","address":"東京都東久留米市滝山4丁目1-40","lat":35.74466523,"lon":139.50567754},{"name":"有限会社　緑葬儀社　東久留米支店","province":"東京都","city":"東久留米市","address":"東京都東久留米市本町2丁目1-2","lat":35.76228045,"lon":139.53175239},{"name":"すずらん（株式会社　アイコス）","province":"東京都","city":"東久留米市","address":"東京都東久留米市下里3丁目5-9","lat":35.75130046,"lon":139.50049165},{"name":"有限会社　藤式典　東久留米店","province":"東京都","city":"東久留米市","address":"東京都東久留米市幸町4丁目4-1","lat":35.75557535,"lon":139.51599011},{"name":"有限会社　ウィズセレモニー","province":"東京都","city":"東久留米市","address":"東京都東久留米市東本町12-3","lat":35.76429974,"lon":139.53547979},{"name":"田中葬祭　株式会社　東久留米支店","province":"東京都","city":"東久留米市","address":"東京都東久留米市本町3丁目6-9","lat":35.75947237,"lon":139.52759451},{"name":"東久留米市立ひばりが丘図書館","province":"東京都","city":"東久留米市","address":"東久留米市ひばりが丘団地185南部地域センター内","lat":35.746452,"lon":139.534271},{"name":"東久留米市立滝山図書館","province":"東京都","city":"東久留米市","address":"東久留米市滝山4-1-10西部地域センター内","lat":35.744854,"lon":139.505249},{"name":"東久留米市立中央図書館","province":"東京都","city":"東久留米市","address":"東久留米市中央町2-6-23","lat":35.754429,"lon":139.517593},{"name":"東久留米市立東部図書館","province":"東京都","city":"東久留米市","address":"東久留米市大門町2-10-5東部地域センター内","lat":35.764797,"lon":139.540894},{"name":"東久留米市郷土資料室","province":"東京都","city":"東久留米市","address":"東久留米市滝山4-3-14わくわく健康プラザ内","lat":35.741329,"lon":139.504059},{"name":"東久留米市立生涯学習センター","province":"東京都","city":"東久留米市","address":"東久留米市中央町2-6-23","lat":35.754429,"lon":139.517593},{"name":"有限会社　市民葬祭センター","province":"東京都","city":"東久留米市","address":"東京都東久留米市東本町4-6","lat":35.7626027,"lon":139.53419939},{"name":"有限会社　小平典礼　東久留米支社","province":"東京都","city":"東久留米市","address":"東京都東久留米市滝山3丁目11-6","lat":35.74065177,"lon":139.50463613},{"name":"株式会社　コムウェル　小平営業所","province":"東京都","city":"東久留米市","address":"東京都東久留米市柳窪4丁目7-9","lat":35.74611182,"lon":139.48739857},{"name":"株式会社　奥野式典","province":"東京都","city":"東久留米市","address":"東京都東久留米市滝山4丁目1-40","lat":35.74466523,"lon":139.50567754},{"name":"有限会社　緑葬儀社　東久留米支店","province":"東京都","city":"東久留米市","address":"東京都東久留米市本町2丁目1-2","lat":35.76228045,"lon":139.53175239},{"name":"すずらん（株式会社　アイコス）","province":"東京都","city":"東久留米市","address":"東京都東久留米市下里3丁目5-9","lat":35.75130046,"lon":139.50049165},{"name":"有限会社　藤式典　東久留米店","province":"東京都","city":"東久留米市","address":"東京都東久留米市幸町4丁目4-1","lat":35.75557535,"lon":139.51599011},{"name":"有限会社　ウィズセレモニー","province":"東京都","city":"東久留米市","address":"東京都東久留米市東本町12-3","lat":35.76429974,"lon":139.53547979},{"name":"田中葬祭　株式会社　東久留米支店","province":"東京都","city":"東久留米市","address":"東京都東久留米市本町3丁目6-9","lat":35.75947237,"lon":139.52759451},{"name":"東久留米市立ひばりが丘図書館","province":"東京都","city":"東久留米市","address":"東久留米市ひばりが丘団地185南部地域センター内","lat":35.746452,"lon":139.534271},{"name":"東久留米市立滝山図書館","province":"東京都","city":"東久留米市","address":"東久留米市滝山4-1-10西部地域センター内","lat":35.744854,"lon":139.505249},{"name":"東久留米市立中央図書館","province":"東京都","city":"東久留米市","address":"東久留米市中央町2-6-23","lat":35.754429,"lon":139.517593},{"name":"東久留米市立東部図書館","province":"東京都","city":"東久留米市","address":"東久留米市大門町2-10-5東部地域センター内","lat":35.764797,"lon":139.540894},{"name":"東久留米市郷土資料室","province":"東京都","city":"東久留米市","address":"東久留米市滝山4-3-14わくわく健康プラザ内","lat":35.741329,"lon":139.504059},{"name":"東久留米市立生涯学習センター","province":"東京都","city":"東久留米市","address":"東久留米市中央町2-6-23","lat":35.754429,"lon":139.517593}]}