{"keyword":"構築","data":[{"name":"柳窪三丁目","province":"東京都","city":"東久留米市","address":"東京都東久留米市柳窪3丁目2-1","lat":35.74325401,"lon":139.4947647},{"name":"上の原交番前","province":"東京都","city":"東久留米市","address":"東京都東久留米市上の原1丁目2","lat":35.76894094,"lon":139.54174311},{"name":"東久留米市役所前","province":"東京都","city":"東久留米市","address":"東京都東久留米市本町3丁目1-41","lat":35.75827534,"lon":139.53039709},{"name":"東久留米市役所西","province":"東京都","city":"東久留米市","address":"東京都東久留米市中央町1丁目1","lat":35.75811417,"lon":139.52673352},{"name":"さいわい福祉センター前","province":"東京都","city":"東久留米市","address":"東京都東久留米市幸町2丁目1-10","lat":35.75915557,"lon":139.51983687},{"name":"東久留米公民館前","province":"東京都","city":"東久留米市","address":"東京都東久留米市中央町2丁目1-46","lat":35.75573938,"lon":139.52343944},{"name":"東久留米駅西","province":"東京都","city":"東久留米市","address":"東京都東久留米市本町1丁目4-53","lat":35.75968355,"lon":139.53264963},{"name":"神山大橋","province":"東京都","city":"東久留米市","address":"東京都東久留米市大門町2丁目12","lat":35.76377491,"lon":139.5419238},{"name":"南沢浄水所","province":"東京都","city":"東久留米市","address":"東京都東久留米市南沢3丁目9-21","lat":35.75193708,"lon":139.52583381},{"name":"滝山浄水所","province":"東京都","city":"東久留米市","address":"東京都東久留米市滝山6丁目1-1","lat":35.74739829,"lon":139.50739394},{"name":"東久留米市わくわく健康プラザ（健康課）","province":"東京都","city":"東久留米市","address":"東京都東久留米市滝山4丁目3-14","lat":35.74228769,"lon":139.5044833},{"name":"東久留米消防署","province":"東京都","city":"東久留米市","address":"東久留米市幸町3-4-34","lat":35.75756,"lon":139.5217},{"name":"柳泉園クリーンポート","province":"東京都","city":"東久留米市","address":"東久留米市下里4-3-10","lat":35.75476,"lon":139.4945},{"name":"柳窪三丁目","province":"東京都","city":"東久留米市","address":"東京都東久留米市柳窪3丁目2-1","lat":35.74325401,"lon":139.4947647},{"name":"上の原交番前","province":"東京都","city":"東久留米市","address":"東京都東久留米市上の原1丁目2","lat":35.76894094,"lon":139.54174311},{"name":"東久留米市役所前","province":"東京都","city":"東久留米市","address":"東京都東久留米市本町3丁目1-41","lat":35.75827534,"lon":139.53039709},{"name":"東久留米市役所西","province":"東京都","city":"東久留米市","address":"東京都東久留米市中央町1丁目1","lat":35.75811417,"lon":139.52673352},{"name":"さいわい福祉センター前","province":"東京都","city":"東久留米市","address":"東京都東久留米市幸町2丁目1-10","lat":35.75915557,"lon":139.51983687},{"name":"東久留米公民館前","province":"東京都","city":"東久留米市","address":"東京都東久留米市中央町2丁目1-46","lat":35.75573938,"lon":139.52343944},{"name":"東久留米駅西","province":"東京都","city":"東久留米市","address":"東京都東久留米市本町1丁目4-53","lat":35.75968355,"lon":139.53264963},{"name":"神山大橋","province":"東京都","city":"東久留米市","address":"東京都東久留米市大門町2丁目12","lat":35.76377491,"lon":139.5419238},{"name":"南沢浄水所","province":"東京都","city":"東久留米市","address":"東京都東久留米市南沢3丁目9-21","lat":35.75193708,"lon":139.52583381},{"name":"滝山浄水所","province":"東京都","city":"東久留米市","address":"東京都東久留米市滝山6丁目1-1","lat":35.74739829,"lon":139.50739394},{"name":"東久留米市わくわく健康プラザ（健康課）","province":"東京都","city":"東久留米市","address":"東京都東久留米市滝山4丁目3-14","lat":35.74228769,"lon":139.5044833},{"name":"東久留米消防署","province":"東京都","city":"東久留米市","address":"東久留米市幸町3-4-34","lat":35.75756,"lon":139.5217},{"name":"柳窪三丁目","province":"東京都","city":"東久留米市","address":"東京都東久留米市柳窪3丁目2-1","lat":35.74325401,"lon":139.4947647},{"name":"上の原交番前","province":"東京都","city":"東久留米市","address":"東京都東久留米市上の原1丁目2","lat":35.76894094,"lon":139.54174311},{"name":"東久留米市役所前","province":"東京都","city":"東久留米市","address":"東京都東久留米市本町3丁目1-41","lat":35.75827534,"lon":139.53039709},{"name":"東久留米市役所西","province":"東京都","city":"東久留米市","address":"東京都東久留米市中央町1丁目1","lat":35.75811417,"lon":139.52673352},{"name":"さいわい福祉センター前","province":"東京都","city":"東久留米市","address":"東京都東久留米市幸町2丁目1-10","lat":35.75915557,"lon":139.51983687},{"name":"東久留米公民館前","province":"東京都","city":"東久留米市","address":"東京都東久留米市中央町2丁目1-46","lat":35.75573938,"lon":139.52343944},{"name":"東久留米駅西","province":"東京都","city":"東久留米市","address":"東京都東久留米市本町1丁目4-53","lat":35.75968355,"lon":139.53264963},{"name":"神山大橋","province":"東京都","city":"東久留米市","address":"東京都東久留米市大門町2丁目12","lat":35.76377491,"lon":139.5419238},{"name":"南沢浄水所","province":"東京都","city":"東久留米市","address":"東京都東久留米市南沢3丁目9-21","lat":35.75193708,"lon":139.52583381},{"name":"滝山浄水所","province":"東京都","city":"東久留米市","address":"東京都東久留米市滝山6丁目1-1","lat":35.74739829,"lon":139.50739394},{"name":"東久留米市わくわく健康プラザ（健康課）","province":"東京都","city":"東久留米市","address":"東京都東久留米市滝山4丁目3-14","lat":35.74228769,"lon":139.5044833},{"name":"東久留米消防署","province":"東京都","city":"東久留米市","address":"東久留米市幸町3-4-34","lat":35.75756,"lon":139.5217},{"name":"柳窪三丁目","province":"東京都","city":"東久留米市","address":"東京都東久留米市柳窪3丁目2-1","lat":35.74325401,"lon":139.4947647},{"name":"上の原交番前","province":"東京都","city":"東久留米市","address":"東京都東久留米市上の原1丁目2","lat":35.76894094,"lon":139.54174311},{"name":"東久留米市役所前","province":"東京都","city":"東久留米市","address":"東京都東久留米市本町3丁目1-41","lat":35.75827534,"lon":139.53039709},{"name":"東久留米市役所西","province":"東京都","city":"東久留米市","address":"東京都東久留米市中央町1丁目1","lat":35.75811417,"lon":139.52673352},{"name":"さいわい福祉センター前","province":"東京都","city":"東久留米市","address":"東京都東久留米市幸町2丁目1-10","lat":35.75915557,"lon":139.51983687},{"name":"東久留米公民館前","province":"東京都","city":"東久留米市","address":"東京都東久留米市中央町2丁目1-46","lat":35.75573938,"lon":139.52343944},{"name":"東久留米駅西","province":"東京都","city":"東久留米市","address":"東京都東久留米市本町1丁目4-53","lat":35.75968355,"lon":139.53264963},{"name":"神山大橋","province":"東京都","city":"東久留米市","address":"東京都東久留米市大門町2丁目12","lat":35.76377491,"lon":139.5419238},{"name":"南沢浄水所","province":"東京都","city":"東久留米市","address":"東京都東久留米市南沢3丁目9-21","lat":35.75193708,"lon":139.52583381},{"name":"滝山浄水所","province":"東京都","city":"東久留米市","address":"東京都東久留米市滝山6丁目1-1","lat":35.74739829,"lon":139.50739394},{"name":"東久留米市わくわく健康プラザ（健康課）","province":"東京都","city":"東久留米市","address":"東京都東久留米市滝山4丁目3-14","lat":35.74228769,"lon":139.5044833},{"name":"東久留米消防署","province":"東京都","city":"東久留米市","address":"東久留米市幸町3-4-34","lat":35.75756,"lon":139.5217},{"name":"柳窪三丁目","province":"東京都","city":"東久留米市","address":"東京都東久留米市柳窪3丁目2-1","lat":35.74325401,"lon":139.4947647},{"name":"上の原交番前","province":"東京都","city":"東久留米市","address":"東京都東久留米市上の原1丁目2","lat":35.76894094,"lon":139.54174311},{"name":"東久留米市役所前","province":"東京都","city":"東久留米市","address":"東京都東久留米市本町3丁目1-41","lat":35.75827534,"lon":139.53039709},{"name":"東久留米市役所西","province":"東京都","city":"東久留米市","address":"東京都東久留米市中央町1丁目1","lat":35.75811417,"lon":139.52673352},{"name":"さいわい福祉センター前","province":"東京都","city":"東久留米市","address":"東京都東久留米市幸町2丁目1-10","lat":35.75915557,"lon":139.51983687},{"name":"東久留米公民館前","province":"東京都","city":"東久留米市","address":"東京都東久留米市中央町2丁目1-46","lat":35.75573938,"lon":139.52343944},{"name":"東久留米駅西","province":"東京都","city":"東久留米市","address":"東京都東久留米市本町1丁目4-53","lat":35.75968355,"lon":139.53264963},{"name":"神山大橋","province":"東京都","city":"東久留米市","address":"東京都東久留米市大門町2丁目12","lat":35.76377491,"lon":139.5419238},{"name":"南沢浄水所","province":"東京都","city":"東久留米市","address":"東京都東久留米市南沢3丁目9-21","lat":35.75193708,"lon":139.52583381},{"name":"滝山浄水所","province":"東京都","city":"東久留米市","address":"東京都東久留米市滝山6丁目1-1","lat":35.74739829,"lon":139.50739394},{"name":"東久留米市わくわく健康プラザ（健康課）","province":"東京都","city":"東久留米市","address":"東京都東久留米市滝山4丁目3-14","lat":35.74228769,"lon":139.5044833},{"name":"東久留米消防署","province":"東京都","city":"東久留米市","address":"東久留米市幸町3-4-34","lat":35.75756,"lon":139.5217},{"name":"柳窪三丁目","province":"東京都","city":"東久留米市","address":"東京都東久留米市柳窪3丁目2-1","lat":35.74325401,"lon":139.4947647},{"name":"上の原交番前","province":"東京都","city":"東久留米市","address":"東京都東久留米市上の原1丁目2","lat":35.76894094,"lon":139.54174311},{"name":"東久留米市役所前","province":"東京都","city":"東久留米市","address":"東京都東久留米市本町3丁目1-41","lat":35.75827534,"lon":139.53039709},{"name":"東久留米市役所西","province":"東京都","city":"東久留米市","address":"東京都東久留米市中央町1丁目1","lat":35.75811417,"lon":139.52673352},{"name":"さいわい福祉センター前","province":"東京都","city":"東久留米市","address":"東京都東久留米市幸町2丁目1-10","lat":35.75915557,"lon":139.51983687},{"name":"東久留米公民館前","province":"東京都","city":"東久留米市","address":"東京都東久留米市中央町2丁目1-46","lat":35.75573938,"lon":139.52343944},{"name":"東久留米駅西","province":"東京都","city":"東久留米市","address":"東京都東久留米市本町1丁目4-53","lat":35.75968355,"lon":139.53264963},{"name":"神山大橋","province":"東京都","city":"東久留米市","address":"東京都東久留米市大門町2丁目12","lat":35.76377491,"lon":139.5419238},{"name":"南沢浄水所","province":"東京都","city":"東久留米市","address":"東京都東久留米市南沢3丁目9-21","lat":35.75193708,"lon":139.52583381},{"name":"滝山浄水所","province":"東京都","city":"東久留米市","address":"東京都東久留米市滝山6丁目1-1","lat":35.74739829,"lon":139.50739394},{"name":"東久留米市わくわく健康プラザ（健康課）","province":"東京都","city":"東久留米市","address":"東京都東久留米市滝山4丁目3-14","lat":35.74228769,"lon":139.5044833},{"name":"東久留米消防署","province":"東京都","city":"東久留米市","address":"東久留米市幸町3-4-34","lat":35.75756,"lon":139.5217},{"name":"柳窪三丁目","province":"東京都","city":"東久留米市","address":"東京都東久留米市柳窪3丁目2-1","lat":35.74325401,"lon":139.4947647},{"name":"上の原交番前","province":"東京都","city":"東久留米市","address":"東京都東久留米市上の原1丁目2","lat":35.76894094,"lon":139.54174311},{"name":"東久留米市役所前","province":"東京都","city":"東久留米市","address":"東京都東久留米市本町3丁目1-41","lat":35.75827534,"lon":139.53039709},{"name":"東久留米市役所西","province":"東京都","city":"東久留米市","address":"東京都東久留米市中央町1丁目1","lat":35.75811417,"lon":139.52673352},{"name":"さいわい福祉センター前","province":"東京都","city":"東久留米市","address":"東京都東久留米市幸町2丁目1-10","lat":35.75915557,"lon":139.51983687},{"name":"東久留米公民館前","province":"東京都","city":"東久留米市","address":"東京都東久留米市中央町2丁目1-46","lat":35.75573938,"lon":139.52343944},{"name":"東久留米駅西","province":"東京都","city":"東久留米市","address":"東京都東久留米市本町1丁目4-53","lat":35.75968355,"lon":139.53264963},{"name":"神山大橋","province":"東京都","city":"東久留米市","address":"東京都東久留米市大門町2丁目12","lat":35.76377491,"lon":139.5419238},{"name":"南沢浄水所","province":"東京都","city":"東久留米市","address":"東京都東久留米市南沢3丁目9-21","lat":35.75193708,"lon":139.52583381},{"name":"滝山浄水所","province":"東京都","city":"東久留米市","address":"東京都東久留米市滝山6丁目1-1","lat":35.74739829,"lon":139.50739394},{"name":"東久留米市わくわく健康プラザ（健康課）","province":"東京都","city":"東久留米市","address":"東京都東久留米市滝山4丁目3-14","lat":35.74228769,"lon":139.5044833},{"name":"東久留米消防署","province":"東京都","city":"東久留米市","address":"東久留米市幸町3-4-34","lat":35.75756,"lon":139.5217},{"name":"柳窪三丁目","province":"東京都","city":"東久留米市","address":"東京都東久留米市柳窪3丁目2-1","lat":35.74325401,"lon":139.4947647},{"name":"上の原交番前","province":"東京都","city":"東久留米市","address":"東京都東久留米市上の原1丁目2","lat":35.76894094,"lon":139.54174311},{"name":"東久留米市役所前","province":"東京都","city":"東久留米市","address":"東京都東久留米市本町3丁目1-41","lat":35.75827534,"lon":139.53039709},{"name":"東久留米市役所西","province":"東京都","city":"東久留米市","address":"東京都東久留米市中央町1丁目1","lat":35.75811417,"lon":139.52673352},{"name":"さいわい福祉センター前","province":"東京都","city":"東久留米市","address":"東京都東久留米市幸町2丁目1-10","lat":35.75915557,"lon":139.51983687},{"name":"東久留米公民館前","province":"東京都","city":"東久留米市","address":"東京都東久留米市中央町2丁目1-46","lat":35.75573938,"lon":139.52343944},{"name":"東久留米駅西","province":"東京都","city":"東久留米市","address":"東京都東久留米市本町1丁目4-53","lat":35.75968355,"lon":139.53264963},{"name":"神山大橋","province":"東京都","city":"東久留米市","address":"東京都東久留米市大門町2丁目12","lat":35.76377491,"lon":139.5419238},{"name":"南沢浄水所","province":"東京都","city":"東久留米市","address":"東京都東久留米市南沢3丁目9-21","lat":35.75193708,"lon":139.52583381},{"name":"滝山浄水所","province":"東京都","city":"東久留米市","address":"東京都東久留米市滝山6丁目1-1","lat":35.74739829,"lon":139.50739394},{"name":"東久留米市わくわく健康プラザ（健康課）","province":"東京都","city":"東久留米市","address":"東京都東久留米市滝山4丁目3-14","lat":35.74228769,"lon":139.5044833},{"name":"東久留米消防署","province":"東京都","city":"東久留米市","address":"東久留米市幸町3-4-34","lat":35.75756,"lon":139.5217},{"name":"柳窪三丁目","province":"東京都","city":"東久留米市","address":"東京都東久留米市柳窪3丁目2-1","lat":35.74325401,"lon":139.4947647},{"name":"上の原交番前","province":"東京都","city":"東久留米市","address":"東京都東久留米市上の原1丁目2","lat":35.76894094,"lon":139.54174311},{"name":"東久留米市役所前","province":"東京都","city":"東久留米市","address":"東京都東久留米市本町3丁目1-41","lat":35.75827534,"lon":139.53039709},{"name":"東久留米市役所西","province":"東京都","city":"東久留米市","address":"東京都東久留米市中央町1丁目1","lat":35.75811417,"lon":139.52673352},{"name":"さいわい福祉センター前","province":"東京都","city":"東久留米市","address":"東京都東久留米市幸町2丁目1-10","lat":35.75915557,"lon":139.51983687},{"name":"東久留米公民館前","province":"東京都","city":"東久留米市","address":"東京都東久留米市中央町2丁目1-46","lat":35.75573938,"lon":139.52343944},{"name":"東久留米駅西","province":"東京都","city":"東久留米市","address":"東京都東久留米市本町1丁目4-53","lat":35.75968355,"lon":139.53264963},{"name":"神山大橋","province":"東京都","city":"東久留米市","address":"東京都東久留米市大門町2丁目12","lat":35.76377491,"lon":139.5419238},{"name":"南沢浄水所","province":"東京都","city":"東久留米市","address":"東京都東久留米市南沢3丁目9-21","lat":35.75193708,"lon":139.52583381},{"name":"滝山浄水所","province":"東京都","city":"東久留米市","address":"東京都東久留米市滝山6丁目1-1","lat":35.74739829,"lon":139.50739394},{"name":"東久留米市わくわく健康プラザ（健康課）","province":"東京都","city":"東久留米市","address":"東京都東久留米市滝山4丁目3-14","lat":35.74228769,"lon":139.5044833},{"name":"東久留米消防署","province":"東京都","city":"東久留米市","address":"東久留米市幸町3-4-34","lat":35.75756,"lon":139.5217},{"name":"柳窪三丁目","province":"東京都","city":"東久留米市","address":"東京都東久留米市柳窪3丁目2-1","lat":35.74325401,"lon":139.4947647},{"name":"上の原交番前","province":"東京都","city":"東久留米市","address":"東京都東久留米市上の原1丁目2","lat":35.76894094,"lon":139.54174311},{"name":"東久留米市役所前","province":"東京都","city":"東久留米市","address":"東京都東久留米市本町3丁目1-41","lat":35.75827534,"lon":139.53039709},{"name":"東久留米市役所西","province":"東京都","city":"東久留米市","address":"東京都東久留米市中央町1丁目1","lat":35.75811417,"lon":139.52673352},{"name":"さいわい福祉センター前","province":"東京都","city":"東久留米市","address":"東京都東久留米市幸町2丁目1-10","lat":35.75915557,"lon":139.51983687},{"name":"東久留米公民館前","province":"東京都","city":"東久留米市","address":"東京都東久留米市中央町2丁目1-46","lat":35.75573938,"lon":139.52343944},{"name":"東久留米駅西","province":"東京都","city":"東久留米市","address":"東京都東久留米市本町1丁目4-53","lat":35.75968355,"lon":139.53264963},{"name":"神山大橋","province":"東京都","city":"東久留米市","address":"東京都東久留米市大門町2丁目12","lat":35.76377491,"lon":139.5419238},{"name":"南沢浄水所","province":"東京都","city":"東久留米市","address":"東京都東久留米市南沢3丁目9-21","lat":35.75193708,"lon":139.52583381},{"name":"滝山浄水所","province":"東京都","city":"東久留米市","address":"東京都東久留米市滝山6丁目1-1","lat":35.74739829,"lon":139.50739394},{"name":"東久留米市わくわく健康プラザ（健康課）","province":"東京都","city":"東久留米市","address":"東京都東久留米市滝山4丁目3-14","lat":35.74228769,"lon":139.5044833},{"name":"東久留米消防署","province":"東京都","city":"東久留米市","address":"東久留米市幸町3-4-34","lat":35.75756,"lon":139.5217},{"name":"柳窪三丁目","province":"東京都","city":"東久留米市","address":"東京都東久留米市柳窪3丁目2-1","lat":35.74325401,"lon":139.4947647},{"name":"上の原交番前","province":"東京都","city":"東久留米市","address":"東京都東久留米市上の原1丁目2","lat":35.76894094,"lon":139.54174311},{"name":"東久留米市役所前","province":"東京都","city":"東久留米市","address":"東京都東久留米市本町3丁目1-41","lat":35.75827534,"lon":139.53039709},{"name":"東久留米市役所西","province":"東京都","city":"東久留米市","address":"東京都東久留米市中央町1丁目1","lat":35.75811417,"lon":139.52673352},{"name":"さいわい福祉センター前","province":"東京都","city":"東久留米市","address":"東京都東久留米市幸町2丁目1-10","lat":35.75915557,"lon":139.51983687},{"name":"東久留米公民館前","province":"東京都","city":"東久留米市","address":"東京都東久留米市中央町2丁目1-46","lat":35.75573938,"lon":139.52343944},{"name":"東久留米駅西","province":"東京都","city":"東久留米市","address":"東京都東久留米市本町1丁目4-53","lat":35.75968355,"lon":139.53264963},{"name":"神山大橋","province":"東京都","city":"東久留米市","address":"東京都東久留米市大門町2丁目12","lat":35.76377491,"lon":139.5419238},{"name":"南沢浄水所","province":"東京都","city":"東久留米市","address":"東京都東久留米市南沢3丁目9-21","lat":35.75193708,"lon":139.52583381},{"name":"滝山浄水所","province":"東京都","city":"東久留米市","address":"東京都東久留米市滝山6丁目1-1","lat":35.74739829,"lon":139.50739394},{"name":"東久留米市わくわく健康プラザ（健康課）","province":"東京都","city":"東久留米市","address":"東京都東久留米市滝山4丁目3-14","lat":35.74228769,"lon":139.5044833},{"name":"東久留米消防署","province":"東京都","city":"東久留米市","address":"東久留米市幸町3-4-34","lat":35.75756,"lon":139.5217},{"name":"柳窪三丁目","province":"東京都","city":"東久留米市","address":"東京都東久留米市柳窪3丁目2-1","lat":35.74325401,"lon":139.4947647},{"name":"上の原交番前","province":"東京都","city":"東久留米市","address":"東京都東久留米市上の原1丁目2","lat":35.76894094,"lon":139.54174311},{"name":"東久留米市役所前","province":"東京都","city":"東久留米市","address":"東京都東久留米市本町3丁目1-41","lat":35.75827534,"lon":139.53039709},{"name":"東久留米市役所西","province":"東京都","city":"東久留米市","address":"東京都東久留米市中央町1丁目1","lat":35.75811417,"lon":139.52673352},{"name":"さいわい福祉センター前","province":"東京都","city":"東久留米市","address":"東京都東久留米市幸町2丁目1-10","lat":35.75915557,"lon":139.51983687},{"name":"東久留米公民館前","province":"東京都","city":"東久留米市","address":"東京都東久留米市中央町2丁目1-46","lat":35.75573938,"lon":139.52343944},{"name":"東久留米駅西","province":"東京都","city":"東久留米市","address":"東京都東久留米市本町1丁目4-53","lat":35.75968355,"lon":139.53264963},{"name":"神山大橋","province":"東京都","city":"東久留米市","address":"東京都東久留米市大門町2丁目12","lat":35.76377491,"lon":139.5419238},{"name":"南沢浄水所","province":"東京都","city":"東久留米市","address":"東京都東久留米市南沢3丁目9-21","lat":35.75193708,"lon":139.52583381},{"name":"滝山浄水所","province":"東京都","city":"東久留米市","address":"東京都東久留米市滝山6丁目1-1","lat":35.74739829,"lon":139.50739394},{"name":"東久留米市わくわく健康プラザ（健康課）","province":"東京都","city":"東久留米市","address":"東京都東久留米市滝山4丁目3-14","lat":35.74228769,"lon":139.5044833},{"name":"東久留米消防署","province":"東京都","city":"東久留米市","address":"東久留米市幸町3-4-34","lat":35.75756,"lon":139.5217},{"name":"柳窪三丁目","province":"東京都","city":"東久留米市","address":"東京都東久留米市柳窪3丁目2-1","lat":35.74325401,"lon":139.4947647},{"name":"上の原交番前","province":"東京都","city":"東久留米市","address":"東京都東久留米市上の原1丁目2","lat":35.76894094,"lon":139.54174311},{"name":"東久留米市役所前","province":"東京都","city":"東久留米市","address":"東京都東久留米市本町3丁目1-41","lat":35.75827534,"lon":139.53039709},{"name":"東久留米市役所西","province":"東京都","city":"東久留米市","address":"東京都東久留米市中央町1丁目1","lat":35.75811417,"lon":139.52673352},{"name":"さいわい福祉センター前","province":"東京都","city":"東久留米市","address":"東京都東久留米市幸町2丁目1-10","lat":35.75915557,"lon":139.51983687},{"name":"東久留米公民館前","province":"東京都","city":"東久留米市","address":"東京都東久留米市中央町2丁目1-46","lat":35.75573938,"lon":139.52343944},{"name":"東久留米駅西","province":"東京都","city":"東久留米市","address":"東京都東久留米市本町1丁目4-53","lat":35.75968355,"lon":139.53264963},{"name":"神山大橋","province":"東京都","city":"東久留米市","address":"東京都東久留米市大門町2丁目12","lat":35.76377491,"lon":139.5419238},{"name":"南沢浄水所","province":"東京都","city":"東久留米市","address":"東京都東久留米市南沢3丁目9-21","lat":35.75193708,"lon":139.52583381},{"name":"滝山浄水所","province":"東京都","city":"東久留米市","address":"東京都東久留米市滝山6丁目1-1","lat":35.74739829,"lon":139.50739394},{"name":"東久留米市わくわく健康プラザ（健康課）","province":"東京都","city":"東久留米市","address":"東京都東久留米市滝山4丁目3-14","lat":35.74228769,"lon":139.5044833},{"name":"東久留米消防署","province":"東京都","city":"東久留米市","address":"東久留米市幸町3-4-34","lat":35.75756,"lon":139.5217}]}