{"keyword":"男女","data":[{"name":"上の原さくら保育園","province":"東京都","city":"東久留米市","address":"東久留米市上の原1-2-44","lat":35.768713,"lon":139.542057},{"name":"久留米みのり保育園","province":"東京都","city":"東久留米市","address":"東久留米市大門町1-3-4","lat":35.763708,"lon":139.538477},{"name":"しんかわ保育園","province":"東京都","city":"東久留米市","address":"東久留米市新川町1-1-12","lat":35.758064,"lon":139.537238},{"name":"Ｎｉｃｏｔ東久留米","province":"東京都","city":"東久留米市","address":"東久留米市東本町1-8Emio東久留米1F","lat":35.760772,"lon":139.533813},{"name":"ひばり保育園","province":"東京都","city":"東久留米市","address":"東久留米市ひばりが丘団地8-10","lat":35.747535,"lon":139.531614},{"name":"わらべみなみ保育園","province":"東京都","city":"東久留米市","address":"東久留米市南町1-8-51","lat":35.742263,"lon":139.525376},{"name":"かたばみ保育園","province":"東京都","city":"東久留米市","address":"東久留米市前沢1-4-35","lat":35.744877,"lon":139.517468},{"name":"まえさわ保育園","province":"東京都","city":"東久留米市","address":"東久留米市前沢1-5-30","lat":35.748096,"lon":139.515482},{"name":"たきやま保育園","province":"東京都","city":"東久留米市","address":"東久留米市滝山6-1-2","lat":35.74654,"lon":139.507266},{"name":"滝山しおん保育園","province":"東京都","city":"東久留米市","address":"東久留米市滝山7-5-12","lat":35.748073,"lon":139.507183},{"name":"はちまん保育園","province":"東京都","city":"東久留米市","address":"東久留米市八幡町2-14-22","lat":35.756222,"lon":139.513732},{"name":"あそか保育園","province":"東京都","city":"東久留米市","address":"東久留米市下里4-1-21","lat":35.7541,"lon":139.497181},{"name":"はくさん保育園","province":"東京都","city":"東久留米市","address":"東久留米市下里3-2-23","lat":35.752431,"lon":139.502886},{"name":"下里しおん保育園","province":"東京都","city":"東久留米市","address":"東久留米市下里7-8-20","lat":35.759916,"lon":139.502927},{"name":"くるみ保育園","province":"東京都","city":"東久留米市","address":"東久留米市柳窪2-15-6","lat":35.745165,"lon":139.49574},{"name":"さいわい保育園","province":"東京都","city":"東久留米市","address":"東久留米市幸町1-17-1","lat":35.761791,"lon":139.523534},{"name":"東久留米おひさま保育園","province":"東京都","city":"東久留米市","address":"東久留米市幸町1-21-14","lat":35.760678,"lon":139.523417},{"name":"いちご保育園","province":"東京都","city":"東久留米市","address":"東久留米市本町1-5-15","lat":35.759439,"lon":139.533936},{"name":"ちゅうおう保育園","province":"東京都","city":"東久留米市","address":"東久留米市中央町1-2-4","lat":35.756798,"lon":139.526867},{"name":"こでまり保育園","province":"東京都","city":"東久留米市","address":"東久留米市中央町2-3-57","lat":35.753765,"lon":139.521726},{"name":"あいる","province":"東京都","city":"東久留米市","address":"東久留米市新川町1-9-26","lat":35.761545,"lon":139.536855},{"name":"てんとうむし","province":"東京都","city":"東久留米市","address":"東久留米市南町4-9-21","lat":35.744366,"lon":139.52214},{"name":"だっく","province":"東京都","city":"東久留米市","address":"東久留米市八幡町1-1-12","lat":35.757436,"lon":139.513174},{"name":"ぐ～す","province":"東京都","city":"東久留米市","address":"東久留米市八幡町2-13-29","lat":35.755661,"lon":139.513543},{"name":"シュプロス東久留米教室","province":"東京都","city":"東久留米市","address":"東久留米市八幡町2-4-18グランドール1階店舗","lat":35.754612,"lon":139.513713},{"name":"しおん学園","province":"東京都","city":"東久留米市","address":"東久留米市下里7-8-20","lat":35.759916,"lon":139.502927},{"name":"放課後等デイサービス　カーリッジ東久留米","province":"東京都","city":"東久留米市","address":"東久留米市下里3-23-13アズセナ101号室","lat":35.753425,"lon":139.500275},{"name":"このみ","province":"東京都","city":"東久留米市","address":"東久留米市幸町3-8-23","lat":35.758264,"lon":139.51912},{"name":"ライフパートナーこぶし","province":"東京都","city":"東久留米市","address":"東久留米市氷川台2-31-19","lat":35.768602,"lon":139.531183},{"name":"さくら滝山ハウス","province":"東京都","city":"東久留米市","address":"東久留米市滝山7-1-22","lat":35.749565,"lon":139.508844},{"name":"東久留米市わくわく健康プラザ内保健センター","province":"東京都","city":"東久留米市","address":"東久留米市滝山4-3-14","lat":35.742288,"lon":139.504483},{"name":"さくら滝山ハウス","province":"東京都","city":"東久留米市","address":"東久留米市滝山7-1-22","lat":35.74975,"lon":139.50836},{"name":"六仙公園","province":"東京都","city":"東久留米市","address":"東京都東久留米市中央町3丁目24","lat":35.749351,"lon":139.522606},{"name":"東久留米サービスステーション１階　だれでもトイレ","province":"東京都","city":"東久留米市","address":"東京都東久留米市滝山6丁目1-1","lat":35.747463,"lon":139.507362},{"name":"竹林公園","province":"東京都","city":"東久留米市","address":"東京都東久留米市南沢1丁目7","lat":35.75444,"lon":139.534602},{"name":"東久留米市役所","province":"東京都","city":"東久留米市","address":"東京都東久留米市本町3丁目3-1","lat":35.757969,"lon":139.52975},{"name":"東久留米市役所","province":"東京都","city":"東久留米市","address":"東京都東久留米市本町3丁目3-1","lat":35.758033,"lon":139.529989},{"name":"東久留米市役所ごみ対策課庁舎","province":"東京都","city":"東久留米市","address":"東京都東久留米市八幡町2丁目10-10","lat":35.751762,"lon":139.509338},{"name":"東久留米市西部地域センター","province":"東京都","city":"東久留米市","address":"東京都東久留米市滝山4丁目1-10","lat":35.744934,"lon":139.504489},{"name":"東久留米市西部地域センター","province":"東京都","city":"東久留米市","address":"東京都東久留米市滝山4丁目1-10","lat":35.744936,"lon":139.504505},{"name":"東久留米市南部地域センター","province":"東京都","city":"東久留米市","address":"東京都東久留米市ひばりが丘団地185","lat":35.746469,"lon":139.534367},{"name":"東久留米市東部地域センター","province":"東京都","city":"東久留米市","address":"東京都東久留米市大門町2丁目10","lat":35.764784,"lon":139.541057},{"name":"東久留米市東部地域センター","province":"東京都","city":"東久留米市","address":"東京都東久留米市大門町2丁目10-5","lat":35.764888,"lon":139.540848},{"name":"東久留米市八幡町地区センター","province":"東京都","city":"東久留米市","address":"東京都東久留米市八幡町2丁目7-61","lat":35.753627,"lon":139.515253},{"name":"東久留米市南町地区センター","province":"東京都","city":"東久留米市","address":"東京都東久留米市南町3丁目9-45","lat":35.740801,"lon":139.520218},{"name":"東久留米市中央町地区センター","province":"東京都","city":"東久留米市","address":"東京都東久留米市中央町6丁目1-1","lat":35.755885,"lon":139.519682},{"name":"東久留米市浅間町地区センター","province":"東京都","city":"東久留米市","address":"東京都東久留米市浅間町2丁目24-16","lat":35.757763,"lon":139.541777},{"name":"東久留米市野火止地区センター","province":"東京都","city":"東久留米市","address":"東京都東久留米市野火止2丁目1-83","lat":35.763548,"lon":139.513354},{"name":"わくわく健康プラザ","province":"東京都","city":"東久留米市","address":"東京都東久留米市滝山4丁目3-14","lat":35.742014,"lon":139.504699},{"name":"わくわく健康プラザ","province":"東京都","city":"東久留米市","address":"東京都東久留米市滝山4丁目3-14","lat":35.742458,"lon":139.504162},{"name":"わくわく健康プラザ","province":"東京都","city":"東久留米市","address":"東京都東久留米市滝山4丁目3-14","lat":35.742305,"lon":139.504761},{"name":"わくわく健康プラザ","province":"東京都","city":"東久留米市","address":"東京都東久留米市滝山4丁目3-14","lat":35.742196,"lon":139.504016},{"name":"東久留米市立中央図書館","province":"東京都","city":"東久留米市","address":"東京都東久留米市中央町2丁目6-23","lat":35.755282,"lon":139.521758},{"name":"東久留米市立生涯学習センター","province":"東京都","city":"東久留米市","address":"東京都東久留米市中央町2丁目6-23","lat":35.755456,"lon":139.522474},{"name":"東久留米市スポーツセンター","province":"東京都","city":"東久留米市","address":"東京都東久留米市大門町2丁目14-37","lat":35.762061,"lon":139.544357},{"name":"東久留米市スポーツセンター","province":"東京都","city":"東久留米市","address":"東京都東久留米市大門町2丁目14-37","lat":35.762045,"lon":139.544367},{"name":"東久留米市スポーツセンター","province":"東京都","city":"東久留米市","address":"東京都東久留米市大門町2丁目14-37","lat":35.762025,"lon":139.544414},{"name":"東久留米市スポーツセンター","province":"東京都","city":"東久留米市","address":"東京都東久留米市大門町2丁目14-37","lat":35.762027,"lon":139.544428},{"name":"東久留米市スポーツセンター","province":"東京都","city":"東久留米市","address":"東京都東久留米市大門町2丁目14-37","lat":35.762247,"lon":139.544415},{"name":"白山公園","province":"東京都","city":"東久留米市","address":"東京都東久留米市滝山7丁目24","lat":35.751091,"lon":139.502263},{"name":"滝山公園","province":"東京都","city":"東久留米市","address":"東京都東久留米市滝山2丁目4","lat":35.745814,"lon":139.5095},{"name":"小山台遺跡公園","province":"東京都","city":"東久留米市","address":"東京都東久留米市小山1丁目10","lat":35.764981,"lon":139.529125},{"name":"神山堂阪公園","province":"東京都","city":"東久留米市","address":"東京都東久留米市神宝町2丁目10","lat":35.76999,"lon":139.54617},{"name":"下里本邑遺跡公園","province":"東京都","city":"東久留米市","address":"東京都東久留米市野火止3丁目4","lat":35.761256,"lon":139.508573},{"name":"西口中央公園","province":"東京都","city":"東久留米市","address":"東京都東久留米市本町1丁目12","lat":35.758743,"lon":139.534345},{"name":"小山れんげ公園","province":"東京都","city":"東久留米市","address":"東京都東久留米市小山2丁目1","lat":35.762059,"lon":139.528013},{"name":"東口中央公園","province":"東京都","city":"東久留米市","address":"東京都東久留米市新川町1丁目10","lat":35.760622,"lon":139.535873},{"name":"南沢水辺公園","province":"東京都","city":"東久留米市","address":"東京都東久留米市南沢3丁目4","lat":35.753535,"lon":139.527889},{"name":"さいかちの道","province":"東京都","city":"東久留米市","address":"東京都東久留米市柳窪4丁目7","lat":35.745958,"lon":139.487739},{"name":"しんやま親水広場","province":"東京都","city":"東久留米市","address":"東京都東久留米市下里4丁目1","lat":35.753862,"lon":139.500538},{"name":"上の原東公園","province":"東京都","city":"東久留米市","address":"東京都東久留米市上の原2丁目3","lat":35.772445,"lon":139.545384},{"name":"東久留米駅西口昇降施設身障者用便所","province":"東京都","city":"東久留米市","address":"東京都東久留米市本町1丁目4","lat":35.760148,"lon":139.533907},{"name":"南町運動広場","province":"東京都","city":"東久留米市","address":"東京都東久留米市南町1丁目8","lat":35.740759,"lon":139.525504},{"name":"上の原テニスコート","province":"東京都","city":"東久留米市","address":"東京都東久留米市上の原1丁目6","lat":35.772192,"lon":139.542943},{"name":"けやき児童館","province":"東京都","city":"東久留米市","address":"東京都東久留米市大門町2丁目10-5","lat":35.764808,"lon":139.541245},{"name":"子どもセンターひばり","province":"東京都","city":"東久留米市","address":"東京都東久留米市ひばりが丘団地8-11","lat":35.74719,"lon":139.531604},{"name":"子どもセンターあおぞら","province":"東京都","city":"東久留米市","address":"東京都東久留米市前沢4丁目25","lat":35.74582,"lon":139.511556},{"name":"東久留米市立中央児童館","province":"東京都","city":"東久留米市","address":"東京都東久留米市中央町1丁目10-11","lat":35.754914,"lon":139.524327},{"name":"上の原グラウンド","province":"東京都","city":"東久留米市","address":"東京都東久留米市上の原2丁目1","lat":35.770063,"lon":139.545554},{"name":"東久留米市立さいわい福祉センター","province":"東京都","city":"東久留米市","address":"東京都東久留米市幸町3丁目9-28","lat":35.759129,"lon":139.519197},{"name":"東久留米市立さいわい福祉センター","province":"東京都","city":"東久留米市","address":"東京都東久留米市幸町3丁目9-28","lat":35.759097,"lon":139.519163},{"name":"地域子ども家庭支援センター上の原","province":"東京都","city":"東久留米市","address":"東京都東久留米市上の原1丁目2-44","lat":35.768571,"lon":139.541898},{"name":"中央図書館","province":"東京都","city":"東久留米市","address":"東京都東久留米市中央町2丁目6-23","lat":35.75549771,"lon":139.5222451},{"name":"滝山図書館","province":"東京都","city":"東久留米市","address":"東京都東久留米市滝山4丁目1-10","lat":35.7448624,"lon":139.50443041},{"name":"ひばりが丘図書館","province":"東京都","city":"東久留米市","address":"東京都東久留米市ひばりが丘団地185","lat":35.74651843,"lon":139.53424441},{"name":"東部図書館","province":"東京都","city":"東久留米市","address":"東京都東久留米市大門町2丁目10-5","lat":35.76484698,"lon":139.54070162},{"name":"六仙公園","province":"東京都","city":"東久留米市","address":"東久留米市中央町三丁目","lat":35.750302,"lon":139.522698},{"name":"南沢給水所","province":"東京都","city":"東久留米市","address":"東京都東久留米市南沢3-9-21","lat":35.751937,"lon":139.525834},{"name":"滝山給水所","province":"東京都","city":"東久留米市","address":"東京都東久留米市滝山6-1-1","lat":35.7473841,"lon":139.507342},{"name":"上の原さくら保育園","province":"東京都","city":"東久留米市","address":"東久留米市上の原1-2-44","lat":35.76878,"lon":139.54103},{"name":"久留米みのり保育園","province":"東京都","city":"東久留米市","address":"東久留米市大門町1-3-4","lat":35.76278,"lon":139.53877},{"name":"しんかわ保育園","province":"東京都","city":"東久留米市","address":"東久留米市新川町1-1-12","lat":35.7583,"lon":139.53708},{"name":"トレジャーキッズひがしくるめ保育園","province":"東京都","city":"東久留米市","address":"東久留米市新川町1-9-14サンライズ","lat":35.76189,"lon":139.53659},{"name":"Ｎｉｃｏｔ東久留米","province":"東京都","city":"東久留米市","address":"東久留米市東本町1-8Emio東久留米1F","lat":35.76096,"lon":139.53357},{"name":"まなびの森保育園ひばりヶ丘","province":"東京都","city":"東久留米市","address":"東久留米市学園町1-14-23","lat":35.75112,"lon":139.53976},{"name":"ひばり保育園","province":"東京都","city":"東久留米市","address":"東久留米市ひばりが丘団地8-10","lat":35.74722,"lon":139.53172},{"name":"わらべみなみ保育園","province":"東京都","city":"東久留米市","address":"東久留米市南町1-8-51","lat":35.74158,"lon":139.52573},{"name":"かたばみ保育園","province":"東京都","city":"東久留米市","address":"東久留米市前沢1-4-35","lat":35.74609,"lon":139.51709},{"name":"まえさわ保育園","province":"東京都","city":"東久留米市","address":"東久留米市前沢1-5-30","lat":35.74794,"lon":139.51509},{"name":"たきやま保育園","province":"東京都","city":"東久留米市","address":"東久留米市滝山6-1-2","lat":35.74607,"lon":139.5043},{"name":"滝山しおん保育園","province":"東京都","city":"東久留米市","address":"東久留米市滝山7-5-12","lat":35.74779,"lon":139.50757},{"name":"はちまん保育園","province":"東京都","city":"東久留米市","address":"東久留米市八幡町2-14-22","lat":35.75594,"lon":139.51439},{"name":"はくさん保育園","province":"東京都","city":"東久留米市","address":"東久留米市下里3-2-23","lat":35.75205,"lon":139.5031},{"name":"あそか保育園","province":"東京都","city":"東久留米市","address":"東久留米市下里4-1-21","lat":35.75221,"lon":139.49507},{"name":"下里しおん保育園","province":"東京都","city":"東久留米市","address":"東久留米市下里7-8-20","lat":35.76007,"lon":139.50226},{"name":"くるみ保育園","province":"東京都","city":"東久留米市","address":"東久留米市柳窪2-15-6","lat":35.74621,"lon":139.49533},{"name":"わらべ東久留米保育園","province":"東京都","city":"東久留米市","address":"東久留米市幸町1-1-24","lat":35.7595,"lon":139.52657},{"name":"東久留米おひさま保育園","province":"東京都","city":"東久留米市","address":"東久留米市幸町1-21-14","lat":35.7603,"lon":139.52333},{"name":"いちご保育園","province":"東京都","city":"東久留米市","address":"東久留米市本町1-5-15","lat":35.75942,"lon":139.53423},{"name":"ちゅうおう保育園","province":"東京都","city":"東久留米市","address":"東久留米市中央町1-2-4","lat":35.75691,"lon":139.5271},{"name":"こでまり保育園","province":"東京都","city":"東久留米市","address":"東久留米市中央町2-3-57","lat":35.75352,"lon":139.52118},{"name":"東京都小山児童学園","province":"東京都","city":"東久留米市","address":"東久留米市野火止2-22-26","lat":35.76447,"lon":139.51587},{"name":"東久留米市","province":"東京都","city":"東久留米市","address":"東久留米市本町3-3-1","lat":35.75793,"lon":139.5295},{"name":"市立東第２自転車等駐車場","province":"東京都","city":"東久留米市","address":"東京都東久留米市東本町14","lat":35.7627277,"lon":139.53515209},{"name":"日生サイクルプラザ東久留米第２","province":"東京都","city":"東久留米市","address":"東京都東久留米市新川町1丁目4","lat":35.7612862,"lon":139.5350827},{"name":"日生サイクルプラザ東久留米第１","province":"東京都","city":"東久留米市","address":"東京都東久留米市新川町1丁目3","lat":35.76013078,"lon":139.53539661},{"name":"市立西第９自転車駐車場","province":"東京都","city":"東久留米市","address":"東京都東久留米市本町1丁目5","lat":35.75972803,"lon":139.53402173},{"name":"市立西第１０一時利用自転車駐車場","province":"東京都","city":"東久留米市","address":"東京都東久留米市本町1丁目4","lat":35.75914751,"lon":139.53259409},{"name":"東久留米駅前駐輪場","province":"東京都","city":"東久留米市","address":"東京都東久留米市東本町1-15","lat":35.76086678,"lon":139.53414668},{"name":"東久留米駅前第２駐輪場","province":"東京都","city":"東久留米市","address":"東京都東久留米市東本町1-15","lat":35.76086678,"lon":139.53414668},{"name":"東久留米駅前第３駐輪場","province":"東京都","city":"東久留米市","address":"東京都東久留米市本町1丁目3-28","lat":35.75994184,"lon":139.53205522},{"name":"東久留米駅西口第１自転車駐車場","province":"東京都","city":"東久留米市","address":"東京都東久留米市新川町1丁目3","lat":35.76013078,"lon":139.53539661},{"name":"東久留米駅西口第２自転車駐車場","province":"東京都","city":"東久留米市","address":"東京都東久留米市新川町1丁目3","lat":35.76013078,"lon":139.53539661},{"name":"東久留米駅西口第３自転車駐車場","province":"東京都","city":"東久留米市","address":"東京都東久留米市本町1丁目14","lat":35.75794212,"lon":139.53427455},{"name":"東久留米駅東口自転車駐車場","province":"東京都","city":"東久留米市","address":"東京都東久留米市新川町1丁目3","lat":35.76013078,"lon":139.53539661},{"name":"東久留米駅北口自転車駐車場","province":"東京都","city":"東久留米市","address":"東京都東久留米市東本町1-6","lat":35.76136949,"lon":139.53344116},{"name":"サイクルスペース２４東久留米駐輪場","province":"東京都","city":"東久留米市","address":"東京都東久留米市新川町1丁目9","lat":35.76161952,"lon":139.53686034},{"name":"市立西第１０原付自転車駐車場","province":"東京都","city":"東久留米市","address":"東京都東久留米市本町1丁目4","lat":35.75914751,"lon":139.53259409},{"name":"リバーウエストビルズ駐輪場","province":"東京都","city":"東久留米市","address":"東京都東久留米市本町1丁目5","lat":35.75972803,"lon":139.53402173},{"name":"東久留米駅前第４駐輪場","province":"東京都","city":"東久留米市","address":"東京都東久留米市東本町5","lat":35.76224161,"lon":139.53360501},{"name":"市立臨時西第２自転車駐車場","province":"東京都","city":"東久留米市","address":"東京都東久留米市本町1丁目8-1","lat":35.7578366,"lon":139.53545501},{"name":"東久留米駅西口第１自転車駐車場","province":"東京都","city":"東久留米市","address":"東京都東久留米市本町1丁目3","lat":35.76054178,"lon":139.53217741},{"name":"東久留米駅西口第２自転車駐車場","province":"東京都","city":"東久留米市","address":"東京都東久留米市本町1丁目5","lat":35.75972803,"lon":139.53402173},{"name":"東部地域包括支援センター","province":"東京都","city":"東久留米市","address":"東久留米市大門町2-10-5東部地域センター内","lat":35.765045,"lon":139.54039},{"name":"東部地域包括支援センター本部","province":"東京都","city":"東久留米市","address":"東久留米市氷川台2-6-6社会福祉法人マザアス内","lat":35.767776,"lon":139.532547},{"name":"中部地域包括支援センター","province":"東京都","city":"東久留米市","address":"東久留米市幸町1-19-5幸町1丁目アパート5号棟1階幸町デイサービスセンター内","lat":35.761196,"lon":139.523743},{"name":"中部地域包括支援センター本部","province":"東京都","city":"東久留米市","address":"東久留米市南沢5-18-36特別養護老人ホームシャローム東久留米内","lat":35.743187,"lon":139.52681},{"name":"西部地域包括支援センター","province":"東京都","city":"東久留米市","address":"東久留米市下里4-2-50特別養護老人ホームけんちの里内","lat":35.752701,"lon":139.494797},{"name":"東久留米市在宅介護支援センター","province":"東京都","city":"東久留米市","address":"東久留米市幸町3-11-10介護老人保健施設ケア東久留米内","lat":35.757965,"lon":139.521652},{"name":"東久留米市役所福祉保健部介護福祉課","province":"東京都","city":"東久留米市","address":"東久留米市本町3-3-1","lat":35.758629,"lon":139.529709},{"name":"社会福祉法人恩賜財団東京都同胞援護会東久留米市立さいわい福祉センター","province":"東京都","city":"東久留米市","address":"東京都東久留米市幸町3丁目9-28","lat":35.75904724,"lon":139.51928415},{"name":"特定非営利活動法人コイノニア就労支援事業所コイノニア","province":"東京都","city":"東久留米市","address":"東京都東久留米市滝山5丁目1-16","lat":35.74620665,"lon":139.50325825},{"name":"特定非営利活動法人武蔵野の里ぶどうの郷","province":"東京都","city":"東久留米市","address":"東京都東久留米市大門町1丁目2-4","lat":35.7638248,"lon":139.535802},{"name":"特定非営利活動法人武蔵野の里くるめパソコン作業所","province":"東京都","city":"東久留米市","address":"東京都東久留米市氷川台1丁目2-12","lat":35.76479967,"lon":139.53466594},{"name":"東京都小山児童学園","province":"東京都","city":"東久留米市","address":"東久留米市野火止2-22-26","lat":35.764102,"lon":139.515887},{"name":"上の原さくら保育園","province":"東京都","city":"東久留米市","address":"東久留米市上の原1-2-44","lat":35.77181,"lon":139.54579},{"name":"柳窪三丁目","province":"東京都","city":"東久留米市","address":"東京都東久留米市柳窪3丁目2-1","lat":35.74325401,"lon":139.4947647},{"name":"上の原交番前","province":"東京都","city":"東久留米市","address":"東京都東久留米市上の原1丁目2","lat":35.76894094,"lon":139.54174311},{"name":"東久留米市役所前","province":"東京都","city":"東久留米市","address":"東京都東久留米市本町3丁目1-41","lat":35.75827534,"lon":139.53039709},{"name":"東久留米市役所西","province":"東京都","city":"東久留米市","address":"東京都東久留米市中央町1丁目1","lat":35.75811417,"lon":139.52673352},{"name":"さいわい福祉センター前","province":"東京都","city":"東久留米市","address":"東京都東久留米市幸町2丁目1-10","lat":35.75915557,"lon":139.51983687},{"name":"東久留米公民館前","province":"東京都","city":"東久留米市","address":"東京都東久留米市中央町2丁目1-46","lat":35.75573938,"lon":139.52343944},{"name":"東久留米駅西","province":"東京都","city":"東久留米市","address":"東京都東久留米市本町1丁目4-53","lat":35.75968355,"lon":139.53264963},{"name":"神山大橋","province":"東京都","city":"東久留米市","address":"東京都東久留米市大門町2丁目12","lat":35.76377491,"lon":139.5419238},{"name":"南沢浄水所","province":"東京都","city":"東久留米市","address":"東京都東久留米市南沢3丁目9-21","lat":35.75193708,"lon":139.52583381},{"name":"滝山浄水所","province":"東京都","city":"東久留米市","address":"東京都東久留米市滝山6丁目1-1","lat":35.74739829,"lon":139.50739394},{"name":"東久留米市立滝山公園","province":"東京都","city":"東久留米市","address":"東京都東久留米市滝山2丁目4","lat":35.74556523,"lon":139.51002988},{"name":"柳泉園組合グラウンド","province":"東京都","city":"東久留米市","address":"東京都東久留米市下里4丁目3-10","lat":35.75475824,"lon":139.49449483},{"name":"＊?東久留米市郷土資料室","province":"東京都","city":"東久留米市","address":"東久留米市滝山4-3-14わくわく健康プラザ内","lat":35.742202,"lon":139.504451},{"name":"(有)山下商事","province":"東京都","city":"東久留米市","address":"東久留米市八幡町2-11-53","lat":35.752308,"lon":139.510056},{"name":"柳泉園クリーンポート","province":"東京都","city":"東久留米市","address":"東京都東久留米市下里4丁目3","lat":35.754902,"lon":139.494705},{"name":"東久留米市","province":"東京都","city":"東久留米市","address":"東久留米市本町3-3-1","lat":35.757992,"lon":139.529672},{"name":"東部地域センター","province":"東京都","city":"東久留米市","address":"東京都東久留米市大門町2丁目10-5","lat":35.76484698,"lon":139.54070162},{"name":"東久留米市スポーツセンター","province":"東京都","city":"東久留米市","address":"東京都東久留米市大門町2丁目14-37","lat":35.76225846,"lon":139.54430143},{"name":"西武地域センター","province":"東京都","city":"東久留米市","address":"東京都東久留米市滝山4丁目1-10","lat":35.7448624,"lon":139.50443041},{"name":"わくわく健康プラザ","province":"東京都","city":"東久留米市","address":"東京都東久留米市滝山4丁目3-14","lat":35.74228769,"lon":139.5044833},{"name":"サービスステーション\"","province":"東京都","city":"東久留米市","address":"東京都東久留米市滝山6丁目1-1","lat":35.74739829,"lon":139.50739394},{"name":"中央図書館","province":"東京都","city":"東久留米市","address":"東京都東久留米市中央町2丁目6-23","lat":35.75549771,"lon":139.5222451},{"name":"南部地域センター","province":"東京都","city":"東久留米市","address":"東京都東久留米市ひばりが丘団地185","lat":35.74651843,"lon":139.53424441},{"name":"東久留米市役所庁舎","province":"東京都","city":"東久留米市","address":"東京都東久留米市本町3丁目1-1","lat":35.75866697,"lon":139.53103313},{"name":"東久留米市","province":"東京都","city":"東久留米市","address":"東久留米市本町3-3-1","lat":35.75794,"lon":139.5295},{"name":"東久留米市わくわく健康プラザ（健康課）","province":"東京都","city":"東久留米市","address":"東京都東久留米市滝山4丁目3-14","lat":35.74228769,"lon":139.5044833},{"name":"東久留米総合高等学校","province":"東京都","city":"東久留米市","address":"東京都東久留米市幸町5丁目8-46","lat":35.76245241,"lon":139.51957291},{"name":"久留米西高等学校","province":"東京都","city":"東久留米市","address":"東京都東久留米市野火止2丁目1-44","lat":35.76190233,"lon":139.51246801},{"name":"東久留米市本庁舎","province":"東京都","city":"東久留米市","address":"東京都東久留米市本町3丁目3-1","lat":35.75799202,"lon":139.52967216},{"name":"東久留米市立久留米中学校","province":"東京都","city":"東久留米市","address":"東京都東久留米市幸町5丁目9-11","lat":35.761708,"lon":139.51692595},{"name":"東久留米市立大門中学校","province":"東京都","city":"東久留米市","address":"東京都東久留米市大門町2丁目13-8","lat":35.7628556,"lon":139.54363203},{"name":"東久留米市本庁舎","province":"東京都","city":"東久留米市","address":"東久留米市本町3-3-1","lat":35.757992,"lon":139.529673},{"name":"東久留米消防署","province":"東京都","city":"東久留米市","address":"東久留米市幸町3-4-34","lat":35.75756,"lon":139.5217},{"name":"柳泉園クリーンポート","province":"東京都","city":"東久留米市","address":"東久留米市下里4-3-10","lat":35.75476,"lon":139.4945},{"name":"※東久留米市本庁舎","province":"東京都","city":"東久留米市","address":"東京都東久留米市本町3丁目3-1","lat":35.75799202,"lon":139.52967216},{"name":"あいる","province":"東京都","city":"東久留米市","address":"東久留米市新川町1-9-26","lat":35.761545,"lon":139.536855},{"name":"てんとうむし","province":"東京都","city":"東久留米市","address":"東久留米市南町4-9-21","lat":35.744366,"lon":139.52214},{"name":"だっく","province":"東京都","city":"東久留米市","address":"東久留米市八幡町1-1-12","lat":35.757436,"lon":139.513174},{"name":"ぐ～す","province":"東京都","city":"東久留米市","address":"東久留米市八幡町2-13-29","lat":35.755661,"lon":139.513543},{"name":"シュプロス東久留米教室","province":"東京都","city":"東久留米市","address":"東久留米市八幡町2-4-18グランドール1階店舗","lat":35.754612,"lon":139.513713},{"name":"しおん学園","province":"東京都","city":"東久留米市","address":"東久留米市下里7-8-20","lat":35.759916,"lon":139.502927},{"name":"放課後等デイサービス　カーリッジ東久留米","province":"東京都","city":"東久留米市","address":"東久留米市下里3-23-13アズセナ101号室","lat":35.753425,"lon":139.500275},{"name":"このみ","province":"東京都","city":"東久留米市","address":"東久留米市幸町3-8-23","lat":35.758264,"lon":139.51912},{"name":"さくら滝山ハウス","province":"東京都","city":"東久留米市","address":"東久留米市滝山7-1-22","lat":35.749565,"lon":139.508844},{"name":"さくら滝山ハウス","province":"東京都","city":"東久留米市","address":"東久留米市滝山7-1-22","lat":35.74975,"lon":139.50836},{"name":"中央図書館","province":"東京都","city":"東久留米市","address":"東京都東久留米市中央町2丁目6-23","lat":35.75549771,"lon":139.5222451},{"name":"滝山図書館","province":"東京都","city":"東久留米市","address":"東京都東久留米市滝山4丁目1-10","lat":35.7448624,"lon":139.50443041},{"name":"ひばりが丘図書館","province":"東京都","city":"東久留米市","address":"東京都東久留米市ひばりが丘団地185","lat":35.74651843,"lon":139.53424441},{"name":"東部図書館","province":"東京都","city":"東久留米市","address":"東京都東久留米市大門町2丁目10-5","lat":35.76484698,"lon":139.54070162},{"name":"六仙公園","province":"東京都","city":"東久留米市","address":"東久留米市中央町三丁目","lat":35.750302,"lon":139.522698},{"name":"南沢給水所","province":"東京都","city":"東久留米市","address":"東京都東久留米市南沢3-9-21","lat":35.751937,"lon":139.525834},{"name":"滝山給水所","province":"東京都","city":"東久留米市","address":"東京都東久留米市滝山6-1-1","lat":35.7473841,"lon":139.507342},{"name":"東京都小山児童学園","province":"東京都","city":"東久留米市","address":"東久留米市野火止2-22-26","lat":35.76447,"lon":139.51587},{"name":"東久留米市","province":"東京都","city":"東久留米市","address":"東久留米市本町3-3-1","lat":35.75793,"lon":139.5295},{"name":"市立東第２自転車等駐車場","province":"東京都","city":"東久留米市","address":"東京都東久留米市東本町14","lat":35.7627277,"lon":139.53515209},{"name":"日生サイクルプラザ東久留米第２","province":"東京都","city":"東久留米市","address":"東京都東久留米市新川町1丁目4","lat":35.7612862,"lon":139.5350827},{"name":"日生サイクルプラザ東久留米第１","province":"東京都","city":"東久留米市","address":"東京都東久留米市新川町1丁目3","lat":35.76013078,"lon":139.53539661},{"name":"市立西第９自転車駐車場","province":"東京都","city":"東久留米市","address":"東京都東久留米市本町1丁目5","lat":35.75972803,"lon":139.53402173},{"name":"市立西第１０一時利用自転車駐車場","province":"東京都","city":"東久留米市","address":"東京都東久留米市本町1丁目4","lat":35.75914751,"lon":139.53259409},{"name":"東久留米駅前駐輪場","province":"東京都","city":"東久留米市","address":"東京都東久留米市東本町1-15","lat":35.76086678,"lon":139.53414668},{"name":"東久留米駅前第２駐輪場","province":"東京都","city":"東久留米市","address":"東京都東久留米市東本町1-15","lat":35.76086678,"lon":139.53414668},{"name":"東久留米駅前第３駐輪場","province":"東京都","city":"東久留米市","address":"東京都東久留米市本町1丁目3-28","lat":35.75994184,"lon":139.53205522},{"name":"東久留米駅西口第１自転車駐車場","province":"東京都","city":"東久留米市","address":"東京都東久留米市新川町1丁目3","lat":35.76013078,"lon":139.53539661},{"name":"東久留米駅西口第２自転車駐車場","province":"東京都","city":"東久留米市","address":"東京都東久留米市新川町1丁目3","lat":35.76013078,"lon":139.53539661},{"name":"東久留米駅西口第３自転車駐車場","province":"東京都","city":"東久留米市","address":"東京都東久留米市本町1丁目14","lat":35.75794212,"lon":139.53427455},{"name":"東久留米駅東口自転車駐車場","province":"東京都","city":"東久留米市","address":"東京都東久留米市新川町1丁目3","lat":35.76013078,"lon":139.53539661},{"name":"東久留米駅北口自転車駐車場","province":"東京都","city":"東久留米市","address":"東京都東久留米市東本町1-6","lat":35.76136949,"lon":139.53344116},{"name":"サイクルスペース２４東久留米駐輪場","province":"東京都","city":"東久留米市","address":"東京都東久留米市新川町1丁目9","lat":35.76161952,"lon":139.53686034},{"name":"市立西第１０原付自転車駐車場","province":"東京都","city":"東久留米市","address":"東京都東久留米市本町1丁目4","lat":35.75914751,"lon":139.53259409},{"name":"リバーウエストビルズ駐輪場","province":"東京都","city":"東久留米市","address":"東京都東久留米市本町1丁目5","lat":35.75972803,"lon":139.53402173},{"name":"東久留米駅前第４駐輪場","province":"東京都","city":"東久留米市","address":"東京都東久留米市東本町5","lat":35.76224161,"lon":139.53360501},{"name":"市立臨時西第２自転車駐車場","province":"東京都","city":"東久留米市","address":"東京都東久留米市本町1丁目8-1","lat":35.7578366,"lon":139.53545501},{"name":"東久留米駅西口第１自転車駐車場","province":"東京都","city":"東久留米市","address":"東京都東久留米市本町1丁目3","lat":35.76054178,"lon":139.53217741},{"name":"東久留米駅西口第２自転車駐車場","province":"東京都","city":"東久留米市","address":"東京都東久留米市本町1丁目5","lat":35.75972803,"lon":139.53402173},{"name":"東部地域包括支援センター","province":"東京都","city":"東久留米市","address":"東久留米市大門町2-10-5東部地域センター内","lat":35.765045,"lon":139.54039},{"name":"東部地域包括支援センター本部","province":"東京都","city":"東久留米市","address":"東久留米市氷川台2-6-6社会福祉法人マザアス内","lat":35.767776,"lon":139.532547},{"name":"中部地域包括支援センター","province":"東京都","city":"東久留米市","address":"東久留米市幸町1-19-5幸町1丁目アパート5号棟1階幸町デイサービスセンター内","lat":35.761196,"lon":139.523743},{"name":"中部地域包括支援センター本部","province":"東京都","city":"東久留米市","address":"東久留米市南沢5-18-36特別養護老人ホームシャローム東久留米内","lat":35.743187,"lon":139.52681},{"name":"西部地域包括支援センター","province":"東京都","city":"東久留米市","address":"東久留米市下里4-2-50特別養護老人ホームけんちの里内","lat":35.752701,"lon":139.494797},{"name":"東久留米市在宅介護支援センター","province":"東京都","city":"東久留米市","address":"東久留米市幸町3-11-10介護老人保健施設ケア東久留米内","lat":35.757965,"lon":139.521652},{"name":"東久留米市役所福祉保健部介護福祉課","province":"東京都","city":"東久留米市","address":"東久留米市本町3-3-1","lat":35.758629,"lon":139.529709},{"name":"東京都小山児童学園","province":"東京都","city":"東久留米市","address":"東久留米市野火止2-22-26","lat":35.764102,"lon":139.515887},{"name":"柳窪三丁目","province":"東京都","city":"東久留米市","address":"東京都東久留米市柳窪3丁目2-1","lat":35.74325401,"lon":139.4947647},{"name":"上の原交番前","province":"東京都","city":"東久留米市","address":"東京都東久留米市上の原1丁目2","lat":35.76894094,"lon":139.54174311},{"name":"東久留米市役所前","province":"東京都","city":"東久留米市","address":"東京都東久留米市本町3丁目1-41","lat":35.75827534,"lon":139.53039709},{"name":"東久留米市役所西","province":"東京都","city":"東久留米市","address":"東京都東久留米市中央町1丁目1","lat":35.75811417,"lon":139.52673352},{"name":"さいわい福祉センター前","province":"東京都","city":"東久留米市","address":"東京都東久留米市幸町2丁目1-10","lat":35.75915557,"lon":139.51983687},{"name":"東久留米公民館前","province":"東京都","city":"東久留米市","address":"東京都東久留米市中央町2丁目1-46","lat":35.75573938,"lon":139.52343944},{"name":"東久留米駅西","province":"東京都","city":"東久留米市","address":"東京都東久留米市本町1丁目4-53","lat":35.75968355,"lon":139.53264963},{"name":"神山大橋","province":"東京都","city":"東久留米市","address":"東京都東久留米市大門町2丁目12","lat":35.76377491,"lon":139.5419238},{"name":"＊?東久留米市郷土資料室","province":"東京都","city":"東久留米市","address":"東久留米市滝山4-3-14わくわく健康プラザ内","lat":35.742202,"lon":139.504451},{"name":"(有)山下商事","province":"東京都","city":"東久留米市","address":"東久留米市八幡町2-11-53","lat":35.752308,"lon":139.510056},{"name":"柳泉園クリーンポート","province":"東京都","city":"東久留米市","address":"東京都東久留米市下里4丁目3","lat":35.754902,"lon":139.494705},{"name":"東久留米市","province":"東京都","city":"東久留米市","address":"東久留米市本町3-3-1","lat":35.757992,"lon":139.529672},{"name":"東部地域センター","province":"東京都","city":"東久留米市","address":"東京都東久留米市大門町2丁目10-5","lat":35.76484698,"lon":139.54070162},{"name":"東久留米市スポーツセンター","province":"東京都","city":"東久留米市","address":"東京都東久留米市大門町2丁目14-37","lat":35.76225846,"lon":139.54430143},{"name":"西武地域センター","province":"東京都","city":"東久留米市","address":"東京都東久留米市滝山4丁目1-10","lat":35.7448624,"lon":139.50443041},{"name":"わくわく健康プラザ","province":"東京都","city":"東久留米市","address":"東京都東久留米市滝山4丁目3-14","lat":35.74228769,"lon":139.5044833},{"name":"サービスステーション\"","province":"東京都","city":"東久留米市","address":"東京都東久留米市滝山6丁目1-1","lat":35.74739829,"lon":139.50739394},{"name":"中央図書館","province":"東京都","city":"東久留米市","address":"東京都東久留米市中央町2丁目6-23","lat":35.75549771,"lon":139.5222451},{"name":"南部地域センター","province":"東京都","city":"東久留米市","address":"東京都東久留米市ひばりが丘団地185","lat":35.74651843,"lon":139.53424441},{"name":"東久留米市役所庁舎","province":"東京都","city":"東久留米市","address":"東京都東久留米市本町3丁目1-1","lat":35.75866697,"lon":139.53103313},{"name":"東久留米市","province":"東京都","city":"東久留米市","address":"東久留米市本町3-3-1","lat":35.75794,"lon":139.5295},{"name":"東久留米消防署","province":"東京都","city":"東久留米市","address":"東久留米市幸町3-4-34","lat":35.75756,"lon":139.5217},{"name":"柳泉園クリーンポート","province":"東京都","city":"東久留米市","address":"東久留米市下里4-3-10","lat":35.75476,"lon":139.4945},{"name":"あいる","province":"東京都","city":"東久留米市","address":"東久留米市新川町1-9-26","lat":35.761545,"lon":139.536855},{"name":"てんとうむし","province":"東京都","city":"東久留米市","address":"東久留米市南町4-9-21","lat":35.744366,"lon":139.52214},{"name":"だっく","province":"東京都","city":"東久留米市","address":"東久留米市八幡町1-1-12","lat":35.757436,"lon":139.513174},{"name":"ぐ～す","province":"東京都","city":"東久留米市","address":"東久留米市八幡町2-13-29","lat":35.755661,"lon":139.513543},{"name":"シュプロス東久留米教室","province":"東京都","city":"東久留米市","address":"東久留米市八幡町2-4-18グランドール1階店舗","lat":35.754612,"lon":139.513713},{"name":"しおん学園","province":"東京都","city":"東久留米市","address":"東久留米市下里7-8-20","lat":35.759916,"lon":139.502927},{"name":"放課後等デイサービス　カーリッジ東久留米","province":"東京都","city":"東久留米市","address":"東久留米市下里3-23-13アズセナ101号室","lat":35.753425,"lon":139.500275},{"name":"このみ","province":"東京都","city":"東久留米市","address":"東久留米市幸町3-8-23","lat":35.758264,"lon":139.51912},{"name":"さくら滝山ハウス","province":"東京都","city":"東久留米市","address":"東久留米市滝山7-1-22","lat":35.749565,"lon":139.508844},{"name":"さくら滝山ハウス","province":"東京都","city":"東久留米市","address":"東久留米市滝山7-1-22","lat":35.74975,"lon":139.50836},{"name":"中央図書館","province":"東京都","city":"東久留米市","address":"東京都東久留米市中央町2丁目6-23","lat":35.75549771,"lon":139.5222451},{"name":"滝山図書館","province":"東京都","city":"東久留米市","address":"東京都東久留米市滝山4丁目1-10","lat":35.7448624,"lon":139.50443041},{"name":"ひばりが丘図書館","province":"東京都","city":"東久留米市","address":"東京都東久留米市ひばりが丘団地185","lat":35.74651843,"lon":139.53424441},{"name":"東部図書館","province":"東京都","city":"東久留米市","address":"東京都東久留米市大門町2丁目10-5","lat":35.76484698,"lon":139.54070162},{"name":"六仙公園","province":"東京都","city":"東久留米市","address":"東久留米市中央町三丁目","lat":35.750302,"lon":139.522698},{"name":"南沢給水所","province":"東京都","city":"東久留米市","address":"東京都東久留米市南沢3-9-21","lat":35.751937,"lon":139.525834},{"name":"滝山給水所","province":"東京都","city":"東久留米市","address":"東京都東久留米市滝山6-1-1","lat":35.7473841,"lon":139.507342},{"name":"市立東第２自転車等駐車場","province":"東京都","city":"東久留米市","address":"東京都東久留米市東本町14","lat":35.7627277,"lon":139.53515209},{"name":"日生サイクルプラザ東久留米第２","province":"東京都","city":"東久留米市","address":"東京都東久留米市新川町1丁目4","lat":35.7612862,"lon":139.5350827},{"name":"日生サイクルプラザ東久留米第１","province":"東京都","city":"東久留米市","address":"東京都東久留米市新川町1丁目3","lat":35.76013078,"lon":139.53539661},{"name":"市立西第９自転車駐車場","province":"東京都","city":"東久留米市","address":"東京都東久留米市本町1丁目5","lat":35.75972803,"lon":139.53402173},{"name":"市立西第１０一時利用自転車駐車場","province":"東京都","city":"東久留米市","address":"東京都東久留米市本町1丁目4","lat":35.75914751,"lon":139.53259409},{"name":"東久留米駅前駐輪場","province":"東京都","city":"東久留米市","address":"東京都東久留米市東本町1-15","lat":35.76086678,"lon":139.53414668},{"name":"東久留米駅前第２駐輪場","province":"東京都","city":"東久留米市","address":"東京都東久留米市東本町1-15","lat":35.76086678,"lon":139.53414668},{"name":"東久留米駅前第３駐輪場","province":"東京都","city":"東久留米市","address":"東京都東久留米市本町1丁目3-28","lat":35.75994184,"lon":139.53205522},{"name":"東久留米駅西口第１自転車駐車場","province":"東京都","city":"東久留米市","address":"東京都東久留米市新川町1丁目3","lat":35.76013078,"lon":139.53539661},{"name":"東久留米駅西口第２自転車駐車場","province":"東京都","city":"東久留米市","address":"東京都東久留米市新川町1丁目3","lat":35.76013078,"lon":139.53539661},{"name":"東久留米駅西口第３自転車駐車場","province":"東京都","city":"東久留米市","address":"東京都東久留米市本町1丁目14","lat":35.75794212,"lon":139.53427455},{"name":"東久留米駅東口自転車駐車場","province":"東京都","city":"東久留米市","address":"東京都東久留米市新川町1丁目3","lat":35.76013078,"lon":139.53539661},{"name":"東久留米駅北口自転車駐車場","province":"東京都","city":"東久留米市","address":"東京都東久留米市東本町1-6","lat":35.76136949,"lon":139.53344116},{"name":"サイクルスペース２４東久留米駐輪場","province":"東京都","city":"東久留米市","address":"東京都東久留米市新川町1丁目9","lat":35.76161952,"lon":139.53686034},{"name":"市立西第１０原付自転車駐車場","province":"東京都","city":"東久留米市","address":"東京都東久留米市本町1丁目4","lat":35.75914751,"lon":139.53259409},{"name":"リバーウエストビルズ駐輪場","province":"東京都","city":"東久留米市","address":"東京都東久留米市本町1丁目5","lat":35.75972803,"lon":139.53402173},{"name":"東久留米駅前第４駐輪場","province":"東京都","city":"東久留米市","address":"東京都東久留米市東本町5","lat":35.76224161,"lon":139.53360501},{"name":"市立臨時西第２自転車駐車場","province":"東京都","city":"東久留米市","address":"東京都東久留米市本町1丁目8-1","lat":35.7578366,"lon":139.53545501},{"name":"東久留米駅西口第１自転車駐車場","province":"東京都","city":"東久留米市","address":"東京都東久留米市本町1丁目3","lat":35.76054178,"lon":139.53217741},{"name":"東久留米駅西口第２自転車駐車場","province":"東京都","city":"東久留米市","address":"東京都東久留米市本町1丁目5","lat":35.75972803,"lon":139.53402173},{"name":"東部地域包括支援センター","province":"東京都","city":"東久留米市","address":"東久留米市大門町2-10-5東部地域センター内","lat":35.765045,"lon":139.54039},{"name":"東部地域包括支援センター本部","province":"東京都","city":"東久留米市","address":"東久留米市氷川台2-6-6社会福祉法人マザアス内","lat":35.767776,"lon":139.532547},{"name":"中部地域包括支援センター","province":"東京都","city":"東久留米市","address":"東久留米市幸町1-19-5幸町1丁目アパート5号棟1階幸町デイサービスセンター内","lat":35.761196,"lon":139.523743},{"name":"中部地域包括支援センター本部","province":"東京都","city":"東久留米市","address":"東久留米市南沢5-18-36特別養護老人ホームシャローム東久留米内","lat":35.743187,"lon":139.52681},{"name":"西部地域包括支援センター","province":"東京都","city":"東久留米市","address":"東久留米市下里4-2-50特別養護老人ホームけんちの里内","lat":35.752701,"lon":139.494797},{"name":"東久留米市在宅介護支援センター","province":"東京都","city":"東久留米市","address":"東久留米市幸町3-11-10介護老人保健施設ケア東久留米内","lat":35.757965,"lon":139.521652},{"name":"東久留米市役所福祉保健部介護福祉課","province":"東京都","city":"東久留米市","address":"東久留米市本町3-3-1","lat":35.758629,"lon":139.529709},{"name":"柳窪三丁目","province":"東京都","city":"東久留米市","address":"東京都東久留米市柳窪3丁目2-1","lat":35.74325401,"lon":139.4947647},{"name":"上の原交番前","province":"東京都","city":"東久留米市","address":"東京都東久留米市上の原1丁目2","lat":35.76894094,"lon":139.54174311},{"name":"東久留米市役所前","province":"東京都","city":"東久留米市","address":"東京都東久留米市本町3丁目1-41","lat":35.75827534,"lon":139.53039709},{"name":"東久留米市役所西","province":"東京都","city":"東久留米市","address":"東京都東久留米市中央町1丁目1","lat":35.75811417,"lon":139.52673352},{"name":"さいわい福祉センター前","province":"東京都","city":"東久留米市","address":"東京都東久留米市幸町2丁目1-10","lat":35.75915557,"lon":139.51983687},{"name":"東久留米公民館前","province":"東京都","city":"東久留米市","address":"東京都東久留米市中央町2丁目1-46","lat":35.75573938,"lon":139.52343944},{"name":"東久留米駅西","province":"東京都","city":"東久留米市","address":"東京都東久留米市本町1丁目4-53","lat":35.75968355,"lon":139.53264963},{"name":"神山大橋","province":"東京都","city":"東久留米市","address":"東京都東久留米市大門町2丁目12","lat":35.76377491,"lon":139.5419238},{"name":"＊?東久留米市郷土資料室","province":"東京都","city":"東久留米市","address":"東久留米市滝山4-3-14わくわく健康プラザ内","lat":35.742202,"lon":139.504451},{"name":"(有)山下商事","province":"東京都","city":"東久留米市","address":"東久留米市八幡町2-11-53","lat":35.752308,"lon":139.510056},{"name":"柳泉園クリーンポート","province":"東京都","city":"東久留米市","address":"東京都東久留米市下里4丁目3","lat":35.754902,"lon":139.494705},{"name":"東部地域センター","province":"東京都","city":"東久留米市","address":"東京都東久留米市大門町2丁目10-5","lat":35.76484698,"lon":139.54070162},{"name":"東久留米市スポーツセンター","province":"東京都","city":"東久留米市","address":"東京都東久留米市大門町2丁目14-37","lat":35.76225846,"lon":139.54430143},{"name":"西武地域センター","province":"東京都","city":"東久留米市","address":"東京都東久留米市滝山4丁目1-10","lat":35.7448624,"lon":139.50443041},{"name":"わくわく健康プラザ","province":"東京都","city":"東久留米市","address":"東京都東久留米市滝山4丁目3-14","lat":35.74228769,"lon":139.5044833},{"name":"サービスステーション\"","province":"東京都","city":"東久留米市","address":"東京都東久留米市滝山6丁目1-1","lat":35.74739829,"lon":139.50739394},{"name":"中央図書館","province":"東京都","city":"東久留米市","address":"東京都東久留米市中央町2丁目6-23","lat":35.75549771,"lon":139.5222451},{"name":"南部地域センター","province":"東京都","city":"東久留米市","address":"東京都東久留米市ひばりが丘団地185","lat":35.74651843,"lon":139.53424441},{"name":"東久留米市役所庁舎","province":"東京都","city":"東久留米市","address":"東京都東久留米市本町3丁目1-1","lat":35.75866697,"lon":139.53103313},{"name":"あいる","province":"東京都","city":"東久留米市","address":"東久留米市新川町1-9-26","lat":35.761545,"lon":139.536855},{"name":"てんとうむし","province":"東京都","city":"東久留米市","address":"東久留米市南町4-9-21","lat":35.744366,"lon":139.52214},{"name":"だっく","province":"東京都","city":"東久留米市","address":"東久留米市八幡町1-1-12","lat":35.757436,"lon":139.513174},{"name":"ぐ～す","province":"東京都","city":"東久留米市","address":"東久留米市八幡町2-13-29","lat":35.755661,"lon":139.513543},{"name":"シュプロス東久留米教室","province":"東京都","city":"東久留米市","address":"東久留米市八幡町2-4-18グランドール1階店舗","lat":35.754612,"lon":139.513713},{"name":"しおん学園","province":"東京都","city":"東久留米市","address":"東久留米市下里7-8-20","lat":35.759916,"lon":139.502927},{"name":"放課後等デイサービス　カーリッジ東久留米","province":"東京都","city":"東久留米市","address":"東久留米市下里3-23-13アズセナ101号室","lat":35.753425,"lon":139.500275},{"name":"このみ","province":"東京都","city":"東久留米市","address":"東久留米市幸町3-8-23","lat":35.758264,"lon":139.51912},{"name":"さくら滝山ハウス","province":"東京都","city":"東久留米市","address":"東久留米市滝山7-1-22","lat":35.749565,"lon":139.508844},{"name":"さくら滝山ハウス","province":"東京都","city":"東久留米市","address":"東久留米市滝山7-1-22","lat":35.74975,"lon":139.50836},{"name":"中央図書館","province":"東京都","city":"東久留米市","address":"東京都東久留米市中央町2丁目6-23","lat":35.75549771,"lon":139.5222451},{"name":"滝山図書館","province":"東京都","city":"東久留米市","address":"東京都東久留米市滝山4丁目1-10","lat":35.7448624,"lon":139.50443041},{"name":"ひばりが丘図書館","province":"東京都","city":"東久留米市","address":"東京都東久留米市ひばりが丘団地185","lat":35.74651843,"lon":139.53424441},{"name":"東部図書館","province":"東京都","city":"東久留米市","address":"東京都東久留米市大門町2丁目10-5","lat":35.76484698,"lon":139.54070162},{"name":"六仙公園","province":"東京都","city":"東久留米市","address":"東久留米市中央町三丁目","lat":35.750302,"lon":139.522698},{"name":"南沢給水所","province":"東京都","city":"東久留米市","address":"東京都東久留米市南沢3-9-21","lat":35.751937,"lon":139.525834},{"name":"滝山給水所","province":"東京都","city":"東久留米市","address":"東京都東久留米市滝山6-1-1","lat":35.7473841,"lon":139.507342},{"name":"市立東第２自転車等駐車場","province":"東京都","city":"東久留米市","address":"東京都東久留米市東本町14","lat":35.7627277,"lon":139.53515209},{"name":"日生サイクルプラザ東久留米第２","province":"東京都","city":"東久留米市","address":"東京都東久留米市新川町1丁目4","lat":35.7612862,"lon":139.5350827},{"name":"日生サイクルプラザ東久留米第１","province":"東京都","city":"東久留米市","address":"東京都東久留米市新川町1丁目3","lat":35.76013078,"lon":139.53539661},{"name":"市立西第９自転車駐車場","province":"東京都","city":"東久留米市","address":"東京都東久留米市本町1丁目5","lat":35.75972803,"lon":139.53402173},{"name":"市立西第１０一時利用自転車駐車場","province":"東京都","city":"東久留米市","address":"東京都東久留米市本町1丁目4","lat":35.75914751,"lon":139.53259409},{"name":"東久留米駅前駐輪場","province":"東京都","city":"東久留米市","address":"東京都東久留米市東本町1-15","lat":35.76086678,"lon":139.53414668},{"name":"東久留米駅前第２駐輪場","province":"東京都","city":"東久留米市","address":"東京都東久留米市東本町1-15","lat":35.76086678,"lon":139.53414668},{"name":"東久留米駅前第３駐輪場","province":"東京都","city":"東久留米市","address":"東京都東久留米市本町1丁目3-28","lat":35.75994184,"lon":139.53205522},{"name":"東久留米駅西口第１自転車駐車場","province":"東京都","city":"東久留米市","address":"東京都東久留米市新川町1丁目3","lat":35.76013078,"lon":139.53539661},{"name":"東久留米駅西口第２自転車駐車場","province":"東京都","city":"東久留米市","address":"東京都東久留米市新川町1丁目3","lat":35.76013078,"lon":139.53539661},{"name":"東久留米駅西口第３自転車駐車場","province":"東京都","city":"東久留米市","address":"東京都東久留米市本町1丁目14","lat":35.75794212,"lon":139.53427455},{"name":"東久留米駅東口自転車駐車場","province":"東京都","city":"東久留米市","address":"東京都東久留米市新川町1丁目3","lat":35.76013078,"lon":139.53539661},{"name":"東久留米駅北口自転車駐車場","province":"東京都","city":"東久留米市","address":"東京都東久留米市東本町1-6","lat":35.76136949,"lon":139.53344116},{"name":"サイクルスペース２４東久留米駐輪場","province":"東京都","city":"東久留米市","address":"東京都東久留米市新川町1丁目9","lat":35.76161952,"lon":139.53686034},{"name":"市立西第１０原付自転車駐車場","province":"東京都","city":"東久留米市","address":"東京都東久留米市本町1丁目4","lat":35.75914751,"lon":139.53259409},{"name":"リバーウエストビルズ駐輪場","province":"東京都","city":"東久留米市","address":"東京都東久留米市本町1丁目5","lat":35.75972803,"lon":139.53402173},{"name":"東久留米駅前第４駐輪場","province":"東京都","city":"東久留米市","address":"東京都東久留米市東本町5","lat":35.76224161,"lon":139.53360501},{"name":"市立臨時西第２自転車駐車場","province":"東京都","city":"東久留米市","address":"東京都東久留米市本町1丁目8-1","lat":35.7578366,"lon":139.53545501},{"name":"東久留米駅西口第１自転車駐車場","province":"東京都","city":"東久留米市","address":"東京都東久留米市本町1丁目3","lat":35.76054178,"lon":139.53217741},{"name":"東久留米駅西口第２自転車駐車場","province":"東京都","city":"東久留米市","address":"東京都東久留米市本町1丁目5","lat":35.75972803,"lon":139.53402173},{"name":"柳窪三丁目","province":"東京都","city":"東久留米市","address":"東京都東久留米市柳窪3丁目2-1","lat":35.74325401,"lon":139.4947647},{"name":"上の原交番前","province":"東京都","city":"東久留米市","address":"東京都東久留米市上の原1丁目2","lat":35.76894094,"lon":139.54174311},{"name":"東久留米市役所前","province":"東京都","city":"東久留米市","address":"東京都東久留米市本町3丁目1-41","lat":35.75827534,"lon":139.53039709},{"name":"東久留米市役所西","province":"東京都","city":"東久留米市","address":"東京都東久留米市中央町1丁目1","lat":35.75811417,"lon":139.52673352},{"name":"さいわい福祉センター前","province":"東京都","city":"東久留米市","address":"東京都東久留米市幸町2丁目1-10","lat":35.75915557,"lon":139.51983687},{"name":"東久留米公民館前","province":"東京都","city":"東久留米市","address":"東京都東久留米市中央町2丁目1-46","lat":35.75573938,"lon":139.52343944},{"name":"東久留米駅西","province":"東京都","city":"東久留米市","address":"東京都東久留米市本町1丁目4-53","lat":35.75968355,"lon":139.53264963},{"name":"神山大橋","province":"東京都","city":"東久留米市","address":"東京都東久留米市大門町2丁目12","lat":35.76377491,"lon":139.5419238},{"name":"＊?東久留米市郷土資料室","province":"東京都","city":"東久留米市","address":"東久留米市滝山4-3-14わくわく健康プラザ内","lat":35.742202,"lon":139.504451},{"name":"(有)山下商事","province":"東京都","city":"東久留米市","address":"東久留米市八幡町2-11-53","lat":35.752308,"lon":139.510056},{"name":"柳泉園クリーンポート","province":"東京都","city":"東久留米市","address":"東京都東久留米市下里4丁目3","lat":35.754902,"lon":139.494705},{"name":"東部地域センター","province":"東京都","city":"東久留米市","address":"東京都東久留米市大門町2丁目10-5","lat":35.76484698,"lon":139.54070162},{"name":"東久留米市スポーツセンター","province":"東京都","city":"東久留米市","address":"東京都東久留米市大門町2丁目14-37","lat":35.76225846,"lon":139.54430143},{"name":"西武地域センター","province":"東京都","city":"東久留米市","address":"東京都東久留米市滝山4丁目1-10","lat":35.7448624,"lon":139.50443041},{"name":"わくわく健康プラザ","province":"東京都","city":"東久留米市","address":"東京都東久留米市滝山4丁目3-14","lat":35.74228769,"lon":139.5044833},{"name":"サービスステーション\"","province":"東京都","city":"東久留米市","address":"東京都東久留米市滝山6丁目1-1","lat":35.74739829,"lon":139.50739394},{"name":"中央図書館","province":"東京都","city":"東久留米市","address":"東京都東久留米市中央町2丁目6-23","lat":35.75549771,"lon":139.5222451},{"name":"南部地域センター","province":"東京都","city":"東久留米市","address":"東京都東久留米市ひばりが丘団地185","lat":35.74651843,"lon":139.53424441},{"name":"東久留米市役所庁舎","province":"東京都","city":"東久留米市","address":"東京都東久留米市本町3丁目1-1","lat":35.75866697,"lon":139.53103313},{"name":"あいる","province":"東京都","city":"東久留米市","address":"東久留米市新川町1-9-26","lat":35.761545,"lon":139.536855},{"name":"てんとうむし","province":"東京都","city":"東久留米市","address":"東久留米市南町4-9-21","lat":35.744366,"lon":139.52214},{"name":"だっく","province":"東京都","city":"東久留米市","address":"東久留米市八幡町1-1-12","lat":35.757436,"lon":139.513174},{"name":"ぐ～す","province":"東京都","city":"東久留米市","address":"東久留米市八幡町2-13-29","lat":35.755661,"lon":139.513543},{"name":"シュプロス東久留米教室","province":"東京都","city":"東久留米市","address":"東久留米市八幡町2-4-18グランドール1階店舗","lat":35.754612,"lon":139.513713},{"name":"しおん学園","province":"東京都","city":"東久留米市","address":"東久留米市下里7-8-20","lat":35.759916,"lon":139.502927},{"name":"放課後等デイサービス　カーリッジ東久留米","province":"東京都","city":"東久留米市","address":"東久留米市下里3-23-13アズセナ101号室","lat":35.753425,"lon":139.500275},{"name":"このみ","province":"東京都","city":"東久留米市","address":"東久留米市幸町3-8-23","lat":35.758264,"lon":139.51912},{"name":"さくら滝山ハウス","province":"東京都","city":"東久留米市","address":"東久留米市滝山7-1-22","lat":35.749565,"lon":139.508844},{"name":"さくら滝山ハウス","province":"東京都","city":"東久留米市","address":"東久留米市滝山7-1-22","lat":35.74975,"lon":139.50836},{"name":"中央図書館","province":"東京都","city":"東久留米市","address":"東京都東久留米市中央町2丁目6-23","lat":35.75549771,"lon":139.5222451},{"name":"滝山図書館","province":"東京都","city":"東久留米市","address":"東京都東久留米市滝山4丁目1-10","lat":35.7448624,"lon":139.50443041},{"name":"ひばりが丘図書館","province":"東京都","city":"東久留米市","address":"東京都東久留米市ひばりが丘団地185","lat":35.74651843,"lon":139.53424441},{"name":"東部図書館","province":"東京都","city":"東久留米市","address":"東京都東久留米市大門町2丁目10-5","lat":35.76484698,"lon":139.54070162},{"name":"六仙公園","province":"東京都","city":"東久留米市","address":"東久留米市中央町三丁目","lat":35.750302,"lon":139.522698},{"name":"南沢給水所","province":"東京都","city":"東久留米市","address":"東京都東久留米市南沢3-9-21","lat":35.751937,"lon":139.525834},{"name":"滝山給水所","province":"東京都","city":"東久留米市","address":"東京都東久留米市滝山6-1-1","lat":35.7473841,"lon":139.507342},{"name":"市立東第２自転車等駐車場","province":"東京都","city":"東久留米市","address":"東京都東久留米市東本町14","lat":35.7627277,"lon":139.53515209},{"name":"日生サイクルプラザ東久留米第２","province":"東京都","city":"東久留米市","address":"東京都東久留米市新川町1丁目4","lat":35.7612862,"lon":139.5350827},{"name":"日生サイクルプラザ東久留米第１","province":"東京都","city":"東久留米市","address":"東京都東久留米市新川町1丁目3","lat":35.76013078,"lon":139.53539661},{"name":"市立西第９自転車駐車場","province":"東京都","city":"東久留米市","address":"東京都東久留米市本町1丁目5","lat":35.75972803,"lon":139.53402173},{"name":"市立西第１０一時利用自転車駐車場","province":"東京都","city":"東久留米市","address":"東京都東久留米市本町1丁目4","lat":35.75914751,"lon":139.53259409},{"name":"東久留米駅前駐輪場","province":"東京都","city":"東久留米市","address":"東京都東久留米市東本町1-15","lat":35.76086678,"lon":139.53414668},{"name":"東久留米駅前第２駐輪場","province":"東京都","city":"東久留米市","address":"東京都東久留米市東本町1-15","lat":35.76086678,"lon":139.53414668},{"name":"東久留米駅前第３駐輪場","province":"東京都","city":"東久留米市","address":"東京都東久留米市本町1丁目3-28","lat":35.75994184,"lon":139.53205522},{"name":"東久留米駅西口第１自転車駐車場","province":"東京都","city":"東久留米市","address":"東京都東久留米市新川町1丁目3","lat":35.76013078,"lon":139.53539661},{"name":"東久留米駅西口第２自転車駐車場","province":"東京都","city":"東久留米市","address":"東京都東久留米市新川町1丁目3","lat":35.76013078,"lon":139.53539661},{"name":"東久留米駅西口第３自転車駐車場","province":"東京都","city":"東久留米市","address":"東京都東久留米市本町1丁目14","lat":35.75794212,"lon":139.53427455},{"name":"東久留米駅東口自転車駐車場","province":"東京都","city":"東久留米市","address":"東京都東久留米市新川町1丁目3","lat":35.76013078,"lon":139.53539661},{"name":"東久留米駅北口自転車駐車場","province":"東京都","city":"東久留米市","address":"東京都東久留米市東本町1-6","lat":35.76136949,"lon":139.53344116},{"name":"サイクルスペース２４東久留米駐輪場","province":"東京都","city":"東久留米市","address":"東京都東久留米市新川町1丁目9","lat":35.76161952,"lon":139.53686034},{"name":"市立西第１０原付自転車駐車場","province":"東京都","city":"東久留米市","address":"東京都東久留米市本町1丁目4","lat":35.75914751,"lon":139.53259409},{"name":"リバーウエストビルズ駐輪場","province":"東京都","city":"東久留米市","address":"東京都東久留米市本町1丁目5","lat":35.75972803,"lon":139.53402173},{"name":"東久留米駅前第４駐輪場","province":"東京都","city":"東久留米市","address":"東京都東久留米市東本町5","lat":35.76224161,"lon":139.53360501},{"name":"市立臨時西第２自転車駐車場","province":"東京都","city":"東久留米市","address":"東京都東久留米市本町1丁目8-1","lat":35.7578366,"lon":139.53545501},{"name":"東久留米駅西口第１自転車駐車場","province":"東京都","city":"東久留米市","address":"東京都東久留米市本町1丁目3","lat":35.76054178,"lon":139.53217741},{"name":"東久留米駅西口第２自転車駐車場","province":"東京都","city":"東久留米市","address":"東京都東久留米市本町1丁目5","lat":35.75972803,"lon":139.53402173},{"name":"柳窪三丁目","province":"東京都","city":"東久留米市","address":"東京都東久留米市柳窪3丁目2-1","lat":35.74325401,"lon":139.4947647},{"name":"上の原交番前","province":"東京都","city":"東久留米市","address":"東京都東久留米市上の原1丁目2","lat":35.76894094,"lon":139.54174311},{"name":"東久留米市役所前","province":"東京都","city":"東久留米市","address":"東京都東久留米市本町3丁目1-41","lat":35.75827534,"lon":139.53039709},{"name":"東久留米市役所西","province":"東京都","city":"東久留米市","address":"東京都東久留米市中央町1丁目1","lat":35.75811417,"lon":139.52673352},{"name":"さいわい福祉センター前","province":"東京都","city":"東久留米市","address":"東京都東久留米市幸町2丁目1-10","lat":35.75915557,"lon":139.51983687},{"name":"東久留米公民館前","province":"東京都","city":"東久留米市","address":"東京都東久留米市中央町2丁目1-46","lat":35.75573938,"lon":139.52343944},{"name":"東久留米駅西","province":"東京都","city":"東久留米市","address":"東京都東久留米市本町1丁目4-53","lat":35.75968355,"lon":139.53264963},{"name":"神山大橋","province":"東京都","city":"東久留米市","address":"東京都東久留米市大門町2丁目12","lat":35.76377491,"lon":139.5419238},{"name":"＊?東久留米市郷土資料室","province":"東京都","city":"東久留米市","address":"東久留米市滝山4-3-14わくわく健康プラザ内","lat":35.742202,"lon":139.504451},{"name":"柳泉園クリーンポート","province":"東京都","city":"東久留米市","address":"東京都東久留米市下里4丁目3","lat":35.754902,"lon":139.494705},{"name":"東部地域センター","province":"東京都","city":"東久留米市","address":"東京都東久留米市大門町2丁目10-5","lat":35.76484698,"lon":139.54070162},{"name":"東久留米市スポーツセンター","province":"東京都","city":"東久留米市","address":"東京都東久留米市大門町2丁目14-37","lat":35.76225846,"lon":139.54430143},{"name":"西武地域センター","province":"東京都","city":"東久留米市","address":"東京都東久留米市滝山4丁目1-10","lat":35.7448624,"lon":139.50443041},{"name":"わくわく健康プラザ","province":"東京都","city":"東久留米市","address":"東京都東久留米市滝山4丁目3-14","lat":35.74228769,"lon":139.5044833},{"name":"サービスステーション\"","province":"東京都","city":"東久留米市","address":"東京都東久留米市滝山6丁目1-1","lat":35.74739829,"lon":139.50739394},{"name":"中央図書館","province":"東京都","city":"東久留米市","address":"東京都東久留米市中央町2丁目6-23","lat":35.75549771,"lon":139.5222451},{"name":"南部地域センター","province":"東京都","city":"東久留米市","address":"東京都東久留米市ひばりが丘団地185","lat":35.74651843,"lon":139.53424441},{"name":"東久留米市役所庁舎","province":"東京都","city":"東久留米市","address":"東京都東久留米市本町3丁目1-1","lat":35.75866697,"lon":139.53103313},{"name":"あいる","province":"東京都","city":"東久留米市","address":"東久留米市新川町1-9-26","lat":35.761545,"lon":139.536855},{"name":"てんとうむし","province":"東京都","city":"東久留米市","address":"東久留米市南町4-9-21","lat":35.744366,"lon":139.52214},{"name":"だっく","province":"東京都","city":"東久留米市","address":"東久留米市八幡町1-1-12","lat":35.757436,"lon":139.513174},{"name":"ぐ～す","province":"東京都","city":"東久留米市","address":"東久留米市八幡町2-13-29","lat":35.755661,"lon":139.513543},{"name":"シュプロス東久留米教室","province":"東京都","city":"東久留米市","address":"東久留米市八幡町2-4-18グランドール1階店舗","lat":35.754612,"lon":139.513713},{"name":"しおん学園","province":"東京都","city":"東久留米市","address":"東久留米市下里7-8-20","lat":35.759916,"lon":139.502927},{"name":"放課後等デイサービス　カーリッジ東久留米","province":"東京都","city":"東久留米市","address":"東久留米市下里3-23-13アズセナ101号室","lat":35.753425,"lon":139.500275},{"name":"このみ","province":"東京都","city":"東久留米市","address":"東久留米市幸町3-8-23","lat":35.758264,"lon":139.51912},{"name":"さくら滝山ハウス","province":"東京都","city":"東久留米市","address":"東久留米市滝山7-1-22","lat":35.749565,"lon":139.508844},{"name":"さくら滝山ハウス","province":"東京都","city":"東久留米市","address":"東久留米市滝山7-1-22","lat":35.74975,"lon":139.50836},{"name":"六仙公園","province":"東京都","city":"東久留米市","address":"東久留米市中央町三丁目","lat":35.750302,"lon":139.522698},{"name":"南沢給水所","province":"東京都","city":"東久留米市","address":"東京都東久留米市南沢3-9-21","lat":35.751937,"lon":139.525834},{"name":"滝山給水所","province":"東京都","city":"東久留米市","address":"東京都東久留米市滝山6-1-1","lat":35.7473841,"lon":139.507342},{"name":"市立東第２自転車等駐車場","province":"東京都","city":"東久留米市","address":"東京都東久留米市東本町14","lat":35.7627277,"lon":139.53515209},{"name":"日生サイクルプラザ東久留米第２","province":"東京都","city":"東久留米市","address":"東京都東久留米市新川町1丁目4","lat":35.7612862,"lon":139.5350827},{"name":"日生サイクルプラザ東久留米第１","province":"東京都","city":"東久留米市","address":"東京都東久留米市新川町1丁目3","lat":35.76013078,"lon":139.53539661},{"name":"市立西第９自転車駐車場","province":"東京都","city":"東久留米市","address":"東京都東久留米市本町1丁目5","lat":35.75972803,"lon":139.53402173},{"name":"市立西第１０一時利用自転車駐車場","province":"東京都","city":"東久留米市","address":"東京都東久留米市本町1丁目4","lat":35.75914751,"lon":139.53259409},{"name":"東久留米駅前駐輪場","province":"東京都","city":"東久留米市","address":"東京都東久留米市東本町1-15","lat":35.76086678,"lon":139.53414668},{"name":"東久留米駅前第２駐輪場","province":"東京都","city":"東久留米市","address":"東京都東久留米市東本町1-15","lat":35.76086678,"lon":139.53414668},{"name":"東久留米駅前第３駐輪場","province":"東京都","city":"東久留米市","address":"東京都東久留米市本町1丁目3-28","lat":35.75994184,"lon":139.53205522},{"name":"東久留米駅西口第１自転車駐車場","province":"東京都","city":"東久留米市","address":"東京都東久留米市新川町1丁目3","lat":35.76013078,"lon":139.53539661},{"name":"東久留米駅西口第２自転車駐車場","province":"東京都","city":"東久留米市","address":"東京都東久留米市新川町1丁目3","lat":35.76013078,"lon":139.53539661},{"name":"東久留米駅西口第３自転車駐車場","province":"東京都","city":"東久留米市","address":"東京都東久留米市本町1丁目14","lat":35.75794212,"lon":139.53427455},{"name":"東久留米駅東口自転車駐車場","province":"東京都","city":"東久留米市","address":"東京都東久留米市新川町1丁目3","lat":35.76013078,"lon":139.53539661},{"name":"東久留米駅北口自転車駐車場","province":"東京都","city":"東久留米市","address":"東京都東久留米市東本町1-6","lat":35.76136949,"lon":139.53344116},{"name":"サイクルスペース２４東久留米駐輪場","province":"東京都","city":"東久留米市","address":"東京都東久留米市新川町1丁目9","lat":35.76161952,"lon":139.53686034},{"name":"市立西第１０原付自転車駐車場","province":"東京都","city":"東久留米市","address":"東京都東久留米市本町1丁目4","lat":35.75914751,"lon":139.53259409},{"name":"リバーウエストビルズ駐輪場","province":"東京都","city":"東久留米市","address":"東京都東久留米市本町1丁目5","lat":35.75972803,"lon":139.53402173},{"name":"東久留米駅前第４駐輪場","province":"東京都","city":"東久留米市","address":"東京都東久留米市東本町5","lat":35.76224161,"lon":139.53360501},{"name":"市立臨時西第２自転車駐車場","province":"東京都","city":"東久留米市","address":"東京都東久留米市本町1丁目8-1","lat":35.7578366,"lon":139.53545501},{"name":"東久留米駅西口第１自転車駐車場","province":"東京都","city":"東久留米市","address":"東京都東久留米市本町1丁目3","lat":35.76054178,"lon":139.53217741},{"name":"東久留米駅西口第２自転車駐車場","province":"東京都","city":"東久留米市","address":"東京都東久留米市本町1丁目5","lat":35.75972803,"lon":139.53402173},{"name":"柳窪三丁目","province":"東京都","city":"東久留米市","address":"東京都東久留米市柳窪3丁目2-1","lat":35.74325401,"lon":139.4947647},{"name":"上の原交番前","province":"東京都","city":"東久留米市","address":"東京都東久留米市上の原1丁目2","lat":35.76894094,"lon":139.54174311},{"name":"東久留米市役所前","province":"東京都","city":"東久留米市","address":"東京都東久留米市本町3丁目1-41","lat":35.75827534,"lon":139.53039709},{"name":"東久留米市役所西","province":"東京都","city":"東久留米市","address":"東京都東久留米市中央町1丁目1","lat":35.75811417,"lon":139.52673352},{"name":"さいわい福祉センター前","province":"東京都","city":"東久留米市","address":"東京都東久留米市幸町2丁目1-10","lat":35.75915557,"lon":139.51983687},{"name":"東久留米公民館前","province":"東京都","city":"東久留米市","address":"東京都東久留米市中央町2丁目1-46","lat":35.75573938,"lon":139.52343944},{"name":"東久留米駅西","province":"東京都","city":"東久留米市","address":"東京都東久留米市本町1丁目4-53","lat":35.75968355,"lon":139.53264963},{"name":"神山大橋","province":"東京都","city":"東久留米市","address":"東京都東久留米市大門町2丁目12","lat":35.76377491,"lon":139.5419238},{"name":"柳泉園クリーンポート","province":"東京都","city":"東久留米市","address":"東京都東久留米市下里4丁目3","lat":35.754902,"lon":139.494705},{"name":"東部地域センター","province":"東京都","city":"東久留米市","address":"東京都東久留米市大門町2丁目10-5","lat":35.76484698,"lon":139.54070162},{"name":"東久留米市スポーツセンター","province":"東京都","city":"東久留米市","address":"東京都東久留米市大門町2丁目14-37","lat":35.76225846,"lon":139.54430143},{"name":"西武地域センター","province":"東京都","city":"東久留米市","address":"東京都東久留米市滝山4丁目1-10","lat":35.7448624,"lon":139.50443041},{"name":"わくわく健康プラザ","province":"東京都","city":"東久留米市","address":"東京都東久留米市滝山4丁目3-14","lat":35.74228769,"lon":139.5044833},{"name":"サービスステーション\"","province":"東京都","city":"東久留米市","address":"東京都東久留米市滝山6丁目1-1","lat":35.74739829,"lon":139.50739394},{"name":"中央図書館","province":"東京都","city":"東久留米市","address":"東京都東久留米市中央町2丁目6-23","lat":35.75549771,"lon":139.5222451},{"name":"南部地域センター","province":"東京都","city":"東久留米市","address":"東京都東久留米市ひばりが丘団地185","lat":35.74651843,"lon":139.53424441},{"name":"東久留米市役所庁舎","province":"東京都","city":"東久留米市","address":"東京都東久留米市本町3丁目1-1","lat":35.75866697,"lon":139.53103313},{"name":"あいる","province":"東京都","city":"東久留米市","address":"東久留米市新川町1-9-26","lat":35.761545,"lon":139.536855},{"name":"てんとうむし","province":"東京都","city":"東久留米市","address":"東久留米市南町4-9-21","lat":35.744366,"lon":139.52214},{"name":"だっく","province":"東京都","city":"東久留米市","address":"東久留米市八幡町1-1-12","lat":35.757436,"lon":139.513174},{"name":"ぐ～す","province":"東京都","city":"東久留米市","address":"東久留米市八幡町2-13-29","lat":35.755661,"lon":139.513543},{"name":"シュプロス東久留米教室","province":"東京都","city":"東久留米市","address":"東久留米市八幡町2-4-18グランドール1階店舗","lat":35.754612,"lon":139.513713},{"name":"しおん学園","province":"東京都","city":"東久留米市","address":"東久留米市下里7-8-20","lat":35.759916,"lon":139.502927},{"name":"放課後等デイサービス　カーリッジ東久留米","province":"東京都","city":"東久留米市","address":"東久留米市下里3-23-13アズセナ101号室","lat":35.753425,"lon":139.500275},{"name":"このみ","province":"東京都","city":"東久留米市","address":"東久留米市幸町3-8-23","lat":35.758264,"lon":139.51912},{"name":"さくら滝山ハウス","province":"東京都","city":"東久留米市","address":"東久留米市滝山7-1-22","lat":35.749565,"lon":139.508844},{"name":"さくら滝山ハウス","province":"東京都","city":"東久留米市","address":"東久留米市滝山7-1-22","lat":35.74975,"lon":139.50836},{"name":"六仙公園","province":"東京都","city":"東久留米市","address":"東久留米市中央町三丁目","lat":35.750302,"lon":139.522698},{"name":"南沢給水所","province":"東京都","city":"東久留米市","address":"東京都東久留米市南沢3-9-21","lat":35.751937,"lon":139.525834},{"name":"滝山給水所","province":"東京都","city":"東久留米市","address":"東京都東久留米市滝山6-1-1","lat":35.7473841,"lon":139.507342},{"name":"市立東第２自転車等駐車場","province":"東京都","city":"東久留米市","address":"東京都東久留米市東本町14","lat":35.7627277,"lon":139.53515209},{"name":"日生サイクルプラザ東久留米第２","province":"東京都","city":"東久留米市","address":"東京都東久留米市新川町1丁目4","lat":35.7612862,"lon":139.5350827},{"name":"日生サイクルプラザ東久留米第１","province":"東京都","city":"東久留米市","address":"東京都東久留米市新川町1丁目3","lat":35.76013078,"lon":139.53539661},{"name":"市立西第９自転車駐車場","province":"東京都","city":"東久留米市","address":"東京都東久留米市本町1丁目5","lat":35.75972803,"lon":139.53402173},{"name":"市立西第１０一時利用自転車駐車場","province":"東京都","city":"東久留米市","address":"東京都東久留米市本町1丁目4","lat":35.75914751,"lon":139.53259409},{"name":"東久留米駅前駐輪場","province":"東京都","city":"東久留米市","address":"東京都東久留米市東本町1-15","lat":35.76086678,"lon":139.53414668},{"name":"東久留米駅前第２駐輪場","province":"東京都","city":"東久留米市","address":"東京都東久留米市東本町1-15","lat":35.76086678,"lon":139.53414668},{"name":"東久留米駅前第３駐輪場","province":"東京都","city":"東久留米市","address":"東京都東久留米市本町1丁目3-28","lat":35.75994184,"lon":139.53205522},{"name":"東久留米駅西口第１自転車駐車場","province":"東京都","city":"東久留米市","address":"東京都東久留米市新川町1丁目3","lat":35.76013078,"lon":139.53539661},{"name":"東久留米駅西口第２自転車駐車場","province":"東京都","city":"東久留米市","address":"東京都東久留米市新川町1丁目3","lat":35.76013078,"lon":139.53539661},{"name":"東久留米駅西口第３自転車駐車場","province":"東京都","city":"東久留米市","address":"東京都東久留米市本町1丁目14","lat":35.75794212,"lon":139.53427455},{"name":"東久留米駅東口自転車駐車場","province":"東京都","city":"東久留米市","address":"東京都東久留米市新川町1丁目3","lat":35.76013078,"lon":139.53539661},{"name":"東久留米駅北口自転車駐車場","province":"東京都","city":"東久留米市","address":"東京都東久留米市東本町1-6","lat":35.76136949,"lon":139.53344116},{"name":"サイクルスペース２４東久留米駐輪場","province":"東京都","city":"東久留米市","address":"東京都東久留米市新川町1丁目9","lat":35.76161952,"lon":139.53686034},{"name":"市立西第１０原付自転車駐車場","province":"東京都","city":"東久留米市","address":"東京都東久留米市本町1丁目4","lat":35.75914751,"lon":139.53259409},{"name":"リバーウエストビルズ駐輪場","province":"東京都","city":"東久留米市","address":"東京都東久留米市本町1丁目5","lat":35.75972803,"lon":139.53402173},{"name":"東久留米駅前第４駐輪場","province":"東京都","city":"東久留米市","address":"東京都東久留米市東本町5","lat":35.76224161,"lon":139.53360501},{"name":"市立臨時西第２自転車駐車場","province":"東京都","city":"東久留米市","address":"東京都東久留米市本町1丁目8-1","lat":35.7578366,"lon":139.53545501},{"name":"東久留米駅西口第１自転車駐車場","province":"東京都","city":"東久留米市","address":"東京都東久留米市本町1丁目3","lat":35.76054178,"lon":139.53217741},{"name":"東久留米駅西口第２自転車駐車場","province":"東京都","city":"東久留米市","address":"東京都東久留米市本町1丁目5","lat":35.75972803,"lon":139.53402173},{"name":"柳窪三丁目","province":"東京都","city":"東久留米市","address":"東京都東久留米市柳窪3丁目2-1","lat":35.74325401,"lon":139.4947647},{"name":"上の原交番前","province":"東京都","city":"東久留米市","address":"東京都東久留米市上の原1丁目2","lat":35.76894094,"lon":139.54174311},{"name":"東久留米市役所前","province":"東京都","city":"東久留米市","address":"東京都東久留米市本町3丁目1-41","lat":35.75827534,"lon":139.53039709},{"name":"東久留米市役所西","province":"東京都","city":"東久留米市","address":"東京都東久留米市中央町1丁目1","lat":35.75811417,"lon":139.52673352},{"name":"さいわい福祉センター前","province":"東京都","city":"東久留米市","address":"東京都東久留米市幸町2丁目1-10","lat":35.75915557,"lon":139.51983687},{"name":"東久留米公民館前","province":"東京都","city":"東久留米市","address":"東京都東久留米市中央町2丁目1-46","lat":35.75573938,"lon":139.52343944},{"name":"東久留米駅西","province":"東京都","city":"東久留米市","address":"東京都東久留米市本町1丁目4-53","lat":35.75968355,"lon":139.53264963},{"name":"神山大橋","province":"東京都","city":"東久留米市","address":"東京都東久留米市大門町2丁目12","lat":35.76377491,"lon":139.5419238},{"name":"柳泉園クリーンポート","province":"東京都","city":"東久留米市","address":"東京都東久留米市下里4丁目3","lat":35.754902,"lon":139.494705},{"name":"東部地域センター","province":"東京都","city":"東久留米市","address":"東京都東久留米市大門町2丁目10-5","lat":35.76484698,"lon":139.54070162},{"name":"東久留米市スポーツセンター","province":"東京都","city":"東久留米市","address":"東京都東久留米市大門町2丁目14-37","lat":35.76225846,"lon":139.54430143},{"name":"西武地域センター","province":"東京都","city":"東久留米市","address":"東京都東久留米市滝山4丁目1-10","lat":35.7448624,"lon":139.50443041},{"name":"わくわく健康プラザ","province":"東京都","city":"東久留米市","address":"東京都東久留米市滝山4丁目3-14","lat":35.74228769,"lon":139.5044833},{"name":"サービスステーション\"","province":"東京都","city":"東久留米市","address":"東京都東久留米市滝山6丁目1-1","lat":35.74739829,"lon":139.50739394},{"name":"中央図書館","province":"東京都","city":"東久留米市","address":"東京都東久留米市中央町2丁目6-23","lat":35.75549771,"lon":139.5222451},{"name":"南部地域センター","province":"東京都","city":"東久留米市","address":"東京都東久留米市ひばりが丘団地185","lat":35.74651843,"lon":139.53424441},{"name":"東久留米市役所庁舎","province":"東京都","city":"東久留米市","address":"東京都東久留米市本町3丁目1-1","lat":35.75866697,"lon":139.53103313},{"name":"さくら滝山ハウス","province":"東京都","city":"東久留米市","address":"東久留米市滝山7-1-22","lat":35.749565,"lon":139.508844},{"name":"さくら滝山ハウス","province":"東京都","city":"東久留米市","address":"東久留米市滝山7-1-22","lat":35.74975,"lon":139.50836},{"name":"六仙公園","province":"東京都","city":"東久留米市","address":"東久留米市中央町三丁目","lat":35.750302,"lon":139.522698},{"name":"南沢給水所","province":"東京都","city":"東久留米市","address":"東京都東久留米市南沢3-9-21","lat":35.751937,"lon":139.525834},{"name":"滝山給水所","province":"東京都","city":"東久留米市","address":"東京都東久留米市滝山6-1-1","lat":35.7473841,"lon":139.507342},{"name":"市立東第２自転車等駐車場","province":"東京都","city":"東久留米市","address":"東京都東久留米市東本町14","lat":35.7627277,"lon":139.53515209},{"name":"日生サイクルプラザ東久留米第２","province":"東京都","city":"東久留米市","address":"東京都東久留米市新川町1丁目4","lat":35.7612862,"lon":139.5350827},{"name":"日生サイクルプラザ東久留米第１","province":"東京都","city":"東久留米市","address":"東京都東久留米市新川町1丁目3","lat":35.76013078,"lon":139.53539661},{"name":"市立西第９自転車駐車場","province":"東京都","city":"東久留米市","address":"東京都東久留米市本町1丁目5","lat":35.75972803,"lon":139.53402173},{"name":"市立西第１０一時利用自転車駐車場","province":"東京都","city":"東久留米市","address":"東京都東久留米市本町1丁目4","lat":35.75914751,"lon":139.53259409},{"name":"東久留米駅前駐輪場","province":"東京都","city":"東久留米市","address":"東京都東久留米市東本町1-15","lat":35.76086678,"lon":139.53414668},{"name":"東久留米駅前第２駐輪場","province":"東京都","city":"東久留米市","address":"東京都東久留米市東本町1-15","lat":35.76086678,"lon":139.53414668},{"name":"東久留米駅前第３駐輪場","province":"東京都","city":"東久留米市","address":"東京都東久留米市本町1丁目3-28","lat":35.75994184,"lon":139.53205522},{"name":"東久留米駅西口第１自転車駐車場","province":"東京都","city":"東久留米市","address":"東京都東久留米市新川町1丁目3","lat":35.76013078,"lon":139.53539661},{"name":"東久留米駅西口第２自転車駐車場","province":"東京都","city":"東久留米市","address":"東京都東久留米市新川町1丁目3","lat":35.76013078,"lon":139.53539661},{"name":"東久留米駅西口第３自転車駐車場","province":"東京都","city":"東久留米市","address":"東京都東久留米市本町1丁目14","lat":35.75794212,"lon":139.53427455},{"name":"東久留米駅東口自転車駐車場","province":"東京都","city":"東久留米市","address":"東京都東久留米市新川町1丁目3","lat":35.76013078,"lon":139.53539661},{"name":"東久留米駅北口自転車駐車場","province":"東京都","city":"東久留米市","address":"東京都東久留米市東本町1-6","lat":35.76136949,"lon":139.53344116},{"name":"サイクルスペース２４東久留米駐輪場","province":"東京都","city":"東久留米市","address":"東京都東久留米市新川町1丁目9","lat":35.76161952,"lon":139.53686034},{"name":"市立西第１０原付自転車駐車場","province":"東京都","city":"東久留米市","address":"東京都東久留米市本町1丁目4","lat":35.75914751,"lon":139.53259409},{"name":"リバーウエストビルズ駐輪場","province":"東京都","city":"東久留米市","address":"東京都東久留米市本町1丁目5","lat":35.75972803,"lon":139.53402173},{"name":"東久留米駅前第４駐輪場","province":"東京都","city":"東久留米市","address":"東京都東久留米市東本町5","lat":35.76224161,"lon":139.53360501},{"name":"市立臨時西第２自転車駐車場","province":"東京都","city":"東久留米市","address":"東京都東久留米市本町1丁目8-1","lat":35.7578366,"lon":139.53545501},{"name":"東久留米駅西口第１自転車駐車場","province":"東京都","city":"東久留米市","address":"東京都東久留米市本町1丁目3","lat":35.76054178,"lon":139.53217741},{"name":"東久留米駅西口第２自転車駐車場","province":"東京都","city":"東久留米市","address":"東京都東久留米市本町1丁目5","lat":35.75972803,"lon":139.53402173},{"name":"柳泉園クリーンポート","province":"東京都","city":"東久留米市","address":"東京都東久留米市下里4丁目3","lat":35.754902,"lon":139.494705},{"name":"東部地域センター","province":"東京都","city":"東久留米市","address":"東京都東久留米市大門町2丁目10-5","lat":35.76484698,"lon":139.54070162},{"name":"東久留米市スポーツセンター","province":"東京都","city":"東久留米市","address":"東京都東久留米市大門町2丁目14-37","lat":35.76225846,"lon":139.54430143},{"name":"西武地域センター","province":"東京都","city":"東久留米市","address":"東京都東久留米市滝山4丁目1-10","lat":35.7448624,"lon":139.50443041},{"name":"わくわく健康プラザ","province":"東京都","city":"東久留米市","address":"東京都東久留米市滝山4丁目3-14","lat":35.74228769,"lon":139.5044833},{"name":"サービスステーション\"","province":"東京都","city":"東久留米市","address":"東京都東久留米市滝山6丁目1-1","lat":35.74739829,"lon":139.50739394},{"name":"中央図書館","province":"東京都","city":"東久留米市","address":"東京都東久留米市中央町2丁目6-23","lat":35.75549771,"lon":139.5222451},{"name":"南部地域センター","province":"東京都","city":"東久留米市","address":"東京都東久留米市ひばりが丘団地185","lat":35.74651843,"lon":139.53424441},{"name":"東久留米市役所庁舎","province":"東京都","city":"東久留米市","address":"東京都東久留米市本町3丁目1-1","lat":35.75866697,"lon":139.53103313},{"name":"さくら滝山ハウス","province":"東京都","city":"東久留米市","address":"東久留米市滝山7-1-22","lat":35.749565,"lon":139.508844},{"name":"さくら滝山ハウス","province":"東京都","city":"東久留米市","address":"東久留米市滝山7-1-22","lat":35.74975,"lon":139.50836},{"name":"六仙公園","province":"東京都","city":"東久留米市","address":"東久留米市中央町三丁目","lat":35.750302,"lon":139.522698},{"name":"南沢給水所","province":"東京都","city":"東久留米市","address":"東京都東久留米市南沢3-9-21","lat":35.751937,"lon":139.525834},{"name":"滝山給水所","province":"東京都","city":"東久留米市","address":"東京都東久留米市滝山6-1-1","lat":35.7473841,"lon":139.507342},{"name":"市立東第２自転車等駐車場","province":"東京都","city":"東久留米市","address":"東京都東久留米市東本町14","lat":35.7627277,"lon":139.53515209},{"name":"日生サイクルプラザ東久留米第２","province":"東京都","city":"東久留米市","address":"東京都東久留米市新川町1丁目4","lat":35.7612862,"lon":139.5350827},{"name":"日生サイクルプラザ東久留米第１","province":"東京都","city":"東久留米市","address":"東京都東久留米市新川町1丁目3","lat":35.76013078,"lon":139.53539661},{"name":"市立西第９自転車駐車場","province":"東京都","city":"東久留米市","address":"東京都東久留米市本町1丁目5","lat":35.75972803,"lon":139.53402173},{"name":"市立西第１０一時利用自転車駐車場","province":"東京都","city":"東久留米市","address":"東京都東久留米市本町1丁目4","lat":35.75914751,"lon":139.53259409},{"name":"東久留米駅前駐輪場","province":"東京都","city":"東久留米市","address":"東京都東久留米市東本町1-15","lat":35.76086678,"lon":139.53414668},{"name":"東久留米駅前第２駐輪場","province":"東京都","city":"東久留米市","address":"東京都東久留米市東本町1-15","lat":35.76086678,"lon":139.53414668},{"name":"東久留米駅前第３駐輪場","province":"東京都","city":"東久留米市","address":"東京都東久留米市本町1丁目3-28","lat":35.75994184,"lon":139.53205522},{"name":"東久留米駅西口第１自転車駐車場","province":"東京都","city":"東久留米市","address":"東京都東久留米市新川町1丁目3","lat":35.76013078,"lon":139.53539661},{"name":"東久留米駅西口第２自転車駐車場","province":"東京都","city":"東久留米市","address":"東京都東久留米市新川町1丁目3","lat":35.76013078,"lon":139.53539661},{"name":"東久留米駅西口第３自転車駐車場","province":"東京都","city":"東久留米市","address":"東京都東久留米市本町1丁目14","lat":35.75794212,"lon":139.53427455},{"name":"東久留米駅東口自転車駐車場","province":"東京都","city":"東久留米市","address":"東京都東久留米市新川町1丁目3","lat":35.76013078,"lon":139.53539661},{"name":"東久留米駅北口自転車駐車場","province":"東京都","city":"東久留米市","address":"東京都東久留米市東本町1-6","lat":35.76136949,"lon":139.53344116},{"name":"サイクルスペース２４東久留米駐輪場","province":"東京都","city":"東久留米市","address":"東京都東久留米市新川町1丁目9","lat":35.76161952,"lon":139.53686034},{"name":"市立西第１０原付自転車駐車場","province":"東京都","city":"東久留米市","address":"東京都東久留米市本町1丁目4","lat":35.75914751,"lon":139.53259409},{"name":"リバーウエストビルズ駐輪場","province":"東京都","city":"東久留米市","address":"東京都東久留米市本町1丁目5","lat":35.75972803,"lon":139.53402173},{"name":"東久留米駅前第４駐輪場","province":"東京都","city":"東久留米市","address":"東京都東久留米市東本町5","lat":35.76224161,"lon":139.53360501},{"name":"市立臨時西第２自転車駐車場","province":"東京都","city":"東久留米市","address":"東京都東久留米市本町1丁目8-1","lat":35.7578366,"lon":139.53545501},{"name":"東久留米駅西口第１自転車駐車場","province":"東京都","city":"東久留米市","address":"東京都東久留米市本町1丁目3","lat":35.76054178,"lon":139.53217741},{"name":"東久留米駅西口第２自転車駐車場","province":"東京都","city":"東久留米市","address":"東京都東久留米市本町1丁目5","lat":35.75972803,"lon":139.53402173},{"name":"柳泉園クリーンポート","province":"東京都","city":"東久留米市","address":"東京都東久留米市下里4丁目3","lat":35.754902,"lon":139.494705},{"name":"東部地域センター","province":"東京都","city":"東久留米市","address":"東京都東久留米市大門町2丁目10-5","lat":35.76484698,"lon":139.54070162},{"name":"東久留米市スポーツセンター","province":"東京都","city":"東久留米市","address":"東京都東久留米市大門町2丁目14-37","lat":35.76225846,"lon":139.54430143},{"name":"西武地域センター","province":"東京都","city":"東久留米市","address":"東京都東久留米市滝山4丁目1-10","lat":35.7448624,"lon":139.50443041},{"name":"わくわく健康プラザ","province":"東京都","city":"東久留米市","address":"東京都東久留米市滝山4丁目3-14","lat":35.74228769,"lon":139.5044833},{"name":"サービスステーション\"","province":"東京都","city":"東久留米市","address":"東京都東久留米市滝山6丁目1-1","lat":35.74739829,"lon":139.50739394},{"name":"中央図書館","province":"東京都","city":"東久留米市","address":"東京都東久留米市中央町2丁目6-23","lat":35.75549771,"lon":139.5222451},{"name":"南部地域センター","province":"東京都","city":"東久留米市","address":"東京都東久留米市ひばりが丘団地185","lat":35.74651843,"lon":139.53424441},{"name":"東久留米市役所庁舎","province":"東京都","city":"東久留米市","address":"東京都東久留米市本町3丁目1-1","lat":35.75866697,"lon":139.53103313},{"name":"六仙公園","province":"東京都","city":"東久留米市","address":"東久留米市中央町三丁目","lat":35.750302,"lon":139.522698},{"name":"南沢給水所","province":"東京都","city":"東久留米市","address":"東京都東久留米市南沢3-9-21","lat":35.751937,"lon":139.525834},{"name":"滝山給水所","province":"東京都","city":"東久留米市","address":"東京都東久留米市滝山6-1-1","lat":35.7473841,"lon":139.507342},{"name":"市立東第２自転車等駐車場","province":"東京都","city":"東久留米市","address":"東京都東久留米市東本町14","lat":35.7627277,"lon":139.53515209},{"name":"日生サイクルプラザ東久留米第２","province":"東京都","city":"東久留米市","address":"東京都東久留米市新川町1丁目4","lat":35.7612862,"lon":139.5350827},{"name":"日生サイクルプラザ東久留米第１","province":"東京都","city":"東久留米市","address":"東京都東久留米市新川町1丁目3","lat":35.76013078,"lon":139.53539661},{"name":"市立西第９自転車駐車場","province":"東京都","city":"東久留米市","address":"東京都東久留米市本町1丁目5","lat":35.75972803,"lon":139.53402173},{"name":"市立西第１０一時利用自転車駐車場","province":"東京都","city":"東久留米市","address":"東京都東久留米市本町1丁目4","lat":35.75914751,"lon":139.53259409},{"name":"東久留米駅前駐輪場","province":"東京都","city":"東久留米市","address":"東京都東久留米市東本町1-15","lat":35.76086678,"lon":139.53414668},{"name":"東久留米駅前第２駐輪場","province":"東京都","city":"東久留米市","address":"東京都東久留米市東本町1-15","lat":35.76086678,"lon":139.53414668},{"name":"東久留米駅前第３駐輪場","province":"東京都","city":"東久留米市","address":"東京都東久留米市本町1丁目3-28","lat":35.75994184,"lon":139.53205522},{"name":"東久留米駅西口第１自転車駐車場","province":"東京都","city":"東久留米市","address":"東京都東久留米市新川町1丁目3","lat":35.76013078,"lon":139.53539661},{"name":"東久留米駅西口第２自転車駐車場","province":"東京都","city":"東久留米市","address":"東京都東久留米市新川町1丁目3","lat":35.76013078,"lon":139.53539661},{"name":"東久留米駅西口第３自転車駐車場","province":"東京都","city":"東久留米市","address":"東京都東久留米市本町1丁目14","lat":35.75794212,"lon":139.53427455},{"name":"東久留米駅東口自転車駐車場","province":"東京都","city":"東久留米市","address":"東京都東久留米市新川町1丁目3","lat":35.76013078,"lon":139.53539661},{"name":"東久留米駅北口自転車駐車場","province":"東京都","city":"東久留米市","address":"東京都東久留米市東本町1-6","lat":35.76136949,"lon":139.53344116},{"name":"サイクルスペース２４東久留米駐輪場","province":"東京都","city":"東久留米市","address":"東京都東久留米市新川町1丁目9","lat":35.76161952,"lon":139.53686034},{"name":"市立西第１０原付自転車駐車場","province":"東京都","city":"東久留米市","address":"東京都東久留米市本町1丁目4","lat":35.75914751,"lon":139.53259409},{"name":"リバーウエストビルズ駐輪場","province":"東京都","city":"東久留米市","address":"東京都東久留米市本町1丁目5","lat":35.75972803,"lon":139.53402173},{"name":"東久留米駅前第４駐輪場","province":"東京都","city":"東久留米市","address":"東京都東久留米市東本町5","lat":35.76224161,"lon":139.53360501},{"name":"市立臨時西第２自転車駐車場","province":"東京都","city":"東久留米市","address":"東京都東久留米市本町1丁目8-1","lat":35.7578366,"lon":139.53545501},{"name":"東久留米駅西口第１自転車駐車場","province":"東京都","city":"東久留米市","address":"東京都東久留米市本町1丁目3","lat":35.76054178,"lon":139.53217741},{"name":"東久留米駅西口第２自転車駐車場","province":"東京都","city":"東久留米市","address":"東京都東久留米市本町1丁目5","lat":35.75972803,"lon":139.53402173},{"name":"柳泉園クリーンポート","province":"東京都","city":"東久留米市","address":"東京都東久留米市下里4丁目3","lat":35.754902,"lon":139.494705},{"name":"東部地域センター","province":"東京都","city":"東久留米市","address":"東京都東久留米市大門町2丁目10-5","lat":35.76484698,"lon":139.54070162},{"name":"東久留米市スポーツセンター","province":"東京都","city":"東久留米市","address":"東京都東久留米市大門町2丁目14-37","lat":35.76225846,"lon":139.54430143},{"name":"西武地域センター","province":"東京都","city":"東久留米市","address":"東京都東久留米市滝山4丁目1-10","lat":35.7448624,"lon":139.50443041},{"name":"わくわく健康プラザ","province":"東京都","city":"東久留米市","address":"東京都東久留米市滝山4丁目3-14","lat":35.74228769,"lon":139.5044833},{"name":"サービスステーション\"","province":"東京都","city":"東久留米市","address":"東京都東久留米市滝山6丁目1-1","lat":35.74739829,"lon":139.50739394},{"name":"中央図書館","province":"東京都","city":"東久留米市","address":"東京都東久留米市中央町2丁目6-23","lat":35.75549771,"lon":139.5222451},{"name":"南部地域センター","province":"東京都","city":"東久留米市","address":"東京都東久留米市ひばりが丘団地185","lat":35.74651843,"lon":139.53424441},{"name":"東久留米市役所庁舎","province":"東京都","city":"東久留米市","address":"東京都東久留米市本町3丁目1-1","lat":35.75866697,"lon":139.53103313},{"name":"六仙公園","province":"東京都","city":"東久留米市","address":"東久留米市中央町三丁目","lat":35.750302,"lon":139.522698},{"name":"柳泉園クリーンポート","province":"東京都","city":"東久留米市","address":"東京都東久留米市下里4丁目3","lat":35.754902,"lon":139.494705},{"name":"東部地域センター","province":"東京都","city":"東久留米市","address":"東京都東久留米市大門町2丁目10-5","lat":35.76484698,"lon":139.54070162},{"name":"東久留米市スポーツセンター","province":"東京都","city":"東久留米市","address":"東京都東久留米市大門町2丁目14-37","lat":35.76225846,"lon":139.54430143},{"name":"西武地域センター","province":"東京都","city":"東久留米市","address":"東京都東久留米市滝山4丁目1-10","lat":35.7448624,"lon":139.50443041},{"name":"わくわく健康プラザ","province":"東京都","city":"東久留米市","address":"東京都東久留米市滝山4丁目3-14","lat":35.74228769,"lon":139.5044833},{"name":"サービスステーション\"","province":"東京都","city":"東久留米市","address":"東京都東久留米市滝山6丁目1-1","lat":35.74739829,"lon":139.50739394},{"name":"中央図書館","province":"東京都","city":"東久留米市","address":"東京都東久留米市中央町2丁目6-23","lat":35.75549771,"lon":139.5222451},{"name":"南部地域センター","province":"東京都","city":"東久留米市","address":"東京都東久留米市ひばりが丘団地185","lat":35.74651843,"lon":139.53424441},{"name":"東久留米市役所庁舎","province":"東京都","city":"東久留米市","address":"東京都東久留米市本町3丁目1-1","lat":35.75866697,"lon":139.53103313},{"name":"柳泉園クリーンポート","province":"東京都","city":"東久留米市","address":"東京都東久留米市下里4丁目3","lat":35.754902,"lon":139.494705},{"name":"東部地域センター","province":"東京都","city":"東久留米市","address":"東京都東久留米市大門町2丁目10-5","lat":35.76484698,"lon":139.54070162},{"name":"東久留米市スポーツセンター","province":"東京都","city":"東久留米市","address":"東京都東久留米市大門町2丁目14-37","lat":35.76225846,"lon":139.54430143},{"name":"西武地域センター","province":"東京都","city":"東久留米市","address":"東京都東久留米市滝山4丁目1-10","lat":35.7448624,"lon":139.50443041},{"name":"わくわく健康プラザ","province":"東京都","city":"東久留米市","address":"東京都東久留米市滝山4丁目3-14","lat":35.74228769,"lon":139.5044833},{"name":"サービスステーション\"","province":"東京都","city":"東久留米市","address":"東京都東久留米市滝山6丁目1-1","lat":35.74739829,"lon":139.50739394},{"name":"中央図書館","province":"東京都","city":"東久留米市","address":"東京都東久留米市中央町2丁目6-23","lat":35.75549771,"lon":139.5222451},{"name":"南部地域センター","province":"東京都","city":"東久留米市","address":"東京都東久留米市ひばりが丘団地185","lat":35.74651843,"lon":139.53424441},{"name":"東久留米市役所庁舎","province":"東京都","city":"東久留米市","address":"東京都東久留米市本町3丁目1-1","lat":35.75866697,"lon":139.53103313},{"name":"柳泉園クリーンポート","province":"東京都","city":"東久留米市","address":"東京都東久留米市下里4丁目3","lat":35.754902,"lon":139.494705},{"name":"東部地域センター","province":"東京都","city":"東久留米市","address":"東京都東久留米市大門町2丁目10-5","lat":35.76484698,"lon":139.54070162},{"name":"東久留米市スポーツセンター","province":"東京都","city":"東久留米市","address":"東京都東久留米市大門町2丁目14-37","lat":35.76225846,"lon":139.54430143},{"name":"西武地域センター","province":"東京都","city":"東久留米市","address":"東京都東久留米市滝山4丁目1-10","lat":35.7448624,"lon":139.50443041},{"name":"わくわく健康プラザ","province":"東京都","city":"東久留米市","address":"東京都東久留米市滝山4丁目3-14","lat":35.74228769,"lon":139.5044833},{"name":"サービスステーション\"","province":"東京都","city":"東久留米市","address":"東京都東久留米市滝山6丁目1-1","lat":35.74739829,"lon":139.50739394},{"name":"中央図書館","province":"東京都","city":"東久留米市","address":"東京都東久留米市中央町2丁目6-23","lat":35.75549771,"lon":139.5222451},{"name":"南部地域センター","province":"東京都","city":"東久留米市","address":"東京都東久留米市ひばりが丘団地185","lat":35.74651843,"lon":139.53424441},{"name":"東久留米市役所庁舎","province":"東京都","city":"東久留米市","address":"東京都東久留米市本町3丁目1-1","lat":35.75866697,"lon":139.53103313},{"name":"柳泉園クリーンポート","province":"東京都","city":"東久留米市","address":"東京都東久留米市下里4丁目3","lat":35.754902,"lon":139.494705},{"name":"東部地域センター","province":"東京都","city":"東久留米市","address":"東京都東久留米市大門町2丁目10-5","lat":35.76484698,"lon":139.54070162},{"name":"東久留米市スポーツセンター","province":"東京都","city":"東久留米市","address":"東京都東久留米市大門町2丁目14-37","lat":35.76225846,"lon":139.54430143},{"name":"西武地域センター","province":"東京都","city":"東久留米市","address":"東京都東久留米市滝山4丁目1-10","lat":35.7448624,"lon":139.50443041},{"name":"わくわく健康プラザ","province":"東京都","city":"東久留米市","address":"東京都東久留米市滝山4丁目3-14","lat":35.74228769,"lon":139.5044833},{"name":"サービスステーション\"","province":"東京都","city":"東久留米市","address":"東京都東久留米市滝山6丁目1-1","lat":35.74739829,"lon":139.50739394},{"name":"中央図書館","province":"東京都","city":"東久留米市","address":"東京都東久留米市中央町2丁目6-23","lat":35.75549771,"lon":139.5222451},{"name":"南部地域センター","province":"東京都","city":"東久留米市","address":"東京都東久留米市ひばりが丘団地185","lat":35.74651843,"lon":139.53424441},{"name":"東久留米市役所庁舎","province":"東京都","city":"東久留米市","address":"東京都東久留米市本町3丁目1-1","lat":35.75866697,"lon":139.53103313},{"name":"柳泉園クリーンポート","province":"東京都","city":"東久留米市","address":"東京都東久留米市下里4丁目3","lat":35.754902,"lon":139.494705},{"name":"東部地域センター","province":"東京都","city":"東久留米市","address":"東京都東久留米市大門町2丁目10-5","lat":35.76484698,"lon":139.54070162},{"name":"東久留米市スポーツセンター","province":"東京都","city":"東久留米市","address":"東京都東久留米市大門町2丁目14-37","lat":35.76225846,"lon":139.54430143},{"name":"西武地域センター","province":"東京都","city":"東久留米市","address":"東京都東久留米市滝山4丁目1-10","lat":35.7448624,"lon":139.50443041},{"name":"わくわく健康プラザ","province":"東京都","city":"東久留米市","address":"東京都東久留米市滝山4丁目3-14","lat":35.74228769,"lon":139.5044833},{"name":"サービスステーション\"","province":"東京都","city":"東久留米市","address":"東京都東久留米市滝山6丁目1-1","lat":35.74739829,"lon":139.50739394},{"name":"中央図書館","province":"東京都","city":"東久留米市","address":"東京都東久留米市中央町2丁目6-23","lat":35.75549771,"lon":139.5222451},{"name":"南部地域センター","province":"東京都","city":"東久留米市","address":"東京都東久留米市ひばりが丘団地185","lat":35.74651843,"lon":139.53424441},{"name":"東久留米市役所庁舎","province":"東京都","city":"東久留米市","address":"東京都東久留米市本町3丁目1-1","lat":35.75866697,"lon":139.53103313},{"name":"柳泉園クリーンポート","province":"東京都","city":"東久留米市","address":"東京都東久留米市下里4丁目3","lat":35.754902,"lon":139.494705},{"name":"東部地域センター","province":"東京都","city":"東久留米市","address":"東京都東久留米市大門町2丁目10-5","lat":35.76484698,"lon":139.54070162},{"name":"東久留米市スポーツセンター","province":"東京都","city":"東久留米市","address":"東京都東久留米市大門町2丁目14-37","lat":35.76225846,"lon":139.54430143},{"name":"西武地域センター","province":"東京都","city":"東久留米市","address":"東京都東久留米市滝山4丁目1-10","lat":35.7448624,"lon":139.50443041},{"name":"わくわく健康プラザ","province":"東京都","city":"東久留米市","address":"東京都東久留米市滝山4丁目3-14","lat":35.74228769,"lon":139.5044833},{"name":"サービスステーション\"","province":"東京都","city":"東久留米市","address":"東京都東久留米市滝山6丁目1-1","lat":35.74739829,"lon":139.50739394},{"name":"中央図書館","province":"東京都","city":"東久留米市","address":"東京都東久留米市中央町2丁目6-23","lat":35.75549771,"lon":139.5222451},{"name":"南部地域センター","province":"東京都","city":"東久留米市","address":"東京都東久留米市ひばりが丘団地185","lat":35.74651843,"lon":139.53424441},{"name":"東久留米市役所庁舎","province":"東京都","city":"東久留米市","address":"東京都東久留米市本町3丁目1-1","lat":35.75866697,"lon":139.53103313},{"name":"柳泉園クリーンポート","province":"東京都","city":"東久留米市","address":"東京都東久留米市下里4丁目3","lat":35.754902,"lon":139.494705},{"name":"東部地域センター","province":"東京都","city":"東久留米市","address":"東京都東久留米市大門町2丁目10-5","lat":35.76484698,"lon":139.54070162},{"name":"東久留米市スポーツセンター","province":"東京都","city":"東久留米市","address":"東京都東久留米市大門町2丁目14-37","lat":35.76225846,"lon":139.54430143},{"name":"西武地域センター","province":"東京都","city":"東久留米市","address":"東京都東久留米市滝山4丁目1-10","lat":35.7448624,"lon":139.50443041},{"name":"わくわく健康プラザ","province":"東京都","city":"東久留米市","address":"東京都東久留米市滝山4丁目3-14","lat":35.74228769,"lon":139.5044833},{"name":"サービスステーション\"","province":"東京都","city":"東久留米市","address":"東京都東久留米市滝山6丁目1-1","lat":35.74739829,"lon":139.50739394},{"name":"中央図書館","province":"東京都","city":"東久留米市","address":"東京都東久留米市中央町2丁目6-23","lat":35.75549771,"lon":139.5222451},{"name":"南部地域センター","province":"東京都","city":"東久留米市","address":"東京都東久留米市ひばりが丘団地185","lat":35.74651843,"lon":139.53424441},{"name":"東久留米市役所庁舎","province":"東京都","city":"東久留米市","address":"東京都東久留米市本町3丁目1-1","lat":35.75866697,"lon":139.53103313},{"name":"柳泉園クリーンポート","province":"東京都","city":"東久留米市","address":"東京都東久留米市下里4丁目3","lat":35.754902,"lon":139.494705},{"name":"東部地域センター","province":"東京都","city":"東久留米市","address":"東京都東久留米市大門町2丁目10-5","lat":35.76484698,"lon":139.54070162},{"name":"東久留米市スポーツセンター","province":"東京都","city":"東久留米市","address":"東京都東久留米市大門町2丁目14-37","lat":35.76225846,"lon":139.54430143},{"name":"西武地域センター","province":"東京都","city":"東久留米市","address":"東京都東久留米市滝山4丁目1-10","lat":35.7448624,"lon":139.50443041},{"name":"わくわく健康プラザ","province":"東京都","city":"東久留米市","address":"東京都東久留米市滝山4丁目3-14","lat":35.74228769,"lon":139.5044833},{"name":"サービスステーション\"","province":"東京都","city":"東久留米市","address":"東京都東久留米市滝山6丁目1-1","lat":35.74739829,"lon":139.50739394},{"name":"中央図書館","province":"東京都","city":"東久留米市","address":"東京都東久留米市中央町2丁目6-23","lat":35.75549771,"lon":139.5222451},{"name":"南部地域センター","province":"東京都","city":"東久留米市","address":"東京都東久留米市ひばりが丘団地185","lat":35.74651843,"lon":139.53424441},{"name":"東久留米市役所庁舎","province":"東京都","city":"東久留米市","address":"東京都東久留米市本町3丁目1-1","lat":35.75866697,"lon":139.53103313},{"name":"柳泉園クリーンポート","province":"東京都","city":"東久留米市","address":"東京都東久留米市下里4丁目3","lat":35.754902,"lon":139.494705},{"name":"東部地域センター","province":"東京都","city":"東久留米市","address":"東京都東久留米市大門町2丁目10-5","lat":35.76484698,"lon":139.54070162},{"name":"東久留米市スポーツセンター","province":"東京都","city":"東久留米市","address":"東京都東久留米市大門町2丁目14-37","lat":35.76225846,"lon":139.54430143},{"name":"西武地域センター","province":"東京都","city":"東久留米市","address":"東京都東久留米市滝山4丁目1-10","lat":35.7448624,"lon":139.50443041},{"name":"わくわく健康プラザ","province":"東京都","city":"東久留米市","address":"東京都東久留米市滝山4丁目3-14","lat":35.74228769,"lon":139.5044833},{"name":"サービスステーション\"","province":"東京都","city":"東久留米市","address":"東京都東久留米市滝山6丁目1-1","lat":35.74739829,"lon":139.50739394},{"name":"中央図書館","province":"東京都","city":"東久留米市","address":"東京都東久留米市中央町2丁目6-23","lat":35.75549771,"lon":139.5222451},{"name":"南部地域センター","province":"東京都","city":"東久留米市","address":"東京都東久留米市ひばりが丘団地185","lat":35.74651843,"lon":139.53424441},{"name":"東久留米市役所庁舎","province":"東京都","city":"東久留米市","address":"東京都東久留米市本町3丁目1-1","lat":35.75866697,"lon":139.53103313},{"name":"柳泉園クリーンポート","province":"東京都","city":"東久留米市","address":"東京都東久留米市下里4丁目3","lat":35.754902,"lon":139.494705},{"name":"東部地域センター","province":"東京都","city":"東久留米市","address":"東京都東久留米市大門町2丁目10-5","lat":35.76484698,"lon":139.54070162},{"name":"東久留米市スポーツセンター","province":"東京都","city":"東久留米市","address":"東京都東久留米市大門町2丁目14-37","lat":35.76225846,"lon":139.54430143},{"name":"西武地域センター","province":"東京都","city":"東久留米市","address":"東京都東久留米市滝山4丁目1-10","lat":35.7448624,"lon":139.50443041},{"name":"わくわく健康プラザ","province":"東京都","city":"東久留米市","address":"東京都東久留米市滝山4丁目3-14","lat":35.74228769,"lon":139.5044833},{"name":"サービスステーション\"","province":"東京都","city":"東久留米市","address":"東京都東久留米市滝山6丁目1-1","lat":35.74739829,"lon":139.50739394},{"name":"中央図書館","province":"東京都","city":"東久留米市","address":"東京都東久留米市中央町2丁目6-23","lat":35.75549771,"lon":139.5222451},{"name":"南部地域センター","province":"東京都","city":"東久留米市","address":"東京都東久留米市ひばりが丘団地185","lat":35.74651843,"lon":139.53424441},{"name":"東久留米市役所庁舎","province":"東京都","city":"東久留米市","address":"東京都東久留米市本町3丁目1-1","lat":35.75866697,"lon":139.53103313},{"name":"柳泉園クリーンポート","province":"東京都","city":"東久留米市","address":"東京都東久留米市下里4丁目3","lat":35.754902,"lon":139.494705},{"name":"東部地域センター","province":"東京都","city":"東久留米市","address":"東京都東久留米市大門町2丁目10-5","lat":35.76484698,"lon":139.54070162},{"name":"東久留米市スポーツセンター","province":"東京都","city":"東久留米市","address":"東京都東久留米市大門町2丁目14-37","lat":35.76225846,"lon":139.54430143},{"name":"西武地域センター","province":"東京都","city":"東久留米市","address":"東京都東久留米市滝山4丁目1-10","lat":35.7448624,"lon":139.50443041},{"name":"わくわく健康プラザ","province":"東京都","city":"東久留米市","address":"東京都東久留米市滝山4丁目3-14","lat":35.74228769,"lon":139.5044833},{"name":"サービスステーション\"","province":"東京都","city":"東久留米市","address":"東京都東久留米市滝山6丁目1-1","lat":35.74739829,"lon":139.50739394},{"name":"中央図書館","province":"東京都","city":"東久留米市","address":"東京都東久留米市中央町2丁目6-23","lat":35.75549771,"lon":139.5222451},{"name":"南部地域センター","province":"東京都","city":"東久留米市","address":"東京都東久留米市ひばりが丘団地185","lat":35.74651843,"lon":139.53424441},{"name":"東久留米市役所庁舎","province":"東京都","city":"東久留米市","address":"東京都東久留米市本町3丁目1-1","lat":35.75866697,"lon":139.53103313},{"name":"柳泉園クリーンポート","province":"東京都","city":"東久留米市","address":"東京都東久留米市下里4丁目3","lat":35.754902,"lon":139.494705},{"name":"東部地域センター","province":"東京都","city":"東久留米市","address":"東京都東久留米市大門町2丁目10-5","lat":35.76484698,"lon":139.54070162},{"name":"東久留米市スポーツセンター","province":"東京都","city":"東久留米市","address":"東京都東久留米市大門町2丁目14-37","lat":35.76225846,"lon":139.54430143},{"name":"西武地域センター","province":"東京都","city":"東久留米市","address":"東京都東久留米市滝山4丁目1-10","lat":35.7448624,"lon":139.50443041},{"name":"わくわく健康プラザ","province":"東京都","city":"東久留米市","address":"東京都東久留米市滝山4丁目3-14","lat":35.74228769,"lon":139.5044833},{"name":"サービスステーション\"","province":"東京都","city":"東久留米市","address":"東京都東久留米市滝山6丁目1-1","lat":35.74739829,"lon":139.50739394},{"name":"中央図書館","province":"東京都","city":"東久留米市","address":"東京都東久留米市中央町2丁目6-23","lat":35.75549771,"lon":139.5222451},{"name":"南部地域センター","province":"東京都","city":"東久留米市","address":"東京都東久留米市ひばりが丘団地185","lat":35.74651843,"lon":139.53424441},{"name":"東久留米市役所庁舎","province":"東京都","city":"東久留米市","address":"東京都東久留米市本町3丁目1-1","lat":35.75866697,"lon":139.53103313},{"name":"柳泉園クリーンポート","province":"東京都","city":"東久留米市","address":"東京都東久留米市下里4丁目3","lat":35.754902,"lon":139.494705},{"name":"東部地域センター","province":"東京都","city":"東久留米市","address":"東京都東久留米市大門町2丁目10-5","lat":35.76484698,"lon":139.54070162},{"name":"東久留米市スポーツセンター","province":"東京都","city":"東久留米市","address":"東京都東久留米市大門町2丁目14-37","lat":35.76225846,"lon":139.54430143},{"name":"西武地域センター","province":"東京都","city":"東久留米市","address":"東京都東久留米市滝山4丁目1-10","lat":35.7448624,"lon":139.50443041},{"name":"わくわく健康プラザ","province":"東京都","city":"東久留米市","address":"東京都東久留米市滝山4丁目3-14","lat":35.74228769,"lon":139.5044833},{"name":"サービスステーション\"","province":"東京都","city":"東久留米市","address":"東京都東久留米市滝山6丁目1-1","lat":35.74739829,"lon":139.50739394},{"name":"中央図書館","province":"東京都","city":"東久留米市","address":"東京都東久留米市中央町2丁目6-23","lat":35.75549771,"lon":139.5222451},{"name":"南部地域センター","province":"東京都","city":"東久留米市","address":"東京都東久留米市ひばりが丘団地185","lat":35.74651843,"lon":139.53424441},{"name":"東久留米市役所庁舎","province":"東京都","city":"東久留米市","address":"東京都東久留米市本町3丁目1-1","lat":35.75866697,"lon":139.53103313},{"name":"柳泉園クリーンポート","province":"東京都","city":"東久留米市","address":"東京都東久留米市下里4丁目3","lat":35.754902,"lon":139.494705},{"name":"東部地域センター","province":"東京都","city":"東久留米市","address":"東京都東久留米市大門町2丁目10-5","lat":35.76484698,"lon":139.54070162},{"name":"東久留米市スポーツセンター","province":"東京都","city":"東久留米市","address":"東京都東久留米市大門町2丁目14-37","lat":35.76225846,"lon":139.54430143},{"name":"西武地域センター","province":"東京都","city":"東久留米市","address":"東京都東久留米市滝山4丁目1-10","lat":35.7448624,"lon":139.50443041},{"name":"わくわく健康プラザ","province":"東京都","city":"東久留米市","address":"東京都東久留米市滝山4丁目3-14","lat":35.74228769,"lon":139.5044833},{"name":"サービスステーション\"","province":"東京都","city":"東久留米市","address":"東京都東久留米市滝山6丁目1-1","lat":35.74739829,"lon":139.50739394},{"name":"中央図書館","province":"東京都","city":"東久留米市","address":"東京都東久留米市中央町2丁目6-23","lat":35.75549771,"lon":139.5222451},{"name":"南部地域センター","province":"東京都","city":"東久留米市","address":"東京都東久留米市ひばりが丘団地185","lat":35.74651843,"lon":139.53424441},{"name":"東久留米市役所庁舎","province":"東京都","city":"東久留米市","address":"東京都東久留米市本町3丁目1-1","lat":35.75866697,"lon":139.53103313},{"name":"柳泉園クリーンポート","province":"東京都","city":"東久留米市","address":"東京都東久留米市下里4丁目3","lat":35.754902,"lon":139.494705},{"name":"東部地域センター","province":"東京都","city":"東久留米市","address":"東京都東久留米市大門町2丁目10-5","lat":35.76484698,"lon":139.54070162},{"name":"東久留米市スポーツセンター","province":"東京都","city":"東久留米市","address":"東京都東久留米市大門町2丁目14-37","lat":35.76225846,"lon":139.54430143},{"name":"西武地域センター","province":"東京都","city":"東久留米市","address":"東京都東久留米市滝山4丁目1-10","lat":35.7448624,"lon":139.50443041},{"name":"わくわく健康プラザ","province":"東京都","city":"東久留米市","address":"東京都東久留米市滝山4丁目3-14","lat":35.74228769,"lon":139.5044833},{"name":"サービスステーション\"","province":"東京都","city":"東久留米市","address":"東京都東久留米市滝山6丁目1-1","lat":35.74739829,"lon":139.50739394},{"name":"中央図書館","province":"東京都","city":"東久留米市","address":"東京都東久留米市中央町2丁目6-23","lat":35.75549771,"lon":139.5222451},{"name":"南部地域センター","province":"東京都","city":"東久留米市","address":"東京都東久留米市ひばりが丘団地185","lat":35.74651843,"lon":139.53424441},{"name":"東久留米市役所庁舎","province":"東京都","city":"東久留米市","address":"東京都東久留米市本町3丁目1-1","lat":35.75866697,"lon":139.53103313},{"name":"柳泉園クリーンポート","province":"東京都","city":"東久留米市","address":"東京都東久留米市下里4丁目3","lat":35.754902,"lon":139.494705},{"name":"東部地域センター","province":"東京都","city":"東久留米市","address":"東京都東久留米市大門町2丁目10-5","lat":35.76484698,"lon":139.54070162},{"name":"東久留米市スポーツセンター","province":"東京都","city":"東久留米市","address":"東京都東久留米市大門町2丁目14-37","lat":35.76225846,"lon":139.54430143},{"name":"西武地域センター","province":"東京都","city":"東久留米市","address":"東京都東久留米市滝山4丁目1-10","lat":35.7448624,"lon":139.50443041},{"name":"わくわく健康プラザ","province":"東京都","city":"東久留米市","address":"東京都東久留米市滝山4丁目3-14","lat":35.74228769,"lon":139.5044833},{"name":"サービスステーション\"","province":"東京都","city":"東久留米市","address":"東京都東久留米市滝山6丁目1-1","lat":35.74739829,"lon":139.50739394},{"name":"中央図書館","province":"東京都","city":"東久留米市","address":"東京都東久留米市中央町2丁目6-23","lat":35.75549771,"lon":139.5222451},{"name":"南部地域センター","province":"東京都","city":"東久留米市","address":"東京都東久留米市ひばりが丘団地185","lat":35.74651843,"lon":139.53424441},{"name":"東久留米市役所庁舎","province":"東京都","city":"東久留米市","address":"東京都東久留米市本町3丁目1-1","lat":35.75866697,"lon":139.53103313},{"name":"柳泉園クリーンポート","province":"東京都","city":"東久留米市","address":"東京都東久留米市下里4丁目3","lat":35.754902,"lon":139.494705},{"name":"東部地域センター","province":"東京都","city":"東久留米市","address":"東京都東久留米市大門町2丁目10-5","lat":35.76484698,"lon":139.54070162},{"name":"東久留米市スポーツセンター","province":"東京都","city":"東久留米市","address":"東京都東久留米市大門町2丁目14-37","lat":35.76225846,"lon":139.54430143},{"name":"西武地域センター","province":"東京都","city":"東久留米市","address":"東京都東久留米市滝山4丁目1-10","lat":35.7448624,"lon":139.50443041},{"name":"わくわく健康プラザ","province":"東京都","city":"東久留米市","address":"東京都東久留米市滝山4丁目3-14","lat":35.74228769,"lon":139.5044833},{"name":"サービスステーション\"","province":"東京都","city":"東久留米市","address":"東京都東久留米市滝山6丁目1-1","lat":35.74739829,"lon":139.50739394},{"name":"中央図書館","province":"東京都","city":"東久留米市","address":"東京都東久留米市中央町2丁目6-23","lat":35.75549771,"lon":139.5222451},{"name":"南部地域センター","province":"東京都","city":"東久留米市","address":"東京都東久留米市ひばりが丘団地185","lat":35.74651843,"lon":139.53424441},{"name":"東久留米市役所庁舎","province":"東京都","city":"東久留米市","address":"東京都東久留米市本町3丁目1-1","lat":35.75866697,"lon":139.53103313},{"name":"柳泉園クリーンポート","province":"東京都","city":"東久留米市","address":"東京都東久留米市下里4丁目3","lat":35.754902,"lon":139.494705},{"name":"東部地域センター","province":"東京都","city":"東久留米市","address":"東京都東久留米市大門町2丁目10-5","lat":35.76484698,"lon":139.54070162},{"name":"東久留米市スポーツセンター","province":"東京都","city":"東久留米市","address":"東京都東久留米市大門町2丁目14-37","lat":35.76225846,"lon":139.54430143},{"name":"西武地域センター","province":"東京都","city":"東久留米市","address":"東京都東久留米市滝山4丁目1-10","lat":35.7448624,"lon":139.50443041},{"name":"わくわく健康プラザ","province":"東京都","city":"東久留米市","address":"東京都東久留米市滝山4丁目3-14","lat":35.74228769,"lon":139.5044833},{"name":"サービスステーション\"","province":"東京都","city":"東久留米市","address":"東京都東久留米市滝山6丁目1-1","lat":35.74739829,"lon":139.50739394},{"name":"中央図書館","province":"東京都","city":"東久留米市","address":"東京都東久留米市中央町2丁目6-23","lat":35.75549771,"lon":139.5222451},{"name":"南部地域センター","province":"東京都","city":"東久留米市","address":"東京都東久留米市ひばりが丘団地185","lat":35.74651843,"lon":139.53424441},{"name":"東久留米市役所庁舎","province":"東京都","city":"東久留米市","address":"東京都東久留米市本町3丁目1-1","lat":35.75866697,"lon":139.53103313},{"name":"柳泉園クリーンポート","province":"東京都","city":"東久留米市","address":"東京都東久留米市下里4丁目3","lat":35.754902,"lon":139.494705},{"name":"東部地域センター","province":"東京都","city":"東久留米市","address":"東京都東久留米市大門町2丁目10-5","lat":35.76484698,"lon":139.54070162},{"name":"東久留米市スポーツセンター","province":"東京都","city":"東久留米市","address":"東京都東久留米市大門町2丁目14-37","lat":35.76225846,"lon":139.54430143},{"name":"西武地域センター","province":"東京都","city":"東久留米市","address":"東京都東久留米市滝山4丁目1-10","lat":35.7448624,"lon":139.50443041},{"name":"わくわく健康プラザ","province":"東京都","city":"東久留米市","address":"東京都東久留米市滝山4丁目3-14","lat":35.74228769,"lon":139.5044833},{"name":"サービスステーション\"","province":"東京都","city":"東久留米市","address":"東京都東久留米市滝山6丁目1-1","lat":35.74739829,"lon":139.50739394},{"name":"中央図書館","province":"東京都","city":"東久留米市","address":"東京都東久留米市中央町2丁目6-23","lat":35.75549771,"lon":139.5222451},{"name":"南部地域センター","province":"東京都","city":"東久留米市","address":"東京都東久留米市ひばりが丘団地185","lat":35.74651843,"lon":139.53424441},{"name":"東久留米市役所庁舎","province":"東京都","city":"東久留米市","address":"東京都東久留米市本町3丁目1-1","lat":35.75866697,"lon":139.53103313},{"name":"柳泉園クリーンポート","province":"東京都","city":"東久留米市","address":"東京都東久留米市下里4丁目3","lat":35.754902,"lon":139.494705},{"name":"東部地域センター","province":"東京都","city":"東久留米市","address":"東京都東久留米市大門町2丁目10-5","lat":35.76484698,"lon":139.54070162},{"name":"東久留米市スポーツセンター","province":"東京都","city":"東久留米市","address":"東京都東久留米市大門町2丁目14-37","lat":35.76225846,"lon":139.54430143},{"name":"西武地域センター","province":"東京都","city":"東久留米市","address":"東京都東久留米市滝山4丁目1-10","lat":35.7448624,"lon":139.50443041},{"name":"わくわく健康プラザ","province":"東京都","city":"東久留米市","address":"東京都東久留米市滝山4丁目3-14","lat":35.74228769,"lon":139.5044833},{"name":"サービスステーション\"","province":"東京都","city":"東久留米市","address":"東京都東久留米市滝山6丁目1-1","lat":35.74739829,"lon":139.50739394},{"name":"中央図書館","province":"東京都","city":"東久留米市","address":"東京都東久留米市中央町2丁目6-23","lat":35.75549771,"lon":139.5222451},{"name":"南部地域センター","province":"東京都","city":"東久留米市","address":"東京都東久留米市ひばりが丘団地185","lat":35.74651843,"lon":139.53424441},{"name":"東久留米市役所庁舎","province":"東京都","city":"東久留米市","address":"東京都東久留米市本町3丁目1-1","lat":35.75866697,"lon":139.53103313},{"name":"柳泉園クリーンポート","province":"東京都","city":"東久留米市","address":"東京都東久留米市下里4丁目3","lat":35.754902,"lon":139.494705},{"name":"東部地域センター","province":"東京都","city":"東久留米市","address":"東京都東久留米市大門町2丁目10-5","lat":35.76484698,"lon":139.54070162},{"name":"東久留米市スポーツセンター","province":"東京都","city":"東久留米市","address":"東京都東久留米市大門町2丁目14-37","lat":35.76225846,"lon":139.54430143},{"name":"西武地域センター","province":"東京都","city":"東久留米市","address":"東京都東久留米市滝山4丁目1-10","lat":35.7448624,"lon":139.50443041},{"name":"わくわく健康プラザ","province":"東京都","city":"東久留米市","address":"東京都東久留米市滝山4丁目3-14","lat":35.74228769,"lon":139.5044833},{"name":"サービスステーション\"","province":"東京都","city":"東久留米市","address":"東京都東久留米市滝山6丁目1-1","lat":35.74739829,"lon":139.50739394},{"name":"中央図書館","province":"東京都","city":"東久留米市","address":"東京都東久留米市中央町2丁目6-23","lat":35.75549771,"lon":139.5222451},{"name":"南部地域センター","province":"東京都","city":"東久留米市","address":"東京都東久留米市ひばりが丘団地185","lat":35.74651843,"lon":139.53424441},{"name":"東久留米市役所庁舎","province":"東京都","city":"東久留米市","address":"東京都東久留米市本町3丁目1-1","lat":35.75866697,"lon":139.53103313},{"name":"柳泉園クリーンポート","province":"東京都","city":"東久留米市","address":"東京都東久留米市下里4丁目3","lat":35.754902,"lon":139.494705},{"name":"東部地域センター","province":"東京都","city":"東久留米市","address":"東京都東久留米市大門町2丁目10-5","lat":35.76484698,"lon":139.54070162},{"name":"東久留米市スポーツセンター","province":"東京都","city":"東久留米市","address":"東京都東久留米市大門町2丁目14-37","lat":35.76225846,"lon":139.54430143},{"name":"西武地域センター","province":"東京都","city":"東久留米市","address":"東京都東久留米市滝山4丁目1-10","lat":35.7448624,"lon":139.50443041},{"name":"わくわく健康プラザ","province":"東京都","city":"東久留米市","address":"東京都東久留米市滝山4丁目3-14","lat":35.74228769,"lon":139.5044833},{"name":"サービスステーション\"","province":"東京都","city":"東久留米市","address":"東京都東久留米市滝山6丁目1-1","lat":35.74739829,"lon":139.50739394},{"name":"中央図書館","province":"東京都","city":"東久留米市","address":"東京都東久留米市中央町2丁目6-23","lat":35.75549771,"lon":139.5222451},{"name":"南部地域センター","province":"東京都","city":"東久留米市","address":"東京都東久留米市ひばりが丘団地185","lat":35.74651843,"lon":139.53424441},{"name":"東久留米市役所庁舎","province":"東京都","city":"東久留米市","address":"東京都東久留米市本町3丁目1-1","lat":35.75866697,"lon":139.53103313},{"name":"柳泉園クリーンポート","province":"東京都","city":"東久留米市","address":"東京都東久留米市下里4丁目3","lat":35.754902,"lon":139.494705},{"name":"東部地域センター","province":"東京都","city":"東久留米市","address":"東京都東久留米市大門町2丁目10-5","lat":35.76484698,"lon":139.54070162},{"name":"東久留米市スポーツセンター","province":"東京都","city":"東久留米市","address":"東京都東久留米市大門町2丁目14-37","lat":35.76225846,"lon":139.54430143},{"name":"西武地域センター","province":"東京都","city":"東久留米市","address":"東京都東久留米市滝山4丁目1-10","lat":35.7448624,"lon":139.50443041},{"name":"わくわく健康プラザ","province":"東京都","city":"東久留米市","address":"東京都東久留米市滝山4丁目3-14","lat":35.74228769,"lon":139.5044833},{"name":"サービスステーション\"","province":"東京都","city":"東久留米市","address":"東京都東久留米市滝山6丁目1-1","lat":35.74739829,"lon":139.50739394},{"name":"中央図書館","province":"東京都","city":"東久留米市","address":"東京都東久留米市中央町2丁目6-23","lat":35.75549771,"lon":139.5222451},{"name":"南部地域センター","province":"東京都","city":"東久留米市","address":"東京都東久留米市ひばりが丘団地185","lat":35.74651843,"lon":139.53424441},{"name":"東久留米市役所庁舎","province":"東京都","city":"東久留米市","address":"東京都東久留米市本町3丁目1-1","lat":35.75866697,"lon":139.53103313},{"name":"柳泉園クリーンポート","province":"東京都","city":"東久留米市","address":"東京都東久留米市下里4丁目3","lat":35.754902,"lon":139.494705},{"name":"東部地域センター","province":"東京都","city":"東久留米市","address":"東京都東久留米市大門町2丁目10-5","lat":35.76484698,"lon":139.54070162},{"name":"東久留米市スポーツセンター","province":"東京都","city":"東久留米市","address":"東京都東久留米市大門町2丁目14-37","lat":35.76225846,"lon":139.54430143},{"name":"西武地域センター","province":"東京都","city":"東久留米市","address":"東京都東久留米市滝山4丁目1-10","lat":35.7448624,"lon":139.50443041},{"name":"わくわく健康プラザ","province":"東京都","city":"東久留米市","address":"東京都東久留米市滝山4丁目3-14","lat":35.74228769,"lon":139.5044833},{"name":"サービスステーション\"","province":"東京都","city":"東久留米市","address":"東京都東久留米市滝山6丁目1-1","lat":35.74739829,"lon":139.50739394},{"name":"中央図書館","province":"東京都","city":"東久留米市","address":"東京都東久留米市中央町2丁目6-23","lat":35.75549771,"lon":139.5222451},{"name":"南部地域センター","province":"東京都","city":"東久留米市","address":"東京都東久留米市ひばりが丘団地185","lat":35.74651843,"lon":139.53424441},{"name":"東久留米市役所庁舎","province":"東京都","city":"東久留米市","address":"東京都東久留米市本町3丁目1-1","lat":35.75866697,"lon":139.53103313},{"name":"柳泉園クリーンポート","province":"東京都","city":"東久留米市","address":"東京都東久留米市下里4丁目3","lat":35.754902,"lon":139.494705},{"name":"東部地域センター","province":"東京都","city":"東久留米市","address":"東京都東久留米市大門町2丁目10-5","lat":35.76484698,"lon":139.54070162},{"name":"東久留米市スポーツセンター","province":"東京都","city":"東久留米市","address":"東京都東久留米市大門町2丁目14-37","lat":35.76225846,"lon":139.54430143},{"name":"西武地域センター","province":"東京都","city":"東久留米市","address":"東京都東久留米市滝山4丁目1-10","lat":35.7448624,"lon":139.50443041},{"name":"わくわく健康プラザ","province":"東京都","city":"東久留米市","address":"東京都東久留米市滝山4丁目3-14","lat":35.74228769,"lon":139.5044833},{"name":"サービスステーション\"","province":"東京都","city":"東久留米市","address":"東京都東久留米市滝山6丁目1-1","lat":35.74739829,"lon":139.50739394},{"name":"中央図書館","province":"東京都","city":"東久留米市","address":"東京都東久留米市中央町2丁目6-23","lat":35.75549771,"lon":139.5222451},{"name":"南部地域センター","province":"東京都","city":"東久留米市","address":"東京都東久留米市ひばりが丘団地185","lat":35.74651843,"lon":139.53424441},{"name":"東久留米市役所庁舎","province":"東京都","city":"東久留米市","address":"東京都東久留米市本町3丁目1-1","lat":35.75866697,"lon":139.53103313},{"name":"柳泉園クリーンポート","province":"東京都","city":"東久留米市","address":"東京都東久留米市下里4丁目3","lat":35.754902,"lon":139.494705},{"name":"東部地域センター","province":"東京都","city":"東久留米市","address":"東京都東久留米市大門町2丁目10-5","lat":35.76484698,"lon":139.54070162},{"name":"東久留米市スポーツセンター","province":"東京都","city":"東久留米市","address":"東京都東久留米市大門町2丁目14-37","lat":35.76225846,"lon":139.54430143},{"name":"西武地域センター","province":"東京都","city":"東久留米市","address":"東京都東久留米市滝山4丁目1-10","lat":35.7448624,"lon":139.50443041},{"name":"わくわく健康プラザ","province":"東京都","city":"東久留米市","address":"東京都東久留米市滝山4丁目3-14","lat":35.74228769,"lon":139.5044833},{"name":"サービスステーション\"","province":"東京都","city":"東久留米市","address":"東京都東久留米市滝山6丁目1-1","lat":35.74739829,"lon":139.50739394},{"name":"中央図書館","province":"東京都","city":"東久留米市","address":"東京都東久留米市中央町2丁目6-23","lat":35.75549771,"lon":139.5222451},{"name":"南部地域センター","province":"東京都","city":"東久留米市","address":"東京都東久留米市ひばりが丘団地185","lat":35.74651843,"lon":139.53424441},{"name":"東久留米市役所庁舎","province":"東京都","city":"東久留米市","address":"東京都東久留米市本町3丁目1-1","lat":35.75866697,"lon":139.53103313},{"name":"東部地域センター","province":"東京都","city":"東久留米市","address":"東京都東久留米市大門町2丁目10-5","lat":35.76484698,"lon":139.54070162},{"name":"東久留米市スポーツセンター","province":"東京都","city":"東久留米市","address":"東京都東久留米市大門町2丁目14-37","lat":35.76225846,"lon":139.54430143},{"name":"西武地域センター","province":"東京都","city":"東久留米市","address":"東京都東久留米市滝山4丁目1-10","lat":35.7448624,"lon":139.50443041},{"name":"わくわく健康プラザ","province":"東京都","city":"東久留米市","address":"東京都東久留米市滝山4丁目3-14","lat":35.74228769,"lon":139.5044833},{"name":"サービスステーション\"","province":"東京都","city":"東久留米市","address":"東京都東久留米市滝山6丁目1-1","lat":35.74739829,"lon":139.50739394},{"name":"中央図書館","province":"東京都","city":"東久留米市","address":"東京都東久留米市中央町2丁目6-23","lat":35.75549771,"lon":139.5222451},{"name":"南部地域センター","province":"東京都","city":"東久留米市","address":"東京都東久留米市ひばりが丘団地185","lat":35.74651843,"lon":139.53424441},{"name":"東久留米市役所庁舎","province":"東京都","city":"東久留米市","address":"東京都東久留米市本町3丁目1-1","lat":35.75866697,"lon":139.53103313},{"name":"東部地域センター","province":"東京都","city":"東久留米市","address":"東京都東久留米市大門町2丁目10-5","lat":35.76484698,"lon":139.54070162},{"name":"東久留米市スポーツセンター","province":"東京都","city":"東久留米市","address":"東京都東久留米市大門町2丁目14-37","lat":35.76225846,"lon":139.54430143},{"name":"西武地域センター","province":"東京都","city":"東久留米市","address":"東京都東久留米市滝山4丁目1-10","lat":35.7448624,"lon":139.50443041},{"name":"わくわく健康プラザ","province":"東京都","city":"東久留米市","address":"東京都東久留米市滝山4丁目3-14","lat":35.74228769,"lon":139.5044833},{"name":"サービスステーション\"","province":"東京都","city":"東久留米市","address":"東京都東久留米市滝山6丁目1-1","lat":35.74739829,"lon":139.50739394},{"name":"中央図書館","province":"東京都","city":"東久留米市","address":"東京都東久留米市中央町2丁目6-23","lat":35.75549771,"lon":139.5222451},{"name":"南部地域センター","province":"東京都","city":"東久留米市","address":"東京都東久留米市ひばりが丘団地185","lat":35.74651843,"lon":139.53424441},{"name":"東久留米市役所庁舎","province":"東京都","city":"東久留米市","address":"東京都東久留米市本町3丁目1-1","lat":35.75866697,"lon":139.53103313},{"name":"東部地域センター","province":"東京都","city":"東久留米市","address":"東京都東久留米市大門町2丁目10-5","lat":35.76484698,"lon":139.54070162},{"name":"東久留米市スポーツセンター","province":"東京都","city":"東久留米市","address":"東京都東久留米市大門町2丁目14-37","lat":35.76225846,"lon":139.54430143},{"name":"西武地域センター","province":"東京都","city":"東久留米市","address":"東京都東久留米市滝山4丁目1-10","lat":35.7448624,"lon":139.50443041},{"name":"わくわく健康プラザ","province":"東京都","city":"東久留米市","address":"東京都東久留米市滝山4丁目3-14","lat":35.74228769,"lon":139.5044833},{"name":"サービスステーション\"","province":"東京都","city":"東久留米市","address":"東京都東久留米市滝山6丁目1-1","lat":35.74739829,"lon":139.50739394},{"name":"中央図書館","province":"東京都","city":"東久留米市","address":"東京都東久留米市中央町2丁目6-23","lat":35.75549771,"lon":139.5222451},{"name":"南部地域センター","province":"東京都","city":"東久留米市","address":"東京都東久留米市ひばりが丘団地185","lat":35.74651843,"lon":139.53424441},{"name":"東久留米市役所庁舎","province":"東京都","city":"東久留米市","address":"東京都東久留米市本町3丁目1-1","lat":35.75866697,"lon":139.53103313},{"name":"東部地域センター","province":"東京都","city":"東久留米市","address":"東京都東久留米市大門町2丁目10-5","lat":35.76484698,"lon":139.54070162},{"name":"東久留米市スポーツセンター","province":"東京都","city":"東久留米市","address":"東京都東久留米市大門町2丁目14-37","lat":35.76225846,"lon":139.54430143},{"name":"西武地域センター","province":"東京都","city":"東久留米市","address":"東京都東久留米市滝山4丁目1-10","lat":35.7448624,"lon":139.50443041},{"name":"わくわく健康プラザ","province":"東京都","city":"東久留米市","address":"東京都東久留米市滝山4丁目3-14","lat":35.74228769,"lon":139.5044833},{"name":"サービスステーション\"","province":"東京都","city":"東久留米市","address":"東京都東久留米市滝山6丁目1-1","lat":35.74739829,"lon":139.50739394},{"name":"中央図書館","province":"東京都","city":"東久留米市","address":"東京都東久留米市中央町2丁目6-23","lat":35.75549771,"lon":139.5222451},{"name":"南部地域センター","province":"東京都","city":"東久留米市","address":"東京都東久留米市ひばりが丘団地185","lat":35.74651843,"lon":139.53424441},{"name":"東久留米市役所庁舎","province":"東京都","city":"東久留米市","address":"東京都東久留米市本町3丁目1-1","lat":35.75866697,"lon":139.53103313},{"name":"東部地域センター","province":"東京都","city":"東久留米市","address":"東京都東久留米市大門町2丁目10-5","lat":35.76484698,"lon":139.54070162},{"name":"東久留米市スポーツセンター","province":"東京都","city":"東久留米市","address":"東京都東久留米市大門町2丁目14-37","lat":35.76225846,"lon":139.54430143},{"name":"西武地域センター","province":"東京都","city":"東久留米市","address":"東京都東久留米市滝山4丁目1-10","lat":35.7448624,"lon":139.50443041},{"name":"わくわく健康プラザ","province":"東京都","city":"東久留米市","address":"東京都東久留米市滝山4丁目3-14","lat":35.74228769,"lon":139.5044833},{"name":"サービスステーション\"","province":"東京都","city":"東久留米市","address":"東京都東久留米市滝山6丁目1-1","lat":35.74739829,"lon":139.50739394},{"name":"中央図書館","province":"東京都","city":"東久留米市","address":"東京都東久留米市中央町2丁目6-23","lat":35.75549771,"lon":139.5222451},{"name":"南部地域センター","province":"東京都","city":"東久留米市","address":"東京都東久留米市ひばりが丘団地185","lat":35.74651843,"lon":139.53424441},{"name":"東久留米市役所庁舎","province":"東京都","city":"東久留米市","address":"東京都東久留米市本町3丁目1-1","lat":35.75866697,"lon":139.53103313},{"name":"東部地域センター","province":"東京都","city":"東久留米市","address":"東京都東久留米市大門町2丁目10-5","lat":35.76484698,"lon":139.54070162},{"name":"東久留米市スポーツセンター","province":"東京都","city":"東久留米市","address":"東京都東久留米市大門町2丁目14-37","lat":35.76225846,"lon":139.54430143},{"name":"西武地域センター","province":"東京都","city":"東久留米市","address":"東京都東久留米市滝山4丁目1-10","lat":35.7448624,"lon":139.50443041},{"name":"わくわく健康プラザ","province":"東京都","city":"東久留米市","address":"東京都東久留米市滝山4丁目3-14","lat":35.74228769,"lon":139.5044833},{"name":"サービスステーション\"","province":"東京都","city":"東久留米市","address":"東京都東久留米市滝山6丁目1-1","lat":35.74739829,"lon":139.50739394},{"name":"中央図書館","province":"東京都","city":"東久留米市","address":"東京都東久留米市中央町2丁目6-23","lat":35.75549771,"lon":139.5222451},{"name":"南部地域センター","province":"東京都","city":"東久留米市","address":"東京都東久留米市ひばりが丘団地185","lat":35.74651843,"lon":139.53424441},{"name":"東久留米市役所庁舎","province":"東京都","city":"東久留米市","address":"東京都東久留米市本町3丁目1-1","lat":35.75866697,"lon":139.53103313},{"name":"東部地域センター","province":"東京都","city":"東久留米市","address":"東京都東久留米市大門町2丁目10-5","lat":35.76484698,"lon":139.54070162},{"name":"東久留米市スポーツセンター","province":"東京都","city":"東久留米市","address":"東京都東久留米市大門町2丁目14-37","lat":35.76225846,"lon":139.54430143},{"name":"西武地域センター","province":"東京都","city":"東久留米市","address":"東京都東久留米市滝山4丁目1-10","lat":35.7448624,"lon":139.50443041},{"name":"わくわく健康プラザ","province":"東京都","city":"東久留米市","address":"東京都東久留米市滝山4丁目3-14","lat":35.74228769,"lon":139.5044833},{"name":"サービスステーション\"","province":"東京都","city":"東久留米市","address":"東京都東久留米市滝山6丁目1-1","lat":35.74739829,"lon":139.50739394},{"name":"中央図書館","province":"東京都","city":"東久留米市","address":"東京都東久留米市中央町2丁目6-23","lat":35.75549771,"lon":139.5222451},{"name":"南部地域センター","province":"東京都","city":"東久留米市","address":"東京都東久留米市ひばりが丘団地185","lat":35.74651843,"lon":139.53424441},{"name":"東久留米市役所庁舎","province":"東京都","city":"東久留米市","address":"東京都東久留米市本町3丁目1-1","lat":35.75866697,"lon":139.53103313},{"name":"東部地域センター","province":"東京都","city":"東久留米市","address":"東京都東久留米市大門町2丁目10-5","lat":35.76484698,"lon":139.54070162},{"name":"東久留米市スポーツセンター","province":"東京都","city":"東久留米市","address":"東京都東久留米市大門町2丁目14-37","lat":35.76225846,"lon":139.54430143},{"name":"西武地域センター","province":"東京都","city":"東久留米市","address":"東京都東久留米市滝山4丁目1-10","lat":35.7448624,"lon":139.50443041},{"name":"わくわく健康プラザ","province":"東京都","city":"東久留米市","address":"東京都東久留米市滝山4丁目3-14","lat":35.74228769,"lon":139.5044833},{"name":"サービスステーション\"","province":"東京都","city":"東久留米市","address":"東京都東久留米市滝山6丁目1-1","lat":35.74739829,"lon":139.50739394},{"name":"中央図書館","province":"東京都","city":"東久留米市","address":"東京都東久留米市中央町2丁目6-23","lat":35.75549771,"lon":139.5222451},{"name":"南部地域センター","province":"東京都","city":"東久留米市","address":"東京都東久留米市ひばりが丘団地185","lat":35.74651843,"lon":139.53424441},{"name":"東久留米市役所庁舎","province":"東京都","city":"東久留米市","address":"東京都東久留米市本町3丁目1-1","lat":35.75866697,"lon":139.53103313},{"name":"東部地域センター","province":"東京都","city":"東久留米市","address":"東京都東久留米市大門町2丁目10-5","lat":35.76484698,"lon":139.54070162},{"name":"東久留米市スポーツセンター","province":"東京都","city":"東久留米市","address":"東京都東久留米市大門町2丁目14-37","lat":35.76225846,"lon":139.54430143},{"name":"西武地域センター","province":"東京都","city":"東久留米市","address":"東京都東久留米市滝山4丁目1-10","lat":35.7448624,"lon":139.50443041},{"name":"わくわく健康プラザ","province":"東京都","city":"東久留米市","address":"東京都東久留米市滝山4丁目3-14","lat":35.74228769,"lon":139.5044833},{"name":"サービスステーション\"","province":"東京都","city":"東久留米市","address":"東京都東久留米市滝山6丁目1-1","lat":35.74739829,"lon":139.50739394},{"name":"中央図書館","province":"東京都","city":"東久留米市","address":"東京都東久留米市中央町2丁目6-23","lat":35.75549771,"lon":139.5222451},{"name":"南部地域センター","province":"東京都","city":"東久留米市","address":"東京都東久留米市ひばりが丘団地185","lat":35.74651843,"lon":139.53424441},{"name":"東久留米市役所庁舎","province":"東京都","city":"東久留米市","address":"東京都東久留米市本町3丁目1-1","lat":35.75866697,"lon":139.53103313},{"name":"東部地域センター","province":"東京都","city":"東久留米市","address":"東京都東久留米市大門町2丁目10-5","lat":35.76484698,"lon":139.54070162},{"name":"東久留米市スポーツセンター","province":"東京都","city":"東久留米市","address":"東京都東久留米市大門町2丁目14-37","lat":35.76225846,"lon":139.54430143},{"name":"西武地域センター","province":"東京都","city":"東久留米市","address":"東京都東久留米市滝山4丁目1-10","lat":35.7448624,"lon":139.50443041},{"name":"わくわく健康プラザ","province":"東京都","city":"東久留米市","address":"東京都東久留米市滝山4丁目3-14","lat":35.74228769,"lon":139.5044833},{"name":"サービスステーション\"","province":"東京都","city":"東久留米市","address":"東京都東久留米市滝山6丁目1-1","lat":35.74739829,"lon":139.50739394},{"name":"中央図書館","province":"東京都","city":"東久留米市","address":"東京都東久留米市中央町2丁目6-23","lat":35.75549771,"lon":139.5222451},{"name":"南部地域センター","province":"東京都","city":"東久留米市","address":"東京都東久留米市ひばりが丘団地185","lat":35.74651843,"lon":139.53424441},{"name":"東久留米市役所庁舎","province":"東京都","city":"東久留米市","address":"東京都東久留米市本町3丁目1-1","lat":35.75866697,"lon":139.53103313},{"name":"東部地域センター","province":"東京都","city":"東久留米市","address":"東京都東久留米市大門町2丁目10-5","lat":35.76484698,"lon":139.54070162},{"name":"東久留米市スポーツセンター","province":"東京都","city":"東久留米市","address":"東京都東久留米市大門町2丁目14-37","lat":35.76225846,"lon":139.54430143},{"name":"西武地域センター","province":"東京都","city":"東久留米市","address":"東京都東久留米市滝山4丁目1-10","lat":35.7448624,"lon":139.50443041},{"name":"わくわく健康プラザ","province":"東京都","city":"東久留米市","address":"東京都東久留米市滝山4丁目3-14","lat":35.74228769,"lon":139.5044833},{"name":"サービスステーション\"","province":"東京都","city":"東久留米市","address":"東京都東久留米市滝山6丁目1-1","lat":35.74739829,"lon":139.50739394},{"name":"中央図書館","province":"東京都","city":"東久留米市","address":"東京都東久留米市中央町2丁目6-23","lat":35.75549771,"lon":139.5222451},{"name":"南部地域センター","province":"東京都","city":"東久留米市","address":"東京都東久留米市ひばりが丘団地185","lat":35.74651843,"lon":139.53424441},{"name":"東久留米市役所庁舎","province":"東京都","city":"東久留米市","address":"東京都東久留米市本町3丁目1-1","lat":35.75866697,"lon":139.53103313},{"name":"東部地域センター","province":"東京都","city":"東久留米市","address":"東京都東久留米市大門町2丁目10-5","lat":35.76484698,"lon":139.54070162},{"name":"東久留米市スポーツセンター","province":"東京都","city":"東久留米市","address":"東京都東久留米市大門町2丁目14-37","lat":35.76225846,"lon":139.54430143},{"name":"西武地域センター","province":"東京都","city":"東久留米市","address":"東京都東久留米市滝山4丁目1-10","lat":35.7448624,"lon":139.50443041},{"name":"わくわく健康プラザ","province":"東京都","city":"東久留米市","address":"東京都東久留米市滝山4丁目3-14","lat":35.74228769,"lon":139.5044833},{"name":"サービスステーション\"","province":"東京都","city":"東久留米市","address":"東京都東久留米市滝山6丁目1-1","lat":35.74739829,"lon":139.50739394},{"name":"中央図書館","province":"東京都","city":"東久留米市","address":"東京都東久留米市中央町2丁目6-23","lat":35.75549771,"lon":139.5222451},{"name":"南部地域センター","province":"東京都","city":"東久留米市","address":"東京都東久留米市ひばりが丘団地185","lat":35.74651843,"lon":139.53424441},{"name":"東久留米市役所庁舎","province":"東京都","city":"東久留米市","address":"東京都東久留米市本町3丁目1-1","lat":35.75866697,"lon":139.53103313},{"name":"東部地域センター","province":"東京都","city":"東久留米市","address":"東京都東久留米市大門町2丁目10-5","lat":35.76484698,"lon":139.54070162},{"name":"東久留米市スポーツセンター","province":"東京都","city":"東久留米市","address":"東京都東久留米市大門町2丁目14-37","lat":35.76225846,"lon":139.54430143},{"name":"西武地域センター","province":"東京都","city":"東久留米市","address":"東京都東久留米市滝山4丁目1-10","lat":35.7448624,"lon":139.50443041},{"name":"わくわく健康プラザ","province":"東京都","city":"東久留米市","address":"東京都東久留米市滝山4丁目3-14","lat":35.74228769,"lon":139.5044833},{"name":"サービスステーション\"","province":"東京都","city":"東久留米市","address":"東京都東久留米市滝山6丁目1-1","lat":35.74739829,"lon":139.50739394},{"name":"中央図書館","province":"東京都","city":"東久留米市","address":"東京都東久留米市中央町2丁目6-23","lat":35.75549771,"lon":139.5222451},{"name":"南部地域センター","province":"東京都","city":"東久留米市","address":"東京都東久留米市ひばりが丘団地185","lat":35.74651843,"lon":139.53424441},{"name":"東久留米市役所庁舎","province":"東京都","city":"東久留米市","address":"東京都東久留米市本町3丁目1-1","lat":35.75866697,"lon":139.53103313},{"name":"東部地域センター","province":"東京都","city":"東久留米市","address":"東京都東久留米市大門町2丁目10-5","lat":35.76484698,"lon":139.54070162},{"name":"東久留米市スポーツセンター","province":"東京都","city":"東久留米市","address":"東京都東久留米市大門町2丁目14-37","lat":35.76225846,"lon":139.54430143},{"name":"西武地域センター","province":"東京都","city":"東久留米市","address":"東京都東久留米市滝山4丁目1-10","lat":35.7448624,"lon":139.50443041},{"name":"わくわく健康プラザ","province":"東京都","city":"東久留米市","address":"東京都東久留米市滝山4丁目3-14","lat":35.74228769,"lon":139.5044833},{"name":"サービスステーション\"","province":"東京都","city":"東久留米市","address":"東京都東久留米市滝山6丁目1-1","lat":35.74739829,"lon":139.50739394},{"name":"中央図書館","province":"東京都","city":"東久留米市","address":"東京都東久留米市中央町2丁目6-23","lat":35.75549771,"lon":139.5222451},{"name":"南部地域センター","province":"東京都","city":"東久留米市","address":"東京都東久留米市ひばりが丘団地185","lat":35.74651843,"lon":139.53424441},{"name":"東久留米市役所庁舎","province":"東京都","city":"東久留米市","address":"東京都東久留米市本町3丁目1-1","lat":35.75866697,"lon":139.53103313},{"name":"東部地域センター","province":"東京都","city":"東久留米市","address":"東京都東久留米市大門町2丁目10-5","lat":35.76484698,"lon":139.54070162},{"name":"東久留米市スポーツセンター","province":"東京都","city":"東久留米市","address":"東京都東久留米市大門町2丁目14-37","lat":35.76225846,"lon":139.54430143},{"name":"西武地域センター","province":"東京都","city":"東久留米市","address":"東京都東久留米市滝山4丁目1-10","lat":35.7448624,"lon":139.50443041},{"name":"わくわく健康プラザ","province":"東京都","city":"東久留米市","address":"東京都東久留米市滝山4丁目3-14","lat":35.74228769,"lon":139.5044833},{"name":"サービスステーション\"","province":"東京都","city":"東久留米市","address":"東京都東久留米市滝山6丁目1-1","lat":35.74739829,"lon":139.50739394},{"name":"中央図書館","province":"東京都","city":"東久留米市","address":"東京都東久留米市中央町2丁目6-23","lat":35.75549771,"lon":139.5222451},{"name":"南部地域センター","province":"東京都","city":"東久留米市","address":"東京都東久留米市ひばりが丘団地185","lat":35.74651843,"lon":139.53424441},{"name":"東久留米市役所庁舎","province":"東京都","city":"東久留米市","address":"東京都東久留米市本町3丁目1-1","lat":35.75866697,"lon":139.53103313},{"name":"東部地域センター","province":"東京都","city":"東久留米市","address":"東京都東久留米市大門町2丁目10-5","lat":35.76484698,"lon":139.54070162},{"name":"東久留米市スポーツセンター","province":"東京都","city":"東久留米市","address":"東京都東久留米市大門町2丁目14-37","lat":35.76225846,"lon":139.54430143},{"name":"西武地域センター","province":"東京都","city":"東久留米市","address":"東京都東久留米市滝山4丁目1-10","lat":35.7448624,"lon":139.50443041},{"name":"わくわく健康プラザ","province":"東京都","city":"東久留米市","address":"東京都東久留米市滝山4丁目3-14","lat":35.74228769,"lon":139.5044833},{"name":"サービスステーション\"","province":"東京都","city":"東久留米市","address":"東京都東久留米市滝山6丁目1-1","lat":35.74739829,"lon":139.50739394},{"name":"中央図書館","province":"東京都","city":"東久留米市","address":"東京都東久留米市中央町2丁目6-23","lat":35.75549771,"lon":139.5222451},{"name":"南部地域センター","province":"東京都","city":"東久留米市","address":"東京都東久留米市ひばりが丘団地185","lat":35.74651843,"lon":139.53424441},{"name":"東久留米市役所庁舎","province":"東京都","city":"東久留米市","address":"東京都東久留米市本町3丁目1-1","lat":35.75866697,"lon":139.53103313},{"name":"東部地域センター","province":"東京都","city":"東久留米市","address":"東京都東久留米市大門町2丁目10-5","lat":35.76484698,"lon":139.54070162},{"name":"東久留米市スポーツセンター","province":"東京都","city":"東久留米市","address":"東京都東久留米市大門町2丁目14-37","lat":35.76225846,"lon":139.54430143},{"name":"西武地域センター","province":"東京都","city":"東久留米市","address":"東京都東久留米市滝山4丁目1-10","lat":35.7448624,"lon":139.50443041},{"name":"わくわく健康プラザ","province":"東京都","city":"東久留米市","address":"東京都東久留米市滝山4丁目3-14","lat":35.74228769,"lon":139.5044833},{"name":"サービスステーション\"","province":"東京都","city":"東久留米市","address":"東京都東久留米市滝山6丁目1-1","lat":35.74739829,"lon":139.50739394},{"name":"中央図書館","province":"東京都","city":"東久留米市","address":"東京都東久留米市中央町2丁目6-23","lat":35.75549771,"lon":139.5222451},{"name":"南部地域センター","province":"東京都","city":"東久留米市","address":"東京都東久留米市ひばりが丘団地185","lat":35.74651843,"lon":139.53424441},{"name":"東久留米市役所庁舎","province":"東京都","city":"東久留米市","address":"東京都東久留米市本町3丁目1-1","lat":35.75866697,"lon":139.53103313},{"name":"東部地域センター","province":"東京都","city":"東久留米市","address":"東京都東久留米市大門町2丁目10-5","lat":35.76484698,"lon":139.54070162},{"name":"東久留米市スポーツセンター","province":"東京都","city":"東久留米市","address":"東京都東久留米市大門町2丁目14-37","lat":35.76225846,"lon":139.54430143},{"name":"西武地域センター","province":"東京都","city":"東久留米市","address":"東京都東久留米市滝山4丁目1-10","lat":35.7448624,"lon":139.50443041},{"name":"わくわく健康プラザ","province":"東京都","city":"東久留米市","address":"東京都東久留米市滝山4丁目3-14","lat":35.74228769,"lon":139.5044833},{"name":"サービスステーション\"","province":"東京都","city":"東久留米市","address":"東京都東久留米市滝山6丁目1-1","lat":35.74739829,"lon":139.50739394},{"name":"中央図書館","province":"東京都","city":"東久留米市","address":"東京都東久留米市中央町2丁目6-23","lat":35.75549771,"lon":139.5222451},{"name":"南部地域センター","province":"東京都","city":"東久留米市","address":"東京都東久留米市ひばりが丘団地185","lat":35.74651843,"lon":139.53424441},{"name":"東久留米市役所庁舎","province":"東京都","city":"東久留米市","address":"東京都東久留米市本町3丁目1-1","lat":35.75866697,"lon":139.53103313},{"name":"東部地域センター","province":"東京都","city":"東久留米市","address":"東京都東久留米市大門町2丁目10-5","lat":35.76484698,"lon":139.54070162},{"name":"東久留米市スポーツセンター","province":"東京都","city":"東久留米市","address":"東京都東久留米市大門町2丁目14-37","lat":35.76225846,"lon":139.54430143},{"name":"西武地域センター","province":"東京都","city":"東久留米市","address":"東京都東久留米市滝山4丁目1-10","lat":35.7448624,"lon":139.50443041},{"name":"わくわく健康プラザ","province":"東京都","city":"東久留米市","address":"東京都東久留米市滝山4丁目3-14","lat":35.74228769,"lon":139.5044833},{"name":"サービスステーション\"","province":"東京都","city":"東久留米市","address":"東京都東久留米市滝山6丁目1-1","lat":35.74739829,"lon":139.50739394},{"name":"中央図書館","province":"東京都","city":"東久留米市","address":"東京都東久留米市中央町2丁目6-23","lat":35.75549771,"lon":139.5222451},{"name":"南部地域センター","province":"東京都","city":"東久留米市","address":"東京都東久留米市ひばりが丘団地185","lat":35.74651843,"lon":139.53424441},{"name":"東久留米市役所庁舎","province":"東京都","city":"東久留米市","address":"東京都東久留米市本町3丁目1-1","lat":35.75866697,"lon":139.53103313},{"name":"東部地域センター","province":"東京都","city":"東久留米市","address":"東京都東久留米市大門町2丁目10-5","lat":35.76484698,"lon":139.54070162},{"name":"東久留米市スポーツセンター","province":"東京都","city":"東久留米市","address":"東京都東久留米市大門町2丁目14-37","lat":35.76225846,"lon":139.54430143},{"name":"西武地域センター","province":"東京都","city":"東久留米市","address":"東京都東久留米市滝山4丁目1-10","lat":35.7448624,"lon":139.50443041},{"name":"わくわく健康プラザ","province":"東京都","city":"東久留米市","address":"東京都東久留米市滝山4丁目3-14","lat":35.74228769,"lon":139.5044833},{"name":"サービスステーション\"","province":"東京都","city":"東久留米市","address":"東京都東久留米市滝山6丁目1-1","lat":35.74739829,"lon":139.50739394},{"name":"中央図書館","province":"東京都","city":"東久留米市","address":"東京都東久留米市中央町2丁目6-23","lat":35.75549771,"lon":139.5222451},{"name":"南部地域センター","province":"東京都","city":"東久留米市","address":"東京都東久留米市ひばりが丘団地185","lat":35.74651843,"lon":139.53424441},{"name":"東久留米市役所庁舎","province":"東京都","city":"東久留米市","address":"東京都東久留米市本町3丁目1-1","lat":35.75866697,"lon":139.53103313},{"name":"東部地域センター","province":"東京都","city":"東久留米市","address":"東京都東久留米市大門町2丁目10-5","lat":35.76484698,"lon":139.54070162},{"name":"東久留米市スポーツセンター","province":"東京都","city":"東久留米市","address":"東京都東久留米市大門町2丁目14-37","lat":35.76225846,"lon":139.54430143},{"name":"西武地域センター","province":"東京都","city":"東久留米市","address":"東京都東久留米市滝山4丁目1-10","lat":35.7448624,"lon":139.50443041},{"name":"わくわく健康プラザ","province":"東京都","city":"東久留米市","address":"東京都東久留米市滝山4丁目3-14","lat":35.74228769,"lon":139.5044833},{"name":"サービスステーション\"","province":"東京都","city":"東久留米市","address":"東京都東久留米市滝山6丁目1-1","lat":35.74739829,"lon":139.50739394},{"name":"中央図書館","province":"東京都","city":"東久留米市","address":"東京都東久留米市中央町2丁目6-23","lat":35.75549771,"lon":139.5222451},{"name":"南部地域センター","province":"東京都","city":"東久留米市","address":"東京都東久留米市ひばりが丘団地185","lat":35.74651843,"lon":139.53424441},{"name":"東久留米市役所庁舎","province":"東京都","city":"東久留米市","address":"東京都東久留米市本町3丁目1-1","lat":35.75866697,"lon":139.53103313}]}