{"keyword":"自転車","data":[{"name":"市立東第２自転車等駐車場","province":"東京都","city":"東久留米市","address":"東京都東久留米市東本町14","lat":35.7627277,"lon":139.53515209},{"name":"日生サイクルプラザ東久留米第２","province":"東京都","city":"東久留米市","address":"東京都東久留米市新川町1丁目4","lat":35.7612862,"lon":139.5350827},{"name":"日生サイクルプラザ東久留米第１","province":"東京都","city":"東久留米市","address":"東京都東久留米市新川町1丁目3","lat":35.76013078,"lon":139.53539661},{"name":"市立西第９自転車駐車場","province":"東京都","city":"東久留米市","address":"東京都東久留米市本町1丁目5","lat":35.75972803,"lon":139.53402173},{"name":"市立西第１０一時利用自転車駐車場","province":"東京都","city":"東久留米市","address":"東京都東久留米市本町1丁目4","lat":35.75914751,"lon":139.53259409},{"name":"東久留米駅前駐輪場","province":"東京都","city":"東久留米市","address":"東京都東久留米市東本町1-15","lat":35.76086678,"lon":139.53414668},{"name":"東久留米駅前第２駐輪場","province":"東京都","city":"東久留米市","address":"東京都東久留米市東本町1-15","lat":35.76086678,"lon":139.53414668},{"name":"東久留米駅前第３駐輪場","province":"東京都","city":"東久留米市","address":"東京都東久留米市本町1丁目3-28","lat":35.75994184,"lon":139.53205522},{"name":"東久留米駅西口第１自転車駐車場","province":"東京都","city":"東久留米市","address":"東京都東久留米市新川町1丁目3","lat":35.76013078,"lon":139.53539661},{"name":"東久留米駅西口第２自転車駐車場","province":"東京都","city":"東久留米市","address":"東京都東久留米市新川町1丁目3","lat":35.76013078,"lon":139.53539661},{"name":"東久留米駅西口第３自転車駐車場","province":"東京都","city":"東久留米市","address":"東京都東久留米市本町1丁目14","lat":35.75794212,"lon":139.53427455},{"name":"東久留米駅東口自転車駐車場","province":"東京都","city":"東久留米市","address":"東京都東久留米市新川町1丁目3","lat":35.76013078,"lon":139.53539661},{"name":"東久留米駅北口自転車駐車場","province":"東京都","city":"東久留米市","address":"東京都東久留米市東本町1-6","lat":35.76136949,"lon":139.53344116},{"name":"サイクルスペース２４東久留米駐輪場","province":"東京都","city":"東久留米市","address":"東京都東久留米市新川町1丁目9","lat":35.76161952,"lon":139.53686034},{"name":"市立西第１０原付自転車駐車場","province":"東京都","city":"東久留米市","address":"東京都東久留米市本町1丁目4","lat":35.75914751,"lon":139.53259409},{"name":"リバーウエストビルズ駐輪場","province":"東京都","city":"東久留米市","address":"東京都東久留米市本町1丁目5","lat":35.75972803,"lon":139.53402173},{"name":"東久留米駅前第４駐輪場","province":"東京都","city":"東久留米市","address":"東京都東久留米市東本町5","lat":35.76224161,"lon":139.53360501},{"name":"市立臨時西第２自転車駐車場","province":"東京都","city":"東久留米市","address":"東京都東久留米市本町1丁目8-1","lat":35.7578366,"lon":139.53545501},{"name":"東久留米駅西口第１自転車駐車場","province":"東京都","city":"東久留米市","address":"東京都東久留米市本町1丁目3","lat":35.76054178,"lon":139.53217741},{"name":"東久留米駅西口第２自転車駐車場","province":"東京都","city":"東久留米市","address":"東京都東久留米市本町1丁目5","lat":35.75972803,"lon":139.53402173}]}