{"keyword":"葬儀","data":[{"name":"有限会社　市民葬祭センター","province":"東京都","city":"東久留米市","address":"東京都東久留米市東本町4-6","lat":35.7626027,"lon":139.53419939},{"name":"有限会社　小平典礼　東久留米支社","province":"東京都","city":"東久留米市","address":"東京都東久留米市滝山3丁目11-6","lat":35.74065177,"lon":139.50463613},{"name":"株式会社　コムウェル　小平営業所","province":"東京都","city":"東久留米市","address":"東京都東久留米市柳窪4丁目7-9","lat":35.74611182,"lon":139.48739857},{"name":"株式会社　奥野式典","province":"東京都","city":"東久留米市","address":"東京都東久留米市滝山4丁目1-40","lat":35.74466523,"lon":139.50567754},{"name":"有限会社　緑葬儀社　東久留米支店","province":"東京都","city":"東久留米市","address":"東京都東久留米市本町2丁目1-2","lat":35.76228045,"lon":139.53175239},{"name":"すずらん（株式会社　アイコス）","province":"東京都","city":"東久留米市","address":"東京都東久留米市下里3丁目5-9","lat":35.75130046,"lon":139.50049165},{"name":"有限会社　藤式典　東久留米店","province":"東京都","city":"東久留米市","address":"東京都東久留米市幸町4丁目4-1","lat":35.75557535,"lon":139.51599011},{"name":"有限会社　ウィズセレモニー","province":"東京都","city":"東久留米市","address":"東京都東久留米市東本町12-3","lat":35.76429974,"lon":139.53547979},{"name":"田中葬祭　株式会社　東久留米支店","province":"東京都","city":"東久留米市","address":"東京都東久留米市本町3丁目6-9","lat":35.75947237,"lon":139.52759451}]}