{"keyword":"館","data":[{"name":"子どもセンターあおぞら","province":"東京都","city":"東久留米市","address":"東久留米市前沢4-25-8","lat":35.74579,"lon":139.511666},{"name":"子どもセンターひばり","province":"東京都","city":"東久留米市","address":"東久留米市ひばりが丘団地8-11","lat":35.747141,"lon":139.531608},{"name":"中央図書館","province":"東京都","city":"東久留米市","address":"東京都東久留米市中央町2丁目6-23","lat":35.75549771,"lon":139.5222451},{"name":"滝山図書館","province":"東京都","city":"東久留米市","address":"東京都東久留米市滝山4丁目1-10","lat":35.7448624,"lon":139.50443041},{"name":"ひばりが丘図書館","province":"東京都","city":"東久留米市","address":"東京都東久留米市ひばりが丘団地185","lat":35.74651843,"lon":139.53424441},{"name":"東部図書館","province":"東京都","city":"東久留米市","address":"東京都東久留米市大門町2丁目10-5","lat":35.76484698,"lon":139.54070162},{"name":"けやき児童館","province":"東京都","city":"東久留米市","address":"東久留米市大門町2丁目10-5","lat":35.7648,"lon":139.54089},{"name":"子どもセンターひばり","province":"東京都","city":"東久留米市","address":"東久留米市ひばりが丘団地8-11","lat":35.74722,"lon":139.53172},{"name":"子どもセンターあおぞら","province":"東京都","city":"東久留米市","address":"東久留米市前沢4-25-8","lat":35.74564,"lon":139.51151},{"name":"中央児童館","province":"東京都","city":"東久留米市","address":"東久留米市中央町1-10-11","lat":35.75509,"lon":139.52419},{"name":"けやき児童館","province":"東京都","city":"東久留米市","address":"東久留米市大門町2-10-5","lat":35.765045,"lon":139.54039},{"name":"＊?東久留米市立東部図書館","province":"東京都","city":"東久留米市","address":"東久留米市大門町2-10-5東部地域センター内","lat":35.764827,"lon":139.540862},{"name":"＊?東久留米市立ひばりが丘図書館","province":"東京都","city":"東久留米市","address":"東久留米市ひばりが丘団地185南部地域センター内","lat":35.746564,"lon":139.534329},{"name":"＊?東久留米市立滝山図書館","province":"東京都","city":"東久留米市","address":"東久留米市滝山4-1-10西部地域センター内","lat":35.744878,"lon":139.504401},{"name":"＊?東久留米市立中央図書館","province":"東京都","city":"東久留米市","address":"東久留米市中央町2-6-23","lat":35.755517,"lon":139.522346}]}