{"category":"park","data":[{"name":"大泉中央公園","province":"東京都","city":"練馬区","address":"東京都練馬区大泉学園町九丁目","lat":35.77462,"lon":139.597728},{"name":"石神井公園","province":"東京都","city":"練馬区","address":"東京都練馬区石神井台一・二丁目、石神井町五丁目","lat":35.738171,"lon":139.595976},{"name":"光が丘公園","province":"東京都","city":"練馬区","address":"東京都練馬区光が丘二・四丁目、旭町二丁目、板橋区赤塚新町三丁目","lat":35.765204,"lon":139.629503},{"name":"石神井公園ふるさと文化館","province":"東京都","city":"練馬区","address":"練馬区石神井町5-12-16","lat":35.73761853,"lon":139.59946},{"name":"石神井公園ふるさと文化館分室","province":"東京都","city":"練馬区","address":"練馬区石神井台1-33-44","lat":35.73930834,"lon":139.5939328},{"name":"東部公園出張所","province":"東京都","city":"練馬区","address":"練馬区豊玉中3-28-8","lat":35.73113203,"lon":139.6527176},{"name":"西部公園出張所","province":"東京都","city":"練馬区","address":"練馬区石神井町3-30-26石神井庁舎2階","lat":35.74340295,"lon":139.6028379},{"name":"石神井公園区民交流センター（消費生活センター）","province":"東京都","city":"練馬区","address":"練馬区石神井町2-14-1","lat":35.74432617,"lon":139.6070899},{"name":"東部土木出張所","province":"東京都","city":"練馬区","address":"練馬区豊玉中3-28-8","lat":35.73126291,"lon":139.6527173},{"name":"西部土木出張所","province":"東京都","city":"練馬区","address":"練馬区石神井町3-30-26","lat":35.74313347,"lon":139.6027584},{"name":"大泉中央公園","province":"東京都","city":"練馬区","address":"東京都練馬区大泉学園町9丁目","lat":35.77746838,"lon":139.59096141}]}