{"category":"wireless","data":[{"name":"練馬光が丘病院","province":"東京都","city":"練馬区","address":"東京都練馬区光が丘2丁目11-1","lat":35.76218581,"lon":139.63026637},{"name":"順天堂大学医学部附属練馬病院","province":"東京都","city":"練馬区","address":"東京都練馬区高野台3丁目1-10","lat":35.74213487,"lon":139.61499623},{"name":"区立大泉公園","province":"東京都","city":"練馬区","address":"東京都練馬区大泉学園町6丁目25","lat":35.7719023,"lon":139.58278997},{"name":"区立学田公園","province":"東京都","city":"練馬区","address":"東京都練馬区豊玉南3丁目32","lat":35.72961495,"lon":139.64937445},{"name":"区立みんなの広場公園","province":"東京都","city":"練馬区","address":"東京都練馬区石神井町8丁目41","lat":35.74805873,"lon":139.59823632},{"name":"日本大学医学部附属練馬光が丘病院","province":"東京都","city":"練馬区","address":"東京都練馬区光が丘2丁目11-1","lat":35.76218581,"lon":139.63026637},{"name":"練馬区保健所","province":"東京都","city":"練馬区","address":"東京都練馬区豊玉北6丁目12-1","lat":35.73558101,"lon":139.65167678},{"name":"練馬工業高等学校","province":"東京都","city":"練馬区","address":"東京都練馬区早宮2丁目9-18","lat":35.75431506,"lon":139.6546174},{"name":"練馬高等学校","province":"東京都","city":"練馬区","address":"東京都練馬区春日町4丁目28-25","lat":35.75723387,"lon":139.6421628},{"name":"第四商業高等学校","province":"東京都","city":"練馬区","address":"東京都練馬区貫井3丁目45-19","lat":35.73887722,"lon":139.62623708},{"name":"井草高等学校","province":"東京都","city":"練馬区","address":"東京都練馬区上石神井2丁目2-43","lat":35.72767489,"lon":139.59843991},{"name":"大泉高等学校","province":"東京都","city":"練馬区","address":"東京都練馬区東大泉5丁目3-1","lat":35.74595884,"lon":139.59345624},{"name":"大泉桜高等学校","province":"東京都","city":"練馬区","address":"東京都練馬区大泉町3丁目5-7","lat":35.76381233,"lon":139.59736645},{"name":"石神井高等学校","province":"東京都","city":"練馬区","address":"東京都練馬区関町北4丁目32-48","lat":35.73043505,"lon":139.57149201},{"name":"田柄高等学校","province":"東京都","city":"練馬区","address":"東京都練馬区光が丘2丁目3-1","lat":35.7633858,"lon":139.63478538},{"name":"光丘高等学校","province":"東京都","city":"練馬区","address":"東京都練馬区旭町2丁目1-35","lat":35.76739341,"lon":139.62469163},{"name":"練馬区立総合体育館","province":"東京都","city":"練馬区","address":"東京都練馬区谷原1丁目7-5","lat":35.74938979,"lon":139.62145652}]}