{"keyword":"し尿","data":[{"name":"練馬区練馬子ども家庭支援センター","province":"東京都","city":"練馬区","address":"練馬区豊玉北6-12-1練馬区役所東庁舎4階","lat":35.735573,"lon":139.651671},{"name":"練馬区保健所（生活衛生課）","province":"東京都","city":"練馬区","address":"練馬区豊玉北6-12-1","lat":35.735573,"lon":139.651671},{"name":"練馬区保健所（保健予防課）","province":"東京都","city":"練馬区","address":"練馬区豊玉北6-12-1","lat":35.735573,"lon":139.651671},{"name":"豊玉保健相談所","province":"東京都","city":"練馬区","address":"練馬区豊玉北5-15-19","lat":35.736014,"lon":139.654851},{"name":"北保健相談所","province":"東京都","city":"練馬区","address":"練馬区北町8-2-11","lat":35.763961,"lon":139.651376},{"name":"光が丘保健相談所","province":"東京都","city":"練馬区","address":"練馬区光が丘2-9-6","lat":35.759486,"lon":139.629589},{"name":"石神井保健相談所","province":"東京都","city":"練馬区","address":"練馬区石神井町7-3-28","lat":35.74452,"lon":139.601328},{"name":"大泉保健相談所","province":"東京都","city":"練馬区","address":"練馬区大泉学園町5-8-8","lat":35.767045,"lon":139.586631},{"name":"関保健相談所","province":"東京都","city":"練馬区","address":"練馬区関町東1-27-4","lat":35.726538,"lon":139.5813},{"name":"練馬区","province":"東京都","city":"練馬区","address":"練馬区豊玉北6-12-1","lat":35.7355733,"lon":139.6516714},{"name":"石神井公園","province":"東京都","city":"練馬区","address":"東京都練馬区石神井町5丁目17","lat":35.738778,"lon":139.602955},{"name":"石神井公園","province":"東京都","city":"練馬区","address":"東京都練馬区石神井町5丁目24","lat":35.737791,"lon":139.599169},{"name":"石神井公園","province":"東京都","city":"練馬区","address":"東京都練馬区石神井台1丁目26","lat":35.738776,"lon":139.596424},{"name":"石神井公園","province":"東京都","city":"練馬区","address":"東京都練馬区石神井町5丁目21","lat":35.739398,"lon":139.601502},{"name":"石神井公園","province":"東京都","city":"練馬区","address":"東京都練馬区石神井町5丁目21","lat":35.739153,"lon":139.605055},{"name":"石神井公園","province":"東京都","city":"練馬区","address":"東京都練馬区石神井台1丁目26","lat":35.738483,"lon":139.597315},{"name":"石神井公園","province":"東京都","city":"練馬区","address":"東京都練馬区石神井町5丁目17","lat":35.737512,"lon":139.602991},{"name":"大泉中央公園","province":"東京都","city":"練馬区","address":"東京都練馬区大泉学園町9丁目4","lat":35.774911,"lon":139.597476},{"name":"城北中央公園","province":"東京都","city":"練馬区","address":"東京都練馬区羽沢3丁目21","lat":35.752016,"lon":139.672321},{"name":"光が丘公園","province":"東京都","city":"練馬区","address":"東京都練馬区光が丘4丁目1","lat":35.767845,"lon":139.634455},{"name":"光が丘公園","province":"東京都","city":"練馬区","address":"東京都練馬区光が丘4丁目1","lat":35.763382,"lon":139.628161},{"name":"光が丘公園","province":"東京都","city":"練馬区","address":"東京都練馬区光が丘4丁目1","lat":35.767515,"lon":139.626661},{"name":"光が丘公園","province":"東京都","city":"練馬区","address":"東京都練馬区光が丘4丁目1","lat":35.768989,"lon":139.626675},{"name":"光が丘公園","province":"東京都","city":"練馬区","address":"東京都練馬区光が丘4丁目1","lat":35.767559,"lon":139.629614},{"name":"光が丘公園","province":"東京都","city":"練馬区","address":"東京都練馬区光が丘4丁目1","lat":35.76767,"lon":139.632076},{"name":"光が丘公園","province":"東京都","city":"練馬区","address":"東京都練馬区光が丘4丁目1","lat":35.765392,"lon":139.630802},{"name":"光が丘公園","province":"東京都","city":"練馬区","address":"東京都練馬区光が丘4丁目1","lat":35.764528,"lon":139.631164},{"name":"光が丘公園","province":"東京都","city":"練馬区","address":"東京都練馬区光が丘4丁目1","lat":35.765172,"lon":139.630127},{"name":"光が丘公園","province":"東京都","city":"練馬区","address":"東京都練馬区光が丘4丁目1","lat":35.766547,"lon":139.634771},{"name":"練馬城址公園","province":"東京都","city":"練馬区","address":"東京都練馬区春日町1丁目1","lat":35.746499,"lon":139.642148},{"name":"都営大江戸線練馬春日町駅","province":"東京都","city":"練馬区","address":"東京都練馬区春日町3丁目35","lat":35.751495,"lon":139.640128},{"name":"都営大江戸線練馬駅","province":"東京都","city":"練馬区","address":"東京都練馬区豊玉北5丁目17","lat":35.737387,"lon":139.654943},{"name":"都営大江戸線豊島園駅","province":"東京都","city":"練馬区","address":"東京都練馬区練馬4丁目26","lat":35.741666,"lon":139.649137},{"name":"都営大江戸線光が丘駅","province":"東京都","city":"練馬区","address":"東京都練馬区光が丘3丁目10","lat":35.758534,"lon":139.629104},{"name":"東京都水道局北部支所","province":"東京都","city":"練馬区","address":"東京都練馬区中村北1丁目9-4","lat":35.734692,"lon":139.647658},{"name":"練馬消防署","province":"東京都","city":"練馬区","address":"東京都練馬区豊玉北5丁目1-8","lat":35.737427,"lon":139.655935},{"name":"光が丘消防署北町出張所","province":"東京都","city":"練馬区","address":"東京都練馬区北町3丁目10-14","lat":35.768523,"lon":139.65372},{"name":"石神井消防署石神井公園出張所","province":"東京都","city":"練馬区","address":"東京都練馬区石神井町2丁目16-1","lat":35.745472,"lon":139.607725},{"name":"北保健相談所","province":"東京都","city":"練馬区","address":"東京都練馬区北町6丁目35-7","lat":35.757169,"lon":139.649561},{"name":"やすらぎシティ地域包括支援センター","province":"東京都","city":"練馬区","address":"練馬区東大泉7-27-49","lat":35.74401,"lon":139.5804683},{"name":"練馬区保健所（生活衛生課）","province":"東京都","city":"練馬区","address":"東京都練馬区豊玉北6丁目12-1","lat":35.73558101,"lon":139.65167678},{"name":"練馬区保健所（保健予防課）","province":"東京都","city":"練馬区","address":"東京都練馬区豊玉北6丁目12-1","lat":35.73558101,"lon":139.65167678},{"name":"豊玉保健相談所","province":"東京都","city":"練馬区","address":"東京都練馬区豊玉北5丁目15-19","lat":35.73594216,"lon":139.65492649},{"name":"北保健相談所","province":"東京都","city":"練馬区","address":"東京都練馬区北町6丁目35-7","lat":35.75720905,"lon":139.64949272},{"name":"光が丘保健相談所","province":"東京都","city":"練馬区","address":"東京都練馬区光が丘2丁目9-6","lat":35.75941388,"lon":139.62976375},{"name":"石神井保健相談所","province":"東京都","city":"練馬区","address":"東京都練馬区石神井町7丁目3-28","lat":35.74453977,"lon":139.60134731},{"name":"大泉保健相談所","province":"東京都","city":"練馬区","address":"東京都練馬区大泉学園町5丁目8-8","lat":35.76707824,"lon":139.58662845},{"name":"関保健相談所","province":"東京都","city":"練馬区","address":"東京都練馬区関町東1丁目27-4","lat":35.72653849,"lon":139.58129968},{"name":"練馬区保健所（生活衛生課）","province":"東京都","city":"練馬区","address":"練馬区豊玉北6-12-1","lat":35.73571,"lon":139.65167},{"name":"練馬区保健所（保健予防課）","province":"東京都","city":"練馬区","address":"練馬区豊玉北6-12-1","lat":35.73571,"lon":139.65167},{"name":"豊玉保健相談所","province":"東京都","city":"練馬区","address":"練馬区豊玉北5-15-19","lat":35.73619,"lon":139.65497},{"name":"北保健相談所","province":"東京都","city":"練馬区","address":"練馬区北町6-35-7","lat":35.7577,"lon":139.64937},{"name":"光が丘保健相談所","province":"東京都","city":"練馬区","address":"練馬区光が丘2-9-6","lat":35.75914,"lon":139.63036},{"name":"石神井保健相談所","province":"東京都","city":"練馬区","address":"練馬区石神井町7-3-28","lat":35.7443,"lon":139.60115},{"name":"大泉保健相談所","province":"東京都","city":"練馬区","address":"練馬区大泉学園町5-8-8","lat":35.76731,"lon":139.58688},{"name":"関保健相談所","province":"東京都","city":"練馬区","address":"練馬区関町東1-27-4","lat":35.72668,"lon":139.58139},{"name":"練馬区子ども家庭支援センター","province":"東京都","city":"練馬区","address":"練馬区豊玉北5-28-3","lat":35.73506,"lon":139.65346},{"name":"練馬区子ども家庭支援センター（練馬庁舎）","province":"東京都","city":"練馬区","address":"練馬区豊玉北6-12-1練馬区役所東庁舎4階","lat":35.735573,"lon":139.651671},{"name":"練馬区練馬子ども家庭支援センター","province":"東京都","city":"練馬区","address":"練馬区豊玉北5-28-3","lat":35.73506,"lon":139.65346},{"name":"関保健相談所","province":"東京都","city":"練馬区","address":"練馬区関町東1-27-4","lat":35.72669,"lon":139.58139},{"name":"北保健相談所","province":"東京都","city":"練馬区","address":"練馬区北町8-2-11","lat":35.76413,"lon":139.65102},{"name":"練馬区練馬子ども家庭支援センター（練馬庁舎）","province":"東京都","city":"練馬区","address":"練馬区豊玉北5-28-3","lat":35.73506,"lon":139.65346},{"name":"産業・観光情報コーナー","province":"東京都","city":"練馬区","address":"東京都練馬区練馬1-17-1","lat":35.738248,"lon":139.65336},{"name":"石神井観光案内所","province":"東京都","city":"練馬区","address":"東京都練馬区石神井町3-23-8","lat":35.743631,"lon":139.606268},{"name":"都立石神井公園","province":"東京都","city":"練馬区","address":"東京都練馬区石神井町5-1087-11ほか","lat":35.738382,"lon":139.598103},{"name":"都立光が丘公園","province":"東京都","city":"練馬区","address":"東京都練馬区光が丘4-25-2","lat":35.766383,"lon":139.629486},{"name":"牧野記念庭園","province":"東京都","city":"練馬区","address":"東京都練馬区東大泉6-34-4","lat":35.746344,"lon":139.585551},{"name":"四季の香ローズガーデン","province":"東京都","city":"練馬区","address":"東京都練馬区光が丘5-2-6","lat":35.760772,"lon":139.625751},{"name":"土支田農業公園","province":"東京都","city":"練馬区","address":"東京都練馬区土支田3-34-26","lat":35.760586,"lon":139.609566},{"name":"こどもの森","province":"東京都","city":"練馬区","address":"東京都練馬区羽沢2-32-7","lat":35.748792,"lon":139.672507},{"name":"中里郷土の森","province":"東京都","city":"練馬区","address":"東京都練馬区大泉町1-51-2","lat":35.769186,"lon":139.604088},{"name":"石神井松の風文化公園","province":"東京都","city":"練馬区","address":"東京都練馬区石神井台1-33-44","lat":35.739351,"lon":139.594103},{"name":"都立城北中央公園","province":"東京都","city":"練馬区","address":"東京都練馬区羽沢3-15-13ほか","lat":35.75593,"lon":139.67404},{"name":"都立大泉中央公園","province":"東京都","city":"練馬区","address":"東京都練馬区大泉学園町9-538-17","lat":35.775157,"lon":139.598236},{"name":"大泉交通公園","province":"東京都","city":"練馬区","address":"東京都練馬区南大泉6-16-1","lat":35.753451,"lon":139.572246},{"name":"平成つつじ公園","province":"東京都","city":"練馬区","address":"東京都練馬区練馬1-17-6","lat":35.738805,"lon":139.6535},{"name":"向山庭園","province":"東京都","city":"練馬区","address":"東京都練馬区向山3-1-21","lat":35.742124,"lon":139.64673},{"name":"田柄梅林公園","province":"東京都","city":"練馬区","address":"東京都練馬区田柄5-5-2","lat":35.755203,"lon":139.632582},{"name":"武蔵関公園","province":"東京都","city":"練馬区","address":"東京都練馬区関町北3-45-1","lat":35.727666,"lon":139.567786},{"name":"石神井公園ふるさと文化館","province":"東京都","city":"練馬区","address":"東京都練馬区石神井町5-12-16","lat":35.737444,"lon":139.599429},{"name":"石神井公園ふるさと文化館分室","province":"東京都","city":"練馬区","address":"東京都練馬区石神井台1-33-44","lat":35.739385,"lon":139.594178},{"name":"旧内田家住宅","province":"東京都","city":"練馬区","address":"東京都練馬区石神井町5-13","lat":35.737672,"lon":139.600303},{"name":"稲荷山図書館　昆虫コーナー","province":"東京都","city":"練馬区","address":"東京都練馬区大泉町1-3-18","lat":35.76535,"lon":139.609184},{"name":"練馬文化センター","province":"東京都","city":"練馬区","address":"東京都練馬区練馬1-17-37","lat":35.739169,"lon":139.653962},{"name":"練馬区立美術館","province":"東京都","city":"練馬区","address":"東京都練馬区貫井1-36-16","lat":35.737047,"lon":139.636048},{"name":"大泉学園ゆめりあホール","province":"東京都","city":"練馬区","address":"東京都練馬区東大泉1-29-1","lat":35.75024,"lon":139.58571},{"name":"清水山の森","province":"東京都","city":"練馬区","address":"東京都練馬区大泉町1-6","lat":35.765734,"lon":139.608193},{"name":"稲荷山憩いの森","province":"東京都","city":"練馬区","address":"東京都練馬区土支田4-14","lat":35.765769,"lon":139.610399},{"name":"練馬区役所","province":"東京都","city":"練馬区","address":"練馬区豊玉北6-12-1","lat":35.73578858,"lon":139.6515339},{"name":"石神井庁舎","province":"東京都","city":"練馬区","address":"練馬区石神井町3-30-26","lat":35.7434728,"lon":139.6025527},{"name":"(株)古川商店","province":"東京都","city":"練馬区","address":"練馬区土支田2-3-1","lat":35.758732,"lon":139.613678},{"name":"(株)市川商店","province":"東京都","city":"練馬区","address":"練馬区早宮3-12-18","lat":35.750492,"lon":139.652649},{"name":"巴山龍雄","province":"東京都","city":"練馬区","address":"練馬区豊玉中3-23-13","lat":35.733234,"lon":139.653061},{"name":"(有)武田商会","province":"東京都","city":"練馬区","address":"練馬区西大泉町1-21-2","lat":35.763412,"lon":139.566986},{"name":"紙材開発(株)","province":"東京都","city":"練馬区","address":"練馬区高野台2-4-12","lat":35.747242,"lon":139.622116},{"name":"練馬区選挙管理委員会","province":"東京都","city":"練馬区","address":"練馬区豊玉北6-12-1","lat":35.735671,"lon":139.651705},{"name":"練馬区本庁舎","province":"東京都","city":"練馬区","address":"練馬区豊玉北6-12-1","lat":35.735573,"lon":139.651671},{"name":"石神井警察署","province":"東京都","city":"練馬区","address":"練馬区石神井町6-17-26","lat":35.742302,"lon":139.59899},{"name":"練馬警察署","province":"東京都","city":"練馬区","address":"練馬区豊玉北5-2-7","lat":35.73691,"lon":139.6558},{"name":"光が丘警察署","province":"東京都","city":"練馬区","address":"練馬区光が丘2-9-8","lat":35.75941,"lon":139.6312},{"name":"第十消防方面本部","province":"東京都","city":"練馬区","address":"練馬区北町3-10","lat":35.76853,"lon":139.6541},{"name":"石神井消防署","province":"東京都","city":"練馬区","address":"練馬区下石神井5-16-8","lat":35.72961,"lon":139.5999},{"name":"練馬消防署","province":"東京都","city":"練馬区","address":"練馬区豊玉中3-9-11","lat":35.73022,"lon":139.6561},{"name":"光が丘消防署","province":"東京都","city":"練馬区","address":"練馬区光が丘2-9-1","lat":35.75896,"lon":139.6312},{"name":"都立光が丘公園陸上競技場","province":"東京都","city":"練馬区","address":"練馬区光が丘地内","lat":35.75909,"lon":139.6305},{"name":"練馬清掃工場","province":"東京都","city":"練馬区","address":"練馬区谷原6-10-11","lat":35.7564,"lon":139.6087},{"name":"光が丘清掃工場","province":"東京都","city":"練馬区","address":"練馬区光が丘5-3-1","lat":35.76149,"lon":139.6282},{"name":"都立光が丘公園競技場","province":"東京都","city":"練馬区","address":"練馬区光が丘4丁目","lat":35.76374,"lon":139.6298},{"name":"都立城北中央公園陸上競技場","province":"東京都","city":"練馬区","address":"練馬区氷川台1-3-1","lat":35.75662,"lon":139.6729},{"name":"高野台運動場","province":"東京都","city":"練馬区","address":"練馬区高野台3-8-8","lat":35.7439,"lon":139.612},{"name":"練馬区練馬子ども家庭支援センター","province":"東京都","city":"練馬区","address":"練馬区豊玉北6-12-1練馬区役所東庁舎4階","lat":35.735573,"lon":139.651671},{"name":"練馬区保健所（生活衛生課）","province":"東京都","city":"練馬区","address":"練馬区豊玉北6-12-1","lat":35.735573,"lon":139.651671},{"name":"練馬区保健所（保健予防課）","province":"東京都","city":"練馬区","address":"練馬区豊玉北6-12-1","lat":35.735573,"lon":139.651671},{"name":"豊玉保健相談所","province":"東京都","city":"練馬区","address":"練馬区豊玉北5-15-19","lat":35.736014,"lon":139.654851},{"name":"北保健相談所","province":"東京都","city":"練馬区","address":"練馬区北町8-2-11","lat":35.763961,"lon":139.651376},{"name":"光が丘保健相談所","province":"東京都","city":"練馬区","address":"練馬区光が丘2-9-6","lat":35.759486,"lon":139.629589},{"name":"石神井保健相談所","province":"東京都","city":"練馬区","address":"練馬区石神井町7-3-28","lat":35.74452,"lon":139.601328},{"name":"大泉保健相談所","province":"東京都","city":"練馬区","address":"練馬区大泉学園町5-8-8","lat":35.767045,"lon":139.586631},{"name":"関保健相談所","province":"東京都","city":"練馬区","address":"練馬区関町東1-27-4","lat":35.726538,"lon":139.5813},{"name":"練馬区","province":"東京都","city":"練馬区","address":"練馬区豊玉北6-12-1","lat":35.7355733,"lon":139.6516714},{"name":"石神井公園","province":"東京都","city":"練馬区","address":"東京都練馬区石神井町5丁目17","lat":35.738778,"lon":139.602955},{"name":"石神井公園","province":"東京都","city":"練馬区","address":"東京都練馬区石神井町5丁目24","lat":35.737791,"lon":139.599169},{"name":"石神井公園","province":"東京都","city":"練馬区","address":"東京都練馬区石神井台1丁目26","lat":35.738776,"lon":139.596424},{"name":"石神井公園","province":"東京都","city":"練馬区","address":"東京都練馬区石神井町5丁目21","lat":35.739398,"lon":139.601502},{"name":"石神井公園","province":"東京都","city":"練馬区","address":"東京都練馬区石神井町5丁目21","lat":35.739153,"lon":139.605055},{"name":"石神井公園","province":"東京都","city":"練馬区","address":"東京都練馬区石神井台1丁目26","lat":35.738483,"lon":139.597315},{"name":"石神井公園","province":"東京都","city":"練馬区","address":"東京都練馬区石神井町5丁目17","lat":35.737512,"lon":139.602991},{"name":"大泉中央公園","province":"東京都","city":"練馬区","address":"東京都練馬区大泉学園町9丁目4","lat":35.774911,"lon":139.597476},{"name":"城北中央公園","province":"東京都","city":"練馬区","address":"東京都練馬区羽沢3丁目21","lat":35.752016,"lon":139.672321},{"name":"光が丘公園","province":"東京都","city":"練馬区","address":"東京都練馬区光が丘4丁目1","lat":35.767845,"lon":139.634455},{"name":"光が丘公園","province":"東京都","city":"練馬区","address":"東京都練馬区光が丘4丁目1","lat":35.763382,"lon":139.628161},{"name":"光が丘公園","province":"東京都","city":"練馬区","address":"東京都練馬区光が丘4丁目1","lat":35.767515,"lon":139.626661},{"name":"光が丘公園","province":"東京都","city":"練馬区","address":"東京都練馬区光が丘4丁目1","lat":35.768989,"lon":139.626675},{"name":"光が丘公園","province":"東京都","city":"練馬区","address":"東京都練馬区光が丘4丁目1","lat":35.767559,"lon":139.629614},{"name":"光が丘公園","province":"東京都","city":"練馬区","address":"東京都練馬区光が丘4丁目1","lat":35.76767,"lon":139.632076},{"name":"光が丘公園","province":"東京都","city":"練馬区","address":"東京都練馬区光が丘4丁目1","lat":35.765392,"lon":139.630802},{"name":"光が丘公園","province":"東京都","city":"練馬区","address":"東京都練馬区光が丘4丁目1","lat":35.764528,"lon":139.631164},{"name":"光が丘公園","province":"東京都","city":"練馬区","address":"東京都練馬区光が丘4丁目1","lat":35.765172,"lon":139.630127},{"name":"光が丘公園","province":"東京都","city":"練馬区","address":"東京都練馬区光が丘4丁目1","lat":35.766547,"lon":139.634771},{"name":"練馬城址公園","province":"東京都","city":"練馬区","address":"東京都練馬区春日町1丁目1","lat":35.746499,"lon":139.642148},{"name":"都営大江戸線練馬春日町駅","province":"東京都","city":"練馬区","address":"東京都練馬区春日町3丁目35","lat":35.751495,"lon":139.640128},{"name":"都営大江戸線練馬駅","province":"東京都","city":"練馬区","address":"東京都練馬区豊玉北5丁目17","lat":35.737387,"lon":139.654943},{"name":"都営大江戸線豊島園駅","province":"東京都","city":"練馬区","address":"東京都練馬区練馬4丁目26","lat":35.741666,"lon":139.649137},{"name":"都営大江戸線光が丘駅","province":"東京都","city":"練馬区","address":"東京都練馬区光が丘3丁目10","lat":35.758534,"lon":139.629104},{"name":"東京都水道局北部支所","province":"東京都","city":"練馬区","address":"東京都練馬区中村北1丁目9-4","lat":35.734692,"lon":139.647658},{"name":"練馬消防署","province":"東京都","city":"練馬区","address":"東京都練馬区豊玉北5丁目1-8","lat":35.737427,"lon":139.655935},{"name":"光が丘消防署北町出張所","province":"東京都","city":"練馬区","address":"東京都練馬区北町3丁目10-14","lat":35.768523,"lon":139.65372},{"name":"石神井消防署石神井公園出張所","province":"東京都","city":"練馬区","address":"東京都練馬区石神井町2丁目16-1","lat":35.745472,"lon":139.607725},{"name":"北保健相談所","province":"東京都","city":"練馬区","address":"東京都練馬区北町6丁目35-7","lat":35.757169,"lon":139.649561},{"name":"やすらぎシティ地域包括支援センター","province":"東京都","city":"練馬区","address":"練馬区東大泉7-27-49","lat":35.74401,"lon":139.5804683},{"name":"練馬区保健所（生活衛生課）","province":"東京都","city":"練馬区","address":"東京都練馬区豊玉北6丁目12-1","lat":35.73558101,"lon":139.65167678},{"name":"練馬区保健所（保健予防課）","province":"東京都","city":"練馬区","address":"東京都練馬区豊玉北6丁目12-1","lat":35.73558101,"lon":139.65167678},{"name":"豊玉保健相談所","province":"東京都","city":"練馬区","address":"東京都練馬区豊玉北5丁目15-19","lat":35.73594216,"lon":139.65492649},{"name":"北保健相談所","province":"東京都","city":"練馬区","address":"東京都練馬区北町6丁目35-7","lat":35.75720905,"lon":139.64949272},{"name":"光が丘保健相談所","province":"東京都","city":"練馬区","address":"東京都練馬区光が丘2丁目9-6","lat":35.75941388,"lon":139.62976375},{"name":"石神井保健相談所","province":"東京都","city":"練馬区","address":"東京都練馬区石神井町7丁目3-28","lat":35.74453977,"lon":139.60134731},{"name":"大泉保健相談所","province":"東京都","city":"練馬区","address":"東京都練馬区大泉学園町5丁目8-8","lat":35.76707824,"lon":139.58662845},{"name":"関保健相談所","province":"東京都","city":"練馬区","address":"東京都練馬区関町東1丁目27-4","lat":35.72653849,"lon":139.58129968},{"name":"練馬区保健所（生活衛生課）","province":"東京都","city":"練馬区","address":"練馬区豊玉北6-12-1","lat":35.73571,"lon":139.65167},{"name":"練馬区保健所（保健予防課）","province":"東京都","city":"練馬区","address":"練馬区豊玉北6-12-1","lat":35.73571,"lon":139.65167},{"name":"豊玉保健相談所","province":"東京都","city":"練馬区","address":"練馬区豊玉北5-15-19","lat":35.73619,"lon":139.65497},{"name":"北保健相談所","province":"東京都","city":"練馬区","address":"練馬区北町6-35-7","lat":35.7577,"lon":139.64937},{"name":"光が丘保健相談所","province":"東京都","city":"練馬区","address":"練馬区光が丘2-9-6","lat":35.75914,"lon":139.63036},{"name":"石神井保健相談所","province":"東京都","city":"練馬区","address":"練馬区石神井町7-3-28","lat":35.7443,"lon":139.60115},{"name":"大泉保健相談所","province":"東京都","city":"練馬区","address":"練馬区大泉学園町5-8-8","lat":35.76731,"lon":139.58688},{"name":"関保健相談所","province":"東京都","city":"練馬区","address":"練馬区関町東1-27-4","lat":35.72668,"lon":139.58139},{"name":"練馬区子ども家庭支援センター","province":"東京都","city":"練馬区","address":"練馬区豊玉北5-28-3","lat":35.73506,"lon":139.65346},{"name":"練馬区子ども家庭支援センター（練馬庁舎）","province":"東京都","city":"練馬区","address":"練馬区豊玉北6-12-1練馬区役所東庁舎4階","lat":35.735573,"lon":139.651671},{"name":"練馬区練馬子ども家庭支援センター","province":"東京都","city":"練馬区","address":"練馬区豊玉北5-28-3","lat":35.73506,"lon":139.65346},{"name":"関保健相談所","province":"東京都","city":"練馬区","address":"練馬区関町東1-27-4","lat":35.72669,"lon":139.58139},{"name":"北保健相談所","province":"東京都","city":"練馬区","address":"練馬区北町8-2-11","lat":35.76413,"lon":139.65102},{"name":"練馬区練馬子ども家庭支援センター（練馬庁舎）","province":"東京都","city":"練馬区","address":"練馬区豊玉北5-28-3","lat":35.73506,"lon":139.65346},{"name":"産業・観光情報コーナー","province":"東京都","city":"練馬区","address":"東京都練馬区練馬1-17-1","lat":35.738248,"lon":139.65336},{"name":"石神井観光案内所","province":"東京都","city":"練馬区","address":"東京都練馬区石神井町3-23-8","lat":35.743631,"lon":139.606268},{"name":"都立石神井公園","province":"東京都","city":"練馬区","address":"東京都練馬区石神井町5-1087-11ほか","lat":35.738382,"lon":139.598103},{"name":"都立光が丘公園","province":"東京都","city":"練馬区","address":"東京都練馬区光が丘4-25-2","lat":35.766383,"lon":139.629486},{"name":"牧野記念庭園","province":"東京都","city":"練馬区","address":"東京都練馬区東大泉6-34-4","lat":35.746344,"lon":139.585551},{"name":"四季の香ローズガーデン","province":"東京都","city":"練馬区","address":"東京都練馬区光が丘5-2-6","lat":35.760772,"lon":139.625751},{"name":"土支田農業公園","province":"東京都","city":"練馬区","address":"東京都練馬区土支田3-34-26","lat":35.760586,"lon":139.609566},{"name":"こどもの森","province":"東京都","city":"練馬区","address":"東京都練馬区羽沢2-32-7","lat":35.748792,"lon":139.672507},{"name":"中里郷土の森","province":"東京都","city":"練馬区","address":"東京都練馬区大泉町1-51-2","lat":35.769186,"lon":139.604088},{"name":"石神井松の風文化公園","province":"東京都","city":"練馬区","address":"東京都練馬区石神井台1-33-44","lat":35.739351,"lon":139.594103},{"name":"都立城北中央公園","province":"東京都","city":"練馬区","address":"東京都練馬区羽沢3-15-13ほか","lat":35.75593,"lon":139.67404},{"name":"都立大泉中央公園","province":"東京都","city":"練馬区","address":"東京都練馬区大泉学園町9-538-17","lat":35.775157,"lon":139.598236},{"name":"大泉交通公園","province":"東京都","city":"練馬区","address":"東京都練馬区南大泉6-16-1","lat":35.753451,"lon":139.572246},{"name":"平成つつじ公園","province":"東京都","city":"練馬区","address":"東京都練馬区練馬1-17-6","lat":35.738805,"lon":139.6535},{"name":"向山庭園","province":"東京都","city":"練馬区","address":"東京都練馬区向山3-1-21","lat":35.742124,"lon":139.64673},{"name":"田柄梅林公園","province":"東京都","city":"練馬区","address":"東京都練馬区田柄5-5-2","lat":35.755203,"lon":139.632582},{"name":"武蔵関公園","province":"東京都","city":"練馬区","address":"東京都練馬区関町北3-45-1","lat":35.727666,"lon":139.567786},{"name":"石神井公園ふるさと文化館","province":"東京都","city":"練馬区","address":"東京都練馬区石神井町5-12-16","lat":35.737444,"lon":139.599429},{"name":"石神井公園ふるさと文化館分室","province":"東京都","city":"練馬区","address":"東京都練馬区石神井台1-33-44","lat":35.739385,"lon":139.594178},{"name":"旧内田家住宅","province":"東京都","city":"練馬区","address":"東京都練馬区石神井町5-13","lat":35.737672,"lon":139.600303},{"name":"稲荷山図書館　昆虫コーナー","province":"東京都","city":"練馬区","address":"東京都練馬区大泉町1-3-18","lat":35.76535,"lon":139.609184},{"name":"練馬文化センター","province":"東京都","city":"練馬区","address":"東京都練馬区練馬1-17-37","lat":35.739169,"lon":139.653962},{"name":"練馬区立美術館","province":"東京都","city":"練馬区","address":"東京都練馬区貫井1-36-16","lat":35.737047,"lon":139.636048},{"name":"大泉学園ゆめりあホール","province":"東京都","city":"練馬区","address":"東京都練馬区東大泉1-29-1","lat":35.75024,"lon":139.58571},{"name":"清水山の森","province":"東京都","city":"練馬区","address":"東京都練馬区大泉町1-6","lat":35.765734,"lon":139.608193},{"name":"稲荷山憩いの森","province":"東京都","city":"練馬区","address":"東京都練馬区土支田4-14","lat":35.765769,"lon":139.610399},{"name":"練馬区役所","province":"東京都","city":"練馬区","address":"練馬区豊玉北6-12-1","lat":35.73578858,"lon":139.6515339},{"name":"石神井庁舎","province":"東京都","city":"練馬区","address":"練馬区石神井町3-30-26","lat":35.7434728,"lon":139.6025527},{"name":"(株)古川商店","province":"東京都","city":"練馬区","address":"練馬区土支田2-3-1","lat":35.758732,"lon":139.613678},{"name":"(株)市川商店","province":"東京都","city":"練馬区","address":"練馬区早宮3-12-18","lat":35.750492,"lon":139.652649},{"name":"巴山龍雄","province":"東京都","city":"練馬区","address":"練馬区豊玉中3-23-13","lat":35.733234,"lon":139.653061},{"name":"(有)武田商会","province":"東京都","city":"練馬区","address":"練馬区西大泉町1-21-2","lat":35.763412,"lon":139.566986},{"name":"紙材開発(株)","province":"東京都","city":"練馬区","address":"練馬区高野台2-4-12","lat":35.747242,"lon":139.622116},{"name":"練馬区選挙管理委員会","province":"東京都","city":"練馬区","address":"練馬区豊玉北6-12-1","lat":35.735671,"lon":139.651705},{"name":"練馬区練馬子ども家庭支援センター","province":"東京都","city":"練馬区","address":"練馬区豊玉北6-12-1練馬区役所東庁舎4階","lat":35.735573,"lon":139.651671},{"name":"練馬区保健所（生活衛生課）","province":"東京都","city":"練馬区","address":"練馬区豊玉北6-12-1","lat":35.735573,"lon":139.651671},{"name":"練馬区保健所（保健予防課）","province":"東京都","city":"練馬区","address":"練馬区豊玉北6-12-1","lat":35.735573,"lon":139.651671},{"name":"豊玉保健相談所","province":"東京都","city":"練馬区","address":"練馬区豊玉北5-15-19","lat":35.736014,"lon":139.654851},{"name":"北保健相談所","province":"東京都","city":"練馬区","address":"練馬区北町8-2-11","lat":35.763961,"lon":139.651376},{"name":"光が丘保健相談所","province":"東京都","city":"練馬区","address":"練馬区光が丘2-9-6","lat":35.759486,"lon":139.629589},{"name":"石神井保健相談所","province":"東京都","city":"練馬区","address":"練馬区石神井町7-3-28","lat":35.74452,"lon":139.601328},{"name":"大泉保健相談所","province":"東京都","city":"練馬区","address":"練馬区大泉学園町5-8-8","lat":35.767045,"lon":139.586631},{"name":"関保健相談所","province":"東京都","city":"練馬区","address":"練馬区関町東1-27-4","lat":35.726538,"lon":139.5813},{"name":"練馬区","province":"東京都","city":"練馬区","address":"練馬区豊玉北6-12-1","lat":35.7355733,"lon":139.6516714},{"name":"やすらぎシティ地域包括支援センター","province":"東京都","city":"練馬区","address":"練馬区東大泉7-27-49","lat":35.74401,"lon":139.5804683},{"name":"練馬区保健所（生活衛生課）","province":"東京都","city":"練馬区","address":"東京都練馬区豊玉北6丁目12-1","lat":35.73558101,"lon":139.65167678},{"name":"練馬区保健所（保健予防課）","province":"東京都","city":"練馬区","address":"東京都練馬区豊玉北6丁目12-1","lat":35.73558101,"lon":139.65167678},{"name":"豊玉保健相談所","province":"東京都","city":"練馬区","address":"東京都練馬区豊玉北5丁目15-19","lat":35.73594216,"lon":139.65492649},{"name":"北保健相談所","province":"東京都","city":"練馬区","address":"東京都練馬区北町6丁目35-7","lat":35.75720905,"lon":139.64949272},{"name":"光が丘保健相談所","province":"東京都","city":"練馬区","address":"東京都練馬区光が丘2丁目9-6","lat":35.75941388,"lon":139.62976375},{"name":"石神井保健相談所","province":"東京都","city":"練馬区","address":"東京都練馬区石神井町7丁目3-28","lat":35.74453977,"lon":139.60134731},{"name":"大泉保健相談所","province":"東京都","city":"練馬区","address":"東京都練馬区大泉学園町5丁目8-8","lat":35.76707824,"lon":139.58662845},{"name":"関保健相談所","province":"東京都","city":"練馬区","address":"東京都練馬区関町東1丁目27-4","lat":35.72653849,"lon":139.58129968},{"name":"練馬区保健所（生活衛生課）","province":"東京都","city":"練馬区","address":"練馬区豊玉北6-12-1","lat":35.73571,"lon":139.65167},{"name":"練馬区保健所（保健予防課）","province":"東京都","city":"練馬区","address":"練馬区豊玉北6-12-1","lat":35.73571,"lon":139.65167},{"name":"豊玉保健相談所","province":"東京都","city":"練馬区","address":"練馬区豊玉北5-15-19","lat":35.73619,"lon":139.65497},{"name":"北保健相談所","province":"東京都","city":"練馬区","address":"練馬区北町6-35-7","lat":35.7577,"lon":139.64937},{"name":"光が丘保健相談所","province":"東京都","city":"練馬区","address":"練馬区光が丘2-9-6","lat":35.75914,"lon":139.63036},{"name":"石神井保健相談所","province":"東京都","city":"練馬区","address":"練馬区石神井町7-3-28","lat":35.7443,"lon":139.60115},{"name":"大泉保健相談所","province":"東京都","city":"練馬区","address":"練馬区大泉学園町5-8-8","lat":35.76731,"lon":139.58688},{"name":"関保健相談所","province":"東京都","city":"練馬区","address":"練馬区関町東1-27-4","lat":35.72668,"lon":139.58139},{"name":"練馬区子ども家庭支援センター","province":"東京都","city":"練馬区","address":"練馬区豊玉北5-28-3","lat":35.73506,"lon":139.65346},{"name":"練馬区子ども家庭支援センター（練馬庁舎）","province":"東京都","city":"練馬区","address":"練馬区豊玉北6-12-1練馬区役所東庁舎4階","lat":35.735573,"lon":139.651671},{"name":"練馬区練馬子ども家庭支援センター","province":"東京都","city":"練馬区","address":"練馬区豊玉北5-28-3","lat":35.73506,"lon":139.65346},{"name":"関保健相談所","province":"東京都","city":"練馬区","address":"練馬区関町東1-27-4","lat":35.72669,"lon":139.58139},{"name":"北保健相談所","province":"東京都","city":"練馬区","address":"練馬区北町8-2-11","lat":35.76413,"lon":139.65102},{"name":"練馬区練馬子ども家庭支援センター（練馬庁舎）","province":"東京都","city":"練馬区","address":"練馬区豊玉北5-28-3","lat":35.73506,"lon":139.65346},{"name":"産業・観光情報コーナー","province":"東京都","city":"練馬区","address":"東京都練馬区練馬1-17-1","lat":35.738248,"lon":139.65336},{"name":"石神井観光案内所","province":"東京都","city":"練馬区","address":"東京都練馬区石神井町3-23-8","lat":35.743631,"lon":139.606268},{"name":"都立石神井公園","province":"東京都","city":"練馬区","address":"東京都練馬区石神井町5-1087-11ほか","lat":35.738382,"lon":139.598103},{"name":"都立光が丘公園","province":"東京都","city":"練馬区","address":"東京都練馬区光が丘4-25-2","lat":35.766383,"lon":139.629486},{"name":"牧野記念庭園","province":"東京都","city":"練馬区","address":"東京都練馬区東大泉6-34-4","lat":35.746344,"lon":139.585551},{"name":"四季の香ローズガーデン","province":"東京都","city":"練馬区","address":"東京都練馬区光が丘5-2-6","lat":35.760772,"lon":139.625751},{"name":"土支田農業公園","province":"東京都","city":"練馬区","address":"東京都練馬区土支田3-34-26","lat":35.760586,"lon":139.609566},{"name":"こどもの森","province":"東京都","city":"練馬区","address":"東京都練馬区羽沢2-32-7","lat":35.748792,"lon":139.672507},{"name":"中里郷土の森","province":"東京都","city":"練馬区","address":"東京都練馬区大泉町1-51-2","lat":35.769186,"lon":139.604088},{"name":"石神井松の風文化公園","province":"東京都","city":"練馬区","address":"東京都練馬区石神井台1-33-44","lat":35.739351,"lon":139.594103},{"name":"都立城北中央公園","province":"東京都","city":"練馬区","address":"東京都練馬区羽沢3-15-13ほか","lat":35.75593,"lon":139.67404},{"name":"都立大泉中央公園","province":"東京都","city":"練馬区","address":"東京都練馬区大泉学園町9-538-17","lat":35.775157,"lon":139.598236},{"name":"大泉交通公園","province":"東京都","city":"練馬区","address":"東京都練馬区南大泉6-16-1","lat":35.753451,"lon":139.572246},{"name":"平成つつじ公園","province":"東京都","city":"練馬区","address":"東京都練馬区練馬1-17-6","lat":35.738805,"lon":139.6535},{"name":"向山庭園","province":"東京都","city":"練馬区","address":"東京都練馬区向山3-1-21","lat":35.742124,"lon":139.64673},{"name":"田柄梅林公園","province":"東京都","city":"練馬区","address":"東京都練馬区田柄5-5-2","lat":35.755203,"lon":139.632582},{"name":"武蔵関公園","province":"東京都","city":"練馬区","address":"東京都練馬区関町北3-45-1","lat":35.727666,"lon":139.567786},{"name":"石神井公園ふるさと文化館","province":"東京都","city":"練馬区","address":"東京都練馬区石神井町5-12-16","lat":35.737444,"lon":139.599429},{"name":"石神井公園ふるさと文化館分室","province":"東京都","city":"練馬区","address":"東京都練馬区石神井台1-33-44","lat":35.739385,"lon":139.594178},{"name":"旧内田家住宅","province":"東京都","city":"練馬区","address":"東京都練馬区石神井町5-13","lat":35.737672,"lon":139.600303},{"name":"稲荷山図書館　昆虫コーナー","province":"東京都","city":"練馬区","address":"東京都練馬区大泉町1-3-18","lat":35.76535,"lon":139.609184},{"name":"練馬文化センター","province":"東京都","city":"練馬区","address":"東京都練馬区練馬1-17-37","lat":35.739169,"lon":139.653962},{"name":"練馬区立美術館","province":"東京都","city":"練馬区","address":"東京都練馬区貫井1-36-16","lat":35.737047,"lon":139.636048},{"name":"大泉学園ゆめりあホール","province":"東京都","city":"練馬区","address":"東京都練馬区東大泉1-29-1","lat":35.75024,"lon":139.58571},{"name":"清水山の森","province":"東京都","city":"練馬区","address":"東京都練馬区大泉町1-6","lat":35.765734,"lon":139.608193},{"name":"稲荷山憩いの森","province":"東京都","city":"練馬区","address":"東京都練馬区土支田4-14","lat":35.765769,"lon":139.610399},{"name":"練馬区役所","province":"東京都","city":"練馬区","address":"練馬区豊玉北6-12-1","lat":35.73578858,"lon":139.6515339},{"name":"石神井庁舎","province":"東京都","city":"練馬区","address":"練馬区石神井町3-30-26","lat":35.7434728,"lon":139.6025527},{"name":"(株)古川商店","province":"東京都","city":"練馬区","address":"練馬区土支田2-3-1","lat":35.758732,"lon":139.613678},{"name":"(株)市川商店","province":"東京都","city":"練馬区","address":"練馬区早宮3-12-18","lat":35.750492,"lon":139.652649},{"name":"巴山龍雄","province":"東京都","city":"練馬区","address":"練馬区豊玉中3-23-13","lat":35.733234,"lon":139.653061},{"name":"(有)武田商会","province":"東京都","city":"練馬区","address":"練馬区西大泉町1-21-2","lat":35.763412,"lon":139.566986},{"name":"紙材開発(株)","province":"東京都","city":"練馬区","address":"練馬区高野台2-4-12","lat":35.747242,"lon":139.622116},{"name":"練馬区選挙管理委員会","province":"東京都","city":"練馬区","address":"練馬区豊玉北6-12-1","lat":35.735671,"lon":139.651705},{"name":"練馬区保健所（生活衛生課）","province":"東京都","city":"練馬区","address":"練馬区豊玉北6-12-1","lat":35.735573,"lon":139.651671},{"name":"練馬区保健所（保健予防課）","province":"東京都","city":"練馬区","address":"練馬区豊玉北6-12-1","lat":35.735573,"lon":139.651671},{"name":"豊玉保健相談所","province":"東京都","city":"練馬区","address":"練馬区豊玉北5-15-19","lat":35.736014,"lon":139.654851},{"name":"北保健相談所","province":"東京都","city":"練馬区","address":"練馬区北町8-2-11","lat":35.763961,"lon":139.651376},{"name":"光が丘保健相談所","province":"東京都","city":"練馬区","address":"練馬区光が丘2-9-6","lat":35.759486,"lon":139.629589},{"name":"石神井保健相談所","province":"東京都","city":"練馬区","address":"練馬区石神井町7-3-28","lat":35.74452,"lon":139.601328},{"name":"大泉保健相談所","province":"東京都","city":"練馬区","address":"練馬区大泉学園町5-8-8","lat":35.767045,"lon":139.586631},{"name":"関保健相談所","province":"東京都","city":"練馬区","address":"練馬区関町東1-27-4","lat":35.726538,"lon":139.5813},{"name":"練馬区","province":"東京都","city":"練馬区","address":"練馬区豊玉北6-12-1","lat":35.7355733,"lon":139.6516714},{"name":"やすらぎシティ地域包括支援センター","province":"東京都","city":"練馬区","address":"練馬区東大泉7-27-49","lat":35.74401,"lon":139.5804683},{"name":"練馬区保健所（生活衛生課）","province":"東京都","city":"練馬区","address":"東京都練馬区豊玉北6丁目12-1","lat":35.73558101,"lon":139.65167678},{"name":"練馬区保健所（保健予防課）","province":"東京都","city":"練馬区","address":"東京都練馬区豊玉北6丁目12-1","lat":35.73558101,"lon":139.65167678},{"name":"豊玉保健相談所","province":"東京都","city":"練馬区","address":"東京都練馬区豊玉北5丁目15-19","lat":35.73594216,"lon":139.65492649},{"name":"北保健相談所","province":"東京都","city":"練馬区","address":"東京都練馬区北町6丁目35-7","lat":35.75720905,"lon":139.64949272},{"name":"光が丘保健相談所","province":"東京都","city":"練馬区","address":"東京都練馬区光が丘2丁目9-6","lat":35.75941388,"lon":139.62976375},{"name":"石神井保健相談所","province":"東京都","city":"練馬区","address":"東京都練馬区石神井町7丁目3-28","lat":35.74453977,"lon":139.60134731},{"name":"大泉保健相談所","province":"東京都","city":"練馬区","address":"東京都練馬区大泉学園町5丁目8-8","lat":35.76707824,"lon":139.58662845},{"name":"関保健相談所","province":"東京都","city":"練馬区","address":"東京都練馬区関町東1丁目27-4","lat":35.72653849,"lon":139.58129968},{"name":"練馬区保健所（生活衛生課）","province":"東京都","city":"練馬区","address":"練馬区豊玉北6-12-1","lat":35.73571,"lon":139.65167},{"name":"練馬区保健所（保健予防課）","province":"東京都","city":"練馬区","address":"練馬区豊玉北6-12-1","lat":35.73571,"lon":139.65167},{"name":"豊玉保健相談所","province":"東京都","city":"練馬区","address":"練馬区豊玉北5-15-19","lat":35.73619,"lon":139.65497},{"name":"北保健相談所","province":"東京都","city":"練馬区","address":"練馬区北町6-35-7","lat":35.7577,"lon":139.64937},{"name":"光が丘保健相談所","province":"東京都","city":"練馬区","address":"練馬区光が丘2-9-6","lat":35.75914,"lon":139.63036},{"name":"石神井保健相談所","province":"東京都","city":"練馬区","address":"練馬区石神井町7-3-28","lat":35.7443,"lon":139.60115},{"name":"大泉保健相談所","province":"東京都","city":"練馬区","address":"練馬区大泉学園町5-8-8","lat":35.76731,"lon":139.58688},{"name":"関保健相談所","province":"東京都","city":"練馬区","address":"練馬区関町東1-27-4","lat":35.72668,"lon":139.58139},{"name":"関保健相談所","province":"東京都","city":"練馬区","address":"練馬区関町東1-27-4","lat":35.72669,"lon":139.58139},{"name":"北保健相談所","province":"東京都","city":"練馬区","address":"練馬区北町8-2-11","lat":35.76413,"lon":139.65102},{"name":"産業・観光情報コーナー","province":"東京都","city":"練馬区","address":"東京都練馬区練馬1-17-1","lat":35.738248,"lon":139.65336},{"name":"石神井観光案内所","province":"東京都","city":"練馬区","address":"東京都練馬区石神井町3-23-8","lat":35.743631,"lon":139.606268},{"name":"都立石神井公園","province":"東京都","city":"練馬区","address":"東京都練馬区石神井町5-1087-11ほか","lat":35.738382,"lon":139.598103},{"name":"都立光が丘公園","province":"東京都","city":"練馬区","address":"東京都練馬区光が丘4-25-2","lat":35.766383,"lon":139.629486},{"name":"牧野記念庭園","province":"東京都","city":"練馬区","address":"東京都練馬区東大泉6-34-4","lat":35.746344,"lon":139.585551},{"name":"四季の香ローズガーデン","province":"東京都","city":"練馬区","address":"東京都練馬区光が丘5-2-6","lat":35.760772,"lon":139.625751},{"name":"土支田農業公園","province":"東京都","city":"練馬区","address":"東京都練馬区土支田3-34-26","lat":35.760586,"lon":139.609566},{"name":"こどもの森","province":"東京都","city":"練馬区","address":"東京都練馬区羽沢2-32-7","lat":35.748792,"lon":139.672507},{"name":"中里郷土の森","province":"東京都","city":"練馬区","address":"東京都練馬区大泉町1-51-2","lat":35.769186,"lon":139.604088},{"name":"石神井松の風文化公園","province":"東京都","city":"練馬区","address":"東京都練馬区石神井台1-33-44","lat":35.739351,"lon":139.594103},{"name":"都立城北中央公園","province":"東京都","city":"練馬区","address":"東京都練馬区羽沢3-15-13ほか","lat":35.75593,"lon":139.67404},{"name":"都立大泉中央公園","province":"東京都","city":"練馬区","address":"東京都練馬区大泉学園町9-538-17","lat":35.775157,"lon":139.598236},{"name":"大泉交通公園","province":"東京都","city":"練馬区","address":"東京都練馬区南大泉6-16-1","lat":35.753451,"lon":139.572246},{"name":"平成つつじ公園","province":"東京都","city":"練馬区","address":"東京都練馬区練馬1-17-6","lat":35.738805,"lon":139.6535},{"name":"向山庭園","province":"東京都","city":"練馬区","address":"東京都練馬区向山3-1-21","lat":35.742124,"lon":139.64673},{"name":"田柄梅林公園","province":"東京都","city":"練馬区","address":"東京都練馬区田柄5-5-2","lat":35.755203,"lon":139.632582},{"name":"武蔵関公園","province":"東京都","city":"練馬区","address":"東京都練馬区関町北3-45-1","lat":35.727666,"lon":139.567786},{"name":"石神井公園ふるさと文化館","province":"東京都","city":"練馬区","address":"東京都練馬区石神井町5-12-16","lat":35.737444,"lon":139.599429},{"name":"石神井公園ふるさと文化館分室","province":"東京都","city":"練馬区","address":"東京都練馬区石神井台1-33-44","lat":35.739385,"lon":139.594178},{"name":"旧内田家住宅","province":"東京都","city":"練馬区","address":"東京都練馬区石神井町5-13","lat":35.737672,"lon":139.600303},{"name":"稲荷山図書館　昆虫コーナー","province":"東京都","city":"練馬区","address":"東京都練馬区大泉町1-3-18","lat":35.76535,"lon":139.609184},{"name":"練馬文化センター","province":"東京都","city":"練馬区","address":"東京都練馬区練馬1-17-37","lat":35.739169,"lon":139.653962},{"name":"練馬区立美術館","province":"東京都","city":"練馬区","address":"東京都練馬区貫井1-36-16","lat":35.737047,"lon":139.636048},{"name":"大泉学園ゆめりあホール","province":"東京都","city":"練馬区","address":"東京都練馬区東大泉1-29-1","lat":35.75024,"lon":139.58571},{"name":"清水山の森","province":"東京都","city":"練馬区","address":"東京都練馬区大泉町1-6","lat":35.765734,"lon":139.608193},{"name":"稲荷山憩いの森","province":"東京都","city":"練馬区","address":"東京都練馬区土支田4-14","lat":35.765769,"lon":139.610399},{"name":"練馬区役所","province":"東京都","city":"練馬区","address":"練馬区豊玉北6-12-1","lat":35.73578858,"lon":139.6515339},{"name":"石神井庁舎","province":"東京都","city":"練馬区","address":"練馬区石神井町3-30-26","lat":35.7434728,"lon":139.6025527},{"name":"(株)古川商店","province":"東京都","city":"練馬区","address":"練馬区土支田2-3-1","lat":35.758732,"lon":139.613678},{"name":"(株)市川商店","province":"東京都","city":"練馬区","address":"練馬区早宮3-12-18","lat":35.750492,"lon":139.652649},{"name":"巴山龍雄","province":"東京都","city":"練馬区","address":"練馬区豊玉中3-23-13","lat":35.733234,"lon":139.653061},{"name":"(有)武田商会","province":"東京都","city":"練馬区","address":"練馬区西大泉町1-21-2","lat":35.763412,"lon":139.566986},{"name":"紙材開発(株)","province":"東京都","city":"練馬区","address":"練馬区高野台2-4-12","lat":35.747242,"lon":139.622116},{"name":"練馬区選挙管理委員会","province":"東京都","city":"練馬区","address":"練馬区豊玉北6-12-1","lat":35.735671,"lon":139.651705},{"name":"練馬区保健所（生活衛生課）","province":"東京都","city":"練馬区","address":"練馬区豊玉北6-12-1","lat":35.735573,"lon":139.651671},{"name":"練馬区保健所（保健予防課）","province":"東京都","city":"練馬区","address":"練馬区豊玉北6-12-1","lat":35.735573,"lon":139.651671},{"name":"豊玉保健相談所","province":"東京都","city":"練馬区","address":"練馬区豊玉北5-15-19","lat":35.736014,"lon":139.654851},{"name":"北保健相談所","province":"東京都","city":"練馬区","address":"練馬区北町8-2-11","lat":35.763961,"lon":139.651376},{"name":"光が丘保健相談所","province":"東京都","city":"練馬区","address":"練馬区光が丘2-9-6","lat":35.759486,"lon":139.629589},{"name":"石神井保健相談所","province":"東京都","city":"練馬区","address":"練馬区石神井町7-3-28","lat":35.74452,"lon":139.601328},{"name":"大泉保健相談所","province":"東京都","city":"練馬区","address":"練馬区大泉学園町5-8-8","lat":35.767045,"lon":139.586631},{"name":"関保健相談所","province":"東京都","city":"練馬区","address":"練馬区関町東1-27-4","lat":35.726538,"lon":139.5813},{"name":"練馬区","province":"東京都","city":"練馬区","address":"練馬区豊玉北6-12-1","lat":35.7355733,"lon":139.6516714},{"name":"やすらぎシティ地域包括支援センター","province":"東京都","city":"練馬区","address":"練馬区東大泉7-27-49","lat":35.74401,"lon":139.5804683},{"name":"練馬区保健所（生活衛生課）","province":"東京都","city":"練馬区","address":"東京都練馬区豊玉北6丁目12-1","lat":35.73558101,"lon":139.65167678},{"name":"練馬区保健所（保健予防課）","province":"東京都","city":"練馬区","address":"東京都練馬区豊玉北6丁目12-1","lat":35.73558101,"lon":139.65167678},{"name":"豊玉保健相談所","province":"東京都","city":"練馬区","address":"東京都練馬区豊玉北5丁目15-19","lat":35.73594216,"lon":139.65492649},{"name":"北保健相談所","province":"東京都","city":"練馬区","address":"東京都練馬区北町6丁目35-7","lat":35.75720905,"lon":139.64949272},{"name":"光が丘保健相談所","province":"東京都","city":"練馬区","address":"東京都練馬区光が丘2丁目9-6","lat":35.75941388,"lon":139.62976375},{"name":"石神井保健相談所","province":"東京都","city":"練馬区","address":"東京都練馬区石神井町7丁目3-28","lat":35.74453977,"lon":139.60134731},{"name":"大泉保健相談所","province":"東京都","city":"練馬区","address":"東京都練馬区大泉学園町5丁目8-8","lat":35.76707824,"lon":139.58662845},{"name":"関保健相談所","province":"東京都","city":"練馬区","address":"東京都練馬区関町東1丁目27-4","lat":35.72653849,"lon":139.58129968},{"name":"練馬区保健所（生活衛生課）","province":"東京都","city":"練馬区","address":"練馬区豊玉北6-12-1","lat":35.73571,"lon":139.65167},{"name":"練馬区保健所（保健予防課）","province":"東京都","city":"練馬区","address":"練馬区豊玉北6-12-1","lat":35.73571,"lon":139.65167},{"name":"豊玉保健相談所","province":"東京都","city":"練馬区","address":"練馬区豊玉北5-15-19","lat":35.73619,"lon":139.65497},{"name":"北保健相談所","province":"東京都","city":"練馬区","address":"練馬区北町6-35-7","lat":35.7577,"lon":139.64937},{"name":"光が丘保健相談所","province":"東京都","city":"練馬区","address":"練馬区光が丘2-9-6","lat":35.75914,"lon":139.63036},{"name":"石神井保健相談所","province":"東京都","city":"練馬区","address":"練馬区石神井町7-3-28","lat":35.7443,"lon":139.60115},{"name":"大泉保健相談所","province":"東京都","city":"練馬区","address":"練馬区大泉学園町5-8-8","lat":35.76731,"lon":139.58688},{"name":"関保健相談所","province":"東京都","city":"練馬区","address":"練馬区関町東1-27-4","lat":35.72668,"lon":139.58139},{"name":"関保健相談所","province":"東京都","city":"練馬区","address":"練馬区関町東1-27-4","lat":35.72669,"lon":139.58139},{"name":"北保健相談所","province":"東京都","city":"練馬区","address":"練馬区北町8-2-11","lat":35.76413,"lon":139.65102},{"name":"産業・観光情報コーナー","province":"東京都","city":"練馬区","address":"東京都練馬区練馬1-17-1","lat":35.738248,"lon":139.65336},{"name":"石神井観光案内所","province":"東京都","city":"練馬区","address":"東京都練馬区石神井町3-23-8","lat":35.743631,"lon":139.606268},{"name":"都立石神井公園","province":"東京都","city":"練馬区","address":"東京都練馬区石神井町5-1087-11ほか","lat":35.738382,"lon":139.598103},{"name":"都立光が丘公園","province":"東京都","city":"練馬区","address":"東京都練馬区光が丘4-25-2","lat":35.766383,"lon":139.629486},{"name":"牧野記念庭園","province":"東京都","city":"練馬区","address":"東京都練馬区東大泉6-34-4","lat":35.746344,"lon":139.585551},{"name":"四季の香ローズガーデン","province":"東京都","city":"練馬区","address":"東京都練馬区光が丘5-2-6","lat":35.760772,"lon":139.625751},{"name":"土支田農業公園","province":"東京都","city":"練馬区","address":"東京都練馬区土支田3-34-26","lat":35.760586,"lon":139.609566},{"name":"こどもの森","province":"東京都","city":"練馬区","address":"東京都練馬区羽沢2-32-7","lat":35.748792,"lon":139.672507},{"name":"中里郷土の森","province":"東京都","city":"練馬区","address":"東京都練馬区大泉町1-51-2","lat":35.769186,"lon":139.604088},{"name":"石神井松の風文化公園","province":"東京都","city":"練馬区","address":"東京都練馬区石神井台1-33-44","lat":35.739351,"lon":139.594103},{"name":"都立城北中央公園","province":"東京都","city":"練馬区","address":"東京都練馬区羽沢3-15-13ほか","lat":35.75593,"lon":139.67404},{"name":"都立大泉中央公園","province":"東京都","city":"練馬区","address":"東京都練馬区大泉学園町9-538-17","lat":35.775157,"lon":139.598236},{"name":"大泉交通公園","province":"東京都","city":"練馬区","address":"東京都練馬区南大泉6-16-1","lat":35.753451,"lon":139.572246},{"name":"平成つつじ公園","province":"東京都","city":"練馬区","address":"東京都練馬区練馬1-17-6","lat":35.738805,"lon":139.6535},{"name":"向山庭園","province":"東京都","city":"練馬区","address":"東京都練馬区向山3-1-21","lat":35.742124,"lon":139.64673},{"name":"田柄梅林公園","province":"東京都","city":"練馬区","address":"東京都練馬区田柄5-5-2","lat":35.755203,"lon":139.632582},{"name":"武蔵関公園","province":"東京都","city":"練馬区","address":"東京都練馬区関町北3-45-1","lat":35.727666,"lon":139.567786},{"name":"石神井公園ふるさと文化館","province":"東京都","city":"練馬区","address":"東京都練馬区石神井町5-12-16","lat":35.737444,"lon":139.599429},{"name":"石神井公園ふるさと文化館分室","province":"東京都","city":"練馬区","address":"東京都練馬区石神井台1-33-44","lat":35.739385,"lon":139.594178},{"name":"旧内田家住宅","province":"東京都","city":"練馬区","address":"東京都練馬区石神井町5-13","lat":35.737672,"lon":139.600303},{"name":"稲荷山図書館　昆虫コーナー","province":"東京都","city":"練馬区","address":"東京都練馬区大泉町1-3-18","lat":35.76535,"lon":139.609184},{"name":"練馬文化センター","province":"東京都","city":"練馬区","address":"東京都練馬区練馬1-17-37","lat":35.739169,"lon":139.653962},{"name":"練馬区立美術館","province":"東京都","city":"練馬区","address":"東京都練馬区貫井1-36-16","lat":35.737047,"lon":139.636048},{"name":"大泉学園ゆめりあホール","province":"東京都","city":"練馬区","address":"東京都練馬区東大泉1-29-1","lat":35.75024,"lon":139.58571},{"name":"清水山の森","province":"東京都","city":"練馬区","address":"東京都練馬区大泉町1-6","lat":35.765734,"lon":139.608193},{"name":"稲荷山憩いの森","province":"東京都","city":"練馬区","address":"東京都練馬区土支田4-14","lat":35.765769,"lon":139.610399},{"name":"練馬区役所","province":"東京都","city":"練馬区","address":"練馬区豊玉北6-12-1","lat":35.73578858,"lon":139.6515339},{"name":"石神井庁舎","province":"東京都","city":"練馬区","address":"練馬区石神井町3-30-26","lat":35.7434728,"lon":139.6025527},{"name":"(株)古川商店","province":"東京都","city":"練馬区","address":"練馬区土支田2-3-1","lat":35.758732,"lon":139.613678},{"name":"(株)市川商店","province":"東京都","city":"練馬区","address":"練馬区早宮3-12-18","lat":35.750492,"lon":139.652649},{"name":"巴山龍雄","province":"東京都","city":"練馬区","address":"練馬区豊玉中3-23-13","lat":35.733234,"lon":139.653061},{"name":"(有)武田商会","province":"東京都","city":"練馬区","address":"練馬区西大泉町1-21-2","lat":35.763412,"lon":139.566986},{"name":"紙材開発(株)","province":"東京都","city":"練馬区","address":"練馬区高野台2-4-12","lat":35.747242,"lon":139.622116},{"name":"練馬区選挙管理委員会","province":"東京都","city":"練馬区","address":"練馬区豊玉北6-12-1","lat":35.735671,"lon":139.651705},{"name":"練馬区保健所（生活衛生課）","province":"東京都","city":"練馬区","address":"練馬区豊玉北6-12-1","lat":35.735573,"lon":139.651671},{"name":"練馬区保健所（保健予防課）","province":"東京都","city":"練馬区","address":"練馬区豊玉北6-12-1","lat":35.735573,"lon":139.651671},{"name":"豊玉保健相談所","province":"東京都","city":"練馬区","address":"練馬区豊玉北5-15-19","lat":35.736014,"lon":139.654851},{"name":"北保健相談所","province":"東京都","city":"練馬区","address":"練馬区北町8-2-11","lat":35.763961,"lon":139.651376},{"name":"光が丘保健相談所","province":"東京都","city":"練馬区","address":"練馬区光が丘2-9-6","lat":35.759486,"lon":139.629589},{"name":"石神井保健相談所","province":"東京都","city":"練馬区","address":"練馬区石神井町7-3-28","lat":35.74452,"lon":139.601328},{"name":"大泉保健相談所","province":"東京都","city":"練馬区","address":"練馬区大泉学園町5-8-8","lat":35.767045,"lon":139.586631},{"name":"関保健相談所","province":"東京都","city":"練馬区","address":"練馬区関町東1-27-4","lat":35.726538,"lon":139.5813},{"name":"練馬区","province":"東京都","city":"練馬区","address":"練馬区豊玉北6-12-1","lat":35.7355733,"lon":139.6516714},{"name":"やすらぎシティ地域包括支援センター","province":"東京都","city":"練馬区","address":"練馬区東大泉7-27-49","lat":35.74401,"lon":139.5804683},{"name":"練馬区保健所（生活衛生課）","province":"東京都","city":"練馬区","address":"東京都練馬区豊玉北6丁目12-1","lat":35.73558101,"lon":139.65167678},{"name":"練馬区保健所（保健予防課）","province":"東京都","city":"練馬区","address":"東京都練馬区豊玉北6丁目12-1","lat":35.73558101,"lon":139.65167678},{"name":"豊玉保健相談所","province":"東京都","city":"練馬区","address":"東京都練馬区豊玉北5丁目15-19","lat":35.73594216,"lon":139.65492649},{"name":"北保健相談所","province":"東京都","city":"練馬区","address":"東京都練馬区北町6丁目35-7","lat":35.75720905,"lon":139.64949272},{"name":"光が丘保健相談所","province":"東京都","city":"練馬区","address":"東京都練馬区光が丘2丁目9-6","lat":35.75941388,"lon":139.62976375},{"name":"石神井保健相談所","province":"東京都","city":"練馬区","address":"東京都練馬区石神井町7丁目3-28","lat":35.74453977,"lon":139.60134731},{"name":"大泉保健相談所","province":"東京都","city":"練馬区","address":"東京都練馬区大泉学園町5丁目8-8","lat":35.76707824,"lon":139.58662845},{"name":"関保健相談所","province":"東京都","city":"練馬区","address":"東京都練馬区関町東1丁目27-4","lat":35.72653849,"lon":139.58129968},{"name":"練馬区保健所（生活衛生課）","province":"東京都","city":"練馬区","address":"練馬区豊玉北6-12-1","lat":35.73571,"lon":139.65167},{"name":"練馬区保健所（保健予防課）","province":"東京都","city":"練馬区","address":"練馬区豊玉北6-12-1","lat":35.73571,"lon":139.65167},{"name":"豊玉保健相談所","province":"東京都","city":"練馬区","address":"練馬区豊玉北5-15-19","lat":35.73619,"lon":139.65497},{"name":"北保健相談所","province":"東京都","city":"練馬区","address":"練馬区北町6-35-7","lat":35.7577,"lon":139.64937},{"name":"光が丘保健相談所","province":"東京都","city":"練馬区","address":"練馬区光が丘2-9-6","lat":35.75914,"lon":139.63036},{"name":"石神井保健相談所","province":"東京都","city":"練馬区","address":"練馬区石神井町7-3-28","lat":35.7443,"lon":139.60115},{"name":"大泉保健相談所","province":"東京都","city":"練馬区","address":"練馬区大泉学園町5-8-8","lat":35.76731,"lon":139.58688},{"name":"関保健相談所","province":"東京都","city":"練馬区","address":"練馬区関町東1-27-4","lat":35.72668,"lon":139.58139},{"name":"関保健相談所","province":"東京都","city":"練馬区","address":"練馬区関町東1-27-4","lat":35.72669,"lon":139.58139},{"name":"北保健相談所","province":"東京都","city":"練馬区","address":"練馬区北町8-2-11","lat":35.76413,"lon":139.65102},{"name":"産業・観光情報コーナー","province":"東京都","city":"練馬区","address":"東京都練馬区練馬1-17-1","lat":35.738248,"lon":139.65336},{"name":"石神井観光案内所","province":"東京都","city":"練馬区","address":"東京都練馬区石神井町3-23-8","lat":35.743631,"lon":139.606268},{"name":"都立石神井公園","province":"東京都","city":"練馬区","address":"東京都練馬区石神井町5-1087-11ほか","lat":35.738382,"lon":139.598103},{"name":"都立光が丘公園","province":"東京都","city":"練馬区","address":"東京都練馬区光が丘4-25-2","lat":35.766383,"lon":139.629486},{"name":"牧野記念庭園","province":"東京都","city":"練馬区","address":"東京都練馬区東大泉6-34-4","lat":35.746344,"lon":139.585551},{"name":"四季の香ローズガーデン","province":"東京都","city":"練馬区","address":"東京都練馬区光が丘5-2-6","lat":35.760772,"lon":139.625751},{"name":"土支田農業公園","province":"東京都","city":"練馬区","address":"東京都練馬区土支田3-34-26","lat":35.760586,"lon":139.609566},{"name":"こどもの森","province":"東京都","city":"練馬区","address":"東京都練馬区羽沢2-32-7","lat":35.748792,"lon":139.672507},{"name":"中里郷土の森","province":"東京都","city":"練馬区","address":"東京都練馬区大泉町1-51-2","lat":35.769186,"lon":139.604088},{"name":"石神井松の風文化公園","province":"東京都","city":"練馬区","address":"東京都練馬区石神井台1-33-44","lat":35.739351,"lon":139.594103},{"name":"都立城北中央公園","province":"東京都","city":"練馬区","address":"東京都練馬区羽沢3-15-13ほか","lat":35.75593,"lon":139.67404},{"name":"都立大泉中央公園","province":"東京都","city":"練馬区","address":"東京都練馬区大泉学園町9-538-17","lat":35.775157,"lon":139.598236},{"name":"大泉交通公園","province":"東京都","city":"練馬区","address":"東京都練馬区南大泉6-16-1","lat":35.753451,"lon":139.572246},{"name":"平成つつじ公園","province":"東京都","city":"練馬区","address":"東京都練馬区練馬1-17-6","lat":35.738805,"lon":139.6535},{"name":"向山庭園","province":"東京都","city":"練馬区","address":"東京都練馬区向山3-1-21","lat":35.742124,"lon":139.64673},{"name":"田柄梅林公園","province":"東京都","city":"練馬区","address":"東京都練馬区田柄5-5-2","lat":35.755203,"lon":139.632582},{"name":"武蔵関公園","province":"東京都","city":"練馬区","address":"東京都練馬区関町北3-45-1","lat":35.727666,"lon":139.567786},{"name":"石神井公園ふるさと文化館","province":"東京都","city":"練馬区","address":"東京都練馬区石神井町5-12-16","lat":35.737444,"lon":139.599429},{"name":"石神井公園ふるさと文化館分室","province":"東京都","city":"練馬区","address":"東京都練馬区石神井台1-33-44","lat":35.739385,"lon":139.594178},{"name":"旧内田家住宅","province":"東京都","city":"練馬区","address":"東京都練馬区石神井町5-13","lat":35.737672,"lon":139.600303},{"name":"稲荷山図書館　昆虫コーナー","province":"東京都","city":"練馬区","address":"東京都練馬区大泉町1-3-18","lat":35.76535,"lon":139.609184},{"name":"練馬文化センター","province":"東京都","city":"練馬区","address":"東京都練馬区練馬1-17-37","lat":35.739169,"lon":139.653962},{"name":"練馬区立美術館","province":"東京都","city":"練馬区","address":"東京都練馬区貫井1-36-16","lat":35.737047,"lon":139.636048},{"name":"大泉学園ゆめりあホール","province":"東京都","city":"練馬区","address":"東京都練馬区東大泉1-29-1","lat":35.75024,"lon":139.58571},{"name":"清水山の森","province":"東京都","city":"練馬区","address":"東京都練馬区大泉町1-6","lat":35.765734,"lon":139.608193},{"name":"稲荷山憩いの森","province":"東京都","city":"練馬区","address":"東京都練馬区土支田4-14","lat":35.765769,"lon":139.610399},{"name":"練馬区役所","province":"東京都","city":"練馬区","address":"練馬区豊玉北6-12-1","lat":35.73578858,"lon":139.6515339},{"name":"石神井庁舎","province":"東京都","city":"練馬区","address":"練馬区石神井町3-30-26","lat":35.7434728,"lon":139.6025527},{"name":"(株)古川商店","province":"東京都","city":"練馬区","address":"練馬区土支田2-3-1","lat":35.758732,"lon":139.613678},{"name":"(株)市川商店","province":"東京都","city":"練馬区","address":"練馬区早宮3-12-18","lat":35.750492,"lon":139.652649},{"name":"巴山龍雄","province":"東京都","city":"練馬区","address":"練馬区豊玉中3-23-13","lat":35.733234,"lon":139.653061},{"name":"(有)武田商会","province":"東京都","city":"練馬区","address":"練馬区西大泉町1-21-2","lat":35.763412,"lon":139.566986},{"name":"紙材開発(株)","province":"東京都","city":"練馬区","address":"練馬区高野台2-4-12","lat":35.747242,"lon":139.622116},{"name":"練馬区選挙管理委員会","province":"東京都","city":"練馬区","address":"練馬区豊玉北6-12-1","lat":35.735671,"lon":139.651705},{"name":"練馬区保健所（生活衛生課）","province":"東京都","city":"練馬区","address":"練馬区豊玉北6-12-1","lat":35.735573,"lon":139.651671},{"name":"練馬区保健所（保健予防課）","province":"東京都","city":"練馬区","address":"練馬区豊玉北6-12-1","lat":35.735573,"lon":139.651671},{"name":"豊玉保健相談所","province":"東京都","city":"練馬区","address":"練馬区豊玉北5-15-19","lat":35.736014,"lon":139.654851},{"name":"北保健相談所","province":"東京都","city":"練馬区","address":"練馬区北町8-2-11","lat":35.763961,"lon":139.651376},{"name":"光が丘保健相談所","province":"東京都","city":"練馬区","address":"練馬区光が丘2-9-6","lat":35.759486,"lon":139.629589},{"name":"石神井保健相談所","province":"東京都","city":"練馬区","address":"練馬区石神井町7-3-28","lat":35.74452,"lon":139.601328},{"name":"大泉保健相談所","province":"東京都","city":"練馬区","address":"練馬区大泉学園町5-8-8","lat":35.767045,"lon":139.586631},{"name":"関保健相談所","province":"東京都","city":"練馬区","address":"練馬区関町東1-27-4","lat":35.726538,"lon":139.5813},{"name":"やすらぎシティ地域包括支援センター","province":"東京都","city":"練馬区","address":"練馬区東大泉7-27-49","lat":35.74401,"lon":139.5804683},{"name":"練馬区保健所（生活衛生課）","province":"東京都","city":"練馬区","address":"東京都練馬区豊玉北6丁目12-1","lat":35.73558101,"lon":139.65167678},{"name":"練馬区保健所（保健予防課）","province":"東京都","city":"練馬区","address":"東京都練馬区豊玉北6丁目12-1","lat":35.73558101,"lon":139.65167678},{"name":"豊玉保健相談所","province":"東京都","city":"練馬区","address":"東京都練馬区豊玉北5丁目15-19","lat":35.73594216,"lon":139.65492649},{"name":"北保健相談所","province":"東京都","city":"練馬区","address":"東京都練馬区北町6丁目35-7","lat":35.75720905,"lon":139.64949272},{"name":"光が丘保健相談所","province":"東京都","city":"練馬区","address":"東京都練馬区光が丘2丁目9-6","lat":35.75941388,"lon":139.62976375},{"name":"石神井保健相談所","province":"東京都","city":"練馬区","address":"東京都練馬区石神井町7丁目3-28","lat":35.74453977,"lon":139.60134731},{"name":"大泉保健相談所","province":"東京都","city":"練馬区","address":"東京都練馬区大泉学園町5丁目8-8","lat":35.76707824,"lon":139.58662845},{"name":"関保健相談所","province":"東京都","city":"練馬区","address":"東京都練馬区関町東1丁目27-4","lat":35.72653849,"lon":139.58129968},{"name":"練馬区保健所（生活衛生課）","province":"東京都","city":"練馬区","address":"練馬区豊玉北6-12-1","lat":35.73571,"lon":139.65167},{"name":"練馬区保健所（保健予防課）","province":"東京都","city":"練馬区","address":"練馬区豊玉北6-12-1","lat":35.73571,"lon":139.65167},{"name":"豊玉保健相談所","province":"東京都","city":"練馬区","address":"練馬区豊玉北5-15-19","lat":35.73619,"lon":139.65497},{"name":"北保健相談所","province":"東京都","city":"練馬区","address":"練馬区北町6-35-7","lat":35.7577,"lon":139.64937},{"name":"光が丘保健相談所","province":"東京都","city":"練馬区","address":"練馬区光が丘2-9-6","lat":35.75914,"lon":139.63036},{"name":"石神井保健相談所","province":"東京都","city":"練馬区","address":"練馬区石神井町7-3-28","lat":35.7443,"lon":139.60115},{"name":"大泉保健相談所","province":"東京都","city":"練馬区","address":"練馬区大泉学園町5-8-8","lat":35.76731,"lon":139.58688},{"name":"関保健相談所","province":"東京都","city":"練馬区","address":"練馬区関町東1-27-4","lat":35.72668,"lon":139.58139},{"name":"関保健相談所","province":"東京都","city":"練馬区","address":"練馬区関町東1-27-4","lat":35.72669,"lon":139.58139},{"name":"北保健相談所","province":"東京都","city":"練馬区","address":"練馬区北町8-2-11","lat":35.76413,"lon":139.65102},{"name":"(株)古川商店","province":"東京都","city":"練馬区","address":"練馬区土支田2-3-1","lat":35.758732,"lon":139.613678},{"name":"(株)市川商店","province":"東京都","city":"練馬区","address":"練馬区早宮3-12-18","lat":35.750492,"lon":139.652649},{"name":"巴山龍雄","province":"東京都","city":"練馬区","address":"練馬区豊玉中3-23-13","lat":35.733234,"lon":139.653061},{"name":"(有)武田商会","province":"東京都","city":"練馬区","address":"練馬区西大泉町1-21-2","lat":35.763412,"lon":139.566986},{"name":"紙材開発(株)","province":"東京都","city":"練馬区","address":"練馬区高野台2-4-12","lat":35.747242,"lon":139.622116},{"name":"練馬区選挙管理委員会","province":"東京都","city":"練馬区","address":"練馬区豊玉北6-12-1","lat":35.735671,"lon":139.651705},{"name":"練馬区保健所（生活衛生課）","province":"東京都","city":"練馬区","address":"練馬区豊玉北6-12-1","lat":35.735573,"lon":139.651671},{"name":"練馬区保健所（保健予防課）","province":"東京都","city":"練馬区","address":"練馬区豊玉北6-12-1","lat":35.735573,"lon":139.651671},{"name":"豊玉保健相談所","province":"東京都","city":"練馬区","address":"練馬区豊玉北5-15-19","lat":35.736014,"lon":139.654851},{"name":"北保健相談所","province":"東京都","city":"練馬区","address":"練馬区北町8-2-11","lat":35.763961,"lon":139.651376},{"name":"光が丘保健相談所","province":"東京都","city":"練馬区","address":"練馬区光が丘2-9-6","lat":35.759486,"lon":139.629589},{"name":"石神井保健相談所","province":"東京都","city":"練馬区","address":"練馬区石神井町7-3-28","lat":35.74452,"lon":139.601328},{"name":"大泉保健相談所","province":"東京都","city":"練馬区","address":"練馬区大泉学園町5-8-8","lat":35.767045,"lon":139.586631},{"name":"関保健相談所","province":"東京都","city":"練馬区","address":"練馬区関町東1-27-4","lat":35.726538,"lon":139.5813},{"name":"やすらぎシティ地域包括支援センター","province":"東京都","city":"練馬区","address":"練馬区東大泉7-27-49","lat":35.74401,"lon":139.5804683},{"name":"練馬区保健所（生活衛生課）","province":"東京都","city":"練馬区","address":"東京都練馬区豊玉北6丁目12-1","lat":35.73558101,"lon":139.65167678},{"name":"練馬区保健所（保健予防課）","province":"東京都","city":"練馬区","address":"東京都練馬区豊玉北6丁目12-1","lat":35.73558101,"lon":139.65167678},{"name":"豊玉保健相談所","province":"東京都","city":"練馬区","address":"東京都練馬区豊玉北5丁目15-19","lat":35.73594216,"lon":139.65492649},{"name":"北保健相談所","province":"東京都","city":"練馬区","address":"東京都練馬区北町6丁目35-7","lat":35.75720905,"lon":139.64949272},{"name":"光が丘保健相談所","province":"東京都","city":"練馬区","address":"東京都練馬区光が丘2丁目9-6","lat":35.75941388,"lon":139.62976375},{"name":"石神井保健相談所","province":"東京都","city":"練馬区","address":"東京都練馬区石神井町7丁目3-28","lat":35.74453977,"lon":139.60134731},{"name":"大泉保健相談所","province":"東京都","city":"練馬区","address":"東京都練馬区大泉学園町5丁目8-8","lat":35.76707824,"lon":139.58662845},{"name":"関保健相談所","province":"東京都","city":"練馬区","address":"東京都練馬区関町東1丁目27-4","lat":35.72653849,"lon":139.58129968},{"name":"練馬区保健所（生活衛生課）","province":"東京都","city":"練馬区","address":"練馬区豊玉北6-12-1","lat":35.73571,"lon":139.65167},{"name":"練馬区保健所（保健予防課）","province":"東京都","city":"練馬区","address":"練馬区豊玉北6-12-1","lat":35.73571,"lon":139.65167},{"name":"豊玉保健相談所","province":"東京都","city":"練馬区","address":"練馬区豊玉北5-15-19","lat":35.73619,"lon":139.65497},{"name":"北保健相談所","province":"東京都","city":"練馬区","address":"練馬区北町6-35-7","lat":35.7577,"lon":139.64937},{"name":"光が丘保健相談所","province":"東京都","city":"練馬区","address":"練馬区光が丘2-9-6","lat":35.75914,"lon":139.63036},{"name":"石神井保健相談所","province":"東京都","city":"練馬区","address":"練馬区石神井町7-3-28","lat":35.7443,"lon":139.60115},{"name":"大泉保健相談所","province":"東京都","city":"練馬区","address":"練馬区大泉学園町5-8-8","lat":35.76731,"lon":139.58688},{"name":"関保健相談所","province":"東京都","city":"練馬区","address":"練馬区関町東1-27-4","lat":35.72668,"lon":139.58139},{"name":"関保健相談所","province":"東京都","city":"練馬区","address":"練馬区関町東1-27-4","lat":35.72669,"lon":139.58139},{"name":"北保健相談所","province":"東京都","city":"練馬区","address":"練馬区北町8-2-11","lat":35.76413,"lon":139.65102},{"name":"練馬区選挙管理委員会","province":"東京都","city":"練馬区","address":"練馬区豊玉北6-12-1","lat":35.735671,"lon":139.651705},{"name":"練馬区保健所（生活衛生課）","province":"東京都","city":"練馬区","address":"練馬区豊玉北6-12-1","lat":35.735573,"lon":139.651671},{"name":"練馬区保健所（保健予防課）","province":"東京都","city":"練馬区","address":"練馬区豊玉北6-12-1","lat":35.735573,"lon":139.651671},{"name":"豊玉保健相談所","province":"東京都","city":"練馬区","address":"練馬区豊玉北5-15-19","lat":35.736014,"lon":139.654851},{"name":"北保健相談所","province":"東京都","city":"練馬区","address":"練馬区北町8-2-11","lat":35.763961,"lon":139.651376},{"name":"光が丘保健相談所","province":"東京都","city":"練馬区","address":"練馬区光が丘2-9-6","lat":35.759486,"lon":139.629589},{"name":"石神井保健相談所","province":"東京都","city":"練馬区","address":"練馬区石神井町7-3-28","lat":35.74452,"lon":139.601328},{"name":"大泉保健相談所","province":"東京都","city":"練馬区","address":"練馬区大泉学園町5-8-8","lat":35.767045,"lon":139.586631},{"name":"関保健相談所","province":"東京都","city":"練馬区","address":"練馬区関町東1-27-4","lat":35.726538,"lon":139.5813},{"name":"やすらぎシティ地域包括支援センター","province":"東京都","city":"練馬区","address":"練馬区東大泉7-27-49","lat":35.74401,"lon":139.5804683},{"name":"練馬区保健所（生活衛生課）","province":"東京都","city":"練馬区","address":"東京都練馬区豊玉北6丁目12-1","lat":35.73558101,"lon":139.65167678},{"name":"練馬区保健所（保健予防課）","province":"東京都","city":"練馬区","address":"東京都練馬区豊玉北6丁目12-1","lat":35.73558101,"lon":139.65167678},{"name":"豊玉保健相談所","province":"東京都","city":"練馬区","address":"東京都練馬区豊玉北5丁目15-19","lat":35.73594216,"lon":139.65492649},{"name":"北保健相談所","province":"東京都","city":"練馬区","address":"東京都練馬区北町6丁目35-7","lat":35.75720905,"lon":139.64949272},{"name":"光が丘保健相談所","province":"東京都","city":"練馬区","address":"東京都練馬区光が丘2丁目9-6","lat":35.75941388,"lon":139.62976375},{"name":"石神井保健相談所","province":"東京都","city":"練馬区","address":"東京都練馬区石神井町7丁目3-28","lat":35.74453977,"lon":139.60134731},{"name":"大泉保健相談所","province":"東京都","city":"練馬区","address":"東京都練馬区大泉学園町5丁目8-8","lat":35.76707824,"lon":139.58662845},{"name":"関保健相談所","province":"東京都","city":"練馬区","address":"東京都練馬区関町東1丁目27-4","lat":35.72653849,"lon":139.58129968},{"name":"練馬区保健所（生活衛生課）","province":"東京都","city":"練馬区","address":"練馬区豊玉北6-12-1","lat":35.73571,"lon":139.65167},{"name":"練馬区保健所（保健予防課）","province":"東京都","city":"練馬区","address":"練馬区豊玉北6-12-1","lat":35.73571,"lon":139.65167},{"name":"豊玉保健相談所","province":"東京都","city":"練馬区","address":"練馬区豊玉北5-15-19","lat":35.73619,"lon":139.65497},{"name":"北保健相談所","province":"東京都","city":"練馬区","address":"練馬区北町6-35-7","lat":35.7577,"lon":139.64937},{"name":"光が丘保健相談所","province":"東京都","city":"練馬区","address":"練馬区光が丘2-9-6","lat":35.75914,"lon":139.63036},{"name":"石神井保健相談所","province":"東京都","city":"練馬区","address":"練馬区石神井町7-3-28","lat":35.7443,"lon":139.60115},{"name":"大泉保健相談所","province":"東京都","city":"練馬区","address":"練馬区大泉学園町5-8-8","lat":35.76731,"lon":139.58688},{"name":"関保健相談所","province":"東京都","city":"練馬区","address":"練馬区関町東1-27-4","lat":35.72668,"lon":139.58139},{"name":"関保健相談所","province":"東京都","city":"練馬区","address":"練馬区関町東1-27-4","lat":35.72669,"lon":139.58139},{"name":"北保健相談所","province":"東京都","city":"練馬区","address":"練馬区北町8-2-11","lat":35.76413,"lon":139.65102},{"name":"練馬区選挙管理委員会","province":"東京都","city":"練馬区","address":"練馬区豊玉北6-12-1","lat":35.735671,"lon":139.651705},{"name":"練馬区保健所（生活衛生課）","province":"東京都","city":"練馬区","address":"練馬区豊玉北6-12-1","lat":35.735573,"lon":139.651671},{"name":"練馬区保健所（保健予防課）","province":"東京都","city":"練馬区","address":"練馬区豊玉北6-12-1","lat":35.735573,"lon":139.651671},{"name":"豊玉保健相談所","province":"東京都","city":"練馬区","address":"練馬区豊玉北5-15-19","lat":35.736014,"lon":139.654851},{"name":"北保健相談所","province":"東京都","city":"練馬区","address":"練馬区北町8-2-11","lat":35.763961,"lon":139.651376},{"name":"光が丘保健相談所","province":"東京都","city":"練馬区","address":"練馬区光が丘2-9-6","lat":35.759486,"lon":139.629589},{"name":"石神井保健相談所","province":"東京都","city":"練馬区","address":"練馬区石神井町7-3-28","lat":35.74452,"lon":139.601328},{"name":"大泉保健相談所","province":"東京都","city":"練馬区","address":"練馬区大泉学園町5-8-8","lat":35.767045,"lon":139.586631},{"name":"関保健相談所","province":"東京都","city":"練馬区","address":"練馬区関町東1-27-4","lat":35.726538,"lon":139.5813},{"name":"やすらぎシティ地域包括支援センター","province":"東京都","city":"練馬区","address":"練馬区東大泉7-27-49","lat":35.74401,"lon":139.5804683},{"name":"練馬区保健所（生活衛生課）","province":"東京都","city":"練馬区","address":"東京都練馬区豊玉北6丁目12-1","lat":35.73558101,"lon":139.65167678},{"name":"練馬区保健所（保健予防課）","province":"東京都","city":"練馬区","address":"東京都練馬区豊玉北6丁目12-1","lat":35.73558101,"lon":139.65167678},{"name":"豊玉保健相談所","province":"東京都","city":"練馬区","address":"東京都練馬区豊玉北5丁目15-19","lat":35.73594216,"lon":139.65492649},{"name":"北保健相談所","province":"東京都","city":"練馬区","address":"東京都練馬区北町6丁目35-7","lat":35.75720905,"lon":139.64949272},{"name":"光が丘保健相談所","province":"東京都","city":"練馬区","address":"東京都練馬区光が丘2丁目9-6","lat":35.75941388,"lon":139.62976375},{"name":"石神井保健相談所","province":"東京都","city":"練馬区","address":"東京都練馬区石神井町7丁目3-28","lat":35.74453977,"lon":139.60134731},{"name":"大泉保健相談所","province":"東京都","city":"練馬区","address":"東京都練馬区大泉学園町5丁目8-8","lat":35.76707824,"lon":139.58662845},{"name":"関保健相談所","province":"東京都","city":"練馬区","address":"東京都練馬区関町東1丁目27-4","lat":35.72653849,"lon":139.58129968},{"name":"練馬区保健所（生活衛生課）","province":"東京都","city":"練馬区","address":"練馬区豊玉北6-12-1","lat":35.73571,"lon":139.65167},{"name":"練馬区保健所（保健予防課）","province":"東京都","city":"練馬区","address":"練馬区豊玉北6-12-1","lat":35.73571,"lon":139.65167},{"name":"豊玉保健相談所","province":"東京都","city":"練馬区","address":"練馬区豊玉北5-15-19","lat":35.73619,"lon":139.65497},{"name":"北保健相談所","province":"東京都","city":"練馬区","address":"練馬区北町6-35-7","lat":35.7577,"lon":139.64937},{"name":"光が丘保健相談所","province":"東京都","city":"練馬区","address":"練馬区光が丘2-9-6","lat":35.75914,"lon":139.63036},{"name":"石神井保健相談所","province":"東京都","city":"練馬区","address":"練馬区石神井町7-3-28","lat":35.7443,"lon":139.60115},{"name":"大泉保健相談所","province":"東京都","city":"練馬区","address":"練馬区大泉学園町5-8-8","lat":35.76731,"lon":139.58688},{"name":"関保健相談所","province":"東京都","city":"練馬区","address":"練馬区関町東1-27-4","lat":35.72668,"lon":139.58139},{"name":"関保健相談所","province":"東京都","city":"練馬区","address":"練馬区関町東1-27-4","lat":35.72669,"lon":139.58139},{"name":"北保健相談所","province":"東京都","city":"練馬区","address":"練馬区北町8-2-11","lat":35.76413,"lon":139.65102},{"name":"練馬区選挙管理委員会","province":"東京都","city":"練馬区","address":"練馬区豊玉北6-12-1","lat":35.735671,"lon":139.651705},{"name":"練馬区保健所（生活衛生課）","province":"東京都","city":"練馬区","address":"練馬区豊玉北6-12-1","lat":35.735573,"lon":139.651671},{"name":"練馬区保健所（保健予防課）","province":"東京都","city":"練馬区","address":"練馬区豊玉北6-12-1","lat":35.735573,"lon":139.651671},{"name":"豊玉保健相談所","province":"東京都","city":"練馬区","address":"練馬区豊玉北5-15-19","lat":35.736014,"lon":139.654851},{"name":"北保健相談所","province":"東京都","city":"練馬区","address":"練馬区北町8-2-11","lat":35.763961,"lon":139.651376},{"name":"光が丘保健相談所","province":"東京都","city":"練馬区","address":"練馬区光が丘2-9-6","lat":35.759486,"lon":139.629589},{"name":"石神井保健相談所","province":"東京都","city":"練馬区","address":"練馬区石神井町7-3-28","lat":35.74452,"lon":139.601328},{"name":"大泉保健相談所","province":"東京都","city":"練馬区","address":"練馬区大泉学園町5-8-8","lat":35.767045,"lon":139.586631},{"name":"関保健相談所","province":"東京都","city":"練馬区","address":"練馬区関町東1-27-4","lat":35.726538,"lon":139.5813},{"name":"やすらぎシティ地域包括支援センター","province":"東京都","city":"練馬区","address":"練馬区東大泉7-27-49","lat":35.74401,"lon":139.5804683},{"name":"練馬区保健所（生活衛生課）","province":"東京都","city":"練馬区","address":"東京都練馬区豊玉北6丁目12-1","lat":35.73558101,"lon":139.65167678},{"name":"練馬区保健所（保健予防課）","province":"東京都","city":"練馬区","address":"東京都練馬区豊玉北6丁目12-1","lat":35.73558101,"lon":139.65167678},{"name":"豊玉保健相談所","province":"東京都","city":"練馬区","address":"東京都練馬区豊玉北5丁目15-19","lat":35.73594216,"lon":139.65492649},{"name":"北保健相談所","province":"東京都","city":"練馬区","address":"東京都練馬区北町6丁目35-7","lat":35.75720905,"lon":139.64949272},{"name":"光が丘保健相談所","province":"東京都","city":"練馬区","address":"東京都練馬区光が丘2丁目9-6","lat":35.75941388,"lon":139.62976375},{"name":"石神井保健相談所","province":"東京都","city":"練馬区","address":"東京都練馬区石神井町7丁目3-28","lat":35.74453977,"lon":139.60134731},{"name":"大泉保健相談所","province":"東京都","city":"練馬区","address":"東京都練馬区大泉学園町5丁目8-8","lat":35.76707824,"lon":139.58662845},{"name":"関保健相談所","province":"東京都","city":"練馬区","address":"東京都練馬区関町東1丁目27-4","lat":35.72653849,"lon":139.58129968},{"name":"練馬区保健所（生活衛生課）","province":"東京都","city":"練馬区","address":"練馬区豊玉北6-12-1","lat":35.73571,"lon":139.65167},{"name":"練馬区保健所（保健予防課）","province":"東京都","city":"練馬区","address":"練馬区豊玉北6-12-1","lat":35.73571,"lon":139.65167},{"name":"豊玉保健相談所","province":"東京都","city":"練馬区","address":"練馬区豊玉北5-15-19","lat":35.73619,"lon":139.65497},{"name":"北保健相談所","province":"東京都","city":"練馬区","address":"練馬区北町6-35-7","lat":35.7577,"lon":139.64937},{"name":"光が丘保健相談所","province":"東京都","city":"練馬区","address":"練馬区光が丘2-9-6","lat":35.75914,"lon":139.63036},{"name":"石神井保健相談所","province":"東京都","city":"練馬区","address":"練馬区石神井町7-3-28","lat":35.7443,"lon":139.60115},{"name":"大泉保健相談所","province":"東京都","city":"練馬区","address":"練馬区大泉学園町5-8-8","lat":35.76731,"lon":139.58688},{"name":"関保健相談所","province":"東京都","city":"練馬区","address":"練馬区関町東1-27-4","lat":35.72668,"lon":139.58139},{"name":"関保健相談所","province":"東京都","city":"練馬区","address":"練馬区関町東1-27-4","lat":35.72669,"lon":139.58139},{"name":"北保健相談所","province":"東京都","city":"練馬区","address":"練馬区北町8-2-11","lat":35.76413,"lon":139.65102},{"name":"練馬区選挙管理委員会","province":"東京都","city":"練馬区","address":"練馬区豊玉北6-12-1","lat":35.735671,"lon":139.651705},{"name":"練馬区保健所（生活衛生課）","province":"東京都","city":"練馬区","address":"練馬区豊玉北6-12-1","lat":35.735573,"lon":139.651671},{"name":"練馬区保健所（保健予防課）","province":"東京都","city":"練馬区","address":"練馬区豊玉北6-12-1","lat":35.735573,"lon":139.651671},{"name":"豊玉保健相談所","province":"東京都","city":"練馬区","address":"練馬区豊玉北5-15-19","lat":35.736014,"lon":139.654851},{"name":"北保健相談所","province":"東京都","city":"練馬区","address":"練馬区北町8-2-11","lat":35.763961,"lon":139.651376},{"name":"光が丘保健相談所","province":"東京都","city":"練馬区","address":"練馬区光が丘2-9-6","lat":35.759486,"lon":139.629589},{"name":"石神井保健相談所","province":"東京都","city":"練馬区","address":"練馬区石神井町7-3-28","lat":35.74452,"lon":139.601328},{"name":"大泉保健相談所","province":"東京都","city":"練馬区","address":"練馬区大泉学園町5-8-8","lat":35.767045,"lon":139.586631},{"name":"関保健相談所","province":"東京都","city":"練馬区","address":"練馬区関町東1-27-4","lat":35.726538,"lon":139.5813},{"name":"やすらぎシティ地域包括支援センター","province":"東京都","city":"練馬区","address":"練馬区東大泉7-27-49","lat":35.74401,"lon":139.5804683},{"name":"練馬区保健所（生活衛生課）","province":"東京都","city":"練馬区","address":"東京都練馬区豊玉北6丁目12-1","lat":35.73558101,"lon":139.65167678},{"name":"練馬区保健所（保健予防課）","province":"東京都","city":"練馬区","address":"東京都練馬区豊玉北6丁目12-1","lat":35.73558101,"lon":139.65167678},{"name":"豊玉保健相談所","province":"東京都","city":"練馬区","address":"東京都練馬区豊玉北5丁目15-19","lat":35.73594216,"lon":139.65492649},{"name":"北保健相談所","province":"東京都","city":"練馬区","address":"東京都練馬区北町6丁目35-7","lat":35.75720905,"lon":139.64949272},{"name":"光が丘保健相談所","province":"東京都","city":"練馬区","address":"東京都練馬区光が丘2丁目9-6","lat":35.75941388,"lon":139.62976375},{"name":"石神井保健相談所","province":"東京都","city":"練馬区","address":"東京都練馬区石神井町7丁目3-28","lat":35.74453977,"lon":139.60134731},{"name":"大泉保健相談所","province":"東京都","city":"練馬区","address":"東京都練馬区大泉学園町5丁目8-8","lat":35.76707824,"lon":139.58662845},{"name":"関保健相談所","province":"東京都","city":"練馬区","address":"東京都練馬区関町東1丁目27-4","lat":35.72653849,"lon":139.58129968},{"name":"練馬区保健所（生活衛生課）","province":"東京都","city":"練馬区","address":"練馬区豊玉北6-12-1","lat":35.73571,"lon":139.65167},{"name":"練馬区保健所（保健予防課）","province":"東京都","city":"練馬区","address":"練馬区豊玉北6-12-1","lat":35.73571,"lon":139.65167},{"name":"豊玉保健相談所","province":"東京都","city":"練馬区","address":"練馬区豊玉北5-15-19","lat":35.73619,"lon":139.65497},{"name":"北保健相談所","province":"東京都","city":"練馬区","address":"練馬区北町6-35-7","lat":35.7577,"lon":139.64937},{"name":"光が丘保健相談所","province":"東京都","city":"練馬区","address":"練馬区光が丘2-9-6","lat":35.75914,"lon":139.63036},{"name":"石神井保健相談所","province":"東京都","city":"練馬区","address":"練馬区石神井町7-3-28","lat":35.7443,"lon":139.60115},{"name":"大泉保健相談所","province":"東京都","city":"練馬区","address":"練馬区大泉学園町5-8-8","lat":35.76731,"lon":139.58688},{"name":"関保健相談所","province":"東京都","city":"練馬区","address":"練馬区関町東1-27-4","lat":35.72668,"lon":139.58139},{"name":"関保健相談所","province":"東京都","city":"練馬区","address":"練馬区関町東1-27-4","lat":35.72669,"lon":139.58139},{"name":"北保健相談所","province":"東京都","city":"練馬区","address":"練馬区北町8-2-11","lat":35.76413,"lon":139.65102},{"name":"練馬区選挙管理委員会","province":"東京都","city":"練馬区","address":"練馬区豊玉北6-12-1","lat":35.735671,"lon":139.651705},{"name":"練馬区保健所（生活衛生課）","province":"東京都","city":"練馬区","address":"練馬区豊玉北6-12-1","lat":35.735573,"lon":139.651671},{"name":"練馬区保健所（保健予防課）","province":"東京都","city":"練馬区","address":"練馬区豊玉北6-12-1","lat":35.735573,"lon":139.651671},{"name":"豊玉保健相談所","province":"東京都","city":"練馬区","address":"練馬区豊玉北5-15-19","lat":35.736014,"lon":139.654851},{"name":"北保健相談所","province":"東京都","city":"練馬区","address":"練馬区北町8-2-11","lat":35.763961,"lon":139.651376},{"name":"光が丘保健相談所","province":"東京都","city":"練馬区","address":"練馬区光が丘2-9-6","lat":35.759486,"lon":139.629589},{"name":"石神井保健相談所","province":"東京都","city":"練馬区","address":"練馬区石神井町7-3-28","lat":35.74452,"lon":139.601328},{"name":"大泉保健相談所","province":"東京都","city":"練馬区","address":"練馬区大泉学園町5-8-8","lat":35.767045,"lon":139.586631},{"name":"関保健相談所","province":"東京都","city":"練馬区","address":"練馬区関町東1-27-4","lat":35.726538,"lon":139.5813},{"name":"やすらぎシティ地域包括支援センター","province":"東京都","city":"練馬区","address":"練馬区東大泉7-27-49","lat":35.74401,"lon":139.5804683},{"name":"練馬区保健所（生活衛生課）","province":"東京都","city":"練馬区","address":"東京都練馬区豊玉北6丁目12-1","lat":35.73558101,"lon":139.65167678},{"name":"練馬区保健所（保健予防課）","province":"東京都","city":"練馬区","address":"東京都練馬区豊玉北6丁目12-1","lat":35.73558101,"lon":139.65167678},{"name":"豊玉保健相談所","province":"東京都","city":"練馬区","address":"東京都練馬区豊玉北5丁目15-19","lat":35.73594216,"lon":139.65492649},{"name":"北保健相談所","province":"東京都","city":"練馬区","address":"東京都練馬区北町6丁目35-7","lat":35.75720905,"lon":139.64949272},{"name":"光が丘保健相談所","province":"東京都","city":"練馬区","address":"東京都練馬区光が丘2丁目9-6","lat":35.75941388,"lon":139.62976375},{"name":"石神井保健相談所","province":"東京都","city":"練馬区","address":"東京都練馬区石神井町7丁目3-28","lat":35.74453977,"lon":139.60134731},{"name":"大泉保健相談所","province":"東京都","city":"練馬区","address":"東京都練馬区大泉学園町5丁目8-8","lat":35.76707824,"lon":139.58662845},{"name":"関保健相談所","province":"東京都","city":"練馬区","address":"東京都練馬区関町東1丁目27-4","lat":35.72653849,"lon":139.58129968},{"name":"練馬区保健所（生活衛生課）","province":"東京都","city":"練馬区","address":"練馬区豊玉北6-12-1","lat":35.73571,"lon":139.65167},{"name":"練馬区保健所（保健予防課）","province":"東京都","city":"練馬区","address":"練馬区豊玉北6-12-1","lat":35.73571,"lon":139.65167},{"name":"豊玉保健相談所","province":"東京都","city":"練馬区","address":"練馬区豊玉北5-15-19","lat":35.73619,"lon":139.65497},{"name":"北保健相談所","province":"東京都","city":"練馬区","address":"練馬区北町6-35-7","lat":35.7577,"lon":139.64937},{"name":"光が丘保健相談所","province":"東京都","city":"練馬区","address":"練馬区光が丘2-9-6","lat":35.75914,"lon":139.63036},{"name":"石神井保健相談所","province":"東京都","city":"練馬区","address":"練馬区石神井町7-3-28","lat":35.7443,"lon":139.60115},{"name":"大泉保健相談所","province":"東京都","city":"練馬区","address":"練馬区大泉学園町5-8-8","lat":35.76731,"lon":139.58688},{"name":"関保健相談所","province":"東京都","city":"練馬区","address":"練馬区関町東1-27-4","lat":35.72668,"lon":139.58139},{"name":"関保健相談所","province":"東京都","city":"練馬区","address":"練馬区関町東1-27-4","lat":35.72669,"lon":139.58139},{"name":"北保健相談所","province":"東京都","city":"練馬区","address":"練馬区北町8-2-11","lat":35.76413,"lon":139.65102},{"name":"練馬区選挙管理委員会","province":"東京都","city":"練馬区","address":"練馬区豊玉北6-12-1","lat":35.735671,"lon":139.651705},{"name":"練馬区保健所（生活衛生課）","province":"東京都","city":"練馬区","address":"練馬区豊玉北6-12-1","lat":35.735573,"lon":139.651671},{"name":"練馬区保健所（保健予防課）","province":"東京都","city":"練馬区","address":"練馬区豊玉北6-12-1","lat":35.735573,"lon":139.651671},{"name":"豊玉保健相談所","province":"東京都","city":"練馬区","address":"練馬区豊玉北5-15-19","lat":35.736014,"lon":139.654851},{"name":"北保健相談所","province":"東京都","city":"練馬区","address":"練馬区北町8-2-11","lat":35.763961,"lon":139.651376},{"name":"光が丘保健相談所","province":"東京都","city":"練馬区","address":"練馬区光が丘2-9-6","lat":35.759486,"lon":139.629589},{"name":"石神井保健相談所","province":"東京都","city":"練馬区","address":"練馬区石神井町7-3-28","lat":35.74452,"lon":139.601328},{"name":"大泉保健相談所","province":"東京都","city":"練馬区","address":"練馬区大泉学園町5-8-8","lat":35.767045,"lon":139.586631},{"name":"関保健相談所","province":"東京都","city":"練馬区","address":"練馬区関町東1-27-4","lat":35.726538,"lon":139.5813},{"name":"やすらぎシティ地域包括支援センター","province":"東京都","city":"練馬区","address":"練馬区東大泉7-27-49","lat":35.74401,"lon":139.5804683},{"name":"練馬区保健所（生活衛生課）","province":"東京都","city":"練馬区","address":"東京都練馬区豊玉北6丁目12-1","lat":35.73558101,"lon":139.65167678},{"name":"練馬区保健所（保健予防課）","province":"東京都","city":"練馬区","address":"東京都練馬区豊玉北6丁目12-1","lat":35.73558101,"lon":139.65167678},{"name":"豊玉保健相談所","province":"東京都","city":"練馬区","address":"東京都練馬区豊玉北5丁目15-19","lat":35.73594216,"lon":139.65492649},{"name":"北保健相談所","province":"東京都","city":"練馬区","address":"東京都練馬区北町6丁目35-7","lat":35.75720905,"lon":139.64949272},{"name":"光が丘保健相談所","province":"東京都","city":"練馬区","address":"東京都練馬区光が丘2丁目9-6","lat":35.75941388,"lon":139.62976375},{"name":"石神井保健相談所","province":"東京都","city":"練馬区","address":"東京都練馬区石神井町7丁目3-28","lat":35.74453977,"lon":139.60134731},{"name":"大泉保健相談所","province":"東京都","city":"練馬区","address":"東京都練馬区大泉学園町5丁目8-8","lat":35.76707824,"lon":139.58662845},{"name":"関保健相談所","province":"東京都","city":"練馬区","address":"東京都練馬区関町東1丁目27-4","lat":35.72653849,"lon":139.58129968},{"name":"練馬区保健所（生活衛生課）","province":"東京都","city":"練馬区","address":"練馬区豊玉北6-12-1","lat":35.73571,"lon":139.65167},{"name":"練馬区保健所（保健予防課）","province":"東京都","city":"練馬区","address":"練馬区豊玉北6-12-1","lat":35.73571,"lon":139.65167},{"name":"豊玉保健相談所","province":"東京都","city":"練馬区","address":"練馬区豊玉北5-15-19","lat":35.73619,"lon":139.65497},{"name":"北保健相談所","province":"東京都","city":"練馬区","address":"練馬区北町6-35-7","lat":35.7577,"lon":139.64937},{"name":"光が丘保健相談所","province":"東京都","city":"練馬区","address":"練馬区光が丘2-9-6","lat":35.75914,"lon":139.63036},{"name":"石神井保健相談所","province":"東京都","city":"練馬区","address":"練馬区石神井町7-3-28","lat":35.7443,"lon":139.60115},{"name":"大泉保健相談所","province":"東京都","city":"練馬区","address":"練馬区大泉学園町5-8-8","lat":35.76731,"lon":139.58688},{"name":"関保健相談所","province":"東京都","city":"練馬区","address":"練馬区関町東1-27-4","lat":35.72668,"lon":139.58139},{"name":"関保健相談所","province":"東京都","city":"練馬区","address":"練馬区関町東1-27-4","lat":35.72669,"lon":139.58139},{"name":"北保健相談所","province":"東京都","city":"練馬区","address":"練馬区北町8-2-11","lat":35.76413,"lon":139.65102},{"name":"練馬区選挙管理委員会","province":"東京都","city":"練馬区","address":"練馬区豊玉北6-12-1","lat":35.735671,"lon":139.651705},{"name":"練馬区保健所（生活衛生課）","province":"東京都","city":"練馬区","address":"練馬区豊玉北6-12-1","lat":35.735573,"lon":139.651671},{"name":"練馬区保健所（保健予防課）","province":"東京都","city":"練馬区","address":"練馬区豊玉北6-12-1","lat":35.735573,"lon":139.651671},{"name":"豊玉保健相談所","province":"東京都","city":"練馬区","address":"練馬区豊玉北5-15-19","lat":35.736014,"lon":139.654851},{"name":"北保健相談所","province":"東京都","city":"練馬区","address":"練馬区北町8-2-11","lat":35.763961,"lon":139.651376},{"name":"光が丘保健相談所","province":"東京都","city":"練馬区","address":"練馬区光が丘2-9-6","lat":35.759486,"lon":139.629589},{"name":"石神井保健相談所","province":"東京都","city":"練馬区","address":"練馬区石神井町7-3-28","lat":35.74452,"lon":139.601328},{"name":"大泉保健相談所","province":"東京都","city":"練馬区","address":"練馬区大泉学園町5-8-8","lat":35.767045,"lon":139.586631},{"name":"関保健相談所","province":"東京都","city":"練馬区","address":"練馬区関町東1-27-4","lat":35.726538,"lon":139.5813},{"name":"やすらぎシティ地域包括支援センター","province":"東京都","city":"練馬区","address":"練馬区東大泉7-27-49","lat":35.74401,"lon":139.5804683},{"name":"練馬区保健所（生活衛生課）","province":"東京都","city":"練馬区","address":"東京都練馬区豊玉北6丁目12-1","lat":35.73558101,"lon":139.65167678},{"name":"練馬区保健所（保健予防課）","province":"東京都","city":"練馬区","address":"東京都練馬区豊玉北6丁目12-1","lat":35.73558101,"lon":139.65167678},{"name":"豊玉保健相談所","province":"東京都","city":"練馬区","address":"東京都練馬区豊玉北5丁目15-19","lat":35.73594216,"lon":139.65492649},{"name":"北保健相談所","province":"東京都","city":"練馬区","address":"東京都練馬区北町6丁目35-7","lat":35.75720905,"lon":139.64949272},{"name":"光が丘保健相談所","province":"東京都","city":"練馬区","address":"東京都練馬区光が丘2丁目9-6","lat":35.75941388,"lon":139.62976375},{"name":"石神井保健相談所","province":"東京都","city":"練馬区","address":"東京都練馬区石神井町7丁目3-28","lat":35.74453977,"lon":139.60134731},{"name":"大泉保健相談所","province":"東京都","city":"練馬区","address":"東京都練馬区大泉学園町5丁目8-8","lat":35.76707824,"lon":139.58662845},{"name":"関保健相談所","province":"東京都","city":"練馬区","address":"東京都練馬区関町東1丁目27-4","lat":35.72653849,"lon":139.58129968},{"name":"練馬区保健所（生活衛生課）","province":"東京都","city":"練馬区","address":"練馬区豊玉北6-12-1","lat":35.73571,"lon":139.65167},{"name":"練馬区保健所（保健予防課）","province":"東京都","city":"練馬区","address":"練馬区豊玉北6-12-1","lat":35.73571,"lon":139.65167},{"name":"豊玉保健相談所","province":"東京都","city":"練馬区","address":"練馬区豊玉北5-15-19","lat":35.73619,"lon":139.65497},{"name":"北保健相談所","province":"東京都","city":"練馬区","address":"練馬区北町6-35-7","lat":35.7577,"lon":139.64937},{"name":"光が丘保健相談所","province":"東京都","city":"練馬区","address":"練馬区光が丘2-9-6","lat":35.75914,"lon":139.63036},{"name":"石神井保健相談所","province":"東京都","city":"練馬区","address":"練馬区石神井町7-3-28","lat":35.7443,"lon":139.60115},{"name":"大泉保健相談所","province":"東京都","city":"練馬区","address":"練馬区大泉学園町5-8-8","lat":35.76731,"lon":139.58688},{"name":"関保健相談所","province":"東京都","city":"練馬区","address":"練馬区関町東1-27-4","lat":35.72668,"lon":139.58139},{"name":"関保健相談所","province":"東京都","city":"練馬区","address":"練馬区関町東1-27-4","lat":35.72669,"lon":139.58139},{"name":"北保健相談所","province":"東京都","city":"練馬区","address":"練馬区北町8-2-11","lat":35.76413,"lon":139.65102},{"name":"練馬区選挙管理委員会","province":"東京都","city":"練馬区","address":"練馬区豊玉北6-12-1","lat":35.735671,"lon":139.651705},{"name":"練馬区保健所（生活衛生課）","province":"東京都","city":"練馬区","address":"練馬区豊玉北6-12-1","lat":35.735573,"lon":139.651671},{"name":"練馬区保健所（保健予防課）","province":"東京都","city":"練馬区","address":"練馬区豊玉北6-12-1","lat":35.735573,"lon":139.651671},{"name":"豊玉保健相談所","province":"東京都","city":"練馬区","address":"練馬区豊玉北5-15-19","lat":35.736014,"lon":139.654851},{"name":"北保健相談所","province":"東京都","city":"練馬区","address":"練馬区北町8-2-11","lat":35.763961,"lon":139.651376},{"name":"光が丘保健相談所","province":"東京都","city":"練馬区","address":"練馬区光が丘2-9-6","lat":35.759486,"lon":139.629589},{"name":"石神井保健相談所","province":"東京都","city":"練馬区","address":"練馬区石神井町7-3-28","lat":35.74452,"lon":139.601328},{"name":"大泉保健相談所","province":"東京都","city":"練馬区","address":"練馬区大泉学園町5-8-8","lat":35.767045,"lon":139.586631},{"name":"関保健相談所","province":"東京都","city":"練馬区","address":"練馬区関町東1-27-4","lat":35.726538,"lon":139.5813},{"name":"やすらぎシティ地域包括支援センター","province":"東京都","city":"練馬区","address":"練馬区東大泉7-27-49","lat":35.74401,"lon":139.5804683},{"name":"練馬区保健所（生活衛生課）","province":"東京都","city":"練馬区","address":"東京都練馬区豊玉北6丁目12-1","lat":35.73558101,"lon":139.65167678},{"name":"練馬区保健所（保健予防課）","province":"東京都","city":"練馬区","address":"東京都練馬区豊玉北6丁目12-1","lat":35.73558101,"lon":139.65167678},{"name":"豊玉保健相談所","province":"東京都","city":"練馬区","address":"東京都練馬区豊玉北5丁目15-19","lat":35.73594216,"lon":139.65492649},{"name":"北保健相談所","province":"東京都","city":"練馬区","address":"東京都練馬区北町6丁目35-7","lat":35.75720905,"lon":139.64949272},{"name":"光が丘保健相談所","province":"東京都","city":"練馬区","address":"東京都練馬区光が丘2丁目9-6","lat":35.75941388,"lon":139.62976375},{"name":"石神井保健相談所","province":"東京都","city":"練馬区","address":"東京都練馬区石神井町7丁目3-28","lat":35.74453977,"lon":139.60134731},{"name":"大泉保健相談所","province":"東京都","city":"練馬区","address":"東京都練馬区大泉学園町5丁目8-8","lat":35.76707824,"lon":139.58662845},{"name":"関保健相談所","province":"東京都","city":"練馬区","address":"東京都練馬区関町東1丁目27-4","lat":35.72653849,"lon":139.58129968},{"name":"練馬区保健所（生活衛生課）","province":"東京都","city":"練馬区","address":"練馬区豊玉北6-12-1","lat":35.73571,"lon":139.65167},{"name":"練馬区保健所（保健予防課）","province":"東京都","city":"練馬区","address":"練馬区豊玉北6-12-1","lat":35.73571,"lon":139.65167},{"name":"豊玉保健相談所","province":"東京都","city":"練馬区","address":"練馬区豊玉北5-15-19","lat":35.73619,"lon":139.65497},{"name":"北保健相談所","province":"東京都","city":"練馬区","address":"練馬区北町6-35-7","lat":35.7577,"lon":139.64937},{"name":"光が丘保健相談所","province":"東京都","city":"練馬区","address":"練馬区光が丘2-9-6","lat":35.75914,"lon":139.63036},{"name":"石神井保健相談所","province":"東京都","city":"練馬区","address":"練馬区石神井町7-3-28","lat":35.7443,"lon":139.60115},{"name":"大泉保健相談所","province":"東京都","city":"練馬区","address":"練馬区大泉学園町5-8-8","lat":35.76731,"lon":139.58688},{"name":"関保健相談所","province":"東京都","city":"練馬区","address":"練馬区関町東1-27-4","lat":35.72668,"lon":139.58139},{"name":"関保健相談所","province":"東京都","city":"練馬区","address":"練馬区関町東1-27-4","lat":35.72669,"lon":139.58139},{"name":"北保健相談所","province":"東京都","city":"練馬区","address":"練馬区北町8-2-11","lat":35.76413,"lon":139.65102},{"name":"練馬区選挙管理委員会","province":"東京都","city":"練馬区","address":"練馬区豊玉北6-12-1","lat":35.735671,"lon":139.651705},{"name":"練馬区保健所（生活衛生課）","province":"東京都","city":"練馬区","address":"練馬区豊玉北6-12-1","lat":35.735573,"lon":139.651671},{"name":"練馬区保健所（保健予防課）","province":"東京都","city":"練馬区","address":"練馬区豊玉北6-12-1","lat":35.735573,"lon":139.651671},{"name":"豊玉保健相談所","province":"東京都","city":"練馬区","address":"練馬区豊玉北5-15-19","lat":35.736014,"lon":139.654851},{"name":"北保健相談所","province":"東京都","city":"練馬区","address":"練馬区北町8-2-11","lat":35.763961,"lon":139.651376},{"name":"光が丘保健相談所","province":"東京都","city":"練馬区","address":"練馬区光が丘2-9-6","lat":35.759486,"lon":139.629589},{"name":"石神井保健相談所","province":"東京都","city":"練馬区","address":"練馬区石神井町7-3-28","lat":35.74452,"lon":139.601328},{"name":"大泉保健相談所","province":"東京都","city":"練馬区","address":"練馬区大泉学園町5-8-8","lat":35.767045,"lon":139.586631},{"name":"関保健相談所","province":"東京都","city":"練馬区","address":"練馬区関町東1-27-4","lat":35.726538,"lon":139.5813},{"name":"やすらぎシティ地域包括支援センター","province":"東京都","city":"練馬区","address":"練馬区東大泉7-27-49","lat":35.74401,"lon":139.5804683},{"name":"練馬区保健所（生活衛生課）","province":"東京都","city":"練馬区","address":"東京都練馬区豊玉北6丁目12-1","lat":35.73558101,"lon":139.65167678},{"name":"練馬区保健所（保健予防課）","province":"東京都","city":"練馬区","address":"東京都練馬区豊玉北6丁目12-1","lat":35.73558101,"lon":139.65167678},{"name":"豊玉保健相談所","province":"東京都","city":"練馬区","address":"東京都練馬区豊玉北5丁目15-19","lat":35.73594216,"lon":139.65492649},{"name":"北保健相談所","province":"東京都","city":"練馬区","address":"東京都練馬区北町6丁目35-7","lat":35.75720905,"lon":139.64949272},{"name":"光が丘保健相談所","province":"東京都","city":"練馬区","address":"東京都練馬区光が丘2丁目9-6","lat":35.75941388,"lon":139.62976375},{"name":"石神井保健相談所","province":"東京都","city":"練馬区","address":"東京都練馬区石神井町7丁目3-28","lat":35.74453977,"lon":139.60134731},{"name":"大泉保健相談所","province":"東京都","city":"練馬区","address":"東京都練馬区大泉学園町5丁目8-8","lat":35.76707824,"lon":139.58662845},{"name":"関保健相談所","province":"東京都","city":"練馬区","address":"東京都練馬区関町東1丁目27-4","lat":35.72653849,"lon":139.58129968},{"name":"練馬区保健所（生活衛生課）","province":"東京都","city":"練馬区","address":"練馬区豊玉北6-12-1","lat":35.73571,"lon":139.65167},{"name":"練馬区保健所（保健予防課）","province":"東京都","city":"練馬区","address":"練馬区豊玉北6-12-1","lat":35.73571,"lon":139.65167},{"name":"豊玉保健相談所","province":"東京都","city":"練馬区","address":"練馬区豊玉北5-15-19","lat":35.73619,"lon":139.65497},{"name":"北保健相談所","province":"東京都","city":"練馬区","address":"練馬区北町6-35-7","lat":35.7577,"lon":139.64937},{"name":"光が丘保健相談所","province":"東京都","city":"練馬区","address":"練馬区光が丘2-9-6","lat":35.75914,"lon":139.63036},{"name":"石神井保健相談所","province":"東京都","city":"練馬区","address":"練馬区石神井町7-3-28","lat":35.7443,"lon":139.60115},{"name":"大泉保健相談所","province":"東京都","city":"練馬区","address":"練馬区大泉学園町5-8-8","lat":35.76731,"lon":139.58688},{"name":"関保健相談所","province":"東京都","city":"練馬区","address":"練馬区関町東1-27-4","lat":35.72668,"lon":139.58139},{"name":"関保健相談所","province":"東京都","city":"練馬区","address":"練馬区関町東1-27-4","lat":35.72669,"lon":139.58139},{"name":"北保健相談所","province":"東京都","city":"練馬区","address":"練馬区北町8-2-11","lat":35.76413,"lon":139.65102},{"name":"練馬区選挙管理委員会","province":"東京都","city":"練馬区","address":"練馬区豊玉北6-12-1","lat":35.735671,"lon":139.651705},{"name":"練馬区保健所（生活衛生課）","province":"東京都","city":"練馬区","address":"練馬区豊玉北6-12-1","lat":35.735573,"lon":139.651671},{"name":"練馬区保健所（保健予防課）","province":"東京都","city":"練馬区","address":"練馬区豊玉北6-12-1","lat":35.735573,"lon":139.651671},{"name":"豊玉保健相談所","province":"東京都","city":"練馬区","address":"練馬区豊玉北5-15-19","lat":35.736014,"lon":139.654851},{"name":"北保健相談所","province":"東京都","city":"練馬区","address":"練馬区北町8-2-11","lat":35.763961,"lon":139.651376},{"name":"光が丘保健相談所","province":"東京都","city":"練馬区","address":"練馬区光が丘2-9-6","lat":35.759486,"lon":139.629589},{"name":"石神井保健相談所","province":"東京都","city":"練馬区","address":"練馬区石神井町7-3-28","lat":35.74452,"lon":139.601328},{"name":"大泉保健相談所","province":"東京都","city":"練馬区","address":"練馬区大泉学園町5-8-8","lat":35.767045,"lon":139.586631},{"name":"関保健相談所","province":"東京都","city":"練馬区","address":"練馬区関町東1-27-4","lat":35.726538,"lon":139.5813},{"name":"やすらぎシティ地域包括支援センター","province":"東京都","city":"練馬区","address":"練馬区東大泉7-27-49","lat":35.74401,"lon":139.5804683},{"name":"練馬区保健所（生活衛生課）","province":"東京都","city":"練馬区","address":"東京都練馬区豊玉北6丁目12-1","lat":35.73558101,"lon":139.65167678},{"name":"練馬区保健所（保健予防課）","province":"東京都","city":"練馬区","address":"東京都練馬区豊玉北6丁目12-1","lat":35.73558101,"lon":139.65167678},{"name":"豊玉保健相談所","province":"東京都","city":"練馬区","address":"東京都練馬区豊玉北5丁目15-19","lat":35.73594216,"lon":139.65492649},{"name":"北保健相談所","province":"東京都","city":"練馬区","address":"東京都練馬区北町6丁目35-7","lat":35.75720905,"lon":139.64949272},{"name":"光が丘保健相談所","province":"東京都","city":"練馬区","address":"東京都練馬区光が丘2丁目9-6","lat":35.75941388,"lon":139.62976375},{"name":"石神井保健相談所","province":"東京都","city":"練馬区","address":"東京都練馬区石神井町7丁目3-28","lat":35.74453977,"lon":139.60134731},{"name":"大泉保健相談所","province":"東京都","city":"練馬区","address":"東京都練馬区大泉学園町5丁目8-8","lat":35.76707824,"lon":139.58662845},{"name":"関保健相談所","province":"東京都","city":"練馬区","address":"東京都練馬区関町東1丁目27-4","lat":35.72653849,"lon":139.58129968},{"name":"練馬区保健所（生活衛生課）","province":"東京都","city":"練馬区","address":"練馬区豊玉北6-12-1","lat":35.73571,"lon":139.65167},{"name":"練馬区保健所（保健予防課）","province":"東京都","city":"練馬区","address":"練馬区豊玉北6-12-1","lat":35.73571,"lon":139.65167},{"name":"豊玉保健相談所","province":"東京都","city":"練馬区","address":"練馬区豊玉北5-15-19","lat":35.73619,"lon":139.65497},{"name":"北保健相談所","province":"東京都","city":"練馬区","address":"練馬区北町6-35-7","lat":35.7577,"lon":139.64937},{"name":"光が丘保健相談所","province":"東京都","city":"練馬区","address":"練馬区光が丘2-9-6","lat":35.75914,"lon":139.63036},{"name":"石神井保健相談所","province":"東京都","city":"練馬区","address":"練馬区石神井町7-3-28","lat":35.7443,"lon":139.60115},{"name":"大泉保健相談所","province":"東京都","city":"練馬区","address":"練馬区大泉学園町5-8-8","lat":35.76731,"lon":139.58688},{"name":"関保健相談所","province":"東京都","city":"練馬区","address":"練馬区関町東1-27-4","lat":35.72668,"lon":139.58139},{"name":"関保健相談所","province":"東京都","city":"練馬区","address":"練馬区関町東1-27-4","lat":35.72669,"lon":139.58139},{"name":"北保健相談所","province":"東京都","city":"練馬区","address":"練馬区北町8-2-11","lat":35.76413,"lon":139.65102},{"name":"練馬区選挙管理委員会","province":"東京都","city":"練馬区","address":"練馬区豊玉北6-12-1","lat":35.735671,"lon":139.651705},{"name":"練馬区保健所（生活衛生課）","province":"東京都","city":"練馬区","address":"練馬区豊玉北6-12-1","lat":35.735573,"lon":139.651671},{"name":"練馬区保健所（保健予防課）","province":"東京都","city":"練馬区","address":"練馬区豊玉北6-12-1","lat":35.735573,"lon":139.651671},{"name":"豊玉保健相談所","province":"東京都","city":"練馬区","address":"練馬区豊玉北5-15-19","lat":35.736014,"lon":139.654851},{"name":"北保健相談所","province":"東京都","city":"練馬区","address":"練馬区北町8-2-11","lat":35.763961,"lon":139.651376},{"name":"光が丘保健相談所","province":"東京都","city":"練馬区","address":"練馬区光が丘2-9-6","lat":35.759486,"lon":139.629589},{"name":"石神井保健相談所","province":"東京都","city":"練馬区","address":"練馬区石神井町7-3-28","lat":35.74452,"lon":139.601328},{"name":"大泉保健相談所","province":"東京都","city":"練馬区","address":"練馬区大泉学園町5-8-8","lat":35.767045,"lon":139.586631},{"name":"関保健相談所","province":"東京都","city":"練馬区","address":"練馬区関町東1-27-4","lat":35.726538,"lon":139.5813},{"name":"やすらぎシティ地域包括支援センター","province":"東京都","city":"練馬区","address":"練馬区東大泉7-27-49","lat":35.74401,"lon":139.5804683},{"name":"練馬区保健所（生活衛生課）","province":"東京都","city":"練馬区","address":"東京都練馬区豊玉北6丁目12-1","lat":35.73558101,"lon":139.65167678},{"name":"練馬区保健所（保健予防課）","province":"東京都","city":"練馬区","address":"東京都練馬区豊玉北6丁目12-1","lat":35.73558101,"lon":139.65167678},{"name":"豊玉保健相談所","province":"東京都","city":"練馬区","address":"東京都練馬区豊玉北5丁目15-19","lat":35.73594216,"lon":139.65492649},{"name":"北保健相談所","province":"東京都","city":"練馬区","address":"東京都練馬区北町6丁目35-7","lat":35.75720905,"lon":139.64949272},{"name":"光が丘保健相談所","province":"東京都","city":"練馬区","address":"東京都練馬区光が丘2丁目9-6","lat":35.75941388,"lon":139.62976375},{"name":"石神井保健相談所","province":"東京都","city":"練馬区","address":"東京都練馬区石神井町7丁目3-28","lat":35.74453977,"lon":139.60134731},{"name":"大泉保健相談所","province":"東京都","city":"練馬区","address":"東京都練馬区大泉学園町5丁目8-8","lat":35.76707824,"lon":139.58662845},{"name":"関保健相談所","province":"東京都","city":"練馬区","address":"東京都練馬区関町東1丁目27-4","lat":35.72653849,"lon":139.58129968},{"name":"練馬区保健所（生活衛生課）","province":"東京都","city":"練馬区","address":"練馬区豊玉北6-12-1","lat":35.73571,"lon":139.65167},{"name":"練馬区保健所（保健予防課）","province":"東京都","city":"練馬区","address":"練馬区豊玉北6-12-1","lat":35.73571,"lon":139.65167},{"name":"豊玉保健相談所","province":"東京都","city":"練馬区","address":"練馬区豊玉北5-15-19","lat":35.73619,"lon":139.65497},{"name":"北保健相談所","province":"東京都","city":"練馬区","address":"練馬区北町6-35-7","lat":35.7577,"lon":139.64937},{"name":"光が丘保健相談所","province":"東京都","city":"練馬区","address":"練馬区光が丘2-9-6","lat":35.75914,"lon":139.63036},{"name":"石神井保健相談所","province":"東京都","city":"練馬区","address":"練馬区石神井町7-3-28","lat":35.7443,"lon":139.60115},{"name":"大泉保健相談所","province":"東京都","city":"練馬区","address":"練馬区大泉学園町5-8-8","lat":35.76731,"lon":139.58688},{"name":"関保健相談所","province":"東京都","city":"練馬区","address":"練馬区関町東1-27-4","lat":35.72668,"lon":139.58139},{"name":"関保健相談所","province":"東京都","city":"練馬区","address":"練馬区関町東1-27-4","lat":35.72669,"lon":139.58139},{"name":"北保健相談所","province":"東京都","city":"練馬区","address":"練馬区北町8-2-11","lat":35.76413,"lon":139.65102},{"name":"練馬区選挙管理委員会","province":"東京都","city":"練馬区","address":"練馬区豊玉北6-12-1","lat":35.735671,"lon":139.651705},{"name":"練馬区保健所（生活衛生課）","province":"東京都","city":"練馬区","address":"練馬区豊玉北6-12-1","lat":35.735573,"lon":139.651671},{"name":"練馬区保健所（保健予防課）","province":"東京都","city":"練馬区","address":"練馬区豊玉北6-12-1","lat":35.735573,"lon":139.651671},{"name":"豊玉保健相談所","province":"東京都","city":"練馬区","address":"練馬区豊玉北5-15-19","lat":35.736014,"lon":139.654851},{"name":"北保健相談所","province":"東京都","city":"練馬区","address":"練馬区北町8-2-11","lat":35.763961,"lon":139.651376},{"name":"光が丘保健相談所","province":"東京都","city":"練馬区","address":"練馬区光が丘2-9-6","lat":35.759486,"lon":139.629589},{"name":"石神井保健相談所","province":"東京都","city":"練馬区","address":"練馬区石神井町7-3-28","lat":35.74452,"lon":139.601328},{"name":"大泉保健相談所","province":"東京都","city":"練馬区","address":"練馬区大泉学園町5-8-8","lat":35.767045,"lon":139.586631},{"name":"関保健相談所","province":"東京都","city":"練馬区","address":"練馬区関町東1-27-4","lat":35.726538,"lon":139.5813},{"name":"やすらぎシティ地域包括支援センター","province":"東京都","city":"練馬区","address":"練馬区東大泉7-27-49","lat":35.74401,"lon":139.5804683},{"name":"練馬区保健所（生活衛生課）","province":"東京都","city":"練馬区","address":"東京都練馬区豊玉北6丁目12-1","lat":35.73558101,"lon":139.65167678},{"name":"練馬区保健所（保健予防課）","province":"東京都","city":"練馬区","address":"東京都練馬区豊玉北6丁目12-1","lat":35.73558101,"lon":139.65167678},{"name":"豊玉保健相談所","province":"東京都","city":"練馬区","address":"東京都練馬区豊玉北5丁目15-19","lat":35.73594216,"lon":139.65492649},{"name":"北保健相談所","province":"東京都","city":"練馬区","address":"東京都練馬区北町6丁目35-7","lat":35.75720905,"lon":139.64949272},{"name":"光が丘保健相談所","province":"東京都","city":"練馬区","address":"東京都練馬区光が丘2丁目9-6","lat":35.75941388,"lon":139.62976375},{"name":"石神井保健相談所","province":"東京都","city":"練馬区","address":"東京都練馬区石神井町7丁目3-28","lat":35.74453977,"lon":139.60134731},{"name":"大泉保健相談所","province":"東京都","city":"練馬区","address":"東京都練馬区大泉学園町5丁目8-8","lat":35.76707824,"lon":139.58662845},{"name":"関保健相談所","province":"東京都","city":"練馬区","address":"東京都練馬区関町東1丁目27-4","lat":35.72653849,"lon":139.58129968},{"name":"練馬区保健所（生活衛生課）","province":"東京都","city":"練馬区","address":"練馬区豊玉北6-12-1","lat":35.73571,"lon":139.65167},{"name":"練馬区保健所（保健予防課）","province":"東京都","city":"練馬区","address":"練馬区豊玉北6-12-1","lat":35.73571,"lon":139.65167},{"name":"豊玉保健相談所","province":"東京都","city":"練馬区","address":"練馬区豊玉北5-15-19","lat":35.73619,"lon":139.65497},{"name":"北保健相談所","province":"東京都","city":"練馬区","address":"練馬区北町6-35-7","lat":35.7577,"lon":139.64937},{"name":"光が丘保健相談所","province":"東京都","city":"練馬区","address":"練馬区光が丘2-9-6","lat":35.75914,"lon":139.63036},{"name":"石神井保健相談所","province":"東京都","city":"練馬区","address":"練馬区石神井町7-3-28","lat":35.7443,"lon":139.60115},{"name":"大泉保健相談所","province":"東京都","city":"練馬区","address":"練馬区大泉学園町5-8-8","lat":35.76731,"lon":139.58688},{"name":"関保健相談所","province":"東京都","city":"練馬区","address":"練馬区関町東1-27-4","lat":35.72668,"lon":139.58139},{"name":"関保健相談所","province":"東京都","city":"練馬区","address":"練馬区関町東1-27-4","lat":35.72669,"lon":139.58139},{"name":"北保健相談所","province":"東京都","city":"練馬区","address":"練馬区北町8-2-11","lat":35.76413,"lon":139.65102},{"name":"練馬区選挙管理委員会","province":"東京都","city":"練馬区","address":"練馬区豊玉北6-12-1","lat":35.735671,"lon":139.651705},{"name":"練馬区保健所（生活衛生課）","province":"東京都","city":"練馬区","address":"練馬区豊玉北6-12-1","lat":35.735573,"lon":139.651671},{"name":"練馬区保健所（保健予防課）","province":"東京都","city":"練馬区","address":"練馬区豊玉北6-12-1","lat":35.735573,"lon":139.651671},{"name":"豊玉保健相談所","province":"東京都","city":"練馬区","address":"練馬区豊玉北5-15-19","lat":35.736014,"lon":139.654851},{"name":"北保健相談所","province":"東京都","city":"練馬区","address":"練馬区北町8-2-11","lat":35.763961,"lon":139.651376},{"name":"光が丘保健相談所","province":"東京都","city":"練馬区","address":"練馬区光が丘2-9-6","lat":35.759486,"lon":139.629589},{"name":"石神井保健相談所","province":"東京都","city":"練馬区","address":"練馬区石神井町7-3-28","lat":35.74452,"lon":139.601328},{"name":"大泉保健相談所","province":"東京都","city":"練馬区","address":"練馬区大泉学園町5-8-8","lat":35.767045,"lon":139.586631},{"name":"関保健相談所","province":"東京都","city":"練馬区","address":"練馬区関町東1-27-4","lat":35.726538,"lon":139.5813},{"name":"やすらぎシティ地域包括支援センター","province":"東京都","city":"練馬区","address":"練馬区東大泉7-27-49","lat":35.74401,"lon":139.5804683},{"name":"練馬区保健所（生活衛生課）","province":"東京都","city":"練馬区","address":"東京都練馬区豊玉北6丁目12-1","lat":35.73558101,"lon":139.65167678},{"name":"練馬区保健所（保健予防課）","province":"東京都","city":"練馬区","address":"東京都練馬区豊玉北6丁目12-1","lat":35.73558101,"lon":139.65167678},{"name":"豊玉保健相談所","province":"東京都","city":"練馬区","address":"東京都練馬区豊玉北5丁目15-19","lat":35.73594216,"lon":139.65492649},{"name":"北保健相談所","province":"東京都","city":"練馬区","address":"東京都練馬区北町6丁目35-7","lat":35.75720905,"lon":139.64949272},{"name":"光が丘保健相談所","province":"東京都","city":"練馬区","address":"東京都練馬区光が丘2丁目9-6","lat":35.75941388,"lon":139.62976375},{"name":"石神井保健相談所","province":"東京都","city":"練馬区","address":"東京都練馬区石神井町7丁目3-28","lat":35.74453977,"lon":139.60134731},{"name":"大泉保健相談所","province":"東京都","city":"練馬区","address":"東京都練馬区大泉学園町5丁目8-8","lat":35.76707824,"lon":139.58662845},{"name":"関保健相談所","province":"東京都","city":"練馬区","address":"東京都練馬区関町東1丁目27-4","lat":35.72653849,"lon":139.58129968},{"name":"練馬区保健所（生活衛生課）","province":"東京都","city":"練馬区","address":"練馬区豊玉北6-12-1","lat":35.73571,"lon":139.65167},{"name":"練馬区保健所（保健予防課）","province":"東京都","city":"練馬区","address":"練馬区豊玉北6-12-1","lat":35.73571,"lon":139.65167},{"name":"豊玉保健相談所","province":"東京都","city":"練馬区","address":"練馬区豊玉北5-15-19","lat":35.73619,"lon":139.65497},{"name":"北保健相談所","province":"東京都","city":"練馬区","address":"練馬区北町6-35-7","lat":35.7577,"lon":139.64937},{"name":"光が丘保健相談所","province":"東京都","city":"練馬区","address":"練馬区光が丘2-9-6","lat":35.75914,"lon":139.63036},{"name":"石神井保健相談所","province":"東京都","city":"練馬区","address":"練馬区石神井町7-3-28","lat":35.7443,"lon":139.60115},{"name":"大泉保健相談所","province":"東京都","city":"練馬区","address":"練馬区大泉学園町5-8-8","lat":35.76731,"lon":139.58688},{"name":"関保健相談所","province":"東京都","city":"練馬区","address":"練馬区関町東1-27-4","lat":35.72668,"lon":139.58139},{"name":"関保健相談所","province":"東京都","city":"練馬区","address":"練馬区関町東1-27-4","lat":35.72669,"lon":139.58139},{"name":"北保健相談所","province":"東京都","city":"練馬区","address":"練馬区北町8-2-11","lat":35.76413,"lon":139.65102},{"name":"練馬区選挙管理委員会","province":"東京都","city":"練馬区","address":"練馬区豊玉北6-12-1","lat":35.735671,"lon":139.651705},{"name":"練馬区保健所（生活衛生課）","province":"東京都","city":"練馬区","address":"練馬区豊玉北6-12-1","lat":35.735573,"lon":139.651671},{"name":"練馬区保健所（保健予防課）","province":"東京都","city":"練馬区","address":"練馬区豊玉北6-12-1","lat":35.735573,"lon":139.651671},{"name":"豊玉保健相談所","province":"東京都","city":"練馬区","address":"練馬区豊玉北5-15-19","lat":35.736014,"lon":139.654851},{"name":"北保健相談所","province":"東京都","city":"練馬区","address":"練馬区北町8-2-11","lat":35.763961,"lon":139.651376},{"name":"光が丘保健相談所","province":"東京都","city":"練馬区","address":"練馬区光が丘2-9-6","lat":35.759486,"lon":139.629589},{"name":"石神井保健相談所","province":"東京都","city":"練馬区","address":"練馬区石神井町7-3-28","lat":35.74452,"lon":139.601328},{"name":"大泉保健相談所","province":"東京都","city":"練馬区","address":"練馬区大泉学園町5-8-8","lat":35.767045,"lon":139.586631},{"name":"関保健相談所","province":"東京都","city":"練馬区","address":"練馬区関町東1-27-4","lat":35.726538,"lon":139.5813},{"name":"やすらぎシティ地域包括支援センター","province":"東京都","city":"練馬区","address":"練馬区東大泉7-27-49","lat":35.74401,"lon":139.5804683},{"name":"練馬区保健所（生活衛生課）","province":"東京都","city":"練馬区","address":"東京都練馬区豊玉北6丁目12-1","lat":35.73558101,"lon":139.65167678},{"name":"練馬区保健所（保健予防課）","province":"東京都","city":"練馬区","address":"東京都練馬区豊玉北6丁目12-1","lat":35.73558101,"lon":139.65167678},{"name":"豊玉保健相談所","province":"東京都","city":"練馬区","address":"東京都練馬区豊玉北5丁目15-19","lat":35.73594216,"lon":139.65492649},{"name":"北保健相談所","province":"東京都","city":"練馬区","address":"東京都練馬区北町6丁目35-7","lat":35.75720905,"lon":139.64949272},{"name":"光が丘保健相談所","province":"東京都","city":"練馬区","address":"東京都練馬区光が丘2丁目9-6","lat":35.75941388,"lon":139.62976375},{"name":"石神井保健相談所","province":"東京都","city":"練馬区","address":"東京都練馬区石神井町7丁目3-28","lat":35.74453977,"lon":139.60134731},{"name":"大泉保健相談所","province":"東京都","city":"練馬区","address":"東京都練馬区大泉学園町5丁目8-8","lat":35.76707824,"lon":139.58662845},{"name":"関保健相談所","province":"東京都","city":"練馬区","address":"東京都練馬区関町東1丁目27-4","lat":35.72653849,"lon":139.58129968},{"name":"練馬区保健所（生活衛生課）","province":"東京都","city":"練馬区","address":"練馬区豊玉北6-12-1","lat":35.73571,"lon":139.65167},{"name":"練馬区保健所（保健予防課）","province":"東京都","city":"練馬区","address":"練馬区豊玉北6-12-1","lat":35.73571,"lon":139.65167},{"name":"豊玉保健相談所","province":"東京都","city":"練馬区","address":"練馬区豊玉北5-15-19","lat":35.73619,"lon":139.65497},{"name":"北保健相談所","province":"東京都","city":"練馬区","address":"練馬区北町6-35-7","lat":35.7577,"lon":139.64937},{"name":"光が丘保健相談所","province":"東京都","city":"練馬区","address":"練馬区光が丘2-9-6","lat":35.75914,"lon":139.63036},{"name":"石神井保健相談所","province":"東京都","city":"練馬区","address":"練馬区石神井町7-3-28","lat":35.7443,"lon":139.60115},{"name":"大泉保健相談所","province":"東京都","city":"練馬区","address":"練馬区大泉学園町5-8-8","lat":35.76731,"lon":139.58688},{"name":"関保健相談所","province":"東京都","city":"練馬区","address":"練馬区関町東1-27-4","lat":35.72668,"lon":139.58139},{"name":"関保健相談所","province":"東京都","city":"練馬区","address":"練馬区関町東1-27-4","lat":35.72669,"lon":139.58139},{"name":"北保健相談所","province":"東京都","city":"練馬区","address":"練馬区北町8-2-11","lat":35.76413,"lon":139.65102},{"name":"練馬区選挙管理委員会","province":"東京都","city":"練馬区","address":"練馬区豊玉北6-12-1","lat":35.735671,"lon":139.651705},{"name":"練馬区保健所（生活衛生課）","province":"東京都","city":"練馬区","address":"練馬区豊玉北6-12-1","lat":35.735573,"lon":139.651671},{"name":"練馬区保健所（保健予防課）","province":"東京都","city":"練馬区","address":"練馬区豊玉北6-12-1","lat":35.735573,"lon":139.651671},{"name":"豊玉保健相談所","province":"東京都","city":"練馬区","address":"練馬区豊玉北5-15-19","lat":35.736014,"lon":139.654851},{"name":"北保健相談所","province":"東京都","city":"練馬区","address":"練馬区北町8-2-11","lat":35.763961,"lon":139.651376},{"name":"光が丘保健相談所","province":"東京都","city":"練馬区","address":"練馬区光が丘2-9-6","lat":35.759486,"lon":139.629589},{"name":"石神井保健相談所","province":"東京都","city":"練馬区","address":"練馬区石神井町7-3-28","lat":35.74452,"lon":139.601328},{"name":"大泉保健相談所","province":"東京都","city":"練馬区","address":"練馬区大泉学園町5-8-8","lat":35.767045,"lon":139.586631},{"name":"関保健相談所","province":"東京都","city":"練馬区","address":"練馬区関町東1-27-4","lat":35.726538,"lon":139.5813},{"name":"やすらぎシティ地域包括支援センター","province":"東京都","city":"練馬区","address":"練馬区東大泉7-27-49","lat":35.74401,"lon":139.5804683},{"name":"練馬区保健所（生活衛生課）","province":"東京都","city":"練馬区","address":"東京都練馬区豊玉北6丁目12-1","lat":35.73558101,"lon":139.65167678},{"name":"練馬区保健所（保健予防課）","province":"東京都","city":"練馬区","address":"東京都練馬区豊玉北6丁目12-1","lat":35.73558101,"lon":139.65167678},{"name":"豊玉保健相談所","province":"東京都","city":"練馬区","address":"東京都練馬区豊玉北5丁目15-19","lat":35.73594216,"lon":139.65492649},{"name":"北保健相談所","province":"東京都","city":"練馬区","address":"東京都練馬区北町6丁目35-7","lat":35.75720905,"lon":139.64949272},{"name":"光が丘保健相談所","province":"東京都","city":"練馬区","address":"東京都練馬区光が丘2丁目9-6","lat":35.75941388,"lon":139.62976375},{"name":"石神井保健相談所","province":"東京都","city":"練馬区","address":"東京都練馬区石神井町7丁目3-28","lat":35.74453977,"lon":139.60134731},{"name":"大泉保健相談所","province":"東京都","city":"練馬区","address":"東京都練馬区大泉学園町5丁目8-8","lat":35.76707824,"lon":139.58662845},{"name":"関保健相談所","province":"東京都","city":"練馬区","address":"東京都練馬区関町東1丁目27-4","lat":35.72653849,"lon":139.58129968},{"name":"練馬区保健所（生活衛生課）","province":"東京都","city":"練馬区","address":"練馬区豊玉北6-12-1","lat":35.73571,"lon":139.65167},{"name":"練馬区保健所（保健予防課）","province":"東京都","city":"練馬区","address":"練馬区豊玉北6-12-1","lat":35.73571,"lon":139.65167},{"name":"豊玉保健相談所","province":"東京都","city":"練馬区","address":"練馬区豊玉北5-15-19","lat":35.73619,"lon":139.65497},{"name":"北保健相談所","province":"東京都","city":"練馬区","address":"練馬区北町6-35-7","lat":35.7577,"lon":139.64937},{"name":"光が丘保健相談所","province":"東京都","city":"練馬区","address":"練馬区光が丘2-9-6","lat":35.75914,"lon":139.63036},{"name":"石神井保健相談所","province":"東京都","city":"練馬区","address":"練馬区石神井町7-3-28","lat":35.7443,"lon":139.60115},{"name":"大泉保健相談所","province":"東京都","city":"練馬区","address":"練馬区大泉学園町5-8-8","lat":35.76731,"lon":139.58688},{"name":"関保健相談所","province":"東京都","city":"練馬区","address":"練馬区関町東1-27-4","lat":35.72668,"lon":139.58139},{"name":"関保健相談所","province":"東京都","city":"練馬区","address":"練馬区関町東1-27-4","lat":35.72669,"lon":139.58139},{"name":"北保健相談所","province":"東京都","city":"練馬区","address":"練馬区北町8-2-11","lat":35.76413,"lon":139.65102},{"name":"練馬区選挙管理委員会","province":"東京都","city":"練馬区","address":"練馬区豊玉北6-12-1","lat":35.735671,"lon":139.651705},{"name":"練馬区保健所（生活衛生課）","province":"東京都","city":"練馬区","address":"練馬区豊玉北6-12-1","lat":35.735573,"lon":139.651671},{"name":"練馬区保健所（保健予防課）","province":"東京都","city":"練馬区","address":"練馬区豊玉北6-12-1","lat":35.735573,"lon":139.651671},{"name":"豊玉保健相談所","province":"東京都","city":"練馬区","address":"練馬区豊玉北5-15-19","lat":35.736014,"lon":139.654851},{"name":"北保健相談所","province":"東京都","city":"練馬区","address":"練馬区北町8-2-11","lat":35.763961,"lon":139.651376},{"name":"光が丘保健相談所","province":"東京都","city":"練馬区","address":"練馬区光が丘2-9-6","lat":35.759486,"lon":139.629589},{"name":"石神井保健相談所","province":"東京都","city":"練馬区","address":"練馬区石神井町7-3-28","lat":35.74452,"lon":139.601328},{"name":"大泉保健相談所","province":"東京都","city":"練馬区","address":"練馬区大泉学園町5-8-8","lat":35.767045,"lon":139.586631},{"name":"関保健相談所","province":"東京都","city":"練馬区","address":"練馬区関町東1-27-4","lat":35.726538,"lon":139.5813},{"name":"やすらぎシティ地域包括支援センター","province":"東京都","city":"練馬区","address":"練馬区東大泉7-27-49","lat":35.74401,"lon":139.5804683},{"name":"練馬区保健所（生活衛生課）","province":"東京都","city":"練馬区","address":"東京都練馬区豊玉北6丁目12-1","lat":35.73558101,"lon":139.65167678},{"name":"練馬区保健所（保健予防課）","province":"東京都","city":"練馬区","address":"東京都練馬区豊玉北6丁目12-1","lat":35.73558101,"lon":139.65167678},{"name":"豊玉保健相談所","province":"東京都","city":"練馬区","address":"東京都練馬区豊玉北5丁目15-19","lat":35.73594216,"lon":139.65492649},{"name":"北保健相談所","province":"東京都","city":"練馬区","address":"東京都練馬区北町6丁目35-7","lat":35.75720905,"lon":139.64949272},{"name":"光が丘保健相談所","province":"東京都","city":"練馬区","address":"東京都練馬区光が丘2丁目9-6","lat":35.75941388,"lon":139.62976375},{"name":"石神井保健相談所","province":"東京都","city":"練馬区","address":"東京都練馬区石神井町7丁目3-28","lat":35.74453977,"lon":139.60134731},{"name":"大泉保健相談所","province":"東京都","city":"練馬区","address":"東京都練馬区大泉学園町5丁目8-8","lat":35.76707824,"lon":139.58662845},{"name":"関保健相談所","province":"東京都","city":"練馬区","address":"東京都練馬区関町東1丁目27-4","lat":35.72653849,"lon":139.58129968},{"name":"練馬区保健所（生活衛生課）","province":"東京都","city":"練馬区","address":"練馬区豊玉北6-12-1","lat":35.73571,"lon":139.65167},{"name":"練馬区保健所（保健予防課）","province":"東京都","city":"練馬区","address":"練馬区豊玉北6-12-1","lat":35.73571,"lon":139.65167},{"name":"豊玉保健相談所","province":"東京都","city":"練馬区","address":"練馬区豊玉北5-15-19","lat":35.73619,"lon":139.65497},{"name":"北保健相談所","province":"東京都","city":"練馬区","address":"練馬区北町6-35-7","lat":35.7577,"lon":139.64937},{"name":"光が丘保健相談所","province":"東京都","city":"練馬区","address":"練馬区光が丘2-9-6","lat":35.75914,"lon":139.63036},{"name":"石神井保健相談所","province":"東京都","city":"練馬区","address":"練馬区石神井町7-3-28","lat":35.7443,"lon":139.60115},{"name":"大泉保健相談所","province":"東京都","city":"練馬区","address":"練馬区大泉学園町5-8-8","lat":35.76731,"lon":139.58688},{"name":"関保健相談所","province":"東京都","city":"練馬区","address":"練馬区関町東1-27-4","lat":35.72668,"lon":139.58139},{"name":"関保健相談所","province":"東京都","city":"練馬区","address":"練馬区関町東1-27-4","lat":35.72669,"lon":139.58139},{"name":"北保健相談所","province":"東京都","city":"練馬区","address":"練馬区北町8-2-11","lat":35.76413,"lon":139.65102},{"name":"練馬区選挙管理委員会","province":"東京都","city":"練馬区","address":"練馬区豊玉北6-12-1","lat":35.735671,"lon":139.651705},{"name":"練馬区保健所（生活衛生課）","province":"東京都","city":"練馬区","address":"練馬区豊玉北6-12-1","lat":35.735573,"lon":139.651671},{"name":"練馬区保健所（保健予防課）","province":"東京都","city":"練馬区","address":"練馬区豊玉北6-12-1","lat":35.735573,"lon":139.651671},{"name":"豊玉保健相談所","province":"東京都","city":"練馬区","address":"練馬区豊玉北5-15-19","lat":35.736014,"lon":139.654851},{"name":"北保健相談所","province":"東京都","city":"練馬区","address":"練馬区北町8-2-11","lat":35.763961,"lon":139.651376},{"name":"光が丘保健相談所","province":"東京都","city":"練馬区","address":"練馬区光が丘2-9-6","lat":35.759486,"lon":139.629589},{"name":"石神井保健相談所","province":"東京都","city":"練馬区","address":"練馬区石神井町7-3-28","lat":35.74452,"lon":139.601328},{"name":"大泉保健相談所","province":"東京都","city":"練馬区","address":"練馬区大泉学園町5-8-8","lat":35.767045,"lon":139.586631},{"name":"関保健相談所","province":"東京都","city":"練馬区","address":"練馬区関町東1-27-4","lat":35.726538,"lon":139.5813},{"name":"やすらぎシティ地域包括支援センター","province":"東京都","city":"練馬区","address":"練馬区東大泉7-27-49","lat":35.74401,"lon":139.5804683},{"name":"練馬区保健所（生活衛生課）","province":"東京都","city":"練馬区","address":"東京都練馬区豊玉北6丁目12-1","lat":35.73558101,"lon":139.65167678},{"name":"練馬区保健所（保健予防課）","province":"東京都","city":"練馬区","address":"東京都練馬区豊玉北6丁目12-1","lat":35.73558101,"lon":139.65167678},{"name":"豊玉保健相談所","province":"東京都","city":"練馬区","address":"東京都練馬区豊玉北5丁目15-19","lat":35.73594216,"lon":139.65492649},{"name":"北保健相談所","province":"東京都","city":"練馬区","address":"東京都練馬区北町6丁目35-7","lat":35.75720905,"lon":139.64949272},{"name":"光が丘保健相談所","province":"東京都","city":"練馬区","address":"東京都練馬区光が丘2丁目9-6","lat":35.75941388,"lon":139.62976375},{"name":"石神井保健相談所","province":"東京都","city":"練馬区","address":"東京都練馬区石神井町7丁目3-28","lat":35.74453977,"lon":139.60134731},{"name":"大泉保健相談所","province":"東京都","city":"練馬区","address":"東京都練馬区大泉学園町5丁目8-8","lat":35.76707824,"lon":139.58662845},{"name":"関保健相談所","province":"東京都","city":"練馬区","address":"東京都練馬区関町東1丁目27-4","lat":35.72653849,"lon":139.58129968},{"name":"練馬区保健所（生活衛生課）","province":"東京都","city":"練馬区","address":"練馬区豊玉北6-12-1","lat":35.73571,"lon":139.65167},{"name":"練馬区保健所（保健予防課）","province":"東京都","city":"練馬区","address":"練馬区豊玉北6-12-1","lat":35.73571,"lon":139.65167},{"name":"豊玉保健相談所","province":"東京都","city":"練馬区","address":"練馬区豊玉北5-15-19","lat":35.73619,"lon":139.65497},{"name":"北保健相談所","province":"東京都","city":"練馬区","address":"練馬区北町6-35-7","lat":35.7577,"lon":139.64937},{"name":"光が丘保健相談所","province":"東京都","city":"練馬区","address":"練馬区光が丘2-9-6","lat":35.75914,"lon":139.63036},{"name":"石神井保健相談所","province":"東京都","city":"練馬区","address":"練馬区石神井町7-3-28","lat":35.7443,"lon":139.60115},{"name":"大泉保健相談所","province":"東京都","city":"練馬区","address":"練馬区大泉学園町5-8-8","lat":35.76731,"lon":139.58688},{"name":"関保健相談所","province":"東京都","city":"練馬区","address":"練馬区関町東1-27-4","lat":35.72668,"lon":139.58139},{"name":"関保健相談所","province":"東京都","city":"練馬区","address":"練馬区関町東1-27-4","lat":35.72669,"lon":139.58139},{"name":"北保健相談所","province":"東京都","city":"練馬区","address":"練馬区北町8-2-11","lat":35.76413,"lon":139.65102},{"name":"練馬区選挙管理委員会","province":"東京都","city":"練馬区","address":"練馬区豊玉北6-12-1","lat":35.735671,"lon":139.651705},{"name":"練馬区保健所（生活衛生課）","province":"東京都","city":"練馬区","address":"練馬区豊玉北6-12-1","lat":35.735573,"lon":139.651671},{"name":"練馬区保健所（保健予防課）","province":"東京都","city":"練馬区","address":"練馬区豊玉北6-12-1","lat":35.735573,"lon":139.651671},{"name":"豊玉保健相談所","province":"東京都","city":"練馬区","address":"練馬区豊玉北5-15-19","lat":35.736014,"lon":139.654851},{"name":"北保健相談所","province":"東京都","city":"練馬区","address":"練馬区北町8-2-11","lat":35.763961,"lon":139.651376},{"name":"光が丘保健相談所","province":"東京都","city":"練馬区","address":"練馬区光が丘2-9-6","lat":35.759486,"lon":139.629589},{"name":"石神井保健相談所","province":"東京都","city":"練馬区","address":"練馬区石神井町7-3-28","lat":35.74452,"lon":139.601328},{"name":"大泉保健相談所","province":"東京都","city":"練馬区","address":"練馬区大泉学園町5-8-8","lat":35.767045,"lon":139.586631},{"name":"関保健相談所","province":"東京都","city":"練馬区","address":"練馬区関町東1-27-4","lat":35.726538,"lon":139.5813},{"name":"やすらぎシティ地域包括支援センター","province":"東京都","city":"練馬区","address":"練馬区東大泉7-27-49","lat":35.74401,"lon":139.5804683},{"name":"練馬区保健所（生活衛生課）","province":"東京都","city":"練馬区","address":"東京都練馬区豊玉北6丁目12-1","lat":35.73558101,"lon":139.65167678},{"name":"練馬区保健所（保健予防課）","province":"東京都","city":"練馬区","address":"東京都練馬区豊玉北6丁目12-1","lat":35.73558101,"lon":139.65167678},{"name":"豊玉保健相談所","province":"東京都","city":"練馬区","address":"東京都練馬区豊玉北5丁目15-19","lat":35.73594216,"lon":139.65492649},{"name":"北保健相談所","province":"東京都","city":"練馬区","address":"東京都練馬区北町6丁目35-7","lat":35.75720905,"lon":139.64949272},{"name":"光が丘保健相談所","province":"東京都","city":"練馬区","address":"東京都練馬区光が丘2丁目9-6","lat":35.75941388,"lon":139.62976375},{"name":"石神井保健相談所","province":"東京都","city":"練馬区","address":"東京都練馬区石神井町7丁目3-28","lat":35.74453977,"lon":139.60134731},{"name":"大泉保健相談所","province":"東京都","city":"練馬区","address":"東京都練馬区大泉学園町5丁目8-8","lat":35.76707824,"lon":139.58662845},{"name":"関保健相談所","province":"東京都","city":"練馬区","address":"東京都練馬区関町東1丁目27-4","lat":35.72653849,"lon":139.58129968},{"name":"練馬区保健所（生活衛生課）","province":"東京都","city":"練馬区","address":"練馬区豊玉北6-12-1","lat":35.73571,"lon":139.65167},{"name":"練馬区保健所（保健予防課）","province":"東京都","city":"練馬区","address":"練馬区豊玉北6-12-1","lat":35.73571,"lon":139.65167},{"name":"豊玉保健相談所","province":"東京都","city":"練馬区","address":"練馬区豊玉北5-15-19","lat":35.73619,"lon":139.65497},{"name":"北保健相談所","province":"東京都","city":"練馬区","address":"練馬区北町6-35-7","lat":35.7577,"lon":139.64937},{"name":"光が丘保健相談所","province":"東京都","city":"練馬区","address":"練馬区光が丘2-9-6","lat":35.75914,"lon":139.63036},{"name":"石神井保健相談所","province":"東京都","city":"練馬区","address":"練馬区石神井町7-3-28","lat":35.7443,"lon":139.60115},{"name":"大泉保健相談所","province":"東京都","city":"練馬区","address":"練馬区大泉学園町5-8-8","lat":35.76731,"lon":139.58688},{"name":"関保健相談所","province":"東京都","city":"練馬区","address":"練馬区関町東1-27-4","lat":35.72668,"lon":139.58139},{"name":"関保健相談所","province":"東京都","city":"練馬区","address":"練馬区関町東1-27-4","lat":35.72669,"lon":139.58139},{"name":"北保健相談所","province":"東京都","city":"練馬区","address":"練馬区北町8-2-11","lat":35.76413,"lon":139.65102},{"name":"練馬区選挙管理委員会","province":"東京都","city":"練馬区","address":"練馬区豊玉北6-12-1","lat":35.735671,"lon":139.651705},{"name":"練馬区保健所（生活衛生課）","province":"東京都","city":"練馬区","address":"練馬区豊玉北6-12-1","lat":35.735573,"lon":139.651671},{"name":"練馬区保健所（保健予防課）","province":"東京都","city":"練馬区","address":"練馬区豊玉北6-12-1","lat":35.735573,"lon":139.651671},{"name":"豊玉保健相談所","province":"東京都","city":"練馬区","address":"練馬区豊玉北5-15-19","lat":35.736014,"lon":139.654851},{"name":"北保健相談所","province":"東京都","city":"練馬区","address":"練馬区北町8-2-11","lat":35.763961,"lon":139.651376},{"name":"光が丘保健相談所","province":"東京都","city":"練馬区","address":"練馬区光が丘2-9-6","lat":35.759486,"lon":139.629589},{"name":"石神井保健相談所","province":"東京都","city":"練馬区","address":"練馬区石神井町7-3-28","lat":35.74452,"lon":139.601328},{"name":"大泉保健相談所","province":"東京都","city":"練馬区","address":"練馬区大泉学園町5-8-8","lat":35.767045,"lon":139.586631},{"name":"関保健相談所","province":"東京都","city":"練馬区","address":"練馬区関町東1-27-4","lat":35.726538,"lon":139.5813},{"name":"やすらぎシティ地域包括支援センター","province":"東京都","city":"練馬区","address":"練馬区東大泉7-27-49","lat":35.74401,"lon":139.5804683},{"name":"練馬区保健所（生活衛生課）","province":"東京都","city":"練馬区","address":"東京都練馬区豊玉北6丁目12-1","lat":35.73558101,"lon":139.65167678},{"name":"練馬区保健所（保健予防課）","province":"東京都","city":"練馬区","address":"東京都練馬区豊玉北6丁目12-1","lat":35.73558101,"lon":139.65167678},{"name":"豊玉保健相談所","province":"東京都","city":"練馬区","address":"東京都練馬区豊玉北5丁目15-19","lat":35.73594216,"lon":139.65492649},{"name":"北保健相談所","province":"東京都","city":"練馬区","address":"東京都練馬区北町6丁目35-7","lat":35.75720905,"lon":139.64949272},{"name":"光が丘保健相談所","province":"東京都","city":"練馬区","address":"東京都練馬区光が丘2丁目9-6","lat":35.75941388,"lon":139.62976375},{"name":"石神井保健相談所","province":"東京都","city":"練馬区","address":"東京都練馬区石神井町7丁目3-28","lat":35.74453977,"lon":139.60134731},{"name":"大泉保健相談所","province":"東京都","city":"練馬区","address":"東京都練馬区大泉学園町5丁目8-8","lat":35.76707824,"lon":139.58662845},{"name":"関保健相談所","province":"東京都","city":"練馬区","address":"東京都練馬区関町東1丁目27-4","lat":35.72653849,"lon":139.58129968},{"name":"練馬区保健所（生活衛生課）","province":"東京都","city":"練馬区","address":"練馬区豊玉北6-12-1","lat":35.73571,"lon":139.65167},{"name":"練馬区保健所（保健予防課）","province":"東京都","city":"練馬区","address":"練馬区豊玉北6-12-1","lat":35.73571,"lon":139.65167},{"name":"豊玉保健相談所","province":"東京都","city":"練馬区","address":"練馬区豊玉北5-15-19","lat":35.73619,"lon":139.65497},{"name":"北保健相談所","province":"東京都","city":"練馬区","address":"練馬区北町6-35-7","lat":35.7577,"lon":139.64937},{"name":"光が丘保健相談所","province":"東京都","city":"練馬区","address":"練馬区光が丘2-9-6","lat":35.75914,"lon":139.63036},{"name":"石神井保健相談所","province":"東京都","city":"練馬区","address":"練馬区石神井町7-3-28","lat":35.7443,"lon":139.60115},{"name":"大泉保健相談所","province":"東京都","city":"練馬区","address":"練馬区大泉学園町5-8-8","lat":35.76731,"lon":139.58688},{"name":"関保健相談所","province":"東京都","city":"練馬区","address":"練馬区関町東1-27-4","lat":35.72668,"lon":139.58139},{"name":"関保健相談所","province":"東京都","city":"練馬区","address":"練馬区関町東1-27-4","lat":35.72669,"lon":139.58139},{"name":"北保健相談所","province":"東京都","city":"練馬区","address":"練馬区北町8-2-11","lat":35.76413,"lon":139.65102},{"name":"練馬区選挙管理委員会","province":"東京都","city":"練馬区","address":"練馬区豊玉北6-12-1","lat":35.735671,"lon":139.651705},{"name":"練馬区保健所（生活衛生課）","province":"東京都","city":"練馬区","address":"練馬区豊玉北6-12-1","lat":35.735573,"lon":139.651671},{"name":"練馬区保健所（保健予防課）","province":"東京都","city":"練馬区","address":"練馬区豊玉北6-12-1","lat":35.735573,"lon":139.651671},{"name":"豊玉保健相談所","province":"東京都","city":"練馬区","address":"練馬区豊玉北5-15-19","lat":35.736014,"lon":139.654851},{"name":"北保健相談所","province":"東京都","city":"練馬区","address":"練馬区北町8-2-11","lat":35.763961,"lon":139.651376},{"name":"光が丘保健相談所","province":"東京都","city":"練馬区","address":"練馬区光が丘2-9-6","lat":35.759486,"lon":139.629589},{"name":"石神井保健相談所","province":"東京都","city":"練馬区","address":"練馬区石神井町7-3-28","lat":35.74452,"lon":139.601328},{"name":"大泉保健相談所","province":"東京都","city":"練馬区","address":"練馬区大泉学園町5-8-8","lat":35.767045,"lon":139.586631},{"name":"関保健相談所","province":"東京都","city":"練馬区","address":"練馬区関町東1-27-4","lat":35.726538,"lon":139.5813},{"name":"やすらぎシティ地域包括支援センター","province":"東京都","city":"練馬区","address":"練馬区東大泉7-27-49","lat":35.74401,"lon":139.5804683},{"name":"練馬区保健所（生活衛生課）","province":"東京都","city":"練馬区","address":"東京都練馬区豊玉北6丁目12-1","lat":35.73558101,"lon":139.65167678},{"name":"練馬区保健所（保健予防課）","province":"東京都","city":"練馬区","address":"東京都練馬区豊玉北6丁目12-1","lat":35.73558101,"lon":139.65167678},{"name":"豊玉保健相談所","province":"東京都","city":"練馬区","address":"東京都練馬区豊玉北5丁目15-19","lat":35.73594216,"lon":139.65492649},{"name":"北保健相談所","province":"東京都","city":"練馬区","address":"東京都練馬区北町6丁目35-7","lat":35.75720905,"lon":139.64949272},{"name":"光が丘保健相談所","province":"東京都","city":"練馬区","address":"東京都練馬区光が丘2丁目9-6","lat":35.75941388,"lon":139.62976375},{"name":"石神井保健相談所","province":"東京都","city":"練馬区","address":"東京都練馬区石神井町7丁目3-28","lat":35.74453977,"lon":139.60134731},{"name":"大泉保健相談所","province":"東京都","city":"練馬区","address":"東京都練馬区大泉学園町5丁目8-8","lat":35.76707824,"lon":139.58662845},{"name":"関保健相談所","province":"東京都","city":"練馬区","address":"東京都練馬区関町東1丁目27-4","lat":35.72653849,"lon":139.58129968},{"name":"練馬区保健所（生活衛生課）","province":"東京都","city":"練馬区","address":"練馬区豊玉北6-12-1","lat":35.73571,"lon":139.65167},{"name":"練馬区保健所（保健予防課）","province":"東京都","city":"練馬区","address":"練馬区豊玉北6-12-1","lat":35.73571,"lon":139.65167},{"name":"豊玉保健相談所","province":"東京都","city":"練馬区","address":"練馬区豊玉北5-15-19","lat":35.73619,"lon":139.65497},{"name":"北保健相談所","province":"東京都","city":"練馬区","address":"練馬区北町6-35-7","lat":35.7577,"lon":139.64937},{"name":"光が丘保健相談所","province":"東京都","city":"練馬区","address":"練馬区光が丘2-9-6","lat":35.75914,"lon":139.63036},{"name":"石神井保健相談所","province":"東京都","city":"練馬区","address":"練馬区石神井町7-3-28","lat":35.7443,"lon":139.60115},{"name":"大泉保健相談所","province":"東京都","city":"練馬区","address":"練馬区大泉学園町5-8-8","lat":35.76731,"lon":139.58688},{"name":"関保健相談所","province":"東京都","city":"練馬区","address":"練馬区関町東1-27-4","lat":35.72668,"lon":139.58139},{"name":"関保健相談所","province":"東京都","city":"練馬区","address":"練馬区関町東1-27-4","lat":35.72669,"lon":139.58139},{"name":"北保健相談所","province":"東京都","city":"練馬区","address":"練馬区北町8-2-11","lat":35.76413,"lon":139.65102},{"name":"練馬区選挙管理委員会","province":"東京都","city":"練馬区","address":"練馬区豊玉北6-12-1","lat":35.735671,"lon":139.651705},{"name":"練馬区保健所（生活衛生課）","province":"東京都","city":"練馬区","address":"練馬区豊玉北6-12-1","lat":35.735573,"lon":139.651671},{"name":"練馬区保健所（保健予防課）","province":"東京都","city":"練馬区","address":"練馬区豊玉北6-12-1","lat":35.735573,"lon":139.651671},{"name":"豊玉保健相談所","province":"東京都","city":"練馬区","address":"練馬区豊玉北5-15-19","lat":35.736014,"lon":139.654851},{"name":"北保健相談所","province":"東京都","city":"練馬区","address":"練馬区北町8-2-11","lat":35.763961,"lon":139.651376},{"name":"光が丘保健相談所","province":"東京都","city":"練馬区","address":"練馬区光が丘2-9-6","lat":35.759486,"lon":139.629589},{"name":"石神井保健相談所","province":"東京都","city":"練馬区","address":"練馬区石神井町7-3-28","lat":35.74452,"lon":139.601328},{"name":"大泉保健相談所","province":"東京都","city":"練馬区","address":"練馬区大泉学園町5-8-8","lat":35.767045,"lon":139.586631},{"name":"関保健相談所","province":"東京都","city":"練馬区","address":"練馬区関町東1-27-4","lat":35.726538,"lon":139.5813},{"name":"やすらぎシティ地域包括支援センター","province":"東京都","city":"練馬区","address":"練馬区東大泉7-27-49","lat":35.74401,"lon":139.5804683},{"name":"練馬区保健所（生活衛生課）","province":"東京都","city":"練馬区","address":"東京都練馬区豊玉北6丁目12-1","lat":35.73558101,"lon":139.65167678},{"name":"練馬区保健所（保健予防課）","province":"東京都","city":"練馬区","address":"東京都練馬区豊玉北6丁目12-1","lat":35.73558101,"lon":139.65167678},{"name":"豊玉保健相談所","province":"東京都","city":"練馬区","address":"東京都練馬区豊玉北5丁目15-19","lat":35.73594216,"lon":139.65492649},{"name":"北保健相談所","province":"東京都","city":"練馬区","address":"東京都練馬区北町6丁目35-7","lat":35.75720905,"lon":139.64949272},{"name":"光が丘保健相談所","province":"東京都","city":"練馬区","address":"東京都練馬区光が丘2丁目9-6","lat":35.75941388,"lon":139.62976375},{"name":"石神井保健相談所","province":"東京都","city":"練馬区","address":"東京都練馬区石神井町7丁目3-28","lat":35.74453977,"lon":139.60134731},{"name":"大泉保健相談所","province":"東京都","city":"練馬区","address":"東京都練馬区大泉学園町5丁目8-8","lat":35.76707824,"lon":139.58662845},{"name":"関保健相談所","province":"東京都","city":"練馬区","address":"東京都練馬区関町東1丁目27-4","lat":35.72653849,"lon":139.58129968},{"name":"練馬区保健所（生活衛生課）","province":"東京都","city":"練馬区","address":"練馬区豊玉北6-12-1","lat":35.73571,"lon":139.65167},{"name":"練馬区保健所（保健予防課）","province":"東京都","city":"練馬区","address":"練馬区豊玉北6-12-1","lat":35.73571,"lon":139.65167},{"name":"豊玉保健相談所","province":"東京都","city":"練馬区","address":"練馬区豊玉北5-15-19","lat":35.73619,"lon":139.65497},{"name":"北保健相談所","province":"東京都","city":"練馬区","address":"練馬区北町6-35-7","lat":35.7577,"lon":139.64937},{"name":"光が丘保健相談所","province":"東京都","city":"練馬区","address":"練馬区光が丘2-9-6","lat":35.75914,"lon":139.63036},{"name":"石神井保健相談所","province":"東京都","city":"練馬区","address":"練馬区石神井町7-3-28","lat":35.7443,"lon":139.60115},{"name":"大泉保健相談所","province":"東京都","city":"練馬区","address":"練馬区大泉学園町5-8-8","lat":35.76731,"lon":139.58688},{"name":"関保健相談所","province":"東京都","city":"練馬区","address":"練馬区関町東1-27-4","lat":35.72668,"lon":139.58139},{"name":"関保健相談所","province":"東京都","city":"練馬区","address":"練馬区関町東1-27-4","lat":35.72669,"lon":139.58139},{"name":"北保健相談所","province":"東京都","city":"練馬区","address":"練馬区北町8-2-11","lat":35.76413,"lon":139.65102},{"name":"練馬区選挙管理委員会","province":"東京都","city":"練馬区","address":"練馬区豊玉北6-12-1","lat":35.735671,"lon":139.651705},{"name":"練馬区保健所（生活衛生課）","province":"東京都","city":"練馬区","address":"練馬区豊玉北6-12-1","lat":35.735573,"lon":139.651671},{"name":"練馬区保健所（保健予防課）","province":"東京都","city":"練馬区","address":"練馬区豊玉北6-12-1","lat":35.735573,"lon":139.651671},{"name":"豊玉保健相談所","province":"東京都","city":"練馬区","address":"練馬区豊玉北5-15-19","lat":35.736014,"lon":139.654851},{"name":"北保健相談所","province":"東京都","city":"練馬区","address":"練馬区北町8-2-11","lat":35.763961,"lon":139.651376},{"name":"光が丘保健相談所","province":"東京都","city":"練馬区","address":"練馬区光が丘2-9-6","lat":35.759486,"lon":139.629589},{"name":"石神井保健相談所","province":"東京都","city":"練馬区","address":"練馬区石神井町7-3-28","lat":35.74452,"lon":139.601328},{"name":"大泉保健相談所","province":"東京都","city":"練馬区","address":"練馬区大泉学園町5-8-8","lat":35.767045,"lon":139.586631},{"name":"関保健相談所","province":"東京都","city":"練馬区","address":"練馬区関町東1-27-4","lat":35.726538,"lon":139.5813},{"name":"やすらぎシティ地域包括支援センター","province":"東京都","city":"練馬区","address":"練馬区東大泉7-27-49","lat":35.74401,"lon":139.5804683},{"name":"練馬区保健所（生活衛生課）","province":"東京都","city":"練馬区","address":"東京都練馬区豊玉北6丁目12-1","lat":35.73558101,"lon":139.65167678},{"name":"練馬区保健所（保健予防課）","province":"東京都","city":"練馬区","address":"東京都練馬区豊玉北6丁目12-1","lat":35.73558101,"lon":139.65167678},{"name":"豊玉保健相談所","province":"東京都","city":"練馬区","address":"東京都練馬区豊玉北5丁目15-19","lat":35.73594216,"lon":139.65492649},{"name":"北保健相談所","province":"東京都","city":"練馬区","address":"東京都練馬区北町6丁目35-7","lat":35.75720905,"lon":139.64949272},{"name":"光が丘保健相談所","province":"東京都","city":"練馬区","address":"東京都練馬区光が丘2丁目9-6","lat":35.75941388,"lon":139.62976375},{"name":"石神井保健相談所","province":"東京都","city":"練馬区","address":"東京都練馬区石神井町7丁目3-28","lat":35.74453977,"lon":139.60134731},{"name":"大泉保健相談所","province":"東京都","city":"練馬区","address":"東京都練馬区大泉学園町5丁目8-8","lat":35.76707824,"lon":139.58662845},{"name":"関保健相談所","province":"東京都","city":"練馬区","address":"東京都練馬区関町東1丁目27-4","lat":35.72653849,"lon":139.58129968},{"name":"練馬区保健所（生活衛生課）","province":"東京都","city":"練馬区","address":"練馬区豊玉北6-12-1","lat":35.73571,"lon":139.65167},{"name":"練馬区保健所（保健予防課）","province":"東京都","city":"練馬区","address":"練馬区豊玉北6-12-1","lat":35.73571,"lon":139.65167},{"name":"豊玉保健相談所","province":"東京都","city":"練馬区","address":"練馬区豊玉北5-15-19","lat":35.73619,"lon":139.65497},{"name":"北保健相談所","province":"東京都","city":"練馬区","address":"練馬区北町6-35-7","lat":35.7577,"lon":139.64937},{"name":"光が丘保健相談所","province":"東京都","city":"練馬区","address":"練馬区光が丘2-9-6","lat":35.75914,"lon":139.63036},{"name":"石神井保健相談所","province":"東京都","city":"練馬区","address":"練馬区石神井町7-3-28","lat":35.7443,"lon":139.60115},{"name":"大泉保健相談所","province":"東京都","city":"練馬区","address":"練馬区大泉学園町5-8-8","lat":35.76731,"lon":139.58688},{"name":"関保健相談所","province":"東京都","city":"練馬区","address":"練馬区関町東1-27-4","lat":35.72668,"lon":139.58139},{"name":"関保健相談所","province":"東京都","city":"練馬区","address":"練馬区関町東1-27-4","lat":35.72669,"lon":139.58139},{"name":"北保健相談所","province":"東京都","city":"練馬区","address":"練馬区北町8-2-11","lat":35.76413,"lon":139.65102},{"name":"練馬区選挙管理委員会","province":"東京都","city":"練馬区","address":"練馬区豊玉北6-12-1","lat":35.735671,"lon":139.651705},{"name":"練馬区保健所（生活衛生課）","province":"東京都","city":"練馬区","address":"練馬区豊玉北6-12-1","lat":35.735573,"lon":139.651671},{"name":"練馬区保健所（保健予防課）","province":"東京都","city":"練馬区","address":"練馬区豊玉北6-12-1","lat":35.735573,"lon":139.651671},{"name":"豊玉保健相談所","province":"東京都","city":"練馬区","address":"練馬区豊玉北5-15-19","lat":35.736014,"lon":139.654851},{"name":"北保健相談所","province":"東京都","city":"練馬区","address":"練馬区北町8-2-11","lat":35.763961,"lon":139.651376},{"name":"光が丘保健相談所","province":"東京都","city":"練馬区","address":"練馬区光が丘2-9-6","lat":35.759486,"lon":139.629589},{"name":"石神井保健相談所","province":"東京都","city":"練馬区","address":"練馬区石神井町7-3-28","lat":35.74452,"lon":139.601328},{"name":"大泉保健相談所","province":"東京都","city":"練馬区","address":"練馬区大泉学園町5-8-8","lat":35.767045,"lon":139.586631},{"name":"関保健相談所","province":"東京都","city":"練馬区","address":"練馬区関町東1-27-4","lat":35.726538,"lon":139.5813},{"name":"やすらぎシティ地域包括支援センター","province":"東京都","city":"練馬区","address":"練馬区東大泉7-27-49","lat":35.74401,"lon":139.5804683},{"name":"練馬区保健所（生活衛生課）","province":"東京都","city":"練馬区","address":"東京都練馬区豊玉北6丁目12-1","lat":35.73558101,"lon":139.65167678},{"name":"練馬区保健所（保健予防課）","province":"東京都","city":"練馬区","address":"東京都練馬区豊玉北6丁目12-1","lat":35.73558101,"lon":139.65167678},{"name":"豊玉保健相談所","province":"東京都","city":"練馬区","address":"東京都練馬区豊玉北5丁目15-19","lat":35.73594216,"lon":139.65492649},{"name":"北保健相談所","province":"東京都","city":"練馬区","address":"東京都練馬区北町6丁目35-7","lat":35.75720905,"lon":139.64949272},{"name":"光が丘保健相談所","province":"東京都","city":"練馬区","address":"東京都練馬区光が丘2丁目9-6","lat":35.75941388,"lon":139.62976375},{"name":"石神井保健相談所","province":"東京都","city":"練馬区","address":"東京都練馬区石神井町7丁目3-28","lat":35.74453977,"lon":139.60134731},{"name":"大泉保健相談所","province":"東京都","city":"練馬区","address":"東京都練馬区大泉学園町5丁目8-8","lat":35.76707824,"lon":139.58662845},{"name":"関保健相談所","province":"東京都","city":"練馬区","address":"東京都練馬区関町東1丁目27-4","lat":35.72653849,"lon":139.58129968},{"name":"練馬区保健所（生活衛生課）","province":"東京都","city":"練馬区","address":"練馬区豊玉北6-12-1","lat":35.73571,"lon":139.65167},{"name":"練馬区保健所（保健予防課）","province":"東京都","city":"練馬区","address":"練馬区豊玉北6-12-1","lat":35.73571,"lon":139.65167},{"name":"豊玉保健相談所","province":"東京都","city":"練馬区","address":"練馬区豊玉北5-15-19","lat":35.73619,"lon":139.65497},{"name":"北保健相談所","province":"東京都","city":"練馬区","address":"練馬区北町6-35-7","lat":35.7577,"lon":139.64937},{"name":"光が丘保健相談所","province":"東京都","city":"練馬区","address":"練馬区光が丘2-9-6","lat":35.75914,"lon":139.63036},{"name":"石神井保健相談所","province":"東京都","city":"練馬区","address":"練馬区石神井町7-3-28","lat":35.7443,"lon":139.60115},{"name":"大泉保健相談所","province":"東京都","city":"練馬区","address":"練馬区大泉学園町5-8-8","lat":35.76731,"lon":139.58688},{"name":"関保健相談所","province":"東京都","city":"練馬区","address":"練馬区関町東1-27-4","lat":35.72668,"lon":139.58139},{"name":"関保健相談所","province":"東京都","city":"練馬区","address":"練馬区関町東1-27-4","lat":35.72669,"lon":139.58139},{"name":"北保健相談所","province":"東京都","city":"練馬区","address":"練馬区北町8-2-11","lat":35.76413,"lon":139.65102},{"name":"練馬区選挙管理委員会","province":"東京都","city":"練馬区","address":"練馬区豊玉北6-12-1","lat":35.735671,"lon":139.651705},{"name":"練馬区保健所（生活衛生課）","province":"東京都","city":"練馬区","address":"練馬区豊玉北6-12-1","lat":35.735573,"lon":139.651671},{"name":"練馬区保健所（保健予防課）","province":"東京都","city":"練馬区","address":"練馬区豊玉北6-12-1","lat":35.735573,"lon":139.651671},{"name":"豊玉保健相談所","province":"東京都","city":"練馬区","address":"練馬区豊玉北5-15-19","lat":35.736014,"lon":139.654851},{"name":"北保健相談所","province":"東京都","city":"練馬区","address":"練馬区北町8-2-11","lat":35.763961,"lon":139.651376},{"name":"光が丘保健相談所","province":"東京都","city":"練馬区","address":"練馬区光が丘2-9-6","lat":35.759486,"lon":139.629589},{"name":"石神井保健相談所","province":"東京都","city":"練馬区","address":"練馬区石神井町7-3-28","lat":35.74452,"lon":139.601328},{"name":"大泉保健相談所","province":"東京都","city":"練馬区","address":"練馬区大泉学園町5-8-8","lat":35.767045,"lon":139.586631},{"name":"関保健相談所","province":"東京都","city":"練馬区","address":"練馬区関町東1-27-4","lat":35.726538,"lon":139.5813},{"name":"やすらぎシティ地域包括支援センター","province":"東京都","city":"練馬区","address":"練馬区東大泉7-27-49","lat":35.74401,"lon":139.5804683},{"name":"練馬区保健所（生活衛生課）","province":"東京都","city":"練馬区","address":"東京都練馬区豊玉北6丁目12-1","lat":35.73558101,"lon":139.65167678},{"name":"練馬区保健所（保健予防課）","province":"東京都","city":"練馬区","address":"東京都練馬区豊玉北6丁目12-1","lat":35.73558101,"lon":139.65167678},{"name":"豊玉保健相談所","province":"東京都","city":"練馬区","address":"東京都練馬区豊玉北5丁目15-19","lat":35.73594216,"lon":139.65492649},{"name":"北保健相談所","province":"東京都","city":"練馬区","address":"東京都練馬区北町6丁目35-7","lat":35.75720905,"lon":139.64949272},{"name":"光が丘保健相談所","province":"東京都","city":"練馬区","address":"東京都練馬区光が丘2丁目9-6","lat":35.75941388,"lon":139.62976375},{"name":"石神井保健相談所","province":"東京都","city":"練馬区","address":"東京都練馬区石神井町7丁目3-28","lat":35.74453977,"lon":139.60134731},{"name":"大泉保健相談所","province":"東京都","city":"練馬区","address":"東京都練馬区大泉学園町5丁目8-8","lat":35.76707824,"lon":139.58662845},{"name":"関保健相談所","province":"東京都","city":"練馬区","address":"東京都練馬区関町東1丁目27-4","lat":35.72653849,"lon":139.58129968},{"name":"練馬区保健所（生活衛生課）","province":"東京都","city":"練馬区","address":"練馬区豊玉北6-12-1","lat":35.73571,"lon":139.65167},{"name":"練馬区保健所（保健予防課）","province":"東京都","city":"練馬区","address":"練馬区豊玉北6-12-1","lat":35.73571,"lon":139.65167},{"name":"豊玉保健相談所","province":"東京都","city":"練馬区","address":"練馬区豊玉北5-15-19","lat":35.73619,"lon":139.65497},{"name":"北保健相談所","province":"東京都","city":"練馬区","address":"練馬区北町6-35-7","lat":35.7577,"lon":139.64937},{"name":"光が丘保健相談所","province":"東京都","city":"練馬区","address":"練馬区光が丘2-9-6","lat":35.75914,"lon":139.63036},{"name":"石神井保健相談所","province":"東京都","city":"練馬区","address":"練馬区石神井町7-3-28","lat":35.7443,"lon":139.60115},{"name":"大泉保健相談所","province":"東京都","city":"練馬区","address":"練馬区大泉学園町5-8-8","lat":35.76731,"lon":139.58688},{"name":"関保健相談所","province":"東京都","city":"練馬区","address":"練馬区関町東1-27-4","lat":35.72668,"lon":139.58139},{"name":"関保健相談所","province":"東京都","city":"練馬区","address":"練馬区関町東1-27-4","lat":35.72669,"lon":139.58139},{"name":"北保健相談所","province":"東京都","city":"練馬区","address":"練馬区北町8-2-11","lat":35.76413,"lon":139.65102},{"name":"練馬区選挙管理委員会","province":"東京都","city":"練馬区","address":"練馬区豊玉北6-12-1","lat":35.735671,"lon":139.651705},{"name":"練馬区保健所（生活衛生課）","province":"東京都","city":"練馬区","address":"練馬区豊玉北6-12-1","lat":35.735573,"lon":139.651671},{"name":"練馬区保健所（保健予防課）","province":"東京都","city":"練馬区","address":"練馬区豊玉北6-12-1","lat":35.735573,"lon":139.651671},{"name":"豊玉保健相談所","province":"東京都","city":"練馬区","address":"練馬区豊玉北5-15-19","lat":35.736014,"lon":139.654851},{"name":"北保健相談所","province":"東京都","city":"練馬区","address":"練馬区北町8-2-11","lat":35.763961,"lon":139.651376},{"name":"光が丘保健相談所","province":"東京都","city":"練馬区","address":"練馬区光が丘2-9-6","lat":35.759486,"lon":139.629589},{"name":"石神井保健相談所","province":"東京都","city":"練馬区","address":"練馬区石神井町7-3-28","lat":35.74452,"lon":139.601328},{"name":"大泉保健相談所","province":"東京都","city":"練馬区","address":"練馬区大泉学園町5-8-8","lat":35.767045,"lon":139.586631},{"name":"関保健相談所","province":"東京都","city":"練馬区","address":"練馬区関町東1-27-4","lat":35.726538,"lon":139.5813},{"name":"やすらぎシティ地域包括支援センター","province":"東京都","city":"練馬区","address":"練馬区東大泉7-27-49","lat":35.74401,"lon":139.5804683},{"name":"練馬区保健所（生活衛生課）","province":"東京都","city":"練馬区","address":"東京都練馬区豊玉北6丁目12-1","lat":35.73558101,"lon":139.65167678},{"name":"練馬区保健所（保健予防課）","province":"東京都","city":"練馬区","address":"東京都練馬区豊玉北6丁目12-1","lat":35.73558101,"lon":139.65167678},{"name":"豊玉保健相談所","province":"東京都","city":"練馬区","address":"東京都練馬区豊玉北5丁目15-19","lat":35.73594216,"lon":139.65492649},{"name":"北保健相談所","province":"東京都","city":"練馬区","address":"東京都練馬区北町6丁目35-7","lat":35.75720905,"lon":139.64949272},{"name":"光が丘保健相談所","province":"東京都","city":"練馬区","address":"東京都練馬区光が丘2丁目9-6","lat":35.75941388,"lon":139.62976375},{"name":"石神井保健相談所","province":"東京都","city":"練馬区","address":"東京都練馬区石神井町7丁目3-28","lat":35.74453977,"lon":139.60134731},{"name":"大泉保健相談所","province":"東京都","city":"練馬区","address":"東京都練馬区大泉学園町5丁目8-8","lat":35.76707824,"lon":139.58662845},{"name":"関保健相談所","province":"東京都","city":"練馬区","address":"東京都練馬区関町東1丁目27-4","lat":35.72653849,"lon":139.58129968},{"name":"練馬区保健所（生活衛生課）","province":"東京都","city":"練馬区","address":"練馬区豊玉北6-12-1","lat":35.73571,"lon":139.65167},{"name":"練馬区保健所（保健予防課）","province":"東京都","city":"練馬区","address":"練馬区豊玉北6-12-1","lat":35.73571,"lon":139.65167},{"name":"豊玉保健相談所","province":"東京都","city":"練馬区","address":"練馬区豊玉北5-15-19","lat":35.73619,"lon":139.65497},{"name":"北保健相談所","province":"東京都","city":"練馬区","address":"練馬区北町6-35-7","lat":35.7577,"lon":139.64937},{"name":"光が丘保健相談所","province":"東京都","city":"練馬区","address":"練馬区光が丘2-9-6","lat":35.75914,"lon":139.63036},{"name":"石神井保健相談所","province":"東京都","city":"練馬区","address":"練馬区石神井町7-3-28","lat":35.7443,"lon":139.60115},{"name":"大泉保健相談所","province":"東京都","city":"練馬区","address":"練馬区大泉学園町5-8-8","lat":35.76731,"lon":139.58688},{"name":"関保健相談所","province":"東京都","city":"練馬区","address":"練馬区関町東1-27-4","lat":35.72668,"lon":139.58139},{"name":"関保健相談所","province":"東京都","city":"練馬区","address":"練馬区関町東1-27-4","lat":35.72669,"lon":139.58139},{"name":"北保健相談所","province":"東京都","city":"練馬区","address":"練馬区北町8-2-11","lat":35.76413,"lon":139.65102},{"name":"練馬区選挙管理委員会","province":"東京都","city":"練馬区","address":"練馬区豊玉北6-12-1","lat":35.735671,"lon":139.651705},{"name":"練馬区保健所（生活衛生課）","province":"東京都","city":"練馬区","address":"練馬区豊玉北6-12-1","lat":35.735573,"lon":139.651671},{"name":"練馬区保健所（保健予防課）","province":"東京都","city":"練馬区","address":"練馬区豊玉北6-12-1","lat":35.735573,"lon":139.651671},{"name":"豊玉保健相談所","province":"東京都","city":"練馬区","address":"練馬区豊玉北5-15-19","lat":35.736014,"lon":139.654851},{"name":"北保健相談所","province":"東京都","city":"練馬区","address":"練馬区北町8-2-11","lat":35.763961,"lon":139.651376},{"name":"光が丘保健相談所","province":"東京都","city":"練馬区","address":"練馬区光が丘2-9-6","lat":35.759486,"lon":139.629589},{"name":"石神井保健相談所","province":"東京都","city":"練馬区","address":"練馬区石神井町7-3-28","lat":35.74452,"lon":139.601328},{"name":"大泉保健相談所","province":"東京都","city":"練馬区","address":"練馬区大泉学園町5-8-8","lat":35.767045,"lon":139.586631},{"name":"関保健相談所","province":"東京都","city":"練馬区","address":"練馬区関町東1-27-4","lat":35.726538,"lon":139.5813},{"name":"やすらぎシティ地域包括支援センター","province":"東京都","city":"練馬区","address":"練馬区東大泉7-27-49","lat":35.74401,"lon":139.5804683},{"name":"練馬区保健所（生活衛生課）","province":"東京都","city":"練馬区","address":"東京都練馬区豊玉北6丁目12-1","lat":35.73558101,"lon":139.65167678},{"name":"練馬区保健所（保健予防課）","province":"東京都","city":"練馬区","address":"東京都練馬区豊玉北6丁目12-1","lat":35.73558101,"lon":139.65167678},{"name":"豊玉保健相談所","province":"東京都","city":"練馬区","address":"東京都練馬区豊玉北5丁目15-19","lat":35.73594216,"lon":139.65492649},{"name":"北保健相談所","province":"東京都","city":"練馬区","address":"東京都練馬区北町6丁目35-7","lat":35.75720905,"lon":139.64949272},{"name":"光が丘保健相談所","province":"東京都","city":"練馬区","address":"東京都練馬区光が丘2丁目9-6","lat":35.75941388,"lon":139.62976375},{"name":"石神井保健相談所","province":"東京都","city":"練馬区","address":"東京都練馬区石神井町7丁目3-28","lat":35.74453977,"lon":139.60134731},{"name":"大泉保健相談所","province":"東京都","city":"練馬区","address":"東京都練馬区大泉学園町5丁目8-8","lat":35.76707824,"lon":139.58662845},{"name":"関保健相談所","province":"東京都","city":"練馬区","address":"東京都練馬区関町東1丁目27-4","lat":35.72653849,"lon":139.58129968},{"name":"練馬区保健所（生活衛生課）","province":"東京都","city":"練馬区","address":"練馬区豊玉北6-12-1","lat":35.73571,"lon":139.65167},{"name":"練馬区保健所（保健予防課）","province":"東京都","city":"練馬区","address":"練馬区豊玉北6-12-1","lat":35.73571,"lon":139.65167},{"name":"豊玉保健相談所","province":"東京都","city":"練馬区","address":"練馬区豊玉北5-15-19","lat":35.73619,"lon":139.65497},{"name":"北保健相談所","province":"東京都","city":"練馬区","address":"練馬区北町6-35-7","lat":35.7577,"lon":139.64937},{"name":"光が丘保健相談所","province":"東京都","city":"練馬区","address":"練馬区光が丘2-9-6","lat":35.75914,"lon":139.63036},{"name":"石神井保健相談所","province":"東京都","city":"練馬区","address":"練馬区石神井町7-3-28","lat":35.7443,"lon":139.60115},{"name":"大泉保健相談所","province":"東京都","city":"練馬区","address":"練馬区大泉学園町5-8-8","lat":35.76731,"lon":139.58688},{"name":"関保健相談所","province":"東京都","city":"練馬区","address":"練馬区関町東1-27-4","lat":35.72668,"lon":139.58139},{"name":"関保健相談所","province":"東京都","city":"練馬区","address":"練馬区関町東1-27-4","lat":35.72669,"lon":139.58139},{"name":"北保健相談所","province":"東京都","city":"練馬区","address":"練馬区北町8-2-11","lat":35.76413,"lon":139.65102},{"name":"練馬区選挙管理委員会","province":"東京都","city":"練馬区","address":"練馬区豊玉北6-12-1","lat":35.735671,"lon":139.651705},{"name":"練馬区保健所（生活衛生課）","province":"東京都","city":"練馬区","address":"練馬区豊玉北6-12-1","lat":35.735573,"lon":139.651671},{"name":"練馬区保健所（保健予防課）","province":"東京都","city":"練馬区","address":"練馬区豊玉北6-12-1","lat":35.735573,"lon":139.651671},{"name":"豊玉保健相談所","province":"東京都","city":"練馬区","address":"練馬区豊玉北5-15-19","lat":35.736014,"lon":139.654851},{"name":"北保健相談所","province":"東京都","city":"練馬区","address":"練馬区北町8-2-11","lat":35.763961,"lon":139.651376},{"name":"光が丘保健相談所","province":"東京都","city":"練馬区","address":"練馬区光が丘2-9-6","lat":35.759486,"lon":139.629589},{"name":"石神井保健相談所","province":"東京都","city":"練馬区","address":"練馬区石神井町7-3-28","lat":35.74452,"lon":139.601328},{"name":"大泉保健相談所","province":"東京都","city":"練馬区","address":"練馬区大泉学園町5-8-8","lat":35.767045,"lon":139.586631},{"name":"関保健相談所","province":"東京都","city":"練馬区","address":"練馬区関町東1-27-4","lat":35.726538,"lon":139.5813},{"name":"やすらぎシティ地域包括支援センター","province":"東京都","city":"練馬区","address":"練馬区東大泉7-27-49","lat":35.74401,"lon":139.5804683},{"name":"練馬区保健所（生活衛生課）","province":"東京都","city":"練馬区","address":"東京都練馬区豊玉北6丁目12-1","lat":35.73558101,"lon":139.65167678},{"name":"練馬区保健所（保健予防課）","province":"東京都","city":"練馬区","address":"東京都練馬区豊玉北6丁目12-1","lat":35.73558101,"lon":139.65167678},{"name":"豊玉保健相談所","province":"東京都","city":"練馬区","address":"東京都練馬区豊玉北5丁目15-19","lat":35.73594216,"lon":139.65492649},{"name":"北保健相談所","province":"東京都","city":"練馬区","address":"東京都練馬区北町6丁目35-7","lat":35.75720905,"lon":139.64949272},{"name":"光が丘保健相談所","province":"東京都","city":"練馬区","address":"東京都練馬区光が丘2丁目9-6","lat":35.75941388,"lon":139.62976375},{"name":"石神井保健相談所","province":"東京都","city":"練馬区","address":"東京都練馬区石神井町7丁目3-28","lat":35.74453977,"lon":139.60134731},{"name":"大泉保健相談所","province":"東京都","city":"練馬区","address":"東京都練馬区大泉学園町5丁目8-8","lat":35.76707824,"lon":139.58662845},{"name":"関保健相談所","province":"東京都","city":"練馬区","address":"東京都練馬区関町東1丁目27-4","lat":35.72653849,"lon":139.58129968},{"name":"練馬区保健所（生活衛生課）","province":"東京都","city":"練馬区","address":"練馬区豊玉北6-12-1","lat":35.73571,"lon":139.65167},{"name":"練馬区保健所（保健予防課）","province":"東京都","city":"練馬区","address":"練馬区豊玉北6-12-1","lat":35.73571,"lon":139.65167},{"name":"豊玉保健相談所","province":"東京都","city":"練馬区","address":"練馬区豊玉北5-15-19","lat":35.73619,"lon":139.65497},{"name":"北保健相談所","province":"東京都","city":"練馬区","address":"練馬区北町6-35-7","lat":35.7577,"lon":139.64937},{"name":"光が丘保健相談所","province":"東京都","city":"練馬区","address":"練馬区光が丘2-9-6","lat":35.75914,"lon":139.63036},{"name":"石神井保健相談所","province":"東京都","city":"練馬区","address":"練馬区石神井町7-3-28","lat":35.7443,"lon":139.60115},{"name":"大泉保健相談所","province":"東京都","city":"練馬区","address":"練馬区大泉学園町5-8-8","lat":35.76731,"lon":139.58688},{"name":"関保健相談所","province":"東京都","city":"練馬区","address":"練馬区関町東1-27-4","lat":35.72668,"lon":139.58139},{"name":"関保健相談所","province":"東京都","city":"練馬区","address":"練馬区関町東1-27-4","lat":35.72669,"lon":139.58139},{"name":"北保健相談所","province":"東京都","city":"練馬区","address":"練馬区北町8-2-11","lat":35.76413,"lon":139.65102},{"name":"練馬区選挙管理委員会","province":"東京都","city":"練馬区","address":"練馬区豊玉北6-12-1","lat":35.735671,"lon":139.651705},{"name":"練馬区保健所（生活衛生課）","province":"東京都","city":"練馬区","address":"練馬区豊玉北6-12-1","lat":35.735573,"lon":139.651671},{"name":"練馬区保健所（保健予防課）","province":"東京都","city":"練馬区","address":"練馬区豊玉北6-12-1","lat":35.735573,"lon":139.651671},{"name":"豊玉保健相談所","province":"東京都","city":"練馬区","address":"練馬区豊玉北5-15-19","lat":35.736014,"lon":139.654851},{"name":"北保健相談所","province":"東京都","city":"練馬区","address":"練馬区北町8-2-11","lat":35.763961,"lon":139.651376},{"name":"光が丘保健相談所","province":"東京都","city":"練馬区","address":"練馬区光が丘2-9-6","lat":35.759486,"lon":139.629589},{"name":"石神井保健相談所","province":"東京都","city":"練馬区","address":"練馬区石神井町7-3-28","lat":35.74452,"lon":139.601328},{"name":"大泉保健相談所","province":"東京都","city":"練馬区","address":"練馬区大泉学園町5-8-8","lat":35.767045,"lon":139.586631},{"name":"関保健相談所","province":"東京都","city":"練馬区","address":"練馬区関町東1-27-4","lat":35.726538,"lon":139.5813},{"name":"やすらぎシティ地域包括支援センター","province":"東京都","city":"練馬区","address":"練馬区東大泉7-27-49","lat":35.74401,"lon":139.5804683},{"name":"練馬区保健所（生活衛生課）","province":"東京都","city":"練馬区","address":"東京都練馬区豊玉北6丁目12-1","lat":35.73558101,"lon":139.65167678},{"name":"練馬区保健所（保健予防課）","province":"東京都","city":"練馬区","address":"東京都練馬区豊玉北6丁目12-1","lat":35.73558101,"lon":139.65167678},{"name":"豊玉保健相談所","province":"東京都","city":"練馬区","address":"東京都練馬区豊玉北5丁目15-19","lat":35.73594216,"lon":139.65492649},{"name":"北保健相談所","province":"東京都","city":"練馬区","address":"東京都練馬区北町6丁目35-7","lat":35.75720905,"lon":139.64949272},{"name":"光が丘保健相談所","province":"東京都","city":"練馬区","address":"東京都練馬区光が丘2丁目9-6","lat":35.75941388,"lon":139.62976375},{"name":"石神井保健相談所","province":"東京都","city":"練馬区","address":"東京都練馬区石神井町7丁目3-28","lat":35.74453977,"lon":139.60134731},{"name":"大泉保健相談所","province":"東京都","city":"練馬区","address":"東京都練馬区大泉学園町5丁目8-8","lat":35.76707824,"lon":139.58662845},{"name":"関保健相談所","province":"東京都","city":"練馬区","address":"東京都練馬区関町東1丁目27-4","lat":35.72653849,"lon":139.58129968},{"name":"練馬区保健所（生活衛生課）","province":"東京都","city":"練馬区","address":"練馬区豊玉北6-12-1","lat":35.73571,"lon":139.65167},{"name":"練馬区保健所（保健予防課）","province":"東京都","city":"練馬区","address":"練馬区豊玉北6-12-1","lat":35.73571,"lon":139.65167},{"name":"豊玉保健相談所","province":"東京都","city":"練馬区","address":"練馬区豊玉北5-15-19","lat":35.73619,"lon":139.65497},{"name":"北保健相談所","province":"東京都","city":"練馬区","address":"練馬区北町6-35-7","lat":35.7577,"lon":139.64937},{"name":"光が丘保健相談所","province":"東京都","city":"練馬区","address":"練馬区光が丘2-9-6","lat":35.75914,"lon":139.63036},{"name":"石神井保健相談所","province":"東京都","city":"練馬区","address":"練馬区石神井町7-3-28","lat":35.7443,"lon":139.60115},{"name":"大泉保健相談所","province":"東京都","city":"練馬区","address":"練馬区大泉学園町5-8-8","lat":35.76731,"lon":139.58688},{"name":"関保健相談所","province":"東京都","city":"練馬区","address":"練馬区関町東1-27-4","lat":35.72668,"lon":139.58139},{"name":"関保健相談所","province":"東京都","city":"練馬区","address":"練馬区関町東1-27-4","lat":35.72669,"lon":139.58139},{"name":"北保健相談所","province":"東京都","city":"練馬区","address":"練馬区北町8-2-11","lat":35.76413,"lon":139.65102},{"name":"練馬区選挙管理委員会","province":"東京都","city":"練馬区","address":"練馬区豊玉北6-12-1","lat":35.735671,"lon":139.651705},{"name":"練馬区保健所（生活衛生課）","province":"東京都","city":"練馬区","address":"練馬区豊玉北6-12-1","lat":35.735573,"lon":139.651671},{"name":"練馬区保健所（保健予防課）","province":"東京都","city":"練馬区","address":"練馬区豊玉北6-12-1","lat":35.735573,"lon":139.651671},{"name":"豊玉保健相談所","province":"東京都","city":"練馬区","address":"練馬区豊玉北5-15-19","lat":35.736014,"lon":139.654851},{"name":"北保健相談所","province":"東京都","city":"練馬区","address":"練馬区北町8-2-11","lat":35.763961,"lon":139.651376},{"name":"光が丘保健相談所","province":"東京都","city":"練馬区","address":"練馬区光が丘2-9-6","lat":35.759486,"lon":139.629589},{"name":"石神井保健相談所","province":"東京都","city":"練馬区","address":"練馬区石神井町7-3-28","lat":35.74452,"lon":139.601328},{"name":"大泉保健相談所","province":"東京都","city":"練馬区","address":"練馬区大泉学園町5-8-8","lat":35.767045,"lon":139.586631},{"name":"関保健相談所","province":"東京都","city":"練馬区","address":"練馬区関町東1-27-4","lat":35.726538,"lon":139.5813},{"name":"やすらぎシティ地域包括支援センター","province":"東京都","city":"練馬区","address":"練馬区東大泉7-27-49","lat":35.74401,"lon":139.5804683},{"name":"練馬区保健所（生活衛生課）","province":"東京都","city":"練馬区","address":"東京都練馬区豊玉北6丁目12-1","lat":35.73558101,"lon":139.65167678},{"name":"練馬区保健所（保健予防課）","province":"東京都","city":"練馬区","address":"東京都練馬区豊玉北6丁目12-1","lat":35.73558101,"lon":139.65167678},{"name":"豊玉保健相談所","province":"東京都","city":"練馬区","address":"東京都練馬区豊玉北5丁目15-19","lat":35.73594216,"lon":139.65492649},{"name":"北保健相談所","province":"東京都","city":"練馬区","address":"東京都練馬区北町6丁目35-7","lat":35.75720905,"lon":139.64949272},{"name":"光が丘保健相談所","province":"東京都","city":"練馬区","address":"東京都練馬区光が丘2丁目9-6","lat":35.75941388,"lon":139.62976375},{"name":"石神井保健相談所","province":"東京都","city":"練馬区","address":"東京都練馬区石神井町7丁目3-28","lat":35.74453977,"lon":139.60134731},{"name":"大泉保健相談所","province":"東京都","city":"練馬区","address":"東京都練馬区大泉学園町5丁目8-8","lat":35.76707824,"lon":139.58662845},{"name":"関保健相談所","province":"東京都","city":"練馬区","address":"東京都練馬区関町東1丁目27-4","lat":35.72653849,"lon":139.58129968},{"name":"練馬区保健所（生活衛生課）","province":"東京都","city":"練馬区","address":"練馬区豊玉北6-12-1","lat":35.73571,"lon":139.65167},{"name":"練馬区保健所（保健予防課）","province":"東京都","city":"練馬区","address":"練馬区豊玉北6-12-1","lat":35.73571,"lon":139.65167},{"name":"豊玉保健相談所","province":"東京都","city":"練馬区","address":"練馬区豊玉北5-15-19","lat":35.73619,"lon":139.65497},{"name":"北保健相談所","province":"東京都","city":"練馬区","address":"練馬区北町6-35-7","lat":35.7577,"lon":139.64937},{"name":"光が丘保健相談所","province":"東京都","city":"練馬区","address":"練馬区光が丘2-9-6","lat":35.75914,"lon":139.63036},{"name":"石神井保健相談所","province":"東京都","city":"練馬区","address":"練馬区石神井町7-3-28","lat":35.7443,"lon":139.60115},{"name":"大泉保健相談所","province":"東京都","city":"練馬区","address":"練馬区大泉学園町5-8-8","lat":35.76731,"lon":139.58688},{"name":"関保健相談所","province":"東京都","city":"練馬区","address":"練馬区関町東1-27-4","lat":35.72668,"lon":139.58139},{"name":"関保健相談所","province":"東京都","city":"練馬区","address":"練馬区関町東1-27-4","lat":35.72669,"lon":139.58139},{"name":"北保健相談所","province":"東京都","city":"練馬区","address":"練馬区北町8-2-11","lat":35.76413,"lon":139.65102},{"name":"練馬区選挙管理委員会","province":"東京都","city":"練馬区","address":"練馬区豊玉北6-12-1","lat":35.735671,"lon":139.651705},{"name":"練馬区保健所（生活衛生課）","province":"東京都","city":"練馬区","address":"練馬区豊玉北6-12-1","lat":35.735573,"lon":139.651671},{"name":"練馬区保健所（保健予防課）","province":"東京都","city":"練馬区","address":"練馬区豊玉北6-12-1","lat":35.735573,"lon":139.651671},{"name":"豊玉保健相談所","province":"東京都","city":"練馬区","address":"練馬区豊玉北5-15-19","lat":35.736014,"lon":139.654851},{"name":"北保健相談所","province":"東京都","city":"練馬区","address":"練馬区北町8-2-11","lat":35.763961,"lon":139.651376},{"name":"光が丘保健相談所","province":"東京都","city":"練馬区","address":"練馬区光が丘2-9-6","lat":35.759486,"lon":139.629589},{"name":"石神井保健相談所","province":"東京都","city":"練馬区","address":"練馬区石神井町7-3-28","lat":35.74452,"lon":139.601328},{"name":"大泉保健相談所","province":"東京都","city":"練馬区","address":"練馬区大泉学園町5-8-8","lat":35.767045,"lon":139.586631},{"name":"関保健相談所","province":"東京都","city":"練馬区","address":"練馬区関町東1-27-4","lat":35.726538,"lon":139.5813},{"name":"やすらぎシティ地域包括支援センター","province":"東京都","city":"練馬区","address":"練馬区東大泉7-27-49","lat":35.74401,"lon":139.5804683},{"name":"練馬区保健所（生活衛生課）","province":"東京都","city":"練馬区","address":"東京都練馬区豊玉北6丁目12-1","lat":35.73558101,"lon":139.65167678},{"name":"練馬区保健所（保健予防課）","province":"東京都","city":"練馬区","address":"東京都練馬区豊玉北6丁目12-1","lat":35.73558101,"lon":139.65167678},{"name":"豊玉保健相談所","province":"東京都","city":"練馬区","address":"東京都練馬区豊玉北5丁目15-19","lat":35.73594216,"lon":139.65492649},{"name":"北保健相談所","province":"東京都","city":"練馬区","address":"東京都練馬区北町6丁目35-7","lat":35.75720905,"lon":139.64949272},{"name":"光が丘保健相談所","province":"東京都","city":"練馬区","address":"東京都練馬区光が丘2丁目9-6","lat":35.75941388,"lon":139.62976375},{"name":"石神井保健相談所","province":"東京都","city":"練馬区","address":"東京都練馬区石神井町7丁目3-28","lat":35.74453977,"lon":139.60134731},{"name":"大泉保健相談所","province":"東京都","city":"練馬区","address":"東京都練馬区大泉学園町5丁目8-8","lat":35.76707824,"lon":139.58662845},{"name":"関保健相談所","province":"東京都","city":"練馬区","address":"東京都練馬区関町東1丁目27-4","lat":35.72653849,"lon":139.58129968},{"name":"練馬区保健所（生活衛生課）","province":"東京都","city":"練馬区","address":"練馬区豊玉北6-12-1","lat":35.73571,"lon":139.65167},{"name":"練馬区保健所（保健予防課）","province":"東京都","city":"練馬区","address":"練馬区豊玉北6-12-1","lat":35.73571,"lon":139.65167},{"name":"豊玉保健相談所","province":"東京都","city":"練馬区","address":"練馬区豊玉北5-15-19","lat":35.73619,"lon":139.65497},{"name":"北保健相談所","province":"東京都","city":"練馬区","address":"練馬区北町6-35-7","lat":35.7577,"lon":139.64937},{"name":"光が丘保健相談所","province":"東京都","city":"練馬区","address":"練馬区光が丘2-9-6","lat":35.75914,"lon":139.63036},{"name":"石神井保健相談所","province":"東京都","city":"練馬区","address":"練馬区石神井町7-3-28","lat":35.7443,"lon":139.60115},{"name":"大泉保健相談所","province":"東京都","city":"練馬区","address":"練馬区大泉学園町5-8-8","lat":35.76731,"lon":139.58688},{"name":"関保健相談所","province":"東京都","city":"練馬区","address":"練馬区関町東1-27-4","lat":35.72668,"lon":139.58139},{"name":"関保健相談所","province":"東京都","city":"練馬区","address":"練馬区関町東1-27-4","lat":35.72669,"lon":139.58139},{"name":"北保健相談所","province":"東京都","city":"練馬区","address":"練馬区北町8-2-11","lat":35.76413,"lon":139.65102},{"name":"練馬区選挙管理委員会","province":"東京都","city":"練馬区","address":"練馬区豊玉北6-12-1","lat":35.735671,"lon":139.651705},{"name":"練馬区保健所（生活衛生課）","province":"東京都","city":"練馬区","address":"練馬区豊玉北6-12-1","lat":35.735573,"lon":139.651671},{"name":"練馬区保健所（保健予防課）","province":"東京都","city":"練馬区","address":"練馬区豊玉北6-12-1","lat":35.735573,"lon":139.651671},{"name":"豊玉保健相談所","province":"東京都","city":"練馬区","address":"練馬区豊玉北5-15-19","lat":35.736014,"lon":139.654851},{"name":"北保健相談所","province":"東京都","city":"練馬区","address":"練馬区北町8-2-11","lat":35.763961,"lon":139.651376},{"name":"光が丘保健相談所","province":"東京都","city":"練馬区","address":"練馬区光が丘2-9-6","lat":35.759486,"lon":139.629589},{"name":"石神井保健相談所","province":"東京都","city":"練馬区","address":"練馬区石神井町7-3-28","lat":35.74452,"lon":139.601328},{"name":"大泉保健相談所","province":"東京都","city":"練馬区","address":"練馬区大泉学園町5-8-8","lat":35.767045,"lon":139.586631},{"name":"関保健相談所","province":"東京都","city":"練馬区","address":"練馬区関町東1-27-4","lat":35.726538,"lon":139.5813},{"name":"やすらぎシティ地域包括支援センター","province":"東京都","city":"練馬区","address":"練馬区東大泉7-27-49","lat":35.74401,"lon":139.5804683},{"name":"練馬区保健所（生活衛生課）","province":"東京都","city":"練馬区","address":"東京都練馬区豊玉北6丁目12-1","lat":35.73558101,"lon":139.65167678},{"name":"練馬区保健所（保健予防課）","province":"東京都","city":"練馬区","address":"東京都練馬区豊玉北6丁目12-1","lat":35.73558101,"lon":139.65167678},{"name":"豊玉保健相談所","province":"東京都","city":"練馬区","address":"東京都練馬区豊玉北5丁目15-19","lat":35.73594216,"lon":139.65492649},{"name":"北保健相談所","province":"東京都","city":"練馬区","address":"東京都練馬区北町6丁目35-7","lat":35.75720905,"lon":139.64949272},{"name":"光が丘保健相談所","province":"東京都","city":"練馬区","address":"東京都練馬区光が丘2丁目9-6","lat":35.75941388,"lon":139.62976375},{"name":"石神井保健相談所","province":"東京都","city":"練馬区","address":"東京都練馬区石神井町7丁目3-28","lat":35.74453977,"lon":139.60134731},{"name":"大泉保健相談所","province":"東京都","city":"練馬区","address":"東京都練馬区大泉学園町5丁目8-8","lat":35.76707824,"lon":139.58662845},{"name":"関保健相談所","province":"東京都","city":"練馬区","address":"東京都練馬区関町東1丁目27-4","lat":35.72653849,"lon":139.58129968},{"name":"練馬区保健所（生活衛生課）","province":"東京都","city":"練馬区","address":"練馬区豊玉北6-12-1","lat":35.73571,"lon":139.65167},{"name":"練馬区保健所（保健予防課）","province":"東京都","city":"練馬区","address":"練馬区豊玉北6-12-1","lat":35.73571,"lon":139.65167},{"name":"豊玉保健相談所","province":"東京都","city":"練馬区","address":"練馬区豊玉北5-15-19","lat":35.73619,"lon":139.65497},{"name":"北保健相談所","province":"東京都","city":"練馬区","address":"練馬区北町6-35-7","lat":35.7577,"lon":139.64937},{"name":"光が丘保健相談所","province":"東京都","city":"練馬区","address":"練馬区光が丘2-9-6","lat":35.75914,"lon":139.63036},{"name":"石神井保健相談所","province":"東京都","city":"練馬区","address":"練馬区石神井町7-3-28","lat":35.7443,"lon":139.60115},{"name":"大泉保健相談所","province":"東京都","city":"練馬区","address":"練馬区大泉学園町5-8-8","lat":35.76731,"lon":139.58688},{"name":"関保健相談所","province":"東京都","city":"練馬区","address":"練馬区関町東1-27-4","lat":35.72668,"lon":139.58139},{"name":"関保健相談所","province":"東京都","city":"練馬区","address":"練馬区関町東1-27-4","lat":35.72669,"lon":139.58139},{"name":"北保健相談所","province":"東京都","city":"練馬区","address":"練馬区北町8-2-11","lat":35.76413,"lon":139.65102},{"name":"練馬区選挙管理委員会","province":"東京都","city":"練馬区","address":"練馬区豊玉北6-12-1","lat":35.735671,"lon":139.651705},{"name":"練馬区保健所（生活衛生課）","province":"東京都","city":"練馬区","address":"練馬区豊玉北6-12-1","lat":35.735573,"lon":139.651671},{"name":"練馬区保健所（保健予防課）","province":"東京都","city":"練馬区","address":"練馬区豊玉北6-12-1","lat":35.735573,"lon":139.651671},{"name":"豊玉保健相談所","province":"東京都","city":"練馬区","address":"練馬区豊玉北5-15-19","lat":35.736014,"lon":139.654851},{"name":"北保健相談所","province":"東京都","city":"練馬区","address":"練馬区北町8-2-11","lat":35.763961,"lon":139.651376},{"name":"光が丘保健相談所","province":"東京都","city":"練馬区","address":"練馬区光が丘2-9-6","lat":35.759486,"lon":139.629589},{"name":"石神井保健相談所","province":"東京都","city":"練馬区","address":"練馬区石神井町7-3-28","lat":35.74452,"lon":139.601328},{"name":"大泉保健相談所","province":"東京都","city":"練馬区","address":"練馬区大泉学園町5-8-8","lat":35.767045,"lon":139.586631},{"name":"関保健相談所","province":"東京都","city":"練馬区","address":"練馬区関町東1-27-4","lat":35.726538,"lon":139.5813},{"name":"やすらぎシティ地域包括支援センター","province":"東京都","city":"練馬区","address":"練馬区東大泉7-27-49","lat":35.74401,"lon":139.5804683},{"name":"練馬区保健所（生活衛生課）","province":"東京都","city":"練馬区","address":"東京都練馬区豊玉北6丁目12-1","lat":35.73558101,"lon":139.65167678},{"name":"練馬区保健所（保健予防課）","province":"東京都","city":"練馬区","address":"東京都練馬区豊玉北6丁目12-1","lat":35.73558101,"lon":139.65167678},{"name":"豊玉保健相談所","province":"東京都","city":"練馬区","address":"東京都練馬区豊玉北5丁目15-19","lat":35.73594216,"lon":139.65492649},{"name":"北保健相談所","province":"東京都","city":"練馬区","address":"東京都練馬区北町6丁目35-7","lat":35.75720905,"lon":139.64949272},{"name":"光が丘保健相談所","province":"東京都","city":"練馬区","address":"東京都練馬区光が丘2丁目9-6","lat":35.75941388,"lon":139.62976375},{"name":"石神井保健相談所","province":"東京都","city":"練馬区","address":"東京都練馬区石神井町7丁目3-28","lat":35.74453977,"lon":139.60134731},{"name":"大泉保健相談所","province":"東京都","city":"練馬区","address":"東京都練馬区大泉学園町5丁目8-8","lat":35.76707824,"lon":139.58662845},{"name":"関保健相談所","province":"東京都","city":"練馬区","address":"東京都練馬区関町東1丁目27-4","lat":35.72653849,"lon":139.58129968},{"name":"練馬区保健所（生活衛生課）","province":"東京都","city":"練馬区","address":"練馬区豊玉北6-12-1","lat":35.73571,"lon":139.65167},{"name":"練馬区保健所（保健予防課）","province":"東京都","city":"練馬区","address":"練馬区豊玉北6-12-1","lat":35.73571,"lon":139.65167},{"name":"豊玉保健相談所","province":"東京都","city":"練馬区","address":"練馬区豊玉北5-15-19","lat":35.73619,"lon":139.65497},{"name":"北保健相談所","province":"東京都","city":"練馬区","address":"練馬区北町6-35-7","lat":35.7577,"lon":139.64937},{"name":"光が丘保健相談所","province":"東京都","city":"練馬区","address":"練馬区光が丘2-9-6","lat":35.75914,"lon":139.63036},{"name":"石神井保健相談所","province":"東京都","city":"練馬区","address":"練馬区石神井町7-3-28","lat":35.7443,"lon":139.60115},{"name":"大泉保健相談所","province":"東京都","city":"練馬区","address":"練馬区大泉学園町5-8-8","lat":35.76731,"lon":139.58688},{"name":"関保健相談所","province":"東京都","city":"練馬区","address":"練馬区関町東1-27-4","lat":35.72668,"lon":139.58139},{"name":"関保健相談所","province":"東京都","city":"練馬区","address":"練馬区関町東1-27-4","lat":35.72669,"lon":139.58139},{"name":"北保健相談所","province":"東京都","city":"練馬区","address":"練馬区北町8-2-11","lat":35.76413,"lon":139.65102},{"name":"練馬区選挙管理委員会","province":"東京都","city":"練馬区","address":"練馬区豊玉北6-12-1","lat":35.735671,"lon":139.651705},{"name":"練馬区保健所（生活衛生課）","province":"東京都","city":"練馬区","address":"練馬区豊玉北6-12-1","lat":35.735573,"lon":139.651671},{"name":"練馬区保健所（保健予防課）","province":"東京都","city":"練馬区","address":"練馬区豊玉北6-12-1","lat":35.735573,"lon":139.651671},{"name":"豊玉保健相談所","province":"東京都","city":"練馬区","address":"練馬区豊玉北5-15-19","lat":35.736014,"lon":139.654851},{"name":"北保健相談所","province":"東京都","city":"練馬区","address":"練馬区北町8-2-11","lat":35.763961,"lon":139.651376},{"name":"光が丘保健相談所","province":"東京都","city":"練馬区","address":"練馬区光が丘2-9-6","lat":35.759486,"lon":139.629589},{"name":"石神井保健相談所","province":"東京都","city":"練馬区","address":"練馬区石神井町7-3-28","lat":35.74452,"lon":139.601328},{"name":"大泉保健相談所","province":"東京都","city":"練馬区","address":"練馬区大泉学園町5-8-8","lat":35.767045,"lon":139.586631},{"name":"関保健相談所","province":"東京都","city":"練馬区","address":"練馬区関町東1-27-4","lat":35.726538,"lon":139.5813},{"name":"やすらぎシティ地域包括支援センター","province":"東京都","city":"練馬区","address":"練馬区東大泉7-27-49","lat":35.74401,"lon":139.5804683},{"name":"練馬区保健所（生活衛生課）","province":"東京都","city":"練馬区","address":"東京都練馬区豊玉北6丁目12-1","lat":35.73558101,"lon":139.65167678},{"name":"練馬区保健所（保健予防課）","province":"東京都","city":"練馬区","address":"東京都練馬区豊玉北6丁目12-1","lat":35.73558101,"lon":139.65167678},{"name":"豊玉保健相談所","province":"東京都","city":"練馬区","address":"東京都練馬区豊玉北5丁目15-19","lat":35.73594216,"lon":139.65492649},{"name":"北保健相談所","province":"東京都","city":"練馬区","address":"東京都練馬区北町6丁目35-7","lat":35.75720905,"lon":139.64949272},{"name":"光が丘保健相談所","province":"東京都","city":"練馬区","address":"東京都練馬区光が丘2丁目9-6","lat":35.75941388,"lon":139.62976375},{"name":"石神井保健相談所","province":"東京都","city":"練馬区","address":"東京都練馬区石神井町7丁目3-28","lat":35.74453977,"lon":139.60134731},{"name":"大泉保健相談所","province":"東京都","city":"練馬区","address":"東京都練馬区大泉学園町5丁目8-8","lat":35.76707824,"lon":139.58662845},{"name":"関保健相談所","province":"東京都","city":"練馬区","address":"東京都練馬区関町東1丁目27-4","lat":35.72653849,"lon":139.58129968},{"name":"練馬区保健所（生活衛生課）","province":"東京都","city":"練馬区","address":"練馬区豊玉北6-12-1","lat":35.73571,"lon":139.65167},{"name":"練馬区保健所（保健予防課）","province":"東京都","city":"練馬区","address":"練馬区豊玉北6-12-1","lat":35.73571,"lon":139.65167},{"name":"豊玉保健相談所","province":"東京都","city":"練馬区","address":"練馬区豊玉北5-15-19","lat":35.73619,"lon":139.65497},{"name":"北保健相談所","province":"東京都","city":"練馬区","address":"練馬区北町6-35-7","lat":35.7577,"lon":139.64937},{"name":"光が丘保健相談所","province":"東京都","city":"練馬区","address":"練馬区光が丘2-9-6","lat":35.75914,"lon":139.63036},{"name":"石神井保健相談所","province":"東京都","city":"練馬区","address":"練馬区石神井町7-3-28","lat":35.7443,"lon":139.60115},{"name":"大泉保健相談所","province":"東京都","city":"練馬区","address":"練馬区大泉学園町5-8-8","lat":35.76731,"lon":139.58688},{"name":"関保健相談所","province":"東京都","city":"練馬区","address":"練馬区関町東1-27-4","lat":35.72668,"lon":139.58139},{"name":"関保健相談所","province":"東京都","city":"練馬区","address":"練馬区関町東1-27-4","lat":35.72669,"lon":139.58139},{"name":"北保健相談所","province":"東京都","city":"練馬区","address":"練馬区北町8-2-11","lat":35.76413,"lon":139.65102},{"name":"練馬区選挙管理委員会","province":"東京都","city":"練馬区","address":"練馬区豊玉北6-12-1","lat":35.735671,"lon":139.651705},{"name":"練馬区保健所（生活衛生課）","province":"東京都","city":"練馬区","address":"練馬区豊玉北6-12-1","lat":35.735573,"lon":139.651671},{"name":"練馬区保健所（保健予防課）","province":"東京都","city":"練馬区","address":"練馬区豊玉北6-12-1","lat":35.735573,"lon":139.651671},{"name":"豊玉保健相談所","province":"東京都","city":"練馬区","address":"練馬区豊玉北5-15-19","lat":35.736014,"lon":139.654851},{"name":"北保健相談所","province":"東京都","city":"練馬区","address":"練馬区北町8-2-11","lat":35.763961,"lon":139.651376},{"name":"光が丘保健相談所","province":"東京都","city":"練馬区","address":"練馬区光が丘2-9-6","lat":35.759486,"lon":139.629589},{"name":"石神井保健相談所","province":"東京都","city":"練馬区","address":"練馬区石神井町7-3-28","lat":35.74452,"lon":139.601328},{"name":"大泉保健相談所","province":"東京都","city":"練馬区","address":"練馬区大泉学園町5-8-8","lat":35.767045,"lon":139.586631},{"name":"関保健相談所","province":"東京都","city":"練馬区","address":"練馬区関町東1-27-4","lat":35.726538,"lon":139.5813},{"name":"やすらぎシティ地域包括支援センター","province":"東京都","city":"練馬区","address":"練馬区東大泉7-27-49","lat":35.74401,"lon":139.5804683},{"name":"練馬区保健所（生活衛生課）","province":"東京都","city":"練馬区","address":"東京都練馬区豊玉北6丁目12-1","lat":35.73558101,"lon":139.65167678},{"name":"練馬区保健所（保健予防課）","province":"東京都","city":"練馬区","address":"東京都練馬区豊玉北6丁目12-1","lat":35.73558101,"lon":139.65167678},{"name":"豊玉保健相談所","province":"東京都","city":"練馬区","address":"東京都練馬区豊玉北5丁目15-19","lat":35.73594216,"lon":139.65492649},{"name":"北保健相談所","province":"東京都","city":"練馬区","address":"東京都練馬区北町6丁目35-7","lat":35.75720905,"lon":139.64949272},{"name":"光が丘保健相談所","province":"東京都","city":"練馬区","address":"東京都練馬区光が丘2丁目9-6","lat":35.75941388,"lon":139.62976375},{"name":"石神井保健相談所","province":"東京都","city":"練馬区","address":"東京都練馬区石神井町7丁目3-28","lat":35.74453977,"lon":139.60134731},{"name":"大泉保健相談所","province":"東京都","city":"練馬区","address":"東京都練馬区大泉学園町5丁目8-8","lat":35.76707824,"lon":139.58662845},{"name":"関保健相談所","province":"東京都","city":"練馬区","address":"東京都練馬区関町東1丁目27-4","lat":35.72653849,"lon":139.58129968},{"name":"練馬区保健所（生活衛生課）","province":"東京都","city":"練馬区","address":"練馬区豊玉北6-12-1","lat":35.73571,"lon":139.65167},{"name":"練馬区保健所（保健予防課）","province":"東京都","city":"練馬区","address":"練馬区豊玉北6-12-1","lat":35.73571,"lon":139.65167},{"name":"豊玉保健相談所","province":"東京都","city":"練馬区","address":"練馬区豊玉北5-15-19","lat":35.73619,"lon":139.65497},{"name":"北保健相談所","province":"東京都","city":"練馬区","address":"練馬区北町6-35-7","lat":35.7577,"lon":139.64937},{"name":"光が丘保健相談所","province":"東京都","city":"練馬区","address":"練馬区光が丘2-9-6","lat":35.75914,"lon":139.63036},{"name":"石神井保健相談所","province":"東京都","city":"練馬区","address":"練馬区石神井町7-3-28","lat":35.7443,"lon":139.60115},{"name":"大泉保健相談所","province":"東京都","city":"練馬区","address":"練馬区大泉学園町5-8-8","lat":35.76731,"lon":139.58688},{"name":"関保健相談所","province":"東京都","city":"練馬区","address":"練馬区関町東1-27-4","lat":35.72668,"lon":139.58139},{"name":"関保健相談所","province":"東京都","city":"練馬区","address":"練馬区関町東1-27-4","lat":35.72669,"lon":139.58139},{"name":"北保健相談所","province":"東京都","city":"練馬区","address":"練馬区北町8-2-11","lat":35.76413,"lon":139.65102},{"name":"練馬区選挙管理委員会","province":"東京都","city":"練馬区","address":"練馬区豊玉北6-12-1","lat":35.735671,"lon":139.651705},{"name":"練馬区保健所（生活衛生課）","province":"東京都","city":"練馬区","address":"練馬区豊玉北6-12-1","lat":35.735573,"lon":139.651671},{"name":"練馬区保健所（保健予防課）","province":"東京都","city":"練馬区","address":"練馬区豊玉北6-12-1","lat":35.735573,"lon":139.651671},{"name":"豊玉保健相談所","province":"東京都","city":"練馬区","address":"練馬区豊玉北5-15-19","lat":35.736014,"lon":139.654851},{"name":"北保健相談所","province":"東京都","city":"練馬区","address":"練馬区北町8-2-11","lat":35.763961,"lon":139.651376},{"name":"光が丘保健相談所","province":"東京都","city":"練馬区","address":"練馬区光が丘2-9-6","lat":35.759486,"lon":139.629589},{"name":"石神井保健相談所","province":"東京都","city":"練馬区","address":"練馬区石神井町7-3-28","lat":35.74452,"lon":139.601328},{"name":"大泉保健相談所","province":"東京都","city":"練馬区","address":"練馬区大泉学園町5-8-8","lat":35.767045,"lon":139.586631},{"name":"関保健相談所","province":"東京都","city":"練馬区","address":"練馬区関町東1-27-4","lat":35.726538,"lon":139.5813},{"name":"やすらぎシティ地域包括支援センター","province":"東京都","city":"練馬区","address":"練馬区東大泉7-27-49","lat":35.74401,"lon":139.5804683},{"name":"練馬区保健所（生活衛生課）","province":"東京都","city":"練馬区","address":"東京都練馬区豊玉北6丁目12-1","lat":35.73558101,"lon":139.65167678},{"name":"練馬区保健所（保健予防課）","province":"東京都","city":"練馬区","address":"東京都練馬区豊玉北6丁目12-1","lat":35.73558101,"lon":139.65167678},{"name":"豊玉保健相談所","province":"東京都","city":"練馬区","address":"東京都練馬区豊玉北5丁目15-19","lat":35.73594216,"lon":139.65492649},{"name":"北保健相談所","province":"東京都","city":"練馬区","address":"東京都練馬区北町6丁目35-7","lat":35.75720905,"lon":139.64949272},{"name":"光が丘保健相談所","province":"東京都","city":"練馬区","address":"東京都練馬区光が丘2丁目9-6","lat":35.75941388,"lon":139.62976375},{"name":"石神井保健相談所","province":"東京都","city":"練馬区","address":"東京都練馬区石神井町7丁目3-28","lat":35.74453977,"lon":139.60134731},{"name":"大泉保健相談所","province":"東京都","city":"練馬区","address":"東京都練馬区大泉学園町5丁目8-8","lat":35.76707824,"lon":139.58662845},{"name":"関保健相談所","province":"東京都","city":"練馬区","address":"東京都練馬区関町東1丁目27-4","lat":35.72653849,"lon":139.58129968},{"name":"練馬区保健所（生活衛生課）","province":"東京都","city":"練馬区","address":"練馬区豊玉北6-12-1","lat":35.73571,"lon":139.65167},{"name":"練馬区保健所（保健予防課）","province":"東京都","city":"練馬区","address":"練馬区豊玉北6-12-1","lat":35.73571,"lon":139.65167},{"name":"豊玉保健相談所","province":"東京都","city":"練馬区","address":"練馬区豊玉北5-15-19","lat":35.73619,"lon":139.65497},{"name":"北保健相談所","province":"東京都","city":"練馬区","address":"練馬区北町6-35-7","lat":35.7577,"lon":139.64937},{"name":"光が丘保健相談所","province":"東京都","city":"練馬区","address":"練馬区光が丘2-9-6","lat":35.75914,"lon":139.63036},{"name":"石神井保健相談所","province":"東京都","city":"練馬区","address":"練馬区石神井町7-3-28","lat":35.7443,"lon":139.60115},{"name":"大泉保健相談所","province":"東京都","city":"練馬区","address":"練馬区大泉学園町5-8-8","lat":35.76731,"lon":139.58688},{"name":"関保健相談所","province":"東京都","city":"練馬区","address":"練馬区関町東1-27-4","lat":35.72668,"lon":139.58139},{"name":"関保健相談所","province":"東京都","city":"練馬区","address":"練馬区関町東1-27-4","lat":35.72669,"lon":139.58139},{"name":"北保健相談所","province":"東京都","city":"練馬区","address":"練馬区北町8-2-11","lat":35.76413,"lon":139.65102},{"name":"練馬区選挙管理委員会","province":"東京都","city":"練馬区","address":"練馬区豊玉北6-12-1","lat":35.735671,"lon":139.651705},{"name":"練馬区保健所（生活衛生課）","province":"東京都","city":"練馬区","address":"練馬区豊玉北6-12-1","lat":35.735573,"lon":139.651671},{"name":"練馬区保健所（保健予防課）","province":"東京都","city":"練馬区","address":"練馬区豊玉北6-12-1","lat":35.735573,"lon":139.651671},{"name":"豊玉保健相談所","province":"東京都","city":"練馬区","address":"練馬区豊玉北5-15-19","lat":35.736014,"lon":139.654851},{"name":"北保健相談所","province":"東京都","city":"練馬区","address":"練馬区北町8-2-11","lat":35.763961,"lon":139.651376},{"name":"光が丘保健相談所","province":"東京都","city":"練馬区","address":"練馬区光が丘2-9-6","lat":35.759486,"lon":139.629589},{"name":"石神井保健相談所","province":"東京都","city":"練馬区","address":"練馬区石神井町7-3-28","lat":35.74452,"lon":139.601328},{"name":"大泉保健相談所","province":"東京都","city":"練馬区","address":"練馬区大泉学園町5-8-8","lat":35.767045,"lon":139.586631},{"name":"関保健相談所","province":"東京都","city":"練馬区","address":"練馬区関町東1-27-4","lat":35.726538,"lon":139.5813},{"name":"やすらぎシティ地域包括支援センター","province":"東京都","city":"練馬区","address":"練馬区東大泉7-27-49","lat":35.74401,"lon":139.5804683},{"name":"練馬区保健所（生活衛生課）","province":"東京都","city":"練馬区","address":"東京都練馬区豊玉北6丁目12-1","lat":35.73558101,"lon":139.65167678},{"name":"練馬区保健所（保健予防課）","province":"東京都","city":"練馬区","address":"東京都練馬区豊玉北6丁目12-1","lat":35.73558101,"lon":139.65167678},{"name":"豊玉保健相談所","province":"東京都","city":"練馬区","address":"東京都練馬区豊玉北5丁目15-19","lat":35.73594216,"lon":139.65492649},{"name":"北保健相談所","province":"東京都","city":"練馬区","address":"東京都練馬区北町6丁目35-7","lat":35.75720905,"lon":139.64949272},{"name":"光が丘保健相談所","province":"東京都","city":"練馬区","address":"東京都練馬区光が丘2丁目9-6","lat":35.75941388,"lon":139.62976375},{"name":"石神井保健相談所","province":"東京都","city":"練馬区","address":"東京都練馬区石神井町7丁目3-28","lat":35.74453977,"lon":139.60134731},{"name":"大泉保健相談所","province":"東京都","city":"練馬区","address":"東京都練馬区大泉学園町5丁目8-8","lat":35.76707824,"lon":139.58662845},{"name":"関保健相談所","province":"東京都","city":"練馬区","address":"東京都練馬区関町東1丁目27-4","lat":35.72653849,"lon":139.58129968},{"name":"練馬区保健所（生活衛生課）","province":"東京都","city":"練馬区","address":"練馬区豊玉北6-12-1","lat":35.73571,"lon":139.65167},{"name":"練馬区保健所（保健予防課）","province":"東京都","city":"練馬区","address":"練馬区豊玉北6-12-1","lat":35.73571,"lon":139.65167},{"name":"豊玉保健相談所","province":"東京都","city":"練馬区","address":"練馬区豊玉北5-15-19","lat":35.73619,"lon":139.65497},{"name":"北保健相談所","province":"東京都","city":"練馬区","address":"練馬区北町6-35-7","lat":35.7577,"lon":139.64937},{"name":"光が丘保健相談所","province":"東京都","city":"練馬区","address":"練馬区光が丘2-9-6","lat":35.75914,"lon":139.63036},{"name":"石神井保健相談所","province":"東京都","city":"練馬区","address":"練馬区石神井町7-3-28","lat":35.7443,"lon":139.60115},{"name":"大泉保健相談所","province":"東京都","city":"練馬区","address":"練馬区大泉学園町5-8-8","lat":35.76731,"lon":139.58688},{"name":"関保健相談所","province":"東京都","city":"練馬区","address":"練馬区関町東1-27-4","lat":35.72668,"lon":139.58139},{"name":"関保健相談所","province":"東京都","city":"練馬区","address":"練馬区関町東1-27-4","lat":35.72669,"lon":139.58139},{"name":"北保健相談所","province":"東京都","city":"練馬区","address":"練馬区北町8-2-11","lat":35.76413,"lon":139.65102},{"name":"練馬区選挙管理委員会","province":"東京都","city":"練馬区","address":"練馬区豊玉北6-12-1","lat":35.735671,"lon":139.651705},{"name":"練馬区保健所（生活衛生課）","province":"東京都","city":"練馬区","address":"練馬区豊玉北6-12-1","lat":35.735573,"lon":139.651671},{"name":"練馬区保健所（保健予防課）","province":"東京都","city":"練馬区","address":"練馬区豊玉北6-12-1","lat":35.735573,"lon":139.651671},{"name":"豊玉保健相談所","province":"東京都","city":"練馬区","address":"練馬区豊玉北5-15-19","lat":35.736014,"lon":139.654851},{"name":"北保健相談所","province":"東京都","city":"練馬区","address":"練馬区北町8-2-11","lat":35.763961,"lon":139.651376},{"name":"光が丘保健相談所","province":"東京都","city":"練馬区","address":"練馬区光が丘2-9-6","lat":35.759486,"lon":139.629589},{"name":"石神井保健相談所","province":"東京都","city":"練馬区","address":"練馬区石神井町7-3-28","lat":35.74452,"lon":139.601328},{"name":"大泉保健相談所","province":"東京都","city":"練馬区","address":"練馬区大泉学園町5-8-8","lat":35.767045,"lon":139.586631},{"name":"関保健相談所","province":"東京都","city":"練馬区","address":"練馬区関町東1-27-4","lat":35.726538,"lon":139.5813},{"name":"やすらぎシティ地域包括支援センター","province":"東京都","city":"練馬区","address":"練馬区東大泉7-27-49","lat":35.74401,"lon":139.5804683},{"name":"練馬区保健所（生活衛生課）","province":"東京都","city":"練馬区","address":"東京都練馬区豊玉北6丁目12-1","lat":35.73558101,"lon":139.65167678},{"name":"練馬区保健所（保健予防課）","province":"東京都","city":"練馬区","address":"東京都練馬区豊玉北6丁目12-1","lat":35.73558101,"lon":139.65167678},{"name":"豊玉保健相談所","province":"東京都","city":"練馬区","address":"東京都練馬区豊玉北5丁目15-19","lat":35.73594216,"lon":139.65492649},{"name":"北保健相談所","province":"東京都","city":"練馬区","address":"東京都練馬区北町6丁目35-7","lat":35.75720905,"lon":139.64949272},{"name":"光が丘保健相談所","province":"東京都","city":"練馬区","address":"東京都練馬区光が丘2丁目9-6","lat":35.75941388,"lon":139.62976375},{"name":"石神井保健相談所","province":"東京都","city":"練馬区","address":"東京都練馬区石神井町7丁目3-28","lat":35.74453977,"lon":139.60134731},{"name":"大泉保健相談所","province":"東京都","city":"練馬区","address":"東京都練馬区大泉学園町5丁目8-8","lat":35.76707824,"lon":139.58662845},{"name":"関保健相談所","province":"東京都","city":"練馬区","address":"東京都練馬区関町東1丁目27-4","lat":35.72653849,"lon":139.58129968},{"name":"練馬区保健所（生活衛生課）","province":"東京都","city":"練馬区","address":"練馬区豊玉北6-12-1","lat":35.73571,"lon":139.65167},{"name":"練馬区保健所（保健予防課）","province":"東京都","city":"練馬区","address":"練馬区豊玉北6-12-1","lat":35.73571,"lon":139.65167},{"name":"豊玉保健相談所","province":"東京都","city":"練馬区","address":"練馬区豊玉北5-15-19","lat":35.73619,"lon":139.65497},{"name":"北保健相談所","province":"東京都","city":"練馬区","address":"練馬区北町6-35-7","lat":35.7577,"lon":139.64937},{"name":"光が丘保健相談所","province":"東京都","city":"練馬区","address":"練馬区光が丘2-9-6","lat":35.75914,"lon":139.63036},{"name":"石神井保健相談所","province":"東京都","city":"練馬区","address":"練馬区石神井町7-3-28","lat":35.7443,"lon":139.60115},{"name":"大泉保健相談所","province":"東京都","city":"練馬区","address":"練馬区大泉学園町5-8-8","lat":35.76731,"lon":139.58688},{"name":"関保健相談所","province":"東京都","city":"練馬区","address":"練馬区関町東1-27-4","lat":35.72668,"lon":139.58139},{"name":"関保健相談所","province":"東京都","city":"練馬区","address":"練馬区関町東1-27-4","lat":35.72669,"lon":139.58139},{"name":"北保健相談所","province":"東京都","city":"練馬区","address":"練馬区北町8-2-11","lat":35.76413,"lon":139.65102},{"name":"練馬区選挙管理委員会","province":"東京都","city":"練馬区","address":"練馬区豊玉北6-12-1","lat":35.735671,"lon":139.651705},{"name":"練馬区保健所（生活衛生課）","province":"東京都","city":"練馬区","address":"練馬区豊玉北6-12-1","lat":35.735573,"lon":139.651671},{"name":"練馬区保健所（保健予防課）","province":"東京都","city":"練馬区","address":"練馬区豊玉北6-12-1","lat":35.735573,"lon":139.651671},{"name":"豊玉保健相談所","province":"東京都","city":"練馬区","address":"練馬区豊玉北5-15-19","lat":35.736014,"lon":139.654851},{"name":"北保健相談所","province":"東京都","city":"練馬区","address":"練馬区北町8-2-11","lat":35.763961,"lon":139.651376},{"name":"光が丘保健相談所","province":"東京都","city":"練馬区","address":"練馬区光が丘2-9-6","lat":35.759486,"lon":139.629589},{"name":"石神井保健相談所","province":"東京都","city":"練馬区","address":"練馬区石神井町7-3-28","lat":35.74452,"lon":139.601328},{"name":"大泉保健相談所","province":"東京都","city":"練馬区","address":"練馬区大泉学園町5-8-8","lat":35.767045,"lon":139.586631},{"name":"関保健相談所","province":"東京都","city":"練馬区","address":"練馬区関町東1-27-4","lat":35.726538,"lon":139.5813},{"name":"やすらぎシティ地域包括支援センター","province":"東京都","city":"練馬区","address":"練馬区東大泉7-27-49","lat":35.74401,"lon":139.5804683},{"name":"練馬区保健所（生活衛生課）","province":"東京都","city":"練馬区","address":"東京都練馬区豊玉北6丁目12-1","lat":35.73558101,"lon":139.65167678},{"name":"練馬区保健所（保健予防課）","province":"東京都","city":"練馬区","address":"東京都練馬区豊玉北6丁目12-1","lat":35.73558101,"lon":139.65167678},{"name":"豊玉保健相談所","province":"東京都","city":"練馬区","address":"東京都練馬区豊玉北5丁目15-19","lat":35.73594216,"lon":139.65492649},{"name":"北保健相談所","province":"東京都","city":"練馬区","address":"東京都練馬区北町6丁目35-7","lat":35.75720905,"lon":139.64949272},{"name":"光が丘保健相談所","province":"東京都","city":"練馬区","address":"東京都練馬区光が丘2丁目9-6","lat":35.75941388,"lon":139.62976375},{"name":"石神井保健相談所","province":"東京都","city":"練馬区","address":"東京都練馬区石神井町7丁目3-28","lat":35.74453977,"lon":139.60134731},{"name":"大泉保健相談所","province":"東京都","city":"練馬区","address":"東京都練馬区大泉学園町5丁目8-8","lat":35.76707824,"lon":139.58662845},{"name":"関保健相談所","province":"東京都","city":"練馬区","address":"東京都練馬区関町東1丁目27-4","lat":35.72653849,"lon":139.58129968},{"name":"練馬区保健所（生活衛生課）","province":"東京都","city":"練馬区","address":"練馬区豊玉北6-12-1","lat":35.73571,"lon":139.65167},{"name":"練馬区保健所（保健予防課）","province":"東京都","city":"練馬区","address":"練馬区豊玉北6-12-1","lat":35.73571,"lon":139.65167},{"name":"豊玉保健相談所","province":"東京都","city":"練馬区","address":"練馬区豊玉北5-15-19","lat":35.73619,"lon":139.65497},{"name":"北保健相談所","province":"東京都","city":"練馬区","address":"練馬区北町6-35-7","lat":35.7577,"lon":139.64937},{"name":"光が丘保健相談所","province":"東京都","city":"練馬区","address":"練馬区光が丘2-9-6","lat":35.75914,"lon":139.63036},{"name":"石神井保健相談所","province":"東京都","city":"練馬区","address":"練馬区石神井町7-3-28","lat":35.7443,"lon":139.60115},{"name":"大泉保健相談所","province":"東京都","city":"練馬区","address":"練馬区大泉学園町5-8-8","lat":35.76731,"lon":139.58688},{"name":"関保健相談所","province":"東京都","city":"練馬区","address":"練馬区関町東1-27-4","lat":35.72668,"lon":139.58139},{"name":"関保健相談所","province":"東京都","city":"練馬区","address":"練馬区関町東1-27-4","lat":35.72669,"lon":139.58139},{"name":"北保健相談所","province":"東京都","city":"練馬区","address":"練馬区北町8-2-11","lat":35.76413,"lon":139.65102},{"name":"練馬区選挙管理委員会","province":"東京都","city":"練馬区","address":"練馬区豊玉北6-12-1","lat":35.735671,"lon":139.651705},{"name":"練馬区保健所（生活衛生課）","province":"東京都","city":"練馬区","address":"練馬区豊玉北6-12-1","lat":35.735573,"lon":139.651671},{"name":"練馬区保健所（保健予防課）","province":"東京都","city":"練馬区","address":"練馬区豊玉北6-12-1","lat":35.735573,"lon":139.651671},{"name":"豊玉保健相談所","province":"東京都","city":"練馬区","address":"練馬区豊玉北5-15-19","lat":35.736014,"lon":139.654851},{"name":"北保健相談所","province":"東京都","city":"練馬区","address":"練馬区北町8-2-11","lat":35.763961,"lon":139.651376},{"name":"光が丘保健相談所","province":"東京都","city":"練馬区","address":"練馬区光が丘2-9-6","lat":35.759486,"lon":139.629589},{"name":"石神井保健相談所","province":"東京都","city":"練馬区","address":"練馬区石神井町7-3-28","lat":35.74452,"lon":139.601328},{"name":"大泉保健相談所","province":"東京都","city":"練馬区","address":"練馬区大泉学園町5-8-8","lat":35.767045,"lon":139.586631},{"name":"関保健相談所","province":"東京都","city":"練馬区","address":"練馬区関町東1-27-4","lat":35.726538,"lon":139.5813},{"name":"やすらぎシティ地域包括支援センター","province":"東京都","city":"練馬区","address":"練馬区東大泉7-27-49","lat":35.74401,"lon":139.5804683},{"name":"練馬区保健所（生活衛生課）","province":"東京都","city":"練馬区","address":"東京都練馬区豊玉北6丁目12-1","lat":35.73558101,"lon":139.65167678},{"name":"練馬区保健所（保健予防課）","province":"東京都","city":"練馬区","address":"東京都練馬区豊玉北6丁目12-1","lat":35.73558101,"lon":139.65167678},{"name":"豊玉保健相談所","province":"東京都","city":"練馬区","address":"東京都練馬区豊玉北5丁目15-19","lat":35.73594216,"lon":139.65492649},{"name":"北保健相談所","province":"東京都","city":"練馬区","address":"東京都練馬区北町6丁目35-7","lat":35.75720905,"lon":139.64949272},{"name":"光が丘保健相談所","province":"東京都","city":"練馬区","address":"東京都練馬区光が丘2丁目9-6","lat":35.75941388,"lon":139.62976375},{"name":"石神井保健相談所","province":"東京都","city":"練馬区","address":"東京都練馬区石神井町7丁目3-28","lat":35.74453977,"lon":139.60134731},{"name":"大泉保健相談所","province":"東京都","city":"練馬区","address":"東京都練馬区大泉学園町5丁目8-8","lat":35.76707824,"lon":139.58662845},{"name":"関保健相談所","province":"東京都","city":"練馬区","address":"東京都練馬区関町東1丁目27-4","lat":35.72653849,"lon":139.58129968},{"name":"練馬区保健所（生活衛生課）","province":"東京都","city":"練馬区","address":"練馬区豊玉北6-12-1","lat":35.73571,"lon":139.65167},{"name":"練馬区保健所（保健予防課）","province":"東京都","city":"練馬区","address":"練馬区豊玉北6-12-1","lat":35.73571,"lon":139.65167},{"name":"豊玉保健相談所","province":"東京都","city":"練馬区","address":"練馬区豊玉北5-15-19","lat":35.73619,"lon":139.65497},{"name":"北保健相談所","province":"東京都","city":"練馬区","address":"練馬区北町6-35-7","lat":35.7577,"lon":139.64937},{"name":"光が丘保健相談所","province":"東京都","city":"練馬区","address":"練馬区光が丘2-9-6","lat":35.75914,"lon":139.63036},{"name":"石神井保健相談所","province":"東京都","city":"練馬区","address":"練馬区石神井町7-3-28","lat":35.7443,"lon":139.60115},{"name":"大泉保健相談所","province":"東京都","city":"練馬区","address":"練馬区大泉学園町5-8-8","lat":35.76731,"lon":139.58688},{"name":"関保健相談所","province":"東京都","city":"練馬区","address":"練馬区関町東1-27-4","lat":35.72668,"lon":139.58139},{"name":"関保健相談所","province":"東京都","city":"練馬区","address":"練馬区関町東1-27-4","lat":35.72669,"lon":139.58139},{"name":"北保健相談所","province":"東京都","city":"練馬区","address":"練馬区北町8-2-11","lat":35.76413,"lon":139.65102},{"name":"練馬区選挙管理委員会","province":"東京都","city":"練馬区","address":"練馬区豊玉北6-12-1","lat":35.735671,"lon":139.651705},{"name":"練馬区保健所（生活衛生課）","province":"東京都","city":"練馬区","address":"練馬区豊玉北6-12-1","lat":35.735573,"lon":139.651671},{"name":"練馬区保健所（保健予防課）","province":"東京都","city":"練馬区","address":"練馬区豊玉北6-12-1","lat":35.735573,"lon":139.651671},{"name":"豊玉保健相談所","province":"東京都","city":"練馬区","address":"練馬区豊玉北5-15-19","lat":35.736014,"lon":139.654851},{"name":"北保健相談所","province":"東京都","city":"練馬区","address":"練馬区北町8-2-11","lat":35.763961,"lon":139.651376},{"name":"光が丘保健相談所","province":"東京都","city":"練馬区","address":"練馬区光が丘2-9-6","lat":35.759486,"lon":139.629589},{"name":"石神井保健相談所","province":"東京都","city":"練馬区","address":"練馬区石神井町7-3-28","lat":35.74452,"lon":139.601328},{"name":"大泉保健相談所","province":"東京都","city":"練馬区","address":"練馬区大泉学園町5-8-8","lat":35.767045,"lon":139.586631},{"name":"関保健相談所","province":"東京都","city":"練馬区","address":"練馬区関町東1-27-4","lat":35.726538,"lon":139.5813},{"name":"やすらぎシティ地域包括支援センター","province":"東京都","city":"練馬区","address":"練馬区東大泉7-27-49","lat":35.74401,"lon":139.5804683},{"name":"練馬区保健所（生活衛生課）","province":"東京都","city":"練馬区","address":"東京都練馬区豊玉北6丁目12-1","lat":35.73558101,"lon":139.65167678},{"name":"練馬区保健所（保健予防課）","province":"東京都","city":"練馬区","address":"東京都練馬区豊玉北6丁目12-1","lat":35.73558101,"lon":139.65167678},{"name":"豊玉保健相談所","province":"東京都","city":"練馬区","address":"東京都練馬区豊玉北5丁目15-19","lat":35.73594216,"lon":139.65492649},{"name":"北保健相談所","province":"東京都","city":"練馬区","address":"東京都練馬区北町6丁目35-7","lat":35.75720905,"lon":139.64949272},{"name":"光が丘保健相談所","province":"東京都","city":"練馬区","address":"東京都練馬区光が丘2丁目9-6","lat":35.75941388,"lon":139.62976375},{"name":"石神井保健相談所","province":"東京都","city":"練馬区","address":"東京都練馬区石神井町7丁目3-28","lat":35.74453977,"lon":139.60134731},{"name":"大泉保健相談所","province":"東京都","city":"練馬区","address":"東京都練馬区大泉学園町5丁目8-8","lat":35.76707824,"lon":139.58662845},{"name":"関保健相談所","province":"東京都","city":"練馬区","address":"東京都練馬区関町東1丁目27-4","lat":35.72653849,"lon":139.58129968},{"name":"練馬区保健所（生活衛生課）","province":"東京都","city":"練馬区","address":"練馬区豊玉北6-12-1","lat":35.73571,"lon":139.65167},{"name":"練馬区保健所（保健予防課）","province":"東京都","city":"練馬区","address":"練馬区豊玉北6-12-1","lat":35.73571,"lon":139.65167},{"name":"豊玉保健相談所","province":"東京都","city":"練馬区","address":"練馬区豊玉北5-15-19","lat":35.73619,"lon":139.65497},{"name":"北保健相談所","province":"東京都","city":"練馬区","address":"練馬区北町6-35-7","lat":35.7577,"lon":139.64937},{"name":"光が丘保健相談所","province":"東京都","city":"練馬区","address":"練馬区光が丘2-9-6","lat":35.75914,"lon":139.63036},{"name":"石神井保健相談所","province":"東京都","city":"練馬区","address":"練馬区石神井町7-3-28","lat":35.7443,"lon":139.60115},{"name":"大泉保健相談所","province":"東京都","city":"練馬区","address":"練馬区大泉学園町5-8-8","lat":35.76731,"lon":139.58688},{"name":"関保健相談所","province":"東京都","city":"練馬区","address":"練馬区関町東1-27-4","lat":35.72668,"lon":139.58139},{"name":"関保健相談所","province":"東京都","city":"練馬区","address":"練馬区関町東1-27-4","lat":35.72669,"lon":139.58139},{"name":"北保健相談所","province":"東京都","city":"練馬区","address":"練馬区北町8-2-11","lat":35.76413,"lon":139.65102},{"name":"練馬区選挙管理委員会","province":"東京都","city":"練馬区","address":"練馬区豊玉北6-12-1","lat":35.735671,"lon":139.651705},{"name":"練馬区保健所（生活衛生課）","province":"東京都","city":"練馬区","address":"練馬区豊玉北6-12-1","lat":35.735573,"lon":139.651671},{"name":"練馬区保健所（保健予防課）","province":"東京都","city":"練馬区","address":"練馬区豊玉北6-12-1","lat":35.735573,"lon":139.651671},{"name":"豊玉保健相談所","province":"東京都","city":"練馬区","address":"練馬区豊玉北5-15-19","lat":35.736014,"lon":139.654851},{"name":"北保健相談所","province":"東京都","city":"練馬区","address":"練馬区北町8-2-11","lat":35.763961,"lon":139.651376},{"name":"光が丘保健相談所","province":"東京都","city":"練馬区","address":"練馬区光が丘2-9-6","lat":35.759486,"lon":139.629589},{"name":"石神井保健相談所","province":"東京都","city":"練馬区","address":"練馬区石神井町7-3-28","lat":35.74452,"lon":139.601328},{"name":"大泉保健相談所","province":"東京都","city":"練馬区","address":"練馬区大泉学園町5-8-8","lat":35.767045,"lon":139.586631},{"name":"関保健相談所","province":"東京都","city":"練馬区","address":"練馬区関町東1-27-4","lat":35.726538,"lon":139.5813},{"name":"やすらぎシティ地域包括支援センター","province":"東京都","city":"練馬区","address":"練馬区東大泉7-27-49","lat":35.74401,"lon":139.5804683},{"name":"練馬区保健所（生活衛生課）","province":"東京都","city":"練馬区","address":"東京都練馬区豊玉北6丁目12-1","lat":35.73558101,"lon":139.65167678},{"name":"練馬区保健所（保健予防課）","province":"東京都","city":"練馬区","address":"東京都練馬区豊玉北6丁目12-1","lat":35.73558101,"lon":139.65167678},{"name":"豊玉保健相談所","province":"東京都","city":"練馬区","address":"東京都練馬区豊玉北5丁目15-19","lat":35.73594216,"lon":139.65492649},{"name":"北保健相談所","province":"東京都","city":"練馬区","address":"東京都練馬区北町6丁目35-7","lat":35.75720905,"lon":139.64949272},{"name":"光が丘保健相談所","province":"東京都","city":"練馬区","address":"東京都練馬区光が丘2丁目9-6","lat":35.75941388,"lon":139.62976375},{"name":"石神井保健相談所","province":"東京都","city":"練馬区","address":"東京都練馬区石神井町7丁目3-28","lat":35.74453977,"lon":139.60134731},{"name":"大泉保健相談所","province":"東京都","city":"練馬区","address":"東京都練馬区大泉学園町5丁目8-8","lat":35.76707824,"lon":139.58662845},{"name":"関保健相談所","province":"東京都","city":"練馬区","address":"東京都練馬区関町東1丁目27-4","lat":35.72653849,"lon":139.58129968},{"name":"練馬区保健所（生活衛生課）","province":"東京都","city":"練馬区","address":"練馬区豊玉北6-12-1","lat":35.73571,"lon":139.65167},{"name":"練馬区保健所（保健予防課）","province":"東京都","city":"練馬区","address":"練馬区豊玉北6-12-1","lat":35.73571,"lon":139.65167},{"name":"豊玉保健相談所","province":"東京都","city":"練馬区","address":"練馬区豊玉北5-15-19","lat":35.73619,"lon":139.65497},{"name":"北保健相談所","province":"東京都","city":"練馬区","address":"練馬区北町6-35-7","lat":35.7577,"lon":139.64937},{"name":"光が丘保健相談所","province":"東京都","city":"練馬区","address":"練馬区光が丘2-9-6","lat":35.75914,"lon":139.63036},{"name":"石神井保健相談所","province":"東京都","city":"練馬区","address":"練馬区石神井町7-3-28","lat":35.7443,"lon":139.60115},{"name":"大泉保健相談所","province":"東京都","city":"練馬区","address":"練馬区大泉学園町5-8-8","lat":35.76731,"lon":139.58688},{"name":"関保健相談所","province":"東京都","city":"練馬区","address":"練馬区関町東1-27-4","lat":35.72668,"lon":139.58139},{"name":"関保健相談所","province":"東京都","city":"練馬区","address":"練馬区関町東1-27-4","lat":35.72669,"lon":139.58139},{"name":"北保健相談所","province":"東京都","city":"練馬区","address":"練馬区北町8-2-11","lat":35.76413,"lon":139.65102},{"name":"練馬区選挙管理委員会","province":"東京都","city":"練馬区","address":"練馬区豊玉北6-12-1","lat":35.735671,"lon":139.651705},{"name":"練馬区保健所（生活衛生課）","province":"東京都","city":"練馬区","address":"練馬区豊玉北6-12-1","lat":35.735573,"lon":139.651671},{"name":"練馬区保健所（保健予防課）","province":"東京都","city":"練馬区","address":"練馬区豊玉北6-12-1","lat":35.735573,"lon":139.651671},{"name":"豊玉保健相談所","province":"東京都","city":"練馬区","address":"練馬区豊玉北5-15-19","lat":35.736014,"lon":139.654851},{"name":"北保健相談所","province":"東京都","city":"練馬区","address":"練馬区北町8-2-11","lat":35.763961,"lon":139.651376},{"name":"光が丘保健相談所","province":"東京都","city":"練馬区","address":"練馬区光が丘2-9-6","lat":35.759486,"lon":139.629589},{"name":"石神井保健相談所","province":"東京都","city":"練馬区","address":"練馬区石神井町7-3-28","lat":35.74452,"lon":139.601328},{"name":"大泉保健相談所","province":"東京都","city":"練馬区","address":"練馬区大泉学園町5-8-8","lat":35.767045,"lon":139.586631},{"name":"関保健相談所","province":"東京都","city":"練馬区","address":"練馬区関町東1-27-4","lat":35.726538,"lon":139.5813},{"name":"やすらぎシティ地域包括支援センター","province":"東京都","city":"練馬区","address":"練馬区東大泉7-27-49","lat":35.74401,"lon":139.5804683},{"name":"練馬区保健所（生活衛生課）","province":"東京都","city":"練馬区","address":"東京都練馬区豊玉北6丁目12-1","lat":35.73558101,"lon":139.65167678},{"name":"練馬区保健所（保健予防課）","province":"東京都","city":"練馬区","address":"東京都練馬区豊玉北6丁目12-1","lat":35.73558101,"lon":139.65167678},{"name":"豊玉保健相談所","province":"東京都","city":"練馬区","address":"東京都練馬区豊玉北5丁目15-19","lat":35.73594216,"lon":139.65492649},{"name":"北保健相談所","province":"東京都","city":"練馬区","address":"東京都練馬区北町6丁目35-7","lat":35.75720905,"lon":139.64949272},{"name":"光が丘保健相談所","province":"東京都","city":"練馬区","address":"東京都練馬区光が丘2丁目9-6","lat":35.75941388,"lon":139.62976375},{"name":"石神井保健相談所","province":"東京都","city":"練馬区","address":"東京都練馬区石神井町7丁目3-28","lat":35.74453977,"lon":139.60134731},{"name":"大泉保健相談所","province":"東京都","city":"練馬区","address":"東京都練馬区大泉学園町5丁目8-8","lat":35.76707824,"lon":139.58662845},{"name":"関保健相談所","province":"東京都","city":"練馬区","address":"東京都練馬区関町東1丁目27-4","lat":35.72653849,"lon":139.58129968},{"name":"練馬区保健所（生活衛生課）","province":"東京都","city":"練馬区","address":"練馬区豊玉北6-12-1","lat":35.73571,"lon":139.65167},{"name":"練馬区保健所（保健予防課）","province":"東京都","city":"練馬区","address":"練馬区豊玉北6-12-1","lat":35.73571,"lon":139.65167},{"name":"豊玉保健相談所","province":"東京都","city":"練馬区","address":"練馬区豊玉北5-15-19","lat":35.73619,"lon":139.65497},{"name":"北保健相談所","province":"東京都","city":"練馬区","address":"練馬区北町6-35-7","lat":35.7577,"lon":139.64937},{"name":"光が丘保健相談所","province":"東京都","city":"練馬区","address":"練馬区光が丘2-9-6","lat":35.75914,"lon":139.63036},{"name":"石神井保健相談所","province":"東京都","city":"練馬区","address":"練馬区石神井町7-3-28","lat":35.7443,"lon":139.60115},{"name":"大泉保健相談所","province":"東京都","city":"練馬区","address":"練馬区大泉学園町5-8-8","lat":35.76731,"lon":139.58688},{"name":"関保健相談所","province":"東京都","city":"練馬区","address":"練馬区関町東1-27-4","lat":35.72668,"lon":139.58139},{"name":"関保健相談所","province":"東京都","city":"練馬区","address":"練馬区関町東1-27-4","lat":35.72669,"lon":139.58139},{"name":"北保健相談所","province":"東京都","city":"練馬区","address":"練馬区北町8-2-11","lat":35.76413,"lon":139.65102},{"name":"練馬区保健所（生活衛生課）","province":"東京都","city":"練馬区","address":"練馬区豊玉北6-12-1","lat":35.735573,"lon":139.651671},{"name":"練馬区保健所（保健予防課）","province":"東京都","city":"練馬区","address":"練馬区豊玉北6-12-1","lat":35.735573,"lon":139.651671},{"name":"豊玉保健相談所","province":"東京都","city":"練馬区","address":"練馬区豊玉北5-15-19","lat":35.736014,"lon":139.654851},{"name":"北保健相談所","province":"東京都","city":"練馬区","address":"練馬区北町8-2-11","lat":35.763961,"lon":139.651376},{"name":"光が丘保健相談所","province":"東京都","city":"練馬区","address":"練馬区光が丘2-9-6","lat":35.759486,"lon":139.629589},{"name":"石神井保健相談所","province":"東京都","city":"練馬区","address":"練馬区石神井町7-3-28","lat":35.74452,"lon":139.601328},{"name":"大泉保健相談所","province":"東京都","city":"練馬区","address":"練馬区大泉学園町5-8-8","lat":35.767045,"lon":139.586631},{"name":"関保健相談所","province":"東京都","city":"練馬区","address":"練馬区関町東1-27-4","lat":35.726538,"lon":139.5813},{"name":"やすらぎシティ地域包括支援センター","province":"東京都","city":"練馬区","address":"練馬区東大泉7-27-49","lat":35.74401,"lon":139.5804683},{"name":"練馬区保健所（生活衛生課）","province":"東京都","city":"練馬区","address":"東京都練馬区豊玉北6丁目12-1","lat":35.73558101,"lon":139.65167678},{"name":"練馬区保健所（保健予防課）","province":"東京都","city":"練馬区","address":"東京都練馬区豊玉北6丁目12-1","lat":35.73558101,"lon":139.65167678},{"name":"豊玉保健相談所","province":"東京都","city":"練馬区","address":"東京都練馬区豊玉北5丁目15-19","lat":35.73594216,"lon":139.65492649},{"name":"北保健相談所","province":"東京都","city":"練馬区","address":"東京都練馬区北町6丁目35-7","lat":35.75720905,"lon":139.64949272},{"name":"光が丘保健相談所","province":"東京都","city":"練馬区","address":"東京都練馬区光が丘2丁目9-6","lat":35.75941388,"lon":139.62976375},{"name":"石神井保健相談所","province":"東京都","city":"練馬区","address":"東京都練馬区石神井町7丁目3-28","lat":35.74453977,"lon":139.60134731},{"name":"大泉保健相談所","province":"東京都","city":"練馬区","address":"東京都練馬区大泉学園町5丁目8-8","lat":35.76707824,"lon":139.58662845},{"name":"関保健相談所","province":"東京都","city":"練馬区","address":"東京都練馬区関町東1丁目27-4","lat":35.72653849,"lon":139.58129968},{"name":"練馬区保健所（生活衛生課）","province":"東京都","city":"練馬区","address":"練馬区豊玉北6-12-1","lat":35.73571,"lon":139.65167},{"name":"練馬区保健所（保健予防課）","province":"東京都","city":"練馬区","address":"練馬区豊玉北6-12-1","lat":35.73571,"lon":139.65167},{"name":"豊玉保健相談所","province":"東京都","city":"練馬区","address":"練馬区豊玉北5-15-19","lat":35.73619,"lon":139.65497},{"name":"北保健相談所","province":"東京都","city":"練馬区","address":"練馬区北町6-35-7","lat":35.7577,"lon":139.64937},{"name":"光が丘保健相談所","province":"東京都","city":"練馬区","address":"練馬区光が丘2-9-6","lat":35.75914,"lon":139.63036},{"name":"石神井保健相談所","province":"東京都","city":"練馬区","address":"練馬区石神井町7-3-28","lat":35.7443,"lon":139.60115},{"name":"大泉保健相談所","province":"東京都","city":"練馬区","address":"練馬区大泉学園町5-8-8","lat":35.76731,"lon":139.58688},{"name":"関保健相談所","province":"東京都","city":"練馬区","address":"練馬区関町東1-27-4","lat":35.72668,"lon":139.58139},{"name":"関保健相談所","province":"東京都","city":"練馬区","address":"練馬区関町東1-27-4","lat":35.72669,"lon":139.58139},{"name":"北保健相談所","province":"東京都","city":"練馬区","address":"練馬区北町8-2-11","lat":35.76413,"lon":139.65102},{"name":"練馬区保健所（生活衛生課）","province":"東京都","city":"練馬区","address":"練馬区豊玉北6-12-1","lat":35.735573,"lon":139.651671},{"name":"練馬区保健所（保健予防課）","province":"東京都","city":"練馬区","address":"練馬区豊玉北6-12-1","lat":35.735573,"lon":139.651671},{"name":"豊玉保健相談所","province":"東京都","city":"練馬区","address":"練馬区豊玉北5-15-19","lat":35.736014,"lon":139.654851},{"name":"北保健相談所","province":"東京都","city":"練馬区","address":"練馬区北町8-2-11","lat":35.763961,"lon":139.651376},{"name":"光が丘保健相談所","province":"東京都","city":"練馬区","address":"練馬区光が丘2-9-6","lat":35.759486,"lon":139.629589},{"name":"石神井保健相談所","province":"東京都","city":"練馬区","address":"練馬区石神井町7-3-28","lat":35.74452,"lon":139.601328},{"name":"大泉保健相談所","province":"東京都","city":"練馬区","address":"練馬区大泉学園町5-8-8","lat":35.767045,"lon":139.586631},{"name":"関保健相談所","province":"東京都","city":"練馬区","address":"練馬区関町東1-27-4","lat":35.726538,"lon":139.5813},{"name":"やすらぎシティ地域包括支援センター","province":"東京都","city":"練馬区","address":"練馬区東大泉7-27-49","lat":35.74401,"lon":139.5804683},{"name":"練馬区保健所（生活衛生課）","province":"東京都","city":"練馬区","address":"東京都練馬区豊玉北6丁目12-1","lat":35.73558101,"lon":139.65167678},{"name":"練馬区保健所（保健予防課）","province":"東京都","city":"練馬区","address":"東京都練馬区豊玉北6丁目12-1","lat":35.73558101,"lon":139.65167678},{"name":"豊玉保健相談所","province":"東京都","city":"練馬区","address":"東京都練馬区豊玉北5丁目15-19","lat":35.73594216,"lon":139.65492649},{"name":"北保健相談所","province":"東京都","city":"練馬区","address":"東京都練馬区北町6丁目35-7","lat":35.75720905,"lon":139.64949272},{"name":"光が丘保健相談所","province":"東京都","city":"練馬区","address":"東京都練馬区光が丘2丁目9-6","lat":35.75941388,"lon":139.62976375},{"name":"石神井保健相談所","province":"東京都","city":"練馬区","address":"東京都練馬区石神井町7丁目3-28","lat":35.74453977,"lon":139.60134731},{"name":"大泉保健相談所","province":"東京都","city":"練馬区","address":"東京都練馬区大泉学園町5丁目8-8","lat":35.76707824,"lon":139.58662845},{"name":"関保健相談所","province":"東京都","city":"練馬区","address":"東京都練馬区関町東1丁目27-4","lat":35.72653849,"lon":139.58129968},{"name":"練馬区保健所（生活衛生課）","province":"東京都","city":"練馬区","address":"練馬区豊玉北6-12-1","lat":35.73571,"lon":139.65167},{"name":"練馬区保健所（保健予防課）","province":"東京都","city":"練馬区","address":"練馬区豊玉北6-12-1","lat":35.73571,"lon":139.65167},{"name":"豊玉保健相談所","province":"東京都","city":"練馬区","address":"練馬区豊玉北5-15-19","lat":35.73619,"lon":139.65497},{"name":"北保健相談所","province":"東京都","city":"練馬区","address":"練馬区北町6-35-7","lat":35.7577,"lon":139.64937},{"name":"光が丘保健相談所","province":"東京都","city":"練馬区","address":"練馬区光が丘2-9-6","lat":35.75914,"lon":139.63036},{"name":"石神井保健相談所","province":"東京都","city":"練馬区","address":"練馬区石神井町7-3-28","lat":35.7443,"lon":139.60115},{"name":"大泉保健相談所","province":"東京都","city":"練馬区","address":"練馬区大泉学園町5-8-8","lat":35.76731,"lon":139.58688},{"name":"関保健相談所","province":"東京都","city":"練馬区","address":"練馬区関町東1-27-4","lat":35.72668,"lon":139.58139},{"name":"関保健相談所","province":"東京都","city":"練馬区","address":"練馬区関町東1-27-4","lat":35.72669,"lon":139.58139},{"name":"北保健相談所","province":"東京都","city":"練馬区","address":"練馬区北町8-2-11","lat":35.76413,"lon":139.65102},{"name":"練馬区保健所（生活衛生課）","province":"東京都","city":"練馬区","address":"練馬区豊玉北6-12-1","lat":35.735573,"lon":139.651671},{"name":"練馬区保健所（保健予防課）","province":"東京都","city":"練馬区","address":"練馬区豊玉北6-12-1","lat":35.735573,"lon":139.651671},{"name":"豊玉保健相談所","province":"東京都","city":"練馬区","address":"練馬区豊玉北5-15-19","lat":35.736014,"lon":139.654851},{"name":"北保健相談所","province":"東京都","city":"練馬区","address":"練馬区北町8-2-11","lat":35.763961,"lon":139.651376},{"name":"光が丘保健相談所","province":"東京都","city":"練馬区","address":"練馬区光が丘2-9-6","lat":35.759486,"lon":139.629589},{"name":"石神井保健相談所","province":"東京都","city":"練馬区","address":"練馬区石神井町7-3-28","lat":35.74452,"lon":139.601328},{"name":"大泉保健相談所","province":"東京都","city":"練馬区","address":"練馬区大泉学園町5-8-8","lat":35.767045,"lon":139.586631},{"name":"関保健相談所","province":"東京都","city":"練馬区","address":"練馬区関町東1-27-4","lat":35.726538,"lon":139.5813},{"name":"やすらぎシティ地域包括支援センター","province":"東京都","city":"練馬区","address":"練馬区東大泉7-27-49","lat":35.74401,"lon":139.5804683},{"name":"練馬区保健所（生活衛生課）","province":"東京都","city":"練馬区","address":"東京都練馬区豊玉北6丁目12-1","lat":35.73558101,"lon":139.65167678},{"name":"練馬区保健所（保健予防課）","province":"東京都","city":"練馬区","address":"東京都練馬区豊玉北6丁目12-1","lat":35.73558101,"lon":139.65167678},{"name":"豊玉保健相談所","province":"東京都","city":"練馬区","address":"東京都練馬区豊玉北5丁目15-19","lat":35.73594216,"lon":139.65492649},{"name":"北保健相談所","province":"東京都","city":"練馬区","address":"東京都練馬区北町6丁目35-7","lat":35.75720905,"lon":139.64949272},{"name":"光が丘保健相談所","province":"東京都","city":"練馬区","address":"東京都練馬区光が丘2丁目9-6","lat":35.75941388,"lon":139.62976375},{"name":"石神井保健相談所","province":"東京都","city":"練馬区","address":"東京都練馬区石神井町7丁目3-28","lat":35.74453977,"lon":139.60134731},{"name":"大泉保健相談所","province":"東京都","city":"練馬区","address":"東京都練馬区大泉学園町5丁目8-8","lat":35.76707824,"lon":139.58662845},{"name":"関保健相談所","province":"東京都","city":"練馬区","address":"東京都練馬区関町東1丁目27-4","lat":35.72653849,"lon":139.58129968},{"name":"練馬区保健所（生活衛生課）","province":"東京都","city":"練馬区","address":"練馬区豊玉北6-12-1","lat":35.73571,"lon":139.65167},{"name":"練馬区保健所（保健予防課）","province":"東京都","city":"練馬区","address":"練馬区豊玉北6-12-1","lat":35.73571,"lon":139.65167},{"name":"豊玉保健相談所","province":"東京都","city":"練馬区","address":"練馬区豊玉北5-15-19","lat":35.73619,"lon":139.65497},{"name":"北保健相談所","province":"東京都","city":"練馬区","address":"練馬区北町6-35-7","lat":35.7577,"lon":139.64937},{"name":"光が丘保健相談所","province":"東京都","city":"練馬区","address":"練馬区光が丘2-9-6","lat":35.75914,"lon":139.63036},{"name":"石神井保健相談所","province":"東京都","city":"練馬区","address":"練馬区石神井町7-3-28","lat":35.7443,"lon":139.60115},{"name":"大泉保健相談所","province":"東京都","city":"練馬区","address":"練馬区大泉学園町5-8-8","lat":35.76731,"lon":139.58688},{"name":"関保健相談所","province":"東京都","city":"練馬区","address":"練馬区関町東1-27-4","lat":35.72668,"lon":139.58139},{"name":"関保健相談所","province":"東京都","city":"練馬区","address":"練馬区関町東1-27-4","lat":35.72669,"lon":139.58139},{"name":"北保健相談所","province":"東京都","city":"練馬区","address":"練馬区北町8-2-11","lat":35.76413,"lon":139.65102}]}