{"keyword":"センター","data":[{"name":"はつらつセンター豊玉","province":"東京都","city":"練馬区","address":"練馬区豊玉中3-3-12","lat":35.73205,"lon":139.65588},{"name":"はつらつセンター関","province":"東京都","city":"練馬区","address":"練馬区関町北1-7-2関区民センター内","lat":35.72493,"lon":139.57748},{"name":"はつらつセンター大泉","province":"東京都","city":"練馬区","address":"練馬区大泉学園町1-34-20","lat":35.763,"lon":139.59079},{"name":"はつらつセンター光が丘","province":"東京都","city":"練馬区","address":"練馬区光が丘2-9-6光が丘区民センター内","lat":35.75914,"lon":139.63036},{"name":"はつらつセンター豊玉","province":"東京都","city":"練馬区","address":"練馬区豊玉中3-3-12","lat":35.731918,"lon":139.655393},{"name":"はつらつセンター関","province":"東京都","city":"練馬区","address":"練馬区関町北1-7-2関区民センター内","lat":35.724489,"lon":139.577664},{"name":"はつらつセンター大泉","province":"東京都","city":"練馬区","address":"練馬区大泉学園町1-34-20","lat":35.763035,"lon":139.590778},{"name":"はつらつセンター光が丘","province":"東京都","city":"練馬区","address":"練馬区光が丘2-9-6光が丘区民センター内","lat":35.759486,"lon":139.629589},{"name":"はつらつセンター光が丘","province":"東京都","city":"練馬区","address":"練馬区光が丘2-9-6","lat":35.75947426,"lon":139.6301846},{"name":"はつらつセンター関","province":"東京都","city":"練馬区","address":"練馬区関町北1-7-2","lat":35.72447904,"lon":139.5777963},{"name":"はつらつセンター豊玉","province":"東京都","city":"練馬区","address":"練馬区豊玉中3-3-12","lat":35.73215105,"lon":139.6553402},{"name":"はつらつセンター大泉","province":"東京都","city":"練馬区","address":"練馬区大泉学園町1-34-20","lat":35.76347178,"lon":139.5891734},{"name":"豊玉障害者地域生活支援センターきらら","province":"東京都","city":"練馬区","address":"練馬区豊玉北5-15-196階","lat":35.73601981,"lon":139.65499},{"name":"光が丘障害者地域生活支援センターすてっぷ","province":"東京都","city":"練馬区","address":"練馬区光が丘2-9-6","lat":35.75923654,"lon":139.6294759},{"name":"石神井障害者地域生活支援センターういんぐ","province":"東京都","city":"練馬区","address":"練馬区石神井町7-3-28","lat":35.74460505,"lon":139.6011285},{"name":"大泉障害者地域生活支援センターさくら","province":"東京都","city":"練馬区","address":"練馬区東大泉5-35-2","lat":35.74751322,"lon":139.5896138}]}