{"keyword":"一覧","data":[{"name":"大泉学園町体育館","province":"東京都","city":"練馬区","address":"東京都練馬区大泉学園町5丁目14-24","lat":35.76540067,"lon":139.58420642},{"name":"大泉学園地区区民館","province":"東京都","city":"練馬区","address":"東京都練馬区大泉学園町8丁目9-5","lat":35.77279698,"lon":139.59284455},{"name":"大泉運動場","province":"東京都","city":"練馬区","address":"東京都練馬区大泉町5丁目24-12","lat":35.76228191,"lon":139.59328623},{"name":"上石神井体育館","province":"東京都","city":"練馬区","address":"東京都練馬区上石神井1丁目32-37","lat":35.72260019,"lon":139.58736879},{"name":"下石神井地区区民館","province":"東京都","city":"練馬区","address":"東京都練馬区下石神井6丁目8-15","lat":35.73372991,"lon":139.60357257},{"name":"石神井松の風文化公園","province":"東京都","city":"練馬区","address":"東京都練馬区石神井台1丁目33-44","lat":35.73937624,"lon":139.59410371},{"name":"関区民センター","province":"東京都","city":"練馬区","address":"東京都練馬区関町北1丁目7-2","lat":35.72448864,"lon":139.57766396},{"name":"北大泉地区区民館","province":"東京都","city":"練馬区","address":"東京都練馬区大泉町2丁目41-26","lat":35.764718,"lon":139.60412971},{"name":"田柄地区区民館","province":"東京都","city":"練馬区","address":"東京都練馬区田柄3丁目28-13","lat":35.76216932,"lon":139.63724633},{"name":"土支田庭球場","province":"東京都","city":"練馬区","address":"東京都練馬区土支田4丁目31-24","lat":35.76949282,"lon":139.61505077},{"name":"豊玉北地区区民館","province":"東京都","city":"練馬区","address":"東京都練馬区豊玉北3丁目7-9","lat":35.73262326,"lon":139.66137886},{"name":"はつらつセンター豊玉","province":"東京都","city":"練馬区","address":"東京都練馬区豊玉中3丁目3-12","lat":35.73209539,"lon":139.65530162},{"name":"中村南スポーツ交流センター","province":"東京都","city":"練馬区","address":"東京都練馬区中村南1丁目2-32","lat":35.72948994,"lon":139.64865507},{"name":"練馬総合運動場公園","province":"東京都","city":"練馬区","address":"東京都練馬区練馬2丁目29-10","lat":35.74518829,"lon":139.65316237},{"name":"東大泉地区区民館","province":"東京都","city":"練馬区","address":"東京都練馬区東大泉3丁目53-1","lat":35.75606592,"lon":139.58786184},{"name":"光が丘体育館","province":"東京都","city":"練馬区","address":"東京都練馬区光が丘4丁目1-4","lat":35.76393561,"lon":139.6300802},{"name":"氷川台地区区民館","province":"東京都","city":"練馬区","address":"東京都練馬区氷川台2丁目16-14","lat":35.75693173,"lon":139.66723005},{"name":"富士見台地区区民館","province":"東京都","city":"練馬区","address":"東京都練馬区富士見台3丁目10-1","lat":35.73867719,"lon":139.62433446},{"name":"平和台体育館","province":"東京都","city":"練馬区","address":"東京都練馬区平和台2丁目12-5","lat":35.75943406,"lon":139.66149436},{"name":"三原台温水プール","province":"東京都","city":"練馬区","address":"東京都練馬区三原台2丁目11-29","lat":35.75723567,"lon":139.60647417},{"name":"西大泉地区区民館","province":"東京都","city":"練馬区","address":"東京都練馬区西大泉5丁目3-32","lat":35.76005936,"lon":139.57250204},{"name":"早宮地区区民館","province":"東京都","city":"練馬区","address":"東京都練馬区早宮4丁目14-5","lat":35.75078206,"lon":139.65126507},{"name":"南大泉地区区民館","province":"東京都","city":"練馬区","address":"東京都練馬区南大泉2丁目19-26","lat":35.73912293,"lon":139.57049175},{"name":"旭丘地域集会所","province":"東京都","city":"練馬区","address":"東京都練馬区旭丘1丁目58-10","lat":35.73483448,"lon":139.67410266},{"name":"旭町北地区区民館","province":"東京都","city":"練馬区","address":"東京都練馬区旭町2丁目30-16","lat":35.77326229,"lon":139.62879383},{"name":"旭町地域集会所","province":"東京都","city":"練馬区","address":"東京都練馬区旭町3丁目11-6","lat":35.7741371,"lon":139.62500245},{"name":"大泉図書館","province":"東京都","city":"練馬区","address":"東京都練馬区大泉学園町2丁目21-17","lat":35.76062093,"lon":139.58712007},{"name":"大泉北地域集会所","province":"東京都","city":"練馬区","address":"東京都練馬区大泉学園町4丁目21-1","lat":35.7656063,"lon":139.58846717},{"name":"大泉学園町地域集会所","province":"東京都","city":"練馬区","address":"東京都練馬区大泉学園町6丁目20-36","lat":35.77138851,"lon":139.58317326},{"name":"稲荷山図書館","province":"東京都","city":"練馬区","address":"東京都練馬区大泉町1丁目3-18","lat":35.76531255,"lon":139.609257},{"name":"中里郷土の森緑地","province":"東京都","city":"練馬区","address":"東京都練馬区大泉町1丁目51-2","lat":35.76918408,"lon":139.60412404},{"name":"大泉町地域集会所","province":"東京都","city":"練馬区","address":"東京都練馬区大泉町4丁目35-17","lat":35.76384284,"lon":139.59575269},{"name":"上石神井南地域集会所","province":"東京都","city":"練馬区","address":"東京都練馬区上石神井1丁目6-16","lat":35.7252278,"lon":139.5924766},{"name":"上石神井北地域集会所","province":"東京都","city":"練馬区","address":"東京都練馬区上石神井2丁目36-18","lat":35.72916624,"lon":139.59237091},{"name":"北町地区区民館","province":"東京都","city":"練馬区","address":"東京都練馬区北町2丁目26-1","lat":35.76762472,"lon":139.66038859},{"name":"北町地域集会所","province":"東京都","city":"練馬区","address":"東京都練馬区北町8丁目28-10","lat":35.76771895,"lon":139.6496534},{"name":"向山地域集会所","province":"東京都","city":"練馬区","address":"東京都練馬区向山4丁目21-12","lat":35.74357422,"lon":139.63859699},{"name":"小竹図書館","province":"東京都","city":"練馬区","address":"東京都練馬区小竹町2丁目43-1","lat":35.74191428,"lon":139.67599106},{"name":"石神井図書館","province":"東京都","city":"練馬区","address":"東京都練馬区石神井台1丁目16-31","lat":35.73642114,"lon":139.59938396},{"name":"石神井台みどり地域集会所","province":"東京都","city":"練馬区","address":"東京都練馬区石神井台2丁目13-6","lat":35.73653206,"lon":139.59204011},{"name":"石神井台敬老館","province":"東京都","city":"練馬区","address":"東京都練馬区石神井台2丁目18-13","lat":35.73568211,"lon":139.58978476},{"name":"石神井台地域集会所","province":"東京都","city":"練馬区","address":"東京都練馬区石神井台4丁目5-14","lat":35.73173802,"lon":139.58576856},{"name":"石神井公園区民交流センター","province":"東京都","city":"練馬区","address":"東京都練馬区石神井町2丁目14-1","lat":35.74426498,"lon":139.60766067},{"name":"男女共同参画センターえーる","province":"東京都","city":"練馬区","address":"東京都練馬区石神井町8丁目1-10","lat":35.74533691,"lon":139.60169447},{"name":"関町北地区区民館","province":"東京都","city":"練馬区","address":"東京都練馬区関町北4丁目12-21","lat":35.72976582,"lon":139.57710268},{"name":"関町図書館","province":"東京都","city":"練馬区","address":"東京都練馬区関町南3丁目11-2","lat":35.72091132,"lon":139.58041665},{"name":"関町地域集会所","province":"東京都","city":"練馬区","address":"東京都練馬区関町南4丁目22-1","lat":35.72145821,"lon":139.56762327},{"name":"高野台地域集会所","province":"東京都","city":"練馬区","address":"東京都練馬区高野台3丁目28-11","lat":35.74565383,"lon":139.61183804},{"name":"?松地区区民館","province":"東京都","city":"練馬区","address":"東京都練馬区高松3丁目24-27","lat":35.75003149,"lon":139.62539228},{"name":"旭町南地区区民館","province":"東京都","city":"練馬区","address":"東京都練馬区高松5丁目23-15","lat":35.76283005,"lon":139.62505289},{"name":"立野地区区民館","province":"東京都","city":"練馬区","address":"東京都練馬区立野町15-42","lat":35.71857274,"lon":139.58251101},{"name":"土支田地域集会所","province":"東京都","city":"練馬区","address":"東京都練馬区土支田2丁目40-21","lat":35.76429055,"lon":139.61163459},{"name":"練馬駅（都営大江戸線）","province":"東京都","city":"練馬区","address":"東京都練馬区豊玉北5丁目17-12","lat":35.73726702,"lon":139.65513475},{"name":"練馬区役所西庁舎","province":"東京都","city":"練馬区","address":"東京都練馬区豊玉北6丁目12-1","lat":35.73558101,"lon":139.65167678},{"name":"練馬区役所東庁舎","province":"東京都","city":"練馬区","address":"東京都練馬区豊玉北6丁目12-1","lat":35.73558101,"lon":139.65167678},{"name":"練馬区役所本庁舎","province":"東京都","city":"練馬区","address":"東京都練馬区豊玉北6丁目12-1","lat":35.73558101,"lon":139.65167678},{"name":"（生涯学習センター併設）\"","province":"東京都","city":"練馬区","address":"東京都練馬区豊玉北6丁目8-1","lat":35.73431449,"lon":139.65183793},{"name":"豊玉地域集会所","province":"東京都","city":"練馬区","address":"東京都練馬区豊玉中4丁目13-6","lat":35.73263686,"lon":139.65058533},{"name":"水道局練馬営業所","province":"東京都","city":"練馬区","address":"東京都練馬区中村北1丁目9-4","lat":35.73485321,"lon":139.64772993},{"name":"中村地域集会所","province":"東京都","city":"練馬区","address":"東京都練馬区中村南2丁目23-12","lat":35.72979254,"lon":139.64273888},{"name":"貫井図書館","province":"東京都","city":"練馬区","address":"東京都練馬区貫井1丁目36-16","lat":35.73705267,"lon":139.63611967},{"name":"サンライフ練馬","province":"東京都","city":"練馬区","address":"東京都練馬区貫井1丁目36-18","lat":35.73738041,"lon":139.63602245},{"name":"豊島園駅（都営大江戸線）","province":"東京都","city":"練馬区","address":"東京都練馬区練馬4丁目14-17","lat":35.74155804,"lon":139.64886843},{"name":"早宮地域集会所","province":"東京都","city":"練馬区","address":"東京都練馬区早宮1丁目44-19","lat":35.7541985,"lon":139.65883927},{"name":"春日町リサイクルセンター","province":"東京都","city":"練馬区","address":"東京都練馬区春日町2丁目14-16","lat":35.75604526,"lon":139.64786791},{"name":"練馬春日町駅（都営大江戸線）","province":"東京都","city":"練馬区","address":"東京都練馬区春日町3丁目29-25","lat":35.7511373,"lon":139.64056041},{"name":"春日町青少年館","province":"東京都","city":"練馬区","address":"東京都練馬区春日町4丁目16-9","lat":35.75259543,"lon":139.63927992},{"name":"春日町南地区区民館","province":"東京都","city":"練馬区","address":"東京都練馬区春日町5丁目20-25","lat":35.74768486,"lon":139.63850794},{"name":"東大泉中央地域集会所","province":"東京都","city":"練馬区","address":"東京都練馬区東大泉3丁目18-9","lat":35.7516164,"lon":139.58673988},{"name":"勤労福祉会館","province":"東京都","city":"練馬区","address":"東京都練馬区東大泉5丁目40-36","lat":35.74816403,"lon":139.58766773},{"name":"東大泉地域集会所","province":"東京都","city":"練馬区","address":"東京都練馬区東大泉7丁目27-51","lat":35.74349769,"lon":139.58039352},{"name":"光が丘駅（都営大江戸線）","province":"東京都","city":"練馬区","address":"東京都練馬区光が丘2丁目9-5","lat":35.75922223,"lon":139.62943323},{"name":"光が丘区民センター","province":"東京都","city":"練馬区","address":"東京都練馬区光が丘2丁目9-6","lat":35.75941388,"lon":139.62976375},{"name":"光が丘地区区民館","province":"東京都","city":"練馬区","address":"東京都練馬区光が丘3丁目9-4","lat":35.75795283,"lon":139.62555027},{"name":"光が丘図書館","province":"東京都","city":"練馬区","address":"東京都練馬区光が丘4丁目1-5","lat":35.76307459,"lon":139.63001635},{"name":"平和台図書館","province":"東京都","city":"練馬区","address":"東京都練馬区平和台1丁目36-17","lat":35.76006185,"lon":139.66473292},{"name":"南大泉青少年館","province":"東京都","city":"練馬区","address":"東京都練馬区南大泉1丁目44-7","lat":35.74335034,"lon":139.57486067},{"name":"南大泉図書館","province":"東京都","city":"練馬区","address":"東京都練馬区南大泉1丁目44-7","lat":35.74335034,"lon":139.57486067},{"name":"こどもと本のひろば","province":"東京都","city":"練馬区","address":"東京都練馬区南大泉3丁目17-20","lat":35.74163374,"lon":139.56997502},{"name":"南田中地域集会所","province":"東京都","city":"練馬区","address":"東京都練馬区南田中2丁目18-36","lat":35.7332276,"lon":139.6168492},{"name":"南田中図書館","province":"東京都","city":"練馬区","address":"東京都練馬区南田中5丁目15-22","lat":35.7377658,"lon":139.61109952},{"name":"三原台敬老館","province":"東京都","city":"練馬区","address":"東京都練馬区三原台2丁目11-29","lat":35.75723567,"lon":139.60647417},{"name":"三原台地域集会所","province":"東京都","city":"練馬区","address":"東京都練馬区三原台3丁目13-17","lat":35.75393032,"lon":139.59938599},{"name":"谷原地域集会所","province":"東京都","city":"練馬区","address":"東京都練馬区谷原5丁目6-7","lat":35.75138654,"lon":139.61296272},{"name":"関町リサイクルセンター","province":"東京都","city":"練馬区","address":"東京都練馬区関町北1丁目7-14","lat":35.72494693,"lon":139.57795558},{"name":"豊玉リサイクルセンター","province":"東京都","city":"練馬区","address":"東京都練馬区豊玉上2丁目22-15","lat":35.73706161,"lon":139.66013989},{"name":"大泉リサイクルセンター","province":"東京都","city":"練馬区","address":"東京都練馬区大泉学園町1丁目34-10","lat":35.7630762,"lon":139.59079198},{"name":"練馬区立美術館","province":"東京都","city":"練馬区","address":"東京都練馬区貫井1丁目36-16","lat":35.73705267,"lon":139.63611967},{"name":"練馬文化センター（令和６年４月30日まで休館予定）","province":"東京都","city":"練馬区","address":"東京都練馬区練馬1丁目17-37","lat":35.73908621,"lon":139.65348203},{"name":"石神井公園ふるさと文化館","province":"東京都","city":"練馬区","address":"東京都練馬区石神井町5丁目12-16","lat":35.73751547,"lon":139.59949778},{"name":"桜台地域集会所","province":"東京都","city":"練馬区","address":"東京都練馬区桜台1丁目22-9","lat":35.73911156,"lon":139.66664756},{"name":"春日町地域集会所","province":"東京都","city":"練馬区","address":"東京都練馬区春日町5丁目30-1","lat":35.75060678,"lon":139.63944386},{"name":"桜台地区区民館","province":"東京都","city":"練馬区","address":"東京都練馬区桜台3丁目39-17","lat":35.74591625,"lon":139.66321147}]}