{"keyword":"中道","data":[{"name":"四季の香ローズガーデン","province":"東京都","city":"練馬区","address":"練馬区光が丘5-2-6(四季の香公園内)","lat":35.76072855,"lon":139.6263062},{"name":"石神井公園ふるさと文化館","province":"東京都","city":"練馬区","address":"練馬区石神井町5-12-16","lat":35.73761853,"lon":139.59946},{"name":"石神井公園ふるさと文化館分室","province":"東京都","city":"練馬区","address":"練馬区石神井台1-33-44","lat":35.73930834,"lon":139.5939328},{"name":"四季の香ローズガーデン","province":"東京都","city":"練馬区","address":"練馬区光が丘5-2-6(四季の香公園内)","lat":35.76072855,"lon":139.6263062},{"name":"石神井公園ふるさと文化館","province":"東京都","city":"練馬区","address":"練馬区石神井町5-12-16","lat":35.73761853,"lon":139.59946},{"name":"石神井公園ふるさと文化館分室","province":"東京都","city":"練馬区","address":"練馬区石神井台1-33-44","lat":35.73930834,"lon":139.5939328},{"name":"四季の香ローズガーデン","province":"東京都","city":"練馬区","address":"練馬区光が丘5-2-6(四季の香公園内)","lat":35.76072855,"lon":139.6263062},{"name":"石神井公園ふるさと文化館","province":"東京都","city":"練馬区","address":"練馬区石神井町5-12-16","lat":35.73761853,"lon":139.59946},{"name":"石神井公園ふるさと文化館分室","province":"東京都","city":"練馬区","address":"練馬区石神井台1-33-44","lat":35.73930834,"lon":139.5939328},{"name":"四季の香ローズガーデン","province":"東京都","city":"練馬区","address":"練馬区光が丘5-2-6(四季の香公園内)","lat":35.76072855,"lon":139.6263062},{"name":"石神井公園ふるさと文化館","province":"東京都","city":"練馬区","address":"練馬区石神井町5-12-16","lat":35.73761853,"lon":139.59946},{"name":"石神井公園ふるさと文化館分室","province":"東京都","city":"練馬区","address":"練馬区石神井台1-33-44","lat":35.73930834,"lon":139.5939328},{"name":"四季の香ローズガーデン","province":"東京都","city":"練馬区","address":"練馬区光が丘5-2-6(四季の香公園内)","lat":35.76072855,"lon":139.6263062},{"name":"石神井公園ふるさと文化館","province":"東京都","city":"練馬区","address":"練馬区石神井町5-12-16","lat":35.73761853,"lon":139.59946},{"name":"石神井公園ふるさと文化館分室","province":"東京都","city":"練馬区","address":"練馬区石神井台1-33-44","lat":35.73930834,"lon":139.5939328},{"name":"四季の香ローズガーデン","province":"東京都","city":"練馬区","address":"練馬区光が丘5-2-6(四季の香公園内)","lat":35.76072855,"lon":139.6263062},{"name":"石神井公園ふるさと文化館","province":"東京都","city":"練馬区","address":"練馬区石神井町5-12-16","lat":35.73761853,"lon":139.59946},{"name":"石神井公園ふるさと文化館分室","province":"東京都","city":"練馬区","address":"練馬区石神井台1-33-44","lat":35.73930834,"lon":139.5939328},{"name":"四季の香ローズガーデン","province":"東京都","city":"練馬区","address":"練馬区光が丘5-2-6(四季の香公園内)","lat":35.76072855,"lon":139.6263062},{"name":"石神井公園ふるさと文化館","province":"東京都","city":"練馬区","address":"練馬区石神井町5-12-16","lat":35.73761853,"lon":139.59946},{"name":"石神井公園ふるさと文化館分室","province":"東京都","city":"練馬区","address":"練馬区石神井台1-33-44","lat":35.73930834,"lon":139.5939328},{"name":"四季の香ローズガーデン","province":"東京都","city":"練馬区","address":"練馬区光が丘5-2-6(四季の香公園内)","lat":35.76072855,"lon":139.6263062},{"name":"石神井公園ふるさと文化館","province":"東京都","city":"練馬区","address":"練馬区石神井町5-12-16","lat":35.73761853,"lon":139.59946},{"name":"石神井公園ふるさと文化館分室","province":"東京都","city":"練馬区","address":"練馬区石神井台1-33-44","lat":35.73930834,"lon":139.5939328},{"name":"四季の香ローズガーデン","province":"東京都","city":"練馬区","address":"練馬区光が丘5-2-6(四季の香公園内)","lat":35.76072855,"lon":139.6263062},{"name":"石神井公園ふるさと文化館","province":"東京都","city":"練馬区","address":"練馬区石神井町5-12-16","lat":35.73761853,"lon":139.59946},{"name":"石神井公園ふるさと文化館分室","province":"東京都","city":"練馬区","address":"練馬区石神井台1-33-44","lat":35.73930834,"lon":139.5939328},{"name":"四季の香ローズガーデン","province":"東京都","city":"練馬区","address":"練馬区光が丘5-2-6(四季の香公園内)","lat":35.76072855,"lon":139.6263062},{"name":"石神井公園ふるさと文化館","province":"東京都","city":"練馬区","address":"練馬区石神井町5-12-16","lat":35.73761853,"lon":139.59946},{"name":"石神井公園ふるさと文化館分室","province":"東京都","city":"練馬区","address":"練馬区石神井台1-33-44","lat":35.73930834,"lon":139.5939328},{"name":"四季の香ローズガーデン","province":"東京都","city":"練馬区","address":"練馬区光が丘5-2-6(四季の香公園内)","lat":35.76072855,"lon":139.6263062},{"name":"石神井公園ふるさと文化館","province":"東京都","city":"練馬区","address":"練馬区石神井町5-12-16","lat":35.73761853,"lon":139.59946},{"name":"石神井公園ふるさと文化館分室","province":"東京都","city":"練馬区","address":"練馬区石神井台1-33-44","lat":35.73930834,"lon":139.5939328},{"name":"四季の香ローズガーデン","province":"東京都","city":"練馬区","address":"練馬区光が丘5-2-6(四季の香公園内)","lat":35.76072855,"lon":139.6263062},{"name":"石神井公園ふるさと文化館","province":"東京都","city":"練馬区","address":"練馬区石神井町5-12-16","lat":35.73761853,"lon":139.59946},{"name":"石神井公園ふるさと文化館分室","province":"東京都","city":"練馬区","address":"練馬区石神井台1-33-44","lat":35.73930834,"lon":139.5939328},{"name":"四季の香ローズガーデン","province":"東京都","city":"練馬区","address":"練馬区光が丘5-2-6(四季の香公園内)","lat":35.76072855,"lon":139.6263062},{"name":"石神井公園ふるさと文化館","province":"東京都","city":"練馬区","address":"練馬区石神井町5-12-16","lat":35.73761853,"lon":139.59946},{"name":"石神井公園ふるさと文化館分室","province":"東京都","city":"練馬区","address":"練馬区石神井台1-33-44","lat":35.73930834,"lon":139.5939328},{"name":"四季の香ローズガーデン","province":"東京都","city":"練馬区","address":"練馬区光が丘5-2-6(四季の香公園内)","lat":35.76072855,"lon":139.6263062},{"name":"石神井公園ふるさと文化館","province":"東京都","city":"練馬区","address":"練馬区石神井町5-12-16","lat":35.73761853,"lon":139.59946},{"name":"石神井公園ふるさと文化館分室","province":"東京都","city":"練馬区","address":"練馬区石神井台1-33-44","lat":35.73930834,"lon":139.5939328},{"name":"四季の香ローズガーデン","province":"東京都","city":"練馬区","address":"練馬区光が丘5-2-6(四季の香公園内)","lat":35.76072855,"lon":139.6263062},{"name":"石神井公園ふるさと文化館","province":"東京都","city":"練馬区","address":"練馬区石神井町5-12-16","lat":35.73761853,"lon":139.59946},{"name":"石神井公園ふるさと文化館分室","province":"東京都","city":"練馬区","address":"練馬区石神井台1-33-44","lat":35.73930834,"lon":139.5939328},{"name":"四季の香ローズガーデン","province":"東京都","city":"練馬区","address":"練馬区光が丘5-2-6(四季の香公園内)","lat":35.76072855,"lon":139.6263062},{"name":"石神井公園ふるさと文化館","province":"東京都","city":"練馬区","address":"練馬区石神井町5-12-16","lat":35.73761853,"lon":139.59946},{"name":"石神井公園ふるさと文化館分室","province":"東京都","city":"練馬区","address":"練馬区石神井台1-33-44","lat":35.73930834,"lon":139.5939328},{"name":"四季の香ローズガーデン","province":"東京都","city":"練馬区","address":"練馬区光が丘5-2-6(四季の香公園内)","lat":35.76072855,"lon":139.6263062},{"name":"石神井公園ふるさと文化館","province":"東京都","city":"練馬区","address":"練馬区石神井町5-12-16","lat":35.73761853,"lon":139.59946},{"name":"石神井公園ふるさと文化館分室","province":"東京都","city":"練馬区","address":"練馬区石神井台1-33-44","lat":35.73930834,"lon":139.5939328},{"name":"四季の香ローズガーデン","province":"東京都","city":"練馬区","address":"練馬区光が丘5-2-6(四季の香公園内)","lat":35.76072855,"lon":139.6263062},{"name":"四季の香ローズガーデン","province":"東京都","city":"練馬区","address":"練馬区光が丘5-2-6(四季の香公園内)","lat":35.76072855,"lon":139.6263062},{"name":"四季の香ローズガーデン","province":"東京都","city":"練馬区","address":"練馬区光が丘5-2-6(四季の香公園内)","lat":35.76072855,"lon":139.6263062},{"name":"四季の香ローズガーデン","province":"東京都","city":"練馬区","address":"練馬区光が丘5-2-6(四季の香公園内)","lat":35.76072855,"lon":139.6263062},{"name":"四季の香ローズガーデン","province":"東京都","city":"練馬区","address":"練馬区光が丘5-2-6(四季の香公園内)","lat":35.76072855,"lon":139.6263062},{"name":"四季の香ローズガーデン","province":"東京都","city":"練馬区","address":"練馬区光が丘5-2-6(四季の香公園内)","lat":35.76072855,"lon":139.6263062}]}