{"keyword":"保育","data":[{"name":"練馬保育園","province":"東京都","city":"練馬区","address":"練馬区練馬2-13-3","lat":35.742211,"lon":139.651471},{"name":"練馬和光保育園","province":"東京都","city":"練馬区","address":"練馬区練馬1-18-21","lat":35.738978,"lon":139.654774},{"name":"ナーサリールームベリーベアー練馬","province":"東京都","city":"練馬区","address":"練馬区練馬1-17-14階","lat":35.738184,"lon":139.653302},{"name":"練馬駅前おひさま保育園","province":"東京都","city":"練馬区","address":"練馬区練馬3-18-5","lat":35.737947,"lon":139.650324},{"name":"桜台保育園","province":"東京都","city":"練馬区","address":"練馬区桜台5-41-12","lat":35.74438,"lon":139.657356},{"name":"桜台第二保育園","province":"東京都","city":"練馬区","address":"練馬区桜台3-39-17","lat":35.745916,"lon":139.663211},{"name":"アンジェリカ桜台保育園","province":"東京都","city":"練馬区","address":"練馬区桜台2-34-9","lat":35.744639,"lon":139.663786},{"name":"にじいろ保育園新桜台","province":"東京都","city":"練馬区","address":"練馬区桜台2-3-8","lat":35.743261,"lon":139.667642},{"name":"神の教会保育園","province":"東京都","city":"練馬区","address":"練馬区羽沢2-26-15","lat":35.746752,"lon":139.671319},{"name":"にじのいるか保育園氷川台","province":"東京都","city":"練馬区","address":"練馬区羽沢3-26-3","lat":35.750327,"lon":139.672291},{"name":"まちの保育園小竹向原","province":"東京都","city":"練馬区","address":"練馬区小竹町2-40-5","lat":35.743672,"lon":139.675315},{"name":"栄町保育園","province":"東京都","city":"練馬区","address":"練馬区栄町40-7","lat":35.739487,"lon":139.671192},{"name":"豊玉第二保育園","province":"東京都","city":"練馬区","address":"練馬区豊玉北6-17-9","lat":35.735959,"lon":139.650099},{"name":"太陽の子豊玉北保育園","province":"東京都","city":"練馬区","address":"練馬区豊玉北5-6-141・2階","lat":35.735487,"lon":139.65616},{"name":"チェリーチャイルド保育園","province":"東京都","city":"練馬区","address":"練馬区豊玉北4-12-11","lat":35.736489,"lon":139.659343},{"name":"ねりまさくらさくほいくえん","province":"東京都","city":"練馬区","address":"練馬区豊玉北4-33-171階","lat":35.733623,"lon":139.657524},{"name":"ソラスト新江古田保育園","province":"東京都","city":"練馬区","address":"練馬区豊玉北2-17-11","lat":35.734101,"lon":139.665212},{"name":"豊玉北えほん保育園","province":"東京都","city":"練馬区","address":"練馬区豊玉北4-4-2","lat":35.735256,"lon":139.660532},{"name":"ポピンズナーサリースクール桜台","province":"東京都","city":"練馬区","address":"練馬区豊玉北4-13-15","lat":35.736606,"lon":139.659954},{"name":"豊玉保育園","province":"東京都","city":"練馬区","address":"練馬区豊玉中4-13-6","lat":35.732595,"lon":139.650124},{"name":"豊玉第四保育園","province":"東京都","city":"練馬区","address":"練馬区豊玉中1-9-11","lat":35.730735,"lon":139.661423},{"name":"アスク豊玉中保育園","province":"東京都","city":"練馬区","address":"練馬区豊玉中1-2-7","lat":35.731535,"lon":139.661821},{"name":"豊玉第三保育園","province":"東京都","city":"練馬区","address":"練馬区豊玉南3-32-37","lat":35.729248,"lon":139.649552},{"name":"練馬二葉保育園","province":"東京都","city":"練馬区","address":"練馬区豊玉南3-31-15","lat":35.73047,"lon":139.650149},{"name":"貫井保育園","province":"東京都","city":"練馬区","address":"練馬区貫井4-24-9","lat":35.742191,"lon":139.62742},{"name":"貫井第二保育園","province":"東京都","city":"練馬区","address":"練馬区貫井4-13-4","lat":35.741024,"lon":139.63142},{"name":"Ｎｉｃｏｔ富士見台","province":"東京都","city":"練馬区","address":"練馬区貫井1-30-5","lat":35.736261,"lon":139.632726},{"name":"風の子保育園","province":"東京都","city":"練馬区","address":"練馬区貫井1-5-7","lat":35.737364,"lon":139.637086},{"name":"保育所まぁむ中村橋駅前園","province":"東京都","city":"練馬区","address":"練馬区貫井1-17-4","lat":35.738411,"lon":139.634384},{"name":"向山保育園","province":"東京都","city":"練馬区","address":"練馬区向山1-5-7","lat":35.737783,"lon":139.642244},{"name":"アートチャイルドケア中村橋","province":"東京都","city":"練馬区","address":"練馬区中村北4-4-132階","lat":35.735503,"lon":139.638361},{"name":"にじいろ保育園練馬中村","province":"東京都","city":"練馬区","address":"練馬区中村1-19-9","lat":35.733676,"lon":139.645591},{"name":"ベネッセ中村橋保育園","province":"東京都","city":"練馬区","address":"練馬区中村3-3-9","lat":35.733764,"lon":139.641031},{"name":"にじいろ保育園中村一丁目","province":"東京都","city":"練馬区","address":"練馬区中村1-5-29","lat":35.732662,"lon":139.648191},{"name":"平和保育園","province":"東京都","city":"練馬区","address":"練馬区中村南2-24-3","lat":35.730081,"lon":139.642919},{"name":"谷原保育園","province":"東京都","city":"練馬区","address":"練馬区谷原5-16-41","lat":35.750423,"lon":139.610732},{"name":"高野台保育園","province":"東京都","city":"練馬区","address":"練馬区高野台3-25-17","lat":35.744404,"lon":139.612452},{"name":"あい保育園高野台","province":"東京都","city":"練馬区","address":"練馬区高野台2-9-9","lat":35.746196,"lon":139.620923},{"name":"ピジョンランド練馬高野台","province":"東京都","city":"練馬区","address":"練馬区高野台1-3-7","lat":35.740568,"lon":139.616449},{"name":"富士見台こぶし保育園","province":"東京都","city":"練馬区","address":"練馬区富士見台3-10-1","lat":35.738613,"lon":139.624459},{"name":"青い鳥保育園","province":"東京都","city":"練馬区","address":"練馬区富士見台3-30-11","lat":35.737983,"lon":139.622885},{"name":"なんこう保育園","province":"東京都","city":"練馬区","address":"練馬区富士見台4-5-14","lat":35.742616,"lon":139.624287},{"name":"わらべうた練馬高野台保育園","province":"東京都","city":"練馬区","address":"練馬区富士見台3-59-14","lat":35.739666,"lon":139.619315},{"name":"南田中保育園","province":"東京都","city":"練馬区","address":"練馬区南田中5-25-16","lat":35.73888,"lon":139.613233},{"name":"南田中第二保育園","province":"東京都","city":"練馬区","address":"練馬区南田中3-31-4","lat":35.738927,"lon":139.617649},{"name":"石神井保育園","province":"東京都","city":"練馬区","address":"練馬区南田中5-20-2","lat":35.736755,"lon":139.609197},{"name":"にじいろ保育園南田中","province":"東京都","city":"練馬区","address":"練馬区南田中1-9-3","lat":35.732056,"lon":139.620138},{"name":"石神井町さくら保育園","province":"東京都","city":"練馬区","address":"練馬区石神井町7-25-45","lat":35.744129,"lon":139.599267},{"name":"石神井町つつじ保育園","province":"東京都","city":"練馬区","address":"練馬区石神井町8-1-10","lat":35.745406,"lon":139.601753},{"name":"アスク石神井まち保育園","province":"東京都","city":"練馬区","address":"練馬区石神井町8-53-32","lat":35.750045,"lon":139.599164},{"name":"ベネッセ石神井公園保育園","province":"東京都","city":"練馬区","address":"練馬区石神井町5-2-23","lat":35.739854,"lon":139.607464},{"name":"Ｎｉｃｏｔ石神井公園","province":"東京都","city":"練馬区","address":"練馬区石神井町1-20-15","lat":35.742915,"lon":139.609855},{"name":"ベビーステーション石神井公園","province":"東京都","city":"練馬区","address":"練馬区石神井町2-15-4-102","lat":35.745209,"lon":139.607008},{"name":"きららっこ石神井公園保育園","province":"東京都","city":"練馬区","address":"練馬区石神井町4-4-32階","lat":35.744768,"lon":139.605128},{"name":"ベビーステーション石神井第２","province":"東京都","city":"練馬区","address":"練馬区石神井町2-13-151階","lat":35.744673,"lon":139.608927},{"name":"下石神井第三保育園","province":"東京都","city":"練馬区","address":"練馬区下石神井6-8-15","lat":35.733772,"lon":139.603592},{"name":"こまどりここわ保育園","province":"東京都","city":"練馬区","address":"練馬区下石神井5-9-10","lat":35.731602,"lon":139.601195},{"name":"上石神井保育園","province":"東京都","city":"練馬区","address":"練馬区上石神井4-21-3","lat":35.729941,"lon":139.587907},{"name":"上石神井第二保育園","province":"東京都","city":"練馬区","address":"練馬区上石神井1-5-3","lat":35.7256,"lon":139.59216},{"name":"エンゼルベア石神井保育園","province":"東京都","city":"練馬区","address":"練馬区上石神井3-6-35","lat":35.732619,"lon":139.599615},{"name":"にじいろ保育園上石神井","province":"東京都","city":"練馬区","address":"練馬区上石神井1-37-18","lat":35.724614,"lon":139.586827},{"name":"ピジョンランド上石神井保育園","province":"東京都","city":"練馬区","address":"練馬区上石神井2-11-9","lat":35.726233,"lon":139.596623},{"name":"上石神井第三保育園","province":"東京都","city":"練馬区","address":"練馬区石神井台4-5-20","lat":35.731607,"lon":139.584624},{"name":"石神井台保育園","province":"東京都","city":"練馬区","address":"練馬区石神井台2-18-13","lat":35.735682,"lon":139.589785},{"name":"石神井台第二保育園","province":"東京都","city":"練馬区","address":"練馬区石神井台6-2-10","lat":35.740165,"lon":139.586221},{"name":"アスク石神井台保育園","province":"東京都","city":"練馬区","address":"練馬区石神井台6-7-17","lat":35.739754,"lon":139.585315},{"name":"心羽えみの保育園石神井台","province":"東京都","city":"練馬区","address":"練馬区石神井台3-36-10","lat":35.741687,"lon":139.587715},{"name":"コビープリスクールしゃくじいだい","province":"東京都","city":"練馬区","address":"練馬区石神井台7-18-12","lat":35.731044,"lon":139.579641},{"name":"関町第二保育園","province":"東京都","city":"練馬区","address":"練馬区関町北3-20-30","lat":35.725541,"lon":139.57039},{"name":"関町第三保育園","province":"東京都","city":"練馬区","address":"練馬区関町北5-4-12","lat":35.73259,"lon":139.574675},{"name":"アスク関町北保育園","province":"東京都","city":"練馬区","address":"練馬区関町北4-35-14","lat":35.730735,"lon":139.576167},{"name":"愛里武蔵関保育園","province":"東京都","city":"練馬区","address":"練馬区関町北4-21-7","lat":35.72906,"lon":139.57177},{"name":"茶々むさしせき保育園","province":"東京都","city":"練馬区","address":"練馬区関町東2-9-11","lat":35.72858,"lon":139.580086},{"name":"いずみ保育園","province":"東京都","city":"練馬区","address":"練馬区関町東1-21-4","lat":35.723964,"lon":139.581436},{"name":"関町保育園","province":"東京都","city":"練馬区","address":"練馬区関町南3-9-29","lat":35.721209,"lon":139.581736},{"name":"コビープリスクールせきまち","province":"東京都","city":"練馬区","address":"練馬区関町南3-15-38","lat":35.722003,"lon":139.579178},{"name":"大泉学園保育園","province":"東京都","city":"練馬区","address":"練馬区大泉学園町8-9-5","lat":35.772786,"lon":139.592845},{"name":"マーガレット保育園","province":"東京都","city":"練馬区","address":"練馬区大泉学園町6-15-34","lat":35.769514,"lon":139.578451},{"name":"そあ季の花保育園","province":"東京都","city":"練馬区","address":"練馬区大泉学園町2-22-14","lat":35.761357,"lon":139.586781},{"name":"グローバルキッズ大泉園","province":"東京都","city":"練馬区","address":"練馬区大泉学園町7-6-27","lat":35.770464,"lon":139.587545},{"name":"北大泉保育園","province":"東京都","city":"練馬区","address":"練馬区大泉町4-15-15","lat":35.76296,"lon":139.599988},{"name":"大泉にじのいろ保育園","province":"東京都","city":"練馬区","address":"練馬区大泉町6-30-3","lat":35.757438,"lon":139.590245},{"name":"東大泉保育園","province":"東京都","city":"練馬区","address":"練馬区東大泉3-60-2-101","lat":35.756413,"lon":139.59052},{"name":"東大泉第二保育園","province":"東京都","city":"練馬区","address":"練馬区東大泉7-20-1","lat":35.742339,"lon":139.577399},{"name":"東大泉第三保育園","province":"東京都","city":"練馬区","address":"練馬区東大泉2-42-5","lat":35.75425,"lon":139.592448},{"name":"くりのみ保育園","province":"東京都","city":"練馬区","address":"練馬区東大泉7-14-13","lat":35.741031,"lon":139.579338},{"name":"大泉保育園","province":"東京都","city":"練馬区","address":"練馬区東大泉5-38-24","lat":35.748042,"lon":139.588854},{"name":"ベネッセ大泉学園保育園","province":"東京都","city":"練馬区","address":"練馬区東大泉1-17-3","lat":35.748789,"lon":139.594514},{"name":"にじいろ保育園大泉学園","province":"東京都","city":"練馬区","address":"練馬区東大泉2-15-15","lat":35.753669,"lon":139.596964},{"name":"太陽の子東大泉保育園","province":"東京都","city":"練馬区","address":"練馬区東大泉2-9-16","lat":35.751419,"lon":139.593931},{"name":"にじいろ保育園大泉学園南","province":"東京都","city":"練馬区","address":"練馬区東大泉6-34-18","lat":35.747278,"lon":139.584996},{"name":"わらべうた大泉学園保育園","province":"東京都","city":"練馬区","address":"練馬区東大泉6-47-13","lat":35.747231,"lon":139.582438},{"name":"ゆらりん大泉学園保育園","province":"東京都","city":"練馬区","address":"練馬区東大泉1-27-91・2階","lat":35.749939,"lon":139.588681},{"name":"ラフ・クルー大泉保育園","province":"東京都","city":"練馬区","address":"練馬区東大泉6-34-43","lat":35.748303,"lon":139.585485},{"name":"共同保育所ごたごた荘","province":"東京都","city":"練馬区","address":"練馬区東大泉7-2-3","lat":35.740442,"lon":139.581035},{"name":"南大泉保育園","province":"東京都","city":"練馬区","address":"練馬区南大泉5-26-7","lat":35.75121,"lon":139.573319},{"name":"妙福寺保育園","province":"東京都","city":"練馬区","address":"練馬区南大泉5-6-47","lat":35.751047,"lon":139.578579},{"name":"南大泉にじのいろ保育園","province":"東京都","city":"練馬区","address":"練馬区南大泉3-17-21","lat":35.741884,"lon":139.569997},{"name":"コビープリスクールみなみおおいずみ","province":"東京都","city":"練馬区","address":"練馬区南大泉2-3-42","lat":35.734862,"lon":139.570361},{"name":"西大泉保育園","province":"東京都","city":"練馬区","address":"練馬区西大泉3-21-16","lat":35.759537,"lon":139.578932},{"name":"茶々おおいずみ保育園","province":"東京都","city":"練馬区","address":"練馬区西大泉5-30-13","lat":35.759348,"lon":139.566972},{"name":"旭町保育園","province":"東京都","city":"練馬区","address":"練馬区旭町3-11-6","lat":35.774137,"lon":139.625002},{"name":"旭町第二保育園","province":"東京都","city":"練馬区","address":"練馬区旭町1-33-22-107","lat":35.766007,"lon":139.624911},{"name":"光が丘保育園","province":"東京都","city":"練馬区","address":"練馬区光が丘1-3-104","lat":35.76821,"lon":139.638893},{"name":"光が丘第二保育園","province":"東京都","city":"練馬区","address":"練馬区光が丘1-6-3-101","lat":35.767863,"lon":139.635721},{"name":"光が丘第三保育園","province":"東京都","city":"練馬区","address":"練馬区光が丘3-3-2-101","lat":35.755925,"lon":139.627128},{"name":"光が丘第四保育園","province":"東京都","city":"練馬区","address":"練馬区光が丘7-3-1-102","lat":35.756261,"lon":139.625767},{"name":"光が丘第五保育園","province":"東京都","city":"練馬区","address":"練馬区光が丘7-3-3-101","lat":35.75532,"lon":139.624889},{"name":"光が丘第六保育園","province":"東京都","city":"練馬区","address":"練馬区光が丘7-7-2-101","lat":35.757822,"lon":139.623178},{"name":"光が丘第七保育園","province":"東京都","city":"練馬区","address":"練馬区光が丘2-7-4-105","lat":35.76143,"lon":139.631355},{"name":"光が丘第八保育園","province":"東京都","city":"練馬区","address":"練馬区光が丘5-2-3","lat":35.758983,"lon":139.627158},{"name":"光が丘第九保育園","province":"東京都","city":"練馬区","address":"練馬区光が丘2-4-9","lat":35.763039,"lon":139.633094},{"name":"光が丘第十保育園","province":"東京都","city":"練馬区","address":"練馬区光が丘3-7-3-101","lat":35.758,"lon":139.630903},{"name":"光が丘第十一保育園","province":"東京都","city":"練馬区","address":"練馬区光が丘2-4-11-101","lat":35.763816,"lon":139.63278},{"name":"あかねの森保育園","province":"東京都","city":"練馬区","address":"練馬区光が丘6-1-1-101","lat":35.758947,"lon":139.624556},{"name":"光が丘わかば保育園","province":"東京都","city":"練馬区","address":"練馬区光が丘7-6-19-101","lat":35.753842,"lon":139.622395},{"name":"田柄保育園","province":"東京都","city":"練馬区","address":"練馬区田柄4-36-4","lat":35.76666,"lon":139.637454},{"name":"田柄第二保育園","province":"東京都","city":"練馬区","address":"練馬区田柄2-6-22","lat":35.763644,"lon":139.644901},{"name":"エンゼル保育園","province":"東京都","city":"練馬区","address":"練馬区田柄2-37-10","lat":35.767288,"lon":139.642957},{"name":"アンジェリカ田柄保育園","province":"東京都","city":"練馬区","address":"練馬区田柄1-6-3","lat":35.760406,"lon":139.642732},{"name":"春日町保育園","province":"東京都","city":"練馬区","address":"練馬区春日町5-17-10","lat":35.746368,"lon":139.63763},{"name":"春日町第二保育園","province":"東京都","city":"練馬区","address":"練馬区春日町1-29-8","lat":35.751737,"lon":139.646371},{"name":"春日町第三保育園","province":"東京都","city":"練馬区","address":"練馬区春日町5-30-5","lat":35.751012,"lon":139.638861},{"name":"どんぐり山保育園","province":"東京都","city":"練馬区","address":"練馬区春日町4-1-13","lat":35.754106,"lon":139.643243},{"name":"春アンミッコ保育園","province":"東京都","city":"練馬区","address":"練馬区春日町3-31-42","lat":35.751465,"lon":139.644124},{"name":"グローバルキッズ光が丘園","province":"東京都","city":"練馬区","address":"練馬区春日町6-16-8","lat":35.753828,"lon":139.632189},{"name":"グローバルキッズ練馬春日町園","province":"東京都","city":"練馬区","address":"練馬区春日町5-31-23","lat":35.751393,"lon":139.638652},{"name":"高松保育園","province":"東京都","city":"練馬区","address":"練馬区高松3-24-27","lat":35.750031,"lon":139.625392},{"name":"道灌山保育園","province":"東京都","city":"練馬区","address":"練馬区高松6-16-30","lat":35.758241,"lon":139.616545},{"name":"にじいろ保育園練馬高松","province":"東京都","city":"練馬区","address":"練馬区高松1-4-14","lat":35.745868,"lon":139.63555},{"name":"土支田保育園","province":"東京都","city":"練馬区","address":"練馬区土支田2-32-8","lat":35.763474,"lon":139.613804},{"name":"北町保育園","province":"東京都","city":"練馬区","address":"練馬区北町3-3-14","lat":35.767375,"lon":139.655681},{"name":"北町第二保育園","province":"東京都","city":"練馬区","address":"練馬区北町1-19-17","lat":35.764139,"lon":139.667902},{"name":"最勝寺みのり保育園","province":"東京都","city":"練馬区","address":"練馬区北町6-16-14","lat":35.759906,"lon":139.654042},{"name":"アンジェリカ北町保育園","province":"東京都","city":"練馬区","address":"練馬区北町8-3-18","lat":35.764189,"lon":139.650473},{"name":"平和台保育園","province":"東京都","city":"練馬区","address":"練馬区平和台2-18-14","lat":35.760173,"lon":139.661608},{"name":"にじいろ保育園平和台","province":"東京都","city":"練馬区","address":"練馬区平和台1-31-9","lat":35.757434,"lon":139.662717},{"name":"氷川台保育園","province":"東京都","city":"練馬区","address":"練馬区氷川台4-47-12","lat":35.75274,"lon":139.664061},{"name":"氷川台第二保育園","province":"東京都","city":"練馬区","address":"練馬区氷川台2-16-14","lat":35.756932,"lon":139.66723},{"name":"にじいろ保育園氷川台","province":"東京都","city":"練馬区","address":"練馬区氷川台4-49-24","lat":35.751824,"lon":139.666086},{"name":"早宮保育園","province":"東京都","city":"練馬区","address":"練馬区早宮3-13-31","lat":35.75024,"lon":139.653248},{"name":"練馬仲町保育園","province":"東京都","city":"練馬区","address":"練馬区早宮2-3-22","lat":35.755034,"lon":139.655578},{"name":"ベネッセ氷川台保育園","province":"東京都","city":"練馬区","address":"練馬区早宮1-6-13","lat":35.749821,"lon":139.663383},{"name":"にじいろ保育園早宮","province":"東京都","city":"練馬区","address":"練馬区早宮2-25-18","lat":35.754926,"lon":139.650471},{"name":"はやみやさくらさくほいくえん","province":"東京都","city":"練馬区","address":"練馬区早宮2-10-28","lat":35.754643,"lon":139.653417}]}