{"keyword":"再生","data":[{"name":"(株)古川商店","province":"東京都","city":"練馬区","address":"練馬区土支田2-3-1","lat":35.758732,"lon":139.613678},{"name":"(株)市川商店","province":"東京都","city":"練馬区","address":"練馬区早宮3-12-18","lat":35.750492,"lon":139.652649},{"name":"巴山龍雄","province":"東京都","city":"練馬区","address":"練馬区豊玉中3-23-13","lat":35.733234,"lon":139.653061},{"name":"(有)武田商会","province":"東京都","city":"練馬区","address":"練馬区西大泉町1-21-2","lat":35.763412,"lon":139.566986},{"name":"紙材開発(株)","province":"東京都","city":"練馬区","address":"練馬区高野台2-4-12","lat":35.747242,"lon":139.622116}]}