{"keyword":"初心","data":[{"name":"四季の香ローズガーデン","province":"東京都","city":"練馬区","address":"練馬区光が丘5-2-6(四季の香公園内)","lat":35.76072855,"lon":139.6263062},{"name":"谷原フレンド","province":"東京都","city":"練馬区","address":"練馬区谷原5-6-5","lat":35.75120313,"lon":139.6128895},{"name":"区立大泉公園内","province":"東京都","city":"練馬区","address":"東京都練馬区大泉学園町6丁目25","lat":35.77187107,"lon":139.5826057},{"name":"区立はやいち公園","province":"東京都","city":"練馬区","address":"東京都練馬区早宮1丁目47","lat":35.75308929,"lon":139.656607},{"name":"区立学田公園内","province":"東京都","city":"練馬区","address":"東京都練馬区豊玉南3丁目32","lat":35.7305802,"lon":139.6491383},{"name":"練馬給水所","province":"東京都","city":"練馬区","address":"東京都練馬区光が丘4丁目1","lat":35.76541945,"lon":139.630839},{"name":"区立みんなの広場公園","province":"東京都","city":"練馬区","address":"東京都練馬区石神井町8丁目41","lat":35.747983,"lon":139.5985335},{"name":"四季の香ローズガーデン","province":"東京都","city":"練馬区","address":"練馬区光が丘5-2-6(四季の香公園内)","lat":35.76072855,"lon":139.6263062},{"name":"谷原フレンド","province":"東京都","city":"練馬区","address":"練馬区谷原5-6-5","lat":35.75120313,"lon":139.6128895},{"name":"区立大泉公園内","province":"東京都","city":"練馬区","address":"東京都練馬区大泉学園町6丁目25","lat":35.77187107,"lon":139.5826057},{"name":"区立はやいち公園","province":"東京都","city":"練馬区","address":"東京都練馬区早宮1丁目47","lat":35.75308929,"lon":139.656607},{"name":"区立学田公園内","province":"東京都","city":"練馬区","address":"東京都練馬区豊玉南3丁目32","lat":35.7305802,"lon":139.6491383},{"name":"練馬給水所","province":"東京都","city":"練馬区","address":"東京都練馬区光が丘4丁目1","lat":35.76541945,"lon":139.630839},{"name":"区立みんなの広場公園","province":"東京都","city":"練馬区","address":"東京都練馬区石神井町8丁目41","lat":35.747983,"lon":139.5985335},{"name":"四季の香ローズガーデン","province":"東京都","city":"練馬区","address":"練馬区光が丘5-2-6(四季の香公園内)","lat":35.76072855,"lon":139.6263062},{"name":"谷原フレンド","province":"東京都","city":"練馬区","address":"練馬区谷原5-6-5","lat":35.75120313,"lon":139.6128895},{"name":"区立大泉公園内","province":"東京都","city":"練馬区","address":"東京都練馬区大泉学園町6丁目25","lat":35.77187107,"lon":139.5826057},{"name":"区立はやいち公園","province":"東京都","city":"練馬区","address":"東京都練馬区早宮1丁目47","lat":35.75308929,"lon":139.656607},{"name":"区立学田公園内","province":"東京都","city":"練馬区","address":"東京都練馬区豊玉南3丁目32","lat":35.7305802,"lon":139.6491383},{"name":"練馬給水所","province":"東京都","city":"練馬区","address":"東京都練馬区光が丘4丁目1","lat":35.76541945,"lon":139.630839},{"name":"区立みんなの広場公園","province":"東京都","city":"練馬区","address":"東京都練馬区石神井町8丁目41","lat":35.747983,"lon":139.5985335},{"name":"四季の香ローズガーデン","province":"東京都","city":"練馬区","address":"練馬区光が丘5-2-6(四季の香公園内)","lat":35.76072855,"lon":139.6263062},{"name":"谷原フレンド","province":"東京都","city":"練馬区","address":"練馬区谷原5-6-5","lat":35.75120313,"lon":139.6128895},{"name":"区立大泉公園内","province":"東京都","city":"練馬区","address":"東京都練馬区大泉学園町6丁目25","lat":35.77187107,"lon":139.5826057},{"name":"区立はやいち公園","province":"東京都","city":"練馬区","address":"東京都練馬区早宮1丁目47","lat":35.75308929,"lon":139.656607},{"name":"区立学田公園内","province":"東京都","city":"練馬区","address":"東京都練馬区豊玉南3丁目32","lat":35.7305802,"lon":139.6491383},{"name":"練馬給水所","province":"東京都","city":"練馬区","address":"東京都練馬区光が丘4丁目1","lat":35.76541945,"lon":139.630839},{"name":"区立みんなの広場公園","province":"東京都","city":"練馬区","address":"東京都練馬区石神井町8丁目41","lat":35.747983,"lon":139.5985335},{"name":"四季の香ローズガーデン","province":"東京都","city":"練馬区","address":"練馬区光が丘5-2-6(四季の香公園内)","lat":35.76072855,"lon":139.6263062},{"name":"谷原フレンド","province":"東京都","city":"練馬区","address":"練馬区谷原5-6-5","lat":35.75120313,"lon":139.6128895},{"name":"区立大泉公園内","province":"東京都","city":"練馬区","address":"東京都練馬区大泉学園町6丁目25","lat":35.77187107,"lon":139.5826057},{"name":"区立はやいち公園","province":"東京都","city":"練馬区","address":"東京都練馬区早宮1丁目47","lat":35.75308929,"lon":139.656607},{"name":"区立学田公園内","province":"東京都","city":"練馬区","address":"東京都練馬区豊玉南3丁目32","lat":35.7305802,"lon":139.6491383},{"name":"練馬給水所","province":"東京都","city":"練馬区","address":"東京都練馬区光が丘4丁目1","lat":35.76541945,"lon":139.630839},{"name":"区立みんなの広場公園","province":"東京都","city":"練馬区","address":"東京都練馬区石神井町8丁目41","lat":35.747983,"lon":139.5985335},{"name":"四季の香ローズガーデン","province":"東京都","city":"練馬区","address":"練馬区光が丘5-2-6(四季の香公園内)","lat":35.76072855,"lon":139.6263062},{"name":"谷原フレンド","province":"東京都","city":"練馬区","address":"練馬区谷原5-6-5","lat":35.75120313,"lon":139.6128895},{"name":"区立大泉公園内","province":"東京都","city":"練馬区","address":"東京都練馬区大泉学園町6丁目25","lat":35.77187107,"lon":139.5826057},{"name":"区立はやいち公園","province":"東京都","city":"練馬区","address":"東京都練馬区早宮1丁目47","lat":35.75308929,"lon":139.656607},{"name":"区立学田公園内","province":"東京都","city":"練馬区","address":"東京都練馬区豊玉南3丁目32","lat":35.7305802,"lon":139.6491383},{"name":"練馬給水所","province":"東京都","city":"練馬区","address":"東京都練馬区光が丘4丁目1","lat":35.76541945,"lon":139.630839},{"name":"区立みんなの広場公園","province":"東京都","city":"練馬区","address":"東京都練馬区石神井町8丁目41","lat":35.747983,"lon":139.5985335},{"name":"四季の香ローズガーデン","province":"東京都","city":"練馬区","address":"練馬区光が丘5-2-6(四季の香公園内)","lat":35.76072855,"lon":139.6263062},{"name":"谷原フレンド","province":"東京都","city":"練馬区","address":"練馬区谷原5-6-5","lat":35.75120313,"lon":139.6128895},{"name":"区立大泉公園内","province":"東京都","city":"練馬区","address":"東京都練馬区大泉学園町6丁目25","lat":35.77187107,"lon":139.5826057},{"name":"区立はやいち公園","province":"東京都","city":"練馬区","address":"東京都練馬区早宮1丁目47","lat":35.75308929,"lon":139.656607},{"name":"区立学田公園内","province":"東京都","city":"練馬区","address":"東京都練馬区豊玉南3丁目32","lat":35.7305802,"lon":139.6491383},{"name":"練馬給水所","province":"東京都","city":"練馬区","address":"東京都練馬区光が丘4丁目1","lat":35.76541945,"lon":139.630839},{"name":"区立みんなの広場公園","province":"東京都","city":"練馬区","address":"東京都練馬区石神井町8丁目41","lat":35.747983,"lon":139.5985335},{"name":"四季の香ローズガーデン","province":"東京都","city":"練馬区","address":"練馬区光が丘5-2-6(四季の香公園内)","lat":35.76072855,"lon":139.6263062},{"name":"谷原フレンド","province":"東京都","city":"練馬区","address":"練馬区谷原5-6-5","lat":35.75120313,"lon":139.6128895},{"name":"区立大泉公園内","province":"東京都","city":"練馬区","address":"東京都練馬区大泉学園町6丁目25","lat":35.77187107,"lon":139.5826057},{"name":"区立はやいち公園","province":"東京都","city":"練馬区","address":"東京都練馬区早宮1丁目47","lat":35.75308929,"lon":139.656607},{"name":"区立学田公園内","province":"東京都","city":"練馬区","address":"東京都練馬区豊玉南3丁目32","lat":35.7305802,"lon":139.6491383},{"name":"練馬給水所","province":"東京都","city":"練馬区","address":"東京都練馬区光が丘4丁目1","lat":35.76541945,"lon":139.630839},{"name":"区立みんなの広場公園","province":"東京都","city":"練馬区","address":"東京都練馬区石神井町8丁目41","lat":35.747983,"lon":139.5985335},{"name":"四季の香ローズガーデン","province":"東京都","city":"練馬区","address":"練馬区光が丘5-2-6(四季の香公園内)","lat":35.76072855,"lon":139.6263062},{"name":"谷原フレンド","province":"東京都","city":"練馬区","address":"練馬区谷原5-6-5","lat":35.75120313,"lon":139.6128895},{"name":"区立大泉公園内","province":"東京都","city":"練馬区","address":"東京都練馬区大泉学園町6丁目25","lat":35.77187107,"lon":139.5826057},{"name":"区立はやいち公園","province":"東京都","city":"練馬区","address":"東京都練馬区早宮1丁目47","lat":35.75308929,"lon":139.656607},{"name":"区立学田公園内","province":"東京都","city":"練馬区","address":"東京都練馬区豊玉南3丁目32","lat":35.7305802,"lon":139.6491383},{"name":"練馬給水所","province":"東京都","city":"練馬区","address":"東京都練馬区光が丘4丁目1","lat":35.76541945,"lon":139.630839},{"name":"区立みんなの広場公園","province":"東京都","city":"練馬区","address":"東京都練馬区石神井町8丁目41","lat":35.747983,"lon":139.5985335},{"name":"四季の香ローズガーデン","province":"東京都","city":"練馬区","address":"練馬区光が丘5-2-6(四季の香公園内)","lat":35.76072855,"lon":139.6263062},{"name":"谷原フレンド","province":"東京都","city":"練馬区","address":"練馬区谷原5-6-5","lat":35.75120313,"lon":139.6128895},{"name":"区立大泉公園内","province":"東京都","city":"練馬区","address":"東京都練馬区大泉学園町6丁目25","lat":35.77187107,"lon":139.5826057},{"name":"区立はやいち公園","province":"東京都","city":"練馬区","address":"東京都練馬区早宮1丁目47","lat":35.75308929,"lon":139.656607},{"name":"区立学田公園内","province":"東京都","city":"練馬区","address":"東京都練馬区豊玉南3丁目32","lat":35.7305802,"lon":139.6491383},{"name":"練馬給水所","province":"東京都","city":"練馬区","address":"東京都練馬区光が丘4丁目1","lat":35.76541945,"lon":139.630839},{"name":"区立みんなの広場公園","province":"東京都","city":"練馬区","address":"東京都練馬区石神井町8丁目41","lat":35.747983,"lon":139.5985335},{"name":"四季の香ローズガーデン","province":"東京都","city":"練馬区","address":"練馬区光が丘5-2-6(四季の香公園内)","lat":35.76072855,"lon":139.6263062},{"name":"谷原フレンド","province":"東京都","city":"練馬区","address":"練馬区谷原5-6-5","lat":35.75120313,"lon":139.6128895},{"name":"区立大泉公園内","province":"東京都","city":"練馬区","address":"東京都練馬区大泉学園町6丁目25","lat":35.77187107,"lon":139.5826057},{"name":"区立はやいち公園","province":"東京都","city":"練馬区","address":"東京都練馬区早宮1丁目47","lat":35.75308929,"lon":139.656607},{"name":"区立学田公園内","province":"東京都","city":"練馬区","address":"東京都練馬区豊玉南3丁目32","lat":35.7305802,"lon":139.6491383},{"name":"練馬給水所","province":"東京都","city":"練馬区","address":"東京都練馬区光が丘4丁目1","lat":35.76541945,"lon":139.630839},{"name":"区立みんなの広場公園","province":"東京都","city":"練馬区","address":"東京都練馬区石神井町8丁目41","lat":35.747983,"lon":139.5985335},{"name":"四季の香ローズガーデン","province":"東京都","city":"練馬区","address":"練馬区光が丘5-2-6(四季の香公園内)","lat":35.76072855,"lon":139.6263062},{"name":"谷原フレンド","province":"東京都","city":"練馬区","address":"練馬区谷原5-6-5","lat":35.75120313,"lon":139.6128895},{"name":"区立大泉公園内","province":"東京都","city":"練馬区","address":"東京都練馬区大泉学園町6丁目25","lat":35.77187107,"lon":139.5826057},{"name":"区立はやいち公園","province":"東京都","city":"練馬区","address":"東京都練馬区早宮1丁目47","lat":35.75308929,"lon":139.656607},{"name":"区立学田公園内","province":"東京都","city":"練馬区","address":"東京都練馬区豊玉南3丁目32","lat":35.7305802,"lon":139.6491383},{"name":"練馬給水所","province":"東京都","city":"練馬区","address":"東京都練馬区光が丘4丁目1","lat":35.76541945,"lon":139.630839},{"name":"区立みんなの広場公園","province":"東京都","city":"練馬区","address":"東京都練馬区石神井町8丁目41","lat":35.747983,"lon":139.5985335},{"name":"四季の香ローズガーデン","province":"東京都","city":"練馬区","address":"練馬区光が丘5-2-6(四季の香公園内)","lat":35.76072855,"lon":139.6263062},{"name":"谷原フレンド","province":"東京都","city":"練馬区","address":"練馬区谷原5-6-5","lat":35.75120313,"lon":139.6128895},{"name":"区立大泉公園内","province":"東京都","city":"練馬区","address":"東京都練馬区大泉学園町6丁目25","lat":35.77187107,"lon":139.5826057},{"name":"区立はやいち公園","province":"東京都","city":"練馬区","address":"東京都練馬区早宮1丁目47","lat":35.75308929,"lon":139.656607},{"name":"区立学田公園内","province":"東京都","city":"練馬区","address":"東京都練馬区豊玉南3丁目32","lat":35.7305802,"lon":139.6491383},{"name":"練馬給水所","province":"東京都","city":"練馬区","address":"東京都練馬区光が丘4丁目1","lat":35.76541945,"lon":139.630839},{"name":"区立みんなの広場公園","province":"東京都","city":"練馬区","address":"東京都練馬区石神井町8丁目41","lat":35.747983,"lon":139.5985335},{"name":"四季の香ローズガーデン","province":"東京都","city":"練馬区","address":"練馬区光が丘5-2-6(四季の香公園内)","lat":35.76072855,"lon":139.6263062},{"name":"谷原フレンド","province":"東京都","city":"練馬区","address":"練馬区谷原5-6-5","lat":35.75120313,"lon":139.6128895},{"name":"区立大泉公園内","province":"東京都","city":"練馬区","address":"東京都練馬区大泉学園町6丁目25","lat":35.77187107,"lon":139.5826057},{"name":"区立はやいち公園","province":"東京都","city":"練馬区","address":"東京都練馬区早宮1丁目47","lat":35.75308929,"lon":139.656607},{"name":"区立学田公園内","province":"東京都","city":"練馬区","address":"東京都練馬区豊玉南3丁目32","lat":35.7305802,"lon":139.6491383},{"name":"練馬給水所","province":"東京都","city":"練馬区","address":"東京都練馬区光が丘4丁目1","lat":35.76541945,"lon":139.630839},{"name":"区立みんなの広場公園","province":"東京都","city":"練馬区","address":"東京都練馬区石神井町8丁目41","lat":35.747983,"lon":139.5985335}]}