{"keyword":"初動","data":[{"name":"練馬区保健所","province":"東京都","city":"練馬区","address":"東京都練馬区豊玉北6丁目12-1","lat":35.73558101,"lon":139.65167678},{"name":"陸上自衛隊練馬駐屯地","province":"東京都","city":"練馬区","address":"練馬区北町4-1-1","lat":35.76469,"lon":139.6575},{"name":"陸上自衛隊朝霞駐屯地","province":"東京都","city":"練馬区","address":"練馬区大泉学園町","lat":35.781658,"lon":139.595161},{"name":"石神井警察署","province":"東京都","city":"練馬区","address":"練馬区石神井町6-17-26","lat":35.742302,"lon":139.59899},{"name":"練馬警察署","province":"東京都","city":"練馬区","address":"練馬区豊玉北5-2-7","lat":35.73691,"lon":139.6558},{"name":"光が丘警察署","province":"東京都","city":"練馬区","address":"練馬区光が丘2-9-8","lat":35.75941,"lon":139.6312},{"name":"第十消防方面本部","province":"東京都","city":"練馬区","address":"練馬区北町3-10","lat":35.76853,"lon":139.6541},{"name":"石神井消防署","province":"東京都","city":"練馬区","address":"練馬区下石神井5-16-8","lat":35.72961,"lon":139.5999},{"name":"練馬消防署","province":"東京都","city":"練馬区","address":"練馬区豊玉中3-9-11","lat":35.73022,"lon":139.6561},{"name":"光が丘消防署","province":"東京都","city":"練馬区","address":"練馬区光が丘2-9-1","lat":35.75896,"lon":139.6312},{"name":"練馬区","province":"東京都","city":"練馬区","address":"練馬区桜台1-5-4-204","lat":35.73906,"lon":139.6614}]}