{"keyword":"区","data":[{"name":"練馬区保健所（生活衛生課）","province":"東京都","city":"練馬区","address":"練馬区豊玉北6-12-1","lat":35.735573,"lon":139.651671},{"name":"練馬区保健所（保健予防課）","province":"東京都","city":"練馬区","address":"練馬区豊玉北6-12-1","lat":35.735573,"lon":139.651671},{"name":"豊玉保健相談所","province":"東京都","city":"練馬区","address":"練馬区豊玉北5-15-19","lat":35.736014,"lon":139.654851},{"name":"北保健相談所","province":"東京都","city":"練馬区","address":"練馬区北町8-2-11","lat":35.763961,"lon":139.651376},{"name":"光が丘保健相談所","province":"東京都","city":"練馬区","address":"練馬区光が丘2-9-6","lat":35.759486,"lon":139.629589},{"name":"石神井保健相談所","province":"東京都","city":"練馬区","address":"練馬区石神井町7-3-28","lat":35.74452,"lon":139.601328},{"name":"大泉保健相談所","province":"東京都","city":"練馬区","address":"練馬区大泉学園町5-8-8","lat":35.767045,"lon":139.586631},{"name":"関保健相談所","province":"東京都","city":"練馬区","address":"練馬区関町東1-27-4","lat":35.726538,"lon":139.5813},{"name":"練馬区保健所（生活衛生課）","province":"東京都","city":"練馬区","address":"東京都練馬区豊玉北6丁目12-1","lat":35.73558101,"lon":139.65167678},{"name":"練馬区保健所（保健予防課）","province":"東京都","city":"練馬区","address":"東京都練馬区豊玉北6丁目12-1","lat":35.73558101,"lon":139.65167678},{"name":"豊玉保健相談所","province":"東京都","city":"練馬区","address":"東京都練馬区豊玉北5丁目15-19","lat":35.73594216,"lon":139.65492649},{"name":"北保健相談所","province":"東京都","city":"練馬区","address":"東京都練馬区北町6丁目35-7","lat":35.75720905,"lon":139.64949272},{"name":"光が丘保健相談所","province":"東京都","city":"練馬区","address":"東京都練馬区光が丘2丁目9-6","lat":35.75941388,"lon":139.62976375},{"name":"石神井保健相談所","province":"東京都","city":"練馬区","address":"東京都練馬区石神井町7丁目3-28","lat":35.74453977,"lon":139.60134731},{"name":"大泉保健相談所","province":"東京都","city":"練馬区","address":"東京都練馬区大泉学園町5丁目8-8","lat":35.76707824,"lon":139.58662845},{"name":"関保健相談所","province":"東京都","city":"練馬区","address":"東京都練馬区関町東1丁目27-4","lat":35.72653849,"lon":139.58129968},{"name":"練馬区保健所（生活衛生課）","province":"東京都","city":"練馬区","address":"練馬区豊玉北6-12-1","lat":35.73571,"lon":139.65167},{"name":"練馬区保健所（保健予防課）","province":"東京都","city":"練馬区","address":"練馬区豊玉北6-12-1","lat":35.73571,"lon":139.65167},{"name":"豊玉保健相談所","province":"東京都","city":"練馬区","address":"練馬区豊玉北5-15-19","lat":35.73619,"lon":139.65497},{"name":"北保健相談所","province":"東京都","city":"練馬区","address":"練馬区北町6-35-7","lat":35.7577,"lon":139.64937},{"name":"光が丘保健相談所","province":"東京都","city":"練馬区","address":"練馬区光が丘2-9-6","lat":35.75914,"lon":139.63036},{"name":"石神井保健相談所","province":"東京都","city":"練馬区","address":"練馬区石神井町7-3-28","lat":35.7443,"lon":139.60115},{"name":"大泉保健相談所","province":"東京都","city":"練馬区","address":"練馬区大泉学園町5-8-8","lat":35.76731,"lon":139.58688},{"name":"関保健相談所","province":"東京都","city":"練馬区","address":"練馬区関町東1-27-4","lat":35.72668,"lon":139.58139},{"name":"関保健相談所","province":"東京都","city":"練馬区","address":"練馬区関町東1-27-4","lat":35.72669,"lon":139.58139},{"name":"北保健相談所","province":"東京都","city":"練馬区","address":"練馬区北町8-2-11","lat":35.76413,"lon":139.65102}]}