{"keyword":"区民","data":[{"name":"区民・産業プラザ","province":"東京都","city":"練馬区","address":"練馬区練馬1-17-1","lat":35.73808686,"lon":139.653447},{"name":"光が丘区民事務所","province":"東京都","city":"練馬区","address":"練馬区光が丘2-9-6","lat":35.75938028,"lon":139.6292992},{"name":"練馬区民事務所","province":"東京都","city":"練馬区","address":"練馬区豊玉北6-12-1","lat":35.73565238,"lon":139.6515333},{"name":"石神井区民事務所","province":"東京都","city":"練馬区","address":"練馬区石神井町3-30-26","lat":35.74347838,"lon":139.6027374},{"name":"大泉区民事務所","province":"東京都","city":"練馬区","address":"練馬区東大泉1-28-1リズモ大泉学園4階","lat":35.74988367,"lon":139.5876007},{"name":"関区民事務所","province":"東京都","city":"練馬区","address":"練馬区関町北1-7-2","lat":35.72464045,"lon":139.5779981},{"name":"早宮区民事務所","province":"東京都","city":"練馬区","address":"練馬区早宮1-44-19","lat":35.75416576,"lon":139.6588122},{"name":"中村橋区民センター","province":"東京都","city":"練馬区","address":"練馬区貫井1-9-1","lat":35.73850505,"lon":139.6355559},{"name":"光が丘区民センター","province":"東京都","city":"練馬区","address":"練馬区練馬区光が丘2-9-6","lat":35.75953387,"lon":139.6292969},{"name":"関区民センター","province":"東京都","city":"練馬区","address":"練馬区関町北1-7-2","lat":35.72463255,"lon":139.5775053}]}