{"keyword":"区立","data":[{"name":"栄町保育園","province":"東京都","city":"練馬区","address":"練馬区栄町40-7","lat":35.73960219,"lon":139.6710413},{"name":"豊玉第四保育園","province":"東京都","city":"練馬区","address":"練馬区豊玉中1-9-11","lat":35.73080466,"lon":139.6613958},{"name":"豊玉保育園","province":"東京都","city":"練馬区","address":"練馬区豊玉中4-13-6","lat":35.73263144,"lon":139.6501502},{"name":"豊玉第三保育園","province":"東京都","city":"練馬区","address":"練馬区豊玉南3-32-37","lat":35.72928758,"lon":139.6495081},{"name":"豊玉第二保育園","province":"東京都","city":"練馬区","address":"練馬区豊玉北6-17-9","lat":35.73597192,"lon":139.6499316},{"name":"桜台第二保育園","province":"東京都","city":"練馬区","address":"練馬区桜台3-39-17","lat":35.74603655,"lon":139.6632029},{"name":"桜台保育園","province":"東京都","city":"練馬区","address":"練馬区桜台5-41-12","lat":35.74438083,"lon":139.6573112},{"name":"練馬保育園","province":"東京都","city":"練馬区","address":"練馬区練馬2-13-3","lat":35.74220294,"lon":139.6514171},{"name":"向山保育園","province":"東京都","city":"練馬区","address":"練馬区向山1-5-7","lat":35.73781894,"lon":139.6422001},{"name":"貫井第二保育園","province":"東京都","city":"練馬区","address":"練馬区貫井4-13-4","lat":35.74098934,"lon":139.6314638},{"name":"貫井保育園","province":"東京都","city":"練馬区","address":"練馬区貫井4-24-9","lat":35.74220326,"lon":139.6273891},{"name":"氷川台第二保育園","province":"東京都","city":"練馬区","address":"練馬区氷川台2-16-14","lat":35.75679545,"lon":139.6673276},{"name":"氷川台保育園","province":"東京都","city":"練馬区","address":"練馬区氷川台4-47-12","lat":35.75275197,"lon":139.6640449},{"name":"平和台保育園","province":"東京都","city":"練馬区","address":"練馬区平和台2-18-14","lat":35.76021541,"lon":139.6615056},{"name":"早宮保育園","province":"東京都","city":"練馬区","address":"練馬区早宮3-13-31","lat":35.75016923,"lon":139.6531991},{"name":"春日町第三保育園","province":"東京都","city":"練馬区","address":"練馬区春日町5-30-5","lat":35.75111098,"lon":139.6387908},{"name":"春日町第二保育園","province":"東京都","city":"練馬区","address":"練馬区春日町1-29-8","lat":35.75190085,"lon":139.6464682},{"name":"春日町保育園","province":"東京都","city":"練馬区","address":"練馬区春日町5-17-10","lat":35.74636194,"lon":139.6376534},{"name":"高松保育園","province":"東京都","city":"練馬区","address":"練馬区高松3-24-27","lat":35.75000131,"lon":139.6251604},{"name":"北町第二保育園","province":"東京都","city":"練馬区","address":"練馬区北町1-19-17","lat":35.76425315,"lon":139.6678795},{"name":"北町保育園","province":"東京都","city":"練馬区","address":"練馬区北町3-3-14","lat":35.7674238,"lon":139.6556458},{"name":"田柄第二保育園","province":"東京都","city":"練馬区","address":"練馬区田柄2-6-22","lat":35.76360908,"lon":139.6447606},{"name":"田柄保育園","province":"東京都","city":"練馬区","address":"練馬区田柄4-36-4","lat":35.76683961,"lon":139.6377424},{"name":"光が丘保育園","province":"東京都","city":"練馬区","address":"練馬区光が丘1-3-104","lat":35.76843957,"lon":139.6388875},{"name":"光が丘第二保育園","province":"東京都","city":"練馬区","address":"練馬区光が丘1-6-3-101","lat":35.76780947,"lon":139.6358114},{"name":"光が丘第九保育園","province":"東京都","city":"練馬区","address":"練馬区光が丘2-4-9","lat":35.76304131,"lon":139.6331012},{"name":"光が丘第十一保育園","province":"東京都","city":"練馬区","address":"練馬区光が丘2-4-11-101","lat":35.76382746,"lon":139.6327675},{"name":"光が丘第七保育園","province":"東京都","city":"練馬区","address":"練馬区光が丘2-7-4-105","lat":35.7610823,"lon":139.6313721},{"name":"光が丘第三保育園","province":"東京都","city":"練馬区","address":"練馬区光が丘3-3-2-101","lat":35.75590355,"lon":139.6271245},{"name":"光が丘第十保育園","province":"東京都","city":"練馬区","address":"練馬区光が丘3-7-3-101","lat":35.7581089,"lon":139.6307849},{"name":"光が丘第八保育園","province":"東京都","city":"練馬区","address":"練馬区光が丘5-2-3","lat":35.75899495,"lon":139.6271347},{"name":"光が丘第四保育園","province":"東京都","city":"練馬区","address":"練馬区光が丘7-3-1-102","lat":35.75627838,"lon":139.6257411},{"name":"光が丘第五保育園","province":"東京都","city":"練馬区","address":"練馬区光が丘7-3-3-101","lat":35.75579931,"lon":139.6248509},{"name":"光が丘第六保育園","province":"東京都","city":"練馬区","address":"練馬区光が丘7-7-2-101","lat":35.75812127,"lon":139.6233364},{"name":"旭町第二保育園","province":"東京都","city":"練馬区","address":"練馬区旭町1-33-22-107","lat":35.76622719,"lon":139.6247877},{"name":"旭町保育園","province":"東京都","city":"練馬区","address":"練馬区旭町3-11-6","lat":35.77429304,"lon":139.6250324},{"name":"土支田保育園","province":"東京都","city":"練馬区","address":"練馬区土支田2-32-8","lat":35.76362736,"lon":139.6136239},{"name":"富士見台こぶし保育園","province":"東京都","city":"練馬区","address":"練馬区富士見台3-10-1","lat":35.73863488,"lon":139.624377},{"name":"南田中第二保育園","province":"東京都","city":"練馬区","address":"練馬区南田中3-31-4","lat":35.73896738,"lon":139.6177314},{"name":"南田中保育園","province":"東京都","city":"練馬区","address":"練馬区南田中5-25-16","lat":35.73892257,"lon":139.613291},{"name":"高野台保育園","province":"東京都","city":"練馬区","address":"練馬区高野台3-25-17","lat":35.74442935,"lon":139.6124597},{"name":"谷原保育園","province":"東京都","city":"練馬区","address":"練馬区谷原5-16-41","lat":35.75050963,"lon":139.6107845},{"name":"石神井町さくら保育園","province":"東京都","city":"練馬区","address":"練馬区石神井町7-25-45","lat":35.74418607,"lon":139.5993474},{"name":"石神井町つつじ保育園","province":"東京都","city":"練馬区","address":"練馬区石神井町8-1-10","lat":35.74533972,"lon":139.6016732},{"name":"石神井台保育園","province":"東京都","city":"練馬区","address":"練馬区石神井台2-18-13","lat":35.73569585,"lon":139.5898354},{"name":"石神井台第二保育園","province":"東京都","city":"練馬区","address":"練馬区石神井台6-2-10","lat":35.74015948,"lon":139.5860776},{"name":"上石神井第二保育園","province":"東京都","city":"練馬区","address":"練馬区上石神井1-5-3","lat":35.72564673,"lon":139.5920183},{"name":"上石神井第三保育園","province":"東京都","city":"練馬区","address":"練馬区石神井台4-5-20","lat":35.73169851,"lon":139.5846438},{"name":"上石神井保育園","province":"東京都","city":"練馬区","address":"練馬区上石神井4-21-3","lat":35.72991977,"lon":139.5879852},{"name":"下石神井第三保育園","province":"東京都","city":"練馬区","address":"練馬区下石神井6-8-15","lat":35.73363491,"lon":139.6036463},{"name":"関町保育園","province":"東京都","city":"練馬区","address":"練馬区関町南3-9-29","lat":35.72120889,"lon":139.5817731},{"name":"関町第二保育園","province":"東京都","city":"練馬区","address":"練馬区関町北3-20-30","lat":35.72557023,"lon":139.5703519},{"name":"関町第三保育園","province":"東京都","city":"練馬区","address":"練馬区関町北5-4-12","lat":35.73265403,"lon":139.5746759},{"name":"東大泉保育園","province":"東京都","city":"練馬区","address":"練馬区東大泉3-59-2","lat":35.75599499,"lon":139.5907184},{"name":"東大泉第二保育園","province":"東京都","city":"練馬区","address":"練馬区東大泉7-20-1","lat":35.74260481,"lon":139.577047},{"name":"西大泉保育園","province":"東京都","city":"練馬区","address":"練馬区西大泉3-21-16","lat":35.75953203,"lon":139.5788621},{"name":"南大泉保育園","province":"東京都","city":"練馬区","address":"練馬区南大泉5-26-7","lat":35.75117272,"lon":139.5731205},{"name":"北大泉保育園","province":"東京都","city":"練馬区","address":"練馬区大泉町4-15-15","lat":35.76292508,"lon":139.6001532},{"name":"大泉学園保育園","province":"東京都","city":"練馬区","address":"練馬区大泉学園町8-9-5","lat":35.77263126,"lon":139.5927931},{"name":"東大泉第三保育園","province":"東京都","city":"練馬区","address":"練馬区東大泉2-42-5","lat":35.75423315,"lon":139.5924028},{"name":"練馬デイサービスセンター","province":"東京都","city":"練馬区","address":"練馬区練馬2-24-3","lat":35.74411961,"lon":139.6541304},{"name":"錦デイサービスセンター","province":"東京都","city":"練馬区","address":"練馬区錦2-6-14","lat":35.76171138,"lon":139.6661029},{"name":"光が丘デイサービスセンター","province":"東京都","city":"練馬区","address":"練馬区光が丘2-9-6","lat":35.75939033,"lon":139.6296473},{"name":"東大泉デイサービスセンター","province":"東京都","city":"練馬区","address":"練馬区東大泉5-15-2","lat":35.74368709,"lon":139.5894135},{"name":"土支田デイサービスセンター","province":"東京都","city":"練馬区","address":"練馬区土支田2-40-18","lat":35.76429051,"lon":139.6113315},{"name":"高松デイサービスセンター","province":"東京都","city":"練馬区","address":"練馬区高松6-3-24","lat":35.75703725,"lon":139.6196245},{"name":"高野台デイサービスセンター","province":"東京都","city":"練馬区","address":"練馬区高野台5-24-1","lat":35.74659837,"lon":139.6095763},{"name":"練馬中学校デイサービスセンター","province":"東京都","city":"練馬区","address":"練馬区高松1-24-1","lat":35.74789636,"lon":139.635525},{"name":"豊玉デイサービスセンター","province":"東京都","city":"練馬区","address":"練馬区豊玉南3-9-13","lat":35.72769899,"lon":139.6527694},{"name":"旭丘小学校","province":"東京都","city":"練馬区","address":"練馬区旭丘2-21-1","lat":35.73669464,"lon":139.6768029},{"name":"小竹小学校","province":"東京都","city":"練馬区","address":"練馬区小竹町2-6-7","lat":35.7440981,"lon":139.6798355},{"name":"開進第四小学校","province":"東京都","city":"練馬区","address":"練馬区羽沢2-33-1","lat":35.74781734,"lon":139.6712784},{"name":"豊玉第二小学校","province":"東京都","city":"練馬区","address":"練馬区豊玉上2-16-1","lat":35.73742126,"lon":139.6616903},{"name":"豊玉小学校","province":"東京都","city":"練馬区","address":"練馬区豊玉中4-2-20","lat":35.73294284,"lon":139.6522172},{"name":"豊玉南小学校","province":"東京都","city":"練馬区","address":"練馬区豊玉南2-14-1","lat":35.72767887,"lon":139.6560252},{"name":"豊玉東小学校","province":"東京都","city":"練馬区","address":"練馬区豊玉北1-16-1","lat":35.73273377,"lon":139.6679676},{"name":"中村小学校","province":"東京都","city":"練馬区","address":"練馬区中村2-8-1","lat":35.73143017,"lon":139.643675},{"name":"中村西小学校","province":"東京都","city":"練馬区","address":"練馬区中村北4-17-1","lat":35.73421391,"lon":139.634829},{"name":"開進第三小学校","province":"東京都","city":"練馬区","address":"練馬区桜台2-18-1","lat":35.74288071,"lon":139.6666245},{"name":"開進第二小学校","province":"東京都","city":"練馬区","address":"練馬区桜台5-10-5","lat":35.74197859,"lon":139.6581551},{"name":"南町小学校","province":"東京都","city":"練馬区","address":"練馬区練馬2-7-5","lat":35.74089413,"lon":139.6527707},{"name":"向山小学校","province":"東京都","city":"練馬区","address":"練馬区向山2-14-11","lat":35.74039886,"lon":139.6405327},{"name":"練馬第三小学校","province":"東京都","city":"練馬区","address":"練馬区貫井1-36-15","lat":35.73729053,"lon":139.6354345},{"name":"練馬第二小学校","province":"東京都","city":"練馬区","address":"練馬区貫井2-31-13","lat":35.74141098,"lon":139.6336661},{"name":"仲町小学校","province":"東京都","city":"練馬区","address":"練馬区氷川台2-18-24","lat":35.75792902,"lon":139.6676761},{"name":"早宮小学校","province":"東京都","city":"練馬区","address":"練馬区早宮4-10-17","lat":35.75209195,"lon":139.651002},{"name":"開進第一小学校","province":"東京都","city":"練馬区","address":"練馬区早宮2-1-31","lat":35.75461393,"lon":139.6574017},{"name":"練馬東小学校","province":"東京都","city":"練馬区","address":"練馬区春日町1-30-11","lat":35.75219899,"lon":139.6473268},{"name":"春日小学校","province":"東京都","city":"練馬区","address":"練馬区春日町5-12-1","lat":35.7467741,"lon":139.6395234},{"name":"練馬小学校","province":"東京都","city":"練馬区","address":"練馬区春日町6-11-36","lat":35.75245959,"lon":139.6359081},{"name":"高松小学校","province":"東京都","city":"練馬区","address":"練馬区高松3-16-1","lat":35.749728,"lon":139.6266663},{"name":"光が丘四季の香小学校","province":"東京都","city":"練馬区","address":"練馬区高松5-24-1","lat":35.7615858,"lon":139.6242042},{"name":"北町小学校","province":"東京都","city":"練馬区","address":"練馬区北町1-14-11","lat":35.76484648,"lon":139.6639688},{"name":"北町西小学校","province":"東京都","city":"練馬区","address":"練馬区北町7-3-8","lat":35.76161175,"lon":139.653518},{"name":"田柄小学校","province":"東京都","city":"練馬区","address":"練馬区田柄2-19-19","lat":35.76591317,"lon":139.6438079},{"name":"田柄第二小学校","province":"東京都","city":"練馬区","address":"練馬区田柄1-5-27","lat":35.75894613,"lon":139.6423281},{"name":"光が丘第八小学校","province":"東京都","city":"練馬区","address":"練馬区光が丘1-4-1","lat":35.76850429,"lon":139.6370008},{"name":"光が丘秋の陽小学校","province":"東京都","city":"練馬区","address":"練馬区光が丘2-1-1","lat":35.76187602,"lon":139.6351062},{"name":"光が丘夏の雲小学校","province":"東京都","city":"練馬区","address":"練馬区光が丘3-6-1","lat":35.75736383,"lon":139.6309429},{"name":"光が丘春の風小学校","province":"東京都","city":"練馬区","address":"練馬区光が丘7-2-1","lat":35.75560109,"lon":139.6257307},{"name":"旭町小学校","province":"東京都","city":"練馬区","address":"練馬区旭町2-29-1","lat":35.77262505,"lon":139.6274223},{"name":"豊溪小学校","province":"東京都","city":"練馬区","address":"練馬区土支田2-26-28","lat":35.76304441,"lon":139.6152352},{"name":"八坂小学校","province":"東京都","city":"練馬区","address":"練馬区土支田4-48-1","lat":35.76875646,"lon":139.6111826},{"name":"富士見台小学校","province":"東京都","city":"練馬区","address":"練馬区富士見台4-16-10","lat":35.74484426,"lon":139.6229813},{"name":"南が丘小学校","province":"東京都","city":"練馬区","address":"練馬区南田中2-13-1","lat":35.73380199,"lon":139.6169989},{"name":"石神井東小学校","province":"東京都","city":"練馬区","address":"練馬区南田中3-9-1","lat":35.73746854,"lon":139.6195164},{"name":"南田中小学校","province":"東京都","city":"練馬区","address":"練馬区南田中5-15-37","lat":35.73706564,"lon":139.6111617},{"name":"谷原小学校","province":"東京都","city":"練馬区","address":"練馬区谷原2-9-26","lat":35.75085036,"lon":139.6139348},{"name":"北原小学校","province":"東京都","city":"練馬区","address":"練馬区谷原4-9-1","lat":35.75457806,"lon":139.6135632},{"name":"泉新小学校","province":"東京都","city":"練馬区","address":"練馬区三原台3-18-30","lat":35.75425975,"lon":139.6012096},{"name":"光和小学校","province":"東京都","city":"練馬区","address":"練馬区石神井町2-16-34","lat":35.74644086,"lon":139.6070466},{"name":"石神井小学校","province":"東京都","city":"練馬区","address":"練馬区石神井台1-1-25","lat":35.73543505,"lon":139.5988481},{"name":"上石神井北小学校","province":"東京都","city":"練馬区","address":"練馬区石神井台5-1-32","lat":35.7358474,"lon":139.5882954},{"name":"石神井台小学校","province":"東京都","city":"練馬区","address":"練馬区石神井台8-6-33","lat":35.73517186,"lon":139.5809427},{"name":"下石神井小学校","province":"東京都","city":"練馬区","address":"練馬区下石神井2-20-18","lat":35.73165025,"lon":139.6053281},{"name":"大泉東小学校","province":"東京都","city":"練馬区","address":"練馬区東大泉1-22-1","lat":35.74890987,"lon":139.5907693},{"name":"大泉小学校","province":"東京都","city":"練馬区","address":"練馬区東大泉4-25-1","lat":35.75205413,"lon":139.584309},{"name":"大泉南小学校","province":"東京都","city":"練馬区","address":"練馬区東大泉6-28-1","lat":35.74482598,"lon":139.5809069},{"name":"大泉第四小学校","province":"東京都","city":"練馬区","address":"練馬区西大泉1-24-1","lat":35.75537627,"lon":139.5735294},{"name":"大泉西小学校","province":"東京都","city":"練馬区","address":"練馬区西大泉4-25-1","lat":35.76524024,"lon":139.5716003},{"name":"大泉第二小学校","province":"東京都","city":"練馬区","address":"練馬区南大泉4-29-11","lat":35.74437381,"lon":139.5728874},{"name":"大泉第六小学校","province":"東京都","city":"練馬区","address":"練馬区南大泉5-25-29","lat":35.75120955,"lon":139.5710312},{"name":"橋戸小学校","province":"東京都","city":"練馬区","address":"練馬区大泉町2-11-25","lat":35.75871034,"lon":139.6020733},{"name":"大泉第一小学校","province":"東京都","city":"練馬区","address":"練馬区大泉町3-16-23","lat":35.76556414,"lon":139.5986127},{"name":"大泉北小学校","province":"東京都","city":"練馬区","address":"練馬区大泉町4-28-22","lat":35.76216554,"lon":139.5955684},{"name":"大泉第三小学校","province":"東京都","city":"練馬区","address":"練馬区大泉学園町3-22-1","lat":35.76338205,"lon":139.5796594},{"name":"大泉学園小学校","province":"東京都","city":"練馬区","address":"練馬区大泉学園町4-7-1","lat":35.76566374,"lon":139.593178},{"name":"大泉学園緑小学校","province":"東京都","city":"練馬区","address":"練馬区大泉学園町5-11-47","lat":35.76625928,"lon":139.5852395},{"name":"大泉学園桜小学校","province":"東京都","city":"練馬区","address":"練馬区大泉学園町9-2-2","lat":35.77735311,"lon":139.5916307},{"name":"石神井西小学校","province":"東京都","city":"練馬区","address":"練馬区関町北1-1-5","lat":35.72390577,"lon":139.5799725},{"name":"関町小学校","province":"東京都","city":"練馬区","address":"練馬区関町北3-23-34","lat":35.7250107,"lon":139.5719381},{"name":"関町北小学校","province":"東京都","city":"練馬区","address":"練馬区関町北5-13-40","lat":35.73212204,"lon":139.573503},{"name":"立野小学校","province":"東京都","city":"練馬区","address":"練馬区立野町17-13","lat":35.71817948,"lon":139.5806019},{"name":"上石神井小学校","province":"東京都","city":"練馬区","address":"練馬区上石神井4-10-9","lat":35.72809095,"lon":139.5891117}]}