{"keyword":"収蔵","data":[{"name":"練馬給水所","province":"東京都","city":"練馬区","address":"東京都練馬区光が丘2-4-1","lat":35.7633861,"lon":139.631914},{"name":"区立大泉公園","province":"東京都","city":"練馬区","address":"東京都練馬区大泉学園町6-25","lat":35.7720555,"lon":139.582711},{"name":"区立学田公園","province":"東京都","city":"練馬区","address":"東京都練馬区豊玉南3-32","lat":35.7305605,"lon":139.6491262},{"name":"区立はやいち公園","province":"東京都","city":"練馬区","address":"東京都練馬区早宮1-47-11","lat":35.753025,"lon":139.656532},{"name":"区立みんなの広場公園","province":"東京都","city":"練馬区","address":"東京都練馬区石神井町8-41","lat":35.7479365,"lon":139.5986648},{"name":"こども フローラ","province":"東京都","city":"練馬区","address":"東京都練馬区下石神井2丁目35-16","lat":35.72988593,"lon":139.60441153},{"name":"こどもくらぶ　じゃんけんぽん","province":"東京都","city":"練馬区","address":"東京都練馬区西大泉2丁目12-5","lat":35.75634886,"lon":139.57626843},{"name":"明光学童クラブ石神井公園","province":"東京都","city":"練馬区","address":"東京都練馬区石神井町3丁目17-16","lat":35.74267339,"lon":139.60444157},{"name":"石保学童クラブ","province":"東京都","city":"練馬区","address":"東京都練馬区南田中5丁目20-2","lat":35.73699363,"lon":139.60975245},{"name":"colors桜台二丁目学童クラブ","province":"東京都","city":"練馬区","address":"東京都練馬区桜台2丁目46-12","lat":35.74287213,"lon":139.66268387},{"name":"りっこう学童クラブ","province":"東京都","city":"練馬区","address":"東京都練馬区小竹町2丁目43-12","lat":35.74236143,"lon":139.67529388},{"name":"明光学童クラブ南大泉","province":"東京都","city":"練馬区","address":"東京都練馬区南大泉4丁目55-6","lat":35.74803854,"lon":139.56930263},{"name":"キッズボイス中村橋学童クラブ","province":"東京都","city":"練馬区","address":"東京都練馬区中村北4丁目2-6","lat":35.73643334,"lon":139.6376668},{"name":"キッズクラブどろちゃん","province":"東京都","city":"練馬区","address":"東京都練馬区大泉町4丁目29-13","lat":35.76291519,"lon":139.59533607},{"name":"関町南アフタースクール","province":"東京都","city":"練馬区","address":"東京都練馬区関町南4丁目19-6","lat":35.7211805,"lon":139.56939813},{"name":"明光学童クラブ大泉学園","province":"東京都","city":"練馬区","address":"東京都練馬区西大泉1丁目1-16","lat":35.75405218,"lon":139.58389279},{"name":"区立大泉公園内","province":"東京都","city":"練馬区","address":"東京都練馬区大泉学園町6丁目25","lat":35.77187107,"lon":139.5826057},{"name":"区立はやいち公園","province":"東京都","city":"練馬区","address":"東京都練馬区早宮1丁目47","lat":35.75308929,"lon":139.656607},{"name":"区立学田公園内","province":"東京都","city":"練馬区","address":"東京都練馬区豊玉南3丁目32","lat":35.7305802,"lon":139.6491383},{"name":"練馬給水所","province":"東京都","city":"練馬区","address":"東京都練馬区光が丘4丁目1","lat":35.76541945,"lon":139.630839},{"name":"区立みんなの広場公園","province":"東京都","city":"練馬区","address":"東京都練馬区石神井町8丁目41","lat":35.747983,"lon":139.5985335},{"name":"練馬光が丘病院","province":"東京都","city":"練馬区","address":"東京都練馬区光が丘2丁目11-1","lat":35.76218581,"lon":139.63026637},{"name":"順天堂大学医学部附属練馬病院","province":"東京都","city":"練馬区","address":"東京都練馬区高野台3丁目1-10","lat":35.74213487,"lon":139.61499623},{"name":"区立大泉公園","province":"東京都","city":"練馬区","address":"東京都練馬区大泉学園町6丁目25","lat":35.7719023,"lon":139.58278997},{"name":"区立学田公園","province":"東京都","city":"練馬区","address":"東京都練馬区豊玉南3丁目32","lat":35.72961495,"lon":139.64937445},{"name":"区立みんなの広場公園","province":"東京都","city":"練馬区","address":"東京都練馬区石神井町8丁目41","lat":35.74805873,"lon":139.59823632},{"name":"日本大学医学部附属練馬光が丘病院","province":"東京都","city":"練馬区","address":"東京都練馬区光が丘2丁目11-1","lat":35.76218581,"lon":139.63026637},{"name":"都立城北中央公園野球場","province":"東京都","city":"練馬区","address":"東京都練馬区氷川台1丁目6","lat":35.75399329,"lon":139.67112982},{"name":"都立城北中央公園陸上競技場","province":"東京都","city":"練馬区","address":"東京都練馬区氷川台1丁目3-1","lat":35.75657914,"lon":139.67298788},{"name":"練馬区立練馬総合運動場","province":"東京都","city":"練馬区","address":"東京都練馬区練馬2丁目29-10","lat":35.74518829,"lon":139.65316237},{"name":"都立光が丘公園陸上競技場","province":"東京都","city":"練馬区","address":"東京都練馬区光が丘4丁目1","lat":35.76779071,"lon":139.62921623},{"name":"都立石神井公園内Ｂ地区野球場","province":"東京都","city":"練馬区","address":"東京都練馬区石神井台1丁目26-1","lat":35.73900692,"lon":139.59757011},{"name":"都立大泉中央公園陸上競技場","province":"東京都","city":"練馬区","address":"東京都練馬区大泉学園町9丁目4-3","lat":35.77467193,"lon":139.59766904},{"name":"高野台運動場","province":"東京都","city":"練馬区","address":"東京都練馬区高野台3丁目8-8","lat":35.74368462,"lon":139.61252972},{"name":"練馬区役所屋上","province":"東京都","city":"練馬区","address":"東京都練馬区豊玉北6丁目12-1","lat":35.73558101,"lon":139.65167678},{"name":"豊島園","province":"東京都","city":"練馬区","address":"東京都練馬区向山3丁目25-1","lat":35.74410496,"lon":139.64799896},{"name":"練馬区立松の風公園（旧日銀運動場）","province":"東京都","city":"練馬区","address":"東京都練馬区石神井台1丁目33","lat":35.73939292,"lon":139.59470088},{"name":"光が丘さくら幼稚園","province":"東京都","city":"練馬区","address":"練馬区光が丘2-4-8-101","lat":35.76267834,"lon":139.6318626},{"name":"光が丘むらさき幼稚園","province":"東京都","city":"練馬区","address":"練馬区光が丘3-3-5-101","lat":35.75592202,"lon":139.6297159},{"name":"北大泉幼稚園","province":"東京都","city":"練馬区","address":"練馬区大泉町2-46-6","lat":35.76292525,"lon":139.6034281},{"name":"練馬区資源循環センター","province":"東京都","city":"練馬区","address":"練馬区谷原1-2-20","lat":35.7484071,"lon":139.62367},{"name":"練馬区","province":"東京都","city":"練馬区","address":"練馬区桜台1-5-4-204","lat":35.73906,"lon":139.6614},{"name":"合計","province":"東京都","city":"練馬区","address":"東京都練馬区大泉学園町7丁目","lat":35.77324394,"lon":139.58840334},{"name":"練馬給水所","province":"東京都","city":"練馬区","address":"東京都練馬区光が丘2-4-1","lat":35.7633861,"lon":139.631914},{"name":"区立大泉公園","province":"東京都","city":"練馬区","address":"東京都練馬区大泉学園町6-25","lat":35.7720555,"lon":139.582711},{"name":"区立学田公園","province":"東京都","city":"練馬区","address":"東京都練馬区豊玉南3-32","lat":35.7305605,"lon":139.6491262},{"name":"区立はやいち公園","province":"東京都","city":"練馬区","address":"東京都練馬区早宮1-47-11","lat":35.753025,"lon":139.656532},{"name":"区立みんなの広場公園","province":"東京都","city":"練馬区","address":"東京都練馬区石神井町8-41","lat":35.7479365,"lon":139.5986648},{"name":"こども フローラ","province":"東京都","city":"練馬区","address":"東京都練馬区下石神井2丁目35-16","lat":35.72988593,"lon":139.60441153},{"name":"こどもくらぶ　じゃんけんぽん","province":"東京都","city":"練馬区","address":"東京都練馬区西大泉2丁目12-5","lat":35.75634886,"lon":139.57626843},{"name":"明光学童クラブ石神井公園","province":"東京都","city":"練馬区","address":"東京都練馬区石神井町3丁目17-16","lat":35.74267339,"lon":139.60444157},{"name":"石保学童クラブ","province":"東京都","city":"練馬区","address":"東京都練馬区南田中5丁目20-2","lat":35.73699363,"lon":139.60975245},{"name":"colors桜台二丁目学童クラブ","province":"東京都","city":"練馬区","address":"東京都練馬区桜台2丁目46-12","lat":35.74287213,"lon":139.66268387},{"name":"りっこう学童クラブ","province":"東京都","city":"練馬区","address":"東京都練馬区小竹町2丁目43-12","lat":35.74236143,"lon":139.67529388},{"name":"明光学童クラブ南大泉","province":"東京都","city":"練馬区","address":"東京都練馬区南大泉4丁目55-6","lat":35.74803854,"lon":139.56930263},{"name":"キッズボイス中村橋学童クラブ","province":"東京都","city":"練馬区","address":"東京都練馬区中村北4丁目2-6","lat":35.73643334,"lon":139.6376668},{"name":"キッズクラブどろちゃん","province":"東京都","city":"練馬区","address":"東京都練馬区大泉町4丁目29-13","lat":35.76291519,"lon":139.59533607},{"name":"関町南アフタースクール","province":"東京都","city":"練馬区","address":"東京都練馬区関町南4丁目19-6","lat":35.7211805,"lon":139.56939813},{"name":"明光学童クラブ大泉学園","province":"東京都","city":"練馬区","address":"東京都練馬区西大泉1丁目1-16","lat":35.75405218,"lon":139.58389279},{"name":"区立大泉公園内","province":"東京都","city":"練馬区","address":"東京都練馬区大泉学園町6丁目25","lat":35.77187107,"lon":139.5826057},{"name":"区立はやいち公園","province":"東京都","city":"練馬区","address":"東京都練馬区早宮1丁目47","lat":35.75308929,"lon":139.656607},{"name":"区立学田公園内","province":"東京都","city":"練馬区","address":"東京都練馬区豊玉南3丁目32","lat":35.7305802,"lon":139.6491383},{"name":"練馬給水所","province":"東京都","city":"練馬区","address":"東京都練馬区光が丘4丁目1","lat":35.76541945,"lon":139.630839},{"name":"区立みんなの広場公園","province":"東京都","city":"練馬区","address":"東京都練馬区石神井町8丁目41","lat":35.747983,"lon":139.5985335},{"name":"練馬光が丘病院","province":"東京都","city":"練馬区","address":"東京都練馬区光が丘2丁目11-1","lat":35.76218581,"lon":139.63026637},{"name":"順天堂大学医学部附属練馬病院","province":"東京都","city":"練馬区","address":"東京都練馬区高野台3丁目1-10","lat":35.74213487,"lon":139.61499623},{"name":"区立大泉公園","province":"東京都","city":"練馬区","address":"東京都練馬区大泉学園町6丁目25","lat":35.7719023,"lon":139.58278997},{"name":"区立学田公園","province":"東京都","city":"練馬区","address":"東京都練馬区豊玉南3丁目32","lat":35.72961495,"lon":139.64937445},{"name":"区立みんなの広場公園","province":"東京都","city":"練馬区","address":"東京都練馬区石神井町8丁目41","lat":35.74805873,"lon":139.59823632},{"name":"日本大学医学部附属練馬光が丘病院","province":"東京都","city":"練馬区","address":"東京都練馬区光が丘2丁目11-1","lat":35.76218581,"lon":139.63026637},{"name":"都立城北中央公園野球場","province":"東京都","city":"練馬区","address":"東京都練馬区氷川台1丁目6","lat":35.75399329,"lon":139.67112982},{"name":"都立城北中央公園陸上競技場","province":"東京都","city":"練馬区","address":"東京都練馬区氷川台1丁目3-1","lat":35.75657914,"lon":139.67298788},{"name":"練馬区立練馬総合運動場","province":"東京都","city":"練馬区","address":"東京都練馬区練馬2丁目29-10","lat":35.74518829,"lon":139.65316237},{"name":"都立光が丘公園陸上競技場","province":"東京都","city":"練馬区","address":"東京都練馬区光が丘4丁目1","lat":35.76779071,"lon":139.62921623},{"name":"都立石神井公園内Ｂ地区野球場","province":"東京都","city":"練馬区","address":"東京都練馬区石神井台1丁目26-1","lat":35.73900692,"lon":139.59757011},{"name":"都立大泉中央公園陸上競技場","province":"東京都","city":"練馬区","address":"東京都練馬区大泉学園町9丁目4-3","lat":35.77467193,"lon":139.59766904},{"name":"高野台運動場","province":"東京都","city":"練馬区","address":"東京都練馬区高野台3丁目8-8","lat":35.74368462,"lon":139.61252972},{"name":"練馬区役所屋上","province":"東京都","city":"練馬区","address":"東京都練馬区豊玉北6丁目12-1","lat":35.73558101,"lon":139.65167678},{"name":"豊島園","province":"東京都","city":"練馬区","address":"東京都練馬区向山3丁目25-1","lat":35.74410496,"lon":139.64799896},{"name":"練馬区立松の風公園（旧日銀運動場）","province":"東京都","city":"練馬区","address":"東京都練馬区石神井台1丁目33","lat":35.73939292,"lon":139.59470088},{"name":"光が丘さくら幼稚園","province":"東京都","city":"練馬区","address":"練馬区光が丘2-4-8-101","lat":35.76267834,"lon":139.6318626},{"name":"光が丘むらさき幼稚園","province":"東京都","city":"練馬区","address":"練馬区光が丘3-3-5-101","lat":35.75592202,"lon":139.6297159},{"name":"北大泉幼稚園","province":"東京都","city":"練馬区","address":"練馬区大泉町2-46-6","lat":35.76292525,"lon":139.6034281},{"name":"練馬区資源循環センター","province":"東京都","city":"練馬区","address":"練馬区谷原1-2-20","lat":35.7484071,"lon":139.62367},{"name":"練馬区","province":"東京都","city":"練馬区","address":"練馬区桜台1-5-4-204","lat":35.73906,"lon":139.6614},{"name":"合計","province":"東京都","city":"練馬区","address":"東京都練馬区大泉学園町7丁目","lat":35.77324394,"lon":139.58840334},{"name":"練馬給水所","province":"東京都","city":"練馬区","address":"東京都練馬区光が丘2-4-1","lat":35.7633861,"lon":139.631914},{"name":"区立大泉公園","province":"東京都","city":"練馬区","address":"東京都練馬区大泉学園町6-25","lat":35.7720555,"lon":139.582711},{"name":"区立学田公園","province":"東京都","city":"練馬区","address":"東京都練馬区豊玉南3-32","lat":35.7305605,"lon":139.6491262},{"name":"区立はやいち公園","province":"東京都","city":"練馬区","address":"東京都練馬区早宮1-47-11","lat":35.753025,"lon":139.656532},{"name":"区立みんなの広場公園","province":"東京都","city":"練馬区","address":"東京都練馬区石神井町8-41","lat":35.7479365,"lon":139.5986648},{"name":"こども フローラ","province":"東京都","city":"練馬区","address":"東京都練馬区下石神井2丁目35-16","lat":35.72988593,"lon":139.60441153},{"name":"こどもくらぶ　じゃんけんぽん","province":"東京都","city":"練馬区","address":"東京都練馬区西大泉2丁目12-5","lat":35.75634886,"lon":139.57626843},{"name":"明光学童クラブ石神井公園","province":"東京都","city":"練馬区","address":"東京都練馬区石神井町3丁目17-16","lat":35.74267339,"lon":139.60444157},{"name":"石保学童クラブ","province":"東京都","city":"練馬区","address":"東京都練馬区南田中5丁目20-2","lat":35.73699363,"lon":139.60975245},{"name":"colors桜台二丁目学童クラブ","province":"東京都","city":"練馬区","address":"東京都練馬区桜台2丁目46-12","lat":35.74287213,"lon":139.66268387},{"name":"りっこう学童クラブ","province":"東京都","city":"練馬区","address":"東京都練馬区小竹町2丁目43-12","lat":35.74236143,"lon":139.67529388},{"name":"明光学童クラブ南大泉","province":"東京都","city":"練馬区","address":"東京都練馬区南大泉4丁目55-6","lat":35.74803854,"lon":139.56930263},{"name":"キッズボイス中村橋学童クラブ","province":"東京都","city":"練馬区","address":"東京都練馬区中村北4丁目2-6","lat":35.73643334,"lon":139.6376668},{"name":"キッズクラブどろちゃん","province":"東京都","city":"練馬区","address":"東京都練馬区大泉町4丁目29-13","lat":35.76291519,"lon":139.59533607},{"name":"関町南アフタースクール","province":"東京都","city":"練馬区","address":"東京都練馬区関町南4丁目19-6","lat":35.7211805,"lon":139.56939813},{"name":"明光学童クラブ大泉学園","province":"東京都","city":"練馬区","address":"東京都練馬区西大泉1丁目1-16","lat":35.75405218,"lon":139.58389279},{"name":"区立大泉公園内","province":"東京都","city":"練馬区","address":"東京都練馬区大泉学園町6丁目25","lat":35.77187107,"lon":139.5826057},{"name":"区立はやいち公園","province":"東京都","city":"練馬区","address":"東京都練馬区早宮1丁目47","lat":35.75308929,"lon":139.656607},{"name":"区立学田公園内","province":"東京都","city":"練馬区","address":"東京都練馬区豊玉南3丁目32","lat":35.7305802,"lon":139.6491383},{"name":"練馬給水所","province":"東京都","city":"練馬区","address":"東京都練馬区光が丘4丁目1","lat":35.76541945,"lon":139.630839},{"name":"区立みんなの広場公園","province":"東京都","city":"練馬区","address":"東京都練馬区石神井町8丁目41","lat":35.747983,"lon":139.5985335},{"name":"練馬光が丘病院","province":"東京都","city":"練馬区","address":"東京都練馬区光が丘2丁目11-1","lat":35.76218581,"lon":139.63026637},{"name":"順天堂大学医学部附属練馬病院","province":"東京都","city":"練馬区","address":"東京都練馬区高野台3丁目1-10","lat":35.74213487,"lon":139.61499623},{"name":"区立大泉公園","province":"東京都","city":"練馬区","address":"東京都練馬区大泉学園町6丁目25","lat":35.7719023,"lon":139.58278997},{"name":"区立学田公園","province":"東京都","city":"練馬区","address":"東京都練馬区豊玉南3丁目32","lat":35.72961495,"lon":139.64937445},{"name":"区立みんなの広場公園","province":"東京都","city":"練馬区","address":"東京都練馬区石神井町8丁目41","lat":35.74805873,"lon":139.59823632},{"name":"日本大学医学部附属練馬光が丘病院","province":"東京都","city":"練馬区","address":"東京都練馬区光が丘2丁目11-1","lat":35.76218581,"lon":139.63026637},{"name":"都立城北中央公園野球場","province":"東京都","city":"練馬区","address":"東京都練馬区氷川台1丁目6","lat":35.75399329,"lon":139.67112982},{"name":"都立城北中央公園陸上競技場","province":"東京都","city":"練馬区","address":"東京都練馬区氷川台1丁目3-1","lat":35.75657914,"lon":139.67298788},{"name":"練馬区立練馬総合運動場","province":"東京都","city":"練馬区","address":"東京都練馬区練馬2丁目29-10","lat":35.74518829,"lon":139.65316237},{"name":"都立光が丘公園陸上競技場","province":"東京都","city":"練馬区","address":"東京都練馬区光が丘4丁目1","lat":35.76779071,"lon":139.62921623},{"name":"都立石神井公園内Ｂ地区野球場","province":"東京都","city":"練馬区","address":"東京都練馬区石神井台1丁目26-1","lat":35.73900692,"lon":139.59757011},{"name":"都立大泉中央公園陸上競技場","province":"東京都","city":"練馬区","address":"東京都練馬区大泉学園町9丁目4-3","lat":35.77467193,"lon":139.59766904},{"name":"高野台運動場","province":"東京都","city":"練馬区","address":"東京都練馬区高野台3丁目8-8","lat":35.74368462,"lon":139.61252972},{"name":"練馬区役所屋上","province":"東京都","city":"練馬区","address":"東京都練馬区豊玉北6丁目12-1","lat":35.73558101,"lon":139.65167678},{"name":"豊島園","province":"東京都","city":"練馬区","address":"東京都練馬区向山3丁目25-1","lat":35.74410496,"lon":139.64799896},{"name":"練馬区立松の風公園（旧日銀運動場）","province":"東京都","city":"練馬区","address":"東京都練馬区石神井台1丁目33","lat":35.73939292,"lon":139.59470088},{"name":"光が丘さくら幼稚園","province":"東京都","city":"練馬区","address":"練馬区光が丘2-4-8-101","lat":35.76267834,"lon":139.6318626},{"name":"光が丘むらさき幼稚園","province":"東京都","city":"練馬区","address":"練馬区光が丘3-3-5-101","lat":35.75592202,"lon":139.6297159},{"name":"北大泉幼稚園","province":"東京都","city":"練馬区","address":"練馬区大泉町2-46-6","lat":35.76292525,"lon":139.6034281},{"name":"練馬区資源循環センター","province":"東京都","city":"練馬区","address":"練馬区谷原1-2-20","lat":35.7484071,"lon":139.62367},{"name":"練馬区","province":"東京都","city":"練馬区","address":"練馬区桜台1-5-4-204","lat":35.73906,"lon":139.6614},{"name":"合計","province":"東京都","city":"練馬区","address":"東京都練馬区大泉学園町7丁目","lat":35.77324394,"lon":139.58840334},{"name":"練馬給水所","province":"東京都","city":"練馬区","address":"東京都練馬区光が丘2-4-1","lat":35.7633861,"lon":139.631914},{"name":"区立大泉公園","province":"東京都","city":"練馬区","address":"東京都練馬区大泉学園町6-25","lat":35.7720555,"lon":139.582711},{"name":"区立学田公園","province":"東京都","city":"練馬区","address":"東京都練馬区豊玉南3-32","lat":35.7305605,"lon":139.6491262},{"name":"区立はやいち公園","province":"東京都","city":"練馬区","address":"東京都練馬区早宮1-47-11","lat":35.753025,"lon":139.656532},{"name":"区立みんなの広場公園","province":"東京都","city":"練馬区","address":"東京都練馬区石神井町8-41","lat":35.7479365,"lon":139.5986648},{"name":"こども フローラ","province":"東京都","city":"練馬区","address":"東京都練馬区下石神井2丁目35-16","lat":35.72988593,"lon":139.60441153},{"name":"こどもくらぶ　じゃんけんぽん","province":"東京都","city":"練馬区","address":"東京都練馬区西大泉2丁目12-5","lat":35.75634886,"lon":139.57626843},{"name":"明光学童クラブ石神井公園","province":"東京都","city":"練馬区","address":"東京都練馬区石神井町3丁目17-16","lat":35.74267339,"lon":139.60444157},{"name":"石保学童クラブ","province":"東京都","city":"練馬区","address":"東京都練馬区南田中5丁目20-2","lat":35.73699363,"lon":139.60975245},{"name":"colors桜台二丁目学童クラブ","province":"東京都","city":"練馬区","address":"東京都練馬区桜台2丁目46-12","lat":35.74287213,"lon":139.66268387},{"name":"りっこう学童クラブ","province":"東京都","city":"練馬区","address":"東京都練馬区小竹町2丁目43-12","lat":35.74236143,"lon":139.67529388},{"name":"明光学童クラブ南大泉","province":"東京都","city":"練馬区","address":"東京都練馬区南大泉4丁目55-6","lat":35.74803854,"lon":139.56930263},{"name":"キッズボイス中村橋学童クラブ","province":"東京都","city":"練馬区","address":"東京都練馬区中村北4丁目2-6","lat":35.73643334,"lon":139.6376668},{"name":"キッズクラブどろちゃん","province":"東京都","city":"練馬区","address":"東京都練馬区大泉町4丁目29-13","lat":35.76291519,"lon":139.59533607},{"name":"関町南アフタースクール","province":"東京都","city":"練馬区","address":"東京都練馬区関町南4丁目19-6","lat":35.7211805,"lon":139.56939813},{"name":"明光学童クラブ大泉学園","province":"東京都","city":"練馬区","address":"東京都練馬区西大泉1丁目1-16","lat":35.75405218,"lon":139.58389279},{"name":"区立大泉公園内","province":"東京都","city":"練馬区","address":"東京都練馬区大泉学園町6丁目25","lat":35.77187107,"lon":139.5826057},{"name":"区立はやいち公園","province":"東京都","city":"練馬区","address":"東京都練馬区早宮1丁目47","lat":35.75308929,"lon":139.656607},{"name":"区立学田公園内","province":"東京都","city":"練馬区","address":"東京都練馬区豊玉南3丁目32","lat":35.7305802,"lon":139.6491383},{"name":"練馬給水所","province":"東京都","city":"練馬区","address":"東京都練馬区光が丘4丁目1","lat":35.76541945,"lon":139.630839},{"name":"区立みんなの広場公園","province":"東京都","city":"練馬区","address":"東京都練馬区石神井町8丁目41","lat":35.747983,"lon":139.5985335},{"name":"練馬光が丘病院","province":"東京都","city":"練馬区","address":"東京都練馬区光が丘2丁目11-1","lat":35.76218581,"lon":139.63026637},{"name":"順天堂大学医学部附属練馬病院","province":"東京都","city":"練馬区","address":"東京都練馬区高野台3丁目1-10","lat":35.74213487,"lon":139.61499623},{"name":"日本大学医学部附属練馬光が丘病院","province":"東京都","city":"練馬区","address":"東京都練馬区光が丘2丁目11-1","lat":35.76218581,"lon":139.63026637},{"name":"都立城北中央公園野球場","province":"東京都","city":"練馬区","address":"東京都練馬区氷川台1丁目6","lat":35.75399329,"lon":139.67112982},{"name":"都立城北中央公園陸上競技場","province":"東京都","city":"練馬区","address":"東京都練馬区氷川台1丁目3-1","lat":35.75657914,"lon":139.67298788},{"name":"練馬区立練馬総合運動場","province":"東京都","city":"練馬区","address":"東京都練馬区練馬2丁目29-10","lat":35.74518829,"lon":139.65316237},{"name":"都立光が丘公園陸上競技場","province":"東京都","city":"練馬区","address":"東京都練馬区光が丘4丁目1","lat":35.76779071,"lon":139.62921623},{"name":"都立石神井公園内Ｂ地区野球場","province":"東京都","city":"練馬区","address":"東京都練馬区石神井台1丁目26-1","lat":35.73900692,"lon":139.59757011},{"name":"都立大泉中央公園陸上競技場","province":"東京都","city":"練馬区","address":"東京都練馬区大泉学園町9丁目4-3","lat":35.77467193,"lon":139.59766904},{"name":"高野台運動場","province":"東京都","city":"練馬区","address":"東京都練馬区高野台3丁目8-8","lat":35.74368462,"lon":139.61252972},{"name":"練馬区役所屋上","province":"東京都","city":"練馬区","address":"東京都練馬区豊玉北6丁目12-1","lat":35.73558101,"lon":139.65167678},{"name":"豊島園","province":"東京都","city":"練馬区","address":"東京都練馬区向山3丁目25-1","lat":35.74410496,"lon":139.64799896},{"name":"練馬区立松の風公園（旧日銀運動場）","province":"東京都","city":"練馬区","address":"東京都練馬区石神井台1丁目33","lat":35.73939292,"lon":139.59470088},{"name":"光が丘さくら幼稚園","province":"東京都","city":"練馬区","address":"練馬区光が丘2-4-8-101","lat":35.76267834,"lon":139.6318626},{"name":"光が丘むらさき幼稚園","province":"東京都","city":"練馬区","address":"練馬区光が丘3-3-5-101","lat":35.75592202,"lon":139.6297159},{"name":"北大泉幼稚園","province":"東京都","city":"練馬区","address":"練馬区大泉町2-46-6","lat":35.76292525,"lon":139.6034281},{"name":"練馬区資源循環センター","province":"東京都","city":"練馬区","address":"練馬区谷原1-2-20","lat":35.7484071,"lon":139.62367},{"name":"練馬区","province":"東京都","city":"練馬区","address":"練馬区桜台1-5-4-204","lat":35.73906,"lon":139.6614},{"name":"合計","province":"東京都","city":"練馬区","address":"東京都練馬区大泉学園町7丁目","lat":35.77324394,"lon":139.58840334},{"name":"練馬給水所","province":"東京都","city":"練馬区","address":"東京都練馬区光が丘2-4-1","lat":35.7633861,"lon":139.631914},{"name":"区立大泉公園","province":"東京都","city":"練馬区","address":"東京都練馬区大泉学園町6-25","lat":35.7720555,"lon":139.582711},{"name":"区立学田公園","province":"東京都","city":"練馬区","address":"東京都練馬区豊玉南3-32","lat":35.7305605,"lon":139.6491262},{"name":"区立はやいち公園","province":"東京都","city":"練馬区","address":"東京都練馬区早宮1-47-11","lat":35.753025,"lon":139.656532},{"name":"区立みんなの広場公園","province":"東京都","city":"練馬区","address":"東京都練馬区石神井町8-41","lat":35.7479365,"lon":139.5986648},{"name":"こども フローラ","province":"東京都","city":"練馬区","address":"東京都練馬区下石神井2丁目35-16","lat":35.72988593,"lon":139.60441153},{"name":"こどもくらぶ　じゃんけんぽん","province":"東京都","city":"練馬区","address":"東京都練馬区西大泉2丁目12-5","lat":35.75634886,"lon":139.57626843},{"name":"明光学童クラブ石神井公園","province":"東京都","city":"練馬区","address":"東京都練馬区石神井町3丁目17-16","lat":35.74267339,"lon":139.60444157},{"name":"石保学童クラブ","province":"東京都","city":"練馬区","address":"東京都練馬区南田中5丁目20-2","lat":35.73699363,"lon":139.60975245},{"name":"colors桜台二丁目学童クラブ","province":"東京都","city":"練馬区","address":"東京都練馬区桜台2丁目46-12","lat":35.74287213,"lon":139.66268387},{"name":"りっこう学童クラブ","province":"東京都","city":"練馬区","address":"東京都練馬区小竹町2丁目43-12","lat":35.74236143,"lon":139.67529388},{"name":"明光学童クラブ南大泉","province":"東京都","city":"練馬区","address":"東京都練馬区南大泉4丁目55-6","lat":35.74803854,"lon":139.56930263},{"name":"キッズボイス中村橋学童クラブ","province":"東京都","city":"練馬区","address":"東京都練馬区中村北4丁目2-6","lat":35.73643334,"lon":139.6376668},{"name":"キッズクラブどろちゃん","province":"東京都","city":"練馬区","address":"東京都練馬区大泉町4丁目29-13","lat":35.76291519,"lon":139.59533607},{"name":"関町南アフタースクール","province":"東京都","city":"練馬区","address":"東京都練馬区関町南4丁目19-6","lat":35.7211805,"lon":139.56939813},{"name":"明光学童クラブ大泉学園","province":"東京都","city":"練馬区","address":"東京都練馬区西大泉1丁目1-16","lat":35.75405218,"lon":139.58389279},{"name":"区立大泉公園内","province":"東京都","city":"練馬区","address":"東京都練馬区大泉学園町6丁目25","lat":35.77187107,"lon":139.5826057},{"name":"区立はやいち公園","province":"東京都","city":"練馬区","address":"東京都練馬区早宮1丁目47","lat":35.75308929,"lon":139.656607},{"name":"区立学田公園内","province":"東京都","city":"練馬区","address":"東京都練馬区豊玉南3丁目32","lat":35.7305802,"lon":139.6491383},{"name":"練馬給水所","province":"東京都","city":"練馬区","address":"東京都練馬区光が丘4丁目1","lat":35.76541945,"lon":139.630839},{"name":"区立みんなの広場公園","province":"東京都","city":"練馬区","address":"東京都練馬区石神井町8丁目41","lat":35.747983,"lon":139.5985335},{"name":"練馬光が丘病院","province":"東京都","city":"練馬区","address":"東京都練馬区光が丘2丁目11-1","lat":35.76218581,"lon":139.63026637},{"name":"順天堂大学医学部附属練馬病院","province":"東京都","city":"練馬区","address":"東京都練馬区高野台3丁目1-10","lat":35.74213487,"lon":139.61499623},{"name":"日本大学医学部附属練馬光が丘病院","province":"東京都","city":"練馬区","address":"東京都練馬区光が丘2丁目11-1","lat":35.76218581,"lon":139.63026637},{"name":"光が丘さくら幼稚園","province":"東京都","city":"練馬区","address":"練馬区光が丘2-4-8-101","lat":35.76267834,"lon":139.6318626},{"name":"光が丘むらさき幼稚園","province":"東京都","city":"練馬区","address":"練馬区光が丘3-3-5-101","lat":35.75592202,"lon":139.6297159},{"name":"北大泉幼稚園","province":"東京都","city":"練馬区","address":"練馬区大泉町2-46-6","lat":35.76292525,"lon":139.6034281},{"name":"練馬区資源循環センター","province":"東京都","city":"練馬区","address":"練馬区谷原1-2-20","lat":35.7484071,"lon":139.62367},{"name":"練馬区","province":"東京都","city":"練馬区","address":"練馬区桜台1-5-4-204","lat":35.73906,"lon":139.6614},{"name":"合計","province":"東京都","city":"練馬区","address":"東京都練馬区大泉学園町7丁目","lat":35.77324394,"lon":139.58840334},{"name":"練馬給水所","province":"東京都","city":"練馬区","address":"東京都練馬区光が丘2-4-1","lat":35.7633861,"lon":139.631914},{"name":"区立大泉公園","province":"東京都","city":"練馬区","address":"東京都練馬区大泉学園町6-25","lat":35.7720555,"lon":139.582711},{"name":"区立学田公園","province":"東京都","city":"練馬区","address":"東京都練馬区豊玉南3-32","lat":35.7305605,"lon":139.6491262},{"name":"区立はやいち公園","province":"東京都","city":"練馬区","address":"東京都練馬区早宮1-47-11","lat":35.753025,"lon":139.656532},{"name":"区立みんなの広場公園","province":"東京都","city":"練馬区","address":"東京都練馬区石神井町8-41","lat":35.7479365,"lon":139.5986648},{"name":"こども フローラ","province":"東京都","city":"練馬区","address":"東京都練馬区下石神井2丁目35-16","lat":35.72988593,"lon":139.60441153},{"name":"こどもくらぶ　じゃんけんぽん","province":"東京都","city":"練馬区","address":"東京都練馬区西大泉2丁目12-5","lat":35.75634886,"lon":139.57626843},{"name":"明光学童クラブ石神井公園","province":"東京都","city":"練馬区","address":"東京都練馬区石神井町3丁目17-16","lat":35.74267339,"lon":139.60444157},{"name":"石保学童クラブ","province":"東京都","city":"練馬区","address":"東京都練馬区南田中5丁目20-2","lat":35.73699363,"lon":139.60975245},{"name":"colors桜台二丁目学童クラブ","province":"東京都","city":"練馬区","address":"東京都練馬区桜台2丁目46-12","lat":35.74287213,"lon":139.66268387},{"name":"りっこう学童クラブ","province":"東京都","city":"練馬区","address":"東京都練馬区小竹町2丁目43-12","lat":35.74236143,"lon":139.67529388},{"name":"明光学童クラブ南大泉","province":"東京都","city":"練馬区","address":"東京都練馬区南大泉4丁目55-6","lat":35.74803854,"lon":139.56930263},{"name":"キッズボイス中村橋学童クラブ","province":"東京都","city":"練馬区","address":"東京都練馬区中村北4丁目2-6","lat":35.73643334,"lon":139.6376668},{"name":"キッズクラブどろちゃん","province":"東京都","city":"練馬区","address":"東京都練馬区大泉町4丁目29-13","lat":35.76291519,"lon":139.59533607},{"name":"関町南アフタースクール","province":"東京都","city":"練馬区","address":"東京都練馬区関町南4丁目19-6","lat":35.7211805,"lon":139.56939813},{"name":"明光学童クラブ大泉学園","province":"東京都","city":"練馬区","address":"東京都練馬区西大泉1丁目1-16","lat":35.75405218,"lon":139.58389279},{"name":"区立大泉公園内","province":"東京都","city":"練馬区","address":"東京都練馬区大泉学園町6丁目25","lat":35.77187107,"lon":139.5826057},{"name":"区立はやいち公園","province":"東京都","city":"練馬区","address":"東京都練馬区早宮1丁目47","lat":35.75308929,"lon":139.656607},{"name":"区立学田公園内","province":"東京都","city":"練馬区","address":"東京都練馬区豊玉南3丁目32","lat":35.7305802,"lon":139.6491383},{"name":"練馬給水所","province":"東京都","city":"練馬区","address":"東京都練馬区光が丘4丁目1","lat":35.76541945,"lon":139.630839},{"name":"区立みんなの広場公園","province":"東京都","city":"練馬区","address":"東京都練馬区石神井町8丁目41","lat":35.747983,"lon":139.5985335},{"name":"練馬光が丘病院","province":"東京都","city":"練馬区","address":"東京都練馬区光が丘2丁目11-1","lat":35.76218581,"lon":139.63026637},{"name":"順天堂大学医学部附属練馬病院","province":"東京都","city":"練馬区","address":"東京都練馬区高野台3丁目1-10","lat":35.74213487,"lon":139.61499623},{"name":"日本大学医学部附属練馬光が丘病院","province":"東京都","city":"練馬区","address":"東京都練馬区光が丘2丁目11-1","lat":35.76218581,"lon":139.63026637},{"name":"光が丘さくら幼稚園","province":"東京都","city":"練馬区","address":"練馬区光が丘2-4-8-101","lat":35.76267834,"lon":139.6318626},{"name":"光が丘むらさき幼稚園","province":"東京都","city":"練馬区","address":"練馬区光が丘3-3-5-101","lat":35.75592202,"lon":139.6297159},{"name":"北大泉幼稚園","province":"東京都","city":"練馬区","address":"練馬区大泉町2-46-6","lat":35.76292525,"lon":139.6034281},{"name":"練馬区資源循環センター","province":"東京都","city":"練馬区","address":"練馬区谷原1-2-20","lat":35.7484071,"lon":139.62367},{"name":"練馬区","province":"東京都","city":"練馬区","address":"練馬区桜台1-5-4-204","lat":35.73906,"lon":139.6614},{"name":"合計","province":"東京都","city":"練馬区","address":"東京都練馬区大泉学園町7丁目","lat":35.77324394,"lon":139.58840334},{"name":"練馬給水所","province":"東京都","city":"練馬区","address":"東京都練馬区光が丘2-4-1","lat":35.7633861,"lon":139.631914},{"name":"区立大泉公園","province":"東京都","city":"練馬区","address":"東京都練馬区大泉学園町6-25","lat":35.7720555,"lon":139.582711},{"name":"区立学田公園","province":"東京都","city":"練馬区","address":"東京都練馬区豊玉南3-32","lat":35.7305605,"lon":139.6491262},{"name":"区立はやいち公園","province":"東京都","city":"練馬区","address":"東京都練馬区早宮1-47-11","lat":35.753025,"lon":139.656532},{"name":"区立みんなの広場公園","province":"東京都","city":"練馬区","address":"東京都練馬区石神井町8-41","lat":35.7479365,"lon":139.5986648},{"name":"こども フローラ","province":"東京都","city":"練馬区","address":"東京都練馬区下石神井2丁目35-16","lat":35.72988593,"lon":139.60441153},{"name":"こどもくらぶ　じゃんけんぽん","province":"東京都","city":"練馬区","address":"東京都練馬区西大泉2丁目12-5","lat":35.75634886,"lon":139.57626843},{"name":"明光学童クラブ石神井公園","province":"東京都","city":"練馬区","address":"東京都練馬区石神井町3丁目17-16","lat":35.74267339,"lon":139.60444157},{"name":"石保学童クラブ","province":"東京都","city":"練馬区","address":"東京都練馬区南田中5丁目20-2","lat":35.73699363,"lon":139.60975245},{"name":"colors桜台二丁目学童クラブ","province":"東京都","city":"練馬区","address":"東京都練馬区桜台2丁目46-12","lat":35.74287213,"lon":139.66268387},{"name":"りっこう学童クラブ","province":"東京都","city":"練馬区","address":"東京都練馬区小竹町2丁目43-12","lat":35.74236143,"lon":139.67529388},{"name":"明光学童クラブ南大泉","province":"東京都","city":"練馬区","address":"東京都練馬区南大泉4丁目55-6","lat":35.74803854,"lon":139.56930263},{"name":"キッズボイス中村橋学童クラブ","province":"東京都","city":"練馬区","address":"東京都練馬区中村北4丁目2-6","lat":35.73643334,"lon":139.6376668},{"name":"キッズクラブどろちゃん","province":"東京都","city":"練馬区","address":"東京都練馬区大泉町4丁目29-13","lat":35.76291519,"lon":139.59533607},{"name":"関町南アフタースクール","province":"東京都","city":"練馬区","address":"東京都練馬区関町南4丁目19-6","lat":35.7211805,"lon":139.56939813},{"name":"明光学童クラブ大泉学園","province":"東京都","city":"練馬区","address":"東京都練馬区西大泉1丁目1-16","lat":35.75405218,"lon":139.58389279},{"name":"区立大泉公園内","province":"東京都","city":"練馬区","address":"東京都練馬区大泉学園町6丁目25","lat":35.77187107,"lon":139.5826057},{"name":"区立はやいち公園","province":"東京都","city":"練馬区","address":"東京都練馬区早宮1丁目47","lat":35.75308929,"lon":139.656607},{"name":"区立学田公園内","province":"東京都","city":"練馬区","address":"東京都練馬区豊玉南3丁目32","lat":35.7305802,"lon":139.6491383},{"name":"練馬給水所","province":"東京都","city":"練馬区","address":"東京都練馬区光が丘4丁目1","lat":35.76541945,"lon":139.630839},{"name":"区立みんなの広場公園","province":"東京都","city":"練馬区","address":"東京都練馬区石神井町8丁目41","lat":35.747983,"lon":139.5985335},{"name":"練馬光が丘病院","province":"東京都","city":"練馬区","address":"東京都練馬区光が丘2丁目11-1","lat":35.76218581,"lon":139.63026637},{"name":"順天堂大学医学部附属練馬病院","province":"東京都","city":"練馬区","address":"東京都練馬区高野台3丁目1-10","lat":35.74213487,"lon":139.61499623},{"name":"日本大学医学部附属練馬光が丘病院","province":"東京都","city":"練馬区","address":"東京都練馬区光が丘2丁目11-1","lat":35.76218581,"lon":139.63026637},{"name":"光が丘さくら幼稚園","province":"東京都","city":"練馬区","address":"練馬区光が丘2-4-8-101","lat":35.76267834,"lon":139.6318626},{"name":"光が丘むらさき幼稚園","province":"東京都","city":"練馬区","address":"練馬区光が丘3-3-5-101","lat":35.75592202,"lon":139.6297159},{"name":"北大泉幼稚園","province":"東京都","city":"練馬区","address":"練馬区大泉町2-46-6","lat":35.76292525,"lon":139.6034281},{"name":"練馬区資源循環センター","province":"東京都","city":"練馬区","address":"練馬区谷原1-2-20","lat":35.7484071,"lon":139.62367},{"name":"練馬区","province":"東京都","city":"練馬区","address":"練馬区桜台1-5-4-204","lat":35.73906,"lon":139.6614},{"name":"合計","province":"東京都","city":"練馬区","address":"東京都練馬区大泉学園町7丁目","lat":35.77324394,"lon":139.58840334},{"name":"練馬給水所","province":"東京都","city":"練馬区","address":"東京都練馬区光が丘2-4-1","lat":35.7633861,"lon":139.631914},{"name":"区立大泉公園","province":"東京都","city":"練馬区","address":"東京都練馬区大泉学園町6-25","lat":35.7720555,"lon":139.582711},{"name":"区立学田公園","province":"東京都","city":"練馬区","address":"東京都練馬区豊玉南3-32","lat":35.7305605,"lon":139.6491262},{"name":"区立はやいち公園","province":"東京都","city":"練馬区","address":"東京都練馬区早宮1-47-11","lat":35.753025,"lon":139.656532},{"name":"区立みんなの広場公園","province":"東京都","city":"練馬区","address":"東京都練馬区石神井町8-41","lat":35.7479365,"lon":139.5986648},{"name":"こども フローラ","province":"東京都","city":"練馬区","address":"東京都練馬区下石神井2丁目35-16","lat":35.72988593,"lon":139.60441153},{"name":"こどもくらぶ　じゃんけんぽん","province":"東京都","city":"練馬区","address":"東京都練馬区西大泉2丁目12-5","lat":35.75634886,"lon":139.57626843},{"name":"明光学童クラブ石神井公園","province":"東京都","city":"練馬区","address":"東京都練馬区石神井町3丁目17-16","lat":35.74267339,"lon":139.60444157},{"name":"石保学童クラブ","province":"東京都","city":"練馬区","address":"東京都練馬区南田中5丁目20-2","lat":35.73699363,"lon":139.60975245},{"name":"colors桜台二丁目学童クラブ","province":"東京都","city":"練馬区","address":"東京都練馬区桜台2丁目46-12","lat":35.74287213,"lon":139.66268387},{"name":"りっこう学童クラブ","province":"東京都","city":"練馬区","address":"東京都練馬区小竹町2丁目43-12","lat":35.74236143,"lon":139.67529388},{"name":"明光学童クラブ南大泉","province":"東京都","city":"練馬区","address":"東京都練馬区南大泉4丁目55-6","lat":35.74803854,"lon":139.56930263},{"name":"キッズボイス中村橋学童クラブ","province":"東京都","city":"練馬区","address":"東京都練馬区中村北4丁目2-6","lat":35.73643334,"lon":139.6376668},{"name":"キッズクラブどろちゃん","province":"東京都","city":"練馬区","address":"東京都練馬区大泉町4丁目29-13","lat":35.76291519,"lon":139.59533607},{"name":"関町南アフタースクール","province":"東京都","city":"練馬区","address":"東京都練馬区関町南4丁目19-6","lat":35.7211805,"lon":139.56939813},{"name":"明光学童クラブ大泉学園","province":"東京都","city":"練馬区","address":"東京都練馬区西大泉1丁目1-16","lat":35.75405218,"lon":139.58389279},{"name":"区立大泉公園内","province":"東京都","city":"練馬区","address":"東京都練馬区大泉学園町6丁目25","lat":35.77187107,"lon":139.5826057},{"name":"区立はやいち公園","province":"東京都","city":"練馬区","address":"東京都練馬区早宮1丁目47","lat":35.75308929,"lon":139.656607},{"name":"区立学田公園内","province":"東京都","city":"練馬区","address":"東京都練馬区豊玉南3丁目32","lat":35.7305802,"lon":139.6491383},{"name":"練馬給水所","province":"東京都","city":"練馬区","address":"東京都練馬区光が丘4丁目1","lat":35.76541945,"lon":139.630839},{"name":"区立みんなの広場公園","province":"東京都","city":"練馬区","address":"東京都練馬区石神井町8丁目41","lat":35.747983,"lon":139.5985335},{"name":"練馬光が丘病院","province":"東京都","city":"練馬区","address":"東京都練馬区光が丘2丁目11-1","lat":35.76218581,"lon":139.63026637},{"name":"順天堂大学医学部附属練馬病院","province":"東京都","city":"練馬区","address":"東京都練馬区高野台3丁目1-10","lat":35.74213487,"lon":139.61499623},{"name":"日本大学医学部附属練馬光が丘病院","province":"東京都","city":"練馬区","address":"東京都練馬区光が丘2丁目11-1","lat":35.76218581,"lon":139.63026637},{"name":"光が丘さくら幼稚園","province":"東京都","city":"練馬区","address":"練馬区光が丘2-4-8-101","lat":35.76267834,"lon":139.6318626},{"name":"光が丘むらさき幼稚園","province":"東京都","city":"練馬区","address":"練馬区光が丘3-3-5-101","lat":35.75592202,"lon":139.6297159},{"name":"北大泉幼稚園","province":"東京都","city":"練馬区","address":"練馬区大泉町2-46-6","lat":35.76292525,"lon":139.6034281},{"name":"練馬区資源循環センター","province":"東京都","city":"練馬区","address":"練馬区谷原1-2-20","lat":35.7484071,"lon":139.62367},{"name":"練馬区","province":"東京都","city":"練馬区","address":"練馬区桜台1-5-4-204","lat":35.73906,"lon":139.6614},{"name":"合計","province":"東京都","city":"練馬区","address":"東京都練馬区大泉学園町7丁目","lat":35.77324394,"lon":139.58840334},{"name":"練馬給水所","province":"東京都","city":"練馬区","address":"東京都練馬区光が丘2-4-1","lat":35.7633861,"lon":139.631914},{"name":"区立大泉公園","province":"東京都","city":"練馬区","address":"東京都練馬区大泉学園町6-25","lat":35.7720555,"lon":139.582711},{"name":"区立学田公園","province":"東京都","city":"練馬区","address":"東京都練馬区豊玉南3-32","lat":35.7305605,"lon":139.6491262},{"name":"区立はやいち公園","province":"東京都","city":"練馬区","address":"東京都練馬区早宮1-47-11","lat":35.753025,"lon":139.656532},{"name":"区立みんなの広場公園","province":"東京都","city":"練馬区","address":"東京都練馬区石神井町8-41","lat":35.7479365,"lon":139.5986648},{"name":"こども フローラ","province":"東京都","city":"練馬区","address":"東京都練馬区下石神井2丁目35-16","lat":35.72988593,"lon":139.60441153},{"name":"こどもくらぶ　じゃんけんぽん","province":"東京都","city":"練馬区","address":"東京都練馬区西大泉2丁目12-5","lat":35.75634886,"lon":139.57626843},{"name":"明光学童クラブ石神井公園","province":"東京都","city":"練馬区","address":"東京都練馬区石神井町3丁目17-16","lat":35.74267339,"lon":139.60444157},{"name":"石保学童クラブ","province":"東京都","city":"練馬区","address":"東京都練馬区南田中5丁目20-2","lat":35.73699363,"lon":139.60975245},{"name":"colors桜台二丁目学童クラブ","province":"東京都","city":"練馬区","address":"東京都練馬区桜台2丁目46-12","lat":35.74287213,"lon":139.66268387},{"name":"りっこう学童クラブ","province":"東京都","city":"練馬区","address":"東京都練馬区小竹町2丁目43-12","lat":35.74236143,"lon":139.67529388},{"name":"明光学童クラブ南大泉","province":"東京都","city":"練馬区","address":"東京都練馬区南大泉4丁目55-6","lat":35.74803854,"lon":139.56930263},{"name":"キッズボイス中村橋学童クラブ","province":"東京都","city":"練馬区","address":"東京都練馬区中村北4丁目2-6","lat":35.73643334,"lon":139.6376668},{"name":"キッズクラブどろちゃん","province":"東京都","city":"練馬区","address":"東京都練馬区大泉町4丁目29-13","lat":35.76291519,"lon":139.59533607},{"name":"関町南アフタースクール","province":"東京都","city":"練馬区","address":"東京都練馬区関町南4丁目19-6","lat":35.7211805,"lon":139.56939813},{"name":"明光学童クラブ大泉学園","province":"東京都","city":"練馬区","address":"東京都練馬区西大泉1丁目1-16","lat":35.75405218,"lon":139.58389279},{"name":"区立大泉公園内","province":"東京都","city":"練馬区","address":"東京都練馬区大泉学園町6丁目25","lat":35.77187107,"lon":139.5826057},{"name":"区立はやいち公園","province":"東京都","city":"練馬区","address":"東京都練馬区早宮1丁目47","lat":35.75308929,"lon":139.656607},{"name":"区立学田公園内","province":"東京都","city":"練馬区","address":"東京都練馬区豊玉南3丁目32","lat":35.7305802,"lon":139.6491383},{"name":"練馬給水所","province":"東京都","city":"練馬区","address":"東京都練馬区光が丘4丁目1","lat":35.76541945,"lon":139.630839},{"name":"区立みんなの広場公園","province":"東京都","city":"練馬区","address":"東京都練馬区石神井町8丁目41","lat":35.747983,"lon":139.5985335},{"name":"練馬光が丘病院","province":"東京都","city":"練馬区","address":"東京都練馬区光が丘2丁目11-1","lat":35.76218581,"lon":139.63026637},{"name":"順天堂大学医学部附属練馬病院","province":"東京都","city":"練馬区","address":"東京都練馬区高野台3丁目1-10","lat":35.74213487,"lon":139.61499623},{"name":"日本大学医学部附属練馬光が丘病院","province":"東京都","city":"練馬区","address":"東京都練馬区光が丘2丁目11-1","lat":35.76218581,"lon":139.63026637},{"name":"光が丘さくら幼稚園","province":"東京都","city":"練馬区","address":"練馬区光が丘2-4-8-101","lat":35.76267834,"lon":139.6318626},{"name":"光が丘むらさき幼稚園","province":"東京都","city":"練馬区","address":"練馬区光が丘3-3-5-101","lat":35.75592202,"lon":139.6297159},{"name":"北大泉幼稚園","province":"東京都","city":"練馬区","address":"練馬区大泉町2-46-6","lat":35.76292525,"lon":139.6034281},{"name":"練馬区資源循環センター","province":"東京都","city":"練馬区","address":"練馬区谷原1-2-20","lat":35.7484071,"lon":139.62367},{"name":"練馬区","province":"東京都","city":"練馬区","address":"練馬区桜台1-5-4-204","lat":35.73906,"lon":139.6614},{"name":"合計","province":"東京都","city":"練馬区","address":"東京都練馬区大泉学園町7丁目","lat":35.77324394,"lon":139.58840334},{"name":"練馬給水所","province":"東京都","city":"練馬区","address":"東京都練馬区光が丘2-4-1","lat":35.7633861,"lon":139.631914},{"name":"区立大泉公園","province":"東京都","city":"練馬区","address":"東京都練馬区大泉学園町6-25","lat":35.7720555,"lon":139.582711},{"name":"区立学田公園","province":"東京都","city":"練馬区","address":"東京都練馬区豊玉南3-32","lat":35.7305605,"lon":139.6491262},{"name":"区立はやいち公園","province":"東京都","city":"練馬区","address":"東京都練馬区早宮1-47-11","lat":35.753025,"lon":139.656532},{"name":"区立みんなの広場公園","province":"東京都","city":"練馬区","address":"東京都練馬区石神井町8-41","lat":35.7479365,"lon":139.5986648},{"name":"こども フローラ","province":"東京都","city":"練馬区","address":"東京都練馬区下石神井2丁目35-16","lat":35.72988593,"lon":139.60441153},{"name":"こどもくらぶ　じゃんけんぽん","province":"東京都","city":"練馬区","address":"東京都練馬区西大泉2丁目12-5","lat":35.75634886,"lon":139.57626843},{"name":"明光学童クラブ石神井公園","province":"東京都","city":"練馬区","address":"東京都練馬区石神井町3丁目17-16","lat":35.74267339,"lon":139.60444157},{"name":"石保学童クラブ","province":"東京都","city":"練馬区","address":"東京都練馬区南田中5丁目20-2","lat":35.73699363,"lon":139.60975245},{"name":"colors桜台二丁目学童クラブ","province":"東京都","city":"練馬区","address":"東京都練馬区桜台2丁目46-12","lat":35.74287213,"lon":139.66268387},{"name":"りっこう学童クラブ","province":"東京都","city":"練馬区","address":"東京都練馬区小竹町2丁目43-12","lat":35.74236143,"lon":139.67529388},{"name":"明光学童クラブ南大泉","province":"東京都","city":"練馬区","address":"東京都練馬区南大泉4丁目55-6","lat":35.74803854,"lon":139.56930263},{"name":"キッズボイス中村橋学童クラブ","province":"東京都","city":"練馬区","address":"東京都練馬区中村北4丁目2-6","lat":35.73643334,"lon":139.6376668},{"name":"キッズクラブどろちゃん","province":"東京都","city":"練馬区","address":"東京都練馬区大泉町4丁目29-13","lat":35.76291519,"lon":139.59533607},{"name":"関町南アフタースクール","province":"東京都","city":"練馬区","address":"東京都練馬区関町南4丁目19-6","lat":35.7211805,"lon":139.56939813},{"name":"明光学童クラブ大泉学園","province":"東京都","city":"練馬区","address":"東京都練馬区西大泉1丁目1-16","lat":35.75405218,"lon":139.58389279},{"name":"区立大泉公園内","province":"東京都","city":"練馬区","address":"東京都練馬区大泉学園町6丁目25","lat":35.77187107,"lon":139.5826057},{"name":"区立はやいち公園","province":"東京都","city":"練馬区","address":"東京都練馬区早宮1丁目47","lat":35.75308929,"lon":139.656607},{"name":"区立学田公園内","province":"東京都","city":"練馬区","address":"東京都練馬区豊玉南3丁目32","lat":35.7305802,"lon":139.6491383},{"name":"練馬給水所","province":"東京都","city":"練馬区","address":"東京都練馬区光が丘4丁目1","lat":35.76541945,"lon":139.630839},{"name":"区立みんなの広場公園","province":"東京都","city":"練馬区","address":"東京都練馬区石神井町8丁目41","lat":35.747983,"lon":139.5985335},{"name":"練馬光が丘病院","province":"東京都","city":"練馬区","address":"東京都練馬区光が丘2丁目11-1","lat":35.76218581,"lon":139.63026637},{"name":"順天堂大学医学部附属練馬病院","province":"東京都","city":"練馬区","address":"東京都練馬区高野台3丁目1-10","lat":35.74213487,"lon":139.61499623},{"name":"日本大学医学部附属練馬光が丘病院","province":"東京都","city":"練馬区","address":"東京都練馬区光が丘2丁目11-1","lat":35.76218581,"lon":139.63026637},{"name":"光が丘さくら幼稚園","province":"東京都","city":"練馬区","address":"練馬区光が丘2-4-8-101","lat":35.76267834,"lon":139.6318626},{"name":"光が丘むらさき幼稚園","province":"東京都","city":"練馬区","address":"練馬区光が丘3-3-5-101","lat":35.75592202,"lon":139.6297159},{"name":"北大泉幼稚園","province":"東京都","city":"練馬区","address":"練馬区大泉町2-46-6","lat":35.76292525,"lon":139.6034281},{"name":"練馬区資源循環センター","province":"東京都","city":"練馬区","address":"練馬区谷原1-2-20","lat":35.7484071,"lon":139.62367},{"name":"練馬区","province":"東京都","city":"練馬区","address":"練馬区桜台1-5-4-204","lat":35.73906,"lon":139.6614},{"name":"合計","province":"東京都","city":"練馬区","address":"東京都練馬区大泉学園町7丁目","lat":35.77324394,"lon":139.58840334},{"name":"練馬給水所","province":"東京都","city":"練馬区","address":"東京都練馬区光が丘2-4-1","lat":35.7633861,"lon":139.631914},{"name":"区立大泉公園","province":"東京都","city":"練馬区","address":"東京都練馬区大泉学園町6-25","lat":35.7720555,"lon":139.582711},{"name":"区立学田公園","province":"東京都","city":"練馬区","address":"東京都練馬区豊玉南3-32","lat":35.7305605,"lon":139.6491262},{"name":"区立はやいち公園","province":"東京都","city":"練馬区","address":"東京都練馬区早宮1-47-11","lat":35.753025,"lon":139.656532},{"name":"区立みんなの広場公園","province":"東京都","city":"練馬区","address":"東京都練馬区石神井町8-41","lat":35.7479365,"lon":139.5986648},{"name":"こども フローラ","province":"東京都","city":"練馬区","address":"東京都練馬区下石神井2丁目35-16","lat":35.72988593,"lon":139.60441153},{"name":"こどもくらぶ　じゃんけんぽん","province":"東京都","city":"練馬区","address":"東京都練馬区西大泉2丁目12-5","lat":35.75634886,"lon":139.57626843},{"name":"明光学童クラブ石神井公園","province":"東京都","city":"練馬区","address":"東京都練馬区石神井町3丁目17-16","lat":35.74267339,"lon":139.60444157},{"name":"石保学童クラブ","province":"東京都","city":"練馬区","address":"東京都練馬区南田中5丁目20-2","lat":35.73699363,"lon":139.60975245},{"name":"colors桜台二丁目学童クラブ","province":"東京都","city":"練馬区","address":"東京都練馬区桜台2丁目46-12","lat":35.74287213,"lon":139.66268387},{"name":"りっこう学童クラブ","province":"東京都","city":"練馬区","address":"東京都練馬区小竹町2丁目43-12","lat":35.74236143,"lon":139.67529388},{"name":"明光学童クラブ南大泉","province":"東京都","city":"練馬区","address":"東京都練馬区南大泉4丁目55-6","lat":35.74803854,"lon":139.56930263},{"name":"キッズボイス中村橋学童クラブ","province":"東京都","city":"練馬区","address":"東京都練馬区中村北4丁目2-6","lat":35.73643334,"lon":139.6376668},{"name":"キッズクラブどろちゃん","province":"東京都","city":"練馬区","address":"東京都練馬区大泉町4丁目29-13","lat":35.76291519,"lon":139.59533607},{"name":"関町南アフタースクール","province":"東京都","city":"練馬区","address":"東京都練馬区関町南4丁目19-6","lat":35.7211805,"lon":139.56939813},{"name":"明光学童クラブ大泉学園","province":"東京都","city":"練馬区","address":"東京都練馬区西大泉1丁目1-16","lat":35.75405218,"lon":139.58389279},{"name":"区立大泉公園内","province":"東京都","city":"練馬区","address":"東京都練馬区大泉学園町6丁目25","lat":35.77187107,"lon":139.5826057},{"name":"区立はやいち公園","province":"東京都","city":"練馬区","address":"東京都練馬区早宮1丁目47","lat":35.75308929,"lon":139.656607},{"name":"区立学田公園内","province":"東京都","city":"練馬区","address":"東京都練馬区豊玉南3丁目32","lat":35.7305802,"lon":139.6491383},{"name":"練馬給水所","province":"東京都","city":"練馬区","address":"東京都練馬区光が丘4丁目1","lat":35.76541945,"lon":139.630839},{"name":"区立みんなの広場公園","province":"東京都","city":"練馬区","address":"東京都練馬区石神井町8丁目41","lat":35.747983,"lon":139.5985335},{"name":"光が丘さくら幼稚園","province":"東京都","city":"練馬区","address":"練馬区光が丘2-4-8-101","lat":35.76267834,"lon":139.6318626},{"name":"光が丘むらさき幼稚園","province":"東京都","city":"練馬区","address":"練馬区光が丘3-3-5-101","lat":35.75592202,"lon":139.6297159},{"name":"北大泉幼稚園","province":"東京都","city":"練馬区","address":"練馬区大泉町2-46-6","lat":35.76292525,"lon":139.6034281},{"name":"練馬区資源循環センター","province":"東京都","city":"練馬区","address":"練馬区谷原1-2-20","lat":35.7484071,"lon":139.62367},{"name":"練馬区","province":"東京都","city":"練馬区","address":"練馬区桜台1-5-4-204","lat":35.73906,"lon":139.6614},{"name":"合計","province":"東京都","city":"練馬区","address":"東京都練馬区大泉学園町7丁目","lat":35.77324394,"lon":139.58840334},{"name":"練馬給水所","province":"東京都","city":"練馬区","address":"東京都練馬区光が丘2-4-1","lat":35.7633861,"lon":139.631914},{"name":"区立大泉公園","province":"東京都","city":"練馬区","address":"東京都練馬区大泉学園町6-25","lat":35.7720555,"lon":139.582711},{"name":"区立学田公園","province":"東京都","city":"練馬区","address":"東京都練馬区豊玉南3-32","lat":35.7305605,"lon":139.6491262},{"name":"区立はやいち公園","province":"東京都","city":"練馬区","address":"東京都練馬区早宮1-47-11","lat":35.753025,"lon":139.656532},{"name":"区立みんなの広場公園","province":"東京都","city":"練馬区","address":"東京都練馬区石神井町8-41","lat":35.7479365,"lon":139.5986648},{"name":"こども フローラ","province":"東京都","city":"練馬区","address":"東京都練馬区下石神井2丁目35-16","lat":35.72988593,"lon":139.60441153},{"name":"こどもくらぶ　じゃんけんぽん","province":"東京都","city":"練馬区","address":"東京都練馬区西大泉2丁目12-5","lat":35.75634886,"lon":139.57626843},{"name":"明光学童クラブ石神井公園","province":"東京都","city":"練馬区","address":"東京都練馬区石神井町3丁目17-16","lat":35.74267339,"lon":139.60444157},{"name":"石保学童クラブ","province":"東京都","city":"練馬区","address":"東京都練馬区南田中5丁目20-2","lat":35.73699363,"lon":139.60975245},{"name":"colors桜台二丁目学童クラブ","province":"東京都","city":"練馬区","address":"東京都練馬区桜台2丁目46-12","lat":35.74287213,"lon":139.66268387},{"name":"りっこう学童クラブ","province":"東京都","city":"練馬区","address":"東京都練馬区小竹町2丁目43-12","lat":35.74236143,"lon":139.67529388},{"name":"明光学童クラブ南大泉","province":"東京都","city":"練馬区","address":"東京都練馬区南大泉4丁目55-6","lat":35.74803854,"lon":139.56930263},{"name":"キッズボイス中村橋学童クラブ","province":"東京都","city":"練馬区","address":"東京都練馬区中村北4丁目2-6","lat":35.73643334,"lon":139.6376668},{"name":"キッズクラブどろちゃん","province":"東京都","city":"練馬区","address":"東京都練馬区大泉町4丁目29-13","lat":35.76291519,"lon":139.59533607},{"name":"関町南アフタースクール","province":"東京都","city":"練馬区","address":"東京都練馬区関町南4丁目19-6","lat":35.7211805,"lon":139.56939813},{"name":"明光学童クラブ大泉学園","province":"東京都","city":"練馬区","address":"東京都練馬区西大泉1丁目1-16","lat":35.75405218,"lon":139.58389279},{"name":"区立大泉公園内","province":"東京都","city":"練馬区","address":"東京都練馬区大泉学園町6丁目25","lat":35.77187107,"lon":139.5826057},{"name":"区立はやいち公園","province":"東京都","city":"練馬区","address":"東京都練馬区早宮1丁目47","lat":35.75308929,"lon":139.656607},{"name":"区立学田公園内","province":"東京都","city":"練馬区","address":"東京都練馬区豊玉南3丁目32","lat":35.7305802,"lon":139.6491383},{"name":"練馬給水所","province":"東京都","city":"練馬区","address":"東京都練馬区光が丘4丁目1","lat":35.76541945,"lon":139.630839},{"name":"区立みんなの広場公園","province":"東京都","city":"練馬区","address":"東京都練馬区石神井町8丁目41","lat":35.747983,"lon":139.5985335},{"name":"光が丘さくら幼稚園","province":"東京都","city":"練馬区","address":"練馬区光が丘2-4-8-101","lat":35.76267834,"lon":139.6318626},{"name":"光が丘むらさき幼稚園","province":"東京都","city":"練馬区","address":"練馬区光が丘3-3-5-101","lat":35.75592202,"lon":139.6297159},{"name":"北大泉幼稚園","province":"東京都","city":"練馬区","address":"練馬区大泉町2-46-6","lat":35.76292525,"lon":139.6034281},{"name":"練馬区資源循環センター","province":"東京都","city":"練馬区","address":"練馬区谷原1-2-20","lat":35.7484071,"lon":139.62367},{"name":"練馬区","province":"東京都","city":"練馬区","address":"練馬区桜台1-5-4-204","lat":35.73906,"lon":139.6614},{"name":"合計","province":"東京都","city":"練馬区","address":"東京都練馬区大泉学園町7丁目","lat":35.77324394,"lon":139.58840334},{"name":"練馬給水所","province":"東京都","city":"練馬区","address":"東京都練馬区光が丘2-4-1","lat":35.7633861,"lon":139.631914},{"name":"区立大泉公園","province":"東京都","city":"練馬区","address":"東京都練馬区大泉学園町6-25","lat":35.7720555,"lon":139.582711},{"name":"区立学田公園","province":"東京都","city":"練馬区","address":"東京都練馬区豊玉南3-32","lat":35.7305605,"lon":139.6491262},{"name":"区立はやいち公園","province":"東京都","city":"練馬区","address":"東京都練馬区早宮1-47-11","lat":35.753025,"lon":139.656532},{"name":"区立みんなの広場公園","province":"東京都","city":"練馬区","address":"東京都練馬区石神井町8-41","lat":35.7479365,"lon":139.5986648},{"name":"こども フローラ","province":"東京都","city":"練馬区","address":"東京都練馬区下石神井2丁目35-16","lat":35.72988593,"lon":139.60441153},{"name":"こどもくらぶ　じゃんけんぽん","province":"東京都","city":"練馬区","address":"東京都練馬区西大泉2丁目12-5","lat":35.75634886,"lon":139.57626843},{"name":"明光学童クラブ石神井公園","province":"東京都","city":"練馬区","address":"東京都練馬区石神井町3丁目17-16","lat":35.74267339,"lon":139.60444157},{"name":"石保学童クラブ","province":"東京都","city":"練馬区","address":"東京都練馬区南田中5丁目20-2","lat":35.73699363,"lon":139.60975245},{"name":"colors桜台二丁目学童クラブ","province":"東京都","city":"練馬区","address":"東京都練馬区桜台2丁目46-12","lat":35.74287213,"lon":139.66268387},{"name":"りっこう学童クラブ","province":"東京都","city":"練馬区","address":"東京都練馬区小竹町2丁目43-12","lat":35.74236143,"lon":139.67529388},{"name":"明光学童クラブ南大泉","province":"東京都","city":"練馬区","address":"東京都練馬区南大泉4丁目55-6","lat":35.74803854,"lon":139.56930263},{"name":"キッズボイス中村橋学童クラブ","province":"東京都","city":"練馬区","address":"東京都練馬区中村北4丁目2-6","lat":35.73643334,"lon":139.6376668},{"name":"キッズクラブどろちゃん","province":"東京都","city":"練馬区","address":"東京都練馬区大泉町4丁目29-13","lat":35.76291519,"lon":139.59533607},{"name":"関町南アフタースクール","province":"東京都","city":"練馬区","address":"東京都練馬区関町南4丁目19-6","lat":35.7211805,"lon":139.56939813},{"name":"明光学童クラブ大泉学園","province":"東京都","city":"練馬区","address":"東京都練馬区西大泉1丁目1-16","lat":35.75405218,"lon":139.58389279},{"name":"区立大泉公園内","province":"東京都","city":"練馬区","address":"東京都練馬区大泉学園町6丁目25","lat":35.77187107,"lon":139.5826057},{"name":"区立はやいち公園","province":"東京都","city":"練馬区","address":"東京都練馬区早宮1丁目47","lat":35.75308929,"lon":139.656607},{"name":"区立学田公園内","province":"東京都","city":"練馬区","address":"東京都練馬区豊玉南3丁目32","lat":35.7305802,"lon":139.6491383},{"name":"練馬給水所","province":"東京都","city":"練馬区","address":"東京都練馬区光が丘4丁目1","lat":35.76541945,"lon":139.630839},{"name":"区立みんなの広場公園","province":"東京都","city":"練馬区","address":"東京都練馬区石神井町8丁目41","lat":35.747983,"lon":139.5985335},{"name":"光が丘さくら幼稚園","province":"東京都","city":"練馬区","address":"練馬区光が丘2-4-8-101","lat":35.76267834,"lon":139.6318626},{"name":"光が丘むらさき幼稚園","province":"東京都","city":"練馬区","address":"練馬区光が丘3-3-5-101","lat":35.75592202,"lon":139.6297159},{"name":"北大泉幼稚園","province":"東京都","city":"練馬区","address":"練馬区大泉町2-46-6","lat":35.76292525,"lon":139.6034281},{"name":"練馬区資源循環センター","province":"東京都","city":"練馬区","address":"練馬区谷原1-2-20","lat":35.7484071,"lon":139.62367},{"name":"練馬区","province":"東京都","city":"練馬区","address":"練馬区桜台1-5-4-204","lat":35.73906,"lon":139.6614},{"name":"合計","province":"東京都","city":"練馬区","address":"東京都練馬区大泉学園町7丁目","lat":35.77324394,"lon":139.58840334},{"name":"練馬給水所","province":"東京都","city":"練馬区","address":"東京都練馬区光が丘2-4-1","lat":35.7633861,"lon":139.631914},{"name":"区立大泉公園","province":"東京都","city":"練馬区","address":"東京都練馬区大泉学園町6-25","lat":35.7720555,"lon":139.582711},{"name":"区立学田公園","province":"東京都","city":"練馬区","address":"東京都練馬区豊玉南3-32","lat":35.7305605,"lon":139.6491262},{"name":"区立はやいち公園","province":"東京都","city":"練馬区","address":"東京都練馬区早宮1-47-11","lat":35.753025,"lon":139.656532},{"name":"区立みんなの広場公園","province":"東京都","city":"練馬区","address":"東京都練馬区石神井町8-41","lat":35.7479365,"lon":139.5986648},{"name":"こども フローラ","province":"東京都","city":"練馬区","address":"東京都練馬区下石神井2丁目35-16","lat":35.72988593,"lon":139.60441153},{"name":"こどもくらぶ　じゃんけんぽん","province":"東京都","city":"練馬区","address":"東京都練馬区西大泉2丁目12-5","lat":35.75634886,"lon":139.57626843},{"name":"明光学童クラブ石神井公園","province":"東京都","city":"練馬区","address":"東京都練馬区石神井町3丁目17-16","lat":35.74267339,"lon":139.60444157},{"name":"石保学童クラブ","province":"東京都","city":"練馬区","address":"東京都練馬区南田中5丁目20-2","lat":35.73699363,"lon":139.60975245},{"name":"colors桜台二丁目学童クラブ","province":"東京都","city":"練馬区","address":"東京都練馬区桜台2丁目46-12","lat":35.74287213,"lon":139.66268387},{"name":"りっこう学童クラブ","province":"東京都","city":"練馬区","address":"東京都練馬区小竹町2丁目43-12","lat":35.74236143,"lon":139.67529388},{"name":"明光学童クラブ南大泉","province":"東京都","city":"練馬区","address":"東京都練馬区南大泉4丁目55-6","lat":35.74803854,"lon":139.56930263},{"name":"キッズボイス中村橋学童クラブ","province":"東京都","city":"練馬区","address":"東京都練馬区中村北4丁目2-6","lat":35.73643334,"lon":139.6376668},{"name":"キッズクラブどろちゃん","province":"東京都","city":"練馬区","address":"東京都練馬区大泉町4丁目29-13","lat":35.76291519,"lon":139.59533607},{"name":"関町南アフタースクール","province":"東京都","city":"練馬区","address":"東京都練馬区関町南4丁目19-6","lat":35.7211805,"lon":139.56939813},{"name":"明光学童クラブ大泉学園","province":"東京都","city":"練馬区","address":"東京都練馬区西大泉1丁目1-16","lat":35.75405218,"lon":139.58389279},{"name":"区立大泉公園内","province":"東京都","city":"練馬区","address":"東京都練馬区大泉学園町6丁目25","lat":35.77187107,"lon":139.5826057},{"name":"区立はやいち公園","province":"東京都","city":"練馬区","address":"東京都練馬区早宮1丁目47","lat":35.75308929,"lon":139.656607},{"name":"区立学田公園内","province":"東京都","city":"練馬区","address":"東京都練馬区豊玉南3丁目32","lat":35.7305802,"lon":139.6491383},{"name":"練馬給水所","province":"東京都","city":"練馬区","address":"東京都練馬区光が丘4丁目1","lat":35.76541945,"lon":139.630839},{"name":"区立みんなの広場公園","province":"東京都","city":"練馬区","address":"東京都練馬区石神井町8丁目41","lat":35.747983,"lon":139.5985335},{"name":"光が丘さくら幼稚園","province":"東京都","city":"練馬区","address":"練馬区光が丘2-4-8-101","lat":35.76267834,"lon":139.6318626},{"name":"光が丘むらさき幼稚園","province":"東京都","city":"練馬区","address":"練馬区光が丘3-3-5-101","lat":35.75592202,"lon":139.6297159},{"name":"北大泉幼稚園","province":"東京都","city":"練馬区","address":"練馬区大泉町2-46-6","lat":35.76292525,"lon":139.6034281},{"name":"練馬区資源循環センター","province":"東京都","city":"練馬区","address":"練馬区谷原1-2-20","lat":35.7484071,"lon":139.62367},{"name":"練馬区","province":"東京都","city":"練馬区","address":"練馬区桜台1-5-4-204","lat":35.73906,"lon":139.6614},{"name":"合計","province":"東京都","city":"練馬区","address":"東京都練馬区大泉学園町7丁目","lat":35.77324394,"lon":139.58840334},{"name":"練馬給水所","province":"東京都","city":"練馬区","address":"東京都練馬区光が丘2-4-1","lat":35.7633861,"lon":139.631914},{"name":"区立大泉公園","province":"東京都","city":"練馬区","address":"東京都練馬区大泉学園町6-25","lat":35.7720555,"lon":139.582711},{"name":"区立学田公園","province":"東京都","city":"練馬区","address":"東京都練馬区豊玉南3-32","lat":35.7305605,"lon":139.6491262},{"name":"区立はやいち公園","province":"東京都","city":"練馬区","address":"東京都練馬区早宮1-47-11","lat":35.753025,"lon":139.656532},{"name":"区立みんなの広場公園","province":"東京都","city":"練馬区","address":"東京都練馬区石神井町8-41","lat":35.7479365,"lon":139.5986648},{"name":"こども フローラ","province":"東京都","city":"練馬区","address":"東京都練馬区下石神井2丁目35-16","lat":35.72988593,"lon":139.60441153},{"name":"こどもくらぶ　じゃんけんぽん","province":"東京都","city":"練馬区","address":"東京都練馬区西大泉2丁目12-5","lat":35.75634886,"lon":139.57626843},{"name":"明光学童クラブ石神井公園","province":"東京都","city":"練馬区","address":"東京都練馬区石神井町3丁目17-16","lat":35.74267339,"lon":139.60444157},{"name":"石保学童クラブ","province":"東京都","city":"練馬区","address":"東京都練馬区南田中5丁目20-2","lat":35.73699363,"lon":139.60975245},{"name":"colors桜台二丁目学童クラブ","province":"東京都","city":"練馬区","address":"東京都練馬区桜台2丁目46-12","lat":35.74287213,"lon":139.66268387},{"name":"りっこう学童クラブ","province":"東京都","city":"練馬区","address":"東京都練馬区小竹町2丁目43-12","lat":35.74236143,"lon":139.67529388},{"name":"明光学童クラブ南大泉","province":"東京都","city":"練馬区","address":"東京都練馬区南大泉4丁目55-6","lat":35.74803854,"lon":139.56930263},{"name":"キッズボイス中村橋学童クラブ","province":"東京都","city":"練馬区","address":"東京都練馬区中村北4丁目2-6","lat":35.73643334,"lon":139.6376668},{"name":"キッズクラブどろちゃん","province":"東京都","city":"練馬区","address":"東京都練馬区大泉町4丁目29-13","lat":35.76291519,"lon":139.59533607},{"name":"関町南アフタースクール","province":"東京都","city":"練馬区","address":"東京都練馬区関町南4丁目19-6","lat":35.7211805,"lon":139.56939813},{"name":"明光学童クラブ大泉学園","province":"東京都","city":"練馬区","address":"東京都練馬区西大泉1丁目1-16","lat":35.75405218,"lon":139.58389279},{"name":"区立大泉公園内","province":"東京都","city":"練馬区","address":"東京都練馬区大泉学園町6丁目25","lat":35.77187107,"lon":139.5826057},{"name":"区立はやいち公園","province":"東京都","city":"練馬区","address":"東京都練馬区早宮1丁目47","lat":35.75308929,"lon":139.656607},{"name":"区立学田公園内","province":"東京都","city":"練馬区","address":"東京都練馬区豊玉南3丁目32","lat":35.7305802,"lon":139.6491383},{"name":"練馬給水所","province":"東京都","city":"練馬区","address":"東京都練馬区光が丘4丁目1","lat":35.76541945,"lon":139.630839},{"name":"区立みんなの広場公園","province":"東京都","city":"練馬区","address":"東京都練馬区石神井町8丁目41","lat":35.747983,"lon":139.5985335},{"name":"光が丘さくら幼稚園","province":"東京都","city":"練馬区","address":"練馬区光が丘2-4-8-101","lat":35.76267834,"lon":139.6318626},{"name":"光が丘むらさき幼稚園","province":"東京都","city":"練馬区","address":"練馬区光が丘3-3-5-101","lat":35.75592202,"lon":139.6297159},{"name":"北大泉幼稚園","province":"東京都","city":"練馬区","address":"練馬区大泉町2-46-6","lat":35.76292525,"lon":139.6034281},{"name":"練馬区資源循環センター","province":"東京都","city":"練馬区","address":"練馬区谷原1-2-20","lat":35.7484071,"lon":139.62367},{"name":"練馬区","province":"東京都","city":"練馬区","address":"練馬区桜台1-5-4-204","lat":35.73906,"lon":139.6614},{"name":"合計","province":"東京都","city":"練馬区","address":"東京都練馬区大泉学園町7丁目","lat":35.77324394,"lon":139.58840334},{"name":"練馬給水所","province":"東京都","city":"練馬区","address":"東京都練馬区光が丘2-4-1","lat":35.7633861,"lon":139.631914},{"name":"区立大泉公園","province":"東京都","city":"練馬区","address":"東京都練馬区大泉学園町6-25","lat":35.7720555,"lon":139.582711},{"name":"区立学田公園","province":"東京都","city":"練馬区","address":"東京都練馬区豊玉南3-32","lat":35.7305605,"lon":139.6491262},{"name":"区立はやいち公園","province":"東京都","city":"練馬区","address":"東京都練馬区早宮1-47-11","lat":35.753025,"lon":139.656532},{"name":"区立みんなの広場公園","province":"東京都","city":"練馬区","address":"東京都練馬区石神井町8-41","lat":35.7479365,"lon":139.5986648},{"name":"こども フローラ","province":"東京都","city":"練馬区","address":"東京都練馬区下石神井2丁目35-16","lat":35.72988593,"lon":139.60441153},{"name":"こどもくらぶ　じゃんけんぽん","province":"東京都","city":"練馬区","address":"東京都練馬区西大泉2丁目12-5","lat":35.75634886,"lon":139.57626843},{"name":"明光学童クラブ石神井公園","province":"東京都","city":"練馬区","address":"東京都練馬区石神井町3丁目17-16","lat":35.74267339,"lon":139.60444157},{"name":"石保学童クラブ","province":"東京都","city":"練馬区","address":"東京都練馬区南田中5丁目20-2","lat":35.73699363,"lon":139.60975245},{"name":"colors桜台二丁目学童クラブ","province":"東京都","city":"練馬区","address":"東京都練馬区桜台2丁目46-12","lat":35.74287213,"lon":139.66268387},{"name":"りっこう学童クラブ","province":"東京都","city":"練馬区","address":"東京都練馬区小竹町2丁目43-12","lat":35.74236143,"lon":139.67529388},{"name":"明光学童クラブ南大泉","province":"東京都","city":"練馬区","address":"東京都練馬区南大泉4丁目55-6","lat":35.74803854,"lon":139.56930263},{"name":"キッズボイス中村橋学童クラブ","province":"東京都","city":"練馬区","address":"東京都練馬区中村北4丁目2-6","lat":35.73643334,"lon":139.6376668},{"name":"キッズクラブどろちゃん","province":"東京都","city":"練馬区","address":"東京都練馬区大泉町4丁目29-13","lat":35.76291519,"lon":139.59533607},{"name":"関町南アフタースクール","province":"東京都","city":"練馬区","address":"東京都練馬区関町南4丁目19-6","lat":35.7211805,"lon":139.56939813},{"name":"明光学童クラブ大泉学園","province":"東京都","city":"練馬区","address":"東京都練馬区西大泉1丁目1-16","lat":35.75405218,"lon":139.58389279},{"name":"区立大泉公園内","province":"東京都","city":"練馬区","address":"東京都練馬区大泉学園町6丁目25","lat":35.77187107,"lon":139.5826057},{"name":"区立はやいち公園","province":"東京都","city":"練馬区","address":"東京都練馬区早宮1丁目47","lat":35.75308929,"lon":139.656607},{"name":"区立学田公園内","province":"東京都","city":"練馬区","address":"東京都練馬区豊玉南3丁目32","lat":35.7305802,"lon":139.6491383},{"name":"練馬給水所","province":"東京都","city":"練馬区","address":"東京都練馬区光が丘4丁目1","lat":35.76541945,"lon":139.630839},{"name":"区立みんなの広場公園","province":"東京都","city":"練馬区","address":"東京都練馬区石神井町8丁目41","lat":35.747983,"lon":139.5985335},{"name":"光が丘さくら幼稚園","province":"東京都","city":"練馬区","address":"練馬区光が丘2-4-8-101","lat":35.76267834,"lon":139.6318626},{"name":"光が丘むらさき幼稚園","province":"東京都","city":"練馬区","address":"練馬区光が丘3-3-5-101","lat":35.75592202,"lon":139.6297159},{"name":"北大泉幼稚園","province":"東京都","city":"練馬区","address":"練馬区大泉町2-46-6","lat":35.76292525,"lon":139.6034281},{"name":"練馬区資源循環センター","province":"東京都","city":"練馬区","address":"練馬区谷原1-2-20","lat":35.7484071,"lon":139.62367},{"name":"練馬区","province":"東京都","city":"練馬区","address":"練馬区桜台1-5-4-204","lat":35.73906,"lon":139.6614},{"name":"合計","province":"東京都","city":"練馬区","address":"東京都練馬区大泉学園町7丁目","lat":35.77324394,"lon":139.58840334},{"name":"練馬給水所","province":"東京都","city":"練馬区","address":"東京都練馬区光が丘2-4-1","lat":35.7633861,"lon":139.631914},{"name":"区立大泉公園","province":"東京都","city":"練馬区","address":"東京都練馬区大泉学園町6-25","lat":35.7720555,"lon":139.582711},{"name":"区立学田公園","province":"東京都","city":"練馬区","address":"東京都練馬区豊玉南3-32","lat":35.7305605,"lon":139.6491262},{"name":"区立はやいち公園","province":"東京都","city":"練馬区","address":"東京都練馬区早宮1-47-11","lat":35.753025,"lon":139.656532},{"name":"区立みんなの広場公園","province":"東京都","city":"練馬区","address":"東京都練馬区石神井町8-41","lat":35.7479365,"lon":139.5986648},{"name":"こども フローラ","province":"東京都","city":"練馬区","address":"東京都練馬区下石神井2丁目35-16","lat":35.72988593,"lon":139.60441153},{"name":"こどもくらぶ　じゃんけんぽん","province":"東京都","city":"練馬区","address":"東京都練馬区西大泉2丁目12-5","lat":35.75634886,"lon":139.57626843},{"name":"明光学童クラブ石神井公園","province":"東京都","city":"練馬区","address":"東京都練馬区石神井町3丁目17-16","lat":35.74267339,"lon":139.60444157},{"name":"石保学童クラブ","province":"東京都","city":"練馬区","address":"東京都練馬区南田中5丁目20-2","lat":35.73699363,"lon":139.60975245},{"name":"colors桜台二丁目学童クラブ","province":"東京都","city":"練馬区","address":"東京都練馬区桜台2丁目46-12","lat":35.74287213,"lon":139.66268387},{"name":"りっこう学童クラブ","province":"東京都","city":"練馬区","address":"東京都練馬区小竹町2丁目43-12","lat":35.74236143,"lon":139.67529388},{"name":"明光学童クラブ南大泉","province":"東京都","city":"練馬区","address":"東京都練馬区南大泉4丁目55-6","lat":35.74803854,"lon":139.56930263},{"name":"キッズボイス中村橋学童クラブ","province":"東京都","city":"練馬区","address":"東京都練馬区中村北4丁目2-6","lat":35.73643334,"lon":139.6376668},{"name":"キッズクラブどろちゃん","province":"東京都","city":"練馬区","address":"東京都練馬区大泉町4丁目29-13","lat":35.76291519,"lon":139.59533607},{"name":"関町南アフタースクール","province":"東京都","city":"練馬区","address":"東京都練馬区関町南4丁目19-6","lat":35.7211805,"lon":139.56939813},{"name":"明光学童クラブ大泉学園","province":"東京都","city":"練馬区","address":"東京都練馬区西大泉1丁目1-16","lat":35.75405218,"lon":139.58389279},{"name":"区立大泉公園内","province":"東京都","city":"練馬区","address":"東京都練馬区大泉学園町6丁目25","lat":35.77187107,"lon":139.5826057},{"name":"区立はやいち公園","province":"東京都","city":"練馬区","address":"東京都練馬区早宮1丁目47","lat":35.75308929,"lon":139.656607},{"name":"区立学田公園内","province":"東京都","city":"練馬区","address":"東京都練馬区豊玉南3丁目32","lat":35.7305802,"lon":139.6491383},{"name":"練馬給水所","province":"東京都","city":"練馬区","address":"東京都練馬区光が丘4丁目1","lat":35.76541945,"lon":139.630839},{"name":"区立みんなの広場公園","province":"東京都","city":"練馬区","address":"東京都練馬区石神井町8丁目41","lat":35.747983,"lon":139.5985335},{"name":"光が丘さくら幼稚園","province":"東京都","city":"練馬区","address":"練馬区光が丘2-4-8-101","lat":35.76267834,"lon":139.6318626},{"name":"光が丘むらさき幼稚園","province":"東京都","city":"練馬区","address":"練馬区光が丘3-3-5-101","lat":35.75592202,"lon":139.6297159},{"name":"北大泉幼稚園","province":"東京都","city":"練馬区","address":"練馬区大泉町2-46-6","lat":35.76292525,"lon":139.6034281},{"name":"練馬区資源循環センター","province":"東京都","city":"練馬区","address":"練馬区谷原1-2-20","lat":35.7484071,"lon":139.62367},{"name":"練馬区","province":"東京都","city":"練馬区","address":"練馬区桜台1-5-4-204","lat":35.73906,"lon":139.6614},{"name":"合計","province":"東京都","city":"練馬区","address":"東京都練馬区大泉学園町7丁目","lat":35.77324394,"lon":139.58840334},{"name":"練馬給水所","province":"東京都","city":"練馬区","address":"東京都練馬区光が丘2-4-1","lat":35.7633861,"lon":139.631914},{"name":"区立大泉公園","province":"東京都","city":"練馬区","address":"東京都練馬区大泉学園町6-25","lat":35.7720555,"lon":139.582711},{"name":"区立学田公園","province":"東京都","city":"練馬区","address":"東京都練馬区豊玉南3-32","lat":35.7305605,"lon":139.6491262},{"name":"区立はやいち公園","province":"東京都","city":"練馬区","address":"東京都練馬区早宮1-47-11","lat":35.753025,"lon":139.656532},{"name":"区立みんなの広場公園","province":"東京都","city":"練馬区","address":"東京都練馬区石神井町8-41","lat":35.7479365,"lon":139.5986648},{"name":"こども フローラ","province":"東京都","city":"練馬区","address":"東京都練馬区下石神井2丁目35-16","lat":35.72988593,"lon":139.60441153},{"name":"こどもくらぶ　じゃんけんぽん","province":"東京都","city":"練馬区","address":"東京都練馬区西大泉2丁目12-5","lat":35.75634886,"lon":139.57626843},{"name":"明光学童クラブ石神井公園","province":"東京都","city":"練馬区","address":"東京都練馬区石神井町3丁目17-16","lat":35.74267339,"lon":139.60444157},{"name":"石保学童クラブ","province":"東京都","city":"練馬区","address":"東京都練馬区南田中5丁目20-2","lat":35.73699363,"lon":139.60975245},{"name":"colors桜台二丁目学童クラブ","province":"東京都","city":"練馬区","address":"東京都練馬区桜台2丁目46-12","lat":35.74287213,"lon":139.66268387},{"name":"りっこう学童クラブ","province":"東京都","city":"練馬区","address":"東京都練馬区小竹町2丁目43-12","lat":35.74236143,"lon":139.67529388},{"name":"明光学童クラブ南大泉","province":"東京都","city":"練馬区","address":"東京都練馬区南大泉4丁目55-6","lat":35.74803854,"lon":139.56930263},{"name":"キッズボイス中村橋学童クラブ","province":"東京都","city":"練馬区","address":"東京都練馬区中村北4丁目2-6","lat":35.73643334,"lon":139.6376668},{"name":"キッズクラブどろちゃん","province":"東京都","city":"練馬区","address":"東京都練馬区大泉町4丁目29-13","lat":35.76291519,"lon":139.59533607},{"name":"関町南アフタースクール","province":"東京都","city":"練馬区","address":"東京都練馬区関町南4丁目19-6","lat":35.7211805,"lon":139.56939813},{"name":"明光学童クラブ大泉学園","province":"東京都","city":"練馬区","address":"東京都練馬区西大泉1丁目1-16","lat":35.75405218,"lon":139.58389279},{"name":"区立大泉公園内","province":"東京都","city":"練馬区","address":"東京都練馬区大泉学園町6丁目25","lat":35.77187107,"lon":139.5826057},{"name":"区立はやいち公園","province":"東京都","city":"練馬区","address":"東京都練馬区早宮1丁目47","lat":35.75308929,"lon":139.656607},{"name":"区立学田公園内","province":"東京都","city":"練馬区","address":"東京都練馬区豊玉南3丁目32","lat":35.7305802,"lon":139.6491383},{"name":"練馬給水所","province":"東京都","city":"練馬区","address":"東京都練馬区光が丘4丁目1","lat":35.76541945,"lon":139.630839},{"name":"区立みんなの広場公園","province":"東京都","city":"練馬区","address":"東京都練馬区石神井町8丁目41","lat":35.747983,"lon":139.5985335},{"name":"光が丘さくら幼稚園","province":"東京都","city":"練馬区","address":"練馬区光が丘2-4-8-101","lat":35.76267834,"lon":139.6318626},{"name":"光が丘むらさき幼稚園","province":"東京都","city":"練馬区","address":"練馬区光が丘3-3-5-101","lat":35.75592202,"lon":139.6297159},{"name":"北大泉幼稚園","province":"東京都","city":"練馬区","address":"練馬区大泉町2-46-6","lat":35.76292525,"lon":139.6034281},{"name":"練馬区資源循環センター","province":"東京都","city":"練馬区","address":"練馬区谷原1-2-20","lat":35.7484071,"lon":139.62367},{"name":"練馬区","province":"東京都","city":"練馬区","address":"練馬区桜台1-5-4-204","lat":35.73906,"lon":139.6614},{"name":"合計","province":"東京都","city":"練馬区","address":"東京都練馬区大泉学園町7丁目","lat":35.77324394,"lon":139.58840334},{"name":"練馬給水所","province":"東京都","city":"練馬区","address":"東京都練馬区光が丘2-4-1","lat":35.7633861,"lon":139.631914},{"name":"区立大泉公園","province":"東京都","city":"練馬区","address":"東京都練馬区大泉学園町6-25","lat":35.7720555,"lon":139.582711},{"name":"区立学田公園","province":"東京都","city":"練馬区","address":"東京都練馬区豊玉南3-32","lat":35.7305605,"lon":139.6491262},{"name":"区立はやいち公園","province":"東京都","city":"練馬区","address":"東京都練馬区早宮1-47-11","lat":35.753025,"lon":139.656532},{"name":"区立みんなの広場公園","province":"東京都","city":"練馬区","address":"東京都練馬区石神井町8-41","lat":35.7479365,"lon":139.5986648},{"name":"こども フローラ","province":"東京都","city":"練馬区","address":"東京都練馬区下石神井2丁目35-16","lat":35.72988593,"lon":139.60441153},{"name":"こどもくらぶ　じゃんけんぽん","province":"東京都","city":"練馬区","address":"東京都練馬区西大泉2丁目12-5","lat":35.75634886,"lon":139.57626843},{"name":"明光学童クラブ石神井公園","province":"東京都","city":"練馬区","address":"東京都練馬区石神井町3丁目17-16","lat":35.74267339,"lon":139.60444157},{"name":"石保学童クラブ","province":"東京都","city":"練馬区","address":"東京都練馬区南田中5丁目20-2","lat":35.73699363,"lon":139.60975245},{"name":"colors桜台二丁目学童クラブ","province":"東京都","city":"練馬区","address":"東京都練馬区桜台2丁目46-12","lat":35.74287213,"lon":139.66268387},{"name":"りっこう学童クラブ","province":"東京都","city":"練馬区","address":"東京都練馬区小竹町2丁目43-12","lat":35.74236143,"lon":139.67529388},{"name":"明光学童クラブ南大泉","province":"東京都","city":"練馬区","address":"東京都練馬区南大泉4丁目55-6","lat":35.74803854,"lon":139.56930263},{"name":"キッズボイス中村橋学童クラブ","province":"東京都","city":"練馬区","address":"東京都練馬区中村北4丁目2-6","lat":35.73643334,"lon":139.6376668},{"name":"キッズクラブどろちゃん","province":"東京都","city":"練馬区","address":"東京都練馬区大泉町4丁目29-13","lat":35.76291519,"lon":139.59533607},{"name":"関町南アフタースクール","province":"東京都","city":"練馬区","address":"東京都練馬区関町南4丁目19-6","lat":35.7211805,"lon":139.56939813},{"name":"明光学童クラブ大泉学園","province":"東京都","city":"練馬区","address":"東京都練馬区西大泉1丁目1-16","lat":35.75405218,"lon":139.58389279},{"name":"区立大泉公園内","province":"東京都","city":"練馬区","address":"東京都練馬区大泉学園町6丁目25","lat":35.77187107,"lon":139.5826057},{"name":"区立はやいち公園","province":"東京都","city":"練馬区","address":"東京都練馬区早宮1丁目47","lat":35.75308929,"lon":139.656607},{"name":"区立学田公園内","province":"東京都","city":"練馬区","address":"東京都練馬区豊玉南3丁目32","lat":35.7305802,"lon":139.6491383},{"name":"練馬給水所","province":"東京都","city":"練馬区","address":"東京都練馬区光が丘4丁目1","lat":35.76541945,"lon":139.630839},{"name":"区立みんなの広場公園","province":"東京都","city":"練馬区","address":"東京都練馬区石神井町8丁目41","lat":35.747983,"lon":139.5985335},{"name":"光が丘さくら幼稚園","province":"東京都","city":"練馬区","address":"練馬区光が丘2-4-8-101","lat":35.76267834,"lon":139.6318626},{"name":"光が丘むらさき幼稚園","province":"東京都","city":"練馬区","address":"練馬区光が丘3-3-5-101","lat":35.75592202,"lon":139.6297159},{"name":"北大泉幼稚園","province":"東京都","city":"練馬区","address":"練馬区大泉町2-46-6","lat":35.76292525,"lon":139.6034281},{"name":"練馬区資源循環センター","province":"東京都","city":"練馬区","address":"練馬区谷原1-2-20","lat":35.7484071,"lon":139.62367},{"name":"練馬区","province":"東京都","city":"練馬区","address":"練馬区桜台1-5-4-204","lat":35.73906,"lon":139.6614},{"name":"合計","province":"東京都","city":"練馬区","address":"東京都練馬区大泉学園町7丁目","lat":35.77324394,"lon":139.58840334},{"name":"練馬給水所","province":"東京都","city":"練馬区","address":"東京都練馬区光が丘2-4-1","lat":35.7633861,"lon":139.631914},{"name":"区立大泉公園","province":"東京都","city":"練馬区","address":"東京都練馬区大泉学園町6-25","lat":35.7720555,"lon":139.582711},{"name":"区立学田公園","province":"東京都","city":"練馬区","address":"東京都練馬区豊玉南3-32","lat":35.7305605,"lon":139.6491262},{"name":"区立はやいち公園","province":"東京都","city":"練馬区","address":"東京都練馬区早宮1-47-11","lat":35.753025,"lon":139.656532},{"name":"区立みんなの広場公園","province":"東京都","city":"練馬区","address":"東京都練馬区石神井町8-41","lat":35.7479365,"lon":139.5986648},{"name":"こども フローラ","province":"東京都","city":"練馬区","address":"東京都練馬区下石神井2丁目35-16","lat":35.72988593,"lon":139.60441153},{"name":"こどもくらぶ　じゃんけんぽん","province":"東京都","city":"練馬区","address":"東京都練馬区西大泉2丁目12-5","lat":35.75634886,"lon":139.57626843},{"name":"明光学童クラブ石神井公園","province":"東京都","city":"練馬区","address":"東京都練馬区石神井町3丁目17-16","lat":35.74267339,"lon":139.60444157},{"name":"石保学童クラブ","province":"東京都","city":"練馬区","address":"東京都練馬区南田中5丁目20-2","lat":35.73699363,"lon":139.60975245},{"name":"colors桜台二丁目学童クラブ","province":"東京都","city":"練馬区","address":"東京都練馬区桜台2丁目46-12","lat":35.74287213,"lon":139.66268387},{"name":"りっこう学童クラブ","province":"東京都","city":"練馬区","address":"東京都練馬区小竹町2丁目43-12","lat":35.74236143,"lon":139.67529388},{"name":"明光学童クラブ南大泉","province":"東京都","city":"練馬区","address":"東京都練馬区南大泉4丁目55-6","lat":35.74803854,"lon":139.56930263},{"name":"キッズボイス中村橋学童クラブ","province":"東京都","city":"練馬区","address":"東京都練馬区中村北4丁目2-6","lat":35.73643334,"lon":139.6376668},{"name":"キッズクラブどろちゃん","province":"東京都","city":"練馬区","address":"東京都練馬区大泉町4丁目29-13","lat":35.76291519,"lon":139.59533607},{"name":"関町南アフタースクール","province":"東京都","city":"練馬区","address":"東京都練馬区関町南4丁目19-6","lat":35.7211805,"lon":139.56939813},{"name":"明光学童クラブ大泉学園","province":"東京都","city":"練馬区","address":"東京都練馬区西大泉1丁目1-16","lat":35.75405218,"lon":139.58389279},{"name":"区立大泉公園内","province":"東京都","city":"練馬区","address":"東京都練馬区大泉学園町6丁目25","lat":35.77187107,"lon":139.5826057},{"name":"区立はやいち公園","province":"東京都","city":"練馬区","address":"東京都練馬区早宮1丁目47","lat":35.75308929,"lon":139.656607},{"name":"区立学田公園内","province":"東京都","city":"練馬区","address":"東京都練馬区豊玉南3丁目32","lat":35.7305802,"lon":139.6491383},{"name":"練馬給水所","province":"東京都","city":"練馬区","address":"東京都練馬区光が丘4丁目1","lat":35.76541945,"lon":139.630839},{"name":"区立みんなの広場公園","province":"東京都","city":"練馬区","address":"東京都練馬区石神井町8丁目41","lat":35.747983,"lon":139.5985335},{"name":"光が丘さくら幼稚園","province":"東京都","city":"練馬区","address":"練馬区光が丘2-4-8-101","lat":35.76267834,"lon":139.6318626},{"name":"光が丘むらさき幼稚園","province":"東京都","city":"練馬区","address":"練馬区光が丘3-3-5-101","lat":35.75592202,"lon":139.6297159},{"name":"北大泉幼稚園","province":"東京都","city":"練馬区","address":"練馬区大泉町2-46-6","lat":35.76292525,"lon":139.6034281},{"name":"練馬区資源循環センター","province":"東京都","city":"練馬区","address":"練馬区谷原1-2-20","lat":35.7484071,"lon":139.62367},{"name":"練馬区","province":"東京都","city":"練馬区","address":"練馬区桜台1-5-4-204","lat":35.73906,"lon":139.6614},{"name":"合計","province":"東京都","city":"練馬区","address":"東京都練馬区大泉学園町7丁目","lat":35.77324394,"lon":139.58840334},{"name":"練馬給水所","province":"東京都","city":"練馬区","address":"東京都練馬区光が丘2-4-1","lat":35.7633861,"lon":139.631914},{"name":"区立大泉公園","province":"東京都","city":"練馬区","address":"東京都練馬区大泉学園町6-25","lat":35.7720555,"lon":139.582711},{"name":"区立学田公園","province":"東京都","city":"練馬区","address":"東京都練馬区豊玉南3-32","lat":35.7305605,"lon":139.6491262},{"name":"区立はやいち公園","province":"東京都","city":"練馬区","address":"東京都練馬区早宮1-47-11","lat":35.753025,"lon":139.656532},{"name":"区立みんなの広場公園","province":"東京都","city":"練馬区","address":"東京都練馬区石神井町8-41","lat":35.7479365,"lon":139.5986648},{"name":"こども フローラ","province":"東京都","city":"練馬区","address":"東京都練馬区下石神井2丁目35-16","lat":35.72988593,"lon":139.60441153},{"name":"こどもくらぶ　じゃんけんぽん","province":"東京都","city":"練馬区","address":"東京都練馬区西大泉2丁目12-5","lat":35.75634886,"lon":139.57626843},{"name":"明光学童クラブ石神井公園","province":"東京都","city":"練馬区","address":"東京都練馬区石神井町3丁目17-16","lat":35.74267339,"lon":139.60444157},{"name":"石保学童クラブ","province":"東京都","city":"練馬区","address":"東京都練馬区南田中5丁目20-2","lat":35.73699363,"lon":139.60975245},{"name":"colors桜台二丁目学童クラブ","province":"東京都","city":"練馬区","address":"東京都練馬区桜台2丁目46-12","lat":35.74287213,"lon":139.66268387},{"name":"りっこう学童クラブ","province":"東京都","city":"練馬区","address":"東京都練馬区小竹町2丁目43-12","lat":35.74236143,"lon":139.67529388},{"name":"明光学童クラブ南大泉","province":"東京都","city":"練馬区","address":"東京都練馬区南大泉4丁目55-6","lat":35.74803854,"lon":139.56930263},{"name":"キッズボイス中村橋学童クラブ","province":"東京都","city":"練馬区","address":"東京都練馬区中村北4丁目2-6","lat":35.73643334,"lon":139.6376668},{"name":"キッズクラブどろちゃん","province":"東京都","city":"練馬区","address":"東京都練馬区大泉町4丁目29-13","lat":35.76291519,"lon":139.59533607},{"name":"関町南アフタースクール","province":"東京都","city":"練馬区","address":"東京都練馬区関町南4丁目19-6","lat":35.7211805,"lon":139.56939813},{"name":"明光学童クラブ大泉学園","province":"東京都","city":"練馬区","address":"東京都練馬区西大泉1丁目1-16","lat":35.75405218,"lon":139.58389279},{"name":"区立大泉公園内","province":"東京都","city":"練馬区","address":"東京都練馬区大泉学園町6丁目25","lat":35.77187107,"lon":139.5826057},{"name":"区立はやいち公園","province":"東京都","city":"練馬区","address":"東京都練馬区早宮1丁目47","lat":35.75308929,"lon":139.656607},{"name":"区立学田公園内","province":"東京都","city":"練馬区","address":"東京都練馬区豊玉南3丁目32","lat":35.7305802,"lon":139.6491383},{"name":"練馬給水所","province":"東京都","city":"練馬区","address":"東京都練馬区光が丘4丁目1","lat":35.76541945,"lon":139.630839},{"name":"区立みんなの広場公園","province":"東京都","city":"練馬区","address":"東京都練馬区石神井町8丁目41","lat":35.747983,"lon":139.5985335},{"name":"光が丘さくら幼稚園","province":"東京都","city":"練馬区","address":"練馬区光が丘2-4-8-101","lat":35.76267834,"lon":139.6318626},{"name":"光が丘むらさき幼稚園","province":"東京都","city":"練馬区","address":"練馬区光が丘3-3-5-101","lat":35.75592202,"lon":139.6297159},{"name":"北大泉幼稚園","province":"東京都","city":"練馬区","address":"練馬区大泉町2-46-6","lat":35.76292525,"lon":139.6034281},{"name":"練馬区資源循環センター","province":"東京都","city":"練馬区","address":"練馬区谷原1-2-20","lat":35.7484071,"lon":139.62367},{"name":"練馬区","province":"東京都","city":"練馬区","address":"練馬区桜台1-5-4-204","lat":35.73906,"lon":139.6614},{"name":"合計","province":"東京都","city":"練馬区","address":"東京都練馬区大泉学園町7丁目","lat":35.77324394,"lon":139.58840334},{"name":"練馬給水所","province":"東京都","city":"練馬区","address":"東京都練馬区光が丘2-4-1","lat":35.7633861,"lon":139.631914},{"name":"区立大泉公園","province":"東京都","city":"練馬区","address":"東京都練馬区大泉学園町6-25","lat":35.7720555,"lon":139.582711},{"name":"区立学田公園","province":"東京都","city":"練馬区","address":"東京都練馬区豊玉南3-32","lat":35.7305605,"lon":139.6491262},{"name":"区立はやいち公園","province":"東京都","city":"練馬区","address":"東京都練馬区早宮1-47-11","lat":35.753025,"lon":139.656532},{"name":"区立みんなの広場公園","province":"東京都","city":"練馬区","address":"東京都練馬区石神井町8-41","lat":35.7479365,"lon":139.5986648},{"name":"こども フローラ","province":"東京都","city":"練馬区","address":"東京都練馬区下石神井2丁目35-16","lat":35.72988593,"lon":139.60441153},{"name":"こどもくらぶ　じゃんけんぽん","province":"東京都","city":"練馬区","address":"東京都練馬区西大泉2丁目12-5","lat":35.75634886,"lon":139.57626843},{"name":"明光学童クラブ石神井公園","province":"東京都","city":"練馬区","address":"東京都練馬区石神井町3丁目17-16","lat":35.74267339,"lon":139.60444157},{"name":"石保学童クラブ","province":"東京都","city":"練馬区","address":"東京都練馬区南田中5丁目20-2","lat":35.73699363,"lon":139.60975245},{"name":"colors桜台二丁目学童クラブ","province":"東京都","city":"練馬区","address":"東京都練馬区桜台2丁目46-12","lat":35.74287213,"lon":139.66268387},{"name":"りっこう学童クラブ","province":"東京都","city":"練馬区","address":"東京都練馬区小竹町2丁目43-12","lat":35.74236143,"lon":139.67529388},{"name":"明光学童クラブ南大泉","province":"東京都","city":"練馬区","address":"東京都練馬区南大泉4丁目55-6","lat":35.74803854,"lon":139.56930263},{"name":"キッズボイス中村橋学童クラブ","province":"東京都","city":"練馬区","address":"東京都練馬区中村北4丁目2-6","lat":35.73643334,"lon":139.6376668},{"name":"キッズクラブどろちゃん","province":"東京都","city":"練馬区","address":"東京都練馬区大泉町4丁目29-13","lat":35.76291519,"lon":139.59533607},{"name":"関町南アフタースクール","province":"東京都","city":"練馬区","address":"東京都練馬区関町南4丁目19-6","lat":35.7211805,"lon":139.56939813},{"name":"明光学童クラブ大泉学園","province":"東京都","city":"練馬区","address":"東京都練馬区西大泉1丁目1-16","lat":35.75405218,"lon":139.58389279},{"name":"区立大泉公園内","province":"東京都","city":"練馬区","address":"東京都練馬区大泉学園町6丁目25","lat":35.77187107,"lon":139.5826057},{"name":"区立はやいち公園","province":"東京都","city":"練馬区","address":"東京都練馬区早宮1丁目47","lat":35.75308929,"lon":139.656607},{"name":"区立学田公園内","province":"東京都","city":"練馬区","address":"東京都練馬区豊玉南3丁目32","lat":35.7305802,"lon":139.6491383},{"name":"練馬給水所","province":"東京都","city":"練馬区","address":"東京都練馬区光が丘4丁目1","lat":35.76541945,"lon":139.630839},{"name":"区立みんなの広場公園","province":"東京都","city":"練馬区","address":"東京都練馬区石神井町8丁目41","lat":35.747983,"lon":139.5985335},{"name":"光が丘さくら幼稚園","province":"東京都","city":"練馬区","address":"練馬区光が丘2-4-8-101","lat":35.76267834,"lon":139.6318626},{"name":"光が丘むらさき幼稚園","province":"東京都","city":"練馬区","address":"練馬区光が丘3-3-5-101","lat":35.75592202,"lon":139.6297159},{"name":"北大泉幼稚園","province":"東京都","city":"練馬区","address":"練馬区大泉町2-46-6","lat":35.76292525,"lon":139.6034281},{"name":"練馬区","province":"東京都","city":"練馬区","address":"練馬区桜台1-5-4-204","lat":35.73906,"lon":139.6614},{"name":"合計","province":"東京都","city":"練馬区","address":"東京都練馬区大泉学園町7丁目","lat":35.77324394,"lon":139.58840334},{"name":"練馬給水所","province":"東京都","city":"練馬区","address":"東京都練馬区光が丘2-4-1","lat":35.7633861,"lon":139.631914},{"name":"区立大泉公園","province":"東京都","city":"練馬区","address":"東京都練馬区大泉学園町6-25","lat":35.7720555,"lon":139.582711},{"name":"区立学田公園","province":"東京都","city":"練馬区","address":"東京都練馬区豊玉南3-32","lat":35.7305605,"lon":139.6491262},{"name":"区立はやいち公園","province":"東京都","city":"練馬区","address":"東京都練馬区早宮1-47-11","lat":35.753025,"lon":139.656532},{"name":"区立みんなの広場公園","province":"東京都","city":"練馬区","address":"東京都練馬区石神井町8-41","lat":35.7479365,"lon":139.5986648},{"name":"こども フローラ","province":"東京都","city":"練馬区","address":"東京都練馬区下石神井2丁目35-16","lat":35.72988593,"lon":139.60441153},{"name":"こどもくらぶ　じゃんけんぽん","province":"東京都","city":"練馬区","address":"東京都練馬区西大泉2丁目12-5","lat":35.75634886,"lon":139.57626843},{"name":"明光学童クラブ石神井公園","province":"東京都","city":"練馬区","address":"東京都練馬区石神井町3丁目17-16","lat":35.74267339,"lon":139.60444157},{"name":"石保学童クラブ","province":"東京都","city":"練馬区","address":"東京都練馬区南田中5丁目20-2","lat":35.73699363,"lon":139.60975245},{"name":"colors桜台二丁目学童クラブ","province":"東京都","city":"練馬区","address":"東京都練馬区桜台2丁目46-12","lat":35.74287213,"lon":139.66268387},{"name":"りっこう学童クラブ","province":"東京都","city":"練馬区","address":"東京都練馬区小竹町2丁目43-12","lat":35.74236143,"lon":139.67529388},{"name":"明光学童クラブ南大泉","province":"東京都","city":"練馬区","address":"東京都練馬区南大泉4丁目55-6","lat":35.74803854,"lon":139.56930263},{"name":"キッズボイス中村橋学童クラブ","province":"東京都","city":"練馬区","address":"東京都練馬区中村北4丁目2-6","lat":35.73643334,"lon":139.6376668},{"name":"キッズクラブどろちゃん","province":"東京都","city":"練馬区","address":"東京都練馬区大泉町4丁目29-13","lat":35.76291519,"lon":139.59533607},{"name":"関町南アフタースクール","province":"東京都","city":"練馬区","address":"東京都練馬区関町南4丁目19-6","lat":35.7211805,"lon":139.56939813},{"name":"明光学童クラブ大泉学園","province":"東京都","city":"練馬区","address":"東京都練馬区西大泉1丁目1-16","lat":35.75405218,"lon":139.58389279},{"name":"区立大泉公園内","province":"東京都","city":"練馬区","address":"東京都練馬区大泉学園町6丁目25","lat":35.77187107,"lon":139.5826057},{"name":"区立はやいち公園","province":"東京都","city":"練馬区","address":"東京都練馬区早宮1丁目47","lat":35.75308929,"lon":139.656607},{"name":"区立学田公園内","province":"東京都","city":"練馬区","address":"東京都練馬区豊玉南3丁目32","lat":35.7305802,"lon":139.6491383},{"name":"練馬給水所","province":"東京都","city":"練馬区","address":"東京都練馬区光が丘4丁目1","lat":35.76541945,"lon":139.630839},{"name":"区立みんなの広場公園","province":"東京都","city":"練馬区","address":"東京都練馬区石神井町8丁目41","lat":35.747983,"lon":139.5985335},{"name":"光が丘さくら幼稚園","province":"東京都","city":"練馬区","address":"練馬区光が丘2-4-8-101","lat":35.76267834,"lon":139.6318626},{"name":"光が丘むらさき幼稚園","province":"東京都","city":"練馬区","address":"練馬区光が丘3-3-5-101","lat":35.75592202,"lon":139.6297159},{"name":"北大泉幼稚園","province":"東京都","city":"練馬区","address":"練馬区大泉町2-46-6","lat":35.76292525,"lon":139.6034281},{"name":"練馬区","province":"東京都","city":"練馬区","address":"練馬区桜台1-5-4-204","lat":35.73906,"lon":139.6614},{"name":"合計","province":"東京都","city":"練馬区","address":"東京都練馬区大泉学園町7丁目","lat":35.77324394,"lon":139.58840334},{"name":"練馬給水所","province":"東京都","city":"練馬区","address":"東京都練馬区光が丘2-4-1","lat":35.7633861,"lon":139.631914},{"name":"区立大泉公園","province":"東京都","city":"練馬区","address":"東京都練馬区大泉学園町6-25","lat":35.7720555,"lon":139.582711},{"name":"区立学田公園","province":"東京都","city":"練馬区","address":"東京都練馬区豊玉南3-32","lat":35.7305605,"lon":139.6491262},{"name":"区立はやいち公園","province":"東京都","city":"練馬区","address":"東京都練馬区早宮1-47-11","lat":35.753025,"lon":139.656532},{"name":"区立みんなの広場公園","province":"東京都","city":"練馬区","address":"東京都練馬区石神井町8-41","lat":35.7479365,"lon":139.5986648},{"name":"こども フローラ","province":"東京都","city":"練馬区","address":"東京都練馬区下石神井2丁目35-16","lat":35.72988593,"lon":139.60441153},{"name":"こどもくらぶ　じゃんけんぽん","province":"東京都","city":"練馬区","address":"東京都練馬区西大泉2丁目12-5","lat":35.75634886,"lon":139.57626843},{"name":"明光学童クラブ石神井公園","province":"東京都","city":"練馬区","address":"東京都練馬区石神井町3丁目17-16","lat":35.74267339,"lon":139.60444157},{"name":"石保学童クラブ","province":"東京都","city":"練馬区","address":"東京都練馬区南田中5丁目20-2","lat":35.73699363,"lon":139.60975245},{"name":"colors桜台二丁目学童クラブ","province":"東京都","city":"練馬区","address":"東京都練馬区桜台2丁目46-12","lat":35.74287213,"lon":139.66268387},{"name":"りっこう学童クラブ","province":"東京都","city":"練馬区","address":"東京都練馬区小竹町2丁目43-12","lat":35.74236143,"lon":139.67529388},{"name":"明光学童クラブ南大泉","province":"東京都","city":"練馬区","address":"東京都練馬区南大泉4丁目55-6","lat":35.74803854,"lon":139.56930263},{"name":"キッズボイス中村橋学童クラブ","province":"東京都","city":"練馬区","address":"東京都練馬区中村北4丁目2-6","lat":35.73643334,"lon":139.6376668},{"name":"キッズクラブどろちゃん","province":"東京都","city":"練馬区","address":"東京都練馬区大泉町4丁目29-13","lat":35.76291519,"lon":139.59533607},{"name":"関町南アフタースクール","province":"東京都","city":"練馬区","address":"東京都練馬区関町南4丁目19-6","lat":35.7211805,"lon":139.56939813},{"name":"明光学童クラブ大泉学園","province":"東京都","city":"練馬区","address":"東京都練馬区西大泉1丁目1-16","lat":35.75405218,"lon":139.58389279},{"name":"区立大泉公園内","province":"東京都","city":"練馬区","address":"東京都練馬区大泉学園町6丁目25","lat":35.77187107,"lon":139.5826057},{"name":"区立はやいち公園","province":"東京都","city":"練馬区","address":"東京都練馬区早宮1丁目47","lat":35.75308929,"lon":139.656607},{"name":"区立学田公園内","province":"東京都","city":"練馬区","address":"東京都練馬区豊玉南3丁目32","lat":35.7305802,"lon":139.6491383},{"name":"練馬給水所","province":"東京都","city":"練馬区","address":"東京都練馬区光が丘4丁目1","lat":35.76541945,"lon":139.630839},{"name":"区立みんなの広場公園","province":"東京都","city":"練馬区","address":"東京都練馬区石神井町8丁目41","lat":35.747983,"lon":139.5985335},{"name":"光が丘さくら幼稚園","province":"東京都","city":"練馬区","address":"練馬区光が丘2-4-8-101","lat":35.76267834,"lon":139.6318626},{"name":"光が丘むらさき幼稚園","province":"東京都","city":"練馬区","address":"練馬区光が丘3-3-5-101","lat":35.75592202,"lon":139.6297159},{"name":"北大泉幼稚園","province":"東京都","city":"練馬区","address":"練馬区大泉町2-46-6","lat":35.76292525,"lon":139.6034281},{"name":"練馬区","province":"東京都","city":"練馬区","address":"練馬区桜台1-5-4-204","lat":35.73906,"lon":139.6614},{"name":"合計","province":"東京都","city":"練馬区","address":"東京都練馬区大泉学園町7丁目","lat":35.77324394,"lon":139.58840334},{"name":"練馬給水所","province":"東京都","city":"練馬区","address":"東京都練馬区光が丘2-4-1","lat":35.7633861,"lon":139.631914},{"name":"区立大泉公園","province":"東京都","city":"練馬区","address":"東京都練馬区大泉学園町6-25","lat":35.7720555,"lon":139.582711},{"name":"区立学田公園","province":"東京都","city":"練馬区","address":"東京都練馬区豊玉南3-32","lat":35.7305605,"lon":139.6491262},{"name":"区立はやいち公園","province":"東京都","city":"練馬区","address":"東京都練馬区早宮1-47-11","lat":35.753025,"lon":139.656532},{"name":"区立みんなの広場公園","province":"東京都","city":"練馬区","address":"東京都練馬区石神井町8-41","lat":35.7479365,"lon":139.5986648},{"name":"こども フローラ","province":"東京都","city":"練馬区","address":"東京都練馬区下石神井2丁目35-16","lat":35.72988593,"lon":139.60441153},{"name":"こどもくらぶ　じゃんけんぽん","province":"東京都","city":"練馬区","address":"東京都練馬区西大泉2丁目12-5","lat":35.75634886,"lon":139.57626843},{"name":"明光学童クラブ石神井公園","province":"東京都","city":"練馬区","address":"東京都練馬区石神井町3丁目17-16","lat":35.74267339,"lon":139.60444157},{"name":"石保学童クラブ","province":"東京都","city":"練馬区","address":"東京都練馬区南田中5丁目20-2","lat":35.73699363,"lon":139.60975245},{"name":"colors桜台二丁目学童クラブ","province":"東京都","city":"練馬区","address":"東京都練馬区桜台2丁目46-12","lat":35.74287213,"lon":139.66268387},{"name":"りっこう学童クラブ","province":"東京都","city":"練馬区","address":"東京都練馬区小竹町2丁目43-12","lat":35.74236143,"lon":139.67529388},{"name":"明光学童クラブ南大泉","province":"東京都","city":"練馬区","address":"東京都練馬区南大泉4丁目55-6","lat":35.74803854,"lon":139.56930263},{"name":"キッズボイス中村橋学童クラブ","province":"東京都","city":"練馬区","address":"東京都練馬区中村北4丁目2-6","lat":35.73643334,"lon":139.6376668},{"name":"キッズクラブどろちゃん","province":"東京都","city":"練馬区","address":"東京都練馬区大泉町4丁目29-13","lat":35.76291519,"lon":139.59533607},{"name":"関町南アフタースクール","province":"東京都","city":"練馬区","address":"東京都練馬区関町南4丁目19-6","lat":35.7211805,"lon":139.56939813},{"name":"明光学童クラブ大泉学園","province":"東京都","city":"練馬区","address":"東京都練馬区西大泉1丁目1-16","lat":35.75405218,"lon":139.58389279},{"name":"区立大泉公園内","province":"東京都","city":"練馬区","address":"東京都練馬区大泉学園町6丁目25","lat":35.77187107,"lon":139.5826057},{"name":"区立はやいち公園","province":"東京都","city":"練馬区","address":"東京都練馬区早宮1丁目47","lat":35.75308929,"lon":139.656607},{"name":"区立学田公園内","province":"東京都","city":"練馬区","address":"東京都練馬区豊玉南3丁目32","lat":35.7305802,"lon":139.6491383},{"name":"練馬給水所","province":"東京都","city":"練馬区","address":"東京都練馬区光が丘4丁目1","lat":35.76541945,"lon":139.630839},{"name":"区立みんなの広場公園","province":"東京都","city":"練馬区","address":"東京都練馬区石神井町8丁目41","lat":35.747983,"lon":139.5985335},{"name":"光が丘さくら幼稚園","province":"東京都","city":"練馬区","address":"練馬区光が丘2-4-8-101","lat":35.76267834,"lon":139.6318626},{"name":"光が丘むらさき幼稚園","province":"東京都","city":"練馬区","address":"練馬区光が丘3-3-5-101","lat":35.75592202,"lon":139.6297159},{"name":"北大泉幼稚園","province":"東京都","city":"練馬区","address":"練馬区大泉町2-46-6","lat":35.76292525,"lon":139.6034281},{"name":"練馬区","province":"東京都","city":"練馬区","address":"練馬区桜台1-5-4-204","lat":35.73906,"lon":139.6614},{"name":"合計","province":"東京都","city":"練馬区","address":"東京都練馬区大泉学園町7丁目","lat":35.77324394,"lon":139.58840334},{"name":"練馬給水所","province":"東京都","city":"練馬区","address":"東京都練馬区光が丘2-4-1","lat":35.7633861,"lon":139.631914},{"name":"区立大泉公園","province":"東京都","city":"練馬区","address":"東京都練馬区大泉学園町6-25","lat":35.7720555,"lon":139.582711},{"name":"区立学田公園","province":"東京都","city":"練馬区","address":"東京都練馬区豊玉南3-32","lat":35.7305605,"lon":139.6491262},{"name":"区立はやいち公園","province":"東京都","city":"練馬区","address":"東京都練馬区早宮1-47-11","lat":35.753025,"lon":139.656532},{"name":"区立みんなの広場公園","province":"東京都","city":"練馬区","address":"東京都練馬区石神井町8-41","lat":35.7479365,"lon":139.5986648},{"name":"こども フローラ","province":"東京都","city":"練馬区","address":"東京都練馬区下石神井2丁目35-16","lat":35.72988593,"lon":139.60441153},{"name":"こどもくらぶ　じゃんけんぽん","province":"東京都","city":"練馬区","address":"東京都練馬区西大泉2丁目12-5","lat":35.75634886,"lon":139.57626843},{"name":"明光学童クラブ石神井公園","province":"東京都","city":"練馬区","address":"東京都練馬区石神井町3丁目17-16","lat":35.74267339,"lon":139.60444157},{"name":"石保学童クラブ","province":"東京都","city":"練馬区","address":"東京都練馬区南田中5丁目20-2","lat":35.73699363,"lon":139.60975245},{"name":"colors桜台二丁目学童クラブ","province":"東京都","city":"練馬区","address":"東京都練馬区桜台2丁目46-12","lat":35.74287213,"lon":139.66268387},{"name":"りっこう学童クラブ","province":"東京都","city":"練馬区","address":"東京都練馬区小竹町2丁目43-12","lat":35.74236143,"lon":139.67529388},{"name":"明光学童クラブ南大泉","province":"東京都","city":"練馬区","address":"東京都練馬区南大泉4丁目55-6","lat":35.74803854,"lon":139.56930263},{"name":"キッズボイス中村橋学童クラブ","province":"東京都","city":"練馬区","address":"東京都練馬区中村北4丁目2-6","lat":35.73643334,"lon":139.6376668},{"name":"キッズクラブどろちゃん","province":"東京都","city":"練馬区","address":"東京都練馬区大泉町4丁目29-13","lat":35.76291519,"lon":139.59533607},{"name":"関町南アフタースクール","province":"東京都","city":"練馬区","address":"東京都練馬区関町南4丁目19-6","lat":35.7211805,"lon":139.56939813},{"name":"明光学童クラブ大泉学園","province":"東京都","city":"練馬区","address":"東京都練馬区西大泉1丁目1-16","lat":35.75405218,"lon":139.58389279},{"name":"区立大泉公園内","province":"東京都","city":"練馬区","address":"東京都練馬区大泉学園町6丁目25","lat":35.77187107,"lon":139.5826057},{"name":"区立はやいち公園","province":"東京都","city":"練馬区","address":"東京都練馬区早宮1丁目47","lat":35.75308929,"lon":139.656607},{"name":"区立学田公園内","province":"東京都","city":"練馬区","address":"東京都練馬区豊玉南3丁目32","lat":35.7305802,"lon":139.6491383},{"name":"練馬給水所","province":"東京都","city":"練馬区","address":"東京都練馬区光が丘4丁目1","lat":35.76541945,"lon":139.630839},{"name":"区立みんなの広場公園","province":"東京都","city":"練馬区","address":"東京都練馬区石神井町8丁目41","lat":35.747983,"lon":139.5985335},{"name":"光が丘さくら幼稚園","province":"東京都","city":"練馬区","address":"練馬区光が丘2-4-8-101","lat":35.76267834,"lon":139.6318626},{"name":"光が丘むらさき幼稚園","province":"東京都","city":"練馬区","address":"練馬区光が丘3-3-5-101","lat":35.75592202,"lon":139.6297159},{"name":"北大泉幼稚園","province":"東京都","city":"練馬区","address":"練馬区大泉町2-46-6","lat":35.76292525,"lon":139.6034281},{"name":"練馬区","province":"東京都","city":"練馬区","address":"練馬区桜台1-5-4-204","lat":35.73906,"lon":139.6614},{"name":"合計","province":"東京都","city":"練馬区","address":"東京都練馬区大泉学園町7丁目","lat":35.77324394,"lon":139.58840334},{"name":"練馬給水所","province":"東京都","city":"練馬区","address":"東京都練馬区光が丘2-4-1","lat":35.7633861,"lon":139.631914},{"name":"区立大泉公園","province":"東京都","city":"練馬区","address":"東京都練馬区大泉学園町6-25","lat":35.7720555,"lon":139.582711},{"name":"区立学田公園","province":"東京都","city":"練馬区","address":"東京都練馬区豊玉南3-32","lat":35.7305605,"lon":139.6491262},{"name":"区立はやいち公園","province":"東京都","city":"練馬区","address":"東京都練馬区早宮1-47-11","lat":35.753025,"lon":139.656532},{"name":"区立みんなの広場公園","province":"東京都","city":"練馬区","address":"東京都練馬区石神井町8-41","lat":35.7479365,"lon":139.5986648},{"name":"こども フローラ","province":"東京都","city":"練馬区","address":"東京都練馬区下石神井2丁目35-16","lat":35.72988593,"lon":139.60441153},{"name":"こどもくらぶ　じゃんけんぽん","province":"東京都","city":"練馬区","address":"東京都練馬区西大泉2丁目12-5","lat":35.75634886,"lon":139.57626843},{"name":"明光学童クラブ石神井公園","province":"東京都","city":"練馬区","address":"東京都練馬区石神井町3丁目17-16","lat":35.74267339,"lon":139.60444157},{"name":"石保学童クラブ","province":"東京都","city":"練馬区","address":"東京都練馬区南田中5丁目20-2","lat":35.73699363,"lon":139.60975245},{"name":"colors桜台二丁目学童クラブ","province":"東京都","city":"練馬区","address":"東京都練馬区桜台2丁目46-12","lat":35.74287213,"lon":139.66268387},{"name":"りっこう学童クラブ","province":"東京都","city":"練馬区","address":"東京都練馬区小竹町2丁目43-12","lat":35.74236143,"lon":139.67529388},{"name":"明光学童クラブ南大泉","province":"東京都","city":"練馬区","address":"東京都練馬区南大泉4丁目55-6","lat":35.74803854,"lon":139.56930263},{"name":"キッズボイス中村橋学童クラブ","province":"東京都","city":"練馬区","address":"東京都練馬区中村北4丁目2-6","lat":35.73643334,"lon":139.6376668},{"name":"キッズクラブどろちゃん","province":"東京都","city":"練馬区","address":"東京都練馬区大泉町4丁目29-13","lat":35.76291519,"lon":139.59533607},{"name":"関町南アフタースクール","province":"東京都","city":"練馬区","address":"東京都練馬区関町南4丁目19-6","lat":35.7211805,"lon":139.56939813},{"name":"明光学童クラブ大泉学園","province":"東京都","city":"練馬区","address":"東京都練馬区西大泉1丁目1-16","lat":35.75405218,"lon":139.58389279},{"name":"区立大泉公園内","province":"東京都","city":"練馬区","address":"東京都練馬区大泉学園町6丁目25","lat":35.77187107,"lon":139.5826057},{"name":"区立はやいち公園","province":"東京都","city":"練馬区","address":"東京都練馬区早宮1丁目47","lat":35.75308929,"lon":139.656607},{"name":"区立学田公園内","province":"東京都","city":"練馬区","address":"東京都練馬区豊玉南3丁目32","lat":35.7305802,"lon":139.6491383},{"name":"練馬給水所","province":"東京都","city":"練馬区","address":"東京都練馬区光が丘4丁目1","lat":35.76541945,"lon":139.630839},{"name":"区立みんなの広場公園","province":"東京都","city":"練馬区","address":"東京都練馬区石神井町8丁目41","lat":35.747983,"lon":139.5985335},{"name":"光が丘さくら幼稚園","province":"東京都","city":"練馬区","address":"練馬区光が丘2-4-8-101","lat":35.76267834,"lon":139.6318626},{"name":"光が丘むらさき幼稚園","province":"東京都","city":"練馬区","address":"練馬区光が丘3-3-5-101","lat":35.75592202,"lon":139.6297159},{"name":"北大泉幼稚園","province":"東京都","city":"練馬区","address":"練馬区大泉町2-46-6","lat":35.76292525,"lon":139.6034281},{"name":"練馬区","province":"東京都","city":"練馬区","address":"練馬区桜台1-5-4-204","lat":35.73906,"lon":139.6614},{"name":"合計","province":"東京都","city":"練馬区","address":"東京都練馬区大泉学園町7丁目","lat":35.77324394,"lon":139.58840334},{"name":"練馬給水所","province":"東京都","city":"練馬区","address":"東京都練馬区光が丘2-4-1","lat":35.7633861,"lon":139.631914},{"name":"区立大泉公園","province":"東京都","city":"練馬区","address":"東京都練馬区大泉学園町6-25","lat":35.7720555,"lon":139.582711},{"name":"区立学田公園","province":"東京都","city":"練馬区","address":"東京都練馬区豊玉南3-32","lat":35.7305605,"lon":139.6491262},{"name":"区立はやいち公園","province":"東京都","city":"練馬区","address":"東京都練馬区早宮1-47-11","lat":35.753025,"lon":139.656532},{"name":"区立みんなの広場公園","province":"東京都","city":"練馬区","address":"東京都練馬区石神井町8-41","lat":35.7479365,"lon":139.5986648},{"name":"こども フローラ","province":"東京都","city":"練馬区","address":"東京都練馬区下石神井2丁目35-16","lat":35.72988593,"lon":139.60441153},{"name":"こどもくらぶ　じゃんけんぽん","province":"東京都","city":"練馬区","address":"東京都練馬区西大泉2丁目12-5","lat":35.75634886,"lon":139.57626843},{"name":"明光学童クラブ石神井公園","province":"東京都","city":"練馬区","address":"東京都練馬区石神井町3丁目17-16","lat":35.74267339,"lon":139.60444157},{"name":"石保学童クラブ","province":"東京都","city":"練馬区","address":"東京都練馬区南田中5丁目20-2","lat":35.73699363,"lon":139.60975245},{"name":"colors桜台二丁目学童クラブ","province":"東京都","city":"練馬区","address":"東京都練馬区桜台2丁目46-12","lat":35.74287213,"lon":139.66268387},{"name":"りっこう学童クラブ","province":"東京都","city":"練馬区","address":"東京都練馬区小竹町2丁目43-12","lat":35.74236143,"lon":139.67529388},{"name":"明光学童クラブ南大泉","province":"東京都","city":"練馬区","address":"東京都練馬区南大泉4丁目55-6","lat":35.74803854,"lon":139.56930263},{"name":"キッズボイス中村橋学童クラブ","province":"東京都","city":"練馬区","address":"東京都練馬区中村北4丁目2-6","lat":35.73643334,"lon":139.6376668},{"name":"キッズクラブどろちゃん","province":"東京都","city":"練馬区","address":"東京都練馬区大泉町4丁目29-13","lat":35.76291519,"lon":139.59533607},{"name":"関町南アフタースクール","province":"東京都","city":"練馬区","address":"東京都練馬区関町南4丁目19-6","lat":35.7211805,"lon":139.56939813},{"name":"明光学童クラブ大泉学園","province":"東京都","city":"練馬区","address":"東京都練馬区西大泉1丁目1-16","lat":35.75405218,"lon":139.58389279},{"name":"区立大泉公園内","province":"東京都","city":"練馬区","address":"東京都練馬区大泉学園町6丁目25","lat":35.77187107,"lon":139.5826057},{"name":"区立はやいち公園","province":"東京都","city":"練馬区","address":"東京都練馬区早宮1丁目47","lat":35.75308929,"lon":139.656607},{"name":"区立学田公園内","province":"東京都","city":"練馬区","address":"東京都練馬区豊玉南3丁目32","lat":35.7305802,"lon":139.6491383},{"name":"練馬給水所","province":"東京都","city":"練馬区","address":"東京都練馬区光が丘4丁目1","lat":35.76541945,"lon":139.630839},{"name":"区立みんなの広場公園","province":"東京都","city":"練馬区","address":"東京都練馬区石神井町8丁目41","lat":35.747983,"lon":139.5985335},{"name":"光が丘さくら幼稚園","province":"東京都","city":"練馬区","address":"練馬区光が丘2-4-8-101","lat":35.76267834,"lon":139.6318626},{"name":"光が丘むらさき幼稚園","province":"東京都","city":"練馬区","address":"練馬区光が丘3-3-5-101","lat":35.75592202,"lon":139.6297159},{"name":"北大泉幼稚園","province":"東京都","city":"練馬区","address":"練馬区大泉町2-46-6","lat":35.76292525,"lon":139.6034281},{"name":"練馬区","province":"東京都","city":"練馬区","address":"練馬区桜台1-5-4-204","lat":35.73906,"lon":139.6614},{"name":"合計","province":"東京都","city":"練馬区","address":"東京都練馬区大泉学園町7丁目","lat":35.77324394,"lon":139.58840334},{"name":"練馬給水所","province":"東京都","city":"練馬区","address":"東京都練馬区光が丘2-4-1","lat":35.7633861,"lon":139.631914},{"name":"区立大泉公園","province":"東京都","city":"練馬区","address":"東京都練馬区大泉学園町6-25","lat":35.7720555,"lon":139.582711},{"name":"区立学田公園","province":"東京都","city":"練馬区","address":"東京都練馬区豊玉南3-32","lat":35.7305605,"lon":139.6491262},{"name":"区立はやいち公園","province":"東京都","city":"練馬区","address":"東京都練馬区早宮1-47-11","lat":35.753025,"lon":139.656532},{"name":"区立みんなの広場公園","province":"東京都","city":"練馬区","address":"東京都練馬区石神井町8-41","lat":35.7479365,"lon":139.5986648},{"name":"こども フローラ","province":"東京都","city":"練馬区","address":"東京都練馬区下石神井2丁目35-16","lat":35.72988593,"lon":139.60441153},{"name":"こどもくらぶ　じゃんけんぽん","province":"東京都","city":"練馬区","address":"東京都練馬区西大泉2丁目12-5","lat":35.75634886,"lon":139.57626843},{"name":"明光学童クラブ石神井公園","province":"東京都","city":"練馬区","address":"東京都練馬区石神井町3丁目17-16","lat":35.74267339,"lon":139.60444157},{"name":"石保学童クラブ","province":"東京都","city":"練馬区","address":"東京都練馬区南田中5丁目20-2","lat":35.73699363,"lon":139.60975245},{"name":"colors桜台二丁目学童クラブ","province":"東京都","city":"練馬区","address":"東京都練馬区桜台2丁目46-12","lat":35.74287213,"lon":139.66268387},{"name":"りっこう学童クラブ","province":"東京都","city":"練馬区","address":"東京都練馬区小竹町2丁目43-12","lat":35.74236143,"lon":139.67529388},{"name":"明光学童クラブ南大泉","province":"東京都","city":"練馬区","address":"東京都練馬区南大泉4丁目55-6","lat":35.74803854,"lon":139.56930263},{"name":"キッズボイス中村橋学童クラブ","province":"東京都","city":"練馬区","address":"東京都練馬区中村北4丁目2-6","lat":35.73643334,"lon":139.6376668},{"name":"キッズクラブどろちゃん","province":"東京都","city":"練馬区","address":"東京都練馬区大泉町4丁目29-13","lat":35.76291519,"lon":139.59533607},{"name":"関町南アフタースクール","province":"東京都","city":"練馬区","address":"東京都練馬区関町南4丁目19-6","lat":35.7211805,"lon":139.56939813},{"name":"明光学童クラブ大泉学園","province":"東京都","city":"練馬区","address":"東京都練馬区西大泉1丁目1-16","lat":35.75405218,"lon":139.58389279},{"name":"区立大泉公園内","province":"東京都","city":"練馬区","address":"東京都練馬区大泉学園町6丁目25","lat":35.77187107,"lon":139.5826057},{"name":"区立はやいち公園","province":"東京都","city":"練馬区","address":"東京都練馬区早宮1丁目47","lat":35.75308929,"lon":139.656607},{"name":"区立学田公園内","province":"東京都","city":"練馬区","address":"東京都練馬区豊玉南3丁目32","lat":35.7305802,"lon":139.6491383},{"name":"練馬給水所","province":"東京都","city":"練馬区","address":"東京都練馬区光が丘4丁目1","lat":35.76541945,"lon":139.630839},{"name":"区立みんなの広場公園","province":"東京都","city":"練馬区","address":"東京都練馬区石神井町8丁目41","lat":35.747983,"lon":139.5985335},{"name":"光が丘さくら幼稚園","province":"東京都","city":"練馬区","address":"練馬区光が丘2-4-8-101","lat":35.76267834,"lon":139.6318626},{"name":"光が丘むらさき幼稚園","province":"東京都","city":"練馬区","address":"練馬区光が丘3-3-5-101","lat":35.75592202,"lon":139.6297159},{"name":"北大泉幼稚園","province":"東京都","city":"練馬区","address":"練馬区大泉町2-46-6","lat":35.76292525,"lon":139.6034281},{"name":"練馬区","province":"東京都","city":"練馬区","address":"練馬区桜台1-5-4-204","lat":35.73906,"lon":139.6614},{"name":"合計","province":"東京都","city":"練馬区","address":"東京都練馬区大泉学園町7丁目","lat":35.77324394,"lon":139.58840334},{"name":"練馬給水所","province":"東京都","city":"練馬区","address":"東京都練馬区光が丘2-4-1","lat":35.7633861,"lon":139.631914},{"name":"区立大泉公園","province":"東京都","city":"練馬区","address":"東京都練馬区大泉学園町6-25","lat":35.7720555,"lon":139.582711},{"name":"区立学田公園","province":"東京都","city":"練馬区","address":"東京都練馬区豊玉南3-32","lat":35.7305605,"lon":139.6491262},{"name":"区立はやいち公園","province":"東京都","city":"練馬区","address":"東京都練馬区早宮1-47-11","lat":35.753025,"lon":139.656532},{"name":"区立みんなの広場公園","province":"東京都","city":"練馬区","address":"東京都練馬区石神井町8-41","lat":35.7479365,"lon":139.5986648},{"name":"こども フローラ","province":"東京都","city":"練馬区","address":"東京都練馬区下石神井2丁目35-16","lat":35.72988593,"lon":139.60441153},{"name":"こどもくらぶ　じゃんけんぽん","province":"東京都","city":"練馬区","address":"東京都練馬区西大泉2丁目12-5","lat":35.75634886,"lon":139.57626843},{"name":"明光学童クラブ石神井公園","province":"東京都","city":"練馬区","address":"東京都練馬区石神井町3丁目17-16","lat":35.74267339,"lon":139.60444157},{"name":"石保学童クラブ","province":"東京都","city":"練馬区","address":"東京都練馬区南田中5丁目20-2","lat":35.73699363,"lon":139.60975245},{"name":"colors桜台二丁目学童クラブ","province":"東京都","city":"練馬区","address":"東京都練馬区桜台2丁目46-12","lat":35.74287213,"lon":139.66268387},{"name":"りっこう学童クラブ","province":"東京都","city":"練馬区","address":"東京都練馬区小竹町2丁目43-12","lat":35.74236143,"lon":139.67529388},{"name":"明光学童クラブ南大泉","province":"東京都","city":"練馬区","address":"東京都練馬区南大泉4丁目55-6","lat":35.74803854,"lon":139.56930263},{"name":"キッズボイス中村橋学童クラブ","province":"東京都","city":"練馬区","address":"東京都練馬区中村北4丁目2-6","lat":35.73643334,"lon":139.6376668},{"name":"キッズクラブどろちゃん","province":"東京都","city":"練馬区","address":"東京都練馬区大泉町4丁目29-13","lat":35.76291519,"lon":139.59533607},{"name":"関町南アフタースクール","province":"東京都","city":"練馬区","address":"東京都練馬区関町南4丁目19-6","lat":35.7211805,"lon":139.56939813},{"name":"明光学童クラブ大泉学園","province":"東京都","city":"練馬区","address":"東京都練馬区西大泉1丁目1-16","lat":35.75405218,"lon":139.58389279},{"name":"区立大泉公園内","province":"東京都","city":"練馬区","address":"東京都練馬区大泉学園町6丁目25","lat":35.77187107,"lon":139.5826057},{"name":"区立はやいち公園","province":"東京都","city":"練馬区","address":"東京都練馬区早宮1丁目47","lat":35.75308929,"lon":139.656607},{"name":"区立学田公園内","province":"東京都","city":"練馬区","address":"東京都練馬区豊玉南3丁目32","lat":35.7305802,"lon":139.6491383},{"name":"練馬給水所","province":"東京都","city":"練馬区","address":"東京都練馬区光が丘4丁目1","lat":35.76541945,"lon":139.630839},{"name":"区立みんなの広場公園","province":"東京都","city":"練馬区","address":"東京都練馬区石神井町8丁目41","lat":35.747983,"lon":139.5985335},{"name":"光が丘さくら幼稚園","province":"東京都","city":"練馬区","address":"練馬区光が丘2-4-8-101","lat":35.76267834,"lon":139.6318626},{"name":"光が丘むらさき幼稚園","province":"東京都","city":"練馬区","address":"練馬区光が丘3-3-5-101","lat":35.75592202,"lon":139.6297159},{"name":"北大泉幼稚園","province":"東京都","city":"練馬区","address":"練馬区大泉町2-46-6","lat":35.76292525,"lon":139.6034281},{"name":"練馬区","province":"東京都","city":"練馬区","address":"練馬区桜台1-5-4-204","lat":35.73906,"lon":139.6614},{"name":"合計","province":"東京都","city":"練馬区","address":"東京都練馬区大泉学園町7丁目","lat":35.77324394,"lon":139.58840334},{"name":"練馬給水所","province":"東京都","city":"練馬区","address":"東京都練馬区光が丘2-4-1","lat":35.7633861,"lon":139.631914},{"name":"区立大泉公園","province":"東京都","city":"練馬区","address":"東京都練馬区大泉学園町6-25","lat":35.7720555,"lon":139.582711},{"name":"区立学田公園","province":"東京都","city":"練馬区","address":"東京都練馬区豊玉南3-32","lat":35.7305605,"lon":139.6491262},{"name":"区立はやいち公園","province":"東京都","city":"練馬区","address":"東京都練馬区早宮1-47-11","lat":35.753025,"lon":139.656532},{"name":"区立みんなの広場公園","province":"東京都","city":"練馬区","address":"東京都練馬区石神井町8-41","lat":35.7479365,"lon":139.5986648},{"name":"こども フローラ","province":"東京都","city":"練馬区","address":"東京都練馬区下石神井2丁目35-16","lat":35.72988593,"lon":139.60441153},{"name":"こどもくらぶ　じゃんけんぽん","province":"東京都","city":"練馬区","address":"東京都練馬区西大泉2丁目12-5","lat":35.75634886,"lon":139.57626843},{"name":"明光学童クラブ石神井公園","province":"東京都","city":"練馬区","address":"東京都練馬区石神井町3丁目17-16","lat":35.74267339,"lon":139.60444157},{"name":"石保学童クラブ","province":"東京都","city":"練馬区","address":"東京都練馬区南田中5丁目20-2","lat":35.73699363,"lon":139.60975245},{"name":"colors桜台二丁目学童クラブ","province":"東京都","city":"練馬区","address":"東京都練馬区桜台2丁目46-12","lat":35.74287213,"lon":139.66268387},{"name":"りっこう学童クラブ","province":"東京都","city":"練馬区","address":"東京都練馬区小竹町2丁目43-12","lat":35.74236143,"lon":139.67529388},{"name":"明光学童クラブ南大泉","province":"東京都","city":"練馬区","address":"東京都練馬区南大泉4丁目55-6","lat":35.74803854,"lon":139.56930263},{"name":"キッズボイス中村橋学童クラブ","province":"東京都","city":"練馬区","address":"東京都練馬区中村北4丁目2-6","lat":35.73643334,"lon":139.6376668},{"name":"キッズクラブどろちゃん","province":"東京都","city":"練馬区","address":"東京都練馬区大泉町4丁目29-13","lat":35.76291519,"lon":139.59533607},{"name":"関町南アフタースクール","province":"東京都","city":"練馬区","address":"東京都練馬区関町南4丁目19-6","lat":35.7211805,"lon":139.56939813},{"name":"明光学童クラブ大泉学園","province":"東京都","city":"練馬区","address":"東京都練馬区西大泉1丁目1-16","lat":35.75405218,"lon":139.58389279},{"name":"区立大泉公園内","province":"東京都","city":"練馬区","address":"東京都練馬区大泉学園町6丁目25","lat":35.77187107,"lon":139.5826057},{"name":"区立はやいち公園","province":"東京都","city":"練馬区","address":"東京都練馬区早宮1丁目47","lat":35.75308929,"lon":139.656607},{"name":"区立学田公園内","province":"東京都","city":"練馬区","address":"東京都練馬区豊玉南3丁目32","lat":35.7305802,"lon":139.6491383},{"name":"練馬給水所","province":"東京都","city":"練馬区","address":"東京都練馬区光が丘4丁目1","lat":35.76541945,"lon":139.630839},{"name":"区立みんなの広場公園","province":"東京都","city":"練馬区","address":"東京都練馬区石神井町8丁目41","lat":35.747983,"lon":139.5985335},{"name":"光が丘さくら幼稚園","province":"東京都","city":"練馬区","address":"練馬区光が丘2-4-8-101","lat":35.76267834,"lon":139.6318626},{"name":"光が丘むらさき幼稚園","province":"東京都","city":"練馬区","address":"練馬区光が丘3-3-5-101","lat":35.75592202,"lon":139.6297159},{"name":"北大泉幼稚園","province":"東京都","city":"練馬区","address":"練馬区大泉町2-46-6","lat":35.76292525,"lon":139.6034281},{"name":"練馬区","province":"東京都","city":"練馬区","address":"練馬区桜台1-5-4-204","lat":35.73906,"lon":139.6614},{"name":"合計","province":"東京都","city":"練馬区","address":"東京都練馬区大泉学園町7丁目","lat":35.77324394,"lon":139.58840334},{"name":"練馬給水所","province":"東京都","city":"練馬区","address":"東京都練馬区光が丘2-4-1","lat":35.7633861,"lon":139.631914},{"name":"区立大泉公園","province":"東京都","city":"練馬区","address":"東京都練馬区大泉学園町6-25","lat":35.7720555,"lon":139.582711},{"name":"区立学田公園","province":"東京都","city":"練馬区","address":"東京都練馬区豊玉南3-32","lat":35.7305605,"lon":139.6491262},{"name":"区立はやいち公園","province":"東京都","city":"練馬区","address":"東京都練馬区早宮1-47-11","lat":35.753025,"lon":139.656532},{"name":"区立みんなの広場公園","province":"東京都","city":"練馬区","address":"東京都練馬区石神井町8-41","lat":35.7479365,"lon":139.5986648},{"name":"こども フローラ","province":"東京都","city":"練馬区","address":"東京都練馬区下石神井2丁目35-16","lat":35.72988593,"lon":139.60441153},{"name":"こどもくらぶ　じゃんけんぽん","province":"東京都","city":"練馬区","address":"東京都練馬区西大泉2丁目12-5","lat":35.75634886,"lon":139.57626843},{"name":"明光学童クラブ石神井公園","province":"東京都","city":"練馬区","address":"東京都練馬区石神井町3丁目17-16","lat":35.74267339,"lon":139.60444157},{"name":"石保学童クラブ","province":"東京都","city":"練馬区","address":"東京都練馬区南田中5丁目20-2","lat":35.73699363,"lon":139.60975245},{"name":"colors桜台二丁目学童クラブ","province":"東京都","city":"練馬区","address":"東京都練馬区桜台2丁目46-12","lat":35.74287213,"lon":139.66268387},{"name":"りっこう学童クラブ","province":"東京都","city":"練馬区","address":"東京都練馬区小竹町2丁目43-12","lat":35.74236143,"lon":139.67529388},{"name":"明光学童クラブ南大泉","province":"東京都","city":"練馬区","address":"東京都練馬区南大泉4丁目55-6","lat":35.74803854,"lon":139.56930263},{"name":"キッズボイス中村橋学童クラブ","province":"東京都","city":"練馬区","address":"東京都練馬区中村北4丁目2-6","lat":35.73643334,"lon":139.6376668},{"name":"キッズクラブどろちゃん","province":"東京都","city":"練馬区","address":"東京都練馬区大泉町4丁目29-13","lat":35.76291519,"lon":139.59533607},{"name":"関町南アフタースクール","province":"東京都","city":"練馬区","address":"東京都練馬区関町南4丁目19-6","lat":35.7211805,"lon":139.56939813},{"name":"明光学童クラブ大泉学園","province":"東京都","city":"練馬区","address":"東京都練馬区西大泉1丁目1-16","lat":35.75405218,"lon":139.58389279},{"name":"光が丘さくら幼稚園","province":"東京都","city":"練馬区","address":"練馬区光が丘2-4-8-101","lat":35.76267834,"lon":139.6318626},{"name":"光が丘むらさき幼稚園","province":"東京都","city":"練馬区","address":"練馬区光が丘3-3-5-101","lat":35.75592202,"lon":139.6297159},{"name":"北大泉幼稚園","province":"東京都","city":"練馬区","address":"練馬区大泉町2-46-6","lat":35.76292525,"lon":139.6034281},{"name":"練馬区","province":"東京都","city":"練馬区","address":"練馬区桜台1-5-4-204","lat":35.73906,"lon":139.6614},{"name":"合計","province":"東京都","city":"練馬区","address":"東京都練馬区大泉学園町7丁目","lat":35.77324394,"lon":139.58840334},{"name":"練馬給水所","province":"東京都","city":"練馬区","address":"東京都練馬区光が丘2-4-1","lat":35.7633861,"lon":139.631914},{"name":"区立大泉公園","province":"東京都","city":"練馬区","address":"東京都練馬区大泉学園町6-25","lat":35.7720555,"lon":139.582711},{"name":"区立学田公園","province":"東京都","city":"練馬区","address":"東京都練馬区豊玉南3-32","lat":35.7305605,"lon":139.6491262},{"name":"区立はやいち公園","province":"東京都","city":"練馬区","address":"東京都練馬区早宮1-47-11","lat":35.753025,"lon":139.656532},{"name":"区立みんなの広場公園","province":"東京都","city":"練馬区","address":"東京都練馬区石神井町8-41","lat":35.7479365,"lon":139.5986648},{"name":"こども フローラ","province":"東京都","city":"練馬区","address":"東京都練馬区下石神井2丁目35-16","lat":35.72988593,"lon":139.60441153},{"name":"こどもくらぶ　じゃんけんぽん","province":"東京都","city":"練馬区","address":"東京都練馬区西大泉2丁目12-5","lat":35.75634886,"lon":139.57626843},{"name":"明光学童クラブ石神井公園","province":"東京都","city":"練馬区","address":"東京都練馬区石神井町3丁目17-16","lat":35.74267339,"lon":139.60444157},{"name":"石保学童クラブ","province":"東京都","city":"練馬区","address":"東京都練馬区南田中5丁目20-2","lat":35.73699363,"lon":139.60975245},{"name":"colors桜台二丁目学童クラブ","province":"東京都","city":"練馬区","address":"東京都練馬区桜台2丁目46-12","lat":35.74287213,"lon":139.66268387},{"name":"りっこう学童クラブ","province":"東京都","city":"練馬区","address":"東京都練馬区小竹町2丁目43-12","lat":35.74236143,"lon":139.67529388},{"name":"明光学童クラブ南大泉","province":"東京都","city":"練馬区","address":"東京都練馬区南大泉4丁目55-6","lat":35.74803854,"lon":139.56930263},{"name":"キッズボイス中村橋学童クラブ","province":"東京都","city":"練馬区","address":"東京都練馬区中村北4丁目2-6","lat":35.73643334,"lon":139.6376668},{"name":"キッズクラブどろちゃん","province":"東京都","city":"練馬区","address":"東京都練馬区大泉町4丁目29-13","lat":35.76291519,"lon":139.59533607},{"name":"関町南アフタースクール","province":"東京都","city":"練馬区","address":"東京都練馬区関町南4丁目19-6","lat":35.7211805,"lon":139.56939813},{"name":"明光学童クラブ大泉学園","province":"東京都","city":"練馬区","address":"東京都練馬区西大泉1丁目1-16","lat":35.75405218,"lon":139.58389279},{"name":"光が丘さくら幼稚園","province":"東京都","city":"練馬区","address":"練馬区光が丘2-4-8-101","lat":35.76267834,"lon":139.6318626},{"name":"光が丘むらさき幼稚園","province":"東京都","city":"練馬区","address":"練馬区光が丘3-3-5-101","lat":35.75592202,"lon":139.6297159},{"name":"北大泉幼稚園","province":"東京都","city":"練馬区","address":"練馬区大泉町2-46-6","lat":35.76292525,"lon":139.6034281},{"name":"合計","province":"東京都","city":"練馬区","address":"東京都練馬区大泉学園町7丁目","lat":35.77324394,"lon":139.58840334},{"name":"練馬給水所","province":"東京都","city":"練馬区","address":"東京都練馬区光が丘2-4-1","lat":35.7633861,"lon":139.631914},{"name":"区立大泉公園","province":"東京都","city":"練馬区","address":"東京都練馬区大泉学園町6-25","lat":35.7720555,"lon":139.582711},{"name":"区立学田公園","province":"東京都","city":"練馬区","address":"東京都練馬区豊玉南3-32","lat":35.7305605,"lon":139.6491262},{"name":"区立はやいち公園","province":"東京都","city":"練馬区","address":"東京都練馬区早宮1-47-11","lat":35.753025,"lon":139.656532},{"name":"区立みんなの広場公園","province":"東京都","city":"練馬区","address":"東京都練馬区石神井町8-41","lat":35.7479365,"lon":139.5986648},{"name":"こども フローラ","province":"東京都","city":"練馬区","address":"東京都練馬区下石神井2丁目35-16","lat":35.72988593,"lon":139.60441153},{"name":"こどもくらぶ　じゃんけんぽん","province":"東京都","city":"練馬区","address":"東京都練馬区西大泉2丁目12-5","lat":35.75634886,"lon":139.57626843},{"name":"明光学童クラブ石神井公園","province":"東京都","city":"練馬区","address":"東京都練馬区石神井町3丁目17-16","lat":35.74267339,"lon":139.60444157},{"name":"石保学童クラブ","province":"東京都","city":"練馬区","address":"東京都練馬区南田中5丁目20-2","lat":35.73699363,"lon":139.60975245},{"name":"colors桜台二丁目学童クラブ","province":"東京都","city":"練馬区","address":"東京都練馬区桜台2丁目46-12","lat":35.74287213,"lon":139.66268387},{"name":"りっこう学童クラブ","province":"東京都","city":"練馬区","address":"東京都練馬区小竹町2丁目43-12","lat":35.74236143,"lon":139.67529388},{"name":"明光学童クラブ南大泉","province":"東京都","city":"練馬区","address":"東京都練馬区南大泉4丁目55-6","lat":35.74803854,"lon":139.56930263},{"name":"キッズボイス中村橋学童クラブ","province":"東京都","city":"練馬区","address":"東京都練馬区中村北4丁目2-6","lat":35.73643334,"lon":139.6376668},{"name":"キッズクラブどろちゃん","province":"東京都","city":"練馬区","address":"東京都練馬区大泉町4丁目29-13","lat":35.76291519,"lon":139.59533607},{"name":"関町南アフタースクール","province":"東京都","city":"練馬区","address":"東京都練馬区関町南4丁目19-6","lat":35.7211805,"lon":139.56939813},{"name":"明光学童クラブ大泉学園","province":"東京都","city":"練馬区","address":"東京都練馬区西大泉1丁目1-16","lat":35.75405218,"lon":139.58389279},{"name":"光が丘さくら幼稚園","province":"東京都","city":"練馬区","address":"練馬区光が丘2-4-8-101","lat":35.76267834,"lon":139.6318626},{"name":"光が丘むらさき幼稚園","province":"東京都","city":"練馬区","address":"練馬区光が丘3-3-5-101","lat":35.75592202,"lon":139.6297159},{"name":"北大泉幼稚園","province":"東京都","city":"練馬区","address":"練馬区大泉町2-46-6","lat":35.76292525,"lon":139.6034281},{"name":"合計","province":"東京都","city":"練馬区","address":"東京都練馬区大泉学園町7丁目","lat":35.77324394,"lon":139.58840334},{"name":"練馬給水所","province":"東京都","city":"練馬区","address":"東京都練馬区光が丘2-4-1","lat":35.7633861,"lon":139.631914},{"name":"区立大泉公園","province":"東京都","city":"練馬区","address":"東京都練馬区大泉学園町6-25","lat":35.7720555,"lon":139.582711},{"name":"区立学田公園","province":"東京都","city":"練馬区","address":"東京都練馬区豊玉南3-32","lat":35.7305605,"lon":139.6491262},{"name":"区立はやいち公園","province":"東京都","city":"練馬区","address":"東京都練馬区早宮1-47-11","lat":35.753025,"lon":139.656532},{"name":"区立みんなの広場公園","province":"東京都","city":"練馬区","address":"東京都練馬区石神井町8-41","lat":35.7479365,"lon":139.5986648},{"name":"こども フローラ","province":"東京都","city":"練馬区","address":"東京都練馬区下石神井2丁目35-16","lat":35.72988593,"lon":139.60441153},{"name":"こどもくらぶ　じゃんけんぽん","province":"東京都","city":"練馬区","address":"東京都練馬区西大泉2丁目12-5","lat":35.75634886,"lon":139.57626843},{"name":"明光学童クラブ石神井公園","province":"東京都","city":"練馬区","address":"東京都練馬区石神井町3丁目17-16","lat":35.74267339,"lon":139.60444157},{"name":"石保学童クラブ","province":"東京都","city":"練馬区","address":"東京都練馬区南田中5丁目20-2","lat":35.73699363,"lon":139.60975245},{"name":"colors桜台二丁目学童クラブ","province":"東京都","city":"練馬区","address":"東京都練馬区桜台2丁目46-12","lat":35.74287213,"lon":139.66268387},{"name":"りっこう学童クラブ","province":"東京都","city":"練馬区","address":"東京都練馬区小竹町2丁目43-12","lat":35.74236143,"lon":139.67529388},{"name":"明光学童クラブ南大泉","province":"東京都","city":"練馬区","address":"東京都練馬区南大泉4丁目55-6","lat":35.74803854,"lon":139.56930263},{"name":"キッズボイス中村橋学童クラブ","province":"東京都","city":"練馬区","address":"東京都練馬区中村北4丁目2-6","lat":35.73643334,"lon":139.6376668},{"name":"キッズクラブどろちゃん","province":"東京都","city":"練馬区","address":"東京都練馬区大泉町4丁目29-13","lat":35.76291519,"lon":139.59533607},{"name":"関町南アフタースクール","province":"東京都","city":"練馬区","address":"東京都練馬区関町南4丁目19-6","lat":35.7211805,"lon":139.56939813},{"name":"明光学童クラブ大泉学園","province":"東京都","city":"練馬区","address":"東京都練馬区西大泉1丁目1-16","lat":35.75405218,"lon":139.58389279},{"name":"光が丘さくら幼稚園","province":"東京都","city":"練馬区","address":"練馬区光が丘2-4-8-101","lat":35.76267834,"lon":139.6318626},{"name":"光が丘むらさき幼稚園","province":"東京都","city":"練馬区","address":"練馬区光が丘3-3-5-101","lat":35.75592202,"lon":139.6297159},{"name":"北大泉幼稚園","province":"東京都","city":"練馬区","address":"練馬区大泉町2-46-6","lat":35.76292525,"lon":139.6034281},{"name":"合計","province":"東京都","city":"練馬区","address":"東京都練馬区大泉学園町7丁目","lat":35.77324394,"lon":139.58840334},{"name":"練馬給水所","province":"東京都","city":"練馬区","address":"東京都練馬区光が丘2-4-1","lat":35.7633861,"lon":139.631914},{"name":"区立大泉公園","province":"東京都","city":"練馬区","address":"東京都練馬区大泉学園町6-25","lat":35.7720555,"lon":139.582711},{"name":"区立学田公園","province":"東京都","city":"練馬区","address":"東京都練馬区豊玉南3-32","lat":35.7305605,"lon":139.6491262},{"name":"区立はやいち公園","province":"東京都","city":"練馬区","address":"東京都練馬区早宮1-47-11","lat":35.753025,"lon":139.656532},{"name":"区立みんなの広場公園","province":"東京都","city":"練馬区","address":"東京都練馬区石神井町8-41","lat":35.7479365,"lon":139.5986648},{"name":"こども フローラ","province":"東京都","city":"練馬区","address":"東京都練馬区下石神井2丁目35-16","lat":35.72988593,"lon":139.60441153},{"name":"こどもくらぶ　じゃんけんぽん","province":"東京都","city":"練馬区","address":"東京都練馬区西大泉2丁目12-5","lat":35.75634886,"lon":139.57626843},{"name":"明光学童クラブ石神井公園","province":"東京都","city":"練馬区","address":"東京都練馬区石神井町3丁目17-16","lat":35.74267339,"lon":139.60444157},{"name":"石保学童クラブ","province":"東京都","city":"練馬区","address":"東京都練馬区南田中5丁目20-2","lat":35.73699363,"lon":139.60975245},{"name":"colors桜台二丁目学童クラブ","province":"東京都","city":"練馬区","address":"東京都練馬区桜台2丁目46-12","lat":35.74287213,"lon":139.66268387},{"name":"りっこう学童クラブ","province":"東京都","city":"練馬区","address":"東京都練馬区小竹町2丁目43-12","lat":35.74236143,"lon":139.67529388},{"name":"明光学童クラブ南大泉","province":"東京都","city":"練馬区","address":"東京都練馬区南大泉4丁目55-6","lat":35.74803854,"lon":139.56930263},{"name":"キッズボイス中村橋学童クラブ","province":"東京都","city":"練馬区","address":"東京都練馬区中村北4丁目2-6","lat":35.73643334,"lon":139.6376668},{"name":"キッズクラブどろちゃん","province":"東京都","city":"練馬区","address":"東京都練馬区大泉町4丁目29-13","lat":35.76291519,"lon":139.59533607},{"name":"関町南アフタースクール","province":"東京都","city":"練馬区","address":"東京都練馬区関町南4丁目19-6","lat":35.7211805,"lon":139.56939813},{"name":"明光学童クラブ大泉学園","province":"東京都","city":"練馬区","address":"東京都練馬区西大泉1丁目1-16","lat":35.75405218,"lon":139.58389279},{"name":"光が丘さくら幼稚園","province":"東京都","city":"練馬区","address":"練馬区光が丘2-4-8-101","lat":35.76267834,"lon":139.6318626},{"name":"光が丘むらさき幼稚園","province":"東京都","city":"練馬区","address":"練馬区光が丘3-3-5-101","lat":35.75592202,"lon":139.6297159},{"name":"北大泉幼稚園","province":"東京都","city":"練馬区","address":"練馬区大泉町2-46-6","lat":35.76292525,"lon":139.6034281},{"name":"合計","province":"東京都","city":"練馬区","address":"東京都練馬区大泉学園町7丁目","lat":35.77324394,"lon":139.58840334},{"name":"練馬給水所","province":"東京都","city":"練馬区","address":"東京都練馬区光が丘2-4-1","lat":35.7633861,"lon":139.631914},{"name":"区立大泉公園","province":"東京都","city":"練馬区","address":"東京都練馬区大泉学園町6-25","lat":35.7720555,"lon":139.582711},{"name":"区立学田公園","province":"東京都","city":"練馬区","address":"東京都練馬区豊玉南3-32","lat":35.7305605,"lon":139.6491262},{"name":"区立はやいち公園","province":"東京都","city":"練馬区","address":"東京都練馬区早宮1-47-11","lat":35.753025,"lon":139.656532},{"name":"区立みんなの広場公園","province":"東京都","city":"練馬区","address":"東京都練馬区石神井町8-41","lat":35.7479365,"lon":139.5986648},{"name":"こども フローラ","province":"東京都","city":"練馬区","address":"東京都練馬区下石神井2丁目35-16","lat":35.72988593,"lon":139.60441153},{"name":"こどもくらぶ　じゃんけんぽん","province":"東京都","city":"練馬区","address":"東京都練馬区西大泉2丁目12-5","lat":35.75634886,"lon":139.57626843},{"name":"明光学童クラブ石神井公園","province":"東京都","city":"練馬区","address":"東京都練馬区石神井町3丁目17-16","lat":35.74267339,"lon":139.60444157},{"name":"石保学童クラブ","province":"東京都","city":"練馬区","address":"東京都練馬区南田中5丁目20-2","lat":35.73699363,"lon":139.60975245},{"name":"colors桜台二丁目学童クラブ","province":"東京都","city":"練馬区","address":"東京都練馬区桜台2丁目46-12","lat":35.74287213,"lon":139.66268387},{"name":"りっこう学童クラブ","province":"東京都","city":"練馬区","address":"東京都練馬区小竹町2丁目43-12","lat":35.74236143,"lon":139.67529388},{"name":"明光学童クラブ南大泉","province":"東京都","city":"練馬区","address":"東京都練馬区南大泉4丁目55-6","lat":35.74803854,"lon":139.56930263},{"name":"キッズボイス中村橋学童クラブ","province":"東京都","city":"練馬区","address":"東京都練馬区中村北4丁目2-6","lat":35.73643334,"lon":139.6376668},{"name":"キッズクラブどろちゃん","province":"東京都","city":"練馬区","address":"東京都練馬区大泉町4丁目29-13","lat":35.76291519,"lon":139.59533607},{"name":"関町南アフタースクール","province":"東京都","city":"練馬区","address":"東京都練馬区関町南4丁目19-6","lat":35.7211805,"lon":139.56939813},{"name":"明光学童クラブ大泉学園","province":"東京都","city":"練馬区","address":"東京都練馬区西大泉1丁目1-16","lat":35.75405218,"lon":139.58389279},{"name":"光が丘さくら幼稚園","province":"東京都","city":"練馬区","address":"練馬区光が丘2-4-8-101","lat":35.76267834,"lon":139.6318626},{"name":"光が丘むらさき幼稚園","province":"東京都","city":"練馬区","address":"練馬区光が丘3-3-5-101","lat":35.75592202,"lon":139.6297159},{"name":"北大泉幼稚園","province":"東京都","city":"練馬区","address":"練馬区大泉町2-46-6","lat":35.76292525,"lon":139.6034281},{"name":"合計","province":"東京都","city":"練馬区","address":"東京都練馬区大泉学園町7丁目","lat":35.77324394,"lon":139.58840334},{"name":"練馬給水所","province":"東京都","city":"練馬区","address":"東京都練馬区光が丘2-4-1","lat":35.7633861,"lon":139.631914},{"name":"区立大泉公園","province":"東京都","city":"練馬区","address":"東京都練馬区大泉学園町6-25","lat":35.7720555,"lon":139.582711},{"name":"区立学田公園","province":"東京都","city":"練馬区","address":"東京都練馬区豊玉南3-32","lat":35.7305605,"lon":139.6491262},{"name":"区立はやいち公園","province":"東京都","city":"練馬区","address":"東京都練馬区早宮1-47-11","lat":35.753025,"lon":139.656532},{"name":"区立みんなの広場公園","province":"東京都","city":"練馬区","address":"東京都練馬区石神井町8-41","lat":35.7479365,"lon":139.5986648},{"name":"こども フローラ","province":"東京都","city":"練馬区","address":"東京都練馬区下石神井2丁目35-16","lat":35.72988593,"lon":139.60441153},{"name":"こどもくらぶ　じゃんけんぽん","province":"東京都","city":"練馬区","address":"東京都練馬区西大泉2丁目12-5","lat":35.75634886,"lon":139.57626843},{"name":"明光学童クラブ石神井公園","province":"東京都","city":"練馬区","address":"東京都練馬区石神井町3丁目17-16","lat":35.74267339,"lon":139.60444157},{"name":"石保学童クラブ","province":"東京都","city":"練馬区","address":"東京都練馬区南田中5丁目20-2","lat":35.73699363,"lon":139.60975245},{"name":"colors桜台二丁目学童クラブ","province":"東京都","city":"練馬区","address":"東京都練馬区桜台2丁目46-12","lat":35.74287213,"lon":139.66268387},{"name":"りっこう学童クラブ","province":"東京都","city":"練馬区","address":"東京都練馬区小竹町2丁目43-12","lat":35.74236143,"lon":139.67529388},{"name":"明光学童クラブ南大泉","province":"東京都","city":"練馬区","address":"東京都練馬区南大泉4丁目55-6","lat":35.74803854,"lon":139.56930263},{"name":"キッズボイス中村橋学童クラブ","province":"東京都","city":"練馬区","address":"東京都練馬区中村北4丁目2-6","lat":35.73643334,"lon":139.6376668},{"name":"キッズクラブどろちゃん","province":"東京都","city":"練馬区","address":"東京都練馬区大泉町4丁目29-13","lat":35.76291519,"lon":139.59533607},{"name":"関町南アフタースクール","province":"東京都","city":"練馬区","address":"東京都練馬区関町南4丁目19-6","lat":35.7211805,"lon":139.56939813},{"name":"明光学童クラブ大泉学園","province":"東京都","city":"練馬区","address":"東京都練馬区西大泉1丁目1-16","lat":35.75405218,"lon":139.58389279},{"name":"光が丘さくら幼稚園","province":"東京都","city":"練馬区","address":"練馬区光が丘2-4-8-101","lat":35.76267834,"lon":139.6318626},{"name":"光が丘むらさき幼稚園","province":"東京都","city":"練馬区","address":"練馬区光が丘3-3-5-101","lat":35.75592202,"lon":139.6297159},{"name":"北大泉幼稚園","province":"東京都","city":"練馬区","address":"練馬区大泉町2-46-6","lat":35.76292525,"lon":139.6034281},{"name":"合計","province":"東京都","city":"練馬区","address":"東京都練馬区大泉学園町7丁目","lat":35.77324394,"lon":139.58840334},{"name":"練馬給水所","province":"東京都","city":"練馬区","address":"東京都練馬区光が丘2-4-1","lat":35.7633861,"lon":139.631914},{"name":"区立大泉公園","province":"東京都","city":"練馬区","address":"東京都練馬区大泉学園町6-25","lat":35.7720555,"lon":139.582711},{"name":"区立学田公園","province":"東京都","city":"練馬区","address":"東京都練馬区豊玉南3-32","lat":35.7305605,"lon":139.6491262},{"name":"区立はやいち公園","province":"東京都","city":"練馬区","address":"東京都練馬区早宮1-47-11","lat":35.753025,"lon":139.656532},{"name":"区立みんなの広場公園","province":"東京都","city":"練馬区","address":"東京都練馬区石神井町8-41","lat":35.7479365,"lon":139.5986648},{"name":"こども フローラ","province":"東京都","city":"練馬区","address":"東京都練馬区下石神井2丁目35-16","lat":35.72988593,"lon":139.60441153},{"name":"こどもくらぶ　じゃんけんぽん","province":"東京都","city":"練馬区","address":"東京都練馬区西大泉2丁目12-5","lat":35.75634886,"lon":139.57626843},{"name":"明光学童クラブ石神井公園","province":"東京都","city":"練馬区","address":"東京都練馬区石神井町3丁目17-16","lat":35.74267339,"lon":139.60444157},{"name":"石保学童クラブ","province":"東京都","city":"練馬区","address":"東京都練馬区南田中5丁目20-2","lat":35.73699363,"lon":139.60975245},{"name":"colors桜台二丁目学童クラブ","province":"東京都","city":"練馬区","address":"東京都練馬区桜台2丁目46-12","lat":35.74287213,"lon":139.66268387},{"name":"りっこう学童クラブ","province":"東京都","city":"練馬区","address":"東京都練馬区小竹町2丁目43-12","lat":35.74236143,"lon":139.67529388},{"name":"明光学童クラブ南大泉","province":"東京都","city":"練馬区","address":"東京都練馬区南大泉4丁目55-6","lat":35.74803854,"lon":139.56930263},{"name":"キッズボイス中村橋学童クラブ","province":"東京都","city":"練馬区","address":"東京都練馬区中村北4丁目2-6","lat":35.73643334,"lon":139.6376668},{"name":"キッズクラブどろちゃん","province":"東京都","city":"練馬区","address":"東京都練馬区大泉町4丁目29-13","lat":35.76291519,"lon":139.59533607},{"name":"関町南アフタースクール","province":"東京都","city":"練馬区","address":"東京都練馬区関町南4丁目19-6","lat":35.7211805,"lon":139.56939813},{"name":"明光学童クラブ大泉学園","province":"東京都","city":"練馬区","address":"東京都練馬区西大泉1丁目1-16","lat":35.75405218,"lon":139.58389279},{"name":"光が丘さくら幼稚園","province":"東京都","city":"練馬区","address":"練馬区光が丘2-4-8-101","lat":35.76267834,"lon":139.6318626},{"name":"光が丘むらさき幼稚園","province":"東京都","city":"練馬区","address":"練馬区光が丘3-3-5-101","lat":35.75592202,"lon":139.6297159},{"name":"北大泉幼稚園","province":"東京都","city":"練馬区","address":"練馬区大泉町2-46-6","lat":35.76292525,"lon":139.6034281},{"name":"合計","province":"東京都","city":"練馬区","address":"東京都練馬区大泉学園町7丁目","lat":35.77324394,"lon":139.58840334},{"name":"練馬給水所","province":"東京都","city":"練馬区","address":"東京都練馬区光が丘2-4-1","lat":35.7633861,"lon":139.631914},{"name":"区立大泉公園","province":"東京都","city":"練馬区","address":"東京都練馬区大泉学園町6-25","lat":35.7720555,"lon":139.582711},{"name":"区立学田公園","province":"東京都","city":"練馬区","address":"東京都練馬区豊玉南3-32","lat":35.7305605,"lon":139.6491262},{"name":"区立はやいち公園","province":"東京都","city":"練馬区","address":"東京都練馬区早宮1-47-11","lat":35.753025,"lon":139.656532},{"name":"区立みんなの広場公園","province":"東京都","city":"練馬区","address":"東京都練馬区石神井町8-41","lat":35.7479365,"lon":139.5986648},{"name":"こども フローラ","province":"東京都","city":"練馬区","address":"東京都練馬区下石神井2丁目35-16","lat":35.72988593,"lon":139.60441153},{"name":"こどもくらぶ　じゃんけんぽん","province":"東京都","city":"練馬区","address":"東京都練馬区西大泉2丁目12-5","lat":35.75634886,"lon":139.57626843},{"name":"明光学童クラブ石神井公園","province":"東京都","city":"練馬区","address":"東京都練馬区石神井町3丁目17-16","lat":35.74267339,"lon":139.60444157},{"name":"石保学童クラブ","province":"東京都","city":"練馬区","address":"東京都練馬区南田中5丁目20-2","lat":35.73699363,"lon":139.60975245},{"name":"colors桜台二丁目学童クラブ","province":"東京都","city":"練馬区","address":"東京都練馬区桜台2丁目46-12","lat":35.74287213,"lon":139.66268387},{"name":"りっこう学童クラブ","province":"東京都","city":"練馬区","address":"東京都練馬区小竹町2丁目43-12","lat":35.74236143,"lon":139.67529388},{"name":"明光学童クラブ南大泉","province":"東京都","city":"練馬区","address":"東京都練馬区南大泉4丁目55-6","lat":35.74803854,"lon":139.56930263},{"name":"キッズボイス中村橋学童クラブ","province":"東京都","city":"練馬区","address":"東京都練馬区中村北4丁目2-6","lat":35.73643334,"lon":139.6376668},{"name":"キッズクラブどろちゃん","province":"東京都","city":"練馬区","address":"東京都練馬区大泉町4丁目29-13","lat":35.76291519,"lon":139.59533607},{"name":"関町南アフタースクール","province":"東京都","city":"練馬区","address":"東京都練馬区関町南4丁目19-6","lat":35.7211805,"lon":139.56939813},{"name":"明光学童クラブ大泉学園","province":"東京都","city":"練馬区","address":"東京都練馬区西大泉1丁目1-16","lat":35.75405218,"lon":139.58389279},{"name":"光が丘さくら幼稚園","province":"東京都","city":"練馬区","address":"練馬区光が丘2-4-8-101","lat":35.76267834,"lon":139.6318626},{"name":"光が丘むらさき幼稚園","province":"東京都","city":"練馬区","address":"練馬区光が丘3-3-5-101","lat":35.75592202,"lon":139.6297159},{"name":"北大泉幼稚園","province":"東京都","city":"練馬区","address":"練馬区大泉町2-46-6","lat":35.76292525,"lon":139.6034281},{"name":"合計","province":"東京都","city":"練馬区","address":"東京都練馬区大泉学園町7丁目","lat":35.77324394,"lon":139.58840334},{"name":"練馬給水所","province":"東京都","city":"練馬区","address":"東京都練馬区光が丘2-4-1","lat":35.7633861,"lon":139.631914},{"name":"区立大泉公園","province":"東京都","city":"練馬区","address":"東京都練馬区大泉学園町6-25","lat":35.7720555,"lon":139.582711},{"name":"区立学田公園","province":"東京都","city":"練馬区","address":"東京都練馬区豊玉南3-32","lat":35.7305605,"lon":139.6491262},{"name":"区立はやいち公園","province":"東京都","city":"練馬区","address":"東京都練馬区早宮1-47-11","lat":35.753025,"lon":139.656532},{"name":"区立みんなの広場公園","province":"東京都","city":"練馬区","address":"東京都練馬区石神井町8-41","lat":35.7479365,"lon":139.5986648},{"name":"こども フローラ","province":"東京都","city":"練馬区","address":"東京都練馬区下石神井2丁目35-16","lat":35.72988593,"lon":139.60441153},{"name":"こどもくらぶ　じゃんけんぽん","province":"東京都","city":"練馬区","address":"東京都練馬区西大泉2丁目12-5","lat":35.75634886,"lon":139.57626843},{"name":"明光学童クラブ石神井公園","province":"東京都","city":"練馬区","address":"東京都練馬区石神井町3丁目17-16","lat":35.74267339,"lon":139.60444157},{"name":"石保学童クラブ","province":"東京都","city":"練馬区","address":"東京都練馬区南田中5丁目20-2","lat":35.73699363,"lon":139.60975245},{"name":"colors桜台二丁目学童クラブ","province":"東京都","city":"練馬区","address":"東京都練馬区桜台2丁目46-12","lat":35.74287213,"lon":139.66268387},{"name":"りっこう学童クラブ","province":"東京都","city":"練馬区","address":"東京都練馬区小竹町2丁目43-12","lat":35.74236143,"lon":139.67529388},{"name":"明光学童クラブ南大泉","province":"東京都","city":"練馬区","address":"東京都練馬区南大泉4丁目55-6","lat":35.74803854,"lon":139.56930263},{"name":"キッズボイス中村橋学童クラブ","province":"東京都","city":"練馬区","address":"東京都練馬区中村北4丁目2-6","lat":35.73643334,"lon":139.6376668},{"name":"キッズクラブどろちゃん","province":"東京都","city":"練馬区","address":"東京都練馬区大泉町4丁目29-13","lat":35.76291519,"lon":139.59533607},{"name":"関町南アフタースクール","province":"東京都","city":"練馬区","address":"東京都練馬区関町南4丁目19-6","lat":35.7211805,"lon":139.56939813},{"name":"明光学童クラブ大泉学園","province":"東京都","city":"練馬区","address":"東京都練馬区西大泉1丁目1-16","lat":35.75405218,"lon":139.58389279},{"name":"光が丘さくら幼稚園","province":"東京都","city":"練馬区","address":"練馬区光が丘2-4-8-101","lat":35.76267834,"lon":139.6318626},{"name":"光が丘むらさき幼稚園","province":"東京都","city":"練馬区","address":"練馬区光が丘3-3-5-101","lat":35.75592202,"lon":139.6297159},{"name":"北大泉幼稚園","province":"東京都","city":"練馬区","address":"練馬区大泉町2-46-6","lat":35.76292525,"lon":139.6034281},{"name":"合計","province":"東京都","city":"練馬区","address":"東京都練馬区大泉学園町7丁目","lat":35.77324394,"lon":139.58840334},{"name":"練馬給水所","province":"東京都","city":"練馬区","address":"東京都練馬区光が丘2-4-1","lat":35.7633861,"lon":139.631914},{"name":"区立大泉公園","province":"東京都","city":"練馬区","address":"東京都練馬区大泉学園町6-25","lat":35.7720555,"lon":139.582711},{"name":"区立学田公園","province":"東京都","city":"練馬区","address":"東京都練馬区豊玉南3-32","lat":35.7305605,"lon":139.6491262},{"name":"区立はやいち公園","province":"東京都","city":"練馬区","address":"東京都練馬区早宮1-47-11","lat":35.753025,"lon":139.656532},{"name":"区立みんなの広場公園","province":"東京都","city":"練馬区","address":"東京都練馬区石神井町8-41","lat":35.7479365,"lon":139.5986648},{"name":"こども フローラ","province":"東京都","city":"練馬区","address":"東京都練馬区下石神井2丁目35-16","lat":35.72988593,"lon":139.60441153},{"name":"こどもくらぶ　じゃんけんぽん","province":"東京都","city":"練馬区","address":"東京都練馬区西大泉2丁目12-5","lat":35.75634886,"lon":139.57626843},{"name":"明光学童クラブ石神井公園","province":"東京都","city":"練馬区","address":"東京都練馬区石神井町3丁目17-16","lat":35.74267339,"lon":139.60444157},{"name":"石保学童クラブ","province":"東京都","city":"練馬区","address":"東京都練馬区南田中5丁目20-2","lat":35.73699363,"lon":139.60975245},{"name":"colors桜台二丁目学童クラブ","province":"東京都","city":"練馬区","address":"東京都練馬区桜台2丁目46-12","lat":35.74287213,"lon":139.66268387},{"name":"りっこう学童クラブ","province":"東京都","city":"練馬区","address":"東京都練馬区小竹町2丁目43-12","lat":35.74236143,"lon":139.67529388},{"name":"明光学童クラブ南大泉","province":"東京都","city":"練馬区","address":"東京都練馬区南大泉4丁目55-6","lat":35.74803854,"lon":139.56930263},{"name":"キッズボイス中村橋学童クラブ","province":"東京都","city":"練馬区","address":"東京都練馬区中村北4丁目2-6","lat":35.73643334,"lon":139.6376668},{"name":"キッズクラブどろちゃん","province":"東京都","city":"練馬区","address":"東京都練馬区大泉町4丁目29-13","lat":35.76291519,"lon":139.59533607},{"name":"関町南アフタースクール","province":"東京都","city":"練馬区","address":"東京都練馬区関町南4丁目19-6","lat":35.7211805,"lon":139.56939813},{"name":"明光学童クラブ大泉学園","province":"東京都","city":"練馬区","address":"東京都練馬区西大泉1丁目1-16","lat":35.75405218,"lon":139.58389279},{"name":"光が丘さくら幼稚園","province":"東京都","city":"練馬区","address":"練馬区光が丘2-4-8-101","lat":35.76267834,"lon":139.6318626},{"name":"光が丘むらさき幼稚園","province":"東京都","city":"練馬区","address":"練馬区光が丘3-3-5-101","lat":35.75592202,"lon":139.6297159},{"name":"北大泉幼稚園","province":"東京都","city":"練馬区","address":"練馬区大泉町2-46-6","lat":35.76292525,"lon":139.6034281},{"name":"合計","province":"東京都","city":"練馬区","address":"東京都練馬区大泉学園町7丁目","lat":35.77324394,"lon":139.58840334},{"name":"練馬給水所","province":"東京都","city":"練馬区","address":"東京都練馬区光が丘2-4-1","lat":35.7633861,"lon":139.631914},{"name":"区立大泉公園","province":"東京都","city":"練馬区","address":"東京都練馬区大泉学園町6-25","lat":35.7720555,"lon":139.582711},{"name":"区立学田公園","province":"東京都","city":"練馬区","address":"東京都練馬区豊玉南3-32","lat":35.7305605,"lon":139.6491262},{"name":"区立はやいち公園","province":"東京都","city":"練馬区","address":"東京都練馬区早宮1-47-11","lat":35.753025,"lon":139.656532},{"name":"区立みんなの広場公園","province":"東京都","city":"練馬区","address":"東京都練馬区石神井町8-41","lat":35.7479365,"lon":139.5986648},{"name":"こども フローラ","province":"東京都","city":"練馬区","address":"東京都練馬区下石神井2丁目35-16","lat":35.72988593,"lon":139.60441153},{"name":"こどもくらぶ　じゃんけんぽん","province":"東京都","city":"練馬区","address":"東京都練馬区西大泉2丁目12-5","lat":35.75634886,"lon":139.57626843},{"name":"明光学童クラブ石神井公園","province":"東京都","city":"練馬区","address":"東京都練馬区石神井町3丁目17-16","lat":35.74267339,"lon":139.60444157},{"name":"石保学童クラブ","province":"東京都","city":"練馬区","address":"東京都練馬区南田中5丁目20-2","lat":35.73699363,"lon":139.60975245},{"name":"colors桜台二丁目学童クラブ","province":"東京都","city":"練馬区","address":"東京都練馬区桜台2丁目46-12","lat":35.74287213,"lon":139.66268387},{"name":"りっこう学童クラブ","province":"東京都","city":"練馬区","address":"東京都練馬区小竹町2丁目43-12","lat":35.74236143,"lon":139.67529388},{"name":"明光学童クラブ南大泉","province":"東京都","city":"練馬区","address":"東京都練馬区南大泉4丁目55-6","lat":35.74803854,"lon":139.56930263},{"name":"キッズボイス中村橋学童クラブ","province":"東京都","city":"練馬区","address":"東京都練馬区中村北4丁目2-6","lat":35.73643334,"lon":139.6376668},{"name":"キッズクラブどろちゃん","province":"東京都","city":"練馬区","address":"東京都練馬区大泉町4丁目29-13","lat":35.76291519,"lon":139.59533607},{"name":"関町南アフタースクール","province":"東京都","city":"練馬区","address":"東京都練馬区関町南4丁目19-6","lat":35.7211805,"lon":139.56939813},{"name":"明光学童クラブ大泉学園","province":"東京都","city":"練馬区","address":"東京都練馬区西大泉1丁目1-16","lat":35.75405218,"lon":139.58389279},{"name":"光が丘さくら幼稚園","province":"東京都","city":"練馬区","address":"練馬区光が丘2-4-8-101","lat":35.76267834,"lon":139.6318626},{"name":"光が丘むらさき幼稚園","province":"東京都","city":"練馬区","address":"練馬区光が丘3-3-5-101","lat":35.75592202,"lon":139.6297159},{"name":"北大泉幼稚園","province":"東京都","city":"練馬区","address":"練馬区大泉町2-46-6","lat":35.76292525,"lon":139.6034281},{"name":"合計","province":"東京都","city":"練馬区","address":"東京都練馬区大泉学園町7丁目","lat":35.77324394,"lon":139.58840334},{"name":"練馬給水所","province":"東京都","city":"練馬区","address":"東京都練馬区光が丘2-4-1","lat":35.7633861,"lon":139.631914},{"name":"区立大泉公園","province":"東京都","city":"練馬区","address":"東京都練馬区大泉学園町6-25","lat":35.7720555,"lon":139.582711},{"name":"区立学田公園","province":"東京都","city":"練馬区","address":"東京都練馬区豊玉南3-32","lat":35.7305605,"lon":139.6491262},{"name":"区立はやいち公園","province":"東京都","city":"練馬区","address":"東京都練馬区早宮1-47-11","lat":35.753025,"lon":139.656532},{"name":"区立みんなの広場公園","province":"東京都","city":"練馬区","address":"東京都練馬区石神井町8-41","lat":35.7479365,"lon":139.5986648},{"name":"こども フローラ","province":"東京都","city":"練馬区","address":"東京都練馬区下石神井2丁目35-16","lat":35.72988593,"lon":139.60441153},{"name":"こどもくらぶ　じゃんけんぽん","province":"東京都","city":"練馬区","address":"東京都練馬区西大泉2丁目12-5","lat":35.75634886,"lon":139.57626843},{"name":"明光学童クラブ石神井公園","province":"東京都","city":"練馬区","address":"東京都練馬区石神井町3丁目17-16","lat":35.74267339,"lon":139.60444157},{"name":"石保学童クラブ","province":"東京都","city":"練馬区","address":"東京都練馬区南田中5丁目20-2","lat":35.73699363,"lon":139.60975245},{"name":"colors桜台二丁目学童クラブ","province":"東京都","city":"練馬区","address":"東京都練馬区桜台2丁目46-12","lat":35.74287213,"lon":139.66268387},{"name":"りっこう学童クラブ","province":"東京都","city":"練馬区","address":"東京都練馬区小竹町2丁目43-12","lat":35.74236143,"lon":139.67529388},{"name":"明光学童クラブ南大泉","province":"東京都","city":"練馬区","address":"東京都練馬区南大泉4丁目55-6","lat":35.74803854,"lon":139.56930263},{"name":"キッズボイス中村橋学童クラブ","province":"東京都","city":"練馬区","address":"東京都練馬区中村北4丁目2-6","lat":35.73643334,"lon":139.6376668},{"name":"キッズクラブどろちゃん","province":"東京都","city":"練馬区","address":"東京都練馬区大泉町4丁目29-13","lat":35.76291519,"lon":139.59533607},{"name":"関町南アフタースクール","province":"東京都","city":"練馬区","address":"東京都練馬区関町南4丁目19-6","lat":35.7211805,"lon":139.56939813},{"name":"明光学童クラブ大泉学園","province":"東京都","city":"練馬区","address":"東京都練馬区西大泉1丁目1-16","lat":35.75405218,"lon":139.58389279},{"name":"光が丘さくら幼稚園","province":"東京都","city":"練馬区","address":"練馬区光が丘2-4-8-101","lat":35.76267834,"lon":139.6318626},{"name":"光が丘むらさき幼稚園","province":"東京都","city":"練馬区","address":"練馬区光が丘3-3-5-101","lat":35.75592202,"lon":139.6297159},{"name":"北大泉幼稚園","province":"東京都","city":"練馬区","address":"練馬区大泉町2-46-6","lat":35.76292525,"lon":139.6034281},{"name":"合計","province":"東京都","city":"練馬区","address":"東京都練馬区大泉学園町7丁目","lat":35.77324394,"lon":139.58840334},{"name":"練馬給水所","province":"東京都","city":"練馬区","address":"東京都練馬区光が丘2-4-1","lat":35.7633861,"lon":139.631914},{"name":"区立大泉公園","province":"東京都","city":"練馬区","address":"東京都練馬区大泉学園町6-25","lat":35.7720555,"lon":139.582711},{"name":"区立学田公園","province":"東京都","city":"練馬区","address":"東京都練馬区豊玉南3-32","lat":35.7305605,"lon":139.6491262},{"name":"区立はやいち公園","province":"東京都","city":"練馬区","address":"東京都練馬区早宮1-47-11","lat":35.753025,"lon":139.656532},{"name":"区立みんなの広場公園","province":"東京都","city":"練馬区","address":"東京都練馬区石神井町8-41","lat":35.7479365,"lon":139.5986648},{"name":"こども フローラ","province":"東京都","city":"練馬区","address":"東京都練馬区下石神井2丁目35-16","lat":35.72988593,"lon":139.60441153},{"name":"こどもくらぶ　じゃんけんぽん","province":"東京都","city":"練馬区","address":"東京都練馬区西大泉2丁目12-5","lat":35.75634886,"lon":139.57626843},{"name":"明光学童クラブ石神井公園","province":"東京都","city":"練馬区","address":"東京都練馬区石神井町3丁目17-16","lat":35.74267339,"lon":139.60444157},{"name":"石保学童クラブ","province":"東京都","city":"練馬区","address":"東京都練馬区南田中5丁目20-2","lat":35.73699363,"lon":139.60975245},{"name":"colors桜台二丁目学童クラブ","province":"東京都","city":"練馬区","address":"東京都練馬区桜台2丁目46-12","lat":35.74287213,"lon":139.66268387},{"name":"りっこう学童クラブ","province":"東京都","city":"練馬区","address":"東京都練馬区小竹町2丁目43-12","lat":35.74236143,"lon":139.67529388},{"name":"明光学童クラブ南大泉","province":"東京都","city":"練馬区","address":"東京都練馬区南大泉4丁目55-6","lat":35.74803854,"lon":139.56930263},{"name":"キッズボイス中村橋学童クラブ","province":"東京都","city":"練馬区","address":"東京都練馬区中村北4丁目2-6","lat":35.73643334,"lon":139.6376668},{"name":"キッズクラブどろちゃん","province":"東京都","city":"練馬区","address":"東京都練馬区大泉町4丁目29-13","lat":35.76291519,"lon":139.59533607},{"name":"関町南アフタースクール","province":"東京都","city":"練馬区","address":"東京都練馬区関町南4丁目19-6","lat":35.7211805,"lon":139.56939813},{"name":"明光学童クラブ大泉学園","province":"東京都","city":"練馬区","address":"東京都練馬区西大泉1丁目1-16","lat":35.75405218,"lon":139.58389279},{"name":"光が丘さくら幼稚園","province":"東京都","city":"練馬区","address":"練馬区光が丘2-4-8-101","lat":35.76267834,"lon":139.6318626},{"name":"光が丘むらさき幼稚園","province":"東京都","city":"練馬区","address":"練馬区光が丘3-3-5-101","lat":35.75592202,"lon":139.6297159},{"name":"北大泉幼稚園","province":"東京都","city":"練馬区","address":"練馬区大泉町2-46-6","lat":35.76292525,"lon":139.6034281},{"name":"合計","province":"東京都","city":"練馬区","address":"東京都練馬区大泉学園町7丁目","lat":35.77324394,"lon":139.58840334}]}