{"keyword":"受取","data":[{"name":"高野台受取窓口","province":"東京都","city":"練馬区","address":"東京都練馬区高野台2丁目25-1","lat":35.74804827,"lon":139.62117047},{"name":"豊玉受取窓口","province":"東京都","city":"練馬区","address":"東京都練馬区豊玉上2丁目22-15","lat":35.73706161,"lon":139.66013989},{"name":"石神井公園駅受取窓口","province":"東京都","city":"練馬区","address":"東京都練馬区石神井町7丁目1-2","lat":35.74437874,"lon":139.60358324},{"name":"大泉学園駅受取窓口","province":"東京都","city":"練馬区","address":"東京都練馬区東大泉1丁目28-1","lat":35.74956665,"lon":139.58776766},{"name":"高野台受取窓口","province":"東京都","city":"練馬区","address":"東京都練馬区高野台2丁目25-1","lat":35.74804827,"lon":139.62117047},{"name":"豊玉受取窓口","province":"東京都","city":"練馬区","address":"東京都練馬区豊玉上2丁目22-15","lat":35.73706161,"lon":139.66013989},{"name":"石神井公園駅受取窓口","province":"東京都","city":"練馬区","address":"東京都練馬区石神井町7丁目1-2","lat":35.74437874,"lon":139.60358324},{"name":"北町受取窓口","province":"東京都","city":"練馬区","address":"東京都練馬区北町2丁目26-1","lat":35.76762472,"lon":139.66038859},{"name":"上石神井受取窓口","province":"東京都","city":"練馬区","address":"東京都練馬区上石神井1丁目6-16","lat":35.7252278,"lon":139.5924766},{"name":"小竹図書館","province":"東京都","city":"練馬区","address":"練馬区小竹町2-43-1","lat":35.74190544,"lon":139.6759918},{"name":"練馬図書館","province":"東京都","city":"練馬区","address":"練馬区豊玉北6-8-1","lat":35.73402099,"lon":139.6520603},{"name":"貫井図書館","province":"東京都","city":"練馬区","address":"練馬区貫井1-36-16","lat":35.73699984,"lon":139.6359237},{"name":"平和台図書館","province":"東京都","city":"練馬区","address":"練馬区平和台1-36-17","lat":35.76000134,"lon":139.664822},{"name":"春日町図書館","province":"東京都","city":"練馬区","address":"練馬区春日町5-31-2-201","lat":35.7512985,"lon":139.6393136},{"name":"光が丘図書館","province":"東京都","city":"練馬区","address":"練馬区光が丘4-1-5","lat":35.76312775,"lon":139.6300333},{"name":"石神井図書館","province":"東京都","city":"練馬区","address":"練馬区石神井台1-16-31","lat":35.73648593,"lon":139.5993942},{"name":"南大泉図書館","province":"東京都","city":"練馬区","address":"練馬区南大泉1-44-7","lat":35.74337104,"lon":139.5747662},{"name":"稲荷山図書館","province":"東京都","city":"練馬区","address":"練馬区大泉町1-3-18","lat":35.76531636,"lon":139.6092},{"name":"大泉図書館","province":"東京都","city":"練馬区","address":"練馬区大泉学園町2-21-17","lat":35.76074513,"lon":139.586944},{"name":"関町図書館","province":"東京都","city":"練馬区","address":"練馬区関町南3-11-2","lat":35.72095905,"lon":139.5803185},{"name":"区立図書館高野台受取窓口","province":"東京都","city":"練馬区","address":"練馬区高野台2-25-1","lat":35.74805575,"lon":139.6209476},{"name":"南田中図書館","province":"東京都","city":"練馬区","address":"練馬区南田中5-15-22","lat":35.73761177,"lon":139.6110638},{"name":"区立図書館豊玉受取窓口","province":"東京都","city":"練馬区","address":"練馬区豊玉上2-22-15","lat":35.73701518,"lon":139.6601701},{"name":"南大泉図書館分室こどもと本のひろば","province":"東京都","city":"練馬区","address":"練馬区南大泉3-17-20","lat":35.74164022,"lon":139.5699321},{"name":"区立図書館石神井公園駅受取窓口","province":"東京都","city":"練馬区","address":"練馬区石神井町7-1-2","lat":35.7443963,"lon":139.6035259},{"name":"区立図書館大泉学園駅受取窓口","province":"東京都","city":"練馬区","address":"練馬区東大泉1-28-1リズモ大泉学園4階","lat":35.74968458,"lon":139.5875221},{"name":"区立図書館北町受取窓口","province":"東京都","city":"練馬区","address":"練馬区北町2-26-1","lat":35.76757601,"lon":139.6603903},{"name":"区立図書館上石神井受取窓口","province":"東京都","city":"練馬区","address":"練馬区上石神井1-6-16","lat":35.72525698,"lon":139.5924702}]}