{"keyword":"子ども","data":[{"name":"石神井公園","province":"東京都","city":"練馬区","address":"東京都練馬区石神井町5丁目17","lat":35.738778,"lon":139.602955},{"name":"石神井公園","province":"東京都","city":"練馬区","address":"東京都練馬区石神井町5丁目24","lat":35.737791,"lon":139.599169},{"name":"石神井公園","province":"東京都","city":"練馬区","address":"東京都練馬区石神井台1丁目26","lat":35.738776,"lon":139.596424},{"name":"石神井公園","province":"東京都","city":"練馬区","address":"東京都練馬区石神井町5丁目21","lat":35.739398,"lon":139.601502},{"name":"石神井公園","province":"東京都","city":"練馬区","address":"東京都練馬区石神井町5丁目21","lat":35.739153,"lon":139.605055},{"name":"石神井公園","province":"東京都","city":"練馬区","address":"東京都練馬区石神井台1丁目26","lat":35.738483,"lon":139.597315},{"name":"石神井公園","province":"東京都","city":"練馬区","address":"東京都練馬区石神井町5丁目17","lat":35.737512,"lon":139.602991},{"name":"大泉中央公園","province":"東京都","city":"練馬区","address":"東京都練馬区大泉学園町9丁目4","lat":35.774911,"lon":139.597476},{"name":"城北中央公園","province":"東京都","city":"練馬区","address":"東京都練馬区羽沢3丁目21","lat":35.752016,"lon":139.672321},{"name":"光が丘公園","province":"東京都","city":"練馬区","address":"東京都練馬区光が丘4丁目1","lat":35.767845,"lon":139.634455},{"name":"光が丘公園","province":"東京都","city":"練馬区","address":"東京都練馬区光が丘4丁目1","lat":35.763382,"lon":139.628161},{"name":"光が丘公園","province":"東京都","city":"練馬区","address":"東京都練馬区光が丘4丁目1","lat":35.767515,"lon":139.626661},{"name":"光が丘公園","province":"東京都","city":"練馬区","address":"東京都練馬区光が丘4丁目1","lat":35.768989,"lon":139.626675},{"name":"光が丘公園","province":"東京都","city":"練馬区","address":"東京都練馬区光が丘4丁目1","lat":35.767559,"lon":139.629614},{"name":"光が丘公園","province":"東京都","city":"練馬区","address":"東京都練馬区光が丘4丁目1","lat":35.76767,"lon":139.632076},{"name":"光が丘公園","province":"東京都","city":"練馬区","address":"東京都練馬区光が丘4丁目1","lat":35.765392,"lon":139.630802},{"name":"光が丘公園","province":"東京都","city":"練馬区","address":"東京都練馬区光が丘4丁目1","lat":35.764528,"lon":139.631164},{"name":"光が丘公園","province":"東京都","city":"練馬区","address":"東京都練馬区光が丘4丁目1","lat":35.765172,"lon":139.630127},{"name":"光が丘公園","province":"東京都","city":"練馬区","address":"東京都練馬区光が丘4丁目1","lat":35.766547,"lon":139.634771},{"name":"練馬城址公園","province":"東京都","city":"練馬区","address":"東京都練馬区春日町1丁目1","lat":35.746499,"lon":139.642148},{"name":"都営大江戸線練馬春日町駅","province":"東京都","city":"練馬区","address":"東京都練馬区春日町3丁目35","lat":35.751495,"lon":139.640128},{"name":"都営大江戸線練馬駅","province":"東京都","city":"練馬区","address":"東京都練馬区豊玉北5丁目17","lat":35.737387,"lon":139.654943},{"name":"都営大江戸線豊島園駅","province":"東京都","city":"練馬区","address":"東京都練馬区練馬4丁目26","lat":35.741666,"lon":139.649137},{"name":"都営大江戸線光が丘駅","province":"東京都","city":"練馬区","address":"東京都練馬区光が丘3丁目10","lat":35.758534,"lon":139.629104},{"name":"東京都水道局北部支所","province":"東京都","city":"練馬区","address":"東京都練馬区中村北1丁目9-4","lat":35.734692,"lon":139.647658},{"name":"練馬消防署","province":"東京都","city":"練馬区","address":"東京都練馬区豊玉北5丁目1-8","lat":35.737427,"lon":139.655935},{"name":"光が丘消防署北町出張所","province":"東京都","city":"練馬区","address":"東京都練馬区北町3丁目10-14","lat":35.768523,"lon":139.65372},{"name":"石神井消防署石神井公園出張所","province":"東京都","city":"練馬区","address":"東京都練馬区石神井町2丁目16-1","lat":35.745472,"lon":139.607725},{"name":"北保健相談所","province":"東京都","city":"練馬区","address":"東京都練馬区北町6丁目35-7","lat":35.757169,"lon":139.649561},{"name":"大泉まちの子ども食堂","province":"東京都","city":"練馬区","address":"東京都練馬区大泉学園町5丁目6-17","lat":35.76605618,"lon":139.58681732},{"name":"おおいずみ子ども食堂","province":"東京都","city":"練馬区","address":"東京都練馬区東大泉5丁目35-12","lat":35.74777522,"lon":139.58954537},{"name":"子ども交流食堂たまっこ","province":"東京都","city":"練馬区","address":"東京都練馬区豊玉中3丁目3-12","lat":35.73209539,"lon":139.65530162},{"name":"桜台子育て応援食堂","province":"東京都","city":"練馬区","address":"東京都練馬区豊玉北1丁目12-3","lat":35.73486209,"lon":139.66858647},{"name":"石神井ゆうやけ子ども食堂","province":"東京都","city":"練馬区","address":"東京都練馬区石神井町1丁目24-6","lat":35.74275959,"lon":139.60806903},{"name":"太陽の子東大泉保育園こども食堂","province":"東京都","city":"練馬区","address":"東京都練馬区東大泉2丁目9-16","lat":35.75141936,"lon":139.59393098},{"name":"てへっ！こども食堂","province":"東京都","city":"練馬区","address":"東京都練馬区高松4丁目1-28","lat":35.75142596,"lon":139.63297772},{"name":"ねりまこども食堂","province":"東京都","city":"練馬区","address":"東京都練馬区谷原1丁目3-7","lat":35.74916489,"lon":139.62444516},{"name":"練馬地域ふれあい食堂","province":"東京都","city":"練馬区","address":"東京都練馬区練馬4丁目2-3","lat":35.74027488,"lon":139.65022115},{"name":"ハッピーお茶家ころころ","province":"東京都","city":"練馬区","address":"東京都練馬区東大泉1丁目15-10","lat":35.74799471,"lon":139.59283676},{"name":"ふろしきこども食堂","province":"東京都","city":"練馬区","address":"東京都練馬区練馬4丁目17-2","lat":35.74259123,"lon":139.64769904},{"name":"まるてる子ども食堂","province":"東京都","city":"練馬区","address":"東京都練馬区栄町31-6","lat":35.73843676,"lon":139.67126386},{"name":"みんなの食堂すまいる","province":"東京都","city":"練馬区","address":"東京都練馬区石神井町3丁目2-8","lat":35.74018207,"lon":139.60658038},{"name":"らくぜん子ども食堂","province":"東京都","city":"練馬区","address":"東京都練馬区旭町1丁目31-4","lat":35.7653381,"lon":139.62495835},{"name":"長さんこども食堂","province":"東京都","city":"練馬区","address":"東京都練馬区大泉町2丁目54-9","lat":35.76180737,"lon":139.60733505},{"name":"旭町こども食堂ニコ","province":"東京都","city":"練馬区","address":"東京都練馬区旭町3丁目26-7","lat":35.77683964,"lon":139.62853538},{"name":"こども食堂バァバんち","province":"東京都","city":"練馬区","address":"東京都練馬区中村1丁目8-2-7","lat":35.73255625,"lon":139.64794389},{"name":"こども食堂ぽてと","province":"東京都","city":"練馬区","address":"東京都練馬区練馬4丁目6-5","lat":35.74061369,"lon":139.64862683},{"name":"みさよ子ども食堂","province":"東京都","city":"練馬区","address":"東京都練馬区土支田3丁目27-27","lat":35.76155741,"lon":139.60763226},{"name":"ＳＯＭＰＯケアそんぽの家Ｓ江古田","province":"東京都","city":"練馬区","address":"東京都練馬区旭丘2丁目5-2","lat":35.73431521,"lon":139.67823288},{"name":"石神井台かめさん食堂","province":"東京都","city":"練馬区","address":"東京都練馬区石神井台3丁目20-9","lat":35.74213421,"lon":139.59137602},{"name":"子ども未来食堂","province":"東京都","city":"練馬区","address":"東京都練馬区羽沢2丁目5-3","lat":35.74272235,"lon":139.67018876},{"name":"感動こども食堂ときわ亭練馬店","province":"東京都","city":"練馬区","address":"東京都練馬区豊玉北5丁目19-1","lat":35.73692535,"lon":139.65368211},{"name":"ねりたか子ども食堂","province":"東京都","city":"練馬区","address":"東京都練馬区旭町1丁目12-31","lat":35.7635716,"lon":139.62405573},{"name":"ころころ子ども食堂","province":"東京都","city":"練馬区","address":"東京都練馬区大泉学園町1丁目7-13","lat":35.75947109,"lon":139.58895052},{"name":"みんなン家","province":"東京都","city":"練馬区","address":"東京都練馬区光が丘2丁目4-10","lat":35.7631608,"lon":139.63382992},{"name":"都立城北中央公園野球場","province":"東京都","city":"練馬区","address":"東京都練馬区氷川台1丁目6","lat":35.75399329,"lon":139.67112982},{"name":"都立城北中央公園陸上競技場","province":"東京都","city":"練馬区","address":"東京都練馬区氷川台1丁目3-1","lat":35.75657914,"lon":139.67298788},{"name":"練馬区立練馬総合運動場","province":"東京都","city":"練馬区","address":"東京都練馬区練馬2丁目29-10","lat":35.74518829,"lon":139.65316237},{"name":"都立光が丘公園陸上競技場","province":"東京都","city":"練馬区","address":"東京都練馬区光が丘4丁目1","lat":35.76779071,"lon":139.62921623},{"name":"都立石神井公園内Ｂ地区野球場","province":"東京都","city":"練馬区","address":"東京都練馬区石神井台1丁目26-1","lat":35.73900692,"lon":139.59757011},{"name":"都立大泉中央公園陸上競技場","province":"東京都","city":"練馬区","address":"東京都練馬区大泉学園町9丁目4-3","lat":35.77467193,"lon":139.59766904},{"name":"高野台運動場","province":"東京都","city":"練馬区","address":"東京都練馬区高野台3丁目8-8","lat":35.74368462,"lon":139.61252972},{"name":"練馬区役所屋上","province":"東京都","city":"練馬区","address":"東京都練馬区豊玉北6丁目12-1","lat":35.73558101,"lon":139.65167678},{"name":"豊島園","province":"東京都","city":"練馬区","address":"東京都練馬区向山3丁目25-1","lat":35.74410496,"lon":139.64799896},{"name":"練馬区立松の風公園（旧日銀運動場）","province":"東京都","city":"練馬区","address":"東京都練馬区石神井台1丁目33","lat":35.73939292,"lon":139.59470088},{"name":"練馬駅北口地下駐車場","province":"東京都","city":"練馬区","address":"練馬区練馬1-17-5","lat":35.73860642,"lon":139.6532724},{"name":"石神井公園駅北口駐車場（石神井公園ピアレスパーキング）","province":"東京都","city":"練馬区","address":"練馬区石神井町2-14-15","lat":35.74443935,"lon":139.6069778},{"name":"大泉学園駅北口駐車場（大泉学園ゆめりあ北パーキング）","province":"東京都","city":"練馬区","address":"練馬区東大泉1-29-1","lat":35.75006211,"lon":139.585652},{"name":"大泉学園駅南口駐車場（大泉学園ゆめりあ南パーキング）","province":"東京都","city":"練馬区","address":"練馬区東大泉5-43-1","lat":35.748556,"lon":139.5854184},{"name":"勤労福祉会館","province":"東京都","city":"練馬区","address":"練馬区東大泉5-40-36","lat":35.7482275,"lon":139.5873725},{"name":"中村橋福祉ケアセンター（心身障害者福祉センター）","province":"東京都","city":"練馬区","address":"練馬区貫井1-9-1","lat":35.73823139,"lon":139.6355566},{"name":"練馬区立総合体育館","province":"東京都","city":"練馬区","address":"東京都練馬区谷原1丁目7-5","lat":35.74938979,"lon":139.62145652},{"name":"練馬区","province":"東京都","city":"練馬区","address":"練馬区桜台1-5-4-204","lat":35.73906,"lon":139.6614},{"name":"石神井公園","province":"東京都","city":"練馬区","address":"東京都練馬区石神井町5丁目17","lat":35.738778,"lon":139.602955},{"name":"石神井公園","province":"東京都","city":"練馬区","address":"東京都練馬区石神井町5丁目24","lat":35.737791,"lon":139.599169},{"name":"石神井公園","province":"東京都","city":"練馬区","address":"東京都練馬区石神井台1丁目26","lat":35.738776,"lon":139.596424},{"name":"石神井公園","province":"東京都","city":"練馬区","address":"東京都練馬区石神井町5丁目21","lat":35.739398,"lon":139.601502},{"name":"石神井公園","province":"東京都","city":"練馬区","address":"東京都練馬区石神井町5丁目21","lat":35.739153,"lon":139.605055},{"name":"石神井公園","province":"東京都","city":"練馬区","address":"東京都練馬区石神井台1丁目26","lat":35.738483,"lon":139.597315},{"name":"石神井公園","province":"東京都","city":"練馬区","address":"東京都練馬区石神井町5丁目17","lat":35.737512,"lon":139.602991},{"name":"大泉中央公園","province":"東京都","city":"練馬区","address":"東京都練馬区大泉学園町9丁目4","lat":35.774911,"lon":139.597476},{"name":"城北中央公園","province":"東京都","city":"練馬区","address":"東京都練馬区羽沢3丁目21","lat":35.752016,"lon":139.672321},{"name":"光が丘公園","province":"東京都","city":"練馬区","address":"東京都練馬区光が丘4丁目1","lat":35.767845,"lon":139.634455},{"name":"光が丘公園","province":"東京都","city":"練馬区","address":"東京都練馬区光が丘4丁目1","lat":35.763382,"lon":139.628161},{"name":"光が丘公園","province":"東京都","city":"練馬区","address":"東京都練馬区光が丘4丁目1","lat":35.767515,"lon":139.626661},{"name":"光が丘公園","province":"東京都","city":"練馬区","address":"東京都練馬区光が丘4丁目1","lat":35.768989,"lon":139.626675},{"name":"光が丘公園","province":"東京都","city":"練馬区","address":"東京都練馬区光が丘4丁目1","lat":35.767559,"lon":139.629614},{"name":"光が丘公園","province":"東京都","city":"練馬区","address":"東京都練馬区光が丘4丁目1","lat":35.76767,"lon":139.632076},{"name":"光が丘公園","province":"東京都","city":"練馬区","address":"東京都練馬区光が丘4丁目1","lat":35.765392,"lon":139.630802},{"name":"光が丘公園","province":"東京都","city":"練馬区","address":"東京都練馬区光が丘4丁目1","lat":35.764528,"lon":139.631164},{"name":"光が丘公園","province":"東京都","city":"練馬区","address":"東京都練馬区光が丘4丁目1","lat":35.765172,"lon":139.630127},{"name":"光が丘公園","province":"東京都","city":"練馬区","address":"東京都練馬区光が丘4丁目1","lat":35.766547,"lon":139.634771},{"name":"練馬城址公園","province":"東京都","city":"練馬区","address":"東京都練馬区春日町1丁目1","lat":35.746499,"lon":139.642148},{"name":"都営大江戸線練馬春日町駅","province":"東京都","city":"練馬区","address":"東京都練馬区春日町3丁目35","lat":35.751495,"lon":139.640128},{"name":"都営大江戸線練馬駅","province":"東京都","city":"練馬区","address":"東京都練馬区豊玉北5丁目17","lat":35.737387,"lon":139.654943},{"name":"都営大江戸線豊島園駅","province":"東京都","city":"練馬区","address":"東京都練馬区練馬4丁目26","lat":35.741666,"lon":139.649137},{"name":"都営大江戸線光が丘駅","province":"東京都","city":"練馬区","address":"東京都練馬区光が丘3丁目10","lat":35.758534,"lon":139.629104},{"name":"東京都水道局北部支所","province":"東京都","city":"練馬区","address":"東京都練馬区中村北1丁目9-4","lat":35.734692,"lon":139.647658},{"name":"練馬消防署","province":"東京都","city":"練馬区","address":"東京都練馬区豊玉北5丁目1-8","lat":35.737427,"lon":139.655935},{"name":"光が丘消防署北町出張所","province":"東京都","city":"練馬区","address":"東京都練馬区北町3丁目10-14","lat":35.768523,"lon":139.65372},{"name":"石神井消防署石神井公園出張所","province":"東京都","city":"練馬区","address":"東京都練馬区石神井町2丁目16-1","lat":35.745472,"lon":139.607725},{"name":"北保健相談所","province":"東京都","city":"練馬区","address":"東京都練馬区北町6丁目35-7","lat":35.757169,"lon":139.649561},{"name":"大泉まちの子ども食堂","province":"東京都","city":"練馬区","address":"東京都練馬区大泉学園町5丁目6-17","lat":35.76605618,"lon":139.58681732},{"name":"おおいずみ子ども食堂","province":"東京都","city":"練馬区","address":"東京都練馬区東大泉5丁目35-12","lat":35.74777522,"lon":139.58954537},{"name":"子ども交流食堂たまっこ","province":"東京都","city":"練馬区","address":"東京都練馬区豊玉中3丁目3-12","lat":35.73209539,"lon":139.65530162},{"name":"桜台子育て応援食堂","province":"東京都","city":"練馬区","address":"東京都練馬区豊玉北1丁目12-3","lat":35.73486209,"lon":139.66858647},{"name":"石神井ゆうやけ子ども食堂","province":"東京都","city":"練馬区","address":"東京都練馬区石神井町1丁目24-6","lat":35.74275959,"lon":139.60806903},{"name":"太陽の子東大泉保育園こども食堂","province":"東京都","city":"練馬区","address":"東京都練馬区東大泉2丁目9-16","lat":35.75141936,"lon":139.59393098},{"name":"てへっ！こども食堂","province":"東京都","city":"練馬区","address":"東京都練馬区高松4丁目1-28","lat":35.75142596,"lon":139.63297772},{"name":"ねりまこども食堂","province":"東京都","city":"練馬区","address":"東京都練馬区谷原1丁目3-7","lat":35.74916489,"lon":139.62444516},{"name":"練馬地域ふれあい食堂","province":"東京都","city":"練馬区","address":"東京都練馬区練馬4丁目2-3","lat":35.74027488,"lon":139.65022115},{"name":"ハッピーお茶家ころころ","province":"東京都","city":"練馬区","address":"東京都練馬区東大泉1丁目15-10","lat":35.74799471,"lon":139.59283676},{"name":"ふろしきこども食堂","province":"東京都","city":"練馬区","address":"東京都練馬区練馬4丁目17-2","lat":35.74259123,"lon":139.64769904},{"name":"まるてる子ども食堂","province":"東京都","city":"練馬区","address":"東京都練馬区栄町31-6","lat":35.73843676,"lon":139.67126386},{"name":"みんなの食堂すまいる","province":"東京都","city":"練馬区","address":"東京都練馬区石神井町3丁目2-8","lat":35.74018207,"lon":139.60658038},{"name":"らくぜん子ども食堂","province":"東京都","city":"練馬区","address":"東京都練馬区旭町1丁目31-4","lat":35.7653381,"lon":139.62495835},{"name":"長さんこども食堂","province":"東京都","city":"練馬区","address":"東京都練馬区大泉町2丁目54-9","lat":35.76180737,"lon":139.60733505},{"name":"旭町こども食堂ニコ","province":"東京都","city":"練馬区","address":"東京都練馬区旭町3丁目26-7","lat":35.77683964,"lon":139.62853538},{"name":"こども食堂バァバんち","province":"東京都","city":"練馬区","address":"東京都練馬区中村1丁目8-2-7","lat":35.73255625,"lon":139.64794389},{"name":"こども食堂ぽてと","province":"東京都","city":"練馬区","address":"東京都練馬区練馬4丁目6-5","lat":35.74061369,"lon":139.64862683},{"name":"みさよ子ども食堂","province":"東京都","city":"練馬区","address":"東京都練馬区土支田3丁目27-27","lat":35.76155741,"lon":139.60763226},{"name":"ＳＯＭＰＯケアそんぽの家Ｓ江古田","province":"東京都","city":"練馬区","address":"東京都練馬区旭丘2丁目5-2","lat":35.73431521,"lon":139.67823288},{"name":"石神井台かめさん食堂","province":"東京都","city":"練馬区","address":"東京都練馬区石神井台3丁目20-9","lat":35.74213421,"lon":139.59137602},{"name":"子ども未来食堂","province":"東京都","city":"練馬区","address":"東京都練馬区羽沢2丁目5-3","lat":35.74272235,"lon":139.67018876},{"name":"感動こども食堂ときわ亭練馬店","province":"東京都","city":"練馬区","address":"東京都練馬区豊玉北5丁目19-1","lat":35.73692535,"lon":139.65368211},{"name":"ねりたか子ども食堂","province":"東京都","city":"練馬区","address":"東京都練馬区旭町1丁目12-31","lat":35.7635716,"lon":139.62405573},{"name":"ころころ子ども食堂","province":"東京都","city":"練馬区","address":"東京都練馬区大泉学園町1丁目7-13","lat":35.75947109,"lon":139.58895052},{"name":"みんなン家","province":"東京都","city":"練馬区","address":"東京都練馬区光が丘2丁目4-10","lat":35.7631608,"lon":139.63382992},{"name":"練馬駅北口地下駐車場","province":"東京都","city":"練馬区","address":"練馬区練馬1-17-5","lat":35.73860642,"lon":139.6532724},{"name":"石神井公園駅北口駐車場（石神井公園ピアレスパーキング）","province":"東京都","city":"練馬区","address":"練馬区石神井町2-14-15","lat":35.74443935,"lon":139.6069778},{"name":"大泉学園駅北口駐車場（大泉学園ゆめりあ北パーキング）","province":"東京都","city":"練馬区","address":"練馬区東大泉1-29-1","lat":35.75006211,"lon":139.585652},{"name":"大泉学園駅南口駐車場（大泉学園ゆめりあ南パーキング）","province":"東京都","city":"練馬区","address":"練馬区東大泉5-43-1","lat":35.748556,"lon":139.5854184},{"name":"勤労福祉会館","province":"東京都","city":"練馬区","address":"練馬区東大泉5-40-36","lat":35.7482275,"lon":139.5873725},{"name":"中村橋福祉ケアセンター（心身障害者福祉センター）","province":"東京都","city":"練馬区","address":"練馬区貫井1-9-1","lat":35.73823139,"lon":139.6355566},{"name":"石神井公園","province":"東京都","city":"練馬区","address":"東京都練馬区石神井町5丁目17","lat":35.738778,"lon":139.602955},{"name":"石神井公園","province":"東京都","city":"練馬区","address":"東京都練馬区石神井町5丁目24","lat":35.737791,"lon":139.599169},{"name":"石神井公園","province":"東京都","city":"練馬区","address":"東京都練馬区石神井台1丁目26","lat":35.738776,"lon":139.596424},{"name":"石神井公園","province":"東京都","city":"練馬区","address":"東京都練馬区石神井町5丁目21","lat":35.739398,"lon":139.601502},{"name":"石神井公園","province":"東京都","city":"練馬区","address":"東京都練馬区石神井町5丁目21","lat":35.739153,"lon":139.605055},{"name":"石神井公園","province":"東京都","city":"練馬区","address":"東京都練馬区石神井台1丁目26","lat":35.738483,"lon":139.597315},{"name":"石神井公園","province":"東京都","city":"練馬区","address":"東京都練馬区石神井町5丁目17","lat":35.737512,"lon":139.602991},{"name":"大泉中央公園","province":"東京都","city":"練馬区","address":"東京都練馬区大泉学園町9丁目4","lat":35.774911,"lon":139.597476},{"name":"城北中央公園","province":"東京都","city":"練馬区","address":"東京都練馬区羽沢3丁目21","lat":35.752016,"lon":139.672321},{"name":"光が丘公園","province":"東京都","city":"練馬区","address":"東京都練馬区光が丘4丁目1","lat":35.767845,"lon":139.634455},{"name":"光が丘公園","province":"東京都","city":"練馬区","address":"東京都練馬区光が丘4丁目1","lat":35.763382,"lon":139.628161},{"name":"光が丘公園","province":"東京都","city":"練馬区","address":"東京都練馬区光が丘4丁目1","lat":35.767515,"lon":139.626661},{"name":"光が丘公園","province":"東京都","city":"練馬区","address":"東京都練馬区光が丘4丁目1","lat":35.768989,"lon":139.626675},{"name":"光が丘公園","province":"東京都","city":"練馬区","address":"東京都練馬区光が丘4丁目1","lat":35.767559,"lon":139.629614},{"name":"光が丘公園","province":"東京都","city":"練馬区","address":"東京都練馬区光が丘4丁目1","lat":35.76767,"lon":139.632076},{"name":"光が丘公園","province":"東京都","city":"練馬区","address":"東京都練馬区光が丘4丁目1","lat":35.765392,"lon":139.630802},{"name":"光が丘公園","province":"東京都","city":"練馬区","address":"東京都練馬区光が丘4丁目1","lat":35.764528,"lon":139.631164},{"name":"光が丘公園","province":"東京都","city":"練馬区","address":"東京都練馬区光が丘4丁目1","lat":35.765172,"lon":139.630127},{"name":"光が丘公園","province":"東京都","city":"練馬区","address":"東京都練馬区光が丘4丁目1","lat":35.766547,"lon":139.634771},{"name":"練馬城址公園","province":"東京都","city":"練馬区","address":"東京都練馬区春日町1丁目1","lat":35.746499,"lon":139.642148},{"name":"都営大江戸線練馬春日町駅","province":"東京都","city":"練馬区","address":"東京都練馬区春日町3丁目35","lat":35.751495,"lon":139.640128},{"name":"都営大江戸線練馬駅","province":"東京都","city":"練馬区","address":"東京都練馬区豊玉北5丁目17","lat":35.737387,"lon":139.654943},{"name":"都営大江戸線豊島園駅","province":"東京都","city":"練馬区","address":"東京都練馬区練馬4丁目26","lat":35.741666,"lon":139.649137},{"name":"都営大江戸線光が丘駅","province":"東京都","city":"練馬区","address":"東京都練馬区光が丘3丁目10","lat":35.758534,"lon":139.629104},{"name":"東京都水道局北部支所","province":"東京都","city":"練馬区","address":"東京都練馬区中村北1丁目9-4","lat":35.734692,"lon":139.647658},{"name":"練馬消防署","province":"東京都","city":"練馬区","address":"東京都練馬区豊玉北5丁目1-8","lat":35.737427,"lon":139.655935},{"name":"光が丘消防署北町出張所","province":"東京都","city":"練馬区","address":"東京都練馬区北町3丁目10-14","lat":35.768523,"lon":139.65372},{"name":"石神井消防署石神井公園出張所","province":"東京都","city":"練馬区","address":"東京都練馬区石神井町2丁目16-1","lat":35.745472,"lon":139.607725},{"name":"北保健相談所","province":"東京都","city":"練馬区","address":"東京都練馬区北町6丁目35-7","lat":35.757169,"lon":139.649561},{"name":"大泉まちの子ども食堂","province":"東京都","city":"練馬区","address":"東京都練馬区大泉学園町5丁目6-17","lat":35.76605618,"lon":139.58681732},{"name":"おおいずみ子ども食堂","province":"東京都","city":"練馬区","address":"東京都練馬区東大泉5丁目35-12","lat":35.74777522,"lon":139.58954537},{"name":"子ども交流食堂たまっこ","province":"東京都","city":"練馬区","address":"東京都練馬区豊玉中3丁目3-12","lat":35.73209539,"lon":139.65530162},{"name":"桜台子育て応援食堂","province":"東京都","city":"練馬区","address":"東京都練馬区豊玉北1丁目12-3","lat":35.73486209,"lon":139.66858647},{"name":"石神井ゆうやけ子ども食堂","province":"東京都","city":"練馬区","address":"東京都練馬区石神井町1丁目24-6","lat":35.74275959,"lon":139.60806903},{"name":"太陽の子東大泉保育園こども食堂","province":"東京都","city":"練馬区","address":"東京都練馬区東大泉2丁目9-16","lat":35.75141936,"lon":139.59393098},{"name":"てへっ！こども食堂","province":"東京都","city":"練馬区","address":"東京都練馬区高松4丁目1-28","lat":35.75142596,"lon":139.63297772},{"name":"ねりまこども食堂","province":"東京都","city":"練馬区","address":"東京都練馬区谷原1丁目3-7","lat":35.74916489,"lon":139.62444516},{"name":"練馬地域ふれあい食堂","province":"東京都","city":"練馬区","address":"東京都練馬区練馬4丁目2-3","lat":35.74027488,"lon":139.65022115},{"name":"ハッピーお茶家ころころ","province":"東京都","city":"練馬区","address":"東京都練馬区東大泉1丁目15-10","lat":35.74799471,"lon":139.59283676},{"name":"ふろしきこども食堂","province":"東京都","city":"練馬区","address":"東京都練馬区練馬4丁目17-2","lat":35.74259123,"lon":139.64769904},{"name":"まるてる子ども食堂","province":"東京都","city":"練馬区","address":"東京都練馬区栄町31-6","lat":35.73843676,"lon":139.67126386},{"name":"みんなの食堂すまいる","province":"東京都","city":"練馬区","address":"東京都練馬区石神井町3丁目2-8","lat":35.74018207,"lon":139.60658038},{"name":"らくぜん子ども食堂","province":"東京都","city":"練馬区","address":"東京都練馬区旭町1丁目31-4","lat":35.7653381,"lon":139.62495835},{"name":"長さんこども食堂","province":"東京都","city":"練馬区","address":"東京都練馬区大泉町2丁目54-9","lat":35.76180737,"lon":139.60733505},{"name":"旭町こども食堂ニコ","province":"東京都","city":"練馬区","address":"東京都練馬区旭町3丁目26-7","lat":35.77683964,"lon":139.62853538},{"name":"こども食堂バァバんち","province":"東京都","city":"練馬区","address":"東京都練馬区中村1丁目8-2-7","lat":35.73255625,"lon":139.64794389},{"name":"こども食堂ぽてと","province":"東京都","city":"練馬区","address":"東京都練馬区練馬4丁目6-5","lat":35.74061369,"lon":139.64862683},{"name":"みさよ子ども食堂","province":"東京都","city":"練馬区","address":"東京都練馬区土支田3丁目27-27","lat":35.76155741,"lon":139.60763226},{"name":"ＳＯＭＰＯケアそんぽの家Ｓ江古田","province":"東京都","city":"練馬区","address":"東京都練馬区旭丘2丁目5-2","lat":35.73431521,"lon":139.67823288},{"name":"石神井台かめさん食堂","province":"東京都","city":"練馬区","address":"東京都練馬区石神井台3丁目20-9","lat":35.74213421,"lon":139.59137602},{"name":"子ども未来食堂","province":"東京都","city":"練馬区","address":"東京都練馬区羽沢2丁目5-3","lat":35.74272235,"lon":139.67018876},{"name":"感動こども食堂ときわ亭練馬店","province":"東京都","city":"練馬区","address":"東京都練馬区豊玉北5丁目19-1","lat":35.73692535,"lon":139.65368211},{"name":"ねりたか子ども食堂","province":"東京都","city":"練馬区","address":"東京都練馬区旭町1丁目12-31","lat":35.7635716,"lon":139.62405573},{"name":"ころころ子ども食堂","province":"東京都","city":"練馬区","address":"東京都練馬区大泉学園町1丁目7-13","lat":35.75947109,"lon":139.58895052},{"name":"みんなン家","province":"東京都","city":"練馬区","address":"東京都練馬区光が丘2丁目4-10","lat":35.7631608,"lon":139.63382992},{"name":"練馬駅北口地下駐車場","province":"東京都","city":"練馬区","address":"練馬区練馬1-17-5","lat":35.73860642,"lon":139.6532724},{"name":"石神井公園駅北口駐車場（石神井公園ピアレスパーキング）","province":"東京都","city":"練馬区","address":"練馬区石神井町2-14-15","lat":35.74443935,"lon":139.6069778},{"name":"大泉学園駅北口駐車場（大泉学園ゆめりあ北パーキング）","province":"東京都","city":"練馬区","address":"練馬区東大泉1-29-1","lat":35.75006211,"lon":139.585652},{"name":"大泉学園駅南口駐車場（大泉学園ゆめりあ南パーキング）","province":"東京都","city":"練馬区","address":"練馬区東大泉5-43-1","lat":35.748556,"lon":139.5854184},{"name":"勤労福祉会館","province":"東京都","city":"練馬区","address":"練馬区東大泉5-40-36","lat":35.7482275,"lon":139.5873725},{"name":"中村橋福祉ケアセンター（心身障害者福祉センター）","province":"東京都","city":"練馬区","address":"練馬区貫井1-9-1","lat":35.73823139,"lon":139.6355566},{"name":"石神井公園","province":"東京都","city":"練馬区","address":"東京都練馬区石神井町5丁目17","lat":35.738778,"lon":139.602955},{"name":"石神井公園","province":"東京都","city":"練馬区","address":"東京都練馬区石神井町5丁目24","lat":35.737791,"lon":139.599169},{"name":"石神井公園","province":"東京都","city":"練馬区","address":"東京都練馬区石神井台1丁目26","lat":35.738776,"lon":139.596424},{"name":"石神井公園","province":"東京都","city":"練馬区","address":"東京都練馬区石神井町5丁目21","lat":35.739398,"lon":139.601502},{"name":"石神井公園","province":"東京都","city":"練馬区","address":"東京都練馬区石神井町5丁目21","lat":35.739153,"lon":139.605055},{"name":"石神井公園","province":"東京都","city":"練馬区","address":"東京都練馬区石神井台1丁目26","lat":35.738483,"lon":139.597315},{"name":"石神井公園","province":"東京都","city":"練馬区","address":"東京都練馬区石神井町5丁目17","lat":35.737512,"lon":139.602991},{"name":"大泉中央公園","province":"東京都","city":"練馬区","address":"東京都練馬区大泉学園町9丁目4","lat":35.774911,"lon":139.597476},{"name":"城北中央公園","province":"東京都","city":"練馬区","address":"東京都練馬区羽沢3丁目21","lat":35.752016,"lon":139.672321},{"name":"光が丘公園","province":"東京都","city":"練馬区","address":"東京都練馬区光が丘4丁目1","lat":35.767845,"lon":139.634455},{"name":"光が丘公園","province":"東京都","city":"練馬区","address":"東京都練馬区光が丘4丁目1","lat":35.763382,"lon":139.628161},{"name":"光が丘公園","province":"東京都","city":"練馬区","address":"東京都練馬区光が丘4丁目1","lat":35.767515,"lon":139.626661},{"name":"光が丘公園","province":"東京都","city":"練馬区","address":"東京都練馬区光が丘4丁目1","lat":35.768989,"lon":139.626675},{"name":"光が丘公園","province":"東京都","city":"練馬区","address":"東京都練馬区光が丘4丁目1","lat":35.767559,"lon":139.629614},{"name":"光が丘公園","province":"東京都","city":"練馬区","address":"東京都練馬区光が丘4丁目1","lat":35.76767,"lon":139.632076},{"name":"光が丘公園","province":"東京都","city":"練馬区","address":"東京都練馬区光が丘4丁目1","lat":35.765392,"lon":139.630802},{"name":"光が丘公園","province":"東京都","city":"練馬区","address":"東京都練馬区光が丘4丁目1","lat":35.764528,"lon":139.631164},{"name":"光が丘公園","province":"東京都","city":"練馬区","address":"東京都練馬区光が丘4丁目1","lat":35.765172,"lon":139.630127},{"name":"光が丘公園","province":"東京都","city":"練馬区","address":"東京都練馬区光が丘4丁目1","lat":35.766547,"lon":139.634771},{"name":"練馬城址公園","province":"東京都","city":"練馬区","address":"東京都練馬区春日町1丁目1","lat":35.746499,"lon":139.642148},{"name":"都営大江戸線練馬春日町駅","province":"東京都","city":"練馬区","address":"東京都練馬区春日町3丁目35","lat":35.751495,"lon":139.640128},{"name":"都営大江戸線練馬駅","province":"東京都","city":"練馬区","address":"東京都練馬区豊玉北5丁目17","lat":35.737387,"lon":139.654943},{"name":"都営大江戸線豊島園駅","province":"東京都","city":"練馬区","address":"東京都練馬区練馬4丁目26","lat":35.741666,"lon":139.649137},{"name":"都営大江戸線光が丘駅","province":"東京都","city":"練馬区","address":"東京都練馬区光が丘3丁目10","lat":35.758534,"lon":139.629104},{"name":"東京都水道局北部支所","province":"東京都","city":"練馬区","address":"東京都練馬区中村北1丁目9-4","lat":35.734692,"lon":139.647658},{"name":"練馬消防署","province":"東京都","city":"練馬区","address":"東京都練馬区豊玉北5丁目1-8","lat":35.737427,"lon":139.655935},{"name":"光が丘消防署北町出張所","province":"東京都","city":"練馬区","address":"東京都練馬区北町3丁目10-14","lat":35.768523,"lon":139.65372},{"name":"石神井消防署石神井公園出張所","province":"東京都","city":"練馬区","address":"東京都練馬区石神井町2丁目16-1","lat":35.745472,"lon":139.607725},{"name":"北保健相談所","province":"東京都","city":"練馬区","address":"東京都練馬区北町6丁目35-7","lat":35.757169,"lon":139.649561},{"name":"大泉まちの子ども食堂","province":"東京都","city":"練馬区","address":"東京都練馬区大泉学園町5丁目6-17","lat":35.76605618,"lon":139.58681732},{"name":"おおいずみ子ども食堂","province":"東京都","city":"練馬区","address":"東京都練馬区東大泉5丁目35-12","lat":35.74777522,"lon":139.58954537},{"name":"子ども交流食堂たまっこ","province":"東京都","city":"練馬区","address":"東京都練馬区豊玉中3丁目3-12","lat":35.73209539,"lon":139.65530162},{"name":"桜台子育て応援食堂","province":"東京都","city":"練馬区","address":"東京都練馬区豊玉北1丁目12-3","lat":35.73486209,"lon":139.66858647},{"name":"石神井ゆうやけ子ども食堂","province":"東京都","city":"練馬区","address":"東京都練馬区石神井町1丁目24-6","lat":35.74275959,"lon":139.60806903},{"name":"太陽の子東大泉保育園こども食堂","province":"東京都","city":"練馬区","address":"東京都練馬区東大泉2丁目9-16","lat":35.75141936,"lon":139.59393098},{"name":"てへっ！こども食堂","province":"東京都","city":"練馬区","address":"東京都練馬区高松4丁目1-28","lat":35.75142596,"lon":139.63297772},{"name":"ねりまこども食堂","province":"東京都","city":"練馬区","address":"東京都練馬区谷原1丁目3-7","lat":35.74916489,"lon":139.62444516},{"name":"練馬地域ふれあい食堂","province":"東京都","city":"練馬区","address":"東京都練馬区練馬4丁目2-3","lat":35.74027488,"lon":139.65022115},{"name":"ハッピーお茶家ころころ","province":"東京都","city":"練馬区","address":"東京都練馬区東大泉1丁目15-10","lat":35.74799471,"lon":139.59283676},{"name":"ふろしきこども食堂","province":"東京都","city":"練馬区","address":"東京都練馬区練馬4丁目17-2","lat":35.74259123,"lon":139.64769904},{"name":"まるてる子ども食堂","province":"東京都","city":"練馬区","address":"東京都練馬区栄町31-6","lat":35.73843676,"lon":139.67126386},{"name":"みんなの食堂すまいる","province":"東京都","city":"練馬区","address":"東京都練馬区石神井町3丁目2-8","lat":35.74018207,"lon":139.60658038},{"name":"らくぜん子ども食堂","province":"東京都","city":"練馬区","address":"東京都練馬区旭町1丁目31-4","lat":35.7653381,"lon":139.62495835},{"name":"長さんこども食堂","province":"東京都","city":"練馬区","address":"東京都練馬区大泉町2丁目54-9","lat":35.76180737,"lon":139.60733505},{"name":"旭町こども食堂ニコ","province":"東京都","city":"練馬区","address":"東京都練馬区旭町3丁目26-7","lat":35.77683964,"lon":139.62853538},{"name":"こども食堂バァバんち","province":"東京都","city":"練馬区","address":"東京都練馬区中村1丁目8-2-7","lat":35.73255625,"lon":139.64794389},{"name":"こども食堂ぽてと","province":"東京都","city":"練馬区","address":"東京都練馬区練馬4丁目6-5","lat":35.74061369,"lon":139.64862683},{"name":"みさよ子ども食堂","province":"東京都","city":"練馬区","address":"東京都練馬区土支田3丁目27-27","lat":35.76155741,"lon":139.60763226},{"name":"ＳＯＭＰＯケアそんぽの家Ｓ江古田","province":"東京都","city":"練馬区","address":"東京都練馬区旭丘2丁目5-2","lat":35.73431521,"lon":139.67823288},{"name":"石神井台かめさん食堂","province":"東京都","city":"練馬区","address":"東京都練馬区石神井台3丁目20-9","lat":35.74213421,"lon":139.59137602},{"name":"子ども未来食堂","province":"東京都","city":"練馬区","address":"東京都練馬区羽沢2丁目5-3","lat":35.74272235,"lon":139.67018876},{"name":"感動こども食堂ときわ亭練馬店","province":"東京都","city":"練馬区","address":"東京都練馬区豊玉北5丁目19-1","lat":35.73692535,"lon":139.65368211},{"name":"ねりたか子ども食堂","province":"東京都","city":"練馬区","address":"東京都練馬区旭町1丁目12-31","lat":35.7635716,"lon":139.62405573},{"name":"ころころ子ども食堂","province":"東京都","city":"練馬区","address":"東京都練馬区大泉学園町1丁目7-13","lat":35.75947109,"lon":139.58895052},{"name":"みんなン家","province":"東京都","city":"練馬区","address":"東京都練馬区光が丘2丁目4-10","lat":35.7631608,"lon":139.63382992},{"name":"練馬駅北口地下駐車場","province":"東京都","city":"練馬区","address":"練馬区練馬1-17-5","lat":35.73860642,"lon":139.6532724},{"name":"石神井公園駅北口駐車場（石神井公園ピアレスパーキング）","province":"東京都","city":"練馬区","address":"練馬区石神井町2-14-15","lat":35.74443935,"lon":139.6069778},{"name":"大泉学園駅北口駐車場（大泉学園ゆめりあ北パーキング）","province":"東京都","city":"練馬区","address":"練馬区東大泉1-29-1","lat":35.75006211,"lon":139.585652},{"name":"大泉学園駅南口駐車場（大泉学園ゆめりあ南パーキング）","province":"東京都","city":"練馬区","address":"練馬区東大泉5-43-1","lat":35.748556,"lon":139.5854184},{"name":"中村橋福祉ケアセンター（心身障害者福祉センター）","province":"東京都","city":"練馬区","address":"練馬区貫井1-9-1","lat":35.73823139,"lon":139.6355566},{"name":"大泉まちの子ども食堂","province":"東京都","city":"練馬区","address":"東京都練馬区大泉学園町5丁目6-17","lat":35.76605618,"lon":139.58681732},{"name":"おおいずみ子ども食堂","province":"東京都","city":"練馬区","address":"東京都練馬区東大泉5丁目35-12","lat":35.74777522,"lon":139.58954537},{"name":"子ども交流食堂たまっこ","province":"東京都","city":"練馬区","address":"東京都練馬区豊玉中3丁目3-12","lat":35.73209539,"lon":139.65530162},{"name":"桜台子育て応援食堂","province":"東京都","city":"練馬区","address":"東京都練馬区豊玉北1丁目12-3","lat":35.73486209,"lon":139.66858647},{"name":"石神井ゆうやけ子ども食堂","province":"東京都","city":"練馬区","address":"東京都練馬区石神井町1丁目24-6","lat":35.74275959,"lon":139.60806903},{"name":"太陽の子東大泉保育園こども食堂","province":"東京都","city":"練馬区","address":"東京都練馬区東大泉2丁目9-16","lat":35.75141936,"lon":139.59393098},{"name":"てへっ！こども食堂","province":"東京都","city":"練馬区","address":"東京都練馬区高松4丁目1-28","lat":35.75142596,"lon":139.63297772},{"name":"ねりまこども食堂","province":"東京都","city":"練馬区","address":"東京都練馬区谷原1丁目3-7","lat":35.74916489,"lon":139.62444516},{"name":"練馬地域ふれあい食堂","province":"東京都","city":"練馬区","address":"東京都練馬区練馬4丁目2-3","lat":35.74027488,"lon":139.65022115},{"name":"ハッピーお茶家ころころ","province":"東京都","city":"練馬区","address":"東京都練馬区東大泉1丁目15-10","lat":35.74799471,"lon":139.59283676},{"name":"ふろしきこども食堂","province":"東京都","city":"練馬区","address":"東京都練馬区練馬4丁目17-2","lat":35.74259123,"lon":139.64769904},{"name":"まるてる子ども食堂","province":"東京都","city":"練馬区","address":"東京都練馬区栄町31-6","lat":35.73843676,"lon":139.67126386},{"name":"みんなの食堂すまいる","province":"東京都","city":"練馬区","address":"東京都練馬区石神井町3丁目2-8","lat":35.74018207,"lon":139.60658038},{"name":"らくぜん子ども食堂","province":"東京都","city":"練馬区","address":"東京都練馬区旭町1丁目31-4","lat":35.7653381,"lon":139.62495835},{"name":"長さんこども食堂","province":"東京都","city":"練馬区","address":"東京都練馬区大泉町2丁目54-9","lat":35.76180737,"lon":139.60733505},{"name":"旭町こども食堂ニコ","province":"東京都","city":"練馬区","address":"東京都練馬区旭町3丁目26-7","lat":35.77683964,"lon":139.62853538},{"name":"こども食堂バァバんち","province":"東京都","city":"練馬区","address":"東京都練馬区中村1丁目8-2-7","lat":35.73255625,"lon":139.64794389},{"name":"こども食堂ぽてと","province":"東京都","city":"練馬区","address":"東京都練馬区練馬4丁目6-5","lat":35.74061369,"lon":139.64862683},{"name":"みさよ子ども食堂","province":"東京都","city":"練馬区","address":"東京都練馬区土支田3丁目27-27","lat":35.76155741,"lon":139.60763226},{"name":"ＳＯＭＰＯケアそんぽの家Ｓ江古田","province":"東京都","city":"練馬区","address":"東京都練馬区旭丘2丁目5-2","lat":35.73431521,"lon":139.67823288},{"name":"石神井台かめさん食堂","province":"東京都","city":"練馬区","address":"東京都練馬区石神井台3丁目20-9","lat":35.74213421,"lon":139.59137602},{"name":"子ども未来食堂","province":"東京都","city":"練馬区","address":"東京都練馬区羽沢2丁目5-3","lat":35.74272235,"lon":139.67018876},{"name":"感動こども食堂ときわ亭練馬店","province":"東京都","city":"練馬区","address":"東京都練馬区豊玉北5丁目19-1","lat":35.73692535,"lon":139.65368211},{"name":"ねりたか子ども食堂","province":"東京都","city":"練馬区","address":"東京都練馬区旭町1丁目12-31","lat":35.7635716,"lon":139.62405573},{"name":"ころころ子ども食堂","province":"東京都","city":"練馬区","address":"東京都練馬区大泉学園町1丁目7-13","lat":35.75947109,"lon":139.58895052},{"name":"みんなン家","province":"東京都","city":"練馬区","address":"東京都練馬区光が丘2丁目4-10","lat":35.7631608,"lon":139.63382992},{"name":"練馬駅北口地下駐車場","province":"東京都","city":"練馬区","address":"練馬区練馬1-17-5","lat":35.73860642,"lon":139.6532724},{"name":"石神井公園駅北口駐車場（石神井公園ピアレスパーキング）","province":"東京都","city":"練馬区","address":"練馬区石神井町2-14-15","lat":35.74443935,"lon":139.6069778},{"name":"大泉学園駅北口駐車場（大泉学園ゆめりあ北パーキング）","province":"東京都","city":"練馬区","address":"練馬区東大泉1-29-1","lat":35.75006211,"lon":139.585652},{"name":"大泉学園駅南口駐車場（大泉学園ゆめりあ南パーキング）","province":"東京都","city":"練馬区","address":"練馬区東大泉5-43-1","lat":35.748556,"lon":139.5854184},{"name":"大泉まちの子ども食堂","province":"東京都","city":"練馬区","address":"東京都練馬区大泉学園町5丁目6-17","lat":35.76605618,"lon":139.58681732},{"name":"おおいずみ子ども食堂","province":"東京都","city":"練馬区","address":"東京都練馬区東大泉5丁目35-12","lat":35.74777522,"lon":139.58954537},{"name":"子ども交流食堂たまっこ","province":"東京都","city":"練馬区","address":"東京都練馬区豊玉中3丁目3-12","lat":35.73209539,"lon":139.65530162},{"name":"桜台子育て応援食堂","province":"東京都","city":"練馬区","address":"東京都練馬区豊玉北1丁目12-3","lat":35.73486209,"lon":139.66858647},{"name":"石神井ゆうやけ子ども食堂","province":"東京都","city":"練馬区","address":"東京都練馬区石神井町1丁目24-6","lat":35.74275959,"lon":139.60806903},{"name":"太陽の子東大泉保育園こども食堂","province":"東京都","city":"練馬区","address":"東京都練馬区東大泉2丁目9-16","lat":35.75141936,"lon":139.59393098},{"name":"てへっ！こども食堂","province":"東京都","city":"練馬区","address":"東京都練馬区高松4丁目1-28","lat":35.75142596,"lon":139.63297772},{"name":"ねりまこども食堂","province":"東京都","city":"練馬区","address":"東京都練馬区谷原1丁目3-7","lat":35.74916489,"lon":139.62444516},{"name":"練馬地域ふれあい食堂","province":"東京都","city":"練馬区","address":"東京都練馬区練馬4丁目2-3","lat":35.74027488,"lon":139.65022115},{"name":"ハッピーお茶家ころころ","province":"東京都","city":"練馬区","address":"東京都練馬区東大泉1丁目15-10","lat":35.74799471,"lon":139.59283676},{"name":"ふろしきこども食堂","province":"東京都","city":"練馬区","address":"東京都練馬区練馬4丁目17-2","lat":35.74259123,"lon":139.64769904},{"name":"まるてる子ども食堂","province":"東京都","city":"練馬区","address":"東京都練馬区栄町31-6","lat":35.73843676,"lon":139.67126386},{"name":"みんなの食堂すまいる","province":"東京都","city":"練馬区","address":"東京都練馬区石神井町3丁目2-8","lat":35.74018207,"lon":139.60658038},{"name":"らくぜん子ども食堂","province":"東京都","city":"練馬区","address":"東京都練馬区旭町1丁目31-4","lat":35.7653381,"lon":139.62495835},{"name":"長さんこども食堂","province":"東京都","city":"練馬区","address":"東京都練馬区大泉町2丁目54-9","lat":35.76180737,"lon":139.60733505},{"name":"旭町こども食堂ニコ","province":"東京都","city":"練馬区","address":"東京都練馬区旭町3丁目26-7","lat":35.77683964,"lon":139.62853538},{"name":"こども食堂バァバんち","province":"東京都","city":"練馬区","address":"東京都練馬区中村1丁目8-2-7","lat":35.73255625,"lon":139.64794389},{"name":"こども食堂ぽてと","province":"東京都","city":"練馬区","address":"東京都練馬区練馬4丁目6-5","lat":35.74061369,"lon":139.64862683},{"name":"みさよ子ども食堂","province":"東京都","city":"練馬区","address":"東京都練馬区土支田3丁目27-27","lat":35.76155741,"lon":139.60763226},{"name":"ＳＯＭＰＯケアそんぽの家Ｓ江古田","province":"東京都","city":"練馬区","address":"東京都練馬区旭丘2丁目5-2","lat":35.73431521,"lon":139.67823288},{"name":"石神井台かめさん食堂","province":"東京都","city":"練馬区","address":"東京都練馬区石神井台3丁目20-9","lat":35.74213421,"lon":139.59137602},{"name":"子ども未来食堂","province":"東京都","city":"練馬区","address":"東京都練馬区羽沢2丁目5-3","lat":35.74272235,"lon":139.67018876},{"name":"感動こども食堂ときわ亭練馬店","province":"東京都","city":"練馬区","address":"東京都練馬区豊玉北5丁目19-1","lat":35.73692535,"lon":139.65368211},{"name":"ねりたか子ども食堂","province":"東京都","city":"練馬区","address":"東京都練馬区旭町1丁目12-31","lat":35.7635716,"lon":139.62405573},{"name":"ころころ子ども食堂","province":"東京都","city":"練馬区","address":"東京都練馬区大泉学園町1丁目7-13","lat":35.75947109,"lon":139.58895052},{"name":"みんなン家","province":"東京都","city":"練馬区","address":"東京都練馬区光が丘2丁目4-10","lat":35.7631608,"lon":139.63382992},{"name":"大泉まちの子ども食堂","province":"東京都","city":"練馬区","address":"東京都練馬区大泉学園町5丁目6-17","lat":35.76605618,"lon":139.58681732},{"name":"おおいずみ子ども食堂","province":"東京都","city":"練馬区","address":"東京都練馬区東大泉5丁目35-12","lat":35.74777522,"lon":139.58954537},{"name":"子ども交流食堂たまっこ","province":"東京都","city":"練馬区","address":"東京都練馬区豊玉中3丁目3-12","lat":35.73209539,"lon":139.65530162},{"name":"桜台子育て応援食堂","province":"東京都","city":"練馬区","address":"東京都練馬区豊玉北1丁目12-3","lat":35.73486209,"lon":139.66858647},{"name":"石神井ゆうやけ子ども食堂","province":"東京都","city":"練馬区","address":"東京都練馬区石神井町1丁目24-6","lat":35.74275959,"lon":139.60806903},{"name":"太陽の子東大泉保育園こども食堂","province":"東京都","city":"練馬区","address":"東京都練馬区東大泉2丁目9-16","lat":35.75141936,"lon":139.59393098},{"name":"てへっ！こども食堂","province":"東京都","city":"練馬区","address":"東京都練馬区高松4丁目1-28","lat":35.75142596,"lon":139.63297772},{"name":"ねりまこども食堂","province":"東京都","city":"練馬区","address":"東京都練馬区谷原1丁目3-7","lat":35.74916489,"lon":139.62444516},{"name":"練馬地域ふれあい食堂","province":"東京都","city":"練馬区","address":"東京都練馬区練馬4丁目2-3","lat":35.74027488,"lon":139.65022115},{"name":"ハッピーお茶家ころころ","province":"東京都","city":"練馬区","address":"東京都練馬区東大泉1丁目15-10","lat":35.74799471,"lon":139.59283676},{"name":"ふろしきこども食堂","province":"東京都","city":"練馬区","address":"東京都練馬区練馬4丁目17-2","lat":35.74259123,"lon":139.64769904},{"name":"まるてる子ども食堂","province":"東京都","city":"練馬区","address":"東京都練馬区栄町31-6","lat":35.73843676,"lon":139.67126386},{"name":"みんなの食堂すまいる","province":"東京都","city":"練馬区","address":"東京都練馬区石神井町3丁目2-8","lat":35.74018207,"lon":139.60658038},{"name":"らくぜん子ども食堂","province":"東京都","city":"練馬区","address":"東京都練馬区旭町1丁目31-4","lat":35.7653381,"lon":139.62495835},{"name":"長さんこども食堂","province":"東京都","city":"練馬区","address":"東京都練馬区大泉町2丁目54-9","lat":35.76180737,"lon":139.60733505},{"name":"旭町こども食堂ニコ","province":"東京都","city":"練馬区","address":"東京都練馬区旭町3丁目26-7","lat":35.77683964,"lon":139.62853538},{"name":"こども食堂バァバんち","province":"東京都","city":"練馬区","address":"東京都練馬区中村1丁目8-2-7","lat":35.73255625,"lon":139.64794389},{"name":"こども食堂ぽてと","province":"東京都","city":"練馬区","address":"東京都練馬区練馬4丁目6-5","lat":35.74061369,"lon":139.64862683},{"name":"みさよ子ども食堂","province":"東京都","city":"練馬区","address":"東京都練馬区土支田3丁目27-27","lat":35.76155741,"lon":139.60763226},{"name":"ＳＯＭＰＯケアそんぽの家Ｓ江古田","province":"東京都","city":"練馬区","address":"東京都練馬区旭丘2丁目5-2","lat":35.73431521,"lon":139.67823288},{"name":"石神井台かめさん食堂","province":"東京都","city":"練馬区","address":"東京都練馬区石神井台3丁目20-9","lat":35.74213421,"lon":139.59137602},{"name":"子ども未来食堂","province":"東京都","city":"練馬区","address":"東京都練馬区羽沢2丁目5-3","lat":35.74272235,"lon":139.67018876},{"name":"感動こども食堂ときわ亭練馬店","province":"東京都","city":"練馬区","address":"東京都練馬区豊玉北5丁目19-1","lat":35.73692535,"lon":139.65368211},{"name":"ねりたか子ども食堂","province":"東京都","city":"練馬区","address":"東京都練馬区旭町1丁目12-31","lat":35.7635716,"lon":139.62405573},{"name":"ころころ子ども食堂","province":"東京都","city":"練馬区","address":"東京都練馬区大泉学園町1丁目7-13","lat":35.75947109,"lon":139.58895052},{"name":"みんなン家","province":"東京都","city":"練馬区","address":"東京都練馬区光が丘2丁目4-10","lat":35.7631608,"lon":139.63382992},{"name":"大泉まちの子ども食堂","province":"東京都","city":"練馬区","address":"東京都練馬区大泉学園町5丁目6-17","lat":35.76605618,"lon":139.58681732},{"name":"おおいずみ子ども食堂","province":"東京都","city":"練馬区","address":"東京都練馬区東大泉5丁目35-12","lat":35.74777522,"lon":139.58954537},{"name":"子ども交流食堂たまっこ","province":"東京都","city":"練馬区","address":"東京都練馬区豊玉中3丁目3-12","lat":35.73209539,"lon":139.65530162},{"name":"桜台子育て応援食堂","province":"東京都","city":"練馬区","address":"東京都練馬区豊玉北1丁目12-3","lat":35.73486209,"lon":139.66858647},{"name":"石神井ゆうやけ子ども食堂","province":"東京都","city":"練馬区","address":"東京都練馬区石神井町1丁目24-6","lat":35.74275959,"lon":139.60806903},{"name":"太陽の子東大泉保育園こども食堂","province":"東京都","city":"練馬区","address":"東京都練馬区東大泉2丁目9-16","lat":35.75141936,"lon":139.59393098},{"name":"てへっ！こども食堂","province":"東京都","city":"練馬区","address":"東京都練馬区高松4丁目1-28","lat":35.75142596,"lon":139.63297772},{"name":"ねりまこども食堂","province":"東京都","city":"練馬区","address":"東京都練馬区谷原1丁目3-7","lat":35.74916489,"lon":139.62444516},{"name":"練馬地域ふれあい食堂","province":"東京都","city":"練馬区","address":"東京都練馬区練馬4丁目2-3","lat":35.74027488,"lon":139.65022115},{"name":"ハッピーお茶家ころころ","province":"東京都","city":"練馬区","address":"東京都練馬区東大泉1丁目15-10","lat":35.74799471,"lon":139.59283676},{"name":"ふろしきこども食堂","province":"東京都","city":"練馬区","address":"東京都練馬区練馬4丁目17-2","lat":35.74259123,"lon":139.64769904},{"name":"まるてる子ども食堂","province":"東京都","city":"練馬区","address":"東京都練馬区栄町31-6","lat":35.73843676,"lon":139.67126386},{"name":"みんなの食堂すまいる","province":"東京都","city":"練馬区","address":"東京都練馬区石神井町3丁目2-8","lat":35.74018207,"lon":139.60658038},{"name":"らくぜん子ども食堂","province":"東京都","city":"練馬区","address":"東京都練馬区旭町1丁目31-4","lat":35.7653381,"lon":139.62495835},{"name":"長さんこども食堂","province":"東京都","city":"練馬区","address":"東京都練馬区大泉町2丁目54-9","lat":35.76180737,"lon":139.60733505},{"name":"旭町こども食堂ニコ","province":"東京都","city":"練馬区","address":"東京都練馬区旭町3丁目26-7","lat":35.77683964,"lon":139.62853538},{"name":"こども食堂バァバんち","province":"東京都","city":"練馬区","address":"東京都練馬区中村1丁目8-2-7","lat":35.73255625,"lon":139.64794389},{"name":"こども食堂ぽてと","province":"東京都","city":"練馬区","address":"東京都練馬区練馬4丁目6-5","lat":35.74061369,"lon":139.64862683},{"name":"みさよ子ども食堂","province":"東京都","city":"練馬区","address":"東京都練馬区土支田3丁目27-27","lat":35.76155741,"lon":139.60763226},{"name":"ＳＯＭＰＯケアそんぽの家Ｓ江古田","province":"東京都","city":"練馬区","address":"東京都練馬区旭丘2丁目5-2","lat":35.73431521,"lon":139.67823288},{"name":"石神井台かめさん食堂","province":"東京都","city":"練馬区","address":"東京都練馬区石神井台3丁目20-9","lat":35.74213421,"lon":139.59137602},{"name":"子ども未来食堂","province":"東京都","city":"練馬区","address":"東京都練馬区羽沢2丁目5-3","lat":35.74272235,"lon":139.67018876},{"name":"感動こども食堂ときわ亭練馬店","province":"東京都","city":"練馬区","address":"東京都練馬区豊玉北5丁目19-1","lat":35.73692535,"lon":139.65368211},{"name":"ねりたか子ども食堂","province":"東京都","city":"練馬区","address":"東京都練馬区旭町1丁目12-31","lat":35.7635716,"lon":139.62405573},{"name":"ころころ子ども食堂","province":"東京都","city":"練馬区","address":"東京都練馬区大泉学園町1丁目7-13","lat":35.75947109,"lon":139.58895052},{"name":"みんなン家","province":"東京都","city":"練馬区","address":"東京都練馬区光が丘2丁目4-10","lat":35.7631608,"lon":139.63382992},{"name":"大泉まちの子ども食堂","province":"東京都","city":"練馬区","address":"東京都練馬区大泉学園町5丁目6-17","lat":35.76605618,"lon":139.58681732},{"name":"おおいずみ子ども食堂","province":"東京都","city":"練馬区","address":"東京都練馬区東大泉5丁目35-12","lat":35.74777522,"lon":139.58954537},{"name":"子ども交流食堂たまっこ","province":"東京都","city":"練馬区","address":"東京都練馬区豊玉中3丁目3-12","lat":35.73209539,"lon":139.65530162},{"name":"桜台子育て応援食堂","province":"東京都","city":"練馬区","address":"東京都練馬区豊玉北1丁目12-3","lat":35.73486209,"lon":139.66858647},{"name":"石神井ゆうやけ子ども食堂","province":"東京都","city":"練馬区","address":"東京都練馬区石神井町1丁目24-6","lat":35.74275959,"lon":139.60806903},{"name":"太陽の子東大泉保育園こども食堂","province":"東京都","city":"練馬区","address":"東京都練馬区東大泉2丁目9-16","lat":35.75141936,"lon":139.59393098},{"name":"てへっ！こども食堂","province":"東京都","city":"練馬区","address":"東京都練馬区高松4丁目1-28","lat":35.75142596,"lon":139.63297772},{"name":"ねりまこども食堂","province":"東京都","city":"練馬区","address":"東京都練馬区谷原1丁目3-7","lat":35.74916489,"lon":139.62444516},{"name":"練馬地域ふれあい食堂","province":"東京都","city":"練馬区","address":"東京都練馬区練馬4丁目2-3","lat":35.74027488,"lon":139.65022115},{"name":"ハッピーお茶家ころころ","province":"東京都","city":"練馬区","address":"東京都練馬区東大泉1丁目15-10","lat":35.74799471,"lon":139.59283676},{"name":"ふろしきこども食堂","province":"東京都","city":"練馬区","address":"東京都練馬区練馬4丁目17-2","lat":35.74259123,"lon":139.64769904},{"name":"まるてる子ども食堂","province":"東京都","city":"練馬区","address":"東京都練馬区栄町31-6","lat":35.73843676,"lon":139.67126386},{"name":"みんなの食堂すまいる","province":"東京都","city":"練馬区","address":"東京都練馬区石神井町3丁目2-8","lat":35.74018207,"lon":139.60658038},{"name":"らくぜん子ども食堂","province":"東京都","city":"練馬区","address":"東京都練馬区旭町1丁目31-4","lat":35.7653381,"lon":139.62495835},{"name":"長さんこども食堂","province":"東京都","city":"練馬区","address":"東京都練馬区大泉町2丁目54-9","lat":35.76180737,"lon":139.60733505},{"name":"旭町こども食堂ニコ","province":"東京都","city":"練馬区","address":"東京都練馬区旭町3丁目26-7","lat":35.77683964,"lon":139.62853538},{"name":"こども食堂バァバんち","province":"東京都","city":"練馬区","address":"東京都練馬区中村1丁目8-2-7","lat":35.73255625,"lon":139.64794389},{"name":"こども食堂ぽてと","province":"東京都","city":"練馬区","address":"東京都練馬区練馬4丁目6-5","lat":35.74061369,"lon":139.64862683},{"name":"みさよ子ども食堂","province":"東京都","city":"練馬区","address":"東京都練馬区土支田3丁目27-27","lat":35.76155741,"lon":139.60763226},{"name":"ＳＯＭＰＯケアそんぽの家Ｓ江古田","province":"東京都","city":"練馬区","address":"東京都練馬区旭丘2丁目5-2","lat":35.73431521,"lon":139.67823288},{"name":"石神井台かめさん食堂","province":"東京都","city":"練馬区","address":"東京都練馬区石神井台3丁目20-9","lat":35.74213421,"lon":139.59137602},{"name":"子ども未来食堂","province":"東京都","city":"練馬区","address":"東京都練馬区羽沢2丁目5-3","lat":35.74272235,"lon":139.67018876},{"name":"感動こども食堂ときわ亭練馬店","province":"東京都","city":"練馬区","address":"東京都練馬区豊玉北5丁目19-1","lat":35.73692535,"lon":139.65368211},{"name":"ねりたか子ども食堂","province":"東京都","city":"練馬区","address":"東京都練馬区旭町1丁目12-31","lat":35.7635716,"lon":139.62405573},{"name":"ころころ子ども食堂","province":"東京都","city":"練馬区","address":"東京都練馬区大泉学園町1丁目7-13","lat":35.75947109,"lon":139.58895052},{"name":"みんなン家","province":"東京都","city":"練馬区","address":"東京都練馬区光が丘2丁目4-10","lat":35.7631608,"lon":139.63382992}]}