{"keyword":"広場","data":[{"name":"こども フローラ","province":"東京都","city":"練馬区","address":"東京都練馬区下石神井2丁目35-16","lat":35.72988593,"lon":139.60441153},{"name":"こどもくらぶ　じゃんけんぽん","province":"東京都","city":"練馬区","address":"東京都練馬区西大泉2丁目12-5","lat":35.75634886,"lon":139.57626843},{"name":"明光学童クラブ石神井公園","province":"東京都","city":"練馬区","address":"東京都練馬区石神井町3丁目17-16","lat":35.74267339,"lon":139.60444157},{"name":"石保学童クラブ","province":"東京都","city":"練馬区","address":"東京都練馬区南田中5丁目20-2","lat":35.73699363,"lon":139.60975245},{"name":"colors桜台二丁目学童クラブ","province":"東京都","city":"練馬区","address":"東京都練馬区桜台2丁目46-12","lat":35.74287213,"lon":139.66268387},{"name":"りっこう学童クラブ","province":"東京都","city":"練馬区","address":"東京都練馬区小竹町2丁目43-12","lat":35.74236143,"lon":139.67529388},{"name":"明光学童クラブ南大泉","province":"東京都","city":"練馬区","address":"東京都練馬区南大泉4丁目55-6","lat":35.74803854,"lon":139.56930263},{"name":"キッズボイス中村橋学童クラブ","province":"東京都","city":"練馬区","address":"東京都練馬区中村北4丁目2-6","lat":35.73643334,"lon":139.6376668},{"name":"キッズクラブどろちゃん","province":"東京都","city":"練馬区","address":"東京都練馬区大泉町4丁目29-13","lat":35.76291519,"lon":139.59533607},{"name":"関町南アフタースクール","province":"東京都","city":"練馬区","address":"東京都練馬区関町南4丁目19-6","lat":35.7211805,"lon":139.56939813},{"name":"明光学童クラブ大泉学園","province":"東京都","city":"練馬区","address":"東京都練馬区西大泉1丁目1-16","lat":35.75405218,"lon":139.58389279}]}