{"keyword":"情報","data":[{"name":"練馬区役所","province":"東京都","city":"練馬区","address":"東京都練馬区豊玉北6-12-1","lat":35.735789,"lon":139.651534},{"name":"石神井庁舎","province":"東京都","city":"練馬区","address":"東京都練馬区石神井町3-30-26","lat":35.743473,"lon":139.602553},{"name":"中村橋区民センター","province":"東京都","city":"練馬区","address":"東京都練馬区貫井1-9-1","lat":35.738505,"lon":139.635556},{"name":"光が丘区民センター","province":"東京都","city":"練馬区","address":"東京都練馬区光が丘2-9-6","lat":35.759534,"lon":139.629297},{"name":"関区民センター","province":"東京都","city":"練馬区","address":"東京都練馬区関町北1-7-2","lat":35.724633,"lon":139.577505},{"name":"光が丘区民事務所","province":"東京都","city":"練馬区","address":"東京都練馬区光が丘2-9-6","lat":35.75938,"lon":139.629299},{"name":"練馬区民事務所","province":"東京都","city":"練馬区","address":"東京都練馬区豊玉北6-12-1","lat":35.735652,"lon":139.651533},{"name":"石神井区民事務所","province":"東京都","city":"練馬区","address":"東京都練馬区石神井町3-30-26","lat":35.743478,"lon":139.602737},{"name":"大泉区民事務所","province":"東京都","city":"練馬区","address":"東京都練馬区東大泉1-28-1リズモ大泉学園4階","lat":35.749884,"lon":139.587601},{"name":"関区民事務所","province":"東京都","city":"練馬区","address":"東京都練馬区関町北1-7-2","lat":35.72464,"lon":139.577998},{"name":"早宮区民事務所","province":"東京都","city":"練馬区","address":"東京都練馬区早宮1-44-19","lat":35.754166,"lon":139.658812},{"name":"東部土木出張所","province":"東京都","city":"練馬区","address":"東京都練馬区豊玉中3-28-8","lat":35.731263,"lon":139.652717},{"name":"西部土木出張所","province":"東京都","city":"練馬区","address":"東京都練馬区石神井町3-30-26","lat":35.743133,"lon":139.602758},{"name":"練馬総合福祉事務所","province":"東京都","city":"練馬区","address":"東京都練馬区豊玉北6-12-1西庁舎2F","lat":35.736093,"lon":139.65135},{"name":"光が丘総合福祉事務所","province":"東京都","city":"練馬区","address":"東京都練馬区光が丘2-9-6光が丘区民センター2F","lat":35.759534,"lon":139.629476},{"name":"石神井総合福祉事務所","province":"東京都","city":"練馬区","address":"東京都練馬区石神井町3-30-26石神井庁舎3・4F","lat":35.743319,"lon":139.602552},{"name":"大泉総合福祉事務所","province":"東京都","city":"練馬区","address":"東京都練馬区東大泉1-29-1ゆめりあ1内4・9F","lat":35.75026,"lon":139.585572},{"name":"練馬区保健所","province":"東京都","city":"練馬区","address":"東京都練馬区豊玉北6-12-1","lat":35.735516,"lon":139.652374},{"name":"光が丘保健相談所","province":"東京都","city":"練馬区","address":"東京都練馬区光が丘2-9-6","lat":35.759387,"lon":139.629472},{"name":"石神井保健相談所","province":"東京都","city":"練馬区","address":"東京都練馬区石神井町7-3-28","lat":35.744607,"lon":139.601338},{"name":"大泉保健相談所","province":"東京都","city":"練馬区","address":"東京都練馬区大泉学園町5-8-8","lat":35.767095,"lon":139.586492},{"name":"豊玉保健相談所","province":"東京都","city":"練馬区","address":"東京都練馬区豊玉北5-15-19","lat":35.735889,"lon":139.654992},{"name":"関保健相談所","province":"東京都","city":"練馬区","address":"東京都練馬区関町東1-27-4","lat":35.726414,"lon":139.581385},{"name":"北保健相談所","province":"東京都","city":"練馬区","address":"東京都練馬区北町6-35-7","lat":35.757224,"lon":139.649632},{"name":"練馬区保健所生活衛生課石神井分室","province":"東京都","city":"練馬区","address":"東京都練馬区石神井町7-3-28","lat":35.74471,"lon":139.601228},{"name":"厚生文化会館","province":"東京都","city":"練馬区","address":"東京都練馬区練馬4-2-3","lat":35.740217,"lon":139.650256},{"name":"練馬区社会福祉協議会","province":"東京都","city":"練馬区","address":"東京都練馬区豊玉北5-14-6","lat":35.735559,"lon":139.652313},{"name":"権利擁護センター ほっとサポートねりま","province":"東京都","city":"練馬区","address":"東京都練馬区豊玉北5-14-6","lat":35.735418,"lon":139.652182},{"name":"練馬区社会福祉事業団","province":"東京都","city":"練馬区","address":"東京都練馬区光が丘6-4-1","lat":35.760202,"lon":139.623233},{"name":"練馬区シルバー人材センター","province":"東京都","city":"練馬区","address":"東京都練馬区豊玉北5-29-8","lat":35.735973,"lon":139.652886},{"name":"はつらつセンター光が丘","province":"東京都","city":"練馬区","address":"東京都練馬区光が丘2-9-6","lat":35.759474,"lon":139.630185},{"name":"はつらつセンター関","province":"東京都","city":"練馬区","address":"東京都練馬区関町北1-7-2","lat":35.724479,"lon":139.577796},{"name":"はつらつセンター豊玉","province":"東京都","city":"練馬区","address":"東京都練馬区豊玉中3-3-12","lat":35.732151,"lon":139.65534},{"name":"はつらつセンター大泉","province":"東京都","city":"練馬区","address":"東京都練馬区大泉学園町1-34-20","lat":35.763472,"lon":139.589173},{"name":"栄町敬老館","province":"東京都","city":"練馬区","address":"東京都練馬区栄町40-7","lat":35.73946,"lon":139.671363},{"name":"南田中敬老館","province":"東京都","city":"練馬区","address":"東京都練馬区南田中5-15-25","lat":35.73778,"lon":139.611508},{"name":"三原台敬老館","province":"東京都","city":"練馬区","address":"東京都練馬区三原台2-11-29","lat":35.757321,"lon":139.606341},{"name":"石神井敬老館","province":"東京都","city":"練馬区","address":"東京都練馬区石神井町7-28-21","lat":35.744792,"lon":139.598138},{"name":"石神井台敬老館","province":"東京都","city":"練馬区","address":"東京都練馬区石神井台2-18-13","lat":35.735428,"lon":139.589647},{"name":"東大泉敬老館","province":"東京都","city":"練馬区","address":"東京都練馬区東大泉7-20-1","lat":35.742321,"lon":139.577051},{"name":"西大泉敬老館","province":"東京都","city":"練馬区","address":"東京都練馬区西大泉3-21-16","lat":35.759402,"lon":139.578866},{"name":"大泉北敬老館","province":"東京都","city":"練馬区","address":"東京都練馬区大泉学園町4-21-1","lat":35.765476,"lon":139.588368},{"name":"高野台敬老館","province":"東京都","city":"練馬区","address":"東京都練馬区高野台2-25-1","lat":35.747846,"lon":139.620932},{"name":"上石神井敬老館","province":"東京都","city":"練馬区","address":"東京都練馬区上石神井1-6-16","lat":35.725235,"lon":139.59234},{"name":"練馬デイサービスセンター","province":"東京都","city":"練馬区","address":"東京都練馬区練馬2-24-3","lat":35.74412,"lon":139.65413},{"name":"錦デイサービスセンター","province":"東京都","city":"練馬区","address":"東京都練馬区錦2-6-14","lat":35.761711,"lon":139.666103},{"name":"光が丘デイサービスセンター","province":"東京都","city":"練馬区","address":"東京都練馬区光が丘2-9-6","lat":35.75939,"lon":139.629647},{"name":"東大泉デイサービスセンター","province":"東京都","city":"練馬区","address":"東京都練馬区東大泉5-15-2","lat":35.743687,"lon":139.589414},{"name":"土支田デイサービスセンター","province":"東京都","city":"練馬区","address":"東京都練馬区土支田2-40-18","lat":35.764291,"lon":139.611332},{"name":"高松デイサービスセンター","province":"東京都","city":"練馬区","address":"東京都練馬区高松6-3-24","lat":35.757037,"lon":139.619625},{"name":"高野台デイサービスセンター","province":"東京都","city":"練馬区","address":"東京都練馬区高野台5-24-1","lat":35.746598,"lon":139.609576},{"name":"練馬中学校デイサービスセンター","province":"東京都","city":"練馬区","address":"東京都練馬区高松1-24-1","lat":35.747896,"lon":139.635525},{"name":"豊玉デイサービスセンター","province":"東京都","city":"練馬区","address":"東京都練馬区豊玉南3-9-13","lat":35.727699,"lon":139.652769},{"name":"中村橋福祉ケアセンター（心身障害者福祉センター）","province":"東京都","city":"練馬区","address":"東京都練馬区貫井1-9-1","lat":35.738231,"lon":139.635557},{"name":"こども発達支援センター","province":"東京都","city":"練馬区","address":"東京都練馬区光が丘3-1-1","lat":35.753996,"lon":139.630657},{"name":"かたくり福祉作業所","province":"東京都","city":"練馬区","address":"東京都練馬区大泉町3-27-10","lat":35.766973,"lon":139.598216},{"name":"貫井福祉工房（就労サポートねりま）","province":"東京都","city":"練馬区","address":"東京都練馬区貫井2-16-12","lat":35.738575,"lon":139.631068},{"name":"北町福祉作業所","province":"東京都","city":"練馬区","address":"東京都練馬区北町8-2-12","lat":35.764139,"lon":139.651025},{"name":"白百合福祉作業所","province":"東京都","city":"練馬区","address":"東京都練馬区石神井町5-13-10","lat":35.736439,"lon":139.599794},{"name":"氷川台福祉園","province":"東京都","city":"練馬区","address":"東京都練馬区氷川台2-16-2","lat":35.756662,"lon":139.66782},{"name":"光が丘福祉園","province":"東京都","city":"練馬区","address":"東京都練馬区光が丘2-4-10","lat":35.763969,"lon":139.633332},{"name":"大泉町福祉園","province":"東京都","city":"練馬区","address":"東京都練馬区大泉町3-29-20","lat":35.766984,"lon":139.597246},{"name":"大泉学園町福祉園","province":"東京都","city":"練馬区","address":"東京都練馬区大泉学園町3-9-20","lat":35.761289,"lon":139.582012},{"name":"関町福祉園","province":"東京都","city":"練馬区","address":"東京都練馬区関町南3-15-35","lat":35.72247,"lon":139.579502},{"name":"貫井福祉園","province":"東京都","city":"練馬区","address":"東京都練馬区貫井2-16-12","lat":35.738712,"lon":139.631068},{"name":"豊玉障害者地域生活支援センターきらら","province":"東京都","city":"練馬区","address":"東京都練馬区豊玉北5-15-19-6階","lat":35.73602,"lon":139.65499},{"name":"光が丘障害者地域生活支援センターすてっぷ","province":"東京都","city":"練馬区","address":"東京都練馬区光が丘2-9-6","lat":35.759237,"lon":139.629476},{"name":"石神井障害者地域生活支援センターういんぐ","province":"東京都","city":"練馬区","address":"東京都練馬区石神井町7-3-28","lat":35.744605,"lon":139.601129},{"name":"大泉障害者地域生活支援センターさくら","province":"東京都","city":"練馬区","address":"東京都練馬区東大泉5-35-2","lat":35.747513,"lon":139.589614},{"name":"しらゆり荘","province":"東京都","city":"練馬区","address":"東京都練馬区練馬3-20-7","lat":35.739037,"lon":139.650005},{"name":"心身障害者福祉集会所","province":"東京都","city":"練馬区","address":"東京都練馬区光が丘2-9-6","lat":35.759236,"lon":139.629831},{"name":"谷原フレンド","province":"東京都","city":"練馬区","address":"東京都練馬区谷原5-6-5","lat":35.751203,"lon":139.61289},{"name":"練馬区資源循環センター","province":"東京都","city":"練馬区","address":"東京都練馬区谷原1-2-20","lat":35.748407,"lon":139.62367},{"name":"練馬区立春日町リサイクルセンター","province":"東京都","city":"練馬区","address":"東京都練馬区春日町2-14-16","lat":35.756006,"lon":139.647893},{"name":"練馬区立関町リサイクルセンター","province":"東京都","city":"練馬区","address":"東京都練馬区関町北1-7-14","lat":35.725001,"lon":139.577948},{"name":"練馬区立豊玉リサイクルセンター","province":"東京都","city":"練馬区","address":"東京都練馬区豊玉上2-22-15","lat":35.737042,"lon":139.660298},{"name":"練馬区立大泉リサイクルセンター","province":"東京都","city":"練馬区","address":"東京都練馬区大泉学園町1-34-10","lat":35.76307,"lon":139.590924},{"name":"練馬清掃事務所","province":"東京都","city":"練馬区","address":"東京都練馬区豊玉上2-22-15","lat":35.737044,"lon":139.660098},{"name":"石神井清掃事務所","province":"東京都","city":"練馬区","address":"東京都練馬区上石神井3-34-25","lat":35.731192,"lon":139.590203},{"name":"谷原清掃事業所","province":"東京都","city":"練馬区","address":"東京都練馬区谷原5-5-11","lat":35.75172,"lon":139.611324},{"name":"防災学習センター","province":"東京都","city":"練馬区","address":"東京都練馬区光が丘6-4-1","lat":35.76022,"lon":139.623022},{"name":"子ども家庭支援センター","province":"東京都","city":"練馬区","address":"東京都練馬区豊玉北5-28-3","lat":35.734953,"lon":139.653331},{"name":"子ども家庭支援センター（石神井）","province":"東京都","city":"練馬区","address":"東京都練馬区石神井町3-30-26石神井庁舎4階","lat":35.743405,"lon":139.602759},{"name":"地域子ども家庭支援センター練馬","province":"東京都","city":"練馬区","address":"東京都練馬区練馬1-17-1ココネリ4階","lat":35.738081,"lon":139.653307},{"name":"地域子ども家庭支援センター練馬分室","province":"東京都","city":"練馬区","address":"東京都練馬区豊玉北5-18-12","lat":35.737083,"lon":139.654433},{"name":"地域子ども家庭支援センター光が丘","province":"東京都","city":"練馬区","address":"東京都練馬区光が丘2-9-6光が丘区民センター6階","lat":35.759233,"lon":139.629303},{"name":"地域子ども家庭支援センター光が丘分室","province":"東京都","city":"練馬区","address":"東京都練馬区光が丘5-2-5-105","lat":35.759901,"lon":139.62697},{"name":"地域子ども家庭支援センター貫井","province":"東京都","city":"練馬区","address":"東京都練馬区貫井3-25-15","lat":35.737344,"lon":139.627298},{"name":"地域子ども家庭支援センター大泉","province":"東京都","city":"練馬区","address":"東京都練馬区東大泉5-35-1","lat":35.747579,"lon":139.589807},{"name":"地域子ども家庭支援センター関","province":"東京都","city":"練馬区","address":"東京都練馬区関町北1-21-15","lat":35.726719,"lon":139.578657},{"name":"練馬区ファミリーサポートセンター","province":"東京都","city":"練馬区","address":"東京都練馬区豊玉北5-18-12","lat":35.737132,"lon":139.654348},{"name":"光が丘ぴよぴよ（ひろば室）","province":"東京都","city":"練馬区","address":"東京都練馬区光が丘5-2-5-105","lat":35.7599,"lon":139.626794},{"name":"西大泉ぴよぴよ","province":"東京都","city":"練馬区","address":"東京都練馬区西大泉1-27-10","lat":35.754567,"lon":139.571306},{"name":"練馬ぴよぴよ（ひろば室）","province":"東京都","city":"練馬区","address":"東京都練馬区豊玉北5-18-12","lat":35.737042,"lon":139.654354},{"name":"関ぴよぴよ","province":"東京都","city":"練馬区","address":"東京都練馬区関町北1-21-15","lat":35.726587,"lon":139.578659},{"name":"貫井ぴよぴよ","province":"東京都","city":"練馬区","address":"東京都練馬区貫井3-25-15","lat":35.737212,"lon":139.627398},{"name":"大泉ぴよぴよ","province":"東京都","city":"練馬区","address":"東京都練馬区東大泉5-35-1","lat":35.747462,"lon":139.589812},{"name":"北大泉児童館ぴよぴよ","province":"東京都","city":"練馬区","address":"東京都練馬区大泉町4-15-15","lat":35.762799,"lon":139.600224},{"name":"光が丘児童館ぴよぴよ","province":"東京都","city":"練馬区","address":"東京都練馬区光が丘1-3-1","lat":35.767643,"lon":139.6391},{"name":"立野地区区民館ぴよぴよ","province":"東京都","city":"練馬区","address":"東京都練馬区立野町15-42","lat":35.718618,"lon":139.582308},{"name":"田柄地区区民館ぴよぴよ","province":"東京都","city":"練馬区","address":"東京都練馬区田柄3-28-13","lat":35.762194,"lon":139.637243},{"name":"春日町南地区区民館ぴよぴよ","province":"東京都","city":"練馬区","address":"東京都練馬区春日町5-20-25","lat":35.74772,"lon":139.638523},{"name":"栄町保育園","province":"東京都","city":"練馬区","address":"東京都練馬区栄町40-7","lat":35.739602,"lon":139.671041},{"name":"豊玉第四保育園","province":"東京都","city":"練馬区","address":"東京都練馬区豊玉中1-9-11","lat":35.730805,"lon":139.661396},{"name":"豊玉保育園","province":"東京都","city":"練馬区","address":"東京都練馬区豊玉中4-13-6","lat":35.732631,"lon":139.65015},{"name":"豊玉第三保育園","province":"東京都","city":"練馬区","address":"東京都練馬区豊玉南3-32-37","lat":35.729288,"lon":139.649508},{"name":"豊玉第二保育園","province":"東京都","city":"練馬区","address":"東京都練馬区豊玉北6-17-9","lat":35.735972,"lon":139.649932},{"name":"桜台第二保育園","province":"東京都","city":"練馬区","address":"東京都練馬区桜台3-39-17","lat":35.746037,"lon":139.663203},{"name":"桜台保育園","province":"東京都","city":"練馬区","address":"東京都練馬区桜台5-41-12","lat":35.744381,"lon":139.657311},{"name":"練馬保育園","province":"東京都","city":"練馬区","address":"東京都練馬区練馬2-13-3","lat":35.742203,"lon":139.651417},{"name":"向山保育園","province":"東京都","city":"練馬区","address":"東京都練馬区向山1-5-7","lat":35.737819,"lon":139.6422},{"name":"貫井第二保育園","province":"東京都","city":"練馬区","address":"東京都練馬区貫井4-13-4","lat":35.740989,"lon":139.631464},{"name":"貫井保育園","province":"東京都","city":"練馬区","address":"東京都練馬区貫井4-24-9","lat":35.742203,"lon":139.627389},{"name":"氷川台第二保育園","province":"東京都","city":"練馬区","address":"東京都練馬区氷川台2-16-14","lat":35.756795,"lon":139.667328},{"name":"氷川台保育園","province":"東京都","city":"練馬区","address":"東京都練馬区氷川台4-47-12","lat":35.752752,"lon":139.664045},{"name":"平和台保育園","province":"東京都","city":"練馬区","address":"東京都練馬区平和台2-18-14","lat":35.760215,"lon":139.661506},{"name":"早宮保育園","province":"東京都","city":"練馬区","address":"東京都練馬区早宮3-13-31","lat":35.750169,"lon":139.653199},{"name":"春日町第三保育園","province":"東京都","city":"練馬区","address":"東京都練馬区春日町5-30-5","lat":35.751111,"lon":139.638791},{"name":"春日町第二保育園","province":"東京都","city":"練馬区","address":"東京都練馬区春日町1-29-8","lat":35.751901,"lon":139.646468},{"name":"春日町保育園","province":"東京都","city":"練馬区","address":"東京都練馬区春日町5-17-10","lat":35.746362,"lon":139.637653},{"name":"高松保育園","province":"東京都","city":"練馬区","address":"東京都練馬区高松3-24-27","lat":35.750001,"lon":139.62516},{"name":"北町第二保育園","province":"東京都","city":"練馬区","address":"東京都練馬区北町1-19-17","lat":35.764253,"lon":139.66788},{"name":"北町保育園","province":"東京都","city":"練馬区","address":"東京都練馬区北町3-3-14","lat":35.767424,"lon":139.655646},{"name":"田柄第二保育園","province":"東京都","city":"練馬区","address":"東京都練馬区田柄2-6-22","lat":35.763609,"lon":139.644761},{"name":"田柄保育園","province":"東京都","city":"練馬区","address":"東京都練馬区田柄4-36-4","lat":35.76684,"lon":139.637742},{"name":"光が丘保育園","province":"東京都","city":"練馬区","address":"東京都練馬区光が丘1-3-104","lat":35.76844,"lon":139.638888},{"name":"光が丘第二保育園","province":"東京都","city":"練馬区","address":"東京都練馬区光が丘1-6-3-101","lat":35.767809,"lon":139.635811},{"name":"光が丘第九保育園","province":"東京都","city":"練馬区","address":"東京都練馬区光が丘2-4-9","lat":35.763041,"lon":139.633101},{"name":"光が丘第十一保育園","province":"東京都","city":"練馬区","address":"東京都練馬区光が丘2-4-11-101","lat":35.763827,"lon":139.632768},{"name":"光が丘第七保育園","province":"東京都","city":"練馬区","address":"東京都練馬区光が丘2-7-4-105","lat":35.761082,"lon":139.631372},{"name":"光が丘第三保育園","province":"東京都","city":"練馬区","address":"東京都練馬区光が丘3-3-2-101","lat":35.755904,"lon":139.627125},{"name":"光が丘第十保育園","province":"東京都","city":"練馬区","address":"東京都練馬区光が丘3-7-3-101","lat":35.758109,"lon":139.630785},{"name":"光が丘第八保育園","province":"東京都","city":"練馬区","address":"東京都練馬区光が丘5-2-3","lat":35.758995,"lon":139.627135},{"name":"光が丘第四保育園","province":"東京都","city":"練馬区","address":"東京都練馬区光が丘7-3-1-102","lat":35.756278,"lon":139.625741},{"name":"光が丘第五保育園","province":"東京都","city":"練馬区","address":"東京都練馬区光が丘7-3-3-101","lat":35.755799,"lon":139.624851},{"name":"光が丘第六保育園","province":"東京都","city":"練馬区","address":"東京都練馬区光が丘7-7-2-101","lat":35.758121,"lon":139.623336},{"name":"旭町第二保育園","province":"東京都","city":"練馬区","address":"東京都練馬区旭町1-33-22-107","lat":35.766227,"lon":139.624788},{"name":"旭町保育園","province":"東京都","city":"練馬区","address":"東京都練馬区旭町3-11-6","lat":35.774293,"lon":139.625032},{"name":"土支田保育園","province":"東京都","city":"練馬区","address":"東京都練馬区土支田2-32-8","lat":35.763627,"lon":139.613624},{"name":"富士見台こぶし保育園","province":"東京都","city":"練馬区","address":"東京都練馬区富士見台3-10-1","lat":35.738635,"lon":139.624377},{"name":"南田中第二保育園","province":"東京都","city":"練馬区","address":"東京都練馬区南田中3-31-4","lat":35.738967,"lon":139.617731},{"name":"南田中保育園","province":"東京都","city":"練馬区","address":"東京都練馬区南田中5-25-16","lat":35.738923,"lon":139.613291},{"name":"高野台保育園","province":"東京都","city":"練馬区","address":"東京都練馬区高野台3-25-17","lat":35.744429,"lon":139.61246},{"name":"谷原保育園","province":"東京都","city":"練馬区","address":"東京都練馬区谷原5-16-41","lat":35.75051,"lon":139.610785},{"name":"石神井町さくら保育園","province":"東京都","city":"練馬区","address":"東京都練馬区石神井町7-25-45","lat":35.744186,"lon":139.599347},{"name":"石神井町つつじ保育園","province":"東京都","city":"練馬区","address":"東京都練馬区石神井町8-1-10","lat":35.74534,"lon":139.601673},{"name":"石神井台保育園","province":"東京都","city":"練馬区","address":"東京都練馬区石神井台2-18-13","lat":35.735696,"lon":139.589835},{"name":"石神井台第二保育園","province":"東京都","city":"練馬区","address":"東京都練馬区石神井台6-2-10","lat":35.740159,"lon":139.586078},{"name":"上石神井第二保育園","province":"東京都","city":"練馬区","address":"東京都練馬区上石神井1-5-3","lat":35.725647,"lon":139.592018},{"name":"上石神井第三保育園","province":"東京都","city":"練馬区","address":"東京都練馬区石神井台4-5-20","lat":35.731699,"lon":139.584644},{"name":"上石神井保育園","province":"東京都","city":"練馬区","address":"東京都練馬区上石神井4-21-3","lat":35.72992,"lon":139.587985},{"name":"下石神井第三保育園","province":"東京都","city":"練馬区","address":"東京都練馬区下石神井6-8-15","lat":35.733635,"lon":139.603646},{"name":"関町保育園","province":"東京都","city":"練馬区","address":"東京都練馬区関町南3-9-29","lat":35.721209,"lon":139.581773},{"name":"関町第二保育園","province":"東京都","city":"練馬区","address":"東京都練馬区関町北3-20-30","lat":35.72557,"lon":139.570352},{"name":"関町第三保育園","province":"東京都","city":"練馬区","address":"東京都練馬区関町北5-4-12","lat":35.732654,"lon":139.574676},{"name":"東大泉保育園","province":"東京都","city":"練馬区","address":"東京都練馬区東大泉3-59-2","lat":35.755995,"lon":139.590718},{"name":"東大泉第二保育園","province":"東京都","city":"練馬区","address":"東京都練馬区東大泉7-20-1","lat":35.742605,"lon":139.577047},{"name":"西大泉保育園","province":"東京都","city":"練馬区","address":"東京都練馬区西大泉3-21-16","lat":35.759532,"lon":139.578862},{"name":"南大泉保育園","province":"東京都","city":"練馬区","address":"東京都練馬区南大泉5-26-7","lat":35.751173,"lon":139.573121},{"name":"北大泉保育園","province":"東京都","city":"練馬区","address":"東京都練馬区大泉町4-15-15","lat":35.762925,"lon":139.600153},{"name":"大泉学園保育園","province":"東京都","city":"練馬区","address":"東京都練馬区大泉学園町8-9-5","lat":35.772631,"lon":139.592793},{"name":"東大泉第三保育園","province":"東京都","city":"練馬区","address":"東京都練馬区東大泉2-42-5","lat":35.754233,"lon":139.592403},{"name":"栄町児童館","province":"東京都","city":"練馬区","address":"東京都練馬区栄町40-7","lat":35.739471,"lon":139.671034},{"name":"中村児童館","province":"東京都","city":"練馬区","address":"東京都練馬区中村2-25-3","lat":35.731781,"lon":139.642156},{"name":"平和台児童館","province":"東京都","city":"練馬区","address":"東京都練馬区平和台2-18-14","lat":35.760076,"lon":139.661512},{"name":"北町はるのひ児童館","province":"東京都","city":"練馬区","address":"東京都練馬区北町6-35-7","lat":35.75722,"lon":139.649454},{"name":"北町児童館","province":"東京都","city":"練馬区","address":"東京都練馬区北町1-19-17","lat":35.764116,"lon":139.667875},{"name":"光が丘児童館","province":"東京都","city":"練馬区","address":"東京都練馬区光が丘1-3-1","lat":35.76775,"lon":139.6391},{"name":"光が丘なかよし児童館","province":"東京都","city":"練馬区","address":"東京都練馬区光が丘2-9-6","lat":35.759533,"lon":139.630003},{"name":"土支田児童館","province":"東京都","city":"練馬区","address":"東京都練馬区土支田2-32-8","lat":35.763519,"lon":139.613621},{"name":"南田中児童館","province":"東京都","city":"練馬区","address":"東京都練馬区南田中5-15-25","lat":35.7379,"lon":139.611507},{"name":"三原台児童館","province":"東京都","city":"練馬区","address":"東京都練馬区三原台2-11-29","lat":35.757197,"lon":139.606342},{"name":"石神井児童館","province":"東京都","city":"練馬区","address":"東京都練馬区石神井町7-28-21","lat":35.744661,"lon":139.598139},{"name":"石神井台児童館","province":"東京都","city":"練馬区","address":"東京都練馬区石神井台2-18-13","lat":35.735701,"lon":139.589646},{"name":"上石神井児童館","province":"東京都","city":"練馬区","address":"東京都練馬区上石神井1-5-2","lat":35.725645,"lon":139.592414},{"name":"関町児童館","province":"東京都","city":"練馬区","address":"東京都練馬区関町南4-15-7-102","lat":35.722686,"lon":139.572256},{"name":"東大泉児童館","province":"東京都","city":"練馬区","address":"東京都練馬区東大泉7-20-1","lat":35.74246,"lon":139.577048},{"name":"西大泉児童館","province":"東京都","city":"練馬区","address":"東京都練馬区西大泉3-21-16","lat":35.75967,"lon":139.578858},{"name":"北大泉児童館","province":"東京都","city":"練馬区","address":"東京都練馬区大泉町4-15-15","lat":35.763061,"lon":139.600153},{"name":"開進第四小ねりっこ学童クラブ","province":"東京都","city":"練馬区","address":"東京都練馬区羽沢2-33-1","lat":35.748238,"lon":139.672096},{"name":"豊玉第二小ねりっこ学童クラブ","province":"東京都","city":"練馬区","address":"東京都練馬区豊玉上2-16-1","lat":35.737545,"lon":139.662467},{"name":"豊玉南小学童クラブ","province":"東京都","city":"練馬区","address":"東京都練馬区豊玉南2-14-1","lat":35.727752,"lon":139.656883},{"name":"豊玉学童クラブ","province":"東京都","city":"練馬区","address":"東京都練馬区豊玉南3-32-11","lat":35.729443,"lon":139.649248},{"name":"開進第二小ねりっこ学童クラブ","province":"東京都","city":"練馬区","address":"東京都練馬区桜台5-10-5","lat":35.742071,"lon":139.657956},{"name":"開進第三小ねりっこ学童クラブ","province":"東京都","city":"練馬区","address":"東京都練馬区桜台2-18-1","lat":35.742852,"lon":139.666281},{"name":"練馬第二小ねりっこ学童クラブ","province":"東京都","city":"練馬区","address":"東京都練馬区貫井2-31-13","lat":35.741611,"lon":139.633621},{"name":"仲町小ねりっこ学童クラブ","province":"東京都","city":"練馬区","address":"東京都練馬区氷川台2-18-24","lat":35.757497,"lon":139.667485},{"name":"開進第一小ねりっこ学童クラブ","province":"東京都","city":"練馬区","address":"東京都練馬区早宮2-1-31","lat":35.755041,"lon":139.657972},{"name":"早宮さくら学童クラブ","province":"東京都","city":"練馬区","address":"東京都練馬区早宮3-13-31","lat":35.750305,"lon":139.653198},{"name":"練馬東小ねりっこ学童クラブ","province":"東京都","city":"練馬区","address":"東京都練馬区春日町1-30-11","lat":35.752522,"lon":139.648267},{"name":"練馬小ねりっこ学童クラブ","province":"東京都","city":"練馬区","address":"東京都練馬区春日町6-11-36","lat":35.751783,"lon":139.636187},{"name":"北町小ねりっこ学童クラブ","province":"東京都","city":"練馬区","address":"東京都練馬区北町1-14-11","lat":35.765314,"lon":139.664505},{"name":"北町西小ねりっこ学童クラブ","province":"東京都","city":"練馬区","address":"東京都練馬区北町7-3-8","lat":35.760952,"lon":139.654097},{"name":"田柄小ねりっこ学童クラブ","province":"東京都","city":"練馬区","address":"東京都練馬区田柄2-19-34","lat":35.765291,"lon":139.643543},{"name":"光が丘しいのき学童クラブ","province":"東京都","city":"練馬区","address":"東京都練馬区光が丘2-10-4-201","lat":35.760859,"lon":139.62994},{"name":"光が丘コスモス学童クラブ","province":"東京都","city":"練馬区","address":"東京都練馬区光が丘3-3-4-105","lat":35.755884,"lon":139.628392},{"name":"光が丘どんぐり学童クラブ","province":"東京都","city":"練馬区","address":"東京都練馬区光が丘3-8-12","lat":35.757227,"lon":139.628496},{"name":"光が丘すみれ学童クラブ","province":"東京都","city":"練馬区","address":"東京都練馬区光が丘5-2-5-104","lat":35.759837,"lon":139.627274},{"name":"光が丘あさがお学童クラブ","province":"東京都","city":"練馬区","address":"東京都練馬区光が丘5-5-5","lat":35.762881,"lon":139.626038},{"name":"光が丘つくし学童クラブ","province":"東京都","city":"練馬区","address":"東京都練馬区光が丘7-3-4-101","lat":35.755942,"lon":139.624851},{"name":"旭町小ねりっこ学童クラブ","province":"東京都","city":"練馬区","address":"東京都練馬区旭町2-29-1","lat":35.773348,"lon":139.62732},{"name":"富士見台小ねりっこ学童クラブ","province":"東京都","city":"練馬区","address":"東京都練馬区富士見台4-16-10","lat":35.744162,"lon":139.622842},{"name":"南が丘小学童クラブ","province":"東京都","city":"練馬区","address":"東京都練馬区南田中2-13-1","lat":35.734114,"lon":139.616989},{"name":"石神井東小ねりっこ学童クラブ","province":"東京都","city":"練馬区","address":"東京都練馬区南田中3-9-1","lat":35.736799,"lon":139.619715},{"name":"谷原小ねりっこ学童クラブ","province":"東京都","city":"練馬区","address":"東京都練馬区谷原2-9-26","lat":35.750515,"lon":139.613557},{"name":"北原小ねりっこ学童クラブ","province":"東京都","city":"練馬区","address":"東京都練馬区谷原4-9-1","lat":35.75551,"lon":139.61425},{"name":"泉新小ねりっこ学童クラブ","province":"東京都","city":"練馬区","address":"東京都練馬区三原台3-18-30","lat":35.753797,"lon":139.601705},{"name":"石神井町学童クラブ","province":"東京都","city":"練馬区","address":"東京都練馬区石神井町8-1-10","lat":35.745341,"lon":139.601461},{"name":"石神井小ねりっこ学童クラブ","province":"東京都","city":"練馬区","address":"東京都練馬区石神井台1-1-25","lat":35.735413,"lon":139.599763},{"name":"石神井台小ねりっこ学童クラブ","province":"東京都","city":"練馬区","address":"東京都練馬区石神井台8-6-33","lat":35.734503,"lon":139.581459},{"name":"石神井台けやき学童クラブ","province":"東京都","city":"練馬区","address":"東京都練馬区石神井台6-2-10","lat":35.740161,"lon":139.586245},{"name":"上石神井小ねりっこ学童クラブ","province":"東京都","city":"練馬区","address":"東京都練馬区上石神井4-10-4","lat":35.727097,"lon":139.58897},{"name":"大泉東小ねりっこ学童クラブ","province":"東京都","city":"練馬区","address":"東京都練馬区東大泉1-22-1","lat":35.748126,"lon":139.591124},{"name":"大泉小ねりっこ学童クラブ","province":"東京都","city":"練馬区","address":"東京都練馬区東大泉4-25-36","lat":35.751622,"lon":139.584188},{"name":"大泉西小学童クラブ","province":"東京都","city":"練馬区","address":"東京都練馬区西大泉4-25-2","lat":35.764971,"lon":139.572497},{"name":"大泉第六小ねりっこ学童クラブ","province":"東京都","city":"練馬区","address":"東京都練馬区南大泉5-25-29","lat":35.751198,"lon":139.572174},{"name":"大泉第三小ねりっこ学童クラブ","province":"東京都","city":"練馬区","address":"東京都練馬区大泉学園町3-22-2","lat":35.763816,"lon":139.579255},{"name":"大泉学園緑小ねりっこ学童クラブ","province":"東京都","city":"練馬区","address":"東京都練馬区大泉学園町5-11-37","lat":35.766213,"lon":139.585949},{"name":"早宮小学童クラブ","province":"東京都","city":"練馬区","address":"東京都練馬区早宮4-10-17","lat":35.752098,"lon":139.650693},{"name":"向山小ねりっこ学童クラブ","province":"東京都","city":"練馬区","address":"東京都練馬区向山2-14-11","lat":35.740129,"lon":139.641118},{"name":"中村小ねりっこ学童クラブ","province":"東京都","city":"練馬区","address":"東京都練馬区中村2-8-1","lat":35.730536,"lon":139.644375},{"name":"八坂小ねりっこ学童クラブ","province":"東京都","city":"練馬区","address":"東京都練馬区土支田4-47-15","lat":35.768636,"lon":139.612269},{"name":"谷原あおぞら学童クラブ","province":"東京都","city":"練馬区","address":"東京都練馬区谷原5-6-5","lat":35.751199,"lon":139.613081},{"name":"石神井西小ねりっこ学童クラブ","province":"東京都","city":"練馬区","address":"東京都練馬区関町北1-1-5","lat":35.723835,"lon":139.579569},{"name":"豊玉小ねりっこ学童クラブ","province":"東京都","city":"練馬区","address":"東京都練馬区豊玉中4-2-20","lat":35.732245,"lon":139.651983},{"name":"大泉第ニ小ねりっこ学童クラブ","province":"東京都","city":"練馬区","address":"東京都練馬区南大泉4-29-11","lat":35.744359,"lon":139.573772},{"name":"中村西小ねりっこ学童クラブ","province":"東京都","city":"練馬区","address":"東京都練馬区中村北4-17-1","lat":35.733651,"lon":139.634806},{"name":"春日小ねりっこ学童クラブ","province":"東京都","city":"練馬区","address":"東京都練馬区春日町5-12-1","lat":35.746625,"lon":139.639362},{"name":"大泉北小ねりっこ学童クラブ","province":"東京都","city":"練馬区","address":"東京都練馬区大泉町4-28-22","lat":35.76217,"lon":139.595283},{"name":"高松小ねりっこ学童クラブ","province":"東京都","city":"練馬区","address":"東京都練馬区高松3-16-1","lat":35.749805,"lon":139.627395},{"name":"田柄第二小ねりっこ学童クラブ","province":"東京都","city":"練馬区","address":"東京都練馬区田柄1-5-27","lat":35.758447,"lon":139.643126},{"name":"関町小ねりっこ学童クラブ","province":"東京都","city":"練馬区","address":"東京都練馬区関町北3-23-34","lat":35.724654,"lon":139.5724},{"name":"大泉学園小ねりっこ学童クラブ","province":"東京都","city":"練馬区","address":"東京都練馬区大泉学園町4-7-8","lat":35.765322,"lon":139.593008},{"name":"立野小ねりっこ学童クラブ","province":"東京都","city":"練馬区","address":"東京都練馬区立野町17-6","lat":35.717677,"lon":139.580882},{"name":"光が丘第八小ねりっこ学童クラブ","province":"東京都","city":"練馬区","address":"東京都練馬区光が丘1-4-1","lat":35.768502,"lon":139.637093},{"name":"栄町児童館学童クラブ","province":"東京都","city":"練馬区","address":"東京都練馬区栄町40-7","lat":35.739466,"lon":139.671202},{"name":"中村児童館学童クラブ","province":"東京都","city":"練馬区","address":"東京都練馬区中村2-25-3","lat":35.731702,"lon":139.642331},{"name":"北町はるのひ児童館学童クラブ","province":"東京都","city":"練馬区","address":"東京都練馬区北町6-35-7","lat":35.75722,"lon":139.649454},{"name":"北町児童館学童クラブ","province":"東京都","city":"練馬区","address":"東京都練馬区北町1-19-17","lat":35.763987,"lon":139.667876},{"name":"土支田児童館学童クラブ","province":"東京都","city":"練馬区","address":"東京都練馬区土支田2-32-8","lat":35.763512,"lon":139.61345},{"name":"南田中児童館学童クラブ","province":"東京都","city":"練馬区","address":"東京都練馬区南田中5-15-25","lat":35.737905,"lon":139.611342},{"name":"三原台児童館学童クラブ","province":"東京都","city":"練馬区","address":"東京都練馬区三原台2-11-29","lat":35.757188,"lon":139.606163},{"name":"石神井児童館学童クラブ","province":"東京都","city":"練馬区","address":"東京都練馬区石神井町7-28-21","lat":35.744662,"lon":139.597986},{"name":"石神井台児童館学童クラブ","province":"東京都","city":"練馬区","address":"東京都練馬区石神井台2-18-13","lat":35.735576,"lon":139.589646},{"name":"上石神井児童館学童クラブ","province":"東京都","city":"練馬区","address":"東京都練馬区上石神井1-5-2","lat":35.725646,"lon":139.592216},{"name":"関町児童館学童クラブ","province":"東京都","city":"練馬区","address":"東京都練馬区関町南4-15-7-102","lat":35.722774,"lon":139.572279},{"name":"東大泉児童館学童クラブ","province":"東京都","city":"練馬区","address":"東京都練馬区東大泉7-20-1","lat":35.742458,"lon":139.577223},{"name":"厚生文化会館学童クラブ","province":"東京都","city":"練馬区","address":"東京都練馬区練馬4-2-3","lat":35.740244,"lon":139.650011},{"name":"豊玉北地区区民館学童クラブ","province":"東京都","city":"練馬区","address":"東京都練馬区豊玉北3-7-9","lat":35.73256,"lon":139.661371},{"name":"桜台地区区民館学童クラブ","province":"東京都","city":"練馬区","address":"東京都練馬区桜台3-39-17","lat":35.745799,"lon":139.663153},{"name":"貫井地区区民館学童クラブ","province":"東京都","city":"練馬区","address":"東京都練馬区貫井1-9-1","lat":35.738029,"lon":139.635389},{"name":"氷川台地区区民館学童クラブ","province":"東京都","city":"練馬区","address":"東京都練馬区氷川台2-16-14","lat":35.756988,"lon":139.667121},{"name":"高松地区区民館学童クラブ","province":"東京都","city":"練馬区","address":"東京都練馬区高松3-24-27","lat":35.751093,"lon":139.623611},{"name":"北町第二地区区民館学童クラブ","province":"東京都","city":"練馬区","address":"東京都練馬区北町6-24-101","lat":35.761062,"lon":139.655465},{"name":"下石神井地区区民館学童クラブ","province":"東京都","city":"練馬区","address":"東京都練馬区下石神井6-8-15","lat":35.733635,"lon":139.603464},{"name":"西大泉地区区民館学童クラブ","province":"東京都","city":"練馬区","address":"東京都練馬区西大泉5-3-32","lat":35.760043,"lon":139.57235},{"name":"大泉学園地区区民館学童クラブ","province":"東京都","city":"練馬区","address":"東京都練馬区大泉学園町8-9-5","lat":35.772779,"lon":139.592695},{"name":"中村児童館第二学童クラブ","province":"東京都","city":"練馬区","address":"東京都練馬区中村2-25-3","lat":35.731705,"lon":139.642165},{"name":"平和台児童館学童クラブ","province":"東京都","city":"練馬区","address":"東京都練馬区平和台2-18-14","lat":35.760075,"lon":139.661332},{"name":"東大泉児童館第二学童クラブ","province":"東京都","city":"練馬区","address":"東京都練馬区東大泉7-20-1","lat":35.74246,"lon":139.577401},{"name":"大泉桜学園学童クラブ","province":"東京都","city":"練馬区","address":"東京都練馬区大泉学園町9-2-12","lat":35.77623,"lon":139.591794},{"name":"豊玉東小ねりっこ学童クラブ","province":"東京都","city":"練馬区","address":"東京都練馬区豊玉北1-16-1","lat":35.732724,"lon":139.668126},{"name":"光が丘春の風小ねりっこ学童クラブ","province":"東京都","city":"練馬区","address":"東京都練馬区光が丘7-3-3-102","lat":35.755122,"lon":139.62486},{"name":"光が丘秋の陽小ねりっこ学童クラブ","province":"東京都","city":"練馬区","address":"東京都練馬区光が丘2-1-1","lat":35.761608,"lon":139.634692},{"name":"下石神井小ねりっこ学童クラブ","province":"東京都","city":"練馬区","address":"東京都練馬区下石神井2-20-18","lat":35.731888,"lon":139.605658},{"name":"大泉第一小ねりっこ学童クラブ","province":"東京都","city":"練馬区","address":"東京都練馬区大泉町3-16-23","lat":35.765359,"lon":139.598713},{"name":"大泉南小ねりっこ学童クラブ","province":"東京都","city":"練馬区","address":"東京都練馬区東大泉6-28-1","lat":35.744622,"lon":139.580821},{"name":"光が丘夏の雲小ねりっこ学童クラブ","province":"東京都","city":"練馬区","address":"東京都練馬区光が丘3-6-1","lat":35.75735,"lon":139.631341},{"name":"南町小ねりっこ学童クラブ","province":"東京都","city":"練馬区","address":"東京都練馬区練馬2-7-5","lat":35.740726,"lon":139.652567},{"name":"練馬第三小ねりっこ学童クラブ","province":"東京都","city":"練馬区","address":"東京都練馬区貫井1-36-15","lat":35.73732,"lon":139.635013},{"name":"上石神井北小ねりっこ学童クラブ","province":"東京都","city":"練馬区","address":"東京都練馬区石神井台5-1-10","lat":35.7348,"lon":139.588179},{"name":"関町北小ねりっこ学童クラブ","province":"東京都","city":"練馬区","address":"東京都練馬区関町北5-13-40","lat":35.732803,"lon":139.574065},{"name":"光が丘さくら幼稚園","province":"東京都","city":"練馬区","address":"東京都練馬区光が丘2-4-8-101","lat":35.762678,"lon":139.631863},{"name":"光が丘むらさき幼稚園","province":"東京都","city":"練馬区","address":"東京都練馬区光が丘3-3-5-101","lat":35.755922,"lon":139.629716},{"name":"北大泉幼稚園","province":"東京都","city":"練馬区","address":"東京都練馬区大泉町2-46-6","lat":35.762925,"lon":139.603428},{"name":"旭丘小学校","province":"東京都","city":"練馬区","address":"東京都練馬区旭丘2-21-1","lat":35.736695,"lon":139.676803},{"name":"小竹小学校","province":"東京都","city":"練馬区","address":"東京都練馬区小竹町2-6-7","lat":35.744098,"lon":139.679836},{"name":"開進第四小学校","province":"東京都","city":"練馬区","address":"東京都練馬区羽沢2-33-1","lat":35.747817,"lon":139.671278},{"name":"豊玉第二小学校","province":"東京都","city":"練馬区","address":"東京都練馬区豊玉上2-16-1","lat":35.737421,"lon":139.66169},{"name":"豊玉小学校","province":"東京都","city":"練馬区","address":"東京都練馬区豊玉中4-2-20","lat":35.732943,"lon":139.652217},{"name":"豊玉南小学校","province":"東京都","city":"練馬区","address":"東京都練馬区豊玉南2-14-1","lat":35.727679,"lon":139.656025},{"name":"豊玉東小学校","province":"東京都","city":"練馬区","address":"東京都練馬区豊玉北1-16-1","lat":35.732734,"lon":139.667968},{"name":"中村小学校","province":"東京都","city":"練馬区","address":"東京都練馬区中村2-8-1","lat":35.73143,"lon":139.643675},{"name":"中村西小学校","province":"東京都","city":"練馬区","address":"東京都練馬区中村北4-17-1","lat":35.734214,"lon":139.634829},{"name":"開進第三小学校","province":"東京都","city":"練馬区","address":"東京都練馬区桜台2-18-1","lat":35.742881,"lon":139.666625},{"name":"開進第二小学校","province":"東京都","city":"練馬区","address":"東京都練馬区桜台5-10-5","lat":35.741979,"lon":139.658155},{"name":"南町小学校","province":"東京都","city":"練馬区","address":"東京都練馬区練馬2-7-5","lat":35.740894,"lon":139.652771},{"name":"向山小学校","province":"東京都","city":"練馬区","address":"東京都練馬区向山2-14-11","lat":35.740399,"lon":139.640533},{"name":"練馬第三小学校","province":"東京都","city":"練馬区","address":"東京都練馬区貫井1-36-15","lat":35.737291,"lon":139.635435},{"name":"練馬第二小学校","province":"東京都","city":"練馬区","address":"東京都練馬区貫井2-31-13","lat":35.741411,"lon":139.633666},{"name":"仲町小学校","province":"東京都","city":"練馬区","address":"東京都練馬区氷川台2-18-24","lat":35.757929,"lon":139.667676},{"name":"早宮小学校","province":"東京都","city":"練馬区","address":"東京都練馬区早宮4-10-17","lat":35.752092,"lon":139.651002},{"name":"開進第一小学校","province":"東京都","city":"練馬区","address":"東京都練馬区早宮2-1-31","lat":35.754614,"lon":139.657402},{"name":"練馬東小学校","province":"東京都","city":"練馬区","address":"東京都練馬区春日町1-30-11","lat":35.752199,"lon":139.647327},{"name":"春日小学校","province":"東京都","city":"練馬区","address":"東京都練馬区春日町5-12-1","lat":35.746774,"lon":139.639523},{"name":"練馬小学校","province":"東京都","city":"練馬区","address":"東京都練馬区春日町6-11-36","lat":35.75246,"lon":139.635908},{"name":"高松小学校","province":"東京都","city":"練馬区","address":"東京都練馬区高松3-16-1","lat":35.749728,"lon":139.626666},{"name":"光が丘四季の香小学校","province":"東京都","city":"練馬区","address":"東京都練馬区高松5-24-1","lat":35.761586,"lon":139.624204},{"name":"北町小学校","province":"東京都","city":"練馬区","address":"東京都練馬区北町1-14-11","lat":35.764846,"lon":139.663969},{"name":"北町西小学校","province":"東京都","city":"練馬区","address":"東京都練馬区北町7-3-8","lat":35.761612,"lon":139.653518},{"name":"田柄小学校","province":"東京都","city":"練馬区","address":"東京都練馬区田柄2-19-19","lat":35.765913,"lon":139.643808},{"name":"田柄第二小学校","province":"東京都","city":"練馬区","address":"東京都練馬区田柄1-5-27","lat":35.758946,"lon":139.642328},{"name":"光が丘第八小学校","province":"東京都","city":"練馬区","address":"東京都練馬区光が丘1-4-1","lat":35.768504,"lon":139.637001},{"name":"光が丘秋の陽小学校","province":"東京都","city":"練馬区","address":"東京都練馬区光が丘2-1-1","lat":35.761876,"lon":139.635106},{"name":"光が丘夏の雲小学校","province":"東京都","city":"練馬区","address":"東京都練馬区光が丘3-6-1","lat":35.757364,"lon":139.630943},{"name":"光が丘春の風小学校","province":"東京都","city":"練馬区","address":"東京都練馬区光が丘7-2-1","lat":35.755601,"lon":139.625731},{"name":"旭町小学校","province":"東京都","city":"練馬区","address":"東京都練馬区旭町2-29-1","lat":35.772625,"lon":139.627422},{"name":"豊溪小学校","province":"東京都","city":"練馬区","address":"東京都練馬区土支田2-26-28","lat":35.763044,"lon":139.615235},{"name":"八坂小学校","province":"東京都","city":"練馬区","address":"東京都練馬区土支田4-48-1","lat":35.768756,"lon":139.611183},{"name":"富士見台小学校","province":"東京都","city":"練馬区","address":"東京都練馬区富士見台4-16-10","lat":35.744844,"lon":139.622981},{"name":"南が丘小学校","province":"東京都","city":"練馬区","address":"東京都練馬区南田中2-13-1","lat":35.733802,"lon":139.616999},{"name":"石神井東小学校","province":"東京都","city":"練馬区","address":"東京都練馬区南田中3-9-1","lat":35.737469,"lon":139.619516},{"name":"南田中小学校","province":"東京都","city":"練馬区","address":"東京都練馬区南田中5-15-37","lat":35.737066,"lon":139.611162},{"name":"谷原小学校","province":"東京都","city":"練馬区","address":"東京都練馬区谷原2-9-26","lat":35.75085,"lon":139.613935},{"name":"北原小学校","province":"東京都","city":"練馬区","address":"東京都練馬区谷原4-9-1","lat":35.754578,"lon":139.613563},{"name":"泉新小学校","province":"東京都","city":"練馬区","address":"東京都練馬区三原台3-18-30","lat":35.75426,"lon":139.60121},{"name":"光和小学校","province":"東京都","city":"練馬区","address":"東京都練馬区石神井町2-16-34","lat":35.746441,"lon":139.607047},{"name":"石神井小学校","province":"東京都","city":"練馬区","address":"東京都練馬区石神井台1-1-25","lat":35.735435,"lon":139.598848},{"name":"上石神井北小学校","province":"東京都","city":"練馬区","address":"東京都練馬区石神井台5-1-32","lat":35.735847,"lon":139.588295},{"name":"石神井台小学校","province":"東京都","city":"練馬区","address":"東京都練馬区石神井台8-6-33","lat":35.735172,"lon":139.580943},{"name":"下石神井小学校","province":"東京都","city":"練馬区","address":"東京都練馬区下石神井2-20-18","lat":35.73165,"lon":139.605328},{"name":"大泉東小学校","province":"東京都","city":"練馬区","address":"東京都練馬区東大泉1-22-1","lat":35.74891,"lon":139.590769},{"name":"大泉小学校","province":"東京都","city":"練馬区","address":"東京都練馬区東大泉4-25-1","lat":35.752054,"lon":139.584309},{"name":"大泉南小学校","province":"東京都","city":"練馬区","address":"東京都練馬区東大泉6-28-1","lat":35.744826,"lon":139.580907},{"name":"大泉第四小学校","province":"東京都","city":"練馬区","address":"東京都練馬区西大泉1-24-1","lat":35.755376,"lon":139.573529},{"name":"大泉西小学校","province":"東京都","city":"練馬区","address":"東京都練馬区西大泉4-25-1","lat":35.76524,"lon":139.5716},{"name":"大泉第二小学校","province":"東京都","city":"練馬区","address":"東京都練馬区南大泉4-29-11","lat":35.744374,"lon":139.572887},{"name":"大泉第六小学校","province":"東京都","city":"練馬区","address":"東京都練馬区南大泉5-25-29","lat":35.75121,"lon":139.571031},{"name":"橋戸小学校","province":"東京都","city":"練馬区","address":"東京都練馬区大泉町2-11-25","lat":35.75871,"lon":139.602073},{"name":"大泉第一小学校","province":"東京都","city":"練馬区","address":"東京都練馬区大泉町3-16-23","lat":35.765564,"lon":139.598613},{"name":"大泉北小学校","province":"東京都","city":"練馬区","address":"東京都練馬区大泉町4-28-22","lat":35.762166,"lon":139.595568},{"name":"大泉第三小学校","province":"東京都","city":"練馬区","address":"東京都練馬区大泉学園町3-22-1","lat":35.763382,"lon":139.579659},{"name":"大泉学園小学校","province":"東京都","city":"練馬区","address":"東京都練馬区大泉学園町4-7-1","lat":35.765664,"lon":139.593178},{"name":"大泉学園緑小学校","province":"東京都","city":"練馬区","address":"東京都練馬区大泉学園町5-11-47","lat":35.766259,"lon":139.58524},{"name":"大泉学園桜小学校","province":"東京都","city":"練馬区","address":"東京都練馬区大泉学園町9-2-2","lat":35.777353,"lon":139.591631},{"name":"石神井西小学校","province":"東京都","city":"練馬区","address":"東京都練馬区関町北1-1-5","lat":35.723906,"lon":139.579973},{"name":"関町小学校","province":"東京都","city":"練馬区","address":"東京都練馬区関町北3-23-34","lat":35.725011,"lon":139.571938},{"name":"関町北小学校","province":"東京都","city":"練馬区","address":"東京都練馬区関町北5-13-40","lat":35.732122,"lon":139.573503},{"name":"立野小学校","province":"東京都","city":"練馬区","address":"東京都練馬区立野町17-13","lat":35.718179,"lon":139.580602},{"name":"上石神井小学校","province":"東京都","city":"練馬区","address":"東京都練馬区上石神井4-10-9","lat":35.728091,"lon":139.589112},{"name":"旭丘中学校","province":"東京都","city":"練馬区","address":"東京都練馬区旭丘2-40-1","lat":35.737827,"lon":139.677683},{"name":"開進第四中学校","province":"東京都","city":"練馬区","address":"東京都練馬区羽沢3-24-1","lat":35.750968,"lon":139.673449},{"name":"豊玉中学校","province":"東京都","city":"練馬区","address":"東京都練馬区豊玉南2-1-20","lat":35.729255,"lon":139.657655},{"name":"豊玉第二中学校","province":"東京都","city":"練馬区","address":"東京都練馬区豊玉北2-24-5","lat":35.735022,"lon":139.664419},{"name":"中村中学校","province":"東京都","city":"練馬区","address":"東京都練馬区中村南1-32-21","lat":35.728259,"lon":139.645294},{"name":"開進第三中学校","province":"東京都","city":"練馬区","address":"東京都練馬区桜台3-28-1","lat":35.745114,"lon":139.66522},{"name":"開進第二中学校","province":"東京都","city":"練馬区","address":"東京都練馬区練馬2-27-28","lat":35.743123,"lon":139.652682},{"name":"貫井中学校","province":"東京都","city":"練馬区","address":"東京都練馬区貫井2-14-13","lat":35.739506,"lon":139.632906},{"name":"開進第一中学校","province":"東京都","city":"練馬区","address":"東京都練馬区早宮1-16-50","lat":35.752552,"lon":139.659097},{"name":"練馬東中学校","province":"東京都","city":"練馬区","address":"東京都練馬区春日町2-14-22","lat":35.756688,"lon":139.647374},{"name":"練馬中学校","province":"東京都","city":"練馬区","address":"東京都練馬区高松1-24-1","lat":35.747585,"lon":139.634767},{"name":"北町中学校","province":"東京都","city":"練馬区","address":"東京都練馬区北町3-1-34","lat":35.767284,"lon":139.656509},{"name":"田柄中学校","province":"東京都","city":"練馬区","address":"東京都練馬区田柄3-3-1","lat":35.759503,"lon":139.641131},{"name":"光が丘第三中学校","province":"東京都","city":"練馬区","address":"東京都練馬区光が丘3-2-1","lat":35.755452,"lon":139.631578},{"name":"光が丘第一中学校","province":"東京都","city":"練馬区","address":"東京都練馬区光が丘6-5-1","lat":35.760375,"lon":139.622079},{"name":"光が丘第二中学校","province":"東京都","city":"練馬区","address":"東京都練馬区光が丘7-1-1","lat":35.754549,"lon":139.625549},{"name":"豊溪中学校","province":"東京都","city":"練馬区","address":"東京都練馬区旭町3-5-10","lat":35.774068,"lon":139.628074},{"name":"八坂中学校","province":"東京都","city":"練馬区","address":"東京都練馬区土支田4-47-21","lat":35.769582,"lon":139.611971},{"name":"南が丘中学校","province":"東京都","city":"練馬区","address":"東京都練馬区南田中4-8-23","lat":35.733979,"lon":139.612775},{"name":"石神井東中学校","province":"東京都","city":"練馬区","address":"東京都練馬区高野台1-8-34","lat":35.742454,"lon":139.616585},{"name":"谷原中学校","province":"東京都","city":"練馬区","address":"東京都練馬区谷原4-10-5","lat":35.754914,"lon":139.615095},{"name":"三原台中学校","province":"東京都","city":"練馬区","address":"東京都練馬区三原台3-13-41","lat":35.754571,"lon":139.59969},{"name":"石神井中学校","province":"東京都","city":"練馬区","address":"東京都練馬区石神井台1-32-1","lat":35.741157,"lon":139.595596},{"name":"石神井南中学校","province":"東京都","city":"練馬区","address":"東京都練馬区下石神井2-7-23","lat":35.730459,"lon":139.609018},{"name":"大泉中学校","province":"東京都","city":"練馬区","address":"東京都練馬区東大泉4-27-35","lat":35.753063,"lon":139.58506},{"name":"大泉第二中学校","province":"東京都","city":"練馬区","address":"東京都練馬区東大泉6-21-1","lat":35.744672,"lon":139.583701},{"name":"大泉西中学校","province":"東京都","city":"練馬区","address":"東京都練馬区西大泉3-19-27","lat":35.758433,"lon":139.579635},{"name":"大泉北中学校","province":"東京都","city":"練馬区","address":"東京都練馬区大泉町5-4-32","lat":35.759588,"lon":139.596419},{"name":"大泉学園中学校","province":"東京都","city":"練馬区","address":"東京都練馬区大泉学園町4-17-32","lat":35.766624,"lon":139.589799},{"name":"大泉学園桜中学校","province":"東京都","city":"練馬区","address":"東京都練馬区大泉学園町9-2-1","lat":35.777418,"lon":139.59126},{"name":"関中学校","province":"東京都","city":"練馬区","address":"東京都練馬区関町北4-34-23","lat":35.730845,"lon":139.575234},{"name":"石神井西中学校","province":"東京都","city":"練馬区","address":"東京都練馬区関町南3-10-3","lat":35.720515,"lon":139.580578},{"name":"上石神井中学校","province":"東京都","city":"練馬区","address":"東京都練馬区上石神井4-15-27","lat":35.728441,"lon":139.587628},{"name":"生涯学習センター","province":"東京都","city":"練馬区","address":"東京都練馬区豊玉北6-8-1","lat":35.734243,"lon":139.651989},{"name":"生涯学習センター分館","province":"東京都","city":"練馬区","address":"東京都練馬区高野台2-25-1","lat":35.748066,"lon":139.621207},{"name":"練馬区立美術館","province":"東京都","city":"練馬区","address":"東京都練馬区貫井1-36-16","lat":35.736869,"lon":139.635924},{"name":"練馬文化センター","province":"東京都","city":"練馬区","address":"東京都練馬区練馬1-17-37","lat":35.739407,"lon":139.65348},{"name":"大泉学園ゆめりあホール","province":"東京都","city":"練馬区","address":"東京都練馬区東大泉1-29-1ゆめりあ1内","lat":35.750389,"lon":139.585569},{"name":"石神井公園区民交流センター（消費生活センター）","province":"東京都","city":"練馬区","address":"東京都練馬区石神井町2-14-1","lat":35.744326,"lon":139.60709},{"name":"区民・産業プラザ","province":"東京都","city":"練馬区","address":"東京都練馬区練馬1-17-1","lat":35.738087,"lon":139.653447},{"name":"文化交流ひろば","province":"東京都","city":"練馬区","address":"東京都練馬区光が丘3-1-1","lat":35.754,"lon":139.630913},{"name":"小竹図書館","province":"東京都","city":"練馬区","address":"東京都練馬区小竹町2-43-1","lat":35.741905,"lon":139.675992},{"name":"練馬図書館","province":"東京都","city":"練馬区","address":"東京都練馬区豊玉北6-8-1","lat":35.734021,"lon":139.65206},{"name":"貫井図書館","province":"東京都","city":"練馬区","address":"東京都練馬区貫井1-36-16","lat":35.737,"lon":139.635924},{"name":"平和台図書館","province":"東京都","city":"練馬区","address":"東京都練馬区平和台1-36-17","lat":35.760001,"lon":139.664822},{"name":"春日町図書館","province":"東京都","city":"練馬区","address":"東京都練馬区春日町5-31-2-201","lat":35.751299,"lon":139.639314},{"name":"光が丘図書館","province":"東京都","city":"練馬区","address":"東京都練馬区光が丘4-1-5","lat":35.763128,"lon":139.630033},{"name":"石神井図書館","province":"東京都","city":"練馬区","address":"東京都練馬区石神井台1-16-31","lat":35.736486,"lon":139.599394},{"name":"南大泉図書館","province":"東京都","city":"練馬区","address":"東京都練馬区南大泉1-44-7","lat":35.743371,"lon":139.574766},{"name":"稲荷山図書館","province":"東京都","city":"練馬区","address":"東京都練馬区大泉町1-3-18","lat":35.765316,"lon":139.6092},{"name":"大泉図書館","province":"東京都","city":"練馬区","address":"東京都練馬区大泉学園町2-21-17","lat":35.760745,"lon":139.586944},{"name":"関町図書館","province":"東京都","city":"練馬区","address":"東京都練馬区関町南3-11-2","lat":35.720959,"lon":139.580319},{"name":"区立図書館高野台受取窓口","province":"東京都","city":"練馬区","address":"東京都練馬区高野台2-25-1","lat":35.748056,"lon":139.620948},{"name":"南田中図書館","province":"東京都","city":"練馬区","address":"東京都練馬区南田中5-15-22","lat":35.737612,"lon":139.611064},{"name":"区立図書館豊玉受取窓口","province":"東京都","city":"練馬区","address":"東京都練馬区豊玉上2-22-15","lat":35.737015,"lon":139.66017},{"name":"南大泉図書館分室こどもと本のひろば","province":"東京都","city":"練馬区","address":"東京都練馬区南大泉3-17-20","lat":35.74164,"lon":139.569932},{"name":"区立図書館石神井公園駅受取窓口","province":"東京都","city":"練馬区","address":"東京都練馬区石神井町7-1-2","lat":35.744396,"lon":139.603526},{"name":"区立図書館大泉学園駅受取窓口","province":"東京都","city":"練馬区","address":"東京都練馬区東大泉1-28-1リズモ大泉学園4階","lat":35.749685,"lon":139.587522},{"name":"区立図書館北町受取窓口","province":"東京都","city":"練馬区","address":"東京都練馬区北町2-26-1","lat":35.767576,"lon":139.66039},{"name":"区立図書館上石神井受取窓口","province":"東京都","city":"練馬区","address":"東京都練馬区上石神井1-6-16","lat":35.725257,"lon":139.59247},{"name":"石神井公園ふるさと文化館","province":"東京都","city":"練馬区","address":"東京都練馬区石神井町5-12-16","lat":35.737619,"lon":139.59946},{"name":"石神井公園ふるさと文化館分室","province":"東京都","city":"練馬区","address":"東京都練馬区石神井台1-33-44","lat":35.739308,"lon":139.593933},{"name":"学校教育支援センター","province":"東京都","city":"練馬区","address":"東京都練馬区光が丘6-4-1","lat":35.760532,"lon":139.62293},{"name":"学校教育支援センター練馬","province":"東京都","city":"練馬区","address":"東京都練馬区豊玉北5-15-19","lat":35.736017,"lon":139.654816},{"name":"学校教育支援センター関","province":"東京都","city":"練馬区","address":"東京都練馬区関町北1-21-15","lat":35.726531,"lon":139.578594},{"name":"学校教育支援センター大泉","province":"東京都","city":"練馬区","address":"東京都練馬区東大泉3-18-9","lat":35.75158,"lon":139.5867},{"name":"春日町青少年館","province":"東京都","city":"練馬区","address":"東京都練馬区春日町4-16-9","lat":35.752545,"lon":139.63911},{"name":"南大泉青少年館","province":"東京都","city":"練馬区","address":"東京都練馬区南大泉1-44-7","lat":35.74324,"lon":139.574769},{"name":"男女共同参画センターえーる","province":"東京都","city":"練馬区","address":"東京都練馬区石神井町8-1-10","lat":35.745192,"lon":139.60161},{"name":"豊玉北地区区民館","province":"東京都","city":"練馬区","address":"東京都練馬区豊玉北3-7-9","lat":35.732695,"lon":139.661363},{"name":"桜台地区区民館","province":"東京都","city":"練馬区","address":"東京都練馬区桜台3-39-17","lat":35.745988,"lon":139.663162},{"name":"貫井地区区民館","province":"東京都","city":"練馬区","address":"東京都練馬区貫井1-9-1","lat":35.738029,"lon":139.635557},{"name":"氷川台地区区民館","province":"東京都","city":"練馬区","address":"東京都練馬区氷川台2-16-14","lat":35.757012,"lon":139.667289},{"name":"早宮地区区民館","province":"東京都","city":"練馬区","address":"東京都練馬区早宮4-14-5","lat":35.750766,"lon":139.651265},{"name":"春日町南地区区民館","province":"東京都","city":"練馬区","address":"東京都練馬区春日町5-20-25","lat":35.74772,"lon":139.638503},{"name":"高松地区区民館","province":"東京都","city":"練馬区","address":"東京都練馬区高松3-24-27","lat":35.750084,"lon":139.62511},{"name":"旭町南地区区民館","province":"東京都","city":"練馬区","address":"東京都練馬区高松5-23-15","lat":35.762884,"lon":139.625008},{"name":"北町地区区民館","province":"東京都","city":"練馬区","address":"東京都練馬区北町2-26-1","lat":35.767469,"lon":139.660253},{"name":"北町第二地区区民館","province":"東京都","city":"練馬区","address":"東京都練馬区北町6-24-101","lat":35.761224,"lon":139.655453},{"name":"田柄地区区民館","province":"東京都","city":"練馬区","address":"東京都練馬区田柄3-28-13","lat":35.762105,"lon":139.637217},{"name":"光が丘地区区民館","province":"東京都","city":"練馬区","address":"東京都練馬区光が丘3-9-4","lat":35.757957,"lon":139.625571},{"name":"旭町北地区区民館","province":"東京都","city":"練馬区","address":"東京都練馬区旭町2-30-16","lat":35.77327,"lon":139.62879},{"name":"富士見台地区区民館","province":"東京都","city":"練馬区","address":"東京都練馬区富士見台3-10-1","lat":35.738766,"lon":139.624377},{"name":"下石神井地区区民館","province":"東京都","city":"練馬区","address":"東京都練馬区下石神井6-8-15","lat":35.733964,"lon":139.603574},{"name":"東大泉地区区民館","province":"東京都","city":"練馬区","address":"東京都練馬区東大泉3-53-1","lat":35.756156,"lon":139.587798},{"name":"西大泉地区区民館","province":"東京都","city":"練馬区","address":"東京都練馬区西大泉5-3-32","lat":35.760045,"lon":139.572514},{"name":"南大泉地区区民館","province":"東京都","city":"練馬区","address":"東京都練馬区南大泉2-19-26","lat":35.73912,"lon":139.570389},{"name":"北大泉地区区民館","province":"東京都","city":"練馬区","address":"東京都練馬区大泉町2-41-26","lat":35.764733,"lon":139.604024},{"name":"大泉学園地区区民館","province":"東京都","city":"練馬区","address":"東京都練馬区大泉学園町8-9-5","lat":35.77293,"lon":139.59269},{"name":"関町北地区区民館","province":"東京都","city":"練馬区","address":"東京都練馬区関町北4-12-21","lat":35.729804,"lon":139.57706},{"name":"立野地区区民館","province":"東京都","city":"練馬区","address":"東京都練馬区立野町15-42","lat":35.718621,"lon":139.582578},{"name":"旭丘地域集会所","province":"東京都","city":"練馬区","address":"東京都練馬区旭丘1-58-10","lat":35.734836,"lon":139.674115},{"name":"小竹地域集会所","province":"東京都","city":"練馬区","address":"東京都練馬区小竹町1-63-2","lat":35.738808,"lon":139.673283},{"name":"中村地域集会所","province":"東京都","city":"練馬区","address":"東京都練馬区中村南2-23-12","lat":35.729791,"lon":139.642737},{"name":"向山地域集会所","province":"東京都","city":"練馬区","address":"東京都練馬区向山4-21-12","lat":35.743566,"lon":139.638644},{"name":"北町地域集会所","province":"東京都","city":"練馬区","address":"東京都練馬区北町8-28-10","lat":35.767714,"lon":139.649669},{"name":"土支田地域集会所","province":"東京都","city":"練馬区","address":"東京都練馬区土支田2-40-21","lat":35.764227,"lon":139.611657},{"name":"南田中地域集会所","province":"東京都","city":"練馬区","address":"東京都練馬区南田中2-18-36","lat":35.733238,"lon":139.616831},{"name":"高野台地域集会所","province":"東京都","city":"練馬区","address":"東京都練馬区高野台3-28-11","lat":35.745688,"lon":139.6119},{"name":"谷原地域集会所","province":"東京都","city":"練馬区","address":"東京都練馬区谷原5-6-7","lat":35.751394,"lon":139.612965},{"name":"三原台地域集会所","province":"東京都","city":"練馬区","address":"東京都練馬区三原台3-13-17","lat":35.753942,"lon":139.599384},{"name":"石神井台みどり地域集会所","province":"東京都","city":"練馬区","address":"東京都練馬区石神井台2-13-6","lat":35.736502,"lon":139.592006},{"name":"石神井台地域集会所","province":"東京都","city":"練馬区","address":"東京都練馬区石神井台4-5-14","lat":35.73171,"lon":139.585801},{"name":"東大泉地域集会所","province":"東京都","city":"練馬区","address":"東京都練馬区東大泉7-27-51","lat":35.74352,"lon":139.580401},{"name":"大泉町地域集会所","province":"東京都","city":"練馬区","address":"東京都練馬区大泉町4-35-17","lat":35.763827,"lon":139.595756},{"name":"大泉学園町地域集会所","province":"東京都","city":"練馬区","address":"東京都練馬区大泉学園町6-20-36","lat":35.771352,"lon":139.583205},{"name":"上石神井北地域集会所","province":"東京都","city":"練馬区","address":"東京都練馬区上石神井2-36-18","lat":35.729185,"lon":139.592362},{"name":"関町地域集会所","province":"東京都","city":"練馬区","address":"東京都練馬区関町南4-22-1","lat":35.721378,"lon":139.567735},{"name":"桜台地域集会所","province":"東京都","city":"練馬区","address":"東京都練馬区桜台1-22-9","lat":35.739048,"lon":139.666669},{"name":"早宮地域集会所","province":"東京都","city":"練馬区","address":"東京都練馬区早宮1-44-19","lat":35.754169,"lon":139.658822},{"name":"春日町地域集会所","province":"東京都","city":"練馬区","address":"東京都練馬区春日町5-30-1","lat":35.750546,"lon":139.639374},{"name":"土支田中央地域集会所","province":"東京都","city":"練馬区","address":"東京都練馬区土支田2-32-8","lat":35.763369,"lon":139.613629},{"name":"旭町地域集会所","province":"東京都","city":"練馬区","address":"東京都練馬区旭町3-11-6","lat":35.774336,"lon":139.62495},{"name":"田柄地域集会所","province":"東京都","city":"練馬区","address":"東京都練馬区田柄2-6-22","lat":35.763579,"lon":139.644728},{"name":"上石神井南地域集会所","province":"東京都","city":"練馬区","address":"東京都練馬区上石神井1-6-16","lat":35.725244,"lon":139.592461},{"name":"東大泉中央地域集会所","province":"東京都","city":"練馬区","address":"東京都練馬区東大泉3-18-9","lat":35.751512,"lon":139.586689},{"name":"南大泉地域集会所","province":"東京都","city":"練馬区","address":"東京都練馬区南大泉5-26-19","lat":35.751243,"lon":139.573567},{"name":"大泉北地域集会所","province":"東京都","city":"練馬区","address":"東京都練馬区大泉学園町4-21-1","lat":35.765602,"lon":139.588367},{"name":"練馬高野台駅前地域集会所","province":"東京都","city":"練馬区","address":"東京都練馬区高野台1-7-29","lat":35.740929,"lon":139.61624},{"name":"豊玉地域集会所","province":"東京都","city":"練馬区","address":"東京都練馬区豊玉中4-13-6","lat":35.732588,"lon":139.650536},{"name":"サンライフ練馬（東京中高年齢労働者福祉センター）","province":"東京都","city":"練馬区","address":"東京都練馬区貫井1-36-18","lat":35.737421,"lon":139.635858},{"name":"勤労福祉会館","province":"東京都","city":"練馬区","address":"東京都練馬区東大泉5-40-36","lat":35.748228,"lon":139.587373},{"name":"東部公園出張所","province":"東京都","city":"練馬区","address":"東京都練馬区豊玉中3-28-8","lat":35.731132,"lon":139.652718},{"name":"西部公園出張所","province":"東京都","city":"練馬区","address":"東京都練馬区石神井町3-30-26石神井庁舎2階","lat":35.743403,"lon":139.602838},{"name":"四季の香ローズガーデン","province":"東京都","city":"練馬区","address":"東京都練馬区光が丘5-2-6","lat":35.760729,"lon":139.626306},{"name":"向山庭園","province":"東京都","city":"練馬区","address":"東京都練馬区向山3-1-21","lat":35.742193,"lon":139.646839},{"name":"桜台体育館","province":"東京都","city":"練馬区","address":"東京都練馬区桜台3-28-1","lat":35.745553,"lon":139.66622},{"name":"平和台体育館","province":"東京都","city":"練馬区","address":"東京都練馬区平和台2-12-5","lat":35.759427,"lon":139.661423},{"name":"光が丘体育館","province":"東京都","city":"練馬区","address":"東京都練馬区光が丘4-1-4","lat":35.764067,"lon":139.63029},{"name":"総合体育館","province":"東京都","city":"練馬区","address":"東京都練馬区谷原1-7-5","lat":35.749539,"lon":139.621278},{"name":"大泉学園町体育館","province":"東京都","city":"練馬区","address":"東京都練馬区大泉学園町5-14-24","lat":35.765285,"lon":139.584097},{"name":"上石神井体育館","province":"東京都","city":"練馬区","address":"東京都練馬区上石神井1-32-37","lat":35.722472,"lon":139.587207},{"name":"中村南スポーツ交流センター","province":"東京都","city":"練馬区","address":"東京都練馬区中村南1-2-32","lat":35.729224,"lon":139.648692},{"name":"練馬駅北口地下駐車場","province":"東京都","city":"練馬区","address":"東京都練馬区練馬1-17-5","lat":35.738606,"lon":139.653272},{"name":"石神井公園駅北口駐車場（石神井公園ピアレスパーキング）","province":"東京都","city":"練馬区","address":"東京都練馬区石神井町2-14-15","lat":35.744439,"lon":139.606978},{"name":"大泉学園駅北口駐車場（大泉学園ゆめりあ北パーキング）","province":"東京都","city":"練馬区","address":"東京都練馬区東大泉1-29-1","lat":35.750062,"lon":139.585652},{"name":"大泉学園駅南口駐車場（大泉学園ゆめりあ南パーキング）","province":"東京都","city":"練馬区","address":"東京都練馬区東大泉5-43-1","lat":35.748556,"lon":139.585418},{"name":"江古田駅自転車駐輪場","province":"東京都","city":"練馬区","address":"東京都練馬区旭丘1-71-5","lat":35.736762,"lon":139.674029},{"name":"江古田駅第二自転車駐輪場","province":"東京都","city":"練馬区","address":"東京都練馬区栄町33-10","lat":35.738839,"lon":139.672179},{"name":"江古田駅第三自転車駐輪場","province":"東京都","city":"練馬区","address":"東京都練馬区小竹町1-60-1","lat":35.738064,"lon":139.673318},{"name":"江古田栄町自転車駐輪場","province":"東京都","city":"練馬区","address":"東京都練馬区栄町3-11","lat":35.737067,"lon":139.671769},{"name":"桜台駅東自転車駐輪場","province":"東京都","city":"練馬区","address":"東京都練馬区桜台1-14-1","lat":35.738986,"lon":139.664104},{"name":"桜台駅西自転車駐輪場","province":"東京都","city":"練馬区","address":"東京都練馬区桜台4-1-1","lat":35.738585,"lon":139.660795},{"name":"練馬駅東自転車駐輪場","province":"東京都","city":"練馬区","address":"東京都練馬区練馬1-1-13","lat":35.73818,"lon":139.656667},{"name":"練馬駅西自転車駐輪場","province":"東京都","city":"練馬区","address":"東京都練馬区練馬1-12-12","lat":35.737702,"lon":139.652385},{"name":"練馬駅北地下自転車駐輪場","province":"東京都","city":"練馬区","address":"東京都練馬区練馬1-17-1","lat":35.737965,"lon":139.653013},{"name":"豊島園駅東自転車駐輪場","province":"東京都","city":"練馬区","address":"東京都練馬区練馬4-14-16","lat":35.741712,"lon":139.64887},{"name":"豊島園駅西自転車駐輪場","province":"東京都","city":"練馬区","address":"東京都練馬区練馬4-10-18","lat":35.74181,"lon":139.647718},{"name":"中村橋駅東自転車駐輪場","province":"東京都","city":"練馬区","address":"東京都練馬区中村北3-15-10","lat":35.737003,"lon":139.639471},{"name":"中村橋駅西自転車駐輪場","province":"東京都","city":"練馬区","address":"東京都練馬区貫井1-36-26","lat":35.736616,"lon":139.635849},{"name":"富士見台駅東自転車駐輪場","province":"東京都","city":"練馬区","address":"東京都練馬区貫井1-48-12","lat":35.736077,"lon":139.631215},{"name":"富士見台駅西自転車駐輪場","province":"東京都","city":"練馬区","address":"東京都練馬区貫井3-6-9","lat":35.735831,"lon":139.628263},{"name":"練馬高野台駅南自転車駐輪場","province":"東京都","city":"練馬区","address":"東京都練馬区高野台1-1-8","lat":35.740179,"lon":139.617325},{"name":"石神井公園駅北自転車駐輪場","province":"東京都","city":"練馬区","address":"東京都練馬区石神井町2-13-4","lat":35.744721,"lon":139.609236},{"name":"石神井公園駅北第二自転車駐輪場","province":"東京都","city":"練馬区","address":"東京都練馬区石神井町2-13-26","lat":35.745194,"lon":139.60908},{"name":"石神井南自転車駐輪場","province":"東京都","city":"練馬区","address":"東京都練馬区石神井町3-20-3","lat":35.742494,"lon":139.606697},{"name":"大泉学園駅南第一自転車駐輪場","province":"東京都","city":"練馬区","address":"東京都練馬区東大泉5-41-23","lat":35.749198,"lon":139.587027},{"name":"大泉学園駅南第二自転車駐輪場","province":"東京都","city":"練馬区","address":"東京都練馬区東大泉6-52-2","lat":35.749605,"lon":139.585004},{"name":"大泉学園駅西第三自転車駐輪場","province":"東京都","city":"練馬区","address":"東京都練馬区東大泉6-34-24","lat":35.748101,"lon":139.58435},{"name":"大泉学園駅南バス通り自転車駐輪場","province":"東京都","city":"練馬区","address":"東京都練馬区東大泉5-29-13","lat":35.747638,"lon":139.58658},{"name":"大泉学園駅南口地下自転車駐輪場","province":"東京都","city":"練馬区","address":"東京都練馬区東大泉5-43-1","lat":35.749357,"lon":139.585461},{"name":"中島橋自転車駐輪場","province":"東京都","city":"練馬区","address":"東京都練馬区東大泉4-29-15","lat":35.753741,"lon":139.584304},{"name":"大泉学園駅北自転車駐輪場","province":"東京都","city":"練馬区","address":"東京都練馬区東大泉4-5-4","lat":35.750726,"lon":139.583999},{"name":"大泉学園駅北第二自転車駐輪場","province":"東京都","city":"練馬区","address":"東京都練馬区東大泉4-3-14","lat":35.751247,"lon":139.584904},{"name":"大泉学園駅北第三自転車駐輪場","province":"東京都","city":"練馬区","address":"東京都練馬区東大泉4-4-18","lat":35.750248,"lon":139.58462},{"name":"大泉学園駅北第四自転車駐輪場","province":"東京都","city":"練馬区","address":"東京都練馬区東大泉4-3-7","lat":35.750802,"lon":139.584705},{"name":"大泉学園駅北第五自転車駐輪場","province":"東京都","city":"練馬区","address":"東京都練馬区東大泉4-1-11","lat":35.750439,"lon":139.585268},{"name":"大泉学園駅北口地下自転車駐輪場","province":"東京都","city":"練馬区","address":"東京都練馬区東大泉1-29-1","lat":35.750326,"lon":139.585644},{"name":"東大泉自転車駐輪場","province":"東京都","city":"練馬区","address":"東京都練馬区東大泉1-28-1","lat":35.749876,"lon":139.587344},{"name":"東大泉第三自転車駐輪場","province":"東京都","city":"練馬区","address":"東京都練馬区東大泉1-32-2","lat":35.750361,"lon":139.587139},{"name":"学園通り自転車駐輪場","province":"東京都","city":"練馬区","address":"東京都練馬区東大泉3-49-11","lat":35.754638,"lon":139.587043},{"name":"大泉郵便局バス停自転車駐輪場","province":"東京都","city":"練馬区","address":"東京都練馬区大泉学園町5-7","lat":35.766488,"lon":139.5872},{"name":"風致地区バス停自転車駐輪場","province":"東京都","city":"練馬区","address":"東京都練馬区大泉学園町6-18","lat":35.771136,"lon":139.586456},{"name":"風致地区バス停第二自転車駐輪場","province":"東京都","city":"練馬区","address":"東京都練馬区大泉学園町6-18","lat":35.771117,"lon":139.586219},{"name":"風致地区バス停第三自転車駐輪場","province":"東京都","city":"練馬区","address":"東京都練馬区大泉学園町7-7","lat":35.771078,"lon":139.586808},{"name":"都民農園バス停自転車駐輪場","province":"東京都","city":"練馬区","address":"東京都練馬区大泉学園町6-30","lat":35.773987,"lon":139.584383},{"name":"南大泉自転車駐輪場","province":"東京都","city":"練馬区","address":"東京都練馬区南大泉3-25-25","lat":35.746467,"lon":139.567995},{"name":"上石神井自転車駐輪場","province":"東京都","city":"練馬区","address":"東京都練馬区上石神井2-34-15","lat":35.728285,"lon":139.591773},{"name":"上石神井駅北第一自転車駐輪場","province":"東京都","city":"練馬区","address":"東京都練馬区上石神井2-24-15","lat":35.726361,"lon":139.593787},{"name":"上石神井駅北第二自転車駐輪場","province":"東京都","city":"練馬区","address":"東京都練馬区上石神井4-1-6","lat":35.726698,"lon":139.590538},{"name":"上石神井駅北第三自転車駐輪場","province":"東京都","city":"練馬区","address":"東京都練馬区上石神井2-23-3","lat":35.726521,"lon":139.593651},{"name":"上石神井駅南自転車駐輪場","province":"東京都","city":"練馬区","address":"東京都練馬区上石神井1-3-15","lat":35.724575,"lon":139.59447},{"name":"上石神井駅南第二自転車駐輪場","province":"東京都","city":"練馬区","address":"東京都練馬区上石神井1-14-5","lat":35.726169,"lon":139.59073},{"name":"上石神井駅南第三自転車駐輪場","province":"東京都","city":"練馬区","address":"東京都練馬区上石神井1-5-19","lat":35.725749,"lon":139.592678},{"name":"上石神井立野橋自転車駐輪場","province":"東京都","city":"練馬区","address":"東京都練馬区上石神井1-11-5","lat":35.723722,"lon":139.591607},{"name":"武蔵関駅北自転車駐輪場","province":"東京都","city":"練馬区","address":"東京都練馬区関町北4-9-6","lat":35.729104,"lon":139.575206},{"name":"武蔵関駅北第二自転車駐輪場","province":"東京都","city":"練馬区","address":"東京都練馬区関町北4-16-52","lat":35.729086,"lon":139.574866},{"name":"武蔵関駅西自転車駐輪場","province":"東京都","city":"練馬区","address":"東京都練馬区関町北4-7-1","lat":35.727805,"lon":139.574676},{"name":"庚申橋自転車駐輪場","province":"東京都","city":"練馬区","address":"東京都練馬区石神井台7-9-11","lat":35.728886,"lon":139.578587},{"name":"武蔵関駅南自転車駐輪場","province":"東京都","city":"練馬区","address":"東京都練馬区関町北1-23-14","lat":35.727315,"lon":139.577927},{"name":"武蔵関駅南第二自転車駐輪場","province":"東京都","city":"練馬区","address":"東京都練馬区関町北1-16-12","lat":35.725978,"lon":139.577975},{"name":"武蔵関駅東自転車駐輪場","province":"東京都","city":"練馬区","address":"東京都練馬区関町東2-17-1","lat":35.728522,"lon":139.578147},{"name":"北町二丁目自転車駐輪場","province":"東京都","city":"練馬区","address":"東京都練馬区北町2-21-5","lat":35.76745,"lon":139.662019},{"name":"小竹向原駅自転車駐輪場","province":"東京都","city":"練馬区","address":"東京都練馬区小竹町2-16-14","lat":35.743891,"lon":139.678428},{"name":"氷川台駅第三自転車駐輪場","province":"東京都","city":"練馬区","address":"東京都練馬区氷川台3-40-1","lat":35.749726,"lon":139.665153},{"name":"氷川台駅第四自転車駐輪場","province":"東京都","city":"練馬区","address":"東京都練馬区氷川台4-53-6","lat":35.75089,"lon":139.663796},{"name":"氷川台駅第五自転車駐輪場","province":"東京都","city":"練馬区","address":"東京都練馬区氷川台4-51-9","lat":35.75111,"lon":139.664469},{"name":"氷川台駅第六自転車駐輪場","province":"東京都","city":"練馬区","address":"東京都練馬区氷川台3-34-9","lat":35.749686,"lon":139.667652},{"name":"氷川台駅第八自転車駐輪場","province":"東京都","city":"練馬区","address":"東京都練馬区早宮1-1-8","lat":35.750054,"lon":139.663549},{"name":"氷川台駅第九自転車駐輪場","province":"東京都","city":"練馬区","address":"東京都練馬区氷川台3-41-3","lat":35.74923,"lon":139.66423},{"name":"氷川台駅第十自転車駐輪場","province":"東京都","city":"練馬区","address":"東京都練馬区氷川台3-36-3","lat":35.74943,"lon":139.66675},{"name":"平和台駅第二自転車駐輪場","province":"東京都","city":"練馬区","address":"東京都練馬区早宮2-16-32","lat":35.756563,"lon":139.655317},{"name":"平和台駅地下自転車駐輪場","province":"東京都","city":"練馬区","address":"東京都練馬区平和台2-25-11","lat":35.75822,"lon":139.6539},{"name":"平和台駅前地下自転車駐輪場","province":"東京都","city":"練馬区","address":"東京都練馬区早宮2-17-50","lat":35.757019,"lon":139.654251},{"name":"早宮自転車駐輪場","province":"東京都","city":"練馬区","address":"東京都練馬区早宮2-18-34","lat":35.756351,"lon":139.652216},{"name":"早宮第二自転車駐輪場","province":"東京都","city":"練馬区","address":"東京都練馬区早宮2-18-31","lat":35.756867,"lon":139.65201},{"name":"早宮第四自転車駐輪場","province":"東京都","city":"練馬区","address":"東京都練馬区早宮2-17-45","lat":35.757099,"lon":139.65369},{"name":"地下鉄赤塚駅南自転車駐輪場","province":"東京都","city":"練馬区","address":"東京都練馬区田柄2-49-3","lat":35.769965,"lon":139.643102},{"name":"新桜台駅自転車駐輪場","province":"東京都","city":"練馬区","address":"東京都練馬区桜台1-27-14","lat":35.74034,"lon":139.667525},{"name":"新江古田駅自転車駐輪場","province":"東京都","city":"練馬区","address":"東京都練馬区豊玉北1-14-14","lat":35.733568,"lon":139.668801},{"name":"練馬春日町駅自転車駐輪場","province":"東京都","city":"練馬区","address":"東京都練馬区春日町3-29-28","lat":35.751314,"lon":139.64102},{"name":"光が丘自転車駐輪場","province":"東京都","city":"練馬区","address":"東京都練馬区光が丘3-7-12","lat":35.758123,"lon":139.629512},{"name":"光が丘第二自転車駐輪場","province":"東京都","city":"練馬区","address":"東京都練馬区光が丘3-10-1","lat":35.758272,"lon":139.627114},{"name":"光が丘第三自転車駐輪場","province":"東京都","city":"練馬区","address":"東京都練馬区光が丘3-10-2","lat":35.758745,"lon":139.628295},{"name":"光が丘第四自転車駐輪場","province":"東京都","city":"練馬区","address":"東京都練馬区光が丘3-9-1","lat":35.758107,"lon":139.628819},{"name":"田柄自転車駐輪場","province":"東京都","city":"練馬区","address":"東京都練馬区田柄5-27-7","lat":35.759122,"lon":139.631806},{"name":"第２育秀苑地域包括支援センター","province":"東京都","city":"練馬区","address":"東京都練馬区羽沢2-8-16","lat":35.743854,"lon":139.670909},{"name":"北町はるのひ地域包括支援センター","province":"東京都","city":"練馬区","address":"東京都練馬区北町6-35-7","lat":35.757088,"lon":139.64944},{"name":"田柄地域包括支援センター","province":"東京都","city":"練馬区","address":"東京都練馬区田柄4-12-10","lat":35.762995,"lon":139.635694},{"name":"高野台地域包括支援センター","province":"東京都","city":"練馬区","address":"東京都練馬区高野台1-7-29","lat":35.740925,"lon":139.616445},{"name":"大泉地域包括支援センター","province":"東京都","city":"練馬区","address":"東京都練馬区東大泉1-29-1","lat":35.750083,"lon":139.585583},{"name":"南大泉地域包括支援センター","province":"東京都","city":"練馬区","address":"東京都練馬区南大泉5-26-19","lat":35.751179,"lon":139.573442},{"name":"やすらぎミラージュ地域包括支援センター","province":"東京都","city":"練馬区","address":"東京都練馬区大泉町4-24-7","lat":35.762634,"lon":139.597148},{"name":"第二光陽苑地域包括支援センター","province":"東京都","city":"練馬区","address":"東京都練馬区関町北5-7-22","lat":35.732329,"lon":139.571796},{"name":"関町地域包括支援センター","province":"東京都","city":"練馬区","address":"東京都練馬区関町南4-9-28","lat":35.722189,"lon":139.574099},{"name":"北町地域包括支援センター","province":"東京都","city":"練馬区","address":"東京都練馬区北町2-26-1","lat":35.767681,"lon":139.660359},{"name":"光が丘地域包括支援センター","province":"東京都","city":"練馬区","address":"東京都練馬区光が丘2-9-6","lat":35.759386,"lon":139.629538},{"name":"光が丘南地域包括支援センター","province":"東京都","city":"練馬区","address":"東京都練馬区光が丘3-3-1-103","lat":35.75409,"lon":139.627007},{"name":"練馬地域包括支援センター","province":"東京都","city":"練馬区","address":"東京都練馬区練馬2-24-3","lat":35.743975,"lon":139.654138},{"name":"豊玉地域包括支援センター","province":"東京都","city":"練馬区","address":"東京都練馬区豊玉南3-9-13","lat":35.727699,"lon":139.652521},{"name":"練馬ゆめの木地域包括支援センター","province":"東京都","city":"練馬区","address":"東京都練馬区大泉町2-17-1","lat":35.760488,"lon":139.602345},{"name":"大泉北地域包括支援センター","province":"東京都","city":"練馬区","address":"東京都練馬区大泉学園町4-21-1","lat":35.765667,"lon":139.588481},{"name":"大泉学園地域包括支援センター","province":"東京都","city":"練馬区","address":"東京都練馬区大泉学園町2-20-21","lat":35.759858,"lon":139.587662},{"name":"練馬高松園地域包括支援センター","province":"東京都","city":"練馬区","address":"東京都練馬区高松2-9-3","lat":35.746663,"lon":139.630186},{"name":"フローラ石神井公園地域包括支援センター","province":"東京都","city":"練馬区","address":"東京都練馬区下石神井3-6-13","lat":35.733462,"lon":139.606755},{"name":"練馬区役所地域包括支援センター","province":"東京都","city":"練馬区","address":"東京都練馬区豊玉北6-12-1","lat":35.735787,"lon":139.65135},{"name":"石神井地域包括支援センター","province":"東京都","city":"練馬区","address":"東京都練馬区石神井町3-30-26","lat":35.743447,"lon":139.602671},{"name":"桜台地域包括支援センター","province":"東京都","city":"練馬区","address":"東京都練馬区桜台1-22-9","lat":35.739192,"lon":139.666728},{"name":"第３育秀苑地域包括支援センター","province":"東京都","city":"練馬区","address":"東京都練馬区土支田1-31-5","lat":35.76603,"lon":139.618115},{"name":"中村橋地域包括支援センター","province":"東京都","city":"練馬区","address":"東京都練馬区貫井1-9-1","lat":35.738101,"lon":139.635551},{"name":"上石神井地域包括支援センター","province":"東京都","city":"練馬区","address":"東京都練馬区上石神井1-6-16","lat":35.725296,"lon":139.592459},{"name":"やすらぎシティ地域包括支援センター","province":"東京都","city":"練馬区","address":"東京都練馬区東大泉7-27-49","lat":35.74401,"lon":139.580468},{"name":"中村かしわ地域包括支援センター","province":"東京都","city":"練馬区","address":"東京都練馬区中村2-25-3","lat":35.731721,"lon":139.642156},{"name":"農の学校","province":"東京都","city":"練馬区","address":"東京都練馬区高松1丁目35-2","lat":35.74875963,"lon":139.63416938},{"name":"こどもの森","province":"東京都","city":"練馬区","address":"東京都練馬区羽沢2-32-7","lat":35.74891,"lon":139.672485},{"name":"中里郷土の森","province":"東京都","city":"練馬区","address":"東京都練馬区大泉町1-51-2","lat":35.76927,"lon":139.604144},{"name":"土支田農業公園","province":"東京都","city":"練馬区","address":"東京都練馬区土支田3-34-26","lat":35.76082821,"lon":139.609528},{"name":"牧野記念庭園","province":"東京都","city":"練馬区","address":"東京都練馬区東大泉6-34-4","lat":35.74648664,"lon":139.585235}]}