{"keyword":"支援","data":[{"name":"やすらぎの杜","province":"東京都","city":"練馬区","address":"練馬区関町北5-7-10","lat":35.731907,"lon":139.571717},{"name":"大泉障害者支援ホーム","province":"東京都","city":"練馬区","address":"練馬区大泉学園町9-4-2","lat":35.775805,"lon":139.594589},{"name":"練馬福祉園","province":"東京都","city":"練馬区","address":"練馬区大泉学園町9-4-1","lat":35.77608,"lon":139.593464},{"name":"旭出生産福祉園","province":"東京都","city":"練馬区","address":"練馬区東大泉7-21-32","lat":35.741195,"lon":139.577016},{"name":"東京高次脳機能障害者支援ホーム","province":"東京都","city":"練馬区","address":"練馬区西大泉5-36-2","lat":35.760131,"lon":139.565128},{"name":"障害者支援施設　土支田創生苑","province":"東京都","city":"練馬区","address":"練馬区土支田3-4-20","lat":35.759583,"lon":139.609865}]}