{"keyword":"放課後","data":[{"name":"ＮＰＯ法人ふれあい学童　空","province":"東京都","city":"練馬区","address":"練馬区豊玉北2-16-3セントローズ江古田1階","lat":35.734612,"lon":139.664853},{"name":"発達支援室あかねっこ　練馬教室","province":"東京都","city":"練馬区","address":"練馬区豊玉北4-27-2練馬民団ビル1階","lat":35.736917,"lon":139.657093},{"name":"かめの子教室","province":"東京都","city":"練馬区","address":"練馬区貫井3-28-6","lat":35.738183,"lon":139.626095},{"name":"運動発達支援スタジオＵＮＩＭＯ中村橋","province":"東京都","city":"練馬区","address":"練馬区貫井1-2-1中村橋サンパレス111","lat":35.73713,"lon":139.637711},{"name":"発達支援センタージョイナス　向山教室","province":"東京都","city":"練馬区","address":"練馬区向山一丁目15番2号上野ビル3階","lat":35.737122,"lon":139.639158},{"name":"発達支援センタージョイナス中村橋教室","province":"東京都","city":"練馬区","address":"練馬区中村北3-9-8第2真ビル201","lat":35.736372,"lon":139.640475},{"name":"放課後等デイサービス　ぱれっと","province":"東京都","city":"練馬区","address":"練馬区三原台2-18-2グリーンビル1階","lat":35.755747,"lon":139.604369},{"name":"ラフカｋｉｄｓ","province":"東京都","city":"練馬区","address":"練馬区谷原4-20-31ディアコート・アクア1階","lat":35.757977,"lon":139.614412},{"name":"すまいる・キッズ＆すまいる・ツリー","province":"東京都","city":"練馬区","address":"練馬区谷原5-22-2MKLビル2階","lat":35.750212,"lon":139.608163},{"name":"このこのリーフ谷原","province":"東京都","city":"練馬区","address":"練馬区谷原6-3-5","lat":35.754128,"lon":139.610152},{"name":"すまいる・ステップ","province":"東京都","city":"練馬区","address":"練馬区高野台3-12-9メゾンドサントロペ1階","lat":35.743174,"lon":139.615796},{"name":"たまみずき","province":"東京都","city":"練馬区","address":"練馬区石神井町7-32-71階","lat":35.745462,"lon":139.596162},{"name":"児童デイサービス　陽（てぃーら）","province":"東京都","city":"練馬区","address":"練馬区石神井台7-26-6","lat":35.731557,"lon":139.577958},{"name":"くまさん","province":"東京都","city":"練馬区","address":"練馬区石神井台5-25-27","lat":35.738748,"lon":139.587363},{"name":"児童デイ　月のうさぎ","province":"東京都","city":"練馬区","address":"練馬区石神井台8-7-16","lat":35.735735,"lon":139.580149},{"name":"このこのリーフ練馬","province":"東京都","city":"練馬区","address":"練馬区石神井台5-22-41フォーラム石神井106","lat":35.737085,"lon":139.588804},{"name":"ふるーれプラス","province":"東京都","city":"練馬区","address":"練馬区石神井台3-24-35","lat":35.743659,"lon":139.590209},{"name":"放課後デイサービス　うぃんくる","province":"東京都","city":"練馬区","address":"練馬区関町北3-1-3MSビル1階","lat":35.723272,"lon":139.572712},{"name":"発達支援研究所スプラウト武蔵関教室","province":"東京都","city":"練馬区","address":"練馬区関町北2-24-10LUCE関町001号","lat":35.726927,"lon":139.5757},{"name":"あいの風キッズステーション","province":"東京都","city":"練馬区","address":"練馬区関町東2-15-8マンション柚子101号","lat":35.728452,"lon":139.579008},{"name":"いまここ大泉学園","province":"東京都","city":"練馬区","address":"練馬区大泉学園町8-7-35","lat":35.771986,"lon":139.594167},{"name":"児童デイサービス　ＯＨＡＮＡ　ＫＩＤＳ大泉学園","province":"東京都","city":"練馬区","address":"練馬区大泉学園町8-25-18エスファルド102","lat":35.774869,"lon":139.595297},{"name":"療育ルーム　りんごの木","province":"東京都","city":"練馬区","address":"練馬区大泉学園町1-28-5","lat":35.760268,"lon":139.588723},{"name":"ふれあい学童　空","province":"東京都","city":"練馬区","address":"練馬区大泉町5-35-1ジョイハウス北園1階","lat":35.758096,"lon":139.590462},{"name":"発達支援室あかねっこ　大泉教室","province":"東京都","city":"練馬区","address":"練馬区東大泉3-19-6第一豊田ビル2階","lat":35.7515,"lon":139.585854},{"name":"でぃあな","province":"東京都","city":"練馬区","address":"練馬区東大泉4-25-16","lat":35.752022,"lon":139.583354},{"name":"はつらつ","province":"東京都","city":"練馬区","address":"練馬区南大泉5-3-3","lat":35.749653,"lon":139.578802},{"name":"ハーモニー","province":"東京都","city":"練馬区","address":"練馬区西大泉3-11-4","lat":35.753955,"lon":139.581637},{"name":"このこのリーフ光が丘","province":"東京都","city":"練馬区","address":"練馬区旭町1-41-12","lat":35.766268,"lon":139.620131},{"name":"練馬区立こども発達支援センター","province":"東京都","city":"練馬区","address":"練馬区光が丘3-1-1","lat":35.754201,"lon":139.630961},{"name":"みかん","province":"東京都","city":"練馬区","address":"練馬区春日町3-1-12クリスタルエム1階","lat":35.748121,"lon":139.644566},{"name":"はじめのいっぽ春日町","province":"東京都","city":"練馬区","address":"練馬区春日町2-28-3春日町児童館1階","lat":35.757087,"lon":139.646351},{"name":"シルバーハート放課後デイサービスひまわり","province":"東京都","city":"練馬区","address":"練馬区春日町5-33-30-2F","lat":35.751223,"lon":139.637419},{"name":"春日びより","province":"東京都","city":"練馬区","address":"練馬区春日町5-33-33春日町NCビル1階","lat":35.751326,"lon":139.637855},{"name":"発達支援室あかねっこ　春日町教室","province":"東京都","city":"練馬区","address":"練馬区高松2-26-6サングリーン高松2階","lat":35.750937,"lon":139.631497},{"name":"にじ色くらぶ","province":"東京都","city":"練馬区","address":"練馬区高松6-5-8フジハイムII102","lat":35.756694,"lon":139.618098},{"name":"あんしぇる","province":"東京都","city":"練馬区","address":"練馬区北町6-27-11パチェフォレスタ1階","lat":35.760114,"lon":139.652831},{"name":"つむぎの里　雅　錦","province":"東京都","city":"練馬区","address":"練馬区錦1-16-10","lat":35.757665,"lon":139.670308}]}