{"keyword":"敬老","data":[{"name":"栄町敬老館","province":"東京都","city":"練馬区","address":"練馬区栄町40-7","lat":35.73945985,"lon":139.6713626},{"name":"南田中敬老館","province":"東京都","city":"練馬区","address":"練馬区南田中5-15-25","lat":35.73777979,"lon":139.6115077},{"name":"三原台敬老館","province":"東京都","city":"練馬区","address":"練馬区三原台2-11-29","lat":35.75732146,"lon":139.6063413},{"name":"石神井敬老館","province":"東京都","city":"練馬区","address":"練馬区石神井町7-28-21","lat":35.74479231,"lon":139.5981384},{"name":"石神井台敬老館","province":"東京都","city":"練馬区","address":"練馬区石神井台2-18-13","lat":35.73542776,"lon":139.5896466},{"name":"東大泉敬老館","province":"東京都","city":"練馬区","address":"練馬区東大泉7-20-1","lat":35.74232052,"lon":139.5770505},{"name":"西大泉敬老館","province":"東京都","city":"練馬区","address":"練馬区西大泉3-21-16","lat":35.75940197,"lon":139.5788663},{"name":"大泉北敬老館","province":"東京都","city":"練馬区","address":"練馬区大泉学園町4-21-1","lat":35.7654762,"lon":139.5883679},{"name":"高野台敬老館","province":"東京都","city":"練馬区","address":"練馬区高野台2-25-1","lat":35.74784643,"lon":139.620932},{"name":"上石神井敬老館","province":"東京都","city":"練馬区","address":"練馬区上石神井1-6-16","lat":35.72523455,"lon":139.5923404}]}