{"keyword":"椅子","data":[{"name":"石神井公園","province":"東京都","city":"練馬区","address":"東京都練馬区石神井町5丁目17","lat":35.738778,"lon":139.602955},{"name":"石神井公園","province":"東京都","city":"練馬区","address":"東京都練馬区石神井町5丁目24","lat":35.737791,"lon":139.599169},{"name":"石神井公園","province":"東京都","city":"練馬区","address":"東京都練馬区石神井台1丁目26","lat":35.738776,"lon":139.596424},{"name":"石神井公園","province":"東京都","city":"練馬区","address":"東京都練馬区石神井町5丁目21","lat":35.739398,"lon":139.601502},{"name":"石神井公園","province":"東京都","city":"練馬区","address":"東京都練馬区石神井町5丁目21","lat":35.739153,"lon":139.605055},{"name":"石神井公園","province":"東京都","city":"練馬区","address":"東京都練馬区石神井台1丁目26","lat":35.738483,"lon":139.597315},{"name":"石神井公園","province":"東京都","city":"練馬区","address":"東京都練馬区石神井町5丁目17","lat":35.737512,"lon":139.602991},{"name":"大泉中央公園","province":"東京都","city":"練馬区","address":"東京都練馬区大泉学園町9丁目4","lat":35.774911,"lon":139.597476},{"name":"城北中央公園","province":"東京都","city":"練馬区","address":"東京都練馬区羽沢3丁目21","lat":35.752016,"lon":139.672321},{"name":"光が丘公園","province":"東京都","city":"練馬区","address":"東京都練馬区光が丘4丁目1","lat":35.767845,"lon":139.634455},{"name":"光が丘公園","province":"東京都","city":"練馬区","address":"東京都練馬区光が丘4丁目1","lat":35.763382,"lon":139.628161},{"name":"光が丘公園","province":"東京都","city":"練馬区","address":"東京都練馬区光が丘4丁目1","lat":35.767515,"lon":139.626661},{"name":"光が丘公園","province":"東京都","city":"練馬区","address":"東京都練馬区光が丘4丁目1","lat":35.768989,"lon":139.626675},{"name":"光が丘公園","province":"東京都","city":"練馬区","address":"東京都練馬区光が丘4丁目1","lat":35.767559,"lon":139.629614},{"name":"光が丘公園","province":"東京都","city":"練馬区","address":"東京都練馬区光が丘4丁目1","lat":35.76767,"lon":139.632076},{"name":"光が丘公園","province":"東京都","city":"練馬区","address":"東京都練馬区光が丘4丁目1","lat":35.765392,"lon":139.630802},{"name":"光が丘公園","province":"東京都","city":"練馬区","address":"東京都練馬区光が丘4丁目1","lat":35.764528,"lon":139.631164},{"name":"光が丘公園","province":"東京都","city":"練馬区","address":"東京都練馬区光が丘4丁目1","lat":35.765172,"lon":139.630127},{"name":"光が丘公園","province":"東京都","city":"練馬区","address":"東京都練馬区光が丘4丁目1","lat":35.766547,"lon":139.634771},{"name":"練馬城址公園","province":"東京都","city":"練馬区","address":"東京都練馬区春日町1丁目1","lat":35.746499,"lon":139.642148},{"name":"都営大江戸線練馬春日町駅","province":"東京都","city":"練馬区","address":"東京都練馬区春日町3丁目35","lat":35.751495,"lon":139.640128},{"name":"都営大江戸線練馬駅","province":"東京都","city":"練馬区","address":"東京都練馬区豊玉北5丁目17","lat":35.737387,"lon":139.654943},{"name":"都営大江戸線豊島園駅","province":"東京都","city":"練馬区","address":"東京都練馬区練馬4丁目26","lat":35.741666,"lon":139.649137},{"name":"都営大江戸線光が丘駅","province":"東京都","city":"練馬区","address":"東京都練馬区光が丘3丁目10","lat":35.758534,"lon":139.629104},{"name":"東京都水道局北部支所","province":"東京都","city":"練馬区","address":"東京都練馬区中村北1丁目9-4","lat":35.734692,"lon":139.647658},{"name":"練馬消防署","province":"東京都","city":"練馬区","address":"東京都練馬区豊玉北5丁目1-8","lat":35.737427,"lon":139.655935},{"name":"光が丘消防署北町出張所","province":"東京都","city":"練馬区","address":"東京都練馬区北町3丁目10-14","lat":35.768523,"lon":139.65372},{"name":"石神井消防署石神井公園出張所","province":"東京都","city":"練馬区","address":"東京都練馬区石神井町2丁目16-1","lat":35.745472,"lon":139.607725},{"name":"北保健相談所","province":"東京都","city":"練馬区","address":"東京都練馬区北町6丁目35-7","lat":35.757169,"lon":139.649561}]}