{"keyword":"福祉","data":[{"name":"氷川台福祉園","province":"東京都","city":"練馬区","address":"練馬区氷川台2-16-2","lat":35.75666173,"lon":139.6678198},{"name":"光が丘福祉園","province":"東京都","city":"練馬区","address":"練馬区光が丘2-4-10","lat":35.76396856,"lon":139.6333315},{"name":"大泉町福祉園","province":"東京都","city":"練馬区","address":"練馬区大泉町3-29-20","lat":35.76698398,"lon":139.5972456},{"name":"大泉学園町福祉園","province":"東京都","city":"練馬区","address":"練馬区大泉学園町3-9-20","lat":35.76128854,"lon":139.5820117},{"name":"関町福祉園","province":"東京都","city":"練馬区","address":"練馬区関町南3-15-35","lat":35.72246954,"lon":139.5795024},{"name":"貫井福祉園","province":"東京都","city":"練馬区","address":"練馬区貫井2-16-12","lat":35.73871175,"lon":139.6310678},{"name":"練馬区練馬総合","province":"東京都","city":"練馬区","address":"練馬区豊玉北6-12-1","lat":35.73571,"lon":139.65167},{"name":"練馬区石神井総合","province":"東京都","city":"練馬区","address":"練馬区石神井町3-30-26","lat":35.74331,"lon":139.60283},{"name":"練馬区光が丘総合","province":"東京都","city":"練馬区","address":"練馬区光が丘2-9-6","lat":35.75914,"lon":139.63036},{"name":"練馬区大泉総合","province":"東京都","city":"練馬区","address":"練馬区東大泉1-29-1","lat":35.75018,"lon":139.58577},{"name":"練馬総合福祉事務所","province":"東京都","city":"練馬区","address":"練馬区豊玉北6-12-1西庁舎2F","lat":35.73609323,"lon":139.6513503},{"name":"光が丘総合福祉事務所","province":"東京都","city":"練馬区","address":"練馬区光が丘2-9-6光が丘区民センター2F","lat":35.75953435,"lon":139.6294756},{"name":"石神井総合福祉事務所","province":"東京都","city":"練馬区","address":"練馬区石神井町3-30-26石神井庁舎3・4F","lat":35.74331938,"lon":139.6025522},{"name":"大泉総合福祉事務所","province":"東京都","city":"練馬区","address":"練馬区東大泉1-29-1ゆめりあ1内4・9F","lat":35.75026015,"lon":139.5855719},{"name":"練馬区練馬総合","province":"東京都","city":"練馬区","address":"練馬区豊玉北6-12-1","lat":35.735573,"lon":139.651671},{"name":"練馬区石神井総合","province":"東京都","city":"練馬区","address":"練馬区石神井町3-30-26","lat":35.743137,"lon":139.602753},{"name":"練馬区光が丘総合","province":"東京都","city":"練馬区","address":"練馬区光が丘2-9-6","lat":35.759486,"lon":139.629589},{"name":"練馬区大泉総合","province":"東京都","city":"練馬区","address":"練馬区東大泉1-29-1","lat":35.75023,"lon":139.585771}]}