{"keyword":"箇所","data":[{"name":"石神井庁舎","province":"東京都","city":"練馬区","address":"東京都練馬区石神井町3-30-26","lat":35.74337,"lon":139.60283},{"name":"練馬区職員研修所","province":"東京都","city":"練馬区","address":"東京都練馬区豊玉北5-27-2","lat":35.7344,"lon":139.65404},{"name":"防災学習センター","province":"東京都","city":"練馬区","address":"東京都練馬区光が丘6-4-1","lat":35.76021,"lon":139.62305},{"name":"男女共同参画センターえーる","province":"東京都","city":"練馬区","address":"東京都練馬区石神井町8-1-10","lat":35.74518,"lon":139.60163},{"name":"大泉区民事務所（リズモ大泉学園４階）","province":"東京都","city":"練馬区","address":"東京都練馬区東大泉1-28-1リズモ大泉学園4階","lat":35.7495,"lon":139.58717},{"name":"光が丘区民事務所（光が丘区民センター内）","province":"東京都","city":"練馬区","address":"東京都練馬区光が丘2-9-6光が丘区民センター2階","lat":35.75947,"lon":139.62986},{"name":"関区民事務所（関区民センター内）","province":"東京都","city":"練馬区","address":"東京都練馬区関町北1-7-2関区民センター1階","lat":35.72454,"lon":139.57782},{"name":"早宮区民事務所","province":"東京都","city":"練馬区","address":"東京都練馬区早宮1-44-191階","lat":35.75432,"lon":139.65905},{"name":"区民・産業プラザ（産業振興センター、区民交流ホール、区民協働交流センター）","province":"東京都","city":"練馬区","address":"東京都練馬区練馬1-17-13階・4階","lat":35.73808,"lon":139.65347},{"name":"サンライフ練馬（区立東京中高年齢労働者福祉センター）","province":"東京都","city":"練馬区","address":"東京都練馬区貫井1-36-18","lat":35.73742,"lon":139.63596},{"name":"勤労福祉会館","province":"東京都","city":"練馬区","address":"東京都練馬区東大泉5-40-36","lat":35.74822,"lon":139.5874},{"name":"石神井公園区民交流センター、消費生活センター","province":"東京都","city":"練馬区","address":"東京都練馬区石神井町2-14-1ピアレスA2階","lat":35.74432,"lon":139.60711},{"name":"関区民ホール","province":"東京都","city":"練馬区","address":"東京都練馬区関町北1-7-2関区民センター内","lat":35.72457,"lon":139.57797},{"name":"光が丘区民ホール","province":"東京都","city":"練馬区","address":"東京都練馬区光が丘2-9-6光が丘区民センター内","lat":35.75935,"lon":139.62947},{"name":"旭町北地区区民館","province":"東京都","city":"練馬区","address":"東京都練馬区旭町2-30-16","lat":35.77326,"lon":139.62881},{"name":"下石神井地区区民館","province":"東京都","city":"練馬区","address":"東京都練馬区下石神井6-8-15","lat":35.73395,"lon":139.6036},{"name":"関町北地区区民館","province":"東京都","city":"練馬区","address":"東京都練馬区関町北4-12-21","lat":35.72979,"lon":139.57708},{"name":"光が丘地区区民館","province":"東京都","city":"練馬区","address":"東京都練馬区光が丘3-9-4","lat":35.75802,"lon":139.62559},{"name":"高松地区区民館","province":"東京都","city":"練馬区","address":"東京都練馬区高松3-24-27","lat":35.75007,"lon":139.62513},{"name":"桜台地区区民館","province":"東京都","city":"練馬区","address":"東京都練馬区桜台3-39-17","lat":35.74604,"lon":139.66324},{"name":"春日町南地区区民館","province":"東京都","city":"練馬区","address":"東京都練馬区春日町5-20-25","lat":35.74772,"lon":139.63852},{"name":"西大泉地区区民館","province":"東京都","city":"練馬区","address":"東京都練馬区西大泉5-3-32","lat":35.76004,"lon":139.57254},{"name":"早宮地区区民館","province":"東京都","city":"練馬区","address":"東京都練馬区早宮4-14-5","lat":35.75081,"lon":139.65129},{"name":"大泉学園地区区民館","province":"東京都","city":"練馬区","address":"東京都練馬区大泉学園町8-9-5","lat":35.77292,"lon":139.59271},{"name":"田柄地区区民館","province":"東京都","city":"練馬区","address":"東京都練馬区田柄3-28-13","lat":35.76209,"lon":139.63724},{"name":"東大泉地区区民館","province":"東京都","city":"練馬区","address":"東京都練馬区東大泉3-53-1","lat":35.75615,"lon":139.58782},{"name":"南大泉地区区民館","province":"東京都","city":"練馬区","address":"東京都練馬区南大泉2-19-26","lat":35.73911,"lon":139.57041},{"name":"氷川台地区区民館","province":"東京都","city":"練馬区","address":"東京都練馬区氷川台2-16-14","lat":35.757,"lon":139.66731},{"name":"富士見台地区区民館","province":"東京都","city":"練馬区","address":"東京都練馬区富士見台3-10-1","lat":35.73875,"lon":139.6244},{"name":"豊玉北地区区民館","province":"東京都","city":"練馬区","address":"東京都練馬区豊玉北3-7-9","lat":35.73268,"lon":139.66139},{"name":"北大泉地区区民館","province":"東京都","city":"練馬区","address":"東京都練馬区大泉町2-41-26","lat":35.76472,"lon":139.60405},{"name":"北町第二地区区民館","province":"東京都","city":"練馬区","address":"東京都練馬区北町6-24-101","lat":35.76121,"lon":139.65548},{"name":"北町地区区民館","province":"東京都","city":"練馬区","address":"東京都練馬区北町2-26-1","lat":35.76746,"lon":139.66028},{"name":"立野地区区民館","province":"東京都","city":"練馬区","address":"東京都練馬区立野町15-42","lat":35.71854,"lon":139.58261},{"name":"小竹地域集会所","province":"東京都","city":"練馬区","address":"東京都練馬区小竹町1-63-2","lat":35.73875,"lon":139.67335},{"name":"旭丘地域集会所","province":"東京都","city":"練馬区","address":"東京都練馬区旭丘1-58-10","lat":35.73482,"lon":139.67414},{"name":"向山地域集会所","province":"東京都","city":"練馬区","address":"東京都練馬区向山4-21-12","lat":35.74353,"lon":139.63867},{"name":"中村地域集会所","province":"東京都","city":"練馬区","address":"東京都練馬区中村南2-23-12","lat":35.7298,"lon":139.64277},{"name":"三原台地域集会所","province":"東京都","city":"練馬区","address":"東京都練馬区三原台3-13-17","lat":35.75397,"lon":139.59941},{"name":"谷原地域集会所","province":"東京都","city":"練馬区","address":"東京都練馬区谷原5-6-7","lat":35.75143,"lon":139.613},{"name":"高野台地域集会所","province":"東京都","city":"練馬区","address":"東京都練馬区高野台3-28-11","lat":35.74568,"lon":139.61192},{"name":"南田中地域集会所","province":"東京都","city":"練馬区","address":"東京都練馬区南田中2-18-36","lat":35.73322,"lon":139.61682},{"name":"上石神井北地域集会所","province":"東京都","city":"練馬区","address":"東京都練馬区上石神井2-36-18","lat":35.7292,"lon":139.59233},{"name":"石神井台みどり地域集会所","province":"東京都","city":"練馬区","address":"東京都練馬区石神井台2-13-6","lat":35.73649,"lon":139.59203},{"name":"石神井台地域集会所","province":"東京都","city":"練馬区","address":"東京都練馬区石神井台4-5-14","lat":35.7317,"lon":139.58582},{"name":"関町地域集会所","province":"東京都","city":"練馬区","address":"東京都練馬区関町南4-22-1","lat":35.72137,"lon":139.56776},{"name":"大泉学園町地域集会所","province":"東京都","city":"練馬区","address":"東京都練馬区大泉学園町6-20-36","lat":35.77134,"lon":139.58323},{"name":"大泉町地域集会所","province":"東京都","city":"練馬区","address":"東京都練馬区大泉町4-35-17","lat":35.76387,"lon":139.59582},{"name":"東大泉地域集会所","province":"東京都","city":"練馬区","address":"東京都練馬区東大泉7-27-51","lat":35.74351,"lon":139.58043},{"name":"土支田地域集会所","province":"東京都","city":"練馬区","address":"東京都練馬区土支田2-40-21","lat":35.76432,"lon":139.61167},{"name":"北町地域集会所","province":"東京都","city":"練馬区","address":"東京都練馬区北町8-28-10","lat":35.76775,"lon":139.64969},{"name":"桜台地域集会所","province":"東京都","city":"練馬区","address":"東京都練馬区桜台1-22-9","lat":35.73899,"lon":139.6667},{"name":"上石神井南地域集会所","province":"東京都","city":"練馬区","address":"東京都練馬区上石神井1-6-16","lat":35.72529,"lon":139.59251},{"name":"大泉北地域集会所","province":"東京都","city":"練馬区","address":"東京都練馬区大泉学園町4-21-1","lat":35.76565,"lon":139.58843},{"name":"東大泉中央地域集会所","province":"東京都","city":"練馬区","address":"東京都練馬区東大泉3-18-9大泉区民事務所併設","lat":35.7515,"lon":139.58671},{"name":"南大泉地域集会所","province":"東京都","city":"練馬区","address":"東京都練馬区南大泉5-26-19","lat":35.75126,"lon":139.57353},{"name":"旭町地域集会所","province":"東京都","city":"練馬区","address":"東京都練馬区旭町3-11-6","lat":35.77432,"lon":139.62497},{"name":"田柄地域集会所","province":"東京都","city":"練馬区","address":"東京都練馬区田柄2-6-22","lat":35.76362,"lon":139.6449},{"name":"春日町地域集会所","province":"東京都","city":"練馬区","address":"東京都練馬区春日町5-30-1","lat":35.75054,"lon":139.6394},{"name":"土支田中央地域集会所","province":"東京都","city":"練馬区","address":"東京都練馬区土支田2-32-8","lat":35.76339,"lon":139.61379},{"name":"向山庭園","province":"東京都","city":"練馬区","address":"東京都練馬区向山3-1-21","lat":35.74212,"lon":139.64684},{"name":"練馬文化センター","province":"東京都","city":"練馬区","address":"東京都練馬区練馬1-17-37","lat":35.7394,"lon":139.6535},{"name":"練馬区立美術館","province":"東京都","city":"練馬区","address":"東京都練馬区貫井1-36-16","lat":35.73688,"lon":139.636},{"name":"大泉学園ホール","province":"東京都","city":"練馬区","address":"東京都練馬区東大泉1-29-1","lat":35.75038,"lon":139.58559},{"name":"石神井公園ふるさと文化館","province":"東京都","city":"練馬区","address":"東京都練馬区石神井町5-12-16","lat":35.73748,"lon":139.59948},{"name":"生涯学習センター","province":"東京都","city":"練馬区","address":"東京都練馬区豊玉北6-8-1","lat":35.73423,"lon":139.65201},{"name":"生涯学習センター分館","province":"東京都","city":"練馬区","address":"東京都練馬区高野台2-25-1","lat":35.74808,"lon":139.62123},{"name":"桜台体育館","province":"東京都","city":"練馬区","address":"東京都練馬区桜台3-28-1","lat":35.74554,"lon":139.66624},{"name":"上石神井体育館","province":"東京都","city":"練馬区","address":"東京都練馬区上石神井1-32-37","lat":35.72262,"lon":139.58728},{"name":"大泉学園町体育館","province":"東京都","city":"練馬区","address":"東京都練馬区大泉学園町5-14-24","lat":35.76534,"lon":139.58412},{"name":"光が丘体育館","province":"東京都","city":"練馬区","address":"東京都練馬区光が丘4-1-4","lat":35.7639,"lon":139.63022},{"name":"平和台体育館","province":"東京都","city":"練馬区","address":"東京都練馬区平和台2-12-5","lat":35.75937,"lon":139.66151},{"name":"中村南スポーツ交流センター","province":"東京都","city":"練馬区","address":"東京都練馬区中村南1-2-32","lat":35.72925,"lon":139.64874},{"name":"三原台温水プール","province":"東京都","city":"練馬区","address":"東京都練馬区三原台2-11-29","lat":35.75711,"lon":139.6065},{"name":"石神井プール","province":"東京都","city":"練馬区","address":"東京都練馬区石神井町5-12-16","lat":35.73727,"lon":139.59949},{"name":"練馬総合運動場公園","province":"東京都","city":"練馬区","address":"東京都練馬区練馬2-29-10","lat":35.74588,"lon":139.65409},{"name":"大泉さくら運動公園多目的運動場","province":"東京都","city":"練馬区","address":"東京都練馬区大泉学園町9-4-5","lat":35.77487,"lon":139.6011},{"name":"大泉学園町希望が丘公園運動場","province":"東京都","city":"練馬区","address":"東京都練馬区大泉学園町9-1-2","lat":35.7777,"lon":139.59001},{"name":"石神井松の風文化公園","province":"東京都","city":"練馬区","address":"東京都練馬区石神井台1-33-44","lat":35.73993,"lon":139.59391},{"name":"豊玉中公園庭球場","province":"東京都","city":"練馬区","address":"東京都練馬区豊玉中4-1-17","lat":35.73333,"lon":139.65191},{"name":"学田公園野球場","province":"東京都","city":"練馬区","address":"東京都練馬区豊玉南3-32-27","lat":35.73004,"lon":139.64913},{"name":"東台野球場","province":"東京都","city":"練馬区","address":"東京都練馬区石神井町1-11-32","lat":35.74148,"lon":139.61248},{"name":"北大泉野球場","province":"東京都","city":"練馬区","address":"東京都練馬区大泉町3-31-44","lat":35.76715,"lon":139.59628},{"name":"びくに公園庭球場","province":"東京都","city":"練馬区","address":"東京都練馬区東大泉2-28-31","lat":35.75608,"lon":139.59716},{"name":"夏の雲公園庭球場","province":"東京都","city":"練馬区","address":"東京都練馬区光が丘3-5-1","lat":35.75604,"lon":139.63174},{"name":"土支田庭球場","province":"東京都","city":"練馬区","address":"東京都練馬区土支田4-31-24","lat":35.76913,"lon":139.61518},{"name":"厚生文化会館","province":"東京都","city":"練馬区","address":"東京都練馬区練馬4-2-3","lat":35.7403,"lon":139.65029},{"name":"中村橋福祉ケアセンター（中村橋区民センター内）","province":"東京都","city":"練馬区","address":"東京都練馬区貫井1-9-1","lat":35.73813,"lon":139.63554},{"name":"はつらつセンター豊玉","province":"東京都","city":"練馬区","address":"東京都練馬区豊玉中3-3-12","lat":35.73214,"lon":139.65536},{"name":"はつらつセンター関","province":"東京都","city":"練馬区","address":"東京都練馬区関町北1-7-2(関区民センター2階)","lat":35.72454,"lon":139.57766},{"name":"北保健相談所","province":"東京都","city":"練馬区","address":"東京都練馬区北町6-35-7","lat":35.75716,"lon":139.64962},{"name":"関保健相談所","province":"東京都","city":"練馬区","address":"東京都練馬区関町東1-27-4","lat":35.72648,"lon":139.58137},{"name":"光が丘保健相談所","province":"東京都","city":"練馬区","address":"東京都練馬区光が丘2-9-6光が丘区民センター1階","lat":35.75946,"lon":139.62946},{"name":"関町リサイクルセンター","province":"東京都","city":"練馬区","address":"東京都練馬区関町北1-7-14","lat":35.72492,"lon":139.57799},{"name":"春日町リサイクルセンター","province":"東京都","city":"練馬区","address":"東京都練馬区春日町2-14-16","lat":35.75605,"lon":139.64792},{"name":"豊玉リサイクルセンター","province":"東京都","city":"練馬区","address":"東京都練馬区豊玉上2-22-15","lat":35.73697,"lon":139.66027},{"name":"土支田農業公園","province":"東京都","city":"練馬区","address":"東京都練馬区土支田3-34-26","lat":35.76082,"lon":139.60955},{"name":"牧野記念庭園","province":"東京都","city":"練馬区","address":"東京都練馬区東大泉6-34-4","lat":35.74648,"lon":139.58526},{"name":"練馬駅北口地下駐車場","province":"東京都","city":"練馬区","address":"東京都練馬区練馬1-17-5","lat":35.7386,"lon":139.6533},{"name":"石神井公園ピアレスパーキング（石神井公園駅北口駐車場）","province":"東京都","city":"練馬区","address":"東京都練馬区石神井町2-14-15","lat":35.74443,"lon":139.607},{"name":"大泉学園ゆめりあ南パーキング（大泉学園駅南口駐車場）","province":"東京都","city":"練馬区","address":"東京都練馬区東大泉5-43-1","lat":35.74855,"lon":139.58544},{"name":"上石神井児童館","province":"東京都","city":"練馬区","address":"東京都練馬区上石神井1-5-22階","lat":35.72567,"lon":139.59236},{"name":"関町児童館","province":"東京都","city":"練馬区","address":"東京都練馬区関町南4-15-7","lat":35.72268,"lon":139.57228},{"name":"北大泉児童館","province":"東京都","city":"練馬区","address":"東京都練馬区大泉町4-15-153階","lat":35.76305,"lon":139.60018},{"name":"東大泉児童館","province":"東京都","city":"練馬区","address":"東京都練馬区東大泉7-20-1","lat":35.74241,"lon":139.57715},{"name":"光が丘児童館","province":"東京都","city":"練馬区","address":"東京都練馬区光が丘1-3-1","lat":35.76768,"lon":139.63901},{"name":"北町児童館","province":"東京都","city":"練馬区","address":"東京都練馬区北町1-19-17","lat":35.76417,"lon":139.66791},{"name":"練馬子ども家庭支援センター練馬駅南分室（練馬ぴよぴよ（ひろば室））","province":"東京都","city":"練馬区","address":"東京都練馬区豊玉北5-18-12","lat":35.73707,"lon":139.65442},{"name":"練馬子ども家庭支援センター　練馬駅北分室","province":"東京都","city":"練馬区","address":"東京都練馬区練馬1-17-1ココネリ4階","lat":35.73808,"lon":139.65333},{"name":"関子ども家庭支援センター","province":"東京都","city":"練馬区","address":"東京都練馬区関町北1-21-15","lat":35.72671,"lon":139.57868},{"name":"大泉子ども家庭支援センター","province":"東京都","city":"練馬区","address":"東京都練馬区東大泉5-35-1","lat":35.74757,"lon":139.58983},{"name":"光が丘子ども家庭支援センター","province":"東京都","city":"練馬区","address":"東京都練馬区光が丘2-9-6光が丘区民センター6階","lat":35.75935,"lon":139.62973},{"name":"光が丘子ども家庭支援センター分室（光が丘ぴよぴよ（ひろば室））","province":"東京都","city":"練馬区","address":"東京都練馬区光が丘5-2-5-105","lat":35.7598,"lon":139.627},{"name":"貫井子ども家庭支援センター","province":"東京都","city":"練馬区","address":"東京都練馬区貫井3-25-15ふじみランドマンション1階","lat":35.7372,"lon":139.62742},{"name":"西大泉ぴよぴよ","province":"東京都","city":"練馬区","address":"東京都練馬区西大泉1-27-10","lat":35.75456,"lon":139.57133},{"name":"北大泉児童館ぴよぴよ","province":"東京都","city":"練馬区","address":"東京都練馬区大泉町4-15-15","lat":35.76279,"lon":139.60025},{"name":"光が丘児童館ぴよぴよ","province":"東京都","city":"練馬区","address":"東京都練馬区光が丘1-3-1","lat":35.76762,"lon":139.63916},{"name":"立野地区区民館ぴよぴよ","province":"東京都","city":"練馬区","address":"東京都練馬区立野町15-42","lat":35.71854,"lon":139.5824},{"name":"田柄地区区民館ぴよぴよ","province":"東京都","city":"練馬区","address":"東京都練馬区田柄3-28-13","lat":35.7622,"lon":139.63718},{"name":"春日町南地区区民館ぴよぴよ","province":"東京都","city":"練馬区","address":"東京都練馬区春日町5-20-25","lat":35.74775,"lon":139.63866},{"name":"こども発達支援センター","province":"東京都","city":"練馬区","address":"東京都練馬区光が丘3-1-1","lat":35.7541,"lon":139.63099},{"name":"はつらつセンター大泉","province":"東京都","city":"練馬区","address":"東京都練馬区大泉学園町1-34-20","lat":35.76336,"lon":139.58929},{"name":"大泉リサイクルセンター","province":"東京都","city":"練馬区","address":"東京都練馬区大泉学園町1-34-10","lat":35.76301,"lon":139.59081},{"name":"練馬高野台駅前地域集会所","province":"東京都","city":"練馬区","address":"東京都練馬区高野台1-7-29","lat":35.74096,"lon":139.61622},{"name":"豊玉地域集会所","province":"東京都","city":"練馬区","address":"東京都練馬区豊玉中4-13-6","lat":35.73265,"lon":139.65016},{"name":"大泉運動場","province":"東京都","city":"練馬区","address":"東京都練馬区大泉町5-24-12","lat":35.76188,"lon":139.59288},{"name":"学校教育支援センター","province":"東京都","city":"練馬区","address":"東京都練馬区光が丘6-4-1","lat":35.75998,"lon":139.62324},{"name":"心身障害者福祉集会所","province":"東京都","city":"練馬区","address":"東京都練馬区光が丘2-9-6光が丘区民センター内","lat":35.75946,"lon":139.62972},{"name":"光が丘障害者地域生活支援センターすてっぷ","province":"東京都","city":"練馬区","address":"東京都練馬区光が丘2-9-6光が丘区民センター6階","lat":35.75936,"lon":139.62986},{"name":"豊玉障害者地域生活支援センターきらら","province":"東京都","city":"練馬区","address":"東京都練馬区豊玉北5-15-19豊玉すこやかセンター6階","lat":35.73603,"lon":139.65501},{"name":"大泉障害者地域生活支援センターさくら","province":"東京都","city":"練馬区","address":"東京都練馬区東大泉5-35-2大泉子ども家庭支援センター併設","lat":35.7475,"lon":139.58964},{"name":"石神井障害者地域生活支援センターういんぐ","province":"東京都","city":"練馬区","address":"東京都練馬区石神井町7-3-28石神井保健相談所内併設","lat":35.74454,"lon":139.60119},{"name":"光が丘総合福祉事務所(光が丘区民センター内）","province":"東京都","city":"練馬区","address":"東京都練馬区光が丘2-9-6光が丘区民センター2階","lat":35.75946,"lon":139.62959},{"name":"大泉総合福祉事務所","province":"東京都","city":"練馬区","address":"東京都練馬区東大泉1-29-1ゆめりあ14階・9階","lat":35.75026,"lon":139.58578},{"name":"栄町敬老館","province":"東京都","city":"練馬区","address":"東京都練馬区栄町7-40","lat":35.73945,"lon":139.67139},{"name":"中村敬老館","province":"東京都","city":"練馬区","address":"東京都練馬区中村2-25-3","lat":35.73191,"lon":139.64218},{"name":"高野台敬老館","province":"東京都","city":"練馬区","address":"東京都練馬区高野台2-25-1","lat":35.74784,"lon":139.62096},{"name":"南田中敬老館","province":"東京都","city":"練馬区","address":"東京都練馬区南田中5-15-251階","lat":35.73777,"lon":139.61153},{"name":"石神井敬老館","province":"東京都","city":"練馬区","address":"東京都練馬区石神井町7-28-211階","lat":35.74482,"lon":139.5982},{"name":"石神井台敬老館","province":"東京都","city":"練馬区","address":"東京都練馬区石神井台2-18-13","lat":35.73542,"lon":139.58967},{"name":"東大泉敬老館","province":"東京都","city":"練馬区","address":"東京都練馬区東大泉7-20-1","lat":35.74231,"lon":139.57707},{"name":"西大泉敬老館","province":"東京都","city":"練馬区","address":"東京都練馬区西大泉3-21-162階","lat":35.75939,"lon":139.57889},{"name":"上石神井敬老館","province":"東京都","city":"練馬区","address":"東京都練馬区上石神井1-6-16","lat":35.7253,"lon":139.59264},{"name":"豊玉保健相談所","province":"東京都","city":"練馬区","address":"東京都練馬区豊玉北5-15-19","lat":35.73585,"lon":139.65497},{"name":"石神井保健相談所","province":"東京都","city":"練馬区","address":"東京都練馬区石神井町7-3-281階~2階","lat":35.7445,"lon":139.60143},{"name":"大泉交通公園","province":"東京都","city":"練馬区","address":"東京都練馬区南大泉6-16-1","lat":35.75349,"lon":139.57185},{"name":"こどもの森","province":"東京都","city":"練馬区","address":"東京都練馬区羽沢2-32-7","lat":35.7489,"lon":139.67251},{"name":"小竹図書館","province":"東京都","city":"練馬区","address":"東京都練馬区小竹町2-43-1","lat":35.74189,"lon":139.67602},{"name":"練馬図書館","province":"東京都","city":"練馬区","address":"東京都練馬区豊玉北6-8-1","lat":35.73401,"lon":139.65208},{"name":"貫井図書館","province":"東京都","city":"練馬区","address":"東京都練馬区貫井1-36-16","lat":35.73699,"lon":139.63595},{"name":"石神井図書館","province":"東京都","city":"練馬区","address":"東京都練馬区石神井台1-16-31","lat":35.73648,"lon":139.59942},{"name":"関町図書館","province":"東京都","city":"練馬区","address":"東京都練馬区関町南3-11-2","lat":35.72095,"lon":139.58034},{"name":"大泉図書館","province":"東京都","city":"練馬区","address":"東京都練馬区大泉学園町2-21-17","lat":35.76058,"lon":139.58709},{"name":"稲荷山図書館","province":"東京都","city":"練馬区","address":"東京都練馬区大泉町1-3-18","lat":35.76531,"lon":139.60922},{"name":"南大泉図書館","province":"東京都","city":"練馬区","address":"東京都練馬区南大泉1-44-7","lat":35.74335,"lon":139.5748},{"name":"光が丘図書館","province":"東京都","city":"練馬区","address":"東京都練馬区光が丘4-1-5","lat":35.76312,"lon":139.63006},{"name":"春日町図書館","province":"東京都","city":"練馬区","address":"東京都練馬区春日町5-31-2エリム春日町2階","lat":35.75129,"lon":139.63934},{"name":"平和台図書館","province":"東京都","city":"練馬区","address":"東京都練馬区平和台1-36-17","lat":35.76011,"lon":139.66476},{"name":"南田中図書館","province":"東京都","city":"練馬区","address":"東京都練馬区南田中5-15-22","lat":35.73772,"lon":139.61108},{"name":"南大泉図書館分室　こどもと本のひろば","province":"東京都","city":"練馬区","address":"東京都練馬区南大泉3-17-20","lat":35.74163,"lon":139.56996},{"name":"春日町青少年館","province":"東京都","city":"練馬区","address":"東京都練馬区春日町4-16-9","lat":35.75253,"lon":139.63913},{"name":"四季の香ローズガーデン","province":"東京都","city":"練馬区","address":"東京都練馬区光が丘5-2-6","lat":35.7608,"lon":139.6263},{"name":"中里郷土の森","province":"東京都","city":"練馬区","address":"東京都練馬区大泉町1-51-2","lat":35.76897,"lon":139.60441}]}