{"keyword":"自転車","data":[{"name":"江古田駅自転車駐車場","province":"東京都","city":"練馬区","address":"東京都練馬区旭丘1丁目71-5","lat":35.73675649,"lon":139.67413035},{"name":"江古田栄町自転車駐車場","province":"東京都","city":"練馬区","address":"東京都練馬区栄町43-11","lat":35.73977826,"lon":139.67076106},{"name":"豊島園駅西自転車駐車場","province":"東京都","city":"練馬区","address":"東京都練馬区高野台4丁目10-18","lat":35.74680665,"lon":139.61790414},{"name":"豊島園駅東自転車駐車場","province":"東京都","city":"練馬区","address":"東京都練馬区練馬4丁目14-16","lat":35.74166358,"lon":139.64894342},{"name":"豊島園駅前自転車駐車場","province":"東京都","city":"練馬区","address":"東京都練馬区練馬4丁目16","lat":35.74206629,"lon":139.64777962},{"name":"石神井公園駅北自転車駐車場","province":"東京都","city":"練馬区","address":"東京都練馬区石神井町2丁目13-4","lat":35.74445389,"lon":139.6093744},{"name":"石神井公園駅北第二自転車駐車場","province":"東京都","city":"練馬区","address":"東京都練馬区石神井町2丁目13-26","lat":35.74512325,"lon":139.60911329},{"name":"石神井南自転車駐車場","province":"東京都","city":"練馬区","address":"東京都練馬区石神井町3丁目20-3","lat":35.74253458,"lon":139.60661639},{"name":"大泉学園駅北第二自転車駐車場","province":"東京都","city":"練馬区","address":"東京都練馬区東大泉4丁目3-14","lat":35.7512664,"lon":139.5850317},{"name":"大泉学園駅北第三自転車駐車場","province":"東京都","city":"練馬区","address":"東京都練馬区東大泉4丁目4-18","lat":35.75029427,"lon":139.58462621},{"name":"大泉学園駅北口地下自転車駐車場","province":"東京都","city":"練馬区","address":"東京都練馬区東大泉1丁目29-1","lat":35.75014709,"lon":139.58576502},{"name":"東大泉第三自転車駐車場","province":"東京都","city":"練馬区","address":"東京都練馬区東大泉1丁目32-2","lat":35.7503221,"lon":139.58702602},{"name":"大泉学園駅南第一自転車駐車場","province":"東京都","city":"練馬区","address":"東京都練馬区東大泉5丁目41-23","lat":35.74896671,"lon":139.58740939},{"name":"大泉学園駅南口地下自転車駐車場","province":"東京都","city":"練馬区","address":"東京都練馬区東大泉5丁目43-1","lat":35.74939995,"lon":139.58558451},{"name":"大泉学園駅南第二自転車駐車場","province":"東京都","city":"練馬区","address":"東京都練馬区東大泉6丁目52-2","lat":35.74962492,"lon":139.58505121},{"name":"大泉学園駅西第三自転車駐車場","province":"東京都","city":"練馬区","address":"東京都練馬区東大泉6丁目34-24","lat":35.74822227,"lon":139.58424022},{"name":"大泉学園駅南バス通り自転車駐車場","province":"東京都","city":"練馬区","address":"東京都練馬区東大泉5丁目29-13","lat":35.74720855,"lon":139.58679839},{"name":"南大泉自転車駐車場","province":"東京都","city":"練馬区","address":"東京都練馬区南大泉3丁目25-25","lat":35.74627205,"lon":139.56815557},{"name":"上石神井自転車駐車場","province":"東京都","city":"練馬区","address":"東京都練馬区上石神井2丁目34-15","lat":35.72828577,"lon":139.59177932},{"name":"上石神井立野橋自転車駐車場","province":"東京都","city":"練馬区","address":"東京都練馬区上石神井1丁目11-5","lat":35.72388904,"lon":139.59160172},{"name":"武蔵関駅西自転車駐車場","province":"東京都","city":"練馬区","address":"東京都練馬区関町北4丁目7-15","lat":35.72834651,"lon":139.57641391},{"name":"武蔵関駅北自転車駐車場","province":"東京都","city":"練馬区","address":"東京都練馬区関町北4丁目9-6","lat":35.72919917,"lon":139.57514454},{"name":"北町二丁目自転車駐車場","province":"東京都","city":"練馬区","address":"東京都練馬区北町2丁目21-5","lat":35.76742479,"lon":139.66198289},{"name":"氷川台駅第三自転車駐車場","province":"東京都","city":"練馬区","address":"東京都練馬区氷川台3丁目40-15","lat":35.74978528,"lon":139.66490003},{"name":"平和台駅第二自転車駐車場","province":"東京都","city":"練馬区","address":"東京都練馬区早宮2丁目16-32","lat":35.75681757,"lon":139.65527836},{"name":"地下鉄赤塚駅南自転車駐車場","province":"東京都","city":"練馬区","address":"東京都練馬区田柄2丁目49-3","lat":35.76997135,"lon":139.64310662},{"name":"光が丘自転車駐車場","province":"東京都","city":"練馬区","address":"東京都練馬区光が丘3丁目7-12","lat":35.75811402,"lon":139.62954994},{"name":"田柄自転車駐車場","province":"東京都","city":"練馬区","address":"東京都練馬区田柄5丁目27-7","lat":35.75901398,"lon":139.63176638},{"name":"光が丘ふれあいの径自転車駐車場","province":"東京都","city":"練馬区","address":"東京都練馬区光が丘2丁目","lat":35.75919448,"lon":139.6305137},{"name":"桜台駅東自転車駐車場","province":"東京都","city":"練馬区","address":"東京都練馬区桜台1丁目14-1","lat":35.73908648,"lon":139.6637756},{"name":"桜台駅西自転車駐車場","province":"東京都","city":"練馬区","address":"東京都練馬区桜台4丁目1-11","lat":35.73834758,"lon":139.66007596},{"name":"練馬駅東自転車駐車場","province":"東京都","city":"練馬区","address":"東京都練馬区関町東1丁目1-13","lat":35.72318617,"lon":139.58477452},{"name":"練馬駅西自転車駐車場","province":"東京都","city":"練馬区","address":"東京都練馬区豊玉南1丁目12-12","lat":35.72806263,"lon":139.66022081},{"name":"富士見台駅西自転車駐車場","province":"東京都","city":"練馬区","address":"東京都練馬区練馬4丁目14-16","lat":35.74166358,"lon":139.64894342},{"name":"大泉郵便局バス停自転車駐車場","province":"東京都","city":"練馬区","address":"東京都練馬区大泉学園町5丁目7","lat":35.76645056,"lon":139.586709},{"name":"風致地区バス停自転車駐車場","province":"東京都","city":"練馬区","address":"東京都練馬区大泉学園町6丁目18-19","lat":35.77049701,"lon":139.58399818},{"name":"風致地区バス停第二自転車駐車場","province":"東京都","city":"練馬区","address":"東京都練馬区大泉学園町6丁目18-19","lat":35.77049701,"lon":139.58399818},{"name":"風致地区バス停第三自転車駐車場","province":"東京都","city":"練馬区","address":"東京都練馬区大泉学園町7丁目7","lat":35.77070542,"lon":139.58717288},{"name":"都民農園バス停自転車駐車場","province":"東京都","city":"練馬区","address":"東京都練馬区大泉学園町6丁目30","lat":35.77412697,"lon":139.58494537},{"name":"練馬駅北地下自転車駐車場","province":"東京都","city":"練馬区","address":"東京都練馬区練馬1丁目17-1","lat":35.73818354,"lon":139.65330154},{"name":"石神井公園駅東自転車駐車場","province":"東京都","city":"練馬区","address":"東京都練馬区石神井町1丁目28-3","lat":35.74310681,"lon":139.60880229},{"name":"東大泉自転車駐車場","province":"東京都","city":"練馬区","address":"東京都練馬区東大泉1丁目28-1","lat":35.74956665,"lon":139.58776766},{"name":"大泉学園駅北第四自転車駐車場","province":"東京都","city":"練馬区","address":"東京都練馬区東大泉4丁目3-7","lat":35.75083589,"lon":139.58473174},{"name":"上石神井駅北第二自転車駐車場","province":"東京都","city":"練馬区","address":"東京都練馬区上石神井4丁目1-6","lat":35.72653039,"lon":139.5906017},{"name":"上石神井駅南第二自転車駐車場","province":"東京都","city":"練馬区","address":"東京都練馬区上石神井1丁目14-5","lat":35.72607766,"lon":139.59079615},{"name":"武蔵関駅東自転車駐車場","province":"東京都","city":"練馬区","address":"東京都練馬区関町東2丁目17-1","lat":35.7286882,"lon":139.57876926},{"name":"早宮第三自転車駐車場","province":"東京都","city":"練馬区","address":"東京都練馬区早宮2丁目17-5","lat":35.75704251,"lon":139.65384235},{"name":"平和台駅前地下自転車駐車場","province":"東京都","city":"練馬区","address":"東京都練馬区早宮2丁目17-50","lat":35.75704252,"lon":139.65455618},{"name":"光が丘第四自転車駐車場","province":"東京都","city":"練馬区","address":"東京都練馬区光が丘3丁目9-1","lat":35.75807789,"lon":139.62849724},{"name":"氷川台駅第九自転車駐車場","province":"東京都","city":"練馬区","address":"東京都練馬区氷川台3丁目41-3","lat":35.74926866,"lon":139.664239},{"name":"氷川台駅さくら自転車駐車場","province":"東京都","city":"練馬区","address":"東京都練馬区氷川台3丁目35-11","lat":35.74932706,"lon":139.66722762},{"name":"練馬駅つつじ自転車駐車場","province":"東京都","city":"練馬区","address":"東京都練馬区練馬1丁目19-7","lat":35.73841689,"lon":139.65532914},{"name":"氷川台駅第十自転車駐車場","province":"東京都","city":"練馬区","address":"東京都練馬区氷川台3丁目36-3","lat":35.74946314,"lon":139.66666654},{"name":"石神井公園ボート池東自転車駐車場","province":"東京都","city":"練馬区","address":"東京都練馬区石神井町3丁目4","lat":35.74126807,"lon":139.60707751},{"name":"大泉学園駅さつき自転車駐車場","province":"東京都","city":"練馬区","address":"東京都練馬区東大泉3丁目25-16","lat":35.75278302,"lon":139.59056731},{"name":"石神井公園駅こぶし自転車駐車場","province":"東京都","city":"練馬区","address":"東京都練馬区石神井町2丁目7-6","lat":35.74347065,"lon":139.60878283},{"name":"大泉学園駅北第五自転車駐車場","province":"東京都","city":"練馬区","address":"東京都練馬区東大泉4丁目1-11","lat":35.75048872,"lon":139.58527337}]}