{"keyword":"認可","data":[{"name":"貫井第二保育園","province":"東京都","city":"練馬区","address":"練馬区貫井4-13-4","lat":35.74229,"lon":139.62772},{"name":"あい保育園高野台","province":"東京都","city":"練馬区","address":"練馬区高野台2-9-9","lat":35.74586,"lon":139.62054},{"name":"富士見台こぶし保育園","province":"東京都","city":"練馬区","address":"練馬区富士見台3-10-1","lat":35.73643,"lon":139.62506},{"name":"ChaCha Children Musashiseki","province":"東京都","city":"練馬区","address":"練馬区関町東2-9-11","lat":35.72844,"lon":139.58017},{"name":"大泉学園保育園","province":"東京都","city":"練馬区","address":"練馬区大泉学園町8-9-5","lat":35.77134,"lon":139.59509},{"name":"ChaCha Children Oizumi","province":"東京都","city":"練馬区","address":"練馬区西大泉5-30-13","lat":35.75895,"lon":139.56694},{"name":"神の教会保育園","province":"東京都","city":"練馬区","address":"練馬区羽沢2-26-15","lat":35.74669,"lon":139.67125},{"name":"貫井第二保育園","province":"東京都","city":"練馬区","address":"練馬区貫井4-13-4","lat":35.74184,"lon":139.63165},{"name":"富士見台こぶし保育園","province":"東京都","city":"練馬区","address":"練馬区富士見台3-2-3","lat":35.73891,"lon":139.62424},{"name":"ベビーステーション石神井公園","province":"東京都","city":"練馬区","address":"練馬区石神井町2-15-4-102","lat":35.74538,"lon":139.60635},{"name":"ベビーステーション石神井第２","province":"東京都","city":"練馬区","address":"練馬区石神井町2-13-15","lat":35.74459,"lon":139.60854},{"name":"茶々むさしせき保育園","province":"東京都","city":"練馬区","address":"練馬区関町東2-9-11","lat":35.72844,"lon":139.58017},{"name":"大泉学園保育園","province":"東京都","city":"練馬区","address":"練馬区大泉学園町8-5-8","lat":35.77337,"lon":139.59219},{"name":"東大泉保育園","province":"東京都","city":"練馬区","address":"練馬区東大泉3-60-2-101","lat":35.7561,"lon":139.59047},{"name":"茶々おおいずみ保育園","province":"東京都","city":"練馬区","address":"練馬区西大泉5-30-13","lat":35.75895,"lon":139.56694},{"name":"ぶどうの木保育園","province":"東京都","city":"練馬区","address":"練馬区羽沢2-12-9","lat":35.74514,"lon":139.6714},{"name":"ベビーステーション東大泉","province":"東京都","city":"練馬区","address":"練馬区東大泉6-51-3","lat":35.74912,"lon":139.58453},{"name":"ナーサリールームベリーベアー練馬","province":"東京都","city":"練馬区","address":"練馬区練馬1-17-14階","lat":35.73934,"lon":139.6536},{"name":"練馬駅前おひさま保育園","province":"東京都","city":"練馬区","address":"練馬区練馬3-18-5","lat":35.73797,"lon":139.65033},{"name":"Ｎｉｃｏｔ練馬","province":"東京都","city":"練馬区","address":"練馬区練馬1-11-1","lat":35.73802,"lon":139.65122},{"name":"アスクねりま三丁目保育園","province":"東京都","city":"練馬区","address":"練馬区練馬3-4-5","lat":35.73813,"lon":139.64725},{"name":"アスクとよたま一丁目保育園","province":"東京都","city":"練馬区","address":"練馬区豊玉中1-5-10","lat":35.72928,"lon":139.66222},{"name":"豊玉第三保育園","province":"東京都","city":"練馬区","address":"練馬区豊玉南3-32-37","lat":35.72961,"lon":139.64945},{"name":"保育所ま?anitize]む中村橋駅前園","province":"東京都","city":"練馬区","address":"練馬区貫井1-17-4","lat":35.7384,"lon":139.6344},{"name":"みらいく中村橋園","province":"東京都","city":"練馬区","address":"練馬区中村北3-17-10","lat":35.73525,"lon":139.63966},{"name":"あい保育園高野台","province":"東京都","city":"練馬区","address":"練馬区高野台2-9-9","lat":35.74587,"lon":139.62054},{"name":"ベビーステーション石神井第２","province":"東京都","city":"練馬区","address":"練馬区石神井町2-13-151階","lat":35.7446,"lon":139.60854},{"name":"上石神井保育園","province":"東京都","city":"練馬区","address":"練馬区上石神井4-21-3","lat":35.73052,"lon":139.5869},{"name":"ソラスト関町保育園","province":"東京都","city":"練馬区","address":"練馬区関町東2-14-2","lat":35.72825,"lon":139.57851},{"name":"おはよう保育園関町南","province":"東京都","city":"練馬区","address":"練馬区関町南4-19-61階","lat":35.72096,"lon":139.56928},{"name":"マーガレット保育園","province":"東京都","city":"練馬区","address":"練馬区大泉学園町6-15-34","lat":35.76948,"lon":139.57842},{"name":"そあ季の花保育園","province":"東京都","city":"練馬区","address":"練馬区大泉学園町2-22-14","lat":35.7614,"lon":139.58751},{"name":"グローバルキッズ大泉園","province":"東京都","city":"練馬区","address":"練馬区大泉学園町7-6-27","lat":35.77033,"lon":139.58752},{"name":"田柄保育園","province":"東京都","city":"練馬区","address":"練馬区田柄4-36-4","lat":35.76679,"lon":139.63677},{"name":"さくらさくみらい　田柄","province":"東京都","city":"練馬区","address":"練馬区田柄2-50-2","lat":35.76983,"lon":139.64368},{"name":"最勝寺みのり保育園","province":"東京都","city":"練馬区","address":"練馬区北町6-16-14","lat":35.76,"lon":139.65424},{"name":"にじいろ保育園平和台","province":"東京都","city":"練馬区","address":"練馬区平和台1-31-9","lat":35.75732,"lon":139.66303},{"name":"妙福寺保育園","province":"東京都","city":"練馬区","address":"練馬区南大泉5-6-47","lat":35.75315,"lon":139.5733},{"name":"光が丘第十保育園","province":"東京都","city":"練馬区","address":"練馬区光が丘3-7-3-101","lat":35.75076,"lon":139.60182},{"name":"光が丘第十一保育園","province":"東京都","city":"練馬区","address":"練馬区光が丘2-4-11-101","lat":35.76376,"lon":139.62857},{"name":"光が丘わかば保育園","province":"東京都","city":"練馬区","address":"練馬区光が丘7-6-19-101","lat":35.75848,"lon":139.62454},{"name":"どんぐり山保育園","province":"東京都","city":"練馬区","address":"練馬区春日町4-1-13","lat":35.75312,"lon":139.64072}]}