{"keyword":"音響","data":[{"name":"鷺宮小学校北","province":"東京都","city":"練馬区","address":"東京都練馬区中村南3丁目12-1","lat":35.72617621,"lon":139.64055033},{"name":"練馬警察署南","province":"東京都","city":"練馬区","address":"東京都練馬区豊玉北5丁目14-3","lat":35.73551444,"lon":139.6551626},{"name":"中村橋駅前","province":"東京都","city":"練馬区","address":"東京都練馬区中村北3丁目23-3","lat":35.73637503,"lon":139.63840563},{"name":"豊玉北六丁目","province":"東京都","city":"練馬区","address":"東京都練馬区豊玉北6丁目14-7","lat":35.73686972,"lon":139.65042684},{"name":"貫井二丁目","province":"東京都","city":"練馬区","address":"東京都練馬区貫井2丁目27-21","lat":35.74055507,"lon":139.63635285},{"name":"練馬区役所前","province":"東京都","city":"練馬区","address":"東京都練馬区豊玉北6丁目13-4","lat":35.73651701,"lon":139.65132677},{"name":"氷川台下","province":"東京都","city":"練馬区","address":"東京都練馬区氷川台4丁目50-3","lat":35.75094626,"lon":139.66514439},{"name":"練馬郵便局前","province":"東京都","city":"練馬区","address":"東京都練馬区豊玉北6丁目4-6","lat":35.73535052,"lon":139.65335998},{"name":"平和台駅前","province":"東京都","city":"練馬区","address":"東京都練馬区北町6丁目32-37","lat":35.75832011,"lon":139.65265907},{"name":"正久保橋","province":"東京都","city":"練馬区","address":"東京都練馬区氷川台3丁目35-4","lat":35.74921874,"lon":139.66694431},{"name":"練馬駅前","province":"東京都","city":"練馬区","address":"東京都練馬区練馬1丁目4-2","lat":35.73753919,"lon":139.65452368},{"name":"貫井五丁目東","province":"東京都","city":"練馬区","address":"東京都練馬区向山4丁目3-2","lat":35.740494,"lon":139.63801383},{"name":"早宮一丁目","province":"東京都","city":"練馬区","address":"東京都練馬区早宮1丁目1-16","lat":35.75023244,"lon":139.66407508},{"name":"練馬文化センター入口","province":"東京都","city":"練馬区","address":"東京都練馬区豊玉北6丁目1-10","lat":35.73688643,"lon":139.65241833},{"name":"練馬第三小学校入口","province":"東京都","city":"練馬区","address":"東京都練馬区中村北4丁目12-13","lat":35.73609721,"lon":139.63567253},{"name":"氷川台駅前","province":"東京都","city":"練馬区","address":"東京都練馬区氷川台3丁目40","lat":35.74983526,"lon":139.66449172},{"name":"豊島園交番前","province":"東京都","city":"練馬区","address":"東京都練馬区練馬4丁目12","lat":35.74082477,"lon":139.64829351},{"name":"春日町交番前","province":"東京都","city":"練馬区","address":"東京都練馬区春日町3丁目29","lat":35.75030961,"lon":139.64036046},{"name":"練馬駅北口","province":"東京都","city":"練馬区","address":"東京都練馬区練馬1丁目19-1","lat":35.73836133,"lon":139.65483751},{"name":"中村橋駅第一","province":"東京都","city":"練馬区","address":"東京都練馬区向山1丁目15","lat":35.7374777,"lon":139.63926663},{"name":"中村橋駅第二","province":"東京都","city":"練馬区","address":"東京都練馬区向山1丁目19","lat":35.73847202,"lon":139.63883328},{"name":"中村橋駅前東","province":"東京都","city":"練馬区","address":"東京都練馬区中村北3丁目15","lat":35.73661391,"lon":139.63908057},{"name":"向山四丁目南","province":"東京都","city":"練馬区","address":"東京都練馬区向山4丁目2-3","lat":35.74025515,"lon":139.63824437},{"name":"長久保","province":"東京都","city":"練馬区","address":"東京都練馬区大泉学園町8丁目26-5","lat":35.77389971,"lon":139.59538873},{"name":"大泉中央公園前","province":"東京都","city":"練馬区","address":"東京都練馬区大泉学園町8丁目25-21","lat":35.77502454,"lon":139.59538594},{"name":"石神井公園駅北","province":"東京都","city":"練馬区","address":"東京都練馬区石神井町4丁目1-12","lat":35.74450935,"lon":139.60618301},{"name":"関町北五丁目","province":"東京都","city":"練馬区","address":"東京都練馬区関町北4丁目33-37","lat":35.73118503,"lon":139.57412509},{"name":"大泉学園駅前","province":"東京都","city":"練馬区","address":"東京都練馬区東大泉5丁目43-1","lat":35.74939995,"lon":139.58558451},{"name":"豊渓小学校入口","province":"東京都","city":"練馬区","address":"東京都練馬区土支田2丁目29","lat":35.76492666,"lon":139.61377326},{"name":"比丘尼","province":"東京都","city":"練馬区","address":"東京都練馬区三原台3丁目31-14","lat":35.75611342,"lon":139.60087746},{"name":"光が丘三丁目","province":"東京都","city":"練馬区","address":"東京都練馬区光が丘3丁目7-3","lat":35.7580224,"lon":139.63091372},{"name":"夏の雲公園前","province":"東京都","city":"練馬区","address":"東京都練馬区光が丘3丁目3","lat":35.75501155,"lon":139.62813075},{"name":"光が丘駅前","province":"東京都","city":"練馬区","address":"東京都練馬区光が丘3丁目7-12","lat":35.75811402,"lon":139.62954994},{"name":"光が丘五丁目第二","province":"東京都","city":"練馬区","address":"東京都練馬区光が丘5丁目6-1","lat":35.76141637,"lon":139.62700279},{"name":"練馬高野台駅前","province":"東京都","city":"練馬区","address":"東京都練馬区高野台3丁目1-10","lat":35.74213487,"lon":139.61499623},{"name":"土支田地域集会場前","province":"東京都","city":"練馬区","address":"東京都練馬区土支田2丁目40-21","lat":35.76429055,"lon":139.61163459},{"name":"保谷駅前交番","province":"東京都","city":"練馬区","address":"東京都練馬区南大泉3丁目31-19","lat":35.74748297,"lon":139.56670287}]}