{"keyword":"食堂","data":[{"name":"大泉まちの子ども食堂","province":"東京都","city":"練馬区","address":"東京都練馬区大泉学園町5丁目6-17","lat":35.76605618,"lon":139.58681732},{"name":"おおいずみ子ども食堂","province":"東京都","city":"練馬区","address":"東京都練馬区東大泉5丁目35-12","lat":35.74777522,"lon":139.58954537},{"name":"子ども交流食堂たまっこ","province":"東京都","city":"練馬区","address":"東京都練馬区豊玉中3丁目3-12","lat":35.73209539,"lon":139.65530162},{"name":"桜台子育て応援食堂","province":"東京都","city":"練馬区","address":"東京都練馬区豊玉北1丁目12-3","lat":35.73486209,"lon":139.66858647},{"name":"石神井ゆうやけ子ども食堂","province":"東京都","city":"練馬区","address":"東京都練馬区石神井町1丁目24-6","lat":35.74275959,"lon":139.60806903},{"name":"太陽の子東大泉保育園こども食堂","province":"東京都","city":"練馬区","address":"東京都練馬区東大泉2丁目9-16","lat":35.75141936,"lon":139.59393098},{"name":"てへっ！こども食堂","province":"東京都","city":"練馬区","address":"東京都練馬区高松4丁目1-28","lat":35.75142596,"lon":139.63297772},{"name":"ねりまこども食堂","province":"東京都","city":"練馬区","address":"東京都練馬区谷原1丁目3-7","lat":35.74916489,"lon":139.62444516},{"name":"練馬地域ふれあい食堂","province":"東京都","city":"練馬区","address":"東京都練馬区練馬4丁目2-3","lat":35.74027488,"lon":139.65022115},{"name":"ハッピーお茶家ころころ","province":"東京都","city":"練馬区","address":"東京都練馬区東大泉1丁目15-10","lat":35.74799471,"lon":139.59283676},{"name":"ふろしきこども食堂","province":"東京都","city":"練馬区","address":"東京都練馬区練馬4丁目17-2","lat":35.74259123,"lon":139.64769904},{"name":"まるてる子ども食堂","province":"東京都","city":"練馬区","address":"東京都練馬区栄町31-6","lat":35.73843676,"lon":139.67126386},{"name":"みんなの食堂すまいる","province":"東京都","city":"練馬区","address":"東京都練馬区石神井町3丁目2-8","lat":35.74018207,"lon":139.60658038},{"name":"らくぜん子ども食堂","province":"東京都","city":"練馬区","address":"東京都練馬区旭町1丁目31-4","lat":35.7653381,"lon":139.62495835},{"name":"長さんこども食堂","province":"東京都","city":"練馬区","address":"東京都練馬区大泉町2丁目54-9","lat":35.76180737,"lon":139.60733505},{"name":"旭町こども食堂ニコ","province":"東京都","city":"練馬区","address":"東京都練馬区旭町3丁目26-7","lat":35.77683964,"lon":139.62853538},{"name":"こども食堂バァバんち","province":"東京都","city":"練馬区","address":"東京都練馬区中村1丁目8-2-7","lat":35.73255625,"lon":139.64794389},{"name":"こども食堂ぽてと","province":"東京都","city":"練馬区","address":"東京都練馬区練馬4丁目6-5","lat":35.74061369,"lon":139.64862683},{"name":"みさよ子ども食堂","province":"東京都","city":"練馬区","address":"東京都練馬区土支田3丁目27-27","lat":35.76155741,"lon":139.60763226},{"name":"ＳＯＭＰＯケアそんぽの家Ｓ江古田","province":"東京都","city":"練馬区","address":"東京都練馬区旭丘2丁目5-2","lat":35.73431521,"lon":139.67823288},{"name":"石神井台かめさん食堂","province":"東京都","city":"練馬区","address":"東京都練馬区石神井台3丁目20-9","lat":35.74213421,"lon":139.59137602},{"name":"子ども未来食堂","province":"東京都","city":"練馬区","address":"東京都練馬区羽沢2丁目5-3","lat":35.74272235,"lon":139.67018876},{"name":"感動こども食堂ときわ亭練馬店","province":"東京都","city":"練馬区","address":"東京都練馬区豊玉北5丁目19-1","lat":35.73692535,"lon":139.65368211},{"name":"ねりたか子ども食堂","province":"東京都","city":"練馬区","address":"東京都練馬区旭町1丁目12-31","lat":35.7635716,"lon":139.62405573},{"name":"ころころ子ども食堂","province":"東京都","city":"練馬区","address":"東京都練馬区大泉学園町1丁目7-13","lat":35.75947109,"lon":139.58895052},{"name":"みんなン家","province":"東京都","city":"練馬区","address":"東京都練馬区光が丘2丁目4-10","lat":35.7631608,"lon":139.63382992}]}