{"keyword":"館","data":[{"name":"厚生文化会館","province":"東京都","city":"練馬区","address":"練馬区練馬4-2-3","lat":35.740275,"lon":139.650221},{"name":"桜台地区区民館","province":"東京都","city":"練馬区","address":"練馬区桜台3-39-17","lat":35.745916,"lon":139.663211},{"name":"栄町児童館","province":"東京都","city":"練馬区","address":"練馬区栄町40-7","lat":35.739487,"lon":139.671192},{"name":"豊玉北地区区民館","province":"東京都","city":"練馬区","address":"練馬区豊玉北3-7-9","lat":35.732623,"lon":139.661379},{"name":"中村児童館","province":"東京都","city":"練馬区","address":"練馬区中村2-25-3","lat":35.731748,"lon":139.6423},{"name":"三原台児童館","province":"東京都","city":"練馬区","address":"練馬区三原台2-11-29","lat":35.757236,"lon":139.606474},{"name":"南田中児童館","province":"東京都","city":"練馬区","address":"練馬区南田中5-15-25","lat":35.737835,"lon":139.611516},{"name":"石神井児童館","province":"東京都","city":"練馬区","address":"練馬区石神井町7-28-21","lat":35.744787,"lon":139.598284},{"name":"上石神井児童館","province":"東京都","city":"練馬区","address":"練馬区上石神井1-5-2","lat":35.725686,"lon":139.592446},{"name":"石神井台児童館","province":"東京都","city":"練馬区","address":"練馬区石神井台2-18-13","lat":35.735682,"lon":139.589785},{"name":"関町北地区区民館","province":"東京都","city":"練馬区","address":"練馬区関町北4-12-21","lat":35.729766,"lon":139.577103},{"name":"関町児童館","province":"東京都","city":"練馬区","address":"練馬区関町南4-15-7-102","lat":35.722672,"lon":139.572326},{"name":"北大泉児童館","province":"東京都","city":"練馬区","address":"練馬区大泉町4-15-15","lat":35.76296,"lon":139.599988},{"name":"東大泉児童館","province":"東京都","city":"練馬区","address":"練馬区東大泉7-20-1","lat":35.742339,"lon":139.577399},{"name":"西大泉児童館","province":"東京都","city":"練馬区","address":"練馬区西大泉3-21-16","lat":35.759537,"lon":139.578932},{"name":"西大泉地区区民館","province":"東京都","city":"練馬区","address":"練馬区西大泉5-3-32","lat":35.760059,"lon":139.572502},{"name":"光が丘児童館","province":"東京都","city":"練馬区","address":"練馬区光が丘1-3-1","lat":35.767702,"lon":139.639129},{"name":"光が丘なかよし児童館","province":"東京都","city":"練馬区","address":"練馬区光が丘2-9-6","lat":35.759486,"lon":139.629589},{"name":"田柄地区区民館","province":"東京都","city":"練馬区","address":"練馬区田柄3-28-13","lat":35.762169,"lon":139.637246},{"name":"春日町児童館","province":"東京都","city":"練馬区","address":"練馬区春日町2-28-3","lat":35.757087,"lon":139.646351},{"name":"高松地区区民館","province":"東京都","city":"練馬区","address":"練馬区高松3-24-27","lat":35.750031,"lon":139.625392},{"name":"土支田児童館","province":"東京都","city":"練馬区","address":"練馬区土支田2-32-8","lat":35.763474,"lon":139.613804},{"name":"北町児童館","province":"東京都","city":"練馬区","address":"練馬区北町1-19-17","lat":35.764139,"lon":139.667902},{"name":"北町地区区民館","province":"東京都","city":"練馬区","address":"練馬区北町2-26-1","lat":35.76755,"lon":139.660433},{"name":"平和台児童館","province":"東京都","city":"練馬区","address":"練馬区平和台2-18-14","lat":35.760173,"lon":139.661608},{"name":"栄町児童館","province":"東京都","city":"練馬区","address":"練馬区栄町40-7","lat":35.7394713,"lon":139.6710343},{"name":"中村児童館","province":"東京都","city":"練馬区","address":"練馬区中村2-25-3","lat":35.73178056,"lon":139.6421563},{"name":"平和台児童館","province":"東京都","city":"練馬区","address":"練馬区平和台2-18-14","lat":35.76007643,"lon":139.6615122},{"name":"春日町児童館","province":"東京都","city":"練馬区","address":"練馬区春日町2-28-3","lat":35.75702518,"lon":139.6462502},{"name":"光が丘児童館","province":"東京都","city":"練馬区","address":"練馬区光が丘1-3-1","lat":35.76774993,"lon":139.6391004},{"name":"光が丘なかよし児童館","province":"東京都","city":"練馬区","address":"練馬区光が丘2-9-6","lat":35.75953299,"lon":139.630003},{"name":"土支田児童館","province":"東京都","city":"練馬区","address":"練馬区土支田2-32-8","lat":35.76351856,"lon":139.6136213},{"name":"南田中児童館","province":"東京都","city":"練馬区","address":"練馬区南田中5-15-25","lat":35.73789985,"lon":139.611507},{"name":"三原台児童館","province":"東京都","city":"練馬区","address":"練馬区三原台2-11-29","lat":35.75719653,"lon":139.6063417},{"name":"石神井児童館","province":"東京都","city":"練馬区","address":"練馬区石神井町7-28-21","lat":35.74466144,"lon":139.5981388},{"name":"石神井台児童館","province":"東京都","city":"練馬区","address":"練馬区石神井台2-18-13","lat":35.73570141,"lon":139.5896457},{"name":"上石神井児童館","province":"東京都","city":"練馬区","address":"練馬区上石神井1-5-2","lat":35.72564509,"lon":139.5924138},{"name":"関町児童館","province":"東京都","city":"練馬区","address":"練馬区関町南4-15-7-102","lat":35.72268641,"lon":139.5722555},{"name":"東大泉児童館","province":"東京都","city":"練馬区","address":"練馬区東大泉7-20-1","lat":35.74246023,"lon":139.5770483},{"name":"西大泉児童館","province":"東京都","city":"練馬区","address":"練馬区西大泉3-21-16","lat":35.75966965,"lon":139.5788581},{"name":"北大泉児童館","province":"東京都","city":"練馬区","address":"練馬区大泉町4-15-15","lat":35.76306073,"lon":139.6001533},{"name":"光が丘図書館","province":"東京都","city":"練馬区","address":"東京都練馬区光が丘4丁目1-5","lat":35.76307459,"lon":139.63001635},{"name":"稲荷山図書館","province":"東京都","city":"練馬区","address":"東京都練馬区大泉町1丁目3-18","lat":35.76531255,"lon":139.609257},{"name":"大泉図書館","province":"東京都","city":"練馬区","address":"東京都練馬区大泉学園町2丁目21-17","lat":35.76062093,"lon":139.58712007},{"name":"小竹図書館","province":"東京都","city":"練馬区","address":"東京都練馬区小竹町2丁目43-1","lat":35.74191428,"lon":139.67599106},{"name":"石神井図書館","province":"東京都","city":"練馬区","address":"東京都練馬区石神井台1丁目16-31","lat":35.73642114,"lon":139.59938396},{"name":"関町図書館","province":"東京都","city":"練馬区","address":"東京都練馬区関町南3丁目11-2","lat":35.72091132,"lon":139.58041665},{"name":"貫井図書館","province":"東京都","city":"練馬区","address":"東京都練馬区貫井1丁目36-16","lat":35.73705267,"lon":139.63611967},{"name":"練馬図書館","province":"東京都","city":"練馬区","address":"東京都練馬区豊玉北6丁目8-1","lat":35.73431449,"lon":139.65183793},{"name":"平和台図書館","province":"東京都","city":"練馬区","address":"東京都練馬区平和台1丁目36-17","lat":35.76006185,"lon":139.66473292},{"name":"南大泉図書館","province":"東京都","city":"練馬区","address":"東京都練馬区南大泉1丁目44-7","lat":35.74335034,"lon":139.57486067},{"name":"南大泉図書館分室","province":"東京都","city":"練馬区","address":"東京都練馬区南大泉3丁目17-20","lat":35.74163374,"lon":139.56997502},{"name":"南田中図書館","province":"東京都","city":"練馬区","address":"東京都練馬区南田中5丁目15-22","lat":35.7377658,"lon":139.61109952},{"name":"厚生文化会館","province":"東京都","city":"練馬区","address":"練馬区練馬4-2-3","lat":35.74033,"lon":139.64996},{"name":"桜台地区区民館","province":"東京都","city":"練馬区","address":"練馬区桜台3-39-17","lat":35.74592,"lon":139.6635},{"name":"栄町児童館","province":"東京都","city":"練馬区","address":"練馬区栄町40-7","lat":35.73949,"lon":139.67136},{"name":"豊玉北地区区民館","province":"東京都","city":"練馬区","address":"練馬区豊玉北3-7-9","lat":35.73248,"lon":139.66106},{"name":"中村児童館","province":"東京都","city":"練馬区","address":"練馬区中村2-25-3","lat":35.73192,"lon":139.64244},{"name":"三原台児童館","province":"東京都","city":"練馬区","address":"練馬区三原台2-11-29","lat":35.75686,"lon":139.60574},{"name":"南田中児童館","province":"東京都","city":"練馬区","address":"練馬区南田中5-15-25","lat":35.7372,"lon":139.61101},{"name":"石神井児童館","province":"東京都","city":"練馬区","address":"練馬区石神井町7-28-21","lat":35.74479,"lon":139.59793},{"name":"上石神井児童館","province":"東京都","city":"練馬区","address":"練馬区上石神井1-5-2","lat":35.72562,"lon":139.59213},{"name":"石神井台児童館","province":"東京都","city":"練馬区","address":"練馬区石神井台2-18-13","lat":35.73539,"lon":139.58984},{"name":"関町北地区区民館","province":"東京都","city":"練馬区","address":"練馬区関町北4-12-21","lat":35.7298,"lon":139.57707},{"name":"関町児童館","province":"東京都","city":"練馬区","address":"練馬区関町南4-15-7-102","lat":35.7213,"lon":139.57184},{"name":"北大泉児童館","province":"東京都","city":"練馬区","address":"練馬区大泉町4-15-15","lat":35.76295,"lon":139.60028},{"name":"東大泉児童館","province":"東京都","city":"練馬区","address":"練馬区東大泉7-20-1","lat":35.74224,"lon":139.57719},{"name":"西大泉児童館","province":"東京都","city":"練馬区","address":"練馬区西大泉3-21-16","lat":35.7593,"lon":139.57927},{"name":"西大泉地区区民館","province":"東京都","city":"練馬区","address":"練馬区西大泉5-3-32","lat":35.7602,"lon":139.5724},{"name":"光が丘児童館","province":"東京都","city":"練馬区","address":"練馬区光が丘1-3-1","lat":35.76815,"lon":139.63863},{"name":"光が丘なかよし児童館","province":"東京都","city":"練馬区","address":"練馬区光が丘2-9-6","lat":35.75914,"lon":139.63036},{"name":"田柄地区区民館","province":"東京都","city":"練馬区","address":"練馬区田柄3-28-13","lat":35.76196,"lon":139.63725},{"name":"高松地区区民館","province":"東京都","city":"練馬区","address":"練馬区高松3-24-27","lat":35.75034,"lon":139.62538},{"name":"土支田児童館","province":"東京都","city":"練馬区","address":"練馬区土支田2-32-8","lat":35.7635,"lon":139.61414},{"name":"北町児童館","province":"東京都","city":"練馬区","address":"練馬区北町1-19-17","lat":35.76446,"lon":139.66719},{"name":"北町地区区民館","province":"東京都","city":"練馬区","address":"練馬区北町2-26-1","lat":35.76787,"lon":139.66035},{"name":"北町はるのひ児童館","province":"東京都","city":"練馬区","address":"練馬区北町6-35-7","lat":35.7577,"lon":139.64937},{"name":"平和台児童館","province":"東京都","city":"練馬区","address":"練馬区平和台2-18-14","lat":35.7601,"lon":139.66127},{"name":"関町北地区区民館","province":"東京都","city":"練馬区","address":"練馬区関町北4-12-21","lat":35.72981,"lon":139.57707},{"name":"北町地区区民館","province":"東京都","city":"練馬区","address":"練馬区北町2-26-1","lat":35.76787,"lon":139.66036},{"name":"春日町児童館","province":"東京都","city":"練馬区","address":"練馬区春日町2-28-3","lat":35.75753,"lon":139.64581},{"name":"＊?貫井図書館","province":"東京都","city":"練馬区","address":"練馬区貫井1-36-16","lat":35.736971,"lon":139.636105},{"name":"＊?大泉図書館","province":"東京都","city":"練馬区","address":"練馬区大泉学園町2-21-17","lat":35.760609,"lon":139.58713},{"name":"＊?稲荷山図書館","province":"東京都","city":"練馬区","address":"練馬区大泉町1-3-18","lat":35.765328,"lon":139.609229},{"name":"＊?関町図書館","province":"東京都","city":"練馬区","address":"練馬区関町南3-11-2","lat":35.72094,"lon":139.58046},{"name":"＊?平和台図書館","province":"東京都","city":"練馬区","address":"練馬区平和台1-36-17","lat":35.760099,"lon":139.664753},{"name":"＊?練馬図書館","province":"東京都","city":"練馬区","address":"練馬区豊玉北6-8-1","lat":35.734202,"lon":139.651886},{"name":"＊?石神井図書館","province":"東京都","city":"練馬区","address":"練馬区石神井台1-16-31","lat":35.736302,"lon":139.599371},{"name":"＊?春日町図書館","province":"東京都","city":"練馬区","address":"練馬区春日町5-31-2-201","lat":35.751436,"lon":139.638966},{"name":"＊?光が丘図書館","province":"東京都","city":"練馬区","address":"練馬区光が丘4-1-5","lat":35.763101,"lon":139.630025},{"name":"＊?南大泉図書館","province":"東京都","city":"練馬区","address":"練馬区南大泉1-44-7","lat":35.743367,"lon":139.574898},{"name":"＊南大泉図書館分室??こどもと本のひろば","province":"東京都","city":"練馬区","address":"練馬区南大泉3-17-10","lat":35.740655,"lon":139.569381},{"name":"＊?小竹図書館","province":"東京都","city":"練馬区","address":"練馬区小竹町2-43-1","lat":35.741907,"lon":139.676003},{"name":"＊?南田中図書館","province":"東京都","city":"練馬区","address":"練馬区南田中5-15-22","lat":35.737576,"lon":139.611139}]}