{"keyword":"駒込","data":[{"name":"石神井公園ふるさと文化館","province":"東京都","city":"練馬区","address":"練馬区石神井町5-12-16","lat":35.73761853,"lon":139.59946},{"name":"石神井公園ふるさと文化館分室","province":"東京都","city":"練馬区","address":"練馬区石神井台1-33-44","lat":35.73930834,"lon":139.5939328},{"name":"男女共同参画センターえーる","province":"東京都","city":"練馬区","address":"練馬区石神井町8-1-10","lat":35.74519186,"lon":139.6016095},{"name":"春日町青少年館","province":"東京都","city":"練馬区","address":"練馬区春日町4-16-9","lat":35.75254484,"lon":139.6391099},{"name":"南大泉青少年館","province":"東京都","city":"練馬区","address":"練馬区南大泉1-44-7","lat":35.74323972,"lon":139.574769},{"name":"学校教育支援センター","province":"東京都","city":"練馬区","address":"練馬区光が丘6-4-1","lat":35.76053206,"lon":139.6229299},{"name":"学校教育支援センター練馬","province":"東京都","city":"練馬区","address":"練馬区豊玉北5-15-19","lat":35.73601694,"lon":139.6548163},{"name":"学校教育支援センター関","province":"東京都","city":"練馬区","address":"練馬区関町北1-21-15","lat":35.72653052,"lon":139.5785937},{"name":"学校教育支援センター大泉","province":"東京都","city":"練馬区","address":"練馬区東大泉3-18-9","lat":35.75158026,"lon":139.5866995},{"name":"生涯学習センター","province":"東京都","city":"練馬区","address":"練馬区豊玉北6-8-1","lat":35.7342428,"lon":139.6519894},{"name":"生涯学習センター分館","province":"東京都","city":"練馬区","address":"練馬区高野台2-25-1","lat":35.74806639,"lon":139.6212067},{"name":"練馬区保健所生活衛生課石神井分室","province":"東京都","city":"練馬区","address":"練馬区石神井町7-3-28","lat":35.74470971,"lon":139.6012279},{"name":"練馬区役所","province":"東京都","city":"練馬区","address":"練馬区豊玉北6-12-1","lat":35.73578858,"lon":139.6515339},{"name":"石神井庁舎","province":"東京都","city":"練馬区","address":"練馬区石神井町3-30-26","lat":35.7434728,"lon":139.6025527},{"name":"＊?春日町青少年館","province":"東京都","city":"練馬区","address":"練馬区春日町4-16-9","lat":35.752567,"lon":139.639232},{"name":"＊?南大泉青少年館","province":"東京都","city":"練馬区","address":"練馬区南大泉1-44-7","lat":35.743367,"lon":139.574898},{"name":"練馬区本庁舎","province":"東京都","city":"練馬区","address":"練馬区豊玉北6-12-1","lat":35.735573,"lon":139.651671},{"name":"石神井公園ふるさと文化館","province":"東京都","city":"練馬区","address":"練馬区石神井町5-12-16","lat":35.73761853,"lon":139.59946},{"name":"石神井公園ふるさと文化館分室","province":"東京都","city":"練馬区","address":"練馬区石神井台1-33-44","lat":35.73930834,"lon":139.5939328},{"name":"男女共同参画センターえーる","province":"東京都","city":"練馬区","address":"練馬区石神井町8-1-10","lat":35.74519186,"lon":139.6016095},{"name":"春日町青少年館","province":"東京都","city":"練馬区","address":"練馬区春日町4-16-9","lat":35.75254484,"lon":139.6391099},{"name":"南大泉青少年館","province":"東京都","city":"練馬区","address":"練馬区南大泉1-44-7","lat":35.74323972,"lon":139.574769},{"name":"学校教育支援センター","province":"東京都","city":"練馬区","address":"練馬区光が丘6-4-1","lat":35.76053206,"lon":139.6229299},{"name":"学校教育支援センター練馬","province":"東京都","city":"練馬区","address":"練馬区豊玉北5-15-19","lat":35.73601694,"lon":139.6548163},{"name":"学校教育支援センター関","province":"東京都","city":"練馬区","address":"練馬区関町北1-21-15","lat":35.72653052,"lon":139.5785937},{"name":"学校教育支援センター大泉","province":"東京都","city":"練馬区","address":"練馬区東大泉3-18-9","lat":35.75158026,"lon":139.5866995},{"name":"生涯学習センター","province":"東京都","city":"練馬区","address":"練馬区豊玉北6-8-1","lat":35.7342428,"lon":139.6519894},{"name":"生涯学習センター分館","province":"東京都","city":"練馬区","address":"練馬区高野台2-25-1","lat":35.74806639,"lon":139.6212067},{"name":"練馬区保健所生活衛生課石神井分室","province":"東京都","city":"練馬区","address":"練馬区石神井町7-3-28","lat":35.74470971,"lon":139.6012279},{"name":"練馬区役所","province":"東京都","city":"練馬区","address":"練馬区豊玉北6-12-1","lat":35.73578858,"lon":139.6515339},{"name":"石神井庁舎","province":"東京都","city":"練馬区","address":"練馬区石神井町3-30-26","lat":35.7434728,"lon":139.6025527},{"name":"＊?春日町青少年館","province":"東京都","city":"練馬区","address":"練馬区春日町4-16-9","lat":35.752567,"lon":139.639232},{"name":"＊?南大泉青少年館","province":"東京都","city":"練馬区","address":"練馬区南大泉1-44-7","lat":35.743367,"lon":139.574898},{"name":"練馬区本庁舎","province":"東京都","city":"練馬区","address":"練馬区豊玉北6-12-1","lat":35.735573,"lon":139.651671},{"name":"石神井公園ふるさと文化館","province":"東京都","city":"練馬区","address":"練馬区石神井町5-12-16","lat":35.73761853,"lon":139.59946},{"name":"石神井公園ふるさと文化館分室","province":"東京都","city":"練馬区","address":"練馬区石神井台1-33-44","lat":35.73930834,"lon":139.5939328},{"name":"男女共同参画センターえーる","province":"東京都","city":"練馬区","address":"練馬区石神井町8-1-10","lat":35.74519186,"lon":139.6016095},{"name":"春日町青少年館","province":"東京都","city":"練馬区","address":"練馬区春日町4-16-9","lat":35.75254484,"lon":139.6391099},{"name":"南大泉青少年館","province":"東京都","city":"練馬区","address":"練馬区南大泉1-44-7","lat":35.74323972,"lon":139.574769},{"name":"学校教育支援センター","province":"東京都","city":"練馬区","address":"練馬区光が丘6-4-1","lat":35.76053206,"lon":139.6229299},{"name":"学校教育支援センター練馬","province":"東京都","city":"練馬区","address":"練馬区豊玉北5-15-19","lat":35.73601694,"lon":139.6548163},{"name":"学校教育支援センター関","province":"東京都","city":"練馬区","address":"練馬区関町北1-21-15","lat":35.72653052,"lon":139.5785937},{"name":"学校教育支援センター大泉","province":"東京都","city":"練馬区","address":"練馬区東大泉3-18-9","lat":35.75158026,"lon":139.5866995},{"name":"生涯学習センター","province":"東京都","city":"練馬区","address":"練馬区豊玉北6-8-1","lat":35.7342428,"lon":139.6519894},{"name":"生涯学習センター分館","province":"東京都","city":"練馬区","address":"練馬区高野台2-25-1","lat":35.74806639,"lon":139.6212067},{"name":"練馬区役所","province":"東京都","city":"練馬区","address":"練馬区豊玉北6-12-1","lat":35.73578858,"lon":139.6515339},{"name":"石神井庁舎","province":"東京都","city":"練馬区","address":"練馬区石神井町3-30-26","lat":35.7434728,"lon":139.6025527},{"name":"＊?春日町青少年館","province":"東京都","city":"練馬区","address":"練馬区春日町4-16-9","lat":35.752567,"lon":139.639232},{"name":"＊?南大泉青少年館","province":"東京都","city":"練馬区","address":"練馬区南大泉1-44-7","lat":35.743367,"lon":139.574898},{"name":"練馬区本庁舎","province":"東京都","city":"練馬区","address":"練馬区豊玉北6-12-1","lat":35.735573,"lon":139.651671},{"name":"石神井公園ふるさと文化館","province":"東京都","city":"練馬区","address":"練馬区石神井町5-12-16","lat":35.73761853,"lon":139.59946},{"name":"石神井公園ふるさと文化館分室","province":"東京都","city":"練馬区","address":"練馬区石神井台1-33-44","lat":35.73930834,"lon":139.5939328},{"name":"男女共同参画センターえーる","province":"東京都","city":"練馬区","address":"練馬区石神井町8-1-10","lat":35.74519186,"lon":139.6016095},{"name":"春日町青少年館","province":"東京都","city":"練馬区","address":"練馬区春日町4-16-9","lat":35.75254484,"lon":139.6391099},{"name":"南大泉青少年館","province":"東京都","city":"練馬区","address":"練馬区南大泉1-44-7","lat":35.74323972,"lon":139.574769},{"name":"学校教育支援センター","province":"東京都","city":"練馬区","address":"練馬区光が丘6-4-1","lat":35.76053206,"lon":139.6229299},{"name":"学校教育支援センター練馬","province":"東京都","city":"練馬区","address":"練馬区豊玉北5-15-19","lat":35.73601694,"lon":139.6548163},{"name":"学校教育支援センター関","province":"東京都","city":"練馬区","address":"練馬区関町北1-21-15","lat":35.72653052,"lon":139.5785937},{"name":"学校教育支援センター大泉","province":"東京都","city":"練馬区","address":"練馬区東大泉3-18-9","lat":35.75158026,"lon":139.5866995},{"name":"生涯学習センター","province":"東京都","city":"練馬区","address":"練馬区豊玉北6-8-1","lat":35.7342428,"lon":139.6519894},{"name":"生涯学習センター分館","province":"東京都","city":"練馬区","address":"練馬区高野台2-25-1","lat":35.74806639,"lon":139.6212067},{"name":"練馬区役所","province":"東京都","city":"練馬区","address":"練馬区豊玉北6-12-1","lat":35.73578858,"lon":139.6515339},{"name":"石神井庁舎","province":"東京都","city":"練馬区","address":"練馬区石神井町3-30-26","lat":35.7434728,"lon":139.6025527},{"name":"＊?春日町青少年館","province":"東京都","city":"練馬区","address":"練馬区春日町4-16-9","lat":35.752567,"lon":139.639232},{"name":"＊?南大泉青少年館","province":"東京都","city":"練馬区","address":"練馬区南大泉1-44-7","lat":35.743367,"lon":139.574898},{"name":"練馬区本庁舎","province":"東京都","city":"練馬区","address":"練馬区豊玉北6-12-1","lat":35.735573,"lon":139.651671},{"name":"石神井公園ふるさと文化館","province":"東京都","city":"練馬区","address":"練馬区石神井町5-12-16","lat":35.73761853,"lon":139.59946},{"name":"石神井公園ふるさと文化館分室","province":"東京都","city":"練馬区","address":"練馬区石神井台1-33-44","lat":35.73930834,"lon":139.5939328},{"name":"男女共同参画センターえーる","province":"東京都","city":"練馬区","address":"練馬区石神井町8-1-10","lat":35.74519186,"lon":139.6016095},{"name":"春日町青少年館","province":"東京都","city":"練馬区","address":"練馬区春日町4-16-9","lat":35.75254484,"lon":139.6391099},{"name":"南大泉青少年館","province":"東京都","city":"練馬区","address":"練馬区南大泉1-44-7","lat":35.74323972,"lon":139.574769},{"name":"学校教育支援センター","province":"東京都","city":"練馬区","address":"練馬区光が丘6-4-1","lat":35.76053206,"lon":139.6229299},{"name":"学校教育支援センター練馬","province":"東京都","city":"練馬区","address":"練馬区豊玉北5-15-19","lat":35.73601694,"lon":139.6548163},{"name":"学校教育支援センター関","province":"東京都","city":"練馬区","address":"練馬区関町北1-21-15","lat":35.72653052,"lon":139.5785937},{"name":"学校教育支援センター大泉","province":"東京都","city":"練馬区","address":"練馬区東大泉3-18-9","lat":35.75158026,"lon":139.5866995},{"name":"生涯学習センター","province":"東京都","city":"練馬区","address":"練馬区豊玉北6-8-1","lat":35.7342428,"lon":139.6519894},{"name":"生涯学習センター分館","province":"東京都","city":"練馬区","address":"練馬区高野台2-25-1","lat":35.74806639,"lon":139.6212067},{"name":"練馬区役所","province":"東京都","city":"練馬区","address":"練馬区豊玉北6-12-1","lat":35.73578858,"lon":139.6515339},{"name":"石神井庁舎","province":"東京都","city":"練馬区","address":"練馬区石神井町3-30-26","lat":35.7434728,"lon":139.6025527},{"name":"＊?春日町青少年館","province":"東京都","city":"練馬区","address":"練馬区春日町4-16-9","lat":35.752567,"lon":139.639232},{"name":"＊?南大泉青少年館","province":"東京都","city":"練馬区","address":"練馬区南大泉1-44-7","lat":35.743367,"lon":139.574898},{"name":"練馬区本庁舎","province":"東京都","city":"練馬区","address":"練馬区豊玉北6-12-1","lat":35.735573,"lon":139.651671},{"name":"石神井公園ふるさと文化館","province":"東京都","city":"練馬区","address":"練馬区石神井町5-12-16","lat":35.73761853,"lon":139.59946},{"name":"石神井公園ふるさと文化館分室","province":"東京都","city":"練馬区","address":"練馬区石神井台1-33-44","lat":35.73930834,"lon":139.5939328},{"name":"男女共同参画センターえーる","province":"東京都","city":"練馬区","address":"練馬区石神井町8-1-10","lat":35.74519186,"lon":139.6016095},{"name":"春日町青少年館","province":"東京都","city":"練馬区","address":"練馬区春日町4-16-9","lat":35.75254484,"lon":139.6391099},{"name":"南大泉青少年館","province":"東京都","city":"練馬区","address":"練馬区南大泉1-44-7","lat":35.74323972,"lon":139.574769},{"name":"学校教育支援センター","province":"東京都","city":"練馬区","address":"練馬区光が丘6-4-1","lat":35.76053206,"lon":139.6229299},{"name":"学校教育支援センター練馬","province":"東京都","city":"練馬区","address":"練馬区豊玉北5-15-19","lat":35.73601694,"lon":139.6548163},{"name":"学校教育支援センター関","province":"東京都","city":"練馬区","address":"練馬区関町北1-21-15","lat":35.72653052,"lon":139.5785937},{"name":"学校教育支援センター大泉","province":"東京都","city":"練馬区","address":"練馬区東大泉3-18-9","lat":35.75158026,"lon":139.5866995},{"name":"生涯学習センター","province":"東京都","city":"練馬区","address":"練馬区豊玉北6-8-1","lat":35.7342428,"lon":139.6519894},{"name":"生涯学習センター分館","province":"東京都","city":"練馬区","address":"練馬区高野台2-25-1","lat":35.74806639,"lon":139.6212067},{"name":"練馬区役所","province":"東京都","city":"練馬区","address":"練馬区豊玉北6-12-1","lat":35.73578858,"lon":139.6515339},{"name":"石神井庁舎","province":"東京都","city":"練馬区","address":"練馬区石神井町3-30-26","lat":35.7434728,"lon":139.6025527},{"name":"＊?春日町青少年館","province":"東京都","city":"練馬区","address":"練馬区春日町4-16-9","lat":35.752567,"lon":139.639232},{"name":"＊?南大泉青少年館","province":"東京都","city":"練馬区","address":"練馬区南大泉1-44-7","lat":35.743367,"lon":139.574898},{"name":"練馬区本庁舎","province":"東京都","city":"練馬区","address":"練馬区豊玉北6-12-1","lat":35.735573,"lon":139.651671},{"name":"石神井公園ふるさと文化館","province":"東京都","city":"練馬区","address":"練馬区石神井町5-12-16","lat":35.73761853,"lon":139.59946},{"name":"石神井公園ふるさと文化館分室","province":"東京都","city":"練馬区","address":"練馬区石神井台1-33-44","lat":35.73930834,"lon":139.5939328},{"name":"男女共同参画センターえーる","province":"東京都","city":"練馬区","address":"練馬区石神井町8-1-10","lat":35.74519186,"lon":139.6016095},{"name":"春日町青少年館","province":"東京都","city":"練馬区","address":"練馬区春日町4-16-9","lat":35.75254484,"lon":139.6391099},{"name":"南大泉青少年館","province":"東京都","city":"練馬区","address":"練馬区南大泉1-44-7","lat":35.74323972,"lon":139.574769},{"name":"学校教育支援センター","province":"東京都","city":"練馬区","address":"練馬区光が丘6-4-1","lat":35.76053206,"lon":139.6229299},{"name":"学校教育支援センター練馬","province":"東京都","city":"練馬区","address":"練馬区豊玉北5-15-19","lat":35.73601694,"lon":139.6548163},{"name":"学校教育支援センター関","province":"東京都","city":"練馬区","address":"練馬区関町北1-21-15","lat":35.72653052,"lon":139.5785937},{"name":"学校教育支援センター大泉","province":"東京都","city":"練馬区","address":"練馬区東大泉3-18-9","lat":35.75158026,"lon":139.5866995},{"name":"生涯学習センター","province":"東京都","city":"練馬区","address":"練馬区豊玉北6-8-1","lat":35.7342428,"lon":139.6519894},{"name":"生涯学習センター分館","province":"東京都","city":"練馬区","address":"練馬区高野台2-25-1","lat":35.74806639,"lon":139.6212067},{"name":"練馬区役所","province":"東京都","city":"練馬区","address":"練馬区豊玉北6-12-1","lat":35.73578858,"lon":139.6515339},{"name":"石神井庁舎","province":"東京都","city":"練馬区","address":"練馬区石神井町3-30-26","lat":35.7434728,"lon":139.6025527},{"name":"＊?春日町青少年館","province":"東京都","city":"練馬区","address":"練馬区春日町4-16-9","lat":35.752567,"lon":139.639232},{"name":"＊?南大泉青少年館","province":"東京都","city":"練馬区","address":"練馬区南大泉1-44-7","lat":35.743367,"lon":139.574898},{"name":"練馬区本庁舎","province":"東京都","city":"練馬区","address":"練馬区豊玉北6-12-1","lat":35.735573,"lon":139.651671},{"name":"男女共同参画センターえーる","province":"東京都","city":"練馬区","address":"練馬区石神井町8-1-10","lat":35.74519186,"lon":139.6016095},{"name":"春日町青少年館","province":"東京都","city":"練馬区","address":"練馬区春日町4-16-9","lat":35.75254484,"lon":139.6391099},{"name":"南大泉青少年館","province":"東京都","city":"練馬区","address":"練馬区南大泉1-44-7","lat":35.74323972,"lon":139.574769},{"name":"学校教育支援センター","province":"東京都","city":"練馬区","address":"練馬区光が丘6-4-1","lat":35.76053206,"lon":139.6229299},{"name":"学校教育支援センター練馬","province":"東京都","city":"練馬区","address":"練馬区豊玉北5-15-19","lat":35.73601694,"lon":139.6548163},{"name":"学校教育支援センター関","province":"東京都","city":"練馬区","address":"練馬区関町北1-21-15","lat":35.72653052,"lon":139.5785937},{"name":"学校教育支援センター大泉","province":"東京都","city":"練馬区","address":"練馬区東大泉3-18-9","lat":35.75158026,"lon":139.5866995},{"name":"生涯学習センター","province":"東京都","city":"練馬区","address":"練馬区豊玉北6-8-1","lat":35.7342428,"lon":139.6519894},{"name":"生涯学習センター分館","province":"東京都","city":"練馬区","address":"練馬区高野台2-25-1","lat":35.74806639,"lon":139.6212067},{"name":"練馬区役所","province":"東京都","city":"練馬区","address":"練馬区豊玉北6-12-1","lat":35.73578858,"lon":139.6515339},{"name":"石神井庁舎","province":"東京都","city":"練馬区","address":"練馬区石神井町3-30-26","lat":35.7434728,"lon":139.6025527},{"name":"＊?春日町青少年館","province":"東京都","city":"練馬区","address":"練馬区春日町4-16-9","lat":35.752567,"lon":139.639232},{"name":"＊?南大泉青少年館","province":"東京都","city":"練馬区","address":"練馬区南大泉1-44-7","lat":35.743367,"lon":139.574898},{"name":"練馬区本庁舎","province":"東京都","city":"練馬区","address":"練馬区豊玉北6-12-1","lat":35.735573,"lon":139.651671},{"name":"男女共同参画センターえーる","province":"東京都","city":"練馬区","address":"練馬区石神井町8-1-10","lat":35.74519186,"lon":139.6016095},{"name":"春日町青少年館","province":"東京都","city":"練馬区","address":"練馬区春日町4-16-9","lat":35.75254484,"lon":139.6391099},{"name":"南大泉青少年館","province":"東京都","city":"練馬区","address":"練馬区南大泉1-44-7","lat":35.74323972,"lon":139.574769},{"name":"学校教育支援センター","province":"東京都","city":"練馬区","address":"練馬区光が丘6-4-1","lat":35.76053206,"lon":139.6229299},{"name":"学校教育支援センター練馬","province":"東京都","city":"練馬区","address":"練馬区豊玉北5-15-19","lat":35.73601694,"lon":139.6548163},{"name":"学校教育支援センター関","province":"東京都","city":"練馬区","address":"練馬区関町北1-21-15","lat":35.72653052,"lon":139.5785937},{"name":"学校教育支援センター大泉","province":"東京都","city":"練馬区","address":"練馬区東大泉3-18-9","lat":35.75158026,"lon":139.5866995},{"name":"生涯学習センター","province":"東京都","city":"練馬区","address":"練馬区豊玉北6-8-1","lat":35.7342428,"lon":139.6519894},{"name":"生涯学習センター分館","province":"東京都","city":"練馬区","address":"練馬区高野台2-25-1","lat":35.74806639,"lon":139.6212067},{"name":"練馬区役所","province":"東京都","city":"練馬区","address":"練馬区豊玉北6-12-1","lat":35.73578858,"lon":139.6515339},{"name":"石神井庁舎","province":"東京都","city":"練馬区","address":"練馬区石神井町3-30-26","lat":35.7434728,"lon":139.6025527},{"name":"＊?春日町青少年館","province":"東京都","city":"練馬区","address":"練馬区春日町4-16-9","lat":35.752567,"lon":139.639232},{"name":"＊?南大泉青少年館","province":"東京都","city":"練馬区","address":"練馬区南大泉1-44-7","lat":35.743367,"lon":139.574898},{"name":"練馬区本庁舎","province":"東京都","city":"練馬区","address":"練馬区豊玉北6-12-1","lat":35.735573,"lon":139.651671},{"name":"男女共同参画センターえーる","province":"東京都","city":"練馬区","address":"練馬区石神井町8-1-10","lat":35.74519186,"lon":139.6016095},{"name":"春日町青少年館","province":"東京都","city":"練馬区","address":"練馬区春日町4-16-9","lat":35.75254484,"lon":139.6391099},{"name":"南大泉青少年館","province":"東京都","city":"練馬区","address":"練馬区南大泉1-44-7","lat":35.74323972,"lon":139.574769},{"name":"学校教育支援センター","province":"東京都","city":"練馬区","address":"練馬区光が丘6-4-1","lat":35.76053206,"lon":139.6229299},{"name":"学校教育支援センター練馬","province":"東京都","city":"練馬区","address":"練馬区豊玉北5-15-19","lat":35.73601694,"lon":139.6548163},{"name":"学校教育支援センター関","province":"東京都","city":"練馬区","address":"練馬区関町北1-21-15","lat":35.72653052,"lon":139.5785937},{"name":"学校教育支援センター大泉","province":"東京都","city":"練馬区","address":"練馬区東大泉3-18-9","lat":35.75158026,"lon":139.5866995},{"name":"生涯学習センター","province":"東京都","city":"練馬区","address":"練馬区豊玉北6-8-1","lat":35.7342428,"lon":139.6519894},{"name":"生涯学習センター分館","province":"東京都","city":"練馬区","address":"練馬区高野台2-25-1","lat":35.74806639,"lon":139.6212067},{"name":"練馬区役所","province":"東京都","city":"練馬区","address":"練馬区豊玉北6-12-1","lat":35.73578858,"lon":139.6515339},{"name":"石神井庁舎","province":"東京都","city":"練馬区","address":"練馬区石神井町3-30-26","lat":35.7434728,"lon":139.6025527},{"name":"＊?春日町青少年館","province":"東京都","city":"練馬区","address":"練馬区春日町4-16-9","lat":35.752567,"lon":139.639232},{"name":"＊?南大泉青少年館","province":"東京都","city":"練馬区","address":"練馬区南大泉1-44-7","lat":35.743367,"lon":139.574898},{"name":"練馬区本庁舎","province":"東京都","city":"練馬区","address":"練馬区豊玉北6-12-1","lat":35.735573,"lon":139.651671},{"name":"男女共同参画センターえーる","province":"東京都","city":"練馬区","address":"練馬区石神井町8-1-10","lat":35.74519186,"lon":139.6016095},{"name":"春日町青少年館","province":"東京都","city":"練馬区","address":"練馬区春日町4-16-9","lat":35.75254484,"lon":139.6391099},{"name":"南大泉青少年館","province":"東京都","city":"練馬区","address":"練馬区南大泉1-44-7","lat":35.74323972,"lon":139.574769},{"name":"学校教育支援センター","province":"東京都","city":"練馬区","address":"練馬区光が丘6-4-1","lat":35.76053206,"lon":139.6229299},{"name":"学校教育支援センター練馬","province":"東京都","city":"練馬区","address":"練馬区豊玉北5-15-19","lat":35.73601694,"lon":139.6548163},{"name":"学校教育支援センター関","province":"東京都","city":"練馬区","address":"練馬区関町北1-21-15","lat":35.72653052,"lon":139.5785937},{"name":"学校教育支援センター大泉","province":"東京都","city":"練馬区","address":"練馬区東大泉3-18-9","lat":35.75158026,"lon":139.5866995},{"name":"生涯学習センター","province":"東京都","city":"練馬区","address":"練馬区豊玉北6-8-1","lat":35.7342428,"lon":139.6519894},{"name":"生涯学習センター分館","province":"東京都","city":"練馬区","address":"練馬区高野台2-25-1","lat":35.74806639,"lon":139.6212067},{"name":"練馬区役所","province":"東京都","city":"練馬区","address":"練馬区豊玉北6-12-1","lat":35.73578858,"lon":139.6515339},{"name":"石神井庁舎","province":"東京都","city":"練馬区","address":"練馬区石神井町3-30-26","lat":35.7434728,"lon":139.6025527},{"name":"＊?春日町青少年館","province":"東京都","city":"練馬区","address":"練馬区春日町4-16-9","lat":35.752567,"lon":139.639232},{"name":"＊?南大泉青少年館","province":"東京都","city":"練馬区","address":"練馬区南大泉1-44-7","lat":35.743367,"lon":139.574898},{"name":"練馬区本庁舎","province":"東京都","city":"練馬区","address":"練馬区豊玉北6-12-1","lat":35.735573,"lon":139.651671},{"name":"男女共同参画センターえーる","province":"東京都","city":"練馬区","address":"練馬区石神井町8-1-10","lat":35.74519186,"lon":139.6016095},{"name":"春日町青少年館","province":"東京都","city":"練馬区","address":"練馬区春日町4-16-9","lat":35.75254484,"lon":139.6391099},{"name":"南大泉青少年館","province":"東京都","city":"練馬区","address":"練馬区南大泉1-44-7","lat":35.74323972,"lon":139.574769},{"name":"学校教育支援センター","province":"東京都","city":"練馬区","address":"練馬区光が丘6-4-1","lat":35.76053206,"lon":139.6229299},{"name":"学校教育支援センター練馬","province":"東京都","city":"練馬区","address":"練馬区豊玉北5-15-19","lat":35.73601694,"lon":139.6548163},{"name":"学校教育支援センター関","province":"東京都","city":"練馬区","address":"練馬区関町北1-21-15","lat":35.72653052,"lon":139.5785937},{"name":"学校教育支援センター大泉","province":"東京都","city":"練馬区","address":"練馬区東大泉3-18-9","lat":35.75158026,"lon":139.5866995},{"name":"生涯学習センター","province":"東京都","city":"練馬区","address":"練馬区豊玉北6-8-1","lat":35.7342428,"lon":139.6519894},{"name":"生涯学習センター分館","province":"東京都","city":"練馬区","address":"練馬区高野台2-25-1","lat":35.74806639,"lon":139.6212067},{"name":"練馬区役所","province":"東京都","city":"練馬区","address":"練馬区豊玉北6-12-1","lat":35.73578858,"lon":139.6515339},{"name":"石神井庁舎","province":"東京都","city":"練馬区","address":"練馬区石神井町3-30-26","lat":35.7434728,"lon":139.6025527},{"name":"＊?春日町青少年館","province":"東京都","city":"練馬区","address":"練馬区春日町4-16-9","lat":35.752567,"lon":139.639232},{"name":"＊?南大泉青少年館","province":"東京都","city":"練馬区","address":"練馬区南大泉1-44-7","lat":35.743367,"lon":139.574898},{"name":"練馬区本庁舎","province":"東京都","city":"練馬区","address":"練馬区豊玉北6-12-1","lat":35.735573,"lon":139.651671},{"name":"男女共同参画センターえーる","province":"東京都","city":"練馬区","address":"練馬区石神井町8-1-10","lat":35.74519186,"lon":139.6016095},{"name":"春日町青少年館","province":"東京都","city":"練馬区","address":"練馬区春日町4-16-9","lat":35.75254484,"lon":139.6391099},{"name":"南大泉青少年館","province":"東京都","city":"練馬区","address":"練馬区南大泉1-44-7","lat":35.74323972,"lon":139.574769},{"name":"学校教育支援センター","province":"東京都","city":"練馬区","address":"練馬区光が丘6-4-1","lat":35.76053206,"lon":139.6229299},{"name":"学校教育支援センター練馬","province":"東京都","city":"練馬区","address":"練馬区豊玉北5-15-19","lat":35.73601694,"lon":139.6548163},{"name":"学校教育支援センター関","province":"東京都","city":"練馬区","address":"練馬区関町北1-21-15","lat":35.72653052,"lon":139.5785937},{"name":"学校教育支援センター大泉","province":"東京都","city":"練馬区","address":"練馬区東大泉3-18-9","lat":35.75158026,"lon":139.5866995},{"name":"生涯学習センター","province":"東京都","city":"練馬区","address":"練馬区豊玉北6-8-1","lat":35.7342428,"lon":139.6519894},{"name":"生涯学習センター分館","province":"東京都","city":"練馬区","address":"練馬区高野台2-25-1","lat":35.74806639,"lon":139.6212067},{"name":"練馬区役所","province":"東京都","city":"練馬区","address":"練馬区豊玉北6-12-1","lat":35.73578858,"lon":139.6515339},{"name":"石神井庁舎","province":"東京都","city":"練馬区","address":"練馬区石神井町3-30-26","lat":35.7434728,"lon":139.6025527},{"name":"＊?春日町青少年館","province":"東京都","city":"練馬区","address":"練馬区春日町4-16-9","lat":35.752567,"lon":139.639232},{"name":"＊?南大泉青少年館","province":"東京都","city":"練馬区","address":"練馬区南大泉1-44-7","lat":35.743367,"lon":139.574898},{"name":"練馬区本庁舎","province":"東京都","city":"練馬区","address":"練馬区豊玉北6-12-1","lat":35.735573,"lon":139.651671},{"name":"男女共同参画センターえーる","province":"東京都","city":"練馬区","address":"練馬区石神井町8-1-10","lat":35.74519186,"lon":139.6016095},{"name":"春日町青少年館","province":"東京都","city":"練馬区","address":"練馬区春日町4-16-9","lat":35.75254484,"lon":139.6391099},{"name":"南大泉青少年館","province":"東京都","city":"練馬区","address":"練馬区南大泉1-44-7","lat":35.74323972,"lon":139.574769},{"name":"学校教育支援センター","province":"東京都","city":"練馬区","address":"練馬区光が丘6-4-1","lat":35.76053206,"lon":139.6229299},{"name":"学校教育支援センター練馬","province":"東京都","city":"練馬区","address":"練馬区豊玉北5-15-19","lat":35.73601694,"lon":139.6548163},{"name":"学校教育支援センター関","province":"東京都","city":"練馬区","address":"練馬区関町北1-21-15","lat":35.72653052,"lon":139.5785937},{"name":"学校教育支援センター大泉","province":"東京都","city":"練馬区","address":"練馬区東大泉3-18-9","lat":35.75158026,"lon":139.5866995},{"name":"生涯学習センター","province":"東京都","city":"練馬区","address":"練馬区豊玉北6-8-1","lat":35.7342428,"lon":139.6519894},{"name":"生涯学習センター分館","province":"東京都","city":"練馬区","address":"練馬区高野台2-25-1","lat":35.74806639,"lon":139.6212067},{"name":"練馬区役所","province":"東京都","city":"練馬区","address":"練馬区豊玉北6-12-1","lat":35.73578858,"lon":139.6515339},{"name":"石神井庁舎","province":"東京都","city":"練馬区","address":"練馬区石神井町3-30-26","lat":35.7434728,"lon":139.6025527},{"name":"＊?春日町青少年館","province":"東京都","city":"練馬区","address":"練馬区春日町4-16-9","lat":35.752567,"lon":139.639232},{"name":"＊?南大泉青少年館","province":"東京都","city":"練馬区","address":"練馬区南大泉1-44-7","lat":35.743367,"lon":139.574898},{"name":"練馬区本庁舎","province":"東京都","city":"練馬区","address":"練馬区豊玉北6-12-1","lat":35.735573,"lon":139.651671},{"name":"男女共同参画センターえーる","province":"東京都","city":"練馬区","address":"練馬区石神井町8-1-10","lat":35.74519186,"lon":139.6016095},{"name":"春日町青少年館","province":"東京都","city":"練馬区","address":"練馬区春日町4-16-9","lat":35.75254484,"lon":139.6391099},{"name":"南大泉青少年館","province":"東京都","city":"練馬区","address":"練馬区南大泉1-44-7","lat":35.74323972,"lon":139.574769},{"name":"学校教育支援センター","province":"東京都","city":"練馬区","address":"練馬区光が丘6-4-1","lat":35.76053206,"lon":139.6229299},{"name":"学校教育支援センター練馬","province":"東京都","city":"練馬区","address":"練馬区豊玉北5-15-19","lat":35.73601694,"lon":139.6548163},{"name":"学校教育支援センター関","province":"東京都","city":"練馬区","address":"練馬区関町北1-21-15","lat":35.72653052,"lon":139.5785937},{"name":"学校教育支援センター大泉","province":"東京都","city":"練馬区","address":"練馬区東大泉3-18-9","lat":35.75158026,"lon":139.5866995},{"name":"生涯学習センター","province":"東京都","city":"練馬区","address":"練馬区豊玉北6-8-1","lat":35.7342428,"lon":139.6519894},{"name":"生涯学習センター分館","province":"東京都","city":"練馬区","address":"練馬区高野台2-25-1","lat":35.74806639,"lon":139.6212067},{"name":"練馬区役所","province":"東京都","city":"練馬区","address":"練馬区豊玉北6-12-1","lat":35.73578858,"lon":139.6515339},{"name":"石神井庁舎","province":"東京都","city":"練馬区","address":"練馬区石神井町3-30-26","lat":35.7434728,"lon":139.6025527},{"name":"＊?春日町青少年館","province":"東京都","city":"練馬区","address":"練馬区春日町4-16-9","lat":35.752567,"lon":139.639232},{"name":"＊?南大泉青少年館","province":"東京都","city":"練馬区","address":"練馬区南大泉1-44-7","lat":35.743367,"lon":139.574898},{"name":"練馬区本庁舎","province":"東京都","city":"練馬区","address":"練馬区豊玉北6-12-1","lat":35.735573,"lon":139.651671},{"name":"男女共同参画センターえーる","province":"東京都","city":"練馬区","address":"練馬区石神井町8-1-10","lat":35.74519186,"lon":139.6016095},{"name":"春日町青少年館","province":"東京都","city":"練馬区","address":"練馬区春日町4-16-9","lat":35.75254484,"lon":139.6391099},{"name":"南大泉青少年館","province":"東京都","city":"練馬区","address":"練馬区南大泉1-44-7","lat":35.74323972,"lon":139.574769},{"name":"学校教育支援センター","province":"東京都","city":"練馬区","address":"練馬区光が丘6-4-1","lat":35.76053206,"lon":139.6229299},{"name":"学校教育支援センター練馬","province":"東京都","city":"練馬区","address":"練馬区豊玉北5-15-19","lat":35.73601694,"lon":139.6548163},{"name":"学校教育支援センター関","province":"東京都","city":"練馬区","address":"練馬区関町北1-21-15","lat":35.72653052,"lon":139.5785937},{"name":"学校教育支援センター大泉","province":"東京都","city":"練馬区","address":"練馬区東大泉3-18-9","lat":35.75158026,"lon":139.5866995},{"name":"生涯学習センター","province":"東京都","city":"練馬区","address":"練馬区豊玉北6-8-1","lat":35.7342428,"lon":139.6519894},{"name":"生涯学習センター分館","province":"東京都","city":"練馬区","address":"練馬区高野台2-25-1","lat":35.74806639,"lon":139.6212067},{"name":"練馬区役所","province":"東京都","city":"練馬区","address":"練馬区豊玉北6-12-1","lat":35.73578858,"lon":139.6515339},{"name":"石神井庁舎","province":"東京都","city":"練馬区","address":"練馬区石神井町3-30-26","lat":35.7434728,"lon":139.6025527},{"name":"＊?春日町青少年館","province":"東京都","city":"練馬区","address":"練馬区春日町4-16-9","lat":35.752567,"lon":139.639232},{"name":"＊?南大泉青少年館","province":"東京都","city":"練馬区","address":"練馬区南大泉1-44-7","lat":35.743367,"lon":139.574898},{"name":"練馬区本庁舎","province":"東京都","city":"練馬区","address":"練馬区豊玉北6-12-1","lat":35.735573,"lon":139.651671},{"name":"男女共同参画センターえーる","province":"東京都","city":"練馬区","address":"練馬区石神井町8-1-10","lat":35.74519186,"lon":139.6016095},{"name":"春日町青少年館","province":"東京都","city":"練馬区","address":"練馬区春日町4-16-9","lat":35.75254484,"lon":139.6391099},{"name":"南大泉青少年館","province":"東京都","city":"練馬区","address":"練馬区南大泉1-44-7","lat":35.74323972,"lon":139.574769},{"name":"学校教育支援センター","province":"東京都","city":"練馬区","address":"練馬区光が丘6-4-1","lat":35.76053206,"lon":139.6229299},{"name":"学校教育支援センター練馬","province":"東京都","city":"練馬区","address":"練馬区豊玉北5-15-19","lat":35.73601694,"lon":139.6548163},{"name":"学校教育支援センター関","province":"東京都","city":"練馬区","address":"練馬区関町北1-21-15","lat":35.72653052,"lon":139.5785937},{"name":"学校教育支援センター大泉","province":"東京都","city":"練馬区","address":"練馬区東大泉3-18-9","lat":35.75158026,"lon":139.5866995},{"name":"生涯学習センター","province":"東京都","city":"練馬区","address":"練馬区豊玉北6-8-1","lat":35.7342428,"lon":139.6519894},{"name":"生涯学習センター分館","province":"東京都","city":"練馬区","address":"練馬区高野台2-25-1","lat":35.74806639,"lon":139.6212067},{"name":"練馬区役所","province":"東京都","city":"練馬区","address":"練馬区豊玉北6-12-1","lat":35.73578858,"lon":139.6515339},{"name":"石神井庁舎","province":"東京都","city":"練馬区","address":"練馬区石神井町3-30-26","lat":35.7434728,"lon":139.6025527},{"name":"＊?春日町青少年館","province":"東京都","city":"練馬区","address":"練馬区春日町4-16-9","lat":35.752567,"lon":139.639232},{"name":"＊?南大泉青少年館","province":"東京都","city":"練馬区","address":"練馬区南大泉1-44-7","lat":35.743367,"lon":139.574898},{"name":"練馬区本庁舎","province":"東京都","city":"練馬区","address":"練馬区豊玉北6-12-1","lat":35.735573,"lon":139.651671},{"name":"男女共同参画センターえーる","province":"東京都","city":"練馬区","address":"練馬区石神井町8-1-10","lat":35.74519186,"lon":139.6016095},{"name":"春日町青少年館","province":"東京都","city":"練馬区","address":"練馬区春日町4-16-9","lat":35.75254484,"lon":139.6391099},{"name":"南大泉青少年館","province":"東京都","city":"練馬区","address":"練馬区南大泉1-44-7","lat":35.74323972,"lon":139.574769},{"name":"学校教育支援センター","province":"東京都","city":"練馬区","address":"練馬区光が丘6-4-1","lat":35.76053206,"lon":139.6229299},{"name":"学校教育支援センター練馬","province":"東京都","city":"練馬区","address":"練馬区豊玉北5-15-19","lat":35.73601694,"lon":139.6548163},{"name":"学校教育支援センター関","province":"東京都","city":"練馬区","address":"練馬区関町北1-21-15","lat":35.72653052,"lon":139.5785937},{"name":"学校教育支援センター大泉","province":"東京都","city":"練馬区","address":"練馬区東大泉3-18-9","lat":35.75158026,"lon":139.5866995},{"name":"生涯学習センター","province":"東京都","city":"練馬区","address":"練馬区豊玉北6-8-1","lat":35.7342428,"lon":139.6519894},{"name":"生涯学習センター分館","province":"東京都","city":"練馬区","address":"練馬区高野台2-25-1","lat":35.74806639,"lon":139.6212067},{"name":"練馬区役所","province":"東京都","city":"練馬区","address":"練馬区豊玉北6-12-1","lat":35.73578858,"lon":139.6515339},{"name":"石神井庁舎","province":"東京都","city":"練馬区","address":"練馬区石神井町3-30-26","lat":35.7434728,"lon":139.6025527},{"name":"＊?春日町青少年館","province":"東京都","city":"練馬区","address":"練馬区春日町4-16-9","lat":35.752567,"lon":139.639232},{"name":"＊?南大泉青少年館","province":"東京都","city":"練馬区","address":"練馬区南大泉1-44-7","lat":35.743367,"lon":139.574898},{"name":"男女共同参画センターえーる","province":"東京都","city":"練馬区","address":"練馬区石神井町8-1-10","lat":35.74519186,"lon":139.6016095},{"name":"春日町青少年館","province":"東京都","city":"練馬区","address":"練馬区春日町4-16-9","lat":35.75254484,"lon":139.6391099},{"name":"南大泉青少年館","province":"東京都","city":"練馬区","address":"練馬区南大泉1-44-7","lat":35.74323972,"lon":139.574769},{"name":"学校教育支援センター","province":"東京都","city":"練馬区","address":"練馬区光が丘6-4-1","lat":35.76053206,"lon":139.6229299},{"name":"学校教育支援センター練馬","province":"東京都","city":"練馬区","address":"練馬区豊玉北5-15-19","lat":35.73601694,"lon":139.6548163},{"name":"学校教育支援センター関","province":"東京都","city":"練馬区","address":"練馬区関町北1-21-15","lat":35.72653052,"lon":139.5785937},{"name":"学校教育支援センター大泉","province":"東京都","city":"練馬区","address":"練馬区東大泉3-18-9","lat":35.75158026,"lon":139.5866995},{"name":"生涯学習センター","province":"東京都","city":"練馬区","address":"練馬区豊玉北6-8-1","lat":35.7342428,"lon":139.6519894},{"name":"生涯学習センター分館","province":"東京都","city":"練馬区","address":"練馬区高野台2-25-1","lat":35.74806639,"lon":139.6212067},{"name":"練馬区役所","province":"東京都","city":"練馬区","address":"練馬区豊玉北6-12-1","lat":35.73578858,"lon":139.6515339},{"name":"石神井庁舎","province":"東京都","city":"練馬区","address":"練馬区石神井町3-30-26","lat":35.7434728,"lon":139.6025527},{"name":"＊?春日町青少年館","province":"東京都","city":"練馬区","address":"練馬区春日町4-16-9","lat":35.752567,"lon":139.639232},{"name":"＊?南大泉青少年館","province":"東京都","city":"練馬区","address":"練馬区南大泉1-44-7","lat":35.743367,"lon":139.574898},{"name":"男女共同参画センターえーる","province":"東京都","city":"練馬区","address":"練馬区石神井町8-1-10","lat":35.74519186,"lon":139.6016095},{"name":"春日町青少年館","province":"東京都","city":"練馬区","address":"練馬区春日町4-16-9","lat":35.75254484,"lon":139.6391099},{"name":"南大泉青少年館","province":"東京都","city":"練馬区","address":"練馬区南大泉1-44-7","lat":35.74323972,"lon":139.574769},{"name":"学校教育支援センター","province":"東京都","city":"練馬区","address":"練馬区光が丘6-4-1","lat":35.76053206,"lon":139.6229299},{"name":"学校教育支援センター練馬","province":"東京都","city":"練馬区","address":"練馬区豊玉北5-15-19","lat":35.73601694,"lon":139.6548163},{"name":"学校教育支援センター関","province":"東京都","city":"練馬区","address":"練馬区関町北1-21-15","lat":35.72653052,"lon":139.5785937},{"name":"学校教育支援センター大泉","province":"東京都","city":"練馬区","address":"練馬区東大泉3-18-9","lat":35.75158026,"lon":139.5866995},{"name":"生涯学習センター","province":"東京都","city":"練馬区","address":"練馬区豊玉北6-8-1","lat":35.7342428,"lon":139.6519894},{"name":"生涯学習センター分館","province":"東京都","city":"練馬区","address":"練馬区高野台2-25-1","lat":35.74806639,"lon":139.6212067},{"name":"練馬区役所","province":"東京都","city":"練馬区","address":"練馬区豊玉北6-12-1","lat":35.73578858,"lon":139.6515339},{"name":"石神井庁舎","province":"東京都","city":"練馬区","address":"練馬区石神井町3-30-26","lat":35.7434728,"lon":139.6025527},{"name":"＊?春日町青少年館","province":"東京都","city":"練馬区","address":"練馬区春日町4-16-9","lat":35.752567,"lon":139.639232},{"name":"＊?南大泉青少年館","province":"東京都","city":"練馬区","address":"練馬区南大泉1-44-7","lat":35.743367,"lon":139.574898},{"name":"男女共同参画センターえーる","province":"東京都","city":"練馬区","address":"練馬区石神井町8-1-10","lat":35.74519186,"lon":139.6016095},{"name":"春日町青少年館","province":"東京都","city":"練馬区","address":"練馬区春日町4-16-9","lat":35.75254484,"lon":139.6391099},{"name":"南大泉青少年館","province":"東京都","city":"練馬区","address":"練馬区南大泉1-44-7","lat":35.74323972,"lon":139.574769},{"name":"学校教育支援センター","province":"東京都","city":"練馬区","address":"練馬区光が丘6-4-1","lat":35.76053206,"lon":139.6229299},{"name":"学校教育支援センター練馬","province":"東京都","city":"練馬区","address":"練馬区豊玉北5-15-19","lat":35.73601694,"lon":139.6548163},{"name":"学校教育支援センター関","province":"東京都","city":"練馬区","address":"練馬区関町北1-21-15","lat":35.72653052,"lon":139.5785937},{"name":"学校教育支援センター大泉","province":"東京都","city":"練馬区","address":"練馬区東大泉3-18-9","lat":35.75158026,"lon":139.5866995},{"name":"生涯学習センター","province":"東京都","city":"練馬区","address":"練馬区豊玉北6-8-1","lat":35.7342428,"lon":139.6519894},{"name":"生涯学習センター分館","province":"東京都","city":"練馬区","address":"練馬区高野台2-25-1","lat":35.74806639,"lon":139.6212067},{"name":"練馬区役所","province":"東京都","city":"練馬区","address":"練馬区豊玉北6-12-1","lat":35.73578858,"lon":139.6515339},{"name":"石神井庁舎","province":"東京都","city":"練馬区","address":"練馬区石神井町3-30-26","lat":35.7434728,"lon":139.6025527},{"name":"＊?春日町青少年館","province":"東京都","city":"練馬区","address":"練馬区春日町4-16-9","lat":35.752567,"lon":139.639232},{"name":"＊?南大泉青少年館","province":"東京都","city":"練馬区","address":"練馬区南大泉1-44-7","lat":35.743367,"lon":139.574898},{"name":"男女共同参画センターえーる","province":"東京都","city":"練馬区","address":"練馬区石神井町8-1-10","lat":35.74519186,"lon":139.6016095},{"name":"春日町青少年館","province":"東京都","city":"練馬区","address":"練馬区春日町4-16-9","lat":35.75254484,"lon":139.6391099},{"name":"南大泉青少年館","province":"東京都","city":"練馬区","address":"練馬区南大泉1-44-7","lat":35.74323972,"lon":139.574769},{"name":"学校教育支援センター","province":"東京都","city":"練馬区","address":"練馬区光が丘6-4-1","lat":35.76053206,"lon":139.6229299},{"name":"学校教育支援センター練馬","province":"東京都","city":"練馬区","address":"練馬区豊玉北5-15-19","lat":35.73601694,"lon":139.6548163},{"name":"学校教育支援センター関","province":"東京都","city":"練馬区","address":"練馬区関町北1-21-15","lat":35.72653052,"lon":139.5785937},{"name":"学校教育支援センター大泉","province":"東京都","city":"練馬区","address":"練馬区東大泉3-18-9","lat":35.75158026,"lon":139.5866995},{"name":"生涯学習センター","province":"東京都","city":"練馬区","address":"練馬区豊玉北6-8-1","lat":35.7342428,"lon":139.6519894},{"name":"生涯学習センター分館","province":"東京都","city":"練馬区","address":"練馬区高野台2-25-1","lat":35.74806639,"lon":139.6212067},{"name":"練馬区役所","province":"東京都","city":"練馬区","address":"練馬区豊玉北6-12-1","lat":35.73578858,"lon":139.6515339},{"name":"石神井庁舎","province":"東京都","city":"練馬区","address":"練馬区石神井町3-30-26","lat":35.7434728,"lon":139.6025527},{"name":"＊?春日町青少年館","province":"東京都","city":"練馬区","address":"練馬区春日町4-16-9","lat":35.752567,"lon":139.639232},{"name":"＊?南大泉青少年館","province":"東京都","city":"練馬区","address":"練馬区南大泉1-44-7","lat":35.743367,"lon":139.574898},{"name":"男女共同参画センターえーる","province":"東京都","city":"練馬区","address":"練馬区石神井町8-1-10","lat":35.74519186,"lon":139.6016095},{"name":"春日町青少年館","province":"東京都","city":"練馬区","address":"練馬区春日町4-16-9","lat":35.75254484,"lon":139.6391099},{"name":"南大泉青少年館","province":"東京都","city":"練馬区","address":"練馬区南大泉1-44-7","lat":35.74323972,"lon":139.574769},{"name":"学校教育支援センター","province":"東京都","city":"練馬区","address":"練馬区光が丘6-4-1","lat":35.76053206,"lon":139.6229299},{"name":"学校教育支援センター練馬","province":"東京都","city":"練馬区","address":"練馬区豊玉北5-15-19","lat":35.73601694,"lon":139.6548163},{"name":"学校教育支援センター関","province":"東京都","city":"練馬区","address":"練馬区関町北1-21-15","lat":35.72653052,"lon":139.5785937},{"name":"学校教育支援センター大泉","province":"東京都","city":"練馬区","address":"練馬区東大泉3-18-9","lat":35.75158026,"lon":139.5866995},{"name":"生涯学習センター","province":"東京都","city":"練馬区","address":"練馬区豊玉北6-8-1","lat":35.7342428,"lon":139.6519894},{"name":"生涯学習センター分館","province":"東京都","city":"練馬区","address":"練馬区高野台2-25-1","lat":35.74806639,"lon":139.6212067},{"name":"練馬区役所","province":"東京都","city":"練馬区","address":"練馬区豊玉北6-12-1","lat":35.73578858,"lon":139.6515339},{"name":"石神井庁舎","province":"東京都","city":"練馬区","address":"練馬区石神井町3-30-26","lat":35.7434728,"lon":139.6025527},{"name":"＊?春日町青少年館","province":"東京都","city":"練馬区","address":"練馬区春日町4-16-9","lat":35.752567,"lon":139.639232},{"name":"＊?南大泉青少年館","province":"東京都","city":"練馬区","address":"練馬区南大泉1-44-7","lat":35.743367,"lon":139.574898},{"name":"男女共同参画センターえーる","province":"東京都","city":"練馬区","address":"練馬区石神井町8-1-10","lat":35.74519186,"lon":139.6016095},{"name":"春日町青少年館","province":"東京都","city":"練馬区","address":"練馬区春日町4-16-9","lat":35.75254484,"lon":139.6391099},{"name":"南大泉青少年館","province":"東京都","city":"練馬区","address":"練馬区南大泉1-44-7","lat":35.74323972,"lon":139.574769},{"name":"学校教育支援センター","province":"東京都","city":"練馬区","address":"練馬区光が丘6-4-1","lat":35.76053206,"lon":139.6229299},{"name":"学校教育支援センター練馬","province":"東京都","city":"練馬区","address":"練馬区豊玉北5-15-19","lat":35.73601694,"lon":139.6548163},{"name":"学校教育支援センター関","province":"東京都","city":"練馬区","address":"練馬区関町北1-21-15","lat":35.72653052,"lon":139.5785937},{"name":"学校教育支援センター大泉","province":"東京都","city":"練馬区","address":"練馬区東大泉3-18-9","lat":35.75158026,"lon":139.5866995},{"name":"生涯学習センター","province":"東京都","city":"練馬区","address":"練馬区豊玉北6-8-1","lat":35.7342428,"lon":139.6519894},{"name":"生涯学習センター分館","province":"東京都","city":"練馬区","address":"練馬区高野台2-25-1","lat":35.74806639,"lon":139.6212067},{"name":"練馬区役所","province":"東京都","city":"練馬区","address":"練馬区豊玉北6-12-1","lat":35.73578858,"lon":139.6515339},{"name":"石神井庁舎","province":"東京都","city":"練馬区","address":"練馬区石神井町3-30-26","lat":35.7434728,"lon":139.6025527},{"name":"＊?春日町青少年館","province":"東京都","city":"練馬区","address":"練馬区春日町4-16-9","lat":35.752567,"lon":139.639232},{"name":"＊?南大泉青少年館","province":"東京都","city":"練馬区","address":"練馬区南大泉1-44-7","lat":35.743367,"lon":139.574898},{"name":"男女共同参画センターえーる","province":"東京都","city":"練馬区","address":"練馬区石神井町8-1-10","lat":35.74519186,"lon":139.6016095},{"name":"春日町青少年館","province":"東京都","city":"練馬区","address":"練馬区春日町4-16-9","lat":35.75254484,"lon":139.6391099},{"name":"南大泉青少年館","province":"東京都","city":"練馬区","address":"練馬区南大泉1-44-7","lat":35.74323972,"lon":139.574769},{"name":"学校教育支援センター","province":"東京都","city":"練馬区","address":"練馬区光が丘6-4-1","lat":35.76053206,"lon":139.6229299},{"name":"学校教育支援センター練馬","province":"東京都","city":"練馬区","address":"練馬区豊玉北5-15-19","lat":35.73601694,"lon":139.6548163},{"name":"学校教育支援センター関","province":"東京都","city":"練馬区","address":"練馬区関町北1-21-15","lat":35.72653052,"lon":139.5785937},{"name":"学校教育支援センター大泉","province":"東京都","city":"練馬区","address":"練馬区東大泉3-18-9","lat":35.75158026,"lon":139.5866995},{"name":"生涯学習センター","province":"東京都","city":"練馬区","address":"練馬区豊玉北6-8-1","lat":35.7342428,"lon":139.6519894},{"name":"生涯学習センター分館","province":"東京都","city":"練馬区","address":"練馬区高野台2-25-1","lat":35.74806639,"lon":139.6212067},{"name":"練馬区役所","province":"東京都","city":"練馬区","address":"練馬区豊玉北6-12-1","lat":35.73578858,"lon":139.6515339},{"name":"石神井庁舎","province":"東京都","city":"練馬区","address":"練馬区石神井町3-30-26","lat":35.7434728,"lon":139.6025527},{"name":"＊?春日町青少年館","province":"東京都","city":"練馬区","address":"練馬区春日町4-16-9","lat":35.752567,"lon":139.639232},{"name":"＊?南大泉青少年館","province":"東京都","city":"練馬区","address":"練馬区南大泉1-44-7","lat":35.743367,"lon":139.574898},{"name":"男女共同参画センターえーる","province":"東京都","city":"練馬区","address":"練馬区石神井町8-1-10","lat":35.74519186,"lon":139.6016095},{"name":"春日町青少年館","province":"東京都","city":"練馬区","address":"練馬区春日町4-16-9","lat":35.75254484,"lon":139.6391099},{"name":"南大泉青少年館","province":"東京都","city":"練馬区","address":"練馬区南大泉1-44-7","lat":35.74323972,"lon":139.574769},{"name":"学校教育支援センター","province":"東京都","city":"練馬区","address":"練馬区光が丘6-4-1","lat":35.76053206,"lon":139.6229299},{"name":"学校教育支援センター練馬","province":"東京都","city":"練馬区","address":"練馬区豊玉北5-15-19","lat":35.73601694,"lon":139.6548163},{"name":"学校教育支援センター関","province":"東京都","city":"練馬区","address":"練馬区関町北1-21-15","lat":35.72653052,"lon":139.5785937},{"name":"学校教育支援センター大泉","province":"東京都","city":"練馬区","address":"練馬区東大泉3-18-9","lat":35.75158026,"lon":139.5866995},{"name":"生涯学習センター","province":"東京都","city":"練馬区","address":"練馬区豊玉北6-8-1","lat":35.7342428,"lon":139.6519894},{"name":"生涯学習センター分館","province":"東京都","city":"練馬区","address":"練馬区高野台2-25-1","lat":35.74806639,"lon":139.6212067},{"name":"練馬区役所","province":"東京都","city":"練馬区","address":"練馬区豊玉北6-12-1","lat":35.73578858,"lon":139.6515339},{"name":"石神井庁舎","province":"東京都","city":"練馬区","address":"練馬区石神井町3-30-26","lat":35.7434728,"lon":139.6025527},{"name":"＊?春日町青少年館","province":"東京都","city":"練馬区","address":"練馬区春日町4-16-9","lat":35.752567,"lon":139.639232},{"name":"＊?南大泉青少年館","province":"東京都","city":"練馬区","address":"練馬区南大泉1-44-7","lat":35.743367,"lon":139.574898},{"name":"男女共同参画センターえーる","province":"東京都","city":"練馬区","address":"練馬区石神井町8-1-10","lat":35.74519186,"lon":139.6016095},{"name":"春日町青少年館","province":"東京都","city":"練馬区","address":"練馬区春日町4-16-9","lat":35.75254484,"lon":139.6391099},{"name":"南大泉青少年館","province":"東京都","city":"練馬区","address":"練馬区南大泉1-44-7","lat":35.74323972,"lon":139.574769},{"name":"学校教育支援センター","province":"東京都","city":"練馬区","address":"練馬区光が丘6-4-1","lat":35.76053206,"lon":139.6229299},{"name":"学校教育支援センター練馬","province":"東京都","city":"練馬区","address":"練馬区豊玉北5-15-19","lat":35.73601694,"lon":139.6548163},{"name":"学校教育支援センター関","province":"東京都","city":"練馬区","address":"練馬区関町北1-21-15","lat":35.72653052,"lon":139.5785937},{"name":"学校教育支援センター大泉","province":"東京都","city":"練馬区","address":"練馬区東大泉3-18-9","lat":35.75158026,"lon":139.5866995},{"name":"生涯学習センター","province":"東京都","city":"練馬区","address":"練馬区豊玉北6-8-1","lat":35.7342428,"lon":139.6519894},{"name":"生涯学習センター分館","province":"東京都","city":"練馬区","address":"練馬区高野台2-25-1","lat":35.74806639,"lon":139.6212067},{"name":"練馬区役所","province":"東京都","city":"練馬区","address":"練馬区豊玉北6-12-1","lat":35.73578858,"lon":139.6515339},{"name":"石神井庁舎","province":"東京都","city":"練馬区","address":"練馬区石神井町3-30-26","lat":35.7434728,"lon":139.6025527},{"name":"＊?春日町青少年館","province":"東京都","city":"練馬区","address":"練馬区春日町4-16-9","lat":35.752567,"lon":139.639232},{"name":"＊?南大泉青少年館","province":"東京都","city":"練馬区","address":"練馬区南大泉1-44-7","lat":35.743367,"lon":139.574898},{"name":"男女共同参画センターえーる","province":"東京都","city":"練馬区","address":"練馬区石神井町8-1-10","lat":35.74519186,"lon":139.6016095},{"name":"春日町青少年館","province":"東京都","city":"練馬区","address":"練馬区春日町4-16-9","lat":35.75254484,"lon":139.6391099},{"name":"南大泉青少年館","province":"東京都","city":"練馬区","address":"練馬区南大泉1-44-7","lat":35.74323972,"lon":139.574769},{"name":"学校教育支援センター","province":"東京都","city":"練馬区","address":"練馬区光が丘6-4-1","lat":35.76053206,"lon":139.6229299},{"name":"学校教育支援センター練馬","province":"東京都","city":"練馬区","address":"練馬区豊玉北5-15-19","lat":35.73601694,"lon":139.6548163},{"name":"学校教育支援センター関","province":"東京都","city":"練馬区","address":"練馬区関町北1-21-15","lat":35.72653052,"lon":139.5785937},{"name":"学校教育支援センター大泉","province":"東京都","city":"練馬区","address":"練馬区東大泉3-18-9","lat":35.75158026,"lon":139.5866995},{"name":"生涯学習センター","province":"東京都","city":"練馬区","address":"練馬区豊玉北6-8-1","lat":35.7342428,"lon":139.6519894},{"name":"生涯学習センター分館","province":"東京都","city":"練馬区","address":"練馬区高野台2-25-1","lat":35.74806639,"lon":139.6212067},{"name":"練馬区役所","province":"東京都","city":"練馬区","address":"練馬区豊玉北6-12-1","lat":35.73578858,"lon":139.6515339},{"name":"石神井庁舎","province":"東京都","city":"練馬区","address":"練馬区石神井町3-30-26","lat":35.7434728,"lon":139.6025527},{"name":"＊?春日町青少年館","province":"東京都","city":"練馬区","address":"練馬区春日町4-16-9","lat":35.752567,"lon":139.639232},{"name":"＊?南大泉青少年館","province":"東京都","city":"練馬区","address":"練馬区南大泉1-44-7","lat":35.743367,"lon":139.574898},{"name":"男女共同参画センターえーる","province":"東京都","city":"練馬区","address":"練馬区石神井町8-1-10","lat":35.74519186,"lon":139.6016095},{"name":"春日町青少年館","province":"東京都","city":"練馬区","address":"練馬区春日町4-16-9","lat":35.75254484,"lon":139.6391099},{"name":"南大泉青少年館","province":"東京都","city":"練馬区","address":"練馬区南大泉1-44-7","lat":35.74323972,"lon":139.574769},{"name":"学校教育支援センター","province":"東京都","city":"練馬区","address":"練馬区光が丘6-4-1","lat":35.76053206,"lon":139.6229299},{"name":"学校教育支援センター練馬","province":"東京都","city":"練馬区","address":"練馬区豊玉北5-15-19","lat":35.73601694,"lon":139.6548163},{"name":"学校教育支援センター関","province":"東京都","city":"練馬区","address":"練馬区関町北1-21-15","lat":35.72653052,"lon":139.5785937},{"name":"学校教育支援センター大泉","province":"東京都","city":"練馬区","address":"練馬区東大泉3-18-9","lat":35.75158026,"lon":139.5866995},{"name":"生涯学習センター","province":"東京都","city":"練馬区","address":"練馬区豊玉北6-8-1","lat":35.7342428,"lon":139.6519894},{"name":"生涯学習センター分館","province":"東京都","city":"練馬区","address":"練馬区高野台2-25-1","lat":35.74806639,"lon":139.6212067},{"name":"練馬区役所","province":"東京都","city":"練馬区","address":"練馬区豊玉北6-12-1","lat":35.73578858,"lon":139.6515339},{"name":"石神井庁舎","province":"東京都","city":"練馬区","address":"練馬区石神井町3-30-26","lat":35.7434728,"lon":139.6025527},{"name":"＊?春日町青少年館","province":"東京都","city":"練馬区","address":"練馬区春日町4-16-9","lat":35.752567,"lon":139.639232},{"name":"＊?南大泉青少年館","province":"東京都","city":"練馬区","address":"練馬区南大泉1-44-7","lat":35.743367,"lon":139.574898},{"name":"男女共同参画センターえーる","province":"東京都","city":"練馬区","address":"練馬区石神井町8-1-10","lat":35.74519186,"lon":139.6016095},{"name":"春日町青少年館","province":"東京都","city":"練馬区","address":"練馬区春日町4-16-9","lat":35.75254484,"lon":139.6391099},{"name":"南大泉青少年館","province":"東京都","city":"練馬区","address":"練馬区南大泉1-44-7","lat":35.74323972,"lon":139.574769},{"name":"学校教育支援センター","province":"東京都","city":"練馬区","address":"練馬区光が丘6-4-1","lat":35.76053206,"lon":139.6229299},{"name":"学校教育支援センター練馬","province":"東京都","city":"練馬区","address":"練馬区豊玉北5-15-19","lat":35.73601694,"lon":139.6548163},{"name":"学校教育支援センター関","province":"東京都","city":"練馬区","address":"練馬区関町北1-21-15","lat":35.72653052,"lon":139.5785937},{"name":"学校教育支援センター大泉","province":"東京都","city":"練馬区","address":"練馬区東大泉3-18-9","lat":35.75158026,"lon":139.5866995},{"name":"生涯学習センター","province":"東京都","city":"練馬区","address":"練馬区豊玉北6-8-1","lat":35.7342428,"lon":139.6519894},{"name":"生涯学習センター分館","province":"東京都","city":"練馬区","address":"練馬区高野台2-25-1","lat":35.74806639,"lon":139.6212067},{"name":"練馬区役所","province":"東京都","city":"練馬区","address":"練馬区豊玉北6-12-1","lat":35.73578858,"lon":139.6515339},{"name":"石神井庁舎","province":"東京都","city":"練馬区","address":"練馬区石神井町3-30-26","lat":35.7434728,"lon":139.6025527},{"name":"＊?春日町青少年館","province":"東京都","city":"練馬区","address":"練馬区春日町4-16-9","lat":35.752567,"lon":139.639232},{"name":"＊?南大泉青少年館","province":"東京都","city":"練馬区","address":"練馬区南大泉1-44-7","lat":35.743367,"lon":139.574898},{"name":"男女共同参画センターえーる","province":"東京都","city":"練馬区","address":"練馬区石神井町8-1-10","lat":35.74519186,"lon":139.6016095},{"name":"春日町青少年館","province":"東京都","city":"練馬区","address":"練馬区春日町4-16-9","lat":35.75254484,"lon":139.6391099},{"name":"南大泉青少年館","province":"東京都","city":"練馬区","address":"練馬区南大泉1-44-7","lat":35.74323972,"lon":139.574769},{"name":"学校教育支援センター","province":"東京都","city":"練馬区","address":"練馬区光が丘6-4-1","lat":35.76053206,"lon":139.6229299},{"name":"学校教育支援センター練馬","province":"東京都","city":"練馬区","address":"練馬区豊玉北5-15-19","lat":35.73601694,"lon":139.6548163},{"name":"学校教育支援センター関","province":"東京都","city":"練馬区","address":"練馬区関町北1-21-15","lat":35.72653052,"lon":139.5785937},{"name":"学校教育支援センター大泉","province":"東京都","city":"練馬区","address":"練馬区東大泉3-18-9","lat":35.75158026,"lon":139.5866995},{"name":"生涯学習センター","province":"東京都","city":"練馬区","address":"練馬区豊玉北6-8-1","lat":35.7342428,"lon":139.6519894},{"name":"生涯学習センター分館","province":"東京都","city":"練馬区","address":"練馬区高野台2-25-1","lat":35.74806639,"lon":139.6212067},{"name":"練馬区役所","province":"東京都","city":"練馬区","address":"練馬区豊玉北6-12-1","lat":35.73578858,"lon":139.6515339},{"name":"石神井庁舎","province":"東京都","city":"練馬区","address":"練馬区石神井町3-30-26","lat":35.7434728,"lon":139.6025527},{"name":"＊?春日町青少年館","province":"東京都","city":"練馬区","address":"練馬区春日町4-16-9","lat":35.752567,"lon":139.639232},{"name":"＊?南大泉青少年館","province":"東京都","city":"練馬区","address":"練馬区南大泉1-44-7","lat":35.743367,"lon":139.574898},{"name":"男女共同参画センターえーる","province":"東京都","city":"練馬区","address":"練馬区石神井町8-1-10","lat":35.74519186,"lon":139.6016095},{"name":"春日町青少年館","province":"東京都","city":"練馬区","address":"練馬区春日町4-16-9","lat":35.75254484,"lon":139.6391099},{"name":"南大泉青少年館","province":"東京都","city":"練馬区","address":"練馬区南大泉1-44-7","lat":35.74323972,"lon":139.574769},{"name":"学校教育支援センター","province":"東京都","city":"練馬区","address":"練馬区光が丘6-4-1","lat":35.76053206,"lon":139.6229299},{"name":"学校教育支援センター練馬","province":"東京都","city":"練馬区","address":"練馬区豊玉北5-15-19","lat":35.73601694,"lon":139.6548163},{"name":"学校教育支援センター関","province":"東京都","city":"練馬区","address":"練馬区関町北1-21-15","lat":35.72653052,"lon":139.5785937},{"name":"学校教育支援センター大泉","province":"東京都","city":"練馬区","address":"練馬区東大泉3-18-9","lat":35.75158026,"lon":139.5866995},{"name":"生涯学習センター","province":"東京都","city":"練馬区","address":"練馬区豊玉北6-8-1","lat":35.7342428,"lon":139.6519894},{"name":"生涯学習センター分館","province":"東京都","city":"練馬区","address":"練馬区高野台2-25-1","lat":35.74806639,"lon":139.6212067},{"name":"練馬区役所","province":"東京都","city":"練馬区","address":"練馬区豊玉北6-12-1","lat":35.73578858,"lon":139.6515339},{"name":"石神井庁舎","province":"東京都","city":"練馬区","address":"練馬区石神井町3-30-26","lat":35.7434728,"lon":139.6025527},{"name":"＊?春日町青少年館","province":"東京都","city":"練馬区","address":"練馬区春日町4-16-9","lat":35.752567,"lon":139.639232},{"name":"＊?南大泉青少年館","province":"東京都","city":"練馬区","address":"練馬区南大泉1-44-7","lat":35.743367,"lon":139.574898},{"name":"男女共同参画センターえーる","province":"東京都","city":"練馬区","address":"練馬区石神井町8-1-10","lat":35.74519186,"lon":139.6016095},{"name":"春日町青少年館","province":"東京都","city":"練馬区","address":"練馬区春日町4-16-9","lat":35.75254484,"lon":139.6391099},{"name":"南大泉青少年館","province":"東京都","city":"練馬区","address":"練馬区南大泉1-44-7","lat":35.74323972,"lon":139.574769},{"name":"学校教育支援センター","province":"東京都","city":"練馬区","address":"練馬区光が丘6-4-1","lat":35.76053206,"lon":139.6229299},{"name":"学校教育支援センター練馬","province":"東京都","city":"練馬区","address":"練馬区豊玉北5-15-19","lat":35.73601694,"lon":139.6548163},{"name":"学校教育支援センター関","province":"東京都","city":"練馬区","address":"練馬区関町北1-21-15","lat":35.72653052,"lon":139.5785937},{"name":"学校教育支援センター大泉","province":"東京都","city":"練馬区","address":"練馬区東大泉3-18-9","lat":35.75158026,"lon":139.5866995},{"name":"生涯学習センター","province":"東京都","city":"練馬区","address":"練馬区豊玉北6-8-1","lat":35.7342428,"lon":139.6519894},{"name":"生涯学習センター分館","province":"東京都","city":"練馬区","address":"練馬区高野台2-25-1","lat":35.74806639,"lon":139.6212067},{"name":"練馬区役所","province":"東京都","city":"練馬区","address":"練馬区豊玉北6-12-1","lat":35.73578858,"lon":139.6515339},{"name":"石神井庁舎","province":"東京都","city":"練馬区","address":"練馬区石神井町3-30-26","lat":35.7434728,"lon":139.6025527},{"name":"＊?春日町青少年館","province":"東京都","city":"練馬区","address":"練馬区春日町4-16-9","lat":35.752567,"lon":139.639232},{"name":"＊?南大泉青少年館","province":"東京都","city":"練馬区","address":"練馬区南大泉1-44-7","lat":35.743367,"lon":139.574898},{"name":"男女共同参画センターえーる","province":"東京都","city":"練馬区","address":"練馬区石神井町8-1-10","lat":35.74519186,"lon":139.6016095},{"name":"春日町青少年館","province":"東京都","city":"練馬区","address":"練馬区春日町4-16-9","lat":35.75254484,"lon":139.6391099},{"name":"南大泉青少年館","province":"東京都","city":"練馬区","address":"練馬区南大泉1-44-7","lat":35.74323972,"lon":139.574769},{"name":"学校教育支援センター","province":"東京都","city":"練馬区","address":"練馬区光が丘6-4-1","lat":35.76053206,"lon":139.6229299},{"name":"学校教育支援センター練馬","province":"東京都","city":"練馬区","address":"練馬区豊玉北5-15-19","lat":35.73601694,"lon":139.6548163},{"name":"学校教育支援センター関","province":"東京都","city":"練馬区","address":"練馬区関町北1-21-15","lat":35.72653052,"lon":139.5785937},{"name":"学校教育支援センター大泉","province":"東京都","city":"練馬区","address":"練馬区東大泉3-18-9","lat":35.75158026,"lon":139.5866995},{"name":"生涯学習センター","province":"東京都","city":"練馬区","address":"練馬区豊玉北6-8-1","lat":35.7342428,"lon":139.6519894},{"name":"生涯学習センター分館","province":"東京都","city":"練馬区","address":"練馬区高野台2-25-1","lat":35.74806639,"lon":139.6212067},{"name":"練馬区役所","province":"東京都","city":"練馬区","address":"練馬区豊玉北6-12-1","lat":35.73578858,"lon":139.6515339},{"name":"石神井庁舎","province":"東京都","city":"練馬区","address":"練馬区石神井町3-30-26","lat":35.7434728,"lon":139.6025527},{"name":"＊?春日町青少年館","province":"東京都","city":"練馬区","address":"練馬区春日町4-16-9","lat":35.752567,"lon":139.639232},{"name":"＊?南大泉青少年館","province":"東京都","city":"練馬区","address":"練馬区南大泉1-44-7","lat":35.743367,"lon":139.574898},{"name":"男女共同参画センターえーる","province":"東京都","city":"練馬区","address":"練馬区石神井町8-1-10","lat":35.74519186,"lon":139.6016095},{"name":"春日町青少年館","province":"東京都","city":"練馬区","address":"練馬区春日町4-16-9","lat":35.75254484,"lon":139.6391099},{"name":"南大泉青少年館","province":"東京都","city":"練馬区","address":"練馬区南大泉1-44-7","lat":35.74323972,"lon":139.574769},{"name":"学校教育支援センター","province":"東京都","city":"練馬区","address":"練馬区光が丘6-4-1","lat":35.76053206,"lon":139.6229299},{"name":"学校教育支援センター練馬","province":"東京都","city":"練馬区","address":"練馬区豊玉北5-15-19","lat":35.73601694,"lon":139.6548163},{"name":"学校教育支援センター関","province":"東京都","city":"練馬区","address":"練馬区関町北1-21-15","lat":35.72653052,"lon":139.5785937},{"name":"学校教育支援センター大泉","province":"東京都","city":"練馬区","address":"練馬区東大泉3-18-9","lat":35.75158026,"lon":139.5866995},{"name":"生涯学習センター","province":"東京都","city":"練馬区","address":"練馬区豊玉北6-8-1","lat":35.7342428,"lon":139.6519894},{"name":"生涯学習センター分館","province":"東京都","city":"練馬区","address":"練馬区高野台2-25-1","lat":35.74806639,"lon":139.6212067},{"name":"練馬区役所","province":"東京都","city":"練馬区","address":"練馬区豊玉北6-12-1","lat":35.73578858,"lon":139.6515339},{"name":"石神井庁舎","province":"東京都","city":"練馬区","address":"練馬区石神井町3-30-26","lat":35.7434728,"lon":139.6025527},{"name":"＊?春日町青少年館","province":"東京都","city":"練馬区","address":"練馬区春日町4-16-9","lat":35.752567,"lon":139.639232},{"name":"＊?南大泉青少年館","province":"東京都","city":"練馬区","address":"練馬区南大泉1-44-7","lat":35.743367,"lon":139.574898},{"name":"男女共同参画センターえーる","province":"東京都","city":"練馬区","address":"練馬区石神井町8-1-10","lat":35.74519186,"lon":139.6016095},{"name":"春日町青少年館","province":"東京都","city":"練馬区","address":"練馬区春日町4-16-9","lat":35.75254484,"lon":139.6391099},{"name":"南大泉青少年館","province":"東京都","city":"練馬区","address":"練馬区南大泉1-44-7","lat":35.74323972,"lon":139.574769},{"name":"学校教育支援センター","province":"東京都","city":"練馬区","address":"練馬区光が丘6-4-1","lat":35.76053206,"lon":139.6229299},{"name":"学校教育支援センター練馬","province":"東京都","city":"練馬区","address":"練馬区豊玉北5-15-19","lat":35.73601694,"lon":139.6548163},{"name":"学校教育支援センター関","province":"東京都","city":"練馬区","address":"練馬区関町北1-21-15","lat":35.72653052,"lon":139.5785937},{"name":"学校教育支援センター大泉","province":"東京都","city":"練馬区","address":"練馬区東大泉3-18-9","lat":35.75158026,"lon":139.5866995},{"name":"生涯学習センター","province":"東京都","city":"練馬区","address":"練馬区豊玉北6-8-1","lat":35.7342428,"lon":139.6519894},{"name":"生涯学習センター分館","province":"東京都","city":"練馬区","address":"練馬区高野台2-25-1","lat":35.74806639,"lon":139.6212067},{"name":"練馬区役所","province":"東京都","city":"練馬区","address":"練馬区豊玉北6-12-1","lat":35.73578858,"lon":139.6515339},{"name":"石神井庁舎","province":"東京都","city":"練馬区","address":"練馬区石神井町3-30-26","lat":35.7434728,"lon":139.6025527},{"name":"＊?春日町青少年館","province":"東京都","city":"練馬区","address":"練馬区春日町4-16-9","lat":35.752567,"lon":139.639232},{"name":"＊?南大泉青少年館","province":"東京都","city":"練馬区","address":"練馬区南大泉1-44-7","lat":35.743367,"lon":139.574898},{"name":"男女共同参画センターえーる","province":"東京都","city":"練馬区","address":"練馬区石神井町8-1-10","lat":35.74519186,"lon":139.6016095},{"name":"春日町青少年館","province":"東京都","city":"練馬区","address":"練馬区春日町4-16-9","lat":35.75254484,"lon":139.6391099},{"name":"南大泉青少年館","province":"東京都","city":"練馬区","address":"練馬区南大泉1-44-7","lat":35.74323972,"lon":139.574769},{"name":"学校教育支援センター","province":"東京都","city":"練馬区","address":"練馬区光が丘6-4-1","lat":35.76053206,"lon":139.6229299},{"name":"学校教育支援センター練馬","province":"東京都","city":"練馬区","address":"練馬区豊玉北5-15-19","lat":35.73601694,"lon":139.6548163},{"name":"学校教育支援センター関","province":"東京都","city":"練馬区","address":"練馬区関町北1-21-15","lat":35.72653052,"lon":139.5785937},{"name":"学校教育支援センター大泉","province":"東京都","city":"練馬区","address":"練馬区東大泉3-18-9","lat":35.75158026,"lon":139.5866995},{"name":"生涯学習センター","province":"東京都","city":"練馬区","address":"練馬区豊玉北6-8-1","lat":35.7342428,"lon":139.6519894},{"name":"生涯学習センター分館","province":"東京都","city":"練馬区","address":"練馬区高野台2-25-1","lat":35.74806639,"lon":139.6212067},{"name":"練馬区役所","province":"東京都","city":"練馬区","address":"練馬区豊玉北6-12-1","lat":35.73578858,"lon":139.6515339},{"name":"石神井庁舎","province":"東京都","city":"練馬区","address":"練馬区石神井町3-30-26","lat":35.7434728,"lon":139.6025527},{"name":"＊?春日町青少年館","province":"東京都","city":"練馬区","address":"練馬区春日町4-16-9","lat":35.752567,"lon":139.639232},{"name":"＊?南大泉青少年館","province":"東京都","city":"練馬区","address":"練馬区南大泉1-44-7","lat":35.743367,"lon":139.574898},{"name":"男女共同参画センターえーる","province":"東京都","city":"練馬区","address":"練馬区石神井町8-1-10","lat":35.74519186,"lon":139.6016095},{"name":"春日町青少年館","province":"東京都","city":"練馬区","address":"練馬区春日町4-16-9","lat":35.75254484,"lon":139.6391099},{"name":"南大泉青少年館","province":"東京都","city":"練馬区","address":"練馬区南大泉1-44-7","lat":35.74323972,"lon":139.574769},{"name":"学校教育支援センター","province":"東京都","city":"練馬区","address":"練馬区光が丘6-4-1","lat":35.76053206,"lon":139.6229299},{"name":"学校教育支援センター練馬","province":"東京都","city":"練馬区","address":"練馬区豊玉北5-15-19","lat":35.73601694,"lon":139.6548163},{"name":"学校教育支援センター関","province":"東京都","city":"練馬区","address":"練馬区関町北1-21-15","lat":35.72653052,"lon":139.5785937},{"name":"学校教育支援センター大泉","province":"東京都","city":"練馬区","address":"練馬区東大泉3-18-9","lat":35.75158026,"lon":139.5866995},{"name":"生涯学習センター","province":"東京都","city":"練馬区","address":"練馬区豊玉北6-8-1","lat":35.7342428,"lon":139.6519894},{"name":"生涯学習センター分館","province":"東京都","city":"練馬区","address":"練馬区高野台2-25-1","lat":35.74806639,"lon":139.6212067},{"name":"練馬区役所","province":"東京都","city":"練馬区","address":"練馬区豊玉北6-12-1","lat":35.73578858,"lon":139.6515339},{"name":"石神井庁舎","province":"東京都","city":"練馬区","address":"練馬区石神井町3-30-26","lat":35.7434728,"lon":139.6025527},{"name":"＊?春日町青少年館","province":"東京都","city":"練馬区","address":"練馬区春日町4-16-9","lat":35.752567,"lon":139.639232},{"name":"＊?南大泉青少年館","province":"東京都","city":"練馬区","address":"練馬区南大泉1-44-7","lat":35.743367,"lon":139.574898},{"name":"男女共同参画センターえーる","province":"東京都","city":"練馬区","address":"練馬区石神井町8-1-10","lat":35.74519186,"lon":139.6016095},{"name":"春日町青少年館","province":"東京都","city":"練馬区","address":"練馬区春日町4-16-9","lat":35.75254484,"lon":139.6391099},{"name":"南大泉青少年館","province":"東京都","city":"練馬区","address":"練馬区南大泉1-44-7","lat":35.74323972,"lon":139.574769},{"name":"学校教育支援センター","province":"東京都","city":"練馬区","address":"練馬区光が丘6-4-1","lat":35.76053206,"lon":139.6229299},{"name":"学校教育支援センター練馬","province":"東京都","city":"練馬区","address":"練馬区豊玉北5-15-19","lat":35.73601694,"lon":139.6548163},{"name":"学校教育支援センター関","province":"東京都","city":"練馬区","address":"練馬区関町北1-21-15","lat":35.72653052,"lon":139.5785937},{"name":"学校教育支援センター大泉","province":"東京都","city":"練馬区","address":"練馬区東大泉3-18-9","lat":35.75158026,"lon":139.5866995},{"name":"生涯学習センター","province":"東京都","city":"練馬区","address":"練馬区豊玉北6-8-1","lat":35.7342428,"lon":139.6519894},{"name":"生涯学習センター分館","province":"東京都","city":"練馬区","address":"練馬区高野台2-25-1","lat":35.74806639,"lon":139.6212067},{"name":"練馬区役所","province":"東京都","city":"練馬区","address":"練馬区豊玉北6-12-1","lat":35.73578858,"lon":139.6515339},{"name":"石神井庁舎","province":"東京都","city":"練馬区","address":"練馬区石神井町3-30-26","lat":35.7434728,"lon":139.6025527},{"name":"＊?春日町青少年館","province":"東京都","city":"練馬区","address":"練馬区春日町4-16-9","lat":35.752567,"lon":139.639232},{"name":"＊?南大泉青少年館","province":"東京都","city":"練馬区","address":"練馬区南大泉1-44-7","lat":35.743367,"lon":139.574898},{"name":"男女共同参画センターえーる","province":"東京都","city":"練馬区","address":"練馬区石神井町8-1-10","lat":35.74519186,"lon":139.6016095},{"name":"春日町青少年館","province":"東京都","city":"練馬区","address":"練馬区春日町4-16-9","lat":35.75254484,"lon":139.6391099},{"name":"南大泉青少年館","province":"東京都","city":"練馬区","address":"練馬区南大泉1-44-7","lat":35.74323972,"lon":139.574769},{"name":"学校教育支援センター","province":"東京都","city":"練馬区","address":"練馬区光が丘6-4-1","lat":35.76053206,"lon":139.6229299},{"name":"学校教育支援センター練馬","province":"東京都","city":"練馬区","address":"練馬区豊玉北5-15-19","lat":35.73601694,"lon":139.6548163},{"name":"学校教育支援センター関","province":"東京都","city":"練馬区","address":"練馬区関町北1-21-15","lat":35.72653052,"lon":139.5785937},{"name":"学校教育支援センター大泉","province":"東京都","city":"練馬区","address":"練馬区東大泉3-18-9","lat":35.75158026,"lon":139.5866995},{"name":"生涯学習センター","province":"東京都","city":"練馬区","address":"練馬区豊玉北6-8-1","lat":35.7342428,"lon":139.6519894},{"name":"生涯学習センター分館","province":"東京都","city":"練馬区","address":"練馬区高野台2-25-1","lat":35.74806639,"lon":139.6212067},{"name":"練馬区役所","province":"東京都","city":"練馬区","address":"練馬区豊玉北6-12-1","lat":35.73578858,"lon":139.6515339},{"name":"石神井庁舎","province":"東京都","city":"練馬区","address":"練馬区石神井町3-30-26","lat":35.7434728,"lon":139.6025527},{"name":"＊?春日町青少年館","province":"東京都","city":"練馬区","address":"練馬区春日町4-16-9","lat":35.752567,"lon":139.639232},{"name":"＊?南大泉青少年館","province":"東京都","city":"練馬区","address":"練馬区南大泉1-44-7","lat":35.743367,"lon":139.574898},{"name":"男女共同参画センターえーる","province":"東京都","city":"練馬区","address":"練馬区石神井町8-1-10","lat":35.74519186,"lon":139.6016095},{"name":"春日町青少年館","province":"東京都","city":"練馬区","address":"練馬区春日町4-16-9","lat":35.75254484,"lon":139.6391099},{"name":"南大泉青少年館","province":"東京都","city":"練馬区","address":"練馬区南大泉1-44-7","lat":35.74323972,"lon":139.574769},{"name":"学校教育支援センター","province":"東京都","city":"練馬区","address":"練馬区光が丘6-4-1","lat":35.76053206,"lon":139.6229299},{"name":"学校教育支援センター練馬","province":"東京都","city":"練馬区","address":"練馬区豊玉北5-15-19","lat":35.73601694,"lon":139.6548163},{"name":"学校教育支援センター関","province":"東京都","city":"練馬区","address":"練馬区関町北1-21-15","lat":35.72653052,"lon":139.5785937},{"name":"学校教育支援センター大泉","province":"東京都","city":"練馬区","address":"練馬区東大泉3-18-9","lat":35.75158026,"lon":139.5866995},{"name":"生涯学習センター","province":"東京都","city":"練馬区","address":"練馬区豊玉北6-8-1","lat":35.7342428,"lon":139.6519894},{"name":"生涯学習センター分館","province":"東京都","city":"練馬区","address":"練馬区高野台2-25-1","lat":35.74806639,"lon":139.6212067},{"name":"練馬区役所","province":"東京都","city":"練馬区","address":"練馬区豊玉北6-12-1","lat":35.73578858,"lon":139.6515339},{"name":"石神井庁舎","province":"東京都","city":"練馬区","address":"練馬区石神井町3-30-26","lat":35.7434728,"lon":139.6025527},{"name":"＊?春日町青少年館","province":"東京都","city":"練馬区","address":"練馬区春日町4-16-9","lat":35.752567,"lon":139.639232},{"name":"＊?南大泉青少年館","province":"東京都","city":"練馬区","address":"練馬区南大泉1-44-7","lat":35.743367,"lon":139.574898},{"name":"男女共同参画センターえーる","province":"東京都","city":"練馬区","address":"練馬区石神井町8-1-10","lat":35.74519186,"lon":139.6016095},{"name":"春日町青少年館","province":"東京都","city":"練馬区","address":"練馬区春日町4-16-9","lat":35.75254484,"lon":139.6391099},{"name":"南大泉青少年館","province":"東京都","city":"練馬区","address":"練馬区南大泉1-44-7","lat":35.74323972,"lon":139.574769},{"name":"学校教育支援センター","province":"東京都","city":"練馬区","address":"練馬区光が丘6-4-1","lat":35.76053206,"lon":139.6229299},{"name":"学校教育支援センター練馬","province":"東京都","city":"練馬区","address":"練馬区豊玉北5-15-19","lat":35.73601694,"lon":139.6548163},{"name":"学校教育支援センター関","province":"東京都","city":"練馬区","address":"練馬区関町北1-21-15","lat":35.72653052,"lon":139.5785937},{"name":"学校教育支援センター大泉","province":"東京都","city":"練馬区","address":"練馬区東大泉3-18-9","lat":35.75158026,"lon":139.5866995},{"name":"生涯学習センター","province":"東京都","city":"練馬区","address":"練馬区豊玉北6-8-1","lat":35.7342428,"lon":139.6519894},{"name":"生涯学習センター分館","province":"東京都","city":"練馬区","address":"練馬区高野台2-25-1","lat":35.74806639,"lon":139.6212067},{"name":"練馬区役所","province":"東京都","city":"練馬区","address":"練馬区豊玉北6-12-1","lat":35.73578858,"lon":139.6515339},{"name":"石神井庁舎","province":"東京都","city":"練馬区","address":"練馬区石神井町3-30-26","lat":35.7434728,"lon":139.6025527},{"name":"＊?春日町青少年館","province":"東京都","city":"練馬区","address":"練馬区春日町4-16-9","lat":35.752567,"lon":139.639232},{"name":"＊?南大泉青少年館","province":"東京都","city":"練馬区","address":"練馬区南大泉1-44-7","lat":35.743367,"lon":139.574898},{"name":"男女共同参画センターえーる","province":"東京都","city":"練馬区","address":"練馬区石神井町8-1-10","lat":35.74519186,"lon":139.6016095},{"name":"春日町青少年館","province":"東京都","city":"練馬区","address":"練馬区春日町4-16-9","lat":35.75254484,"lon":139.6391099},{"name":"南大泉青少年館","province":"東京都","city":"練馬区","address":"練馬区南大泉1-44-7","lat":35.74323972,"lon":139.574769},{"name":"学校教育支援センター","province":"東京都","city":"練馬区","address":"練馬区光が丘6-4-1","lat":35.76053206,"lon":139.6229299},{"name":"学校教育支援センター練馬","province":"東京都","city":"練馬区","address":"練馬区豊玉北5-15-19","lat":35.73601694,"lon":139.6548163},{"name":"学校教育支援センター関","province":"東京都","city":"練馬区","address":"練馬区関町北1-21-15","lat":35.72653052,"lon":139.5785937},{"name":"学校教育支援センター大泉","province":"東京都","city":"練馬区","address":"練馬区東大泉3-18-9","lat":35.75158026,"lon":139.5866995},{"name":"生涯学習センター","province":"東京都","city":"練馬区","address":"練馬区豊玉北6-8-1","lat":35.7342428,"lon":139.6519894},{"name":"生涯学習センター分館","province":"東京都","city":"練馬区","address":"練馬区高野台2-25-1","lat":35.74806639,"lon":139.6212067},{"name":"練馬区役所","province":"東京都","city":"練馬区","address":"練馬区豊玉北6-12-1","lat":35.73578858,"lon":139.6515339},{"name":"石神井庁舎","province":"東京都","city":"練馬区","address":"練馬区石神井町3-30-26","lat":35.7434728,"lon":139.6025527},{"name":"＊?春日町青少年館","province":"東京都","city":"練馬区","address":"練馬区春日町4-16-9","lat":35.752567,"lon":139.639232},{"name":"＊?南大泉青少年館","province":"東京都","city":"練馬区","address":"練馬区南大泉1-44-7","lat":35.743367,"lon":139.574898},{"name":"男女共同参画センターえーる","province":"東京都","city":"練馬区","address":"練馬区石神井町8-1-10","lat":35.74519186,"lon":139.6016095},{"name":"春日町青少年館","province":"東京都","city":"練馬区","address":"練馬区春日町4-16-9","lat":35.75254484,"lon":139.6391099},{"name":"南大泉青少年館","province":"東京都","city":"練馬区","address":"練馬区南大泉1-44-7","lat":35.74323972,"lon":139.574769},{"name":"学校教育支援センター","province":"東京都","city":"練馬区","address":"練馬区光が丘6-4-1","lat":35.76053206,"lon":139.6229299},{"name":"学校教育支援センター練馬","province":"東京都","city":"練馬区","address":"練馬区豊玉北5-15-19","lat":35.73601694,"lon":139.6548163},{"name":"学校教育支援センター関","province":"東京都","city":"練馬区","address":"練馬区関町北1-21-15","lat":35.72653052,"lon":139.5785937},{"name":"学校教育支援センター大泉","province":"東京都","city":"練馬区","address":"練馬区東大泉3-18-9","lat":35.75158026,"lon":139.5866995},{"name":"生涯学習センター","province":"東京都","city":"練馬区","address":"練馬区豊玉北6-8-1","lat":35.7342428,"lon":139.6519894},{"name":"生涯学習センター分館","province":"東京都","city":"練馬区","address":"練馬区高野台2-25-1","lat":35.74806639,"lon":139.6212067},{"name":"練馬区役所","province":"東京都","city":"練馬区","address":"練馬区豊玉北6-12-1","lat":35.73578858,"lon":139.6515339},{"name":"石神井庁舎","province":"東京都","city":"練馬区","address":"練馬区石神井町3-30-26","lat":35.7434728,"lon":139.6025527},{"name":"＊?春日町青少年館","province":"東京都","city":"練馬区","address":"練馬区春日町4-16-9","lat":35.752567,"lon":139.639232},{"name":"＊?南大泉青少年館","province":"東京都","city":"練馬区","address":"練馬区南大泉1-44-7","lat":35.743367,"lon":139.574898}]}