{"keyword":"聖地","data":[{"name":"梅若橋コミュニティ会館","province":"東京都","city":"墨田区","address":"墨田区堤通二丁目9番1号","lat":35.735395,"lon":139.816696},{"name":"子育て支援総合センター","province":"東京都","city":"墨田区","address":"墨田区京島一丁目35番9号103号室マーク・ゼロワン曳舟タワー棟1階","lat":35.716666,"lon":139.819806},{"name":"さくら橋コミュニティセンター","province":"東京都","city":"墨田区","address":"墨田区向島二丁目3番8号","lat":35.71368,"lon":139.805844},{"name":"社会福祉会館","province":"東京都","city":"墨田区","address":"墨田区東墨田二丁目7番1号","lat":35.71903,"lon":139.830361},{"name":"スポーツプラザ梅若","province":"東京都","city":"墨田区","address":"墨田区墨田一丁目4番4号","lat":35.7292066,"lon":139.8158411},{"name":"墨田区総合体育館","province":"東京都","city":"墨田区","address":"墨田区錦糸四丁目15番1号","lat":35.6995475,"lon":139.8172152},{"name":"墨田区役所","province":"東京都","city":"墨田区","address":"墨田区吾妻橋一丁目23番20号","lat":35.710722,"lon":139.801497},{"name":"墨田児童会館","province":"東京都","city":"墨田区","address":"墨田区墨田二丁目30番15号","lat":35.729294,"lon":139.818932},{"name":"すみだ生涯学習センター","province":"東京都","city":"墨田区","address":"墨田区東向島二丁目38番7号","lat":35.721128,"lon":139.818398},{"name":"すみだ女性センター","province":"東京都","city":"墨田区","address":"墨田区押上二丁目12番7号111号室","lat":35.712706,"lon":139.812105},{"name":"すみだスポーツ健康センター","province":"東京都","city":"墨田区","address":"墨田区東墨田一丁目6番1号","lat":35.716461,"lon":139.830555},{"name":"すみだ中小企業センター","province":"東京都","city":"墨田区","address":"墨田区文花一丁目19番1号","lat":35.710607,"lon":139.823905},{"name":"外手児童館","province":"東京都","city":"墨田区","address":"墨田区本所二丁目6番9号","lat":35.702991,"lon":139.800778},{"name":"立川児童館","province":"東京都","city":"墨田区","address":"墨田区立川一丁目5番2号","lat":35.6905,"lon":139.799531},{"name":"立花児童館","province":"東京都","city":"墨田区","address":"墨田区立花一丁目27番9号","lat":35.705501,"lon":139.828832},{"name":"立花図書館","province":"東京都","city":"墨田区","address":"墨田区立花六丁目8番1号101号室","lat":35.710483,"lon":139.834888},{"name":"東京ガス・ライフバル両国","province":"東京都","city":"墨田区","address":"墨田区緑二丁目13番7号","lat":35.694548,"lon":139.801274},{"name":"中川児童館","province":"東京都","city":"墨田区","address":"墨田区立花五丁目18番9号","lat":35.712977,"lon":139.830966},{"name":"東駒形コミュニティ会館","province":"東京都","city":"墨田区","address":"墨田区東駒形四丁目14番1号","lat":35.705524,"lon":139.807754},{"name":"東向島児童館","province":"東京都","city":"墨田区","address":"墨田区東向島六丁目6番12号","lat":35.721429,"lon":139.819709},{"name":"ひきふね図書館","province":"東京都","city":"墨田区","address":"墨田区京島一丁目36番5号","lat":35.717058,"lon":139.819492},{"name":"文花子育てひろば","province":"東京都","city":"墨田区","address":"墨田区文花一丁目20番3号","lat":35.710452,"lon":139.822829},{"name":"文花児童館","province":"東京都","city":"墨田区","address":"墨田区文花一丁目32番11号","lat":35.708691,"lon":139.824397},{"name":"本所地域プラザ「BIGSHIP」","province":"東京都","city":"墨田区","address":"墨田区本所一丁目13番4号","lat":35.7031212,"lon":139.7987991},{"name":"みどりコミュニティセンター","province":"東京都","city":"墨田区","address":"墨田区緑三丁目7番3号","lat":35.693598,"lon":139.803278},{"name":"向島保健センター","province":"東京都","city":"墨田区","address":"墨田区東向島五丁目16番2号","lat":35.72591,"lon":139.821203},{"name":"八広児童館","province":"東京都","city":"墨田区","address":"墨田区八広二丁目38番14号","lat":35.715877,"lon":139.827933},{"name":"八広地域プラザ「吾嬬の里」","province":"東京都","city":"墨田区","address":"墨田区八広四丁目35番17号","lat":35.723165,"lon":139.829377},{"name":"八広図書館","province":"東京都","city":"墨田区","address":"墨田区八広五丁目10番1号104号室","lat":35.724809,"lon":139.825801},{"name":"八広はなみずき児童館","province":"東京都","city":"墨田区","address":"墨田区八広四丁目27番8号","lat":35.724575,"lon":139.82942},{"name":"横川コミュニティ会館","province":"東京都","city":"墨田区","address":"墨田区横川五丁目9番1号","lat":35.705206,"lon":139.817461},{"name":"両国屋内プール","province":"東京都","city":"墨田区","address":"墨田区横網一丁目8番1号両国中学校内","lat":35.697776,"lon":139.796287},{"name":"両国子育てひろば","province":"東京都","city":"墨田区","address":"墨田区横網一丁目2番13号","lat":35.697856,"lon":139.792447},{"name":"アスク両国保育園","province":"東京都","city":"墨田区","address":"墨田区亀沢二丁目14番9号","lat":35.6977116,"lon":139.8011501},{"name":"梅若保育園","province":"東京都","city":"墨田区","address":"墨田区墨田二丁目38番13号","lat":35.730793,"lon":139.817607},{"name":"おむらい保育園","province":"東京都","city":"墨田区","address":"墨田区文花一丁目32番1号103号室","lat":35.707797,"lon":139.824433},{"name":"鐘ヶ淵北保育園","province":"東京都","city":"墨田区","address":"墨田区堤通二丁目8番15号109号室","lat":35.735897,"lon":139.817221},{"name":"亀沢保育園","province":"東京都","city":"墨田区","address":"墨田区亀沢一丁目27番5号","lat":35.698556,"lon":139.799427},{"name":"江東橋保育園","province":"東京都","city":"墨田区","address":"墨田区緑四丁目35番9号","lat":35.695781,"lon":139.807469},{"name":"江東橋保育園（分園）","province":"東京都","city":"墨田区","address":"墨田区亀沢三丁目12番5号","lat":35.69714,"lon":139.804502},{"name":"しらひげ保育園","province":"東京都","city":"墨田区","address":"墨田区堤通二丁目5番5号101号室","lat":35.730935,"lon":139.813903},{"name":"水神保育園","province":"東京都","city":"墨田区","address":"墨田区堤通二丁目6番9号103号室","lat":35.733398,"lon":139.815873},{"name":"すみだ保育園","province":"東京都","city":"墨田区","address":"墨田区墨田四丁目22番4号101号室","lat":35.732047,"lon":139.823048},{"name":"太平保育園","province":"東京都","city":"墨田区","address":"墨田区太平一丁目13番10号","lat":35.700095,"lon":139.810371},{"name":"たちばな保育園","province":"東京都","city":"墨田区","address":"墨田区立花三丁目21番16号","lat":35.707091,"lon":139.83434},{"name":"立川保育園","province":"東京都","city":"墨田区","address":"墨田区立川一丁目5番2号","lat":35.690474,"lon":139.799566},{"name":"寺島保育園","province":"東京都","city":"墨田区","address":"墨田区東向島一丁目23番10号","lat":35.720181,"lon":139.812601},{"name":"長浦保育園","province":"東京都","city":"墨田区","address":"墨田区八広五丁目10番1号105号室","lat":35.72479,"lon":139.825747},{"name":"中川保育園","province":"東京都","city":"墨田区","address":"墨田区東墨田二丁目1番15号","lat":35.718702,"lon":139.830587},{"name":"中川南保育園","province":"東京都","city":"墨田区","address":"墨田区立花六丁目8番2号106号室","lat":35.710431,"lon":139.835519},{"name":"花園保育園","province":"東京都","city":"墨田区","address":"墨田区東向島三丁目16番2号","lat":35.72468,"lon":139.814625},{"name":"東あずま保育園","province":"東京都","city":"墨田区","address":"墨田区立花一丁目27番6号101号室","lat":35.704459,"lon":139.829229},{"name":"東駒形保育園","province":"東京都","city":"墨田区","address":"墨田区東駒形一丁目6番8号","lat":35.705406,"lon":139.798161},{"name":"福神橋保育園","province":"東京都","city":"墨田区","address":"墨田区文花一丁目30番21号101号室","lat":35.708174,"lon":139.822277},{"name":"文花保育園","province":"東京都","city":"墨田区","address":"墨田区文花一丁目24番5号","lat":35.709755,"lon":139.823212},{"name":"八広保育園","province":"東京都","city":"墨田区","address":"墨田区八広三丁目7番5号","lat":35.720913,"lon":139.826387},{"name":"横川橋保育園","province":"東京都","city":"墨田区","address":"墨田区太平一丁目27番13号","lat":35.702198,"lon":139.810873},{"name":"押上保育園","province":"東京都","city":"墨田区","address":"墨田区押上二丁目10番17号","lat":35.711381,"lon":139.811793},{"name":"わらべみどり保育園","province":"東京都","city":"墨田区","address":"墨田区緑三丁目12番2号","lat":35.694559,"lon":139.80445},{"name":"あおやぎ保育園","province":"東京都","city":"墨田区","address":"墨田区東向島四丁目37番17号","lat":35.725832,"lon":139.819226},{"name":"きんし保育園","province":"東京都","city":"墨田区","address":"墨田区江東橋四丁目30番2号301号室","lat":35.696602,"lon":139.818948},{"name":"ひきふね保育園","province":"東京都","city":"墨田区","address":"墨田区八広一丁目1番18号","lat":35.72007,"lon":139.821339},{"name":"横川さくら保育園","province":"東京都","city":"墨田区","address":"墨田区横川五丁目9番1号","lat":35.705023,"lon":139.817575},{"name":"横川さくら保育園（分園）","province":"東京都","city":"墨田区","address":"墨田区立花一丁目23番5号206号室","lat":35.706644,"lon":139.831219},{"name":"緑幼稚園","province":"東京都","city":"墨田区","address":"墨田区緑二丁目11番5号","lat":35.694147,"lon":139.801845},{"name":"柳島幼稚園","province":"東京都","city":"墨田区","address":"墨田区横川五丁目2番30号","lat":35.703311,"lon":139.817524},{"name":"菊川幼稚園","province":"東京都","city":"墨田区","address":"墨田区立川四丁目12番15号","lat":35.691487,"lon":139.807336},{"name":"第三寺島幼稚園","province":"東京都","city":"墨田区","address":"墨田区東向島六丁目8番1号","lat":35.721429,"lon":139.820417},{"name":"曳舟幼稚園","province":"東京都","city":"墨田区","address":"墨田区京島一丁目28番2号","lat":35.716029,"lon":139.82081},{"name":"八広幼稚園","province":"東京都","city":"墨田区","address":"墨田区八広五丁目12番15号","lat":35.72658,"lon":139.8256},{"name":"立花幼稚園","province":"東京都","city":"墨田区","address":"墨田区立花一丁目25番9号","lat":35.704833,"lon":139.831726},{"name":"（株）カズン八広店","province":"東京都","city":"墨田区","address":"東京都墨田区八広1丁目7-8","lat":35.72187168,"lon":139.82249696},{"name":"（株）片岡屏風店","province":"東京都","city":"墨田区","address":"東京都墨田区向島1丁目31-6","lat":35.71037389,"lon":139.8077118},{"name":"（株）キャニオン","province":"東京都","city":"墨田区","address":"東京都墨田区八広6丁目52-15","lat":35.72450188,"lon":139.83015983},{"name":"（株）四季園芸","province":"東京都","city":"墨田区","address":"東京都墨田区本所3丁目19-8","lat":35.7039911,"lon":139.80343557},{"name":"（株）隅田屋商店","province":"東京都","city":"墨田区","address":"東京都墨田区東駒形1丁目6-1","lat":35.70514101,"lon":139.79773892},{"name":"（株）なぎさ　葬儀相談センター","province":"東京都","city":"墨田区","address":"東京都墨田区江東橋4丁目5-10","lat":35.69379777,"lon":139.81872082},{"name":"（有）小梅寿司","province":"東京都","city":"墨田区","address":"東京都墨田区向島1丁目32-10","lat":35.70978505,"lon":139.80822015},{"name":"（有）関口","province":"東京都","city":"墨田区","address":"東京都墨田区本所4丁目19-12","lat":35.70414663,"lon":139.80525477},{"name":"BUNKAN","province":"東京都","city":"墨田区","address":"東京都墨田区京島3丁目17-7","lat":35.71603592,"lon":139.82431882},{"name":"Caf? chopin　カフェ・ショパン","province":"東京都","city":"墨田区","address":"東京都墨田区押上2丁目5-1","lat":35.71146558,"lon":139.81003356},{"name":"ENDO　GYM","province":"東京都","city":"墨田区","address":"東京都墨田区江東橋4丁目22-4","lat":35.69521145,"lon":139.81741543},{"name":"for‐R整体院","province":"東京都","city":"墨田区","address":"東京都墨田区錦糸1丁目7-16","lat":35.69813614,"lon":139.81012443},{"name":"Grow/Grow device","province":"東京都","city":"墨田区","address":"東京都墨田区江東橋4丁目24-9","lat":35.69580025,"lon":139.81889299},{"name":"HOLLY","province":"東京都","city":"墨田区","address":"東京都墨田区向島2丁目22-10","lat":35.71353218,"lon":139.80646203},{"name":"TOMORROW","province":"東京都","city":"墨田区","address":"東京都墨田区亀沢4丁目8-5","lat":35.69735293,"lon":139.80735544},{"name":"UCAN　SPORTSショップ","province":"東京都","city":"墨田区","address":"東京都墨田区緑2丁目11-2","lat":35.69400617,"lon":139.80204273},{"name":"アカチャンホンポ錦糸町店","province":"東京都","city":"墨田区","address":"東京都墨田区錦糸2丁目2-1","lat":35.69746951,"lon":139.81236592},{"name":"アクア鍼灸整骨院","province":"東京都","city":"墨田区","address":"東京都墨田区太平3丁目4-3","lat":35.70019968,"lon":139.81403496},{"name":"アズマカイロプラクティック","province":"東京都","city":"墨田区","address":"東京都墨田区太平3丁目7-3","lat":35.70059132,"lon":139.81343776},{"name":"アトリエ創藝館","province":"東京都","city":"墨田区","address":"東京都墨田区横川2丁目10-1","lat":35.70391599,"lon":139.81264858},{"name":"あゆみケアサービス","province":"東京都","city":"墨田区","address":"東京都墨田区墨田5丁目43-9","lat":35.73380644,"lon":139.81943606},{"name":"荒井湯","province":"東京都","city":"墨田区","address":"東京都墨田区本所2丁目8-7","lat":35.70342727,"lon":139.80067487},{"name":"アルカキット錦糸町","province":"東京都","city":"墨田区","address":"東京都墨田区錦糸2丁目2-1","lat":35.69746951,"lon":139.81236592},{"name":"居食屋　幸","province":"東京都","city":"墨田区","address":"東京都墨田区八広1丁目37-12","lat":35.72097152,"lon":139.82557424},{"name":"イトーヨーカドー曳舟店","province":"東京都","city":"墨田区","address":"東京都墨田区京島1丁目2-1","lat":35.7173108,"lon":139.81782799},{"name":"いまくに接骨院","province":"東京都","city":"墨田区","address":"東京都墨田区太平3丁目18-1","lat":35.70216889,"lon":139.81319598},{"name":"エース鍼灸整骨院","province":"東京都","city":"墨田区","address":"東京都墨田区京島1丁目53-9","lat":35.71761647,"lon":139.82268296},{"name":"ENEOSガソリンスタンド","province":"東京都","city":"墨田区","address":"東京都墨田区八広5丁目1-4","lat":35.72292157,"lon":139.82324965},{"name":"オリンピック墨田文花店","province":"東京都","city":"墨田区","address":"東京都墨田区文花1丁目31-9","lat":35.70678852,"lon":139.8237529},{"name":"尾張屋","province":"東京都","city":"墨田区","address":"東京都墨田区本所2丁目8-4","lat":35.70352448,"lon":139.80014715},{"name":"ガスト押上店","province":"東京都","city":"墨田区","address":"東京都墨田区業平3丁目17-9","lat":35.70943267,"lon":139.81346151},{"name":"ガスト錦糸町北口店","province":"東京都","city":"墨田区","address":"東京都墨田区錦糸1丁目17-10","lat":35.69788896,"lon":139.80895792},{"name":"CUT STUDIO KOJIMA","province":"東京都","city":"墨田区","address":"東京都墨田区八広1丁目36-10","lat":35.72071041,"lon":139.82558812},{"name":"カメカフェ","province":"東京都","city":"墨田区","address":"東京都墨田区石原1丁目23-4","lat":35.70013878,"lon":139.79885892},{"name":"河のや","province":"東京都","city":"墨田区","address":"東京都墨田区東駒形4丁目11-6","lat":35.70647421,"lon":139.80684587},{"name":"革バック工房　KIYOKAWA","province":"東京都","city":"墨田区","address":"東京都墨田区吾妻橋2丁目1-6","lat":35.70829072,"lon":139.80288504},{"name":"河原のあべ","province":"東京都","city":"墨田区","address":"東京都墨田区向島5丁目24-2","lat":35.71716588,"lon":139.8093595},{"name":"きそ路","province":"東京都","city":"墨田区","address":"東京都墨田区太平4丁目18-10","lat":35.70267146,"lon":139.81691517},{"name":"喫茶イーグル","province":"東京都","city":"墨田区","address":"東京都墨田区八広5丁目23-13","lat":35.72331308,"lon":139.82657696},{"name":"喫茶店トワ・エ・モワ","province":"東京都","city":"墨田区","address":"東京都墨田区八広5丁目3-17","lat":35.72252434,"lon":139.82377456},{"name":"きものレンタル淑Yoshi","province":"東京都","city":"墨田区","address":"東京都墨田区東駒形3丁目1-1","lat":35.70519376,"lon":139.80233276},{"name":"錦糸町飯店","province":"東京都","city":"墨田区","address":"東京都墨田区江東橋3丁目8-12","lat":35.6949615,"lon":139.81480747},{"name":"小菅（株）","province":"東京都","city":"墨田区","address":"東京都墨田区東向島2丁目33-2","lat":35.72011344,"lon":139.81692831},{"name":"コスモスあらいや","province":"東京都","city":"墨田区","address":"東京都墨田区押上3丁目34-8","lat":35.70992215,"lon":139.81947222},{"name":"こりこりアロマ整骨院","province":"東京都","city":"墨田区","address":"東京都墨田区押上1丁目29-6","lat":35.71054407,"lon":139.81595563},{"name":"ザ・ホテルベルグランデ","province":"東京都","city":"墨田区","address":"東京都墨田区両国2丁目19-1","lat":35.69545039,"lon":139.79215996},{"name":"埼玉屋小梅","province":"東京都","city":"墨田区","address":"東京都墨田区向島1丁目5-5","lat":35.71300991,"lon":139.80519824},{"name":"サミット両国石原店","province":"東京都","city":"墨田区","address":"東京都墨田区石原1丁目40-6","lat":35.70169692,"lon":139.79880036},{"name":"サンシャイ","province":"東京都","city":"墨田区","address":"東京都墨田区本所1丁目34-7","lat":35.70414388,"lon":139.79681693},{"name":"三徳湯","province":"東京都","city":"墨田区","address":"東京都墨田区八広6丁目8-8","lat":35.72842964,"lon":139.8263466},{"name":"實相寺","province":"東京都","city":"墨田区","address":"東京都墨田区東駒形2丁目10-14","lat":35.70590481,"lon":139.80012463},{"name":"Zipangu","province":"東京都","city":"墨田区","address":"東京都墨田区業平3丁目6-5","lat":35.70745489,"lon":139.81380904},{"name":"しもとり接骨院","province":"東京都","city":"墨田区","address":"東京都墨田区横網2丁目16-5","lat":35.70162472,"lon":139.79682284},{"name":"宗教法人　牛島神社","province":"東京都","city":"墨田区","address":"東京都墨田区向島1丁目4-5","lat":35.7129599,"lon":139.80472608},{"name":"宗教法人　法性寺","province":"東京都","city":"墨田区","address":"東京都墨田区業平5丁目7-7","lat":35.707544,"lon":139.81830046},{"name":"ジョナサン菊川店","province":"東京都","city":"墨田区","address":"東京都墨田区菊川2丁目7-9","lat":35.68879574,"lon":139.80558434},{"name":"スタア美容室","province":"東京都","city":"墨田区","address":"東京都墨田区東向島5丁目11-2","lat":35.72689905,"lon":139.81994473},{"name":"スポーツクラブルネサンス両国","province":"東京都","city":"墨田区","address":"東京都墨田区両国2丁目10-14","lat":35.69389782,"lon":139.79270461},{"name":"すみだ子どもサロン","province":"東京都","city":"墨田区","address":"東京都墨田区亀沢4丁目17-18","lat":35.69766955,"lon":139.80782755},{"name":"墨田湯","province":"東京都","city":"墨田区","address":"東京都墨田区吾妻橋2丁目5-4","lat":35.70919896,"lon":139.80255718},{"name":"生活彩館やひろでんき","province":"東京都","city":"墨田区","address":"東京都墨田区八広1丁目43-5","lat":35.72209369,"lon":139.82589645},{"name":"関口接骨院","province":"東京都","city":"墨田区","address":"東京都墨田区東向島3丁目30-17","lat":35.72317424,"lon":139.81347347},{"name":"鮮魚居酒屋ツル","province":"東京都","city":"墨田区","address":"東京都墨田区八広2丁目37-7","lat":35.7165744,"lon":139.82832107},{"name":"第一ホテル両国","province":"東京都","city":"墨田区","address":"東京都墨田区横網1丁目6-1","lat":35.69830846,"lon":139.79685114},{"name":"タイ教育・文化センター","province":"東京都","city":"墨田区","address":"東京都墨田区江東橋1丁目11-9","lat":35.69556144,"lon":139.8100803},{"name":"大黒湯","province":"東京都","city":"墨田区","address":"東京都墨田区横川3丁目12-14","lat":35.70501875,"lon":139.8135928},{"name":"田実興産（株）両国SS（ENEOS)","province":"東京都","city":"墨田区","address":"東京都墨田区両国2丁目9-1","lat":35.69402837,"lon":139.79302681},{"name":"たてかわ接骨院","province":"東京都","city":"墨田区","address":"東京都墨田区立川3丁目5-8","lat":35.6906066,"lon":139.80500095},{"name":"田中接骨院","province":"東京都","city":"墨田区","address":"東京都墨田区本所2丁目7-12","lat":35.70288844,"lon":139.80012502},{"name":"多聞寺","province":"東京都","city":"墨田区","address":"東京都墨田区墨田5丁目31-13","lat":35.73847792,"lon":139.81928562},{"name":"千歳接骨院","province":"東京都","city":"墨田区","address":"東京都墨田区千歳3丁目6-5","lat":35.69040673,"lon":139.79779956},{"name":"中華料理　喜楽","province":"東京都","city":"墨田区","address":"東京都墨田区東向島6丁目26-14","lat":35.72269383,"lon":139.82268584},{"name":"点茶","province":"東京都","city":"墨田区","address":"東京都墨田区向島4丁目1-3","lat":35.7159131,"lon":139.81060917},{"name":"東武ストア　業平店","province":"東京都","city":"墨田区","address":"東京都墨田区業平5丁目5-9","lat":35.7071217,"lon":139.81742558},{"name":"ドルフィンネイル","province":"東京都","city":"墨田区","address":"東京都墨田区向島4丁目1-1","lat":35.71578252,"lon":139.81036196},{"name":"永井接骨院","province":"東京都","city":"墨田区","address":"東京都墨田区京島3丁目45-12","lat":35.71297514,"lon":139.82386609},{"name":"なかむら","province":"東京都","city":"墨田区","address":"東京都墨田区東向島2丁目28-3","lat":35.71935791,"lon":139.81713378},{"name":"ながやま接骨院","province":"東京都","city":"墨田区","address":"東京都墨田区立川1丁目2-8","lat":35.68995956,"lon":139.79913827},{"name":"ニコニコ整骨院","province":"東京都","city":"墨田区","address":"東京都墨田区菊川2丁目8-8","lat":35.68847358,"lon":139.80453459},{"name":"張福染織（有）","province":"東京都","city":"墨田区","address":"東京都墨田区押上3丁目50-6","lat":35.71152818,"lon":139.82144964},{"name":"パル墨田","province":"東京都","city":"墨田区","address":"東京都墨田区向島3丁目3-1","lat":35.71375168,"lon":139.80757025},{"name":"ピアレストランこーらるカフェ","province":"東京都","city":"墨田区","address":"東京都墨田区向島3丁目2-1","lat":35.71333497,"lon":139.80706471},{"name":"ＢＥＡＮＳ珈琲","province":"東京都","city":"墨田区","address":"東京都墨田区石原3丁目16-4","lat":35.70045814,"lon":139.80416932},{"name":"東駒形　琴富貴（日本そば店）","province":"東京都","city":"墨田区","address":"東京都墨田区東駒形3丁目21-16","lat":35.70724358,"lon":139.80366008},{"name":"東向島珈琲店Pua　mana","province":"東京都","city":"墨田区","address":"東京都墨田区東向島1丁目34-7","lat":35.72003563,"lon":139.81541742},{"name":"輝接骨院","province":"東京都","city":"墨田区","address":"東京都墨田区押上3丁目43-7","lat":35.71073902,"lon":139.82030538},{"name":"ビューティーSAN","province":"東京都","city":"墨田区","address":"東京都墨田区江東橋5丁目8-18","lat":35.69148143,"lon":139.8100361},{"name":"美容室ブースト","province":"東京都","city":"墨田区","address":"東京都墨田区緑1丁目28-6","lat":35.69566712,"lon":139.79784031},{"name":"美容室プランソレイユ","province":"東京都","city":"墨田区","address":"東京都墨田区横網1丁目9-2","lat":35.69835288,"lon":139.79546506},{"name":"平河山　法恩寺","province":"東京都","city":"墨田区","address":"東京都墨田区太平1丁目26-16","lat":35.70218844,"lon":139.81023227},{"name":"ひらの接骨院","province":"東京都","city":"墨田区","address":"東京都墨田区東駒形2丁目15-12","lat":35.70664641,"lon":139.80177987},{"name":"ファッションスポット　タカタヤ","province":"東京都","city":"墨田区","address":"東京都墨田区向島5丁目35-12","lat":35.71709656,"lon":139.81173422},{"name":"ファミリーマート鈴木錦糸町店","province":"東京都","city":"墨田区","address":"東京都墨田区錦糸1丁目7-2","lat":35.69827779,"lon":139.80985222},{"name":"福島寝具店","province":"東京都","city":"墨田区","address":"東京都墨田区東墨田2丁目20-3","lat":35.72308788,"lon":139.83139014},{"name":"フジセ","province":"東京都","city":"墨田区","address":"東京都墨田区吾妻橋2丁目2-4","lat":35.70837959,"lon":139.8034544},{"name":"古畑接骨院","province":"東京都","city":"墨田区","address":"東京都墨田区緑2丁目11-11","lat":35.69422836,"lon":139.80278149},{"name":"文花整骨院","province":"東京都","city":"墨田区","address":"東京都墨田区立花2丁目5-6","lat":35.70978591,"lon":139.82875188},{"name":"ヘアーサロン　ニュータカハシ","province":"東京都","city":"墨田区","address":"東京都墨田区八広5丁目20-18","lat":35.72244099,"lon":139.82441336},{"name":"ヘアーサロン　ヨコテ","province":"東京都","city":"墨田区","address":"東京都墨田区緑1丁目19-6","lat":35.69508106,"lon":139.79888192},{"name":"ベル美容室","province":"東京都","city":"墨田区","address":"東京都墨田区江東橋5丁目3-11","lat":35.68894012,"lon":139.81139156},{"name":"保育所ちびっこランド錦糸町園","province":"東京都","city":"墨田区","address":"東京都墨田区江東橋4丁目15-6","lat":35.69465043,"lon":139.81772651},{"name":"ボイス","province":"東京都","city":"墨田区","address":"東京都墨田区向島3丁目4-3","lat":35.71450732,"lon":139.80869247},{"name":"ポーラ　エステイン佳","province":"東京都","city":"墨田区","address":"東京都墨田区石原3丁目34-10","lat":35.70183299,"lon":139.80284151},{"name":"ますかわ整骨院","province":"東京都","city":"墨田区","address":"東京都墨田区緑1丁目8-10","lat":35.69310912,"lon":139.79839621},{"name":"丸井錦糸町店","province":"東京都","city":"墨田区","address":"東京都墨田区江東橋3丁目9-10","lat":35.69504482,"lon":139.81366874},{"name":"マルエツ　錦糸町店","province":"東京都","city":"墨田区","address":"東京都墨田区太平1丁目14-1","lat":35.70044143,"lon":139.8098714},{"name":"マルエツ　プチ両国緑一丁目店","province":"東京都","city":"墨田区","address":"東京都墨田区緑1丁目15-12","lat":35.6943395,"lon":139.79891815},{"name":"マルエツ　両国亀沢店","province":"東京都","city":"墨田区","address":"東京都墨田区亀沢3丁目2-14","lat":35.69618086,"lon":139.80456708},{"name":"マルオオ製茶おおいし","province":"東京都","city":"墨田区","address":"東京都墨田区吾妻橋2丁目2-6","lat":35.70839626,"lon":139.80380989},{"name":"満留賀そば店","province":"東京都","city":"墨田区","address":"東京都墨田区押上1丁目18-6","lat":35.71201356,"lon":139.81586385},{"name":"メガネフレンド","province":"東京都","city":"墨田区","address":"東京都墨田区東駒形4丁目16-18","lat":35.70677696,"lon":139.80706802},{"name":"柳沢接骨院","province":"東京都","city":"墨田区","address":"東京都墨田区立花2丁目6","lat":35.709372,"lon":139.82910187},{"name":"有道接骨院・鍼灸マッサージ院","province":"東京都","city":"墨田区","address":"東京都墨田区東駒形4丁目21-1","lat":35.70777688,"lon":139.80463487},{"name":"らーめん匠屋","province":"東京都","city":"墨田区","address":"東京都墨田区太平3丁目9-9","lat":35.70088569,"lon":139.81449598},{"name":"ライフ東向島店","province":"東京都","city":"墨田区","address":"東京都墨田区東向島4丁目3-7","lat":35.72753226,"lon":139.81526231},{"name":"リサイクルショップ　バザー","province":"東京都","city":"墨田区","address":"東京都墨田区緑4丁目24-20","lat":35.69536148,"lon":139.80802505},{"name":"立正佼成会墨田教会","province":"東京都","city":"墨田区","address":"東京都墨田区亀沢2丁目9-9","lat":35.69685026,"lon":139.80167293},{"name":"Ｌｉｔｔｌｅ　Ｉｎｄｉａ","province":"東京都","city":"墨田区","address":"東京都墨田区錦糸3丁目11-1","lat":35.69919705,"lon":139.81348509},{"name":"理容サトウ","province":"東京都","city":"墨田区","address":"東京都墨田区立川2丁目1-18","lat":35.69037058,"lon":139.80121559},{"name":"ローソン錦糸一丁目店","province":"東京都","city":"墨田区","address":"東京都墨田区錦糸1丁目5-17","lat":35.69779729,"lon":139.80995227},{"name":"ローソン向島一丁目店","province":"東京都","city":"墨田区","address":"東京都墨田区向島1丁目12-3","lat":35.71245991,"lon":139.80597308},{"name":"ロッテシティビル","province":"東京都","city":"墨田区","address":"東京都墨田区錦糸4丁目6-1","lat":35.69756946,"lon":139.81536279},{"name":"和食さと　墨田堤通店","province":"東京都","city":"墨田区","address":"東京都墨田区堤通1丁目19-11","lat":35.72726835,"lon":139.81228508},{"name":"曳舟中央整骨院・鍼灸院","province":"東京都","city":"墨田区","address":"東京都墨田区京島1丁目24-9","lat":35.71589432,"lon":139.81958604},{"name":"あわの自然学園","province":"栃木県","city":"鹿沼市","address":"栃木県鹿沼市上粕尾1041","lat":36.59355317,"lon":139.50111412},{"name":"上小山田コミュニティセンター","province":"東京都","city":"町田市","address":"東京都町田市上小山田町2616-2","lat":35.59482706,"lon":139.39836205},{"name":"成瀬コミュニティセンター","province":"東京都","city":"町田市","address":"東京都町田市西成瀬2丁目49-1","lat":35.54352677,"lon":139.47274369},{"name":"つくし野コミュニティセンター","province":"東京都","city":"町田市","address":"東京都町田市つくし野2丁目26-5","lat":35.52716937,"lon":139.48469949},{"name":"木曽森野コミュニティセンター","province":"東京都","city":"町田市","address":"東京都町田市木曽東1丁目2","lat":35.55656271,"lon":139.43028811},{"name":"三輪コミュニティーセンター","province":"東京都","city":"町田市","address":"東京都町田市三輪緑山4丁目14-1","lat":35.5771346,"lon":139.4933507},{"name":"町田市民フォーラム","province":"東京都","city":"町田市","address":"東京都町田市原町田4丁目9-8","lat":35.54180052,"lon":139.44984799},{"name":"日進公園","province":"東京都","city":"墨田区","address":"東京都墨田区亀沢3丁目24-3","lat":35.69862503,"lon":139.80441676},{"name":"なつめ公園","province":"東京都","city":"墨田区","address":"東京都墨田区東向島6丁目40-2","lat":35.72445761,"lon":139.82188321},{"name":"すみだボランティアセンター","province":"東京都","city":"墨田区","address":"東京都墨田区東向島2丁目17-14","lat":35.71838566,"lon":139.81561446},{"name":"かつら児童遊園","province":"東京都","city":"墨田区","address":"東京都墨田区墨田3丁目36-13","lat":35.73147348,"lon":139.82056385},{"name":"堤通公園","province":"東京都","city":"墨田区","address":"東京都墨田区堤通1丁目8-1","lat":35.72447964,"lon":139.81077124},{"name":"すみだ健康ハウス","province":"東京都","city":"墨田区","address":"東京都墨田区東墨田1丁目2-6","lat":35.71772695,"lon":139.82970417},{"name":"文花公園","province":"東京都","city":"墨田区","address":"東京都墨田区文花1丁目27-5","lat":35.7094556,"lon":139.82244155},{"name":"とちのき児童遊園","province":"東京都","city":"墨田区","address":"東京都墨田区緑2丁目8-12","lat":35.69324795,"lon":139.80130406},{"name":"立川第二児童遊園","province":"東京都","city":"墨田区","address":"東京都墨田区立川3丁目15-6","lat":35.69203976,"lon":139.80390933},{"name":"押上第一児童遊園","province":"東京都","city":"墨田区","address":"東京都墨田区押上3丁目48-1","lat":35.71179188,"lon":139.82010526},{"name":"京島西公園","province":"東京都","city":"墨田区","address":"東京都墨田区京島1丁目22-3","lat":35.71567483,"lon":139.81871112},{"name":"東向島ふじ公園","province":"東京都","city":"墨田区","address":"東京都墨田区東向島2丁目46-7","lat":35.72032456,"lon":139.81849198},{"name":"曳舟さくら公園","province":"東京都","city":"墨田区","address":"東京都墨田区京島1丁目40-1","lat":35.71877194,"lon":139.82017778},{"name":"本四三ツ目児童遊園","province":"東京都","city":"墨田区","address":"東京都墨田区本所4丁目1-4","lat":35.70288841,"lon":139.80498554},{"name":"請地児童遊園","province":"東京都","city":"墨田区","address":"東京都墨田区向島4丁目12-11","lat":35.71693833,"lon":139.81343679},{"name":"八広中央公園","province":"東京都","city":"墨田区","address":"東京都墨田区八広3丁目13-19","lat":35.71918814,"lon":139.82718507},{"name":"たちばな仲よし公園","province":"東京都","city":"墨田区","address":"東京都墨田区立花5丁目19-2","lat":35.71244966,"lon":139.82994877},{"name":"東あずま公園南","province":"東京都","city":"墨田区","address":"東京都墨田区立花2丁目32-12","lat":35.70834973,"lon":139.83030736},{"name":"東あずま公園北","province":"東京都","city":"墨田区","address":"東京都墨田区立花2丁目32-12","lat":35.70834973,"lon":139.83030736},{"name":"千歳公園","province":"東京都","city":"墨田区","address":"東京都墨田区千歳2丁目2-1","lat":35.69036782,"lon":139.79502744},{"name":"墨田二丁目児童遊園","province":"東京都","city":"墨田区","address":"東京都墨田区墨田2丁目42-4","lat":35.73228443,"lon":139.81873074},{"name":"曳舟西ビューハイツ","province":"東京都","city":"墨田区","address":"東京都墨田区京島1丁目39-1","lat":35.71855525,"lon":139.81929177},{"name":"曳舟東ビューハイツ","province":"東京都","city":"墨田区","address":"東京都墨田区京島1丁目45-1","lat":35.71817198,"lon":139.8202444},{"name":"六軒児童遊園","province":"東京都","city":"墨田区","address":"東京都墨田区立花3丁目18-12","lat":35.70610819,"lon":139.83438194},{"name":"舟原公園","province":"東京都","city":"墨田区","address":"東京都墨田区八広2丁目43-16","lat":35.71514967,"lon":139.8267824},{"name":"亀沢第一児童遊園","province":"東京都","city":"墨田区","address":"東京都墨田区亀沢2丁目13-7","lat":35.69784458,"lon":139.80188665},{"name":"都営立花四丁目団地","province":"東京都","city":"墨田区","address":"東京都墨田区立花4丁目30-1","lat":35.70956343,"lon":139.83534283},{"name":"隅田第二児童遊園","province":"東京都","city":"墨田区","address":"東京都墨田区墨田4丁目8-14","lat":35.73288164,"lon":139.82186355},{"name":"墨田第三児童遊園","province":"東京都","city":"墨田区","address":"東京都墨田区墨田2丁目17-6","lat":35.7314956,"lon":139.81623679},{"name":"ごあずま児童遊園","province":"東京都","city":"墨田区","address":"東京都墨田区八広4丁目36-24","lat":35.7227685,"lon":139.82939596},{"name":"立花第一児童遊園","province":"東京都","city":"墨田区","address":"東京都墨田区立花4丁目9-6","lat":35.71009965,"lon":139.83163207},{"name":"隅田東児童遊園","province":"東京都","city":"墨田区","address":"東京都墨田区墨田4丁目52-12","lat":35.72950444,"lon":139.82512169},{"name":"押上第二児童遊園","province":"東京都","city":"墨田区","address":"東京都墨田区押上3丁目57-3","lat":35.71191978,"lon":139.82117743},{"name":"八広六西児童遊園","province":"東京都","city":"墨田区","address":"東京都墨田区八広6丁目13-1","lat":35.72851578,"lon":139.82735203},{"name":"墨田第六児童遊園","province":"東京都","city":"墨田区","address":"東京都墨田区墨田2丁目20-15","lat":35.73052355,"lon":139.81718117},{"name":"みわさと公園","province":"東京都","city":"墨田区","address":"東京都墨田区八広1丁目38-13","lat":35.72107709,"lon":139.82532706},{"name":"隅田東第二児童遊園","province":"東京都","city":"墨田区","address":"東京都墨田区墨田4丁目34-20","lat":35.73275392,"lon":139.82414937},{"name":"八広あずま公園","province":"東京都","city":"墨田区","address":"東京都墨田区八広4丁目19-14","lat":35.72376025,"lon":139.82809342},{"name":"露伴児童遊園","province":"東京都","city":"墨田区","address":"東京都墨田区東向島1丁目7-11","lat":35.72189933,"lon":139.81308177},{"name":"小梅児童遊園","province":"東京都","city":"墨田区","address":"東京都墨田区向島1丁目33-3","lat":35.71042667,"lon":139.80815339},{"name":"さつき公園","province":"東京都","city":"墨田区","address":"東京都墨田区東向島6丁目19-12","lat":35.72262441,"lon":139.82039453},{"name":"きねがわ公園","province":"東京都","city":"墨田区","address":"東京都墨田区東墨田2丁目25-8","lat":35.724149,"lon":139.83316217},{"name":"竪川親水公園","province":"東京都","city":"墨田区","address":"東京都墨田区江東橋2丁目1","lat":35.69309787,"lon":139.81198851},{"name":"菊川駐輪場","province":"東京都","city":"墨田区","address":"東京都墨田区菊川3丁目6-14","lat":35.68755145,"lon":139.80696471},{"name":"みどりコミュニティセンター","province":"東京都","city":"墨田区","address":"東京都墨田区緑3丁目7-3","lat":35.69361455,"lon":139.8032676},{"name":"業平防災待機職員住宅","province":"東京都","city":"墨田区","address":"東京都墨田区業平3丁目2-5","lat":35.70634375,"lon":139.8130676},{"name":"すみだ清掃事務所","province":"東京都","city":"墨田区","address":"東京都墨田区業平5丁目6-2","lat":35.70709118,"lon":139.81802555},{"name":"八広認定こども園","province":"東京都","city":"墨田区","address":"東京都墨田区八広3丁目7-5","lat":35.72091034,"lon":139.82649354},{"name":"江東橋二丁目その他緑地","province":"東京都","city":"墨田区","address":"東京都墨田区江東橋2丁目18","lat":35.6959086,"lon":139.81198834},{"name":"梅若橋コミュニティ会館","province":"東京都","city":"墨田区","address":"墨田区堤通二丁目9番1号","lat":35.735395,"lon":139.816696},{"name":"子育て支援総合センター","province":"東京都","city":"墨田区","address":"墨田区京島一丁目35番9号103号室マーク・ゼロワン曳舟タワー棟1階","lat":35.716666,"lon":139.819806},{"name":"さくら橋コミュニティセンター","province":"東京都","city":"墨田区","address":"墨田区向島二丁目3番8号","lat":35.71368,"lon":139.805844},{"name":"社会福祉会館","province":"東京都","city":"墨田区","address":"墨田区東墨田二丁目7番1号","lat":35.71903,"lon":139.830361},{"name":"スポーツプラザ梅若","province":"東京都","city":"墨田区","address":"墨田区墨田一丁目4番4号","lat":35.7292066,"lon":139.8158411},{"name":"墨田区総合体育館","province":"東京都","city":"墨田区","address":"墨田区錦糸四丁目15番1号","lat":35.6995475,"lon":139.8172152},{"name":"墨田区役所","province":"東京都","city":"墨田区","address":"墨田区吾妻橋一丁目23番20号","lat":35.710722,"lon":139.801497},{"name":"墨田児童会館","province":"東京都","city":"墨田区","address":"墨田区墨田二丁目30番15号","lat":35.729294,"lon":139.818932},{"name":"すみだ生涯学習センター","province":"東京都","city":"墨田区","address":"墨田区東向島二丁目38番7号","lat":35.721128,"lon":139.818398},{"name":"すみだ女性センター","province":"東京都","city":"墨田区","address":"墨田区押上二丁目12番7号111号室","lat":35.712706,"lon":139.812105},{"name":"すみだスポーツ健康センター","province":"東京都","city":"墨田区","address":"墨田区東墨田一丁目6番1号","lat":35.716461,"lon":139.830555},{"name":"すみだ中小企業センター","province":"東京都","city":"墨田区","address":"墨田区文花一丁目19番1号","lat":35.710607,"lon":139.823905},{"name":"外手児童館","province":"東京都","city":"墨田区","address":"墨田区本所二丁目6番9号","lat":35.702991,"lon":139.800778},{"name":"立川児童館","province":"東京都","city":"墨田区","address":"墨田区立川一丁目5番2号","lat":35.6905,"lon":139.799531},{"name":"立花児童館","province":"東京都","city":"墨田区","address":"墨田区立花一丁目27番9号","lat":35.705501,"lon":139.828832},{"name":"立花図書館","province":"東京都","city":"墨田区","address":"墨田区立花六丁目8番1号101号室","lat":35.710483,"lon":139.834888},{"name":"東京ガス・ライフバル両国","province":"東京都","city":"墨田区","address":"墨田区緑二丁目13番7号","lat":35.694548,"lon":139.801274},{"name":"中川児童館","province":"東京都","city":"墨田区","address":"墨田区立花五丁目18番9号","lat":35.712977,"lon":139.830966},{"name":"東駒形コミュニティ会館","province":"東京都","city":"墨田区","address":"墨田区東駒形四丁目14番1号","lat":35.705524,"lon":139.807754},{"name":"東向島児童館","province":"東京都","city":"墨田区","address":"墨田区東向島六丁目6番12号","lat":35.721429,"lon":139.819709},{"name":"ひきふね図書館","province":"東京都","city":"墨田区","address":"墨田区京島一丁目36番5号","lat":35.717058,"lon":139.819492},{"name":"文花子育てひろば","province":"東京都","city":"墨田区","address":"墨田区文花一丁目20番3号","lat":35.710452,"lon":139.822829},{"name":"文花児童館","province":"東京都","city":"墨田区","address":"墨田区文花一丁目32番11号","lat":35.708691,"lon":139.824397},{"name":"本所地域プラザ「BIGSHIP」","province":"東京都","city":"墨田区","address":"墨田区本所一丁目13番4号","lat":35.7031212,"lon":139.7987991},{"name":"みどりコミュニティセンター","province":"東京都","city":"墨田区","address":"墨田区緑三丁目7番3号","lat":35.693598,"lon":139.803278},{"name":"向島保健センター","province":"東京都","city":"墨田区","address":"墨田区東向島五丁目16番2号","lat":35.72591,"lon":139.821203},{"name":"八広児童館","province":"東京都","city":"墨田区","address":"墨田区八広二丁目38番14号","lat":35.715877,"lon":139.827933},{"name":"八広地域プラザ「吾嬬の里」","province":"東京都","city":"墨田区","address":"墨田区八広四丁目35番17号","lat":35.723165,"lon":139.829377},{"name":"八広図書館","province":"東京都","city":"墨田区","address":"墨田区八広五丁目10番1号104号室","lat":35.724809,"lon":139.825801},{"name":"八広はなみずき児童館","province":"東京都","city":"墨田区","address":"墨田区八広四丁目27番8号","lat":35.724575,"lon":139.82942},{"name":"横川コミュニティ会館","province":"東京都","city":"墨田区","address":"墨田区横川五丁目9番1号","lat":35.705206,"lon":139.817461},{"name":"両国屋内プール","province":"東京都","city":"墨田区","address":"墨田区横網一丁目8番1号両国中学校内","lat":35.697776,"lon":139.796287},{"name":"両国子育てひろば","province":"東京都","city":"墨田区","address":"墨田区横網一丁目2番13号","lat":35.697856,"lon":139.792447},{"name":"アスク両国保育園","province":"東京都","city":"墨田区","address":"墨田区亀沢二丁目14番9号","lat":35.6977116,"lon":139.8011501},{"name":"梅若保育園","province":"東京都","city":"墨田区","address":"墨田区墨田二丁目38番13号","lat":35.730793,"lon":139.817607},{"name":"おむらい保育園","province":"東京都","city":"墨田区","address":"墨田区文花一丁目32番1号103号室","lat":35.707797,"lon":139.824433},{"name":"鐘ヶ淵北保育園","province":"東京都","city":"墨田区","address":"墨田区堤通二丁目8番15号109号室","lat":35.735897,"lon":139.817221},{"name":"亀沢保育園","province":"東京都","city":"墨田区","address":"墨田区亀沢一丁目27番5号","lat":35.698556,"lon":139.799427},{"name":"江東橋保育園","province":"東京都","city":"墨田区","address":"墨田区緑四丁目35番9号","lat":35.695781,"lon":139.807469},{"name":"江東橋保育園（分園）","province":"東京都","city":"墨田区","address":"墨田区亀沢三丁目12番5号","lat":35.69714,"lon":139.804502},{"name":"しらひげ保育園","province":"東京都","city":"墨田区","address":"墨田区堤通二丁目5番5号101号室","lat":35.730935,"lon":139.813903},{"name":"水神保育園","province":"東京都","city":"墨田区","address":"墨田区堤通二丁目6番9号103号室","lat":35.733398,"lon":139.815873},{"name":"すみだ保育園","province":"東京都","city":"墨田区","address":"墨田区墨田四丁目22番4号101号室","lat":35.732047,"lon":139.823048},{"name":"太平保育園","province":"東京都","city":"墨田区","address":"墨田区太平一丁目13番10号","lat":35.700095,"lon":139.810371},{"name":"たちばな保育園","province":"東京都","city":"墨田区","address":"墨田区立花三丁目21番16号","lat":35.707091,"lon":139.83434},{"name":"立川保育園","province":"東京都","city":"墨田区","address":"墨田区立川一丁目5番2号","lat":35.690474,"lon":139.799566},{"name":"寺島保育園","province":"東京都","city":"墨田区","address":"墨田区東向島一丁目23番10号","lat":35.720181,"lon":139.812601},{"name":"長浦保育園","province":"東京都","city":"墨田区","address":"墨田区八広五丁目10番1号105号室","lat":35.72479,"lon":139.825747},{"name":"中川保育園","province":"東京都","city":"墨田区","address":"墨田区東墨田二丁目1番15号","lat":35.718702,"lon":139.830587},{"name":"中川南保育園","province":"東京都","city":"墨田区","address":"墨田区立花六丁目8番2号106号室","lat":35.710431,"lon":139.835519},{"name":"花園保育園","province":"東京都","city":"墨田区","address":"墨田区東向島三丁目16番2号","lat":35.72468,"lon":139.814625},{"name":"東あずま保育園","province":"東京都","city":"墨田区","address":"墨田区立花一丁目27番6号101号室","lat":35.704459,"lon":139.829229},{"name":"東駒形保育園","province":"東京都","city":"墨田区","address":"墨田区東駒形一丁目6番8号","lat":35.705406,"lon":139.798161},{"name":"福神橋保育園","province":"東京都","city":"墨田区","address":"墨田区文花一丁目30番21号101号室","lat":35.708174,"lon":139.822277},{"name":"文花保育園","province":"東京都","city":"墨田区","address":"墨田区文花一丁目24番5号","lat":35.709755,"lon":139.823212},{"name":"八広保育園","province":"東京都","city":"墨田区","address":"墨田区八広三丁目7番5号","lat":35.720913,"lon":139.826387},{"name":"横川橋保育園","province":"東京都","city":"墨田区","address":"墨田区太平一丁目27番13号","lat":35.702198,"lon":139.810873},{"name":"押上保育園","province":"東京都","city":"墨田区","address":"墨田区押上二丁目10番17号","lat":35.711381,"lon":139.811793},{"name":"わらべみどり保育園","province":"東京都","city":"墨田区","address":"墨田区緑三丁目12番2号","lat":35.694559,"lon":139.80445},{"name":"あおやぎ保育園","province":"東京都","city":"墨田区","address":"墨田区東向島四丁目37番17号","lat":35.725832,"lon":139.819226},{"name":"きんし保育園","province":"東京都","city":"墨田区","address":"墨田区江東橋四丁目30番2号301号室","lat":35.696602,"lon":139.818948},{"name":"ひきふね保育園","province":"東京都","city":"墨田区","address":"墨田区八広一丁目1番18号","lat":35.72007,"lon":139.821339},{"name":"横川さくら保育園","province":"東京都","city":"墨田区","address":"墨田区横川五丁目9番1号","lat":35.705023,"lon":139.817575},{"name":"横川さくら保育園（分園）","province":"東京都","city":"墨田区","address":"墨田区立花一丁目23番5号206号室","lat":35.706644,"lon":139.831219},{"name":"緑幼稚園","province":"東京都","city":"墨田区","address":"墨田区緑二丁目11番5号","lat":35.694147,"lon":139.801845},{"name":"柳島幼稚園","province":"東京都","city":"墨田区","address":"墨田区横川五丁目2番30号","lat":35.703311,"lon":139.817524},{"name":"菊川幼稚園","province":"東京都","city":"墨田区","address":"墨田区立川四丁目12番15号","lat":35.691487,"lon":139.807336},{"name":"第三寺島幼稚園","province":"東京都","city":"墨田区","address":"墨田区東向島六丁目8番1号","lat":35.721429,"lon":139.820417},{"name":"曳舟幼稚園","province":"東京都","city":"墨田区","address":"墨田区京島一丁目28番2号","lat":35.716029,"lon":139.82081},{"name":"八広幼稚園","province":"東京都","city":"墨田区","address":"墨田区八広五丁目12番15号","lat":35.72658,"lon":139.8256},{"name":"立花幼稚園","province":"東京都","city":"墨田区","address":"墨田区立花一丁目25番9号","lat":35.704833,"lon":139.831726},{"name":"（株）カズン八広店","province":"東京都","city":"墨田区","address":"東京都墨田区八広1丁目7-8","lat":35.72187168,"lon":139.82249696},{"name":"（株）片岡屏風店","province":"東京都","city":"墨田区","address":"東京都墨田区向島1丁目31-6","lat":35.71037389,"lon":139.8077118},{"name":"（株）キャニオン","province":"東京都","city":"墨田区","address":"東京都墨田区八広6丁目52-15","lat":35.72450188,"lon":139.83015983},{"name":"（株）四季園芸","province":"東京都","city":"墨田区","address":"東京都墨田区本所3丁目19-8","lat":35.7039911,"lon":139.80343557},{"name":"（株）隅田屋商店","province":"東京都","city":"墨田区","address":"東京都墨田区東駒形1丁目6-1","lat":35.70514101,"lon":139.79773892},{"name":"（株）なぎさ　葬儀相談センター","province":"東京都","city":"墨田区","address":"東京都墨田区江東橋4丁目5-10","lat":35.69379777,"lon":139.81872082},{"name":"（有）小梅寿司","province":"東京都","city":"墨田区","address":"東京都墨田区向島1丁目32-10","lat":35.70978505,"lon":139.80822015},{"name":"（有）関口","province":"東京都","city":"墨田区","address":"東京都墨田区本所4丁目19-12","lat":35.70414663,"lon":139.80525477},{"name":"BUNKAN","province":"東京都","city":"墨田区","address":"東京都墨田区京島3丁目17-7","lat":35.71603592,"lon":139.82431882},{"name":"Caf? chopin　カフェ・ショパン","province":"東京都","city":"墨田区","address":"東京都墨田区押上2丁目5-1","lat":35.71146558,"lon":139.81003356},{"name":"ENDO　GYM","province":"東京都","city":"墨田区","address":"東京都墨田区江東橋4丁目22-4","lat":35.69521145,"lon":139.81741543},{"name":"for‐R整体院","province":"東京都","city":"墨田区","address":"東京都墨田区錦糸1丁目7-16","lat":35.69813614,"lon":139.81012443},{"name":"Grow/Grow device","province":"東京都","city":"墨田区","address":"東京都墨田区江東橋4丁目24-9","lat":35.69580025,"lon":139.81889299},{"name":"HOLLY","province":"東京都","city":"墨田区","address":"東京都墨田区向島2丁目22-10","lat":35.71353218,"lon":139.80646203},{"name":"TOMORROW","province":"東京都","city":"墨田区","address":"東京都墨田区亀沢4丁目8-5","lat":35.69735293,"lon":139.80735544},{"name":"UCAN　SPORTSショップ","province":"東京都","city":"墨田区","address":"東京都墨田区緑2丁目11-2","lat":35.69400617,"lon":139.80204273},{"name":"アカチャンホンポ錦糸町店","province":"東京都","city":"墨田区","address":"東京都墨田区錦糸2丁目2-1","lat":35.69746951,"lon":139.81236592},{"name":"アクア鍼灸整骨院","province":"東京都","city":"墨田区","address":"東京都墨田区太平3丁目4-3","lat":35.70019968,"lon":139.81403496},{"name":"アズマカイロプラクティック","province":"東京都","city":"墨田区","address":"東京都墨田区太平3丁目7-3","lat":35.70059132,"lon":139.81343776},{"name":"アトリエ創藝館","province":"東京都","city":"墨田区","address":"東京都墨田区横川2丁目10-1","lat":35.70391599,"lon":139.81264858},{"name":"あゆみケアサービス","province":"東京都","city":"墨田区","address":"東京都墨田区墨田5丁目43-9","lat":35.73380644,"lon":139.81943606},{"name":"荒井湯","province":"東京都","city":"墨田区","address":"東京都墨田区本所2丁目8-7","lat":35.70342727,"lon":139.80067487},{"name":"アルカキット錦糸町","province":"東京都","city":"墨田区","address":"東京都墨田区錦糸2丁目2-1","lat":35.69746951,"lon":139.81236592},{"name":"居食屋　幸","province":"東京都","city":"墨田区","address":"東京都墨田区八広1丁目37-12","lat":35.72097152,"lon":139.82557424},{"name":"イトーヨーカドー曳舟店","province":"東京都","city":"墨田区","address":"東京都墨田区京島1丁目2-1","lat":35.7173108,"lon":139.81782799},{"name":"いまくに接骨院","province":"東京都","city":"墨田区","address":"東京都墨田区太平3丁目18-1","lat":35.70216889,"lon":139.81319598},{"name":"エース鍼灸整骨院","province":"東京都","city":"墨田区","address":"東京都墨田区京島1丁目53-9","lat":35.71761647,"lon":139.82268296},{"name":"ENEOSガソリンスタンド","province":"東京都","city":"墨田区","address":"東京都墨田区八広5丁目1-4","lat":35.72292157,"lon":139.82324965},{"name":"オリンピック墨田文花店","province":"東京都","city":"墨田区","address":"東京都墨田区文花1丁目31-9","lat":35.70678852,"lon":139.8237529},{"name":"尾張屋","province":"東京都","city":"墨田区","address":"東京都墨田区本所2丁目8-4","lat":35.70352448,"lon":139.80014715},{"name":"ガスト押上店","province":"東京都","city":"墨田区","address":"東京都墨田区業平3丁目17-9","lat":35.70943267,"lon":139.81346151},{"name":"ガスト錦糸町北口店","province":"東京都","city":"墨田区","address":"東京都墨田区錦糸1丁目17-10","lat":35.69788896,"lon":139.80895792},{"name":"CUT STUDIO KOJIMA","province":"東京都","city":"墨田区","address":"東京都墨田区八広1丁目36-10","lat":35.72071041,"lon":139.82558812},{"name":"カメカフェ","province":"東京都","city":"墨田区","address":"東京都墨田区石原1丁目23-4","lat":35.70013878,"lon":139.79885892},{"name":"河のや","province":"東京都","city":"墨田区","address":"東京都墨田区東駒形4丁目11-6","lat":35.70647421,"lon":139.80684587},{"name":"革バック工房　KIYOKAWA","province":"東京都","city":"墨田区","address":"東京都墨田区吾妻橋2丁目1-6","lat":35.70829072,"lon":139.80288504},{"name":"河原のあべ","province":"東京都","city":"墨田区","address":"東京都墨田区向島5丁目24-2","lat":35.71716588,"lon":139.8093595},{"name":"きそ路","province":"東京都","city":"墨田区","address":"東京都墨田区太平4丁目18-10","lat":35.70267146,"lon":139.81691517},{"name":"喫茶イーグル","province":"東京都","city":"墨田区","address":"東京都墨田区八広5丁目23-13","lat":35.72331308,"lon":139.82657696},{"name":"喫茶店トワ・エ・モワ","province":"東京都","city":"墨田区","address":"東京都墨田区八広5丁目3-17","lat":35.72252434,"lon":139.82377456},{"name":"きものレンタル淑Yoshi","province":"東京都","city":"墨田区","address":"東京都墨田区東駒形3丁目1-1","lat":35.70519376,"lon":139.80233276},{"name":"錦糸町飯店","province":"東京都","city":"墨田区","address":"東京都墨田区江東橋3丁目8-12","lat":35.6949615,"lon":139.81480747},{"name":"小菅（株）","province":"東京都","city":"墨田区","address":"東京都墨田区東向島2丁目33-2","lat":35.72011344,"lon":139.81692831},{"name":"コスモスあらいや","province":"東京都","city":"墨田区","address":"東京都墨田区押上3丁目34-8","lat":35.70992215,"lon":139.81947222},{"name":"こりこりアロマ整骨院","province":"東京都","city":"墨田区","address":"東京都墨田区押上1丁目29-6","lat":35.71054407,"lon":139.81595563},{"name":"ザ・ホテルベルグランデ","province":"東京都","city":"墨田区","address":"東京都墨田区両国2丁目19-1","lat":35.69545039,"lon":139.79215996},{"name":"埼玉屋小梅","province":"東京都","city":"墨田区","address":"東京都墨田区向島1丁目5-5","lat":35.71300991,"lon":139.80519824},{"name":"サミット両国石原店","province":"東京都","city":"墨田区","address":"東京都墨田区石原1丁目40-6","lat":35.70169692,"lon":139.79880036},{"name":"サンシャイ","province":"東京都","city":"墨田区","address":"東京都墨田区本所1丁目34-7","lat":35.70414388,"lon":139.79681693},{"name":"三徳湯","province":"東京都","city":"墨田区","address":"東京都墨田区八広6丁目8-8","lat":35.72842964,"lon":139.8263466},{"name":"實相寺","province":"東京都","city":"墨田区","address":"東京都墨田区東駒形2丁目10-14","lat":35.70590481,"lon":139.80012463},{"name":"Zipangu","province":"東京都","city":"墨田区","address":"東京都墨田区業平3丁目6-5","lat":35.70745489,"lon":139.81380904},{"name":"しもとり接骨院","province":"東京都","city":"墨田区","address":"東京都墨田区横網2丁目16-5","lat":35.70162472,"lon":139.79682284},{"name":"宗教法人　牛島神社","province":"東京都","city":"墨田区","address":"東京都墨田区向島1丁目4-5","lat":35.7129599,"lon":139.80472608},{"name":"宗教法人　法性寺","province":"東京都","city":"墨田区","address":"東京都墨田区業平5丁目7-7","lat":35.707544,"lon":139.81830046},{"name":"ジョナサン菊川店","province":"東京都","city":"墨田区","address":"東京都墨田区菊川2丁目7-9","lat":35.68879574,"lon":139.80558434},{"name":"スタア美容室","province":"東京都","city":"墨田区","address":"東京都墨田区東向島5丁目11-2","lat":35.72689905,"lon":139.81994473},{"name":"スポーツクラブルネサンス両国","province":"東京都","city":"墨田区","address":"東京都墨田区両国2丁目10-14","lat":35.69389782,"lon":139.79270461},{"name":"すみだ子どもサロン","province":"東京都","city":"墨田区","address":"東京都墨田区亀沢4丁目17-18","lat":35.69766955,"lon":139.80782755},{"name":"墨田湯","province":"東京都","city":"墨田区","address":"東京都墨田区吾妻橋2丁目5-4","lat":35.70919896,"lon":139.80255718},{"name":"生活彩館やひろでんき","province":"東京都","city":"墨田区","address":"東京都墨田区八広1丁目43-5","lat":35.72209369,"lon":139.82589645},{"name":"関口接骨院","province":"東京都","city":"墨田区","address":"東京都墨田区東向島3丁目30-17","lat":35.72317424,"lon":139.81347347},{"name":"鮮魚居酒屋ツル","province":"東京都","city":"墨田区","address":"東京都墨田区八広2丁目37-7","lat":35.7165744,"lon":139.82832107},{"name":"第一ホテル両国","province":"東京都","city":"墨田区","address":"東京都墨田区横網1丁目6-1","lat":35.69830846,"lon":139.79685114},{"name":"タイ教育・文化センター","province":"東京都","city":"墨田区","address":"東京都墨田区江東橋1丁目11-9","lat":35.69556144,"lon":139.8100803},{"name":"大黒湯","province":"東京都","city":"墨田区","address":"東京都墨田区横川3丁目12-14","lat":35.70501875,"lon":139.8135928},{"name":"田実興産（株）両国SS（ENEOS)","province":"東京都","city":"墨田区","address":"東京都墨田区両国2丁目9-1","lat":35.69402837,"lon":139.79302681},{"name":"たてかわ接骨院","province":"東京都","city":"墨田区","address":"東京都墨田区立川3丁目5-8","lat":35.6906066,"lon":139.80500095},{"name":"田中接骨院","province":"東京都","city":"墨田区","address":"東京都墨田区本所2丁目7-12","lat":35.70288844,"lon":139.80012502},{"name":"多聞寺","province":"東京都","city":"墨田区","address":"東京都墨田区墨田5丁目31-13","lat":35.73847792,"lon":139.81928562},{"name":"千歳接骨院","province":"東京都","city":"墨田区","address":"東京都墨田区千歳3丁目6-5","lat":35.69040673,"lon":139.79779956},{"name":"中華料理　喜楽","province":"東京都","city":"墨田区","address":"東京都墨田区東向島6丁目26-14","lat":35.72269383,"lon":139.82268584},{"name":"点茶","province":"東京都","city":"墨田区","address":"東京都墨田区向島4丁目1-3","lat":35.7159131,"lon":139.81060917},{"name":"東武ストア　業平店","province":"東京都","city":"墨田区","address":"東京都墨田区業平5丁目5-9","lat":35.7071217,"lon":139.81742558},{"name":"ドルフィンネイル","province":"東京都","city":"墨田区","address":"東京都墨田区向島4丁目1-1","lat":35.71578252,"lon":139.81036196},{"name":"永井接骨院","province":"東京都","city":"墨田区","address":"東京都墨田区京島3丁目45-12","lat":35.71297514,"lon":139.82386609},{"name":"なかむら","province":"東京都","city":"墨田区","address":"東京都墨田区東向島2丁目28-3","lat":35.71935791,"lon":139.81713378},{"name":"ながやま接骨院","province":"東京都","city":"墨田区","address":"東京都墨田区立川1丁目2-8","lat":35.68995956,"lon":139.79913827},{"name":"ニコニコ整骨院","province":"東京都","city":"墨田区","address":"東京都墨田区菊川2丁目8-8","lat":35.68847358,"lon":139.80453459},{"name":"張福染織（有）","province":"東京都","city":"墨田区","address":"東京都墨田区押上3丁目50-6","lat":35.71152818,"lon":139.82144964},{"name":"パル墨田","province":"東京都","city":"墨田区","address":"東京都墨田区向島3丁目3-1","lat":35.71375168,"lon":139.80757025},{"name":"ピアレストランこーらるカフェ","province":"東京都","city":"墨田区","address":"東京都墨田区向島3丁目2-1","lat":35.71333497,"lon":139.80706471},{"name":"ＢＥＡＮＳ珈琲","province":"東京都","city":"墨田区","address":"東京都墨田区石原3丁目16-4","lat":35.70045814,"lon":139.80416932},{"name":"東駒形　琴富貴（日本そば店）","province":"東京都","city":"墨田区","address":"東京都墨田区東駒形3丁目21-16","lat":35.70724358,"lon":139.80366008},{"name":"東向島珈琲店Pua　mana","province":"東京都","city":"墨田区","address":"東京都墨田区東向島1丁目34-7","lat":35.72003563,"lon":139.81541742},{"name":"輝接骨院","province":"東京都","city":"墨田区","address":"東京都墨田区押上3丁目43-7","lat":35.71073902,"lon":139.82030538},{"name":"ビューティーSAN","province":"東京都","city":"墨田区","address":"東京都墨田区江東橋5丁目8-18","lat":35.69148143,"lon":139.8100361},{"name":"美容室ブースト","province":"東京都","city":"墨田区","address":"東京都墨田区緑1丁目28-6","lat":35.69566712,"lon":139.79784031},{"name":"美容室プランソレイユ","province":"東京都","city":"墨田区","address":"東京都墨田区横網1丁目9-2","lat":35.69835288,"lon":139.79546506},{"name":"平河山　法恩寺","province":"東京都","city":"墨田区","address":"東京都墨田区太平1丁目26-16","lat":35.70218844,"lon":139.81023227},{"name":"ひらの接骨院","province":"東京都","city":"墨田区","address":"東京都墨田区東駒形2丁目15-12","lat":35.70664641,"lon":139.80177987},{"name":"ファッションスポット　タカタヤ","province":"東京都","city":"墨田区","address":"東京都墨田区向島5丁目35-12","lat":35.71709656,"lon":139.81173422},{"name":"ファミリーマート鈴木錦糸町店","province":"東京都","city":"墨田区","address":"東京都墨田区錦糸1丁目7-2","lat":35.69827779,"lon":139.80985222},{"name":"福島寝具店","province":"東京都","city":"墨田区","address":"東京都墨田区東墨田2丁目20-3","lat":35.72308788,"lon":139.83139014},{"name":"フジセ","province":"東京都","city":"墨田区","address":"東京都墨田区吾妻橋2丁目2-4","lat":35.70837959,"lon":139.8034544},{"name":"古畑接骨院","province":"東京都","city":"墨田区","address":"東京都墨田区緑2丁目11-11","lat":35.69422836,"lon":139.80278149},{"name":"文花整骨院","province":"東京都","city":"墨田区","address":"東京都墨田区立花2丁目5-6","lat":35.70978591,"lon":139.82875188},{"name":"ヘアーサロン　ニュータカハシ","province":"東京都","city":"墨田区","address":"東京都墨田区八広5丁目20-18","lat":35.72244099,"lon":139.82441336},{"name":"ヘアーサロン　ヨコテ","province":"東京都","city":"墨田区","address":"東京都墨田区緑1丁目19-6","lat":35.69508106,"lon":139.79888192},{"name":"ベル美容室","province":"東京都","city":"墨田区","address":"東京都墨田区江東橋5丁目3-11","lat":35.68894012,"lon":139.81139156},{"name":"保育所ちびっこランド錦糸町園","province":"東京都","city":"墨田区","address":"東京都墨田区江東橋4丁目15-6","lat":35.69465043,"lon":139.81772651},{"name":"ボイス","province":"東京都","city":"墨田区","address":"東京都墨田区向島3丁目4-3","lat":35.71450732,"lon":139.80869247},{"name":"ポーラ　エステイン佳","province":"東京都","city":"墨田区","address":"東京都墨田区石原3丁目34-10","lat":35.70183299,"lon":139.80284151},{"name":"ますかわ整骨院","province":"東京都","city":"墨田区","address":"東京都墨田区緑1丁目8-10","lat":35.69310912,"lon":139.79839621},{"name":"丸井錦糸町店","province":"東京都","city":"墨田区","address":"東京都墨田区江東橋3丁目9-10","lat":35.69504482,"lon":139.81366874},{"name":"マルエツ　錦糸町店","province":"東京都","city":"墨田区","address":"東京都墨田区太平1丁目14-1","lat":35.70044143,"lon":139.8098714},{"name":"マルエツ　プチ両国緑一丁目店","province":"東京都","city":"墨田区","address":"東京都墨田区緑1丁目15-12","lat":35.6943395,"lon":139.79891815},{"name":"マルエツ　両国亀沢店","province":"東京都","city":"墨田区","address":"東京都墨田区亀沢3丁目2-14","lat":35.69618086,"lon":139.80456708},{"name":"マルオオ製茶おおいし","province":"東京都","city":"墨田区","address":"東京都墨田区吾妻橋2丁目2-6","lat":35.70839626,"lon":139.80380989},{"name":"満留賀そば店","province":"東京都","city":"墨田区","address":"東京都墨田区押上1丁目18-6","lat":35.71201356,"lon":139.81586385},{"name":"メガネフレンド","province":"東京都","city":"墨田区","address":"東京都墨田区東駒形4丁目16-18","lat":35.70677696,"lon":139.80706802},{"name":"柳沢接骨院","province":"東京都","city":"墨田区","address":"東京都墨田区立花2丁目6","lat":35.709372,"lon":139.82910187},{"name":"有道接骨院・鍼灸マッサージ院","province":"東京都","city":"墨田区","address":"東京都墨田区東駒形4丁目21-1","lat":35.70777688,"lon":139.80463487},{"name":"らーめん匠屋","province":"東京都","city":"墨田区","address":"東京都墨田区太平3丁目9-9","lat":35.70088569,"lon":139.81449598},{"name":"ライフ東向島店","province":"東京都","city":"墨田区","address":"東京都墨田区東向島4丁目3-7","lat":35.72753226,"lon":139.81526231},{"name":"リサイクルショップ　バザー","province":"東京都","city":"墨田区","address":"東京都墨田区緑4丁目24-20","lat":35.69536148,"lon":139.80802505},{"name":"立正佼成会墨田教会","province":"東京都","city":"墨田区","address":"東京都墨田区亀沢2丁目9-9","lat":35.69685026,"lon":139.80167293},{"name":"Ｌｉｔｔｌｅ　Ｉｎｄｉａ","province":"東京都","city":"墨田区","address":"東京都墨田区錦糸3丁目11-1","lat":35.69919705,"lon":139.81348509},{"name":"理容サトウ","province":"東京都","city":"墨田区","address":"東京都墨田区立川2丁目1-18","lat":35.69037058,"lon":139.80121559},{"name":"ローソン錦糸一丁目店","province":"東京都","city":"墨田区","address":"東京都墨田区錦糸1丁目5-17","lat":35.69779729,"lon":139.80995227},{"name":"ローソン向島一丁目店","province":"東京都","city":"墨田区","address":"東京都墨田区向島1丁目12-3","lat":35.71245991,"lon":139.80597308},{"name":"ロッテシティビル","province":"東京都","city":"墨田区","address":"東京都墨田区錦糸4丁目6-1","lat":35.69756946,"lon":139.81536279},{"name":"和食さと　墨田堤通店","province":"東京都","city":"墨田区","address":"東京都墨田区堤通1丁目19-11","lat":35.72726835,"lon":139.81228508},{"name":"曳舟中央整骨院・鍼灸院","province":"東京都","city":"墨田区","address":"東京都墨田区京島1丁目24-9","lat":35.71589432,"lon":139.81958604},{"name":"あわの自然学園","province":"栃木県","city":"鹿沼市","address":"栃木県鹿沼市上粕尾1041","lat":36.59355317,"lon":139.50111412},{"name":"上小山田コミュニティセンター","province":"東京都","city":"町田市","address":"東京都町田市上小山田町2616-2","lat":35.59482706,"lon":139.39836205},{"name":"成瀬コミュニティセンター","province":"東京都","city":"町田市","address":"東京都町田市西成瀬2丁目49-1","lat":35.54352677,"lon":139.47274369},{"name":"つくし野コミュニティセンター","province":"東京都","city":"町田市","address":"東京都町田市つくし野2丁目26-5","lat":35.52716937,"lon":139.48469949},{"name":"木曽森野コミュニティセンター","province":"東京都","city":"町田市","address":"東京都町田市木曽東1丁目2","lat":35.55656271,"lon":139.43028811},{"name":"三輪コミュニティーセンター","province":"東京都","city":"町田市","address":"東京都町田市三輪緑山4丁目14-1","lat":35.5771346,"lon":139.4933507},{"name":"町田市民フォーラム","province":"東京都","city":"町田市","address":"東京都町田市原町田4丁目9-8","lat":35.54180052,"lon":139.44984799},{"name":"日進公園","province":"東京都","city":"墨田区","address":"東京都墨田区亀沢3丁目24-3","lat":35.69862503,"lon":139.80441676},{"name":"なつめ公園","province":"東京都","city":"墨田区","address":"東京都墨田区東向島6丁目40-2","lat":35.72445761,"lon":139.82188321},{"name":"すみだボランティアセンター","province":"東京都","city":"墨田区","address":"東京都墨田区東向島2丁目17-14","lat":35.71838566,"lon":139.81561446},{"name":"かつら児童遊園","province":"東京都","city":"墨田区","address":"東京都墨田区墨田3丁目36-13","lat":35.73147348,"lon":139.82056385},{"name":"堤通公園","province":"東京都","city":"墨田区","address":"東京都墨田区堤通1丁目8-1","lat":35.72447964,"lon":139.81077124},{"name":"すみだ健康ハウス","province":"東京都","city":"墨田区","address":"東京都墨田区東墨田1丁目2-6","lat":35.71772695,"lon":139.82970417},{"name":"文花公園","province":"東京都","city":"墨田区","address":"東京都墨田区文花1丁目27-5","lat":35.7094556,"lon":139.82244155},{"name":"とちのき児童遊園","province":"東京都","city":"墨田区","address":"東京都墨田区緑2丁目8-12","lat":35.69324795,"lon":139.80130406},{"name":"立川第二児童遊園","province":"東京都","city":"墨田区","address":"東京都墨田区立川3丁目15-6","lat":35.69203976,"lon":139.80390933},{"name":"押上第一児童遊園","province":"東京都","city":"墨田区","address":"東京都墨田区押上3丁目48-1","lat":35.71179188,"lon":139.82010526},{"name":"京島西公園","province":"東京都","city":"墨田区","address":"東京都墨田区京島1丁目22-3","lat":35.71567483,"lon":139.81871112},{"name":"東向島ふじ公園","province":"東京都","city":"墨田区","address":"東京都墨田区東向島2丁目46-7","lat":35.72032456,"lon":139.81849198},{"name":"曳舟さくら公園","province":"東京都","city":"墨田区","address":"東京都墨田区京島1丁目40-1","lat":35.71877194,"lon":139.82017778},{"name":"本四三ツ目児童遊園","province":"東京都","city":"墨田区","address":"東京都墨田区本所4丁目1-4","lat":35.70288841,"lon":139.80498554},{"name":"請地児童遊園","province":"東京都","city":"墨田区","address":"東京都墨田区向島4丁目12-11","lat":35.71693833,"lon":139.81343679},{"name":"八広中央公園","province":"東京都","city":"墨田区","address":"東京都墨田区八広3丁目13-19","lat":35.71918814,"lon":139.82718507},{"name":"たちばな仲よし公園","province":"東京都","city":"墨田区","address":"東京都墨田区立花5丁目19-2","lat":35.71244966,"lon":139.82994877},{"name":"東あずま公園南","province":"東京都","city":"墨田区","address":"東京都墨田区立花2丁目32-12","lat":35.70834973,"lon":139.83030736},{"name":"東あずま公園北","province":"東京都","city":"墨田区","address":"東京都墨田区立花2丁目32-12","lat":35.70834973,"lon":139.83030736},{"name":"千歳公園","province":"東京都","city":"墨田区","address":"東京都墨田区千歳2丁目2-1","lat":35.69036782,"lon":139.79502744},{"name":"墨田二丁目児童遊園","province":"東京都","city":"墨田区","address":"東京都墨田区墨田2丁目42-4","lat":35.73228443,"lon":139.81873074},{"name":"曳舟西ビューハイツ","province":"東京都","city":"墨田区","address":"東京都墨田区京島1丁目39-1","lat":35.71855525,"lon":139.81929177},{"name":"曳舟東ビューハイツ","province":"東京都","city":"墨田区","address":"東京都墨田区京島1丁目45-1","lat":35.71817198,"lon":139.8202444},{"name":"六軒児童遊園","province":"東京都","city":"墨田区","address":"東京都墨田区立花3丁目18-12","lat":35.70610819,"lon":139.83438194},{"name":"舟原公園","province":"東京都","city":"墨田区","address":"東京都墨田区八広2丁目43-16","lat":35.71514967,"lon":139.8267824},{"name":"亀沢第一児童遊園","province":"東京都","city":"墨田区","address":"東京都墨田区亀沢2丁目13-7","lat":35.69784458,"lon":139.80188665},{"name":"都営立花四丁目団地","province":"東京都","city":"墨田区","address":"東京都墨田区立花4丁目30-1","lat":35.70956343,"lon":139.83534283},{"name":"隅田第二児童遊園","province":"東京都","city":"墨田区","address":"東京都墨田区墨田4丁目8-14","lat":35.73288164,"lon":139.82186355},{"name":"墨田第三児童遊園","province":"東京都","city":"墨田区","address":"東京都墨田区墨田2丁目17-6","lat":35.7314956,"lon":139.81623679},{"name":"ごあずま児童遊園","province":"東京都","city":"墨田区","address":"東京都墨田区八広4丁目36-24","lat":35.7227685,"lon":139.82939596},{"name":"立花第一児童遊園","province":"東京都","city":"墨田区","address":"東京都墨田区立花4丁目9-6","lat":35.71009965,"lon":139.83163207},{"name":"隅田東児童遊園","province":"東京都","city":"墨田区","address":"東京都墨田区墨田4丁目52-12","lat":35.72950444,"lon":139.82512169},{"name":"押上第二児童遊園","province":"東京都","city":"墨田区","address":"東京都墨田区押上3丁目57-3","lat":35.71191978,"lon":139.82117743},{"name":"八広六西児童遊園","province":"東京都","city":"墨田区","address":"東京都墨田区八広6丁目13-1","lat":35.72851578,"lon":139.82735203},{"name":"墨田第六児童遊園","province":"東京都","city":"墨田区","address":"東京都墨田区墨田2丁目20-15","lat":35.73052355,"lon":139.81718117},{"name":"みわさと公園","province":"東京都","city":"墨田区","address":"東京都墨田区八広1丁目38-13","lat":35.72107709,"lon":139.82532706},{"name":"隅田東第二児童遊園","province":"東京都","city":"墨田区","address":"東京都墨田区墨田4丁目34-20","lat":35.73275392,"lon":139.82414937},{"name":"八広あずま公園","province":"東京都","city":"墨田区","address":"東京都墨田区八広4丁目19-14","lat":35.72376025,"lon":139.82809342},{"name":"露伴児童遊園","province":"東京都","city":"墨田区","address":"東京都墨田区東向島1丁目7-11","lat":35.72189933,"lon":139.81308177},{"name":"小梅児童遊園","province":"東京都","city":"墨田区","address":"東京都墨田区向島1丁目33-3","lat":35.71042667,"lon":139.80815339},{"name":"さつき公園","province":"東京都","city":"墨田区","address":"東京都墨田区東向島6丁目19-12","lat":35.72262441,"lon":139.82039453},{"name":"きねがわ公園","province":"東京都","city":"墨田区","address":"東京都墨田区東墨田2丁目25-8","lat":35.724149,"lon":139.83316217},{"name":"竪川親水公園","province":"東京都","city":"墨田区","address":"東京都墨田区江東橋2丁目1","lat":35.69309787,"lon":139.81198851},{"name":"菊川駐輪場","province":"東京都","city":"墨田区","address":"東京都墨田区菊川3丁目6-14","lat":35.68755145,"lon":139.80696471},{"name":"みどりコミュニティセンター","province":"東京都","city":"墨田区","address":"東京都墨田区緑3丁目7-3","lat":35.69361455,"lon":139.8032676},{"name":"業平防災待機職員住宅","province":"東京都","city":"墨田区","address":"東京都墨田区業平3丁目2-5","lat":35.70634375,"lon":139.8130676},{"name":"すみだ清掃事務所","province":"東京都","city":"墨田区","address":"東京都墨田区業平5丁目6-2","lat":35.70709118,"lon":139.81802555},{"name":"八広認定こども園","province":"東京都","city":"墨田区","address":"東京都墨田区八広3丁目7-5","lat":35.72091034,"lon":139.82649354},{"name":"江東橋二丁目その他緑地","province":"東京都","city":"墨田区","address":"東京都墨田区江東橋2丁目18","lat":35.6959086,"lon":139.81198834},{"name":"梅若橋コミュニティ会館","province":"東京都","city":"墨田区","address":"墨田区堤通二丁目9番1号","lat":35.735395,"lon":139.816696},{"name":"子育て支援総合センター","province":"東京都","city":"墨田区","address":"墨田区京島一丁目35番9号103号室マーク・ゼロワン曳舟タワー棟1階","lat":35.716666,"lon":139.819806},{"name":"さくら橋コミュニティセンター","province":"東京都","city":"墨田区","address":"墨田区向島二丁目3番8号","lat":35.71368,"lon":139.805844},{"name":"社会福祉会館","province":"東京都","city":"墨田区","address":"墨田区東墨田二丁目7番1号","lat":35.71903,"lon":139.830361},{"name":"スポーツプラザ梅若","province":"東京都","city":"墨田区","address":"墨田区墨田一丁目4番4号","lat":35.7292066,"lon":139.8158411},{"name":"墨田区総合体育館","province":"東京都","city":"墨田区","address":"墨田区錦糸四丁目15番1号","lat":35.6995475,"lon":139.8172152},{"name":"墨田区役所","province":"東京都","city":"墨田区","address":"墨田区吾妻橋一丁目23番20号","lat":35.710722,"lon":139.801497},{"name":"墨田児童会館","province":"東京都","city":"墨田区","address":"墨田区墨田二丁目30番15号","lat":35.729294,"lon":139.818932},{"name":"すみだ生涯学習センター","province":"東京都","city":"墨田区","address":"墨田区東向島二丁目38番7号","lat":35.721128,"lon":139.818398},{"name":"すみだ女性センター","province":"東京都","city":"墨田区","address":"墨田区押上二丁目12番7号111号室","lat":35.712706,"lon":139.812105},{"name":"すみだスポーツ健康センター","province":"東京都","city":"墨田区","address":"墨田区東墨田一丁目6番1号","lat":35.716461,"lon":139.830555},{"name":"すみだ中小企業センター","province":"東京都","city":"墨田区","address":"墨田区文花一丁目19番1号","lat":35.710607,"lon":139.823905},{"name":"外手児童館","province":"東京都","city":"墨田区","address":"墨田区本所二丁目6番9号","lat":35.702991,"lon":139.800778},{"name":"立川児童館","province":"東京都","city":"墨田区","address":"墨田区立川一丁目5番2号","lat":35.6905,"lon":139.799531},{"name":"立花児童館","province":"東京都","city":"墨田区","address":"墨田区立花一丁目27番9号","lat":35.705501,"lon":139.828832},{"name":"立花図書館","province":"東京都","city":"墨田区","address":"墨田区立花六丁目8番1号101号室","lat":35.710483,"lon":139.834888},{"name":"東京ガス・ライフバル両国","province":"東京都","city":"墨田区","address":"墨田区緑二丁目13番7号","lat":35.694548,"lon":139.801274},{"name":"中川児童館","province":"東京都","city":"墨田区","address":"墨田区立花五丁目18番9号","lat":35.712977,"lon":139.830966},{"name":"東駒形コミュニティ会館","province":"東京都","city":"墨田区","address":"墨田区東駒形四丁目14番1号","lat":35.705524,"lon":139.807754},{"name":"東向島児童館","province":"東京都","city":"墨田区","address":"墨田区東向島六丁目6番12号","lat":35.721429,"lon":139.819709},{"name":"ひきふね図書館","province":"東京都","city":"墨田区","address":"墨田区京島一丁目36番5号","lat":35.717058,"lon":139.819492},{"name":"文花子育てひろば","province":"東京都","city":"墨田区","address":"墨田区文花一丁目20番3号","lat":35.710452,"lon":139.822829},{"name":"文花児童館","province":"東京都","city":"墨田区","address":"墨田区文花一丁目32番11号","lat":35.708691,"lon":139.824397},{"name":"本所地域プラザ「BIGSHIP」","province":"東京都","city":"墨田区","address":"墨田区本所一丁目13番4号","lat":35.7031212,"lon":139.7987991},{"name":"みどりコミュニティセンター","province":"東京都","city":"墨田区","address":"墨田区緑三丁目7番3号","lat":35.693598,"lon":139.803278},{"name":"向島保健センター","province":"東京都","city":"墨田区","address":"墨田区東向島五丁目16番2号","lat":35.72591,"lon":139.821203},{"name":"八広児童館","province":"東京都","city":"墨田区","address":"墨田区八広二丁目38番14号","lat":35.715877,"lon":139.827933},{"name":"八広地域プラザ「吾嬬の里」","province":"東京都","city":"墨田区","address":"墨田区八広四丁目35番17号","lat":35.723165,"lon":139.829377},{"name":"八広図書館","province":"東京都","city":"墨田区","address":"墨田区八広五丁目10番1号104号室","lat":35.724809,"lon":139.825801},{"name":"八広はなみずき児童館","province":"東京都","city":"墨田区","address":"墨田区八広四丁目27番8号","lat":35.724575,"lon":139.82942},{"name":"横川コミュニティ会館","province":"東京都","city":"墨田区","address":"墨田区横川五丁目9番1号","lat":35.705206,"lon":139.817461},{"name":"両国屋内プール","province":"東京都","city":"墨田区","address":"墨田区横網一丁目8番1号両国中学校内","lat":35.697776,"lon":139.796287},{"name":"両国子育てひろば","province":"東京都","city":"墨田区","address":"墨田区横網一丁目2番13号","lat":35.697856,"lon":139.792447},{"name":"アスク両国保育園","province":"東京都","city":"墨田区","address":"墨田区亀沢二丁目14番9号","lat":35.6977116,"lon":139.8011501},{"name":"梅若保育園","province":"東京都","city":"墨田区","address":"墨田区墨田二丁目38番13号","lat":35.730793,"lon":139.817607},{"name":"おむらい保育園","province":"東京都","city":"墨田区","address":"墨田区文花一丁目32番1号103号室","lat":35.707797,"lon":139.824433},{"name":"鐘ヶ淵北保育園","province":"東京都","city":"墨田区","address":"墨田区堤通二丁目8番15号109号室","lat":35.735897,"lon":139.817221},{"name":"亀沢保育園","province":"東京都","city":"墨田区","address":"墨田区亀沢一丁目27番5号","lat":35.698556,"lon":139.799427},{"name":"江東橋保育園","province":"東京都","city":"墨田区","address":"墨田区緑四丁目35番9号","lat":35.695781,"lon":139.807469},{"name":"江東橋保育園（分園）","province":"東京都","city":"墨田区","address":"墨田区亀沢三丁目12番5号","lat":35.69714,"lon":139.804502},{"name":"しらひげ保育園","province":"東京都","city":"墨田区","address":"墨田区堤通二丁目5番5号101号室","lat":35.730935,"lon":139.813903},{"name":"水神保育園","province":"東京都","city":"墨田区","address":"墨田区堤通二丁目6番9号103号室","lat":35.733398,"lon":139.815873},{"name":"すみだ保育園","province":"東京都","city":"墨田区","address":"墨田区墨田四丁目22番4号101号室","lat":35.732047,"lon":139.823048},{"name":"太平保育園","province":"東京都","city":"墨田区","address":"墨田区太平一丁目13番10号","lat":35.700095,"lon":139.810371},{"name":"たちばな保育園","province":"東京都","city":"墨田区","address":"墨田区立花三丁目21番16号","lat":35.707091,"lon":139.83434},{"name":"立川保育園","province":"東京都","city":"墨田区","address":"墨田区立川一丁目5番2号","lat":35.690474,"lon":139.799566},{"name":"寺島保育園","province":"東京都","city":"墨田区","address":"墨田区東向島一丁目23番10号","lat":35.720181,"lon":139.812601},{"name":"長浦保育園","province":"東京都","city":"墨田区","address":"墨田区八広五丁目10番1号105号室","lat":35.72479,"lon":139.825747},{"name":"中川保育園","province":"東京都","city":"墨田区","address":"墨田区東墨田二丁目1番15号","lat":35.718702,"lon":139.830587},{"name":"中川南保育園","province":"東京都","city":"墨田区","address":"墨田区立花六丁目8番2号106号室","lat":35.710431,"lon":139.835519},{"name":"花園保育園","province":"東京都","city":"墨田区","address":"墨田区東向島三丁目16番2号","lat":35.72468,"lon":139.814625},{"name":"東あずま保育園","province":"東京都","city":"墨田区","address":"墨田区立花一丁目27番6号101号室","lat":35.704459,"lon":139.829229},{"name":"東駒形保育園","province":"東京都","city":"墨田区","address":"墨田区東駒形一丁目6番8号","lat":35.705406,"lon":139.798161},{"name":"福神橋保育園","province":"東京都","city":"墨田区","address":"墨田区文花一丁目30番21号101号室","lat":35.708174,"lon":139.822277},{"name":"文花保育園","province":"東京都","city":"墨田区","address":"墨田区文花一丁目24番5号","lat":35.709755,"lon":139.823212},{"name":"八広保育園","province":"東京都","city":"墨田区","address":"墨田区八広三丁目7番5号","lat":35.720913,"lon":139.826387},{"name":"横川橋保育園","province":"東京都","city":"墨田区","address":"墨田区太平一丁目27番13号","lat":35.702198,"lon":139.810873},{"name":"押上保育園","province":"東京都","city":"墨田区","address":"墨田区押上二丁目10番17号","lat":35.711381,"lon":139.811793},{"name":"わらべみどり保育園","province":"東京都","city":"墨田区","address":"墨田区緑三丁目12番2号","lat":35.694559,"lon":139.80445},{"name":"あおやぎ保育園","province":"東京都","city":"墨田区","address":"墨田区東向島四丁目37番17号","lat":35.725832,"lon":139.819226},{"name":"きんし保育園","province":"東京都","city":"墨田区","address":"墨田区江東橋四丁目30番2号301号室","lat":35.696602,"lon":139.818948},{"name":"ひきふね保育園","province":"東京都","city":"墨田区","address":"墨田区八広一丁目1番18号","lat":35.72007,"lon":139.821339},{"name":"横川さくら保育園","province":"東京都","city":"墨田区","address":"墨田区横川五丁目9番1号","lat":35.705023,"lon":139.817575},{"name":"横川さくら保育園（分園）","province":"東京都","city":"墨田区","address":"墨田区立花一丁目23番5号206号室","lat":35.706644,"lon":139.831219},{"name":"緑幼稚園","province":"東京都","city":"墨田区","address":"墨田区緑二丁目11番5号","lat":35.694147,"lon":139.801845},{"name":"柳島幼稚園","province":"東京都","city":"墨田区","address":"墨田区横川五丁目2番30号","lat":35.703311,"lon":139.817524},{"name":"菊川幼稚園","province":"東京都","city":"墨田区","address":"墨田区立川四丁目12番15号","lat":35.691487,"lon":139.807336},{"name":"第三寺島幼稚園","province":"東京都","city":"墨田区","address":"墨田区東向島六丁目8番1号","lat":35.721429,"lon":139.820417},{"name":"曳舟幼稚園","province":"東京都","city":"墨田区","address":"墨田区京島一丁目28番2号","lat":35.716029,"lon":139.82081},{"name":"八広幼稚園","province":"東京都","city":"墨田区","address":"墨田区八広五丁目12番15号","lat":35.72658,"lon":139.8256},{"name":"立花幼稚園","province":"東京都","city":"墨田区","address":"墨田区立花一丁目25番9号","lat":35.704833,"lon":139.831726},{"name":"（株）カズン八広店","province":"東京都","city":"墨田区","address":"東京都墨田区八広1丁目7-8","lat":35.72187168,"lon":139.82249696},{"name":"（株）片岡屏風店","province":"東京都","city":"墨田区","address":"東京都墨田区向島1丁目31-6","lat":35.71037389,"lon":139.8077118},{"name":"（株）キャニオン","province":"東京都","city":"墨田区","address":"東京都墨田区八広6丁目52-15","lat":35.72450188,"lon":139.83015983},{"name":"（株）四季園芸","province":"東京都","city":"墨田区","address":"東京都墨田区本所3丁目19-8","lat":35.7039911,"lon":139.80343557},{"name":"（株）隅田屋商店","province":"東京都","city":"墨田区","address":"東京都墨田区東駒形1丁目6-1","lat":35.70514101,"lon":139.79773892},{"name":"（株）なぎさ　葬儀相談センター","province":"東京都","city":"墨田区","address":"東京都墨田区江東橋4丁目5-10","lat":35.69379777,"lon":139.81872082},{"name":"（有）小梅寿司","province":"東京都","city":"墨田区","address":"東京都墨田区向島1丁目32-10","lat":35.70978505,"lon":139.80822015},{"name":"（有）関口","province":"東京都","city":"墨田区","address":"東京都墨田区本所4丁目19-12","lat":35.70414663,"lon":139.80525477},{"name":"BUNKAN","province":"東京都","city":"墨田区","address":"東京都墨田区京島3丁目17-7","lat":35.71603592,"lon":139.82431882},{"name":"Caf? chopin　カフェ・ショパン","province":"東京都","city":"墨田区","address":"東京都墨田区押上2丁目5-1","lat":35.71146558,"lon":139.81003356},{"name":"ENDO　GYM","province":"東京都","city":"墨田区","address":"東京都墨田区江東橋4丁目22-4","lat":35.69521145,"lon":139.81741543},{"name":"for‐R整体院","province":"東京都","city":"墨田区","address":"東京都墨田区錦糸1丁目7-16","lat":35.69813614,"lon":139.81012443},{"name":"Grow/Grow device","province":"東京都","city":"墨田区","address":"東京都墨田区江東橋4丁目24-9","lat":35.69580025,"lon":139.81889299},{"name":"HOLLY","province":"東京都","city":"墨田区","address":"東京都墨田区向島2丁目22-10","lat":35.71353218,"lon":139.80646203},{"name":"TOMORROW","province":"東京都","city":"墨田区","address":"東京都墨田区亀沢4丁目8-5","lat":35.69735293,"lon":139.80735544},{"name":"UCAN　SPORTSショップ","province":"東京都","city":"墨田区","address":"東京都墨田区緑2丁目11-2","lat":35.69400617,"lon":139.80204273},{"name":"アカチャンホンポ錦糸町店","province":"東京都","city":"墨田区","address":"東京都墨田区錦糸2丁目2-1","lat":35.69746951,"lon":139.81236592},{"name":"アクア鍼灸整骨院","province":"東京都","city":"墨田区","address":"東京都墨田区太平3丁目4-3","lat":35.70019968,"lon":139.81403496},{"name":"アズマカイロプラクティック","province":"東京都","city":"墨田区","address":"東京都墨田区太平3丁目7-3","lat":35.70059132,"lon":139.81343776},{"name":"アトリエ創藝館","province":"東京都","city":"墨田区","address":"東京都墨田区横川2丁目10-1","lat":35.70391599,"lon":139.81264858},{"name":"あゆみケアサービス","province":"東京都","city":"墨田区","address":"東京都墨田区墨田5丁目43-9","lat":35.73380644,"lon":139.81943606},{"name":"荒井湯","province":"東京都","city":"墨田区","address":"東京都墨田区本所2丁目8-7","lat":35.70342727,"lon":139.80067487},{"name":"アルカキット錦糸町","province":"東京都","city":"墨田区","address":"東京都墨田区錦糸2丁目2-1","lat":35.69746951,"lon":139.81236592},{"name":"居食屋　幸","province":"東京都","city":"墨田区","address":"東京都墨田区八広1丁目37-12","lat":35.72097152,"lon":139.82557424},{"name":"イトーヨーカドー曳舟店","province":"東京都","city":"墨田区","address":"東京都墨田区京島1丁目2-1","lat":35.7173108,"lon":139.81782799},{"name":"いまくに接骨院","province":"東京都","city":"墨田区","address":"東京都墨田区太平3丁目18-1","lat":35.70216889,"lon":139.81319598},{"name":"エース鍼灸整骨院","province":"東京都","city":"墨田区","address":"東京都墨田区京島1丁目53-9","lat":35.71761647,"lon":139.82268296},{"name":"ENEOSガソリンスタンド","province":"東京都","city":"墨田区","address":"東京都墨田区八広5丁目1-4","lat":35.72292157,"lon":139.82324965},{"name":"オリンピック墨田文花店","province":"東京都","city":"墨田区","address":"東京都墨田区文花1丁目31-9","lat":35.70678852,"lon":139.8237529},{"name":"尾張屋","province":"東京都","city":"墨田区","address":"東京都墨田区本所2丁目8-4","lat":35.70352448,"lon":139.80014715},{"name":"ガスト押上店","province":"東京都","city":"墨田区","address":"東京都墨田区業平3丁目17-9","lat":35.70943267,"lon":139.81346151},{"name":"ガスト錦糸町北口店","province":"東京都","city":"墨田区","address":"東京都墨田区錦糸1丁目17-10","lat":35.69788896,"lon":139.80895792},{"name":"CUT STUDIO KOJIMA","province":"東京都","city":"墨田区","address":"東京都墨田区八広1丁目36-10","lat":35.72071041,"lon":139.82558812},{"name":"カメカフェ","province":"東京都","city":"墨田区","address":"東京都墨田区石原1丁目23-4","lat":35.70013878,"lon":139.79885892},{"name":"河のや","province":"東京都","city":"墨田区","address":"東京都墨田区東駒形4丁目11-6","lat":35.70647421,"lon":139.80684587},{"name":"革バック工房　KIYOKAWA","province":"東京都","city":"墨田区","address":"東京都墨田区吾妻橋2丁目1-6","lat":35.70829072,"lon":139.80288504},{"name":"河原のあべ","province":"東京都","city":"墨田区","address":"東京都墨田区向島5丁目24-2","lat":35.71716588,"lon":139.8093595},{"name":"きそ路","province":"東京都","city":"墨田区","address":"東京都墨田区太平4丁目18-10","lat":35.70267146,"lon":139.81691517},{"name":"喫茶イーグル","province":"東京都","city":"墨田区","address":"東京都墨田区八広5丁目23-13","lat":35.72331308,"lon":139.82657696},{"name":"喫茶店トワ・エ・モワ","province":"東京都","city":"墨田区","address":"東京都墨田区八広5丁目3-17","lat":35.72252434,"lon":139.82377456},{"name":"きものレンタル淑Yoshi","province":"東京都","city":"墨田区","address":"東京都墨田区東駒形3丁目1-1","lat":35.70519376,"lon":139.80233276},{"name":"錦糸町飯店","province":"東京都","city":"墨田区","address":"東京都墨田区江東橋3丁目8-12","lat":35.6949615,"lon":139.81480747},{"name":"小菅（株）","province":"東京都","city":"墨田区","address":"東京都墨田区東向島2丁目33-2","lat":35.72011344,"lon":139.81692831},{"name":"コスモスあらいや","province":"東京都","city":"墨田区","address":"東京都墨田区押上3丁目34-8","lat":35.70992215,"lon":139.81947222},{"name":"こりこりアロマ整骨院","province":"東京都","city":"墨田区","address":"東京都墨田区押上1丁目29-6","lat":35.71054407,"lon":139.81595563},{"name":"ザ・ホテルベルグランデ","province":"東京都","city":"墨田区","address":"東京都墨田区両国2丁目19-1","lat":35.69545039,"lon":139.79215996},{"name":"埼玉屋小梅","province":"東京都","city":"墨田区","address":"東京都墨田区向島1丁目5-5","lat":35.71300991,"lon":139.80519824},{"name":"サミット両国石原店","province":"東京都","city":"墨田区","address":"東京都墨田区石原1丁目40-6","lat":35.70169692,"lon":139.79880036},{"name":"サンシャイ","province":"東京都","city":"墨田区","address":"東京都墨田区本所1丁目34-7","lat":35.70414388,"lon":139.79681693},{"name":"三徳湯","province":"東京都","city":"墨田区","address":"東京都墨田区八広6丁目8-8","lat":35.72842964,"lon":139.8263466},{"name":"實相寺","province":"東京都","city":"墨田区","address":"東京都墨田区東駒形2丁目10-14","lat":35.70590481,"lon":139.80012463},{"name":"Zipangu","province":"東京都","city":"墨田区","address":"東京都墨田区業平3丁目6-5","lat":35.70745489,"lon":139.81380904},{"name":"しもとり接骨院","province":"東京都","city":"墨田区","address":"東京都墨田区横網2丁目16-5","lat":35.70162472,"lon":139.79682284},{"name":"宗教法人　牛島神社","province":"東京都","city":"墨田区","address":"東京都墨田区向島1丁目4-5","lat":35.7129599,"lon":139.80472608},{"name":"宗教法人　法性寺","province":"東京都","city":"墨田区","address":"東京都墨田区業平5丁目7-7","lat":35.707544,"lon":139.81830046},{"name":"ジョナサン菊川店","province":"東京都","city":"墨田区","address":"東京都墨田区菊川2丁目7-9","lat":35.68879574,"lon":139.80558434},{"name":"スタア美容室","province":"東京都","city":"墨田区","address":"東京都墨田区東向島5丁目11-2","lat":35.72689905,"lon":139.81994473},{"name":"スポーツクラブルネサンス両国","province":"東京都","city":"墨田区","address":"東京都墨田区両国2丁目10-14","lat":35.69389782,"lon":139.79270461},{"name":"すみだ子どもサロン","province":"東京都","city":"墨田区","address":"東京都墨田区亀沢4丁目17-18","lat":35.69766955,"lon":139.80782755},{"name":"墨田湯","province":"東京都","city":"墨田区","address":"東京都墨田区吾妻橋2丁目5-4","lat":35.70919896,"lon":139.80255718},{"name":"生活彩館やひろでんき","province":"東京都","city":"墨田区","address":"東京都墨田区八広1丁目43-5","lat":35.72209369,"lon":139.82589645},{"name":"関口接骨院","province":"東京都","city":"墨田区","address":"東京都墨田区東向島3丁目30-17","lat":35.72317424,"lon":139.81347347},{"name":"鮮魚居酒屋ツル","province":"東京都","city":"墨田区","address":"東京都墨田区八広2丁目37-7","lat":35.7165744,"lon":139.82832107},{"name":"第一ホテル両国","province":"東京都","city":"墨田区","address":"東京都墨田区横網1丁目6-1","lat":35.69830846,"lon":139.79685114},{"name":"タイ教育・文化センター","province":"東京都","city":"墨田区","address":"東京都墨田区江東橋1丁目11-9","lat":35.69556144,"lon":139.8100803},{"name":"大黒湯","province":"東京都","city":"墨田区","address":"東京都墨田区横川3丁目12-14","lat":35.70501875,"lon":139.8135928},{"name":"田実興産（株）両国SS（ENEOS)","province":"東京都","city":"墨田区","address":"東京都墨田区両国2丁目9-1","lat":35.69402837,"lon":139.79302681},{"name":"たてかわ接骨院","province":"東京都","city":"墨田区","address":"東京都墨田区立川3丁目5-8","lat":35.6906066,"lon":139.80500095},{"name":"田中接骨院","province":"東京都","city":"墨田区","address":"東京都墨田区本所2丁目7-12","lat":35.70288844,"lon":139.80012502},{"name":"多聞寺","province":"東京都","city":"墨田区","address":"東京都墨田区墨田5丁目31-13","lat":35.73847792,"lon":139.81928562},{"name":"千歳接骨院","province":"東京都","city":"墨田区","address":"東京都墨田区千歳3丁目6-5","lat":35.69040673,"lon":139.79779956},{"name":"中華料理　喜楽","province":"東京都","city":"墨田区","address":"東京都墨田区東向島6丁目26-14","lat":35.72269383,"lon":139.82268584},{"name":"点茶","province":"東京都","city":"墨田区","address":"東京都墨田区向島4丁目1-3","lat":35.7159131,"lon":139.81060917},{"name":"東武ストア　業平店","province":"東京都","city":"墨田区","address":"東京都墨田区業平5丁目5-9","lat":35.7071217,"lon":139.81742558},{"name":"ドルフィンネイル","province":"東京都","city":"墨田区","address":"東京都墨田区向島4丁目1-1","lat":35.71578252,"lon":139.81036196},{"name":"永井接骨院","province":"東京都","city":"墨田区","address":"東京都墨田区京島3丁目45-12","lat":35.71297514,"lon":139.82386609},{"name":"なかむら","province":"東京都","city":"墨田区","address":"東京都墨田区東向島2丁目28-3","lat":35.71935791,"lon":139.81713378},{"name":"ながやま接骨院","province":"東京都","city":"墨田区","address":"東京都墨田区立川1丁目2-8","lat":35.68995956,"lon":139.79913827},{"name":"ニコニコ整骨院","province":"東京都","city":"墨田区","address":"東京都墨田区菊川2丁目8-8","lat":35.68847358,"lon":139.80453459},{"name":"張福染織（有）","province":"東京都","city":"墨田区","address":"東京都墨田区押上3丁目50-6","lat":35.71152818,"lon":139.82144964},{"name":"パル墨田","province":"東京都","city":"墨田区","address":"東京都墨田区向島3丁目3-1","lat":35.71375168,"lon":139.80757025},{"name":"ピアレストランこーらるカフェ","province":"東京都","city":"墨田区","address":"東京都墨田区向島3丁目2-1","lat":35.71333497,"lon":139.80706471},{"name":"ＢＥＡＮＳ珈琲","province":"東京都","city":"墨田区","address":"東京都墨田区石原3丁目16-4","lat":35.70045814,"lon":139.80416932},{"name":"東駒形　琴富貴（日本そば店）","province":"東京都","city":"墨田区","address":"東京都墨田区東駒形3丁目21-16","lat":35.70724358,"lon":139.80366008},{"name":"東向島珈琲店Pua　mana","province":"東京都","city":"墨田区","address":"東京都墨田区東向島1丁目34-7","lat":35.72003563,"lon":139.81541742},{"name":"輝接骨院","province":"東京都","city":"墨田区","address":"東京都墨田区押上3丁目43-7","lat":35.71073902,"lon":139.82030538},{"name":"ビューティーSAN","province":"東京都","city":"墨田区","address":"東京都墨田区江東橋5丁目8-18","lat":35.69148143,"lon":139.8100361},{"name":"美容室ブースト","province":"東京都","city":"墨田区","address":"東京都墨田区緑1丁目28-6","lat":35.69566712,"lon":139.79784031},{"name":"美容室プランソレイユ","province":"東京都","city":"墨田区","address":"東京都墨田区横網1丁目9-2","lat":35.69835288,"lon":139.79546506},{"name":"平河山　法恩寺","province":"東京都","city":"墨田区","address":"東京都墨田区太平1丁目26-16","lat":35.70218844,"lon":139.81023227},{"name":"ひらの接骨院","province":"東京都","city":"墨田区","address":"東京都墨田区東駒形2丁目15-12","lat":35.70664641,"lon":139.80177987},{"name":"ファッションスポット　タカタヤ","province":"東京都","city":"墨田区","address":"東京都墨田区向島5丁目35-12","lat":35.71709656,"lon":139.81173422},{"name":"ファミリーマート鈴木錦糸町店","province":"東京都","city":"墨田区","address":"東京都墨田区錦糸1丁目7-2","lat":35.69827779,"lon":139.80985222},{"name":"福島寝具店","province":"東京都","city":"墨田区","address":"東京都墨田区東墨田2丁目20-3","lat":35.72308788,"lon":139.83139014},{"name":"フジセ","province":"東京都","city":"墨田区","address":"東京都墨田区吾妻橋2丁目2-4","lat":35.70837959,"lon":139.8034544},{"name":"古畑接骨院","province":"東京都","city":"墨田区","address":"東京都墨田区緑2丁目11-11","lat":35.69422836,"lon":139.80278149},{"name":"文花整骨院","province":"東京都","city":"墨田区","address":"東京都墨田区立花2丁目5-6","lat":35.70978591,"lon":139.82875188},{"name":"ヘアーサロン　ニュータカハシ","province":"東京都","city":"墨田区","address":"東京都墨田区八広5丁目20-18","lat":35.72244099,"lon":139.82441336},{"name":"ヘアーサロン　ヨコテ","province":"東京都","city":"墨田区","address":"東京都墨田区緑1丁目19-6","lat":35.69508106,"lon":139.79888192},{"name":"ベル美容室","province":"東京都","city":"墨田区","address":"東京都墨田区江東橋5丁目3-11","lat":35.68894012,"lon":139.81139156},{"name":"保育所ちびっこランド錦糸町園","province":"東京都","city":"墨田区","address":"東京都墨田区江東橋4丁目15-6","lat":35.69465043,"lon":139.81772651},{"name":"ボイス","province":"東京都","city":"墨田区","address":"東京都墨田区向島3丁目4-3","lat":35.71450732,"lon":139.80869247},{"name":"ポーラ　エステイン佳","province":"東京都","city":"墨田区","address":"東京都墨田区石原3丁目34-10","lat":35.70183299,"lon":139.80284151},{"name":"ますかわ整骨院","province":"東京都","city":"墨田区","address":"東京都墨田区緑1丁目8-10","lat":35.69310912,"lon":139.79839621},{"name":"丸井錦糸町店","province":"東京都","city":"墨田区","address":"東京都墨田区江東橋3丁目9-10","lat":35.69504482,"lon":139.81366874},{"name":"マルエツ　錦糸町店","province":"東京都","city":"墨田区","address":"東京都墨田区太平1丁目14-1","lat":35.70044143,"lon":139.8098714},{"name":"マルエツ　プチ両国緑一丁目店","province":"東京都","city":"墨田区","address":"東京都墨田区緑1丁目15-12","lat":35.6943395,"lon":139.79891815},{"name":"マルエツ　両国亀沢店","province":"東京都","city":"墨田区","address":"東京都墨田区亀沢3丁目2-14","lat":35.69618086,"lon":139.80456708},{"name":"マルオオ製茶おおいし","province":"東京都","city":"墨田区","address":"東京都墨田区吾妻橋2丁目2-6","lat":35.70839626,"lon":139.80380989},{"name":"満留賀そば店","province":"東京都","city":"墨田区","address":"東京都墨田区押上1丁目18-6","lat":35.71201356,"lon":139.81586385},{"name":"メガネフレンド","province":"東京都","city":"墨田区","address":"東京都墨田区東駒形4丁目16-18","lat":35.70677696,"lon":139.80706802},{"name":"柳沢接骨院","province":"東京都","city":"墨田区","address":"東京都墨田区立花2丁目6","lat":35.709372,"lon":139.82910187},{"name":"有道接骨院・鍼灸マッサージ院","province":"東京都","city":"墨田区","address":"東京都墨田区東駒形4丁目21-1","lat":35.70777688,"lon":139.80463487},{"name":"らーめん匠屋","province":"東京都","city":"墨田区","address":"東京都墨田区太平3丁目9-9","lat":35.70088569,"lon":139.81449598},{"name":"ライフ東向島店","province":"東京都","city":"墨田区","address":"東京都墨田区東向島4丁目3-7","lat":35.72753226,"lon":139.81526231},{"name":"リサイクルショップ　バザー","province":"東京都","city":"墨田区","address":"東京都墨田区緑4丁目24-20","lat":35.69536148,"lon":139.80802505},{"name":"立正佼成会墨田教会","province":"東京都","city":"墨田区","address":"東京都墨田区亀沢2丁目9-9","lat":35.69685026,"lon":139.80167293},{"name":"Ｌｉｔｔｌｅ　Ｉｎｄｉａ","province":"東京都","city":"墨田区","address":"東京都墨田区錦糸3丁目11-1","lat":35.69919705,"lon":139.81348509},{"name":"理容サトウ","province":"東京都","city":"墨田区","address":"東京都墨田区立川2丁目1-18","lat":35.69037058,"lon":139.80121559},{"name":"ローソン錦糸一丁目店","province":"東京都","city":"墨田区","address":"東京都墨田区錦糸1丁目5-17","lat":35.69779729,"lon":139.80995227},{"name":"ローソン向島一丁目店","province":"東京都","city":"墨田区","address":"東京都墨田区向島1丁目12-3","lat":35.71245991,"lon":139.80597308},{"name":"ロッテシティビル","province":"東京都","city":"墨田区","address":"東京都墨田区錦糸4丁目6-1","lat":35.69756946,"lon":139.81536279},{"name":"和食さと　墨田堤通店","province":"東京都","city":"墨田区","address":"東京都墨田区堤通1丁目19-11","lat":35.72726835,"lon":139.81228508},{"name":"曳舟中央整骨院・鍼灸院","province":"東京都","city":"墨田区","address":"東京都墨田区京島1丁目24-9","lat":35.71589432,"lon":139.81958604},{"name":"あわの自然学園","province":"栃木県","city":"鹿沼市","address":"栃木県鹿沼市上粕尾1041","lat":36.59355317,"lon":139.50111412},{"name":"上小山田コミュニティセンター","province":"東京都","city":"町田市","address":"東京都町田市上小山田町2616-2","lat":35.59482706,"lon":139.39836205},{"name":"成瀬コミュニティセンター","province":"東京都","city":"町田市","address":"東京都町田市西成瀬2丁目49-1","lat":35.54352677,"lon":139.47274369},{"name":"つくし野コミュニティセンター","province":"東京都","city":"町田市","address":"東京都町田市つくし野2丁目26-5","lat":35.52716937,"lon":139.48469949},{"name":"木曽森野コミュニティセンター","province":"東京都","city":"町田市","address":"東京都町田市木曽東1丁目2","lat":35.55656271,"lon":139.43028811},{"name":"三輪コミュニティーセンター","province":"東京都","city":"町田市","address":"東京都町田市三輪緑山4丁目14-1","lat":35.5771346,"lon":139.4933507},{"name":"町田市民フォーラム","province":"東京都","city":"町田市","address":"東京都町田市原町田4丁目9-8","lat":35.54180052,"lon":139.44984799},{"name":"日進公園","province":"東京都","city":"墨田区","address":"東京都墨田区亀沢3丁目24-3","lat":35.69862503,"lon":139.80441676},{"name":"なつめ公園","province":"東京都","city":"墨田区","address":"東京都墨田区東向島6丁目40-2","lat":35.72445761,"lon":139.82188321},{"name":"すみだボランティアセンター","province":"東京都","city":"墨田区","address":"東京都墨田区東向島2丁目17-14","lat":35.71838566,"lon":139.81561446},{"name":"かつら児童遊園","province":"東京都","city":"墨田区","address":"東京都墨田区墨田3丁目36-13","lat":35.73147348,"lon":139.82056385},{"name":"堤通公園","province":"東京都","city":"墨田区","address":"東京都墨田区堤通1丁目8-1","lat":35.72447964,"lon":139.81077124},{"name":"すみだ健康ハウス","province":"東京都","city":"墨田区","address":"東京都墨田区東墨田1丁目2-6","lat":35.71772695,"lon":139.82970417},{"name":"文花公園","province":"東京都","city":"墨田区","address":"東京都墨田区文花1丁目27-5","lat":35.7094556,"lon":139.82244155},{"name":"とちのき児童遊園","province":"東京都","city":"墨田区","address":"東京都墨田区緑2丁目8-12","lat":35.69324795,"lon":139.80130406},{"name":"立川第二児童遊園","province":"東京都","city":"墨田区","address":"東京都墨田区立川3丁目15-6","lat":35.69203976,"lon":139.80390933},{"name":"押上第一児童遊園","province":"東京都","city":"墨田区","address":"東京都墨田区押上3丁目48-1","lat":35.71179188,"lon":139.82010526},{"name":"京島西公園","province":"東京都","city":"墨田区","address":"東京都墨田区京島1丁目22-3","lat":35.71567483,"lon":139.81871112},{"name":"東向島ふじ公園","province":"東京都","city":"墨田区","address":"東京都墨田区東向島2丁目46-7","lat":35.72032456,"lon":139.81849198},{"name":"曳舟さくら公園","province":"東京都","city":"墨田区","address":"東京都墨田区京島1丁目40-1","lat":35.71877194,"lon":139.82017778},{"name":"本四三ツ目児童遊園","province":"東京都","city":"墨田区","address":"東京都墨田区本所4丁目1-4","lat":35.70288841,"lon":139.80498554},{"name":"請地児童遊園","province":"東京都","city":"墨田区","address":"東京都墨田区向島4丁目12-11","lat":35.71693833,"lon":139.81343679},{"name":"八広中央公園","province":"東京都","city":"墨田区","address":"東京都墨田区八広3丁目13-19","lat":35.71918814,"lon":139.82718507},{"name":"たちばな仲よし公園","province":"東京都","city":"墨田区","address":"東京都墨田区立花5丁目19-2","lat":35.71244966,"lon":139.82994877},{"name":"東あずま公園南","province":"東京都","city":"墨田区","address":"東京都墨田区立花2丁目32-12","lat":35.70834973,"lon":139.83030736},{"name":"東あずま公園北","province":"東京都","city":"墨田区","address":"東京都墨田区立花2丁目32-12","lat":35.70834973,"lon":139.83030736},{"name":"千歳公園","province":"東京都","city":"墨田区","address":"東京都墨田区千歳2丁目2-1","lat":35.69036782,"lon":139.79502744},{"name":"墨田二丁目児童遊園","province":"東京都","city":"墨田区","address":"東京都墨田区墨田2丁目42-4","lat":35.73228443,"lon":139.81873074},{"name":"曳舟西ビューハイツ","province":"東京都","city":"墨田区","address":"東京都墨田区京島1丁目39-1","lat":35.71855525,"lon":139.81929177},{"name":"曳舟東ビューハイツ","province":"東京都","city":"墨田区","address":"東京都墨田区京島1丁目45-1","lat":35.71817198,"lon":139.8202444},{"name":"六軒児童遊園","province":"東京都","city":"墨田区","address":"東京都墨田区立花3丁目18-12","lat":35.70610819,"lon":139.83438194},{"name":"舟原公園","province":"東京都","city":"墨田区","address":"東京都墨田区八広2丁目43-16","lat":35.71514967,"lon":139.8267824},{"name":"亀沢第一児童遊園","province":"東京都","city":"墨田区","address":"東京都墨田区亀沢2丁目13-7","lat":35.69784458,"lon":139.80188665},{"name":"都営立花四丁目団地","province":"東京都","city":"墨田区","address":"東京都墨田区立花4丁目30-1","lat":35.70956343,"lon":139.83534283},{"name":"隅田第二児童遊園","province":"東京都","city":"墨田区","address":"東京都墨田区墨田4丁目8-14","lat":35.73288164,"lon":139.82186355},{"name":"墨田第三児童遊園","province":"東京都","city":"墨田区","address":"東京都墨田区墨田2丁目17-6","lat":35.7314956,"lon":139.81623679},{"name":"ごあずま児童遊園","province":"東京都","city":"墨田区","address":"東京都墨田区八広4丁目36-24","lat":35.7227685,"lon":139.82939596},{"name":"立花第一児童遊園","province":"東京都","city":"墨田区","address":"東京都墨田区立花4丁目9-6","lat":35.71009965,"lon":139.83163207},{"name":"隅田東児童遊園","province":"東京都","city":"墨田区","address":"東京都墨田区墨田4丁目52-12","lat":35.72950444,"lon":139.82512169},{"name":"押上第二児童遊園","province":"東京都","city":"墨田区","address":"東京都墨田区押上3丁目57-3","lat":35.71191978,"lon":139.82117743},{"name":"八広六西児童遊園","province":"東京都","city":"墨田区","address":"東京都墨田区八広6丁目13-1","lat":35.72851578,"lon":139.82735203},{"name":"墨田第六児童遊園","province":"東京都","city":"墨田区","address":"東京都墨田区墨田2丁目20-15","lat":35.73052355,"lon":139.81718117},{"name":"みわさと公園","province":"東京都","city":"墨田区","address":"東京都墨田区八広1丁目38-13","lat":35.72107709,"lon":139.82532706},{"name":"隅田東第二児童遊園","province":"東京都","city":"墨田区","address":"東京都墨田区墨田4丁目34-20","lat":35.73275392,"lon":139.82414937},{"name":"八広あずま公園","province":"東京都","city":"墨田区","address":"東京都墨田区八広4丁目19-14","lat":35.72376025,"lon":139.82809342},{"name":"露伴児童遊園","province":"東京都","city":"墨田区","address":"東京都墨田区東向島1丁目7-11","lat":35.72189933,"lon":139.81308177},{"name":"小梅児童遊園","province":"東京都","city":"墨田区","address":"東京都墨田区向島1丁目33-3","lat":35.71042667,"lon":139.80815339},{"name":"さつき公園","province":"東京都","city":"墨田区","address":"東京都墨田区東向島6丁目19-12","lat":35.72262441,"lon":139.82039453},{"name":"きねがわ公園","province":"東京都","city":"墨田区","address":"東京都墨田区東墨田2丁目25-8","lat":35.724149,"lon":139.83316217},{"name":"竪川親水公園","province":"東京都","city":"墨田区","address":"東京都墨田区江東橋2丁目1","lat":35.69309787,"lon":139.81198851},{"name":"菊川駐輪場","province":"東京都","city":"墨田区","address":"東京都墨田区菊川3丁目6-14","lat":35.68755145,"lon":139.80696471},{"name":"みどりコミュニティセンター","province":"東京都","city":"墨田区","address":"東京都墨田区緑3丁目7-3","lat":35.69361455,"lon":139.8032676},{"name":"業平防災待機職員住宅","province":"東京都","city":"墨田区","address":"東京都墨田区業平3丁目2-5","lat":35.70634375,"lon":139.8130676},{"name":"すみだ清掃事務所","province":"東京都","city":"墨田区","address":"東京都墨田区業平5丁目6-2","lat":35.70709118,"lon":139.81802555},{"name":"八広認定こども園","province":"東京都","city":"墨田区","address":"東京都墨田区八広3丁目7-5","lat":35.72091034,"lon":139.82649354},{"name":"江東橋二丁目その他緑地","province":"東京都","city":"墨田区","address":"東京都墨田区江東橋2丁目18","lat":35.6959086,"lon":139.81198834},{"name":"梅若橋コミュニティ会館","province":"東京都","city":"墨田区","address":"墨田区堤通二丁目9番1号","lat":35.735395,"lon":139.816696},{"name":"子育て支援総合センター","province":"東京都","city":"墨田区","address":"墨田区京島一丁目35番9号103号室マーク・ゼロワン曳舟タワー棟1階","lat":35.716666,"lon":139.819806},{"name":"さくら橋コミュニティセンター","province":"東京都","city":"墨田区","address":"墨田区向島二丁目3番8号","lat":35.71368,"lon":139.805844},{"name":"社会福祉会館","province":"東京都","city":"墨田区","address":"墨田区東墨田二丁目7番1号","lat":35.71903,"lon":139.830361},{"name":"スポーツプラザ梅若","province":"東京都","city":"墨田区","address":"墨田区墨田一丁目4番4号","lat":35.7292066,"lon":139.8158411},{"name":"墨田区総合体育館","province":"東京都","city":"墨田区","address":"墨田区錦糸四丁目15番1号","lat":35.6995475,"lon":139.8172152},{"name":"墨田区役所","province":"東京都","city":"墨田区","address":"墨田区吾妻橋一丁目23番20号","lat":35.710722,"lon":139.801497},{"name":"墨田児童会館","province":"東京都","city":"墨田区","address":"墨田区墨田二丁目30番15号","lat":35.729294,"lon":139.818932},{"name":"すみだ生涯学習センター","province":"東京都","city":"墨田区","address":"墨田区東向島二丁目38番7号","lat":35.721128,"lon":139.818398},{"name":"すみだ女性センター","province":"東京都","city":"墨田区","address":"墨田区押上二丁目12番7号111号室","lat":35.712706,"lon":139.812105},{"name":"すみだスポーツ健康センター","province":"東京都","city":"墨田区","address":"墨田区東墨田一丁目6番1号","lat":35.716461,"lon":139.830555},{"name":"すみだ中小企業センター","province":"東京都","city":"墨田区","address":"墨田区文花一丁目19番1号","lat":35.710607,"lon":139.823905},{"name":"外手児童館","province":"東京都","city":"墨田区","address":"墨田区本所二丁目6番9号","lat":35.702991,"lon":139.800778},{"name":"立川児童館","province":"東京都","city":"墨田区","address":"墨田区立川一丁目5番2号","lat":35.6905,"lon":139.799531},{"name":"立花児童館","province":"東京都","city":"墨田区","address":"墨田区立花一丁目27番9号","lat":35.705501,"lon":139.828832},{"name":"立花図書館","province":"東京都","city":"墨田区","address":"墨田区立花六丁目8番1号101号室","lat":35.710483,"lon":139.834888},{"name":"東京ガス・ライフバル両国","province":"東京都","city":"墨田区","address":"墨田区緑二丁目13番7号","lat":35.694548,"lon":139.801274},{"name":"中川児童館","province":"東京都","city":"墨田区","address":"墨田区立花五丁目18番9号","lat":35.712977,"lon":139.830966},{"name":"東駒形コミュニティ会館","province":"東京都","city":"墨田区","address":"墨田区東駒形四丁目14番1号","lat":35.705524,"lon":139.807754},{"name":"東向島児童館","province":"東京都","city":"墨田区","address":"墨田区東向島六丁目6番12号","lat":35.721429,"lon":139.819709},{"name":"ひきふね図書館","province":"東京都","city":"墨田区","address":"墨田区京島一丁目36番5号","lat":35.717058,"lon":139.819492},{"name":"文花子育てひろば","province":"東京都","city":"墨田区","address":"墨田区文花一丁目20番3号","lat":35.710452,"lon":139.822829},{"name":"文花児童館","province":"東京都","city":"墨田区","address":"墨田区文花一丁目32番11号","lat":35.708691,"lon":139.824397},{"name":"本所地域プラザ「BIGSHIP」","province":"東京都","city":"墨田区","address":"墨田区本所一丁目13番4号","lat":35.7031212,"lon":139.7987991},{"name":"みどりコミュニティセンター","province":"東京都","city":"墨田区","address":"墨田区緑三丁目7番3号","lat":35.693598,"lon":139.803278},{"name":"向島保健センター","province":"東京都","city":"墨田区","address":"墨田区東向島五丁目16番2号","lat":35.72591,"lon":139.821203},{"name":"八広児童館","province":"東京都","city":"墨田区","address":"墨田区八広二丁目38番14号","lat":35.715877,"lon":139.827933},{"name":"八広地域プラザ「吾嬬の里」","province":"東京都","city":"墨田区","address":"墨田区八広四丁目35番17号","lat":35.723165,"lon":139.829377},{"name":"八広図書館","province":"東京都","city":"墨田区","address":"墨田区八広五丁目10番1号104号室","lat":35.724809,"lon":139.825801},{"name":"八広はなみずき児童館","province":"東京都","city":"墨田区","address":"墨田区八広四丁目27番8号","lat":35.724575,"lon":139.82942},{"name":"横川コミュニティ会館","province":"東京都","city":"墨田区","address":"墨田区横川五丁目9番1号","lat":35.705206,"lon":139.817461},{"name":"両国屋内プール","province":"東京都","city":"墨田区","address":"墨田区横網一丁目8番1号両国中学校内","lat":35.697776,"lon":139.796287},{"name":"両国子育てひろば","province":"東京都","city":"墨田区","address":"墨田区横網一丁目2番13号","lat":35.697856,"lon":139.792447},{"name":"アスク両国保育園","province":"東京都","city":"墨田区","address":"墨田区亀沢二丁目14番9号","lat":35.6977116,"lon":139.8011501},{"name":"梅若保育園","province":"東京都","city":"墨田区","address":"墨田区墨田二丁目38番13号","lat":35.730793,"lon":139.817607},{"name":"おむらい保育園","province":"東京都","city":"墨田区","address":"墨田区文花一丁目32番1号103号室","lat":35.707797,"lon":139.824433},{"name":"鐘ヶ淵北保育園","province":"東京都","city":"墨田区","address":"墨田区堤通二丁目8番15号109号室","lat":35.735897,"lon":139.817221},{"name":"亀沢保育園","province":"東京都","city":"墨田区","address":"墨田区亀沢一丁目27番5号","lat":35.698556,"lon":139.799427},{"name":"江東橋保育園","province":"東京都","city":"墨田区","address":"墨田区緑四丁目35番9号","lat":35.695781,"lon":139.807469},{"name":"江東橋保育園（分園）","province":"東京都","city":"墨田区","address":"墨田区亀沢三丁目12番5号","lat":35.69714,"lon":139.804502},{"name":"しらひげ保育園","province":"東京都","city":"墨田区","address":"墨田区堤通二丁目5番5号101号室","lat":35.730935,"lon":139.813903},{"name":"水神保育園","province":"東京都","city":"墨田区","address":"墨田区堤通二丁目6番9号103号室","lat":35.733398,"lon":139.815873},{"name":"すみだ保育園","province":"東京都","city":"墨田区","address":"墨田区墨田四丁目22番4号101号室","lat":35.732047,"lon":139.823048},{"name":"太平保育園","province":"東京都","city":"墨田区","address":"墨田区太平一丁目13番10号","lat":35.700095,"lon":139.810371},{"name":"たちばな保育園","province":"東京都","city":"墨田区","address":"墨田区立花三丁目21番16号","lat":35.707091,"lon":139.83434},{"name":"立川保育園","province":"東京都","city":"墨田区","address":"墨田区立川一丁目5番2号","lat":35.690474,"lon":139.799566},{"name":"寺島保育園","province":"東京都","city":"墨田区","address":"墨田区東向島一丁目23番10号","lat":35.720181,"lon":139.812601},{"name":"長浦保育園","province":"東京都","city":"墨田区","address":"墨田区八広五丁目10番1号105号室","lat":35.72479,"lon":139.825747},{"name":"中川保育園","province":"東京都","city":"墨田区","address":"墨田区東墨田二丁目1番15号","lat":35.718702,"lon":139.830587},{"name":"中川南保育園","province":"東京都","city":"墨田区","address":"墨田区立花六丁目8番2号106号室","lat":35.710431,"lon":139.835519},{"name":"花園保育園","province":"東京都","city":"墨田区","address":"墨田区東向島三丁目16番2号","lat":35.72468,"lon":139.814625},{"name":"東あずま保育園","province":"東京都","city":"墨田区","address":"墨田区立花一丁目27番6号101号室","lat":35.704459,"lon":139.829229},{"name":"東駒形保育園","province":"東京都","city":"墨田区","address":"墨田区東駒形一丁目6番8号","lat":35.705406,"lon":139.798161},{"name":"福神橋保育園","province":"東京都","city":"墨田区","address":"墨田区文花一丁目30番21号101号室","lat":35.708174,"lon":139.822277},{"name":"文花保育園","province":"東京都","city":"墨田区","address":"墨田区文花一丁目24番5号","lat":35.709755,"lon":139.823212},{"name":"八広保育園","province":"東京都","city":"墨田区","address":"墨田区八広三丁目7番5号","lat":35.720913,"lon":139.826387},{"name":"横川橋保育園","province":"東京都","city":"墨田区","address":"墨田区太平一丁目27番13号","lat":35.702198,"lon":139.810873},{"name":"押上保育園","province":"東京都","city":"墨田区","address":"墨田区押上二丁目10番17号","lat":35.711381,"lon":139.811793},{"name":"わらべみどり保育園","province":"東京都","city":"墨田区","address":"墨田区緑三丁目12番2号","lat":35.694559,"lon":139.80445},{"name":"あおやぎ保育園","province":"東京都","city":"墨田区","address":"墨田区東向島四丁目37番17号","lat":35.725832,"lon":139.819226},{"name":"きんし保育園","province":"東京都","city":"墨田区","address":"墨田区江東橋四丁目30番2号301号室","lat":35.696602,"lon":139.818948},{"name":"ひきふね保育園","province":"東京都","city":"墨田区","address":"墨田区八広一丁目1番18号","lat":35.72007,"lon":139.821339},{"name":"横川さくら保育園","province":"東京都","city":"墨田区","address":"墨田区横川五丁目9番1号","lat":35.705023,"lon":139.817575},{"name":"横川さくら保育園（分園）","province":"東京都","city":"墨田区","address":"墨田区立花一丁目23番5号206号室","lat":35.706644,"lon":139.831219},{"name":"緑幼稚園","province":"東京都","city":"墨田区","address":"墨田区緑二丁目11番5号","lat":35.694147,"lon":139.801845},{"name":"柳島幼稚園","province":"東京都","city":"墨田区","address":"墨田区横川五丁目2番30号","lat":35.703311,"lon":139.817524},{"name":"菊川幼稚園","province":"東京都","city":"墨田区","address":"墨田区立川四丁目12番15号","lat":35.691487,"lon":139.807336},{"name":"第三寺島幼稚園","province":"東京都","city":"墨田区","address":"墨田区東向島六丁目8番1号","lat":35.721429,"lon":139.820417},{"name":"曳舟幼稚園","province":"東京都","city":"墨田区","address":"墨田区京島一丁目28番2号","lat":35.716029,"lon":139.82081},{"name":"八広幼稚園","province":"東京都","city":"墨田区","address":"墨田区八広五丁目12番15号","lat":35.72658,"lon":139.8256},{"name":"立花幼稚園","province":"東京都","city":"墨田区","address":"墨田区立花一丁目25番9号","lat":35.704833,"lon":139.831726},{"name":"（株）カズン八広店","province":"東京都","city":"墨田区","address":"東京都墨田区八広1丁目7-8","lat":35.72187168,"lon":139.82249696},{"name":"（株）片岡屏風店","province":"東京都","city":"墨田区","address":"東京都墨田区向島1丁目31-6","lat":35.71037389,"lon":139.8077118},{"name":"（株）キャニオン","province":"東京都","city":"墨田区","address":"東京都墨田区八広6丁目52-15","lat":35.72450188,"lon":139.83015983},{"name":"（株）四季園芸","province":"東京都","city":"墨田区","address":"東京都墨田区本所3丁目19-8","lat":35.7039911,"lon":139.80343557},{"name":"（株）隅田屋商店","province":"東京都","city":"墨田区","address":"東京都墨田区東駒形1丁目6-1","lat":35.70514101,"lon":139.79773892},{"name":"（株）なぎさ　葬儀相談センター","province":"東京都","city":"墨田区","address":"東京都墨田区江東橋4丁目5-10","lat":35.69379777,"lon":139.81872082},{"name":"（有）小梅寿司","province":"東京都","city":"墨田区","address":"東京都墨田区向島1丁目32-10","lat":35.70978505,"lon":139.80822015},{"name":"（有）関口","province":"東京都","city":"墨田区","address":"東京都墨田区本所4丁目19-12","lat":35.70414663,"lon":139.80525477},{"name":"BUNKAN","province":"東京都","city":"墨田区","address":"東京都墨田区京島3丁目17-7","lat":35.71603592,"lon":139.82431882},{"name":"Caf? chopin　カフェ・ショパン","province":"東京都","city":"墨田区","address":"東京都墨田区押上2丁目5-1","lat":35.71146558,"lon":139.81003356},{"name":"ENDO　GYM","province":"東京都","city":"墨田区","address":"東京都墨田区江東橋4丁目22-4","lat":35.69521145,"lon":139.81741543},{"name":"for‐R整体院","province":"東京都","city":"墨田区","address":"東京都墨田区錦糸1丁目7-16","lat":35.69813614,"lon":139.81012443},{"name":"Grow/Grow device","province":"東京都","city":"墨田区","address":"東京都墨田区江東橋4丁目24-9","lat":35.69580025,"lon":139.81889299},{"name":"HOLLY","province":"東京都","city":"墨田区","address":"東京都墨田区向島2丁目22-10","lat":35.71353218,"lon":139.80646203},{"name":"TOMORROW","province":"東京都","city":"墨田区","address":"東京都墨田区亀沢4丁目8-5","lat":35.69735293,"lon":139.80735544},{"name":"UCAN　SPORTSショップ","province":"東京都","city":"墨田区","address":"東京都墨田区緑2丁目11-2","lat":35.69400617,"lon":139.80204273},{"name":"アカチャンホンポ錦糸町店","province":"東京都","city":"墨田区","address":"東京都墨田区錦糸2丁目2-1","lat":35.69746951,"lon":139.81236592},{"name":"アクア鍼灸整骨院","province":"東京都","city":"墨田区","address":"東京都墨田区太平3丁目4-3","lat":35.70019968,"lon":139.81403496},{"name":"アズマカイロプラクティック","province":"東京都","city":"墨田区","address":"東京都墨田区太平3丁目7-3","lat":35.70059132,"lon":139.81343776},{"name":"アトリエ創藝館","province":"東京都","city":"墨田区","address":"東京都墨田区横川2丁目10-1","lat":35.70391599,"lon":139.81264858},{"name":"あゆみケアサービス","province":"東京都","city":"墨田区","address":"東京都墨田区墨田5丁目43-9","lat":35.73380644,"lon":139.81943606},{"name":"荒井湯","province":"東京都","city":"墨田区","address":"東京都墨田区本所2丁目8-7","lat":35.70342727,"lon":139.80067487},{"name":"アルカキット錦糸町","province":"東京都","city":"墨田区","address":"東京都墨田区錦糸2丁目2-1","lat":35.69746951,"lon":139.81236592},{"name":"居食屋　幸","province":"東京都","city":"墨田区","address":"東京都墨田区八広1丁目37-12","lat":35.72097152,"lon":139.82557424},{"name":"イトーヨーカドー曳舟店","province":"東京都","city":"墨田区","address":"東京都墨田区京島1丁目2-1","lat":35.7173108,"lon":139.81782799},{"name":"いまくに接骨院","province":"東京都","city":"墨田区","address":"東京都墨田区太平3丁目18-1","lat":35.70216889,"lon":139.81319598},{"name":"エース鍼灸整骨院","province":"東京都","city":"墨田区","address":"東京都墨田区京島1丁目53-9","lat":35.71761647,"lon":139.82268296},{"name":"ENEOSガソリンスタンド","province":"東京都","city":"墨田区","address":"東京都墨田区八広5丁目1-4","lat":35.72292157,"lon":139.82324965},{"name":"オリンピック墨田文花店","province":"東京都","city":"墨田区","address":"東京都墨田区文花1丁目31-9","lat":35.70678852,"lon":139.8237529},{"name":"尾張屋","province":"東京都","city":"墨田区","address":"東京都墨田区本所2丁目8-4","lat":35.70352448,"lon":139.80014715},{"name":"ガスト押上店","province":"東京都","city":"墨田区","address":"東京都墨田区業平3丁目17-9","lat":35.70943267,"lon":139.81346151},{"name":"ガスト錦糸町北口店","province":"東京都","city":"墨田区","address":"東京都墨田区錦糸1丁目17-10","lat":35.69788896,"lon":139.80895792},{"name":"CUT STUDIO KOJIMA","province":"東京都","city":"墨田区","address":"東京都墨田区八広1丁目36-10","lat":35.72071041,"lon":139.82558812},{"name":"カメカフェ","province":"東京都","city":"墨田区","address":"東京都墨田区石原1丁目23-4","lat":35.70013878,"lon":139.79885892},{"name":"河のや","province":"東京都","city":"墨田区","address":"東京都墨田区東駒形4丁目11-6","lat":35.70647421,"lon":139.80684587},{"name":"革バック工房　KIYOKAWA","province":"東京都","city":"墨田区","address":"東京都墨田区吾妻橋2丁目1-6","lat":35.70829072,"lon":139.80288504},{"name":"河原のあべ","province":"東京都","city":"墨田区","address":"東京都墨田区向島5丁目24-2","lat":35.71716588,"lon":139.8093595},{"name":"きそ路","province":"東京都","city":"墨田区","address":"東京都墨田区太平4丁目18-10","lat":35.70267146,"lon":139.81691517},{"name":"喫茶イーグル","province":"東京都","city":"墨田区","address":"東京都墨田区八広5丁目23-13","lat":35.72331308,"lon":139.82657696},{"name":"喫茶店トワ・エ・モワ","province":"東京都","city":"墨田区","address":"東京都墨田区八広5丁目3-17","lat":35.72252434,"lon":139.82377456},{"name":"きものレンタル淑Yoshi","province":"東京都","city":"墨田区","address":"東京都墨田区東駒形3丁目1-1","lat":35.70519376,"lon":139.80233276},{"name":"錦糸町飯店","province":"東京都","city":"墨田区","address":"東京都墨田区江東橋3丁目8-12","lat":35.6949615,"lon":139.81480747},{"name":"小菅（株）","province":"東京都","city":"墨田区","address":"東京都墨田区東向島2丁目33-2","lat":35.72011344,"lon":139.81692831},{"name":"コスモスあらいや","province":"東京都","city":"墨田区","address":"東京都墨田区押上3丁目34-8","lat":35.70992215,"lon":139.81947222},{"name":"こりこりアロマ整骨院","province":"東京都","city":"墨田区","address":"東京都墨田区押上1丁目29-6","lat":35.71054407,"lon":139.81595563},{"name":"ザ・ホテルベルグランデ","province":"東京都","city":"墨田区","address":"東京都墨田区両国2丁目19-1","lat":35.69545039,"lon":139.79215996},{"name":"埼玉屋小梅","province":"東京都","city":"墨田区","address":"東京都墨田区向島1丁目5-5","lat":35.71300991,"lon":139.80519824},{"name":"サミット両国石原店","province":"東京都","city":"墨田区","address":"東京都墨田区石原1丁目40-6","lat":35.70169692,"lon":139.79880036},{"name":"サンシャイ","province":"東京都","city":"墨田区","address":"東京都墨田区本所1丁目34-7","lat":35.70414388,"lon":139.79681693},{"name":"三徳湯","province":"東京都","city":"墨田区","address":"東京都墨田区八広6丁目8-8","lat":35.72842964,"lon":139.8263466},{"name":"實相寺","province":"東京都","city":"墨田区","address":"東京都墨田区東駒形2丁目10-14","lat":35.70590481,"lon":139.80012463},{"name":"Zipangu","province":"東京都","city":"墨田区","address":"東京都墨田区業平3丁目6-5","lat":35.70745489,"lon":139.81380904},{"name":"しもとり接骨院","province":"東京都","city":"墨田区","address":"東京都墨田区横網2丁目16-5","lat":35.70162472,"lon":139.79682284},{"name":"宗教法人　牛島神社","province":"東京都","city":"墨田区","address":"東京都墨田区向島1丁目4-5","lat":35.7129599,"lon":139.80472608},{"name":"宗教法人　法性寺","province":"東京都","city":"墨田区","address":"東京都墨田区業平5丁目7-7","lat":35.707544,"lon":139.81830046},{"name":"ジョナサン菊川店","province":"東京都","city":"墨田区","address":"東京都墨田区菊川2丁目7-9","lat":35.68879574,"lon":139.80558434},{"name":"スタア美容室","province":"東京都","city":"墨田区","address":"東京都墨田区東向島5丁目11-2","lat":35.72689905,"lon":139.81994473},{"name":"スポーツクラブルネサンス両国","province":"東京都","city":"墨田区","address":"東京都墨田区両国2丁目10-14","lat":35.69389782,"lon":139.79270461},{"name":"すみだ子どもサロン","province":"東京都","city":"墨田区","address":"東京都墨田区亀沢4丁目17-18","lat":35.69766955,"lon":139.80782755},{"name":"墨田湯","province":"東京都","city":"墨田区","address":"東京都墨田区吾妻橋2丁目5-4","lat":35.70919896,"lon":139.80255718},{"name":"生活彩館やひろでんき","province":"東京都","city":"墨田区","address":"東京都墨田区八広1丁目43-5","lat":35.72209369,"lon":139.82589645},{"name":"関口接骨院","province":"東京都","city":"墨田区","address":"東京都墨田区東向島3丁目30-17","lat":35.72317424,"lon":139.81347347},{"name":"鮮魚居酒屋ツル","province":"東京都","city":"墨田区","address":"東京都墨田区八広2丁目37-7","lat":35.7165744,"lon":139.82832107},{"name":"第一ホテル両国","province":"東京都","city":"墨田区","address":"東京都墨田区横網1丁目6-1","lat":35.69830846,"lon":139.79685114},{"name":"タイ教育・文化センター","province":"東京都","city":"墨田区","address":"東京都墨田区江東橋1丁目11-9","lat":35.69556144,"lon":139.8100803},{"name":"大黒湯","province":"東京都","city":"墨田区","address":"東京都墨田区横川3丁目12-14","lat":35.70501875,"lon":139.8135928},{"name":"田実興産（株）両国SS（ENEOS)","province":"東京都","city":"墨田区","address":"東京都墨田区両国2丁目9-1","lat":35.69402837,"lon":139.79302681},{"name":"たてかわ接骨院","province":"東京都","city":"墨田区","address":"東京都墨田区立川3丁目5-8","lat":35.6906066,"lon":139.80500095},{"name":"田中接骨院","province":"東京都","city":"墨田区","address":"東京都墨田区本所2丁目7-12","lat":35.70288844,"lon":139.80012502},{"name":"多聞寺","province":"東京都","city":"墨田区","address":"東京都墨田区墨田5丁目31-13","lat":35.73847792,"lon":139.81928562},{"name":"千歳接骨院","province":"東京都","city":"墨田区","address":"東京都墨田区千歳3丁目6-5","lat":35.69040673,"lon":139.79779956},{"name":"中華料理　喜楽","province":"東京都","city":"墨田区","address":"東京都墨田区東向島6丁目26-14","lat":35.72269383,"lon":139.82268584},{"name":"点茶","province":"東京都","city":"墨田区","address":"東京都墨田区向島4丁目1-3","lat":35.7159131,"lon":139.81060917},{"name":"東武ストア　業平店","province":"東京都","city":"墨田区","address":"東京都墨田区業平5丁目5-9","lat":35.7071217,"lon":139.81742558},{"name":"ドルフィンネイル","province":"東京都","city":"墨田区","address":"東京都墨田区向島4丁目1-1","lat":35.71578252,"lon":139.81036196},{"name":"永井接骨院","province":"東京都","city":"墨田区","address":"東京都墨田区京島3丁目45-12","lat":35.71297514,"lon":139.82386609},{"name":"なかむら","province":"東京都","city":"墨田区","address":"東京都墨田区東向島2丁目28-3","lat":35.71935791,"lon":139.81713378},{"name":"ながやま接骨院","province":"東京都","city":"墨田区","address":"東京都墨田区立川1丁目2-8","lat":35.68995956,"lon":139.79913827},{"name":"ニコニコ整骨院","province":"東京都","city":"墨田区","address":"東京都墨田区菊川2丁目8-8","lat":35.68847358,"lon":139.80453459},{"name":"張福染織（有）","province":"東京都","city":"墨田区","address":"東京都墨田区押上3丁目50-6","lat":35.71152818,"lon":139.82144964},{"name":"パル墨田","province":"東京都","city":"墨田区","address":"東京都墨田区向島3丁目3-1","lat":35.71375168,"lon":139.80757025},{"name":"ピアレストランこーらるカフェ","province":"東京都","city":"墨田区","address":"東京都墨田区向島3丁目2-1","lat":35.71333497,"lon":139.80706471},{"name":"ＢＥＡＮＳ珈琲","province":"東京都","city":"墨田区","address":"東京都墨田区石原3丁目16-4","lat":35.70045814,"lon":139.80416932},{"name":"東駒形　琴富貴（日本そば店）","province":"東京都","city":"墨田区","address":"東京都墨田区東駒形3丁目21-16","lat":35.70724358,"lon":139.80366008},{"name":"東向島珈琲店Pua　mana","province":"東京都","city":"墨田区","address":"東京都墨田区東向島1丁目34-7","lat":35.72003563,"lon":139.81541742},{"name":"輝接骨院","province":"東京都","city":"墨田区","address":"東京都墨田区押上3丁目43-7","lat":35.71073902,"lon":139.82030538},{"name":"ビューティーSAN","province":"東京都","city":"墨田区","address":"東京都墨田区江東橋5丁目8-18","lat":35.69148143,"lon":139.8100361},{"name":"美容室ブースト","province":"東京都","city":"墨田区","address":"東京都墨田区緑1丁目28-6","lat":35.69566712,"lon":139.79784031},{"name":"美容室プランソレイユ","province":"東京都","city":"墨田区","address":"東京都墨田区横網1丁目9-2","lat":35.69835288,"lon":139.79546506},{"name":"平河山　法恩寺","province":"東京都","city":"墨田区","address":"東京都墨田区太平1丁目26-16","lat":35.70218844,"lon":139.81023227},{"name":"ひらの接骨院","province":"東京都","city":"墨田区","address":"東京都墨田区東駒形2丁目15-12","lat":35.70664641,"lon":139.80177987},{"name":"ファッションスポット　タカタヤ","province":"東京都","city":"墨田区","address":"東京都墨田区向島5丁目35-12","lat":35.71709656,"lon":139.81173422},{"name":"ファミリーマート鈴木錦糸町店","province":"東京都","city":"墨田区","address":"東京都墨田区錦糸1丁目7-2","lat":35.69827779,"lon":139.80985222},{"name":"福島寝具店","province":"東京都","city":"墨田区","address":"東京都墨田区東墨田2丁目20-3","lat":35.72308788,"lon":139.83139014},{"name":"フジセ","province":"東京都","city":"墨田区","address":"東京都墨田区吾妻橋2丁目2-4","lat":35.70837959,"lon":139.8034544},{"name":"古畑接骨院","province":"東京都","city":"墨田区","address":"東京都墨田区緑2丁目11-11","lat":35.69422836,"lon":139.80278149},{"name":"文花整骨院","province":"東京都","city":"墨田区","address":"東京都墨田区立花2丁目5-6","lat":35.70978591,"lon":139.82875188},{"name":"ヘアーサロン　ニュータカハシ","province":"東京都","city":"墨田区","address":"東京都墨田区八広5丁目20-18","lat":35.72244099,"lon":139.82441336},{"name":"ヘアーサロン　ヨコテ","province":"東京都","city":"墨田区","address":"東京都墨田区緑1丁目19-6","lat":35.69508106,"lon":139.79888192},{"name":"ベル美容室","province":"東京都","city":"墨田区","address":"東京都墨田区江東橋5丁目3-11","lat":35.68894012,"lon":139.81139156},{"name":"保育所ちびっこランド錦糸町園","province":"東京都","city":"墨田区","address":"東京都墨田区江東橋4丁目15-6","lat":35.69465043,"lon":139.81772651},{"name":"ボイス","province":"東京都","city":"墨田区","address":"東京都墨田区向島3丁目4-3","lat":35.71450732,"lon":139.80869247},{"name":"ポーラ　エステイン佳","province":"東京都","city":"墨田区","address":"東京都墨田区石原3丁目34-10","lat":35.70183299,"lon":139.80284151},{"name":"ますかわ整骨院","province":"東京都","city":"墨田区","address":"東京都墨田区緑1丁目8-10","lat":35.69310912,"lon":139.79839621},{"name":"丸井錦糸町店","province":"東京都","city":"墨田区","address":"東京都墨田区江東橋3丁目9-10","lat":35.69504482,"lon":139.81366874},{"name":"マルエツ　錦糸町店","province":"東京都","city":"墨田区","address":"東京都墨田区太平1丁目14-1","lat":35.70044143,"lon":139.8098714},{"name":"マルエツ　プチ両国緑一丁目店","province":"東京都","city":"墨田区","address":"東京都墨田区緑1丁目15-12","lat":35.6943395,"lon":139.79891815},{"name":"マルエツ　両国亀沢店","province":"東京都","city":"墨田区","address":"東京都墨田区亀沢3丁目2-14","lat":35.69618086,"lon":139.80456708},{"name":"マルオオ製茶おおいし","province":"東京都","city":"墨田区","address":"東京都墨田区吾妻橋2丁目2-6","lat":35.70839626,"lon":139.80380989},{"name":"満留賀そば店","province":"東京都","city":"墨田区","address":"東京都墨田区押上1丁目18-6","lat":35.71201356,"lon":139.81586385},{"name":"メガネフレンド","province":"東京都","city":"墨田区","address":"東京都墨田区東駒形4丁目16-18","lat":35.70677696,"lon":139.80706802},{"name":"柳沢接骨院","province":"東京都","city":"墨田区","address":"東京都墨田区立花2丁目6","lat":35.709372,"lon":139.82910187},{"name":"有道接骨院・鍼灸マッサージ院","province":"東京都","city":"墨田区","address":"東京都墨田区東駒形4丁目21-1","lat":35.70777688,"lon":139.80463487},{"name":"らーめん匠屋","province":"東京都","city":"墨田区","address":"東京都墨田区太平3丁目9-9","lat":35.70088569,"lon":139.81449598},{"name":"ライフ東向島店","province":"東京都","city":"墨田区","address":"東京都墨田区東向島4丁目3-7","lat":35.72753226,"lon":139.81526231},{"name":"リサイクルショップ　バザー","province":"東京都","city":"墨田区","address":"東京都墨田区緑4丁目24-20","lat":35.69536148,"lon":139.80802505},{"name":"立正佼成会墨田教会","province":"東京都","city":"墨田区","address":"東京都墨田区亀沢2丁目9-9","lat":35.69685026,"lon":139.80167293},{"name":"Ｌｉｔｔｌｅ　Ｉｎｄｉａ","province":"東京都","city":"墨田区","address":"東京都墨田区錦糸3丁目11-1","lat":35.69919705,"lon":139.81348509},{"name":"理容サトウ","province":"東京都","city":"墨田区","address":"東京都墨田区立川2丁目1-18","lat":35.69037058,"lon":139.80121559},{"name":"ローソン錦糸一丁目店","province":"東京都","city":"墨田区","address":"東京都墨田区錦糸1丁目5-17","lat":35.69779729,"lon":139.80995227},{"name":"ローソン向島一丁目店","province":"東京都","city":"墨田区","address":"東京都墨田区向島1丁目12-3","lat":35.71245991,"lon":139.80597308},{"name":"ロッテシティビル","province":"東京都","city":"墨田区","address":"東京都墨田区錦糸4丁目6-1","lat":35.69756946,"lon":139.81536279},{"name":"和食さと　墨田堤通店","province":"東京都","city":"墨田区","address":"東京都墨田区堤通1丁目19-11","lat":35.72726835,"lon":139.81228508},{"name":"曳舟中央整骨院・鍼灸院","province":"東京都","city":"墨田区","address":"東京都墨田区京島1丁目24-9","lat":35.71589432,"lon":139.81958604},{"name":"あわの自然学園","province":"栃木県","city":"鹿沼市","address":"栃木県鹿沼市上粕尾1041","lat":36.59355317,"lon":139.50111412},{"name":"上小山田コミュニティセンター","province":"東京都","city":"町田市","address":"東京都町田市上小山田町2616-2","lat":35.59482706,"lon":139.39836205},{"name":"成瀬コミュニティセンター","province":"東京都","city":"町田市","address":"東京都町田市西成瀬2丁目49-1","lat":35.54352677,"lon":139.47274369},{"name":"つくし野コミュニティセンター","province":"東京都","city":"町田市","address":"東京都町田市つくし野2丁目26-5","lat":35.52716937,"lon":139.48469949},{"name":"木曽森野コミュニティセンター","province":"東京都","city":"町田市","address":"東京都町田市木曽東1丁目2","lat":35.55656271,"lon":139.43028811},{"name":"三輪コミュニティーセンター","province":"東京都","city":"町田市","address":"東京都町田市三輪緑山4丁目14-1","lat":35.5771346,"lon":139.4933507},{"name":"町田市民フォーラム","province":"東京都","city":"町田市","address":"東京都町田市原町田4丁目9-8","lat":35.54180052,"lon":139.44984799},{"name":"日進公園","province":"東京都","city":"墨田区","address":"東京都墨田区亀沢3丁目24-3","lat":35.69862503,"lon":139.80441676},{"name":"なつめ公園","province":"東京都","city":"墨田区","address":"東京都墨田区東向島6丁目40-2","lat":35.72445761,"lon":139.82188321},{"name":"すみだボランティアセンター","province":"東京都","city":"墨田区","address":"東京都墨田区東向島2丁目17-14","lat":35.71838566,"lon":139.81561446},{"name":"かつら児童遊園","province":"東京都","city":"墨田区","address":"東京都墨田区墨田3丁目36-13","lat":35.73147348,"lon":139.82056385},{"name":"堤通公園","province":"東京都","city":"墨田区","address":"東京都墨田区堤通1丁目8-1","lat":35.72447964,"lon":139.81077124},{"name":"すみだ健康ハウス","province":"東京都","city":"墨田区","address":"東京都墨田区東墨田1丁目2-6","lat":35.71772695,"lon":139.82970417},{"name":"文花公園","province":"東京都","city":"墨田区","address":"東京都墨田区文花1丁目27-5","lat":35.7094556,"lon":139.82244155},{"name":"とちのき児童遊園","province":"東京都","city":"墨田区","address":"東京都墨田区緑2丁目8-12","lat":35.69324795,"lon":139.80130406},{"name":"立川第二児童遊園","province":"東京都","city":"墨田区","address":"東京都墨田区立川3丁目15-6","lat":35.69203976,"lon":139.80390933},{"name":"押上第一児童遊園","province":"東京都","city":"墨田区","address":"東京都墨田区押上3丁目48-1","lat":35.71179188,"lon":139.82010526},{"name":"京島西公園","province":"東京都","city":"墨田区","address":"東京都墨田区京島1丁目22-3","lat":35.71567483,"lon":139.81871112},{"name":"東向島ふじ公園","province":"東京都","city":"墨田区","address":"東京都墨田区東向島2丁目46-7","lat":35.72032456,"lon":139.81849198},{"name":"曳舟さくら公園","province":"東京都","city":"墨田区","address":"東京都墨田区京島1丁目40-1","lat":35.71877194,"lon":139.82017778},{"name":"本四三ツ目児童遊園","province":"東京都","city":"墨田区","address":"東京都墨田区本所4丁目1-4","lat":35.70288841,"lon":139.80498554},{"name":"請地児童遊園","province":"東京都","city":"墨田区","address":"東京都墨田区向島4丁目12-11","lat":35.71693833,"lon":139.81343679},{"name":"八広中央公園","province":"東京都","city":"墨田区","address":"東京都墨田区八広3丁目13-19","lat":35.71918814,"lon":139.82718507},{"name":"たちばな仲よし公園","province":"東京都","city":"墨田区","address":"東京都墨田区立花5丁目19-2","lat":35.71244966,"lon":139.82994877},{"name":"東あずま公園南","province":"東京都","city":"墨田区","address":"東京都墨田区立花2丁目32-12","lat":35.70834973,"lon":139.83030736},{"name":"東あずま公園北","province":"東京都","city":"墨田区","address":"東京都墨田区立花2丁目32-12","lat":35.70834973,"lon":139.83030736},{"name":"千歳公園","province":"東京都","city":"墨田区","address":"東京都墨田区千歳2丁目2-1","lat":35.69036782,"lon":139.79502744},{"name":"墨田二丁目児童遊園","province":"東京都","city":"墨田区","address":"東京都墨田区墨田2丁目42-4","lat":35.73228443,"lon":139.81873074},{"name":"曳舟西ビューハイツ","province":"東京都","city":"墨田区","address":"東京都墨田区京島1丁目39-1","lat":35.71855525,"lon":139.81929177},{"name":"曳舟東ビューハイツ","province":"東京都","city":"墨田区","address":"東京都墨田区京島1丁目45-1","lat":35.71817198,"lon":139.8202444},{"name":"六軒児童遊園","province":"東京都","city":"墨田区","address":"東京都墨田区立花3丁目18-12","lat":35.70610819,"lon":139.83438194},{"name":"舟原公園","province":"東京都","city":"墨田区","address":"東京都墨田区八広2丁目43-16","lat":35.71514967,"lon":139.8267824},{"name":"亀沢第一児童遊園","province":"東京都","city":"墨田区","address":"東京都墨田区亀沢2丁目13-7","lat":35.69784458,"lon":139.80188665},{"name":"都営立花四丁目団地","province":"東京都","city":"墨田区","address":"東京都墨田区立花4丁目30-1","lat":35.70956343,"lon":139.83534283},{"name":"隅田第二児童遊園","province":"東京都","city":"墨田区","address":"東京都墨田区墨田4丁目8-14","lat":35.73288164,"lon":139.82186355},{"name":"墨田第三児童遊園","province":"東京都","city":"墨田区","address":"東京都墨田区墨田2丁目17-6","lat":35.7314956,"lon":139.81623679},{"name":"ごあずま児童遊園","province":"東京都","city":"墨田区","address":"東京都墨田区八広4丁目36-24","lat":35.7227685,"lon":139.82939596},{"name":"立花第一児童遊園","province":"東京都","city":"墨田区","address":"東京都墨田区立花4丁目9-6","lat":35.71009965,"lon":139.83163207},{"name":"隅田東児童遊園","province":"東京都","city":"墨田区","address":"東京都墨田区墨田4丁目52-12","lat":35.72950444,"lon":139.82512169},{"name":"押上第二児童遊園","province":"東京都","city":"墨田区","address":"東京都墨田区押上3丁目57-3","lat":35.71191978,"lon":139.82117743},{"name":"八広六西児童遊園","province":"東京都","city":"墨田区","address":"東京都墨田区八広6丁目13-1","lat":35.72851578,"lon":139.82735203},{"name":"墨田第六児童遊園","province":"東京都","city":"墨田区","address":"東京都墨田区墨田2丁目20-15","lat":35.73052355,"lon":139.81718117},{"name":"みわさと公園","province":"東京都","city":"墨田区","address":"東京都墨田区八広1丁目38-13","lat":35.72107709,"lon":139.82532706},{"name":"隅田東第二児童遊園","province":"東京都","city":"墨田区","address":"東京都墨田区墨田4丁目34-20","lat":35.73275392,"lon":139.82414937},{"name":"八広あずま公園","province":"東京都","city":"墨田区","address":"東京都墨田区八広4丁目19-14","lat":35.72376025,"lon":139.82809342},{"name":"露伴児童遊園","province":"東京都","city":"墨田区","address":"東京都墨田区東向島1丁目7-11","lat":35.72189933,"lon":139.81308177},{"name":"小梅児童遊園","province":"東京都","city":"墨田区","address":"東京都墨田区向島1丁目33-3","lat":35.71042667,"lon":139.80815339},{"name":"さつき公園","province":"東京都","city":"墨田区","address":"東京都墨田区東向島6丁目19-12","lat":35.72262441,"lon":139.82039453},{"name":"きねがわ公園","province":"東京都","city":"墨田区","address":"東京都墨田区東墨田2丁目25-8","lat":35.724149,"lon":139.83316217},{"name":"竪川親水公園","province":"東京都","city":"墨田区","address":"東京都墨田区江東橋2丁目1","lat":35.69309787,"lon":139.81198851},{"name":"菊川駐輪場","province":"東京都","city":"墨田区","address":"東京都墨田区菊川3丁目6-14","lat":35.68755145,"lon":139.80696471},{"name":"みどりコミュニティセンター","province":"東京都","city":"墨田区","address":"東京都墨田区緑3丁目7-3","lat":35.69361455,"lon":139.8032676},{"name":"業平防災待機職員住宅","province":"東京都","city":"墨田区","address":"東京都墨田区業平3丁目2-5","lat":35.70634375,"lon":139.8130676},{"name":"すみだ清掃事務所","province":"東京都","city":"墨田区","address":"東京都墨田区業平5丁目6-2","lat":35.70709118,"lon":139.81802555},{"name":"八広認定こども園","province":"東京都","city":"墨田区","address":"東京都墨田区八広3丁目7-5","lat":35.72091034,"lon":139.82649354},{"name":"江東橋二丁目その他緑地","province":"東京都","city":"墨田区","address":"東京都墨田区江東橋2丁目18","lat":35.6959086,"lon":139.81198834},{"name":"梅若橋コミュニティ会館","province":"東京都","city":"墨田区","address":"墨田区堤通二丁目9番1号","lat":35.735395,"lon":139.816696},{"name":"子育て支援総合センター","province":"東京都","city":"墨田区","address":"墨田区京島一丁目35番9号103号室マーク・ゼロワン曳舟タワー棟1階","lat":35.716666,"lon":139.819806},{"name":"さくら橋コミュニティセンター","province":"東京都","city":"墨田区","address":"墨田区向島二丁目3番8号","lat":35.71368,"lon":139.805844},{"name":"社会福祉会館","province":"東京都","city":"墨田区","address":"墨田区東墨田二丁目7番1号","lat":35.71903,"lon":139.830361},{"name":"スポーツプラザ梅若","province":"東京都","city":"墨田区","address":"墨田区墨田一丁目4番4号","lat":35.7292066,"lon":139.8158411},{"name":"墨田区総合体育館","province":"東京都","city":"墨田区","address":"墨田区錦糸四丁目15番1号","lat":35.6995475,"lon":139.8172152},{"name":"墨田区役所","province":"東京都","city":"墨田区","address":"墨田区吾妻橋一丁目23番20号","lat":35.710722,"lon":139.801497},{"name":"墨田児童会館","province":"東京都","city":"墨田区","address":"墨田区墨田二丁目30番15号","lat":35.729294,"lon":139.818932},{"name":"すみだ生涯学習センター","province":"東京都","city":"墨田区","address":"墨田区東向島二丁目38番7号","lat":35.721128,"lon":139.818398},{"name":"すみだ女性センター","province":"東京都","city":"墨田区","address":"墨田区押上二丁目12番7号111号室","lat":35.712706,"lon":139.812105},{"name":"すみだスポーツ健康センター","province":"東京都","city":"墨田区","address":"墨田区東墨田一丁目6番1号","lat":35.716461,"lon":139.830555},{"name":"すみだ中小企業センター","province":"東京都","city":"墨田区","address":"墨田区文花一丁目19番1号","lat":35.710607,"lon":139.823905},{"name":"外手児童館","province":"東京都","city":"墨田区","address":"墨田区本所二丁目6番9号","lat":35.702991,"lon":139.800778},{"name":"立川児童館","province":"東京都","city":"墨田区","address":"墨田区立川一丁目5番2号","lat":35.6905,"lon":139.799531},{"name":"立花児童館","province":"東京都","city":"墨田区","address":"墨田区立花一丁目27番9号","lat":35.705501,"lon":139.828832},{"name":"立花図書館","province":"東京都","city":"墨田区","address":"墨田区立花六丁目8番1号101号室","lat":35.710483,"lon":139.834888},{"name":"東京ガス・ライフバル両国","province":"東京都","city":"墨田区","address":"墨田区緑二丁目13番7号","lat":35.694548,"lon":139.801274},{"name":"中川児童館","province":"東京都","city":"墨田区","address":"墨田区立花五丁目18番9号","lat":35.712977,"lon":139.830966},{"name":"東駒形コミュニティ会館","province":"東京都","city":"墨田区","address":"墨田区東駒形四丁目14番1号","lat":35.705524,"lon":139.807754},{"name":"東向島児童館","province":"東京都","city":"墨田区","address":"墨田区東向島六丁目6番12号","lat":35.721429,"lon":139.819709},{"name":"ひきふね図書館","province":"東京都","city":"墨田区","address":"墨田区京島一丁目36番5号","lat":35.717058,"lon":139.819492},{"name":"文花子育てひろば","province":"東京都","city":"墨田区","address":"墨田区文花一丁目20番3号","lat":35.710452,"lon":139.822829},{"name":"文花児童館","province":"東京都","city":"墨田区","address":"墨田区文花一丁目32番11号","lat":35.708691,"lon":139.824397},{"name":"本所地域プラザ「BIGSHIP」","province":"東京都","city":"墨田区","address":"墨田区本所一丁目13番4号","lat":35.7031212,"lon":139.7987991},{"name":"みどりコミュニティセンター","province":"東京都","city":"墨田区","address":"墨田区緑三丁目7番3号","lat":35.693598,"lon":139.803278},{"name":"向島保健センター","province":"東京都","city":"墨田区","address":"墨田区東向島五丁目16番2号","lat":35.72591,"lon":139.821203},{"name":"八広児童館","province":"東京都","city":"墨田区","address":"墨田区八広二丁目38番14号","lat":35.715877,"lon":139.827933},{"name":"八広地域プラザ「吾嬬の里」","province":"東京都","city":"墨田区","address":"墨田区八広四丁目35番17号","lat":35.723165,"lon":139.829377},{"name":"八広図書館","province":"東京都","city":"墨田区","address":"墨田区八広五丁目10番1号104号室","lat":35.724809,"lon":139.825801},{"name":"八広はなみずき児童館","province":"東京都","city":"墨田区","address":"墨田区八広四丁目27番8号","lat":35.724575,"lon":139.82942},{"name":"横川コミュニティ会館","province":"東京都","city":"墨田区","address":"墨田区横川五丁目9番1号","lat":35.705206,"lon":139.817461},{"name":"両国屋内プール","province":"東京都","city":"墨田区","address":"墨田区横網一丁目8番1号両国中学校内","lat":35.697776,"lon":139.796287},{"name":"両国子育てひろば","province":"東京都","city":"墨田区","address":"墨田区横網一丁目2番13号","lat":35.697856,"lon":139.792447},{"name":"アスク両国保育園","province":"東京都","city":"墨田区","address":"墨田区亀沢二丁目14番9号","lat":35.6977116,"lon":139.8011501},{"name":"梅若保育園","province":"東京都","city":"墨田区","address":"墨田区墨田二丁目38番13号","lat":35.730793,"lon":139.817607},{"name":"おむらい保育園","province":"東京都","city":"墨田区","address":"墨田区文花一丁目32番1号103号室","lat":35.707797,"lon":139.824433},{"name":"鐘ヶ淵北保育園","province":"東京都","city":"墨田区","address":"墨田区堤通二丁目8番15号109号室","lat":35.735897,"lon":139.817221},{"name":"亀沢保育園","province":"東京都","city":"墨田区","address":"墨田区亀沢一丁目27番5号","lat":35.698556,"lon":139.799427},{"name":"江東橋保育園","province":"東京都","city":"墨田区","address":"墨田区緑四丁目35番9号","lat":35.695781,"lon":139.807469},{"name":"江東橋保育園（分園）","province":"東京都","city":"墨田区","address":"墨田区亀沢三丁目12番5号","lat":35.69714,"lon":139.804502},{"name":"しらひげ保育園","province":"東京都","city":"墨田区","address":"墨田区堤通二丁目5番5号101号室","lat":35.730935,"lon":139.813903},{"name":"水神保育園","province":"東京都","city":"墨田区","address":"墨田区堤通二丁目6番9号103号室","lat":35.733398,"lon":139.815873},{"name":"すみだ保育園","province":"東京都","city":"墨田区","address":"墨田区墨田四丁目22番4号101号室","lat":35.732047,"lon":139.823048},{"name":"太平保育園","province":"東京都","city":"墨田区","address":"墨田区太平一丁目13番10号","lat":35.700095,"lon":139.810371},{"name":"たちばな保育園","province":"東京都","city":"墨田区","address":"墨田区立花三丁目21番16号","lat":35.707091,"lon":139.83434},{"name":"立川保育園","province":"東京都","city":"墨田区","address":"墨田区立川一丁目5番2号","lat":35.690474,"lon":139.799566},{"name":"寺島保育園","province":"東京都","city":"墨田区","address":"墨田区東向島一丁目23番10号","lat":35.720181,"lon":139.812601},{"name":"長浦保育園","province":"東京都","city":"墨田区","address":"墨田区八広五丁目10番1号105号室","lat":35.72479,"lon":139.825747},{"name":"中川保育園","province":"東京都","city":"墨田区","address":"墨田区東墨田二丁目1番15号","lat":35.718702,"lon":139.830587},{"name":"中川南保育園","province":"東京都","city":"墨田区","address":"墨田区立花六丁目8番2号106号室","lat":35.710431,"lon":139.835519},{"name":"花園保育園","province":"東京都","city":"墨田区","address":"墨田区東向島三丁目16番2号","lat":35.72468,"lon":139.814625},{"name":"東あずま保育園","province":"東京都","city":"墨田区","address":"墨田区立花一丁目27番6号101号室","lat":35.704459,"lon":139.829229},{"name":"東駒形保育園","province":"東京都","city":"墨田区","address":"墨田区東駒形一丁目6番8号","lat":35.705406,"lon":139.798161},{"name":"福神橋保育園","province":"東京都","city":"墨田区","address":"墨田区文花一丁目30番21号101号室","lat":35.708174,"lon":139.822277},{"name":"文花保育園","province":"東京都","city":"墨田区","address":"墨田区文花一丁目24番5号","lat":35.709755,"lon":139.823212},{"name":"八広保育園","province":"東京都","city":"墨田区","address":"墨田区八広三丁目7番5号","lat":35.720913,"lon":139.826387},{"name":"横川橋保育園","province":"東京都","city":"墨田区","address":"墨田区太平一丁目27番13号","lat":35.702198,"lon":139.810873},{"name":"押上保育園","province":"東京都","city":"墨田区","address":"墨田区押上二丁目10番17号","lat":35.711381,"lon":139.811793},{"name":"わらべみどり保育園","province":"東京都","city":"墨田区","address":"墨田区緑三丁目12番2号","lat":35.694559,"lon":139.80445},{"name":"あおやぎ保育園","province":"東京都","city":"墨田区","address":"墨田区東向島四丁目37番17号","lat":35.725832,"lon":139.819226},{"name":"きんし保育園","province":"東京都","city":"墨田区","address":"墨田区江東橋四丁目30番2号301号室","lat":35.696602,"lon":139.818948},{"name":"ひきふね保育園","province":"東京都","city":"墨田区","address":"墨田区八広一丁目1番18号","lat":35.72007,"lon":139.821339},{"name":"横川さくら保育園","province":"東京都","city":"墨田区","address":"墨田区横川五丁目9番1号","lat":35.705023,"lon":139.817575},{"name":"横川さくら保育園（分園）","province":"東京都","city":"墨田区","address":"墨田区立花一丁目23番5号206号室","lat":35.706644,"lon":139.831219},{"name":"緑幼稚園","province":"東京都","city":"墨田区","address":"墨田区緑二丁目11番5号","lat":35.694147,"lon":139.801845},{"name":"柳島幼稚園","province":"東京都","city":"墨田区","address":"墨田区横川五丁目2番30号","lat":35.703311,"lon":139.817524},{"name":"菊川幼稚園","province":"東京都","city":"墨田区","address":"墨田区立川四丁目12番15号","lat":35.691487,"lon":139.807336},{"name":"第三寺島幼稚園","province":"東京都","city":"墨田区","address":"墨田区東向島六丁目8番1号","lat":35.721429,"lon":139.820417},{"name":"曳舟幼稚園","province":"東京都","city":"墨田区","address":"墨田区京島一丁目28番2号","lat":35.716029,"lon":139.82081},{"name":"八広幼稚園","province":"東京都","city":"墨田区","address":"墨田区八広五丁目12番15号","lat":35.72658,"lon":139.8256},{"name":"立花幼稚園","province":"東京都","city":"墨田区","address":"墨田区立花一丁目25番9号","lat":35.704833,"lon":139.831726},{"name":"（株）カズン八広店","province":"東京都","city":"墨田区","address":"東京都墨田区八広1丁目7-8","lat":35.72187168,"lon":139.82249696},{"name":"（株）片岡屏風店","province":"東京都","city":"墨田区","address":"東京都墨田区向島1丁目31-6","lat":35.71037389,"lon":139.8077118},{"name":"（株）キャニオン","province":"東京都","city":"墨田区","address":"東京都墨田区八広6丁目52-15","lat":35.72450188,"lon":139.83015983},{"name":"（株）四季園芸","province":"東京都","city":"墨田区","address":"東京都墨田区本所3丁目19-8","lat":35.7039911,"lon":139.80343557},{"name":"（株）隅田屋商店","province":"東京都","city":"墨田区","address":"東京都墨田区東駒形1丁目6-1","lat":35.70514101,"lon":139.79773892},{"name":"（株）なぎさ　葬儀相談センター","province":"東京都","city":"墨田区","address":"東京都墨田区江東橋4丁目5-10","lat":35.69379777,"lon":139.81872082},{"name":"（有）小梅寿司","province":"東京都","city":"墨田区","address":"東京都墨田区向島1丁目32-10","lat":35.70978505,"lon":139.80822015},{"name":"（有）関口","province":"東京都","city":"墨田区","address":"東京都墨田区本所4丁目19-12","lat":35.70414663,"lon":139.80525477},{"name":"BUNKAN","province":"東京都","city":"墨田区","address":"東京都墨田区京島3丁目17-7","lat":35.71603592,"lon":139.82431882},{"name":"Caf? chopin　カフェ・ショパン","province":"東京都","city":"墨田区","address":"東京都墨田区押上2丁目5-1","lat":35.71146558,"lon":139.81003356},{"name":"ENDO　GYM","province":"東京都","city":"墨田区","address":"東京都墨田区江東橋4丁目22-4","lat":35.69521145,"lon":139.81741543},{"name":"for‐R整体院","province":"東京都","city":"墨田区","address":"東京都墨田区錦糸1丁目7-16","lat":35.69813614,"lon":139.81012443},{"name":"Grow/Grow device","province":"東京都","city":"墨田区","address":"東京都墨田区江東橋4丁目24-9","lat":35.69580025,"lon":139.81889299},{"name":"HOLLY","province":"東京都","city":"墨田区","address":"東京都墨田区向島2丁目22-10","lat":35.71353218,"lon":139.80646203},{"name":"TOMORROW","province":"東京都","city":"墨田区","address":"東京都墨田区亀沢4丁目8-5","lat":35.69735293,"lon":139.80735544},{"name":"UCAN　SPORTSショップ","province":"東京都","city":"墨田区","address":"東京都墨田区緑2丁目11-2","lat":35.69400617,"lon":139.80204273},{"name":"アカチャンホンポ錦糸町店","province":"東京都","city":"墨田区","address":"東京都墨田区錦糸2丁目2-1","lat":35.69746951,"lon":139.81236592},{"name":"アクア鍼灸整骨院","province":"東京都","city":"墨田区","address":"東京都墨田区太平3丁目4-3","lat":35.70019968,"lon":139.81403496},{"name":"アズマカイロプラクティック","province":"東京都","city":"墨田区","address":"東京都墨田区太平3丁目7-3","lat":35.70059132,"lon":139.81343776},{"name":"アトリエ創藝館","province":"東京都","city":"墨田区","address":"東京都墨田区横川2丁目10-1","lat":35.70391599,"lon":139.81264858},{"name":"あゆみケアサービス","province":"東京都","city":"墨田区","address":"東京都墨田区墨田5丁目43-9","lat":35.73380644,"lon":139.81943606},{"name":"荒井湯","province":"東京都","city":"墨田区","address":"東京都墨田区本所2丁目8-7","lat":35.70342727,"lon":139.80067487},{"name":"アルカキット錦糸町","province":"東京都","city":"墨田区","address":"東京都墨田区錦糸2丁目2-1","lat":35.69746951,"lon":139.81236592},{"name":"居食屋　幸","province":"東京都","city":"墨田区","address":"東京都墨田区八広1丁目37-12","lat":35.72097152,"lon":139.82557424},{"name":"イトーヨーカドー曳舟店","province":"東京都","city":"墨田区","address":"東京都墨田区京島1丁目2-1","lat":35.7173108,"lon":139.81782799},{"name":"いまくに接骨院","province":"東京都","city":"墨田区","address":"東京都墨田区太平3丁目18-1","lat":35.70216889,"lon":139.81319598},{"name":"エース鍼灸整骨院","province":"東京都","city":"墨田区","address":"東京都墨田区京島1丁目53-9","lat":35.71761647,"lon":139.82268296},{"name":"ENEOSガソリンスタンド","province":"東京都","city":"墨田区","address":"東京都墨田区八広5丁目1-4","lat":35.72292157,"lon":139.82324965},{"name":"オリンピック墨田文花店","province":"東京都","city":"墨田区","address":"東京都墨田区文花1丁目31-9","lat":35.70678852,"lon":139.8237529},{"name":"尾張屋","province":"東京都","city":"墨田区","address":"東京都墨田区本所2丁目8-4","lat":35.70352448,"lon":139.80014715},{"name":"ガスト押上店","province":"東京都","city":"墨田区","address":"東京都墨田区業平3丁目17-9","lat":35.70943267,"lon":139.81346151},{"name":"ガスト錦糸町北口店","province":"東京都","city":"墨田区","address":"東京都墨田区錦糸1丁目17-10","lat":35.69788896,"lon":139.80895792},{"name":"CUT STUDIO KOJIMA","province":"東京都","city":"墨田区","address":"東京都墨田区八広1丁目36-10","lat":35.72071041,"lon":139.82558812},{"name":"カメカフェ","province":"東京都","city":"墨田区","address":"東京都墨田区石原1丁目23-4","lat":35.70013878,"lon":139.79885892},{"name":"河のや","province":"東京都","city":"墨田区","address":"東京都墨田区東駒形4丁目11-6","lat":35.70647421,"lon":139.80684587},{"name":"革バック工房　KIYOKAWA","province":"東京都","city":"墨田区","address":"東京都墨田区吾妻橋2丁目1-6","lat":35.70829072,"lon":139.80288504},{"name":"河原のあべ","province":"東京都","city":"墨田区","address":"東京都墨田区向島5丁目24-2","lat":35.71716588,"lon":139.8093595},{"name":"きそ路","province":"東京都","city":"墨田区","address":"東京都墨田区太平4丁目18-10","lat":35.70267146,"lon":139.81691517},{"name":"喫茶イーグル","province":"東京都","city":"墨田区","address":"東京都墨田区八広5丁目23-13","lat":35.72331308,"lon":139.82657696},{"name":"喫茶店トワ・エ・モワ","province":"東京都","city":"墨田区","address":"東京都墨田区八広5丁目3-17","lat":35.72252434,"lon":139.82377456},{"name":"きものレンタル淑Yoshi","province":"東京都","city":"墨田区","address":"東京都墨田区東駒形3丁目1-1","lat":35.70519376,"lon":139.80233276},{"name":"錦糸町飯店","province":"東京都","city":"墨田区","address":"東京都墨田区江東橋3丁目8-12","lat":35.6949615,"lon":139.81480747},{"name":"小菅（株）","province":"東京都","city":"墨田区","address":"東京都墨田区東向島2丁目33-2","lat":35.72011344,"lon":139.81692831},{"name":"コスモスあらいや","province":"東京都","city":"墨田区","address":"東京都墨田区押上3丁目34-8","lat":35.70992215,"lon":139.81947222},{"name":"こりこりアロマ整骨院","province":"東京都","city":"墨田区","address":"東京都墨田区押上1丁目29-6","lat":35.71054407,"lon":139.81595563},{"name":"ザ・ホテルベルグランデ","province":"東京都","city":"墨田区","address":"東京都墨田区両国2丁目19-1","lat":35.69545039,"lon":139.79215996},{"name":"埼玉屋小梅","province":"東京都","city":"墨田区","address":"東京都墨田区向島1丁目5-5","lat":35.71300991,"lon":139.80519824},{"name":"サミット両国石原店","province":"東京都","city":"墨田区","address":"東京都墨田区石原1丁目40-6","lat":35.70169692,"lon":139.79880036},{"name":"サンシャイ","province":"東京都","city":"墨田区","address":"東京都墨田区本所1丁目34-7","lat":35.70414388,"lon":139.79681693},{"name":"三徳湯","province":"東京都","city":"墨田区","address":"東京都墨田区八広6丁目8-8","lat":35.72842964,"lon":139.8263466},{"name":"實相寺","province":"東京都","city":"墨田区","address":"東京都墨田区東駒形2丁目10-14","lat":35.70590481,"lon":139.80012463},{"name":"Zipangu","province":"東京都","city":"墨田区","address":"東京都墨田区業平3丁目6-5","lat":35.70745489,"lon":139.81380904},{"name":"しもとり接骨院","province":"東京都","city":"墨田区","address":"東京都墨田区横網2丁目16-5","lat":35.70162472,"lon":139.79682284},{"name":"宗教法人　牛島神社","province":"東京都","city":"墨田区","address":"東京都墨田区向島1丁目4-5","lat":35.7129599,"lon":139.80472608},{"name":"宗教法人　法性寺","province":"東京都","city":"墨田区","address":"東京都墨田区業平5丁目7-7","lat":35.707544,"lon":139.81830046},{"name":"ジョナサン菊川店","province":"東京都","city":"墨田区","address":"東京都墨田区菊川2丁目7-9","lat":35.68879574,"lon":139.80558434},{"name":"スタア美容室","province":"東京都","city":"墨田区","address":"東京都墨田区東向島5丁目11-2","lat":35.72689905,"lon":139.81994473},{"name":"スポーツクラブルネサンス両国","province":"東京都","city":"墨田区","address":"東京都墨田区両国2丁目10-14","lat":35.69389782,"lon":139.79270461},{"name":"すみだ子どもサロン","province":"東京都","city":"墨田区","address":"東京都墨田区亀沢4丁目17-18","lat":35.69766955,"lon":139.80782755},{"name":"墨田湯","province":"東京都","city":"墨田区","address":"東京都墨田区吾妻橋2丁目5-4","lat":35.70919896,"lon":139.80255718},{"name":"生活彩館やひろでんき","province":"東京都","city":"墨田区","address":"東京都墨田区八広1丁目43-5","lat":35.72209369,"lon":139.82589645},{"name":"関口接骨院","province":"東京都","city":"墨田区","address":"東京都墨田区東向島3丁目30-17","lat":35.72317424,"lon":139.81347347},{"name":"鮮魚居酒屋ツル","province":"東京都","city":"墨田区","address":"東京都墨田区八広2丁目37-7","lat":35.7165744,"lon":139.82832107},{"name":"第一ホテル両国","province":"東京都","city":"墨田区","address":"東京都墨田区横網1丁目6-1","lat":35.69830846,"lon":139.79685114},{"name":"タイ教育・文化センター","province":"東京都","city":"墨田区","address":"東京都墨田区江東橋1丁目11-9","lat":35.69556144,"lon":139.8100803},{"name":"大黒湯","province":"東京都","city":"墨田区","address":"東京都墨田区横川3丁目12-14","lat":35.70501875,"lon":139.8135928},{"name":"田実興産（株）両国SS（ENEOS)","province":"東京都","city":"墨田区","address":"東京都墨田区両国2丁目9-1","lat":35.69402837,"lon":139.79302681},{"name":"たてかわ接骨院","province":"東京都","city":"墨田区","address":"東京都墨田区立川3丁目5-8","lat":35.6906066,"lon":139.80500095},{"name":"田中接骨院","province":"東京都","city":"墨田区","address":"東京都墨田区本所2丁目7-12","lat":35.70288844,"lon":139.80012502},{"name":"多聞寺","province":"東京都","city":"墨田区","address":"東京都墨田区墨田5丁目31-13","lat":35.73847792,"lon":139.81928562},{"name":"千歳接骨院","province":"東京都","city":"墨田区","address":"東京都墨田区千歳3丁目6-5","lat":35.69040673,"lon":139.79779956},{"name":"中華料理　喜楽","province":"東京都","city":"墨田区","address":"東京都墨田区東向島6丁目26-14","lat":35.72269383,"lon":139.82268584},{"name":"点茶","province":"東京都","city":"墨田区","address":"東京都墨田区向島4丁目1-3","lat":35.7159131,"lon":139.81060917},{"name":"東武ストア　業平店","province":"東京都","city":"墨田区","address":"東京都墨田区業平5丁目5-9","lat":35.7071217,"lon":139.81742558},{"name":"ドルフィンネイル","province":"東京都","city":"墨田区","address":"東京都墨田区向島4丁目1-1","lat":35.71578252,"lon":139.81036196},{"name":"永井接骨院","province":"東京都","city":"墨田区","address":"東京都墨田区京島3丁目45-12","lat":35.71297514,"lon":139.82386609},{"name":"なかむら","province":"東京都","city":"墨田区","address":"東京都墨田区東向島2丁目28-3","lat":35.71935791,"lon":139.81713378},{"name":"ながやま接骨院","province":"東京都","city":"墨田区","address":"東京都墨田区立川1丁目2-8","lat":35.68995956,"lon":139.79913827},{"name":"ニコニコ整骨院","province":"東京都","city":"墨田区","address":"東京都墨田区菊川2丁目8-8","lat":35.68847358,"lon":139.80453459},{"name":"張福染織（有）","province":"東京都","city":"墨田区","address":"東京都墨田区押上3丁目50-6","lat":35.71152818,"lon":139.82144964},{"name":"パル墨田","province":"東京都","city":"墨田区","address":"東京都墨田区向島3丁目3-1","lat":35.71375168,"lon":139.80757025},{"name":"ピアレストランこーらるカフェ","province":"東京都","city":"墨田区","address":"東京都墨田区向島3丁目2-1","lat":35.71333497,"lon":139.80706471},{"name":"ＢＥＡＮＳ珈琲","province":"東京都","city":"墨田区","address":"東京都墨田区石原3丁目16-4","lat":35.70045814,"lon":139.80416932},{"name":"東駒形　琴富貴（日本そば店）","province":"東京都","city":"墨田区","address":"東京都墨田区東駒形3丁目21-16","lat":35.70724358,"lon":139.80366008},{"name":"東向島珈琲店Pua　mana","province":"東京都","city":"墨田区","address":"東京都墨田区東向島1丁目34-7","lat":35.72003563,"lon":139.81541742},{"name":"輝接骨院","province":"東京都","city":"墨田区","address":"東京都墨田区押上3丁目43-7","lat":35.71073902,"lon":139.82030538},{"name":"ビューティーSAN","province":"東京都","city":"墨田区","address":"東京都墨田区江東橋5丁目8-18","lat":35.69148143,"lon":139.8100361},{"name":"美容室ブースト","province":"東京都","city":"墨田区","address":"東京都墨田区緑1丁目28-6","lat":35.69566712,"lon":139.79784031},{"name":"美容室プランソレイユ","province":"東京都","city":"墨田区","address":"東京都墨田区横網1丁目9-2","lat":35.69835288,"lon":139.79546506},{"name":"平河山　法恩寺","province":"東京都","city":"墨田区","address":"東京都墨田区太平1丁目26-16","lat":35.70218844,"lon":139.81023227},{"name":"ひらの接骨院","province":"東京都","city":"墨田区","address":"東京都墨田区東駒形2丁目15-12","lat":35.70664641,"lon":139.80177987},{"name":"ファッションスポット　タカタヤ","province":"東京都","city":"墨田区","address":"東京都墨田区向島5丁目35-12","lat":35.71709656,"lon":139.81173422},{"name":"ファミリーマート鈴木錦糸町店","province":"東京都","city":"墨田区","address":"東京都墨田区錦糸1丁目7-2","lat":35.69827779,"lon":139.80985222},{"name":"福島寝具店","province":"東京都","city":"墨田区","address":"東京都墨田区東墨田2丁目20-3","lat":35.72308788,"lon":139.83139014},{"name":"フジセ","province":"東京都","city":"墨田区","address":"東京都墨田区吾妻橋2丁目2-4","lat":35.70837959,"lon":139.8034544},{"name":"古畑接骨院","province":"東京都","city":"墨田区","address":"東京都墨田区緑2丁目11-11","lat":35.69422836,"lon":139.80278149},{"name":"文花整骨院","province":"東京都","city":"墨田区","address":"東京都墨田区立花2丁目5-6","lat":35.70978591,"lon":139.82875188},{"name":"ヘアーサロン　ニュータカハシ","province":"東京都","city":"墨田区","address":"東京都墨田区八広5丁目20-18","lat":35.72244099,"lon":139.82441336},{"name":"ヘアーサロン　ヨコテ","province":"東京都","city":"墨田区","address":"東京都墨田区緑1丁目19-6","lat":35.69508106,"lon":139.79888192},{"name":"ベル美容室","province":"東京都","city":"墨田区","address":"東京都墨田区江東橋5丁目3-11","lat":35.68894012,"lon":139.81139156},{"name":"保育所ちびっこランド錦糸町園","province":"東京都","city":"墨田区","address":"東京都墨田区江東橋4丁目15-6","lat":35.69465043,"lon":139.81772651},{"name":"ボイス","province":"東京都","city":"墨田区","address":"東京都墨田区向島3丁目4-3","lat":35.71450732,"lon":139.80869247},{"name":"ポーラ　エステイン佳","province":"東京都","city":"墨田区","address":"東京都墨田区石原3丁目34-10","lat":35.70183299,"lon":139.80284151},{"name":"ますかわ整骨院","province":"東京都","city":"墨田区","address":"東京都墨田区緑1丁目8-10","lat":35.69310912,"lon":139.79839621},{"name":"丸井錦糸町店","province":"東京都","city":"墨田区","address":"東京都墨田区江東橋3丁目9-10","lat":35.69504482,"lon":139.81366874},{"name":"マルエツ　錦糸町店","province":"東京都","city":"墨田区","address":"東京都墨田区太平1丁目14-1","lat":35.70044143,"lon":139.8098714},{"name":"マルエツ　プチ両国緑一丁目店","province":"東京都","city":"墨田区","address":"東京都墨田区緑1丁目15-12","lat":35.6943395,"lon":139.79891815},{"name":"マルエツ　両国亀沢店","province":"東京都","city":"墨田区","address":"東京都墨田区亀沢3丁目2-14","lat":35.69618086,"lon":139.80456708},{"name":"マルオオ製茶おおいし","province":"東京都","city":"墨田区","address":"東京都墨田区吾妻橋2丁目2-6","lat":35.70839626,"lon":139.80380989},{"name":"満留賀そば店","province":"東京都","city":"墨田区","address":"東京都墨田区押上1丁目18-6","lat":35.71201356,"lon":139.81586385},{"name":"メガネフレンド","province":"東京都","city":"墨田区","address":"東京都墨田区東駒形4丁目16-18","lat":35.70677696,"lon":139.80706802},{"name":"柳沢接骨院","province":"東京都","city":"墨田区","address":"東京都墨田区立花2丁目6","lat":35.709372,"lon":139.82910187},{"name":"有道接骨院・鍼灸マッサージ院","province":"東京都","city":"墨田区","address":"東京都墨田区東駒形4丁目21-1","lat":35.70777688,"lon":139.80463487},{"name":"らーめん匠屋","province":"東京都","city":"墨田区","address":"東京都墨田区太平3丁目9-9","lat":35.70088569,"lon":139.81449598},{"name":"ライフ東向島店","province":"東京都","city":"墨田区","address":"東京都墨田区東向島4丁目3-7","lat":35.72753226,"lon":139.81526231},{"name":"リサイクルショップ　バザー","province":"東京都","city":"墨田区","address":"東京都墨田区緑4丁目24-20","lat":35.69536148,"lon":139.80802505},{"name":"立正佼成会墨田教会","province":"東京都","city":"墨田区","address":"東京都墨田区亀沢2丁目9-9","lat":35.69685026,"lon":139.80167293},{"name":"Ｌｉｔｔｌｅ　Ｉｎｄｉａ","province":"東京都","city":"墨田区","address":"東京都墨田区錦糸3丁目11-1","lat":35.69919705,"lon":139.81348509},{"name":"理容サトウ","province":"東京都","city":"墨田区","address":"東京都墨田区立川2丁目1-18","lat":35.69037058,"lon":139.80121559},{"name":"ローソン錦糸一丁目店","province":"東京都","city":"墨田区","address":"東京都墨田区錦糸1丁目5-17","lat":35.69779729,"lon":139.80995227},{"name":"ローソン向島一丁目店","province":"東京都","city":"墨田区","address":"東京都墨田区向島1丁目12-3","lat":35.71245991,"lon":139.80597308},{"name":"ロッテシティビル","province":"東京都","city":"墨田区","address":"東京都墨田区錦糸4丁目6-1","lat":35.69756946,"lon":139.81536279},{"name":"和食さと　墨田堤通店","province":"東京都","city":"墨田区","address":"東京都墨田区堤通1丁目19-11","lat":35.72726835,"lon":139.81228508},{"name":"曳舟中央整骨院・鍼灸院","province":"東京都","city":"墨田区","address":"東京都墨田区京島1丁目24-9","lat":35.71589432,"lon":139.81958604},{"name":"あわの自然学園","province":"栃木県","city":"鹿沼市","address":"栃木県鹿沼市上粕尾1041","lat":36.59355317,"lon":139.50111412},{"name":"上小山田コミュニティセンター","province":"東京都","city":"町田市","address":"東京都町田市上小山田町2616-2","lat":35.59482706,"lon":139.39836205},{"name":"成瀬コミュニティセンター","province":"東京都","city":"町田市","address":"東京都町田市西成瀬2丁目49-1","lat":35.54352677,"lon":139.47274369},{"name":"つくし野コミュニティセンター","province":"東京都","city":"町田市","address":"東京都町田市つくし野2丁目26-5","lat":35.52716937,"lon":139.48469949},{"name":"木曽森野コミュニティセンター","province":"東京都","city":"町田市","address":"東京都町田市木曽東1丁目2","lat":35.55656271,"lon":139.43028811},{"name":"三輪コミュニティーセンター","province":"東京都","city":"町田市","address":"東京都町田市三輪緑山4丁目14-1","lat":35.5771346,"lon":139.4933507},{"name":"町田市民フォーラム","province":"東京都","city":"町田市","address":"東京都町田市原町田4丁目9-8","lat":35.54180052,"lon":139.44984799},{"name":"日進公園","province":"東京都","city":"墨田区","address":"東京都墨田区亀沢3丁目24-3","lat":35.69862503,"lon":139.80441676},{"name":"なつめ公園","province":"東京都","city":"墨田区","address":"東京都墨田区東向島6丁目40-2","lat":35.72445761,"lon":139.82188321},{"name":"すみだボランティアセンター","province":"東京都","city":"墨田区","address":"東京都墨田区東向島2丁目17-14","lat":35.71838566,"lon":139.81561446},{"name":"かつら児童遊園","province":"東京都","city":"墨田区","address":"東京都墨田区墨田3丁目36-13","lat":35.73147348,"lon":139.82056385},{"name":"堤通公園","province":"東京都","city":"墨田区","address":"東京都墨田区堤通1丁目8-1","lat":35.72447964,"lon":139.81077124},{"name":"すみだ健康ハウス","province":"東京都","city":"墨田区","address":"東京都墨田区東墨田1丁目2-6","lat":35.71772695,"lon":139.82970417},{"name":"文花公園","province":"東京都","city":"墨田区","address":"東京都墨田区文花1丁目27-5","lat":35.7094556,"lon":139.82244155},{"name":"とちのき児童遊園","province":"東京都","city":"墨田区","address":"東京都墨田区緑2丁目8-12","lat":35.69324795,"lon":139.80130406},{"name":"立川第二児童遊園","province":"東京都","city":"墨田区","address":"東京都墨田区立川3丁目15-6","lat":35.69203976,"lon":139.80390933},{"name":"押上第一児童遊園","province":"東京都","city":"墨田区","address":"東京都墨田区押上3丁目48-1","lat":35.71179188,"lon":139.82010526},{"name":"京島西公園","province":"東京都","city":"墨田区","address":"東京都墨田区京島1丁目22-3","lat":35.71567483,"lon":139.81871112},{"name":"東向島ふじ公園","province":"東京都","city":"墨田区","address":"東京都墨田区東向島2丁目46-7","lat":35.72032456,"lon":139.81849198},{"name":"曳舟さくら公園","province":"東京都","city":"墨田区","address":"東京都墨田区京島1丁目40-1","lat":35.71877194,"lon":139.82017778},{"name":"本四三ツ目児童遊園","province":"東京都","city":"墨田区","address":"東京都墨田区本所4丁目1-4","lat":35.70288841,"lon":139.80498554},{"name":"請地児童遊園","province":"東京都","city":"墨田区","address":"東京都墨田区向島4丁目12-11","lat":35.71693833,"lon":139.81343679},{"name":"八広中央公園","province":"東京都","city":"墨田区","address":"東京都墨田区八広3丁目13-19","lat":35.71918814,"lon":139.82718507},{"name":"たちばな仲よし公園","province":"東京都","city":"墨田区","address":"東京都墨田区立花5丁目19-2","lat":35.71244966,"lon":139.82994877},{"name":"東あずま公園南","province":"東京都","city":"墨田区","address":"東京都墨田区立花2丁目32-12","lat":35.70834973,"lon":139.83030736},{"name":"東あずま公園北","province":"東京都","city":"墨田区","address":"東京都墨田区立花2丁目32-12","lat":35.70834973,"lon":139.83030736},{"name":"千歳公園","province":"東京都","city":"墨田区","address":"東京都墨田区千歳2丁目2-1","lat":35.69036782,"lon":139.79502744},{"name":"墨田二丁目児童遊園","province":"東京都","city":"墨田区","address":"東京都墨田区墨田2丁目42-4","lat":35.73228443,"lon":139.81873074},{"name":"曳舟西ビューハイツ","province":"東京都","city":"墨田区","address":"東京都墨田区京島1丁目39-1","lat":35.71855525,"lon":139.81929177},{"name":"曳舟東ビューハイツ","province":"東京都","city":"墨田区","address":"東京都墨田区京島1丁目45-1","lat":35.71817198,"lon":139.8202444},{"name":"六軒児童遊園","province":"東京都","city":"墨田区","address":"東京都墨田区立花3丁目18-12","lat":35.70610819,"lon":139.83438194},{"name":"舟原公園","province":"東京都","city":"墨田区","address":"東京都墨田区八広2丁目43-16","lat":35.71514967,"lon":139.8267824},{"name":"亀沢第一児童遊園","province":"東京都","city":"墨田区","address":"東京都墨田区亀沢2丁目13-7","lat":35.69784458,"lon":139.80188665},{"name":"都営立花四丁目団地","province":"東京都","city":"墨田区","address":"東京都墨田区立花4丁目30-1","lat":35.70956343,"lon":139.83534283},{"name":"隅田第二児童遊園","province":"東京都","city":"墨田区","address":"東京都墨田区墨田4丁目8-14","lat":35.73288164,"lon":139.82186355},{"name":"墨田第三児童遊園","province":"東京都","city":"墨田区","address":"東京都墨田区墨田2丁目17-6","lat":35.7314956,"lon":139.81623679},{"name":"ごあずま児童遊園","province":"東京都","city":"墨田区","address":"東京都墨田区八広4丁目36-24","lat":35.7227685,"lon":139.82939596},{"name":"立花第一児童遊園","province":"東京都","city":"墨田区","address":"東京都墨田区立花4丁目9-6","lat":35.71009965,"lon":139.83163207},{"name":"隅田東児童遊園","province":"東京都","city":"墨田区","address":"東京都墨田区墨田4丁目52-12","lat":35.72950444,"lon":139.82512169},{"name":"押上第二児童遊園","province":"東京都","city":"墨田区","address":"東京都墨田区押上3丁目57-3","lat":35.71191978,"lon":139.82117743},{"name":"八広六西児童遊園","province":"東京都","city":"墨田区","address":"東京都墨田区八広6丁目13-1","lat":35.72851578,"lon":139.82735203},{"name":"墨田第六児童遊園","province":"東京都","city":"墨田区","address":"東京都墨田区墨田2丁目20-15","lat":35.73052355,"lon":139.81718117},{"name":"みわさと公園","province":"東京都","city":"墨田区","address":"東京都墨田区八広1丁目38-13","lat":35.72107709,"lon":139.82532706},{"name":"隅田東第二児童遊園","province":"東京都","city":"墨田区","address":"東京都墨田区墨田4丁目34-20","lat":35.73275392,"lon":139.82414937},{"name":"八広あずま公園","province":"東京都","city":"墨田区","address":"東京都墨田区八広4丁目19-14","lat":35.72376025,"lon":139.82809342},{"name":"露伴児童遊園","province":"東京都","city":"墨田区","address":"東京都墨田区東向島1丁目7-11","lat":35.72189933,"lon":139.81308177},{"name":"小梅児童遊園","province":"東京都","city":"墨田区","address":"東京都墨田区向島1丁目33-3","lat":35.71042667,"lon":139.80815339},{"name":"さつき公園","province":"東京都","city":"墨田区","address":"東京都墨田区東向島6丁目19-12","lat":35.72262441,"lon":139.82039453},{"name":"きねがわ公園","province":"東京都","city":"墨田区","address":"東京都墨田区東墨田2丁目25-8","lat":35.724149,"lon":139.83316217},{"name":"竪川親水公園","province":"東京都","city":"墨田区","address":"東京都墨田区江東橋2丁目1","lat":35.69309787,"lon":139.81198851},{"name":"菊川駐輪場","province":"東京都","city":"墨田区","address":"東京都墨田区菊川3丁目6-14","lat":35.68755145,"lon":139.80696471},{"name":"みどりコミュニティセンター","province":"東京都","city":"墨田区","address":"東京都墨田区緑3丁目7-3","lat":35.69361455,"lon":139.8032676},{"name":"業平防災待機職員住宅","province":"東京都","city":"墨田区","address":"東京都墨田区業平3丁目2-5","lat":35.70634375,"lon":139.8130676},{"name":"すみだ清掃事務所","province":"東京都","city":"墨田区","address":"東京都墨田区業平5丁目6-2","lat":35.70709118,"lon":139.81802555},{"name":"八広認定こども園","province":"東京都","city":"墨田区","address":"東京都墨田区八広3丁目7-5","lat":35.72091034,"lon":139.82649354},{"name":"江東橋二丁目その他緑地","province":"東京都","city":"墨田区","address":"東京都墨田区江東橋2丁目18","lat":35.6959086,"lon":139.81198834},{"name":"梅若橋コミュニティ会館","province":"東京都","city":"墨田区","address":"墨田区堤通二丁目9番1号","lat":35.735395,"lon":139.816696},{"name":"子育て支援総合センター","province":"東京都","city":"墨田区","address":"墨田区京島一丁目35番9号103号室マーク・ゼロワン曳舟タワー棟1階","lat":35.716666,"lon":139.819806},{"name":"さくら橋コミュニティセンター","province":"東京都","city":"墨田区","address":"墨田区向島二丁目3番8号","lat":35.71368,"lon":139.805844},{"name":"社会福祉会館","province":"東京都","city":"墨田区","address":"墨田区東墨田二丁目7番1号","lat":35.71903,"lon":139.830361},{"name":"スポーツプラザ梅若","province":"東京都","city":"墨田区","address":"墨田区墨田一丁目4番4号","lat":35.7292066,"lon":139.8158411},{"name":"墨田区総合体育館","province":"東京都","city":"墨田区","address":"墨田区錦糸四丁目15番1号","lat":35.6995475,"lon":139.8172152},{"name":"墨田区役所","province":"東京都","city":"墨田区","address":"墨田区吾妻橋一丁目23番20号","lat":35.710722,"lon":139.801497},{"name":"墨田児童会館","province":"東京都","city":"墨田区","address":"墨田区墨田二丁目30番15号","lat":35.729294,"lon":139.818932},{"name":"すみだ生涯学習センター","province":"東京都","city":"墨田区","address":"墨田区東向島二丁目38番7号","lat":35.721128,"lon":139.818398},{"name":"すみだ女性センター","province":"東京都","city":"墨田区","address":"墨田区押上二丁目12番7号111号室","lat":35.712706,"lon":139.812105},{"name":"すみだスポーツ健康センター","province":"東京都","city":"墨田区","address":"墨田区東墨田一丁目6番1号","lat":35.716461,"lon":139.830555},{"name":"すみだ中小企業センター","province":"東京都","city":"墨田区","address":"墨田区文花一丁目19番1号","lat":35.710607,"lon":139.823905},{"name":"外手児童館","province":"東京都","city":"墨田区","address":"墨田区本所二丁目6番9号","lat":35.702991,"lon":139.800778},{"name":"立川児童館","province":"東京都","city":"墨田区","address":"墨田区立川一丁目5番2号","lat":35.6905,"lon":139.799531},{"name":"立花児童館","province":"東京都","city":"墨田区","address":"墨田区立花一丁目27番9号","lat":35.705501,"lon":139.828832},{"name":"立花図書館","province":"東京都","city":"墨田区","address":"墨田区立花六丁目8番1号101号室","lat":35.710483,"lon":139.834888},{"name":"東京ガス・ライフバル両国","province":"東京都","city":"墨田区","address":"墨田区緑二丁目13番7号","lat":35.694548,"lon":139.801274},{"name":"中川児童館","province":"東京都","city":"墨田区","address":"墨田区立花五丁目18番9号","lat":35.712977,"lon":139.830966},{"name":"東駒形コミュニティ会館","province":"東京都","city":"墨田区","address":"墨田区東駒形四丁目14番1号","lat":35.705524,"lon":139.807754},{"name":"東向島児童館","province":"東京都","city":"墨田区","address":"墨田区東向島六丁目6番12号","lat":35.721429,"lon":139.819709},{"name":"ひきふね図書館","province":"東京都","city":"墨田区","address":"墨田区京島一丁目36番5号","lat":35.717058,"lon":139.819492},{"name":"文花子育てひろば","province":"東京都","city":"墨田区","address":"墨田区文花一丁目20番3号","lat":35.710452,"lon":139.822829},{"name":"文花児童館","province":"東京都","city":"墨田区","address":"墨田区文花一丁目32番11号","lat":35.708691,"lon":139.824397},{"name":"本所地域プラザ「BIGSHIP」","province":"東京都","city":"墨田区","address":"墨田区本所一丁目13番4号","lat":35.7031212,"lon":139.7987991},{"name":"みどりコミュニティセンター","province":"東京都","city":"墨田区","address":"墨田区緑三丁目7番3号","lat":35.693598,"lon":139.803278},{"name":"向島保健センター","province":"東京都","city":"墨田区","address":"墨田区東向島五丁目16番2号","lat":35.72591,"lon":139.821203},{"name":"八広児童館","province":"東京都","city":"墨田区","address":"墨田区八広二丁目38番14号","lat":35.715877,"lon":139.827933},{"name":"八広地域プラザ「吾嬬の里」","province":"東京都","city":"墨田区","address":"墨田区八広四丁目35番17号","lat":35.723165,"lon":139.829377},{"name":"八広図書館","province":"東京都","city":"墨田区","address":"墨田区八広五丁目10番1号104号室","lat":35.724809,"lon":139.825801},{"name":"八広はなみずき児童館","province":"東京都","city":"墨田区","address":"墨田区八広四丁目27番8号","lat":35.724575,"lon":139.82942},{"name":"横川コミュニティ会館","province":"東京都","city":"墨田区","address":"墨田区横川五丁目9番1号","lat":35.705206,"lon":139.817461},{"name":"両国屋内プール","province":"東京都","city":"墨田区","address":"墨田区横網一丁目8番1号両国中学校内","lat":35.697776,"lon":139.796287},{"name":"両国子育てひろば","province":"東京都","city":"墨田区","address":"墨田区横網一丁目2番13号","lat":35.697856,"lon":139.792447},{"name":"アスク両国保育園","province":"東京都","city":"墨田区","address":"墨田区亀沢二丁目14番9号","lat":35.6977116,"lon":139.8011501},{"name":"梅若保育園","province":"東京都","city":"墨田区","address":"墨田区墨田二丁目38番13号","lat":35.730793,"lon":139.817607},{"name":"おむらい保育園","province":"東京都","city":"墨田区","address":"墨田区文花一丁目32番1号103号室","lat":35.707797,"lon":139.824433},{"name":"鐘ヶ淵北保育園","province":"東京都","city":"墨田区","address":"墨田区堤通二丁目8番15号109号室","lat":35.735897,"lon":139.817221},{"name":"亀沢保育園","province":"東京都","city":"墨田区","address":"墨田区亀沢一丁目27番5号","lat":35.698556,"lon":139.799427},{"name":"江東橋保育園","province":"東京都","city":"墨田区","address":"墨田区緑四丁目35番9号","lat":35.695781,"lon":139.807469},{"name":"江東橋保育園（分園）","province":"東京都","city":"墨田区","address":"墨田区亀沢三丁目12番5号","lat":35.69714,"lon":139.804502},{"name":"しらひげ保育園","province":"東京都","city":"墨田区","address":"墨田区堤通二丁目5番5号101号室","lat":35.730935,"lon":139.813903},{"name":"水神保育園","province":"東京都","city":"墨田区","address":"墨田区堤通二丁目6番9号103号室","lat":35.733398,"lon":139.815873},{"name":"すみだ保育園","province":"東京都","city":"墨田区","address":"墨田区墨田四丁目22番4号101号室","lat":35.732047,"lon":139.823048},{"name":"太平保育園","province":"東京都","city":"墨田区","address":"墨田区太平一丁目13番10号","lat":35.700095,"lon":139.810371},{"name":"たちばな保育園","province":"東京都","city":"墨田区","address":"墨田区立花三丁目21番16号","lat":35.707091,"lon":139.83434},{"name":"立川保育園","province":"東京都","city":"墨田区","address":"墨田区立川一丁目5番2号","lat":35.690474,"lon":139.799566},{"name":"寺島保育園","province":"東京都","city":"墨田区","address":"墨田区東向島一丁目23番10号","lat":35.720181,"lon":139.812601},{"name":"長浦保育園","province":"東京都","city":"墨田区","address":"墨田区八広五丁目10番1号105号室","lat":35.72479,"lon":139.825747},{"name":"中川保育園","province":"東京都","city":"墨田区","address":"墨田区東墨田二丁目1番15号","lat":35.718702,"lon":139.830587},{"name":"中川南保育園","province":"東京都","city":"墨田区","address":"墨田区立花六丁目8番2号106号室","lat":35.710431,"lon":139.835519},{"name":"花園保育園","province":"東京都","city":"墨田区","address":"墨田区東向島三丁目16番2号","lat":35.72468,"lon":139.814625},{"name":"東あずま保育園","province":"東京都","city":"墨田区","address":"墨田区立花一丁目27番6号101号室","lat":35.704459,"lon":139.829229},{"name":"東駒形保育園","province":"東京都","city":"墨田区","address":"墨田区東駒形一丁目6番8号","lat":35.705406,"lon":139.798161},{"name":"福神橋保育園","province":"東京都","city":"墨田区","address":"墨田区文花一丁目30番21号101号室","lat":35.708174,"lon":139.822277},{"name":"文花保育園","province":"東京都","city":"墨田区","address":"墨田区文花一丁目24番5号","lat":35.709755,"lon":139.823212},{"name":"八広保育園","province":"東京都","city":"墨田区","address":"墨田区八広三丁目7番5号","lat":35.720913,"lon":139.826387},{"name":"横川橋保育園","province":"東京都","city":"墨田区","address":"墨田区太平一丁目27番13号","lat":35.702198,"lon":139.810873},{"name":"押上保育園","province":"東京都","city":"墨田区","address":"墨田区押上二丁目10番17号","lat":35.711381,"lon":139.811793},{"name":"わらべみどり保育園","province":"東京都","city":"墨田区","address":"墨田区緑三丁目12番2号","lat":35.694559,"lon":139.80445},{"name":"あおやぎ保育園","province":"東京都","city":"墨田区","address":"墨田区東向島四丁目37番17号","lat":35.725832,"lon":139.819226},{"name":"きんし保育園","province":"東京都","city":"墨田区","address":"墨田区江東橋四丁目30番2号301号室","lat":35.696602,"lon":139.818948},{"name":"ひきふね保育園","province":"東京都","city":"墨田区","address":"墨田区八広一丁目1番18号","lat":35.72007,"lon":139.821339},{"name":"横川さくら保育園","province":"東京都","city":"墨田区","address":"墨田区横川五丁目9番1号","lat":35.705023,"lon":139.817575},{"name":"横川さくら保育園（分園）","province":"東京都","city":"墨田区","address":"墨田区立花一丁目23番5号206号室","lat":35.706644,"lon":139.831219},{"name":"緑幼稚園","province":"東京都","city":"墨田区","address":"墨田区緑二丁目11番5号","lat":35.694147,"lon":139.801845},{"name":"柳島幼稚園","province":"東京都","city":"墨田区","address":"墨田区横川五丁目2番30号","lat":35.703311,"lon":139.817524},{"name":"菊川幼稚園","province":"東京都","city":"墨田区","address":"墨田区立川四丁目12番15号","lat":35.691487,"lon":139.807336},{"name":"第三寺島幼稚園","province":"東京都","city":"墨田区","address":"墨田区東向島六丁目8番1号","lat":35.721429,"lon":139.820417},{"name":"曳舟幼稚園","province":"東京都","city":"墨田区","address":"墨田区京島一丁目28番2号","lat":35.716029,"lon":139.82081},{"name":"八広幼稚園","province":"東京都","city":"墨田区","address":"墨田区八広五丁目12番15号","lat":35.72658,"lon":139.8256},{"name":"立花幼稚園","province":"東京都","city":"墨田区","address":"墨田区立花一丁目25番9号","lat":35.704833,"lon":139.831726},{"name":"（株）カズン八広店","province":"東京都","city":"墨田区","address":"東京都墨田区八広1丁目7-8","lat":35.72187168,"lon":139.82249696},{"name":"（株）片岡屏風店","province":"東京都","city":"墨田区","address":"東京都墨田区向島1丁目31-6","lat":35.71037389,"lon":139.8077118},{"name":"（株）キャニオン","province":"東京都","city":"墨田区","address":"東京都墨田区八広6丁目52-15","lat":35.72450188,"lon":139.83015983},{"name":"（株）四季園芸","province":"東京都","city":"墨田区","address":"東京都墨田区本所3丁目19-8","lat":35.7039911,"lon":139.80343557},{"name":"（株）隅田屋商店","province":"東京都","city":"墨田区","address":"東京都墨田区東駒形1丁目6-1","lat":35.70514101,"lon":139.79773892},{"name":"（株）なぎさ　葬儀相談センター","province":"東京都","city":"墨田区","address":"東京都墨田区江東橋4丁目5-10","lat":35.69379777,"lon":139.81872082},{"name":"（有）小梅寿司","province":"東京都","city":"墨田区","address":"東京都墨田区向島1丁目32-10","lat":35.70978505,"lon":139.80822015},{"name":"（有）関口","province":"東京都","city":"墨田区","address":"東京都墨田区本所4丁目19-12","lat":35.70414663,"lon":139.80525477},{"name":"BUNKAN","province":"東京都","city":"墨田区","address":"東京都墨田区京島3丁目17-7","lat":35.71603592,"lon":139.82431882},{"name":"Caf? chopin　カフェ・ショパン","province":"東京都","city":"墨田区","address":"東京都墨田区押上2丁目5-1","lat":35.71146558,"lon":139.81003356},{"name":"ENDO　GYM","province":"東京都","city":"墨田区","address":"東京都墨田区江東橋4丁目22-4","lat":35.69521145,"lon":139.81741543},{"name":"for‐R整体院","province":"東京都","city":"墨田区","address":"東京都墨田区錦糸1丁目7-16","lat":35.69813614,"lon":139.81012443},{"name":"Grow/Grow device","province":"東京都","city":"墨田区","address":"東京都墨田区江東橋4丁目24-9","lat":35.69580025,"lon":139.81889299},{"name":"HOLLY","province":"東京都","city":"墨田区","address":"東京都墨田区向島2丁目22-10","lat":35.71353218,"lon":139.80646203},{"name":"TOMORROW","province":"東京都","city":"墨田区","address":"東京都墨田区亀沢4丁目8-5","lat":35.69735293,"lon":139.80735544},{"name":"UCAN　SPORTSショップ","province":"東京都","city":"墨田区","address":"東京都墨田区緑2丁目11-2","lat":35.69400617,"lon":139.80204273},{"name":"アカチャンホンポ錦糸町店","province":"東京都","city":"墨田区","address":"東京都墨田区錦糸2丁目2-1","lat":35.69746951,"lon":139.81236592},{"name":"アクア鍼灸整骨院","province":"東京都","city":"墨田区","address":"東京都墨田区太平3丁目4-3","lat":35.70019968,"lon":139.81403496},{"name":"アズマカイロプラクティック","province":"東京都","city":"墨田区","address":"東京都墨田区太平3丁目7-3","lat":35.70059132,"lon":139.81343776},{"name":"アトリエ創藝館","province":"東京都","city":"墨田区","address":"東京都墨田区横川2丁目10-1","lat":35.70391599,"lon":139.81264858},{"name":"あゆみケアサービス","province":"東京都","city":"墨田区","address":"東京都墨田区墨田5丁目43-9","lat":35.73380644,"lon":139.81943606},{"name":"荒井湯","province":"東京都","city":"墨田区","address":"東京都墨田区本所2丁目8-7","lat":35.70342727,"lon":139.80067487},{"name":"アルカキット錦糸町","province":"東京都","city":"墨田区","address":"東京都墨田区錦糸2丁目2-1","lat":35.69746951,"lon":139.81236592},{"name":"居食屋　幸","province":"東京都","city":"墨田区","address":"東京都墨田区八広1丁目37-12","lat":35.72097152,"lon":139.82557424},{"name":"イトーヨーカドー曳舟店","province":"東京都","city":"墨田区","address":"東京都墨田区京島1丁目2-1","lat":35.7173108,"lon":139.81782799},{"name":"いまくに接骨院","province":"東京都","city":"墨田区","address":"東京都墨田区太平3丁目18-1","lat":35.70216889,"lon":139.81319598},{"name":"エース鍼灸整骨院","province":"東京都","city":"墨田区","address":"東京都墨田区京島1丁目53-9","lat":35.71761647,"lon":139.82268296},{"name":"ENEOSガソリンスタンド","province":"東京都","city":"墨田区","address":"東京都墨田区八広5丁目1-4","lat":35.72292157,"lon":139.82324965},{"name":"オリンピック墨田文花店","province":"東京都","city":"墨田区","address":"東京都墨田区文花1丁目31-9","lat":35.70678852,"lon":139.8237529},{"name":"尾張屋","province":"東京都","city":"墨田区","address":"東京都墨田区本所2丁目8-4","lat":35.70352448,"lon":139.80014715},{"name":"ガスト押上店","province":"東京都","city":"墨田区","address":"東京都墨田区業平3丁目17-9","lat":35.70943267,"lon":139.81346151},{"name":"ガスト錦糸町北口店","province":"東京都","city":"墨田区","address":"東京都墨田区錦糸1丁目17-10","lat":35.69788896,"lon":139.80895792},{"name":"CUT STUDIO KOJIMA","province":"東京都","city":"墨田区","address":"東京都墨田区八広1丁目36-10","lat":35.72071041,"lon":139.82558812},{"name":"カメカフェ","province":"東京都","city":"墨田区","address":"東京都墨田区石原1丁目23-4","lat":35.70013878,"lon":139.79885892},{"name":"河のや","province":"東京都","city":"墨田区","address":"東京都墨田区東駒形4丁目11-6","lat":35.70647421,"lon":139.80684587},{"name":"革バック工房　KIYOKAWA","province":"東京都","city":"墨田区","address":"東京都墨田区吾妻橋2丁目1-6","lat":35.70829072,"lon":139.80288504},{"name":"河原のあべ","province":"東京都","city":"墨田区","address":"東京都墨田区向島5丁目24-2","lat":35.71716588,"lon":139.8093595},{"name":"きそ路","province":"東京都","city":"墨田区","address":"東京都墨田区太平4丁目18-10","lat":35.70267146,"lon":139.81691517},{"name":"喫茶イーグル","province":"東京都","city":"墨田区","address":"東京都墨田区八広5丁目23-13","lat":35.72331308,"lon":139.82657696},{"name":"喫茶店トワ・エ・モワ","province":"東京都","city":"墨田区","address":"東京都墨田区八広5丁目3-17","lat":35.72252434,"lon":139.82377456},{"name":"きものレンタル淑Yoshi","province":"東京都","city":"墨田区","address":"東京都墨田区東駒形3丁目1-1","lat":35.70519376,"lon":139.80233276},{"name":"錦糸町飯店","province":"東京都","city":"墨田区","address":"東京都墨田区江東橋3丁目8-12","lat":35.6949615,"lon":139.81480747},{"name":"小菅（株）","province":"東京都","city":"墨田区","address":"東京都墨田区東向島2丁目33-2","lat":35.72011344,"lon":139.81692831},{"name":"コスモスあらいや","province":"東京都","city":"墨田区","address":"東京都墨田区押上3丁目34-8","lat":35.70992215,"lon":139.81947222},{"name":"こりこりアロマ整骨院","province":"東京都","city":"墨田区","address":"東京都墨田区押上1丁目29-6","lat":35.71054407,"lon":139.81595563},{"name":"ザ・ホテルベルグランデ","province":"東京都","city":"墨田区","address":"東京都墨田区両国2丁目19-1","lat":35.69545039,"lon":139.79215996},{"name":"埼玉屋小梅","province":"東京都","city":"墨田区","address":"東京都墨田区向島1丁目5-5","lat":35.71300991,"lon":139.80519824},{"name":"サミット両国石原店","province":"東京都","city":"墨田区","address":"東京都墨田区石原1丁目40-6","lat":35.70169692,"lon":139.79880036},{"name":"サンシャイ","province":"東京都","city":"墨田区","address":"東京都墨田区本所1丁目34-7","lat":35.70414388,"lon":139.79681693},{"name":"三徳湯","province":"東京都","city":"墨田区","address":"東京都墨田区八広6丁目8-8","lat":35.72842964,"lon":139.8263466},{"name":"實相寺","province":"東京都","city":"墨田区","address":"東京都墨田区東駒形2丁目10-14","lat":35.70590481,"lon":139.80012463},{"name":"Zipangu","province":"東京都","city":"墨田区","address":"東京都墨田区業平3丁目6-5","lat":35.70745489,"lon":139.81380904},{"name":"しもとり接骨院","province":"東京都","city":"墨田区","address":"東京都墨田区横網2丁目16-5","lat":35.70162472,"lon":139.79682284},{"name":"宗教法人　牛島神社","province":"東京都","city":"墨田区","address":"東京都墨田区向島1丁目4-5","lat":35.7129599,"lon":139.80472608},{"name":"宗教法人　法性寺","province":"東京都","city":"墨田区","address":"東京都墨田区業平5丁目7-7","lat":35.707544,"lon":139.81830046},{"name":"ジョナサン菊川店","province":"東京都","city":"墨田区","address":"東京都墨田区菊川2丁目7-9","lat":35.68879574,"lon":139.80558434},{"name":"スタア美容室","province":"東京都","city":"墨田区","address":"東京都墨田区東向島5丁目11-2","lat":35.72689905,"lon":139.81994473},{"name":"スポーツクラブルネサンス両国","province":"東京都","city":"墨田区","address":"東京都墨田区両国2丁目10-14","lat":35.69389782,"lon":139.79270461},{"name":"すみだ子どもサロン","province":"東京都","city":"墨田区","address":"東京都墨田区亀沢4丁目17-18","lat":35.69766955,"lon":139.80782755},{"name":"墨田湯","province":"東京都","city":"墨田区","address":"東京都墨田区吾妻橋2丁目5-4","lat":35.70919896,"lon":139.80255718},{"name":"生活彩館やひろでんき","province":"東京都","city":"墨田区","address":"東京都墨田区八広1丁目43-5","lat":35.72209369,"lon":139.82589645},{"name":"関口接骨院","province":"東京都","city":"墨田区","address":"東京都墨田区東向島3丁目30-17","lat":35.72317424,"lon":139.81347347},{"name":"鮮魚居酒屋ツル","province":"東京都","city":"墨田区","address":"東京都墨田区八広2丁目37-7","lat":35.7165744,"lon":139.82832107},{"name":"第一ホテル両国","province":"東京都","city":"墨田区","address":"東京都墨田区横網1丁目6-1","lat":35.69830846,"lon":139.79685114},{"name":"タイ教育・文化センター","province":"東京都","city":"墨田区","address":"東京都墨田区江東橋1丁目11-9","lat":35.69556144,"lon":139.8100803},{"name":"大黒湯","province":"東京都","city":"墨田区","address":"東京都墨田区横川3丁目12-14","lat":35.70501875,"lon":139.8135928},{"name":"田実興産（株）両国SS（ENEOS)","province":"東京都","city":"墨田区","address":"東京都墨田区両国2丁目9-1","lat":35.69402837,"lon":139.79302681},{"name":"たてかわ接骨院","province":"東京都","city":"墨田区","address":"東京都墨田区立川3丁目5-8","lat":35.6906066,"lon":139.80500095},{"name":"田中接骨院","province":"東京都","city":"墨田区","address":"東京都墨田区本所2丁目7-12","lat":35.70288844,"lon":139.80012502},{"name":"多聞寺","province":"東京都","city":"墨田区","address":"東京都墨田区墨田5丁目31-13","lat":35.73847792,"lon":139.81928562},{"name":"千歳接骨院","province":"東京都","city":"墨田区","address":"東京都墨田区千歳3丁目6-5","lat":35.69040673,"lon":139.79779956},{"name":"中華料理　喜楽","province":"東京都","city":"墨田区","address":"東京都墨田区東向島6丁目26-14","lat":35.72269383,"lon":139.82268584},{"name":"点茶","province":"東京都","city":"墨田区","address":"東京都墨田区向島4丁目1-3","lat":35.7159131,"lon":139.81060917},{"name":"東武ストア　業平店","province":"東京都","city":"墨田区","address":"東京都墨田区業平5丁目5-9","lat":35.7071217,"lon":139.81742558},{"name":"ドルフィンネイル","province":"東京都","city":"墨田区","address":"東京都墨田区向島4丁目1-1","lat":35.71578252,"lon":139.81036196},{"name":"永井接骨院","province":"東京都","city":"墨田区","address":"東京都墨田区京島3丁目45-12","lat":35.71297514,"lon":139.82386609},{"name":"なかむら","province":"東京都","city":"墨田区","address":"東京都墨田区東向島2丁目28-3","lat":35.71935791,"lon":139.81713378},{"name":"ながやま接骨院","province":"東京都","city":"墨田区","address":"東京都墨田区立川1丁目2-8","lat":35.68995956,"lon":139.79913827},{"name":"ニコニコ整骨院","province":"東京都","city":"墨田区","address":"東京都墨田区菊川2丁目8-8","lat":35.68847358,"lon":139.80453459},{"name":"張福染織（有）","province":"東京都","city":"墨田区","address":"東京都墨田区押上3丁目50-6","lat":35.71152818,"lon":139.82144964},{"name":"パル墨田","province":"東京都","city":"墨田区","address":"東京都墨田区向島3丁目3-1","lat":35.71375168,"lon":139.80757025},{"name":"ピアレストランこーらるカフェ","province":"東京都","city":"墨田区","address":"東京都墨田区向島3丁目2-1","lat":35.71333497,"lon":139.80706471},{"name":"ＢＥＡＮＳ珈琲","province":"東京都","city":"墨田区","address":"東京都墨田区石原3丁目16-4","lat":35.70045814,"lon":139.80416932},{"name":"東駒形　琴富貴（日本そば店）","province":"東京都","city":"墨田区","address":"東京都墨田区東駒形3丁目21-16","lat":35.70724358,"lon":139.80366008},{"name":"東向島珈琲店Pua　mana","province":"東京都","city":"墨田区","address":"東京都墨田区東向島1丁目34-7","lat":35.72003563,"lon":139.81541742},{"name":"輝接骨院","province":"東京都","city":"墨田区","address":"東京都墨田区押上3丁目43-7","lat":35.71073902,"lon":139.82030538},{"name":"ビューティーSAN","province":"東京都","city":"墨田区","address":"東京都墨田区江東橋5丁目8-18","lat":35.69148143,"lon":139.8100361},{"name":"美容室ブースト","province":"東京都","city":"墨田区","address":"東京都墨田区緑1丁目28-6","lat":35.69566712,"lon":139.79784031},{"name":"美容室プランソレイユ","province":"東京都","city":"墨田区","address":"東京都墨田区横網1丁目9-2","lat":35.69835288,"lon":139.79546506},{"name":"平河山　法恩寺","province":"東京都","city":"墨田区","address":"東京都墨田区太平1丁目26-16","lat":35.70218844,"lon":139.81023227},{"name":"ひらの接骨院","province":"東京都","city":"墨田区","address":"東京都墨田区東駒形2丁目15-12","lat":35.70664641,"lon":139.80177987},{"name":"ファッションスポット　タカタヤ","province":"東京都","city":"墨田区","address":"東京都墨田区向島5丁目35-12","lat":35.71709656,"lon":139.81173422},{"name":"ファミリーマート鈴木錦糸町店","province":"東京都","city":"墨田区","address":"東京都墨田区錦糸1丁目7-2","lat":35.69827779,"lon":139.80985222},{"name":"福島寝具店","province":"東京都","city":"墨田区","address":"東京都墨田区東墨田2丁目20-3","lat":35.72308788,"lon":139.83139014},{"name":"フジセ","province":"東京都","city":"墨田区","address":"東京都墨田区吾妻橋2丁目2-4","lat":35.70837959,"lon":139.8034544},{"name":"古畑接骨院","province":"東京都","city":"墨田区","address":"東京都墨田区緑2丁目11-11","lat":35.69422836,"lon":139.80278149},{"name":"文花整骨院","province":"東京都","city":"墨田区","address":"東京都墨田区立花2丁目5-6","lat":35.70978591,"lon":139.82875188},{"name":"ヘアーサロン　ニュータカハシ","province":"東京都","city":"墨田区","address":"東京都墨田区八広5丁目20-18","lat":35.72244099,"lon":139.82441336},{"name":"ヘアーサロン　ヨコテ","province":"東京都","city":"墨田区","address":"東京都墨田区緑1丁目19-6","lat":35.69508106,"lon":139.79888192},{"name":"ベル美容室","province":"東京都","city":"墨田区","address":"東京都墨田区江東橋5丁目3-11","lat":35.68894012,"lon":139.81139156},{"name":"保育所ちびっこランド錦糸町園","province":"東京都","city":"墨田区","address":"東京都墨田区江東橋4丁目15-6","lat":35.69465043,"lon":139.81772651},{"name":"ボイス","province":"東京都","city":"墨田区","address":"東京都墨田区向島3丁目4-3","lat":35.71450732,"lon":139.80869247},{"name":"ポーラ　エステイン佳","province":"東京都","city":"墨田区","address":"東京都墨田区石原3丁目34-10","lat":35.70183299,"lon":139.80284151},{"name":"ますかわ整骨院","province":"東京都","city":"墨田区","address":"東京都墨田区緑1丁目8-10","lat":35.69310912,"lon":139.79839621},{"name":"丸井錦糸町店","province":"東京都","city":"墨田区","address":"東京都墨田区江東橋3丁目9-10","lat":35.69504482,"lon":139.81366874},{"name":"マルエツ　錦糸町店","province":"東京都","city":"墨田区","address":"東京都墨田区太平1丁目14-1","lat":35.70044143,"lon":139.8098714},{"name":"マルエツ　プチ両国緑一丁目店","province":"東京都","city":"墨田区","address":"東京都墨田区緑1丁目15-12","lat":35.6943395,"lon":139.79891815},{"name":"マルエツ　両国亀沢店","province":"東京都","city":"墨田区","address":"東京都墨田区亀沢3丁目2-14","lat":35.69618086,"lon":139.80456708},{"name":"マルオオ製茶おおいし","province":"東京都","city":"墨田区","address":"東京都墨田区吾妻橋2丁目2-6","lat":35.70839626,"lon":139.80380989},{"name":"満留賀そば店","province":"東京都","city":"墨田区","address":"東京都墨田区押上1丁目18-6","lat":35.71201356,"lon":139.81586385},{"name":"メガネフレンド","province":"東京都","city":"墨田区","address":"東京都墨田区東駒形4丁目16-18","lat":35.70677696,"lon":139.80706802},{"name":"柳沢接骨院","province":"東京都","city":"墨田区","address":"東京都墨田区立花2丁目6","lat":35.709372,"lon":139.82910187},{"name":"有道接骨院・鍼灸マッサージ院","province":"東京都","city":"墨田区","address":"東京都墨田区東駒形4丁目21-1","lat":35.70777688,"lon":139.80463487},{"name":"らーめん匠屋","province":"東京都","city":"墨田区","address":"東京都墨田区太平3丁目9-9","lat":35.70088569,"lon":139.81449598},{"name":"ライフ東向島店","province":"東京都","city":"墨田区","address":"東京都墨田区東向島4丁目3-7","lat":35.72753226,"lon":139.81526231},{"name":"リサイクルショップ　バザー","province":"東京都","city":"墨田区","address":"東京都墨田区緑4丁目24-20","lat":35.69536148,"lon":139.80802505},{"name":"立正佼成会墨田教会","province":"東京都","city":"墨田区","address":"東京都墨田区亀沢2丁目9-9","lat":35.69685026,"lon":139.80167293},{"name":"Ｌｉｔｔｌｅ　Ｉｎｄｉａ","province":"東京都","city":"墨田区","address":"東京都墨田区錦糸3丁目11-1","lat":35.69919705,"lon":139.81348509},{"name":"理容サトウ","province":"東京都","city":"墨田区","address":"東京都墨田区立川2丁目1-18","lat":35.69037058,"lon":139.80121559},{"name":"ローソン錦糸一丁目店","province":"東京都","city":"墨田区","address":"東京都墨田区錦糸1丁目5-17","lat":35.69779729,"lon":139.80995227},{"name":"ローソン向島一丁目店","province":"東京都","city":"墨田区","address":"東京都墨田区向島1丁目12-3","lat":35.71245991,"lon":139.80597308},{"name":"ロッテシティビル","province":"東京都","city":"墨田区","address":"東京都墨田区錦糸4丁目6-1","lat":35.69756946,"lon":139.81536279},{"name":"和食さと　墨田堤通店","province":"東京都","city":"墨田区","address":"東京都墨田区堤通1丁目19-11","lat":35.72726835,"lon":139.81228508},{"name":"曳舟中央整骨院・鍼灸院","province":"東京都","city":"墨田区","address":"東京都墨田区京島1丁目24-9","lat":35.71589432,"lon":139.81958604},{"name":"あわの自然学園","province":"栃木県","city":"鹿沼市","address":"栃木県鹿沼市上粕尾1041","lat":36.59355317,"lon":139.50111412},{"name":"上小山田コミュニティセンター","province":"東京都","city":"町田市","address":"東京都町田市上小山田町2616-2","lat":35.59482706,"lon":139.39836205},{"name":"成瀬コミュニティセンター","province":"東京都","city":"町田市","address":"東京都町田市西成瀬2丁目49-1","lat":35.54352677,"lon":139.47274369},{"name":"つくし野コミュニティセンター","province":"東京都","city":"町田市","address":"東京都町田市つくし野2丁目26-5","lat":35.52716937,"lon":139.48469949},{"name":"木曽森野コミュニティセンター","province":"東京都","city":"町田市","address":"東京都町田市木曽東1丁目2","lat":35.55656271,"lon":139.43028811},{"name":"三輪コミュニティーセンター","province":"東京都","city":"町田市","address":"東京都町田市三輪緑山4丁目14-1","lat":35.5771346,"lon":139.4933507},{"name":"町田市民フォーラム","province":"東京都","city":"町田市","address":"東京都町田市原町田4丁目9-8","lat":35.54180052,"lon":139.44984799},{"name":"日進公園","province":"東京都","city":"墨田区","address":"東京都墨田区亀沢3丁目24-3","lat":35.69862503,"lon":139.80441676},{"name":"なつめ公園","province":"東京都","city":"墨田区","address":"東京都墨田区東向島6丁目40-2","lat":35.72445761,"lon":139.82188321},{"name":"すみだボランティアセンター","province":"東京都","city":"墨田区","address":"東京都墨田区東向島2丁目17-14","lat":35.71838566,"lon":139.81561446},{"name":"かつら児童遊園","province":"東京都","city":"墨田区","address":"東京都墨田区墨田3丁目36-13","lat":35.73147348,"lon":139.82056385},{"name":"堤通公園","province":"東京都","city":"墨田区","address":"東京都墨田区堤通1丁目8-1","lat":35.72447964,"lon":139.81077124},{"name":"すみだ健康ハウス","province":"東京都","city":"墨田区","address":"東京都墨田区東墨田1丁目2-6","lat":35.71772695,"lon":139.82970417},{"name":"文花公園","province":"東京都","city":"墨田区","address":"東京都墨田区文花1丁目27-5","lat":35.7094556,"lon":139.82244155},{"name":"とちのき児童遊園","province":"東京都","city":"墨田区","address":"東京都墨田区緑2丁目8-12","lat":35.69324795,"lon":139.80130406},{"name":"立川第二児童遊園","province":"東京都","city":"墨田区","address":"東京都墨田区立川3丁目15-6","lat":35.69203976,"lon":139.80390933},{"name":"押上第一児童遊園","province":"東京都","city":"墨田区","address":"東京都墨田区押上3丁目48-1","lat":35.71179188,"lon":139.82010526},{"name":"京島西公園","province":"東京都","city":"墨田区","address":"東京都墨田区京島1丁目22-3","lat":35.71567483,"lon":139.81871112},{"name":"東向島ふじ公園","province":"東京都","city":"墨田区","address":"東京都墨田区東向島2丁目46-7","lat":35.72032456,"lon":139.81849198},{"name":"曳舟さくら公園","province":"東京都","city":"墨田区","address":"東京都墨田区京島1丁目40-1","lat":35.71877194,"lon":139.82017778},{"name":"本四三ツ目児童遊園","province":"東京都","city":"墨田区","address":"東京都墨田区本所4丁目1-4","lat":35.70288841,"lon":139.80498554},{"name":"請地児童遊園","province":"東京都","city":"墨田区","address":"東京都墨田区向島4丁目12-11","lat":35.71693833,"lon":139.81343679},{"name":"八広中央公園","province":"東京都","city":"墨田区","address":"東京都墨田区八広3丁目13-19","lat":35.71918814,"lon":139.82718507},{"name":"たちばな仲よし公園","province":"東京都","city":"墨田区","address":"東京都墨田区立花5丁目19-2","lat":35.71244966,"lon":139.82994877},{"name":"東あずま公園南","province":"東京都","city":"墨田区","address":"東京都墨田区立花2丁目32-12","lat":35.70834973,"lon":139.83030736},{"name":"東あずま公園北","province":"東京都","city":"墨田区","address":"東京都墨田区立花2丁目32-12","lat":35.70834973,"lon":139.83030736},{"name":"千歳公園","province":"東京都","city":"墨田区","address":"東京都墨田区千歳2丁目2-1","lat":35.69036782,"lon":139.79502744},{"name":"墨田二丁目児童遊園","province":"東京都","city":"墨田区","address":"東京都墨田区墨田2丁目42-4","lat":35.73228443,"lon":139.81873074},{"name":"曳舟西ビューハイツ","province":"東京都","city":"墨田区","address":"東京都墨田区京島1丁目39-1","lat":35.71855525,"lon":139.81929177},{"name":"曳舟東ビューハイツ","province":"東京都","city":"墨田区","address":"東京都墨田区京島1丁目45-1","lat":35.71817198,"lon":139.8202444},{"name":"六軒児童遊園","province":"東京都","city":"墨田区","address":"東京都墨田区立花3丁目18-12","lat":35.70610819,"lon":139.83438194},{"name":"舟原公園","province":"東京都","city":"墨田区","address":"東京都墨田区八広2丁目43-16","lat":35.71514967,"lon":139.8267824},{"name":"亀沢第一児童遊園","province":"東京都","city":"墨田区","address":"東京都墨田区亀沢2丁目13-7","lat":35.69784458,"lon":139.80188665},{"name":"都営立花四丁目団地","province":"東京都","city":"墨田区","address":"東京都墨田区立花4丁目30-1","lat":35.70956343,"lon":139.83534283},{"name":"隅田第二児童遊園","province":"東京都","city":"墨田区","address":"東京都墨田区墨田4丁目8-14","lat":35.73288164,"lon":139.82186355},{"name":"墨田第三児童遊園","province":"東京都","city":"墨田区","address":"東京都墨田区墨田2丁目17-6","lat":35.7314956,"lon":139.81623679},{"name":"ごあずま児童遊園","province":"東京都","city":"墨田区","address":"東京都墨田区八広4丁目36-24","lat":35.7227685,"lon":139.82939596},{"name":"立花第一児童遊園","province":"東京都","city":"墨田区","address":"東京都墨田区立花4丁目9-6","lat":35.71009965,"lon":139.83163207},{"name":"隅田東児童遊園","province":"東京都","city":"墨田区","address":"東京都墨田区墨田4丁目52-12","lat":35.72950444,"lon":139.82512169},{"name":"押上第二児童遊園","province":"東京都","city":"墨田区","address":"東京都墨田区押上3丁目57-3","lat":35.71191978,"lon":139.82117743},{"name":"八広六西児童遊園","province":"東京都","city":"墨田区","address":"東京都墨田区八広6丁目13-1","lat":35.72851578,"lon":139.82735203},{"name":"墨田第六児童遊園","province":"東京都","city":"墨田区","address":"東京都墨田区墨田2丁目20-15","lat":35.73052355,"lon":139.81718117},{"name":"みわさと公園","province":"東京都","city":"墨田区","address":"東京都墨田区八広1丁目38-13","lat":35.72107709,"lon":139.82532706},{"name":"隅田東第二児童遊園","province":"東京都","city":"墨田区","address":"東京都墨田区墨田4丁目34-20","lat":35.73275392,"lon":139.82414937},{"name":"八広あずま公園","province":"東京都","city":"墨田区","address":"東京都墨田区八広4丁目19-14","lat":35.72376025,"lon":139.82809342},{"name":"露伴児童遊園","province":"東京都","city":"墨田区","address":"東京都墨田区東向島1丁目7-11","lat":35.72189933,"lon":139.81308177},{"name":"小梅児童遊園","province":"東京都","city":"墨田区","address":"東京都墨田区向島1丁目33-3","lat":35.71042667,"lon":139.80815339},{"name":"さつき公園","province":"東京都","city":"墨田区","address":"東京都墨田区東向島6丁目19-12","lat":35.72262441,"lon":139.82039453},{"name":"きねがわ公園","province":"東京都","city":"墨田区","address":"東京都墨田区東墨田2丁目25-8","lat":35.724149,"lon":139.83316217},{"name":"竪川親水公園","province":"東京都","city":"墨田区","address":"東京都墨田区江東橋2丁目1","lat":35.69309787,"lon":139.81198851},{"name":"菊川駐輪場","province":"東京都","city":"墨田区","address":"東京都墨田区菊川3丁目6-14","lat":35.68755145,"lon":139.80696471},{"name":"みどりコミュニティセンター","province":"東京都","city":"墨田区","address":"東京都墨田区緑3丁目7-3","lat":35.69361455,"lon":139.8032676},{"name":"業平防災待機職員住宅","province":"東京都","city":"墨田区","address":"東京都墨田区業平3丁目2-5","lat":35.70634375,"lon":139.8130676},{"name":"すみだ清掃事務所","province":"東京都","city":"墨田区","address":"東京都墨田区業平5丁目6-2","lat":35.70709118,"lon":139.81802555},{"name":"八広認定こども園","province":"東京都","city":"墨田区","address":"東京都墨田区八広3丁目7-5","lat":35.72091034,"lon":139.82649354},{"name":"江東橋二丁目その他緑地","province":"東京都","city":"墨田区","address":"東京都墨田区江東橋2丁目18","lat":35.6959086,"lon":139.81198834}]}