{"keyword":"男女","data":[{"name":"新川谷端児童公園","province":"大分県","city":"大分市","address":"大分県大分市賀来新川2丁目7-17","lat":33.21127263,"lon":131.57347287},{"name":"三鷹新川浄水所（東配水場）","province":"大分県","city":"大分市","address":"大分県大分市賀来新川2丁目1-15","lat":33.21270864,"lon":131.57387839},{"name":"太平四丁目集会所","province":"大分県","city":"大分市","address":"大分県大分市南太平寺4丁目1-4","lat":33.21992613,"lon":131.6024758},{"name":"新川谷端児童公園","province":"大分県","city":"大分市","address":"大分県大分市賀来新川2丁目7-17","lat":33.21127263,"lon":131.57347287},{"name":"太平四丁目集会所","province":"大分県","city":"大分市","address":"大分県大分市南太平寺4丁目1-4","lat":33.21992613,"lon":131.6024758},{"name":"新川谷端児童公園","province":"大分県","city":"大分市","address":"大分県大分市賀来新川2丁目7-17","lat":33.21127263,"lon":131.57347287},{"name":"太平四丁目集会所","province":"大分県","city":"大分市","address":"大分県大分市南太平寺4丁目1-4","lat":33.21992613,"lon":131.6024758},{"name":"新川谷端児童公園","province":"大分県","city":"大分市","address":"大分県大分市賀来新川2丁目7-17","lat":33.21127263,"lon":131.57347287},{"name":"太平四丁目集会所","province":"大分県","city":"大分市","address":"大分県大分市南太平寺4丁目1-4","lat":33.21992613,"lon":131.6024758},{"name":"新川谷端児童公園","province":"大分県","city":"大分市","address":"大分県大分市賀来新川2丁目7-17","lat":33.21127263,"lon":131.57347287},{"name":"太平四丁目集会所","province":"大分県","city":"大分市","address":"大分県大分市南太平寺4丁目1-4","lat":33.21992613,"lon":131.6024758},{"name":"太平四丁目集会所","province":"大分県","city":"大分市","address":"大分県大分市南太平寺4丁目1-4","lat":33.21992613,"lon":131.6024758},{"name":"太平四丁目集会所","province":"大分県","city":"大分市","address":"大分県大分市南太平寺4丁目1-4","lat":33.21992613,"lon":131.6024758},{"name":"太平四丁目集会所","province":"大分県","city":"大分市","address":"大分県大分市南太平寺4丁目1-4","lat":33.21992613,"lon":131.6024758},{"name":"太平四丁目集会所","province":"大分県","city":"大分市","address":"大分県大分市南太平寺4丁目1-4","lat":33.21992613,"lon":131.6024758}]}