{"category":"park","data":[{"name":"東京都現代美術館","province":"東京都","city":"江東区","address":"東京都江東区三好4-1-1","lat":35.679643,"lon":139.808112},{"name":"青海北ふ頭公園","province":"東京都","city":"江東区","address":"東京都江東区青海二丁目","lat":35.618915,"lon":139.773785},{"name":"青海南ふ頭公園","province":"東京都","city":"江東区","address":"東京都江東区青海二丁目","lat":35.615663,"lon":139.776117},{"name":"暁ふ頭公園","province":"東京都","city":"江東区","address":"東京都江東区青海三丁目、四丁目","lat":35.623766,"lon":139.769915},{"name":"青海緑道公園","province":"東京都","city":"江東区","address":"東京都江東区青海四丁目","lat":35.621368,"lon":139.77979},{"name":"青海中央ふ頭公園","province":"東京都","city":"江東区","address":"東京都江東区青海四丁目","lat":35.620754,"lon":139.780239},{"name":"水の広場公園","province":"東京都","city":"江東区","address":"東京都江東区青海一丁目、青海二丁目、有明三丁目","lat":35.625052,"lon":139.782704},{"name":"有明西ふ頭公園","province":"東京都","city":"江東区","address":"東京都江東区有明三丁目","lat":35.627139,"lon":139.794619},{"name":"有明北緑道公園","province":"東京都","city":"江東区","address":"東京都江東区有明一丁目、二丁目","lat":35.629272,"lon":139.790771},{"name":"有明テニスの森公園","province":"東京都","city":"江東区","address":"東京都江東区有明二丁目","lat":35.635649,"lon":139.787027},{"name":"春海橋公園","province":"東京都","city":"江東区","address":"東京都江東区豊洲二丁目","lat":35.653477,"lon":139.792089},{"name":"新木場公園","province":"東京都","city":"江東区","address":"東京都江東区新木場二丁目","lat":35.642078,"lon":139.823485},{"name":"辰巳の森緑道公園","province":"東京都","city":"江東区","address":"東京都江東区辰巳一丁目・二丁目","lat":35.64575,"lon":139.814328},{"name":"夢の島緑道公園","province":"東京都","city":"江東区","address":"東京都江東区夢の島一丁目、二丁目、三丁目","lat":35.647501,"lon":139.830315},{"name":"新木場緑道公園","province":"東京都","city":"江東区","address":"東京都江東区新木場四丁目","lat":35.640426,"lon":139.840441},{"name":"辰巳の森海浜公園","province":"東京都","city":"江東区","address":"東京都江東区辰巳二丁目1番35号","lat":35.648542,"lon":139.815785},{"name":"若洲海浜公園","province":"東京都","city":"江東区","address":"東京都江東区若洲三丁目1番2号","lat":35.621656,"lon":139.834664},{"name":"大島小松川公園","province":"東京都","city":"江東区","address":"東京都江東区大島九丁目(江戸川区小松川一丁目)","lat":35.692509,"lon":139.846806},{"name":"亀戸中央公園","province":"東京都","city":"江東区","address":"東京都江東区亀戸八・九丁目","lat":35.699909,"lon":139.838447},{"name":"木場公園","province":"東京都","city":"江東区","address":"東京都江東区木場四・五丁目・平野四丁目","lat":35.676767,"lon":139.807561},{"name":"猿江恩賜公園","province":"東京都","city":"江東区","address":"東京都江東区住吉二丁目、毛利二丁目","lat":35.69051,"lon":139.819226},{"name":"夢の島公園","province":"東京都","city":"江東区","address":"東京都江東区夢の島","lat":35.651124,"lon":139.82782},{"name":"清澄庭園","province":"東京都","city":"江東区","address":"東京都江東区清澄二・三丁目","lat":35.680676,"lon":139.797804},{"name":"有明客船ターミナル","province":"東京都","city":"江東区","address":"東京都江東区有明3丁目","lat":35.63159354,"lon":139.78818561},{"name":"青海客船ターミナル","province":"東京都","city":"江東区","address":"東京都江東区青海2丁目","lat":35.61733141,"lon":139.78018715},{"name":"フェリーふ頭ターミナルビル","province":"東京都","city":"江東区","address":"東京都江東区有明4丁目","lat":35.62489723,"lon":139.78831375},{"name":"大島小松川公園","province":"東京都","city":"江東区","address":"東京都江東区大島9丁目","lat":35.69317076,"lon":139.84506485},{"name":"東京都江東児童相談所","province":"東京都","city":"江東区","address":"江東区枝川三丁目6番9号","lat":35.658688,"lon":139.810647},{"name":"埋立処分場","province":"東京都","city":"江東区","address":"江東区青梅二丁目地先","lat":35.599811,"lon":139.809265,"URL":"<a href='https://www.city.minato.tokyo.jp/shisetsu/kankyo/seso/04.html' target='_blank'>https://www.city.minato.tokyo.jp/shisetsu/kankyo/seso/04.html</a>","分類":"清掃・リサイクル施設","地区":"港区外","連絡先":""}]}