{"category":"toilet","data":[{"name":"江東区立万年橋際公衆便所","province":"東京都","city":"江東区","address":"東京都江東区清澄2-14-9","lat":35.68322,"lon":139.794785},{"name":"江東区立清澄児童遊園内公衆便所","province":"東京都","city":"江東区","address":"東京都江東区清澄3-3-16","lat":35.681236,"lon":139.79866},{"name":"江東区立高橋際公衆便所","province":"東京都","city":"江東区","address":"東京都江東区清澄3-11-1","lat":35.683472,"lon":139.798477},{"name":"江東区立猿子橋際公衆便所","province":"東京都","city":"江東区","address":"東京都江東区常盤1-11-11","lat":35.685356,"lon":139.796173},{"name":"江東区立新大橋際公衆便所","province":"東京都","city":"江東区","address":"東京都江東区新大橋1-2-1","lat":35.687813,"lon":139.793106},{"name":"江東区立八名川公園内公衆便所","province":"東京都","city":"江東区","address":"東京都江東区新大橋3-1-18","lat":35.686428,"lon":139.796021},{"name":"江東区立森下公園内公衆便所","province":"東京都","city":"江東区","address":"東京都江東区森下2-5-16","lat":35.686226,"lon":139.799454},{"name":"江東区立五間堀公園内公衆便所","province":"東京都","city":"江東区","address":"東京都江東区森下2-30-7","lat":35.689262,"lon":139.798416},{"name":"江東区立伊予橋際公衆便所","province":"東京都","city":"江東区","address":"東京都江東区森下2-31-2","lat":35.688274,"lon":139.800369},{"name":"江東区立高森公園内公衆便所","province":"東京都","city":"江東区","address":"東京都江東区森下3-13-9","lat":35.68515,"lon":139.802989},{"name":"江東区立森下四丁目児童遊園内公衆便所","province":"東京都","city":"江東区","address":"東京都江東区森下4-16-2","lat":35.686027,"lon":139.803661},{"name":"江東区立平野二丁目児童遊園内公衆便所","province":"東京都","city":"江東区","address":"東京都江東区平野2-8-2","lat":35.678649,"lon":139.80274},{"name":"江東区立永本橋際公衆便所","province":"東京都","city":"江東区","address":"東京都江東区平野2-15-12","lat":35.677501,"lon":139.804367},{"name":"江東区立三好三丁目児童遊園内公衆便所","province":"東京都","city":"江東区","address":"東京都江東区三好3-1-10","lat":35.680079,"lon":139.804514},{"name":"江東区立正覚院前公衆便所","province":"東京都","city":"江東区","address":"東京都江東区白河1-3-34","lat":35.680798,"lon":139.799708},{"name":"江東区立白河一丁目公園内公衆便所","province":"東京都","city":"江東区","address":"東京都江東区白河1-5-4","lat":35.68323,"lon":139.800755},{"name":"江東区立東深川橋際公衆便所","province":"東京都","city":"江東区","address":"東京都江東区白河3-18-17","lat":35.68377,"lon":139.803759},{"name":"江東区立元加賀公園内公衆便所","province":"東京都","city":"江東区","address":"東京都江東区白河4-3-27","lat":35.681761,"lon":139.809017},{"name":"江東区立佐賀二丁目公衆便所","province":"東京都","city":"江東区","address":"東京都江東区佐賀2-1-6","lat":35.679932,"lon":139.791092},{"name":"江東区立永代橋際公衆便所","province":"東京都","city":"江東区","address":"東京都江東区永代1-1-4","lat":35.675694,"lon":139.788923},{"name":"江東区立黒亀橋際公衆便所","province":"東京都","city":"江東区","address":"東京都江東区深川1-3-10先","lat":35.675453,"lon":139.795974},{"name":"江東区立亀堀公園内公衆便所","province":"東京都","city":"江東区","address":"東京都江東区深川1-6-38","lat":35.67723,"lon":139.794863},{"name":"江東区立臨海公園内公衆便所","province":"東京都","city":"江東区","address":"東京都江東区門前仲町1-1-1","lat":35.671923,"lon":139.792959},{"name":"江東区立門前仲町一丁目公衆便所","province":"東京都","city":"江東区","address":"東京都江東区門前仲町1-7-7","lat":35.672844,"lon":139.794813},{"name":"江東区立油堀川公園内公衆便所","province":"東京都","city":"江東区","address":"東京都江東区門前仲町1-20-1先","lat":35.67398,"lon":139.79562},{"name":"江東区立深川公園内公衆便所","province":"東京都","city":"江東区","address":"東京都江東区富岡1-14-10","lat":35.672365,"lon":139.797476},{"name":"江東区立深川公園内第二公衆便所","province":"東京都","city":"江東区","address":"東京都江東区富岡1-16-10","lat":35.671976,"lon":139.798974},{"name":"江東区立汐見橋際公衆便所","province":"東京都","city":"江東区","address":"東京都江東区富岡2-13-5","lat":35.669544,"lon":139.80144},{"name":"江東区立牡丹町公園内公衆便所","province":"東京都","city":"江東区","address":"東京都江東区牡丹2-1-2","lat":35.669898,"lon":139.795253},{"name":"江東区立古石場川親水公園内公衆便所","province":"東京都","city":"江東区","address":"東京都江東区古石場2-13ー先","lat":35.667638,"lon":139.799246},{"name":"江東区立古石場三丁目公園内公衆便所","province":"東京都","city":"江東区","address":"東京都江東区古石場3-1-4","lat":35.665059,"lon":139.801555},{"name":"江東区立越中島公園内公衆便所","province":"東京都","city":"江東区","address":"東京都江東区越中島1-3-23","lat":35.668658,"lon":139.790019},{"name":"江東区立越中島公園内第二公衆便所","province":"東京都","city":"江東区","address":"東京都江東区越中島1-3-23","lat":35.670967,"lon":139.788716},{"name":"江東区立浜園橋際公衆便所","province":"東京都","city":"江東区","address":"東京都江東区塩浜1-3-24","lat":35.662402,"lon":139.79937},{"name":"江東区立浜園公園内公衆便所","province":"東京都","city":"江東区","address":"東京都江東区塩浜1-4-4","lat":35.661871,"lon":139.802129},{"name":"江東区立塩浜一丁目公園内公衆便所","province":"東京都","city":"江東区","address":"東京都江東区塩浜1-5-5","lat":35.659569,"lon":139.801381},{"name":"江東区立塩浜公園内公衆便所","province":"東京都","city":"江東区","address":"東京都江東区塩浜2-10-14","lat":35.664015,"lon":139.808891},{"name":"江東区立塩浜二丁目第二公園内公衆便所","province":"東京都","city":"江東区","address":"東京都江東区塩浜2-17-8","lat":35.662333,"lon":139.810215},{"name":"江東区立しおかぜ橋塩浜公園内公衆便所","province":"東京都","city":"江東区","address":"東京都江東区塩浜2-18-4","lat":35.662039,"lon":139.81103},{"name":"江東区立塩浜二丁目公園内公衆便所","province":"東京都","city":"江東区","address":"東京都江東区塩浜2-25-16","lat":35.664624,"lon":139.814968},{"name":"江東区立枝川一丁目公園内公衆便所","province":"東京都","city":"江東区","address":"東京都江東区枝川1-6-19","lat":35.657361,"lon":139.80342},{"name":"江東区立朝凪公園内公衆便所","province":"東京都","city":"江東区","address":"東京都江東区枝川1-8-5","lat":35.657941,"lon":139.801984},{"name":"江東区立枝川橋第三児童遊園内公衆便所","province":"東京都","city":"江東区","address":"東京都江東区枝川2-4-17","lat":35.657936,"lon":139.805571},{"name":"江東区立枝川三丁目公園内公衆便所","province":"東京都","city":"江東区","address":"東京都江東区枝川3-3-5","lat":35.658924,"lon":139.808339},{"name":"江東区立豊洲一丁目第二公園内公衆便所","province":"東京都","city":"江東区","address":"東京都江東区豊洲1-2-1","lat":35.6598,"lon":139.792163},{"name":"江東区立豊洲駅前公衆便所","province":"東京都","city":"江東区","address":"東京都江東区豊洲2-2-4","lat":35.655243,"lon":139.795452},{"name":"江東区立豊洲公園内公衆便所","province":"東京都","city":"江東区","address":"東京都江東区豊洲2-3-6","lat":35.653499,"lon":139.793515},{"name":"江東区立豊洲三丁目公園内公衆便所","province":"東京都","city":"江東区","address":"東京都江東区豊洲3-5-11","lat":35.658055,"lon":139.797034},{"name":"江東区立豊洲四丁目公園内公衆便所","province":"東京都","city":"江東区","address":"東京都江東区豊洲4-5-30先","lat":35.654929,"lon":139.798397},{"name":"江東区立豊洲五丁目公園内公衆便所","province":"東京都","city":"江東区","address":"東京都江東区豊洲5-3-1","lat":35.653152,"lon":139.795867},{"name":"江東区立豊洲六丁目第二公園内公衆便所","province":"東京都","city":"江東区","address":"東京都江東区豊洲6-2-1","lat":35.650692,"lon":139.792814},{"name":"江東区立豊洲六丁目公園内公衆便所","province":"東京都","city":"江東区","address":"東京都江東区豊洲6-2-35","lat":35.645875,"lon":139.791309},{"name":"江東区立豊洲ぐるり公園内公衆便所","province":"東京都","city":"江東区","address":"東京都江東区豊洲6-5-33","lat":35.640378,"lon":139.779113},{"name":"江東区立東雲緑道公園内公衆便所","province":"東京都","city":"江東区","address":"東京都江東区東雲1-7-4","lat":35.645792,"lon":139.800728},{"name":"江東区立東雲水辺公園内第一公衆便所","province":"東京都","city":"江東区","address":"東京都江東区東雲1-9-58","lat":35.645792,"lon":139.800728},{"name":"江東区立東雲水辺公園内第二公衆便所","province":"東京都","city":"江東区","address":"東京都江東区東雲1-9-58","lat":35.648752,"lon":139.805219},{"name":"江東区立東雲公園内公衆便所","province":"東京都","city":"江東区","address":"東京都江東区東雲2-4-17","lat":35.645532,"lon":139.805685},{"name":"江東区立東雲二丁目公園内公衆便所","province":"東京都","city":"江東区","address":"東京都江東区東雲2-7-6","lat":35.642874,"lon":139.803949},{"name":"江東区立東雲駅前公衆便所","province":"東京都","city":"江東区","address":"東京都江東区東雲2-8-6","lat":35.640795,"lon":139.804662},{"name":"江東区立辰巳駅前公衆便所","province":"東京都","city":"江東区","address":"東京都江東区辰巳1-1-40","lat":35.646838,"lon":139.808929},{"name":"江東区立潮見さざなみ公園内公衆便所","province":"東京都","city":"江東区","address":"東京都江東区潮見1-29-24","lat":35.65519,"lon":139.816055},{"name":"江東区立潮見駅前公衆便所","province":"東京都","city":"江東区","address":"東京都江東区潮見2-7-15","lat":35.658886,"lon":139.816759},{"name":"江東区立豊住橋際公衆便所","province":"東京都","city":"江東区","address":"東京都江東区千石2-1-6","lat":35.676485,"lon":139.815617},{"name":"江東区立千石公園内公衆便所","province":"東京都","city":"江東区","address":"東京都江東区千石2-7-4","lat":35.679379,"lon":139.815534},{"name":"江東区立川南公園内公衆便所","province":"東京都","city":"江東区","address":"東京都江東区千石2-9-22","lat":35.679028,"lon":139.817206},{"name":"江東区立仙台堀川親水公園内第二公衆便所","province":"東京都","city":"江東区","address":"東京都江東区千石3-1-12先","lat":35.676538,"lon":139.818079},{"name":"江東区立千砂橋際公衆便所","province":"東京都","city":"江東区","address":"東京都江東区千石3-1-46","lat":35.678399,"lon":139.820001},{"name":"江東区立扇橋公園内公衆便所","province":"東京都","city":"江東区","address":"東京都江東区石島18-23","lat":35.680601,"lon":139.811842},{"name":"江東区立江東公園内公衆便所","province":"東京都","city":"江東区","address":"東京都江東区千田17-5","lat":35.682428,"lon":139.816412},{"name":"江東区立川南海辺公園内公衆便所","province":"東京都","city":"江東区","address":"東京都江東区海辺1-3","lat":35.680101,"lon":139.81736},{"name":"江東区立ボート場内第二公衆便所","province":"東京都","city":"江東区","address":"東京都江東区海辺8-16先","lat":35.68126,"lon":139.820414},{"name":"江東区立扇橋際公衆便所","province":"東京都","city":"江東区","address":"東京都江東区扇橋1-17-9","lat":35.682845,"lon":139.810292},{"name":"江東区立扇橋一丁目児童遊園内公衆便所","province":"東京都","city":"江東区","address":"東京都江東区扇橋1-20ー先","lat":35.68326,"lon":139.810801},{"name":"江東区立扇橋一丁目公園内公衆便所","province":"東京都","city":"江東区","address":"東京都江東区扇橋1-21-28","lat":35.683998,"lon":139.811348},{"name":"江東区立岩井橋際公衆便所","province":"東京都","city":"江東区","address":"東京都江東区扇橋3-7-1","lat":35.682367,"lon":139.820547},{"name":"江東区立三島橋公園内公衆便所","province":"東京都","city":"江東区","address":"東京都江東区扇橋3-7-16","lat":35.683172,"lon":139.82053},{"name":"江東区立扇橋三丁目公園内公衆便所","province":"東京都","city":"江東区","address":"東京都江東区扇橋3-20-11","lat":35.684014,"lon":139.81868},{"name":"江東区立小松橋際児童遊園内公衆便所","province":"東京都","city":"江東区","address":"東京都江東区猿江1-5-18","lat":35.68488,"lon":139.812419},{"name":"江東区立猿江一丁目公園内公衆便所","province":"東京都","city":"江東区","address":"東京都江東区猿江1-11-5","lat":35.686457,"lon":139.812781},{"name":"江東区立猿江二丁目公園内公衆便所","province":"東京都","city":"江東区","address":"東京都江東区猿江2-3-10","lat":35.686046,"lon":139.815286},{"name":"江東区立住吉一丁目公園内公衆便所","province":"東京都","city":"江東区","address":"東京都江東区住吉1-8-13","lat":35.687419,"lon":139.811797},{"name":"江東区立住利公園内公衆便所","province":"東京都","city":"江東区","address":"東京都江東区住吉1-19-20","lat":35.690044,"lon":139.812689},{"name":"江東区立猿江公園内公衆便所","province":"東京都","city":"江東区","address":"東京都江東区住吉2-28-26","lat":35.688923,"lon":139.817355},{"name":"江東区立木場二丁目公園内公衆便所","province":"東京都","city":"江東区","address":"東京都江東区木場2-11-9先","lat":35.670323,"lon":139.804398},{"name":"江東区立舟木橋公衆便所","province":"東京都","city":"江東区","address":"東京都江東区木場2-18-14","lat":35.669672,"lon":139.8048},{"name":"江東区立木場橋公衆便所","province":"東京都","city":"江東区","address":"東京都江東区木場3-2-9","lat":35.672356,"lon":139.80502},{"name":"江東区立亀居橋公衆便所","province":"東京都","city":"江東区","address":"東京都江東区木場3-17-6","lat":35.674544,"lon":139.806592},{"name":"江東区立平久公園内公衆便所","province":"東京都","city":"江東区","address":"東京都江東区木場6-4-18","lat":35.666891,"lon":139.807599},{"name":"江東区立木場六丁目児童遊園内公衆便所","province":"東京都","city":"江東区","address":"東京都江東区木場6-13-7","lat":35.668219,"lon":139.80781},{"name":"江東区立南開橋第二児童遊園内公衆便所","province":"東京都","city":"江東区","address":"東京都江東区東陽1-21-6","lat":35.666082,"lon":139.811225},{"name":"江東区立東陽一丁目第二公園内公衆便所","province":"東京都","city":"江東区","address":"東京都江東区東陽1-39-8","lat":35.665908,"lon":139.812546},{"name":"江東区立東陽三丁目公衆便所","province":"東京都","city":"江東区","address":"東京都江東区東陽3-20-1先","lat":35.668745,"lon":139.810921},{"name":"江東区立東陽公園内公衆便所","province":"東京都","city":"江東区","address":"東京都江東区東陽3-27-27","lat":35.669781,"lon":139.815615},{"name":"江東区立横十間川親水公園内生物の楽園際公衆便所","province":"東京都","city":"江東区","address":"東京都江東区東陽4-12-16先","lat":35.6744,"lon":139.819411},{"name":"江東区立東陽五丁目公園内公衆便所","province":"東京都","city":"江東区","address":"東京都江東区東陽5-29-39","lat":35.672688,"lon":139.813601},{"name":"江東区立豊住公園内公衆便所","province":"東京都","city":"江東区","address":"東京都江東区東陽6-1-13","lat":35.673684,"lon":139.811241},{"name":"江東区立東陽六丁目公衆便所","province":"東京都","city":"江東区","address":"東京都江東区東陽6-5-18","lat":35.675903,"lon":139.812343},{"name":"江東区立亀島橋際公衆便所","province":"東京都","city":"江東区","address":"東京都江東区亀戸1-1-1","lat":35.693537,"lon":139.820087},{"name":"江東区立亀戸西公園内公衆便所","province":"東京都","city":"江東区","address":"東京都江東区亀戸1-9-5","lat":35.695662,"lon":139.822687},{"name":"江東区立亀戸公園内公衆便所","province":"東京都","city":"江東区","address":"東京都江東区亀戸1-22-11","lat":35.695483,"lon":139.823835},{"name":"江東区立松代橋際公衆便所","province":"東京都","city":"江東区","address":"東京都江東区亀戸2-1-1先","lat":35.697062,"lon":139.81967},{"name":"江東区立文泉公園内公衆便所","province":"東京都","city":"江東区","address":"東京都江東区亀戸2-4-13","lat":35.69812,"lon":139.821991},{"name":"江東区立亀戸駅前公園内公衆便所","province":"東京都","city":"江東区","address":"東京都江東区亀戸2-21-9","lat":35.698046,"lon":139.824978},{"name":"江東区立亀戸二丁目公園内公衆便所","province":"東京都","city":"江東区","address":"東京都江東区亀戸2-33-2","lat":35.700009,"lon":139.823481},{"name":"江東区立亀戸天神際公衆便所","province":"東京都","city":"江東区","address":"東京都江東区亀戸3-6-39","lat":35.702109,"lon":139.821153},{"name":"江東区立亀戸三丁目児童遊園内公衆便所","province":"東京都","city":"江東区","address":"東京都江東区亀戸3-12-10","lat":35.704212,"lon":139.819434},{"name":"江東区立亀戸三丁目第二公衆便所","province":"東京都","city":"江東区","address":"東京都江東区亀戸3-36-20","lat":35.706783,"lon":139.819352},{"name":"江東区立亀島公園内公衆便所","province":"東京都","city":"江東区","address":"東京都江東区亀戸3-39-16","lat":35.705552,"lon":139.822649},{"name":"江東区立亀戸三丁目公衆便所","province":"東京都","city":"江東区","address":"東京都江東区亀戸3-57-22","lat":35.703454,"lon":139.825046},{"name":"江東区立亀戸三丁目公園内公衆便所","province":"東京都","city":"江東区","address":"東京都江東区亀戸3-59-8","lat":35.703153,"lon":139.823967},{"name":"江東区立香取公園内公衆便所","province":"東京都","city":"江東区","address":"東京都江東区亀戸4-27-6","lat":35.703529,"lon":139.827191},{"name":"江東区立水神公園内公衆便所","province":"東京都","city":"江東区","address":"東京都江東区亀戸4-45-6","lat":35.702121,"lon":139.829417},{"name":"江東区立亀戸五丁目公園内公衆便所","province":"東京都","city":"江東区","address":"東京都江東区亀戸5-24-4","lat":35.700155,"lon":139.82882},{"name":"江東区立亀戸五丁目第二公園内公衆便所","province":"東京都","city":"江東区","address":"東京都江東区亀戸5-33-4","lat":35.698368,"lon":139.83016},{"name":"江東区立亀戸南公園内公衆便所","province":"東京都","city":"江東区","address":"東京都江東区亀戸6-18-1","lat":35.695171,"lon":139.827851},{"name":"江東区立竪川第二公園内公衆便所","province":"東京都","city":"江東区","address":"東京都江東区亀戸6-35-3","lat":35.694587,"lon":139.82987},{"name":"江東区立亀戸平岩公園内公衆便所","province":"東京都","city":"江東区","address":"東京都江東区亀戸6-47-12","lat":35.694349,"lon":139.831937},{"name":"江東区立亀戸東公園内公衆便所","province":"東京都","city":"江東区","address":"東京都江東区亀戸7-8-13","lat":35.696588,"lon":139.833881},{"name":"江東区立亀戸七丁目北公園内公衆便所","province":"東京都","city":"江東区","address":"東京都江東区亀戸7-15-5","lat":35.697927,"lon":139.835447},{"name":"江東区立亀戸七丁目南公園内公衆便所","province":"東京都","city":"江東区","address":"東京都江東区亀戸7-40-2","lat":35.696157,"lon":139.837881},{"name":"江東区立亀戸七丁目西公園内公衆便所","province":"東京都","city":"江東区","address":"東京都江東区亀戸7-42-5","lat":35.696908,"lon":139.83524},{"name":"江東区立亀戸七丁目公衆便所","province":"東京都","city":"江東区","address":"東京都江東区亀戸7-52-17","lat":35.69434,"lon":139.837132},{"name":"江東区立八千代児童遊園内公衆便所","province":"東京都","city":"江東区","address":"東京都江東区亀戸8-6-6","lat":35.699536,"lon":139.833722},{"name":"江東区立亀戸九丁目公衆便所","province":"東京都","city":"江東区","address":"東京都江東区亀戸9-15-1","lat":35.695984,"lon":139.844043},{"name":"江東区立亀戸九丁目公園内公衆便所","province":"東京都","city":"江東区","address":"東京都江東区亀戸9-20-4","lat":35.698294,"lon":139.842712},{"name":"江東区立亀戸九丁目緑道公園内公衆便所","province":"東京都","city":"江東区","address":"東京都江東区亀戸9-33-30","lat":35.700248,"lon":139.841511},{"name":"江東区立亀戸運動公園内公衆便所","province":"東京都","city":"江東区","address":"東京都江東区亀戸9-37-23","lat":35.699068,"lon":139.837938},{"name":"江東区立釜屋堀公衆便所","province":"東京都","city":"江東区","address":"東京都江東区大島1-2-26","lat":35.68654,"lon":139.820818},{"name":"江東区立大島一丁目公園内公衆便所","province":"東京都","city":"江東区","address":"東京都江東区大島1-34-8","lat":35.688177,"lon":139.825825},{"name":"江東区立大島二丁目公園内公衆便所","province":"東京都","city":"江東区","address":"東京都江東区大島2-11-7","lat":35.691555,"lon":139.823239},{"name":"江東区立大島防災公園内公衆便所","province":"東京都","city":"江東区","address":"東京都江東区大島2-27-19","lat":35.691874,"lon":139.824114},{"name":"江東区立五の橋際公衆便所","province":"東京都","city":"江東区","address":"東京都江東区大島2-31-1","lat":35.693385,"lon":139.825818},{"name":"江東区立大島緑道公園内公衆便所","province":"東京都","city":"江東区","address":"東京都江東区大島3-22-1先","lat":35.692107,"lon":139.828604},{"name":"江東区立大島三丁目公衆便所","province":"東京都","city":"江東区","address":"東京都江東区大島3-31-15","lat":35.689582,"lon":139.831241},{"name":"江東区立進開橋際公衆便所","province":"東京都","city":"江東区","address":"東京都江東区大島4-1-25先","lat":35.685774,"lon":139.82681},{"name":"江東区立大島四丁目公園内公衆便所","province":"東京都","city":"江東区","address":"東京都江東区大島4-17-9","lat":35.688024,"lon":139.831958},{"name":"江東区立大島四丁目第二公園内公衆便所","province":"東京都","city":"江東区","address":"東京都江東区大島4-21-11","lat":35.686483,"lon":139.832287},{"name":"江東区立大島五丁目児童遊園内公衆便所","province":"東京都","city":"江東区","address":"東京都江東区大島5-17-6","lat":35.688181,"lon":139.834303},{"name":"江東区立大島五丁目公園内公衆便所","province":"東京都","city":"江東区","address":"東京都江東区大島5-27-16","lat":35.686588,"lon":139.836098},{"name":"江東区立竪川河川敷公園内公衆便所","province":"東京都","city":"江東区","address":"東京都江東区大島6-2-3","lat":35.693807,"lon":139.833616},{"name":"江東区立大島六丁目第二児童遊園内公衆便所","province":"東京都","city":"江東区","address":"東京都江東区大島6-15-5","lat":35.691058,"lon":139.835549},{"name":"江東区立大島七丁目公園内公衆便所","province":"東京都","city":"江東区","address":"東京都江東区大島7-27-17","lat":35.692762,"lon":139.840567},{"name":"江東区立大島八丁目公園内公衆便所","province":"東京都","city":"江東区","address":"東京都江東区大島8-11-7","lat":35.687694,"lon":139.839093},{"name":"江東区立大島八丁目第二公園内公衆便所","province":"東京都","city":"江東区","address":"東京都江東区大島8-21-25","lat":35.688823,"lon":139.840298},{"name":"江東区立東大島駅前公衆便所","province":"東京都","city":"江東区","address":"東京都江東区大島9-3-13","lat":35.690278,"lon":139.845487},{"name":"江東区立旧中川・川の駅公衆便所","province":"東京都","city":"江東区","address":"東京都江東区大島9-10ー","lat":35.687541,"lon":139.846619},{"name":"江東区立北砂水上公園横公衆便所","province":"東京都","city":"江東区","address":"東京都江東区北砂1-2ー先","lat":35.684938,"lon":139.821485},{"name":"江東区立北砂第二公園内公衆便所","province":"東京都","city":"江東区","address":"東京都江東区北砂1-3-25","lat":35.684479,"lon":139.82372},{"name":"江東区立北砂一丁目南公園内公衆便所","province":"東京都","city":"江東区","address":"東京都江東区北砂1-15-1","lat":35.677818,"lon":139.825498},{"name":"江東区立北砂二丁目公園内公衆便所","province":"東京都","city":"江東区","address":"東京都江東区北砂2-9-14","lat":35.679141,"lon":139.826251},{"name":"江東区立砂町中央公園内公衆便所","province":"東京都","city":"江東区","address":"東京都江東区北砂4-20-24","lat":35.676681,"lon":139.831798},{"name":"江東区立亀高児童遊園内公衆便所","province":"東京都","city":"江東区","address":"東京都江東区北砂4-22-30","lat":35.678225,"lon":139.831787},{"name":"江東区立北砂公園内公衆便所","province":"東京都","city":"江東区","address":"東京都江東区北砂5-1-2","lat":35.679901,"lon":139.83139},{"name":"江東区立北砂五丁目公衆便所","province":"東京都","city":"江東区","address":"東京都江東区北砂5-20-13","lat":35.683989,"lon":139.832205},{"name":"江東区立小名木川防災公園内公衆便所","province":"東京都","city":"江東区","address":"東京都江東区北砂5-21-5","lat":35.682931,"lon":139.83085},{"name":"江東区立丸八児童遊園内公衆便所","province":"東京都","city":"江東区","address":"東京都江東区北砂6-16-12","lat":35.685356,"lon":139.837616},{"name":"江東区立北砂六丁目公衆便所","province":"東京都","city":"江東区","address":"東京都江東区北砂6-20-19","lat":35.684453,"lon":139.838939},{"name":"江東区立亀高公園内公衆便所","province":"東京都","city":"江東区","address":"東京都江東区北砂6-26-8","lat":35.681439,"lon":139.838582},{"name":"江東区立仙台堀川親水公園内公衆便所","province":"東京都","city":"江東区","address":"東京都江東区北砂7-6ー先","lat":35.680177,"lon":139.83871},{"name":"江東区立東砂一丁目公園内公衆便所","province":"東京都","city":"江東区","address":"東京都江東区東砂1-2-13","lat":35.683747,"lon":139.839701},{"name":"江東区立東砂二丁目公衆便所","province":"東京都","city":"江東区","address":"東京都江東区東砂2-13-50","lat":35.684798,"lon":139.84385},{"name":"江東区立東砂三丁目公園内公衆便所","province":"東京都","city":"江東区","address":"東京都江東区東砂3-16-8","lat":35.682255,"lon":139.841234},{"name":"江東区立東砂三丁目第二公園内公衆便所","province":"東京都","city":"江東区","address":"東京都江東区東砂3-17-17","lat":35.681432,"lon":139.84234},{"name":"江東区立城東公園内公衆便所","province":"東京都","city":"江東区","address":"東京都江東区東砂4-20-20","lat":35.678888,"lon":139.839406},{"name":"江東区立東砂六丁目公園内公衆便所","province":"東京都","city":"江東区","address":"東京都江東区東砂6-19-8","lat":35.674454,"lon":139.841228},{"name":"江東区立舟入川公衆便所","province":"東京都","city":"江東区","address":"東京都江東区東砂7-12-4","lat":35.672738,"lon":139.840693},{"name":"江東区立砂町公園内公衆便所","province":"東京都","city":"江東区","address":"東京都江東区東砂7-15-3","lat":35.674175,"lon":139.839864},{"name":"江東区立境川橋際公衆便所","province":"東京都","city":"江東区","address":"東京都江東区東砂7-18-10","lat":35.675472,"lon":139.83659},{"name":"江東区立ボート場内公衆便所","province":"東京都","city":"江東区","address":"東京都江東区南砂1-1ー先","lat":35.676897,"lon":139.820207},{"name":"江東区立南砂一丁目公園内公衆便所","province":"東京都","city":"江東区","address":"東京都江東区南砂1-1-5","lat":35.67676,"lon":139.821079},{"name":"江東区立南砂一丁目第二公園内公衆便所","province":"東京都","city":"江東区","address":"東京都江東区南砂1-3-18","lat":35.678795,"lon":139.821827},{"name":"江東区立松島橋際公衆便所","province":"東京都","city":"江東区","address":"東京都江東区南砂1-21-12","lat":35.676197,"lon":139.824398},{"name":"江東区立南砂緑道公園内公衆便所","province":"東京都","city":"江東区","address":"東京都江東区南砂2-13-5先","lat":35.674134,"lon":139.82099},{"name":"江東区立南砂緑道公園第二公衆便所","province":"東京都","city":"江東区","address":"東京都江東区南砂2-23-9","lat":35.673476,"lon":139.825008},{"name":"江東区立南砂二丁目公園内公衆便所","province":"東京都","city":"江東区","address":"東京都江東区南砂2-24-4","lat":35.674727,"lon":139.824944},{"name":"江東区立弾正橋際公衆便所","province":"東京都","city":"江東区","address":"東京都江東区南砂2-33-1","lat":35.675314,"lon":139.826701},{"name":"江東区立日曹橋公園内公衆便所","province":"東京都","city":"江東区","address":"東京都江東区南砂3-1-1","lat":35.669872,"lon":139.827948},{"name":"江東区立南砂三丁目公園内公衆便所","province":"東京都","city":"江東区","address":"東京都江東区南砂3-14-21","lat":35.669695,"lon":139.833396},{"name":"江東区立南砂三丁目公園内第二公衆便所","province":"東京都","city":"江東区","address":"東京都江東区南砂3-14-21","lat":35.670968,"lon":139.833031},{"name":"江東区立南砂四丁目西公園内公衆便所","province":"東京都","city":"江東区","address":"東京都江東区南砂4-3-21","lat":35.673945,"lon":139.827527},{"name":"江東区立南砂四丁目公園内公衆便所","province":"東京都","city":"江東区","address":"東京都江東区南砂4-4-5","lat":35.674232,"lon":139.829909},{"name":"江東区立砂町橋公園内公衆便所","province":"東京都","city":"江東区","address":"東京都江東区南砂4-12-1","lat":35.673601,"lon":139.832677},{"name":"江東区立境川公園内公衆便所","province":"東京都","city":"江東区","address":"東京都江東区南砂5-6-1","lat":35.676296,"lon":139.828364},{"name":"江東区立金森公園内公衆便所","province":"東京都","city":"江東区","address":"東京都江東区南砂5-19-13","lat":35.674811,"lon":139.832402},{"name":"江東区立南砂六丁目公園内公衆便所","province":"東京都","city":"江東区","address":"東京都江東区南砂6-5-7","lat":35.673277,"lon":139.834263},{"name":"江東区立八幡公衆便所","province":"東京都","city":"江東区","address":"東京都江東区南砂7-14-16","lat":35.668774,"lon":139.837856},{"name":"江東区立新砂あゆみ公園内公衆便所","province":"東京都","city":"江東区","address":"東京都江東区新砂3-3-6","lat":35.668139,"lon":139.832039},{"name":"江東区立新砂のぞみ公園内公衆便所","province":"東京都","city":"江東区","address":"東京都江東区新砂3-3-47","lat":35.666717,"lon":139.83066},{"name":"江東区立新砂めぐみ公園内公衆便所","province":"東京都","city":"江東区","address":"東京都江東区新砂3-4-1","lat":35.666333,"lon":139.837874},{"name":"江東区立新木場駅前公衆便所","province":"東京都","city":"江東区","address":"東京都江東区新木場1-5-10","lat":35.645304,"lon":139.825938},{"name":"江東区立若洲公園内風車際公衆便所","province":"東京都","city":"江東区","address":"東京都江東区若洲3-2-1","lat":35.622505,"lon":139.834635}]}