{"category":"wireless","data":[{"name":"毛利","province":"東京都","city":"江東区","address":"東京都江東区毛利2丁目1-12","lat":35.69027885,"lon":139.81657956},{"name":"塩浜","province":"東京都","city":"江東区","address":"東京都江東区塩浜2丁目26-13","lat":35.66510149,"lon":139.81544319},{"name":"清澄白河駅地下","province":"東京都","city":"江東区","address":"東京都江東区三好1丁目8","lat":35.68034954,"lon":139.79939054},{"name":"テレコムセンター","province":"東京都","city":"江東区","address":"東京都江東区青海2丁目5-10","lat":35.61733141,"lon":139.78018715},{"name":"江東病院","province":"東京都","city":"江東区","address":"東京都江東区大島6丁目8-5","lat":35.69029344,"lon":139.83408508},{"name":"あそか病院","province":"東京都","city":"江東区","address":"東京都江東区住吉1丁目18-1","lat":35.68985944,"lon":139.81186088},{"name":"順天堂大学医学部附属順天堂江東高齢者医療センター","province":"東京都","city":"江東区","address":"東京都江東区新砂3丁目3-20","lat":35.66528245,"lon":139.8334721},{"name":"がん研究会有明病院","province":"東京都","city":"江東区","address":"東京都江東区有明3丁目8-31","lat":35.63434076,"lon":139.7949906},{"name":"亀戸給水所","province":"東京都","city":"江東区","address":"東京都江東区亀戸2丁目6-50","lat":35.70101603,"lon":139.82130935},{"name":"豊住給水所","province":"東京都","city":"江東区","address":"東京都江東区東陽6丁目1-8","lat":35.67503913,"lon":139.81095502},{"name":"江東給水所","province":"東京都","city":"江東区","address":"東京都江東区新砂3丁目6-17","lat":35.66542149,"lon":139.84132701},{"name":"有明給水所","province":"東京都","city":"江東区","address":"東京都江東区有明3丁目1-8","lat":35.63082682,"lon":139.78543859},{"name":"区立南砂三丁目公園","province":"東京都","city":"江東区","address":"東京都江東区南砂3丁目14-21","lat":35.66960695,"lon":139.83337197},{"name":"都立辰巳の森海浜公園","province":"東京都","city":"江東区","address":"東京都江東区辰巳2丁目1","lat":35.64899491,"lon":139.81239389},{"name":"砂町排水機場","province":"東京都","city":"江東区","address":"東京都江東区新砂3丁目8","lat":35.65323126,"lon":139.84028308},{"name":"あけぼの水門","province":"東京都","city":"江東区","address":"東京都江東区辰巳2丁目8-10","lat":35.64798406,"lon":139.81827674},{"name":"辰巳排水機場","province":"東京都","city":"江東区","address":"東京都江東区辰巳1丁目1-44","lat":35.64585906,"lon":139.80884708},{"name":"東雲水門","province":"東京都","city":"江東区","address":"東京都江東区豊洲5丁目6-5","lat":35.64934172,"lon":139.79785354},{"name":"東雲水門（水防倉庫）","province":"東京都","city":"江東区","address":"東京都江東区東雲1丁目1-19","lat":35.64832243,"lon":139.79913123},{"name":"豊洲水門","province":"東京都","city":"江東区","address":"東京都江東区越中島3丁目1-1","lat":35.66352618,"lon":139.79429253},{"name":"江東都税事務所","province":"東京都","city":"江東区","address":"東京都江東区大島3丁目1-3","lat":35.68999589,"lon":139.82765002},{"name":"有明テニスの森公園テニス施設","province":"東京都","city":"江東区","address":"東京都江東区有明2丁目2-22","lat":35.63509873,"lon":139.78906597},{"name":"東京辰巳国際水泳場","province":"東京都","city":"江東区","address":"東京都江東区辰巳2丁目8-10","lat":35.64798406,"lon":139.81827674},{"name":"若洲海浜公園ヨット訓練所","province":"東京都","city":"江東区","address":"東京都江東区若洲3丁目1-1","lat":35.63067845,"lon":139.83766495},{"name":"城東職業能力開発センター","province":"東京都","city":"江東区","address":"東京都江東区亀戸9丁目6-27","lat":35.69624265,"lon":139.84205105},{"name":"東京国際展示場","province":"東京都","city":"江東区","address":"東京都江東区有明3丁目11-1","lat":35.62996069,"lon":139.79388808},{"name":"タイム２４ビル","province":"東京都","city":"江東区","address":"東京都江東区青海2丁目4-32","lat":35.61776181,"lon":139.77710127},{"name":"ＴＦＴビル","province":"東京都","city":"江東区","address":"東京都江東区有明3丁目6-11","lat":35.63080208,"lon":139.79057993},{"name":"有明パークビル","province":"東京都","city":"江東区","address":"東京都江東区有明3丁目7-11","lat":35.63258255,"lon":139.79307136},{"name":"産業技術研究センター本部","province":"東京都","city":"江東区","address":"東京都江東区青海2丁目4-10","lat":35.61877566,"lon":139.77967879},{"name":"深川高等学校","province":"東京都","city":"江東区","address":"東京都江東区東陽5丁目32-19","lat":35.6710869,"lon":139.81560148},{"name":"墨田工業高等学校","province":"東京都","city":"江東区","address":"東京都江東区森下5丁目1-7","lat":35.68533784,"lon":139.80693692},{"name":"大江戸高等学校","province":"東京都","city":"江東区","address":"東京都江東区千石3丁目2-11","lat":35.67943313,"lon":139.81809872},{"name":"城東高等学校","province":"東京都","city":"江東区","address":"東京都江東区大島3丁目22-1","lat":35.69293172,"lon":139.82895524},{"name":"東高等学校","province":"東京都","city":"江東区","address":"東京都江東区東砂7丁目19-24","lat":35.67371206,"lon":139.83720488},{"name":"科学技術高等学校","province":"東京都","city":"江東区","address":"東京都江東区大島1丁目2-31","lat":35.68701826,"lon":139.82136772},{"name":"江東商業高等学校","province":"東京都","city":"江東区","address":"東京都江東区亀戸4丁目50-1","lat":35.70251386,"lon":139.83147424},{"name":"第三商業高等学校","province":"東京都","city":"江東区","address":"東京都江東区越中島3丁目3-1","lat":35.66311794,"lon":139.79586185},{"name":"辰巳ふ頭","province":"東京都","city":"江東区","address":"東京都江東区辰巳3丁目","lat":35.64358463,"lon":139.81926852},{"name":"１０号地その１多目的ふ頭","province":"東京都","city":"江東区","address":"東京都江東区有明3丁目","lat":35.63159354,"lon":139.78818561},{"name":"１０号地ふ頭（フェリーふ頭含む）","province":"東京都","city":"江東区","address":"東京都江東区有明4丁目","lat":35.62489723,"lon":139.78831375},{"name":"青海コンテナふ頭","province":"東京都","city":"江東区","address":"東京都江東区青海2丁目","lat":35.61733141,"lon":139.78018715},{"name":"１５号地ふ頭","province":"東京都","city":"江東区","address":"東京都江東区若洲","lat":35.62564563,"lon":139.83287114},{"name":"東京へリポート","province":"東京都","city":"江東区","address":"東京都江東区新木場4丁目","lat":35.63819696,"lon":139.83789509},{"name":"新砂緊急用船着場","province":"東京都","city":"江東区","address":"東京都江東区新砂3丁目","lat":35.66420213,"lon":139.83834118},{"name":"有明客船ターミナル","province":"東京都","city":"江東区","address":"東京都江東区有明3丁目","lat":35.63159354,"lon":139.78818561},{"name":"青海客船ターミナル","province":"東京都","city":"江東区","address":"東京都江東区青海2丁目","lat":35.61733141,"lon":139.78018715},{"name":"黒船橋乗船場","province":"東京都","city":"江東区","address":"東京都江東区門前仲町1丁目1","lat":35.67178636,"lon":139.79273166},{"name":"木場六丁目乗船場","province":"東京都","city":"江東区","address":"東京都江東区木場6丁目","lat":35.66762602,"lon":139.80679399},{"name":"亀戸中央公園乗船場","province":"東京都","city":"江東区","address":"東京都江東区亀戸8丁目","lat":35.7006893,"lon":139.8333461},{"name":"豊洲三丁目乗船場","province":"東京都","city":"江東区","address":"東京都江東区豊洲3丁目","lat":35.66003768,"lon":139.79466194},{"name":"旧中川川の駅スロープ","province":"東京都","city":"江東区","address":"東京都江東区大島9丁目","lat":35.69317076,"lon":139.84506485},{"name":"江東区本庁舎","province":"東京都","city":"江東区","address":"東京都江東区東陽4丁目11-28","lat":35.67279228,"lon":139.81722917},{"name":"総合区民センター","province":"東京都","city":"江東区","address":"東京都江東区大島4丁目5-1","lat":35.6890932,"lon":139.82686406}]}