{"keyword":"センター","data":[{"name":"深川老人福祉センター","province":"東京都","city":"江東区","address":"江東区平野1-2-3","lat":35.67817,"lon":139.79893},{"name":"城東老人福祉センター","province":"東京都","city":"江東区","address":"江東区北砂4-20-12","lat":35.67714,"lon":139.83173},{"name":"深川老人福祉センター森下分館","province":"東京都","city":"江東区","address":"江東区森下5-11-1","lat":35.68502,"lon":139.80899},{"name":"亀戸老人福祉センター","province":"東京都","city":"江東区","address":"江東区亀戸9-33-2-101","lat":35.70026,"lon":139.84148},{"name":"深川老人福祉センター","province":"東京都","city":"江東区","address":"江東区平野1-2-3","lat":35.678464,"lon":139.798629},{"name":"城東老人福祉センター","province":"東京都","city":"江東区","address":"江東区北砂4-20-12","lat":35.677503,"lon":139.831953},{"name":"深川老人福祉センター森下分館","province":"東京都","city":"江東区","address":"江東区森下5-11-1","lat":35.68483,"lon":139.808898},{"name":"亀戸老人福祉センター","province":"東京都","city":"江東区","address":"江東区亀戸9-33-2-101","lat":35.699173,"lon":139.841995},{"name":"深川老人福祉センター","province":"東京都","city":"江東区","address":"江東区平野1-2-3","lat":35.67817,"lon":139.79894}]}