{"keyword":"一覧","data":[{"name":"小松橋出張所・区民館","province":"東京都","city":"江東区","address":"東京都江東区扇橋2丁目1-5","lat":35.68268265,"lon":139.81426327},{"name":"西大島駅（都営新宿線）","province":"東京都","city":"江東区","address":"東京都江東区大島2丁目41-19","lat":35.68957086,"lon":139.82608639},{"name":"大島駅（都営新宿線）","province":"東京都","city":"江東区","address":"東京都江東区大島5丁目10-8","lat":35.68957128,"lon":139.83418234},{"name":"東大島駅（都営新宿線）","province":"東京都","city":"江東区","address":"東京都江東区大島9丁目3-14","lat":35.69035447,"lon":139.8459843},{"name":"江東区亀戸野球場庭球場","province":"東京都","city":"江東区","address":"東京都江東区亀戸2丁目6-50","lat":35.70101603,"lon":139.82130935},{"name":"亀戸児童館","province":"東京都","city":"江東区","address":"東京都江東区亀戸2丁目1-19","lat":35.69775268,"lon":139.82168985},{"name":"亀戸第三児童館","province":"東京都","city":"江東区","address":"東京都江東区亀戸7丁目39-9","lat":35.69696205,"lon":139.83934008},{"name":"砂町出張所・区民館","province":"東京都","city":"江東区","address":"東京都江東区北砂4丁目7-3","lat":35.6774475,"lon":139.82846128},{"name":"塩浜児童館","province":"東京都","city":"江東区","address":"東京都江東区塩浜2丁目5-20","lat":35.66193219,"lon":139.80538308},{"name":"江東区潮見野球場庭球場","province":"東京都","city":"江東区","address":"東京都江東区潮見1丁目1-1","lat":35.65595241,"lon":139.81019942},{"name":"江東区環境学習情報館","province":"東京都","city":"江東区","address":"東京都江東区潮見1丁目29-7","lat":35.65500255,"lon":139.81189375},{"name":"清澄白河駅（都営大江戸線）","province":"東京都","city":"江東区","address":"東京都江東区白河1丁目7-14","lat":35.68297984,"lon":139.79884385},{"name":"水道局東部第一支所","province":"東京都","city":"江東区","address":"東京都江東区新砂1丁目7-2","lat":35.66893735,"lon":139.82446175},{"name":"住吉駅（都営新宿線）","province":"東京都","city":"江東区","address":"東京都江東区住吉2丁目23-12","lat":35.6893151,"lon":139.816088},{"name":"江東区健康センター","province":"東京都","city":"江東区","address":"東京都江東区東陽2丁目1-1","lat":35.66574028,"lon":139.8142155},{"name":"江東区保健所","province":"東京都","city":"江東区","address":"東京都江東区東陽2丁目1-1","lat":35.66574028,"lon":139.8142155},{"name":"高齢者総合福祉センター","province":"東京都","city":"江東区","address":"東京都江東区東陽6丁目2-17","lat":35.67472808,"lon":139.81249092},{"name":"江東区役所","province":"東京都","city":"江東区","address":"東京都江東区東陽4丁目11-28","lat":35.67279228,"lon":139.81722917},{"name":"江東区豊住庭球場","province":"東京都","city":"江東区","address":"東京都江東区東陽6丁目1-13","lat":35.67426422,"lon":139.8106911},{"name":"富岡出張所・区民館","province":"東京都","city":"江東区","address":"東京都江東区富岡1丁目16-12","lat":35.67177263,"lon":139.79860634},{"name":"江東区東砂庭球場","province":"東京都","city":"江東区","address":"東京都江東区東砂1丁目2-13","lat":35.68378029,"lon":139.83969885},{"name":"東砂第二児童館","province":"東京都","city":"江東区","address":"東京都江東区東砂2丁目13-13","lat":35.68598836,"lon":139.84160696},{"name":"南砂児童館","province":"東京都","city":"江東区","address":"東京都江東区南砂2丁目3-17","lat":35.67106762,"lon":139.82318409},{"name":"森下駅（都営新宿線）","province":"東京都","city":"江東区","address":"東京都江東区森下1丁目13-10","lat":35.68826538,"lon":139.79788049},{"name":"森下駅（都営大江戸線）","province":"東京都","city":"江東区","address":"東京都江東区森下2丁目17-17","lat":35.68759046,"lon":139.79861655},{"name":"江東区夢の島野球場","province":"東京都","city":"江東区","address":"東京都江東区夢の島1丁目1-1","lat":35.65021449,"lon":139.82336789},{"name":"江東区夢の島競技場","province":"東京都","city":"江東区","address":"東京都江東区夢の島1丁目1-2","lat":35.64749534,"lon":139.82264582},{"name":"夢の島熱帯植物館","province":"東京都","city":"江東区","address":"東京都江東区夢の島2丁目1-2","lat":35.65130896,"lon":139.82932013},{"name":"東京ビッグサイト","province":"東京都","city":"江東区","address":"東京都江東区有明3丁目11-1","lat":35.62996069,"lon":139.79388808}]}