{"keyword":"保育","data":[{"name":"江東区毛利保育園","province":"東京都","city":"江東区","address":"江東区毛利二丁目1番14号","lat":35.69074,"lon":139.816566},{"name":"めばえ保育園","province":"東京都","city":"江東区","address":"江東区住吉二丁目25番9号","lat":35.687813,"lon":139.816319},{"name":"グローバルキッズ住吉園","province":"東京都","city":"江東区","address":"江東区住吉1-7-8","lat":35.687976,"lon":139.811289},{"name":"江東区猿江保育園","province":"東京都","city":"江東区","address":"江東区猿江一丁目8番10号","lat":35.685407,"lon":139.813516},{"name":"江東区森下保育園","province":"東京都","city":"江東区","address":"江東区森下3-14-6","lat":35.686063,"lon":139.803043},{"name":"神愛保育園","province":"東京都","city":"江東区","address":"江東区森下三丁目10番7号","lat":35.686427,"lon":139.801524},{"name":"グローバルキッズ深川森下園（本園）","province":"東京都","city":"江東区","address":"江東区森下四丁目10番8号","lat":35.685913,"lon":139.805968},{"name":"あゆみ保育園","province":"東京都","city":"江東区","address":"江東区森下3-18-10","lat":35.687174,"lon":139.803343},{"name":"ゆめの森保育園","province":"東京都","city":"江東区","address":"江東区森下1-2-2","lat":35.686591,"lon":139.796642},{"name":"江東区千田保育園","province":"東京都","city":"江東区","address":"江東区千田22番8号","lat":35.680564,"lon":139.816532},{"name":"江東区東陽保育園","province":"東京都","city":"江東区","address":"江東区東陽3-22-1-101","lat":35.668995,"lon":139.812191},{"name":"ほっぺるランド東陽町","province":"東京都","city":"江東区","address":"江東区東陽二丁目4番46号2階","lat":35.66914,"lon":139.819312},{"name":"テンダーラビング保育園東陽","province":"東京都","city":"江東区","address":"江東区東陽三丁目23番21号","lat":35.669912,"lon":139.814407},{"name":"マミー保育園東陽町","province":"東京都","city":"江東区","address":"江東区東陽2-2-14","lat":35.666929,"lon":139.814943},{"name":"スターチス保育園","province":"東京都","city":"江東区","address":"江東区東陽3-27-32","lat":35.669754,"lon":139.815121},{"name":"江東区白河保育園","province":"東京都","city":"江東区","address":"江東区白河1-7-1","lat":35.683174,"lon":139.799616},{"name":"江東区白河かもめ保育園","province":"東京都","city":"江東区","address":"江東区白河一丁目5番1-101号","lat":35.683383,"lon":139.800313},{"name":"子供の村保育園","province":"東京都","city":"江東区","address":"江東区白河三丁目3番6号","lat":35.681858,"lon":139.805837},{"name":"さんいく保育園清澄白河","province":"東京都","city":"江東区","address":"江東区白河四丁目9番25号","lat":35.682874,"lon":139.806823},{"name":"小鳩保育園　清澄白河","province":"東京都","city":"江東区","address":"江東区白河3-10-8","lat":35.683505,"lon":139.806242},{"name":"うぃず清澄白河駅前保育園","province":"東京都","city":"江東区","address":"江東区清澄3-10-5","lat":35.683091,"lon":139.797394},{"name":"江東区深川一丁目保育園","province":"東京都","city":"江東区","address":"江東区深川1-6-15-101","lat":35.677169,"lon":139.796277},{"name":"まこと保育園","province":"東京都","city":"江東区","address":"江東区冬木16番7号","lat":35.674992,"lon":139.801159},{"name":"ナーサリールームベリーベアー深川冬木","province":"東京都","city":"江東区","address":"江東区冬木1-5","lat":35.673139,"lon":139.80042},{"name":"アゼリヤ保育園","province":"東京都","city":"江東区","address":"江東区木場一丁目3番5号","lat":35.668659,"lon":139.80245},{"name":"グレース保育園","province":"東京都","city":"江東区","address":"江東区木場5-8-3","lat":35.670753,"lon":139.80788},{"name":"スマイルクラブナーサリー木場","province":"東京都","city":"江東区","address":"江東区木場1-4-5","lat":35.66867,"lon":139.804708},{"name":"ＭＩＷＡ木場公園保育園","province":"東京都","city":"江東区","address":"江東区木場4-1-65","lat":35.674045,"lon":139.808583},{"name":"江東区塩崎保育園","province":"東京都","city":"江東区","address":"江東区塩浜2-6-3","lat":35.660935,"lon":139.808638},{"name":"江東区塩浜保育園","province":"東京都","city":"江東区","address":"江東区塩浜一丁目3番10号","lat":35.663757,"lon":139.801192},{"name":"聖華しおかぜ保育園","province":"東京都","city":"江東区","address":"江東区塩浜1-4-46","lat":35.663587,"lon":139.801842},{"name":"江東区古石場保育園","province":"東京都","city":"江東区","address":"江東区古石場2-14-1-102","lat":35.66724,"lon":139.799873},{"name":"アスクもんなか保育園","province":"東京都","city":"江東区","address":"江東区富岡一丁目14番17号","lat":35.672753,"lon":139.796782},{"name":"木下の保育園　富岡","province":"東京都","city":"江東区","address":"江東区富岡二丁目11番6号","lat":35.670473,"lon":139.801409},{"name":"深川愛隣保育園","province":"東京都","city":"江東区","address":"江東区枝川二丁目25番10号","lat":35.657322,"lon":139.808177},{"name":"愛隣シャローム保育園","province":"東京都","city":"江東区","address":"江東区枝川三丁目6番15号","lat":35.658302,"lon":139.810422},{"name":"江東区潮見保育園","province":"東京都","city":"江東区","address":"江東区潮見一丁目29番15-101号","lat":35.655969,"lon":139.814757},{"name":"江東区辰巳第二保育園","province":"東京都","city":"江東区","address":"江東区辰巳1-10-65-101","lat":35.648987,"lon":139.810708},{"name":"江東区辰巳第三保育園","province":"東京都","city":"江東区","address":"江東区辰巳1-10-81-101","lat":35.648214,"lon":139.811419},{"name":"江東区豊洲保育園","province":"東京都","city":"江東区","address":"江東区豊洲四丁目8番12号","lat":35.65568,"lon":139.799242},{"name":"シンフォニア保育園（本園）","province":"東京都","city":"江東区","address":"江東区豊洲二丁目5番3-101号","lat":35.658399,"lon":139.792107},{"name":"蓮美幼児学園とよすナーサリー","province":"東京都","city":"江東区","address":"江東区豊洲三丁目5番21-102号","lat":35.658646,"lon":139.795826},{"name":"蓮美幼児学園第２とよすナーサリー","province":"東京都","city":"江東区","address":"江東区豊洲三丁目5番3号","lat":35.659068,"lon":139.795259},{"name":"日生豊洲駅前保育園ひびき","province":"東京都","city":"江東区","address":"江東区豊洲四丁目1番24号","lat":35.654466,"lon":139.797098},{"name":"ゆらりん豊四保育園","province":"東京都","city":"江東区","address":"江東区豊洲四丁目10番1-106号","lat":35.653003,"lon":139.80195},{"name":"ひまわりキッズガーデン豊洲","province":"東京都","city":"江東区","address":"江東区豊洲四丁目11番20-138号","lat":35.652569,"lon":139.800134},{"name":"キッズポケット豊洲保育園","province":"東京都","city":"江東区","address":"江東区豊洲五丁目5番25号","lat":35.652508,"lon":139.797212},{"name":"小学館アカデミーしんとよす","province":"東京都","city":"江東区","address":"江東区豊洲6-2-10","lat":35.649392,"lon":139.793204},{"name":"アスク豊洲保育園","province":"東京都","city":"江東区","address":"江東区豊洲3-6-81階","lat":35.659938,"lon":139.796101},{"name":"あい保育園豊洲","province":"東京都","city":"江東区","address":"江東区豊洲5-6-521階","lat":35.650589,"lon":139.799276},{"name":"グローバルキッズ豊洲五丁目保育園","province":"東京都","city":"江東区","address":"江東区豊洲5-6-29","lat":35.651325,"lon":139.797065},{"name":"ＴＫチルドレンズファーム豊洲校","province":"東京都","city":"江東区","address":"江東区豊洲3-4-8","lat":35.656908,"lon":139.798253},{"name":"ＴＫチルドレンズファーム豊洲第二校","province":"東京都","city":"江東区","address":"江東区豊洲3-4-8スーパービバホーム2階","lat":35.656908,"lon":139.798253},{"name":"江東区東雲保育園","province":"東京都","city":"江東区","address":"江東区東雲1-8-5-101","lat":35.644931,"lon":139.800242},{"name":"江東区東雲第二保育園","province":"東京都","city":"江東区","address":"江東区東雲2-4-4-103","lat":35.643348,"lon":139.799295},{"name":"ＹＭＣＡオリーブ保育園","province":"東京都","city":"江東区","address":"江東区東雲一丁目8番18号","lat":35.644887,"lon":139.800892},{"name":"ＹＭＣＡキャナルコート保育園","province":"東京都","city":"江東区","address":"江東区東雲一丁目9番14-104号","lat":35.646695,"lon":139.804397},{"name":"ひまわりキッズガーデン東雲","province":"東京都","city":"江東区","address":"江東区東雲一丁目9番18-203号","lat":35.647806,"lon":139.803928},{"name":"東雲キャナルコートナーサリースクール","province":"東京都","city":"江東区","address":"江東区東雲一丁目9番51号","lat":35.64912,"lon":139.804472},{"name":"ナーサリールームベリーベアー東雲","province":"東京都","city":"江東区","address":"江東区東雲二丁目3番17号3階","lat":35.642204,"lon":139.800659},{"name":"みんなのみらいをつくる保育園東雲","province":"東京都","city":"江東区","address":"江東区東雲2-1-22","lat":35.643829,"lon":139.80149},{"name":"江東湾岸サテライトナーサリースクール（本園）","province":"東京都","city":"江東区","address":"江東区有明三丁目7番26号","lat":35.631138,"lon":139.792027},{"name":"ひまわりキッズガーデン有明","province":"東京都","city":"江東区","address":"江東区有明一丁目4番11号","lat":35.637132,"lon":139.787174},{"name":"ひまわりキッズガーデン有明の森","province":"東京都","city":"江東区","address":"江東区有明一丁目4番20号","lat":35.636293,"lon":139.786155},{"name":"江東湾岸サテライトスマートナーサリースクール","province":"東京都","city":"江東区","address":"江東区有明1-5-22","lat":35.637987,"lon":139.781097},{"name":"さんいく保育園有明","province":"東京都","city":"江東区","address":"江東区有明1-5-22階","lat":35.636096,"lon":139.782441},{"name":"江東区亀戸保育園","province":"東京都","city":"江東区","address":"江東区亀戸6-54-2-101","lat":35.696507,"lon":139.832496},{"name":"江東区亀戸第二保育園","province":"東京都","city":"江東区","address":"江東区亀戸7-41-16江東区青少年交流プラザ3・4階","lat":35.696787,"lon":139.837346},{"name":"江東区亀戸第三保育園","province":"東京都","city":"江東区","address":"江東区亀戸1-24-6","lat":35.694645,"lon":139.824062},{"name":"江東区亀戸第四保育園","province":"東京都","city":"江東区","address":"江東区亀戸四丁目21番13号","lat":35.702647,"lon":139.826547},{"name":"陽だまり保育園","province":"東京都","city":"江東区","address":"江東区亀戸二丁目6番2-102号","lat":35.700183,"lon":139.82259},{"name":"アンジェリカ亀戸保育園","province":"東京都","city":"江東区","address":"江東区亀戸四丁目13番18号","lat":35.70105,"lon":139.82828},{"name":"コビープリスクールかめいど","province":"東京都","city":"江東区","address":"江東区亀戸六丁目53番11号","lat":35.695926,"lon":139.832652},{"name":"亀戸こころ保育園","province":"東京都","city":"江東区","address":"江東区亀戸九丁目34番1-140号","lat":35.699359,"lon":139.840646},{"name":"亀戸浅間保育園","province":"東京都","city":"江東区","address":"江東区亀戸九丁目36番10号","lat":35.698445,"lon":139.838957},{"name":"グローバルキッズ亀戸園","province":"東京都","city":"江東区","address":"江東区亀戸5-1-15","lat":35.697881,"lon":139.832099},{"name":"まなびの森保育園亀戸","province":"東京都","city":"江東区","address":"江東区亀戸7-10-11階","lat":35.697604,"lon":139.834171},{"name":"江東亀戸サテライトグローバルキッズ竪川園","province":"東京都","city":"江東区","address":"江東区亀戸7-39-28","lat":35.696473,"lon":139.839371},{"name":"クオリスキッズ亀戸保育園","province":"東京都","city":"江東区","address":"江東区亀戸2-10-10","lat":35.700358,"lon":139.823073},{"name":"江東区わかば保育園","province":"東京都","city":"江東区","address":"江東区大島9-7-8-101","lat":35.69404,"lon":139.84422},{"name":"江東区大島保育園","province":"東京都","city":"江東区","address":"江東区大島5-53-1-101","lat":35.686286,"lon":139.838285},{"name":"江東区大島第二保育園","province":"東京都","city":"江東区","address":"江東区大島4-1-6-130","lat":35.686555,"lon":139.8303},{"name":"江東区大島第三保育園","province":"東京都","city":"江東区","address":"江東区大島6-1-6-130","lat":35.693457,"lon":139.833121},{"name":"江東区大島第四保育園","province":"東京都","city":"江東区","address":"江東区大島8-12-20-101","lat":35.687263,"lon":139.839082},{"name":"江東区大島第五保育園","province":"東京都","city":"江東区","address":"江東区大島4-21-3-101","lat":35.686172,"lon":139.831997},{"name":"マミー保育園西大島","province":"東京都","city":"江東区","address":"江東区大島二丁目36番15号","lat":35.691587,"lon":139.825353},{"name":"花と鳥保育園","province":"東京都","city":"江東区","address":"江東区大島三丁目8番7号","lat":35.692776,"lon":139.827564},{"name":"かがやき保育園","province":"東京都","city":"江東区","address":"江東区大島7-37-13","lat":35.691938,"lon":139.841551},{"name":"グローバルキッズ西大島園","province":"東京都","city":"江東区","address":"江東区大島1-10-5","lat":35.688654,"lon":139.823126},{"name":"若葉インターナショナルナーサリー大島園","province":"東京都","city":"江東区","address":"江東区大島6-22-8","lat":35.692946,"lon":139.837235},{"name":"太陽の子　大島五丁目保育園","province":"東京都","city":"江東区","address":"江東区大島5-27-13","lat":35.686383,"lon":139.835494},{"name":"江東区北砂保育園","province":"東京都","city":"江東区","address":"江東区北砂1-1-4-101","lat":35.682363,"lon":139.821779},{"name":"江東区小名木川保育園","province":"東京都","city":"江東区","address":"江東区北砂1-3-30","lat":35.684185,"lon":139.823645},{"name":"江東区小名木川第二保育園","province":"東京都","city":"江東区","address":"江東区北砂5-20-3-101","lat":35.682072,"lon":139.832055},{"name":"江東区亀高保育園","province":"東京都","city":"江東区","address":"江東区北砂5-20-9-101","lat":35.6848,"lon":139.833005},{"name":"江東区亀高第二保育園","province":"東京都","city":"江東区","address":"江東区北砂5-20-10-101","lat":35.685355,"lon":139.83433},{"name":"砂町保育園","province":"東京都","city":"江東区","address":"江東区北砂四丁目18番27号","lat":35.678567,"lon":139.830792},{"name":"砂町友愛園","province":"東京都","city":"江東区","address":"江東区北砂五丁目14番10号","lat":35.680522,"lon":139.834616},{"name":"スクルドエンジェル北砂園","province":"東京都","city":"江東区","address":"江東区北砂1-9-6","lat":35.680761,"lon":139.824309},{"name":"江東区東砂保育園","province":"東京都","city":"江東区","address":"江東区東砂2-13-2-101","lat":35.685088,"lon":139.84176},{"name":"江東区東砂第二保育園","province":"東京都","city":"江東区","address":"江東区東砂2-6-4-101","lat":35.684427,"lon":139.842993},{"name":"江東区東砂第三保育園","province":"東京都","city":"江東区","address":"江東区東砂1-5-3-101","lat":35.682114,"lon":139.840902},{"name":"江東区東砂第四保育園","province":"東京都","city":"江東区","address":"江東区東砂7-17-35-101","lat":35.674087,"lon":139.838449},{"name":"ともしび保育園","province":"東京都","city":"江東区","address":"江東区東砂六丁目2番16号","lat":35.669843,"lon":139.841524},{"name":"江東区新砂保育園","province":"東京都","city":"江東区","address":"江東区新砂三丁目3番11号","lat":35.666713,"lon":139.832839},{"name":"江東区南砂第一保育園","province":"東京都","city":"江東区","address":"江東区南砂4-4-1-102","lat":35.674656,"lon":139.828536},{"name":"江東区南砂第三保育園","province":"東京都","city":"江東区","address":"江東区南砂2-3-3-102","lat":35.673281,"lon":139.822884},{"name":"江東区南砂第四保育園","province":"東京都","city":"江東区","address":"江東区南砂2-3-4-101","lat":35.671798,"lon":139.823245},{"name":"江東区南砂第五保育園","province":"東京都","city":"江東区","address":"江東区南砂2-3-6-103","lat":35.670426,"lon":139.823826},{"name":"江東区城東保育園","province":"東京都","city":"江東区","address":"江東区南砂7-9-11","lat":35.669846,"lon":139.83525},{"name":"江東区南砂第二保育園","province":"東京都","city":"江東区","address":"江東区南砂二丁目3番1-101号","lat":35.670265,"lon":139.821987},{"name":"江東区南砂さくら保育園","province":"東京都","city":"江東区","address":"江東区南砂六丁目8番3号","lat":35.671157,"lon":139.834861},{"name":"南砂町保育園","province":"東京都","city":"江東区","address":"江東区南砂三丁目10番8号","lat":35.670096,"lon":139.830464},{"name":"八幡保育園","province":"東京都","city":"江東区","address":"江東区南砂七丁目14番17号","lat":35.668968,"lon":139.837772},{"name":"ルーチェ保育園　南砂","province":"東京都","city":"江東区","address":"江東区南砂4-18-41・2階","lat":35.672937,"lon":139.832375},{"name":"太陽の子　南砂２丁目保育園","province":"東京都","city":"江東区","address":"江東区南砂2-36-10","lat":35.67227,"lon":139.825853},{"name":"おはよう保育園　南砂町","province":"東京都","city":"江東区","address":"江東区南砂6-10-11","lat":35.670679,"lon":139.835638}]}