{"keyword":"再生","data":[{"name":"東京紙業(株)","province":"東京都","city":"江東区","address":"江東区塩浜2-7-12","lat":35.662048,"lon":139.807419},{"name":"(株)荒井商店","province":"東京都","city":"江東区","address":"江東区新木場4-3-24","lat":35.643555,"lon":139.839111},{"name":"(株)松井紙業","province":"東京都","city":"江東区","address":"江東区海辺11-4","lat":35.681122,"lon":139.818329},{"name":"(株)宮崎  新木場営業所","province":"東京都","city":"江東区","address":"江東区新木場2-7-1","lat":35.638634,"lon":139.831757},{"name":"(株)中田  新木場事業所","province":"東京都","city":"江東区","address":"江東区新木場2-9-9","lat":35.637939,"lon":139.824905},{"name":"(株)木場リサイクル","province":"東京都","city":"江東区","address":"江東区塩浜2-14-2","lat":35.662785,"lon":139.809097},{"name":"三東運輸(株)  新木場工場","province":"東京都","city":"江東区","address":"江東区新木場4-5-4","lat":35.640163,"lon":139.837952},{"name":"藤ビルメンテナンス(株)","province":"東京都","city":"江東区","address":"江東区新木場3-6-9","lat":35.638317,"lon":139.834442},{"name":"美濃紙業(株)  東雲営業所","province":"東京都","city":"江東区","address":"江東区東雲2-6-32","lat":35.64138,"lon":139.801117},{"name":"広陽サービス(株)  辰巳リサイクルセンター","province":"東京都","city":"江東区","address":"江東区辰巳3-7-8","lat":35.642025,"lon":139.809311},{"name":"広陽サービス(株)  東雲リサイクルセンター","province":"東京都","city":"江東区","address":"江東区東雲2-10-23/25","lat":35.639233,"lon":139.80481},{"name":"有明興業(株)  若洲本社工場","province":"東京都","city":"江東区","address":"江東区若洲2-8-25","lat":35.619427,"lon":139.832596},{"name":"(株)山博  リサイクルセンター江東","province":"東京都","city":"江東区","address":"江東区新砂3-10-17","lat":35.657635,"lon":139.830994},{"name":"東京産資源(株)","province":"東京都","city":"江東区","address":"江東区東砂5-14-17","lat":35.67498,"lon":139.842194},{"name":"(有)関東紙業","province":"東京都","city":"江東区","address":"江東区塩浜2-11-1","lat":35.663513,"lon":139.80899},{"name":"ヨシヤコーポレーション(株)  新木場センター","province":"東京都","city":"江東区","address":"江東区新木場1-13-1","lat":35.641033,"lon":139.834671},{"name":"(株)関根商店","province":"東京都","city":"江東区","address":"江東区扇橋2-6-1","lat":35.683208,"lon":139.815048},{"name":"(株)オネスト  新木場リサイクル工場","province":"東京都","city":"江東区","address":"江東区新木場4-3-26","lat":35.643555,"lon":139.839111},{"name":"むさし野紙業(株)  新木場営業所","province":"東京都","city":"江東区","address":"江東区新木場2-4-3","lat":35.639145,"lon":139.825714},{"name":"(株)アサヒ･クリーン","province":"東京都","city":"江東区","address":"江東区枝川1-10-27","lat":35.655334,"lon":139.80423},{"name":"大洋紙原(有)  砂町R事業場","province":"東京都","city":"江東区","address":"江東区北砂4-35-9","lat":35.677914,"lon":139.833694},{"name":"(株)坪野谷紙業  新木場事業所","province":"東京都","city":"江東区","address":"江東区新木場2-9-12","lat":35.637939,"lon":139.824905}]}