{"keyword":"初動","data":[{"name":"基幹的広域防災拠点（有明の丘地区）","province":"東京都","city":"江東区","address":"江東区有明3-8-35","lat":35.63537,"lon":139.7941},{"name":"第九機動隊","province":"東京都","city":"江東区","address":"江東区新砂1-7-20","lat":35.668,"lon":139.8226},{"name":"第七方面交通機動隊新木場分駐所","province":"東京都","city":"江東区","address":"江東区新木場4-2-31","lat":35.64214,"lon":139.8376},{"name":"第七方面本部","province":"東京都","city":"江東区","address":"江東区新木場4-2-31","lat":35.64214,"lon":139.8376},{"name":"城東警察署","province":"東京都","city":"江東区","address":"江東区北砂2-1-24","lat":35.67844,"lon":139.827},{"name":"東京湾岸警察署","province":"東京都","city":"江東区","address":"江東区青海2-7-1","lat":35.61857,"lon":139.7746},{"name":"深川警察署","province":"東京都","city":"江東区","address":"江東区木場3-18-6","lat":35.67362,"lon":139.8062},{"name":"第七消防方面本部","province":"東京都","city":"江東区","address":"江東区森下5-1-4","lat":35.68487,"lon":139.8066},{"name":"夢の島訓練場","province":"東京都","city":"江東区","address":"江東区夢の島3-1-1","lat":35.64985,"lon":139.8344},{"name":"第一方面訓練場","province":"東京都","city":"江東区","address":"江東区潮見1-29","lat":35.65556,"lon":139.8142},{"name":"第六方面訓練場","province":"東京都","city":"江東区","address":"江東区夢の島3-30","lat":35.65202,"lon":139.8315},{"name":"城東消防署","province":"東京都","city":"江東区","address":"江東区亀戸6-42-9","lat":35.69659,"lon":139.8319},{"name":"深川消防署","province":"東京都","city":"江東区","address":"江東区木場3-18-10","lat":35.67304,"lon":139.8061},{"name":"都営大江戸線清澄白河駅内備蓄倉庫","province":"東京都","city":"江東区","address":"江東区白河1-7-14","lat":35.68292,"lon":139.7989},{"name":"江東区","province":"東京都","city":"江東区","address":"江東区大島4-4-3","lat":35.68874,"lon":139.8273},{"name":"（株）メディセオ新東京ビル","province":"東京都","city":"江東区","address":"江東区佐賀2-8-20","lat":35.67896,"lon":139.7919},{"name":"東京都赤十字血液センター","province":"東京都","city":"江東区","address":"江東区辰巳2-1-67","lat":35.64709,"lon":139.8132}]}