{"keyword":"区","data":[{"name":"江東区保健所(健康推進課)","province":"東京都","city":"江東区","address":"江東区東陽2-1-1","lat":35.66574,"lon":139.814216},{"name":"江東区保健所(生活衛生課)","province":"東京都","city":"江東区","address":"江東区東陽2-1-1","lat":35.66574,"lon":139.814216},{"name":"江東区保健所(保健予防課)","province":"東京都","city":"江東区","address":"江東区東陽2-1-1","lat":35.66574,"lon":139.814216},{"name":"城東保健相談所","province":"東京都","city":"江東区","address":"江東区大島3-1-3","lat":35.689996,"lon":139.82765},{"name":"城東南部保健相談所","province":"東京都","city":"江東区","address":"江東区南砂4-3-10","lat":35.674348,"lon":139.82777},{"name":"深川保健相談所","province":"東京都","city":"江東区","address":"江東区白河3-4-3-301","lat":35.682163,"lon":139.805765},{"name":"深川南部保健相談所","province":"東京都","city":"江東区","address":"江東区枝川1-8-15-102","lat":35.65751,"lon":139.802364},{"name":"江東区保健所(健康推進課)","province":"東京都","city":"江東区","address":"東京都江東区東陽2丁目1-1","lat":35.66574028,"lon":139.8142155},{"name":"江東区保健所(生活衛生課)","province":"東京都","city":"江東区","address":"東京都江東区東陽2丁目1-1","lat":35.66574028,"lon":139.8142155},{"name":"江東区保健所(保健予防課)","province":"東京都","city":"江東区","address":"東京都江東区東陽2丁目1-1","lat":35.66574028,"lon":139.8142155},{"name":"城東保健相談所","province":"東京都","city":"江東区","address":"東京都江東区大島3丁目1-3","lat":35.68999589,"lon":139.82765002},{"name":"城東南部保健相談所","province":"東京都","city":"江東区","address":"東京都江東区南砂4丁目3-10","lat":35.67438398,"lon":139.82767528},{"name":"江東区保健所(健康推進課)","province":"東京都","city":"江東区","address":"江東区東陽2-1-1","lat":35.66642,"lon":139.81459},{"name":"江東区保健所(生活衛生課)","province":"東京都","city":"江東区","address":"江東区東陽2-1-1","lat":35.66642,"lon":139.81459},{"name":"江東区保健所(保健予防課)","province":"東京都","city":"江東区","address":"江東区東陽2-1-1","lat":35.66642,"lon":139.81459},{"name":"城東保健相談所","province":"東京都","city":"江東区","address":"江東区大島3-1-3","lat":35.68985,"lon":139.82712},{"name":"城東南部保健相談所","province":"東京都","city":"江東区","address":"江東区南砂4-3-10","lat":35.67444,"lon":139.8271},{"name":"深川保健相談所","province":"東京都","city":"江東区","address":"江東区白河3-4-3-301","lat":35.68221,"lon":139.806},{"name":"深川南部保健相談所","province":"東京都","city":"江東区","address":"江東区枝川1-8-15-102","lat":35.65753,"lon":139.80211},{"name":"深川南部保健相談所","province":"東京都","city":"江東区","address":"江東区枝川1-8-15-102","lat":35.65471,"lon":139.80589}]}