{"keyword":"収蔵","data":[{"name":"亀戸給水所","province":"東京都","city":"江東区","address":"東京都江東区亀戸2-6-50","lat":35.7001343,"lon":139.81999},{"name":"豊住給水所","province":"東京都","city":"江東区","address":"東京都江東区東陽6-1-8","lat":35.67504,"lon":139.810955},{"name":"江東給水所","province":"東京都","city":"江東区","address":"東京都江東区新砂3-6-17","lat":35.6654223,"lon":139.841327},{"name":"有明給水所","province":"東京都","city":"江東区","address":"東京都江東区有明3-1-8","lat":35.6308274,"lon":139.78544},{"name":"区立南砂三丁目公園","province":"東京都","city":"江東区","address":"東京都江東区南砂3-14-21","lat":35.670954,"lon":139.832646},{"name":"都立辰巳の森海浜公園","province":"東京都","city":"江東区","address":"東京都江東区辰巳2-1","lat":35.648004,"lon":139.812798},{"name":"毛利","province":"東京都","city":"江東区","address":"東京都江東区毛利2丁目1-12","lat":35.69027885,"lon":139.81657956},{"name":"塩浜","province":"東京都","city":"江東区","address":"東京都江東区塩浜2丁目26-13","lat":35.66510149,"lon":139.81544319},{"name":"清澄白河駅地下","province":"東京都","city":"江東区","address":"東京都江東区三好1丁目8","lat":35.68034954,"lon":139.79939054},{"name":"テレコムセンター","province":"東京都","city":"江東区","address":"東京都江東区青海2丁目5-10","lat":35.61733141,"lon":139.78018715},{"name":"江東病院","province":"東京都","city":"江東区","address":"東京都江東区大島6丁目8-5","lat":35.69029344,"lon":139.83408508},{"name":"あそか病院","province":"東京都","city":"江東区","address":"東京都江東区住吉1丁目18-1","lat":35.68985944,"lon":139.81186088},{"name":"順天堂大学医学部附属順天堂江東高齢者医療センター","province":"東京都","city":"江東区","address":"東京都江東区新砂3丁目3-20","lat":35.66528245,"lon":139.8334721},{"name":"がん研究会有明病院","province":"東京都","city":"江東区","address":"東京都江東区有明3丁目8-31","lat":35.63434076,"lon":139.7949906},{"name":"亀戸給水所","province":"東京都","city":"江東区","address":"東京都江東区亀戸2丁目6-50","lat":35.70101603,"lon":139.82130935},{"name":"豊住給水所","province":"東京都","city":"江東区","address":"東京都江東区東陽6丁目1-8","lat":35.67503913,"lon":139.81095502},{"name":"江東給水所","province":"東京都","city":"江東区","address":"東京都江東区新砂3丁目6-17","lat":35.66542149,"lon":139.84132701},{"name":"有明給水所","province":"東京都","city":"江東区","address":"東京都江東区有明3丁目1-8","lat":35.63082682,"lon":139.78543859},{"name":"区立南砂三丁目公園","province":"東京都","city":"江東区","address":"東京都江東区南砂3丁目14-21","lat":35.66960695,"lon":139.83337197},{"name":"都立辰巳の森海浜公園","province":"東京都","city":"江東区","address":"東京都江東区辰巳2丁目1","lat":35.64899491,"lon":139.81239389},{"name":"砂町排水機場","province":"東京都","city":"江東区","address":"東京都江東区新砂3丁目8","lat":35.65323126,"lon":139.84028308},{"name":"あけぼの水門","province":"東京都","city":"江東区","address":"東京都江東区辰巳2丁目8-10","lat":35.64798406,"lon":139.81827674},{"name":"辰巳排水機場","province":"東京都","city":"江東区","address":"東京都江東区辰巳1丁目1-44","lat":35.64585906,"lon":139.80884708},{"name":"東雲水門","province":"東京都","city":"江東区","address":"東京都江東区豊洲5丁目6-5","lat":35.64934172,"lon":139.79785354},{"name":"東雲水門（水防倉庫）","province":"東京都","city":"江東区","address":"東京都江東区東雲1丁目1-19","lat":35.64832243,"lon":139.79913123},{"name":"豊洲水門","province":"東京都","city":"江東区","address":"東京都江東区越中島3丁目1-1","lat":35.66352618,"lon":139.79429253},{"name":"都立木場公園多目的広場","province":"東京都","city":"江東区","address":"東京都江東区平野4丁目6-1","lat":35.67676666,"lon":139.80756394},{"name":"江東区立若洲公園多目的広場","province":"東京都","city":"江東区","address":"東京都江東区若洲3丁目2-1","lat":35.61872983,"lon":139.83362144},{"name":"新砂運動場","province":"東京都","city":"江東区","address":"東京都江東区新砂3丁目9-1","lat":35.65732785,"lon":139.83512778},{"name":"都立亀戸中央公園多目的球技広場","province":"東京都","city":"江東区","address":"東京都江東区亀戸9丁目37","lat":35.70004774,"lon":139.83837624},{"name":"あそか病院ヘリポート","province":"東京都","city":"江東区","address":"東京都江東区住吉1丁目18-1","lat":35.68985944,"lon":139.81186088},{"name":"都立夢の島陸上競技場","province":"東京都","city":"江東区","address":"東京都江東区夢の島3丁目","lat":35.65190061,"lon":139.83152826},{"name":"東京海洋大学越中島キャンパス第２グラウンド","province":"東京都","city":"江東区","address":"東京都江東区越中島2丁目1-6","lat":35.66726738,"lon":139.79215102},{"name":"有明の丘防災拠点","province":"東京都","city":"江東区","address":"東京都江東区有明","lat":35.63803447,"lon":139.78857145},{"name":"都立猿江恩賜公園","province":"東京都","city":"江東区","address":"東京都江東区住吉2丁目","lat":35.6890929,"lon":139.81465768},{"name":"がん研究会有明病院ヘリポート","province":"東京都","city":"江東区","address":"東京都江東区有明3丁目8-31","lat":35.63434076,"lon":139.7949906},{"name":"江東区立潮見運動公園","province":"東京都","city":"江東区","address":"東京都江東区潮見1丁目","lat":35.65755231,"lon":139.81360185},{"name":"都立有明テニスの森公園","province":"東京都","city":"江東区","address":"東京都江東区有明2丁目","lat":35.64007061,"lon":139.79611521},{"name":"都立シンボルプロムナード公園","province":"東京都","city":"江東区","address":"東京都江東区青海1丁目","lat":35.62481633,"lon":139.77819791},{"name":"都立大島小松川公園少年運動場","province":"東京都","city":"江東区","address":"東京都江東区大島9丁目9","lat":35.68959623,"lon":139.84689815},{"name":"都立シンボルプロムナード公園","province":"東京都","city":"江東区","address":"東京都江東区青海1丁目","lat":35.62481633,"lon":139.77819791},{"name":"辰巳ふ頭","province":"東京都","city":"江東区","address":"東京都江東区辰巳3丁目","lat":35.64358463,"lon":139.81926852},{"name":"１０号地その１多目的ふ頭","province":"東京都","city":"江東区","address":"東京都江東区有明3丁目","lat":35.63159354,"lon":139.78818561},{"name":"１０号地ふ頭（フェリーふ頭含む）","province":"東京都","city":"江東区","address":"東京都江東区有明4丁目","lat":35.62489723,"lon":139.78831375},{"name":"青海コンテナふ頭","province":"東京都","city":"江東区","address":"東京都江東区青海2丁目","lat":35.61733141,"lon":139.78018715},{"name":"１５号地ふ頭","province":"東京都","city":"江東区","address":"東京都江東区若洲","lat":35.62564563,"lon":139.83287114},{"name":"東京へリポート","province":"東京都","city":"江東区","address":"東京都江東区新木場4丁目","lat":35.63819696,"lon":139.83789509},{"name":"基幹的広域防災拠点（有明の丘地区）","province":"東京都","city":"江東区","address":"江東区有明3-8-35","lat":35.63537,"lon":139.7941},{"name":"都営大江戸線清澄白河駅内備蓄倉庫","province":"東京都","city":"江東区","address":"江東区白河1-7-14","lat":35.68292,"lon":139.7989},{"name":"江東区","province":"東京都","city":"江東区","address":"江東区大島4-4-3","lat":35.68874,"lon":139.8273},{"name":"（株）メディセオ新東京ビル","province":"東京都","city":"江東区","address":"江東区佐賀2-8-20","lat":35.67896,"lon":139.7919},{"name":"東京都東京へリポート","province":"東京都","city":"江東区","address":"東京都江東区新木場4丁目7-28","lat":35.63601945,"lon":139.83727026},{"name":"毛利倉庫","province":"東京都","city":"江東区","address":"東京都江東区毛利2丁目1-12","lat":35.69027885,"lon":139.81657956},{"name":"塩浜倉庫","province":"東京都","city":"江東区","address":"東京都江東区塩浜2丁目26-13","lat":35.66510149,"lon":139.81544319},{"name":"清澄白河駅地下倉庫","province":"東京都","city":"江東区","address":"東京都江東区清澄3丁目","lat":35.68269931,"lon":139.7981106},{"name":"亀戸給水所","province":"東京都","city":"江東区","address":"東京都江東区亀戸2-6-50","lat":35.7001343,"lon":139.81999},{"name":"豊住給水所","province":"東京都","city":"江東区","address":"東京都江東区東陽6-1-8","lat":35.67504,"lon":139.810955},{"name":"江東給水所","province":"東京都","city":"江東区","address":"東京都江東区新砂3-6-17","lat":35.6654223,"lon":139.841327},{"name":"有明給水所","province":"東京都","city":"江東区","address":"東京都江東区有明3-1-8","lat":35.6308274,"lon":139.78544},{"name":"区立南砂三丁目公園","province":"東京都","city":"江東区","address":"東京都江東区南砂3-14-21","lat":35.670954,"lon":139.832646},{"name":"都立辰巳の森海浜公園","province":"東京都","city":"江東区","address":"東京都江東区辰巳2-1","lat":35.648004,"lon":139.812798},{"name":"毛利","province":"東京都","city":"江東区","address":"東京都江東区毛利2丁目1-12","lat":35.69027885,"lon":139.81657956},{"name":"塩浜","province":"東京都","city":"江東区","address":"東京都江東区塩浜2丁目26-13","lat":35.66510149,"lon":139.81544319},{"name":"清澄白河駅地下","province":"東京都","city":"江東区","address":"東京都江東区三好1丁目8","lat":35.68034954,"lon":139.79939054},{"name":"テレコムセンター","province":"東京都","city":"江東区","address":"東京都江東区青海2丁目5-10","lat":35.61733141,"lon":139.78018715},{"name":"江東病院","province":"東京都","city":"江東区","address":"東京都江東区大島6丁目8-5","lat":35.69029344,"lon":139.83408508},{"name":"あそか病院","province":"東京都","city":"江東区","address":"東京都江東区住吉1丁目18-1","lat":35.68985944,"lon":139.81186088},{"name":"順天堂大学医学部附属順天堂江東高齢者医療センター","province":"東京都","city":"江東区","address":"東京都江東区新砂3丁目3-20","lat":35.66528245,"lon":139.8334721},{"name":"がん研究会有明病院","province":"東京都","city":"江東区","address":"東京都江東区有明3丁目8-31","lat":35.63434076,"lon":139.7949906},{"name":"亀戸給水所","province":"東京都","city":"江東区","address":"東京都江東区亀戸2丁目6-50","lat":35.70101603,"lon":139.82130935},{"name":"豊住給水所","province":"東京都","city":"江東区","address":"東京都江東区東陽6丁目1-8","lat":35.67503913,"lon":139.81095502},{"name":"江東給水所","province":"東京都","city":"江東区","address":"東京都江東区新砂3丁目6-17","lat":35.66542149,"lon":139.84132701},{"name":"有明給水所","province":"東京都","city":"江東区","address":"東京都江東区有明3丁目1-8","lat":35.63082682,"lon":139.78543859},{"name":"区立南砂三丁目公園","province":"東京都","city":"江東区","address":"東京都江東区南砂3丁目14-21","lat":35.66960695,"lon":139.83337197},{"name":"都立辰巳の森海浜公園","province":"東京都","city":"江東区","address":"東京都江東区辰巳2丁目1","lat":35.64899491,"lon":139.81239389},{"name":"砂町排水機場","province":"東京都","city":"江東区","address":"東京都江東区新砂3丁目8","lat":35.65323126,"lon":139.84028308},{"name":"あけぼの水門","province":"東京都","city":"江東区","address":"東京都江東区辰巳2丁目8-10","lat":35.64798406,"lon":139.81827674},{"name":"辰巳排水機場","province":"東京都","city":"江東区","address":"東京都江東区辰巳1丁目1-44","lat":35.64585906,"lon":139.80884708},{"name":"東雲水門","province":"東京都","city":"江東区","address":"東京都江東区豊洲5丁目6-5","lat":35.64934172,"lon":139.79785354},{"name":"東雲水門（水防倉庫）","province":"東京都","city":"江東区","address":"東京都江東区東雲1丁目1-19","lat":35.64832243,"lon":139.79913123},{"name":"豊洲水門","province":"東京都","city":"江東区","address":"東京都江東区越中島3丁目1-1","lat":35.66352618,"lon":139.79429253},{"name":"都立木場公園多目的広場","province":"東京都","city":"江東区","address":"東京都江東区平野4丁目6-1","lat":35.67676666,"lon":139.80756394},{"name":"江東区立若洲公園多目的広場","province":"東京都","city":"江東区","address":"東京都江東区若洲3丁目2-1","lat":35.61872983,"lon":139.83362144},{"name":"新砂運動場","province":"東京都","city":"江東区","address":"東京都江東区新砂3丁目9-1","lat":35.65732785,"lon":139.83512778},{"name":"都立亀戸中央公園多目的球技広場","province":"東京都","city":"江東区","address":"東京都江東区亀戸9丁目37","lat":35.70004774,"lon":139.83837624},{"name":"あそか病院ヘリポート","province":"東京都","city":"江東区","address":"東京都江東区住吉1丁目18-1","lat":35.68985944,"lon":139.81186088},{"name":"都立夢の島陸上競技場","province":"東京都","city":"江東区","address":"東京都江東区夢の島3丁目","lat":35.65190061,"lon":139.83152826},{"name":"東京海洋大学越中島キャンパス第２グラウンド","province":"東京都","city":"江東区","address":"東京都江東区越中島2丁目1-6","lat":35.66726738,"lon":139.79215102},{"name":"有明の丘防災拠点","province":"東京都","city":"江東区","address":"東京都江東区有明","lat":35.63803447,"lon":139.78857145},{"name":"都立猿江恩賜公園","province":"東京都","city":"江東区","address":"東京都江東区住吉2丁目","lat":35.6890929,"lon":139.81465768},{"name":"がん研究会有明病院ヘリポート","province":"東京都","city":"江東区","address":"東京都江東区有明3丁目8-31","lat":35.63434076,"lon":139.7949906},{"name":"江東区立潮見運動公園","province":"東京都","city":"江東区","address":"東京都江東区潮見1丁目","lat":35.65755231,"lon":139.81360185},{"name":"都立有明テニスの森公園","province":"東京都","city":"江東区","address":"東京都江東区有明2丁目","lat":35.64007061,"lon":139.79611521},{"name":"都立シンボルプロムナード公園","province":"東京都","city":"江東区","address":"東京都江東区青海1丁目","lat":35.62481633,"lon":139.77819791},{"name":"都立大島小松川公園少年運動場","province":"東京都","city":"江東区","address":"東京都江東区大島9丁目9","lat":35.68959623,"lon":139.84689815},{"name":"都立シンボルプロムナード公園","province":"東京都","city":"江東区","address":"東京都江東区青海1丁目","lat":35.62481633,"lon":139.77819791},{"name":"基幹的広域防災拠点（有明の丘地区）","province":"東京都","city":"江東区","address":"江東区有明3-8-35","lat":35.63537,"lon":139.7941},{"name":"都営大江戸線清澄白河駅内備蓄倉庫","province":"東京都","city":"江東区","address":"江東区白河1-7-14","lat":35.68292,"lon":139.7989},{"name":"江東区","province":"東京都","city":"江東区","address":"江東区大島4-4-3","lat":35.68874,"lon":139.8273},{"name":"（株）メディセオ新東京ビル","province":"東京都","city":"江東区","address":"江東区佐賀2-8-20","lat":35.67896,"lon":139.7919},{"name":"毛利倉庫","province":"東京都","city":"江東区","address":"東京都江東区毛利2丁目1-12","lat":35.69027885,"lon":139.81657956},{"name":"塩浜倉庫","province":"東京都","city":"江東区","address":"東京都江東区塩浜2丁目26-13","lat":35.66510149,"lon":139.81544319},{"name":"清澄白河駅地下倉庫","province":"東京都","city":"江東区","address":"東京都江東区清澄3丁目","lat":35.68269931,"lon":139.7981106},{"name":"亀戸給水所","province":"東京都","city":"江東区","address":"東京都江東区亀戸2-6-50","lat":35.7001343,"lon":139.81999},{"name":"豊住給水所","province":"東京都","city":"江東区","address":"東京都江東区東陽6-1-8","lat":35.67504,"lon":139.810955},{"name":"江東給水所","province":"東京都","city":"江東区","address":"東京都江東区新砂3-6-17","lat":35.6654223,"lon":139.841327},{"name":"有明給水所","province":"東京都","city":"江東区","address":"東京都江東区有明3-1-8","lat":35.6308274,"lon":139.78544},{"name":"区立南砂三丁目公園","province":"東京都","city":"江東区","address":"東京都江東区南砂3-14-21","lat":35.670954,"lon":139.832646},{"name":"都立辰巳の森海浜公園","province":"東京都","city":"江東区","address":"東京都江東区辰巳2-1","lat":35.648004,"lon":139.812798},{"name":"毛利","province":"東京都","city":"江東区","address":"東京都江東区毛利2丁目1-12","lat":35.69027885,"lon":139.81657956},{"name":"塩浜","province":"東京都","city":"江東区","address":"東京都江東区塩浜2丁目26-13","lat":35.66510149,"lon":139.81544319},{"name":"清澄白河駅地下","province":"東京都","city":"江東区","address":"東京都江東区三好1丁目8","lat":35.68034954,"lon":139.79939054},{"name":"テレコムセンター","province":"東京都","city":"江東区","address":"東京都江東区青海2丁目5-10","lat":35.61733141,"lon":139.78018715},{"name":"江東病院","province":"東京都","city":"江東区","address":"東京都江東区大島6丁目8-5","lat":35.69029344,"lon":139.83408508},{"name":"あそか病院","province":"東京都","city":"江東区","address":"東京都江東区住吉1丁目18-1","lat":35.68985944,"lon":139.81186088},{"name":"順天堂大学医学部附属順天堂江東高齢者医療センター","province":"東京都","city":"江東区","address":"東京都江東区新砂3丁目3-20","lat":35.66528245,"lon":139.8334721},{"name":"がん研究会有明病院","province":"東京都","city":"江東区","address":"東京都江東区有明3丁目8-31","lat":35.63434076,"lon":139.7949906},{"name":"亀戸給水所","province":"東京都","city":"江東区","address":"東京都江東区亀戸2丁目6-50","lat":35.70101603,"lon":139.82130935},{"name":"豊住給水所","province":"東京都","city":"江東区","address":"東京都江東区東陽6丁目1-8","lat":35.67503913,"lon":139.81095502},{"name":"江東給水所","province":"東京都","city":"江東区","address":"東京都江東区新砂3丁目6-17","lat":35.66542149,"lon":139.84132701},{"name":"有明給水所","province":"東京都","city":"江東区","address":"東京都江東区有明3丁目1-8","lat":35.63082682,"lon":139.78543859},{"name":"区立南砂三丁目公園","province":"東京都","city":"江東区","address":"東京都江東区南砂3丁目14-21","lat":35.66960695,"lon":139.83337197},{"name":"都立辰巳の森海浜公園","province":"東京都","city":"江東区","address":"東京都江東区辰巳2丁目1","lat":35.64899491,"lon":139.81239389},{"name":"砂町排水機場","province":"東京都","city":"江東区","address":"東京都江東区新砂3丁目8","lat":35.65323126,"lon":139.84028308},{"name":"あけぼの水門","province":"東京都","city":"江東区","address":"東京都江東区辰巳2丁目8-10","lat":35.64798406,"lon":139.81827674},{"name":"辰巳排水機場","province":"東京都","city":"江東区","address":"東京都江東区辰巳1丁目1-44","lat":35.64585906,"lon":139.80884708},{"name":"東雲水門","province":"東京都","city":"江東区","address":"東京都江東区豊洲5丁目6-5","lat":35.64934172,"lon":139.79785354},{"name":"東雲水門（水防倉庫）","province":"東京都","city":"江東区","address":"東京都江東区東雲1丁目1-19","lat":35.64832243,"lon":139.79913123},{"name":"豊洲水門","province":"東京都","city":"江東区","address":"東京都江東区越中島3丁目1-1","lat":35.66352618,"lon":139.79429253},{"name":"都立木場公園多目的広場","province":"東京都","city":"江東区","address":"東京都江東区平野4丁目6-1","lat":35.67676666,"lon":139.80756394},{"name":"江東区立若洲公園多目的広場","province":"東京都","city":"江東区","address":"東京都江東区若洲3丁目2-1","lat":35.61872983,"lon":139.83362144},{"name":"新砂運動場","province":"東京都","city":"江東区","address":"東京都江東区新砂3丁目9-1","lat":35.65732785,"lon":139.83512778},{"name":"都立亀戸中央公園多目的球技広場","province":"東京都","city":"江東区","address":"東京都江東区亀戸9丁目37","lat":35.70004774,"lon":139.83837624},{"name":"あそか病院ヘリポート","province":"東京都","city":"江東区","address":"東京都江東区住吉1丁目18-1","lat":35.68985944,"lon":139.81186088},{"name":"都立夢の島陸上競技場","province":"東京都","city":"江東区","address":"東京都江東区夢の島3丁目","lat":35.65190061,"lon":139.83152826},{"name":"東京海洋大学越中島キャンパス第２グラウンド","province":"東京都","city":"江東区","address":"東京都江東区越中島2丁目1-6","lat":35.66726738,"lon":139.79215102},{"name":"有明の丘防災拠点","province":"東京都","city":"江東区","address":"東京都江東区有明","lat":35.63803447,"lon":139.78857145},{"name":"都立猿江恩賜公園","province":"東京都","city":"江東区","address":"東京都江東区住吉2丁目","lat":35.6890929,"lon":139.81465768},{"name":"がん研究会有明病院ヘリポート","province":"東京都","city":"江東区","address":"東京都江東区有明3丁目8-31","lat":35.63434076,"lon":139.7949906},{"name":"江東区立潮見運動公園","province":"東京都","city":"江東区","address":"東京都江東区潮見1丁目","lat":35.65755231,"lon":139.81360185},{"name":"都立有明テニスの森公園","province":"東京都","city":"江東区","address":"東京都江東区有明2丁目","lat":35.64007061,"lon":139.79611521},{"name":"都立シンボルプロムナード公園","province":"東京都","city":"江東区","address":"東京都江東区青海1丁目","lat":35.62481633,"lon":139.77819791},{"name":"都立大島小松川公園少年運動場","province":"東京都","city":"江東区","address":"東京都江東区大島9丁目9","lat":35.68959623,"lon":139.84689815},{"name":"都立シンボルプロムナード公園","province":"東京都","city":"江東区","address":"東京都江東区青海1丁目","lat":35.62481633,"lon":139.77819791},{"name":"基幹的広域防災拠点（有明の丘地区）","province":"東京都","city":"江東区","address":"江東区有明3-8-35","lat":35.63537,"lon":139.7941},{"name":"都営大江戸線清澄白河駅内備蓄倉庫","province":"東京都","city":"江東区","address":"江東区白河1-7-14","lat":35.68292,"lon":139.7989},{"name":"江東区","province":"東京都","city":"江東区","address":"江東区大島4-4-3","lat":35.68874,"lon":139.8273},{"name":"（株）メディセオ新東京ビル","province":"東京都","city":"江東区","address":"江東区佐賀2-8-20","lat":35.67896,"lon":139.7919},{"name":"毛利倉庫","province":"東京都","city":"江東区","address":"東京都江東区毛利2丁目1-12","lat":35.69027885,"lon":139.81657956},{"name":"塩浜倉庫","province":"東京都","city":"江東区","address":"東京都江東区塩浜2丁目26-13","lat":35.66510149,"lon":139.81544319},{"name":"清澄白河駅地下倉庫","province":"東京都","city":"江東区","address":"東京都江東区清澄3丁目","lat":35.68269931,"lon":139.7981106},{"name":"亀戸給水所","province":"東京都","city":"江東区","address":"東京都江東区亀戸2-6-50","lat":35.7001343,"lon":139.81999},{"name":"豊住給水所","province":"東京都","city":"江東区","address":"東京都江東区東陽6-1-8","lat":35.67504,"lon":139.810955},{"name":"江東給水所","province":"東京都","city":"江東区","address":"東京都江東区新砂3-6-17","lat":35.6654223,"lon":139.841327},{"name":"有明給水所","province":"東京都","city":"江東区","address":"東京都江東区有明3-1-8","lat":35.6308274,"lon":139.78544},{"name":"区立南砂三丁目公園","province":"東京都","city":"江東区","address":"東京都江東区南砂3-14-21","lat":35.670954,"lon":139.832646},{"name":"都立辰巳の森海浜公園","province":"東京都","city":"江東区","address":"東京都江東区辰巳2-1","lat":35.648004,"lon":139.812798},{"name":"毛利","province":"東京都","city":"江東区","address":"東京都江東区毛利2丁目1-12","lat":35.69027885,"lon":139.81657956},{"name":"塩浜","province":"東京都","city":"江東区","address":"東京都江東区塩浜2丁目26-13","lat":35.66510149,"lon":139.81544319},{"name":"清澄白河駅地下","province":"東京都","city":"江東区","address":"東京都江東区三好1丁目8","lat":35.68034954,"lon":139.79939054},{"name":"テレコムセンター","province":"東京都","city":"江東区","address":"東京都江東区青海2丁目5-10","lat":35.61733141,"lon":139.78018715},{"name":"江東病院","province":"東京都","city":"江東区","address":"東京都江東区大島6丁目8-5","lat":35.69029344,"lon":139.83408508},{"name":"あそか病院","province":"東京都","city":"江東区","address":"東京都江東区住吉1丁目18-1","lat":35.68985944,"lon":139.81186088},{"name":"順天堂大学医学部附属順天堂江東高齢者医療センター","province":"東京都","city":"江東区","address":"東京都江東区新砂3丁目3-20","lat":35.66528245,"lon":139.8334721},{"name":"がん研究会有明病院","province":"東京都","city":"江東区","address":"東京都江東区有明3丁目8-31","lat":35.63434076,"lon":139.7949906},{"name":"砂町排水機場","province":"東京都","city":"江東区","address":"東京都江東区新砂3丁目8","lat":35.65323126,"lon":139.84028308},{"name":"あけぼの水門","province":"東京都","city":"江東区","address":"東京都江東区辰巳2丁目8-10","lat":35.64798406,"lon":139.81827674},{"name":"辰巳排水機場","province":"東京都","city":"江東区","address":"東京都江東区辰巳1丁目1-44","lat":35.64585906,"lon":139.80884708},{"name":"東雲水門","province":"東京都","city":"江東区","address":"東京都江東区豊洲5丁目6-5","lat":35.64934172,"lon":139.79785354},{"name":"東雲水門（水防倉庫）","province":"東京都","city":"江東区","address":"東京都江東区東雲1丁目1-19","lat":35.64832243,"lon":139.79913123},{"name":"豊洲水門","province":"東京都","city":"江東区","address":"東京都江東区越中島3丁目1-1","lat":35.66352618,"lon":139.79429253},{"name":"都立木場公園多目的広場","province":"東京都","city":"江東区","address":"東京都江東区平野4丁目6-1","lat":35.67676666,"lon":139.80756394},{"name":"江東区立若洲公園多目的広場","province":"東京都","city":"江東区","address":"東京都江東区若洲3丁目2-1","lat":35.61872983,"lon":139.83362144},{"name":"新砂運動場","province":"東京都","city":"江東区","address":"東京都江東区新砂3丁目9-1","lat":35.65732785,"lon":139.83512778},{"name":"都立亀戸中央公園多目的球技広場","province":"東京都","city":"江東区","address":"東京都江東区亀戸9丁目37","lat":35.70004774,"lon":139.83837624},{"name":"あそか病院ヘリポート","province":"東京都","city":"江東区","address":"東京都江東区住吉1丁目18-1","lat":35.68985944,"lon":139.81186088},{"name":"都立夢の島陸上競技場","province":"東京都","city":"江東区","address":"東京都江東区夢の島3丁目","lat":35.65190061,"lon":139.83152826},{"name":"東京海洋大学越中島キャンパス第２グラウンド","province":"東京都","city":"江東区","address":"東京都江東区越中島2丁目1-6","lat":35.66726738,"lon":139.79215102},{"name":"有明の丘防災拠点","province":"東京都","city":"江東区","address":"東京都江東区有明","lat":35.63803447,"lon":139.78857145},{"name":"都立猿江恩賜公園","province":"東京都","city":"江東区","address":"東京都江東区住吉2丁目","lat":35.6890929,"lon":139.81465768},{"name":"がん研究会有明病院ヘリポート","province":"東京都","city":"江東区","address":"東京都江東区有明3丁目8-31","lat":35.63434076,"lon":139.7949906},{"name":"江東区立潮見運動公園","province":"東京都","city":"江東区","address":"東京都江東区潮見1丁目","lat":35.65755231,"lon":139.81360185},{"name":"都立有明テニスの森公園","province":"東京都","city":"江東区","address":"東京都江東区有明2丁目","lat":35.64007061,"lon":139.79611521},{"name":"都立シンボルプロムナード公園","province":"東京都","city":"江東区","address":"東京都江東区青海1丁目","lat":35.62481633,"lon":139.77819791},{"name":"都立大島小松川公園少年運動場","province":"東京都","city":"江東区","address":"東京都江東区大島9丁目9","lat":35.68959623,"lon":139.84689815},{"name":"都立シンボルプロムナード公園","province":"東京都","city":"江東区","address":"東京都江東区青海1丁目","lat":35.62481633,"lon":139.77819791},{"name":"基幹的広域防災拠点（有明の丘地区）","province":"東京都","city":"江東区","address":"江東区有明3-8-35","lat":35.63537,"lon":139.7941},{"name":"都営大江戸線清澄白河駅内備蓄倉庫","province":"東京都","city":"江東区","address":"江東区白河1-7-14","lat":35.68292,"lon":139.7989},{"name":"江東区","province":"東京都","city":"江東区","address":"江東区大島4-4-3","lat":35.68874,"lon":139.8273},{"name":"（株）メディセオ新東京ビル","province":"東京都","city":"江東区","address":"江東区佐賀2-8-20","lat":35.67896,"lon":139.7919},{"name":"毛利倉庫","province":"東京都","city":"江東区","address":"東京都江東区毛利2丁目1-12","lat":35.69027885,"lon":139.81657956},{"name":"塩浜倉庫","province":"東京都","city":"江東区","address":"東京都江東区塩浜2丁目26-13","lat":35.66510149,"lon":139.81544319},{"name":"清澄白河駅地下倉庫","province":"東京都","city":"江東区","address":"東京都江東区清澄3丁目","lat":35.68269931,"lon":139.7981106},{"name":"亀戸給水所","province":"東京都","city":"江東区","address":"東京都江東区亀戸2-6-50","lat":35.7001343,"lon":139.81999},{"name":"豊住給水所","province":"東京都","city":"江東区","address":"東京都江東区東陽6-1-8","lat":35.67504,"lon":139.810955},{"name":"江東給水所","province":"東京都","city":"江東区","address":"東京都江東区新砂3-6-17","lat":35.6654223,"lon":139.841327},{"name":"有明給水所","province":"東京都","city":"江東区","address":"東京都江東区有明3-1-8","lat":35.6308274,"lon":139.78544},{"name":"区立南砂三丁目公園","province":"東京都","city":"江東区","address":"東京都江東区南砂3-14-21","lat":35.670954,"lon":139.832646},{"name":"都立辰巳の森海浜公園","province":"東京都","city":"江東区","address":"東京都江東区辰巳2-1","lat":35.648004,"lon":139.812798},{"name":"毛利","province":"東京都","city":"江東区","address":"東京都江東区毛利2丁目1-12","lat":35.69027885,"lon":139.81657956},{"name":"塩浜","province":"東京都","city":"江東区","address":"東京都江東区塩浜2丁目26-13","lat":35.66510149,"lon":139.81544319},{"name":"清澄白河駅地下","province":"東京都","city":"江東区","address":"東京都江東区三好1丁目8","lat":35.68034954,"lon":139.79939054},{"name":"テレコムセンター","province":"東京都","city":"江東区","address":"東京都江東区青海2丁目5-10","lat":35.61733141,"lon":139.78018715},{"name":"江東病院","province":"東京都","city":"江東区","address":"東京都江東区大島6丁目8-5","lat":35.69029344,"lon":139.83408508},{"name":"あそか病院","province":"東京都","city":"江東区","address":"東京都江東区住吉1丁目18-1","lat":35.68985944,"lon":139.81186088},{"name":"順天堂大学医学部附属順天堂江東高齢者医療センター","province":"東京都","city":"江東区","address":"東京都江東区新砂3丁目3-20","lat":35.66528245,"lon":139.8334721},{"name":"がん研究会有明病院","province":"東京都","city":"江東区","address":"東京都江東区有明3丁目8-31","lat":35.63434076,"lon":139.7949906},{"name":"砂町排水機場","province":"東京都","city":"江東区","address":"東京都江東区新砂3丁目8","lat":35.65323126,"lon":139.84028308},{"name":"あけぼの水門","province":"東京都","city":"江東区","address":"東京都江東区辰巳2丁目8-10","lat":35.64798406,"lon":139.81827674},{"name":"辰巳排水機場","province":"東京都","city":"江東区","address":"東京都江東区辰巳1丁目1-44","lat":35.64585906,"lon":139.80884708},{"name":"東雲水門","province":"東京都","city":"江東区","address":"東京都江東区豊洲5丁目6-5","lat":35.64934172,"lon":139.79785354},{"name":"東雲水門（水防倉庫）","province":"東京都","city":"江東区","address":"東京都江東区東雲1丁目1-19","lat":35.64832243,"lon":139.79913123},{"name":"豊洲水門","province":"東京都","city":"江東区","address":"東京都江東区越中島3丁目1-1","lat":35.66352618,"lon":139.79429253},{"name":"基幹的広域防災拠点（有明の丘地区）","province":"東京都","city":"江東区","address":"江東区有明3-8-35","lat":35.63537,"lon":139.7941},{"name":"都営大江戸線清澄白河駅内備蓄倉庫","province":"東京都","city":"江東区","address":"江東区白河1-7-14","lat":35.68292,"lon":139.7989},{"name":"江東区","province":"東京都","city":"江東区","address":"江東区大島4-4-3","lat":35.68874,"lon":139.8273},{"name":"（株）メディセオ新東京ビル","province":"東京都","city":"江東区","address":"江東区佐賀2-8-20","lat":35.67896,"lon":139.7919},{"name":"毛利倉庫","province":"東京都","city":"江東区","address":"東京都江東区毛利2丁目1-12","lat":35.69027885,"lon":139.81657956},{"name":"塩浜倉庫","province":"東京都","city":"江東区","address":"東京都江東区塩浜2丁目26-13","lat":35.66510149,"lon":139.81544319},{"name":"清澄白河駅地下倉庫","province":"東京都","city":"江東区","address":"東京都江東区清澄3丁目","lat":35.68269931,"lon":139.7981106},{"name":"亀戸給水所","province":"東京都","city":"江東区","address":"東京都江東区亀戸2-6-50","lat":35.7001343,"lon":139.81999},{"name":"豊住給水所","province":"東京都","city":"江東区","address":"東京都江東区東陽6-1-8","lat":35.67504,"lon":139.810955},{"name":"江東給水所","province":"東京都","city":"江東区","address":"東京都江東区新砂3-6-17","lat":35.6654223,"lon":139.841327},{"name":"有明給水所","province":"東京都","city":"江東区","address":"東京都江東区有明3-1-8","lat":35.6308274,"lon":139.78544},{"name":"区立南砂三丁目公園","province":"東京都","city":"江東区","address":"東京都江東区南砂3-14-21","lat":35.670954,"lon":139.832646},{"name":"都立辰巳の森海浜公園","province":"東京都","city":"江東区","address":"東京都江東区辰巳2-1","lat":35.648004,"lon":139.812798},{"name":"毛利","province":"東京都","city":"江東区","address":"東京都江東区毛利2丁目1-12","lat":35.69027885,"lon":139.81657956},{"name":"塩浜","province":"東京都","city":"江東区","address":"東京都江東区塩浜2丁目26-13","lat":35.66510149,"lon":139.81544319},{"name":"清澄白河駅地下","province":"東京都","city":"江東区","address":"東京都江東区三好1丁目8","lat":35.68034954,"lon":139.79939054},{"name":"テレコムセンター","province":"東京都","city":"江東区","address":"東京都江東区青海2丁目5-10","lat":35.61733141,"lon":139.78018715},{"name":"江東病院","province":"東京都","city":"江東区","address":"東京都江東区大島6丁目8-5","lat":35.69029344,"lon":139.83408508},{"name":"あそか病院","province":"東京都","city":"江東区","address":"東京都江東区住吉1丁目18-1","lat":35.68985944,"lon":139.81186088},{"name":"順天堂大学医学部附属順天堂江東高齢者医療センター","province":"東京都","city":"江東区","address":"東京都江東区新砂3丁目3-20","lat":35.66528245,"lon":139.8334721},{"name":"がん研究会有明病院","province":"東京都","city":"江東区","address":"東京都江東区有明3丁目8-31","lat":35.63434076,"lon":139.7949906},{"name":"砂町排水機場","province":"東京都","city":"江東区","address":"東京都江東区新砂3丁目8","lat":35.65323126,"lon":139.84028308},{"name":"あけぼの水門","province":"東京都","city":"江東区","address":"東京都江東区辰巳2丁目8-10","lat":35.64798406,"lon":139.81827674},{"name":"辰巳排水機場","province":"東京都","city":"江東区","address":"東京都江東区辰巳1丁目1-44","lat":35.64585906,"lon":139.80884708},{"name":"東雲水門","province":"東京都","city":"江東区","address":"東京都江東区豊洲5丁目6-5","lat":35.64934172,"lon":139.79785354},{"name":"東雲水門（水防倉庫）","province":"東京都","city":"江東区","address":"東京都江東区東雲1丁目1-19","lat":35.64832243,"lon":139.79913123},{"name":"豊洲水門","province":"東京都","city":"江東区","address":"東京都江東区越中島3丁目1-1","lat":35.66352618,"lon":139.79429253},{"name":"基幹的広域防災拠点（有明の丘地区）","province":"東京都","city":"江東区","address":"江東区有明3-8-35","lat":35.63537,"lon":139.7941},{"name":"都営大江戸線清澄白河駅内備蓄倉庫","province":"東京都","city":"江東区","address":"江東区白河1-7-14","lat":35.68292,"lon":139.7989},{"name":"江東区","province":"東京都","city":"江東区","address":"江東区大島4-4-3","lat":35.68874,"lon":139.8273},{"name":"（株）メディセオ新東京ビル","province":"東京都","city":"江東区","address":"江東区佐賀2-8-20","lat":35.67896,"lon":139.7919},{"name":"毛利倉庫","province":"東京都","city":"江東区","address":"東京都江東区毛利2丁目1-12","lat":35.69027885,"lon":139.81657956},{"name":"塩浜倉庫","province":"東京都","city":"江東区","address":"東京都江東区塩浜2丁目26-13","lat":35.66510149,"lon":139.81544319},{"name":"清澄白河駅地下倉庫","province":"東京都","city":"江東区","address":"東京都江東区清澄3丁目","lat":35.68269931,"lon":139.7981106},{"name":"亀戸給水所","province":"東京都","city":"江東区","address":"東京都江東区亀戸2-6-50","lat":35.7001343,"lon":139.81999},{"name":"豊住給水所","province":"東京都","city":"江東区","address":"東京都江東区東陽6-1-8","lat":35.67504,"lon":139.810955},{"name":"江東給水所","province":"東京都","city":"江東区","address":"東京都江東区新砂3-6-17","lat":35.6654223,"lon":139.841327},{"name":"有明給水所","province":"東京都","city":"江東区","address":"東京都江東区有明3-1-8","lat":35.6308274,"lon":139.78544},{"name":"区立南砂三丁目公園","province":"東京都","city":"江東区","address":"東京都江東区南砂3-14-21","lat":35.670954,"lon":139.832646},{"name":"都立辰巳の森海浜公園","province":"東京都","city":"江東区","address":"東京都江東区辰巳2-1","lat":35.648004,"lon":139.812798},{"name":"毛利","province":"東京都","city":"江東区","address":"東京都江東区毛利2丁目1-12","lat":35.69027885,"lon":139.81657956},{"name":"塩浜","province":"東京都","city":"江東区","address":"東京都江東区塩浜2丁目26-13","lat":35.66510149,"lon":139.81544319},{"name":"清澄白河駅地下","province":"東京都","city":"江東区","address":"東京都江東区三好1丁目8","lat":35.68034954,"lon":139.79939054},{"name":"テレコムセンター","province":"東京都","city":"江東区","address":"東京都江東区青海2丁目5-10","lat":35.61733141,"lon":139.78018715},{"name":"江東病院","province":"東京都","city":"江東区","address":"東京都江東区大島6丁目8-5","lat":35.69029344,"lon":139.83408508},{"name":"あそか病院","province":"東京都","city":"江東区","address":"東京都江東区住吉1丁目18-1","lat":35.68985944,"lon":139.81186088},{"name":"順天堂大学医学部附属順天堂江東高齢者医療センター","province":"東京都","city":"江東区","address":"東京都江東区新砂3丁目3-20","lat":35.66528245,"lon":139.8334721},{"name":"がん研究会有明病院","province":"東京都","city":"江東区","address":"東京都江東区有明3丁目8-31","lat":35.63434076,"lon":139.7949906},{"name":"砂町排水機場","province":"東京都","city":"江東区","address":"東京都江東区新砂3丁目8","lat":35.65323126,"lon":139.84028308},{"name":"あけぼの水門","province":"東京都","city":"江東区","address":"東京都江東区辰巳2丁目8-10","lat":35.64798406,"lon":139.81827674},{"name":"辰巳排水機場","province":"東京都","city":"江東区","address":"東京都江東区辰巳1丁目1-44","lat":35.64585906,"lon":139.80884708},{"name":"東雲水門","province":"東京都","city":"江東区","address":"東京都江東区豊洲5丁目6-5","lat":35.64934172,"lon":139.79785354},{"name":"東雲水門（水防倉庫）","province":"東京都","city":"江東区","address":"東京都江東区東雲1丁目1-19","lat":35.64832243,"lon":139.79913123},{"name":"豊洲水門","province":"東京都","city":"江東区","address":"東京都江東区越中島3丁目1-1","lat":35.66352618,"lon":139.79429253},{"name":"基幹的広域防災拠点（有明の丘地区）","province":"東京都","city":"江東区","address":"江東区有明3-8-35","lat":35.63537,"lon":139.7941},{"name":"都営大江戸線清澄白河駅内備蓄倉庫","province":"東京都","city":"江東区","address":"江東区白河1-7-14","lat":35.68292,"lon":139.7989},{"name":"江東区","province":"東京都","city":"江東区","address":"江東区大島4-4-3","lat":35.68874,"lon":139.8273},{"name":"（株）メディセオ新東京ビル","province":"東京都","city":"江東区","address":"江東区佐賀2-8-20","lat":35.67896,"lon":139.7919},{"name":"毛利倉庫","province":"東京都","city":"江東区","address":"東京都江東区毛利2丁目1-12","lat":35.69027885,"lon":139.81657956},{"name":"塩浜倉庫","province":"東京都","city":"江東区","address":"東京都江東区塩浜2丁目26-13","lat":35.66510149,"lon":139.81544319},{"name":"清澄白河駅地下倉庫","province":"東京都","city":"江東区","address":"東京都江東区清澄3丁目","lat":35.68269931,"lon":139.7981106},{"name":"亀戸給水所","province":"東京都","city":"江東区","address":"東京都江東区亀戸2-6-50","lat":35.7001343,"lon":139.81999},{"name":"豊住給水所","province":"東京都","city":"江東区","address":"東京都江東区東陽6-1-8","lat":35.67504,"lon":139.810955},{"name":"江東給水所","province":"東京都","city":"江東区","address":"東京都江東区新砂3-6-17","lat":35.6654223,"lon":139.841327},{"name":"有明給水所","province":"東京都","city":"江東区","address":"東京都江東区有明3-1-8","lat":35.6308274,"lon":139.78544},{"name":"区立南砂三丁目公園","province":"東京都","city":"江東区","address":"東京都江東区南砂3-14-21","lat":35.670954,"lon":139.832646},{"name":"都立辰巳の森海浜公園","province":"東京都","city":"江東区","address":"東京都江東区辰巳2-1","lat":35.648004,"lon":139.812798},{"name":"毛利","province":"東京都","city":"江東区","address":"東京都江東区毛利2丁目1-12","lat":35.69027885,"lon":139.81657956},{"name":"塩浜","province":"東京都","city":"江東区","address":"東京都江東区塩浜2丁目26-13","lat":35.66510149,"lon":139.81544319},{"name":"清澄白河駅地下","province":"東京都","city":"江東区","address":"東京都江東区三好1丁目8","lat":35.68034954,"lon":139.79939054},{"name":"テレコムセンター","province":"東京都","city":"江東区","address":"東京都江東区青海2丁目5-10","lat":35.61733141,"lon":139.78018715},{"name":"江東病院","province":"東京都","city":"江東区","address":"東京都江東区大島6丁目8-5","lat":35.69029344,"lon":139.83408508},{"name":"あそか病院","province":"東京都","city":"江東区","address":"東京都江東区住吉1丁目18-1","lat":35.68985944,"lon":139.81186088},{"name":"順天堂大学医学部附属順天堂江東高齢者医療センター","province":"東京都","city":"江東区","address":"東京都江東区新砂3丁目3-20","lat":35.66528245,"lon":139.8334721},{"name":"がん研究会有明病院","province":"東京都","city":"江東区","address":"東京都江東区有明3丁目8-31","lat":35.63434076,"lon":139.7949906},{"name":"砂町排水機場","province":"東京都","city":"江東区","address":"東京都江東区新砂3丁目8","lat":35.65323126,"lon":139.84028308},{"name":"あけぼの水門","province":"東京都","city":"江東区","address":"東京都江東区辰巳2丁目8-10","lat":35.64798406,"lon":139.81827674},{"name":"辰巳排水機場","province":"東京都","city":"江東区","address":"東京都江東区辰巳1丁目1-44","lat":35.64585906,"lon":139.80884708},{"name":"東雲水門","province":"東京都","city":"江東区","address":"東京都江東区豊洲5丁目6-5","lat":35.64934172,"lon":139.79785354},{"name":"東雲水門（水防倉庫）","province":"東京都","city":"江東区","address":"東京都江東区東雲1丁目1-19","lat":35.64832243,"lon":139.79913123},{"name":"豊洲水門","province":"東京都","city":"江東区","address":"東京都江東区越中島3丁目1-1","lat":35.66352618,"lon":139.79429253},{"name":"基幹的広域防災拠点（有明の丘地区）","province":"東京都","city":"江東区","address":"江東区有明3-8-35","lat":35.63537,"lon":139.7941},{"name":"都営大江戸線清澄白河駅内備蓄倉庫","province":"東京都","city":"江東区","address":"江東区白河1-7-14","lat":35.68292,"lon":139.7989},{"name":"江東区","province":"東京都","city":"江東区","address":"江東区大島4-4-3","lat":35.68874,"lon":139.8273},{"name":"（株）メディセオ新東京ビル","province":"東京都","city":"江東区","address":"江東区佐賀2-8-20","lat":35.67896,"lon":139.7919},{"name":"毛利倉庫","province":"東京都","city":"江東区","address":"東京都江東区毛利2丁目1-12","lat":35.69027885,"lon":139.81657956},{"name":"塩浜倉庫","province":"東京都","city":"江東区","address":"東京都江東区塩浜2丁目26-13","lat":35.66510149,"lon":139.81544319},{"name":"清澄白河駅地下倉庫","province":"東京都","city":"江東区","address":"東京都江東区清澄3丁目","lat":35.68269931,"lon":139.7981106},{"name":"亀戸給水所","province":"東京都","city":"江東区","address":"東京都江東区亀戸2-6-50","lat":35.7001343,"lon":139.81999},{"name":"豊住給水所","province":"東京都","city":"江東区","address":"東京都江東区東陽6-1-8","lat":35.67504,"lon":139.810955},{"name":"江東給水所","province":"東京都","city":"江東区","address":"東京都江東区新砂3-6-17","lat":35.6654223,"lon":139.841327},{"name":"有明給水所","province":"東京都","city":"江東区","address":"東京都江東区有明3-1-8","lat":35.6308274,"lon":139.78544},{"name":"区立南砂三丁目公園","province":"東京都","city":"江東区","address":"東京都江東区南砂3-14-21","lat":35.670954,"lon":139.832646},{"name":"都立辰巳の森海浜公園","province":"東京都","city":"江東区","address":"東京都江東区辰巳2-1","lat":35.648004,"lon":139.812798},{"name":"毛利","province":"東京都","city":"江東区","address":"東京都江東区毛利2丁目1-12","lat":35.69027885,"lon":139.81657956},{"name":"塩浜","province":"東京都","city":"江東区","address":"東京都江東区塩浜2丁目26-13","lat":35.66510149,"lon":139.81544319},{"name":"清澄白河駅地下","province":"東京都","city":"江東区","address":"東京都江東区三好1丁目8","lat":35.68034954,"lon":139.79939054},{"name":"テレコムセンター","province":"東京都","city":"江東区","address":"東京都江東区青海2丁目5-10","lat":35.61733141,"lon":139.78018715},{"name":"江東病院","province":"東京都","city":"江東区","address":"東京都江東区大島6丁目8-5","lat":35.69029344,"lon":139.83408508},{"name":"あそか病院","province":"東京都","city":"江東区","address":"東京都江東区住吉1丁目18-1","lat":35.68985944,"lon":139.81186088},{"name":"順天堂大学医学部附属順天堂江東高齢者医療センター","province":"東京都","city":"江東区","address":"東京都江東区新砂3丁目3-20","lat":35.66528245,"lon":139.8334721},{"name":"がん研究会有明病院","province":"東京都","city":"江東区","address":"東京都江東区有明3丁目8-31","lat":35.63434076,"lon":139.7949906},{"name":"砂町排水機場","province":"東京都","city":"江東区","address":"東京都江東区新砂3丁目8","lat":35.65323126,"lon":139.84028308},{"name":"あけぼの水門","province":"東京都","city":"江東区","address":"東京都江東区辰巳2丁目8-10","lat":35.64798406,"lon":139.81827674},{"name":"辰巳排水機場","province":"東京都","city":"江東区","address":"東京都江東区辰巳1丁目1-44","lat":35.64585906,"lon":139.80884708},{"name":"東雲水門","province":"東京都","city":"江東区","address":"東京都江東区豊洲5丁目6-5","lat":35.64934172,"lon":139.79785354},{"name":"東雲水門（水防倉庫）","province":"東京都","city":"江東区","address":"東京都江東区東雲1丁目1-19","lat":35.64832243,"lon":139.79913123},{"name":"豊洲水門","province":"東京都","city":"江東区","address":"東京都江東区越中島3丁目1-1","lat":35.66352618,"lon":139.79429253},{"name":"基幹的広域防災拠点（有明の丘地区）","province":"東京都","city":"江東区","address":"江東区有明3-8-35","lat":35.63537,"lon":139.7941},{"name":"都営大江戸線清澄白河駅内備蓄倉庫","province":"東京都","city":"江東区","address":"江東区白河1-7-14","lat":35.68292,"lon":139.7989},{"name":"江東区","province":"東京都","city":"江東区","address":"江東区大島4-4-3","lat":35.68874,"lon":139.8273},{"name":"（株）メディセオ新東京ビル","province":"東京都","city":"江東区","address":"江東区佐賀2-8-20","lat":35.67896,"lon":139.7919},{"name":"毛利倉庫","province":"東京都","city":"江東区","address":"東京都江東区毛利2丁目1-12","lat":35.69027885,"lon":139.81657956},{"name":"塩浜倉庫","province":"東京都","city":"江東区","address":"東京都江東区塩浜2丁目26-13","lat":35.66510149,"lon":139.81544319},{"name":"清澄白河駅地下倉庫","province":"東京都","city":"江東区","address":"東京都江東区清澄3丁目","lat":35.68269931,"lon":139.7981106},{"name":"亀戸給水所","province":"東京都","city":"江東区","address":"東京都江東区亀戸2-6-50","lat":35.7001343,"lon":139.81999},{"name":"豊住給水所","province":"東京都","city":"江東区","address":"東京都江東区東陽6-1-8","lat":35.67504,"lon":139.810955},{"name":"江東給水所","province":"東京都","city":"江東区","address":"東京都江東区新砂3-6-17","lat":35.6654223,"lon":139.841327},{"name":"有明給水所","province":"東京都","city":"江東区","address":"東京都江東区有明3-1-8","lat":35.6308274,"lon":139.78544},{"name":"区立南砂三丁目公園","province":"東京都","city":"江東区","address":"東京都江東区南砂3-14-21","lat":35.670954,"lon":139.832646},{"name":"都立辰巳の森海浜公園","province":"東京都","city":"江東区","address":"東京都江東区辰巳2-1","lat":35.648004,"lon":139.812798},{"name":"毛利","province":"東京都","city":"江東区","address":"東京都江東区毛利2丁目1-12","lat":35.69027885,"lon":139.81657956},{"name":"塩浜","province":"東京都","city":"江東区","address":"東京都江東区塩浜2丁目26-13","lat":35.66510149,"lon":139.81544319},{"name":"清澄白河駅地下","province":"東京都","city":"江東区","address":"東京都江東区三好1丁目8","lat":35.68034954,"lon":139.79939054},{"name":"テレコムセンター","province":"東京都","city":"江東区","address":"東京都江東区青海2丁目5-10","lat":35.61733141,"lon":139.78018715},{"name":"江東病院","province":"東京都","city":"江東区","address":"東京都江東区大島6丁目8-5","lat":35.69029344,"lon":139.83408508},{"name":"あそか病院","province":"東京都","city":"江東区","address":"東京都江東区住吉1丁目18-1","lat":35.68985944,"lon":139.81186088},{"name":"順天堂大学医学部附属順天堂江東高齢者医療センター","province":"東京都","city":"江東区","address":"東京都江東区新砂3丁目3-20","lat":35.66528245,"lon":139.8334721},{"name":"がん研究会有明病院","province":"東京都","city":"江東区","address":"東京都江東区有明3丁目8-31","lat":35.63434076,"lon":139.7949906},{"name":"砂町排水機場","province":"東京都","city":"江東区","address":"東京都江東区新砂3丁目8","lat":35.65323126,"lon":139.84028308},{"name":"あけぼの水門","province":"東京都","city":"江東区","address":"東京都江東区辰巳2丁目8-10","lat":35.64798406,"lon":139.81827674},{"name":"辰巳排水機場","province":"東京都","city":"江東区","address":"東京都江東区辰巳1丁目1-44","lat":35.64585906,"lon":139.80884708},{"name":"東雲水門","province":"東京都","city":"江東区","address":"東京都江東区豊洲5丁目6-5","lat":35.64934172,"lon":139.79785354},{"name":"東雲水門（水防倉庫）","province":"東京都","city":"江東区","address":"東京都江東区東雲1丁目1-19","lat":35.64832243,"lon":139.79913123},{"name":"豊洲水門","province":"東京都","city":"江東区","address":"東京都江東区越中島3丁目1-1","lat":35.66352618,"lon":139.79429253},{"name":"基幹的広域防災拠点（有明の丘地区）","province":"東京都","city":"江東区","address":"江東区有明3-8-35","lat":35.63537,"lon":139.7941},{"name":"都営大江戸線清澄白河駅内備蓄倉庫","province":"東京都","city":"江東区","address":"江東区白河1-7-14","lat":35.68292,"lon":139.7989},{"name":"江東区","province":"東京都","city":"江東区","address":"江東区大島4-4-3","lat":35.68874,"lon":139.8273},{"name":"（株）メディセオ新東京ビル","province":"東京都","city":"江東区","address":"江東区佐賀2-8-20","lat":35.67896,"lon":139.7919},{"name":"毛利倉庫","province":"東京都","city":"江東区","address":"東京都江東区毛利2丁目1-12","lat":35.69027885,"lon":139.81657956},{"name":"塩浜倉庫","province":"東京都","city":"江東区","address":"東京都江東区塩浜2丁目26-13","lat":35.66510149,"lon":139.81544319},{"name":"清澄白河駅地下倉庫","province":"東京都","city":"江東区","address":"東京都江東区清澄3丁目","lat":35.68269931,"lon":139.7981106},{"name":"亀戸給水所","province":"東京都","city":"江東区","address":"東京都江東区亀戸2-6-50","lat":35.7001343,"lon":139.81999},{"name":"豊住給水所","province":"東京都","city":"江東区","address":"東京都江東区東陽6-1-8","lat":35.67504,"lon":139.810955},{"name":"江東給水所","province":"東京都","city":"江東区","address":"東京都江東区新砂3-6-17","lat":35.6654223,"lon":139.841327},{"name":"有明給水所","province":"東京都","city":"江東区","address":"東京都江東区有明3-1-8","lat":35.6308274,"lon":139.78544},{"name":"区立南砂三丁目公園","province":"東京都","city":"江東区","address":"東京都江東区南砂3-14-21","lat":35.670954,"lon":139.832646},{"name":"都立辰巳の森海浜公園","province":"東京都","city":"江東区","address":"東京都江東区辰巳2-1","lat":35.648004,"lon":139.812798},{"name":"毛利","province":"東京都","city":"江東区","address":"東京都江東区毛利2丁目1-12","lat":35.69027885,"lon":139.81657956},{"name":"塩浜","province":"東京都","city":"江東区","address":"東京都江東区塩浜2丁目26-13","lat":35.66510149,"lon":139.81544319},{"name":"清澄白河駅地下","province":"東京都","city":"江東区","address":"東京都江東区三好1丁目8","lat":35.68034954,"lon":139.79939054},{"name":"テレコムセンター","province":"東京都","city":"江東区","address":"東京都江東区青海2丁目5-10","lat":35.61733141,"lon":139.78018715},{"name":"砂町排水機場","province":"東京都","city":"江東区","address":"東京都江東区新砂3丁目8","lat":35.65323126,"lon":139.84028308},{"name":"あけぼの水門","province":"東京都","city":"江東区","address":"東京都江東区辰巳2丁目8-10","lat":35.64798406,"lon":139.81827674},{"name":"辰巳排水機場","province":"東京都","city":"江東区","address":"東京都江東区辰巳1丁目1-44","lat":35.64585906,"lon":139.80884708},{"name":"東雲水門","province":"東京都","city":"江東区","address":"東京都江東区豊洲5丁目6-5","lat":35.64934172,"lon":139.79785354},{"name":"東雲水門（水防倉庫）","province":"東京都","city":"江東区","address":"東京都江東区東雲1丁目1-19","lat":35.64832243,"lon":139.79913123},{"name":"豊洲水門","province":"東京都","city":"江東区","address":"東京都江東区越中島3丁目1-1","lat":35.66352618,"lon":139.79429253},{"name":"基幹的広域防災拠点（有明の丘地区）","province":"東京都","city":"江東区","address":"江東区有明3-8-35","lat":35.63537,"lon":139.7941},{"name":"都営大江戸線清澄白河駅内備蓄倉庫","province":"東京都","city":"江東区","address":"江東区白河1-7-14","lat":35.68292,"lon":139.7989},{"name":"江東区","province":"東京都","city":"江東区","address":"江東区大島4-4-3","lat":35.68874,"lon":139.8273},{"name":"（株）メディセオ新東京ビル","province":"東京都","city":"江東区","address":"江東区佐賀2-8-20","lat":35.67896,"lon":139.7919},{"name":"毛利倉庫","province":"東京都","city":"江東区","address":"東京都江東区毛利2丁目1-12","lat":35.69027885,"lon":139.81657956},{"name":"塩浜倉庫","province":"東京都","city":"江東区","address":"東京都江東区塩浜2丁目26-13","lat":35.66510149,"lon":139.81544319},{"name":"清澄白河駅地下倉庫","province":"東京都","city":"江東区","address":"東京都江東区清澄3丁目","lat":35.68269931,"lon":139.7981106},{"name":"亀戸給水所","province":"東京都","city":"江東区","address":"東京都江東区亀戸2-6-50","lat":35.7001343,"lon":139.81999},{"name":"豊住給水所","province":"東京都","city":"江東区","address":"東京都江東区東陽6-1-8","lat":35.67504,"lon":139.810955},{"name":"江東給水所","province":"東京都","city":"江東区","address":"東京都江東区新砂3-6-17","lat":35.6654223,"lon":139.841327},{"name":"有明給水所","province":"東京都","city":"江東区","address":"東京都江東区有明3-1-8","lat":35.6308274,"lon":139.78544},{"name":"区立南砂三丁目公園","province":"東京都","city":"江東区","address":"東京都江東区南砂3-14-21","lat":35.670954,"lon":139.832646},{"name":"都立辰巳の森海浜公園","province":"東京都","city":"江東区","address":"東京都江東区辰巳2-1","lat":35.648004,"lon":139.812798},{"name":"毛利","province":"東京都","city":"江東区","address":"東京都江東区毛利2丁目1-12","lat":35.69027885,"lon":139.81657956},{"name":"塩浜","province":"東京都","city":"江東区","address":"東京都江東区塩浜2丁目26-13","lat":35.66510149,"lon":139.81544319},{"name":"清澄白河駅地下","province":"東京都","city":"江東区","address":"東京都江東区三好1丁目8","lat":35.68034954,"lon":139.79939054},{"name":"テレコムセンター","province":"東京都","city":"江東区","address":"東京都江東区青海2丁目5-10","lat":35.61733141,"lon":139.78018715},{"name":"砂町排水機場","province":"東京都","city":"江東区","address":"東京都江東区新砂3丁目8","lat":35.65323126,"lon":139.84028308},{"name":"あけぼの水門","province":"東京都","city":"江東区","address":"東京都江東区辰巳2丁目8-10","lat":35.64798406,"lon":139.81827674},{"name":"辰巳排水機場","province":"東京都","city":"江東区","address":"東京都江東区辰巳1丁目1-44","lat":35.64585906,"lon":139.80884708},{"name":"東雲水門","province":"東京都","city":"江東区","address":"東京都江東区豊洲5丁目6-5","lat":35.64934172,"lon":139.79785354},{"name":"東雲水門（水防倉庫）","province":"東京都","city":"江東区","address":"東京都江東区東雲1丁目1-19","lat":35.64832243,"lon":139.79913123},{"name":"豊洲水門","province":"東京都","city":"江東区","address":"東京都江東区越中島3丁目1-1","lat":35.66352618,"lon":139.79429253},{"name":"基幹的広域防災拠点（有明の丘地区）","province":"東京都","city":"江東区","address":"江東区有明3-8-35","lat":35.63537,"lon":139.7941},{"name":"都営大江戸線清澄白河駅内備蓄倉庫","province":"東京都","city":"江東区","address":"江東区白河1-7-14","lat":35.68292,"lon":139.7989},{"name":"江東区","province":"東京都","city":"江東区","address":"江東区大島4-4-3","lat":35.68874,"lon":139.8273},{"name":"（株）メディセオ新東京ビル","province":"東京都","city":"江東区","address":"江東区佐賀2-8-20","lat":35.67896,"lon":139.7919},{"name":"毛利倉庫","province":"東京都","city":"江東区","address":"東京都江東区毛利2丁目1-12","lat":35.69027885,"lon":139.81657956},{"name":"塩浜倉庫","province":"東京都","city":"江東区","address":"東京都江東区塩浜2丁目26-13","lat":35.66510149,"lon":139.81544319},{"name":"清澄白河駅地下倉庫","province":"東京都","city":"江東区","address":"東京都江東区清澄3丁目","lat":35.68269931,"lon":139.7981106},{"name":"亀戸給水所","province":"東京都","city":"江東区","address":"東京都江東区亀戸2-6-50","lat":35.7001343,"lon":139.81999},{"name":"豊住給水所","province":"東京都","city":"江東区","address":"東京都江東区東陽6-1-8","lat":35.67504,"lon":139.810955},{"name":"江東給水所","province":"東京都","city":"江東区","address":"東京都江東区新砂3-6-17","lat":35.6654223,"lon":139.841327},{"name":"有明給水所","province":"東京都","city":"江東区","address":"東京都江東区有明3-1-8","lat":35.6308274,"lon":139.78544},{"name":"区立南砂三丁目公園","province":"東京都","city":"江東区","address":"東京都江東区南砂3-14-21","lat":35.670954,"lon":139.832646},{"name":"都立辰巳の森海浜公園","province":"東京都","city":"江東区","address":"東京都江東区辰巳2-1","lat":35.648004,"lon":139.812798},{"name":"毛利","province":"東京都","city":"江東区","address":"東京都江東区毛利2丁目1-12","lat":35.69027885,"lon":139.81657956},{"name":"塩浜","province":"東京都","city":"江東区","address":"東京都江東区塩浜2丁目26-13","lat":35.66510149,"lon":139.81544319},{"name":"清澄白河駅地下","province":"東京都","city":"江東区","address":"東京都江東区三好1丁目8","lat":35.68034954,"lon":139.79939054},{"name":"テレコムセンター","province":"東京都","city":"江東区","address":"東京都江東区青海2丁目5-10","lat":35.61733141,"lon":139.78018715},{"name":"基幹的広域防災拠点（有明の丘地区）","province":"東京都","city":"江東区","address":"江東区有明3-8-35","lat":35.63537,"lon":139.7941},{"name":"都営大江戸線清澄白河駅内備蓄倉庫","province":"東京都","city":"江東区","address":"江東区白河1-7-14","lat":35.68292,"lon":139.7989},{"name":"江東区","province":"東京都","city":"江東区","address":"江東区大島4-4-3","lat":35.68874,"lon":139.8273},{"name":"（株）メディセオ新東京ビル","province":"東京都","city":"江東区","address":"江東区佐賀2-8-20","lat":35.67896,"lon":139.7919},{"name":"毛利倉庫","province":"東京都","city":"江東区","address":"東京都江東区毛利2丁目1-12","lat":35.69027885,"lon":139.81657956},{"name":"塩浜倉庫","province":"東京都","city":"江東区","address":"東京都江東区塩浜2丁目26-13","lat":35.66510149,"lon":139.81544319},{"name":"清澄白河駅地下倉庫","province":"東京都","city":"江東区","address":"東京都江東区清澄3丁目","lat":35.68269931,"lon":139.7981106},{"name":"亀戸給水所","province":"東京都","city":"江東区","address":"東京都江東区亀戸2-6-50","lat":35.7001343,"lon":139.81999},{"name":"豊住給水所","province":"東京都","city":"江東区","address":"東京都江東区東陽6-1-8","lat":35.67504,"lon":139.810955},{"name":"江東給水所","province":"東京都","city":"江東区","address":"東京都江東区新砂3-6-17","lat":35.6654223,"lon":139.841327},{"name":"有明給水所","province":"東京都","city":"江東区","address":"東京都江東区有明3-1-8","lat":35.6308274,"lon":139.78544},{"name":"区立南砂三丁目公園","province":"東京都","city":"江東区","address":"東京都江東区南砂3-14-21","lat":35.670954,"lon":139.832646},{"name":"都立辰巳の森海浜公園","province":"東京都","city":"江東区","address":"東京都江東区辰巳2-1","lat":35.648004,"lon":139.812798},{"name":"毛利","province":"東京都","city":"江東区","address":"東京都江東区毛利2丁目1-12","lat":35.69027885,"lon":139.81657956},{"name":"塩浜","province":"東京都","city":"江東区","address":"東京都江東区塩浜2丁目26-13","lat":35.66510149,"lon":139.81544319},{"name":"清澄白河駅地下","province":"東京都","city":"江東区","address":"東京都江東区三好1丁目8","lat":35.68034954,"lon":139.79939054},{"name":"テレコムセンター","province":"東京都","city":"江東区","address":"東京都江東区青海2丁目5-10","lat":35.61733141,"lon":139.78018715},{"name":"基幹的広域防災拠点（有明の丘地区）","province":"東京都","city":"江東区","address":"江東区有明3-8-35","lat":35.63537,"lon":139.7941},{"name":"都営大江戸線清澄白河駅内備蓄倉庫","province":"東京都","city":"江東区","address":"江東区白河1-7-14","lat":35.68292,"lon":139.7989},{"name":"江東区","province":"東京都","city":"江東区","address":"江東区大島4-4-3","lat":35.68874,"lon":139.8273},{"name":"（株）メディセオ新東京ビル","province":"東京都","city":"江東区","address":"江東区佐賀2-8-20","lat":35.67896,"lon":139.7919},{"name":"毛利倉庫","province":"東京都","city":"江東区","address":"東京都江東区毛利2丁目1-12","lat":35.69027885,"lon":139.81657956},{"name":"塩浜倉庫","province":"東京都","city":"江東区","address":"東京都江東区塩浜2丁目26-13","lat":35.66510149,"lon":139.81544319},{"name":"清澄白河駅地下倉庫","province":"東京都","city":"江東区","address":"東京都江東区清澄3丁目","lat":35.68269931,"lon":139.7981106},{"name":"亀戸給水所","province":"東京都","city":"江東区","address":"東京都江東区亀戸2-6-50","lat":35.7001343,"lon":139.81999},{"name":"豊住給水所","province":"東京都","city":"江東区","address":"東京都江東区東陽6-1-8","lat":35.67504,"lon":139.810955},{"name":"江東給水所","province":"東京都","city":"江東区","address":"東京都江東区新砂3-6-17","lat":35.6654223,"lon":139.841327},{"name":"有明給水所","province":"東京都","city":"江東区","address":"東京都江東区有明3-1-8","lat":35.6308274,"lon":139.78544},{"name":"区立南砂三丁目公園","province":"東京都","city":"江東区","address":"東京都江東区南砂3-14-21","lat":35.670954,"lon":139.832646},{"name":"都立辰巳の森海浜公園","province":"東京都","city":"江東区","address":"東京都江東区辰巳2-1","lat":35.648004,"lon":139.812798},{"name":"毛利","province":"東京都","city":"江東区","address":"東京都江東区毛利2丁目1-12","lat":35.69027885,"lon":139.81657956},{"name":"塩浜","province":"東京都","city":"江東区","address":"東京都江東区塩浜2丁目26-13","lat":35.66510149,"lon":139.81544319},{"name":"清澄白河駅地下","province":"東京都","city":"江東区","address":"東京都江東区三好1丁目8","lat":35.68034954,"lon":139.79939054},{"name":"テレコムセンター","province":"東京都","city":"江東区","address":"東京都江東区青海2丁目5-10","lat":35.61733141,"lon":139.78018715},{"name":"基幹的広域防災拠点（有明の丘地区）","province":"東京都","city":"江東区","address":"江東区有明3-8-35","lat":35.63537,"lon":139.7941},{"name":"都営大江戸線清澄白河駅内備蓄倉庫","province":"東京都","city":"江東区","address":"江東区白河1-7-14","lat":35.68292,"lon":139.7989},{"name":"江東区","province":"東京都","city":"江東区","address":"江東区大島4-4-3","lat":35.68874,"lon":139.8273},{"name":"（株）メディセオ新東京ビル","province":"東京都","city":"江東区","address":"江東区佐賀2-8-20","lat":35.67896,"lon":139.7919},{"name":"毛利倉庫","province":"東京都","city":"江東区","address":"東京都江東区毛利2丁目1-12","lat":35.69027885,"lon":139.81657956},{"name":"塩浜倉庫","province":"東京都","city":"江東区","address":"東京都江東区塩浜2丁目26-13","lat":35.66510149,"lon":139.81544319},{"name":"清澄白河駅地下倉庫","province":"東京都","city":"江東区","address":"東京都江東区清澄3丁目","lat":35.68269931,"lon":139.7981106},{"name":"亀戸給水所","province":"東京都","city":"江東区","address":"東京都江東区亀戸2-6-50","lat":35.7001343,"lon":139.81999},{"name":"豊住給水所","province":"東京都","city":"江東区","address":"東京都江東区東陽6-1-8","lat":35.67504,"lon":139.810955},{"name":"江東給水所","province":"東京都","city":"江東区","address":"東京都江東区新砂3-6-17","lat":35.6654223,"lon":139.841327},{"name":"有明給水所","province":"東京都","city":"江東区","address":"東京都江東区有明3-1-8","lat":35.6308274,"lon":139.78544},{"name":"区立南砂三丁目公園","province":"東京都","city":"江東区","address":"東京都江東区南砂3-14-21","lat":35.670954,"lon":139.832646},{"name":"都立辰巳の森海浜公園","province":"東京都","city":"江東区","address":"東京都江東区辰巳2-1","lat":35.648004,"lon":139.812798},{"name":"毛利","province":"東京都","city":"江東区","address":"東京都江東区毛利2丁目1-12","lat":35.69027885,"lon":139.81657956},{"name":"塩浜","province":"東京都","city":"江東区","address":"東京都江東区塩浜2丁目26-13","lat":35.66510149,"lon":139.81544319},{"name":"清澄白河駅地下","province":"東京都","city":"江東区","address":"東京都江東区三好1丁目8","lat":35.68034954,"lon":139.79939054},{"name":"テレコムセンター","province":"東京都","city":"江東区","address":"東京都江東区青海2丁目5-10","lat":35.61733141,"lon":139.78018715},{"name":"基幹的広域防災拠点（有明の丘地区）","province":"東京都","city":"江東区","address":"江東区有明3-8-35","lat":35.63537,"lon":139.7941},{"name":"都営大江戸線清澄白河駅内備蓄倉庫","province":"東京都","city":"江東区","address":"江東区白河1-7-14","lat":35.68292,"lon":139.7989},{"name":"江東区","province":"東京都","city":"江東区","address":"江東区大島4-4-3","lat":35.68874,"lon":139.8273},{"name":"（株）メディセオ新東京ビル","province":"東京都","city":"江東区","address":"江東区佐賀2-8-20","lat":35.67896,"lon":139.7919},{"name":"毛利倉庫","province":"東京都","city":"江東区","address":"東京都江東区毛利2丁目1-12","lat":35.69027885,"lon":139.81657956},{"name":"塩浜倉庫","province":"東京都","city":"江東区","address":"東京都江東区塩浜2丁目26-13","lat":35.66510149,"lon":139.81544319},{"name":"清澄白河駅地下倉庫","province":"東京都","city":"江東区","address":"東京都江東区清澄3丁目","lat":35.68269931,"lon":139.7981106},{"name":"亀戸給水所","province":"東京都","city":"江東区","address":"東京都江東区亀戸2-6-50","lat":35.7001343,"lon":139.81999},{"name":"豊住給水所","province":"東京都","city":"江東区","address":"東京都江東区東陽6-1-8","lat":35.67504,"lon":139.810955},{"name":"江東給水所","province":"東京都","city":"江東区","address":"東京都江東区新砂3-6-17","lat":35.6654223,"lon":139.841327},{"name":"有明給水所","province":"東京都","city":"江東区","address":"東京都江東区有明3-1-8","lat":35.6308274,"lon":139.78544},{"name":"区立南砂三丁目公園","province":"東京都","city":"江東区","address":"東京都江東区南砂3-14-21","lat":35.670954,"lon":139.832646},{"name":"都立辰巳の森海浜公園","province":"東京都","city":"江東区","address":"東京都江東区辰巳2-1","lat":35.648004,"lon":139.812798},{"name":"毛利","province":"東京都","city":"江東区","address":"東京都江東区毛利2丁目1-12","lat":35.69027885,"lon":139.81657956},{"name":"塩浜","province":"東京都","city":"江東区","address":"東京都江東区塩浜2丁目26-13","lat":35.66510149,"lon":139.81544319},{"name":"清澄白河駅地下","province":"東京都","city":"江東区","address":"東京都江東区三好1丁目8","lat":35.68034954,"lon":139.79939054},{"name":"テレコムセンター","province":"東京都","city":"江東区","address":"東京都江東区青海2丁目5-10","lat":35.61733141,"lon":139.78018715},{"name":"基幹的広域防災拠点（有明の丘地区）","province":"東京都","city":"江東区","address":"江東区有明3-8-35","lat":35.63537,"lon":139.7941},{"name":"都営大江戸線清澄白河駅内備蓄倉庫","province":"東京都","city":"江東区","address":"江東区白河1-7-14","lat":35.68292,"lon":139.7989},{"name":"江東区","province":"東京都","city":"江東区","address":"江東区大島4-4-3","lat":35.68874,"lon":139.8273},{"name":"（株）メディセオ新東京ビル","province":"東京都","city":"江東区","address":"江東区佐賀2-8-20","lat":35.67896,"lon":139.7919},{"name":"毛利倉庫","province":"東京都","city":"江東区","address":"東京都江東区毛利2丁目1-12","lat":35.69027885,"lon":139.81657956},{"name":"塩浜倉庫","province":"東京都","city":"江東区","address":"東京都江東区塩浜2丁目26-13","lat":35.66510149,"lon":139.81544319},{"name":"清澄白河駅地下倉庫","province":"東京都","city":"江東区","address":"東京都江東区清澄3丁目","lat":35.68269931,"lon":139.7981106},{"name":"亀戸給水所","province":"東京都","city":"江東区","address":"東京都江東区亀戸2-6-50","lat":35.7001343,"lon":139.81999},{"name":"豊住給水所","province":"東京都","city":"江東区","address":"東京都江東区東陽6-1-8","lat":35.67504,"lon":139.810955},{"name":"江東給水所","province":"東京都","city":"江東区","address":"東京都江東区新砂3-6-17","lat":35.6654223,"lon":139.841327},{"name":"有明給水所","province":"東京都","city":"江東区","address":"東京都江東区有明3-1-8","lat":35.6308274,"lon":139.78544},{"name":"区立南砂三丁目公園","province":"東京都","city":"江東区","address":"東京都江東区南砂3-14-21","lat":35.670954,"lon":139.832646},{"name":"都立辰巳の森海浜公園","province":"東京都","city":"江東区","address":"東京都江東区辰巳2-1","lat":35.648004,"lon":139.812798},{"name":"毛利","province":"東京都","city":"江東区","address":"東京都江東区毛利2丁目1-12","lat":35.69027885,"lon":139.81657956},{"name":"塩浜","province":"東京都","city":"江東区","address":"東京都江東区塩浜2丁目26-13","lat":35.66510149,"lon":139.81544319},{"name":"清澄白河駅地下","province":"東京都","city":"江東区","address":"東京都江東区三好1丁目8","lat":35.68034954,"lon":139.79939054},{"name":"テレコムセンター","province":"東京都","city":"江東区","address":"東京都江東区青海2丁目5-10","lat":35.61733141,"lon":139.78018715},{"name":"基幹的広域防災拠点（有明の丘地区）","province":"東京都","city":"江東区","address":"江東区有明3-8-35","lat":35.63537,"lon":139.7941},{"name":"都営大江戸線清澄白河駅内備蓄倉庫","province":"東京都","city":"江東区","address":"江東区白河1-7-14","lat":35.68292,"lon":139.7989},{"name":"江東区","province":"東京都","city":"江東区","address":"江東区大島4-4-3","lat":35.68874,"lon":139.8273},{"name":"（株）メディセオ新東京ビル","province":"東京都","city":"江東区","address":"江東区佐賀2-8-20","lat":35.67896,"lon":139.7919},{"name":"毛利倉庫","province":"東京都","city":"江東区","address":"東京都江東区毛利2丁目1-12","lat":35.69027885,"lon":139.81657956},{"name":"塩浜倉庫","province":"東京都","city":"江東区","address":"東京都江東区塩浜2丁目26-13","lat":35.66510149,"lon":139.81544319},{"name":"清澄白河駅地下倉庫","province":"東京都","city":"江東区","address":"東京都江東区清澄3丁目","lat":35.68269931,"lon":139.7981106},{"name":"亀戸給水所","province":"東京都","city":"江東区","address":"東京都江東区亀戸2-6-50","lat":35.7001343,"lon":139.81999},{"name":"豊住給水所","province":"東京都","city":"江東区","address":"東京都江東区東陽6-1-8","lat":35.67504,"lon":139.810955},{"name":"江東給水所","province":"東京都","city":"江東区","address":"東京都江東区新砂3-6-17","lat":35.6654223,"lon":139.841327},{"name":"有明給水所","province":"東京都","city":"江東区","address":"東京都江東区有明3-1-8","lat":35.6308274,"lon":139.78544},{"name":"区立南砂三丁目公園","province":"東京都","city":"江東区","address":"東京都江東区南砂3-14-21","lat":35.670954,"lon":139.832646},{"name":"都立辰巳の森海浜公園","province":"東京都","city":"江東区","address":"東京都江東区辰巳2-1","lat":35.648004,"lon":139.812798},{"name":"毛利","province":"東京都","city":"江東区","address":"東京都江東区毛利2丁目1-12","lat":35.69027885,"lon":139.81657956},{"name":"塩浜","province":"東京都","city":"江東区","address":"東京都江東区塩浜2丁目26-13","lat":35.66510149,"lon":139.81544319},{"name":"清澄白河駅地下","province":"東京都","city":"江東区","address":"東京都江東区三好1丁目8","lat":35.68034954,"lon":139.79939054},{"name":"テレコムセンター","province":"東京都","city":"江東区","address":"東京都江東区青海2丁目5-10","lat":35.61733141,"lon":139.78018715},{"name":"基幹的広域防災拠点（有明の丘地区）","province":"東京都","city":"江東区","address":"江東区有明3-8-35","lat":35.63537,"lon":139.7941},{"name":"都営大江戸線清澄白河駅内備蓄倉庫","province":"東京都","city":"江東区","address":"江東区白河1-7-14","lat":35.68292,"lon":139.7989},{"name":"江東区","province":"東京都","city":"江東区","address":"江東区大島4-4-3","lat":35.68874,"lon":139.8273},{"name":"（株）メディセオ新東京ビル","province":"東京都","city":"江東区","address":"江東区佐賀2-8-20","lat":35.67896,"lon":139.7919},{"name":"毛利倉庫","province":"東京都","city":"江東区","address":"東京都江東区毛利2丁目1-12","lat":35.69027885,"lon":139.81657956},{"name":"塩浜倉庫","province":"東京都","city":"江東区","address":"東京都江東区塩浜2丁目26-13","lat":35.66510149,"lon":139.81544319},{"name":"清澄白河駅地下倉庫","province":"東京都","city":"江東区","address":"東京都江東区清澄3丁目","lat":35.68269931,"lon":139.7981106},{"name":"亀戸給水所","province":"東京都","city":"江東区","address":"東京都江東区亀戸2-6-50","lat":35.7001343,"lon":139.81999},{"name":"豊住給水所","province":"東京都","city":"江東区","address":"東京都江東区東陽6-1-8","lat":35.67504,"lon":139.810955},{"name":"江東給水所","province":"東京都","city":"江東区","address":"東京都江東区新砂3-6-17","lat":35.6654223,"lon":139.841327},{"name":"有明給水所","province":"東京都","city":"江東区","address":"東京都江東区有明3-1-8","lat":35.6308274,"lon":139.78544},{"name":"区立南砂三丁目公園","province":"東京都","city":"江東区","address":"東京都江東区南砂3-14-21","lat":35.670954,"lon":139.832646},{"name":"都立辰巳の森海浜公園","province":"東京都","city":"江東区","address":"東京都江東区辰巳2-1","lat":35.648004,"lon":139.812798},{"name":"毛利","province":"東京都","city":"江東区","address":"東京都江東区毛利2丁目1-12","lat":35.69027885,"lon":139.81657956},{"name":"塩浜","province":"東京都","city":"江東区","address":"東京都江東区塩浜2丁目26-13","lat":35.66510149,"lon":139.81544319},{"name":"清澄白河駅地下","province":"東京都","city":"江東区","address":"東京都江東区三好1丁目8","lat":35.68034954,"lon":139.79939054},{"name":"テレコムセンター","province":"東京都","city":"江東区","address":"東京都江東区青海2丁目5-10","lat":35.61733141,"lon":139.78018715},{"name":"基幹的広域防災拠点（有明の丘地区）","province":"東京都","city":"江東区","address":"江東区有明3-8-35","lat":35.63537,"lon":139.7941},{"name":"都営大江戸線清澄白河駅内備蓄倉庫","province":"東京都","city":"江東区","address":"江東区白河1-7-14","lat":35.68292,"lon":139.7989},{"name":"江東区","province":"東京都","city":"江東区","address":"江東区大島4-4-3","lat":35.68874,"lon":139.8273},{"name":"（株）メディセオ新東京ビル","province":"東京都","city":"江東区","address":"江東区佐賀2-8-20","lat":35.67896,"lon":139.7919},{"name":"毛利倉庫","province":"東京都","city":"江東区","address":"東京都江東区毛利2丁目1-12","lat":35.69027885,"lon":139.81657956},{"name":"塩浜倉庫","province":"東京都","city":"江東区","address":"東京都江東区塩浜2丁目26-13","lat":35.66510149,"lon":139.81544319},{"name":"清澄白河駅地下倉庫","province":"東京都","city":"江東区","address":"東京都江東区清澄3丁目","lat":35.68269931,"lon":139.7981106},{"name":"亀戸給水所","province":"東京都","city":"江東区","address":"東京都江東区亀戸2-6-50","lat":35.7001343,"lon":139.81999},{"name":"豊住給水所","province":"東京都","city":"江東区","address":"東京都江東区東陽6-1-8","lat":35.67504,"lon":139.810955},{"name":"江東給水所","province":"東京都","city":"江東区","address":"東京都江東区新砂3-6-17","lat":35.6654223,"lon":139.841327},{"name":"有明給水所","province":"東京都","city":"江東区","address":"東京都江東区有明3-1-8","lat":35.6308274,"lon":139.78544},{"name":"区立南砂三丁目公園","province":"東京都","city":"江東区","address":"東京都江東区南砂3-14-21","lat":35.670954,"lon":139.832646},{"name":"都立辰巳の森海浜公園","province":"東京都","city":"江東区","address":"東京都江東区辰巳2-1","lat":35.648004,"lon":139.812798},{"name":"毛利","province":"東京都","city":"江東区","address":"東京都江東区毛利2丁目1-12","lat":35.69027885,"lon":139.81657956},{"name":"塩浜","province":"東京都","city":"江東区","address":"東京都江東区塩浜2丁目26-13","lat":35.66510149,"lon":139.81544319},{"name":"清澄白河駅地下","province":"東京都","city":"江東区","address":"東京都江東区三好1丁目8","lat":35.68034954,"lon":139.79939054},{"name":"テレコムセンター","province":"東京都","city":"江東区","address":"東京都江東区青海2丁目5-10","lat":35.61733141,"lon":139.78018715},{"name":"基幹的広域防災拠点（有明の丘地区）","province":"東京都","city":"江東区","address":"江東区有明3-8-35","lat":35.63537,"lon":139.7941},{"name":"都営大江戸線清澄白河駅内備蓄倉庫","province":"東京都","city":"江東区","address":"江東区白河1-7-14","lat":35.68292,"lon":139.7989},{"name":"江東区","province":"東京都","city":"江東区","address":"江東区大島4-4-3","lat":35.68874,"lon":139.8273},{"name":"（株）メディセオ新東京ビル","province":"東京都","city":"江東区","address":"江東区佐賀2-8-20","lat":35.67896,"lon":139.7919},{"name":"毛利倉庫","province":"東京都","city":"江東区","address":"東京都江東区毛利2丁目1-12","lat":35.69027885,"lon":139.81657956},{"name":"塩浜倉庫","province":"東京都","city":"江東区","address":"東京都江東区塩浜2丁目26-13","lat":35.66510149,"lon":139.81544319},{"name":"清澄白河駅地下倉庫","province":"東京都","city":"江東区","address":"東京都江東区清澄3丁目","lat":35.68269931,"lon":139.7981106},{"name":"亀戸給水所","province":"東京都","city":"江東区","address":"東京都江東区亀戸2-6-50","lat":35.7001343,"lon":139.81999},{"name":"豊住給水所","province":"東京都","city":"江東区","address":"東京都江東区東陽6-1-8","lat":35.67504,"lon":139.810955},{"name":"江東給水所","province":"東京都","city":"江東区","address":"東京都江東区新砂3-6-17","lat":35.6654223,"lon":139.841327},{"name":"有明給水所","province":"東京都","city":"江東区","address":"東京都江東区有明3-1-8","lat":35.6308274,"lon":139.78544},{"name":"区立南砂三丁目公園","province":"東京都","city":"江東区","address":"東京都江東区南砂3-14-21","lat":35.670954,"lon":139.832646},{"name":"都立辰巳の森海浜公園","province":"東京都","city":"江東区","address":"東京都江東区辰巳2-1","lat":35.648004,"lon":139.812798},{"name":"毛利","province":"東京都","city":"江東区","address":"東京都江東区毛利2丁目1-12","lat":35.69027885,"lon":139.81657956},{"name":"塩浜","province":"東京都","city":"江東区","address":"東京都江東区塩浜2丁目26-13","lat":35.66510149,"lon":139.81544319},{"name":"清澄白河駅地下","province":"東京都","city":"江東区","address":"東京都江東区三好1丁目8","lat":35.68034954,"lon":139.79939054},{"name":"テレコムセンター","province":"東京都","city":"江東区","address":"東京都江東区青海2丁目5-10","lat":35.61733141,"lon":139.78018715},{"name":"基幹的広域防災拠点（有明の丘地区）","province":"東京都","city":"江東区","address":"江東区有明3-8-35","lat":35.63537,"lon":139.7941},{"name":"都営大江戸線清澄白河駅内備蓄倉庫","province":"東京都","city":"江東区","address":"江東区白河1-7-14","lat":35.68292,"lon":139.7989},{"name":"江東区","province":"東京都","city":"江東区","address":"江東区大島4-4-3","lat":35.68874,"lon":139.8273},{"name":"（株）メディセオ新東京ビル","province":"東京都","city":"江東区","address":"江東区佐賀2-8-20","lat":35.67896,"lon":139.7919},{"name":"毛利倉庫","province":"東京都","city":"江東区","address":"東京都江東区毛利2丁目1-12","lat":35.69027885,"lon":139.81657956},{"name":"塩浜倉庫","province":"東京都","city":"江東区","address":"東京都江東区塩浜2丁目26-13","lat":35.66510149,"lon":139.81544319},{"name":"清澄白河駅地下倉庫","province":"東京都","city":"江東区","address":"東京都江東区清澄3丁目","lat":35.68269931,"lon":139.7981106},{"name":"亀戸給水所","province":"東京都","city":"江東区","address":"東京都江東区亀戸2-6-50","lat":35.7001343,"lon":139.81999},{"name":"豊住給水所","province":"東京都","city":"江東区","address":"東京都江東区東陽6-1-8","lat":35.67504,"lon":139.810955},{"name":"江東給水所","province":"東京都","city":"江東区","address":"東京都江東区新砂3-6-17","lat":35.6654223,"lon":139.841327},{"name":"有明給水所","province":"東京都","city":"江東区","address":"東京都江東区有明3-1-8","lat":35.6308274,"lon":139.78544},{"name":"区立南砂三丁目公園","province":"東京都","city":"江東区","address":"東京都江東区南砂3-14-21","lat":35.670954,"lon":139.832646},{"name":"都立辰巳の森海浜公園","province":"東京都","city":"江東区","address":"東京都江東区辰巳2-1","lat":35.648004,"lon":139.812798},{"name":"毛利","province":"東京都","city":"江東区","address":"東京都江東区毛利2丁目1-12","lat":35.69027885,"lon":139.81657956},{"name":"塩浜","province":"東京都","city":"江東区","address":"東京都江東区塩浜2丁目26-13","lat":35.66510149,"lon":139.81544319},{"name":"清澄白河駅地下","province":"東京都","city":"江東区","address":"東京都江東区三好1丁目8","lat":35.68034954,"lon":139.79939054},{"name":"テレコムセンター","province":"東京都","city":"江東区","address":"東京都江東区青海2丁目5-10","lat":35.61733141,"lon":139.78018715},{"name":"基幹的広域防災拠点（有明の丘地区）","province":"東京都","city":"江東区","address":"江東区有明3-8-35","lat":35.63537,"lon":139.7941},{"name":"都営大江戸線清澄白河駅内備蓄倉庫","province":"東京都","city":"江東区","address":"江東区白河1-7-14","lat":35.68292,"lon":139.7989},{"name":"江東区","province":"東京都","city":"江東区","address":"江東区大島4-4-3","lat":35.68874,"lon":139.8273},{"name":"（株）メディセオ新東京ビル","province":"東京都","city":"江東区","address":"江東区佐賀2-8-20","lat":35.67896,"lon":139.7919},{"name":"毛利倉庫","province":"東京都","city":"江東区","address":"東京都江東区毛利2丁目1-12","lat":35.69027885,"lon":139.81657956},{"name":"塩浜倉庫","province":"東京都","city":"江東区","address":"東京都江東区塩浜2丁目26-13","lat":35.66510149,"lon":139.81544319},{"name":"清澄白河駅地下倉庫","province":"東京都","city":"江東区","address":"東京都江東区清澄3丁目","lat":35.68269931,"lon":139.7981106},{"name":"亀戸給水所","province":"東京都","city":"江東区","address":"東京都江東区亀戸2-6-50","lat":35.7001343,"lon":139.81999},{"name":"豊住給水所","province":"東京都","city":"江東区","address":"東京都江東区東陽6-1-8","lat":35.67504,"lon":139.810955},{"name":"江東給水所","province":"東京都","city":"江東区","address":"東京都江東区新砂3-6-17","lat":35.6654223,"lon":139.841327},{"name":"有明給水所","province":"東京都","city":"江東区","address":"東京都江東区有明3-1-8","lat":35.6308274,"lon":139.78544},{"name":"区立南砂三丁目公園","province":"東京都","city":"江東区","address":"東京都江東区南砂3-14-21","lat":35.670954,"lon":139.832646},{"name":"都立辰巳の森海浜公園","province":"東京都","city":"江東区","address":"東京都江東区辰巳2-1","lat":35.648004,"lon":139.812798},{"name":"毛利","province":"東京都","city":"江東区","address":"東京都江東区毛利2丁目1-12","lat":35.69027885,"lon":139.81657956},{"name":"塩浜","province":"東京都","city":"江東区","address":"東京都江東区塩浜2丁目26-13","lat":35.66510149,"lon":139.81544319},{"name":"清澄白河駅地下","province":"東京都","city":"江東区","address":"東京都江東区三好1丁目8","lat":35.68034954,"lon":139.79939054},{"name":"テレコムセンター","province":"東京都","city":"江東区","address":"東京都江東区青海2丁目5-10","lat":35.61733141,"lon":139.78018715},{"name":"基幹的広域防災拠点（有明の丘地区）","province":"東京都","city":"江東区","address":"江東区有明3-8-35","lat":35.63537,"lon":139.7941},{"name":"都営大江戸線清澄白河駅内備蓄倉庫","province":"東京都","city":"江東区","address":"江東区白河1-7-14","lat":35.68292,"lon":139.7989},{"name":"江東区","province":"東京都","city":"江東区","address":"江東区大島4-4-3","lat":35.68874,"lon":139.8273},{"name":"（株）メディセオ新東京ビル","province":"東京都","city":"江東区","address":"江東区佐賀2-8-20","lat":35.67896,"lon":139.7919},{"name":"毛利倉庫","province":"東京都","city":"江東区","address":"東京都江東区毛利2丁目1-12","lat":35.69027885,"lon":139.81657956},{"name":"塩浜倉庫","province":"東京都","city":"江東区","address":"東京都江東区塩浜2丁目26-13","lat":35.66510149,"lon":139.81544319},{"name":"清澄白河駅地下倉庫","province":"東京都","city":"江東区","address":"東京都江東区清澄3丁目","lat":35.68269931,"lon":139.7981106},{"name":"亀戸給水所","province":"東京都","city":"江東区","address":"東京都江東区亀戸2-6-50","lat":35.7001343,"lon":139.81999},{"name":"豊住給水所","province":"東京都","city":"江東区","address":"東京都江東区東陽6-1-8","lat":35.67504,"lon":139.810955},{"name":"江東給水所","province":"東京都","city":"江東区","address":"東京都江東区新砂3-6-17","lat":35.6654223,"lon":139.841327},{"name":"有明給水所","province":"東京都","city":"江東区","address":"東京都江東区有明3-1-8","lat":35.6308274,"lon":139.78544},{"name":"区立南砂三丁目公園","province":"東京都","city":"江東区","address":"東京都江東区南砂3-14-21","lat":35.670954,"lon":139.832646},{"name":"都立辰巳の森海浜公園","province":"東京都","city":"江東区","address":"東京都江東区辰巳2-1","lat":35.648004,"lon":139.812798},{"name":"毛利","province":"東京都","city":"江東区","address":"東京都江東区毛利2丁目1-12","lat":35.69027885,"lon":139.81657956},{"name":"塩浜","province":"東京都","city":"江東区","address":"東京都江東区塩浜2丁目26-13","lat":35.66510149,"lon":139.81544319},{"name":"清澄白河駅地下","province":"東京都","city":"江東区","address":"東京都江東区三好1丁目8","lat":35.68034954,"lon":139.79939054},{"name":"テレコムセンター","province":"東京都","city":"江東区","address":"東京都江東区青海2丁目5-10","lat":35.61733141,"lon":139.78018715},{"name":"基幹的広域防災拠点（有明の丘地区）","province":"東京都","city":"江東区","address":"江東区有明3-8-35","lat":35.63537,"lon":139.7941},{"name":"都営大江戸線清澄白河駅内備蓄倉庫","province":"東京都","city":"江東区","address":"江東区白河1-7-14","lat":35.68292,"lon":139.7989},{"name":"江東区","province":"東京都","city":"江東区","address":"江東区大島4-4-3","lat":35.68874,"lon":139.8273},{"name":"（株）メディセオ新東京ビル","province":"東京都","city":"江東区","address":"江東区佐賀2-8-20","lat":35.67896,"lon":139.7919},{"name":"毛利倉庫","province":"東京都","city":"江東区","address":"東京都江東区毛利2丁目1-12","lat":35.69027885,"lon":139.81657956},{"name":"塩浜倉庫","province":"東京都","city":"江東区","address":"東京都江東区塩浜2丁目26-13","lat":35.66510149,"lon":139.81544319},{"name":"清澄白河駅地下倉庫","province":"東京都","city":"江東区","address":"東京都江東区清澄3丁目","lat":35.68269931,"lon":139.7981106},{"name":"亀戸給水所","province":"東京都","city":"江東区","address":"東京都江東区亀戸2-6-50","lat":35.7001343,"lon":139.81999},{"name":"豊住給水所","province":"東京都","city":"江東区","address":"東京都江東区東陽6-1-8","lat":35.67504,"lon":139.810955},{"name":"江東給水所","province":"東京都","city":"江東区","address":"東京都江東区新砂3-6-17","lat":35.6654223,"lon":139.841327},{"name":"有明給水所","province":"東京都","city":"江東区","address":"東京都江東区有明3-1-8","lat":35.6308274,"lon":139.78544},{"name":"区立南砂三丁目公園","province":"東京都","city":"江東区","address":"東京都江東区南砂3-14-21","lat":35.670954,"lon":139.832646},{"name":"都立辰巳の森海浜公園","province":"東京都","city":"江東区","address":"東京都江東区辰巳2-1","lat":35.648004,"lon":139.812798},{"name":"毛利","province":"東京都","city":"江東区","address":"東京都江東区毛利2丁目1-12","lat":35.69027885,"lon":139.81657956},{"name":"塩浜","province":"東京都","city":"江東区","address":"東京都江東区塩浜2丁目26-13","lat":35.66510149,"lon":139.81544319},{"name":"清澄白河駅地下","province":"東京都","city":"江東区","address":"東京都江東区三好1丁目8","lat":35.68034954,"lon":139.79939054},{"name":"テレコムセンター","province":"東京都","city":"江東区","address":"東京都江東区青海2丁目5-10","lat":35.61733141,"lon":139.78018715},{"name":"基幹的広域防災拠点（有明の丘地区）","province":"東京都","city":"江東区","address":"江東区有明3-8-35","lat":35.63537,"lon":139.7941},{"name":"都営大江戸線清澄白河駅内備蓄倉庫","province":"東京都","city":"江東区","address":"江東区白河1-7-14","lat":35.68292,"lon":139.7989},{"name":"江東区","province":"東京都","city":"江東区","address":"江東区大島4-4-3","lat":35.68874,"lon":139.8273},{"name":"（株）メディセオ新東京ビル","province":"東京都","city":"江東区","address":"江東区佐賀2-8-20","lat":35.67896,"lon":139.7919},{"name":"毛利倉庫","province":"東京都","city":"江東区","address":"東京都江東区毛利2丁目1-12","lat":35.69027885,"lon":139.81657956},{"name":"塩浜倉庫","province":"東京都","city":"江東区","address":"東京都江東区塩浜2丁目26-13","lat":35.66510149,"lon":139.81544319},{"name":"清澄白河駅地下倉庫","province":"東京都","city":"江東区","address":"東京都江東区清澄3丁目","lat":35.68269931,"lon":139.7981106},{"name":"亀戸給水所","province":"東京都","city":"江東区","address":"東京都江東区亀戸2-6-50","lat":35.7001343,"lon":139.81999},{"name":"豊住給水所","province":"東京都","city":"江東区","address":"東京都江東区東陽6-1-8","lat":35.67504,"lon":139.810955},{"name":"江東給水所","province":"東京都","city":"江東区","address":"東京都江東区新砂3-6-17","lat":35.6654223,"lon":139.841327},{"name":"有明給水所","province":"東京都","city":"江東区","address":"東京都江東区有明3-1-8","lat":35.6308274,"lon":139.78544},{"name":"区立南砂三丁目公園","province":"東京都","city":"江東区","address":"東京都江東区南砂3-14-21","lat":35.670954,"lon":139.832646},{"name":"都立辰巳の森海浜公園","province":"東京都","city":"江東区","address":"東京都江東区辰巳2-1","lat":35.648004,"lon":139.812798},{"name":"毛利","province":"東京都","city":"江東区","address":"東京都江東区毛利2丁目1-12","lat":35.69027885,"lon":139.81657956},{"name":"塩浜","province":"東京都","city":"江東区","address":"東京都江東区塩浜2丁目26-13","lat":35.66510149,"lon":139.81544319},{"name":"清澄白河駅地下","province":"東京都","city":"江東区","address":"東京都江東区三好1丁目8","lat":35.68034954,"lon":139.79939054},{"name":"テレコムセンター","province":"東京都","city":"江東区","address":"東京都江東区青海2丁目5-10","lat":35.61733141,"lon":139.78018715},{"name":"基幹的広域防災拠点（有明の丘地区）","province":"東京都","city":"江東区","address":"江東区有明3-8-35","lat":35.63537,"lon":139.7941},{"name":"都営大江戸線清澄白河駅内備蓄倉庫","province":"東京都","city":"江東区","address":"江東区白河1-7-14","lat":35.68292,"lon":139.7989},{"name":"江東区","province":"東京都","city":"江東区","address":"江東区大島4-4-3","lat":35.68874,"lon":139.8273},{"name":"（株）メディセオ新東京ビル","province":"東京都","city":"江東区","address":"江東区佐賀2-8-20","lat":35.67896,"lon":139.7919},{"name":"毛利倉庫","province":"東京都","city":"江東区","address":"東京都江東区毛利2丁目1-12","lat":35.69027885,"lon":139.81657956},{"name":"塩浜倉庫","province":"東京都","city":"江東区","address":"東京都江東区塩浜2丁目26-13","lat":35.66510149,"lon":139.81544319},{"name":"清澄白河駅地下倉庫","province":"東京都","city":"江東区","address":"東京都江東区清澄3丁目","lat":35.68269931,"lon":139.7981106},{"name":"亀戸給水所","province":"東京都","city":"江東区","address":"東京都江東区亀戸2-6-50","lat":35.7001343,"lon":139.81999},{"name":"豊住給水所","province":"東京都","city":"江東区","address":"東京都江東区東陽6-1-8","lat":35.67504,"lon":139.810955},{"name":"江東給水所","province":"東京都","city":"江東区","address":"東京都江東区新砂3-6-17","lat":35.6654223,"lon":139.841327},{"name":"有明給水所","province":"東京都","city":"江東区","address":"東京都江東区有明3-1-8","lat":35.6308274,"lon":139.78544},{"name":"区立南砂三丁目公園","province":"東京都","city":"江東区","address":"東京都江東区南砂3-14-21","lat":35.670954,"lon":139.832646},{"name":"都立辰巳の森海浜公園","province":"東京都","city":"江東区","address":"東京都江東区辰巳2-1","lat":35.648004,"lon":139.812798},{"name":"毛利","province":"東京都","city":"江東区","address":"東京都江東区毛利2丁目1-12","lat":35.69027885,"lon":139.81657956},{"name":"塩浜","province":"東京都","city":"江東区","address":"東京都江東区塩浜2丁目26-13","lat":35.66510149,"lon":139.81544319},{"name":"清澄白河駅地下","province":"東京都","city":"江東区","address":"東京都江東区三好1丁目8","lat":35.68034954,"lon":139.79939054},{"name":"テレコムセンター","province":"東京都","city":"江東区","address":"東京都江東区青海2丁目5-10","lat":35.61733141,"lon":139.78018715},{"name":"基幹的広域防災拠点（有明の丘地区）","province":"東京都","city":"江東区","address":"江東区有明3-8-35","lat":35.63537,"lon":139.7941},{"name":"都営大江戸線清澄白河駅内備蓄倉庫","province":"東京都","city":"江東区","address":"江東区白河1-7-14","lat":35.68292,"lon":139.7989},{"name":"江東区","province":"東京都","city":"江東区","address":"江東区大島4-4-3","lat":35.68874,"lon":139.8273},{"name":"（株）メディセオ新東京ビル","province":"東京都","city":"江東区","address":"江東区佐賀2-8-20","lat":35.67896,"lon":139.7919},{"name":"毛利倉庫","province":"東京都","city":"江東区","address":"東京都江東区毛利2丁目1-12","lat":35.69027885,"lon":139.81657956},{"name":"塩浜倉庫","province":"東京都","city":"江東区","address":"東京都江東区塩浜2丁目26-13","lat":35.66510149,"lon":139.81544319},{"name":"清澄白河駅地下倉庫","province":"東京都","city":"江東区","address":"東京都江東区清澄3丁目","lat":35.68269931,"lon":139.7981106},{"name":"亀戸給水所","province":"東京都","city":"江東区","address":"東京都江東区亀戸2-6-50","lat":35.7001343,"lon":139.81999},{"name":"豊住給水所","province":"東京都","city":"江東区","address":"東京都江東区東陽6-1-8","lat":35.67504,"lon":139.810955},{"name":"江東給水所","province":"東京都","city":"江東区","address":"東京都江東区新砂3-6-17","lat":35.6654223,"lon":139.841327},{"name":"有明給水所","province":"東京都","city":"江東区","address":"東京都江東区有明3-1-8","lat":35.6308274,"lon":139.78544},{"name":"区立南砂三丁目公園","province":"東京都","city":"江東区","address":"東京都江東区南砂3-14-21","lat":35.670954,"lon":139.832646},{"name":"都立辰巳の森海浜公園","province":"東京都","city":"江東区","address":"東京都江東区辰巳2-1","lat":35.648004,"lon":139.812798},{"name":"毛利","province":"東京都","city":"江東区","address":"東京都江東区毛利2丁目1-12","lat":35.69027885,"lon":139.81657956},{"name":"塩浜","province":"東京都","city":"江東区","address":"東京都江東区塩浜2丁目26-13","lat":35.66510149,"lon":139.81544319},{"name":"清澄白河駅地下","province":"東京都","city":"江東区","address":"東京都江東区三好1丁目8","lat":35.68034954,"lon":139.79939054},{"name":"テレコムセンター","province":"東京都","city":"江東区","address":"東京都江東区青海2丁目5-10","lat":35.61733141,"lon":139.78018715},{"name":"基幹的広域防災拠点（有明の丘地区）","province":"東京都","city":"江東区","address":"江東区有明3-8-35","lat":35.63537,"lon":139.7941},{"name":"都営大江戸線清澄白河駅内備蓄倉庫","province":"東京都","city":"江東区","address":"江東区白河1-7-14","lat":35.68292,"lon":139.7989},{"name":"江東区","province":"東京都","city":"江東区","address":"江東区大島4-4-3","lat":35.68874,"lon":139.8273},{"name":"（株）メディセオ新東京ビル","province":"東京都","city":"江東区","address":"江東区佐賀2-8-20","lat":35.67896,"lon":139.7919},{"name":"毛利倉庫","province":"東京都","city":"江東区","address":"東京都江東区毛利2丁目1-12","lat":35.69027885,"lon":139.81657956},{"name":"塩浜倉庫","province":"東京都","city":"江東区","address":"東京都江東区塩浜2丁目26-13","lat":35.66510149,"lon":139.81544319},{"name":"清澄白河駅地下倉庫","province":"東京都","city":"江東区","address":"東京都江東区清澄3丁目","lat":35.68269931,"lon":139.7981106},{"name":"亀戸給水所","province":"東京都","city":"江東区","address":"東京都江東区亀戸2-6-50","lat":35.7001343,"lon":139.81999},{"name":"豊住給水所","province":"東京都","city":"江東区","address":"東京都江東区東陽6-1-8","lat":35.67504,"lon":139.810955},{"name":"江東給水所","province":"東京都","city":"江東区","address":"東京都江東区新砂3-6-17","lat":35.6654223,"lon":139.841327},{"name":"有明給水所","province":"東京都","city":"江東区","address":"東京都江東区有明3-1-8","lat":35.6308274,"lon":139.78544},{"name":"区立南砂三丁目公園","province":"東京都","city":"江東区","address":"東京都江東区南砂3-14-21","lat":35.670954,"lon":139.832646},{"name":"都立辰巳の森海浜公園","province":"東京都","city":"江東区","address":"東京都江東区辰巳2-1","lat":35.648004,"lon":139.812798},{"name":"毛利","province":"東京都","city":"江東区","address":"東京都江東区毛利2丁目1-12","lat":35.69027885,"lon":139.81657956},{"name":"塩浜","province":"東京都","city":"江東区","address":"東京都江東区塩浜2丁目26-13","lat":35.66510149,"lon":139.81544319},{"name":"清澄白河駅地下","province":"東京都","city":"江東区","address":"東京都江東区三好1丁目8","lat":35.68034954,"lon":139.79939054},{"name":"テレコムセンター","province":"東京都","city":"江東区","address":"東京都江東区青海2丁目5-10","lat":35.61733141,"lon":139.78018715},{"name":"基幹的広域防災拠点（有明の丘地区）","province":"東京都","city":"江東区","address":"江東区有明3-8-35","lat":35.63537,"lon":139.7941},{"name":"都営大江戸線清澄白河駅内備蓄倉庫","province":"東京都","city":"江東区","address":"江東区白河1-7-14","lat":35.68292,"lon":139.7989},{"name":"江東区","province":"東京都","city":"江東区","address":"江東区大島4-4-3","lat":35.68874,"lon":139.8273},{"name":"（株）メディセオ新東京ビル","province":"東京都","city":"江東区","address":"江東区佐賀2-8-20","lat":35.67896,"lon":139.7919},{"name":"毛利倉庫","province":"東京都","city":"江東区","address":"東京都江東区毛利2丁目1-12","lat":35.69027885,"lon":139.81657956},{"name":"塩浜倉庫","province":"東京都","city":"江東区","address":"東京都江東区塩浜2丁目26-13","lat":35.66510149,"lon":139.81544319},{"name":"清澄白河駅地下倉庫","province":"東京都","city":"江東区","address":"東京都江東区清澄3丁目","lat":35.68269931,"lon":139.7981106},{"name":"亀戸給水所","province":"東京都","city":"江東区","address":"東京都江東区亀戸2-6-50","lat":35.7001343,"lon":139.81999},{"name":"豊住給水所","province":"東京都","city":"江東区","address":"東京都江東区東陽6-1-8","lat":35.67504,"lon":139.810955},{"name":"江東給水所","province":"東京都","city":"江東区","address":"東京都江東区新砂3-6-17","lat":35.6654223,"lon":139.841327},{"name":"有明給水所","province":"東京都","city":"江東区","address":"東京都江東区有明3-1-8","lat":35.6308274,"lon":139.78544},{"name":"区立南砂三丁目公園","province":"東京都","city":"江東区","address":"東京都江東区南砂3-14-21","lat":35.670954,"lon":139.832646},{"name":"都立辰巳の森海浜公園","province":"東京都","city":"江東区","address":"東京都江東区辰巳2-1","lat":35.648004,"lon":139.812798},{"name":"毛利","province":"東京都","city":"江東区","address":"東京都江東区毛利2丁目1-12","lat":35.69027885,"lon":139.81657956},{"name":"塩浜","province":"東京都","city":"江東区","address":"東京都江東区塩浜2丁目26-13","lat":35.66510149,"lon":139.81544319},{"name":"清澄白河駅地下","province":"東京都","city":"江東区","address":"東京都江東区三好1丁目8","lat":35.68034954,"lon":139.79939054},{"name":"テレコムセンター","province":"東京都","city":"江東区","address":"東京都江東区青海2丁目5-10","lat":35.61733141,"lon":139.78018715},{"name":"基幹的広域防災拠点（有明の丘地区）","province":"東京都","city":"江東区","address":"江東区有明3-8-35","lat":35.63537,"lon":139.7941},{"name":"都営大江戸線清澄白河駅内備蓄倉庫","province":"東京都","city":"江東区","address":"江東区白河1-7-14","lat":35.68292,"lon":139.7989},{"name":"江東区","province":"東京都","city":"江東区","address":"江東区大島4-4-3","lat":35.68874,"lon":139.8273},{"name":"（株）メディセオ新東京ビル","province":"東京都","city":"江東区","address":"江東区佐賀2-8-20","lat":35.67896,"lon":139.7919},{"name":"毛利倉庫","province":"東京都","city":"江東区","address":"東京都江東区毛利2丁目1-12","lat":35.69027885,"lon":139.81657956},{"name":"塩浜倉庫","province":"東京都","city":"江東区","address":"東京都江東区塩浜2丁目26-13","lat":35.66510149,"lon":139.81544319},{"name":"清澄白河駅地下倉庫","province":"東京都","city":"江東区","address":"東京都江東区清澄3丁目","lat":35.68269931,"lon":139.7981106},{"name":"亀戸給水所","province":"東京都","city":"江東区","address":"東京都江東区亀戸2-6-50","lat":35.7001343,"lon":139.81999},{"name":"豊住給水所","province":"東京都","city":"江東区","address":"東京都江東区東陽6-1-8","lat":35.67504,"lon":139.810955},{"name":"江東給水所","province":"東京都","city":"江東区","address":"東京都江東区新砂3-6-17","lat":35.6654223,"lon":139.841327},{"name":"有明給水所","province":"東京都","city":"江東区","address":"東京都江東区有明3-1-8","lat":35.6308274,"lon":139.78544},{"name":"区立南砂三丁目公園","province":"東京都","city":"江東区","address":"東京都江東区南砂3-14-21","lat":35.670954,"lon":139.832646},{"name":"都立辰巳の森海浜公園","province":"東京都","city":"江東区","address":"東京都江東区辰巳2-1","lat":35.648004,"lon":139.812798},{"name":"毛利","province":"東京都","city":"江東区","address":"東京都江東区毛利2丁目1-12","lat":35.69027885,"lon":139.81657956},{"name":"塩浜","province":"東京都","city":"江東区","address":"東京都江東区塩浜2丁目26-13","lat":35.66510149,"lon":139.81544319},{"name":"清澄白河駅地下","province":"東京都","city":"江東区","address":"東京都江東区三好1丁目8","lat":35.68034954,"lon":139.79939054},{"name":"テレコムセンター","province":"東京都","city":"江東区","address":"東京都江東区青海2丁目5-10","lat":35.61733141,"lon":139.78018715},{"name":"基幹的広域防災拠点（有明の丘地区）","province":"東京都","city":"江東区","address":"江東区有明3-8-35","lat":35.63537,"lon":139.7941},{"name":"都営大江戸線清澄白河駅内備蓄倉庫","province":"東京都","city":"江東区","address":"江東区白河1-7-14","lat":35.68292,"lon":139.7989},{"name":"江東区","province":"東京都","city":"江東区","address":"江東区大島4-4-3","lat":35.68874,"lon":139.8273},{"name":"（株）メディセオ新東京ビル","province":"東京都","city":"江東区","address":"江東区佐賀2-8-20","lat":35.67896,"lon":139.7919},{"name":"毛利倉庫","province":"東京都","city":"江東区","address":"東京都江東区毛利2丁目1-12","lat":35.69027885,"lon":139.81657956},{"name":"塩浜倉庫","province":"東京都","city":"江東区","address":"東京都江東区塩浜2丁目26-13","lat":35.66510149,"lon":139.81544319},{"name":"清澄白河駅地下倉庫","province":"東京都","city":"江東区","address":"東京都江東区清澄3丁目","lat":35.68269931,"lon":139.7981106},{"name":"亀戸給水所","province":"東京都","city":"江東区","address":"東京都江東区亀戸2-6-50","lat":35.7001343,"lon":139.81999},{"name":"豊住給水所","province":"東京都","city":"江東区","address":"東京都江東区東陽6-1-8","lat":35.67504,"lon":139.810955},{"name":"江東給水所","province":"東京都","city":"江東区","address":"東京都江東区新砂3-6-17","lat":35.6654223,"lon":139.841327},{"name":"有明給水所","province":"東京都","city":"江東区","address":"東京都江東区有明3-1-8","lat":35.6308274,"lon":139.78544},{"name":"区立南砂三丁目公園","province":"東京都","city":"江東区","address":"東京都江東区南砂3-14-21","lat":35.670954,"lon":139.832646},{"name":"都立辰巳の森海浜公園","province":"東京都","city":"江東区","address":"東京都江東区辰巳2-1","lat":35.648004,"lon":139.812798},{"name":"毛利","province":"東京都","city":"江東区","address":"東京都江東区毛利2丁目1-12","lat":35.69027885,"lon":139.81657956},{"name":"塩浜","province":"東京都","city":"江東区","address":"東京都江東区塩浜2丁目26-13","lat":35.66510149,"lon":139.81544319},{"name":"清澄白河駅地下","province":"東京都","city":"江東区","address":"東京都江東区三好1丁目8","lat":35.68034954,"lon":139.79939054},{"name":"テレコムセンター","province":"東京都","city":"江東区","address":"東京都江東区青海2丁目5-10","lat":35.61733141,"lon":139.78018715},{"name":"毛利倉庫","province":"東京都","city":"江東区","address":"東京都江東区毛利2丁目1-12","lat":35.69027885,"lon":139.81657956},{"name":"塩浜倉庫","province":"東京都","city":"江東区","address":"東京都江東区塩浜2丁目26-13","lat":35.66510149,"lon":139.81544319},{"name":"清澄白河駅地下倉庫","province":"東京都","city":"江東区","address":"東京都江東区清澄3丁目","lat":35.68269931,"lon":139.7981106},{"name":"亀戸給水所","province":"東京都","city":"江東区","address":"東京都江東区亀戸2-6-50","lat":35.7001343,"lon":139.81999},{"name":"豊住給水所","province":"東京都","city":"江東区","address":"東京都江東区東陽6-1-8","lat":35.67504,"lon":139.810955},{"name":"江東給水所","province":"東京都","city":"江東区","address":"東京都江東区新砂3-6-17","lat":35.6654223,"lon":139.841327},{"name":"有明給水所","province":"東京都","city":"江東区","address":"東京都江東区有明3-1-8","lat":35.6308274,"lon":139.78544},{"name":"区立南砂三丁目公園","province":"東京都","city":"江東区","address":"東京都江東区南砂3-14-21","lat":35.670954,"lon":139.832646},{"name":"都立辰巳の森海浜公園","province":"東京都","city":"江東区","address":"東京都江東区辰巳2-1","lat":35.648004,"lon":139.812798},{"name":"毛利","province":"東京都","city":"江東区","address":"東京都江東区毛利2丁目1-12","lat":35.69027885,"lon":139.81657956},{"name":"塩浜","province":"東京都","city":"江東区","address":"東京都江東区塩浜2丁目26-13","lat":35.66510149,"lon":139.81544319},{"name":"清澄白河駅地下","province":"東京都","city":"江東区","address":"東京都江東区三好1丁目8","lat":35.68034954,"lon":139.79939054},{"name":"テレコムセンター","province":"東京都","city":"江東区","address":"東京都江東区青海2丁目5-10","lat":35.61733141,"lon":139.78018715},{"name":"毛利倉庫","province":"東京都","city":"江東区","address":"東京都江東区毛利2丁目1-12","lat":35.69027885,"lon":139.81657956},{"name":"塩浜倉庫","province":"東京都","city":"江東区","address":"東京都江東区塩浜2丁目26-13","lat":35.66510149,"lon":139.81544319},{"name":"清澄白河駅地下倉庫","province":"東京都","city":"江東区","address":"東京都江東区清澄3丁目","lat":35.68269931,"lon":139.7981106},{"name":"亀戸給水所","province":"東京都","city":"江東区","address":"東京都江東区亀戸2-6-50","lat":35.7001343,"lon":139.81999},{"name":"豊住給水所","province":"東京都","city":"江東区","address":"東京都江東区東陽6-1-8","lat":35.67504,"lon":139.810955},{"name":"江東給水所","province":"東京都","city":"江東区","address":"東京都江東区新砂3-6-17","lat":35.6654223,"lon":139.841327},{"name":"有明給水所","province":"東京都","city":"江東区","address":"東京都江東区有明3-1-8","lat":35.6308274,"lon":139.78544},{"name":"区立南砂三丁目公園","province":"東京都","city":"江東区","address":"東京都江東区南砂3-14-21","lat":35.670954,"lon":139.832646},{"name":"都立辰巳の森海浜公園","province":"東京都","city":"江東区","address":"東京都江東区辰巳2-1","lat":35.648004,"lon":139.812798},{"name":"毛利","province":"東京都","city":"江東区","address":"東京都江東区毛利2丁目1-12","lat":35.69027885,"lon":139.81657956},{"name":"塩浜","province":"東京都","city":"江東区","address":"東京都江東区塩浜2丁目26-13","lat":35.66510149,"lon":139.81544319},{"name":"清澄白河駅地下","province":"東京都","city":"江東区","address":"東京都江東区三好1丁目8","lat":35.68034954,"lon":139.79939054},{"name":"テレコムセンター","province":"東京都","city":"江東区","address":"東京都江東区青海2丁目5-10","lat":35.61733141,"lon":139.78018715},{"name":"毛利倉庫","province":"東京都","city":"江東区","address":"東京都江東区毛利2丁目1-12","lat":35.69027885,"lon":139.81657956},{"name":"塩浜倉庫","province":"東京都","city":"江東区","address":"東京都江東区塩浜2丁目26-13","lat":35.66510149,"lon":139.81544319},{"name":"清澄白河駅地下倉庫","province":"東京都","city":"江東区","address":"東京都江東区清澄3丁目","lat":35.68269931,"lon":139.7981106},{"name":"亀戸給水所","province":"東京都","city":"江東区","address":"東京都江東区亀戸2-6-50","lat":35.7001343,"lon":139.81999},{"name":"豊住給水所","province":"東京都","city":"江東区","address":"東京都江東区東陽6-1-8","lat":35.67504,"lon":139.810955},{"name":"江東給水所","province":"東京都","city":"江東区","address":"東京都江東区新砂3-6-17","lat":35.6654223,"lon":139.841327},{"name":"有明給水所","province":"東京都","city":"江東区","address":"東京都江東区有明3-1-8","lat":35.6308274,"lon":139.78544},{"name":"区立南砂三丁目公園","province":"東京都","city":"江東区","address":"東京都江東区南砂3-14-21","lat":35.670954,"lon":139.832646},{"name":"都立辰巳の森海浜公園","province":"東京都","city":"江東区","address":"東京都江東区辰巳2-1","lat":35.648004,"lon":139.812798},{"name":"毛利","province":"東京都","city":"江東区","address":"東京都江東区毛利2丁目1-12","lat":35.69027885,"lon":139.81657956},{"name":"塩浜","province":"東京都","city":"江東区","address":"東京都江東区塩浜2丁目26-13","lat":35.66510149,"lon":139.81544319},{"name":"清澄白河駅地下","province":"東京都","city":"江東区","address":"東京都江東区三好1丁目8","lat":35.68034954,"lon":139.79939054},{"name":"テレコムセンター","province":"東京都","city":"江東区","address":"東京都江東区青海2丁目5-10","lat":35.61733141,"lon":139.78018715},{"name":"毛利倉庫","province":"東京都","city":"江東区","address":"東京都江東区毛利2丁目1-12","lat":35.69027885,"lon":139.81657956},{"name":"塩浜倉庫","province":"東京都","city":"江東区","address":"東京都江東区塩浜2丁目26-13","lat":35.66510149,"lon":139.81544319},{"name":"清澄白河駅地下倉庫","province":"東京都","city":"江東区","address":"東京都江東区清澄3丁目","lat":35.68269931,"lon":139.7981106},{"name":"亀戸給水所","province":"東京都","city":"江東区","address":"東京都江東区亀戸2-6-50","lat":35.7001343,"lon":139.81999},{"name":"豊住給水所","province":"東京都","city":"江東区","address":"東京都江東区東陽6-1-8","lat":35.67504,"lon":139.810955},{"name":"江東給水所","province":"東京都","city":"江東区","address":"東京都江東区新砂3-6-17","lat":35.6654223,"lon":139.841327},{"name":"有明給水所","province":"東京都","city":"江東区","address":"東京都江東区有明3-1-8","lat":35.6308274,"lon":139.78544},{"name":"区立南砂三丁目公園","province":"東京都","city":"江東区","address":"東京都江東区南砂3-14-21","lat":35.670954,"lon":139.832646},{"name":"都立辰巳の森海浜公園","province":"東京都","city":"江東区","address":"東京都江東区辰巳2-1","lat":35.648004,"lon":139.812798},{"name":"毛利","province":"東京都","city":"江東区","address":"東京都江東区毛利2丁目1-12","lat":35.69027885,"lon":139.81657956},{"name":"塩浜","province":"東京都","city":"江東区","address":"東京都江東区塩浜2丁目26-13","lat":35.66510149,"lon":139.81544319},{"name":"清澄白河駅地下","province":"東京都","city":"江東区","address":"東京都江東区三好1丁目8","lat":35.68034954,"lon":139.79939054},{"name":"テレコムセンター","province":"東京都","city":"江東区","address":"東京都江東区青海2丁目5-10","lat":35.61733141,"lon":139.78018715},{"name":"毛利倉庫","province":"東京都","city":"江東区","address":"東京都江東区毛利2丁目1-12","lat":35.69027885,"lon":139.81657956},{"name":"塩浜倉庫","province":"東京都","city":"江東区","address":"東京都江東区塩浜2丁目26-13","lat":35.66510149,"lon":139.81544319},{"name":"清澄白河駅地下倉庫","province":"東京都","city":"江東区","address":"東京都江東区清澄3丁目","lat":35.68269931,"lon":139.7981106},{"name":"亀戸給水所","province":"東京都","city":"江東区","address":"東京都江東区亀戸2-6-50","lat":35.7001343,"lon":139.81999},{"name":"豊住給水所","province":"東京都","city":"江東区","address":"東京都江東区東陽6-1-8","lat":35.67504,"lon":139.810955},{"name":"江東給水所","province":"東京都","city":"江東区","address":"東京都江東区新砂3-6-17","lat":35.6654223,"lon":139.841327},{"name":"有明給水所","province":"東京都","city":"江東区","address":"東京都江東区有明3-1-8","lat":35.6308274,"lon":139.78544},{"name":"区立南砂三丁目公園","province":"東京都","city":"江東区","address":"東京都江東区南砂3-14-21","lat":35.670954,"lon":139.832646},{"name":"都立辰巳の森海浜公園","province":"東京都","city":"江東区","address":"東京都江東区辰巳2-1","lat":35.648004,"lon":139.812798},{"name":"毛利","province":"東京都","city":"江東区","address":"東京都江東区毛利2丁目1-12","lat":35.69027885,"lon":139.81657956},{"name":"塩浜","province":"東京都","city":"江東区","address":"東京都江東区塩浜2丁目26-13","lat":35.66510149,"lon":139.81544319},{"name":"清澄白河駅地下","province":"東京都","city":"江東区","address":"東京都江東区三好1丁目8","lat":35.68034954,"lon":139.79939054},{"name":"テレコムセンター","province":"東京都","city":"江東区","address":"東京都江東区青海2丁目5-10","lat":35.61733141,"lon":139.78018715},{"name":"毛利倉庫","province":"東京都","city":"江東区","address":"東京都江東区毛利2丁目1-12","lat":35.69027885,"lon":139.81657956},{"name":"塩浜倉庫","province":"東京都","city":"江東区","address":"東京都江東区塩浜2丁目26-13","lat":35.66510149,"lon":139.81544319},{"name":"清澄白河駅地下倉庫","province":"東京都","city":"江東区","address":"東京都江東区清澄3丁目","lat":35.68269931,"lon":139.7981106},{"name":"亀戸給水所","province":"東京都","city":"江東区","address":"東京都江東区亀戸2-6-50","lat":35.7001343,"lon":139.81999},{"name":"豊住給水所","province":"東京都","city":"江東区","address":"東京都江東区東陽6-1-8","lat":35.67504,"lon":139.810955},{"name":"江東給水所","province":"東京都","city":"江東区","address":"東京都江東区新砂3-6-17","lat":35.6654223,"lon":139.841327},{"name":"有明給水所","province":"東京都","city":"江東区","address":"東京都江東区有明3-1-8","lat":35.6308274,"lon":139.78544},{"name":"区立南砂三丁目公園","province":"東京都","city":"江東区","address":"東京都江東区南砂3-14-21","lat":35.670954,"lon":139.832646},{"name":"都立辰巳の森海浜公園","province":"東京都","city":"江東区","address":"東京都江東区辰巳2-1","lat":35.648004,"lon":139.812798},{"name":"毛利","province":"東京都","city":"江東区","address":"東京都江東区毛利2丁目1-12","lat":35.69027885,"lon":139.81657956},{"name":"塩浜","province":"東京都","city":"江東区","address":"東京都江東区塩浜2丁目26-13","lat":35.66510149,"lon":139.81544319},{"name":"清澄白河駅地下","province":"東京都","city":"江東区","address":"東京都江東区三好1丁目8","lat":35.68034954,"lon":139.79939054},{"name":"テレコムセンター","province":"東京都","city":"江東区","address":"東京都江東区青海2丁目5-10","lat":35.61733141,"lon":139.78018715},{"name":"毛利倉庫","province":"東京都","city":"江東区","address":"東京都江東区毛利2丁目1-12","lat":35.69027885,"lon":139.81657956},{"name":"塩浜倉庫","province":"東京都","city":"江東区","address":"東京都江東区塩浜2丁目26-13","lat":35.66510149,"lon":139.81544319},{"name":"清澄白河駅地下倉庫","province":"東京都","city":"江東区","address":"東京都江東区清澄3丁目","lat":35.68269931,"lon":139.7981106},{"name":"亀戸給水所","province":"東京都","city":"江東区","address":"東京都江東区亀戸2-6-50","lat":35.7001343,"lon":139.81999},{"name":"豊住給水所","province":"東京都","city":"江東区","address":"東京都江東区東陽6-1-8","lat":35.67504,"lon":139.810955},{"name":"江東給水所","province":"東京都","city":"江東区","address":"東京都江東区新砂3-6-17","lat":35.6654223,"lon":139.841327},{"name":"有明給水所","province":"東京都","city":"江東区","address":"東京都江東区有明3-1-8","lat":35.6308274,"lon":139.78544},{"name":"区立南砂三丁目公園","province":"東京都","city":"江東区","address":"東京都江東区南砂3-14-21","lat":35.670954,"lon":139.832646},{"name":"都立辰巳の森海浜公園","province":"東京都","city":"江東区","address":"東京都江東区辰巳2-1","lat":35.648004,"lon":139.812798},{"name":"毛利","province":"東京都","city":"江東区","address":"東京都江東区毛利2丁目1-12","lat":35.69027885,"lon":139.81657956},{"name":"塩浜","province":"東京都","city":"江東区","address":"東京都江東区塩浜2丁目26-13","lat":35.66510149,"lon":139.81544319},{"name":"清澄白河駅地下","province":"東京都","city":"江東区","address":"東京都江東区三好1丁目8","lat":35.68034954,"lon":139.79939054},{"name":"テレコムセンター","province":"東京都","city":"江東区","address":"東京都江東区青海2丁目5-10","lat":35.61733141,"lon":139.78018715},{"name":"毛利倉庫","province":"東京都","city":"江東区","address":"東京都江東区毛利2丁目1-12","lat":35.69027885,"lon":139.81657956},{"name":"塩浜倉庫","province":"東京都","city":"江東区","address":"東京都江東区塩浜2丁目26-13","lat":35.66510149,"lon":139.81544319},{"name":"清澄白河駅地下倉庫","province":"東京都","city":"江東区","address":"東京都江東区清澄3丁目","lat":35.68269931,"lon":139.7981106},{"name":"亀戸給水所","province":"東京都","city":"江東区","address":"東京都江東区亀戸2-6-50","lat":35.7001343,"lon":139.81999},{"name":"豊住給水所","province":"東京都","city":"江東区","address":"東京都江東区東陽6-1-8","lat":35.67504,"lon":139.810955},{"name":"江東給水所","province":"東京都","city":"江東区","address":"東京都江東区新砂3-6-17","lat":35.6654223,"lon":139.841327},{"name":"有明給水所","province":"東京都","city":"江東区","address":"東京都江東区有明3-1-8","lat":35.6308274,"lon":139.78544},{"name":"区立南砂三丁目公園","province":"東京都","city":"江東区","address":"東京都江東区南砂3-14-21","lat":35.670954,"lon":139.832646},{"name":"都立辰巳の森海浜公園","province":"東京都","city":"江東区","address":"東京都江東区辰巳2-1","lat":35.648004,"lon":139.812798},{"name":"毛利","province":"東京都","city":"江東区","address":"東京都江東区毛利2丁目1-12","lat":35.69027885,"lon":139.81657956},{"name":"塩浜","province":"東京都","city":"江東区","address":"東京都江東区塩浜2丁目26-13","lat":35.66510149,"lon":139.81544319},{"name":"清澄白河駅地下","province":"東京都","city":"江東区","address":"東京都江東区三好1丁目8","lat":35.68034954,"lon":139.79939054},{"name":"テレコムセンター","province":"東京都","city":"江東区","address":"東京都江東区青海2丁目5-10","lat":35.61733141,"lon":139.78018715},{"name":"毛利倉庫","province":"東京都","city":"江東区","address":"東京都江東区毛利2丁目1-12","lat":35.69027885,"lon":139.81657956},{"name":"塩浜倉庫","province":"東京都","city":"江東区","address":"東京都江東区塩浜2丁目26-13","lat":35.66510149,"lon":139.81544319},{"name":"清澄白河駅地下倉庫","province":"東京都","city":"江東区","address":"東京都江東区清澄3丁目","lat":35.68269931,"lon":139.7981106},{"name":"亀戸給水所","province":"東京都","city":"江東区","address":"東京都江東区亀戸2-6-50","lat":35.7001343,"lon":139.81999},{"name":"豊住給水所","province":"東京都","city":"江東区","address":"東京都江東区東陽6-1-8","lat":35.67504,"lon":139.810955},{"name":"江東給水所","province":"東京都","city":"江東区","address":"東京都江東区新砂3-6-17","lat":35.6654223,"lon":139.841327},{"name":"有明給水所","province":"東京都","city":"江東区","address":"東京都江東区有明3-1-8","lat":35.6308274,"lon":139.78544},{"name":"区立南砂三丁目公園","province":"東京都","city":"江東区","address":"東京都江東区南砂3-14-21","lat":35.670954,"lon":139.832646},{"name":"都立辰巳の森海浜公園","province":"東京都","city":"江東区","address":"東京都江東区辰巳2-1","lat":35.648004,"lon":139.812798},{"name":"毛利","province":"東京都","city":"江東区","address":"東京都江東区毛利2丁目1-12","lat":35.69027885,"lon":139.81657956},{"name":"塩浜","province":"東京都","city":"江東区","address":"東京都江東区塩浜2丁目26-13","lat":35.66510149,"lon":139.81544319},{"name":"清澄白河駅地下","province":"東京都","city":"江東区","address":"東京都江東区三好1丁目8","lat":35.68034954,"lon":139.79939054},{"name":"テレコムセンター","province":"東京都","city":"江東区","address":"東京都江東区青海2丁目5-10","lat":35.61733141,"lon":139.78018715},{"name":"毛利倉庫","province":"東京都","city":"江東区","address":"東京都江東区毛利2丁目1-12","lat":35.69027885,"lon":139.81657956},{"name":"塩浜倉庫","province":"東京都","city":"江東区","address":"東京都江東区塩浜2丁目26-13","lat":35.66510149,"lon":139.81544319},{"name":"清澄白河駅地下倉庫","province":"東京都","city":"江東区","address":"東京都江東区清澄3丁目","lat":35.68269931,"lon":139.7981106},{"name":"亀戸給水所","province":"東京都","city":"江東区","address":"東京都江東区亀戸2-6-50","lat":35.7001343,"lon":139.81999},{"name":"豊住給水所","province":"東京都","city":"江東区","address":"東京都江東区東陽6-1-8","lat":35.67504,"lon":139.810955},{"name":"江東給水所","province":"東京都","city":"江東区","address":"東京都江東区新砂3-6-17","lat":35.6654223,"lon":139.841327},{"name":"有明給水所","province":"東京都","city":"江東区","address":"東京都江東区有明3-1-8","lat":35.6308274,"lon":139.78544},{"name":"区立南砂三丁目公園","province":"東京都","city":"江東区","address":"東京都江東区南砂3-14-21","lat":35.670954,"lon":139.832646},{"name":"都立辰巳の森海浜公園","province":"東京都","city":"江東区","address":"東京都江東区辰巳2-1","lat":35.648004,"lon":139.812798},{"name":"毛利","province":"東京都","city":"江東区","address":"東京都江東区毛利2丁目1-12","lat":35.69027885,"lon":139.81657956},{"name":"塩浜","province":"東京都","city":"江東区","address":"東京都江東区塩浜2丁目26-13","lat":35.66510149,"lon":139.81544319},{"name":"清澄白河駅地下","province":"東京都","city":"江東区","address":"東京都江東区三好1丁目8","lat":35.68034954,"lon":139.79939054},{"name":"テレコムセンター","province":"東京都","city":"江東区","address":"東京都江東区青海2丁目5-10","lat":35.61733141,"lon":139.78018715},{"name":"毛利倉庫","province":"東京都","city":"江東区","address":"東京都江東区毛利2丁目1-12","lat":35.69027885,"lon":139.81657956},{"name":"塩浜倉庫","province":"東京都","city":"江東区","address":"東京都江東区塩浜2丁目26-13","lat":35.66510149,"lon":139.81544319},{"name":"清澄白河駅地下倉庫","province":"東京都","city":"江東区","address":"東京都江東区清澄3丁目","lat":35.68269931,"lon":139.7981106},{"name":"亀戸給水所","province":"東京都","city":"江東区","address":"東京都江東区亀戸2-6-50","lat":35.7001343,"lon":139.81999},{"name":"豊住給水所","province":"東京都","city":"江東区","address":"東京都江東区東陽6-1-8","lat":35.67504,"lon":139.810955},{"name":"江東給水所","province":"東京都","city":"江東区","address":"東京都江東区新砂3-6-17","lat":35.6654223,"lon":139.841327},{"name":"有明給水所","province":"東京都","city":"江東区","address":"東京都江東区有明3-1-8","lat":35.6308274,"lon":139.78544},{"name":"区立南砂三丁目公園","province":"東京都","city":"江東区","address":"東京都江東区南砂3-14-21","lat":35.670954,"lon":139.832646},{"name":"都立辰巳の森海浜公園","province":"東京都","city":"江東区","address":"東京都江東区辰巳2-1","lat":35.648004,"lon":139.812798},{"name":"毛利","province":"東京都","city":"江東区","address":"東京都江東区毛利2丁目1-12","lat":35.69027885,"lon":139.81657956},{"name":"塩浜","province":"東京都","city":"江東区","address":"東京都江東区塩浜2丁目26-13","lat":35.66510149,"lon":139.81544319},{"name":"清澄白河駅地下","province":"東京都","city":"江東区","address":"東京都江東区三好1丁目8","lat":35.68034954,"lon":139.79939054},{"name":"テレコムセンター","province":"東京都","city":"江東区","address":"東京都江東区青海2丁目5-10","lat":35.61733141,"lon":139.78018715},{"name":"毛利倉庫","province":"東京都","city":"江東区","address":"東京都江東区毛利2丁目1-12","lat":35.69027885,"lon":139.81657956},{"name":"塩浜倉庫","province":"東京都","city":"江東区","address":"東京都江東区塩浜2丁目26-13","lat":35.66510149,"lon":139.81544319},{"name":"清澄白河駅地下倉庫","province":"東京都","city":"江東区","address":"東京都江東区清澄3丁目","lat":35.68269931,"lon":139.7981106},{"name":"亀戸給水所","province":"東京都","city":"江東区","address":"東京都江東区亀戸2-6-50","lat":35.7001343,"lon":139.81999},{"name":"豊住給水所","province":"東京都","city":"江東区","address":"東京都江東区東陽6-1-8","lat":35.67504,"lon":139.810955},{"name":"江東給水所","province":"東京都","city":"江東区","address":"東京都江東区新砂3-6-17","lat":35.6654223,"lon":139.841327},{"name":"有明給水所","province":"東京都","city":"江東区","address":"東京都江東区有明3-1-8","lat":35.6308274,"lon":139.78544},{"name":"区立南砂三丁目公園","province":"東京都","city":"江東区","address":"東京都江東区南砂3-14-21","lat":35.670954,"lon":139.832646},{"name":"都立辰巳の森海浜公園","province":"東京都","city":"江東区","address":"東京都江東区辰巳2-1","lat":35.648004,"lon":139.812798},{"name":"毛利","province":"東京都","city":"江東区","address":"東京都江東区毛利2丁目1-12","lat":35.69027885,"lon":139.81657956},{"name":"塩浜","province":"東京都","city":"江東区","address":"東京都江東区塩浜2丁目26-13","lat":35.66510149,"lon":139.81544319},{"name":"清澄白河駅地下","province":"東京都","city":"江東区","address":"東京都江東区三好1丁目8","lat":35.68034954,"lon":139.79939054},{"name":"テレコムセンター","province":"東京都","city":"江東区","address":"東京都江東区青海2丁目5-10","lat":35.61733141,"lon":139.78018715},{"name":"毛利倉庫","province":"東京都","city":"江東区","address":"東京都江東区毛利2丁目1-12","lat":35.69027885,"lon":139.81657956},{"name":"塩浜倉庫","province":"東京都","city":"江東区","address":"東京都江東区塩浜2丁目26-13","lat":35.66510149,"lon":139.81544319},{"name":"清澄白河駅地下倉庫","province":"東京都","city":"江東区","address":"東京都江東区清澄3丁目","lat":35.68269931,"lon":139.7981106}]}