{"keyword":"宿泊","data":[{"name":"新幸荘","province":"東京都","city":"江東区","address":"東京都江東区","lat":35.67307835,"lon":139.8169681},{"name":"福住荘","province":"東京都","city":"江東区","address":"江東区福住1-14-10","lat":35.674944,"lon":139.793957},{"name":"さくら亀戸ハウス","province":"東京都","city":"江東区","address":"江東区亀戸4-33-5","lat":35.703072,"lon":139.827531},{"name":"さくら第３亀戸ハウス","province":"東京都","city":"江東区","address":"江東区亀戸7-24-1","lat":35.699556,"lon":139.836818},{"name":"さくら第２亀戸ハウス","province":"東京都","city":"江東区","address":"江東区亀戸9-18-10","lat":35.697784,"lon":139.843076},{"name":"江東荘","province":"東京都","city":"江東区","address":"東京都江東区","lat":35.67307835,"lon":139.8169681},{"name":"砂町クラブ","province":"東京都","city":"江東区","address":"江東区北砂4丁目11-22","lat":35.678392,"lon":139.829844},{"name":"福住荘","province":"東京都","city":"江東区","address":"江東区福住1-14-10","lat":35.67499,"lon":139.79393},{"name":"さくら亀戸ハウス","province":"東京都","city":"江東区","address":"江東区亀戸4-33-5","lat":35.70295,"lon":139.82738},{"name":"さくら第３亀戸ハウス","province":"東京都","city":"江東区","address":"江東区亀戸7-24-1","lat":35.69941,"lon":139.83678},{"name":"さくら第２亀戸ハウス","province":"東京都","city":"江東区","address":"江東区亀戸9-18-10","lat":35.69769,"lon":139.84254},{"name":"砂町クラブ","province":"東京都","city":"江東区","address":"江東区北砂4-11-22","lat":35.67882,"lon":139.82986}]}