{"keyword":"店","data":[{"name":"江東区こども発達センター","province":"東京都","city":"江東区","address":"江東区塩浜2-5-20","lat":35.661932,"lon":139.805383},{"name":"東京都立東部療育センター","province":"東京都","city":"江東区","address":"江東区新砂3-3-25","lat":35.663819,"lon":139.833178},{"name":"ロゴス点字図書館","province":"東京都","city":"江東区","address":"江東区潮見二丁目10番10号日本カトリック会館1階","lat":35.656691,"lon":139.816721},{"name":"新幸荘","province":"東京都","city":"江東区","address":"東京都江東区","lat":35.67307835,"lon":139.8169681},{"name":"福住荘","province":"東京都","city":"江東区","address":"江東区福住1-14-10","lat":35.674944,"lon":139.793957},{"name":"さくら亀戸ハウス","province":"東京都","city":"江東区","address":"江東区亀戸4-33-5","lat":35.703072,"lon":139.827531},{"name":"さくら第３亀戸ハウス","province":"東京都","city":"江東区","address":"江東区亀戸7-24-1","lat":35.699556,"lon":139.836818},{"name":"さくら第２亀戸ハウス","province":"東京都","city":"江東区","address":"江東区亀戸9-18-10","lat":35.697784,"lon":139.843076},{"name":"江東荘","province":"東京都","city":"江東区","address":"東京都江東区","lat":35.67307835,"lon":139.8169681},{"name":"砂町クラブ","province":"東京都","city":"江東区","address":"江東区北砂4丁目11-22","lat":35.678392,"lon":139.829844},{"name":"あそか病院","province":"東京都","city":"江東区","address":"江東区住吉1-18-1","lat":35.689859,"lon":139.811861},{"name":"江東区社会福祉協議会","province":"東京都","city":"江東区","address":"江東区東陽6-2-17高齢者総合福祉センター2階","lat":35.674728,"lon":139.812491},{"name":"福住荘","province":"東京都","city":"江東区","address":"江東区福住1-14-10","lat":35.67499,"lon":139.79393},{"name":"さくら亀戸ハウス","province":"東京都","city":"江東区","address":"江東区亀戸4-33-5","lat":35.70295,"lon":139.82738},{"name":"さくら第３亀戸ハウス","province":"東京都","city":"江東区","address":"江東区亀戸7-24-1","lat":35.69941,"lon":139.83678},{"name":"さくら第２亀戸ハウス","province":"東京都","city":"江東区","address":"江東区亀戸9-18-10","lat":35.69769,"lon":139.84254},{"name":"砂町クラブ","province":"東京都","city":"江東区","address":"江東区北砂4-11-22","lat":35.67882,"lon":139.82986},{"name":"（有）大坪葬儀社","province":"東京都","city":"江東区","address":"東京都江東区亀戸4丁目34-2","lat":35.7025079,"lon":139.82707782},{"name":"（株）大平セレモニーハート","province":"東京都","city":"江東区","address":"東京都江東区大島1丁目21-6","lat":35.68671565,"lon":139.82503662},{"name":"（株）落合商店","province":"東京都","city":"江東区","address":"東京都江東区毛利1丁目18-9","lat":35.69188138,"lon":139.81523806},{"name":"（有）木村商店","province":"東京都","city":"江東区","address":"東京都江東区白河1丁目1-3","lat":35.68109392,"lon":139.79910738},{"name":"（有）かねなお鈴木商店","province":"東京都","city":"江東区","address":"東京都江東区北砂1丁目14-7","lat":35.67947212,"lon":139.8239007},{"name":"亀戸駅前式場　北辰舎","province":"東京都","city":"江東区","address":"東京都江東区亀戸6丁目28-4","lat":35.69640888,"lon":139.82710552},{"name":"丸本渡辺葬儀社","province":"東京都","city":"江東区","address":"東京都江東区扇橋2丁目12-5","lat":35.68378808,"lon":139.81589637},{"name":"（有）淀野商店","province":"東京都","city":"江東区","address":"東京都江東区白河1丁目1-11","lat":35.68080505,"lon":139.7993684},{"name":"ロゴス点字図書館","province":"東京都","city":"江東区","address":"江東区潮見2-10-10日本カトリック会館1階","lat":35.6567,"lon":139.81723},{"name":"江東区社会福祉協議会","province":"東京都","city":"江東区","address":"江東区東陽6-2-17高齢者総合福祉センター2階","lat":35.67411,"lon":139.81239},{"name":"江東区障害者福祉センター","province":"東京都","city":"江東区","address":"東京都江東区扇橋3丁目7-2","lat":35.68268272,"lon":139.82041507},{"name":"社会福祉法人のびのび福祉会のびのび共同作業所大河","province":"東京都","city":"江東区","address":"東京都江東区南砂3丁目5-14","lat":35.67275921,"lon":139.82868907},{"name":"社会福祉法人のびのび福祉会自立センターあけぼの","province":"東京都","city":"江東区","address":"東京都江東区塩浜2丁目5-20","lat":35.66193219,"lon":139.80538308},{"name":"社会福祉法人ゆめグループ福祉会ゆめ工房","province":"東京都","city":"江東区","address":"東京都江東区北砂1丁目14-4","lat":35.67919994,"lon":139.82412845},{"name":"社会福祉法人ゆめグループ福祉会ゆめ工房北砂","province":"東京都","city":"江東区","address":"東京都江東区北砂1丁目14-4","lat":35.67919994,"lon":139.82412845},{"name":"社会福祉法人ゆめグループ福祉会ドリーム第２","province":"東京都","city":"江東区","address":"東京都江東区東砂6丁目20-7","lat":35.67519805,"lon":139.84087677},{"name":"社会福祉法人ゆめグループ福祉会ドリーム第２分室リサイクル工房サラエ","province":"東京都","city":"江東区","address":"東京都江東区東砂5丁目16-3","lat":35.67553138,"lon":139.84322934},{"name":"社会福祉法人ゆめグループ福祉会ネットワークゆめ工房","province":"東京都","city":"江東区","address":"東京都江東区北砂1丁目17-4","lat":35.67989709,"lon":139.82474781},{"name":"社会福祉法人ゆめグループ福祉会ドリームクラブハウス","province":"東京都","city":"江東区","address":"東京都江東区北砂1丁目15-8","lat":35.67843617,"lon":139.82485059},{"name":"社会福祉法人ゆめグループ福祉会ふれあい工房","province":"東京都","city":"江東区","address":"東京都江東区千石2丁目2-5","lat":35.67727782,"lon":139.81565733},{"name":"株式会社ティ－ビーエスオペレーションコレンド東陽町","province":"東京都","city":"江東区","address":"東京都江東区東陽2丁目4-46","lat":35.66913999,"lon":139.81931223},{"name":"さくら第２亀戸ハウス","province":"東京都","city":"江東区","address":"江東区亀戸9-18-10","lat":35.69769,"lon":139.84255},{"name":"Ｂｕｍｂ東京スポーツ文化館","province":"東京都","city":"江東区","address":"江東区夢の島2-1-3","lat":35.64877474,"lon":139.8347164},{"name":"東京辰巳国際水泳場","province":"東京都","city":"江東区","address":"東京都江東区","lat":35.67307835,"lon":139.8169681},{"name":"有明テニスの森公園有明コロシアム","province":"東京都","city":"江東区","address":"東京都江東区","lat":35.67307835,"lon":139.8169681},{"name":"有明テニスの森公園クラブハウスほか附属施設等14件","province":"東京都","city":"江東区","address":"東京都江東区","lat":35.67307835,"lon":139.8169681},{"name":"若洲海浜公園ヨット訓練所艇庫ほか2件","province":"東京都","city":"江東区","address":"東京都江東区","lat":35.67307835,"lon":139.8169681},{"name":"有明テニスの森公園駐車場","province":"東京都","city":"江東区","address":"東京都江東区","lat":35.67307835,"lon":139.8169681},{"name":"有明テニスの森公園砂入り人工芝（テニスコート）","province":"東京都","city":"江東区","address":"東京都江東区","lat":35.67307835,"lon":139.8169681},{"name":"若洲海浜公園ヨット訓練所ボートヤード","province":"東京都","city":"江東区","address":"東京都江東区","lat":35.67307835,"lon":139.8169681},{"name":"若洲海浜公園ヨット訓練所浮桟橋","province":"東京都","city":"江東区","address":"東京都江東区","lat":35.67307835,"lon":139.8169681},{"name":"介護老人保健施設キーストーン","province":"東京都","city":"江東区","address":"江東区亀戸3-36-1","lat":35.707275,"lon":139.819328},{"name":"江東区こども発達センター","province":"東京都","city":"江東区","address":"江東区塩浜2-5-20","lat":35.661932,"lon":139.805383},{"name":"東京都立東部療育センター","province":"東京都","city":"江東区","address":"江東区新砂3-3-25","lat":35.663819,"lon":139.833178},{"name":"ロゴス点字図書館","province":"東京都","city":"江東区","address":"江東区潮見二丁目10番10号日本カトリック会館1階","lat":35.656691,"lon":139.816721},{"name":"新幸荘","province":"東京都","city":"江東区","address":"東京都江東区","lat":35.67307835,"lon":139.8169681},{"name":"福住荘","province":"東京都","city":"江東区","address":"江東区福住1-14-10","lat":35.674944,"lon":139.793957},{"name":"さくら亀戸ハウス","province":"東京都","city":"江東区","address":"江東区亀戸4-33-5","lat":35.703072,"lon":139.827531},{"name":"さくら第３亀戸ハウス","province":"東京都","city":"江東区","address":"江東区亀戸7-24-1","lat":35.699556,"lon":139.836818},{"name":"さくら第２亀戸ハウス","province":"東京都","city":"江東区","address":"江東区亀戸9-18-10","lat":35.697784,"lon":139.843076},{"name":"江東荘","province":"東京都","city":"江東区","address":"東京都江東区","lat":35.67307835,"lon":139.8169681},{"name":"砂町クラブ","province":"東京都","city":"江東区","address":"江東区北砂4丁目11-22","lat":35.678392,"lon":139.829844},{"name":"あそか病院","province":"東京都","city":"江東区","address":"江東区住吉1-18-1","lat":35.689859,"lon":139.811861},{"name":"江東区社会福祉協議会","province":"東京都","city":"江東区","address":"江東区東陽6-2-17高齢者総合福祉センター2階","lat":35.674728,"lon":139.812491},{"name":"福住荘","province":"東京都","city":"江東区","address":"江東区福住1-14-10","lat":35.67499,"lon":139.79393},{"name":"さくら亀戸ハウス","province":"東京都","city":"江東区","address":"江東区亀戸4-33-5","lat":35.70295,"lon":139.82738},{"name":"さくら第３亀戸ハウス","province":"東京都","city":"江東区","address":"江東区亀戸7-24-1","lat":35.69941,"lon":139.83678},{"name":"さくら第２亀戸ハウス","province":"東京都","city":"江東区","address":"江東区亀戸9-18-10","lat":35.69769,"lon":139.84254},{"name":"砂町クラブ","province":"東京都","city":"江東区","address":"江東区北砂4-11-22","lat":35.67882,"lon":139.82986},{"name":"（有）大坪葬儀社","province":"東京都","city":"江東区","address":"東京都江東区亀戸4丁目34-2","lat":35.7025079,"lon":139.82707782},{"name":"（株）大平セレモニーハート","province":"東京都","city":"江東区","address":"東京都江東区大島1丁目21-6","lat":35.68671565,"lon":139.82503662},{"name":"（株）落合商店","province":"東京都","city":"江東区","address":"東京都江東区毛利1丁目18-9","lat":35.69188138,"lon":139.81523806},{"name":"（有）木村商店","province":"東京都","city":"江東区","address":"東京都江東区白河1丁目1-3","lat":35.68109392,"lon":139.79910738},{"name":"（有）かねなお鈴木商店","province":"東京都","city":"江東区","address":"東京都江東区北砂1丁目14-7","lat":35.67947212,"lon":139.8239007},{"name":"亀戸駅前式場　北辰舎","province":"東京都","city":"江東区","address":"東京都江東区亀戸6丁目28-4","lat":35.69640888,"lon":139.82710552},{"name":"丸本渡辺葬儀社","province":"東京都","city":"江東区","address":"東京都江東区扇橋2丁目12-5","lat":35.68378808,"lon":139.81589637},{"name":"（有）淀野商店","province":"東京都","city":"江東区","address":"東京都江東区白河1丁目1-11","lat":35.68080505,"lon":139.7993684},{"name":"ロゴス点字図書館","province":"東京都","city":"江東区","address":"江東区潮見2-10-10日本カトリック会館1階","lat":35.6567,"lon":139.81723},{"name":"江東区社会福祉協議会","province":"東京都","city":"江東区","address":"江東区東陽6-2-17高齢者総合福祉センター2階","lat":35.67411,"lon":139.81239},{"name":"江東区障害者福祉センター","province":"東京都","city":"江東区","address":"東京都江東区扇橋3丁目7-2","lat":35.68268272,"lon":139.82041507},{"name":"社会福祉法人のびのび福祉会のびのび共同作業所大河","province":"東京都","city":"江東区","address":"東京都江東区南砂3丁目5-14","lat":35.67275921,"lon":139.82868907},{"name":"社会福祉法人のびのび福祉会自立センターあけぼの","province":"東京都","city":"江東区","address":"東京都江東区塩浜2丁目5-20","lat":35.66193219,"lon":139.80538308},{"name":"社会福祉法人ゆめグループ福祉会ゆめ工房","province":"東京都","city":"江東区","address":"東京都江東区北砂1丁目14-4","lat":35.67919994,"lon":139.82412845},{"name":"社会福祉法人ゆめグループ福祉会ゆめ工房北砂","province":"東京都","city":"江東区","address":"東京都江東区北砂1丁目14-4","lat":35.67919994,"lon":139.82412845},{"name":"社会福祉法人ゆめグループ福祉会ドリーム第２","province":"東京都","city":"江東区","address":"東京都江東区東砂6丁目20-7","lat":35.67519805,"lon":139.84087677},{"name":"社会福祉法人ゆめグループ福祉会ドリーム第２分室リサイクル工房サラエ","province":"東京都","city":"江東区","address":"東京都江東区東砂5丁目16-3","lat":35.67553138,"lon":139.84322934},{"name":"社会福祉法人ゆめグループ福祉会ネットワークゆめ工房","province":"東京都","city":"江東区","address":"東京都江東区北砂1丁目17-4","lat":35.67989709,"lon":139.82474781},{"name":"社会福祉法人ゆめグループ福祉会ドリームクラブハウス","province":"東京都","city":"江東区","address":"東京都江東区北砂1丁目15-8","lat":35.67843617,"lon":139.82485059},{"name":"社会福祉法人ゆめグループ福祉会ふれあい工房","province":"東京都","city":"江東区","address":"東京都江東区千石2丁目2-5","lat":35.67727782,"lon":139.81565733},{"name":"株式会社ティ－ビーエスオペレーションコレンド東陽町","province":"東京都","city":"江東区","address":"東京都江東区東陽2丁目4-46","lat":35.66913999,"lon":139.81931223},{"name":"さくら第２亀戸ハウス","province":"東京都","city":"江東区","address":"江東区亀戸9-18-10","lat":35.69769,"lon":139.84255},{"name":"Ｂｕｍｂ東京スポーツ文化館","province":"東京都","city":"江東区","address":"江東区夢の島2-1-3","lat":35.64877474,"lon":139.8347164},{"name":"東京辰巳国際水泳場","province":"東京都","city":"江東区","address":"東京都江東区","lat":35.67307835,"lon":139.8169681},{"name":"有明テニスの森公園有明コロシアム","province":"東京都","city":"江東区","address":"東京都江東区","lat":35.67307835,"lon":139.8169681},{"name":"有明テニスの森公園クラブハウスほか附属施設等14件","province":"東京都","city":"江東区","address":"東京都江東区","lat":35.67307835,"lon":139.8169681},{"name":"若洲海浜公園ヨット訓練所艇庫ほか2件","province":"東京都","city":"江東区","address":"東京都江東区","lat":35.67307835,"lon":139.8169681},{"name":"有明テニスの森公園駐車場","province":"東京都","city":"江東区","address":"東京都江東区","lat":35.67307835,"lon":139.8169681},{"name":"有明テニスの森公園砂入り人工芝（テニスコート）","province":"東京都","city":"江東区","address":"東京都江東区","lat":35.67307835,"lon":139.8169681},{"name":"若洲海浜公園ヨット訓練所ボートヤード","province":"東京都","city":"江東区","address":"東京都江東区","lat":35.67307835,"lon":139.8169681},{"name":"若洲海浜公園ヨット訓練所浮桟橋","province":"東京都","city":"江東区","address":"東京都江東区","lat":35.67307835,"lon":139.8169681},{"name":"介護老人保健施設キーストーン","province":"東京都","city":"江東区","address":"江東区亀戸3-36-1","lat":35.707275,"lon":139.819328},{"name":"江東区こども発達センター","province":"東京都","city":"江東区","address":"江東区塩浜2-5-20","lat":35.661932,"lon":139.805383},{"name":"東京都立東部療育センター","province":"東京都","city":"江東区","address":"江東区新砂3-3-25","lat":35.663819,"lon":139.833178},{"name":"ロゴス点字図書館","province":"東京都","city":"江東区","address":"江東区潮見二丁目10番10号日本カトリック会館1階","lat":35.656691,"lon":139.816721},{"name":"新幸荘","province":"東京都","city":"江東区","address":"東京都江東区","lat":35.67307835,"lon":139.8169681},{"name":"福住荘","province":"東京都","city":"江東区","address":"江東区福住1-14-10","lat":35.674944,"lon":139.793957},{"name":"さくら亀戸ハウス","province":"東京都","city":"江東区","address":"江東区亀戸4-33-5","lat":35.703072,"lon":139.827531},{"name":"さくら第３亀戸ハウス","province":"東京都","city":"江東区","address":"江東区亀戸7-24-1","lat":35.699556,"lon":139.836818},{"name":"さくら第２亀戸ハウス","province":"東京都","city":"江東区","address":"江東区亀戸9-18-10","lat":35.697784,"lon":139.843076},{"name":"江東荘","province":"東京都","city":"江東区","address":"東京都江東区","lat":35.67307835,"lon":139.8169681},{"name":"砂町クラブ","province":"東京都","city":"江東区","address":"江東区北砂4丁目11-22","lat":35.678392,"lon":139.829844},{"name":"あそか病院","province":"東京都","city":"江東区","address":"江東区住吉1-18-1","lat":35.689859,"lon":139.811861},{"name":"江東区社会福祉協議会","province":"東京都","city":"江東区","address":"江東区東陽6-2-17高齢者総合福祉センター2階","lat":35.674728,"lon":139.812491},{"name":"福住荘","province":"東京都","city":"江東区","address":"江東区福住1-14-10","lat":35.67499,"lon":139.79393},{"name":"さくら亀戸ハウス","province":"東京都","city":"江東区","address":"江東区亀戸4-33-5","lat":35.70295,"lon":139.82738},{"name":"さくら第３亀戸ハウス","province":"東京都","city":"江東区","address":"江東区亀戸7-24-1","lat":35.69941,"lon":139.83678},{"name":"さくら第２亀戸ハウス","province":"東京都","city":"江東区","address":"江東区亀戸9-18-10","lat":35.69769,"lon":139.84254},{"name":"砂町クラブ","province":"東京都","city":"江東区","address":"江東区北砂4-11-22","lat":35.67882,"lon":139.82986},{"name":"（有）大坪葬儀社","province":"東京都","city":"江東区","address":"東京都江東区亀戸4丁目34-2","lat":35.7025079,"lon":139.82707782},{"name":"（株）大平セレモニーハート","province":"東京都","city":"江東区","address":"東京都江東区大島1丁目21-6","lat":35.68671565,"lon":139.82503662},{"name":"（株）落合商店","province":"東京都","city":"江東区","address":"東京都江東区毛利1丁目18-9","lat":35.69188138,"lon":139.81523806},{"name":"（有）木村商店","province":"東京都","city":"江東区","address":"東京都江東区白河1丁目1-3","lat":35.68109392,"lon":139.79910738},{"name":"（有）かねなお鈴木商店","province":"東京都","city":"江東区","address":"東京都江東区北砂1丁目14-7","lat":35.67947212,"lon":139.8239007},{"name":"亀戸駅前式場　北辰舎","province":"東京都","city":"江東区","address":"東京都江東区亀戸6丁目28-4","lat":35.69640888,"lon":139.82710552},{"name":"丸本渡辺葬儀社","province":"東京都","city":"江東区","address":"東京都江東区扇橋2丁目12-5","lat":35.68378808,"lon":139.81589637},{"name":"（有）淀野商店","province":"東京都","city":"江東区","address":"東京都江東区白河1丁目1-11","lat":35.68080505,"lon":139.7993684},{"name":"ロゴス点字図書館","province":"東京都","city":"江東区","address":"江東区潮見2-10-10日本カトリック会館1階","lat":35.6567,"lon":139.81723},{"name":"江東区社会福祉協議会","province":"東京都","city":"江東区","address":"江東区東陽6-2-17高齢者総合福祉センター2階","lat":35.67411,"lon":139.81239},{"name":"江東区障害者福祉センター","province":"東京都","city":"江東区","address":"東京都江東区扇橋3丁目7-2","lat":35.68268272,"lon":139.82041507},{"name":"社会福祉法人のびのび福祉会のびのび共同作業所大河","province":"東京都","city":"江東区","address":"東京都江東区南砂3丁目5-14","lat":35.67275921,"lon":139.82868907},{"name":"社会福祉法人のびのび福祉会自立センターあけぼの","province":"東京都","city":"江東区","address":"東京都江東区塩浜2丁目5-20","lat":35.66193219,"lon":139.80538308},{"name":"社会福祉法人ゆめグループ福祉会ゆめ工房","province":"東京都","city":"江東区","address":"東京都江東区北砂1丁目14-4","lat":35.67919994,"lon":139.82412845},{"name":"社会福祉法人ゆめグループ福祉会ゆめ工房北砂","province":"東京都","city":"江東区","address":"東京都江東区北砂1丁目14-4","lat":35.67919994,"lon":139.82412845},{"name":"社会福祉法人ゆめグループ福祉会ドリーム第２","province":"東京都","city":"江東区","address":"東京都江東区東砂6丁目20-7","lat":35.67519805,"lon":139.84087677},{"name":"社会福祉法人ゆめグループ福祉会ドリーム第２分室リサイクル工房サラエ","province":"東京都","city":"江東区","address":"東京都江東区東砂5丁目16-3","lat":35.67553138,"lon":139.84322934},{"name":"社会福祉法人ゆめグループ福祉会ネットワークゆめ工房","province":"東京都","city":"江東区","address":"東京都江東区北砂1丁目17-4","lat":35.67989709,"lon":139.82474781},{"name":"社会福祉法人ゆめグループ福祉会ドリームクラブハウス","province":"東京都","city":"江東区","address":"東京都江東区北砂1丁目15-8","lat":35.67843617,"lon":139.82485059},{"name":"社会福祉法人ゆめグループ福祉会ふれあい工房","province":"東京都","city":"江東区","address":"東京都江東区千石2丁目2-5","lat":35.67727782,"lon":139.81565733},{"name":"株式会社ティ－ビーエスオペレーションコレンド東陽町","province":"東京都","city":"江東区","address":"東京都江東区東陽2丁目4-46","lat":35.66913999,"lon":139.81931223},{"name":"さくら第２亀戸ハウス","province":"東京都","city":"江東区","address":"江東区亀戸9-18-10","lat":35.69769,"lon":139.84255},{"name":"Ｂｕｍｂ東京スポーツ文化館","province":"東京都","city":"江東区","address":"江東区夢の島2-1-3","lat":35.64877474,"lon":139.8347164},{"name":"東京辰巳国際水泳場","province":"東京都","city":"江東区","address":"東京都江東区","lat":35.67307835,"lon":139.8169681},{"name":"有明テニスの森公園有明コロシアム","province":"東京都","city":"江東区","address":"東京都江東区","lat":35.67307835,"lon":139.8169681},{"name":"有明テニスの森公園クラブハウスほか附属施設等14件","province":"東京都","city":"江東区","address":"東京都江東区","lat":35.67307835,"lon":139.8169681},{"name":"若洲海浜公園ヨット訓練所艇庫ほか2件","province":"東京都","city":"江東区","address":"東京都江東区","lat":35.67307835,"lon":139.8169681},{"name":"有明テニスの森公園駐車場","province":"東京都","city":"江東区","address":"東京都江東区","lat":35.67307835,"lon":139.8169681},{"name":"有明テニスの森公園砂入り人工芝（テニスコート）","province":"東京都","city":"江東区","address":"東京都江東区","lat":35.67307835,"lon":139.8169681},{"name":"若洲海浜公園ヨット訓練所ボートヤード","province":"東京都","city":"江東区","address":"東京都江東区","lat":35.67307835,"lon":139.8169681},{"name":"若洲海浜公園ヨット訓練所浮桟橋","province":"東京都","city":"江東区","address":"東京都江東区","lat":35.67307835,"lon":139.8169681},{"name":"介護老人保健施設キーストーン","province":"東京都","city":"江東区","address":"江東区亀戸3-36-1","lat":35.707275,"lon":139.819328},{"name":"江東区こども発達センター","province":"東京都","city":"江東区","address":"江東区塩浜2-5-20","lat":35.661932,"lon":139.805383},{"name":"東京都立東部療育センター","province":"東京都","city":"江東区","address":"江東区新砂3-3-25","lat":35.663819,"lon":139.833178},{"name":"ロゴス点字図書館","province":"東京都","city":"江東区","address":"江東区潮見二丁目10番10号日本カトリック会館1階","lat":35.656691,"lon":139.816721},{"name":"新幸荘","province":"東京都","city":"江東区","address":"東京都江東区","lat":35.67307835,"lon":139.8169681},{"name":"福住荘","province":"東京都","city":"江東区","address":"江東区福住1-14-10","lat":35.674944,"lon":139.793957},{"name":"さくら亀戸ハウス","province":"東京都","city":"江東区","address":"江東区亀戸4-33-5","lat":35.703072,"lon":139.827531},{"name":"さくら第３亀戸ハウス","province":"東京都","city":"江東区","address":"江東区亀戸7-24-1","lat":35.699556,"lon":139.836818},{"name":"さくら第２亀戸ハウス","province":"東京都","city":"江東区","address":"江東区亀戸9-18-10","lat":35.697784,"lon":139.843076},{"name":"江東荘","province":"東京都","city":"江東区","address":"東京都江東区","lat":35.67307835,"lon":139.8169681},{"name":"砂町クラブ","province":"東京都","city":"江東区","address":"江東区北砂4丁目11-22","lat":35.678392,"lon":139.829844},{"name":"あそか病院","province":"東京都","city":"江東区","address":"江東区住吉1-18-1","lat":35.689859,"lon":139.811861},{"name":"江東区社会福祉協議会","province":"東京都","city":"江東区","address":"江東区東陽6-2-17高齢者総合福祉センター2階","lat":35.674728,"lon":139.812491},{"name":"福住荘","province":"東京都","city":"江東区","address":"江東区福住1-14-10","lat":35.67499,"lon":139.79393},{"name":"さくら亀戸ハウス","province":"東京都","city":"江東区","address":"江東区亀戸4-33-5","lat":35.70295,"lon":139.82738},{"name":"さくら第３亀戸ハウス","province":"東京都","city":"江東区","address":"江東区亀戸7-24-1","lat":35.69941,"lon":139.83678},{"name":"さくら第２亀戸ハウス","province":"東京都","city":"江東区","address":"江東区亀戸9-18-10","lat":35.69769,"lon":139.84254},{"name":"砂町クラブ","province":"東京都","city":"江東区","address":"江東区北砂4-11-22","lat":35.67882,"lon":139.82986},{"name":"（有）大坪葬儀社","province":"東京都","city":"江東区","address":"東京都江東区亀戸4丁目34-2","lat":35.7025079,"lon":139.82707782},{"name":"（株）大平セレモニーハート","province":"東京都","city":"江東区","address":"東京都江東区大島1丁目21-6","lat":35.68671565,"lon":139.82503662},{"name":"（株）落合商店","province":"東京都","city":"江東区","address":"東京都江東区毛利1丁目18-9","lat":35.69188138,"lon":139.81523806},{"name":"（有）木村商店","province":"東京都","city":"江東区","address":"東京都江東区白河1丁目1-3","lat":35.68109392,"lon":139.79910738},{"name":"（有）かねなお鈴木商店","province":"東京都","city":"江東区","address":"東京都江東区北砂1丁目14-7","lat":35.67947212,"lon":139.8239007},{"name":"亀戸駅前式場　北辰舎","province":"東京都","city":"江東区","address":"東京都江東区亀戸6丁目28-4","lat":35.69640888,"lon":139.82710552},{"name":"丸本渡辺葬儀社","province":"東京都","city":"江東区","address":"東京都江東区扇橋2丁目12-5","lat":35.68378808,"lon":139.81589637},{"name":"（有）淀野商店","province":"東京都","city":"江東区","address":"東京都江東区白河1丁目1-11","lat":35.68080505,"lon":139.7993684},{"name":"ロゴス点字図書館","province":"東京都","city":"江東区","address":"江東区潮見2-10-10日本カトリック会館1階","lat":35.6567,"lon":139.81723},{"name":"江東区社会福祉協議会","province":"東京都","city":"江東区","address":"江東区東陽6-2-17高齢者総合福祉センター2階","lat":35.67411,"lon":139.81239},{"name":"江東区障害者福祉センター","province":"東京都","city":"江東区","address":"東京都江東区扇橋3丁目7-2","lat":35.68268272,"lon":139.82041507},{"name":"社会福祉法人のびのび福祉会のびのび共同作業所大河","province":"東京都","city":"江東区","address":"東京都江東区南砂3丁目5-14","lat":35.67275921,"lon":139.82868907},{"name":"社会福祉法人のびのび福祉会自立センターあけぼの","province":"東京都","city":"江東区","address":"東京都江東区塩浜2丁目5-20","lat":35.66193219,"lon":139.80538308},{"name":"社会福祉法人ゆめグループ福祉会ゆめ工房","province":"東京都","city":"江東区","address":"東京都江東区北砂1丁目14-4","lat":35.67919994,"lon":139.82412845},{"name":"社会福祉法人ゆめグループ福祉会ゆめ工房北砂","province":"東京都","city":"江東区","address":"東京都江東区北砂1丁目14-4","lat":35.67919994,"lon":139.82412845},{"name":"社会福祉法人ゆめグループ福祉会ドリーム第２","province":"東京都","city":"江東区","address":"東京都江東区東砂6丁目20-7","lat":35.67519805,"lon":139.84087677},{"name":"社会福祉法人ゆめグループ福祉会ドリーム第２分室リサイクル工房サラエ","province":"東京都","city":"江東区","address":"東京都江東区東砂5丁目16-3","lat":35.67553138,"lon":139.84322934},{"name":"社会福祉法人ゆめグループ福祉会ネットワークゆめ工房","province":"東京都","city":"江東区","address":"東京都江東区北砂1丁目17-4","lat":35.67989709,"lon":139.82474781},{"name":"社会福祉法人ゆめグループ福祉会ドリームクラブハウス","province":"東京都","city":"江東区","address":"東京都江東区北砂1丁目15-8","lat":35.67843617,"lon":139.82485059},{"name":"社会福祉法人ゆめグループ福祉会ふれあい工房","province":"東京都","city":"江東区","address":"東京都江東区千石2丁目2-5","lat":35.67727782,"lon":139.81565733},{"name":"株式会社ティ－ビーエスオペレーションコレンド東陽町","province":"東京都","city":"江東区","address":"東京都江東区東陽2丁目4-46","lat":35.66913999,"lon":139.81931223},{"name":"さくら第２亀戸ハウス","province":"東京都","city":"江東区","address":"江東区亀戸9-18-10","lat":35.69769,"lon":139.84255},{"name":"Ｂｕｍｂ東京スポーツ文化館","province":"東京都","city":"江東区","address":"江東区夢の島2-1-3","lat":35.64877474,"lon":139.8347164},{"name":"東京辰巳国際水泳場","province":"東京都","city":"江東区","address":"東京都江東区","lat":35.67307835,"lon":139.8169681},{"name":"有明テニスの森公園有明コロシアム","province":"東京都","city":"江東区","address":"東京都江東区","lat":35.67307835,"lon":139.8169681},{"name":"有明テニスの森公園クラブハウスほか附属施設等14件","province":"東京都","city":"江東区","address":"東京都江東区","lat":35.67307835,"lon":139.8169681},{"name":"若洲海浜公園ヨット訓練所艇庫ほか2件","province":"東京都","city":"江東区","address":"東京都江東区","lat":35.67307835,"lon":139.8169681},{"name":"有明テニスの森公園駐車場","province":"東京都","city":"江東区","address":"東京都江東区","lat":35.67307835,"lon":139.8169681},{"name":"有明テニスの森公園砂入り人工芝（テニスコート）","province":"東京都","city":"江東区","address":"東京都江東区","lat":35.67307835,"lon":139.8169681},{"name":"若洲海浜公園ヨット訓練所ボートヤード","province":"東京都","city":"江東区","address":"東京都江東区","lat":35.67307835,"lon":139.8169681},{"name":"若洲海浜公園ヨット訓練所浮桟橋","province":"東京都","city":"江東区","address":"東京都江東区","lat":35.67307835,"lon":139.8169681},{"name":"介護老人保健施設キーストーン","province":"東京都","city":"江東区","address":"江東区亀戸3-36-1","lat":35.707275,"lon":139.819328},{"name":"江東区こども発達センター","province":"東京都","city":"江東区","address":"江東区塩浜2-5-20","lat":35.661932,"lon":139.805383},{"name":"東京都立東部療育センター","province":"東京都","city":"江東区","address":"江東区新砂3-3-25","lat":35.663819,"lon":139.833178},{"name":"ロゴス点字図書館","province":"東京都","city":"江東区","address":"江東区潮見二丁目10番10号日本カトリック会館1階","lat":35.656691,"lon":139.816721},{"name":"新幸荘","province":"東京都","city":"江東区","address":"東京都江東区","lat":35.67307835,"lon":139.8169681},{"name":"福住荘","province":"東京都","city":"江東区","address":"江東区福住1-14-10","lat":35.674944,"lon":139.793957},{"name":"さくら亀戸ハウス","province":"東京都","city":"江東区","address":"江東区亀戸4-33-5","lat":35.703072,"lon":139.827531},{"name":"さくら第３亀戸ハウス","province":"東京都","city":"江東区","address":"江東区亀戸7-24-1","lat":35.699556,"lon":139.836818},{"name":"さくら第２亀戸ハウス","province":"東京都","city":"江東区","address":"江東区亀戸9-18-10","lat":35.697784,"lon":139.843076},{"name":"江東荘","province":"東京都","city":"江東区","address":"東京都江東区","lat":35.67307835,"lon":139.8169681},{"name":"砂町クラブ","province":"東京都","city":"江東区","address":"江東区北砂4丁目11-22","lat":35.678392,"lon":139.829844},{"name":"あそか病院","province":"東京都","city":"江東区","address":"江東区住吉1-18-1","lat":35.689859,"lon":139.811861},{"name":"江東区社会福祉協議会","province":"東京都","city":"江東区","address":"江東区東陽6-2-17高齢者総合福祉センター2階","lat":35.674728,"lon":139.812491},{"name":"福住荘","province":"東京都","city":"江東区","address":"江東区福住1-14-10","lat":35.67499,"lon":139.79393},{"name":"さくら亀戸ハウス","province":"東京都","city":"江東区","address":"江東区亀戸4-33-5","lat":35.70295,"lon":139.82738},{"name":"さくら第３亀戸ハウス","province":"東京都","city":"江東区","address":"江東区亀戸7-24-1","lat":35.69941,"lon":139.83678},{"name":"さくら第２亀戸ハウス","province":"東京都","city":"江東区","address":"江東区亀戸9-18-10","lat":35.69769,"lon":139.84254},{"name":"砂町クラブ","province":"東京都","city":"江東区","address":"江東区北砂4-11-22","lat":35.67882,"lon":139.82986},{"name":"（有）大坪葬儀社","province":"東京都","city":"江東区","address":"東京都江東区亀戸4丁目34-2","lat":35.7025079,"lon":139.82707782},{"name":"（株）大平セレモニーハート","province":"東京都","city":"江東区","address":"東京都江東区大島1丁目21-6","lat":35.68671565,"lon":139.82503662},{"name":"（株）落合商店","province":"東京都","city":"江東区","address":"東京都江東区毛利1丁目18-9","lat":35.69188138,"lon":139.81523806},{"name":"（有）木村商店","province":"東京都","city":"江東区","address":"東京都江東区白河1丁目1-3","lat":35.68109392,"lon":139.79910738},{"name":"（有）かねなお鈴木商店","province":"東京都","city":"江東区","address":"東京都江東区北砂1丁目14-7","lat":35.67947212,"lon":139.8239007},{"name":"亀戸駅前式場　北辰舎","province":"東京都","city":"江東区","address":"東京都江東区亀戸6丁目28-4","lat":35.69640888,"lon":139.82710552},{"name":"丸本渡辺葬儀社","province":"東京都","city":"江東区","address":"東京都江東区扇橋2丁目12-5","lat":35.68378808,"lon":139.81589637},{"name":"（有）淀野商店","province":"東京都","city":"江東区","address":"東京都江東区白河1丁目1-11","lat":35.68080505,"lon":139.7993684},{"name":"ロゴス点字図書館","province":"東京都","city":"江東区","address":"江東区潮見2-10-10日本カトリック会館1階","lat":35.6567,"lon":139.81723},{"name":"江東区社会福祉協議会","province":"東京都","city":"江東区","address":"江東区東陽6-2-17高齢者総合福祉センター2階","lat":35.67411,"lon":139.81239},{"name":"江東区障害者福祉センター","province":"東京都","city":"江東区","address":"東京都江東区扇橋3丁目7-2","lat":35.68268272,"lon":139.82041507},{"name":"社会福祉法人のびのび福祉会のびのび共同作業所大河","province":"東京都","city":"江東区","address":"東京都江東区南砂3丁目5-14","lat":35.67275921,"lon":139.82868907},{"name":"社会福祉法人のびのび福祉会自立センターあけぼの","province":"東京都","city":"江東区","address":"東京都江東区塩浜2丁目5-20","lat":35.66193219,"lon":139.80538308},{"name":"社会福祉法人ゆめグループ福祉会ゆめ工房","province":"東京都","city":"江東区","address":"東京都江東区北砂1丁目14-4","lat":35.67919994,"lon":139.82412845},{"name":"社会福祉法人ゆめグループ福祉会ゆめ工房北砂","province":"東京都","city":"江東区","address":"東京都江東区北砂1丁目14-4","lat":35.67919994,"lon":139.82412845},{"name":"社会福祉法人ゆめグループ福祉会ドリーム第２","province":"東京都","city":"江東区","address":"東京都江東区東砂6丁目20-7","lat":35.67519805,"lon":139.84087677},{"name":"社会福祉法人ゆめグループ福祉会ドリーム第２分室リサイクル工房サラエ","province":"東京都","city":"江東区","address":"東京都江東区東砂5丁目16-3","lat":35.67553138,"lon":139.84322934},{"name":"社会福祉法人ゆめグループ福祉会ネットワークゆめ工房","province":"東京都","city":"江東区","address":"東京都江東区北砂1丁目17-4","lat":35.67989709,"lon":139.82474781},{"name":"社会福祉法人ゆめグループ福祉会ドリームクラブハウス","province":"東京都","city":"江東区","address":"東京都江東区北砂1丁目15-8","lat":35.67843617,"lon":139.82485059},{"name":"社会福祉法人ゆめグループ福祉会ふれあい工房","province":"東京都","city":"江東区","address":"東京都江東区千石2丁目2-5","lat":35.67727782,"lon":139.81565733},{"name":"株式会社ティ－ビーエスオペレーションコレンド東陽町","province":"東京都","city":"江東区","address":"東京都江東区東陽2丁目4-46","lat":35.66913999,"lon":139.81931223},{"name":"さくら第２亀戸ハウス","province":"東京都","city":"江東区","address":"江東区亀戸9-18-10","lat":35.69769,"lon":139.84255},{"name":"Ｂｕｍｂ東京スポーツ文化館","province":"東京都","city":"江東区","address":"江東区夢の島2-1-3","lat":35.64877474,"lon":139.8347164},{"name":"東京辰巳国際水泳場","province":"東京都","city":"江東区","address":"東京都江東区","lat":35.67307835,"lon":139.8169681},{"name":"有明テニスの森公園有明コロシアム","province":"東京都","city":"江東区","address":"東京都江東区","lat":35.67307835,"lon":139.8169681},{"name":"有明テニスの森公園クラブハウスほか附属施設等14件","province":"東京都","city":"江東区","address":"東京都江東区","lat":35.67307835,"lon":139.8169681},{"name":"若洲海浜公園ヨット訓練所艇庫ほか2件","province":"東京都","city":"江東区","address":"東京都江東区","lat":35.67307835,"lon":139.8169681},{"name":"有明テニスの森公園駐車場","province":"東京都","city":"江東区","address":"東京都江東区","lat":35.67307835,"lon":139.8169681},{"name":"有明テニスの森公園砂入り人工芝（テニスコート）","province":"東京都","city":"江東区","address":"東京都江東区","lat":35.67307835,"lon":139.8169681},{"name":"若洲海浜公園ヨット訓練所ボートヤード","province":"東京都","city":"江東区","address":"東京都江東区","lat":35.67307835,"lon":139.8169681},{"name":"若洲海浜公園ヨット訓練所浮桟橋","province":"東京都","city":"江東区","address":"東京都江東区","lat":35.67307835,"lon":139.8169681},{"name":"介護老人保健施設キーストーン","province":"東京都","city":"江東区","address":"江東区亀戸3-36-1","lat":35.707275,"lon":139.819328},{"name":"江東区こども発達センター","province":"東京都","city":"江東区","address":"江東区塩浜2-5-20","lat":35.661932,"lon":139.805383},{"name":"東京都立東部療育センター","province":"東京都","city":"江東区","address":"江東区新砂3-3-25","lat":35.663819,"lon":139.833178},{"name":"ロゴス点字図書館","province":"東京都","city":"江東区","address":"江東区潮見二丁目10番10号日本カトリック会館1階","lat":35.656691,"lon":139.816721},{"name":"新幸荘","province":"東京都","city":"江東区","address":"東京都江東区","lat":35.67307835,"lon":139.8169681},{"name":"福住荘","province":"東京都","city":"江東区","address":"江東区福住1-14-10","lat":35.674944,"lon":139.793957},{"name":"さくら亀戸ハウス","province":"東京都","city":"江東区","address":"江東区亀戸4-33-5","lat":35.703072,"lon":139.827531},{"name":"さくら第３亀戸ハウス","province":"東京都","city":"江東区","address":"江東区亀戸7-24-1","lat":35.699556,"lon":139.836818},{"name":"さくら第２亀戸ハウス","province":"東京都","city":"江東区","address":"江東区亀戸9-18-10","lat":35.697784,"lon":139.843076},{"name":"江東荘","province":"東京都","city":"江東区","address":"東京都江東区","lat":35.67307835,"lon":139.8169681},{"name":"砂町クラブ","province":"東京都","city":"江東区","address":"江東区北砂4丁目11-22","lat":35.678392,"lon":139.829844},{"name":"あそか病院","province":"東京都","city":"江東区","address":"江東区住吉1-18-1","lat":35.689859,"lon":139.811861},{"name":"江東区社会福祉協議会","province":"東京都","city":"江東区","address":"江東区東陽6-2-17高齢者総合福祉センター2階","lat":35.674728,"lon":139.812491},{"name":"福住荘","province":"東京都","city":"江東区","address":"江東区福住1-14-10","lat":35.67499,"lon":139.79393},{"name":"さくら亀戸ハウス","province":"東京都","city":"江東区","address":"江東区亀戸4-33-5","lat":35.70295,"lon":139.82738},{"name":"さくら第３亀戸ハウス","province":"東京都","city":"江東区","address":"江東区亀戸7-24-1","lat":35.69941,"lon":139.83678},{"name":"さくら第２亀戸ハウス","province":"東京都","city":"江東区","address":"江東区亀戸9-18-10","lat":35.69769,"lon":139.84254},{"name":"砂町クラブ","province":"東京都","city":"江東区","address":"江東区北砂4-11-22","lat":35.67882,"lon":139.82986},{"name":"ロゴス点字図書館","province":"東京都","city":"江東区","address":"江東区潮見2-10-10日本カトリック会館1階","lat":35.6567,"lon":139.81723},{"name":"江東区社会福祉協議会","province":"東京都","city":"江東区","address":"江東区東陽6-2-17高齢者総合福祉センター2階","lat":35.67411,"lon":139.81239},{"name":"江東区障害者福祉センター","province":"東京都","city":"江東区","address":"東京都江東区扇橋3丁目7-2","lat":35.68268272,"lon":139.82041507},{"name":"社会福祉法人のびのび福祉会のびのび共同作業所大河","province":"東京都","city":"江東区","address":"東京都江東区南砂3丁目5-14","lat":35.67275921,"lon":139.82868907},{"name":"社会福祉法人のびのび福祉会自立センターあけぼの","province":"東京都","city":"江東区","address":"東京都江東区塩浜2丁目5-20","lat":35.66193219,"lon":139.80538308},{"name":"社会福祉法人ゆめグループ福祉会ゆめ工房","province":"東京都","city":"江東区","address":"東京都江東区北砂1丁目14-4","lat":35.67919994,"lon":139.82412845},{"name":"社会福祉法人ゆめグループ福祉会ゆめ工房北砂","province":"東京都","city":"江東区","address":"東京都江東区北砂1丁目14-4","lat":35.67919994,"lon":139.82412845},{"name":"社会福祉法人ゆめグループ福祉会ドリーム第２","province":"東京都","city":"江東区","address":"東京都江東区東砂6丁目20-7","lat":35.67519805,"lon":139.84087677},{"name":"社会福祉法人ゆめグループ福祉会ドリーム第２分室リサイクル工房サラエ","province":"東京都","city":"江東区","address":"東京都江東区東砂5丁目16-3","lat":35.67553138,"lon":139.84322934},{"name":"社会福祉法人ゆめグループ福祉会ネットワークゆめ工房","province":"東京都","city":"江東区","address":"東京都江東区北砂1丁目17-4","lat":35.67989709,"lon":139.82474781},{"name":"社会福祉法人ゆめグループ福祉会ドリームクラブハウス","province":"東京都","city":"江東区","address":"東京都江東区北砂1丁目15-8","lat":35.67843617,"lon":139.82485059},{"name":"社会福祉法人ゆめグループ福祉会ふれあい工房","province":"東京都","city":"江東区","address":"東京都江東区千石2丁目2-5","lat":35.67727782,"lon":139.81565733},{"name":"株式会社ティ－ビーエスオペレーションコレンド東陽町","province":"東京都","city":"江東区","address":"東京都江東区東陽2丁目4-46","lat":35.66913999,"lon":139.81931223},{"name":"さくら第２亀戸ハウス","province":"東京都","city":"江東区","address":"江東区亀戸9-18-10","lat":35.69769,"lon":139.84255},{"name":"Ｂｕｍｂ東京スポーツ文化館","province":"東京都","city":"江東区","address":"江東区夢の島2-1-3","lat":35.64877474,"lon":139.8347164},{"name":"東京辰巳国際水泳場","province":"東京都","city":"江東区","address":"東京都江東区","lat":35.67307835,"lon":139.8169681},{"name":"有明テニスの森公園有明コロシアム","province":"東京都","city":"江東区","address":"東京都江東区","lat":35.67307835,"lon":139.8169681},{"name":"有明テニスの森公園クラブハウスほか附属施設等14件","province":"東京都","city":"江東区","address":"東京都江東区","lat":35.67307835,"lon":139.8169681},{"name":"若洲海浜公園ヨット訓練所艇庫ほか2件","province":"東京都","city":"江東区","address":"東京都江東区","lat":35.67307835,"lon":139.8169681},{"name":"有明テニスの森公園駐車場","province":"東京都","city":"江東区","address":"東京都江東区","lat":35.67307835,"lon":139.8169681},{"name":"有明テニスの森公園砂入り人工芝（テニスコート）","province":"東京都","city":"江東区","address":"東京都江東区","lat":35.67307835,"lon":139.8169681},{"name":"若洲海浜公園ヨット訓練所ボートヤード","province":"東京都","city":"江東区","address":"東京都江東区","lat":35.67307835,"lon":139.8169681},{"name":"若洲海浜公園ヨット訓練所浮桟橋","province":"東京都","city":"江東区","address":"東京都江東区","lat":35.67307835,"lon":139.8169681},{"name":"介護老人保健施設キーストーン","province":"東京都","city":"江東区","address":"江東区亀戸3-36-1","lat":35.707275,"lon":139.819328},{"name":"江東区こども発達センター","province":"東京都","city":"江東区","address":"江東区塩浜2-5-20","lat":35.661932,"lon":139.805383},{"name":"東京都立東部療育センター","province":"東京都","city":"江東区","address":"江東区新砂3-3-25","lat":35.663819,"lon":139.833178},{"name":"ロゴス点字図書館","province":"東京都","city":"江東区","address":"江東区潮見二丁目10番10号日本カトリック会館1階","lat":35.656691,"lon":139.816721},{"name":"新幸荘","province":"東京都","city":"江東区","address":"東京都江東区","lat":35.67307835,"lon":139.8169681},{"name":"福住荘","province":"東京都","city":"江東区","address":"江東区福住1-14-10","lat":35.674944,"lon":139.793957},{"name":"さくら亀戸ハウス","province":"東京都","city":"江東区","address":"江東区亀戸4-33-5","lat":35.703072,"lon":139.827531},{"name":"さくら第３亀戸ハウス","province":"東京都","city":"江東区","address":"江東区亀戸7-24-1","lat":35.699556,"lon":139.836818},{"name":"さくら第２亀戸ハウス","province":"東京都","city":"江東区","address":"江東区亀戸9-18-10","lat":35.697784,"lon":139.843076},{"name":"江東荘","province":"東京都","city":"江東区","address":"東京都江東区","lat":35.67307835,"lon":139.8169681},{"name":"砂町クラブ","province":"東京都","city":"江東区","address":"江東区北砂4丁目11-22","lat":35.678392,"lon":139.829844},{"name":"あそか病院","province":"東京都","city":"江東区","address":"江東区住吉1-18-1","lat":35.689859,"lon":139.811861},{"name":"江東区社会福祉協議会","province":"東京都","city":"江東区","address":"江東区東陽6-2-17高齢者総合福祉センター2階","lat":35.674728,"lon":139.812491},{"name":"福住荘","province":"東京都","city":"江東区","address":"江東区福住1-14-10","lat":35.67499,"lon":139.79393},{"name":"さくら亀戸ハウス","province":"東京都","city":"江東区","address":"江東区亀戸4-33-5","lat":35.70295,"lon":139.82738},{"name":"さくら第３亀戸ハウス","province":"東京都","city":"江東区","address":"江東区亀戸7-24-1","lat":35.69941,"lon":139.83678},{"name":"さくら第２亀戸ハウス","province":"東京都","city":"江東区","address":"江東区亀戸9-18-10","lat":35.69769,"lon":139.84254},{"name":"砂町クラブ","province":"東京都","city":"江東区","address":"江東区北砂4-11-22","lat":35.67882,"lon":139.82986},{"name":"ロゴス点字図書館","province":"東京都","city":"江東区","address":"江東区潮見2-10-10日本カトリック会館1階","lat":35.6567,"lon":139.81723},{"name":"江東区社会福祉協議会","province":"東京都","city":"江東区","address":"江東区東陽6-2-17高齢者総合福祉センター2階","lat":35.67411,"lon":139.81239},{"name":"江東区障害者福祉センター","province":"東京都","city":"江東区","address":"東京都江東区扇橋3丁目7-2","lat":35.68268272,"lon":139.82041507},{"name":"社会福祉法人のびのび福祉会のびのび共同作業所大河","province":"東京都","city":"江東区","address":"東京都江東区南砂3丁目5-14","lat":35.67275921,"lon":139.82868907},{"name":"社会福祉法人のびのび福祉会自立センターあけぼの","province":"東京都","city":"江東区","address":"東京都江東区塩浜2丁目5-20","lat":35.66193219,"lon":139.80538308},{"name":"社会福祉法人ゆめグループ福祉会ゆめ工房","province":"東京都","city":"江東区","address":"東京都江東区北砂1丁目14-4","lat":35.67919994,"lon":139.82412845},{"name":"社会福祉法人ゆめグループ福祉会ゆめ工房北砂","province":"東京都","city":"江東区","address":"東京都江東区北砂1丁目14-4","lat":35.67919994,"lon":139.82412845},{"name":"社会福祉法人ゆめグループ福祉会ドリーム第２","province":"東京都","city":"江東区","address":"東京都江東区東砂6丁目20-7","lat":35.67519805,"lon":139.84087677},{"name":"社会福祉法人ゆめグループ福祉会ドリーム第２分室リサイクル工房サラエ","province":"東京都","city":"江東区","address":"東京都江東区東砂5丁目16-3","lat":35.67553138,"lon":139.84322934},{"name":"社会福祉法人ゆめグループ福祉会ネットワークゆめ工房","province":"東京都","city":"江東区","address":"東京都江東区北砂1丁目17-4","lat":35.67989709,"lon":139.82474781},{"name":"社会福祉法人ゆめグループ福祉会ドリームクラブハウス","province":"東京都","city":"江東区","address":"東京都江東区北砂1丁目15-8","lat":35.67843617,"lon":139.82485059},{"name":"社会福祉法人ゆめグループ福祉会ふれあい工房","province":"東京都","city":"江東区","address":"東京都江東区千石2丁目2-5","lat":35.67727782,"lon":139.81565733},{"name":"株式会社ティ－ビーエスオペレーションコレンド東陽町","province":"東京都","city":"江東区","address":"東京都江東区東陽2丁目4-46","lat":35.66913999,"lon":139.81931223},{"name":"さくら第２亀戸ハウス","province":"東京都","city":"江東区","address":"江東区亀戸9-18-10","lat":35.69769,"lon":139.84255},{"name":"Ｂｕｍｂ東京スポーツ文化館","province":"東京都","city":"江東区","address":"江東区夢の島2-1-3","lat":35.64877474,"lon":139.8347164},{"name":"東京辰巳国際水泳場","province":"東京都","city":"江東区","address":"東京都江東区","lat":35.67307835,"lon":139.8169681},{"name":"有明テニスの森公園有明コロシアム","province":"東京都","city":"江東区","address":"東京都江東区","lat":35.67307835,"lon":139.8169681},{"name":"有明テニスの森公園クラブハウスほか附属施設等14件","province":"東京都","city":"江東区","address":"東京都江東区","lat":35.67307835,"lon":139.8169681},{"name":"若洲海浜公園ヨット訓練所艇庫ほか2件","province":"東京都","city":"江東区","address":"東京都江東区","lat":35.67307835,"lon":139.8169681},{"name":"有明テニスの森公園駐車場","province":"東京都","city":"江東区","address":"東京都江東区","lat":35.67307835,"lon":139.8169681},{"name":"有明テニスの森公園砂入り人工芝（テニスコート）","province":"東京都","city":"江東区","address":"東京都江東区","lat":35.67307835,"lon":139.8169681},{"name":"若洲海浜公園ヨット訓練所ボートヤード","province":"東京都","city":"江東区","address":"東京都江東区","lat":35.67307835,"lon":139.8169681},{"name":"若洲海浜公園ヨット訓練所浮桟橋","province":"東京都","city":"江東区","address":"東京都江東区","lat":35.67307835,"lon":139.8169681},{"name":"介護老人保健施設キーストーン","province":"東京都","city":"江東区","address":"江東区亀戸3-36-1","lat":35.707275,"lon":139.819328},{"name":"江東区こども発達センター","province":"東京都","city":"江東区","address":"江東区塩浜2-5-20","lat":35.661932,"lon":139.805383},{"name":"東京都立東部療育センター","province":"東京都","city":"江東区","address":"江東区新砂3-3-25","lat":35.663819,"lon":139.833178},{"name":"ロゴス点字図書館","province":"東京都","city":"江東区","address":"江東区潮見二丁目10番10号日本カトリック会館1階","lat":35.656691,"lon":139.816721},{"name":"新幸荘","province":"東京都","city":"江東区","address":"東京都江東区","lat":35.67307835,"lon":139.8169681},{"name":"福住荘","province":"東京都","city":"江東区","address":"江東区福住1-14-10","lat":35.674944,"lon":139.793957},{"name":"さくら亀戸ハウス","province":"東京都","city":"江東区","address":"江東区亀戸4-33-5","lat":35.703072,"lon":139.827531},{"name":"さくら第３亀戸ハウス","province":"東京都","city":"江東区","address":"江東区亀戸7-24-1","lat":35.699556,"lon":139.836818},{"name":"さくら第２亀戸ハウス","province":"東京都","city":"江東区","address":"江東区亀戸9-18-10","lat":35.697784,"lon":139.843076},{"name":"江東荘","province":"東京都","city":"江東区","address":"東京都江東区","lat":35.67307835,"lon":139.8169681},{"name":"砂町クラブ","province":"東京都","city":"江東区","address":"江東区北砂4丁目11-22","lat":35.678392,"lon":139.829844},{"name":"あそか病院","province":"東京都","city":"江東区","address":"江東区住吉1-18-1","lat":35.689859,"lon":139.811861},{"name":"江東区社会福祉協議会","province":"東京都","city":"江東区","address":"江東区東陽6-2-17高齢者総合福祉センター2階","lat":35.674728,"lon":139.812491},{"name":"福住荘","province":"東京都","city":"江東区","address":"江東区福住1-14-10","lat":35.67499,"lon":139.79393},{"name":"さくら亀戸ハウス","province":"東京都","city":"江東区","address":"江東区亀戸4-33-5","lat":35.70295,"lon":139.82738},{"name":"さくら第３亀戸ハウス","province":"東京都","city":"江東区","address":"江東区亀戸7-24-1","lat":35.69941,"lon":139.83678},{"name":"さくら第２亀戸ハウス","province":"東京都","city":"江東区","address":"江東区亀戸9-18-10","lat":35.69769,"lon":139.84254},{"name":"砂町クラブ","province":"東京都","city":"江東区","address":"江東区北砂4-11-22","lat":35.67882,"lon":139.82986},{"name":"ロゴス点字図書館","province":"東京都","city":"江東区","address":"江東区潮見2-10-10日本カトリック会館1階","lat":35.6567,"lon":139.81723},{"name":"江東区社会福祉協議会","province":"東京都","city":"江東区","address":"江東区東陽6-2-17高齢者総合福祉センター2階","lat":35.67411,"lon":139.81239},{"name":"江東区障害者福祉センター","province":"東京都","city":"江東区","address":"東京都江東区扇橋3丁目7-2","lat":35.68268272,"lon":139.82041507},{"name":"社会福祉法人のびのび福祉会のびのび共同作業所大河","province":"東京都","city":"江東区","address":"東京都江東区南砂3丁目5-14","lat":35.67275921,"lon":139.82868907},{"name":"社会福祉法人のびのび福祉会自立センターあけぼの","province":"東京都","city":"江東区","address":"東京都江東区塩浜2丁目5-20","lat":35.66193219,"lon":139.80538308},{"name":"社会福祉法人ゆめグループ福祉会ゆめ工房","province":"東京都","city":"江東区","address":"東京都江東区北砂1丁目14-4","lat":35.67919994,"lon":139.82412845},{"name":"社会福祉法人ゆめグループ福祉会ゆめ工房北砂","province":"東京都","city":"江東区","address":"東京都江東区北砂1丁目14-4","lat":35.67919994,"lon":139.82412845},{"name":"社会福祉法人ゆめグループ福祉会ドリーム第２","province":"東京都","city":"江東区","address":"東京都江東区東砂6丁目20-7","lat":35.67519805,"lon":139.84087677},{"name":"社会福祉法人ゆめグループ福祉会ドリーム第２分室リサイクル工房サラエ","province":"東京都","city":"江東区","address":"東京都江東区東砂5丁目16-3","lat":35.67553138,"lon":139.84322934},{"name":"社会福祉法人ゆめグループ福祉会ネットワークゆめ工房","province":"東京都","city":"江東区","address":"東京都江東区北砂1丁目17-4","lat":35.67989709,"lon":139.82474781},{"name":"社会福祉法人ゆめグループ福祉会ドリームクラブハウス","province":"東京都","city":"江東区","address":"東京都江東区北砂1丁目15-8","lat":35.67843617,"lon":139.82485059},{"name":"社会福祉法人ゆめグループ福祉会ふれあい工房","province":"東京都","city":"江東区","address":"東京都江東区千石2丁目2-5","lat":35.67727782,"lon":139.81565733},{"name":"株式会社ティ－ビーエスオペレーションコレンド東陽町","province":"東京都","city":"江東区","address":"東京都江東区東陽2丁目4-46","lat":35.66913999,"lon":139.81931223},{"name":"さくら第２亀戸ハウス","province":"東京都","city":"江東区","address":"江東区亀戸9-18-10","lat":35.69769,"lon":139.84255},{"name":"Ｂｕｍｂ東京スポーツ文化館","province":"東京都","city":"江東区","address":"江東区夢の島2-1-3","lat":35.64877474,"lon":139.8347164},{"name":"東京辰巳国際水泳場","province":"東京都","city":"江東区","address":"東京都江東区","lat":35.67307835,"lon":139.8169681},{"name":"有明テニスの森公園有明コロシアム","province":"東京都","city":"江東区","address":"東京都江東区","lat":35.67307835,"lon":139.8169681},{"name":"有明テニスの森公園クラブハウスほか附属施設等14件","province":"東京都","city":"江東区","address":"東京都江東区","lat":35.67307835,"lon":139.8169681},{"name":"若洲海浜公園ヨット訓練所艇庫ほか2件","province":"東京都","city":"江東区","address":"東京都江東区","lat":35.67307835,"lon":139.8169681},{"name":"有明テニスの森公園駐車場","province":"東京都","city":"江東区","address":"東京都江東区","lat":35.67307835,"lon":139.8169681},{"name":"有明テニスの森公園砂入り人工芝（テニスコート）","province":"東京都","city":"江東区","address":"東京都江東区","lat":35.67307835,"lon":139.8169681},{"name":"若洲海浜公園ヨット訓練所ボートヤード","province":"東京都","city":"江東区","address":"東京都江東区","lat":35.67307835,"lon":139.8169681},{"name":"若洲海浜公園ヨット訓練所浮桟橋","province":"東京都","city":"江東区","address":"東京都江東区","lat":35.67307835,"lon":139.8169681},{"name":"介護老人保健施設キーストーン","province":"東京都","city":"江東区","address":"江東区亀戸3-36-1","lat":35.707275,"lon":139.819328},{"name":"江東区こども発達センター","province":"東京都","city":"江東区","address":"江東区塩浜2-5-20","lat":35.661932,"lon":139.805383},{"name":"東京都立東部療育センター","province":"東京都","city":"江東区","address":"江東区新砂3-3-25","lat":35.663819,"lon":139.833178},{"name":"ロゴス点字図書館","province":"東京都","city":"江東区","address":"江東区潮見二丁目10番10号日本カトリック会館1階","lat":35.656691,"lon":139.816721},{"name":"新幸荘","province":"東京都","city":"江東区","address":"東京都江東区","lat":35.67307835,"lon":139.8169681},{"name":"福住荘","province":"東京都","city":"江東区","address":"江東区福住1-14-10","lat":35.674944,"lon":139.793957},{"name":"さくら亀戸ハウス","province":"東京都","city":"江東区","address":"江東区亀戸4-33-5","lat":35.703072,"lon":139.827531},{"name":"さくら第３亀戸ハウス","province":"東京都","city":"江東区","address":"江東区亀戸7-24-1","lat":35.699556,"lon":139.836818},{"name":"さくら第２亀戸ハウス","province":"東京都","city":"江東区","address":"江東区亀戸9-18-10","lat":35.697784,"lon":139.843076},{"name":"江東荘","province":"東京都","city":"江東区","address":"東京都江東区","lat":35.67307835,"lon":139.8169681},{"name":"砂町クラブ","province":"東京都","city":"江東区","address":"江東区北砂4丁目11-22","lat":35.678392,"lon":139.829844},{"name":"あそか病院","province":"東京都","city":"江東区","address":"江東区住吉1-18-1","lat":35.689859,"lon":139.811861},{"name":"江東区社会福祉協議会","province":"東京都","city":"江東区","address":"江東区東陽6-2-17高齢者総合福祉センター2階","lat":35.674728,"lon":139.812491},{"name":"福住荘","province":"東京都","city":"江東区","address":"江東区福住1-14-10","lat":35.67499,"lon":139.79393},{"name":"さくら亀戸ハウス","province":"東京都","city":"江東区","address":"江東区亀戸4-33-5","lat":35.70295,"lon":139.82738},{"name":"さくら第３亀戸ハウス","province":"東京都","city":"江東区","address":"江東区亀戸7-24-1","lat":35.69941,"lon":139.83678},{"name":"さくら第２亀戸ハウス","province":"東京都","city":"江東区","address":"江東区亀戸9-18-10","lat":35.69769,"lon":139.84254},{"name":"砂町クラブ","province":"東京都","city":"江東区","address":"江東区北砂4-11-22","lat":35.67882,"lon":139.82986},{"name":"ロゴス点字図書館","province":"東京都","city":"江東区","address":"江東区潮見2-10-10日本カトリック会館1階","lat":35.6567,"lon":139.81723},{"name":"江東区社会福祉協議会","province":"東京都","city":"江東区","address":"江東区東陽6-2-17高齢者総合福祉センター2階","lat":35.67411,"lon":139.81239},{"name":"江東区障害者福祉センター","province":"東京都","city":"江東区","address":"東京都江東区扇橋3丁目7-2","lat":35.68268272,"lon":139.82041507},{"name":"社会福祉法人のびのび福祉会のびのび共同作業所大河","province":"東京都","city":"江東区","address":"東京都江東区南砂3丁目5-14","lat":35.67275921,"lon":139.82868907},{"name":"社会福祉法人のびのび福祉会自立センターあけぼの","province":"東京都","city":"江東区","address":"東京都江東区塩浜2丁目5-20","lat":35.66193219,"lon":139.80538308},{"name":"社会福祉法人ゆめグループ福祉会ゆめ工房","province":"東京都","city":"江東区","address":"東京都江東区北砂1丁目14-4","lat":35.67919994,"lon":139.82412845},{"name":"社会福祉法人ゆめグループ福祉会ゆめ工房北砂","province":"東京都","city":"江東区","address":"東京都江東区北砂1丁目14-4","lat":35.67919994,"lon":139.82412845},{"name":"社会福祉法人ゆめグループ福祉会ドリーム第２","province":"東京都","city":"江東区","address":"東京都江東区東砂6丁目20-7","lat":35.67519805,"lon":139.84087677},{"name":"社会福祉法人ゆめグループ福祉会ドリーム第２分室リサイクル工房サラエ","province":"東京都","city":"江東区","address":"東京都江東区東砂5丁目16-3","lat":35.67553138,"lon":139.84322934},{"name":"社会福祉法人ゆめグループ福祉会ネットワークゆめ工房","province":"東京都","city":"江東区","address":"東京都江東区北砂1丁目17-4","lat":35.67989709,"lon":139.82474781},{"name":"社会福祉法人ゆめグループ福祉会ドリームクラブハウス","province":"東京都","city":"江東区","address":"東京都江東区北砂1丁目15-8","lat":35.67843617,"lon":139.82485059},{"name":"社会福祉法人ゆめグループ福祉会ふれあい工房","province":"東京都","city":"江東区","address":"東京都江東区千石2丁目2-5","lat":35.67727782,"lon":139.81565733},{"name":"株式会社ティ－ビーエスオペレーションコレンド東陽町","province":"東京都","city":"江東区","address":"東京都江東区東陽2丁目4-46","lat":35.66913999,"lon":139.81931223},{"name":"さくら第２亀戸ハウス","province":"東京都","city":"江東区","address":"江東区亀戸9-18-10","lat":35.69769,"lon":139.84255},{"name":"Ｂｕｍｂ東京スポーツ文化館","province":"東京都","city":"江東区","address":"江東区夢の島2-1-3","lat":35.64877474,"lon":139.8347164},{"name":"東京辰巳国際水泳場","province":"東京都","city":"江東区","address":"東京都江東区","lat":35.67307835,"lon":139.8169681},{"name":"有明テニスの森公園有明コロシアム","province":"東京都","city":"江東区","address":"東京都江東区","lat":35.67307835,"lon":139.8169681},{"name":"有明テニスの森公園クラブハウスほか附属施設等14件","province":"東京都","city":"江東区","address":"東京都江東区","lat":35.67307835,"lon":139.8169681},{"name":"若洲海浜公園ヨット訓練所艇庫ほか2件","province":"東京都","city":"江東区","address":"東京都江東区","lat":35.67307835,"lon":139.8169681},{"name":"有明テニスの森公園駐車場","province":"東京都","city":"江東区","address":"東京都江東区","lat":35.67307835,"lon":139.8169681},{"name":"有明テニスの森公園砂入り人工芝（テニスコート）","province":"東京都","city":"江東区","address":"東京都江東区","lat":35.67307835,"lon":139.8169681},{"name":"若洲海浜公園ヨット訓練所ボートヤード","province":"東京都","city":"江東区","address":"東京都江東区","lat":35.67307835,"lon":139.8169681},{"name":"若洲海浜公園ヨット訓練所浮桟橋","province":"東京都","city":"江東区","address":"東京都江東区","lat":35.67307835,"lon":139.8169681},{"name":"介護老人保健施設キーストーン","province":"東京都","city":"江東区","address":"江東区亀戸3-36-1","lat":35.707275,"lon":139.819328},{"name":"江東区こども発達センター","province":"東京都","city":"江東区","address":"江東区塩浜2-5-20","lat":35.661932,"lon":139.805383},{"name":"東京都立東部療育センター","province":"東京都","city":"江東区","address":"江東区新砂3-3-25","lat":35.663819,"lon":139.833178},{"name":"ロゴス点字図書館","province":"東京都","city":"江東区","address":"江東区潮見二丁目10番10号日本カトリック会館1階","lat":35.656691,"lon":139.816721},{"name":"新幸荘","province":"東京都","city":"江東区","address":"東京都江東区","lat":35.67307835,"lon":139.8169681},{"name":"福住荘","province":"東京都","city":"江東区","address":"江東区福住1-14-10","lat":35.674944,"lon":139.793957},{"name":"さくら亀戸ハウス","province":"東京都","city":"江東区","address":"江東区亀戸4-33-5","lat":35.703072,"lon":139.827531},{"name":"さくら第３亀戸ハウス","province":"東京都","city":"江東区","address":"江東区亀戸7-24-1","lat":35.699556,"lon":139.836818},{"name":"さくら第２亀戸ハウス","province":"東京都","city":"江東区","address":"江東区亀戸9-18-10","lat":35.697784,"lon":139.843076},{"name":"江東荘","province":"東京都","city":"江東区","address":"東京都江東区","lat":35.67307835,"lon":139.8169681},{"name":"砂町クラブ","province":"東京都","city":"江東区","address":"江東区北砂4丁目11-22","lat":35.678392,"lon":139.829844},{"name":"あそか病院","province":"東京都","city":"江東区","address":"江東区住吉1-18-1","lat":35.689859,"lon":139.811861},{"name":"江東区社会福祉協議会","province":"東京都","city":"江東区","address":"江東区東陽6-2-17高齢者総合福祉センター2階","lat":35.674728,"lon":139.812491},{"name":"福住荘","province":"東京都","city":"江東区","address":"江東区福住1-14-10","lat":35.67499,"lon":139.79393},{"name":"さくら亀戸ハウス","province":"東京都","city":"江東区","address":"江東区亀戸4-33-5","lat":35.70295,"lon":139.82738},{"name":"さくら第３亀戸ハウス","province":"東京都","city":"江東区","address":"江東区亀戸7-24-1","lat":35.69941,"lon":139.83678},{"name":"さくら第２亀戸ハウス","province":"東京都","city":"江東区","address":"江東区亀戸9-18-10","lat":35.69769,"lon":139.84254},{"name":"砂町クラブ","province":"東京都","city":"江東区","address":"江東区北砂4-11-22","lat":35.67882,"lon":139.82986},{"name":"ロゴス点字図書館","province":"東京都","city":"江東区","address":"江東区潮見2-10-10日本カトリック会館1階","lat":35.6567,"lon":139.81723},{"name":"江東区社会福祉協議会","province":"東京都","city":"江東区","address":"江東区東陽6-2-17高齢者総合福祉センター2階","lat":35.67411,"lon":139.81239},{"name":"江東区障害者福祉センター","province":"東京都","city":"江東区","address":"東京都江東区扇橋3丁目7-2","lat":35.68268272,"lon":139.82041507},{"name":"社会福祉法人のびのび福祉会のびのび共同作業所大河","province":"東京都","city":"江東区","address":"東京都江東区南砂3丁目5-14","lat":35.67275921,"lon":139.82868907},{"name":"社会福祉法人のびのび福祉会自立センターあけぼの","province":"東京都","city":"江東区","address":"東京都江東区塩浜2丁目5-20","lat":35.66193219,"lon":139.80538308},{"name":"社会福祉法人ゆめグループ福祉会ゆめ工房","province":"東京都","city":"江東区","address":"東京都江東区北砂1丁目14-4","lat":35.67919994,"lon":139.82412845},{"name":"社会福祉法人ゆめグループ福祉会ゆめ工房北砂","province":"東京都","city":"江東区","address":"東京都江東区北砂1丁目14-4","lat":35.67919994,"lon":139.82412845},{"name":"社会福祉法人ゆめグループ福祉会ドリーム第２","province":"東京都","city":"江東区","address":"東京都江東区東砂6丁目20-7","lat":35.67519805,"lon":139.84087677},{"name":"社会福祉法人ゆめグループ福祉会ドリーム第２分室リサイクル工房サラエ","province":"東京都","city":"江東区","address":"東京都江東区東砂5丁目16-3","lat":35.67553138,"lon":139.84322934},{"name":"社会福祉法人ゆめグループ福祉会ネットワークゆめ工房","province":"東京都","city":"江東区","address":"東京都江東区北砂1丁目17-4","lat":35.67989709,"lon":139.82474781},{"name":"社会福祉法人ゆめグループ福祉会ドリームクラブハウス","province":"東京都","city":"江東区","address":"東京都江東区北砂1丁目15-8","lat":35.67843617,"lon":139.82485059},{"name":"社会福祉法人ゆめグループ福祉会ふれあい工房","province":"東京都","city":"江東区","address":"東京都江東区千石2丁目2-5","lat":35.67727782,"lon":139.81565733},{"name":"株式会社ティ－ビーエスオペレーションコレンド東陽町","province":"東京都","city":"江東区","address":"東京都江東区東陽2丁目4-46","lat":35.66913999,"lon":139.81931223},{"name":"さくら第２亀戸ハウス","province":"東京都","city":"江東区","address":"江東区亀戸9-18-10","lat":35.69769,"lon":139.84255},{"name":"東京辰巳国際水泳場","province":"東京都","city":"江東区","address":"東京都江東区","lat":35.67307835,"lon":139.8169681},{"name":"有明テニスの森公園有明コロシアム","province":"東京都","city":"江東区","address":"東京都江東区","lat":35.67307835,"lon":139.8169681},{"name":"有明テニスの森公園クラブハウスほか附属施設等14件","province":"東京都","city":"江東区","address":"東京都江東区","lat":35.67307835,"lon":139.8169681},{"name":"若洲海浜公園ヨット訓練所艇庫ほか2件","province":"東京都","city":"江東区","address":"東京都江東区","lat":35.67307835,"lon":139.8169681},{"name":"有明テニスの森公園駐車場","province":"東京都","city":"江東区","address":"東京都江東区","lat":35.67307835,"lon":139.8169681},{"name":"有明テニスの森公園砂入り人工芝（テニスコート）","province":"東京都","city":"江東区","address":"東京都江東区","lat":35.67307835,"lon":139.8169681},{"name":"若洲海浜公園ヨット訓練所ボートヤード","province":"東京都","city":"江東区","address":"東京都江東区","lat":35.67307835,"lon":139.8169681},{"name":"若洲海浜公園ヨット訓練所浮桟橋","province":"東京都","city":"江東区","address":"東京都江東区","lat":35.67307835,"lon":139.8169681},{"name":"介護老人保健施設キーストーン","province":"東京都","city":"江東区","address":"江東区亀戸3-36-1","lat":35.707275,"lon":139.819328},{"name":"江東区こども発達センター","province":"東京都","city":"江東区","address":"江東区塩浜2-5-20","lat":35.661932,"lon":139.805383},{"name":"東京都立東部療育センター","province":"東京都","city":"江東区","address":"江東区新砂3-3-25","lat":35.663819,"lon":139.833178},{"name":"ロゴス点字図書館","province":"東京都","city":"江東区","address":"江東区潮見二丁目10番10号日本カトリック会館1階","lat":35.656691,"lon":139.816721},{"name":"新幸荘","province":"東京都","city":"江東区","address":"東京都江東区","lat":35.67307835,"lon":139.8169681},{"name":"福住荘","province":"東京都","city":"江東区","address":"江東区福住1-14-10","lat":35.674944,"lon":139.793957},{"name":"さくら亀戸ハウス","province":"東京都","city":"江東区","address":"江東区亀戸4-33-5","lat":35.703072,"lon":139.827531},{"name":"さくら第３亀戸ハウス","province":"東京都","city":"江東区","address":"江東区亀戸7-24-1","lat":35.699556,"lon":139.836818},{"name":"さくら第２亀戸ハウス","province":"東京都","city":"江東区","address":"江東区亀戸9-18-10","lat":35.697784,"lon":139.843076},{"name":"江東荘","province":"東京都","city":"江東区","address":"東京都江東区","lat":35.67307835,"lon":139.8169681},{"name":"砂町クラブ","province":"東京都","city":"江東区","address":"江東区北砂4丁目11-22","lat":35.678392,"lon":139.829844},{"name":"あそか病院","province":"東京都","city":"江東区","address":"江東区住吉1-18-1","lat":35.689859,"lon":139.811861},{"name":"江東区社会福祉協議会","province":"東京都","city":"江東区","address":"江東区東陽6-2-17高齢者総合福祉センター2階","lat":35.674728,"lon":139.812491},{"name":"福住荘","province":"東京都","city":"江東区","address":"江東区福住1-14-10","lat":35.67499,"lon":139.79393},{"name":"さくら亀戸ハウス","province":"東京都","city":"江東区","address":"江東区亀戸4-33-5","lat":35.70295,"lon":139.82738},{"name":"さくら第３亀戸ハウス","province":"東京都","city":"江東区","address":"江東区亀戸7-24-1","lat":35.69941,"lon":139.83678},{"name":"さくら第２亀戸ハウス","province":"東京都","city":"江東区","address":"江東区亀戸9-18-10","lat":35.69769,"lon":139.84254},{"name":"砂町クラブ","province":"東京都","city":"江東区","address":"江東区北砂4-11-22","lat":35.67882,"lon":139.82986},{"name":"ロゴス点字図書館","province":"東京都","city":"江東区","address":"江東区潮見2-10-10日本カトリック会館1階","lat":35.6567,"lon":139.81723},{"name":"江東区社会福祉協議会","province":"東京都","city":"江東区","address":"江東区東陽6-2-17高齢者総合福祉センター2階","lat":35.67411,"lon":139.81239},{"name":"江東区障害者福祉センター","province":"東京都","city":"江東区","address":"東京都江東区扇橋3丁目7-2","lat":35.68268272,"lon":139.82041507},{"name":"社会福祉法人のびのび福祉会のびのび共同作業所大河","province":"東京都","city":"江東区","address":"東京都江東区南砂3丁目5-14","lat":35.67275921,"lon":139.82868907},{"name":"社会福祉法人のびのび福祉会自立センターあけぼの","province":"東京都","city":"江東区","address":"東京都江東区塩浜2丁目5-20","lat":35.66193219,"lon":139.80538308},{"name":"社会福祉法人ゆめグループ福祉会ゆめ工房","province":"東京都","city":"江東区","address":"東京都江東区北砂1丁目14-4","lat":35.67919994,"lon":139.82412845},{"name":"社会福祉法人ゆめグループ福祉会ゆめ工房北砂","province":"東京都","city":"江東区","address":"東京都江東区北砂1丁目14-4","lat":35.67919994,"lon":139.82412845},{"name":"社会福祉法人ゆめグループ福祉会ドリーム第２","province":"東京都","city":"江東区","address":"東京都江東区東砂6丁目20-7","lat":35.67519805,"lon":139.84087677},{"name":"社会福祉法人ゆめグループ福祉会ドリーム第２分室リサイクル工房サラエ","province":"東京都","city":"江東区","address":"東京都江東区東砂5丁目16-3","lat":35.67553138,"lon":139.84322934},{"name":"社会福祉法人ゆめグループ福祉会ネットワークゆめ工房","province":"東京都","city":"江東区","address":"東京都江東区北砂1丁目17-4","lat":35.67989709,"lon":139.82474781},{"name":"社会福祉法人ゆめグループ福祉会ドリームクラブハウス","province":"東京都","city":"江東区","address":"東京都江東区北砂1丁目15-8","lat":35.67843617,"lon":139.82485059},{"name":"社会福祉法人ゆめグループ福祉会ふれあい工房","province":"東京都","city":"江東区","address":"東京都江東区千石2丁目2-5","lat":35.67727782,"lon":139.81565733},{"name":"株式会社ティ－ビーエスオペレーションコレンド東陽町","province":"東京都","city":"江東区","address":"東京都江東区東陽2丁目4-46","lat":35.66913999,"lon":139.81931223},{"name":"さくら第２亀戸ハウス","province":"東京都","city":"江東区","address":"江東区亀戸9-18-10","lat":35.69769,"lon":139.84255},{"name":"東京辰巳国際水泳場","province":"東京都","city":"江東区","address":"東京都江東区","lat":35.67307835,"lon":139.8169681},{"name":"有明テニスの森公園有明コロシアム","province":"東京都","city":"江東区","address":"東京都江東区","lat":35.67307835,"lon":139.8169681},{"name":"有明テニスの森公園クラブハウスほか附属施設等14件","province":"東京都","city":"江東区","address":"東京都江東区","lat":35.67307835,"lon":139.8169681},{"name":"若洲海浜公園ヨット訓練所艇庫ほか2件","province":"東京都","city":"江東区","address":"東京都江東区","lat":35.67307835,"lon":139.8169681},{"name":"有明テニスの森公園駐車場","province":"東京都","city":"江東区","address":"東京都江東区","lat":35.67307835,"lon":139.8169681},{"name":"有明テニスの森公園砂入り人工芝（テニスコート）","province":"東京都","city":"江東区","address":"東京都江東区","lat":35.67307835,"lon":139.8169681},{"name":"若洲海浜公園ヨット訓練所ボートヤード","province":"東京都","city":"江東区","address":"東京都江東区","lat":35.67307835,"lon":139.8169681},{"name":"若洲海浜公園ヨット訓練所浮桟橋","province":"東京都","city":"江東区","address":"東京都江東区","lat":35.67307835,"lon":139.8169681},{"name":"介護老人保健施設キーストーン","province":"東京都","city":"江東区","address":"江東区亀戸3-36-1","lat":35.707275,"lon":139.819328},{"name":"江東区こども発達センター","province":"東京都","city":"江東区","address":"江東区塩浜2-5-20","lat":35.661932,"lon":139.805383},{"name":"東京都立東部療育センター","province":"東京都","city":"江東区","address":"江東区新砂3-3-25","lat":35.663819,"lon":139.833178},{"name":"ロゴス点字図書館","province":"東京都","city":"江東区","address":"江東区潮見二丁目10番10号日本カトリック会館1階","lat":35.656691,"lon":139.816721},{"name":"新幸荘","province":"東京都","city":"江東区","address":"東京都江東区","lat":35.67307835,"lon":139.8169681},{"name":"福住荘","province":"東京都","city":"江東区","address":"江東区福住1-14-10","lat":35.674944,"lon":139.793957},{"name":"さくら亀戸ハウス","province":"東京都","city":"江東区","address":"江東区亀戸4-33-5","lat":35.703072,"lon":139.827531},{"name":"さくら第３亀戸ハウス","province":"東京都","city":"江東区","address":"江東区亀戸7-24-1","lat":35.699556,"lon":139.836818},{"name":"さくら第２亀戸ハウス","province":"東京都","city":"江東区","address":"江東区亀戸9-18-10","lat":35.697784,"lon":139.843076},{"name":"江東荘","province":"東京都","city":"江東区","address":"東京都江東区","lat":35.67307835,"lon":139.8169681},{"name":"砂町クラブ","province":"東京都","city":"江東区","address":"江東区北砂4丁目11-22","lat":35.678392,"lon":139.829844},{"name":"あそか病院","province":"東京都","city":"江東区","address":"江東区住吉1-18-1","lat":35.689859,"lon":139.811861},{"name":"江東区社会福祉協議会","province":"東京都","city":"江東区","address":"江東区東陽6-2-17高齢者総合福祉センター2階","lat":35.674728,"lon":139.812491},{"name":"福住荘","province":"東京都","city":"江東区","address":"江東区福住1-14-10","lat":35.67499,"lon":139.79393},{"name":"さくら亀戸ハウス","province":"東京都","city":"江東区","address":"江東区亀戸4-33-5","lat":35.70295,"lon":139.82738},{"name":"さくら第３亀戸ハウス","province":"東京都","city":"江東区","address":"江東区亀戸7-24-1","lat":35.69941,"lon":139.83678},{"name":"さくら第２亀戸ハウス","province":"東京都","city":"江東区","address":"江東区亀戸9-18-10","lat":35.69769,"lon":139.84254},{"name":"砂町クラブ","province":"東京都","city":"江東区","address":"江東区北砂4-11-22","lat":35.67882,"lon":139.82986},{"name":"ロゴス点字図書館","province":"東京都","city":"江東区","address":"江東区潮見2-10-10日本カトリック会館1階","lat":35.6567,"lon":139.81723},{"name":"江東区社会福祉協議会","province":"東京都","city":"江東区","address":"江東区東陽6-2-17高齢者総合福祉センター2階","lat":35.67411,"lon":139.81239},{"name":"江東区障害者福祉センター","province":"東京都","city":"江東区","address":"東京都江東区扇橋3丁目7-2","lat":35.68268272,"lon":139.82041507},{"name":"社会福祉法人のびのび福祉会のびのび共同作業所大河","province":"東京都","city":"江東区","address":"東京都江東区南砂3丁目5-14","lat":35.67275921,"lon":139.82868907},{"name":"社会福祉法人のびのび福祉会自立センターあけぼの","province":"東京都","city":"江東区","address":"東京都江東区塩浜2丁目5-20","lat":35.66193219,"lon":139.80538308},{"name":"社会福祉法人ゆめグループ福祉会ゆめ工房","province":"東京都","city":"江東区","address":"東京都江東区北砂1丁目14-4","lat":35.67919994,"lon":139.82412845},{"name":"社会福祉法人ゆめグループ福祉会ゆめ工房北砂","province":"東京都","city":"江東区","address":"東京都江東区北砂1丁目14-4","lat":35.67919994,"lon":139.82412845},{"name":"社会福祉法人ゆめグループ福祉会ドリーム第２","province":"東京都","city":"江東区","address":"東京都江東区東砂6丁目20-7","lat":35.67519805,"lon":139.84087677},{"name":"社会福祉法人ゆめグループ福祉会ドリーム第２分室リサイクル工房サラエ","province":"東京都","city":"江東区","address":"東京都江東区東砂5丁目16-3","lat":35.67553138,"lon":139.84322934},{"name":"社会福祉法人ゆめグループ福祉会ネットワークゆめ工房","province":"東京都","city":"江東区","address":"東京都江東区北砂1丁目17-4","lat":35.67989709,"lon":139.82474781},{"name":"社会福祉法人ゆめグループ福祉会ドリームクラブハウス","province":"東京都","city":"江東区","address":"東京都江東区北砂1丁目15-8","lat":35.67843617,"lon":139.82485059},{"name":"社会福祉法人ゆめグループ福祉会ふれあい工房","province":"東京都","city":"江東区","address":"東京都江東区千石2丁目2-5","lat":35.67727782,"lon":139.81565733},{"name":"株式会社ティ－ビーエスオペレーションコレンド東陽町","province":"東京都","city":"江東区","address":"東京都江東区東陽2丁目4-46","lat":35.66913999,"lon":139.81931223},{"name":"さくら第２亀戸ハウス","province":"東京都","city":"江東区","address":"江東区亀戸9-18-10","lat":35.69769,"lon":139.84255},{"name":"東京辰巳国際水泳場","province":"東京都","city":"江東区","address":"東京都江東区","lat":35.67307835,"lon":139.8169681},{"name":"有明テニスの森公園有明コロシアム","province":"東京都","city":"江東区","address":"東京都江東区","lat":35.67307835,"lon":139.8169681},{"name":"有明テニスの森公園クラブハウスほか附属施設等14件","province":"東京都","city":"江東区","address":"東京都江東区","lat":35.67307835,"lon":139.8169681},{"name":"若洲海浜公園ヨット訓練所艇庫ほか2件","province":"東京都","city":"江東区","address":"東京都江東区","lat":35.67307835,"lon":139.8169681},{"name":"有明テニスの森公園駐車場","province":"東京都","city":"江東区","address":"東京都江東区","lat":35.67307835,"lon":139.8169681},{"name":"有明テニスの森公園砂入り人工芝（テニスコート）","province":"東京都","city":"江東区","address":"東京都江東区","lat":35.67307835,"lon":139.8169681},{"name":"若洲海浜公園ヨット訓練所ボートヤード","province":"東京都","city":"江東区","address":"東京都江東区","lat":35.67307835,"lon":139.8169681},{"name":"若洲海浜公園ヨット訓練所浮桟橋","province":"東京都","city":"江東区","address":"東京都江東区","lat":35.67307835,"lon":139.8169681},{"name":"介護老人保健施設キーストーン","province":"東京都","city":"江東区","address":"江東区亀戸3-36-1","lat":35.707275,"lon":139.819328},{"name":"江東区こども発達センター","province":"東京都","city":"江東区","address":"江東区塩浜2-5-20","lat":35.661932,"lon":139.805383},{"name":"東京都立東部療育センター","province":"東京都","city":"江東区","address":"江東区新砂3-3-25","lat":35.663819,"lon":139.833178},{"name":"ロゴス点字図書館","province":"東京都","city":"江東区","address":"江東区潮見二丁目10番10号日本カトリック会館1階","lat":35.656691,"lon":139.816721},{"name":"新幸荘","province":"東京都","city":"江東区","address":"東京都江東区","lat":35.67307835,"lon":139.8169681},{"name":"福住荘","province":"東京都","city":"江東区","address":"江東区福住1-14-10","lat":35.674944,"lon":139.793957},{"name":"さくら亀戸ハウス","province":"東京都","city":"江東区","address":"江東区亀戸4-33-5","lat":35.703072,"lon":139.827531},{"name":"さくら第３亀戸ハウス","province":"東京都","city":"江東区","address":"江東区亀戸7-24-1","lat":35.699556,"lon":139.836818},{"name":"さくら第２亀戸ハウス","province":"東京都","city":"江東区","address":"江東区亀戸9-18-10","lat":35.697784,"lon":139.843076},{"name":"江東荘","province":"東京都","city":"江東区","address":"東京都江東区","lat":35.67307835,"lon":139.8169681},{"name":"砂町クラブ","province":"東京都","city":"江東区","address":"江東区北砂4丁目11-22","lat":35.678392,"lon":139.829844},{"name":"あそか病院","province":"東京都","city":"江東区","address":"江東区住吉1-18-1","lat":35.689859,"lon":139.811861},{"name":"江東区社会福祉協議会","province":"東京都","city":"江東区","address":"江東区東陽6-2-17高齢者総合福祉センター2階","lat":35.674728,"lon":139.812491},{"name":"福住荘","province":"東京都","city":"江東区","address":"江東区福住1-14-10","lat":35.67499,"lon":139.79393},{"name":"さくら亀戸ハウス","province":"東京都","city":"江東区","address":"江東区亀戸4-33-5","lat":35.70295,"lon":139.82738},{"name":"さくら第３亀戸ハウス","province":"東京都","city":"江東区","address":"江東区亀戸7-24-1","lat":35.69941,"lon":139.83678},{"name":"さくら第２亀戸ハウス","province":"東京都","city":"江東区","address":"江東区亀戸9-18-10","lat":35.69769,"lon":139.84254},{"name":"砂町クラブ","province":"東京都","city":"江東区","address":"江東区北砂4-11-22","lat":35.67882,"lon":139.82986},{"name":"ロゴス点字図書館","province":"東京都","city":"江東区","address":"江東区潮見2-10-10日本カトリック会館1階","lat":35.6567,"lon":139.81723},{"name":"江東区社会福祉協議会","province":"東京都","city":"江東区","address":"江東区東陽6-2-17高齢者総合福祉センター2階","lat":35.67411,"lon":139.81239},{"name":"江東区障害者福祉センター","province":"東京都","city":"江東区","address":"東京都江東区扇橋3丁目7-2","lat":35.68268272,"lon":139.82041507},{"name":"社会福祉法人のびのび福祉会のびのび共同作業所大河","province":"東京都","city":"江東区","address":"東京都江東区南砂3丁目5-14","lat":35.67275921,"lon":139.82868907},{"name":"社会福祉法人のびのび福祉会自立センターあけぼの","province":"東京都","city":"江東区","address":"東京都江東区塩浜2丁目5-20","lat":35.66193219,"lon":139.80538308},{"name":"社会福祉法人ゆめグループ福祉会ゆめ工房","province":"東京都","city":"江東区","address":"東京都江東区北砂1丁目14-4","lat":35.67919994,"lon":139.82412845},{"name":"社会福祉法人ゆめグループ福祉会ゆめ工房北砂","province":"東京都","city":"江東区","address":"東京都江東区北砂1丁目14-4","lat":35.67919994,"lon":139.82412845},{"name":"社会福祉法人ゆめグループ福祉会ドリーム第２","province":"東京都","city":"江東区","address":"東京都江東区東砂6丁目20-7","lat":35.67519805,"lon":139.84087677},{"name":"社会福祉法人ゆめグループ福祉会ドリーム第２分室リサイクル工房サラエ","province":"東京都","city":"江東区","address":"東京都江東区東砂5丁目16-3","lat":35.67553138,"lon":139.84322934},{"name":"社会福祉法人ゆめグループ福祉会ネットワークゆめ工房","province":"東京都","city":"江東区","address":"東京都江東区北砂1丁目17-4","lat":35.67989709,"lon":139.82474781},{"name":"社会福祉法人ゆめグループ福祉会ドリームクラブハウス","province":"東京都","city":"江東区","address":"東京都江東区北砂1丁目15-8","lat":35.67843617,"lon":139.82485059},{"name":"社会福祉法人ゆめグループ福祉会ふれあい工房","province":"東京都","city":"江東区","address":"東京都江東区千石2丁目2-5","lat":35.67727782,"lon":139.81565733},{"name":"株式会社ティ－ビーエスオペレーションコレンド東陽町","province":"東京都","city":"江東区","address":"東京都江東区東陽2丁目4-46","lat":35.66913999,"lon":139.81931223},{"name":"さくら第２亀戸ハウス","province":"東京都","city":"江東区","address":"江東区亀戸9-18-10","lat":35.69769,"lon":139.84255},{"name":"東京辰巳国際水泳場","province":"東京都","city":"江東区","address":"東京都江東区","lat":35.67307835,"lon":139.8169681},{"name":"有明テニスの森公園有明コロシアム","province":"東京都","city":"江東区","address":"東京都江東区","lat":35.67307835,"lon":139.8169681},{"name":"有明テニスの森公園クラブハウスほか附属施設等14件","province":"東京都","city":"江東区","address":"東京都江東区","lat":35.67307835,"lon":139.8169681},{"name":"若洲海浜公園ヨット訓練所艇庫ほか2件","province":"東京都","city":"江東区","address":"東京都江東区","lat":35.67307835,"lon":139.8169681},{"name":"有明テニスの森公園駐車場","province":"東京都","city":"江東区","address":"東京都江東区","lat":35.67307835,"lon":139.8169681},{"name":"有明テニスの森公園砂入り人工芝（テニスコート）","province":"東京都","city":"江東区","address":"東京都江東区","lat":35.67307835,"lon":139.8169681},{"name":"若洲海浜公園ヨット訓練所ボートヤード","province":"東京都","city":"江東区","address":"東京都江東区","lat":35.67307835,"lon":139.8169681},{"name":"若洲海浜公園ヨット訓練所浮桟橋","province":"東京都","city":"江東区","address":"東京都江東区","lat":35.67307835,"lon":139.8169681},{"name":"介護老人保健施設キーストーン","province":"東京都","city":"江東区","address":"江東区亀戸3-36-1","lat":35.707275,"lon":139.819328},{"name":"江東区こども発達センター","province":"東京都","city":"江東区","address":"江東区塩浜2-5-20","lat":35.661932,"lon":139.805383},{"name":"東京都立東部療育センター","province":"東京都","city":"江東区","address":"江東区新砂3-3-25","lat":35.663819,"lon":139.833178},{"name":"ロゴス点字図書館","province":"東京都","city":"江東区","address":"江東区潮見二丁目10番10号日本カトリック会館1階","lat":35.656691,"lon":139.816721},{"name":"新幸荘","province":"東京都","city":"江東区","address":"東京都江東区","lat":35.67307835,"lon":139.8169681},{"name":"福住荘","province":"東京都","city":"江東区","address":"江東区福住1-14-10","lat":35.674944,"lon":139.793957},{"name":"さくら亀戸ハウス","province":"東京都","city":"江東区","address":"江東区亀戸4-33-5","lat":35.703072,"lon":139.827531},{"name":"さくら第３亀戸ハウス","province":"東京都","city":"江東区","address":"江東区亀戸7-24-1","lat":35.699556,"lon":139.836818},{"name":"さくら第２亀戸ハウス","province":"東京都","city":"江東区","address":"江東区亀戸9-18-10","lat":35.697784,"lon":139.843076},{"name":"江東荘","province":"東京都","city":"江東区","address":"東京都江東区","lat":35.67307835,"lon":139.8169681},{"name":"砂町クラブ","province":"東京都","city":"江東区","address":"江東区北砂4丁目11-22","lat":35.678392,"lon":139.829844},{"name":"あそか病院","province":"東京都","city":"江東区","address":"江東区住吉1-18-1","lat":35.689859,"lon":139.811861},{"name":"江東区社会福祉協議会","province":"東京都","city":"江東区","address":"江東区東陽6-2-17高齢者総合福祉センター2階","lat":35.674728,"lon":139.812491},{"name":"福住荘","province":"東京都","city":"江東区","address":"江東区福住1-14-10","lat":35.67499,"lon":139.79393},{"name":"さくら亀戸ハウス","province":"東京都","city":"江東区","address":"江東区亀戸4-33-5","lat":35.70295,"lon":139.82738},{"name":"さくら第３亀戸ハウス","province":"東京都","city":"江東区","address":"江東区亀戸7-24-1","lat":35.69941,"lon":139.83678},{"name":"さくら第２亀戸ハウス","province":"東京都","city":"江東区","address":"江東区亀戸9-18-10","lat":35.69769,"lon":139.84254},{"name":"砂町クラブ","province":"東京都","city":"江東区","address":"江東区北砂4-11-22","lat":35.67882,"lon":139.82986},{"name":"ロゴス点字図書館","province":"東京都","city":"江東区","address":"江東区潮見2-10-10日本カトリック会館1階","lat":35.6567,"lon":139.81723},{"name":"江東区社会福祉協議会","province":"東京都","city":"江東区","address":"江東区東陽6-2-17高齢者総合福祉センター2階","lat":35.67411,"lon":139.81239},{"name":"江東区障害者福祉センター","province":"東京都","city":"江東区","address":"東京都江東区扇橋3丁目7-2","lat":35.68268272,"lon":139.82041507},{"name":"社会福祉法人のびのび福祉会のびのび共同作業所大河","province":"東京都","city":"江東区","address":"東京都江東区南砂3丁目5-14","lat":35.67275921,"lon":139.82868907},{"name":"社会福祉法人のびのび福祉会自立センターあけぼの","province":"東京都","city":"江東区","address":"東京都江東区塩浜2丁目5-20","lat":35.66193219,"lon":139.80538308},{"name":"社会福祉法人ゆめグループ福祉会ゆめ工房","province":"東京都","city":"江東区","address":"東京都江東区北砂1丁目14-4","lat":35.67919994,"lon":139.82412845},{"name":"社会福祉法人ゆめグループ福祉会ゆめ工房北砂","province":"東京都","city":"江東区","address":"東京都江東区北砂1丁目14-4","lat":35.67919994,"lon":139.82412845},{"name":"社会福祉法人ゆめグループ福祉会ドリーム第２","province":"東京都","city":"江東区","address":"東京都江東区東砂6丁目20-7","lat":35.67519805,"lon":139.84087677},{"name":"社会福祉法人ゆめグループ福祉会ドリーム第２分室リサイクル工房サラエ","province":"東京都","city":"江東区","address":"東京都江東区東砂5丁目16-3","lat":35.67553138,"lon":139.84322934},{"name":"社会福祉法人ゆめグループ福祉会ネットワークゆめ工房","province":"東京都","city":"江東区","address":"東京都江東区北砂1丁目17-4","lat":35.67989709,"lon":139.82474781},{"name":"社会福祉法人ゆめグループ福祉会ドリームクラブハウス","province":"東京都","city":"江東区","address":"東京都江東区北砂1丁目15-8","lat":35.67843617,"lon":139.82485059},{"name":"社会福祉法人ゆめグループ福祉会ふれあい工房","province":"東京都","city":"江東区","address":"東京都江東区千石2丁目2-5","lat":35.67727782,"lon":139.81565733},{"name":"株式会社ティ－ビーエスオペレーションコレンド東陽町","province":"東京都","city":"江東区","address":"東京都江東区東陽2丁目4-46","lat":35.66913999,"lon":139.81931223},{"name":"さくら第２亀戸ハウス","province":"東京都","city":"江東区","address":"江東区亀戸9-18-10","lat":35.69769,"lon":139.84255},{"name":"東京辰巳国際水泳場","province":"東京都","city":"江東区","address":"東京都江東区","lat":35.67307835,"lon":139.8169681},{"name":"有明テニスの森公園有明コロシアム","province":"東京都","city":"江東区","address":"東京都江東区","lat":35.67307835,"lon":139.8169681},{"name":"有明テニスの森公園クラブハウスほか附属施設等14件","province":"東京都","city":"江東区","address":"東京都江東区","lat":35.67307835,"lon":139.8169681},{"name":"若洲海浜公園ヨット訓練所艇庫ほか2件","province":"東京都","city":"江東区","address":"東京都江東区","lat":35.67307835,"lon":139.8169681},{"name":"有明テニスの森公園駐車場","province":"東京都","city":"江東区","address":"東京都江東区","lat":35.67307835,"lon":139.8169681},{"name":"有明テニスの森公園砂入り人工芝（テニスコート）","province":"東京都","city":"江東区","address":"東京都江東区","lat":35.67307835,"lon":139.8169681},{"name":"若洲海浜公園ヨット訓練所ボートヤード","province":"東京都","city":"江東区","address":"東京都江東区","lat":35.67307835,"lon":139.8169681},{"name":"若洲海浜公園ヨット訓練所浮桟橋","province":"東京都","city":"江東区","address":"東京都江東区","lat":35.67307835,"lon":139.8169681},{"name":"介護老人保健施設キーストーン","province":"東京都","city":"江東区","address":"江東区亀戸3-36-1","lat":35.707275,"lon":139.819328},{"name":"江東区こども発達センター","province":"東京都","city":"江東区","address":"江東区塩浜2-5-20","lat":35.661932,"lon":139.805383},{"name":"東京都立東部療育センター","province":"東京都","city":"江東区","address":"江東区新砂3-3-25","lat":35.663819,"lon":139.833178},{"name":"ロゴス点字図書館","province":"東京都","city":"江東区","address":"江東区潮見二丁目10番10号日本カトリック会館1階","lat":35.656691,"lon":139.816721},{"name":"新幸荘","province":"東京都","city":"江東区","address":"東京都江東区","lat":35.67307835,"lon":139.8169681},{"name":"福住荘","province":"東京都","city":"江東区","address":"江東区福住1-14-10","lat":35.674944,"lon":139.793957},{"name":"さくら亀戸ハウス","province":"東京都","city":"江東区","address":"江東区亀戸4-33-5","lat":35.703072,"lon":139.827531},{"name":"さくら第３亀戸ハウス","province":"東京都","city":"江東区","address":"江東区亀戸7-24-1","lat":35.699556,"lon":139.836818},{"name":"さくら第２亀戸ハウス","province":"東京都","city":"江東区","address":"江東区亀戸9-18-10","lat":35.697784,"lon":139.843076},{"name":"江東荘","province":"東京都","city":"江東区","address":"東京都江東区","lat":35.67307835,"lon":139.8169681},{"name":"砂町クラブ","province":"東京都","city":"江東区","address":"江東区北砂4丁目11-22","lat":35.678392,"lon":139.829844},{"name":"あそか病院","province":"東京都","city":"江東区","address":"江東区住吉1-18-1","lat":35.689859,"lon":139.811861},{"name":"江東区社会福祉協議会","province":"東京都","city":"江東区","address":"江東区東陽6-2-17高齢者総合福祉センター2階","lat":35.674728,"lon":139.812491},{"name":"福住荘","province":"東京都","city":"江東区","address":"江東区福住1-14-10","lat":35.67499,"lon":139.79393},{"name":"さくら亀戸ハウス","province":"東京都","city":"江東区","address":"江東区亀戸4-33-5","lat":35.70295,"lon":139.82738},{"name":"さくら第３亀戸ハウス","province":"東京都","city":"江東区","address":"江東区亀戸7-24-1","lat":35.69941,"lon":139.83678},{"name":"さくら第２亀戸ハウス","province":"東京都","city":"江東区","address":"江東区亀戸9-18-10","lat":35.69769,"lon":139.84254},{"name":"砂町クラブ","province":"東京都","city":"江東区","address":"江東区北砂4-11-22","lat":35.67882,"lon":139.82986},{"name":"ロゴス点字図書館","province":"東京都","city":"江東区","address":"江東区潮見2-10-10日本カトリック会館1階","lat":35.6567,"lon":139.81723},{"name":"江東区社会福祉協議会","province":"東京都","city":"江東区","address":"江東区東陽6-2-17高齢者総合福祉センター2階","lat":35.67411,"lon":139.81239},{"name":"江東区障害者福祉センター","province":"東京都","city":"江東区","address":"東京都江東区扇橋3丁目7-2","lat":35.68268272,"lon":139.82041507},{"name":"社会福祉法人のびのび福祉会のびのび共同作業所大河","province":"東京都","city":"江東区","address":"東京都江東区南砂3丁目5-14","lat":35.67275921,"lon":139.82868907},{"name":"社会福祉法人のびのび福祉会自立センターあけぼの","province":"東京都","city":"江東区","address":"東京都江東区塩浜2丁目5-20","lat":35.66193219,"lon":139.80538308},{"name":"社会福祉法人ゆめグループ福祉会ゆめ工房","province":"東京都","city":"江東区","address":"東京都江東区北砂1丁目14-4","lat":35.67919994,"lon":139.82412845},{"name":"社会福祉法人ゆめグループ福祉会ゆめ工房北砂","province":"東京都","city":"江東区","address":"東京都江東区北砂1丁目14-4","lat":35.67919994,"lon":139.82412845},{"name":"社会福祉法人ゆめグループ福祉会ドリーム第２","province":"東京都","city":"江東区","address":"東京都江東区東砂6丁目20-7","lat":35.67519805,"lon":139.84087677},{"name":"社会福祉法人ゆめグループ福祉会ドリーム第２分室リサイクル工房サラエ","province":"東京都","city":"江東区","address":"東京都江東区東砂5丁目16-3","lat":35.67553138,"lon":139.84322934},{"name":"社会福祉法人ゆめグループ福祉会ネットワークゆめ工房","province":"東京都","city":"江東区","address":"東京都江東区北砂1丁目17-4","lat":35.67989709,"lon":139.82474781},{"name":"社会福祉法人ゆめグループ福祉会ドリームクラブハウス","province":"東京都","city":"江東区","address":"東京都江東区北砂1丁目15-8","lat":35.67843617,"lon":139.82485059},{"name":"社会福祉法人ゆめグループ福祉会ふれあい工房","province":"東京都","city":"江東区","address":"東京都江東区千石2丁目2-5","lat":35.67727782,"lon":139.81565733},{"name":"株式会社ティ－ビーエスオペレーションコレンド東陽町","province":"東京都","city":"江東区","address":"東京都江東区東陽2丁目4-46","lat":35.66913999,"lon":139.81931223},{"name":"さくら第２亀戸ハウス","province":"東京都","city":"江東区","address":"江東区亀戸9-18-10","lat":35.69769,"lon":139.84255},{"name":"東京辰巳国際水泳場","province":"東京都","city":"江東区","address":"東京都江東区","lat":35.67307835,"lon":139.8169681},{"name":"有明テニスの森公園有明コロシアム","province":"東京都","city":"江東区","address":"東京都江東区","lat":35.67307835,"lon":139.8169681},{"name":"有明テニスの森公園クラブハウスほか附属施設等14件","province":"東京都","city":"江東区","address":"東京都江東区","lat":35.67307835,"lon":139.8169681},{"name":"若洲海浜公園ヨット訓練所艇庫ほか2件","province":"東京都","city":"江東区","address":"東京都江東区","lat":35.67307835,"lon":139.8169681},{"name":"有明テニスの森公園駐車場","province":"東京都","city":"江東区","address":"東京都江東区","lat":35.67307835,"lon":139.8169681},{"name":"有明テニスの森公園砂入り人工芝（テニスコート）","province":"東京都","city":"江東区","address":"東京都江東区","lat":35.67307835,"lon":139.8169681},{"name":"若洲海浜公園ヨット訓練所ボートヤード","province":"東京都","city":"江東区","address":"東京都江東区","lat":35.67307835,"lon":139.8169681},{"name":"若洲海浜公園ヨット訓練所浮桟橋","province":"東京都","city":"江東区","address":"東京都江東区","lat":35.67307835,"lon":139.8169681},{"name":"介護老人保健施設キーストーン","province":"東京都","city":"江東区","address":"江東区亀戸3-36-1","lat":35.707275,"lon":139.819328},{"name":"江東区こども発達センター","province":"東京都","city":"江東区","address":"江東区塩浜2-5-20","lat":35.661932,"lon":139.805383},{"name":"東京都立東部療育センター","province":"東京都","city":"江東区","address":"江東区新砂3-3-25","lat":35.663819,"lon":139.833178},{"name":"ロゴス点字図書館","province":"東京都","city":"江東区","address":"江東区潮見二丁目10番10号日本カトリック会館1階","lat":35.656691,"lon":139.816721},{"name":"新幸荘","province":"東京都","city":"江東区","address":"東京都江東区","lat":35.67307835,"lon":139.8169681},{"name":"福住荘","province":"東京都","city":"江東区","address":"江東区福住1-14-10","lat":35.674944,"lon":139.793957},{"name":"さくら亀戸ハウス","province":"東京都","city":"江東区","address":"江東区亀戸4-33-5","lat":35.703072,"lon":139.827531},{"name":"さくら第３亀戸ハウス","province":"東京都","city":"江東区","address":"江東区亀戸7-24-1","lat":35.699556,"lon":139.836818},{"name":"さくら第２亀戸ハウス","province":"東京都","city":"江東区","address":"江東区亀戸9-18-10","lat":35.697784,"lon":139.843076},{"name":"江東荘","province":"東京都","city":"江東区","address":"東京都江東区","lat":35.67307835,"lon":139.8169681},{"name":"砂町クラブ","province":"東京都","city":"江東区","address":"江東区北砂4丁目11-22","lat":35.678392,"lon":139.829844},{"name":"あそか病院","province":"東京都","city":"江東区","address":"江東区住吉1-18-1","lat":35.689859,"lon":139.811861},{"name":"江東区社会福祉協議会","province":"東京都","city":"江東区","address":"江東区東陽6-2-17高齢者総合福祉センター2階","lat":35.674728,"lon":139.812491},{"name":"福住荘","province":"東京都","city":"江東区","address":"江東区福住1-14-10","lat":35.67499,"lon":139.79393},{"name":"さくら亀戸ハウス","province":"東京都","city":"江東区","address":"江東区亀戸4-33-5","lat":35.70295,"lon":139.82738},{"name":"さくら第３亀戸ハウス","province":"東京都","city":"江東区","address":"江東区亀戸7-24-1","lat":35.69941,"lon":139.83678},{"name":"さくら第２亀戸ハウス","province":"東京都","city":"江東区","address":"江東区亀戸9-18-10","lat":35.69769,"lon":139.84254},{"name":"砂町クラブ","province":"東京都","city":"江東区","address":"江東区北砂4-11-22","lat":35.67882,"lon":139.82986},{"name":"ロゴス点字図書館","province":"東京都","city":"江東区","address":"江東区潮見2-10-10日本カトリック会館1階","lat":35.6567,"lon":139.81723},{"name":"江東区社会福祉協議会","province":"東京都","city":"江東区","address":"江東区東陽6-2-17高齢者総合福祉センター2階","lat":35.67411,"lon":139.81239},{"name":"江東区障害者福祉センター","province":"東京都","city":"江東区","address":"東京都江東区扇橋3丁目7-2","lat":35.68268272,"lon":139.82041507},{"name":"社会福祉法人のびのび福祉会のびのび共同作業所大河","province":"東京都","city":"江東区","address":"東京都江東区南砂3丁目5-14","lat":35.67275921,"lon":139.82868907},{"name":"社会福祉法人のびのび福祉会自立センターあけぼの","province":"東京都","city":"江東区","address":"東京都江東区塩浜2丁目5-20","lat":35.66193219,"lon":139.80538308},{"name":"社会福祉法人ゆめグループ福祉会ゆめ工房","province":"東京都","city":"江東区","address":"東京都江東区北砂1丁目14-4","lat":35.67919994,"lon":139.82412845},{"name":"社会福祉法人ゆめグループ福祉会ゆめ工房北砂","province":"東京都","city":"江東区","address":"東京都江東区北砂1丁目14-4","lat":35.67919994,"lon":139.82412845},{"name":"社会福祉法人ゆめグループ福祉会ドリーム第２","province":"東京都","city":"江東区","address":"東京都江東区東砂6丁目20-7","lat":35.67519805,"lon":139.84087677},{"name":"社会福祉法人ゆめグループ福祉会ドリーム第２分室リサイクル工房サラエ","province":"東京都","city":"江東区","address":"東京都江東区東砂5丁目16-3","lat":35.67553138,"lon":139.84322934},{"name":"社会福祉法人ゆめグループ福祉会ネットワークゆめ工房","province":"東京都","city":"江東区","address":"東京都江東区北砂1丁目17-4","lat":35.67989709,"lon":139.82474781},{"name":"社会福祉法人ゆめグループ福祉会ドリームクラブハウス","province":"東京都","city":"江東区","address":"東京都江東区北砂1丁目15-8","lat":35.67843617,"lon":139.82485059},{"name":"社会福祉法人ゆめグループ福祉会ふれあい工房","province":"東京都","city":"江東区","address":"東京都江東区千石2丁目2-5","lat":35.67727782,"lon":139.81565733},{"name":"株式会社ティ－ビーエスオペレーションコレンド東陽町","province":"東京都","city":"江東区","address":"東京都江東区東陽2丁目4-46","lat":35.66913999,"lon":139.81931223},{"name":"さくら第２亀戸ハウス","province":"東京都","city":"江東区","address":"江東区亀戸9-18-10","lat":35.69769,"lon":139.84255},{"name":"東京辰巳国際水泳場","province":"東京都","city":"江東区","address":"東京都江東区","lat":35.67307835,"lon":139.8169681},{"name":"有明テニスの森公園有明コロシアム","province":"東京都","city":"江東区","address":"東京都江東区","lat":35.67307835,"lon":139.8169681},{"name":"有明テニスの森公園クラブハウスほか附属施設等14件","province":"東京都","city":"江東区","address":"東京都江東区","lat":35.67307835,"lon":139.8169681},{"name":"若洲海浜公園ヨット訓練所艇庫ほか2件","province":"東京都","city":"江東区","address":"東京都江東区","lat":35.67307835,"lon":139.8169681},{"name":"有明テニスの森公園駐車場","province":"東京都","city":"江東区","address":"東京都江東区","lat":35.67307835,"lon":139.8169681},{"name":"有明テニスの森公園砂入り人工芝（テニスコート）","province":"東京都","city":"江東区","address":"東京都江東区","lat":35.67307835,"lon":139.8169681},{"name":"若洲海浜公園ヨット訓練所ボートヤード","province":"東京都","city":"江東区","address":"東京都江東区","lat":35.67307835,"lon":139.8169681},{"name":"若洲海浜公園ヨット訓練所浮桟橋","province":"東京都","city":"江東区","address":"東京都江東区","lat":35.67307835,"lon":139.8169681},{"name":"介護老人保健施設キーストーン","province":"東京都","city":"江東区","address":"江東区亀戸3-36-1","lat":35.707275,"lon":139.819328},{"name":"江東区こども発達センター","province":"東京都","city":"江東区","address":"江東区塩浜2-5-20","lat":35.661932,"lon":139.805383},{"name":"東京都立東部療育センター","province":"東京都","city":"江東区","address":"江東区新砂3-3-25","lat":35.663819,"lon":139.833178},{"name":"ロゴス点字図書館","province":"東京都","city":"江東区","address":"江東区潮見二丁目10番10号日本カトリック会館1階","lat":35.656691,"lon":139.816721},{"name":"新幸荘","province":"東京都","city":"江東区","address":"東京都江東区","lat":35.67307835,"lon":139.8169681},{"name":"福住荘","province":"東京都","city":"江東区","address":"江東区福住1-14-10","lat":35.674944,"lon":139.793957},{"name":"さくら亀戸ハウス","province":"東京都","city":"江東区","address":"江東区亀戸4-33-5","lat":35.703072,"lon":139.827531},{"name":"さくら第３亀戸ハウス","province":"東京都","city":"江東区","address":"江東区亀戸7-24-1","lat":35.699556,"lon":139.836818},{"name":"さくら第２亀戸ハウス","province":"東京都","city":"江東区","address":"江東区亀戸9-18-10","lat":35.697784,"lon":139.843076},{"name":"江東荘","province":"東京都","city":"江東区","address":"東京都江東区","lat":35.67307835,"lon":139.8169681},{"name":"砂町クラブ","province":"東京都","city":"江東区","address":"江東区北砂4丁目11-22","lat":35.678392,"lon":139.829844},{"name":"あそか病院","province":"東京都","city":"江東区","address":"江東区住吉1-18-1","lat":35.689859,"lon":139.811861},{"name":"江東区社会福祉協議会","province":"東京都","city":"江東区","address":"江東区東陽6-2-17高齢者総合福祉センター2階","lat":35.674728,"lon":139.812491},{"name":"福住荘","province":"東京都","city":"江東区","address":"江東区福住1-14-10","lat":35.67499,"lon":139.79393},{"name":"さくら亀戸ハウス","province":"東京都","city":"江東区","address":"江東区亀戸4-33-5","lat":35.70295,"lon":139.82738},{"name":"さくら第３亀戸ハウス","province":"東京都","city":"江東区","address":"江東区亀戸7-24-1","lat":35.69941,"lon":139.83678},{"name":"さくら第２亀戸ハウス","province":"東京都","city":"江東区","address":"江東区亀戸9-18-10","lat":35.69769,"lon":139.84254},{"name":"砂町クラブ","province":"東京都","city":"江東区","address":"江東区北砂4-11-22","lat":35.67882,"lon":139.82986},{"name":"ロゴス点字図書館","province":"東京都","city":"江東区","address":"江東区潮見2-10-10日本カトリック会館1階","lat":35.6567,"lon":139.81723},{"name":"江東区社会福祉協議会","province":"東京都","city":"江東区","address":"江東区東陽6-2-17高齢者総合福祉センター2階","lat":35.67411,"lon":139.81239},{"name":"江東区障害者福祉センター","province":"東京都","city":"江東区","address":"東京都江東区扇橋3丁目7-2","lat":35.68268272,"lon":139.82041507},{"name":"社会福祉法人のびのび福祉会のびのび共同作業所大河","province":"東京都","city":"江東区","address":"東京都江東区南砂3丁目5-14","lat":35.67275921,"lon":139.82868907},{"name":"社会福祉法人のびのび福祉会自立センターあけぼの","province":"東京都","city":"江東区","address":"東京都江東区塩浜2丁目5-20","lat":35.66193219,"lon":139.80538308},{"name":"社会福祉法人ゆめグループ福祉会ゆめ工房","province":"東京都","city":"江東区","address":"東京都江東区北砂1丁目14-4","lat":35.67919994,"lon":139.82412845},{"name":"社会福祉法人ゆめグループ福祉会ゆめ工房北砂","province":"東京都","city":"江東区","address":"東京都江東区北砂1丁目14-4","lat":35.67919994,"lon":139.82412845},{"name":"社会福祉法人ゆめグループ福祉会ドリーム第２","province":"東京都","city":"江東区","address":"東京都江東区東砂6丁目20-7","lat":35.67519805,"lon":139.84087677},{"name":"社会福祉法人ゆめグループ福祉会ドリーム第２分室リサイクル工房サラエ","province":"東京都","city":"江東区","address":"東京都江東区東砂5丁目16-3","lat":35.67553138,"lon":139.84322934},{"name":"社会福祉法人ゆめグループ福祉会ネットワークゆめ工房","province":"東京都","city":"江東区","address":"東京都江東区北砂1丁目17-4","lat":35.67989709,"lon":139.82474781},{"name":"社会福祉法人ゆめグループ福祉会ドリームクラブハウス","province":"東京都","city":"江東区","address":"東京都江東区北砂1丁目15-8","lat":35.67843617,"lon":139.82485059},{"name":"社会福祉法人ゆめグループ福祉会ふれあい工房","province":"東京都","city":"江東区","address":"東京都江東区千石2丁目2-5","lat":35.67727782,"lon":139.81565733},{"name":"株式会社ティ－ビーエスオペレーションコレンド東陽町","province":"東京都","city":"江東区","address":"東京都江東区東陽2丁目4-46","lat":35.66913999,"lon":139.81931223},{"name":"さくら第２亀戸ハウス","province":"東京都","city":"江東区","address":"江東区亀戸9-18-10","lat":35.69769,"lon":139.84255},{"name":"東京辰巳国際水泳場","province":"東京都","city":"江東区","address":"東京都江東区","lat":35.67307835,"lon":139.8169681},{"name":"有明テニスの森公園有明コロシアム","province":"東京都","city":"江東区","address":"東京都江東区","lat":35.67307835,"lon":139.8169681},{"name":"有明テニスの森公園クラブハウスほか附属施設等14件","province":"東京都","city":"江東区","address":"東京都江東区","lat":35.67307835,"lon":139.8169681},{"name":"若洲海浜公園ヨット訓練所艇庫ほか2件","province":"東京都","city":"江東区","address":"東京都江東区","lat":35.67307835,"lon":139.8169681},{"name":"有明テニスの森公園駐車場","province":"東京都","city":"江東区","address":"東京都江東区","lat":35.67307835,"lon":139.8169681},{"name":"有明テニスの森公園砂入り人工芝（テニスコート）","province":"東京都","city":"江東区","address":"東京都江東区","lat":35.67307835,"lon":139.8169681},{"name":"若洲海浜公園ヨット訓練所ボートヤード","province":"東京都","city":"江東区","address":"東京都江東区","lat":35.67307835,"lon":139.8169681},{"name":"若洲海浜公園ヨット訓練所浮桟橋","province":"東京都","city":"江東区","address":"東京都江東区","lat":35.67307835,"lon":139.8169681},{"name":"介護老人保健施設キーストーン","province":"東京都","city":"江東区","address":"江東区亀戸3-36-1","lat":35.707275,"lon":139.819328},{"name":"江東区こども発達センター","province":"東京都","city":"江東区","address":"江東区塩浜2-5-20","lat":35.661932,"lon":139.805383},{"name":"東京都立東部療育センター","province":"東京都","city":"江東区","address":"江東区新砂3-3-25","lat":35.663819,"lon":139.833178},{"name":"ロゴス点字図書館","province":"東京都","city":"江東区","address":"江東区潮見二丁目10番10号日本カトリック会館1階","lat":35.656691,"lon":139.816721},{"name":"新幸荘","province":"東京都","city":"江東区","address":"東京都江東区","lat":35.67307835,"lon":139.8169681},{"name":"福住荘","province":"東京都","city":"江東区","address":"江東区福住1-14-10","lat":35.674944,"lon":139.793957},{"name":"さくら亀戸ハウス","province":"東京都","city":"江東区","address":"江東区亀戸4-33-5","lat":35.703072,"lon":139.827531},{"name":"さくら第３亀戸ハウス","province":"東京都","city":"江東区","address":"江東区亀戸7-24-1","lat":35.699556,"lon":139.836818},{"name":"さくら第２亀戸ハウス","province":"東京都","city":"江東区","address":"江東区亀戸9-18-10","lat":35.697784,"lon":139.843076},{"name":"江東荘","province":"東京都","city":"江東区","address":"東京都江東区","lat":35.67307835,"lon":139.8169681},{"name":"砂町クラブ","province":"東京都","city":"江東区","address":"江東区北砂4丁目11-22","lat":35.678392,"lon":139.829844},{"name":"あそか病院","province":"東京都","city":"江東区","address":"江東区住吉1-18-1","lat":35.689859,"lon":139.811861},{"name":"江東区社会福祉協議会","province":"東京都","city":"江東区","address":"江東区東陽6-2-17高齢者総合福祉センター2階","lat":35.674728,"lon":139.812491},{"name":"福住荘","province":"東京都","city":"江東区","address":"江東区福住1-14-10","lat":35.67499,"lon":139.79393},{"name":"さくら亀戸ハウス","province":"東京都","city":"江東区","address":"江東区亀戸4-33-5","lat":35.70295,"lon":139.82738},{"name":"さくら第３亀戸ハウス","province":"東京都","city":"江東区","address":"江東区亀戸7-24-1","lat":35.69941,"lon":139.83678},{"name":"さくら第２亀戸ハウス","province":"東京都","city":"江東区","address":"江東区亀戸9-18-10","lat":35.69769,"lon":139.84254},{"name":"砂町クラブ","province":"東京都","city":"江東区","address":"江東区北砂4-11-22","lat":35.67882,"lon":139.82986},{"name":"ロゴス点字図書館","province":"東京都","city":"江東区","address":"江東区潮見2-10-10日本カトリック会館1階","lat":35.6567,"lon":139.81723},{"name":"江東区社会福祉協議会","province":"東京都","city":"江東区","address":"江東区東陽6-2-17高齢者総合福祉センター2階","lat":35.67411,"lon":139.81239},{"name":"江東区障害者福祉センター","province":"東京都","city":"江東区","address":"東京都江東区扇橋3丁目7-2","lat":35.68268272,"lon":139.82041507},{"name":"社会福祉法人のびのび福祉会のびのび共同作業所大河","province":"東京都","city":"江東区","address":"東京都江東区南砂3丁目5-14","lat":35.67275921,"lon":139.82868907},{"name":"社会福祉法人のびのび福祉会自立センターあけぼの","province":"東京都","city":"江東区","address":"東京都江東区塩浜2丁目5-20","lat":35.66193219,"lon":139.80538308},{"name":"社会福祉法人ゆめグループ福祉会ゆめ工房","province":"東京都","city":"江東区","address":"東京都江東区北砂1丁目14-4","lat":35.67919994,"lon":139.82412845},{"name":"社会福祉法人ゆめグループ福祉会ゆめ工房北砂","province":"東京都","city":"江東区","address":"東京都江東区北砂1丁目14-4","lat":35.67919994,"lon":139.82412845},{"name":"社会福祉法人ゆめグループ福祉会ドリーム第２","province":"東京都","city":"江東区","address":"東京都江東区東砂6丁目20-7","lat":35.67519805,"lon":139.84087677},{"name":"社会福祉法人ゆめグループ福祉会ドリーム第２分室リサイクル工房サラエ","province":"東京都","city":"江東区","address":"東京都江東区東砂5丁目16-3","lat":35.67553138,"lon":139.84322934},{"name":"社会福祉法人ゆめグループ福祉会ネットワークゆめ工房","province":"東京都","city":"江東区","address":"東京都江東区北砂1丁目17-4","lat":35.67989709,"lon":139.82474781},{"name":"社会福祉法人ゆめグループ福祉会ドリームクラブハウス","province":"東京都","city":"江東区","address":"東京都江東区北砂1丁目15-8","lat":35.67843617,"lon":139.82485059},{"name":"社会福祉法人ゆめグループ福祉会ふれあい工房","province":"東京都","city":"江東区","address":"東京都江東区千石2丁目2-5","lat":35.67727782,"lon":139.81565733},{"name":"株式会社ティ－ビーエスオペレーションコレンド東陽町","province":"東京都","city":"江東区","address":"東京都江東区東陽2丁目4-46","lat":35.66913999,"lon":139.81931223},{"name":"さくら第２亀戸ハウス","province":"東京都","city":"江東区","address":"江東区亀戸9-18-10","lat":35.69769,"lon":139.84255},{"name":"東京辰巳国際水泳場","province":"東京都","city":"江東区","address":"東京都江東区","lat":35.67307835,"lon":139.8169681},{"name":"有明テニスの森公園有明コロシアム","province":"東京都","city":"江東区","address":"東京都江東区","lat":35.67307835,"lon":139.8169681},{"name":"有明テニスの森公園クラブハウスほか附属施設等14件","province":"東京都","city":"江東区","address":"東京都江東区","lat":35.67307835,"lon":139.8169681},{"name":"若洲海浜公園ヨット訓練所艇庫ほか2件","province":"東京都","city":"江東区","address":"東京都江東区","lat":35.67307835,"lon":139.8169681},{"name":"有明テニスの森公園駐車場","province":"東京都","city":"江東区","address":"東京都江東区","lat":35.67307835,"lon":139.8169681},{"name":"有明テニスの森公園砂入り人工芝（テニスコート）","province":"東京都","city":"江東区","address":"東京都江東区","lat":35.67307835,"lon":139.8169681},{"name":"若洲海浜公園ヨット訓練所ボートヤード","province":"東京都","city":"江東区","address":"東京都江東区","lat":35.67307835,"lon":139.8169681},{"name":"若洲海浜公園ヨット訓練所浮桟橋","province":"東京都","city":"江東区","address":"東京都江東区","lat":35.67307835,"lon":139.8169681},{"name":"介護老人保健施設キーストーン","province":"東京都","city":"江東区","address":"江東区亀戸3-36-1","lat":35.707275,"lon":139.819328},{"name":"江東区こども発達センター","province":"東京都","city":"江東区","address":"江東区塩浜2-5-20","lat":35.661932,"lon":139.805383},{"name":"東京都立東部療育センター","province":"東京都","city":"江東区","address":"江東区新砂3-3-25","lat":35.663819,"lon":139.833178},{"name":"ロゴス点字図書館","province":"東京都","city":"江東区","address":"江東区潮見二丁目10番10号日本カトリック会館1階","lat":35.656691,"lon":139.816721},{"name":"新幸荘","province":"東京都","city":"江東区","address":"東京都江東区","lat":35.67307835,"lon":139.8169681},{"name":"福住荘","province":"東京都","city":"江東区","address":"江東区福住1-14-10","lat":35.674944,"lon":139.793957},{"name":"さくら亀戸ハウス","province":"東京都","city":"江東区","address":"江東区亀戸4-33-5","lat":35.703072,"lon":139.827531},{"name":"さくら第３亀戸ハウス","province":"東京都","city":"江東区","address":"江東区亀戸7-24-1","lat":35.699556,"lon":139.836818},{"name":"さくら第２亀戸ハウス","province":"東京都","city":"江東区","address":"江東区亀戸9-18-10","lat":35.697784,"lon":139.843076},{"name":"江東荘","province":"東京都","city":"江東区","address":"東京都江東区","lat":35.67307835,"lon":139.8169681},{"name":"砂町クラブ","province":"東京都","city":"江東区","address":"江東区北砂4丁目11-22","lat":35.678392,"lon":139.829844},{"name":"あそか病院","province":"東京都","city":"江東区","address":"江東区住吉1-18-1","lat":35.689859,"lon":139.811861},{"name":"江東区社会福祉協議会","province":"東京都","city":"江東区","address":"江東区東陽6-2-17高齢者総合福祉センター2階","lat":35.674728,"lon":139.812491},{"name":"福住荘","province":"東京都","city":"江東区","address":"江東区福住1-14-10","lat":35.67499,"lon":139.79393},{"name":"さくら亀戸ハウス","province":"東京都","city":"江東区","address":"江東区亀戸4-33-5","lat":35.70295,"lon":139.82738},{"name":"さくら第３亀戸ハウス","province":"東京都","city":"江東区","address":"江東区亀戸7-24-1","lat":35.69941,"lon":139.83678},{"name":"さくら第２亀戸ハウス","province":"東京都","city":"江東区","address":"江東区亀戸9-18-10","lat":35.69769,"lon":139.84254},{"name":"砂町クラブ","province":"東京都","city":"江東区","address":"江東区北砂4-11-22","lat":35.67882,"lon":139.82986},{"name":"ロゴス点字図書館","province":"東京都","city":"江東区","address":"江東区潮見2-10-10日本カトリック会館1階","lat":35.6567,"lon":139.81723},{"name":"江東区社会福祉協議会","province":"東京都","city":"江東区","address":"江東区東陽6-2-17高齢者総合福祉センター2階","lat":35.67411,"lon":139.81239},{"name":"江東区障害者福祉センター","province":"東京都","city":"江東区","address":"東京都江東区扇橋3丁目7-2","lat":35.68268272,"lon":139.82041507},{"name":"社会福祉法人のびのび福祉会のびのび共同作業所大河","province":"東京都","city":"江東区","address":"東京都江東区南砂3丁目5-14","lat":35.67275921,"lon":139.82868907},{"name":"社会福祉法人のびのび福祉会自立センターあけぼの","province":"東京都","city":"江東区","address":"東京都江東区塩浜2丁目5-20","lat":35.66193219,"lon":139.80538308},{"name":"社会福祉法人ゆめグループ福祉会ゆめ工房","province":"東京都","city":"江東区","address":"東京都江東区北砂1丁目14-4","lat":35.67919994,"lon":139.82412845},{"name":"社会福祉法人ゆめグループ福祉会ゆめ工房北砂","province":"東京都","city":"江東区","address":"東京都江東区北砂1丁目14-4","lat":35.67919994,"lon":139.82412845},{"name":"社会福祉法人ゆめグループ福祉会ドリーム第２","province":"東京都","city":"江東区","address":"東京都江東区東砂6丁目20-7","lat":35.67519805,"lon":139.84087677},{"name":"社会福祉法人ゆめグループ福祉会ドリーム第２分室リサイクル工房サラエ","province":"東京都","city":"江東区","address":"東京都江東区東砂5丁目16-3","lat":35.67553138,"lon":139.84322934},{"name":"社会福祉法人ゆめグループ福祉会ネットワークゆめ工房","province":"東京都","city":"江東区","address":"東京都江東区北砂1丁目17-4","lat":35.67989709,"lon":139.82474781},{"name":"社会福祉法人ゆめグループ福祉会ドリームクラブハウス","province":"東京都","city":"江東区","address":"東京都江東区北砂1丁目15-8","lat":35.67843617,"lon":139.82485059},{"name":"社会福祉法人ゆめグループ福祉会ふれあい工房","province":"東京都","city":"江東区","address":"東京都江東区千石2丁目2-5","lat":35.67727782,"lon":139.81565733},{"name":"株式会社ティ－ビーエスオペレーションコレンド東陽町","province":"東京都","city":"江東区","address":"東京都江東区東陽2丁目4-46","lat":35.66913999,"lon":139.81931223},{"name":"さくら第２亀戸ハウス","province":"東京都","city":"江東区","address":"江東区亀戸9-18-10","lat":35.69769,"lon":139.84255},{"name":"東京辰巳国際水泳場","province":"東京都","city":"江東区","address":"東京都江東区","lat":35.67307835,"lon":139.8169681},{"name":"有明テニスの森公園有明コロシアム","province":"東京都","city":"江東区","address":"東京都江東区","lat":35.67307835,"lon":139.8169681},{"name":"有明テニスの森公園クラブハウスほか附属施設等14件","province":"東京都","city":"江東区","address":"東京都江東区","lat":35.67307835,"lon":139.8169681},{"name":"若洲海浜公園ヨット訓練所艇庫ほか2件","province":"東京都","city":"江東区","address":"東京都江東区","lat":35.67307835,"lon":139.8169681},{"name":"有明テニスの森公園駐車場","province":"東京都","city":"江東区","address":"東京都江東区","lat":35.67307835,"lon":139.8169681},{"name":"有明テニスの森公園砂入り人工芝（テニスコート）","province":"東京都","city":"江東区","address":"東京都江東区","lat":35.67307835,"lon":139.8169681},{"name":"若洲海浜公園ヨット訓練所ボートヤード","province":"東京都","city":"江東区","address":"東京都江東区","lat":35.67307835,"lon":139.8169681},{"name":"若洲海浜公園ヨット訓練所浮桟橋","province":"東京都","city":"江東区","address":"東京都江東区","lat":35.67307835,"lon":139.8169681},{"name":"介護老人保健施設キーストーン","province":"東京都","city":"江東区","address":"江東区亀戸3-36-1","lat":35.707275,"lon":139.819328},{"name":"江東区こども発達センター","province":"東京都","city":"江東区","address":"江東区塩浜2-5-20","lat":35.661932,"lon":139.805383},{"name":"東京都立東部療育センター","province":"東京都","city":"江東区","address":"江東区新砂3-3-25","lat":35.663819,"lon":139.833178},{"name":"ロゴス点字図書館","province":"東京都","city":"江東区","address":"江東区潮見二丁目10番10号日本カトリック会館1階","lat":35.656691,"lon":139.816721},{"name":"新幸荘","province":"東京都","city":"江東区","address":"東京都江東区","lat":35.67307835,"lon":139.8169681},{"name":"福住荘","province":"東京都","city":"江東区","address":"江東区福住1-14-10","lat":35.674944,"lon":139.793957},{"name":"さくら亀戸ハウス","province":"東京都","city":"江東区","address":"江東区亀戸4-33-5","lat":35.703072,"lon":139.827531},{"name":"さくら第３亀戸ハウス","province":"東京都","city":"江東区","address":"江東区亀戸7-24-1","lat":35.699556,"lon":139.836818},{"name":"さくら第２亀戸ハウス","province":"東京都","city":"江東区","address":"江東区亀戸9-18-10","lat":35.697784,"lon":139.843076},{"name":"江東荘","province":"東京都","city":"江東区","address":"東京都江東区","lat":35.67307835,"lon":139.8169681},{"name":"砂町クラブ","province":"東京都","city":"江東区","address":"江東区北砂4丁目11-22","lat":35.678392,"lon":139.829844},{"name":"あそか病院","province":"東京都","city":"江東区","address":"江東区住吉1-18-1","lat":35.689859,"lon":139.811861},{"name":"江東区社会福祉協議会","province":"東京都","city":"江東区","address":"江東区東陽6-2-17高齢者総合福祉センター2階","lat":35.674728,"lon":139.812491},{"name":"福住荘","province":"東京都","city":"江東区","address":"江東区福住1-14-10","lat":35.67499,"lon":139.79393},{"name":"さくら亀戸ハウス","province":"東京都","city":"江東区","address":"江東区亀戸4-33-5","lat":35.70295,"lon":139.82738},{"name":"さくら第３亀戸ハウス","province":"東京都","city":"江東区","address":"江東区亀戸7-24-1","lat":35.69941,"lon":139.83678},{"name":"さくら第２亀戸ハウス","province":"東京都","city":"江東区","address":"江東区亀戸9-18-10","lat":35.69769,"lon":139.84254},{"name":"砂町クラブ","province":"東京都","city":"江東区","address":"江東区北砂4-11-22","lat":35.67882,"lon":139.82986},{"name":"ロゴス点字図書館","province":"東京都","city":"江東区","address":"江東区潮見2-10-10日本カトリック会館1階","lat":35.6567,"lon":139.81723},{"name":"江東区社会福祉協議会","province":"東京都","city":"江東区","address":"江東区東陽6-2-17高齢者総合福祉センター2階","lat":35.67411,"lon":139.81239},{"name":"江東区障害者福祉センター","province":"東京都","city":"江東区","address":"東京都江東区扇橋3丁目7-2","lat":35.68268272,"lon":139.82041507},{"name":"社会福祉法人のびのび福祉会のびのび共同作業所大河","province":"東京都","city":"江東区","address":"東京都江東区南砂3丁目5-14","lat":35.67275921,"lon":139.82868907},{"name":"社会福祉法人のびのび福祉会自立センターあけぼの","province":"東京都","city":"江東区","address":"東京都江東区塩浜2丁目5-20","lat":35.66193219,"lon":139.80538308},{"name":"社会福祉法人ゆめグループ福祉会ゆめ工房","province":"東京都","city":"江東区","address":"東京都江東区北砂1丁目14-4","lat":35.67919994,"lon":139.82412845},{"name":"社会福祉法人ゆめグループ福祉会ゆめ工房北砂","province":"東京都","city":"江東区","address":"東京都江東区北砂1丁目14-4","lat":35.67919994,"lon":139.82412845},{"name":"社会福祉法人ゆめグループ福祉会ドリーム第２","province":"東京都","city":"江東区","address":"東京都江東区東砂6丁目20-7","lat":35.67519805,"lon":139.84087677},{"name":"社会福祉法人ゆめグループ福祉会ドリーム第２分室リサイクル工房サラエ","province":"東京都","city":"江東区","address":"東京都江東区東砂5丁目16-3","lat":35.67553138,"lon":139.84322934},{"name":"社会福祉法人ゆめグループ福祉会ネットワークゆめ工房","province":"東京都","city":"江東区","address":"東京都江東区北砂1丁目17-4","lat":35.67989709,"lon":139.82474781},{"name":"社会福祉法人ゆめグループ福祉会ドリームクラブハウス","province":"東京都","city":"江東区","address":"東京都江東区北砂1丁目15-8","lat":35.67843617,"lon":139.82485059},{"name":"社会福祉法人ゆめグループ福祉会ふれあい工房","province":"東京都","city":"江東区","address":"東京都江東区千石2丁目2-5","lat":35.67727782,"lon":139.81565733},{"name":"株式会社ティ－ビーエスオペレーションコレンド東陽町","province":"東京都","city":"江東区","address":"東京都江東区東陽2丁目4-46","lat":35.66913999,"lon":139.81931223},{"name":"さくら第２亀戸ハウス","province":"東京都","city":"江東区","address":"江東区亀戸9-18-10","lat":35.69769,"lon":139.84255},{"name":"東京辰巳国際水泳場","province":"東京都","city":"江東区","address":"東京都江東区","lat":35.67307835,"lon":139.8169681},{"name":"有明テニスの森公園有明コロシアム","province":"東京都","city":"江東区","address":"東京都江東区","lat":35.67307835,"lon":139.8169681},{"name":"有明テニスの森公園クラブハウスほか附属施設等14件","province":"東京都","city":"江東区","address":"東京都江東区","lat":35.67307835,"lon":139.8169681},{"name":"若洲海浜公園ヨット訓練所艇庫ほか2件","province":"東京都","city":"江東区","address":"東京都江東区","lat":35.67307835,"lon":139.8169681},{"name":"有明テニスの森公園駐車場","province":"東京都","city":"江東区","address":"東京都江東区","lat":35.67307835,"lon":139.8169681},{"name":"有明テニスの森公園砂入り人工芝（テニスコート）","province":"東京都","city":"江東区","address":"東京都江東区","lat":35.67307835,"lon":139.8169681},{"name":"若洲海浜公園ヨット訓練所ボートヤード","province":"東京都","city":"江東区","address":"東京都江東区","lat":35.67307835,"lon":139.8169681},{"name":"若洲海浜公園ヨット訓練所浮桟橋","province":"東京都","city":"江東区","address":"東京都江東区","lat":35.67307835,"lon":139.8169681},{"name":"介護老人保健施設キーストーン","province":"東京都","city":"江東区","address":"江東区亀戸3-36-1","lat":35.707275,"lon":139.819328},{"name":"江東区こども発達センター","province":"東京都","city":"江東区","address":"江東区塩浜2-5-20","lat":35.661932,"lon":139.805383},{"name":"東京都立東部療育センター","province":"東京都","city":"江東区","address":"江東区新砂3-3-25","lat":35.663819,"lon":139.833178},{"name":"ロゴス点字図書館","province":"東京都","city":"江東区","address":"江東区潮見二丁目10番10号日本カトリック会館1階","lat":35.656691,"lon":139.816721},{"name":"新幸荘","province":"東京都","city":"江東区","address":"東京都江東区","lat":35.67307835,"lon":139.8169681},{"name":"福住荘","province":"東京都","city":"江東区","address":"江東区福住1-14-10","lat":35.674944,"lon":139.793957},{"name":"さくら亀戸ハウス","province":"東京都","city":"江東区","address":"江東区亀戸4-33-5","lat":35.703072,"lon":139.827531},{"name":"さくら第３亀戸ハウス","province":"東京都","city":"江東区","address":"江東区亀戸7-24-1","lat":35.699556,"lon":139.836818},{"name":"さくら第２亀戸ハウス","province":"東京都","city":"江東区","address":"江東区亀戸9-18-10","lat":35.697784,"lon":139.843076},{"name":"江東荘","province":"東京都","city":"江東区","address":"東京都江東区","lat":35.67307835,"lon":139.8169681},{"name":"砂町クラブ","province":"東京都","city":"江東区","address":"江東区北砂4丁目11-22","lat":35.678392,"lon":139.829844},{"name":"あそか病院","province":"東京都","city":"江東区","address":"江東区住吉1-18-1","lat":35.689859,"lon":139.811861},{"name":"江東区社会福祉協議会","province":"東京都","city":"江東区","address":"江東区東陽6-2-17高齢者総合福祉センター2階","lat":35.674728,"lon":139.812491},{"name":"福住荘","province":"東京都","city":"江東区","address":"江東区福住1-14-10","lat":35.67499,"lon":139.79393},{"name":"さくら亀戸ハウス","province":"東京都","city":"江東区","address":"江東区亀戸4-33-5","lat":35.70295,"lon":139.82738},{"name":"さくら第３亀戸ハウス","province":"東京都","city":"江東区","address":"江東区亀戸7-24-1","lat":35.69941,"lon":139.83678},{"name":"さくら第２亀戸ハウス","province":"東京都","city":"江東区","address":"江東区亀戸9-18-10","lat":35.69769,"lon":139.84254},{"name":"砂町クラブ","province":"東京都","city":"江東区","address":"江東区北砂4-11-22","lat":35.67882,"lon":139.82986},{"name":"ロゴス点字図書館","province":"東京都","city":"江東区","address":"江東区潮見2-10-10日本カトリック会館1階","lat":35.6567,"lon":139.81723},{"name":"江東区社会福祉協議会","province":"東京都","city":"江東区","address":"江東区東陽6-2-17高齢者総合福祉センター2階","lat":35.67411,"lon":139.81239},{"name":"江東区障害者福祉センター","province":"東京都","city":"江東区","address":"東京都江東区扇橋3丁目7-2","lat":35.68268272,"lon":139.82041507},{"name":"社会福祉法人のびのび福祉会のびのび共同作業所大河","province":"東京都","city":"江東区","address":"東京都江東区南砂3丁目5-14","lat":35.67275921,"lon":139.82868907},{"name":"社会福祉法人のびのび福祉会自立センターあけぼの","province":"東京都","city":"江東区","address":"東京都江東区塩浜2丁目5-20","lat":35.66193219,"lon":139.80538308},{"name":"社会福祉法人ゆめグループ福祉会ゆめ工房","province":"東京都","city":"江東区","address":"東京都江東区北砂1丁目14-4","lat":35.67919994,"lon":139.82412845},{"name":"社会福祉法人ゆめグループ福祉会ゆめ工房北砂","province":"東京都","city":"江東区","address":"東京都江東区北砂1丁目14-4","lat":35.67919994,"lon":139.82412845},{"name":"社会福祉法人ゆめグループ福祉会ドリーム第２","province":"東京都","city":"江東区","address":"東京都江東区東砂6丁目20-7","lat":35.67519805,"lon":139.84087677},{"name":"社会福祉法人ゆめグループ福祉会ドリーム第２分室リサイクル工房サラエ","province":"東京都","city":"江東区","address":"東京都江東区東砂5丁目16-3","lat":35.67553138,"lon":139.84322934},{"name":"社会福祉法人ゆめグループ福祉会ネットワークゆめ工房","province":"東京都","city":"江東区","address":"東京都江東区北砂1丁目17-4","lat":35.67989709,"lon":139.82474781},{"name":"社会福祉法人ゆめグループ福祉会ドリームクラブハウス","province":"東京都","city":"江東区","address":"東京都江東区北砂1丁目15-8","lat":35.67843617,"lon":139.82485059},{"name":"社会福祉法人ゆめグループ福祉会ふれあい工房","province":"東京都","city":"江東区","address":"東京都江東区千石2丁目2-5","lat":35.67727782,"lon":139.81565733},{"name":"株式会社ティ－ビーエスオペレーションコレンド東陽町","province":"東京都","city":"江東区","address":"東京都江東区東陽2丁目4-46","lat":35.66913999,"lon":139.81931223},{"name":"さくら第２亀戸ハウス","province":"東京都","city":"江東区","address":"江東区亀戸9-18-10","lat":35.69769,"lon":139.84255},{"name":"東京辰巳国際水泳場","province":"東京都","city":"江東区","address":"東京都江東区","lat":35.67307835,"lon":139.8169681},{"name":"有明テニスの森公園有明コロシアム","province":"東京都","city":"江東区","address":"東京都江東区","lat":35.67307835,"lon":139.8169681},{"name":"有明テニスの森公園クラブハウスほか附属施設等14件","province":"東京都","city":"江東区","address":"東京都江東区","lat":35.67307835,"lon":139.8169681},{"name":"若洲海浜公園ヨット訓練所艇庫ほか2件","province":"東京都","city":"江東区","address":"東京都江東区","lat":35.67307835,"lon":139.8169681},{"name":"有明テニスの森公園駐車場","province":"東京都","city":"江東区","address":"東京都江東区","lat":35.67307835,"lon":139.8169681},{"name":"有明テニスの森公園砂入り人工芝（テニスコート）","province":"東京都","city":"江東区","address":"東京都江東区","lat":35.67307835,"lon":139.8169681},{"name":"若洲海浜公園ヨット訓練所ボートヤード","province":"東京都","city":"江東区","address":"東京都江東区","lat":35.67307835,"lon":139.8169681},{"name":"若洲海浜公園ヨット訓練所浮桟橋","province":"東京都","city":"江東区","address":"東京都江東区","lat":35.67307835,"lon":139.8169681},{"name":"介護老人保健施設キーストーン","province":"東京都","city":"江東区","address":"江東区亀戸3-36-1","lat":35.707275,"lon":139.819328},{"name":"江東区こども発達センター","province":"東京都","city":"江東区","address":"江東区塩浜2-5-20","lat":35.661932,"lon":139.805383},{"name":"東京都立東部療育センター","province":"東京都","city":"江東区","address":"江東区新砂3-3-25","lat":35.663819,"lon":139.833178},{"name":"ロゴス点字図書館","province":"東京都","city":"江東区","address":"江東区潮見二丁目10番10号日本カトリック会館1階","lat":35.656691,"lon":139.816721},{"name":"新幸荘","province":"東京都","city":"江東区","address":"東京都江東区","lat":35.67307835,"lon":139.8169681},{"name":"福住荘","province":"東京都","city":"江東区","address":"江東区福住1-14-10","lat":35.674944,"lon":139.793957},{"name":"さくら亀戸ハウス","province":"東京都","city":"江東区","address":"江東区亀戸4-33-5","lat":35.703072,"lon":139.827531},{"name":"さくら第３亀戸ハウス","province":"東京都","city":"江東区","address":"江東区亀戸7-24-1","lat":35.699556,"lon":139.836818},{"name":"さくら第２亀戸ハウス","province":"東京都","city":"江東区","address":"江東区亀戸9-18-10","lat":35.697784,"lon":139.843076},{"name":"江東荘","province":"東京都","city":"江東区","address":"東京都江東区","lat":35.67307835,"lon":139.8169681},{"name":"砂町クラブ","province":"東京都","city":"江東区","address":"江東区北砂4丁目11-22","lat":35.678392,"lon":139.829844},{"name":"あそか病院","province":"東京都","city":"江東区","address":"江東区住吉1-18-1","lat":35.689859,"lon":139.811861},{"name":"江東区社会福祉協議会","province":"東京都","city":"江東区","address":"江東区東陽6-2-17高齢者総合福祉センター2階","lat":35.674728,"lon":139.812491},{"name":"福住荘","province":"東京都","city":"江東区","address":"江東区福住1-14-10","lat":35.67499,"lon":139.79393},{"name":"さくら亀戸ハウス","province":"東京都","city":"江東区","address":"江東区亀戸4-33-5","lat":35.70295,"lon":139.82738},{"name":"さくら第３亀戸ハウス","province":"東京都","city":"江東区","address":"江東区亀戸7-24-1","lat":35.69941,"lon":139.83678},{"name":"さくら第２亀戸ハウス","province":"東京都","city":"江東区","address":"江東区亀戸9-18-10","lat":35.69769,"lon":139.84254},{"name":"砂町クラブ","province":"東京都","city":"江東区","address":"江東区北砂4-11-22","lat":35.67882,"lon":139.82986},{"name":"ロゴス点字図書館","province":"東京都","city":"江東区","address":"江東区潮見2-10-10日本カトリック会館1階","lat":35.6567,"lon":139.81723},{"name":"江東区社会福祉協議会","province":"東京都","city":"江東区","address":"江東区東陽6-2-17高齢者総合福祉センター2階","lat":35.67411,"lon":139.81239},{"name":"江東区障害者福祉センター","province":"東京都","city":"江東区","address":"東京都江東区扇橋3丁目7-2","lat":35.68268272,"lon":139.82041507},{"name":"社会福祉法人のびのび福祉会のびのび共同作業所大河","province":"東京都","city":"江東区","address":"東京都江東区南砂3丁目5-14","lat":35.67275921,"lon":139.82868907},{"name":"社会福祉法人のびのび福祉会自立センターあけぼの","province":"東京都","city":"江東区","address":"東京都江東区塩浜2丁目5-20","lat":35.66193219,"lon":139.80538308},{"name":"社会福祉法人ゆめグループ福祉会ゆめ工房","province":"東京都","city":"江東区","address":"東京都江東区北砂1丁目14-4","lat":35.67919994,"lon":139.82412845},{"name":"社会福祉法人ゆめグループ福祉会ゆめ工房北砂","province":"東京都","city":"江東区","address":"東京都江東区北砂1丁目14-4","lat":35.67919994,"lon":139.82412845},{"name":"社会福祉法人ゆめグループ福祉会ドリーム第２","province":"東京都","city":"江東区","address":"東京都江東区東砂6丁目20-7","lat":35.67519805,"lon":139.84087677},{"name":"社会福祉法人ゆめグループ福祉会ドリーム第２分室リサイクル工房サラエ","province":"東京都","city":"江東区","address":"東京都江東区東砂5丁目16-3","lat":35.67553138,"lon":139.84322934},{"name":"社会福祉法人ゆめグループ福祉会ネットワークゆめ工房","province":"東京都","city":"江東区","address":"東京都江東区北砂1丁目17-4","lat":35.67989709,"lon":139.82474781},{"name":"社会福祉法人ゆめグループ福祉会ドリームクラブハウス","province":"東京都","city":"江東区","address":"東京都江東区北砂1丁目15-8","lat":35.67843617,"lon":139.82485059},{"name":"社会福祉法人ゆめグループ福祉会ふれあい工房","province":"東京都","city":"江東区","address":"東京都江東区千石2丁目2-5","lat":35.67727782,"lon":139.81565733},{"name":"株式会社ティ－ビーエスオペレーションコレンド東陽町","province":"東京都","city":"江東区","address":"東京都江東区東陽2丁目4-46","lat":35.66913999,"lon":139.81931223},{"name":"さくら第２亀戸ハウス","province":"東京都","city":"江東区","address":"江東区亀戸9-18-10","lat":35.69769,"lon":139.84255},{"name":"東京辰巳国際水泳場","province":"東京都","city":"江東区","address":"東京都江東区","lat":35.67307835,"lon":139.8169681},{"name":"有明テニスの森公園有明コロシアム","province":"東京都","city":"江東区","address":"東京都江東区","lat":35.67307835,"lon":139.8169681},{"name":"有明テニスの森公園クラブハウスほか附属施設等14件","province":"東京都","city":"江東区","address":"東京都江東区","lat":35.67307835,"lon":139.8169681},{"name":"若洲海浜公園ヨット訓練所艇庫ほか2件","province":"東京都","city":"江東区","address":"東京都江東区","lat":35.67307835,"lon":139.8169681},{"name":"有明テニスの森公園駐車場","province":"東京都","city":"江東区","address":"東京都江東区","lat":35.67307835,"lon":139.8169681},{"name":"有明テニスの森公園砂入り人工芝（テニスコート）","province":"東京都","city":"江東区","address":"東京都江東区","lat":35.67307835,"lon":139.8169681},{"name":"若洲海浜公園ヨット訓練所ボートヤード","province":"東京都","city":"江東区","address":"東京都江東区","lat":35.67307835,"lon":139.8169681},{"name":"若洲海浜公園ヨット訓練所浮桟橋","province":"東京都","city":"江東区","address":"東京都江東区","lat":35.67307835,"lon":139.8169681},{"name":"介護老人保健施設キーストーン","province":"東京都","city":"江東区","address":"江東区亀戸3-36-1","lat":35.707275,"lon":139.819328},{"name":"江東区こども発達センター","province":"東京都","city":"江東区","address":"江東区塩浜2-5-20","lat":35.661932,"lon":139.805383},{"name":"東京都立東部療育センター","province":"東京都","city":"江東区","address":"江東区新砂3-3-25","lat":35.663819,"lon":139.833178},{"name":"ロゴス点字図書館","province":"東京都","city":"江東区","address":"江東区潮見二丁目10番10号日本カトリック会館1階","lat":35.656691,"lon":139.816721},{"name":"新幸荘","province":"東京都","city":"江東区","address":"東京都江東区","lat":35.67307835,"lon":139.8169681},{"name":"福住荘","province":"東京都","city":"江東区","address":"江東区福住1-14-10","lat":35.674944,"lon":139.793957},{"name":"さくら亀戸ハウス","province":"東京都","city":"江東区","address":"江東区亀戸4-33-5","lat":35.703072,"lon":139.827531},{"name":"さくら第３亀戸ハウス","province":"東京都","city":"江東区","address":"江東区亀戸7-24-1","lat":35.699556,"lon":139.836818},{"name":"さくら第２亀戸ハウス","province":"東京都","city":"江東区","address":"江東区亀戸9-18-10","lat":35.697784,"lon":139.843076},{"name":"江東荘","province":"東京都","city":"江東区","address":"東京都江東区","lat":35.67307835,"lon":139.8169681},{"name":"砂町クラブ","province":"東京都","city":"江東区","address":"江東区北砂4丁目11-22","lat":35.678392,"lon":139.829844},{"name":"あそか病院","province":"東京都","city":"江東区","address":"江東区住吉1-18-1","lat":35.689859,"lon":139.811861},{"name":"江東区社会福祉協議会","province":"東京都","city":"江東区","address":"江東区東陽6-2-17高齢者総合福祉センター2階","lat":35.674728,"lon":139.812491},{"name":"福住荘","province":"東京都","city":"江東区","address":"江東区福住1-14-10","lat":35.67499,"lon":139.79393},{"name":"さくら亀戸ハウス","province":"東京都","city":"江東区","address":"江東区亀戸4-33-5","lat":35.70295,"lon":139.82738},{"name":"さくら第３亀戸ハウス","province":"東京都","city":"江東区","address":"江東区亀戸7-24-1","lat":35.69941,"lon":139.83678},{"name":"さくら第２亀戸ハウス","province":"東京都","city":"江東区","address":"江東区亀戸9-18-10","lat":35.69769,"lon":139.84254},{"name":"砂町クラブ","province":"東京都","city":"江東区","address":"江東区北砂4-11-22","lat":35.67882,"lon":139.82986},{"name":"ロゴス点字図書館","province":"東京都","city":"江東区","address":"江東区潮見2-10-10日本カトリック会館1階","lat":35.6567,"lon":139.81723},{"name":"江東区社会福祉協議会","province":"東京都","city":"江東区","address":"江東区東陽6-2-17高齢者総合福祉センター2階","lat":35.67411,"lon":139.81239},{"name":"江東区障害者福祉センター","province":"東京都","city":"江東区","address":"東京都江東区扇橋3丁目7-2","lat":35.68268272,"lon":139.82041507},{"name":"社会福祉法人のびのび福祉会のびのび共同作業所大河","province":"東京都","city":"江東区","address":"東京都江東区南砂3丁目5-14","lat":35.67275921,"lon":139.82868907},{"name":"社会福祉法人のびのび福祉会自立センターあけぼの","province":"東京都","city":"江東区","address":"東京都江東区塩浜2丁目5-20","lat":35.66193219,"lon":139.80538308},{"name":"社会福祉法人ゆめグループ福祉会ゆめ工房","province":"東京都","city":"江東区","address":"東京都江東区北砂1丁目14-4","lat":35.67919994,"lon":139.82412845},{"name":"社会福祉法人ゆめグループ福祉会ゆめ工房北砂","province":"東京都","city":"江東区","address":"東京都江東区北砂1丁目14-4","lat":35.67919994,"lon":139.82412845},{"name":"社会福祉法人ゆめグループ福祉会ドリーム第２","province":"東京都","city":"江東区","address":"東京都江東区東砂6丁目20-7","lat":35.67519805,"lon":139.84087677},{"name":"社会福祉法人ゆめグループ福祉会ドリーム第２分室リサイクル工房サラエ","province":"東京都","city":"江東区","address":"東京都江東区東砂5丁目16-3","lat":35.67553138,"lon":139.84322934},{"name":"社会福祉法人ゆめグループ福祉会ネットワークゆめ工房","province":"東京都","city":"江東区","address":"東京都江東区北砂1丁目17-4","lat":35.67989709,"lon":139.82474781},{"name":"社会福祉法人ゆめグループ福祉会ドリームクラブハウス","province":"東京都","city":"江東区","address":"東京都江東区北砂1丁目15-8","lat":35.67843617,"lon":139.82485059},{"name":"社会福祉法人ゆめグループ福祉会ふれあい工房","province":"東京都","city":"江東区","address":"東京都江東区千石2丁目2-5","lat":35.67727782,"lon":139.81565733},{"name":"株式会社ティ－ビーエスオペレーションコレンド東陽町","province":"東京都","city":"江東区","address":"東京都江東区東陽2丁目4-46","lat":35.66913999,"lon":139.81931223},{"name":"さくら第２亀戸ハウス","province":"東京都","city":"江東区","address":"江東区亀戸9-18-10","lat":35.69769,"lon":139.84255},{"name":"東京辰巳国際水泳場","province":"東京都","city":"江東区","address":"東京都江東区","lat":35.67307835,"lon":139.8169681},{"name":"有明テニスの森公園有明コロシアム","province":"東京都","city":"江東区","address":"東京都江東区","lat":35.67307835,"lon":139.8169681},{"name":"有明テニスの森公園クラブハウスほか附属施設等14件","province":"東京都","city":"江東区","address":"東京都江東区","lat":35.67307835,"lon":139.8169681},{"name":"若洲海浜公園ヨット訓練所艇庫ほか2件","province":"東京都","city":"江東区","address":"東京都江東区","lat":35.67307835,"lon":139.8169681},{"name":"有明テニスの森公園駐車場","province":"東京都","city":"江東区","address":"東京都江東区","lat":35.67307835,"lon":139.8169681},{"name":"有明テニスの森公園砂入り人工芝（テニスコート）","province":"東京都","city":"江東区","address":"東京都江東区","lat":35.67307835,"lon":139.8169681},{"name":"若洲海浜公園ヨット訓練所ボートヤード","province":"東京都","city":"江東区","address":"東京都江東区","lat":35.67307835,"lon":139.8169681},{"name":"若洲海浜公園ヨット訓練所浮桟橋","province":"東京都","city":"江東区","address":"東京都江東区","lat":35.67307835,"lon":139.8169681},{"name":"介護老人保健施設キーストーン","province":"東京都","city":"江東区","address":"江東区亀戸3-36-1","lat":35.707275,"lon":139.819328},{"name":"江東区こども発達センター","province":"東京都","city":"江東区","address":"江東区塩浜2-5-20","lat":35.661932,"lon":139.805383},{"name":"東京都立東部療育センター","province":"東京都","city":"江東区","address":"江東区新砂3-3-25","lat":35.663819,"lon":139.833178},{"name":"ロゴス点字図書館","province":"東京都","city":"江東区","address":"江東区潮見二丁目10番10号日本カトリック会館1階","lat":35.656691,"lon":139.816721},{"name":"新幸荘","province":"東京都","city":"江東区","address":"東京都江東区","lat":35.67307835,"lon":139.8169681},{"name":"福住荘","province":"東京都","city":"江東区","address":"江東区福住1-14-10","lat":35.674944,"lon":139.793957},{"name":"さくら亀戸ハウス","province":"東京都","city":"江東区","address":"江東区亀戸4-33-5","lat":35.703072,"lon":139.827531},{"name":"さくら第３亀戸ハウス","province":"東京都","city":"江東区","address":"江東区亀戸7-24-1","lat":35.699556,"lon":139.836818},{"name":"さくら第２亀戸ハウス","province":"東京都","city":"江東区","address":"江東区亀戸9-18-10","lat":35.697784,"lon":139.843076},{"name":"江東荘","province":"東京都","city":"江東区","address":"東京都江東区","lat":35.67307835,"lon":139.8169681},{"name":"砂町クラブ","province":"東京都","city":"江東区","address":"江東区北砂4丁目11-22","lat":35.678392,"lon":139.829844},{"name":"あそか病院","province":"東京都","city":"江東区","address":"江東区住吉1-18-1","lat":35.689859,"lon":139.811861},{"name":"江東区社会福祉協議会","province":"東京都","city":"江東区","address":"江東区東陽6-2-17高齢者総合福祉センター2階","lat":35.674728,"lon":139.812491},{"name":"福住荘","province":"東京都","city":"江東区","address":"江東区福住1-14-10","lat":35.67499,"lon":139.79393},{"name":"さくら亀戸ハウス","province":"東京都","city":"江東区","address":"江東区亀戸4-33-5","lat":35.70295,"lon":139.82738},{"name":"さくら第３亀戸ハウス","province":"東京都","city":"江東区","address":"江東区亀戸7-24-1","lat":35.69941,"lon":139.83678},{"name":"さくら第２亀戸ハウス","province":"東京都","city":"江東区","address":"江東区亀戸9-18-10","lat":35.69769,"lon":139.84254},{"name":"砂町クラブ","province":"東京都","city":"江東区","address":"江東区北砂4-11-22","lat":35.67882,"lon":139.82986},{"name":"ロゴス点字図書館","province":"東京都","city":"江東区","address":"江東区潮見2-10-10日本カトリック会館1階","lat":35.6567,"lon":139.81723},{"name":"江東区社会福祉協議会","province":"東京都","city":"江東区","address":"江東区東陽6-2-17高齢者総合福祉センター2階","lat":35.67411,"lon":139.81239},{"name":"江東区障害者福祉センター","province":"東京都","city":"江東区","address":"東京都江東区扇橋3丁目7-2","lat":35.68268272,"lon":139.82041507},{"name":"社会福祉法人のびのび福祉会のびのび共同作業所大河","province":"東京都","city":"江東区","address":"東京都江東区南砂3丁目5-14","lat":35.67275921,"lon":139.82868907},{"name":"社会福祉法人のびのび福祉会自立センターあけぼの","province":"東京都","city":"江東区","address":"東京都江東区塩浜2丁目5-20","lat":35.66193219,"lon":139.80538308},{"name":"社会福祉法人ゆめグループ福祉会ゆめ工房","province":"東京都","city":"江東区","address":"東京都江東区北砂1丁目14-4","lat":35.67919994,"lon":139.82412845},{"name":"社会福祉法人ゆめグループ福祉会ゆめ工房北砂","province":"東京都","city":"江東区","address":"東京都江東区北砂1丁目14-4","lat":35.67919994,"lon":139.82412845},{"name":"社会福祉法人ゆめグループ福祉会ドリーム第２","province":"東京都","city":"江東区","address":"東京都江東区東砂6丁目20-7","lat":35.67519805,"lon":139.84087677},{"name":"社会福祉法人ゆめグループ福祉会ドリーム第２分室リサイクル工房サラエ","province":"東京都","city":"江東区","address":"東京都江東区東砂5丁目16-3","lat":35.67553138,"lon":139.84322934},{"name":"社会福祉法人ゆめグループ福祉会ネットワークゆめ工房","province":"東京都","city":"江東区","address":"東京都江東区北砂1丁目17-4","lat":35.67989709,"lon":139.82474781},{"name":"社会福祉法人ゆめグループ福祉会ドリームクラブハウス","province":"東京都","city":"江東区","address":"東京都江東区北砂1丁目15-8","lat":35.67843617,"lon":139.82485059},{"name":"社会福祉法人ゆめグループ福祉会ふれあい工房","province":"東京都","city":"江東区","address":"東京都江東区千石2丁目2-5","lat":35.67727782,"lon":139.81565733},{"name":"株式会社ティ－ビーエスオペレーションコレンド東陽町","province":"東京都","city":"江東区","address":"東京都江東区東陽2丁目4-46","lat":35.66913999,"lon":139.81931223},{"name":"さくら第２亀戸ハウス","province":"東京都","city":"江東区","address":"江東区亀戸9-18-10","lat":35.69769,"lon":139.84255},{"name":"東京辰巳国際水泳場","province":"東京都","city":"江東区","address":"東京都江東区","lat":35.67307835,"lon":139.8169681},{"name":"有明テニスの森公園有明コロシアム","province":"東京都","city":"江東区","address":"東京都江東区","lat":35.67307835,"lon":139.8169681},{"name":"有明テニスの森公園クラブハウスほか附属施設等14件","province":"東京都","city":"江東区","address":"東京都江東区","lat":35.67307835,"lon":139.8169681},{"name":"若洲海浜公園ヨット訓練所艇庫ほか2件","province":"東京都","city":"江東区","address":"東京都江東区","lat":35.67307835,"lon":139.8169681},{"name":"有明テニスの森公園駐車場","province":"東京都","city":"江東区","address":"東京都江東区","lat":35.67307835,"lon":139.8169681},{"name":"有明テニスの森公園砂入り人工芝（テニスコート）","province":"東京都","city":"江東区","address":"東京都江東区","lat":35.67307835,"lon":139.8169681},{"name":"若洲海浜公園ヨット訓練所ボートヤード","province":"東京都","city":"江東区","address":"東京都江東区","lat":35.67307835,"lon":139.8169681},{"name":"若洲海浜公園ヨット訓練所浮桟橋","province":"東京都","city":"江東区","address":"東京都江東区","lat":35.67307835,"lon":139.8169681},{"name":"介護老人保健施設キーストーン","province":"東京都","city":"江東区","address":"江東区亀戸3-36-1","lat":35.707275,"lon":139.819328},{"name":"江東区こども発達センター","province":"東京都","city":"江東区","address":"江東区塩浜2-5-20","lat":35.661932,"lon":139.805383},{"name":"東京都立東部療育センター","province":"東京都","city":"江東区","address":"江東区新砂3-3-25","lat":35.663819,"lon":139.833178},{"name":"ロゴス点字図書館","province":"東京都","city":"江東区","address":"江東区潮見二丁目10番10号日本カトリック会館1階","lat":35.656691,"lon":139.816721},{"name":"新幸荘","province":"東京都","city":"江東区","address":"東京都江東区","lat":35.67307835,"lon":139.8169681},{"name":"福住荘","province":"東京都","city":"江東区","address":"江東区福住1-14-10","lat":35.674944,"lon":139.793957},{"name":"さくら亀戸ハウス","province":"東京都","city":"江東区","address":"江東区亀戸4-33-5","lat":35.703072,"lon":139.827531},{"name":"さくら第３亀戸ハウス","province":"東京都","city":"江東区","address":"江東区亀戸7-24-1","lat":35.699556,"lon":139.836818},{"name":"さくら第２亀戸ハウス","province":"東京都","city":"江東区","address":"江東区亀戸9-18-10","lat":35.697784,"lon":139.843076},{"name":"江東荘","province":"東京都","city":"江東区","address":"東京都江東区","lat":35.67307835,"lon":139.8169681},{"name":"砂町クラブ","province":"東京都","city":"江東区","address":"江東区北砂4丁目11-22","lat":35.678392,"lon":139.829844},{"name":"あそか病院","province":"東京都","city":"江東区","address":"江東区住吉1-18-1","lat":35.689859,"lon":139.811861},{"name":"江東区社会福祉協議会","province":"東京都","city":"江東区","address":"江東区東陽6-2-17高齢者総合福祉センター2階","lat":35.674728,"lon":139.812491},{"name":"福住荘","province":"東京都","city":"江東区","address":"江東区福住1-14-10","lat":35.67499,"lon":139.79393},{"name":"さくら亀戸ハウス","province":"東京都","city":"江東区","address":"江東区亀戸4-33-5","lat":35.70295,"lon":139.82738},{"name":"さくら第３亀戸ハウス","province":"東京都","city":"江東区","address":"江東区亀戸7-24-1","lat":35.69941,"lon":139.83678},{"name":"さくら第２亀戸ハウス","province":"東京都","city":"江東区","address":"江東区亀戸9-18-10","lat":35.69769,"lon":139.84254},{"name":"砂町クラブ","province":"東京都","city":"江東区","address":"江東区北砂4-11-22","lat":35.67882,"lon":139.82986},{"name":"ロゴス点字図書館","province":"東京都","city":"江東区","address":"江東区潮見2-10-10日本カトリック会館1階","lat":35.6567,"lon":139.81723},{"name":"江東区社会福祉協議会","province":"東京都","city":"江東区","address":"江東区東陽6-2-17高齢者総合福祉センター2階","lat":35.67411,"lon":139.81239},{"name":"江東区障害者福祉センター","province":"東京都","city":"江東区","address":"東京都江東区扇橋3丁目7-2","lat":35.68268272,"lon":139.82041507},{"name":"社会福祉法人のびのび福祉会のびのび共同作業所大河","province":"東京都","city":"江東区","address":"東京都江東区南砂3丁目5-14","lat":35.67275921,"lon":139.82868907},{"name":"社会福祉法人のびのび福祉会自立センターあけぼの","province":"東京都","city":"江東区","address":"東京都江東区塩浜2丁目5-20","lat":35.66193219,"lon":139.80538308},{"name":"社会福祉法人ゆめグループ福祉会ゆめ工房","province":"東京都","city":"江東区","address":"東京都江東区北砂1丁目14-4","lat":35.67919994,"lon":139.82412845},{"name":"社会福祉法人ゆめグループ福祉会ゆめ工房北砂","province":"東京都","city":"江東区","address":"東京都江東区北砂1丁目14-4","lat":35.67919994,"lon":139.82412845},{"name":"社会福祉法人ゆめグループ福祉会ドリーム第２","province":"東京都","city":"江東区","address":"東京都江東区東砂6丁目20-7","lat":35.67519805,"lon":139.84087677},{"name":"社会福祉法人ゆめグループ福祉会ドリーム第２分室リサイクル工房サラエ","province":"東京都","city":"江東区","address":"東京都江東区東砂5丁目16-3","lat":35.67553138,"lon":139.84322934},{"name":"社会福祉法人ゆめグループ福祉会ネットワークゆめ工房","province":"東京都","city":"江東区","address":"東京都江東区北砂1丁目17-4","lat":35.67989709,"lon":139.82474781},{"name":"社会福祉法人ゆめグループ福祉会ドリームクラブハウス","province":"東京都","city":"江東区","address":"東京都江東区北砂1丁目15-8","lat":35.67843617,"lon":139.82485059},{"name":"社会福祉法人ゆめグループ福祉会ふれあい工房","province":"東京都","city":"江東区","address":"東京都江東区千石2丁目2-5","lat":35.67727782,"lon":139.81565733},{"name":"株式会社ティ－ビーエスオペレーションコレンド東陽町","province":"東京都","city":"江東区","address":"東京都江東区東陽2丁目4-46","lat":35.66913999,"lon":139.81931223},{"name":"さくら第２亀戸ハウス","province":"東京都","city":"江東区","address":"江東区亀戸9-18-10","lat":35.69769,"lon":139.84255},{"name":"東京辰巳国際水泳場","province":"東京都","city":"江東区","address":"東京都江東区","lat":35.67307835,"lon":139.8169681},{"name":"有明テニスの森公園有明コロシアム","province":"東京都","city":"江東区","address":"東京都江東区","lat":35.67307835,"lon":139.8169681},{"name":"有明テニスの森公園クラブハウスほか附属施設等14件","province":"東京都","city":"江東区","address":"東京都江東区","lat":35.67307835,"lon":139.8169681},{"name":"若洲海浜公園ヨット訓練所艇庫ほか2件","province":"東京都","city":"江東区","address":"東京都江東区","lat":35.67307835,"lon":139.8169681},{"name":"有明テニスの森公園駐車場","province":"東京都","city":"江東区","address":"東京都江東区","lat":35.67307835,"lon":139.8169681},{"name":"有明テニスの森公園砂入り人工芝（テニスコート）","province":"東京都","city":"江東区","address":"東京都江東区","lat":35.67307835,"lon":139.8169681},{"name":"若洲海浜公園ヨット訓練所ボートヤード","province":"東京都","city":"江東区","address":"東京都江東区","lat":35.67307835,"lon":139.8169681},{"name":"若洲海浜公園ヨット訓練所浮桟橋","province":"東京都","city":"江東区","address":"東京都江東区","lat":35.67307835,"lon":139.8169681},{"name":"介護老人保健施設キーストーン","province":"東京都","city":"江東区","address":"江東区亀戸3-36-1","lat":35.707275,"lon":139.819328},{"name":"江東区こども発達センター","province":"東京都","city":"江東区","address":"江東区塩浜2-5-20","lat":35.661932,"lon":139.805383},{"name":"東京都立東部療育センター","province":"東京都","city":"江東区","address":"江東区新砂3-3-25","lat":35.663819,"lon":139.833178},{"name":"ロゴス点字図書館","province":"東京都","city":"江東区","address":"江東区潮見二丁目10番10号日本カトリック会館1階","lat":35.656691,"lon":139.816721},{"name":"新幸荘","province":"東京都","city":"江東区","address":"東京都江東区","lat":35.67307835,"lon":139.8169681},{"name":"福住荘","province":"東京都","city":"江東区","address":"江東区福住1-14-10","lat":35.674944,"lon":139.793957},{"name":"さくら亀戸ハウス","province":"東京都","city":"江東区","address":"江東区亀戸4-33-5","lat":35.703072,"lon":139.827531},{"name":"さくら第３亀戸ハウス","province":"東京都","city":"江東区","address":"江東区亀戸7-24-1","lat":35.699556,"lon":139.836818},{"name":"さくら第２亀戸ハウス","province":"東京都","city":"江東区","address":"江東区亀戸9-18-10","lat":35.697784,"lon":139.843076},{"name":"江東荘","province":"東京都","city":"江東区","address":"東京都江東区","lat":35.67307835,"lon":139.8169681},{"name":"砂町クラブ","province":"東京都","city":"江東区","address":"江東区北砂4丁目11-22","lat":35.678392,"lon":139.829844},{"name":"あそか病院","province":"東京都","city":"江東区","address":"江東区住吉1-18-1","lat":35.689859,"lon":139.811861},{"name":"江東区社会福祉協議会","province":"東京都","city":"江東区","address":"江東区東陽6-2-17高齢者総合福祉センター2階","lat":35.674728,"lon":139.812491},{"name":"福住荘","province":"東京都","city":"江東区","address":"江東区福住1-14-10","lat":35.67499,"lon":139.79393},{"name":"さくら亀戸ハウス","province":"東京都","city":"江東区","address":"江東区亀戸4-33-5","lat":35.70295,"lon":139.82738},{"name":"さくら第３亀戸ハウス","province":"東京都","city":"江東区","address":"江東区亀戸7-24-1","lat":35.69941,"lon":139.83678},{"name":"さくら第２亀戸ハウス","province":"東京都","city":"江東区","address":"江東区亀戸9-18-10","lat":35.69769,"lon":139.84254},{"name":"砂町クラブ","province":"東京都","city":"江東区","address":"江東区北砂4-11-22","lat":35.67882,"lon":139.82986},{"name":"ロゴス点字図書館","province":"東京都","city":"江東区","address":"江東区潮見2-10-10日本カトリック会館1階","lat":35.6567,"lon":139.81723},{"name":"江東区社会福祉協議会","province":"東京都","city":"江東区","address":"江東区東陽6-2-17高齢者総合福祉センター2階","lat":35.67411,"lon":139.81239},{"name":"江東区障害者福祉センター","province":"東京都","city":"江東区","address":"東京都江東区扇橋3丁目7-2","lat":35.68268272,"lon":139.82041507},{"name":"社会福祉法人のびのび福祉会のびのび共同作業所大河","province":"東京都","city":"江東区","address":"東京都江東区南砂3丁目5-14","lat":35.67275921,"lon":139.82868907},{"name":"社会福祉法人のびのび福祉会自立センターあけぼの","province":"東京都","city":"江東区","address":"東京都江東区塩浜2丁目5-20","lat":35.66193219,"lon":139.80538308},{"name":"社会福祉法人ゆめグループ福祉会ゆめ工房","province":"東京都","city":"江東区","address":"東京都江東区北砂1丁目14-4","lat":35.67919994,"lon":139.82412845},{"name":"社会福祉法人ゆめグループ福祉会ゆめ工房北砂","province":"東京都","city":"江東区","address":"東京都江東区北砂1丁目14-4","lat":35.67919994,"lon":139.82412845},{"name":"社会福祉法人ゆめグループ福祉会ドリーム第２","province":"東京都","city":"江東区","address":"東京都江東区東砂6丁目20-7","lat":35.67519805,"lon":139.84087677},{"name":"社会福祉法人ゆめグループ福祉会ドリーム第２分室リサイクル工房サラエ","province":"東京都","city":"江東区","address":"東京都江東区東砂5丁目16-3","lat":35.67553138,"lon":139.84322934},{"name":"社会福祉法人ゆめグループ福祉会ネットワークゆめ工房","province":"東京都","city":"江東区","address":"東京都江東区北砂1丁目17-4","lat":35.67989709,"lon":139.82474781},{"name":"社会福祉法人ゆめグループ福祉会ドリームクラブハウス","province":"東京都","city":"江東区","address":"東京都江東区北砂1丁目15-8","lat":35.67843617,"lon":139.82485059},{"name":"社会福祉法人ゆめグループ福祉会ふれあい工房","province":"東京都","city":"江東区","address":"東京都江東区千石2丁目2-5","lat":35.67727782,"lon":139.81565733},{"name":"株式会社ティ－ビーエスオペレーションコレンド東陽町","province":"東京都","city":"江東区","address":"東京都江東区東陽2丁目4-46","lat":35.66913999,"lon":139.81931223},{"name":"さくら第２亀戸ハウス","province":"東京都","city":"江東区","address":"江東区亀戸9-18-10","lat":35.69769,"lon":139.84255},{"name":"東京辰巳国際水泳場","province":"東京都","city":"江東区","address":"東京都江東区","lat":35.67307835,"lon":139.8169681},{"name":"有明テニスの森公園有明コロシアム","province":"東京都","city":"江東区","address":"東京都江東区","lat":35.67307835,"lon":139.8169681},{"name":"有明テニスの森公園クラブハウスほか附属施設等14件","province":"東京都","city":"江東区","address":"東京都江東区","lat":35.67307835,"lon":139.8169681},{"name":"若洲海浜公園ヨット訓練所艇庫ほか2件","province":"東京都","city":"江東区","address":"東京都江東区","lat":35.67307835,"lon":139.8169681},{"name":"有明テニスの森公園駐車場","province":"東京都","city":"江東区","address":"東京都江東区","lat":35.67307835,"lon":139.8169681},{"name":"有明テニスの森公園砂入り人工芝（テニスコート）","province":"東京都","city":"江東区","address":"東京都江東区","lat":35.67307835,"lon":139.8169681},{"name":"若洲海浜公園ヨット訓練所ボートヤード","province":"東京都","city":"江東区","address":"東京都江東区","lat":35.67307835,"lon":139.8169681},{"name":"若洲海浜公園ヨット訓練所浮桟橋","province":"東京都","city":"江東区","address":"東京都江東区","lat":35.67307835,"lon":139.8169681},{"name":"介護老人保健施設キーストーン","province":"東京都","city":"江東区","address":"江東区亀戸3-36-1","lat":35.707275,"lon":139.819328},{"name":"江東区こども発達センター","province":"東京都","city":"江東区","address":"江東区塩浜2-5-20","lat":35.661932,"lon":139.805383},{"name":"東京都立東部療育センター","province":"東京都","city":"江東区","address":"江東区新砂3-3-25","lat":35.663819,"lon":139.833178},{"name":"ロゴス点字図書館","province":"東京都","city":"江東区","address":"江東区潮見二丁目10番10号日本カトリック会館1階","lat":35.656691,"lon":139.816721},{"name":"新幸荘","province":"東京都","city":"江東区","address":"東京都江東区","lat":35.67307835,"lon":139.8169681},{"name":"福住荘","province":"東京都","city":"江東区","address":"江東区福住1-14-10","lat":35.674944,"lon":139.793957},{"name":"さくら亀戸ハウス","province":"東京都","city":"江東区","address":"江東区亀戸4-33-5","lat":35.703072,"lon":139.827531},{"name":"さくら第３亀戸ハウス","province":"東京都","city":"江東区","address":"江東区亀戸7-24-1","lat":35.699556,"lon":139.836818},{"name":"さくら第２亀戸ハウス","province":"東京都","city":"江東区","address":"江東区亀戸9-18-10","lat":35.697784,"lon":139.843076},{"name":"江東荘","province":"東京都","city":"江東区","address":"東京都江東区","lat":35.67307835,"lon":139.8169681},{"name":"砂町クラブ","province":"東京都","city":"江東区","address":"江東区北砂4丁目11-22","lat":35.678392,"lon":139.829844},{"name":"あそか病院","province":"東京都","city":"江東区","address":"江東区住吉1-18-1","lat":35.689859,"lon":139.811861},{"name":"江東区社会福祉協議会","province":"東京都","city":"江東区","address":"江東区東陽6-2-17高齢者総合福祉センター2階","lat":35.674728,"lon":139.812491},{"name":"福住荘","province":"東京都","city":"江東区","address":"江東区福住1-14-10","lat":35.67499,"lon":139.79393},{"name":"さくら亀戸ハウス","province":"東京都","city":"江東区","address":"江東区亀戸4-33-5","lat":35.70295,"lon":139.82738},{"name":"さくら第３亀戸ハウス","province":"東京都","city":"江東区","address":"江東区亀戸7-24-1","lat":35.69941,"lon":139.83678},{"name":"さくら第２亀戸ハウス","province":"東京都","city":"江東区","address":"江東区亀戸9-18-10","lat":35.69769,"lon":139.84254},{"name":"砂町クラブ","province":"東京都","city":"江東区","address":"江東区北砂4-11-22","lat":35.67882,"lon":139.82986},{"name":"ロゴス点字図書館","province":"東京都","city":"江東区","address":"江東区潮見2-10-10日本カトリック会館1階","lat":35.6567,"lon":139.81723},{"name":"江東区社会福祉協議会","province":"東京都","city":"江東区","address":"江東区東陽6-2-17高齢者総合福祉センター2階","lat":35.67411,"lon":139.81239},{"name":"江東区障害者福祉センター","province":"東京都","city":"江東区","address":"東京都江東区扇橋3丁目7-2","lat":35.68268272,"lon":139.82041507},{"name":"社会福祉法人のびのび福祉会のびのび共同作業所大河","province":"東京都","city":"江東区","address":"東京都江東区南砂3丁目5-14","lat":35.67275921,"lon":139.82868907},{"name":"社会福祉法人のびのび福祉会自立センターあけぼの","province":"東京都","city":"江東区","address":"東京都江東区塩浜2丁目5-20","lat":35.66193219,"lon":139.80538308},{"name":"社会福祉法人ゆめグループ福祉会ゆめ工房","province":"東京都","city":"江東区","address":"東京都江東区北砂1丁目14-4","lat":35.67919994,"lon":139.82412845},{"name":"社会福祉法人ゆめグループ福祉会ゆめ工房北砂","province":"東京都","city":"江東区","address":"東京都江東区北砂1丁目14-4","lat":35.67919994,"lon":139.82412845},{"name":"社会福祉法人ゆめグループ福祉会ドリーム第２","province":"東京都","city":"江東区","address":"東京都江東区東砂6丁目20-7","lat":35.67519805,"lon":139.84087677},{"name":"社会福祉法人ゆめグループ福祉会ドリーム第２分室リサイクル工房サラエ","province":"東京都","city":"江東区","address":"東京都江東区東砂5丁目16-3","lat":35.67553138,"lon":139.84322934},{"name":"社会福祉法人ゆめグループ福祉会ネットワークゆめ工房","province":"東京都","city":"江東区","address":"東京都江東区北砂1丁目17-4","lat":35.67989709,"lon":139.82474781},{"name":"社会福祉法人ゆめグループ福祉会ドリームクラブハウス","province":"東京都","city":"江東区","address":"東京都江東区北砂1丁目15-8","lat":35.67843617,"lon":139.82485059},{"name":"社会福祉法人ゆめグループ福祉会ふれあい工房","province":"東京都","city":"江東区","address":"東京都江東区千石2丁目2-5","lat":35.67727782,"lon":139.81565733},{"name":"株式会社ティ－ビーエスオペレーションコレンド東陽町","province":"東京都","city":"江東区","address":"東京都江東区東陽2丁目4-46","lat":35.66913999,"lon":139.81931223},{"name":"さくら第２亀戸ハウス","province":"東京都","city":"江東区","address":"江東区亀戸9-18-10","lat":35.69769,"lon":139.84255},{"name":"東京辰巳国際水泳場","province":"東京都","city":"江東区","address":"東京都江東区","lat":35.67307835,"lon":139.8169681},{"name":"有明テニスの森公園有明コロシアム","province":"東京都","city":"江東区","address":"東京都江東区","lat":35.67307835,"lon":139.8169681},{"name":"有明テニスの森公園クラブハウスほか附属施設等14件","province":"東京都","city":"江東区","address":"東京都江東区","lat":35.67307835,"lon":139.8169681},{"name":"若洲海浜公園ヨット訓練所艇庫ほか2件","province":"東京都","city":"江東区","address":"東京都江東区","lat":35.67307835,"lon":139.8169681},{"name":"有明テニスの森公園駐車場","province":"東京都","city":"江東区","address":"東京都江東区","lat":35.67307835,"lon":139.8169681},{"name":"有明テニスの森公園砂入り人工芝（テニスコート）","province":"東京都","city":"江東区","address":"東京都江東区","lat":35.67307835,"lon":139.8169681},{"name":"若洲海浜公園ヨット訓練所ボートヤード","province":"東京都","city":"江東区","address":"東京都江東区","lat":35.67307835,"lon":139.8169681},{"name":"若洲海浜公園ヨット訓練所浮桟橋","province":"東京都","city":"江東区","address":"東京都江東区","lat":35.67307835,"lon":139.8169681},{"name":"介護老人保健施設キーストーン","province":"東京都","city":"江東区","address":"江東区亀戸3-36-1","lat":35.707275,"lon":139.819328},{"name":"江東区こども発達センター","province":"東京都","city":"江東区","address":"江東区塩浜2-5-20","lat":35.661932,"lon":139.805383},{"name":"東京都立東部療育センター","province":"東京都","city":"江東区","address":"江東区新砂3-3-25","lat":35.663819,"lon":139.833178},{"name":"ロゴス点字図書館","province":"東京都","city":"江東区","address":"江東区潮見二丁目10番10号日本カトリック会館1階","lat":35.656691,"lon":139.816721},{"name":"新幸荘","province":"東京都","city":"江東区","address":"東京都江東区","lat":35.67307835,"lon":139.8169681},{"name":"福住荘","province":"東京都","city":"江東区","address":"江東区福住1-14-10","lat":35.674944,"lon":139.793957},{"name":"さくら亀戸ハウス","province":"東京都","city":"江東区","address":"江東区亀戸4-33-5","lat":35.703072,"lon":139.827531},{"name":"さくら第３亀戸ハウス","province":"東京都","city":"江東区","address":"江東区亀戸7-24-1","lat":35.699556,"lon":139.836818},{"name":"さくら第２亀戸ハウス","province":"東京都","city":"江東区","address":"江東区亀戸9-18-10","lat":35.697784,"lon":139.843076},{"name":"江東荘","province":"東京都","city":"江東区","address":"東京都江東区","lat":35.67307835,"lon":139.8169681},{"name":"砂町クラブ","province":"東京都","city":"江東区","address":"江東区北砂4丁目11-22","lat":35.678392,"lon":139.829844},{"name":"あそか病院","province":"東京都","city":"江東区","address":"江東区住吉1-18-1","lat":35.689859,"lon":139.811861},{"name":"江東区社会福祉協議会","province":"東京都","city":"江東区","address":"江東区東陽6-2-17高齢者総合福祉センター2階","lat":35.674728,"lon":139.812491},{"name":"福住荘","province":"東京都","city":"江東区","address":"江東区福住1-14-10","lat":35.67499,"lon":139.79393},{"name":"さくら亀戸ハウス","province":"東京都","city":"江東区","address":"江東区亀戸4-33-5","lat":35.70295,"lon":139.82738},{"name":"さくら第３亀戸ハウス","province":"東京都","city":"江東区","address":"江東区亀戸7-24-1","lat":35.69941,"lon":139.83678},{"name":"さくら第２亀戸ハウス","province":"東京都","city":"江東区","address":"江東区亀戸9-18-10","lat":35.69769,"lon":139.84254},{"name":"砂町クラブ","province":"東京都","city":"江東区","address":"江東区北砂4-11-22","lat":35.67882,"lon":139.82986},{"name":"ロゴス点字図書館","province":"東京都","city":"江東区","address":"江東区潮見2-10-10日本カトリック会館1階","lat":35.6567,"lon":139.81723},{"name":"江東区社会福祉協議会","province":"東京都","city":"江東区","address":"江東区東陽6-2-17高齢者総合福祉センター2階","lat":35.67411,"lon":139.81239},{"name":"江東区障害者福祉センター","province":"東京都","city":"江東区","address":"東京都江東区扇橋3丁目7-2","lat":35.68268272,"lon":139.82041507},{"name":"社会福祉法人のびのび福祉会のびのび共同作業所大河","province":"東京都","city":"江東区","address":"東京都江東区南砂3丁目5-14","lat":35.67275921,"lon":139.82868907},{"name":"社会福祉法人のびのび福祉会自立センターあけぼの","province":"東京都","city":"江東区","address":"東京都江東区塩浜2丁目5-20","lat":35.66193219,"lon":139.80538308},{"name":"社会福祉法人ゆめグループ福祉会ゆめ工房","province":"東京都","city":"江東区","address":"東京都江東区北砂1丁目14-4","lat":35.67919994,"lon":139.82412845},{"name":"社会福祉法人ゆめグループ福祉会ゆめ工房北砂","province":"東京都","city":"江東区","address":"東京都江東区北砂1丁目14-4","lat":35.67919994,"lon":139.82412845},{"name":"社会福祉法人ゆめグループ福祉会ドリーム第２","province":"東京都","city":"江東区","address":"東京都江東区東砂6丁目20-7","lat":35.67519805,"lon":139.84087677},{"name":"社会福祉法人ゆめグループ福祉会ドリーム第２分室リサイクル工房サラエ","province":"東京都","city":"江東区","address":"東京都江東区東砂5丁目16-3","lat":35.67553138,"lon":139.84322934},{"name":"社会福祉法人ゆめグループ福祉会ネットワークゆめ工房","province":"東京都","city":"江東区","address":"東京都江東区北砂1丁目17-4","lat":35.67989709,"lon":139.82474781},{"name":"社会福祉法人ゆめグループ福祉会ドリームクラブハウス","province":"東京都","city":"江東区","address":"東京都江東区北砂1丁目15-8","lat":35.67843617,"lon":139.82485059},{"name":"社会福祉法人ゆめグループ福祉会ふれあい工房","province":"東京都","city":"江東区","address":"東京都江東区千石2丁目2-5","lat":35.67727782,"lon":139.81565733},{"name":"株式会社ティ－ビーエスオペレーションコレンド東陽町","province":"東京都","city":"江東区","address":"東京都江東区東陽2丁目4-46","lat":35.66913999,"lon":139.81931223},{"name":"さくら第２亀戸ハウス","province":"東京都","city":"江東区","address":"江東区亀戸9-18-10","lat":35.69769,"lon":139.84255},{"name":"東京辰巳国際水泳場","province":"東京都","city":"江東区","address":"東京都江東区","lat":35.67307835,"lon":139.8169681},{"name":"有明テニスの森公園有明コロシアム","province":"東京都","city":"江東区","address":"東京都江東区","lat":35.67307835,"lon":139.8169681},{"name":"有明テニスの森公園クラブハウスほか附属施設等14件","province":"東京都","city":"江東区","address":"東京都江東区","lat":35.67307835,"lon":139.8169681},{"name":"若洲海浜公園ヨット訓練所艇庫ほか2件","province":"東京都","city":"江東区","address":"東京都江東区","lat":35.67307835,"lon":139.8169681},{"name":"有明テニスの森公園駐車場","province":"東京都","city":"江東区","address":"東京都江東区","lat":35.67307835,"lon":139.8169681},{"name":"有明テニスの森公園砂入り人工芝（テニスコート）","province":"東京都","city":"江東区","address":"東京都江東区","lat":35.67307835,"lon":139.8169681},{"name":"若洲海浜公園ヨット訓練所ボートヤード","province":"東京都","city":"江東区","address":"東京都江東区","lat":35.67307835,"lon":139.8169681},{"name":"若洲海浜公園ヨット訓練所浮桟橋","province":"東京都","city":"江東区","address":"東京都江東区","lat":35.67307835,"lon":139.8169681},{"name":"介護老人保健施設キーストーン","province":"東京都","city":"江東区","address":"江東区亀戸3-36-1","lat":35.707275,"lon":139.819328},{"name":"江東区こども発達センター","province":"東京都","city":"江東区","address":"江東区塩浜2-5-20","lat":35.661932,"lon":139.805383},{"name":"東京都立東部療育センター","province":"東京都","city":"江東区","address":"江東区新砂3-3-25","lat":35.663819,"lon":139.833178},{"name":"ロゴス点字図書館","province":"東京都","city":"江東区","address":"江東区潮見二丁目10番10号日本カトリック会館1階","lat":35.656691,"lon":139.816721},{"name":"新幸荘","province":"東京都","city":"江東区","address":"東京都江東区","lat":35.67307835,"lon":139.8169681},{"name":"福住荘","province":"東京都","city":"江東区","address":"江東区福住1-14-10","lat":35.674944,"lon":139.793957},{"name":"さくら亀戸ハウス","province":"東京都","city":"江東区","address":"江東区亀戸4-33-5","lat":35.703072,"lon":139.827531},{"name":"さくら第３亀戸ハウス","province":"東京都","city":"江東区","address":"江東区亀戸7-24-1","lat":35.699556,"lon":139.836818},{"name":"さくら第２亀戸ハウス","province":"東京都","city":"江東区","address":"江東区亀戸9-18-10","lat":35.697784,"lon":139.843076},{"name":"江東荘","province":"東京都","city":"江東区","address":"東京都江東区","lat":35.67307835,"lon":139.8169681},{"name":"砂町クラブ","province":"東京都","city":"江東区","address":"江東区北砂4丁目11-22","lat":35.678392,"lon":139.829844},{"name":"あそか病院","province":"東京都","city":"江東区","address":"江東区住吉1-18-1","lat":35.689859,"lon":139.811861},{"name":"江東区社会福祉協議会","province":"東京都","city":"江東区","address":"江東区東陽6-2-17高齢者総合福祉センター2階","lat":35.674728,"lon":139.812491},{"name":"福住荘","province":"東京都","city":"江東区","address":"江東区福住1-14-10","lat":35.67499,"lon":139.79393},{"name":"さくら亀戸ハウス","province":"東京都","city":"江東区","address":"江東区亀戸4-33-5","lat":35.70295,"lon":139.82738},{"name":"さくら第３亀戸ハウス","province":"東京都","city":"江東区","address":"江東区亀戸7-24-1","lat":35.69941,"lon":139.83678},{"name":"さくら第２亀戸ハウス","province":"東京都","city":"江東区","address":"江東区亀戸9-18-10","lat":35.69769,"lon":139.84254},{"name":"砂町クラブ","province":"東京都","city":"江東区","address":"江東区北砂4-11-22","lat":35.67882,"lon":139.82986},{"name":"ロゴス点字図書館","province":"東京都","city":"江東区","address":"江東区潮見2-10-10日本カトリック会館1階","lat":35.6567,"lon":139.81723},{"name":"江東区社会福祉協議会","province":"東京都","city":"江東区","address":"江東区東陽6-2-17高齢者総合福祉センター2階","lat":35.67411,"lon":139.81239},{"name":"さくら第２亀戸ハウス","province":"東京都","city":"江東区","address":"江東区亀戸9-18-10","lat":35.69769,"lon":139.84255},{"name":"東京辰巳国際水泳場","province":"東京都","city":"江東区","address":"東京都江東区","lat":35.67307835,"lon":139.8169681},{"name":"有明テニスの森公園有明コロシアム","province":"東京都","city":"江東区","address":"東京都江東区","lat":35.67307835,"lon":139.8169681},{"name":"有明テニスの森公園クラブハウスほか附属施設等14件","province":"東京都","city":"江東区","address":"東京都江東区","lat":35.67307835,"lon":139.8169681},{"name":"若洲海浜公園ヨット訓練所艇庫ほか2件","province":"東京都","city":"江東区","address":"東京都江東区","lat":35.67307835,"lon":139.8169681},{"name":"有明テニスの森公園駐車場","province":"東京都","city":"江東区","address":"東京都江東区","lat":35.67307835,"lon":139.8169681},{"name":"有明テニスの森公園砂入り人工芝（テニスコート）","province":"東京都","city":"江東区","address":"東京都江東区","lat":35.67307835,"lon":139.8169681},{"name":"若洲海浜公園ヨット訓練所ボートヤード","province":"東京都","city":"江東区","address":"東京都江東区","lat":35.67307835,"lon":139.8169681},{"name":"若洲海浜公園ヨット訓練所浮桟橋","province":"東京都","city":"江東区","address":"東京都江東区","lat":35.67307835,"lon":139.8169681},{"name":"介護老人保健施設キーストーン","province":"東京都","city":"江東区","address":"江東区亀戸3-36-1","lat":35.707275,"lon":139.819328},{"name":"江東区こども発達センター","province":"東京都","city":"江東区","address":"江東区塩浜2-5-20","lat":35.661932,"lon":139.805383},{"name":"東京都立東部療育センター","province":"東京都","city":"江東区","address":"江東区新砂3-3-25","lat":35.663819,"lon":139.833178},{"name":"ロゴス点字図書館","province":"東京都","city":"江東区","address":"江東区潮見二丁目10番10号日本カトリック会館1階","lat":35.656691,"lon":139.816721},{"name":"新幸荘","province":"東京都","city":"江東区","address":"東京都江東区","lat":35.67307835,"lon":139.8169681},{"name":"福住荘","province":"東京都","city":"江東区","address":"江東区福住1-14-10","lat":35.674944,"lon":139.793957},{"name":"さくら亀戸ハウス","province":"東京都","city":"江東区","address":"江東区亀戸4-33-5","lat":35.703072,"lon":139.827531},{"name":"さくら第３亀戸ハウス","province":"東京都","city":"江東区","address":"江東区亀戸7-24-1","lat":35.699556,"lon":139.836818},{"name":"さくら第２亀戸ハウス","province":"東京都","city":"江東区","address":"江東区亀戸9-18-10","lat":35.697784,"lon":139.843076},{"name":"江東荘","province":"東京都","city":"江東区","address":"東京都江東区","lat":35.67307835,"lon":139.8169681},{"name":"砂町クラブ","province":"東京都","city":"江東区","address":"江東区北砂4丁目11-22","lat":35.678392,"lon":139.829844},{"name":"あそか病院","province":"東京都","city":"江東区","address":"江東区住吉1-18-1","lat":35.689859,"lon":139.811861},{"name":"江東区社会福祉協議会","province":"東京都","city":"江東区","address":"江東区東陽6-2-17高齢者総合福祉センター2階","lat":35.674728,"lon":139.812491},{"name":"福住荘","province":"東京都","city":"江東区","address":"江東区福住1-14-10","lat":35.67499,"lon":139.79393},{"name":"さくら亀戸ハウス","province":"東京都","city":"江東区","address":"江東区亀戸4-33-5","lat":35.70295,"lon":139.82738},{"name":"さくら第３亀戸ハウス","province":"東京都","city":"江東区","address":"江東区亀戸7-24-1","lat":35.69941,"lon":139.83678},{"name":"さくら第２亀戸ハウス","province":"東京都","city":"江東区","address":"江東区亀戸9-18-10","lat":35.69769,"lon":139.84254},{"name":"砂町クラブ","province":"東京都","city":"江東区","address":"江東区北砂4-11-22","lat":35.67882,"lon":139.82986},{"name":"ロゴス点字図書館","province":"東京都","city":"江東区","address":"江東区潮見2-10-10日本カトリック会館1階","lat":35.6567,"lon":139.81723},{"name":"江東区社会福祉協議会","province":"東京都","city":"江東区","address":"江東区東陽6-2-17高齢者総合福祉センター2階","lat":35.67411,"lon":139.81239},{"name":"さくら第２亀戸ハウス","province":"東京都","city":"江東区","address":"江東区亀戸9-18-10","lat":35.69769,"lon":139.84255},{"name":"東京辰巳国際水泳場","province":"東京都","city":"江東区","address":"東京都江東区","lat":35.67307835,"lon":139.8169681},{"name":"有明テニスの森公園有明コロシアム","province":"東京都","city":"江東区","address":"東京都江東区","lat":35.67307835,"lon":139.8169681},{"name":"有明テニスの森公園クラブハウスほか附属施設等14件","province":"東京都","city":"江東区","address":"東京都江東区","lat":35.67307835,"lon":139.8169681},{"name":"若洲海浜公園ヨット訓練所艇庫ほか2件","province":"東京都","city":"江東区","address":"東京都江東区","lat":35.67307835,"lon":139.8169681},{"name":"有明テニスの森公園駐車場","province":"東京都","city":"江東区","address":"東京都江東区","lat":35.67307835,"lon":139.8169681},{"name":"有明テニスの森公園砂入り人工芝（テニスコート）","province":"東京都","city":"江東区","address":"東京都江東区","lat":35.67307835,"lon":139.8169681},{"name":"若洲海浜公園ヨット訓練所ボートヤード","province":"東京都","city":"江東区","address":"東京都江東区","lat":35.67307835,"lon":139.8169681},{"name":"若洲海浜公園ヨット訓練所浮桟橋","province":"東京都","city":"江東区","address":"東京都江東区","lat":35.67307835,"lon":139.8169681},{"name":"介護老人保健施設キーストーン","province":"東京都","city":"江東区","address":"江東区亀戸3-36-1","lat":35.707275,"lon":139.819328},{"name":"江東区こども発達センター","province":"東京都","city":"江東区","address":"江東区塩浜2-5-20","lat":35.661932,"lon":139.805383},{"name":"東京都立東部療育センター","province":"東京都","city":"江東区","address":"江東区新砂3-3-25","lat":35.663819,"lon":139.833178},{"name":"ロゴス点字図書館","province":"東京都","city":"江東区","address":"江東区潮見二丁目10番10号日本カトリック会館1階","lat":35.656691,"lon":139.816721},{"name":"新幸荘","province":"東京都","city":"江東区","address":"東京都江東区","lat":35.67307835,"lon":139.8169681},{"name":"福住荘","province":"東京都","city":"江東区","address":"江東区福住1-14-10","lat":35.674944,"lon":139.793957},{"name":"さくら亀戸ハウス","province":"東京都","city":"江東区","address":"江東区亀戸4-33-5","lat":35.703072,"lon":139.827531},{"name":"さくら第３亀戸ハウス","province":"東京都","city":"江東区","address":"江東区亀戸7-24-1","lat":35.699556,"lon":139.836818},{"name":"さくら第２亀戸ハウス","province":"東京都","city":"江東区","address":"江東区亀戸9-18-10","lat":35.697784,"lon":139.843076},{"name":"江東荘","province":"東京都","city":"江東区","address":"東京都江東区","lat":35.67307835,"lon":139.8169681},{"name":"砂町クラブ","province":"東京都","city":"江東区","address":"江東区北砂4丁目11-22","lat":35.678392,"lon":139.829844},{"name":"あそか病院","province":"東京都","city":"江東区","address":"江東区住吉1-18-1","lat":35.689859,"lon":139.811861},{"name":"江東区社会福祉協議会","province":"東京都","city":"江東区","address":"江東区東陽6-2-17高齢者総合福祉センター2階","lat":35.674728,"lon":139.812491},{"name":"福住荘","province":"東京都","city":"江東区","address":"江東区福住1-14-10","lat":35.67499,"lon":139.79393},{"name":"さくら亀戸ハウス","province":"東京都","city":"江東区","address":"江東区亀戸4-33-5","lat":35.70295,"lon":139.82738},{"name":"さくら第３亀戸ハウス","province":"東京都","city":"江東区","address":"江東区亀戸7-24-1","lat":35.69941,"lon":139.83678},{"name":"さくら第２亀戸ハウス","province":"東京都","city":"江東区","address":"江東区亀戸9-18-10","lat":35.69769,"lon":139.84254},{"name":"砂町クラブ","province":"東京都","city":"江東区","address":"江東区北砂4-11-22","lat":35.67882,"lon":139.82986},{"name":"ロゴス点字図書館","province":"東京都","city":"江東区","address":"江東区潮見2-10-10日本カトリック会館1階","lat":35.6567,"lon":139.81723},{"name":"江東区社会福祉協議会","province":"東京都","city":"江東区","address":"江東区東陽6-2-17高齢者総合福祉センター2階","lat":35.67411,"lon":139.81239},{"name":"さくら第２亀戸ハウス","province":"東京都","city":"江東区","address":"江東区亀戸9-18-10","lat":35.69769,"lon":139.84255},{"name":"東京辰巳国際水泳場","province":"東京都","city":"江東区","address":"東京都江東区","lat":35.67307835,"lon":139.8169681},{"name":"有明テニスの森公園有明コロシアム","province":"東京都","city":"江東区","address":"東京都江東区","lat":35.67307835,"lon":139.8169681},{"name":"有明テニスの森公園クラブハウスほか附属施設等14件","province":"東京都","city":"江東区","address":"東京都江東区","lat":35.67307835,"lon":139.8169681},{"name":"若洲海浜公園ヨット訓練所艇庫ほか2件","province":"東京都","city":"江東区","address":"東京都江東区","lat":35.67307835,"lon":139.8169681},{"name":"有明テニスの森公園駐車場","province":"東京都","city":"江東区","address":"東京都江東区","lat":35.67307835,"lon":139.8169681},{"name":"有明テニスの森公園砂入り人工芝（テニスコート）","province":"東京都","city":"江東区","address":"東京都江東区","lat":35.67307835,"lon":139.8169681},{"name":"若洲海浜公園ヨット訓練所ボートヤード","province":"東京都","city":"江東区","address":"東京都江東区","lat":35.67307835,"lon":139.8169681},{"name":"若洲海浜公園ヨット訓練所浮桟橋","province":"東京都","city":"江東区","address":"東京都江東区","lat":35.67307835,"lon":139.8169681},{"name":"介護老人保健施設キーストーン","province":"東京都","city":"江東区","address":"江東区亀戸3-36-1","lat":35.707275,"lon":139.819328},{"name":"江東区こども発達センター","province":"東京都","city":"江東区","address":"江東区塩浜2-5-20","lat":35.661932,"lon":139.805383},{"name":"東京都立東部療育センター","province":"東京都","city":"江東区","address":"江東区新砂3-3-25","lat":35.663819,"lon":139.833178},{"name":"ロゴス点字図書館","province":"東京都","city":"江東区","address":"江東区潮見二丁目10番10号日本カトリック会館1階","lat":35.656691,"lon":139.816721},{"name":"新幸荘","province":"東京都","city":"江東区","address":"東京都江東区","lat":35.67307835,"lon":139.8169681},{"name":"福住荘","province":"東京都","city":"江東区","address":"江東区福住1-14-10","lat":35.674944,"lon":139.793957},{"name":"さくら亀戸ハウス","province":"東京都","city":"江東区","address":"江東区亀戸4-33-5","lat":35.703072,"lon":139.827531},{"name":"さくら第３亀戸ハウス","province":"東京都","city":"江東区","address":"江東区亀戸7-24-1","lat":35.699556,"lon":139.836818},{"name":"さくら第２亀戸ハウス","province":"東京都","city":"江東区","address":"江東区亀戸9-18-10","lat":35.697784,"lon":139.843076},{"name":"江東荘","province":"東京都","city":"江東区","address":"東京都江東区","lat":35.67307835,"lon":139.8169681},{"name":"砂町クラブ","province":"東京都","city":"江東区","address":"江東区北砂4丁目11-22","lat":35.678392,"lon":139.829844},{"name":"あそか病院","province":"東京都","city":"江東区","address":"江東区住吉1-18-1","lat":35.689859,"lon":139.811861},{"name":"江東区社会福祉協議会","province":"東京都","city":"江東区","address":"江東区東陽6-2-17高齢者総合福祉センター2階","lat":35.674728,"lon":139.812491},{"name":"福住荘","province":"東京都","city":"江東区","address":"江東区福住1-14-10","lat":35.67499,"lon":139.79393},{"name":"さくら亀戸ハウス","province":"東京都","city":"江東区","address":"江東区亀戸4-33-5","lat":35.70295,"lon":139.82738},{"name":"さくら第３亀戸ハウス","province":"東京都","city":"江東区","address":"江東区亀戸7-24-1","lat":35.69941,"lon":139.83678},{"name":"さくら第２亀戸ハウス","province":"東京都","city":"江東区","address":"江東区亀戸9-18-10","lat":35.69769,"lon":139.84254},{"name":"砂町クラブ","province":"東京都","city":"江東区","address":"江東区北砂4-11-22","lat":35.67882,"lon":139.82986},{"name":"ロゴス点字図書館","province":"東京都","city":"江東区","address":"江東区潮見2-10-10日本カトリック会館1階","lat":35.6567,"lon":139.81723},{"name":"江東区社会福祉協議会","province":"東京都","city":"江東区","address":"江東区東陽6-2-17高齢者総合福祉センター2階","lat":35.67411,"lon":139.81239},{"name":"さくら第２亀戸ハウス","province":"東京都","city":"江東区","address":"江東区亀戸9-18-10","lat":35.69769,"lon":139.84255},{"name":"東京辰巳国際水泳場","province":"東京都","city":"江東区","address":"東京都江東区","lat":35.67307835,"lon":139.8169681},{"name":"有明テニスの森公園有明コロシアム","province":"東京都","city":"江東区","address":"東京都江東区","lat":35.67307835,"lon":139.8169681},{"name":"有明テニスの森公園クラブハウスほか附属施設等14件","province":"東京都","city":"江東区","address":"東京都江東区","lat":35.67307835,"lon":139.8169681},{"name":"若洲海浜公園ヨット訓練所艇庫ほか2件","province":"東京都","city":"江東区","address":"東京都江東区","lat":35.67307835,"lon":139.8169681},{"name":"有明テニスの森公園駐車場","province":"東京都","city":"江東区","address":"東京都江東区","lat":35.67307835,"lon":139.8169681},{"name":"有明テニスの森公園砂入り人工芝（テニスコート）","province":"東京都","city":"江東区","address":"東京都江東区","lat":35.67307835,"lon":139.8169681},{"name":"若洲海浜公園ヨット訓練所ボートヤード","province":"東京都","city":"江東区","address":"東京都江東区","lat":35.67307835,"lon":139.8169681},{"name":"若洲海浜公園ヨット訓練所浮桟橋","province":"東京都","city":"江東区","address":"東京都江東区","lat":35.67307835,"lon":139.8169681},{"name":"介護老人保健施設キーストーン","province":"東京都","city":"江東区","address":"江東区亀戸3-36-1","lat":35.707275,"lon":139.819328},{"name":"江東区こども発達センター","province":"東京都","city":"江東区","address":"江東区塩浜2-5-20","lat":35.661932,"lon":139.805383},{"name":"東京都立東部療育センター","province":"東京都","city":"江東区","address":"江東区新砂3-3-25","lat":35.663819,"lon":139.833178},{"name":"ロゴス点字図書館","province":"東京都","city":"江東区","address":"江東区潮見二丁目10番10号日本カトリック会館1階","lat":35.656691,"lon":139.816721},{"name":"新幸荘","province":"東京都","city":"江東区","address":"東京都江東区","lat":35.67307835,"lon":139.8169681},{"name":"福住荘","province":"東京都","city":"江東区","address":"江東区福住1-14-10","lat":35.674944,"lon":139.793957},{"name":"さくら亀戸ハウス","province":"東京都","city":"江東区","address":"江東区亀戸4-33-5","lat":35.703072,"lon":139.827531},{"name":"さくら第３亀戸ハウス","province":"東京都","city":"江東区","address":"江東区亀戸7-24-1","lat":35.699556,"lon":139.836818},{"name":"さくら第２亀戸ハウス","province":"東京都","city":"江東区","address":"江東区亀戸9-18-10","lat":35.697784,"lon":139.843076},{"name":"江東荘","province":"東京都","city":"江東区","address":"東京都江東区","lat":35.67307835,"lon":139.8169681},{"name":"砂町クラブ","province":"東京都","city":"江東区","address":"江東区北砂4丁目11-22","lat":35.678392,"lon":139.829844},{"name":"あそか病院","province":"東京都","city":"江東区","address":"江東区住吉1-18-1","lat":35.689859,"lon":139.811861},{"name":"江東区社会福祉協議会","province":"東京都","city":"江東区","address":"江東区東陽6-2-17高齢者総合福祉センター2階","lat":35.674728,"lon":139.812491},{"name":"福住荘","province":"東京都","city":"江東区","address":"江東区福住1-14-10","lat":35.67499,"lon":139.79393},{"name":"さくら亀戸ハウス","province":"東京都","city":"江東区","address":"江東区亀戸4-33-5","lat":35.70295,"lon":139.82738},{"name":"さくら第３亀戸ハウス","province":"東京都","city":"江東区","address":"江東区亀戸7-24-1","lat":35.69941,"lon":139.83678},{"name":"さくら第２亀戸ハウス","province":"東京都","city":"江東区","address":"江東区亀戸9-18-10","lat":35.69769,"lon":139.84254},{"name":"砂町クラブ","province":"東京都","city":"江東区","address":"江東区北砂4-11-22","lat":35.67882,"lon":139.82986},{"name":"ロゴス点字図書館","province":"東京都","city":"江東区","address":"江東区潮見2-10-10日本カトリック会館1階","lat":35.6567,"lon":139.81723},{"name":"江東区社会福祉協議会","province":"東京都","city":"江東区","address":"江東区東陽6-2-17高齢者総合福祉センター2階","lat":35.67411,"lon":139.81239},{"name":"さくら第２亀戸ハウス","province":"東京都","city":"江東区","address":"江東区亀戸9-18-10","lat":35.69769,"lon":139.84255},{"name":"東京辰巳国際水泳場","province":"東京都","city":"江東区","address":"東京都江東区","lat":35.67307835,"lon":139.8169681},{"name":"有明テニスの森公園有明コロシアム","province":"東京都","city":"江東区","address":"東京都江東区","lat":35.67307835,"lon":139.8169681},{"name":"有明テニスの森公園クラブハウスほか附属施設等14件","province":"東京都","city":"江東区","address":"東京都江東区","lat":35.67307835,"lon":139.8169681},{"name":"若洲海浜公園ヨット訓練所艇庫ほか2件","province":"東京都","city":"江東区","address":"東京都江東区","lat":35.67307835,"lon":139.8169681},{"name":"有明テニスの森公園駐車場","province":"東京都","city":"江東区","address":"東京都江東区","lat":35.67307835,"lon":139.8169681},{"name":"有明テニスの森公園砂入り人工芝（テニスコート）","province":"東京都","city":"江東区","address":"東京都江東区","lat":35.67307835,"lon":139.8169681},{"name":"若洲海浜公園ヨット訓練所ボートヤード","province":"東京都","city":"江東区","address":"東京都江東区","lat":35.67307835,"lon":139.8169681},{"name":"若洲海浜公園ヨット訓練所浮桟橋","province":"東京都","city":"江東区","address":"東京都江東区","lat":35.67307835,"lon":139.8169681},{"name":"介護老人保健施設キーストーン","province":"東京都","city":"江東区","address":"江東区亀戸3-36-1","lat":35.707275,"lon":139.819328},{"name":"江東区こども発達センター","province":"東京都","city":"江東区","address":"江東区塩浜2-5-20","lat":35.661932,"lon":139.805383},{"name":"東京都立東部療育センター","province":"東京都","city":"江東区","address":"江東区新砂3-3-25","lat":35.663819,"lon":139.833178},{"name":"ロゴス点字図書館","province":"東京都","city":"江東区","address":"江東区潮見二丁目10番10号日本カトリック会館1階","lat":35.656691,"lon":139.816721},{"name":"新幸荘","province":"東京都","city":"江東区","address":"東京都江東区","lat":35.67307835,"lon":139.8169681},{"name":"福住荘","province":"東京都","city":"江東区","address":"江東区福住1-14-10","lat":35.674944,"lon":139.793957},{"name":"さくら亀戸ハウス","province":"東京都","city":"江東区","address":"江東区亀戸4-33-5","lat":35.703072,"lon":139.827531},{"name":"さくら第３亀戸ハウス","province":"東京都","city":"江東区","address":"江東区亀戸7-24-1","lat":35.699556,"lon":139.836818},{"name":"さくら第２亀戸ハウス","province":"東京都","city":"江東区","address":"江東区亀戸9-18-10","lat":35.697784,"lon":139.843076},{"name":"江東荘","province":"東京都","city":"江東区","address":"東京都江東区","lat":35.67307835,"lon":139.8169681},{"name":"砂町クラブ","province":"東京都","city":"江東区","address":"江東区北砂4丁目11-22","lat":35.678392,"lon":139.829844},{"name":"あそか病院","province":"東京都","city":"江東区","address":"江東区住吉1-18-1","lat":35.689859,"lon":139.811861},{"name":"江東区社会福祉協議会","province":"東京都","city":"江東区","address":"江東区東陽6-2-17高齢者総合福祉センター2階","lat":35.674728,"lon":139.812491},{"name":"福住荘","province":"東京都","city":"江東区","address":"江東区福住1-14-10","lat":35.67499,"lon":139.79393},{"name":"さくら亀戸ハウス","province":"東京都","city":"江東区","address":"江東区亀戸4-33-5","lat":35.70295,"lon":139.82738},{"name":"さくら第３亀戸ハウス","province":"東京都","city":"江東区","address":"江東区亀戸7-24-1","lat":35.69941,"lon":139.83678},{"name":"さくら第２亀戸ハウス","province":"東京都","city":"江東区","address":"江東区亀戸9-18-10","lat":35.69769,"lon":139.84254},{"name":"砂町クラブ","province":"東京都","city":"江東区","address":"江東区北砂4-11-22","lat":35.67882,"lon":139.82986},{"name":"ロゴス点字図書館","province":"東京都","city":"江東区","address":"江東区潮見2-10-10日本カトリック会館1階","lat":35.6567,"lon":139.81723},{"name":"江東区社会福祉協議会","province":"東京都","city":"江東区","address":"江東区東陽6-2-17高齢者総合福祉センター2階","lat":35.67411,"lon":139.81239},{"name":"さくら第２亀戸ハウス","province":"東京都","city":"江東区","address":"江東区亀戸9-18-10","lat":35.69769,"lon":139.84255},{"name":"東京辰巳国際水泳場","province":"東京都","city":"江東区","address":"東京都江東区","lat":35.67307835,"lon":139.8169681},{"name":"有明テニスの森公園有明コロシアム","province":"東京都","city":"江東区","address":"東京都江東区","lat":35.67307835,"lon":139.8169681},{"name":"有明テニスの森公園クラブハウスほか附属施設等14件","province":"東京都","city":"江東区","address":"東京都江東区","lat":35.67307835,"lon":139.8169681},{"name":"若洲海浜公園ヨット訓練所艇庫ほか2件","province":"東京都","city":"江東区","address":"東京都江東区","lat":35.67307835,"lon":139.8169681},{"name":"有明テニスの森公園駐車場","province":"東京都","city":"江東区","address":"東京都江東区","lat":35.67307835,"lon":139.8169681},{"name":"有明テニスの森公園砂入り人工芝（テニスコート）","province":"東京都","city":"江東区","address":"東京都江東区","lat":35.67307835,"lon":139.8169681},{"name":"若洲海浜公園ヨット訓練所ボートヤード","province":"東京都","city":"江東区","address":"東京都江東区","lat":35.67307835,"lon":139.8169681},{"name":"若洲海浜公園ヨット訓練所浮桟橋","province":"東京都","city":"江東区","address":"東京都江東区","lat":35.67307835,"lon":139.8169681},{"name":"介護老人保健施設キーストーン","province":"東京都","city":"江東区","address":"江東区亀戸3-36-1","lat":35.707275,"lon":139.819328},{"name":"江東区こども発達センター","province":"東京都","city":"江東区","address":"江東区塩浜2-5-20","lat":35.661932,"lon":139.805383},{"name":"東京都立東部療育センター","province":"東京都","city":"江東区","address":"江東区新砂3-3-25","lat":35.663819,"lon":139.833178},{"name":"ロゴス点字図書館","province":"東京都","city":"江東区","address":"江東区潮見二丁目10番10号日本カトリック会館1階","lat":35.656691,"lon":139.816721},{"name":"新幸荘","province":"東京都","city":"江東区","address":"東京都江東区","lat":35.67307835,"lon":139.8169681},{"name":"福住荘","province":"東京都","city":"江東区","address":"江東区福住1-14-10","lat":35.674944,"lon":139.793957},{"name":"さくら亀戸ハウス","province":"東京都","city":"江東区","address":"江東区亀戸4-33-5","lat":35.703072,"lon":139.827531},{"name":"さくら第３亀戸ハウス","province":"東京都","city":"江東区","address":"江東区亀戸7-24-1","lat":35.699556,"lon":139.836818},{"name":"さくら第２亀戸ハウス","province":"東京都","city":"江東区","address":"江東区亀戸9-18-10","lat":35.697784,"lon":139.843076},{"name":"江東荘","province":"東京都","city":"江東区","address":"東京都江東区","lat":35.67307835,"lon":139.8169681},{"name":"砂町クラブ","province":"東京都","city":"江東区","address":"江東区北砂4丁目11-22","lat":35.678392,"lon":139.829844},{"name":"あそか病院","province":"東京都","city":"江東区","address":"江東区住吉1-18-1","lat":35.689859,"lon":139.811861},{"name":"江東区社会福祉協議会","province":"東京都","city":"江東区","address":"江東区東陽6-2-17高齢者総合福祉センター2階","lat":35.674728,"lon":139.812491},{"name":"福住荘","province":"東京都","city":"江東区","address":"江東区福住1-14-10","lat":35.67499,"lon":139.79393},{"name":"さくら亀戸ハウス","province":"東京都","city":"江東区","address":"江東区亀戸4-33-5","lat":35.70295,"lon":139.82738},{"name":"さくら第３亀戸ハウス","province":"東京都","city":"江東区","address":"江東区亀戸7-24-1","lat":35.69941,"lon":139.83678},{"name":"さくら第２亀戸ハウス","province":"東京都","city":"江東区","address":"江東区亀戸9-18-10","lat":35.69769,"lon":139.84254},{"name":"砂町クラブ","province":"東京都","city":"江東区","address":"江東区北砂4-11-22","lat":35.67882,"lon":139.82986},{"name":"ロゴス点字図書館","province":"東京都","city":"江東区","address":"江東区潮見2-10-10日本カトリック会館1階","lat":35.6567,"lon":139.81723},{"name":"江東区社会福祉協議会","province":"東京都","city":"江東区","address":"江東区東陽6-2-17高齢者総合福祉センター2階","lat":35.67411,"lon":139.81239},{"name":"さくら第２亀戸ハウス","province":"東京都","city":"江東区","address":"江東区亀戸9-18-10","lat":35.69769,"lon":139.84255},{"name":"東京辰巳国際水泳場","province":"東京都","city":"江東区","address":"東京都江東区","lat":35.67307835,"lon":139.8169681},{"name":"有明テニスの森公園有明コロシアム","province":"東京都","city":"江東区","address":"東京都江東区","lat":35.67307835,"lon":139.8169681},{"name":"有明テニスの森公園クラブハウスほか附属施設等14件","province":"東京都","city":"江東区","address":"東京都江東区","lat":35.67307835,"lon":139.8169681},{"name":"若洲海浜公園ヨット訓練所艇庫ほか2件","province":"東京都","city":"江東区","address":"東京都江東区","lat":35.67307835,"lon":139.8169681},{"name":"有明テニスの森公園駐車場","province":"東京都","city":"江東区","address":"東京都江東区","lat":35.67307835,"lon":139.8169681},{"name":"有明テニスの森公園砂入り人工芝（テニスコート）","province":"東京都","city":"江東区","address":"東京都江東区","lat":35.67307835,"lon":139.8169681},{"name":"若洲海浜公園ヨット訓練所ボートヤード","province":"東京都","city":"江東区","address":"東京都江東区","lat":35.67307835,"lon":139.8169681},{"name":"若洲海浜公園ヨット訓練所浮桟橋","province":"東京都","city":"江東区","address":"東京都江東区","lat":35.67307835,"lon":139.8169681},{"name":"介護老人保健施設キーストーン","province":"東京都","city":"江東区","address":"江東区亀戸3-36-1","lat":35.707275,"lon":139.819328},{"name":"江東区こども発達センター","province":"東京都","city":"江東区","address":"江東区塩浜2-5-20","lat":35.661932,"lon":139.805383},{"name":"東京都立東部療育センター","province":"東京都","city":"江東区","address":"江東区新砂3-3-25","lat":35.663819,"lon":139.833178},{"name":"ロゴス点字図書館","province":"東京都","city":"江東区","address":"江東区潮見二丁目10番10号日本カトリック会館1階","lat":35.656691,"lon":139.816721},{"name":"新幸荘","province":"東京都","city":"江東区","address":"東京都江東区","lat":35.67307835,"lon":139.8169681},{"name":"福住荘","province":"東京都","city":"江東区","address":"江東区福住1-14-10","lat":35.674944,"lon":139.793957},{"name":"さくら亀戸ハウス","province":"東京都","city":"江東区","address":"江東区亀戸4-33-5","lat":35.703072,"lon":139.827531},{"name":"さくら第３亀戸ハウス","province":"東京都","city":"江東区","address":"江東区亀戸7-24-1","lat":35.699556,"lon":139.836818},{"name":"さくら第２亀戸ハウス","province":"東京都","city":"江東区","address":"江東区亀戸9-18-10","lat":35.697784,"lon":139.843076},{"name":"江東荘","province":"東京都","city":"江東区","address":"東京都江東区","lat":35.67307835,"lon":139.8169681},{"name":"砂町クラブ","province":"東京都","city":"江東区","address":"江東区北砂4丁目11-22","lat":35.678392,"lon":139.829844},{"name":"あそか病院","province":"東京都","city":"江東区","address":"江東区住吉1-18-1","lat":35.689859,"lon":139.811861},{"name":"江東区社会福祉協議会","province":"東京都","city":"江東区","address":"江東区東陽6-2-17高齢者総合福祉センター2階","lat":35.674728,"lon":139.812491},{"name":"福住荘","province":"東京都","city":"江東区","address":"江東区福住1-14-10","lat":35.67499,"lon":139.79393},{"name":"さくら亀戸ハウス","province":"東京都","city":"江東区","address":"江東区亀戸4-33-5","lat":35.70295,"lon":139.82738},{"name":"さくら第３亀戸ハウス","province":"東京都","city":"江東区","address":"江東区亀戸7-24-1","lat":35.69941,"lon":139.83678},{"name":"さくら第２亀戸ハウス","province":"東京都","city":"江東区","address":"江東区亀戸9-18-10","lat":35.69769,"lon":139.84254},{"name":"砂町クラブ","province":"東京都","city":"江東区","address":"江東区北砂4-11-22","lat":35.67882,"lon":139.82986},{"name":"ロゴス点字図書館","province":"東京都","city":"江東区","address":"江東区潮見2-10-10日本カトリック会館1階","lat":35.6567,"lon":139.81723},{"name":"江東区社会福祉協議会","province":"東京都","city":"江東区","address":"江東区東陽6-2-17高齢者総合福祉センター2階","lat":35.67411,"lon":139.81239},{"name":"さくら第２亀戸ハウス","province":"東京都","city":"江東区","address":"江東区亀戸9-18-10","lat":35.69769,"lon":139.84255},{"name":"東京辰巳国際水泳場","province":"東京都","city":"江東区","address":"東京都江東区","lat":35.67307835,"lon":139.8169681},{"name":"有明テニスの森公園有明コロシアム","province":"東京都","city":"江東区","address":"東京都江東区","lat":35.67307835,"lon":139.8169681},{"name":"有明テニスの森公園クラブハウスほか附属施設等14件","province":"東京都","city":"江東区","address":"東京都江東区","lat":35.67307835,"lon":139.8169681},{"name":"若洲海浜公園ヨット訓練所艇庫ほか2件","province":"東京都","city":"江東区","address":"東京都江東区","lat":35.67307835,"lon":139.8169681},{"name":"有明テニスの森公園駐車場","province":"東京都","city":"江東区","address":"東京都江東区","lat":35.67307835,"lon":139.8169681},{"name":"有明テニスの森公園砂入り人工芝（テニスコート）","province":"東京都","city":"江東区","address":"東京都江東区","lat":35.67307835,"lon":139.8169681},{"name":"若洲海浜公園ヨット訓練所ボートヤード","province":"東京都","city":"江東区","address":"東京都江東区","lat":35.67307835,"lon":139.8169681},{"name":"若洲海浜公園ヨット訓練所浮桟橋","province":"東京都","city":"江東区","address":"東京都江東区","lat":35.67307835,"lon":139.8169681},{"name":"介護老人保健施設キーストーン","province":"東京都","city":"江東区","address":"江東区亀戸3-36-1","lat":35.707275,"lon":139.819328},{"name":"江東区こども発達センター","province":"東京都","city":"江東区","address":"江東区塩浜2-5-20","lat":35.661932,"lon":139.805383},{"name":"東京都立東部療育センター","province":"東京都","city":"江東区","address":"江東区新砂3-3-25","lat":35.663819,"lon":139.833178},{"name":"ロゴス点字図書館","province":"東京都","city":"江東区","address":"江東区潮見二丁目10番10号日本カトリック会館1階","lat":35.656691,"lon":139.816721},{"name":"新幸荘","province":"東京都","city":"江東区","address":"東京都江東区","lat":35.67307835,"lon":139.8169681},{"name":"福住荘","province":"東京都","city":"江東区","address":"江東区福住1-14-10","lat":35.674944,"lon":139.793957},{"name":"さくら亀戸ハウス","province":"東京都","city":"江東区","address":"江東区亀戸4-33-5","lat":35.703072,"lon":139.827531},{"name":"さくら第３亀戸ハウス","province":"東京都","city":"江東区","address":"江東区亀戸7-24-1","lat":35.699556,"lon":139.836818},{"name":"さくら第２亀戸ハウス","province":"東京都","city":"江東区","address":"江東区亀戸9-18-10","lat":35.697784,"lon":139.843076},{"name":"江東荘","province":"東京都","city":"江東区","address":"東京都江東区","lat":35.67307835,"lon":139.8169681},{"name":"砂町クラブ","province":"東京都","city":"江東区","address":"江東区北砂4丁目11-22","lat":35.678392,"lon":139.829844},{"name":"あそか病院","province":"東京都","city":"江東区","address":"江東区住吉1-18-1","lat":35.689859,"lon":139.811861},{"name":"江東区社会福祉協議会","province":"東京都","city":"江東区","address":"江東区東陽6-2-17高齢者総合福祉センター2階","lat":35.674728,"lon":139.812491},{"name":"福住荘","province":"東京都","city":"江東区","address":"江東区福住1-14-10","lat":35.67499,"lon":139.79393},{"name":"さくら亀戸ハウス","province":"東京都","city":"江東区","address":"江東区亀戸4-33-5","lat":35.70295,"lon":139.82738},{"name":"さくら第３亀戸ハウス","province":"東京都","city":"江東区","address":"江東区亀戸7-24-1","lat":35.69941,"lon":139.83678},{"name":"さくら第２亀戸ハウス","province":"東京都","city":"江東区","address":"江東区亀戸9-18-10","lat":35.69769,"lon":139.84254},{"name":"砂町クラブ","province":"東京都","city":"江東区","address":"江東区北砂4-11-22","lat":35.67882,"lon":139.82986},{"name":"ロゴス点字図書館","province":"東京都","city":"江東区","address":"江東区潮見2-10-10日本カトリック会館1階","lat":35.6567,"lon":139.81723},{"name":"江東区社会福祉協議会","province":"東京都","city":"江東区","address":"江東区東陽6-2-17高齢者総合福祉センター2階","lat":35.67411,"lon":139.81239},{"name":"さくら第２亀戸ハウス","province":"東京都","city":"江東区","address":"江東区亀戸9-18-10","lat":35.69769,"lon":139.84255},{"name":"東京辰巳国際水泳場","province":"東京都","city":"江東区","address":"東京都江東区","lat":35.67307835,"lon":139.8169681},{"name":"有明テニスの森公園有明コロシアム","province":"東京都","city":"江東区","address":"東京都江東区","lat":35.67307835,"lon":139.8169681},{"name":"有明テニスの森公園クラブハウスほか附属施設等14件","province":"東京都","city":"江東区","address":"東京都江東区","lat":35.67307835,"lon":139.8169681},{"name":"若洲海浜公園ヨット訓練所艇庫ほか2件","province":"東京都","city":"江東区","address":"東京都江東区","lat":35.67307835,"lon":139.8169681},{"name":"有明テニスの森公園駐車場","province":"東京都","city":"江東区","address":"東京都江東区","lat":35.67307835,"lon":139.8169681},{"name":"有明テニスの森公園砂入り人工芝（テニスコート）","province":"東京都","city":"江東区","address":"東京都江東区","lat":35.67307835,"lon":139.8169681},{"name":"若洲海浜公園ヨット訓練所ボートヤード","province":"東京都","city":"江東区","address":"東京都江東区","lat":35.67307835,"lon":139.8169681},{"name":"若洲海浜公園ヨット訓練所浮桟橋","province":"東京都","city":"江東区","address":"東京都江東区","lat":35.67307835,"lon":139.8169681},{"name":"介護老人保健施設キーストーン","province":"東京都","city":"江東区","address":"江東区亀戸3-36-1","lat":35.707275,"lon":139.819328},{"name":"江東区こども発達センター","province":"東京都","city":"江東区","address":"江東区塩浜2-5-20","lat":35.661932,"lon":139.805383},{"name":"東京都立東部療育センター","province":"東京都","city":"江東区","address":"江東区新砂3-3-25","lat":35.663819,"lon":139.833178},{"name":"ロゴス点字図書館","province":"東京都","city":"江東区","address":"江東区潮見二丁目10番10号日本カトリック会館1階","lat":35.656691,"lon":139.816721},{"name":"新幸荘","province":"東京都","city":"江東区","address":"東京都江東区","lat":35.67307835,"lon":139.8169681},{"name":"福住荘","province":"東京都","city":"江東区","address":"江東区福住1-14-10","lat":35.674944,"lon":139.793957},{"name":"さくら亀戸ハウス","province":"東京都","city":"江東区","address":"江東区亀戸4-33-5","lat":35.703072,"lon":139.827531},{"name":"さくら第３亀戸ハウス","province":"東京都","city":"江東区","address":"江東区亀戸7-24-1","lat":35.699556,"lon":139.836818},{"name":"さくら第２亀戸ハウス","province":"東京都","city":"江東区","address":"江東区亀戸9-18-10","lat":35.697784,"lon":139.843076},{"name":"江東荘","province":"東京都","city":"江東区","address":"東京都江東区","lat":35.67307835,"lon":139.8169681},{"name":"砂町クラブ","province":"東京都","city":"江東区","address":"江東区北砂4丁目11-22","lat":35.678392,"lon":139.829844},{"name":"あそか病院","province":"東京都","city":"江東区","address":"江東区住吉1-18-1","lat":35.689859,"lon":139.811861},{"name":"江東区社会福祉協議会","province":"東京都","city":"江東区","address":"江東区東陽6-2-17高齢者総合福祉センター2階","lat":35.674728,"lon":139.812491},{"name":"福住荘","province":"東京都","city":"江東区","address":"江東区福住1-14-10","lat":35.67499,"lon":139.79393},{"name":"さくら亀戸ハウス","province":"東京都","city":"江東区","address":"江東区亀戸4-33-5","lat":35.70295,"lon":139.82738},{"name":"さくら第３亀戸ハウス","province":"東京都","city":"江東区","address":"江東区亀戸7-24-1","lat":35.69941,"lon":139.83678},{"name":"さくら第２亀戸ハウス","province":"東京都","city":"江東区","address":"江東区亀戸9-18-10","lat":35.69769,"lon":139.84254},{"name":"砂町クラブ","province":"東京都","city":"江東区","address":"江東区北砂4-11-22","lat":35.67882,"lon":139.82986},{"name":"ロゴス点字図書館","province":"東京都","city":"江東区","address":"江東区潮見2-10-10日本カトリック会館1階","lat":35.6567,"lon":139.81723},{"name":"江東区社会福祉協議会","province":"東京都","city":"江東区","address":"江東区東陽6-2-17高齢者総合福祉センター2階","lat":35.67411,"lon":139.81239},{"name":"さくら第２亀戸ハウス","province":"東京都","city":"江東区","address":"江東区亀戸9-18-10","lat":35.69769,"lon":139.84255},{"name":"東京辰巳国際水泳場","province":"東京都","city":"江東区","address":"東京都江東区","lat":35.67307835,"lon":139.8169681},{"name":"有明テニスの森公園有明コロシアム","province":"東京都","city":"江東区","address":"東京都江東区","lat":35.67307835,"lon":139.8169681},{"name":"有明テニスの森公園クラブハウスほか附属施設等14件","province":"東京都","city":"江東区","address":"東京都江東区","lat":35.67307835,"lon":139.8169681},{"name":"若洲海浜公園ヨット訓練所艇庫ほか2件","province":"東京都","city":"江東区","address":"東京都江東区","lat":35.67307835,"lon":139.8169681},{"name":"有明テニスの森公園駐車場","province":"東京都","city":"江東区","address":"東京都江東区","lat":35.67307835,"lon":139.8169681},{"name":"有明テニスの森公園砂入り人工芝（テニスコート）","province":"東京都","city":"江東区","address":"東京都江東区","lat":35.67307835,"lon":139.8169681},{"name":"若洲海浜公園ヨット訓練所ボートヤード","province":"東京都","city":"江東区","address":"東京都江東区","lat":35.67307835,"lon":139.8169681},{"name":"若洲海浜公園ヨット訓練所浮桟橋","province":"東京都","city":"江東区","address":"東京都江東区","lat":35.67307835,"lon":139.8169681},{"name":"介護老人保健施設キーストーン","province":"東京都","city":"江東区","address":"江東区亀戸3-36-1","lat":35.707275,"lon":139.819328},{"name":"江東区こども発達センター","province":"東京都","city":"江東区","address":"江東区塩浜2-5-20","lat":35.661932,"lon":139.805383},{"name":"東京都立東部療育センター","province":"東京都","city":"江東区","address":"江東区新砂3-3-25","lat":35.663819,"lon":139.833178},{"name":"ロゴス点字図書館","province":"東京都","city":"江東区","address":"江東区潮見二丁目10番10号日本カトリック会館1階","lat":35.656691,"lon":139.816721},{"name":"新幸荘","province":"東京都","city":"江東区","address":"東京都江東区","lat":35.67307835,"lon":139.8169681},{"name":"福住荘","province":"東京都","city":"江東区","address":"江東区福住1-14-10","lat":35.674944,"lon":139.793957},{"name":"さくら亀戸ハウス","province":"東京都","city":"江東区","address":"江東区亀戸4-33-5","lat":35.703072,"lon":139.827531},{"name":"さくら第３亀戸ハウス","province":"東京都","city":"江東区","address":"江東区亀戸7-24-1","lat":35.699556,"lon":139.836818},{"name":"さくら第２亀戸ハウス","province":"東京都","city":"江東区","address":"江東区亀戸9-18-10","lat":35.697784,"lon":139.843076},{"name":"江東荘","province":"東京都","city":"江東区","address":"東京都江東区","lat":35.67307835,"lon":139.8169681},{"name":"砂町クラブ","province":"東京都","city":"江東区","address":"江東区北砂4丁目11-22","lat":35.678392,"lon":139.829844},{"name":"あそか病院","province":"東京都","city":"江東区","address":"江東区住吉1-18-1","lat":35.689859,"lon":139.811861},{"name":"江東区社会福祉協議会","province":"東京都","city":"江東区","address":"江東区東陽6-2-17高齢者総合福祉センター2階","lat":35.674728,"lon":139.812491},{"name":"福住荘","province":"東京都","city":"江東区","address":"江東区福住1-14-10","lat":35.67499,"lon":139.79393},{"name":"さくら亀戸ハウス","province":"東京都","city":"江東区","address":"江東区亀戸4-33-5","lat":35.70295,"lon":139.82738},{"name":"さくら第３亀戸ハウス","province":"東京都","city":"江東区","address":"江東区亀戸7-24-1","lat":35.69941,"lon":139.83678},{"name":"さくら第２亀戸ハウス","province":"東京都","city":"江東区","address":"江東区亀戸9-18-10","lat":35.69769,"lon":139.84254},{"name":"砂町クラブ","province":"東京都","city":"江東区","address":"江東区北砂4-11-22","lat":35.67882,"lon":139.82986},{"name":"ロゴス点字図書館","province":"東京都","city":"江東区","address":"江東区潮見2-10-10日本カトリック会館1階","lat":35.6567,"lon":139.81723},{"name":"江東区社会福祉協議会","province":"東京都","city":"江東区","address":"江東区東陽6-2-17高齢者総合福祉センター2階","lat":35.67411,"lon":139.81239},{"name":"さくら第２亀戸ハウス","province":"東京都","city":"江東区","address":"江東区亀戸9-18-10","lat":35.69769,"lon":139.84255},{"name":"東京辰巳国際水泳場","province":"東京都","city":"江東区","address":"東京都江東区","lat":35.67307835,"lon":139.8169681},{"name":"有明テニスの森公園有明コロシアム","province":"東京都","city":"江東区","address":"東京都江東区","lat":35.67307835,"lon":139.8169681},{"name":"有明テニスの森公園クラブハウスほか附属施設等14件","province":"東京都","city":"江東区","address":"東京都江東区","lat":35.67307835,"lon":139.8169681},{"name":"若洲海浜公園ヨット訓練所艇庫ほか2件","province":"東京都","city":"江東区","address":"東京都江東区","lat":35.67307835,"lon":139.8169681},{"name":"有明テニスの森公園駐車場","province":"東京都","city":"江東区","address":"東京都江東区","lat":35.67307835,"lon":139.8169681},{"name":"有明テニスの森公園砂入り人工芝（テニスコート）","province":"東京都","city":"江東区","address":"東京都江東区","lat":35.67307835,"lon":139.8169681},{"name":"若洲海浜公園ヨット訓練所ボートヤード","province":"東京都","city":"江東区","address":"東京都江東区","lat":35.67307835,"lon":139.8169681},{"name":"若洲海浜公園ヨット訓練所浮桟橋","province":"東京都","city":"江東区","address":"東京都江東区","lat":35.67307835,"lon":139.8169681},{"name":"介護老人保健施設キーストーン","province":"東京都","city":"江東区","address":"江東区亀戸3-36-1","lat":35.707275,"lon":139.819328},{"name":"江東区こども発達センター","province":"東京都","city":"江東区","address":"江東区塩浜2-5-20","lat":35.661932,"lon":139.805383},{"name":"東京都立東部療育センター","province":"東京都","city":"江東区","address":"江東区新砂3-3-25","lat":35.663819,"lon":139.833178},{"name":"ロゴス点字図書館","province":"東京都","city":"江東区","address":"江東区潮見二丁目10番10号日本カトリック会館1階","lat":35.656691,"lon":139.816721},{"name":"新幸荘","province":"東京都","city":"江東区","address":"東京都江東区","lat":35.67307835,"lon":139.8169681},{"name":"福住荘","province":"東京都","city":"江東区","address":"江東区福住1-14-10","lat":35.674944,"lon":139.793957},{"name":"さくら亀戸ハウス","province":"東京都","city":"江東区","address":"江東区亀戸4-33-5","lat":35.703072,"lon":139.827531},{"name":"さくら第３亀戸ハウス","province":"東京都","city":"江東区","address":"江東区亀戸7-24-1","lat":35.699556,"lon":139.836818},{"name":"さくら第２亀戸ハウス","province":"東京都","city":"江東区","address":"江東区亀戸9-18-10","lat":35.697784,"lon":139.843076},{"name":"江東荘","province":"東京都","city":"江東区","address":"東京都江東区","lat":35.67307835,"lon":139.8169681},{"name":"砂町クラブ","province":"東京都","city":"江東区","address":"江東区北砂4丁目11-22","lat":35.678392,"lon":139.829844},{"name":"あそか病院","province":"東京都","city":"江東区","address":"江東区住吉1-18-1","lat":35.689859,"lon":139.811861},{"name":"江東区社会福祉協議会","province":"東京都","city":"江東区","address":"江東区東陽6-2-17高齢者総合福祉センター2階","lat":35.674728,"lon":139.812491},{"name":"福住荘","province":"東京都","city":"江東区","address":"江東区福住1-14-10","lat":35.67499,"lon":139.79393},{"name":"さくら亀戸ハウス","province":"東京都","city":"江東区","address":"江東区亀戸4-33-5","lat":35.70295,"lon":139.82738},{"name":"さくら第３亀戸ハウス","province":"東京都","city":"江東区","address":"江東区亀戸7-24-1","lat":35.69941,"lon":139.83678},{"name":"さくら第２亀戸ハウス","province":"東京都","city":"江東区","address":"江東区亀戸9-18-10","lat":35.69769,"lon":139.84254},{"name":"砂町クラブ","province":"東京都","city":"江東区","address":"江東区北砂4-11-22","lat":35.67882,"lon":139.82986},{"name":"ロゴス点字図書館","province":"東京都","city":"江東区","address":"江東区潮見2-10-10日本カトリック会館1階","lat":35.6567,"lon":139.81723},{"name":"江東区社会福祉協議会","province":"東京都","city":"江東区","address":"江東区東陽6-2-17高齢者総合福祉センター2階","lat":35.67411,"lon":139.81239},{"name":"さくら第２亀戸ハウス","province":"東京都","city":"江東区","address":"江東区亀戸9-18-10","lat":35.69769,"lon":139.84255},{"name":"東京辰巳国際水泳場","province":"東京都","city":"江東区","address":"東京都江東区","lat":35.67307835,"lon":139.8169681},{"name":"有明テニスの森公園有明コロシアム","province":"東京都","city":"江東区","address":"東京都江東区","lat":35.67307835,"lon":139.8169681},{"name":"有明テニスの森公園クラブハウスほか附属施設等14件","province":"東京都","city":"江東区","address":"東京都江東区","lat":35.67307835,"lon":139.8169681},{"name":"若洲海浜公園ヨット訓練所艇庫ほか2件","province":"東京都","city":"江東区","address":"東京都江東区","lat":35.67307835,"lon":139.8169681},{"name":"有明テニスの森公園駐車場","province":"東京都","city":"江東区","address":"東京都江東区","lat":35.67307835,"lon":139.8169681},{"name":"有明テニスの森公園砂入り人工芝（テニスコート）","province":"東京都","city":"江東区","address":"東京都江東区","lat":35.67307835,"lon":139.8169681},{"name":"若洲海浜公園ヨット訓練所ボートヤード","province":"東京都","city":"江東区","address":"東京都江東区","lat":35.67307835,"lon":139.8169681},{"name":"若洲海浜公園ヨット訓練所浮桟橋","province":"東京都","city":"江東区","address":"東京都江東区","lat":35.67307835,"lon":139.8169681},{"name":"介護老人保健施設キーストーン","province":"東京都","city":"江東区","address":"江東区亀戸3-36-1","lat":35.707275,"lon":139.819328},{"name":"江東区こども発達センター","province":"東京都","city":"江東区","address":"江東区塩浜2-5-20","lat":35.661932,"lon":139.805383},{"name":"東京都立東部療育センター","province":"東京都","city":"江東区","address":"江東区新砂3-3-25","lat":35.663819,"lon":139.833178},{"name":"ロゴス点字図書館","province":"東京都","city":"江東区","address":"江東区潮見二丁目10番10号日本カトリック会館1階","lat":35.656691,"lon":139.816721},{"name":"新幸荘","province":"東京都","city":"江東区","address":"東京都江東区","lat":35.67307835,"lon":139.8169681},{"name":"福住荘","province":"東京都","city":"江東区","address":"江東区福住1-14-10","lat":35.674944,"lon":139.793957},{"name":"さくら亀戸ハウス","province":"東京都","city":"江東区","address":"江東区亀戸4-33-5","lat":35.703072,"lon":139.827531},{"name":"さくら第３亀戸ハウス","province":"東京都","city":"江東区","address":"江東区亀戸7-24-1","lat":35.699556,"lon":139.836818},{"name":"さくら第２亀戸ハウス","province":"東京都","city":"江東区","address":"江東区亀戸9-18-10","lat":35.697784,"lon":139.843076},{"name":"江東荘","province":"東京都","city":"江東区","address":"東京都江東区","lat":35.67307835,"lon":139.8169681},{"name":"砂町クラブ","province":"東京都","city":"江東区","address":"江東区北砂4丁目11-22","lat":35.678392,"lon":139.829844},{"name":"あそか病院","province":"東京都","city":"江東区","address":"江東区住吉1-18-1","lat":35.689859,"lon":139.811861},{"name":"江東区社会福祉協議会","province":"東京都","city":"江東区","address":"江東区東陽6-2-17高齢者総合福祉センター2階","lat":35.674728,"lon":139.812491},{"name":"福住荘","province":"東京都","city":"江東区","address":"江東区福住1-14-10","lat":35.67499,"lon":139.79393},{"name":"さくら亀戸ハウス","province":"東京都","city":"江東区","address":"江東区亀戸4-33-5","lat":35.70295,"lon":139.82738},{"name":"さくら第３亀戸ハウス","province":"東京都","city":"江東区","address":"江東区亀戸7-24-1","lat":35.69941,"lon":139.83678},{"name":"さくら第２亀戸ハウス","province":"東京都","city":"江東区","address":"江東区亀戸9-18-10","lat":35.69769,"lon":139.84254},{"name":"砂町クラブ","province":"東京都","city":"江東区","address":"江東区北砂4-11-22","lat":35.67882,"lon":139.82986},{"name":"ロゴス点字図書館","province":"東京都","city":"江東区","address":"江東区潮見2-10-10日本カトリック会館1階","lat":35.6567,"lon":139.81723},{"name":"江東区社会福祉協議会","province":"東京都","city":"江東区","address":"江東区東陽6-2-17高齢者総合福祉センター2階","lat":35.67411,"lon":139.81239},{"name":"さくら第２亀戸ハウス","province":"東京都","city":"江東区","address":"江東区亀戸9-18-10","lat":35.69769,"lon":139.84255},{"name":"東京辰巳国際水泳場","province":"東京都","city":"江東区","address":"東京都江東区","lat":35.67307835,"lon":139.8169681},{"name":"有明テニスの森公園有明コロシアム","province":"東京都","city":"江東区","address":"東京都江東区","lat":35.67307835,"lon":139.8169681},{"name":"有明テニスの森公園クラブハウスほか附属施設等14件","province":"東京都","city":"江東区","address":"東京都江東区","lat":35.67307835,"lon":139.8169681},{"name":"若洲海浜公園ヨット訓練所艇庫ほか2件","province":"東京都","city":"江東区","address":"東京都江東区","lat":35.67307835,"lon":139.8169681},{"name":"有明テニスの森公園駐車場","province":"東京都","city":"江東区","address":"東京都江東区","lat":35.67307835,"lon":139.8169681},{"name":"有明テニスの森公園砂入り人工芝（テニスコート）","province":"東京都","city":"江東区","address":"東京都江東区","lat":35.67307835,"lon":139.8169681},{"name":"若洲海浜公園ヨット訓練所ボートヤード","province":"東京都","city":"江東区","address":"東京都江東区","lat":35.67307835,"lon":139.8169681},{"name":"若洲海浜公園ヨット訓練所浮桟橋","province":"東京都","city":"江東区","address":"東京都江東区","lat":35.67307835,"lon":139.8169681},{"name":"介護老人保健施設キーストーン","province":"東京都","city":"江東区","address":"江東区亀戸3-36-1","lat":35.707275,"lon":139.819328},{"name":"江東区こども発達センター","province":"東京都","city":"江東区","address":"江東区塩浜2-5-20","lat":35.661932,"lon":139.805383},{"name":"東京都立東部療育センター","province":"東京都","city":"江東区","address":"江東区新砂3-3-25","lat":35.663819,"lon":139.833178},{"name":"ロゴス点字図書館","province":"東京都","city":"江東区","address":"江東区潮見二丁目10番10号日本カトリック会館1階","lat":35.656691,"lon":139.816721},{"name":"新幸荘","province":"東京都","city":"江東区","address":"東京都江東区","lat":35.67307835,"lon":139.8169681},{"name":"福住荘","province":"東京都","city":"江東区","address":"江東区福住1-14-10","lat":35.674944,"lon":139.793957},{"name":"さくら亀戸ハウス","province":"東京都","city":"江東区","address":"江東区亀戸4-33-5","lat":35.703072,"lon":139.827531},{"name":"さくら第３亀戸ハウス","province":"東京都","city":"江東区","address":"江東区亀戸7-24-1","lat":35.699556,"lon":139.836818},{"name":"さくら第２亀戸ハウス","province":"東京都","city":"江東区","address":"江東区亀戸9-18-10","lat":35.697784,"lon":139.843076},{"name":"江東荘","province":"東京都","city":"江東区","address":"東京都江東区","lat":35.67307835,"lon":139.8169681},{"name":"砂町クラブ","province":"東京都","city":"江東区","address":"江東区北砂4丁目11-22","lat":35.678392,"lon":139.829844},{"name":"あそか病院","province":"東京都","city":"江東区","address":"江東区住吉1-18-1","lat":35.689859,"lon":139.811861},{"name":"江東区社会福祉協議会","province":"東京都","city":"江東区","address":"江東区東陽6-2-17高齢者総合福祉センター2階","lat":35.674728,"lon":139.812491},{"name":"福住荘","province":"東京都","city":"江東区","address":"江東区福住1-14-10","lat":35.67499,"lon":139.79393},{"name":"さくら亀戸ハウス","province":"東京都","city":"江東区","address":"江東区亀戸4-33-5","lat":35.70295,"lon":139.82738},{"name":"さくら第３亀戸ハウス","province":"東京都","city":"江東区","address":"江東区亀戸7-24-1","lat":35.69941,"lon":139.83678},{"name":"さくら第２亀戸ハウス","province":"東京都","city":"江東区","address":"江東区亀戸9-18-10","lat":35.69769,"lon":139.84254},{"name":"砂町クラブ","province":"東京都","city":"江東区","address":"江東区北砂4-11-22","lat":35.67882,"lon":139.82986},{"name":"ロゴス点字図書館","province":"東京都","city":"江東区","address":"江東区潮見2-10-10日本カトリック会館1階","lat":35.6567,"lon":139.81723},{"name":"江東区社会福祉協議会","province":"東京都","city":"江東区","address":"江東区東陽6-2-17高齢者総合福祉センター2階","lat":35.67411,"lon":139.81239},{"name":"さくら第２亀戸ハウス","province":"東京都","city":"江東区","address":"江東区亀戸9-18-10","lat":35.69769,"lon":139.84255},{"name":"東京辰巳国際水泳場","province":"東京都","city":"江東区","address":"東京都江東区","lat":35.67307835,"lon":139.8169681},{"name":"有明テニスの森公園有明コロシアム","province":"東京都","city":"江東区","address":"東京都江東区","lat":35.67307835,"lon":139.8169681},{"name":"有明テニスの森公園クラブハウスほか附属施設等14件","province":"東京都","city":"江東区","address":"東京都江東区","lat":35.67307835,"lon":139.8169681},{"name":"若洲海浜公園ヨット訓練所艇庫ほか2件","province":"東京都","city":"江東区","address":"東京都江東区","lat":35.67307835,"lon":139.8169681},{"name":"有明テニスの森公園駐車場","province":"東京都","city":"江東区","address":"東京都江東区","lat":35.67307835,"lon":139.8169681},{"name":"有明テニスの森公園砂入り人工芝（テニスコート）","province":"東京都","city":"江東区","address":"東京都江東区","lat":35.67307835,"lon":139.8169681},{"name":"若洲海浜公園ヨット訓練所ボートヤード","province":"東京都","city":"江東区","address":"東京都江東区","lat":35.67307835,"lon":139.8169681},{"name":"若洲海浜公園ヨット訓練所浮桟橋","province":"東京都","city":"江東区","address":"東京都江東区","lat":35.67307835,"lon":139.8169681},{"name":"介護老人保健施設キーストーン","province":"東京都","city":"江東区","address":"江東区亀戸3-36-1","lat":35.707275,"lon":139.819328},{"name":"江東区こども発達センター","province":"東京都","city":"江東区","address":"江東区塩浜2-5-20","lat":35.661932,"lon":139.805383},{"name":"東京都立東部療育センター","province":"東京都","city":"江東区","address":"江東区新砂3-3-25","lat":35.663819,"lon":139.833178},{"name":"ロゴス点字図書館","province":"東京都","city":"江東区","address":"江東区潮見二丁目10番10号日本カトリック会館1階","lat":35.656691,"lon":139.816721},{"name":"新幸荘","province":"東京都","city":"江東区","address":"東京都江東区","lat":35.67307835,"lon":139.8169681},{"name":"福住荘","province":"東京都","city":"江東区","address":"江東区福住1-14-10","lat":35.674944,"lon":139.793957},{"name":"さくら亀戸ハウス","province":"東京都","city":"江東区","address":"江東区亀戸4-33-5","lat":35.703072,"lon":139.827531},{"name":"さくら第３亀戸ハウス","province":"東京都","city":"江東区","address":"江東区亀戸7-24-1","lat":35.699556,"lon":139.836818},{"name":"さくら第２亀戸ハウス","province":"東京都","city":"江東区","address":"江東区亀戸9-18-10","lat":35.697784,"lon":139.843076},{"name":"江東荘","province":"東京都","city":"江東区","address":"東京都江東区","lat":35.67307835,"lon":139.8169681},{"name":"砂町クラブ","province":"東京都","city":"江東区","address":"江東区北砂4丁目11-22","lat":35.678392,"lon":139.829844},{"name":"あそか病院","province":"東京都","city":"江東区","address":"江東区住吉1-18-1","lat":35.689859,"lon":139.811861},{"name":"江東区社会福祉協議会","province":"東京都","city":"江東区","address":"江東区東陽6-2-17高齢者総合福祉センター2階","lat":35.674728,"lon":139.812491},{"name":"福住荘","province":"東京都","city":"江東区","address":"江東区福住1-14-10","lat":35.67499,"lon":139.79393},{"name":"さくら亀戸ハウス","province":"東京都","city":"江東区","address":"江東区亀戸4-33-5","lat":35.70295,"lon":139.82738},{"name":"さくら第３亀戸ハウス","province":"東京都","city":"江東区","address":"江東区亀戸7-24-1","lat":35.69941,"lon":139.83678},{"name":"さくら第２亀戸ハウス","province":"東京都","city":"江東区","address":"江東区亀戸9-18-10","lat":35.69769,"lon":139.84254},{"name":"砂町クラブ","province":"東京都","city":"江東区","address":"江東区北砂4-11-22","lat":35.67882,"lon":139.82986},{"name":"ロゴス点字図書館","province":"東京都","city":"江東区","address":"江東区潮見2-10-10日本カトリック会館1階","lat":35.6567,"lon":139.81723},{"name":"江東区社会福祉協議会","province":"東京都","city":"江東区","address":"江東区東陽6-2-17高齢者総合福祉センター2階","lat":35.67411,"lon":139.81239},{"name":"さくら第２亀戸ハウス","province":"東京都","city":"江東区","address":"江東区亀戸9-18-10","lat":35.69769,"lon":139.84255},{"name":"東京辰巳国際水泳場","province":"東京都","city":"江東区","address":"東京都江東区","lat":35.67307835,"lon":139.8169681},{"name":"有明テニスの森公園有明コロシアム","province":"東京都","city":"江東区","address":"東京都江東区","lat":35.67307835,"lon":139.8169681},{"name":"有明テニスの森公園クラブハウスほか附属施設等14件","province":"東京都","city":"江東区","address":"東京都江東区","lat":35.67307835,"lon":139.8169681},{"name":"若洲海浜公園ヨット訓練所艇庫ほか2件","province":"東京都","city":"江東区","address":"東京都江東区","lat":35.67307835,"lon":139.8169681},{"name":"有明テニスの森公園駐車場","province":"東京都","city":"江東区","address":"東京都江東区","lat":35.67307835,"lon":139.8169681},{"name":"有明テニスの森公園砂入り人工芝（テニスコート）","province":"東京都","city":"江東区","address":"東京都江東区","lat":35.67307835,"lon":139.8169681},{"name":"若洲海浜公園ヨット訓練所ボートヤード","province":"東京都","city":"江東区","address":"東京都江東区","lat":35.67307835,"lon":139.8169681},{"name":"若洲海浜公園ヨット訓練所浮桟橋","province":"東京都","city":"江東区","address":"東京都江東区","lat":35.67307835,"lon":139.8169681},{"name":"介護老人保健施設キーストーン","province":"東京都","city":"江東区","address":"江東区亀戸3-36-1","lat":35.707275,"lon":139.819328},{"name":"江東区こども発達センター","province":"東京都","city":"江東区","address":"江東区塩浜2-5-20","lat":35.661932,"lon":139.805383},{"name":"東京都立東部療育センター","province":"東京都","city":"江東区","address":"江東区新砂3-3-25","lat":35.663819,"lon":139.833178},{"name":"ロゴス点字図書館","province":"東京都","city":"江東区","address":"江東区潮見二丁目10番10号日本カトリック会館1階","lat":35.656691,"lon":139.816721},{"name":"新幸荘","province":"東京都","city":"江東区","address":"東京都江東区","lat":35.67307835,"lon":139.8169681},{"name":"福住荘","province":"東京都","city":"江東区","address":"江東区福住1-14-10","lat":35.674944,"lon":139.793957},{"name":"さくら亀戸ハウス","province":"東京都","city":"江東区","address":"江東区亀戸4-33-5","lat":35.703072,"lon":139.827531},{"name":"さくら第３亀戸ハウス","province":"東京都","city":"江東区","address":"江東区亀戸7-24-1","lat":35.699556,"lon":139.836818},{"name":"さくら第２亀戸ハウス","province":"東京都","city":"江東区","address":"江東区亀戸9-18-10","lat":35.697784,"lon":139.843076},{"name":"江東荘","province":"東京都","city":"江東区","address":"東京都江東区","lat":35.67307835,"lon":139.8169681},{"name":"砂町クラブ","province":"東京都","city":"江東区","address":"江東区北砂4丁目11-22","lat":35.678392,"lon":139.829844},{"name":"あそか病院","province":"東京都","city":"江東区","address":"江東区住吉1-18-1","lat":35.689859,"lon":139.811861},{"name":"江東区社会福祉協議会","province":"東京都","city":"江東区","address":"江東区東陽6-2-17高齢者総合福祉センター2階","lat":35.674728,"lon":139.812491},{"name":"福住荘","province":"東京都","city":"江東区","address":"江東区福住1-14-10","lat":35.67499,"lon":139.79393},{"name":"さくら亀戸ハウス","province":"東京都","city":"江東区","address":"江東区亀戸4-33-5","lat":35.70295,"lon":139.82738},{"name":"さくら第３亀戸ハウス","province":"東京都","city":"江東区","address":"江東区亀戸7-24-1","lat":35.69941,"lon":139.83678},{"name":"さくら第２亀戸ハウス","province":"東京都","city":"江東区","address":"江東区亀戸9-18-10","lat":35.69769,"lon":139.84254},{"name":"砂町クラブ","province":"東京都","city":"江東区","address":"江東区北砂4-11-22","lat":35.67882,"lon":139.82986},{"name":"ロゴス点字図書館","province":"東京都","city":"江東区","address":"江東区潮見2-10-10日本カトリック会館1階","lat":35.6567,"lon":139.81723},{"name":"江東区社会福祉協議会","province":"東京都","city":"江東区","address":"江東区東陽6-2-17高齢者総合福祉センター2階","lat":35.67411,"lon":139.81239},{"name":"さくら第２亀戸ハウス","province":"東京都","city":"江東区","address":"江東区亀戸9-18-10","lat":35.69769,"lon":139.84255},{"name":"東京辰巳国際水泳場","province":"東京都","city":"江東区","address":"東京都江東区","lat":35.67307835,"lon":139.8169681},{"name":"有明テニスの森公園有明コロシアム","province":"東京都","city":"江東区","address":"東京都江東区","lat":35.67307835,"lon":139.8169681},{"name":"有明テニスの森公園クラブハウスほか附属施設等14件","province":"東京都","city":"江東区","address":"東京都江東区","lat":35.67307835,"lon":139.8169681},{"name":"若洲海浜公園ヨット訓練所艇庫ほか2件","province":"東京都","city":"江東区","address":"東京都江東区","lat":35.67307835,"lon":139.8169681},{"name":"有明テニスの森公園駐車場","province":"東京都","city":"江東区","address":"東京都江東区","lat":35.67307835,"lon":139.8169681},{"name":"有明テニスの森公園砂入り人工芝（テニスコート）","province":"東京都","city":"江東区","address":"東京都江東区","lat":35.67307835,"lon":139.8169681},{"name":"若洲海浜公園ヨット訓練所ボートヤード","province":"東京都","city":"江東区","address":"東京都江東区","lat":35.67307835,"lon":139.8169681},{"name":"若洲海浜公園ヨット訓練所浮桟橋","province":"東京都","city":"江東区","address":"東京都江東区","lat":35.67307835,"lon":139.8169681},{"name":"介護老人保健施設キーストーン","province":"東京都","city":"江東区","address":"江東区亀戸3-36-1","lat":35.707275,"lon":139.819328},{"name":"江東区こども発達センター","province":"東京都","city":"江東区","address":"江東区塩浜2-5-20","lat":35.661932,"lon":139.805383},{"name":"東京都立東部療育センター","province":"東京都","city":"江東区","address":"江東区新砂3-3-25","lat":35.663819,"lon":139.833178},{"name":"ロゴス点字図書館","province":"東京都","city":"江東区","address":"江東区潮見二丁目10番10号日本カトリック会館1階","lat":35.656691,"lon":139.816721},{"name":"新幸荘","province":"東京都","city":"江東区","address":"東京都江東区","lat":35.67307835,"lon":139.8169681},{"name":"福住荘","province":"東京都","city":"江東区","address":"江東区福住1-14-10","lat":35.674944,"lon":139.793957},{"name":"さくら亀戸ハウス","province":"東京都","city":"江東区","address":"江東区亀戸4-33-5","lat":35.703072,"lon":139.827531},{"name":"さくら第３亀戸ハウス","province":"東京都","city":"江東区","address":"江東区亀戸7-24-1","lat":35.699556,"lon":139.836818},{"name":"さくら第２亀戸ハウス","province":"東京都","city":"江東区","address":"江東区亀戸9-18-10","lat":35.697784,"lon":139.843076},{"name":"江東荘","province":"東京都","city":"江東区","address":"東京都江東区","lat":35.67307835,"lon":139.8169681},{"name":"砂町クラブ","province":"東京都","city":"江東区","address":"江東区北砂4丁目11-22","lat":35.678392,"lon":139.829844},{"name":"あそか病院","province":"東京都","city":"江東区","address":"江東区住吉1-18-1","lat":35.689859,"lon":139.811861},{"name":"江東区社会福祉協議会","province":"東京都","city":"江東区","address":"江東区東陽6-2-17高齢者総合福祉センター2階","lat":35.674728,"lon":139.812491},{"name":"福住荘","province":"東京都","city":"江東区","address":"江東区福住1-14-10","lat":35.67499,"lon":139.79393},{"name":"さくら亀戸ハウス","province":"東京都","city":"江東区","address":"江東区亀戸4-33-5","lat":35.70295,"lon":139.82738},{"name":"さくら第３亀戸ハウス","province":"東京都","city":"江東区","address":"江東区亀戸7-24-1","lat":35.69941,"lon":139.83678},{"name":"さくら第２亀戸ハウス","province":"東京都","city":"江東区","address":"江東区亀戸9-18-10","lat":35.69769,"lon":139.84254},{"name":"砂町クラブ","province":"東京都","city":"江東区","address":"江東区北砂4-11-22","lat":35.67882,"lon":139.82986},{"name":"ロゴス点字図書館","province":"東京都","city":"江東区","address":"江東区潮見2-10-10日本カトリック会館1階","lat":35.6567,"lon":139.81723},{"name":"江東区社会福祉協議会","province":"東京都","city":"江東区","address":"江東区東陽6-2-17高齢者総合福祉センター2階","lat":35.67411,"lon":139.81239},{"name":"さくら第２亀戸ハウス","province":"東京都","city":"江東区","address":"江東区亀戸9-18-10","lat":35.69769,"lon":139.84255},{"name":"東京辰巳国際水泳場","province":"東京都","city":"江東区","address":"東京都江東区","lat":35.67307835,"lon":139.8169681},{"name":"有明テニスの森公園有明コロシアム","province":"東京都","city":"江東区","address":"東京都江東区","lat":35.67307835,"lon":139.8169681},{"name":"有明テニスの森公園クラブハウスほか附属施設等14件","province":"東京都","city":"江東区","address":"東京都江東区","lat":35.67307835,"lon":139.8169681},{"name":"若洲海浜公園ヨット訓練所艇庫ほか2件","province":"東京都","city":"江東区","address":"東京都江東区","lat":35.67307835,"lon":139.8169681},{"name":"有明テニスの森公園駐車場","province":"東京都","city":"江東区","address":"東京都江東区","lat":35.67307835,"lon":139.8169681},{"name":"有明テニスの森公園砂入り人工芝（テニスコート）","province":"東京都","city":"江東区","address":"東京都江東区","lat":35.67307835,"lon":139.8169681},{"name":"若洲海浜公園ヨット訓練所ボートヤード","province":"東京都","city":"江東区","address":"東京都江東区","lat":35.67307835,"lon":139.8169681},{"name":"若洲海浜公園ヨット訓練所浮桟橋","province":"東京都","city":"江東区","address":"東京都江東区","lat":35.67307835,"lon":139.8169681},{"name":"介護老人保健施設キーストーン","province":"東京都","city":"江東区","address":"江東区亀戸3-36-1","lat":35.707275,"lon":139.819328},{"name":"江東区こども発達センター","province":"東京都","city":"江東区","address":"江東区塩浜2-5-20","lat":35.661932,"lon":139.805383},{"name":"東京都立東部療育センター","province":"東京都","city":"江東区","address":"江東区新砂3-3-25","lat":35.663819,"lon":139.833178},{"name":"ロゴス点字図書館","province":"東京都","city":"江東区","address":"江東区潮見二丁目10番10号日本カトリック会館1階","lat":35.656691,"lon":139.816721},{"name":"新幸荘","province":"東京都","city":"江東区","address":"東京都江東区","lat":35.67307835,"lon":139.8169681},{"name":"福住荘","province":"東京都","city":"江東区","address":"江東区福住1-14-10","lat":35.674944,"lon":139.793957},{"name":"さくら亀戸ハウス","province":"東京都","city":"江東区","address":"江東区亀戸4-33-5","lat":35.703072,"lon":139.827531},{"name":"さくら第３亀戸ハウス","province":"東京都","city":"江東区","address":"江東区亀戸7-24-1","lat":35.699556,"lon":139.836818},{"name":"さくら第２亀戸ハウス","province":"東京都","city":"江東区","address":"江東区亀戸9-18-10","lat":35.697784,"lon":139.843076},{"name":"江東荘","province":"東京都","city":"江東区","address":"東京都江東区","lat":35.67307835,"lon":139.8169681},{"name":"砂町クラブ","province":"東京都","city":"江東区","address":"江東区北砂4丁目11-22","lat":35.678392,"lon":139.829844},{"name":"あそか病院","province":"東京都","city":"江東区","address":"江東区住吉1-18-1","lat":35.689859,"lon":139.811861},{"name":"江東区社会福祉協議会","province":"東京都","city":"江東区","address":"江東区東陽6-2-17高齢者総合福祉センター2階","lat":35.674728,"lon":139.812491},{"name":"福住荘","province":"東京都","city":"江東区","address":"江東区福住1-14-10","lat":35.67499,"lon":139.79393},{"name":"さくら亀戸ハウス","province":"東京都","city":"江東区","address":"江東区亀戸4-33-5","lat":35.70295,"lon":139.82738},{"name":"さくら第３亀戸ハウス","province":"東京都","city":"江東区","address":"江東区亀戸7-24-1","lat":35.69941,"lon":139.83678},{"name":"さくら第２亀戸ハウス","province":"東京都","city":"江東区","address":"江東区亀戸9-18-10","lat":35.69769,"lon":139.84254},{"name":"砂町クラブ","province":"東京都","city":"江東区","address":"江東区北砂4-11-22","lat":35.67882,"lon":139.82986},{"name":"ロゴス点字図書館","province":"東京都","city":"江東区","address":"江東区潮見2-10-10日本カトリック会館1階","lat":35.6567,"lon":139.81723},{"name":"江東区社会福祉協議会","province":"東京都","city":"江東区","address":"江東区東陽6-2-17高齢者総合福祉センター2階","lat":35.67411,"lon":139.81239},{"name":"さくら第２亀戸ハウス","province":"東京都","city":"江東区","address":"江東区亀戸9-18-10","lat":35.69769,"lon":139.84255},{"name":"東京辰巳国際水泳場","province":"東京都","city":"江東区","address":"東京都江東区","lat":35.67307835,"lon":139.8169681},{"name":"有明テニスの森公園有明コロシアム","province":"東京都","city":"江東区","address":"東京都江東区","lat":35.67307835,"lon":139.8169681},{"name":"有明テニスの森公園クラブハウスほか附属施設等14件","province":"東京都","city":"江東区","address":"東京都江東区","lat":35.67307835,"lon":139.8169681},{"name":"若洲海浜公園ヨット訓練所艇庫ほか2件","province":"東京都","city":"江東区","address":"東京都江東区","lat":35.67307835,"lon":139.8169681},{"name":"有明テニスの森公園駐車場","province":"東京都","city":"江東区","address":"東京都江東区","lat":35.67307835,"lon":139.8169681},{"name":"有明テニスの森公園砂入り人工芝（テニスコート）","province":"東京都","city":"江東区","address":"東京都江東区","lat":35.67307835,"lon":139.8169681},{"name":"若洲海浜公園ヨット訓練所ボートヤード","province":"東京都","city":"江東区","address":"東京都江東区","lat":35.67307835,"lon":139.8169681},{"name":"若洲海浜公園ヨット訓練所浮桟橋","province":"東京都","city":"江東区","address":"東京都江東区","lat":35.67307835,"lon":139.8169681},{"name":"介護老人保健施設キーストーン","province":"東京都","city":"江東区","address":"江東区亀戸3-36-1","lat":35.707275,"lon":139.819328},{"name":"江東区こども発達センター","province":"東京都","city":"江東区","address":"江東区塩浜2-5-20","lat":35.661932,"lon":139.805383},{"name":"東京都立東部療育センター","province":"東京都","city":"江東区","address":"江東区新砂3-3-25","lat":35.663819,"lon":139.833178},{"name":"ロゴス点字図書館","province":"東京都","city":"江東区","address":"江東区潮見二丁目10番10号日本カトリック会館1階","lat":35.656691,"lon":139.816721},{"name":"新幸荘","province":"東京都","city":"江東区","address":"東京都江東区","lat":35.67307835,"lon":139.8169681},{"name":"福住荘","province":"東京都","city":"江東区","address":"江東区福住1-14-10","lat":35.674944,"lon":139.793957},{"name":"さくら亀戸ハウス","province":"東京都","city":"江東区","address":"江東区亀戸4-33-5","lat":35.703072,"lon":139.827531},{"name":"さくら第３亀戸ハウス","province":"東京都","city":"江東区","address":"江東区亀戸7-24-1","lat":35.699556,"lon":139.836818},{"name":"さくら第２亀戸ハウス","province":"東京都","city":"江東区","address":"江東区亀戸9-18-10","lat":35.697784,"lon":139.843076},{"name":"江東荘","province":"東京都","city":"江東区","address":"東京都江東区","lat":35.67307835,"lon":139.8169681},{"name":"砂町クラブ","province":"東京都","city":"江東区","address":"江東区北砂4丁目11-22","lat":35.678392,"lon":139.829844},{"name":"あそか病院","province":"東京都","city":"江東区","address":"江東区住吉1-18-1","lat":35.689859,"lon":139.811861},{"name":"江東区社会福祉協議会","province":"東京都","city":"江東区","address":"江東区東陽6-2-17高齢者総合福祉センター2階","lat":35.674728,"lon":139.812491},{"name":"福住荘","province":"東京都","city":"江東区","address":"江東区福住1-14-10","lat":35.67499,"lon":139.79393},{"name":"さくら亀戸ハウス","province":"東京都","city":"江東区","address":"江東区亀戸4-33-5","lat":35.70295,"lon":139.82738},{"name":"さくら第３亀戸ハウス","province":"東京都","city":"江東区","address":"江東区亀戸7-24-1","lat":35.69941,"lon":139.83678},{"name":"さくら第２亀戸ハウス","province":"東京都","city":"江東区","address":"江東区亀戸9-18-10","lat":35.69769,"lon":139.84254},{"name":"砂町クラブ","province":"東京都","city":"江東区","address":"江東区北砂4-11-22","lat":35.67882,"lon":139.82986},{"name":"ロゴス点字図書館","province":"東京都","city":"江東区","address":"江東区潮見2-10-10日本カトリック会館1階","lat":35.6567,"lon":139.81723},{"name":"江東区社会福祉協議会","province":"東京都","city":"江東区","address":"江東区東陽6-2-17高齢者総合福祉センター2階","lat":35.67411,"lon":139.81239},{"name":"さくら第２亀戸ハウス","province":"東京都","city":"江東区","address":"江東区亀戸9-18-10","lat":35.69769,"lon":139.84255},{"name":"東京辰巳国際水泳場","province":"東京都","city":"江東区","address":"東京都江東区","lat":35.67307835,"lon":139.8169681},{"name":"有明テニスの森公園有明コロシアム","province":"東京都","city":"江東区","address":"東京都江東区","lat":35.67307835,"lon":139.8169681},{"name":"有明テニスの森公園クラブハウスほか附属施設等14件","province":"東京都","city":"江東区","address":"東京都江東区","lat":35.67307835,"lon":139.8169681},{"name":"若洲海浜公園ヨット訓練所艇庫ほか2件","province":"東京都","city":"江東区","address":"東京都江東区","lat":35.67307835,"lon":139.8169681},{"name":"有明テニスの森公園駐車場","province":"東京都","city":"江東区","address":"東京都江東区","lat":35.67307835,"lon":139.8169681},{"name":"有明テニスの森公園砂入り人工芝（テニスコート）","province":"東京都","city":"江東区","address":"東京都江東区","lat":35.67307835,"lon":139.8169681},{"name":"若洲海浜公園ヨット訓練所ボートヤード","province":"東京都","city":"江東区","address":"東京都江東区","lat":35.67307835,"lon":139.8169681},{"name":"若洲海浜公園ヨット訓練所浮桟橋","province":"東京都","city":"江東区","address":"東京都江東区","lat":35.67307835,"lon":139.8169681},{"name":"介護老人保健施設キーストーン","province":"東京都","city":"江東区","address":"江東区亀戸3-36-1","lat":35.707275,"lon":139.819328},{"name":"江東区こども発達センター","province":"東京都","city":"江東区","address":"江東区塩浜2-5-20","lat":35.661932,"lon":139.805383},{"name":"東京都立東部療育センター","province":"東京都","city":"江東区","address":"江東区新砂3-3-25","lat":35.663819,"lon":139.833178},{"name":"ロゴス点字図書館","province":"東京都","city":"江東区","address":"江東区潮見二丁目10番10号日本カトリック会館1階","lat":35.656691,"lon":139.816721},{"name":"新幸荘","province":"東京都","city":"江東区","address":"東京都江東区","lat":35.67307835,"lon":139.8169681},{"name":"福住荘","province":"東京都","city":"江東区","address":"江東区福住1-14-10","lat":35.674944,"lon":139.793957},{"name":"さくら亀戸ハウス","province":"東京都","city":"江東区","address":"江東区亀戸4-33-5","lat":35.703072,"lon":139.827531},{"name":"さくら第３亀戸ハウス","province":"東京都","city":"江東区","address":"江東区亀戸7-24-1","lat":35.699556,"lon":139.836818},{"name":"さくら第２亀戸ハウス","province":"東京都","city":"江東区","address":"江東区亀戸9-18-10","lat":35.697784,"lon":139.843076},{"name":"江東荘","province":"東京都","city":"江東区","address":"東京都江東区","lat":35.67307835,"lon":139.8169681},{"name":"砂町クラブ","province":"東京都","city":"江東区","address":"江東区北砂4丁目11-22","lat":35.678392,"lon":139.829844},{"name":"あそか病院","province":"東京都","city":"江東区","address":"江東区住吉1-18-1","lat":35.689859,"lon":139.811861},{"name":"江東区社会福祉協議会","province":"東京都","city":"江東区","address":"江東区東陽6-2-17高齢者総合福祉センター2階","lat":35.674728,"lon":139.812491},{"name":"福住荘","province":"東京都","city":"江東区","address":"江東区福住1-14-10","lat":35.67499,"lon":139.79393},{"name":"さくら亀戸ハウス","province":"東京都","city":"江東区","address":"江東区亀戸4-33-5","lat":35.70295,"lon":139.82738},{"name":"さくら第３亀戸ハウス","province":"東京都","city":"江東区","address":"江東区亀戸7-24-1","lat":35.69941,"lon":139.83678},{"name":"さくら第２亀戸ハウス","province":"東京都","city":"江東区","address":"江東区亀戸9-18-10","lat":35.69769,"lon":139.84254},{"name":"砂町クラブ","province":"東京都","city":"江東区","address":"江東区北砂4-11-22","lat":35.67882,"lon":139.82986},{"name":"ロゴス点字図書館","province":"東京都","city":"江東区","address":"江東区潮見2-10-10日本カトリック会館1階","lat":35.6567,"lon":139.81723},{"name":"江東区社会福祉協議会","province":"東京都","city":"江東区","address":"江東区東陽6-2-17高齢者総合福祉センター2階","lat":35.67411,"lon":139.81239},{"name":"さくら第２亀戸ハウス","province":"東京都","city":"江東区","address":"江東区亀戸9-18-10","lat":35.69769,"lon":139.84255},{"name":"東京辰巳国際水泳場","province":"東京都","city":"江東区","address":"東京都江東区","lat":35.67307835,"lon":139.8169681},{"name":"有明テニスの森公園有明コロシアム","province":"東京都","city":"江東区","address":"東京都江東区","lat":35.67307835,"lon":139.8169681},{"name":"有明テニスの森公園クラブハウスほか附属施設等14件","province":"東京都","city":"江東区","address":"東京都江東区","lat":35.67307835,"lon":139.8169681},{"name":"若洲海浜公園ヨット訓練所艇庫ほか2件","province":"東京都","city":"江東区","address":"東京都江東区","lat":35.67307835,"lon":139.8169681},{"name":"有明テニスの森公園駐車場","province":"東京都","city":"江東区","address":"東京都江東区","lat":35.67307835,"lon":139.8169681},{"name":"有明テニスの森公園砂入り人工芝（テニスコート）","province":"東京都","city":"江東区","address":"東京都江東区","lat":35.67307835,"lon":139.8169681},{"name":"若洲海浜公園ヨット訓練所ボートヤード","province":"東京都","city":"江東区","address":"東京都江東区","lat":35.67307835,"lon":139.8169681},{"name":"若洲海浜公園ヨット訓練所浮桟橋","province":"東京都","city":"江東区","address":"東京都江東区","lat":35.67307835,"lon":139.8169681},{"name":"介護老人保健施設キーストーン","province":"東京都","city":"江東区","address":"江東区亀戸3-36-1","lat":35.707275,"lon":139.819328}]}