{"keyword":"戸数","data":[{"name":"江東区社会福祉協議会","province":"東京都","city":"江東区","address":"江東区東陽6-2-17高齢者総合福祉センター2階","lat":35.674728,"lon":139.812491},{"name":"江東区","province":"東京都","city":"江東区","address":"江東区東陽4-11-28","lat":35.6728103,"lon":139.8172242},{"name":"（有）大坪葬儀社","province":"東京都","city":"江東区","address":"東京都江東区亀戸4丁目34-2","lat":35.7025079,"lon":139.82707782},{"name":"（株）大平セレモニーハート","province":"東京都","city":"江東区","address":"東京都江東区大島1丁目21-6","lat":35.68671565,"lon":139.82503662},{"name":"（株）落合商店","province":"東京都","city":"江東区","address":"東京都江東区毛利1丁目18-9","lat":35.69188138,"lon":139.81523806},{"name":"（有）木村商店","province":"東京都","city":"江東区","address":"東京都江東区白河1丁目1-3","lat":35.68109392,"lon":139.79910738},{"name":"（有）かねなお鈴木商店","province":"東京都","city":"江東区","address":"東京都江東区北砂1丁目14-7","lat":35.67947212,"lon":139.8239007},{"name":"亀戸駅前式場　北辰舎","province":"東京都","city":"江東区","address":"東京都江東区亀戸6丁目28-4","lat":35.69640888,"lon":139.82710552},{"name":"丸本渡辺葬儀社","province":"東京都","city":"江東区","address":"東京都江東区扇橋2丁目12-5","lat":35.68378808,"lon":139.81589637},{"name":"（有）淀野商店","province":"東京都","city":"江東区","address":"東京都江東区白河1丁目1-11","lat":35.68080505,"lon":139.7993684},{"name":"江東区社会福祉協議会","province":"東京都","city":"江東区","address":"江東区東陽6-2-17高齢者総合福祉センター2階","lat":35.67411,"lon":139.81239},{"name":"江東病院","province":"東京都","city":"江東区","address":"東京都江東区大島6丁目8-5","lat":35.69029344,"lon":139.83408508},{"name":"あそか病院","province":"東京都","city":"江東区","address":"東京都江東区住吉1丁目18-1","lat":35.68985944,"lon":139.81186088},{"name":"順天堂大学医学部附属順天堂江東高齢者医療センター","province":"東京都","city":"江東区","address":"東京都江東区新砂3丁目3-20","lat":35.66528245,"lon":139.8334721},{"name":"がん研究会有明病院","province":"東京都","city":"江東区","address":"東京都江東区有明3丁目8-31","lat":35.63434076,"lon":139.7949906},{"name":"亀戸給水所","province":"東京都","city":"江東区","address":"東京都江東区亀戸2丁目6-50","lat":35.70101603,"lon":139.82130935},{"name":"豊住給水所","province":"東京都","city":"江東区","address":"東京都江東区東陽6丁目1-8","lat":35.67503913,"lon":139.81095502},{"name":"江東給水所","province":"東京都","city":"江東区","address":"東京都江東区新砂3丁目6-17","lat":35.66542149,"lon":139.84132701},{"name":"有明給水所","province":"東京都","city":"江東区","address":"東京都江東区有明3丁目1-8","lat":35.63082682,"lon":139.78543859},{"name":"区立南砂三丁目公園","province":"東京都","city":"江東区","address":"東京都江東区南砂3丁目14-21","lat":35.66960695,"lon":139.83337197},{"name":"都立辰巳の森海浜公園","province":"東京都","city":"江東区","address":"東京都江東区辰巳2丁目1","lat":35.64899491,"lon":139.81239389},{"name":"砂町排水機場","province":"東京都","city":"江東区","address":"東京都江東区新砂3丁目8","lat":35.65323126,"lon":139.84028308},{"name":"あけぼの水門","province":"東京都","city":"江東区","address":"東京都江東区辰巳2丁目8-10","lat":35.64798406,"lon":139.81827674},{"name":"辰巳排水機場","province":"東京都","city":"江東区","address":"東京都江東区辰巳1丁目1-44","lat":35.64585906,"lon":139.80884708},{"name":"東雲水門","province":"東京都","city":"江東区","address":"東京都江東区豊洲5丁目6-5","lat":35.64934172,"lon":139.79785354},{"name":"東雲水門（水防倉庫）","province":"東京都","city":"江東区","address":"東京都江東区東雲1丁目1-19","lat":35.64832243,"lon":139.79913123},{"name":"豊洲水門","province":"東京都","city":"江東区","address":"東京都江東区越中島3丁目1-1","lat":35.66352618,"lon":139.79429253},{"name":"都立木場公園多目的広場","province":"東京都","city":"江東区","address":"東京都江東区平野4丁目6-1","lat":35.67676666,"lon":139.80756394},{"name":"江東区立若洲公園多目的広場","province":"東京都","city":"江東区","address":"東京都江東区若洲3丁目2-1","lat":35.61872983,"lon":139.83362144},{"name":"新砂運動場","province":"東京都","city":"江東区","address":"東京都江東区新砂3丁目9-1","lat":35.65732785,"lon":139.83512778},{"name":"都立亀戸中央公園多目的球技広場","province":"東京都","city":"江東区","address":"東京都江東区亀戸9丁目37","lat":35.70004774,"lon":139.83837624},{"name":"あそか病院ヘリポート","province":"東京都","city":"江東区","address":"東京都江東区住吉1丁目18-1","lat":35.68985944,"lon":139.81186088},{"name":"都立夢の島陸上競技場","province":"東京都","city":"江東区","address":"東京都江東区夢の島3丁目","lat":35.65190061,"lon":139.83152826},{"name":"東京海洋大学越中島キャンパス第２グラウンド","province":"東京都","city":"江東区","address":"東京都江東区越中島2丁目1-6","lat":35.66726738,"lon":139.79215102},{"name":"有明の丘防災拠点","province":"東京都","city":"江東区","address":"東京都江東区有明","lat":35.63803447,"lon":139.78857145},{"name":"都立猿江恩賜公園","province":"東京都","city":"江東区","address":"東京都江東区住吉2丁目","lat":35.6890929,"lon":139.81465768},{"name":"がん研究会有明病院ヘリポート","province":"東京都","city":"江東区","address":"東京都江東区有明3丁目8-31","lat":35.63434076,"lon":139.7949906},{"name":"江東区立潮見運動公園","province":"東京都","city":"江東区","address":"東京都江東区潮見1丁目","lat":35.65755231,"lon":139.81360185},{"name":"都立有明テニスの森公園","province":"東京都","city":"江東区","address":"東京都江東区有明2丁目","lat":35.64007061,"lon":139.79611521},{"name":"都立シンボルプロムナード公園","province":"東京都","city":"江東区","address":"東京都江東区青海1丁目","lat":35.62481633,"lon":139.77819791},{"name":"都立大島小松川公園少年運動場","province":"東京都","city":"江東区","address":"東京都江東区大島9丁目9","lat":35.68959623,"lon":139.84689815},{"name":"Ｂｕｍｂ東京スポーツ文化館","province":"東京都","city":"江東区","address":"江東区夢の島2-1-3","lat":35.64877474,"lon":139.8347164},{"name":"都立シンボルプロムナード公園","province":"東京都","city":"江東区","address":"東京都江東区青海1丁目","lat":35.62481633,"lon":139.77819791},{"name":"江東区選挙管理委員会","province":"東京都","city":"江東区","address":"江東区東陽4-11-28","lat":35.672802,"lon":139.81734},{"name":"東京辰巳国際水泳場","province":"東京都","city":"江東区","address":"東京都江東区辰巳2-8-10","lat":35.647079,"lon":139.818619},{"name":"有明テニスの森公園テニス施設","province":"東京都","city":"江東区","address":"東京都江東区有明2-2-22","lat":35.636097,"lon":139.787003},{"name":"若洲海浜公園ヨット訓練所","province":"東京都","city":"江東区","address":"東京都江東区若洲3-1-1","lat":35.614788,"lon":139.834015},{"name":"東京辰巳国際水泳場","province":"東京都","city":"江東区","address":"東京都江東区","lat":35.67307835,"lon":139.8169681},{"name":"有明テニスの森公園有明コロシアム","province":"東京都","city":"江東区","address":"東京都江東区","lat":35.67307835,"lon":139.8169681},{"name":"有明テニスの森公園クラブハウスほか附属施設等14件","province":"東京都","city":"江東区","address":"東京都江東区","lat":35.67307835,"lon":139.8169681},{"name":"若洲海浜公園ヨット訓練所艇庫ほか2件","province":"東京都","city":"江東区","address":"東京都江東区","lat":35.67307835,"lon":139.8169681},{"name":"有明テニスの森公園駐車場","province":"東京都","city":"江東区","address":"東京都江東区","lat":35.67307835,"lon":139.8169681},{"name":"有明テニスの森公園砂入り人工芝（テニスコート）","province":"東京都","city":"江東区","address":"東京都江東区","lat":35.67307835,"lon":139.8169681},{"name":"若洲海浜公園ヨット訓練所ボートヤード","province":"東京都","city":"江東区","address":"東京都江東区","lat":35.67307835,"lon":139.8169681},{"name":"若洲海浜公園ヨット訓練所浮桟橋","province":"東京都","city":"江東区","address":"東京都江東区","lat":35.67307835,"lon":139.8169681},{"name":"江東都税事務所","province":"東京都","city":"江東区","address":"東京都江東区大島3丁目1-3","lat":35.68999589,"lon":139.82765002},{"name":"有明テニスの森公園テニス施設","province":"東京都","city":"江東区","address":"東京都江東区有明2丁目2-22","lat":35.63509873,"lon":139.78906597},{"name":"東京辰巳国際水泳場","province":"東京都","city":"江東区","address":"東京都江東区辰巳2丁目8-10","lat":35.64798406,"lon":139.81827674},{"name":"若洲海浜公園ヨット訓練所","province":"東京都","city":"江東区","address":"東京都江東区若洲3丁目1-1","lat":35.63067845,"lon":139.83766495},{"name":"城東職業能力開発センター","province":"東京都","city":"江東区","address":"東京都江東区亀戸9丁目6-27","lat":35.69624265,"lon":139.84205105},{"name":"東京国際展示場","province":"東京都","city":"江東区","address":"東京都江東区有明3丁目11-1","lat":35.62996069,"lon":139.79388808},{"name":"タイム２４ビル","province":"東京都","city":"江東区","address":"東京都江東区青海2丁目4-32","lat":35.61776181,"lon":139.77710127},{"name":"ＴＦＴビル","province":"東京都","city":"江東区","address":"東京都江東区有明3丁目6-11","lat":35.63080208,"lon":139.79057993},{"name":"有明パークビル","province":"東京都","city":"江東区","address":"東京都江東区有明3丁目7-11","lat":35.63258255,"lon":139.79307136},{"name":"産業技術研究センター本部","province":"東京都","city":"江東区","address":"東京都江東区青海2丁目4-10","lat":35.61877566,"lon":139.77967879},{"name":"深川高等学校","province":"東京都","city":"江東区","address":"東京都江東区東陽5丁目32-19","lat":35.6710869,"lon":139.81560148},{"name":"墨田工業高等学校","province":"東京都","city":"江東区","address":"東京都江東区森下5丁目1-7","lat":35.68533784,"lon":139.80693692},{"name":"大江戸高等学校","province":"東京都","city":"江東区","address":"東京都江東区千石3丁目2-11","lat":35.67943313,"lon":139.81809872},{"name":"城東高等学校","province":"東京都","city":"江東区","address":"東京都江東区大島3丁目22-1","lat":35.69293172,"lon":139.82895524},{"name":"東高等学校","province":"東京都","city":"江東区","address":"東京都江東区東砂7丁目19-24","lat":35.67371206,"lon":139.83720488},{"name":"科学技術高等学校","province":"東京都","city":"江東区","address":"東京都江東区大島1丁目2-31","lat":35.68701826,"lon":139.82136772},{"name":"江東商業高等学校","province":"東京都","city":"江東区","address":"東京都江東区亀戸4丁目50-1","lat":35.70251386,"lon":139.83147424},{"name":"第三商業高等学校","province":"東京都","city":"江東区","address":"東京都江東区越中島3丁目3-1","lat":35.66311794,"lon":139.79586185},{"name":"第五建設事務所（仮庁舎）","province":"東京都","city":"江東区","address":"江東区亀戸2-10-7","lat":35.70063,"lon":139.823},{"name":"東東京管理局木場分室","province":"東京都","city":"江東区","address":"江東区木場6-1-1","lat":35.66522,"lon":139.8059},{"name":"（株）ゆりかもめ","province":"東京都","city":"江東区","address":"江東区有明3-13-1","lat":35.626,"lon":139.7966},{"name":"東京臨海高速鉄道（株）","province":"東京都","city":"江東区","address":"江東区青海1-2-1","lat":35.62741,"lon":139.7786},{"name":"東京港管理事務所ヘリポート係","province":"東京都","city":"江東区","address":"江東区新木場4-7-28","lat":35.63474,"lon":139.8382},{"name":"高潮対策センター","province":"東京都","city":"江東区","address":"江東区辰巳1-1-33","lat":35.64805,"lon":139.8078},{"name":"東京港湾事務所","province":"東京都","city":"江東区","address":"江東区新木場1-6-25","lat":35.645,"lon":139.828},{"name":"江東治水事務所（仮庁舎）※都建設事務所に含む","province":"東京都","city":"江東区","address":"江東区亀戸2-10-7","lat":35.70063,"lon":139.823},{"name":"水門管理センター","province":"東京都","city":"江東区","address":"江東区清澄1-2-37","lat":35.6804,"lon":139.7926},{"name":"都営大江戸線清澄白河駅内備蓄倉庫","province":"東京都","city":"江東区","address":"江東区白河1-7-14","lat":35.68292,"lon":139.7989},{"name":"江東区","province":"東京都","city":"江東区","address":"江東区大島4-4-3","lat":35.68874,"lon":139.8273},{"name":"（株）メディセオ新東京ビル","province":"東京都","city":"江東区","address":"江東区佐賀2-8-20","lat":35.67896,"lon":139.7919},{"name":"東日本電信電話（株）城東ビル","province":"東京都","city":"江東区","address":"江東区大島3-5-2","lat":35.69309,"lon":139.8267},{"name":"ソフトバンクモバイル（株）新砂ビル","province":"東京都","city":"江東区","address":"江東区新砂3-4-7","lat":35.66475,"lon":139.8366},{"name":"ソフトバンクテレコム（株）東京イーストビル","province":"東京都","city":"江東区","address":"江東区新砂3-4-7","lat":35.66475,"lon":139.8366},{"name":"ソフトバンクテレコム（株）東京イースト新ビル","province":"東京都","city":"江東区","address":"江東区新砂3-4-12","lat":35.66683,"lon":139.8363},{"name":"破砕ごみ処理施設","province":"東京都","city":"江東区","address":"江東区青海3丁目地先","lat":35.608994,"lon":139.784851},{"name":"江東区社会福祉協議会","province":"東京都","city":"江東区","address":"江東区東陽6-2-17高齢者総合福祉センター2階","lat":35.674728,"lon":139.812491},{"name":"江東区社会福祉協議会","province":"東京都","city":"江東区","address":"江東区東陽6-2-17高齢者総合福祉センター2階","lat":35.67411,"lon":139.81239},{"name":"江東病院","province":"東京都","city":"江東区","address":"東京都江東区大島6丁目8-5","lat":35.69029344,"lon":139.83408508},{"name":"あそか病院","province":"東京都","city":"江東区","address":"東京都江東区住吉1丁目18-1","lat":35.68985944,"lon":139.81186088},{"name":"順天堂大学医学部附属順天堂江東高齢者医療センター","province":"東京都","city":"江東区","address":"東京都江東区新砂3丁目3-20","lat":35.66528245,"lon":139.8334721},{"name":"がん研究会有明病院","province":"東京都","city":"江東区","address":"東京都江東区有明3丁目8-31","lat":35.63434076,"lon":139.7949906},{"name":"亀戸給水所","province":"東京都","city":"江東区","address":"東京都江東区亀戸2丁目6-50","lat":35.70101603,"lon":139.82130935},{"name":"豊住給水所","province":"東京都","city":"江東区","address":"東京都江東区東陽6丁目1-8","lat":35.67503913,"lon":139.81095502},{"name":"江東給水所","province":"東京都","city":"江東区","address":"東京都江東区新砂3丁目6-17","lat":35.66542149,"lon":139.84132701},{"name":"有明給水所","province":"東京都","city":"江東区","address":"東京都江東区有明3丁目1-8","lat":35.63082682,"lon":139.78543859},{"name":"区立南砂三丁目公園","province":"東京都","city":"江東区","address":"東京都江東区南砂3丁目14-21","lat":35.66960695,"lon":139.83337197},{"name":"都立辰巳の森海浜公園","province":"東京都","city":"江東区","address":"東京都江東区辰巳2丁目1","lat":35.64899491,"lon":139.81239389},{"name":"砂町排水機場","province":"東京都","city":"江東区","address":"東京都江東区新砂3丁目8","lat":35.65323126,"lon":139.84028308},{"name":"あけぼの水門","province":"東京都","city":"江東区","address":"東京都江東区辰巳2丁目8-10","lat":35.64798406,"lon":139.81827674},{"name":"辰巳排水機場","province":"東京都","city":"江東区","address":"東京都江東区辰巳1丁目1-44","lat":35.64585906,"lon":139.80884708},{"name":"東雲水門","province":"東京都","city":"江東区","address":"東京都江東区豊洲5丁目6-5","lat":35.64934172,"lon":139.79785354},{"name":"東雲水門（水防倉庫）","province":"東京都","city":"江東区","address":"東京都江東区東雲1丁目1-19","lat":35.64832243,"lon":139.79913123},{"name":"豊洲水門","province":"東京都","city":"江東区","address":"東京都江東区越中島3丁目1-1","lat":35.66352618,"lon":139.79429253},{"name":"都立木場公園多目的広場","province":"東京都","city":"江東区","address":"東京都江東区平野4丁目6-1","lat":35.67676666,"lon":139.80756394},{"name":"江東区立若洲公園多目的広場","province":"東京都","city":"江東区","address":"東京都江東区若洲3丁目2-1","lat":35.61872983,"lon":139.83362144},{"name":"新砂運動場","province":"東京都","city":"江東区","address":"東京都江東区新砂3丁目9-1","lat":35.65732785,"lon":139.83512778},{"name":"都立亀戸中央公園多目的球技広場","province":"東京都","city":"江東区","address":"東京都江東区亀戸9丁目37","lat":35.70004774,"lon":139.83837624},{"name":"あそか病院ヘリポート","province":"東京都","city":"江東区","address":"東京都江東区住吉1丁目18-1","lat":35.68985944,"lon":139.81186088},{"name":"都立夢の島陸上競技場","province":"東京都","city":"江東区","address":"東京都江東区夢の島3丁目","lat":35.65190061,"lon":139.83152826},{"name":"東京海洋大学越中島キャンパス第２グラウンド","province":"東京都","city":"江東区","address":"東京都江東区越中島2丁目1-6","lat":35.66726738,"lon":139.79215102},{"name":"有明の丘防災拠点","province":"東京都","city":"江東区","address":"東京都江東区有明","lat":35.63803447,"lon":139.78857145},{"name":"都立猿江恩賜公園","province":"東京都","city":"江東区","address":"東京都江東区住吉2丁目","lat":35.6890929,"lon":139.81465768},{"name":"がん研究会有明病院ヘリポート","province":"東京都","city":"江東区","address":"東京都江東区有明3丁目8-31","lat":35.63434076,"lon":139.7949906},{"name":"江東区立潮見運動公園","province":"東京都","city":"江東区","address":"東京都江東区潮見1丁目","lat":35.65755231,"lon":139.81360185},{"name":"都立有明テニスの森公園","province":"東京都","city":"江東区","address":"東京都江東区有明2丁目","lat":35.64007061,"lon":139.79611521},{"name":"都立シンボルプロムナード公園","province":"東京都","city":"江東区","address":"東京都江東区青海1丁目","lat":35.62481633,"lon":139.77819791},{"name":"都立大島小松川公園少年運動場","province":"東京都","city":"江東区","address":"東京都江東区大島9丁目9","lat":35.68959623,"lon":139.84689815},{"name":"Ｂｕｍｂ東京スポーツ文化館","province":"東京都","city":"江東区","address":"江東区夢の島2-1-3","lat":35.64877474,"lon":139.8347164},{"name":"都立シンボルプロムナード公園","province":"東京都","city":"江東区","address":"東京都江東区青海1丁目","lat":35.62481633,"lon":139.77819791},{"name":"東京辰巳国際水泳場","province":"東京都","city":"江東区","address":"東京都江東区辰巳2-8-10","lat":35.647079,"lon":139.818619},{"name":"有明テニスの森公園テニス施設","province":"東京都","city":"江東区","address":"東京都江東区有明2-2-22","lat":35.636097,"lon":139.787003},{"name":"若洲海浜公園ヨット訓練所","province":"東京都","city":"江東区","address":"東京都江東区若洲3-1-1","lat":35.614788,"lon":139.834015},{"name":"江東都税事務所","province":"東京都","city":"江東区","address":"東京都江東区大島3丁目1-3","lat":35.68999589,"lon":139.82765002},{"name":"有明テニスの森公園テニス施設","province":"東京都","city":"江東区","address":"東京都江東区有明2丁目2-22","lat":35.63509873,"lon":139.78906597},{"name":"東京辰巳国際水泳場","province":"東京都","city":"江東区","address":"東京都江東区辰巳2丁目8-10","lat":35.64798406,"lon":139.81827674},{"name":"若洲海浜公園ヨット訓練所","province":"東京都","city":"江東区","address":"東京都江東区若洲3丁目1-1","lat":35.63067845,"lon":139.83766495},{"name":"城東職業能力開発センター","province":"東京都","city":"江東区","address":"東京都江東区亀戸9丁目6-27","lat":35.69624265,"lon":139.84205105},{"name":"東京国際展示場","province":"東京都","city":"江東区","address":"東京都江東区有明3丁目11-1","lat":35.62996069,"lon":139.79388808},{"name":"タイム２４ビル","province":"東京都","city":"江東区","address":"東京都江東区青海2丁目4-32","lat":35.61776181,"lon":139.77710127},{"name":"ＴＦＴビル","province":"東京都","city":"江東区","address":"東京都江東区有明3丁目6-11","lat":35.63080208,"lon":139.79057993},{"name":"有明パークビル","province":"東京都","city":"江東区","address":"東京都江東区有明3丁目7-11","lat":35.63258255,"lon":139.79307136},{"name":"産業技術研究センター本部","province":"東京都","city":"江東区","address":"東京都江東区青海2丁目4-10","lat":35.61877566,"lon":139.77967879},{"name":"深川高等学校","province":"東京都","city":"江東区","address":"東京都江東区東陽5丁目32-19","lat":35.6710869,"lon":139.81560148},{"name":"墨田工業高等学校","province":"東京都","city":"江東区","address":"東京都江東区森下5丁目1-7","lat":35.68533784,"lon":139.80693692},{"name":"大江戸高等学校","province":"東京都","city":"江東区","address":"東京都江東区千石3丁目2-11","lat":35.67943313,"lon":139.81809872},{"name":"城東高等学校","province":"東京都","city":"江東区","address":"東京都江東区大島3丁目22-1","lat":35.69293172,"lon":139.82895524},{"name":"東高等学校","province":"東京都","city":"江東区","address":"東京都江東区東砂7丁目19-24","lat":35.67371206,"lon":139.83720488},{"name":"科学技術高等学校","province":"東京都","city":"江東区","address":"東京都江東区大島1丁目2-31","lat":35.68701826,"lon":139.82136772},{"name":"江東商業高等学校","province":"東京都","city":"江東区","address":"東京都江東区亀戸4丁目50-1","lat":35.70251386,"lon":139.83147424},{"name":"第三商業高等学校","province":"東京都","city":"江東区","address":"東京都江東区越中島3丁目3-1","lat":35.66311794,"lon":139.79586185},{"name":"第五建設事務所（仮庁舎）","province":"東京都","city":"江東区","address":"江東区亀戸2-10-7","lat":35.70063,"lon":139.823},{"name":"東東京管理局木場分室","province":"東京都","city":"江東区","address":"江東区木場6-1-1","lat":35.66522,"lon":139.8059},{"name":"（株）ゆりかもめ","province":"東京都","city":"江東区","address":"江東区有明3-13-1","lat":35.626,"lon":139.7966},{"name":"東京臨海高速鉄道（株）","province":"東京都","city":"江東区","address":"江東区青海1-2-1","lat":35.62741,"lon":139.7786},{"name":"東京港管理事務所ヘリポート係","province":"東京都","city":"江東区","address":"江東区新木場4-7-28","lat":35.63474,"lon":139.8382},{"name":"高潮対策センター","province":"東京都","city":"江東区","address":"江東区辰巳1-1-33","lat":35.64805,"lon":139.8078},{"name":"東京港湾事務所","province":"東京都","city":"江東区","address":"江東区新木場1-6-25","lat":35.645,"lon":139.828},{"name":"江東治水事務所（仮庁舎）※都建設事務所に含む","province":"東京都","city":"江東区","address":"江東区亀戸2-10-7","lat":35.70063,"lon":139.823},{"name":"水門管理センター","province":"東京都","city":"江東区","address":"江東区清澄1-2-37","lat":35.6804,"lon":139.7926},{"name":"都営大江戸線清澄白河駅内備蓄倉庫","province":"東京都","city":"江東区","address":"江東区白河1-7-14","lat":35.68292,"lon":139.7989},{"name":"江東区","province":"東京都","city":"江東区","address":"江東区大島4-4-3","lat":35.68874,"lon":139.8273},{"name":"（株）メディセオ新東京ビル","province":"東京都","city":"江東区","address":"江東区佐賀2-8-20","lat":35.67896,"lon":139.7919},{"name":"東日本電信電話（株）城東ビル","province":"東京都","city":"江東区","address":"江東区大島3-5-2","lat":35.69309,"lon":139.8267},{"name":"ソフトバンクモバイル（株）新砂ビル","province":"東京都","city":"江東区","address":"江東区新砂3-4-7","lat":35.66475,"lon":139.8366},{"name":"ソフトバンクテレコム（株）東京イーストビル","province":"東京都","city":"江東区","address":"江東区新砂3-4-7","lat":35.66475,"lon":139.8366},{"name":"ソフトバンクテレコム（株）東京イースト新ビル","province":"東京都","city":"江東区","address":"江東区新砂3-4-12","lat":35.66683,"lon":139.8363},{"name":"破砕ごみ処理施設","province":"東京都","city":"江東区","address":"江東区青海3丁目地先","lat":35.608994,"lon":139.784851},{"name":"江東病院","province":"東京都","city":"江東区","address":"東京都江東区大島6丁目8-5","lat":35.69029344,"lon":139.83408508},{"name":"あそか病院","province":"東京都","city":"江東区","address":"東京都江東区住吉1丁目18-1","lat":35.68985944,"lon":139.81186088},{"name":"順天堂大学医学部附属順天堂江東高齢者医療センター","province":"東京都","city":"江東区","address":"東京都江東区新砂3丁目3-20","lat":35.66528245,"lon":139.8334721},{"name":"がん研究会有明病院","province":"東京都","city":"江東区","address":"東京都江東区有明3丁目8-31","lat":35.63434076,"lon":139.7949906},{"name":"砂町排水機場","province":"東京都","city":"江東区","address":"東京都江東区新砂3丁目8","lat":35.65323126,"lon":139.84028308},{"name":"あけぼの水門","province":"東京都","city":"江東区","address":"東京都江東区辰巳2丁目8-10","lat":35.64798406,"lon":139.81827674},{"name":"辰巳排水機場","province":"東京都","city":"江東区","address":"東京都江東区辰巳1丁目1-44","lat":35.64585906,"lon":139.80884708},{"name":"東雲水門","province":"東京都","city":"江東区","address":"東京都江東区豊洲5丁目6-5","lat":35.64934172,"lon":139.79785354},{"name":"東雲水門（水防倉庫）","province":"東京都","city":"江東区","address":"東京都江東区東雲1丁目1-19","lat":35.64832243,"lon":139.79913123},{"name":"豊洲水門","province":"東京都","city":"江東区","address":"東京都江東区越中島3丁目1-1","lat":35.66352618,"lon":139.79429253},{"name":"江東都税事務所","province":"東京都","city":"江東区","address":"東京都江東区大島3丁目1-3","lat":35.68999589,"lon":139.82765002},{"name":"有明テニスの森公園テニス施設","province":"東京都","city":"江東区","address":"東京都江東区有明2丁目2-22","lat":35.63509873,"lon":139.78906597},{"name":"東京辰巳国際水泳場","province":"東京都","city":"江東区","address":"東京都江東区辰巳2丁目8-10","lat":35.64798406,"lon":139.81827674},{"name":"若洲海浜公園ヨット訓練所","province":"東京都","city":"江東区","address":"東京都江東区若洲3丁目1-1","lat":35.63067845,"lon":139.83766495},{"name":"城東職業能力開発センター","province":"東京都","city":"江東区","address":"東京都江東区亀戸9丁目6-27","lat":35.69624265,"lon":139.84205105},{"name":"東京国際展示場","province":"東京都","city":"江東区","address":"東京都江東区有明3丁目11-1","lat":35.62996069,"lon":139.79388808},{"name":"タイム２４ビル","province":"東京都","city":"江東区","address":"東京都江東区青海2丁目4-32","lat":35.61776181,"lon":139.77710127},{"name":"ＴＦＴビル","province":"東京都","city":"江東区","address":"東京都江東区有明3丁目6-11","lat":35.63080208,"lon":139.79057993},{"name":"有明パークビル","province":"東京都","city":"江東区","address":"東京都江東区有明3丁目7-11","lat":35.63258255,"lon":139.79307136},{"name":"産業技術研究センター本部","province":"東京都","city":"江東区","address":"東京都江東区青海2丁目4-10","lat":35.61877566,"lon":139.77967879},{"name":"深川高等学校","province":"東京都","city":"江東区","address":"東京都江東区東陽5丁目32-19","lat":35.6710869,"lon":139.81560148},{"name":"墨田工業高等学校","province":"東京都","city":"江東区","address":"東京都江東区森下5丁目1-7","lat":35.68533784,"lon":139.80693692},{"name":"大江戸高等学校","province":"東京都","city":"江東区","address":"東京都江東区千石3丁目2-11","lat":35.67943313,"lon":139.81809872},{"name":"城東高等学校","province":"東京都","city":"江東区","address":"東京都江東区大島3丁目22-1","lat":35.69293172,"lon":139.82895524},{"name":"東高等学校","province":"東京都","city":"江東区","address":"東京都江東区東砂7丁目19-24","lat":35.67371206,"lon":139.83720488},{"name":"科学技術高等学校","province":"東京都","city":"江東区","address":"東京都江東区大島1丁目2-31","lat":35.68701826,"lon":139.82136772},{"name":"江東商業高等学校","province":"東京都","city":"江東区","address":"東京都江東区亀戸4丁目50-1","lat":35.70251386,"lon":139.83147424},{"name":"第三商業高等学校","province":"東京都","city":"江東区","address":"東京都江東区越中島3丁目3-1","lat":35.66311794,"lon":139.79586185},{"name":"江東病院","province":"東京都","city":"江東区","address":"東京都江東区大島6丁目8-5","lat":35.69029344,"lon":139.83408508},{"name":"あそか病院","province":"東京都","city":"江東区","address":"東京都江東区住吉1丁目18-1","lat":35.68985944,"lon":139.81186088},{"name":"順天堂大学医学部附属順天堂江東高齢者医療センター","province":"東京都","city":"江東区","address":"東京都江東区新砂3丁目3-20","lat":35.66528245,"lon":139.8334721},{"name":"がん研究会有明病院","province":"東京都","city":"江東区","address":"東京都江東区有明3丁目8-31","lat":35.63434076,"lon":139.7949906},{"name":"砂町排水機場","province":"東京都","city":"江東区","address":"東京都江東区新砂3丁目8","lat":35.65323126,"lon":139.84028308},{"name":"あけぼの水門","province":"東京都","city":"江東区","address":"東京都江東区辰巳2丁目8-10","lat":35.64798406,"lon":139.81827674},{"name":"辰巳排水機場","province":"東京都","city":"江東区","address":"東京都江東区辰巳1丁目1-44","lat":35.64585906,"lon":139.80884708},{"name":"東雲水門","province":"東京都","city":"江東区","address":"東京都江東区豊洲5丁目6-5","lat":35.64934172,"lon":139.79785354},{"name":"東雲水門（水防倉庫）","province":"東京都","city":"江東区","address":"東京都江東区東雲1丁目1-19","lat":35.64832243,"lon":139.79913123},{"name":"豊洲水門","province":"東京都","city":"江東区","address":"東京都江東区越中島3丁目1-1","lat":35.66352618,"lon":139.79429253},{"name":"江東都税事務所","province":"東京都","city":"江東区","address":"東京都江東区大島3丁目1-3","lat":35.68999589,"lon":139.82765002},{"name":"有明テニスの森公園テニス施設","province":"東京都","city":"江東区","address":"東京都江東区有明2丁目2-22","lat":35.63509873,"lon":139.78906597},{"name":"東京辰巳国際水泳場","province":"東京都","city":"江東区","address":"東京都江東区辰巳2丁目8-10","lat":35.64798406,"lon":139.81827674},{"name":"若洲海浜公園ヨット訓練所","province":"東京都","city":"江東区","address":"東京都江東区若洲3丁目1-1","lat":35.63067845,"lon":139.83766495},{"name":"城東職業能力開発センター","province":"東京都","city":"江東区","address":"東京都江東区亀戸9丁目6-27","lat":35.69624265,"lon":139.84205105},{"name":"東京国際展示場","province":"東京都","city":"江東区","address":"東京都江東区有明3丁目11-1","lat":35.62996069,"lon":139.79388808},{"name":"タイム２４ビル","province":"東京都","city":"江東区","address":"東京都江東区青海2丁目4-32","lat":35.61776181,"lon":139.77710127},{"name":"ＴＦＴビル","province":"東京都","city":"江東区","address":"東京都江東区有明3丁目6-11","lat":35.63080208,"lon":139.79057993},{"name":"有明パークビル","province":"東京都","city":"江東区","address":"東京都江東区有明3丁目7-11","lat":35.63258255,"lon":139.79307136},{"name":"産業技術研究センター本部","province":"東京都","city":"江東区","address":"東京都江東区青海2丁目4-10","lat":35.61877566,"lon":139.77967879},{"name":"深川高等学校","province":"東京都","city":"江東区","address":"東京都江東区東陽5丁目32-19","lat":35.6710869,"lon":139.81560148},{"name":"墨田工業高等学校","province":"東京都","city":"江東区","address":"東京都江東区森下5丁目1-7","lat":35.68533784,"lon":139.80693692},{"name":"大江戸高等学校","province":"東京都","city":"江東区","address":"東京都江東区千石3丁目2-11","lat":35.67943313,"lon":139.81809872},{"name":"城東高等学校","province":"東京都","city":"江東区","address":"東京都江東区大島3丁目22-1","lat":35.69293172,"lon":139.82895524},{"name":"東高等学校","province":"東京都","city":"江東区","address":"東京都江東区東砂7丁目19-24","lat":35.67371206,"lon":139.83720488},{"name":"科学技術高等学校","province":"東京都","city":"江東区","address":"東京都江東区大島1丁目2-31","lat":35.68701826,"lon":139.82136772},{"name":"江東商業高等学校","province":"東京都","city":"江東区","address":"東京都江東区亀戸4丁目50-1","lat":35.70251386,"lon":139.83147424},{"name":"第三商業高等学校","province":"東京都","city":"江東区","address":"東京都江東区越中島3丁目3-1","lat":35.66311794,"lon":139.79586185}]}