{"keyword":"放課後","data":[{"name":"第２乳幼児親子教室","province":"東京都","city":"江東区","address":"江東区住吉1-8-18住吉ビル1階","lat":35.687379,"lon":139.811108},{"name":"スマートキッズプラス住吉","province":"東京都","city":"江東区","address":"江東区住吉2-7-14國谷ビル201","lat":35.688176,"lon":139.815574},{"name":"まつぼっくり子ども教室","province":"東京都","city":"江東区","address":"江東区猿江2-9-52・3階","lat":35.687421,"lon":139.815269},{"name":"乳幼児親子教室","province":"東京都","city":"江東区","address":"江東区猿江1-18-9-204","lat":35.687024,"lon":139.811683},{"name":"児童デイサービス　スマイル江東","province":"東京都","city":"江東区","address":"江東区新大橋2-15-3飯田ビル1階","lat":35.689573,"lon":139.793355},{"name":"さくらんぼ子ども教室","province":"東京都","city":"江東区","address":"江東区扇橋3-3-7宮内ビル1・2階","lat":35.68266,"lon":139.818732},{"name":"放課後等デイサービス　ＧＲＩＰ　キッズ　扇橋校","province":"東京都","city":"江東区","address":"江東区扇橋2-3-51階","lat":35.682841,"lon":139.815191},{"name":"第３親子教室　うみべ","province":"東京都","city":"江東区","address":"江東区海辺4-12第二ユーエスビル101","lat":35.679753,"lon":139.818626},{"name":"第２まつぼっくり子ども教室","province":"東京都","city":"江東区","address":"江東区海辺3-7シャリオビル1階","lat":35.680441,"lon":139.818818},{"name":"ごえん舎江東","province":"東京都","city":"江東区","address":"江東区千田8-7高田ビル2階","lat":35.680769,"lon":139.815035},{"name":"コラゾン江東住吉","province":"東京都","city":"江東区","address":"江東区千田7-17大塚ビル1階","lat":35.680836,"lon":139.815441},{"name":"たんぽぽクラブ","province":"東京都","city":"江東区","address":"江東区石島5-7深川ビル1階、201号室","lat":35.680375,"lon":139.811966},{"name":"みらいキッズ東陽町","province":"東京都","city":"江東区","address":"江東区石島9-14シャンテ石島1階","lat":35.680014,"lon":139.81373},{"name":"コラゾン東陽町","province":"東京都","city":"江東区","address":"江東区東陽3-26-7東陽大経ビル2階","lat":35.670634,"lon":139.813585},{"name":"コラゾン清澄白河","province":"東京都","city":"江東区","address":"江東区白河2-8-5三栄ビル4階","lat":35.682094,"lon":139.802543},{"name":"スマートキッズプラス木場公園","province":"東京都","city":"江東区","address":"江東区平野四丁目12番2号坂戸ビル1階","lat":35.678405,"lon":139.81033},{"name":"スマートキッズジュニア門前仲町","province":"東京都","city":"江東区","address":"江東区佐賀1丁目9-7原田ビル・佐賀2階","lat":35.676808,"lon":139.790621},{"name":"スマートキッズプラス門前仲町","province":"東京都","city":"江東区","address":"江東区永代2-23-1内山ビル2F","lat":35.672378,"lon":139.791629},{"name":"みらいキッズ","province":"東京都","city":"江東区","address":"江東区永代2-34-11セレナハイム門前仲町1階","lat":35.674467,"lon":139.792985},{"name":"こぴあクラブ","province":"東京都","city":"江東区","address":"江東区冬木6-20","lat":35.673386,"lon":139.801603},{"name":"ごえん舎越中島","province":"東京都","city":"江東区","address":"江東区越中島2-13-10北沢ビル2階","lat":35.666579,"lon":139.794862},{"name":"スマートキッズプラス豊洲","province":"東京都","city":"江東区","address":"江東区枝川2-15-2大岩ビル1F","lat":35.657716,"lon":139.807205},{"name":"第３こぴあクラブ","province":"東京都","city":"江東区","address":"江東区枝川1-11-16","lat":35.656294,"lon":139.805092},{"name":"放課後等デイサービス　大夢","province":"東京都","city":"江東区","address":"江東区辰巳1-2-9","lat":35.650056,"lon":139.808297},{"name":"スマートキッズプラス東雲","province":"東京都","city":"江東区","address":"江東区東雲一丁目6番23号","lat":35.64577,"lon":139.800867},{"name":"スマートキッズジュニア亀戸","province":"東京都","city":"江東区","address":"江東区亀戸1-31-7亀戸センタービル4階","lat":35.694709,"lon":139.825678},{"name":"このこのリーフ亀戸","province":"東京都","city":"江東区","address":"江東区亀戸7-3-7伊藤ビル1階","lat":35.695143,"lon":139.83376},{"name":"こぱんはうすさくら　亀戸教室","province":"東京都","city":"江東区","address":"江東区亀戸9-19-7日商岩井亀戸マンションA2棟1階","lat":35.697959,"lon":139.844268},{"name":"このこのリーフ亀戸第２","province":"東京都","city":"江東区","address":"江東区亀戸4-11-9AHAVAビル2階","lat":35.701492,"lon":139.830563},{"name":"第２こぴあクラブ","province":"東京都","city":"江東区","address":"江東区亀戸6-48-5","lat":35.69416,"lon":139.832063},{"name":"スマートキッズプラス西大島","province":"東京都","city":"江東区","address":"江東区大島1-30-4L-TOWER3階","lat":35.68919,"lon":139.825509},{"name":"スマートキッズプラス大島","province":"東京都","city":"江東区","address":"江東区大島5-45-9","lat":35.689735,"lon":139.836535},{"name":"らいおんハート遊びリテーション児童デイ北砂","province":"東京都","city":"江東区","address":"江東区北砂五丁目20番7号棟第101号室","lat":35.68368,"lon":139.834177},{"name":"南砂ぞうさんクラブ","province":"東京都","city":"江東区","address":"江東区南砂2-28-3LAZFITHTOYOCHO201号","lat":35.675581,"lon":139.821768}]}