{"keyword":"救出","data":[{"name":"都立木場公園","province":"東京都","city":"江東区","address":"江東区木場4","lat":35.6738,"lon":139.8081},{"name":"若洲海浜公園","province":"東京都","city":"江東区","address":"江東区若洲3丁目","lat":35.61865,"lon":139.8338},{"name":"東京ビッグサイト屋外展示場","province":"東京都","city":"江東区","address":"江東区有明3丁目地内","lat":35.6328,"lon":139.7931},{"name":"有明清掃工場","province":"東京都","city":"江東区","address":"江東区有明2-3-10","lat":35.63267,"lon":139.7849},{"name":"新江東清掃工場","province":"東京都","city":"江東区","address":"江東区夢の島3番地","lat":35.65202,"lon":139.8315},{"name":"都立木場公園多目的広場","province":"東京都","city":"江東区","address":"江東区平野4-6-1","lat":35.67677,"lon":139.8076},{"name":"都立亀戸中央公園多目的球技広場","province":"東京都","city":"江東区","address":"江東区亀戸9-37-28","lat":35.70018,"lon":139.8379},{"name":"東京ビッグサイト西棟屋外駐車場","province":"東京都","city":"江東区","address":"江東区有明3-11-1","lat":35.63005,"lon":139.7938},{"name":"あそか病院ヘリポート","province":"東京都","city":"江東区","address":"江東区住吉1-18-1","lat":35.68986,"lon":139.81186},{"name":"有明の丘防災拠点","province":"東京都","city":"江東区","address":"江東区有明","lat":35.63311,"lon":139.7924},{"name":"都立猿江恩賜公園","province":"東京都","city":"江東区","address":"江東区毛利2-13-7","lat":35.69051,"lon":139.8192},{"name":"がん研究会有明病院ヘリポート","province":"東京都","city":"江東区","address":"江東区有明3-8-31","lat":35.63431,"lon":139.795},{"name":"越中島","province":"東京都","city":"江東区","address":"江東区越中島1丁目地先","lat":35.67024,"lon":139.792},{"name":"扇橋閘門","province":"東京都","city":"江東区","address":"江東区猿江1丁目地先","lat":35.686,"lon":139.8116},{"name":"高橋乗船場","province":"東京都","city":"江東区","address":"江東区高橋","lat":35.68542,"lon":139.7995},{"name":"亀戸乗船場","province":"東京都","city":"江東区","address":"江東区亀戸2丁目1番地先","lat":35.69756,"lon":139.8202},{"name":"天神橋乗船場","province":"東京都","city":"江東区","address":"江東区亀戸3丁目8番地先","lat":35.70217,"lon":139.8195},{"name":"番所橋乗船場","province":"東京都","city":"江東区","address":"江東区東砂2丁目14番地先","lat":35.68573,"lon":139.8457},{"name":"小名木川クローバー橋乗船場","province":"東京都","city":"江東区","address":"江東区北砂1丁目2番地先","lat":35.68442,"lon":139.8218}]}