{"keyword":"構築","data":[{"name":"辰巳二丁目","province":"東京都","city":"江東区","address":"東京都江東区辰巳1丁目10-57","lat":35.64684791,"lon":139.81136906},{"name":"辰巳第二小学校前","province":"東京都","city":"江東区","address":"東京都江東区辰巳1丁目9-60","lat":35.64925314,"lon":139.80949136},{"name":"船の科学館入口","province":"東京都","city":"江東区","address":"東京都江東区青海1丁目1","lat":35.62344145,"lon":139.77495385},{"name":"テレコム駅前","province":"東京都","city":"江東区","address":"東京都江東区青海2丁目6-3","lat":35.61612036,"lon":139.77722358},{"name":"辰巳の森公園前","province":"東京都","city":"江東区","address":"東京都江東区辰巳2丁目1","lat":35.64899491,"lon":139.81239389},{"name":"嘉悦学園入口","province":"東京都","city":"江東区","address":"東京都江東区有明1丁目1-17","lat":35.64231473,"lon":139.79573733},{"name":"夢の島","province":"東京都","city":"江東区","address":"東京都江東区新木場1丁目2-11","lat":35.64491513,"lon":139.82490129},{"name":"千石橋北","province":"東京都","city":"江東区","address":"東京都江東区新木場1丁目18-6","lat":35.64371254,"lon":139.8257263},{"name":"夢の島第二","province":"東京都","city":"江東区","address":"東京都江東区夢の島2丁目1","lat":35.64925356,"lon":139.82649544},{"name":"新木場駅前","province":"東京都","city":"江東区","address":"東京都江東区新木場1丁目18-11","lat":35.64412641,"lon":139.82744557},{"name":"木遣り橋南","province":"東京都","city":"江東区","address":"東京都江東区有明1丁目2-22","lat":35.64094542,"lon":139.79394867},{"name":"有明テニスの森駅前","province":"東京都","city":"江東区","address":"東京都江東区有明1丁目3-20","lat":35.63905107,"lon":139.79022683},{"name":"清澄三丁目","province":"東京都","city":"江東区","address":"東京都江東区清澄3丁目7-9","lat":35.68220214,"lon":139.79856599},{"name":"扇橋二丁目","province":"東京都","city":"江東区","address":"東京都江東区扇橋2丁目22-3","lat":35.6828521,"lon":139.81624074},{"name":"白河三丁目","province":"東京都","city":"江東区","address":"東京都江東区白河3丁目4-3","lat":35.68222989,"lon":139.80574246},{"name":"永代二丁目","province":"東京都","city":"江東区","address":"東京都江東区永代2丁目12-3","lat":35.67367779,"lon":139.79152619},{"name":"木場五丁目","province":"東京都","city":"江東区","address":"東京都江東区木場2丁目20","lat":35.66918415,"lon":139.80526639},{"name":"門前仲町","province":"東京都","city":"江東区","address":"東京都江東区門前仲町1丁目7-9","lat":35.67273633,"lon":139.79477891},{"name":"豊洲駅前","province":"東京都","city":"江東区","address":"東京都江東区豊洲2丁目2-12","lat":35.65470219,"lon":139.79594802},{"name":"東陽六丁目","province":"東京都","city":"江東区","address":"東京都江東区東陽6丁目4-5","lat":35.67593631,"lon":139.81551562},{"name":"東陽町駅前","province":"東京都","city":"江東区","address":"東京都江東区東陽4丁目2-1","lat":35.66993428,"lon":139.81666244},{"name":"白河二丁目","province":"東京都","city":"江東区","address":"東京都江東区白河1丁目4-11","lat":35.68196327,"lon":139.8008461},{"name":"扇橋三丁目","province":"東京都","city":"江東区","address":"東京都江東区扇橋3丁目11-7","lat":35.68335484,"lon":139.81850983},{"name":"千石二丁目","province":"東京都","city":"江東区","address":"東京都江東区千石2丁目8-17","lat":35.67898594,"lon":139.81573794},{"name":"千石一丁目","province":"東京都","city":"江東区","address":"東京都江東区千石1丁目13-24","lat":35.6784054,"lon":139.81160241},{"name":"深川不動前","province":"東京都","city":"江東区","address":"東京都江東区富岡1丁目6-6","lat":35.67104491,"lon":139.79711757},{"name":"東陽四丁目","province":"東京都","city":"江東区","address":"東京都江東区東陽4丁目1-20","lat":35.66948439,"lon":139.81948165},{"name":"深川高校前","province":"東京都","city":"江東区","address":"東京都江東区東陽4丁目10-8","lat":35.67195349,"lon":139.81653198},{"name":"枝川一丁目第二","province":"東京都","city":"江東区","address":"東京都江東区枝川1丁目6-14","lat":35.65686604,"lon":139.80393056},{"name":"新豊洲変電所前","province":"東京都","city":"江東区","address":"東京都江東区豊洲6丁目1","lat":35.65019974,"lon":139.79000422},{"name":"扇橋二丁目第二","province":"東京都","city":"江東区","address":"東京都江東区扇橋3丁目15-10","lat":35.68325206,"lon":139.81739889},{"name":"深川五中角","province":"東京都","city":"江東区","address":"東京都江東区豊洲5丁目5","lat":35.65340512,"lon":139.796398},{"name":"豊洲二丁目","province":"東京都","city":"江東区","address":"東京都江東区豊洲2丁目5","lat":35.65794337,"lon":139.79123171},{"name":"東陽三丁目東","province":"東京都","city":"江東区","address":"東京都江東区東陽3丁目22-1","lat":35.66898431,"lon":139.81218784},{"name":"東陽三丁目住宅前","province":"東京都","city":"江東区","address":"東京都江東区東陽3丁目22-32","lat":35.66918986,"lon":139.81313776},{"name":"漣橋北","province":"東京都","city":"江東区","address":"東京都江東区潮見2丁目3","lat":35.65735517,"lon":139.81617663},{"name":"東陽二丁目","province":"東京都","city":"江東区","address":"東京都江東区東陽2丁目4-24","lat":35.66836503,"lon":139.81698744},{"name":"森下駅西","province":"東京都","city":"江東区","address":"東京都江東区新大橋3丁目3-6","lat":35.68776824,"lon":139.79654747},{"name":"江東区役所前","province":"東京都","city":"江東区","address":"東京都江東区東陽5丁目31-19","lat":35.67283114,"lon":139.81570434},{"name":"東陽町駅東口","province":"東京都","city":"江東区","address":"東京都江東区東陽4丁目5-18","lat":35.67048425,"lon":139.81829565},{"name":"扇橋三丁目第二","province":"東京都","city":"江東区","address":"東京都江東区扇橋3丁目7-3","lat":35.68255774,"lon":139.82023454},{"name":"潮見駅南","province":"東京都","city":"江東区","address":"東京都江東区潮見2丁目10-22","lat":35.65700526,"lon":139.81812368},{"name":"江東区文化センター東","province":"東京都","city":"江東区","address":"東京都江東区東陽4丁目12-30","lat":35.67261456,"lon":139.81919007},{"name":"東陽図書館前","province":"東京都","city":"江東区","address":"東京都江東区東陽2丁目2-20","lat":35.66588197,"lon":139.816032},{"name":"清澄白河駅","province":"東京都","city":"江東区","address":"東京都江東区白河2丁目9-5","lat":35.68203826,"lon":139.8021431},{"name":"豊洲六丁目","province":"東京都","city":"江東区","address":"東京都江東区豊洲6丁目2","lat":35.64571973,"lon":139.79140145},{"name":"豊洲埠頭口前","province":"東京都","city":"江東区","address":"東京都江東区豊洲5丁目1","lat":35.6498916,"lon":139.79570094},{"name":"豊洲三丁目","province":"東京都","city":"江東区","address":"東京都江東区豊洲2丁目1","lat":35.65699075,"lon":139.79314545},{"name":"区民センター前","province":"東京都","city":"江東区","address":"東京都江東区大島2丁目41-18","lat":35.68959587,"lon":139.82617805},{"name":"亀戸五丁目","province":"東京都","city":"江東区","address":"東京都江東区亀戸5丁目15-2","lat":35.69990821,"lon":139.82578635},{"name":"中川新橋西詰","province":"東京都","city":"江東区","address":"東京都江東区亀戸9丁目8","lat":35.69656757,"lon":139.8436343},{"name":"大島仲の橋","province":"東京都","city":"江東区","address":"東京都江東区大島7丁目1-18","lat":35.69029342,"lon":139.83811537},{"name":"亀戸七丁目","province":"東京都","city":"江東区","address":"東京都江東区亀戸7丁目41-5","lat":35.69693989,"lon":139.83645134},{"name":"亀戸駅北口","province":"東京都","city":"江東区","address":"東京都江東区亀戸5丁目1-1","lat":35.69781692,"lon":139.82621403},{"name":"大島八丁目","province":"東京都","city":"江東区","address":"東京都江東区大島8丁目42-11","lat":35.69047391,"lon":139.84406775},{"name":"砂町橋","province":"東京都","city":"江東区","address":"東京都江東区南砂6丁目4-6","lat":35.67363145,"lon":139.83348855},{"name":"南砂三丁目","province":"東京都","city":"江東区","address":"東京都江東区南砂3丁目4-7","lat":35.67345352,"lon":139.82670594},{"name":"日曹橋北","province":"東京都","city":"江東区","address":"東京都江東区南砂3丁目2-1","lat":35.6705122,"lon":139.82621712},{"name":"第三大島小学校入口","province":"東京都","city":"江東区","address":"東京都江東区大島7丁目41-8","lat":35.69288472,"lon":139.8433094},{"name":"日曹橋","province":"東京都","city":"江東区","address":"東京都江東区南砂3丁目2","lat":35.67059,"lon":139.82714758},{"name":"南砂五差路","province":"東京都","city":"江東区","address":"東京都江東区南砂1丁目11-15","lat":35.67820564,"lon":139.82440897},{"name":"大島六丁目","province":"東京都","city":"江東区","address":"東京都江東区大島5丁目35-8","lat":35.68974071,"lon":139.83620996},{"name":"環四亀戸七丁目第二","province":"東京都","city":"江東区","address":"東京都江東区亀戸7丁目49-4","lat":35.6957429,"lon":139.83429587},{"name":"第三砂町小前","province":"東京都","city":"江東区","address":"東京都江東区南砂4丁目19-13","lat":35.67185386,"lon":139.83220261},{"name":"江東試験場入口","province":"東京都","city":"江東区","address":"東京都江東区南砂2丁目3","lat":35.67096762,"lon":139.82298967},{"name":"都立東高校角","province":"東京都","city":"江東区","address":"東京都江東区南砂6丁目7","lat":35.67234275,"lon":139.8348801},{"name":"南砂三丁目公園入口","province":"東京都","city":"江東区","address":"東京都江東区南砂6丁目2-1","lat":35.67136509,"lon":139.83436628},{"name":"南砂二丁目団地入口","province":"東京都","city":"江東区","address":"東京都江東区南砂2丁目3-3","lat":35.67328122,"lon":139.82288413},{"name":"北砂五丁目団地前","province":"東京都","city":"江東区","address":"東京都江東区北砂5丁目20-8","lat":35.68347745,"lon":139.83288003},{"name":"中川新橋西詰第二","province":"東京都","city":"江東区","address":"東京都江東区亀戸9丁目8","lat":35.69656757,"lon":139.8436343},{"name":"江東試験場前","province":"東京都","city":"江東区","address":"東京都江東区新砂1丁目7-24","lat":35.6689012,"lon":139.82269804},{"name":"南砂二丁目南公園前","province":"東京都","city":"江東区","address":"東京都江東区南砂2丁目3-6","lat":35.67042604,"lon":139.82382569},{"name":"東大島駅入口","province":"東京都","city":"江東区","address":"東京都江東区大島9丁目2","lat":35.68882412,"lon":139.84570657},{"name":"南砂三丁目公園前","province":"東京都","city":"江東区","address":"東京都江東区南砂3丁目14","lat":35.66992634,"lon":139.83271092},{"name":"南砂町駅前","province":"東京都","city":"江東区","address":"東京都江東区南砂3丁目14-1","lat":35.66877645,"lon":139.83174161},{"name":"江東医療センター入口","province":"東京都","city":"江東区","address":"東京都江東区新砂3丁目3","lat":35.66770714,"lon":139.83211937},{"name":"あゆみ橋","province":"東京都","city":"江東区","address":"東京都江東区新砂3丁目3","lat":35.66770714,"lon":139.83211937},{"name":"南砂町駅西口","province":"東京都","city":"江東区","address":"東京都江東区新砂2丁目1","lat":35.66886798,"lon":139.82686152},{"name":"亀戸給水所","province":"東京都","city":"江東区","address":"東京都江東区亀戸2丁目6-50","lat":35.70101603,"lon":139.82130935},{"name":"豊住給水所","province":"東京都","city":"江東区","address":"東京都江東区東陽6丁目1-8","lat":35.67503913,"lon":139.81095502},{"name":"江東給水所","province":"東京都","city":"江東区","address":"東京都江東区新砂3丁目6-17","lat":35.66542149,"lon":139.84132701},{"name":"有明給水所","province":"東京都","city":"江東区","address":"東京都江東区有明3丁目1-8","lat":35.63082682,"lon":139.78543859},{"name":"区立南砂三丁目公園","province":"東京都","city":"江東区","address":"東京都江東区南砂3丁目14-21","lat":35.66960695,"lon":139.83337197},{"name":"都立辰巳の森海浜公園","province":"東京都","city":"江東区","address":"東京都江東区辰巳2丁目1","lat":35.64899491,"lon":139.81239389},{"name":"新砂緊急用船着場","province":"東京都","city":"江東区","address":"東京都江東区新砂3丁目","lat":35.66420213,"lon":139.83834118},{"name":"有明客船ターミナル","province":"東京都","city":"江東区","address":"東京都江東区有明3丁目","lat":35.63159354,"lon":139.78818561},{"name":"青海客船ターミナル","province":"東京都","city":"江東区","address":"東京都江東区青海2丁目","lat":35.61733141,"lon":139.78018715},{"name":"黒船橋乗船場","province":"東京都","city":"江東区","address":"東京都江東区門前仲町1丁目1","lat":35.67178636,"lon":139.79273166},{"name":"木場六丁目乗船場","province":"東京都","city":"江東区","address":"東京都江東区木場6丁目","lat":35.66762602,"lon":139.80679399},{"name":"亀戸中央公園乗船場","province":"東京都","city":"江東区","address":"東京都江東区亀戸8丁目","lat":35.7006893,"lon":139.8333461},{"name":"豊洲三丁目乗船場","province":"東京都","city":"江東区","address":"東京都江東区豊洲3丁目","lat":35.66003768,"lon":139.79466194},{"name":"旧中川川の駅スロープ","province":"東京都","city":"江東区","address":"東京都江東区大島9丁目","lat":35.69317076,"lon":139.84506485},{"name":"基幹的広域防災拠点（有明の丘地区）","province":"東京都","city":"江東区","address":"江東区有明3-8-35","lat":35.63537,"lon":139.7941},{"name":"第九機動隊","province":"東京都","city":"江東区","address":"江東区新砂1-7-20","lat":35.668,"lon":139.8226},{"name":"第七方面交通機動隊新木場分駐所","province":"東京都","city":"江東区","address":"江東区新木場4-2-31","lat":35.64214,"lon":139.8376},{"name":"第七方面本部","province":"東京都","city":"江東区","address":"江東区新木場4-2-31","lat":35.64214,"lon":139.8376},{"name":"城東警察署","province":"東京都","city":"江東区","address":"江東区北砂2-1-24","lat":35.67844,"lon":139.827},{"name":"東京湾岸警察署","province":"東京都","city":"江東区","address":"江東区青海2-7-1","lat":35.61857,"lon":139.7746},{"name":"深川警察署","province":"東京都","city":"江東区","address":"江東区木場3-18-6","lat":35.67362,"lon":139.8062},{"name":"第七消防方面本部","province":"東京都","city":"江東区","address":"江東区森下5-1-4","lat":35.68487,"lon":139.8066},{"name":"夢の島訓練場","province":"東京都","city":"江東区","address":"江東区夢の島3-1-1","lat":35.64985,"lon":139.8344},{"name":"第一方面訓練場","province":"東京都","city":"江東区","address":"江東区潮見1-29","lat":35.65556,"lon":139.8142},{"name":"第六方面訓練場","province":"東京都","city":"江東区","address":"江東区夢の島3-30","lat":35.65202,"lon":139.8315},{"name":"城東消防署","province":"東京都","city":"江東区","address":"江東区亀戸6-42-9","lat":35.69659,"lon":139.8319},{"name":"深川消防署","province":"東京都","city":"江東区","address":"江東区木場3-18-10","lat":35.67304,"lon":139.8061},{"name":"都営大江戸線清澄白河駅内備蓄倉庫","province":"東京都","city":"江東区","address":"江東区白河1-7-14","lat":35.68292,"lon":139.7989},{"name":"江東区","province":"東京都","city":"江東区","address":"江東区大島4-4-3","lat":35.68874,"lon":139.8273},{"name":"（株）メディセオ新東京ビル","province":"東京都","city":"江東区","address":"江東区佐賀2-8-20","lat":35.67896,"lon":139.7919},{"name":"東京都赤十字血液センター","province":"東京都","city":"江東区","address":"江東区辰巳2-1-67","lat":35.64709,"lon":139.8132},{"name":"都立木場公園","province":"東京都","city":"江東区","address":"江東区木場4","lat":35.6738,"lon":139.8081},{"name":"若洲海浜公園","province":"東京都","city":"江東区","address":"江東区若洲3丁目","lat":35.61865,"lon":139.8338},{"name":"東京ビッグサイト屋外展示場","province":"東京都","city":"江東区","address":"江東区有明3丁目地内","lat":35.6328,"lon":139.7931},{"name":"有明清掃工場","province":"東京都","city":"江東区","address":"江東区有明2-3-10","lat":35.63267,"lon":139.7849},{"name":"新江東清掃工場","province":"東京都","city":"江東区","address":"江東区夢の島3番地","lat":35.65202,"lon":139.8315},{"name":"都立木場公園多目的広場","province":"東京都","city":"江東区","address":"江東区平野4-6-1","lat":35.67677,"lon":139.8076},{"name":"都立亀戸中央公園多目的球技広場","province":"東京都","city":"江東区","address":"江東区亀戸9-37-28","lat":35.70018,"lon":139.8379},{"name":"東京ビッグサイト西棟屋外駐車場","province":"東京都","city":"江東区","address":"江東区有明3-11-1","lat":35.63005,"lon":139.7938},{"name":"あそか病院ヘリポート","province":"東京都","city":"江東区","address":"江東区住吉1-18-1","lat":35.68986,"lon":139.81186},{"name":"有明の丘防災拠点","province":"東京都","city":"江東区","address":"江東区有明","lat":35.63311,"lon":139.7924},{"name":"都立猿江恩賜公園","province":"東京都","city":"江東区","address":"江東区毛利2-13-7","lat":35.69051,"lon":139.8192},{"name":"がん研究会有明病院ヘリポート","province":"東京都","city":"江東区","address":"江東区有明3-8-31","lat":35.63431,"lon":139.795},{"name":"越中島","province":"東京都","city":"江東区","address":"江東区越中島1丁目地先","lat":35.67024,"lon":139.792},{"name":"扇橋閘門","province":"東京都","city":"江東区","address":"江東区猿江1丁目地先","lat":35.686,"lon":139.8116},{"name":"高橋乗船場","province":"東京都","city":"江東区","address":"江東区高橋","lat":35.68542,"lon":139.7995},{"name":"亀戸乗船場","province":"東京都","city":"江東区","address":"江東区亀戸2丁目1番地先","lat":35.69756,"lon":139.8202},{"name":"天神橋乗船場","province":"東京都","city":"江東区","address":"江東区亀戸3丁目8番地先","lat":35.70217,"lon":139.8195},{"name":"番所橋乗船場","province":"東京都","city":"江東区","address":"江東区東砂2丁目14番地先","lat":35.68573,"lon":139.8457},{"name":"小名木川クローバー橋乗船場","province":"東京都","city":"江東区","address":"江東区北砂1丁目2番地先","lat":35.68442,"lon":139.8218},{"name":"夢の島マリーナ","province":"東京都","city":"江東区","address":"東京都江東区夢の島3丁目","lat":35.65190061,"lon":139.83152826},{"name":"黒船橋乗船場","province":"東京都","city":"江東区","address":"東京都江東区門前仲町1丁目1","lat":35.67178636,"lon":139.79273166},{"name":"辰巳二丁目","province":"東京都","city":"江東区","address":"東京都江東区辰巳1丁目10-57","lat":35.64684791,"lon":139.81136906},{"name":"辰巳第二小学校前","province":"東京都","city":"江東区","address":"東京都江東区辰巳1丁目9-60","lat":35.64925314,"lon":139.80949136},{"name":"船の科学館入口","province":"東京都","city":"江東区","address":"東京都江東区青海1丁目1","lat":35.62344145,"lon":139.77495385},{"name":"テレコム駅前","province":"東京都","city":"江東区","address":"東京都江東区青海2丁目6-3","lat":35.61612036,"lon":139.77722358},{"name":"辰巳の森公園前","province":"東京都","city":"江東区","address":"東京都江東区辰巳2丁目1","lat":35.64899491,"lon":139.81239389},{"name":"嘉悦学園入口","province":"東京都","city":"江東区","address":"東京都江東区有明1丁目1-17","lat":35.64231473,"lon":139.79573733},{"name":"夢の島","province":"東京都","city":"江東区","address":"東京都江東区新木場1丁目2-11","lat":35.64491513,"lon":139.82490129},{"name":"千石橋北","province":"東京都","city":"江東区","address":"東京都江東区新木場1丁目18-6","lat":35.64371254,"lon":139.8257263},{"name":"夢の島第二","province":"東京都","city":"江東区","address":"東京都江東区夢の島2丁目1","lat":35.64925356,"lon":139.82649544},{"name":"新木場駅前","province":"東京都","city":"江東区","address":"東京都江東区新木場1丁目18-11","lat":35.64412641,"lon":139.82744557},{"name":"木遣り橋南","province":"東京都","city":"江東区","address":"東京都江東区有明1丁目2-22","lat":35.64094542,"lon":139.79394867},{"name":"有明テニスの森駅前","province":"東京都","city":"江東区","address":"東京都江東区有明1丁目3-20","lat":35.63905107,"lon":139.79022683},{"name":"清澄三丁目","province":"東京都","city":"江東区","address":"東京都江東区清澄3丁目7-9","lat":35.68220214,"lon":139.79856599},{"name":"扇橋二丁目","province":"東京都","city":"江東区","address":"東京都江東区扇橋2丁目22-3","lat":35.6828521,"lon":139.81624074},{"name":"白河三丁目","province":"東京都","city":"江東区","address":"東京都江東区白河3丁目4-3","lat":35.68222989,"lon":139.80574246},{"name":"永代二丁目","province":"東京都","city":"江東区","address":"東京都江東区永代2丁目12-3","lat":35.67367779,"lon":139.79152619},{"name":"木場五丁目","province":"東京都","city":"江東区","address":"東京都江東区木場2丁目20","lat":35.66918415,"lon":139.80526639},{"name":"門前仲町","province":"東京都","city":"江東区","address":"東京都江東区門前仲町1丁目7-9","lat":35.67273633,"lon":139.79477891},{"name":"豊洲駅前","province":"東京都","city":"江東区","address":"東京都江東区豊洲2丁目2-12","lat":35.65470219,"lon":139.79594802},{"name":"東陽六丁目","province":"東京都","city":"江東区","address":"東京都江東区東陽6丁目4-5","lat":35.67593631,"lon":139.81551562},{"name":"東陽町駅前","province":"東京都","city":"江東区","address":"東京都江東区東陽4丁目2-1","lat":35.66993428,"lon":139.81666244},{"name":"白河二丁目","province":"東京都","city":"江東区","address":"東京都江東区白河1丁目4-11","lat":35.68196327,"lon":139.8008461},{"name":"扇橋三丁目","province":"東京都","city":"江東区","address":"東京都江東区扇橋3丁目11-7","lat":35.68335484,"lon":139.81850983},{"name":"千石二丁目","province":"東京都","city":"江東区","address":"東京都江東区千石2丁目8-17","lat":35.67898594,"lon":139.81573794},{"name":"千石一丁目","province":"東京都","city":"江東区","address":"東京都江東区千石1丁目13-24","lat":35.6784054,"lon":139.81160241},{"name":"深川不動前","province":"東京都","city":"江東区","address":"東京都江東区富岡1丁目6-6","lat":35.67104491,"lon":139.79711757},{"name":"東陽四丁目","province":"東京都","city":"江東区","address":"東京都江東区東陽4丁目1-20","lat":35.66948439,"lon":139.81948165},{"name":"深川高校前","province":"東京都","city":"江東区","address":"東京都江東区東陽4丁目10-8","lat":35.67195349,"lon":139.81653198},{"name":"枝川一丁目第二","province":"東京都","city":"江東区","address":"東京都江東区枝川1丁目6-14","lat":35.65686604,"lon":139.80393056},{"name":"新豊洲変電所前","province":"東京都","city":"江東区","address":"東京都江東区豊洲6丁目1","lat":35.65019974,"lon":139.79000422},{"name":"扇橋二丁目第二","province":"東京都","city":"江東区","address":"東京都江東区扇橋3丁目15-10","lat":35.68325206,"lon":139.81739889},{"name":"深川五中角","province":"東京都","city":"江東区","address":"東京都江東区豊洲5丁目5","lat":35.65340512,"lon":139.796398},{"name":"豊洲二丁目","province":"東京都","city":"江東区","address":"東京都江東区豊洲2丁目5","lat":35.65794337,"lon":139.79123171},{"name":"東陽三丁目東","province":"東京都","city":"江東区","address":"東京都江東区東陽3丁目22-1","lat":35.66898431,"lon":139.81218784},{"name":"東陽三丁目住宅前","province":"東京都","city":"江東区","address":"東京都江東区東陽3丁目22-32","lat":35.66918986,"lon":139.81313776},{"name":"漣橋北","province":"東京都","city":"江東区","address":"東京都江東区潮見2丁目3","lat":35.65735517,"lon":139.81617663},{"name":"東陽二丁目","province":"東京都","city":"江東区","address":"東京都江東区東陽2丁目4-24","lat":35.66836503,"lon":139.81698744},{"name":"森下駅西","province":"東京都","city":"江東区","address":"東京都江東区新大橋3丁目3-6","lat":35.68776824,"lon":139.79654747},{"name":"江東区役所前","province":"東京都","city":"江東区","address":"東京都江東区東陽5丁目31-19","lat":35.67283114,"lon":139.81570434},{"name":"東陽町駅東口","province":"東京都","city":"江東区","address":"東京都江東区東陽4丁目5-18","lat":35.67048425,"lon":139.81829565},{"name":"扇橋三丁目第二","province":"東京都","city":"江東区","address":"東京都江東区扇橋3丁目7-3","lat":35.68255774,"lon":139.82023454},{"name":"潮見駅南","province":"東京都","city":"江東区","address":"東京都江東区潮見2丁目10-22","lat":35.65700526,"lon":139.81812368},{"name":"江東区文化センター東","province":"東京都","city":"江東区","address":"東京都江東区東陽4丁目12-30","lat":35.67261456,"lon":139.81919007},{"name":"東陽図書館前","province":"東京都","city":"江東区","address":"東京都江東区東陽2丁目2-20","lat":35.66588197,"lon":139.816032},{"name":"清澄白河駅","province":"東京都","city":"江東区","address":"東京都江東区白河2丁目9-5","lat":35.68203826,"lon":139.8021431},{"name":"豊洲六丁目","province":"東京都","city":"江東区","address":"東京都江東区豊洲6丁目2","lat":35.64571973,"lon":139.79140145},{"name":"豊洲埠頭口前","province":"東京都","city":"江東区","address":"東京都江東区豊洲5丁目1","lat":35.6498916,"lon":139.79570094},{"name":"豊洲三丁目","province":"東京都","city":"江東区","address":"東京都江東区豊洲2丁目1","lat":35.65699075,"lon":139.79314545},{"name":"区民センター前","province":"東京都","city":"江東区","address":"東京都江東区大島2丁目41-18","lat":35.68959587,"lon":139.82617805},{"name":"亀戸五丁目","province":"東京都","city":"江東区","address":"東京都江東区亀戸5丁目15-2","lat":35.69990821,"lon":139.82578635},{"name":"中川新橋西詰","province":"東京都","city":"江東区","address":"東京都江東区亀戸9丁目8","lat":35.69656757,"lon":139.8436343},{"name":"大島仲の橋","province":"東京都","city":"江東区","address":"東京都江東区大島7丁目1-18","lat":35.69029342,"lon":139.83811537},{"name":"亀戸七丁目","province":"東京都","city":"江東区","address":"東京都江東区亀戸7丁目41-5","lat":35.69693989,"lon":139.83645134},{"name":"亀戸駅北口","province":"東京都","city":"江東区","address":"東京都江東区亀戸5丁目1-1","lat":35.69781692,"lon":139.82621403},{"name":"大島八丁目","province":"東京都","city":"江東区","address":"東京都江東区大島8丁目42-11","lat":35.69047391,"lon":139.84406775},{"name":"砂町橋","province":"東京都","city":"江東区","address":"東京都江東区南砂6丁目4-6","lat":35.67363145,"lon":139.83348855},{"name":"南砂三丁目","province":"東京都","city":"江東区","address":"東京都江東区南砂3丁目4-7","lat":35.67345352,"lon":139.82670594},{"name":"日曹橋北","province":"東京都","city":"江東区","address":"東京都江東区南砂3丁目2-1","lat":35.6705122,"lon":139.82621712},{"name":"第三大島小学校入口","province":"東京都","city":"江東区","address":"東京都江東区大島7丁目41-8","lat":35.69288472,"lon":139.8433094},{"name":"日曹橋","province":"東京都","city":"江東区","address":"東京都江東区南砂3丁目2","lat":35.67059,"lon":139.82714758},{"name":"南砂五差路","province":"東京都","city":"江東区","address":"東京都江東区南砂1丁目11-15","lat":35.67820564,"lon":139.82440897},{"name":"大島六丁目","province":"東京都","city":"江東区","address":"東京都江東区大島5丁目35-8","lat":35.68974071,"lon":139.83620996},{"name":"環四亀戸七丁目第二","province":"東京都","city":"江東区","address":"東京都江東区亀戸7丁目49-4","lat":35.6957429,"lon":139.83429587},{"name":"第三砂町小前","province":"東京都","city":"江東区","address":"東京都江東区南砂4丁目19-13","lat":35.67185386,"lon":139.83220261},{"name":"江東試験場入口","province":"東京都","city":"江東区","address":"東京都江東区南砂2丁目3","lat":35.67096762,"lon":139.82298967},{"name":"都立東高校角","province":"東京都","city":"江東区","address":"東京都江東区南砂6丁目7","lat":35.67234275,"lon":139.8348801},{"name":"南砂三丁目公園入口","province":"東京都","city":"江東区","address":"東京都江東区南砂6丁目2-1","lat":35.67136509,"lon":139.83436628},{"name":"南砂二丁目団地入口","province":"東京都","city":"江東区","address":"東京都江東区南砂2丁目3-3","lat":35.67328122,"lon":139.82288413},{"name":"北砂五丁目団地前","province":"東京都","city":"江東区","address":"東京都江東区北砂5丁目20-8","lat":35.68347745,"lon":139.83288003},{"name":"中川新橋西詰第二","province":"東京都","city":"江東区","address":"東京都江東区亀戸9丁目8","lat":35.69656757,"lon":139.8436343},{"name":"江東試験場前","province":"東京都","city":"江東区","address":"東京都江東区新砂1丁目7-24","lat":35.6689012,"lon":139.82269804},{"name":"南砂二丁目南公園前","province":"東京都","city":"江東区","address":"東京都江東区南砂2丁目3-6","lat":35.67042604,"lon":139.82382569},{"name":"東大島駅入口","province":"東京都","city":"江東区","address":"東京都江東区大島9丁目2","lat":35.68882412,"lon":139.84570657},{"name":"南砂三丁目公園前","province":"東京都","city":"江東区","address":"東京都江東区南砂3丁目14","lat":35.66992634,"lon":139.83271092},{"name":"南砂町駅前","province":"東京都","city":"江東区","address":"東京都江東区南砂3丁目14-1","lat":35.66877645,"lon":139.83174161},{"name":"江東医療センター入口","province":"東京都","city":"江東区","address":"東京都江東区新砂3丁目3","lat":35.66770714,"lon":139.83211937},{"name":"あゆみ橋","province":"東京都","city":"江東区","address":"東京都江東区新砂3丁目3","lat":35.66770714,"lon":139.83211937},{"name":"南砂町駅西口","province":"東京都","city":"江東区","address":"東京都江東区新砂2丁目1","lat":35.66886798,"lon":139.82686152},{"name":"亀戸給水所","province":"東京都","city":"江東区","address":"東京都江東区亀戸2丁目6-50","lat":35.70101603,"lon":139.82130935},{"name":"豊住給水所","province":"東京都","city":"江東区","address":"東京都江東区東陽6丁目1-8","lat":35.67503913,"lon":139.81095502},{"name":"江東給水所","province":"東京都","city":"江東区","address":"東京都江東区新砂3丁目6-17","lat":35.66542149,"lon":139.84132701},{"name":"有明給水所","province":"東京都","city":"江東区","address":"東京都江東区有明3丁目1-8","lat":35.63082682,"lon":139.78543859},{"name":"区立南砂三丁目公園","province":"東京都","city":"江東区","address":"東京都江東区南砂3丁目14-21","lat":35.66960695,"lon":139.83337197},{"name":"都立辰巳の森海浜公園","province":"東京都","city":"江東区","address":"東京都江東区辰巳2丁目1","lat":35.64899491,"lon":139.81239389},{"name":"新砂緊急用船着場","province":"東京都","city":"江東区","address":"東京都江東区新砂3丁目","lat":35.66420213,"lon":139.83834118},{"name":"有明客船ターミナル","province":"東京都","city":"江東区","address":"東京都江東区有明3丁目","lat":35.63159354,"lon":139.78818561},{"name":"青海客船ターミナル","province":"東京都","city":"江東区","address":"東京都江東区青海2丁目","lat":35.61733141,"lon":139.78018715},{"name":"黒船橋乗船場","province":"東京都","city":"江東区","address":"東京都江東区門前仲町1丁目1","lat":35.67178636,"lon":139.79273166},{"name":"木場六丁目乗船場","province":"東京都","city":"江東区","address":"東京都江東区木場6丁目","lat":35.66762602,"lon":139.80679399},{"name":"亀戸中央公園乗船場","province":"東京都","city":"江東区","address":"東京都江東区亀戸8丁目","lat":35.7006893,"lon":139.8333461},{"name":"豊洲三丁目乗船場","province":"東京都","city":"江東区","address":"東京都江東区豊洲3丁目","lat":35.66003768,"lon":139.79466194},{"name":"旧中川川の駅スロープ","province":"東京都","city":"江東区","address":"東京都江東区大島9丁目","lat":35.69317076,"lon":139.84506485},{"name":"基幹的広域防災拠点（有明の丘地区）","province":"東京都","city":"江東区","address":"江東区有明3-8-35","lat":35.63537,"lon":139.7941},{"name":"第九機動隊","province":"東京都","city":"江東区","address":"江東区新砂1-7-20","lat":35.668,"lon":139.8226},{"name":"第七方面交通機動隊新木場分駐所","province":"東京都","city":"江東区","address":"江東区新木場4-2-31","lat":35.64214,"lon":139.8376},{"name":"第七方面本部","province":"東京都","city":"江東区","address":"江東区新木場4-2-31","lat":35.64214,"lon":139.8376},{"name":"城東警察署","province":"東京都","city":"江東区","address":"江東区北砂2-1-24","lat":35.67844,"lon":139.827},{"name":"東京湾岸警察署","province":"東京都","city":"江東区","address":"江東区青海2-7-1","lat":35.61857,"lon":139.7746},{"name":"深川警察署","province":"東京都","city":"江東区","address":"江東区木場3-18-6","lat":35.67362,"lon":139.8062},{"name":"第七消防方面本部","province":"東京都","city":"江東区","address":"江東区森下5-1-4","lat":35.68487,"lon":139.8066},{"name":"夢の島訓練場","province":"東京都","city":"江東区","address":"江東区夢の島3-1-1","lat":35.64985,"lon":139.8344},{"name":"第一方面訓練場","province":"東京都","city":"江東区","address":"江東区潮見1-29","lat":35.65556,"lon":139.8142},{"name":"第六方面訓練場","province":"東京都","city":"江東区","address":"江東区夢の島3-30","lat":35.65202,"lon":139.8315},{"name":"城東消防署","province":"東京都","city":"江東区","address":"江東区亀戸6-42-9","lat":35.69659,"lon":139.8319},{"name":"深川消防署","province":"東京都","city":"江東区","address":"江東区木場3-18-10","lat":35.67304,"lon":139.8061},{"name":"都営大江戸線清澄白河駅内備蓄倉庫","province":"東京都","city":"江東区","address":"江東区白河1-7-14","lat":35.68292,"lon":139.7989},{"name":"江東区","province":"東京都","city":"江東区","address":"江東区大島4-4-3","lat":35.68874,"lon":139.8273},{"name":"（株）メディセオ新東京ビル","province":"東京都","city":"江東区","address":"江東区佐賀2-8-20","lat":35.67896,"lon":139.7919},{"name":"東京都赤十字血液センター","province":"東京都","city":"江東区","address":"江東区辰巳2-1-67","lat":35.64709,"lon":139.8132},{"name":"夢の島マリーナ","province":"東京都","city":"江東区","address":"東京都江東区夢の島3丁目","lat":35.65190061,"lon":139.83152826},{"name":"黒船橋乗船場","province":"東京都","city":"江東区","address":"東京都江東区門前仲町1丁目1","lat":35.67178636,"lon":139.79273166},{"name":"辰巳二丁目","province":"東京都","city":"江東区","address":"東京都江東区辰巳1丁目10-57","lat":35.64684791,"lon":139.81136906},{"name":"辰巳第二小学校前","province":"東京都","city":"江東区","address":"東京都江東区辰巳1丁目9-60","lat":35.64925314,"lon":139.80949136},{"name":"船の科学館入口","province":"東京都","city":"江東区","address":"東京都江東区青海1丁目1","lat":35.62344145,"lon":139.77495385},{"name":"テレコム駅前","province":"東京都","city":"江東区","address":"東京都江東区青海2丁目6-3","lat":35.61612036,"lon":139.77722358},{"name":"辰巳の森公園前","province":"東京都","city":"江東区","address":"東京都江東区辰巳2丁目1","lat":35.64899491,"lon":139.81239389},{"name":"嘉悦学園入口","province":"東京都","city":"江東区","address":"東京都江東区有明1丁目1-17","lat":35.64231473,"lon":139.79573733},{"name":"夢の島","province":"東京都","city":"江東区","address":"東京都江東区新木場1丁目2-11","lat":35.64491513,"lon":139.82490129},{"name":"千石橋北","province":"東京都","city":"江東区","address":"東京都江東区新木場1丁目18-6","lat":35.64371254,"lon":139.8257263},{"name":"夢の島第二","province":"東京都","city":"江東区","address":"東京都江東区夢の島2丁目1","lat":35.64925356,"lon":139.82649544},{"name":"新木場駅前","province":"東京都","city":"江東区","address":"東京都江東区新木場1丁目18-11","lat":35.64412641,"lon":139.82744557},{"name":"木遣り橋南","province":"東京都","city":"江東区","address":"東京都江東区有明1丁目2-22","lat":35.64094542,"lon":139.79394867},{"name":"有明テニスの森駅前","province":"東京都","city":"江東区","address":"東京都江東区有明1丁目3-20","lat":35.63905107,"lon":139.79022683},{"name":"清澄三丁目","province":"東京都","city":"江東区","address":"東京都江東区清澄3丁目7-9","lat":35.68220214,"lon":139.79856599},{"name":"扇橋二丁目","province":"東京都","city":"江東区","address":"東京都江東区扇橋2丁目22-3","lat":35.6828521,"lon":139.81624074},{"name":"白河三丁目","province":"東京都","city":"江東区","address":"東京都江東区白河3丁目4-3","lat":35.68222989,"lon":139.80574246},{"name":"永代二丁目","province":"東京都","city":"江東区","address":"東京都江東区永代2丁目12-3","lat":35.67367779,"lon":139.79152619},{"name":"木場五丁目","province":"東京都","city":"江東区","address":"東京都江東区木場2丁目20","lat":35.66918415,"lon":139.80526639},{"name":"門前仲町","province":"東京都","city":"江東区","address":"東京都江東区門前仲町1丁目7-9","lat":35.67273633,"lon":139.79477891},{"name":"豊洲駅前","province":"東京都","city":"江東区","address":"東京都江東区豊洲2丁目2-12","lat":35.65470219,"lon":139.79594802},{"name":"東陽六丁目","province":"東京都","city":"江東区","address":"東京都江東区東陽6丁目4-5","lat":35.67593631,"lon":139.81551562},{"name":"東陽町駅前","province":"東京都","city":"江東区","address":"東京都江東区東陽4丁目2-1","lat":35.66993428,"lon":139.81666244},{"name":"白河二丁目","province":"東京都","city":"江東区","address":"東京都江東区白河1丁目4-11","lat":35.68196327,"lon":139.8008461},{"name":"扇橋三丁目","province":"東京都","city":"江東区","address":"東京都江東区扇橋3丁目11-7","lat":35.68335484,"lon":139.81850983},{"name":"千石二丁目","province":"東京都","city":"江東区","address":"東京都江東区千石2丁目8-17","lat":35.67898594,"lon":139.81573794},{"name":"千石一丁目","province":"東京都","city":"江東区","address":"東京都江東区千石1丁目13-24","lat":35.6784054,"lon":139.81160241},{"name":"深川不動前","province":"東京都","city":"江東区","address":"東京都江東区富岡1丁目6-6","lat":35.67104491,"lon":139.79711757},{"name":"東陽四丁目","province":"東京都","city":"江東区","address":"東京都江東区東陽4丁目1-20","lat":35.66948439,"lon":139.81948165},{"name":"深川高校前","province":"東京都","city":"江東区","address":"東京都江東区東陽4丁目10-8","lat":35.67195349,"lon":139.81653198},{"name":"枝川一丁目第二","province":"東京都","city":"江東区","address":"東京都江東区枝川1丁目6-14","lat":35.65686604,"lon":139.80393056},{"name":"新豊洲変電所前","province":"東京都","city":"江東区","address":"東京都江東区豊洲6丁目1","lat":35.65019974,"lon":139.79000422},{"name":"扇橋二丁目第二","province":"東京都","city":"江東区","address":"東京都江東区扇橋3丁目15-10","lat":35.68325206,"lon":139.81739889},{"name":"深川五中角","province":"東京都","city":"江東区","address":"東京都江東区豊洲5丁目5","lat":35.65340512,"lon":139.796398},{"name":"豊洲二丁目","province":"東京都","city":"江東区","address":"東京都江東区豊洲2丁目5","lat":35.65794337,"lon":139.79123171},{"name":"東陽三丁目東","province":"東京都","city":"江東区","address":"東京都江東区東陽3丁目22-1","lat":35.66898431,"lon":139.81218784},{"name":"東陽三丁目住宅前","province":"東京都","city":"江東区","address":"東京都江東区東陽3丁目22-32","lat":35.66918986,"lon":139.81313776},{"name":"漣橋北","province":"東京都","city":"江東区","address":"東京都江東区潮見2丁目3","lat":35.65735517,"lon":139.81617663},{"name":"東陽二丁目","province":"東京都","city":"江東区","address":"東京都江東区東陽2丁目4-24","lat":35.66836503,"lon":139.81698744},{"name":"森下駅西","province":"東京都","city":"江東区","address":"東京都江東区新大橋3丁目3-6","lat":35.68776824,"lon":139.79654747},{"name":"江東区役所前","province":"東京都","city":"江東区","address":"東京都江東区東陽5丁目31-19","lat":35.67283114,"lon":139.81570434},{"name":"東陽町駅東口","province":"東京都","city":"江東区","address":"東京都江東区東陽4丁目5-18","lat":35.67048425,"lon":139.81829565},{"name":"扇橋三丁目第二","province":"東京都","city":"江東区","address":"東京都江東区扇橋3丁目7-3","lat":35.68255774,"lon":139.82023454},{"name":"潮見駅南","province":"東京都","city":"江東区","address":"東京都江東区潮見2丁目10-22","lat":35.65700526,"lon":139.81812368},{"name":"江東区文化センター東","province":"東京都","city":"江東区","address":"東京都江東区東陽4丁目12-30","lat":35.67261456,"lon":139.81919007},{"name":"東陽図書館前","province":"東京都","city":"江東区","address":"東京都江東区東陽2丁目2-20","lat":35.66588197,"lon":139.816032},{"name":"清澄白河駅","province":"東京都","city":"江東区","address":"東京都江東区白河2丁目9-5","lat":35.68203826,"lon":139.8021431},{"name":"豊洲六丁目","province":"東京都","city":"江東区","address":"東京都江東区豊洲6丁目2","lat":35.64571973,"lon":139.79140145},{"name":"豊洲埠頭口前","province":"東京都","city":"江東区","address":"東京都江東区豊洲5丁目1","lat":35.6498916,"lon":139.79570094},{"name":"豊洲三丁目","province":"東京都","city":"江東区","address":"東京都江東区豊洲2丁目1","lat":35.65699075,"lon":139.79314545},{"name":"区民センター前","province":"東京都","city":"江東区","address":"東京都江東区大島2丁目41-18","lat":35.68959587,"lon":139.82617805},{"name":"亀戸五丁目","province":"東京都","city":"江東区","address":"東京都江東区亀戸5丁目15-2","lat":35.69990821,"lon":139.82578635},{"name":"中川新橋西詰","province":"東京都","city":"江東区","address":"東京都江東区亀戸9丁目8","lat":35.69656757,"lon":139.8436343},{"name":"大島仲の橋","province":"東京都","city":"江東区","address":"東京都江東区大島7丁目1-18","lat":35.69029342,"lon":139.83811537},{"name":"亀戸七丁目","province":"東京都","city":"江東区","address":"東京都江東区亀戸7丁目41-5","lat":35.69693989,"lon":139.83645134},{"name":"亀戸駅北口","province":"東京都","city":"江東区","address":"東京都江東区亀戸5丁目1-1","lat":35.69781692,"lon":139.82621403},{"name":"大島八丁目","province":"東京都","city":"江東区","address":"東京都江東区大島8丁目42-11","lat":35.69047391,"lon":139.84406775},{"name":"砂町橋","province":"東京都","city":"江東区","address":"東京都江東区南砂6丁目4-6","lat":35.67363145,"lon":139.83348855},{"name":"南砂三丁目","province":"東京都","city":"江東区","address":"東京都江東区南砂3丁目4-7","lat":35.67345352,"lon":139.82670594},{"name":"日曹橋北","province":"東京都","city":"江東区","address":"東京都江東区南砂3丁目2-1","lat":35.6705122,"lon":139.82621712},{"name":"第三大島小学校入口","province":"東京都","city":"江東区","address":"東京都江東区大島7丁目41-8","lat":35.69288472,"lon":139.8433094},{"name":"日曹橋","province":"東京都","city":"江東区","address":"東京都江東区南砂3丁目2","lat":35.67059,"lon":139.82714758},{"name":"南砂五差路","province":"東京都","city":"江東区","address":"東京都江東区南砂1丁目11-15","lat":35.67820564,"lon":139.82440897},{"name":"大島六丁目","province":"東京都","city":"江東区","address":"東京都江東区大島5丁目35-8","lat":35.68974071,"lon":139.83620996},{"name":"環四亀戸七丁目第二","province":"東京都","city":"江東区","address":"東京都江東区亀戸7丁目49-4","lat":35.6957429,"lon":139.83429587},{"name":"第三砂町小前","province":"東京都","city":"江東区","address":"東京都江東区南砂4丁目19-13","lat":35.67185386,"lon":139.83220261},{"name":"江東試験場入口","province":"東京都","city":"江東区","address":"東京都江東区南砂2丁目3","lat":35.67096762,"lon":139.82298967},{"name":"都立東高校角","province":"東京都","city":"江東区","address":"東京都江東区南砂6丁目7","lat":35.67234275,"lon":139.8348801},{"name":"南砂三丁目公園入口","province":"東京都","city":"江東区","address":"東京都江東区南砂6丁目2-1","lat":35.67136509,"lon":139.83436628},{"name":"南砂二丁目団地入口","province":"東京都","city":"江東区","address":"東京都江東区南砂2丁目3-3","lat":35.67328122,"lon":139.82288413},{"name":"北砂五丁目団地前","province":"東京都","city":"江東区","address":"東京都江東区北砂5丁目20-8","lat":35.68347745,"lon":139.83288003},{"name":"中川新橋西詰第二","province":"東京都","city":"江東区","address":"東京都江東区亀戸9丁目8","lat":35.69656757,"lon":139.8436343},{"name":"江東試験場前","province":"東京都","city":"江東区","address":"東京都江東区新砂1丁目7-24","lat":35.6689012,"lon":139.82269804},{"name":"南砂二丁目南公園前","province":"東京都","city":"江東区","address":"東京都江東区南砂2丁目3-6","lat":35.67042604,"lon":139.82382569},{"name":"東大島駅入口","province":"東京都","city":"江東区","address":"東京都江東区大島9丁目2","lat":35.68882412,"lon":139.84570657},{"name":"南砂三丁目公園前","province":"東京都","city":"江東区","address":"東京都江東区南砂3丁目14","lat":35.66992634,"lon":139.83271092},{"name":"南砂町駅前","province":"東京都","city":"江東区","address":"東京都江東区南砂3丁目14-1","lat":35.66877645,"lon":139.83174161},{"name":"江東医療センター入口","province":"東京都","city":"江東区","address":"東京都江東区新砂3丁目3","lat":35.66770714,"lon":139.83211937},{"name":"あゆみ橋","province":"東京都","city":"江東区","address":"東京都江東区新砂3丁目3","lat":35.66770714,"lon":139.83211937},{"name":"南砂町駅西口","province":"東京都","city":"江東区","address":"東京都江東区新砂2丁目1","lat":35.66886798,"lon":139.82686152},{"name":"亀戸給水所","province":"東京都","city":"江東区","address":"東京都江東区亀戸2丁目6-50","lat":35.70101603,"lon":139.82130935},{"name":"豊住給水所","province":"東京都","city":"江東区","address":"東京都江東区東陽6丁目1-8","lat":35.67503913,"lon":139.81095502},{"name":"江東給水所","province":"東京都","city":"江東区","address":"東京都江東区新砂3丁目6-17","lat":35.66542149,"lon":139.84132701},{"name":"有明給水所","province":"東京都","city":"江東区","address":"東京都江東区有明3丁目1-8","lat":35.63082682,"lon":139.78543859},{"name":"区立南砂三丁目公園","province":"東京都","city":"江東区","address":"東京都江東区南砂3丁目14-21","lat":35.66960695,"lon":139.83337197},{"name":"都立辰巳の森海浜公園","province":"東京都","city":"江東区","address":"東京都江東区辰巳2丁目1","lat":35.64899491,"lon":139.81239389},{"name":"新砂緊急用船着場","province":"東京都","city":"江東区","address":"東京都江東区新砂3丁目","lat":35.66420213,"lon":139.83834118},{"name":"有明客船ターミナル","province":"東京都","city":"江東区","address":"東京都江東区有明3丁目","lat":35.63159354,"lon":139.78818561},{"name":"青海客船ターミナル","province":"東京都","city":"江東区","address":"東京都江東区青海2丁目","lat":35.61733141,"lon":139.78018715},{"name":"黒船橋乗船場","province":"東京都","city":"江東区","address":"東京都江東区門前仲町1丁目1","lat":35.67178636,"lon":139.79273166},{"name":"木場六丁目乗船場","province":"東京都","city":"江東区","address":"東京都江東区木場6丁目","lat":35.66762602,"lon":139.80679399},{"name":"亀戸中央公園乗船場","province":"東京都","city":"江東区","address":"東京都江東区亀戸8丁目","lat":35.7006893,"lon":139.8333461},{"name":"豊洲三丁目乗船場","province":"東京都","city":"江東区","address":"東京都江東区豊洲3丁目","lat":35.66003768,"lon":139.79466194},{"name":"旧中川川の駅スロープ","province":"東京都","city":"江東区","address":"東京都江東区大島9丁目","lat":35.69317076,"lon":139.84506485},{"name":"基幹的広域防災拠点（有明の丘地区）","province":"東京都","city":"江東区","address":"江東区有明3-8-35","lat":35.63537,"lon":139.7941},{"name":"第九機動隊","province":"東京都","city":"江東区","address":"江東区新砂1-7-20","lat":35.668,"lon":139.8226},{"name":"第七方面交通機動隊新木場分駐所","province":"東京都","city":"江東区","address":"江東区新木場4-2-31","lat":35.64214,"lon":139.8376},{"name":"第七方面本部","province":"東京都","city":"江東区","address":"江東区新木場4-2-31","lat":35.64214,"lon":139.8376},{"name":"城東警察署","province":"東京都","city":"江東区","address":"江東区北砂2-1-24","lat":35.67844,"lon":139.827},{"name":"東京湾岸警察署","province":"東京都","city":"江東区","address":"江東区青海2-7-1","lat":35.61857,"lon":139.7746},{"name":"深川警察署","province":"東京都","city":"江東区","address":"江東区木場3-18-6","lat":35.67362,"lon":139.8062},{"name":"第七消防方面本部","province":"東京都","city":"江東区","address":"江東区森下5-1-4","lat":35.68487,"lon":139.8066},{"name":"夢の島訓練場","province":"東京都","city":"江東区","address":"江東区夢の島3-1-1","lat":35.64985,"lon":139.8344},{"name":"第一方面訓練場","province":"東京都","city":"江東区","address":"江東区潮見1-29","lat":35.65556,"lon":139.8142},{"name":"第六方面訓練場","province":"東京都","city":"江東区","address":"江東区夢の島3-30","lat":35.65202,"lon":139.8315},{"name":"城東消防署","province":"東京都","city":"江東区","address":"江東区亀戸6-42-9","lat":35.69659,"lon":139.8319},{"name":"深川消防署","province":"東京都","city":"江東区","address":"江東区木場3-18-10","lat":35.67304,"lon":139.8061},{"name":"都営大江戸線清澄白河駅内備蓄倉庫","province":"東京都","city":"江東区","address":"江東区白河1-7-14","lat":35.68292,"lon":139.7989},{"name":"江東区","province":"東京都","city":"江東区","address":"江東区大島4-4-3","lat":35.68874,"lon":139.8273},{"name":"（株）メディセオ新東京ビル","province":"東京都","city":"江東区","address":"江東区佐賀2-8-20","lat":35.67896,"lon":139.7919},{"name":"東京都赤十字血液センター","province":"東京都","city":"江東区","address":"江東区辰巳2-1-67","lat":35.64709,"lon":139.8132},{"name":"夢の島マリーナ","province":"東京都","city":"江東区","address":"東京都江東区夢の島3丁目","lat":35.65190061,"lon":139.83152826},{"name":"黒船橋乗船場","province":"東京都","city":"江東区","address":"東京都江東区門前仲町1丁目1","lat":35.67178636,"lon":139.79273166},{"name":"辰巳二丁目","province":"東京都","city":"江東区","address":"東京都江東区辰巳1丁目10-57","lat":35.64684791,"lon":139.81136906},{"name":"辰巳第二小学校前","province":"東京都","city":"江東区","address":"東京都江東区辰巳1丁目9-60","lat":35.64925314,"lon":139.80949136},{"name":"船の科学館入口","province":"東京都","city":"江東区","address":"東京都江東区青海1丁目1","lat":35.62344145,"lon":139.77495385},{"name":"テレコム駅前","province":"東京都","city":"江東区","address":"東京都江東区青海2丁目6-3","lat":35.61612036,"lon":139.77722358},{"name":"辰巳の森公園前","province":"東京都","city":"江東区","address":"東京都江東区辰巳2丁目1","lat":35.64899491,"lon":139.81239389},{"name":"嘉悦学園入口","province":"東京都","city":"江東区","address":"東京都江東区有明1丁目1-17","lat":35.64231473,"lon":139.79573733},{"name":"夢の島","province":"東京都","city":"江東区","address":"東京都江東区新木場1丁目2-11","lat":35.64491513,"lon":139.82490129},{"name":"千石橋北","province":"東京都","city":"江東区","address":"東京都江東区新木場1丁目18-6","lat":35.64371254,"lon":139.8257263},{"name":"夢の島第二","province":"東京都","city":"江東区","address":"東京都江東区夢の島2丁目1","lat":35.64925356,"lon":139.82649544},{"name":"新木場駅前","province":"東京都","city":"江東区","address":"東京都江東区新木場1丁目18-11","lat":35.64412641,"lon":139.82744557},{"name":"木遣り橋南","province":"東京都","city":"江東区","address":"東京都江東区有明1丁目2-22","lat":35.64094542,"lon":139.79394867},{"name":"有明テニスの森駅前","province":"東京都","city":"江東区","address":"東京都江東区有明1丁目3-20","lat":35.63905107,"lon":139.79022683},{"name":"清澄三丁目","province":"東京都","city":"江東区","address":"東京都江東区清澄3丁目7-9","lat":35.68220214,"lon":139.79856599},{"name":"扇橋二丁目","province":"東京都","city":"江東区","address":"東京都江東区扇橋2丁目22-3","lat":35.6828521,"lon":139.81624074},{"name":"白河三丁目","province":"東京都","city":"江東区","address":"東京都江東区白河3丁目4-3","lat":35.68222989,"lon":139.80574246},{"name":"永代二丁目","province":"東京都","city":"江東区","address":"東京都江東区永代2丁目12-3","lat":35.67367779,"lon":139.79152619},{"name":"木場五丁目","province":"東京都","city":"江東区","address":"東京都江東区木場2丁目20","lat":35.66918415,"lon":139.80526639},{"name":"門前仲町","province":"東京都","city":"江東区","address":"東京都江東区門前仲町1丁目7-9","lat":35.67273633,"lon":139.79477891},{"name":"豊洲駅前","province":"東京都","city":"江東区","address":"東京都江東区豊洲2丁目2-12","lat":35.65470219,"lon":139.79594802},{"name":"東陽六丁目","province":"東京都","city":"江東区","address":"東京都江東区東陽6丁目4-5","lat":35.67593631,"lon":139.81551562},{"name":"東陽町駅前","province":"東京都","city":"江東区","address":"東京都江東区東陽4丁目2-1","lat":35.66993428,"lon":139.81666244},{"name":"白河二丁目","province":"東京都","city":"江東区","address":"東京都江東区白河1丁目4-11","lat":35.68196327,"lon":139.8008461},{"name":"扇橋三丁目","province":"東京都","city":"江東区","address":"東京都江東区扇橋3丁目11-7","lat":35.68335484,"lon":139.81850983},{"name":"千石二丁目","province":"東京都","city":"江東区","address":"東京都江東区千石2丁目8-17","lat":35.67898594,"lon":139.81573794},{"name":"千石一丁目","province":"東京都","city":"江東区","address":"東京都江東区千石1丁目13-24","lat":35.6784054,"lon":139.81160241},{"name":"深川不動前","province":"東京都","city":"江東区","address":"東京都江東区富岡1丁目6-6","lat":35.67104491,"lon":139.79711757},{"name":"東陽四丁目","province":"東京都","city":"江東区","address":"東京都江東区東陽4丁目1-20","lat":35.66948439,"lon":139.81948165},{"name":"深川高校前","province":"東京都","city":"江東区","address":"東京都江東区東陽4丁目10-8","lat":35.67195349,"lon":139.81653198},{"name":"枝川一丁目第二","province":"東京都","city":"江東区","address":"東京都江東区枝川1丁目6-14","lat":35.65686604,"lon":139.80393056},{"name":"新豊洲変電所前","province":"東京都","city":"江東区","address":"東京都江東区豊洲6丁目1","lat":35.65019974,"lon":139.79000422},{"name":"扇橋二丁目第二","province":"東京都","city":"江東区","address":"東京都江東区扇橋3丁目15-10","lat":35.68325206,"lon":139.81739889},{"name":"深川五中角","province":"東京都","city":"江東区","address":"東京都江東区豊洲5丁目5","lat":35.65340512,"lon":139.796398},{"name":"豊洲二丁目","province":"東京都","city":"江東区","address":"東京都江東区豊洲2丁目5","lat":35.65794337,"lon":139.79123171},{"name":"東陽三丁目東","province":"東京都","city":"江東区","address":"東京都江東区東陽3丁目22-1","lat":35.66898431,"lon":139.81218784},{"name":"東陽三丁目住宅前","province":"東京都","city":"江東区","address":"東京都江東区東陽3丁目22-32","lat":35.66918986,"lon":139.81313776},{"name":"漣橋北","province":"東京都","city":"江東区","address":"東京都江東区潮見2丁目3","lat":35.65735517,"lon":139.81617663},{"name":"東陽二丁目","province":"東京都","city":"江東区","address":"東京都江東区東陽2丁目4-24","lat":35.66836503,"lon":139.81698744},{"name":"森下駅西","province":"東京都","city":"江東区","address":"東京都江東区新大橋3丁目3-6","lat":35.68776824,"lon":139.79654747},{"name":"江東区役所前","province":"東京都","city":"江東区","address":"東京都江東区東陽5丁目31-19","lat":35.67283114,"lon":139.81570434},{"name":"東陽町駅東口","province":"東京都","city":"江東区","address":"東京都江東区東陽4丁目5-18","lat":35.67048425,"lon":139.81829565},{"name":"扇橋三丁目第二","province":"東京都","city":"江東区","address":"東京都江東区扇橋3丁目7-3","lat":35.68255774,"lon":139.82023454},{"name":"潮見駅南","province":"東京都","city":"江東区","address":"東京都江東区潮見2丁目10-22","lat":35.65700526,"lon":139.81812368},{"name":"江東区文化センター東","province":"東京都","city":"江東区","address":"東京都江東区東陽4丁目12-30","lat":35.67261456,"lon":139.81919007},{"name":"東陽図書館前","province":"東京都","city":"江東区","address":"東京都江東区東陽2丁目2-20","lat":35.66588197,"lon":139.816032},{"name":"清澄白河駅","province":"東京都","city":"江東区","address":"東京都江東区白河2丁目9-5","lat":35.68203826,"lon":139.8021431},{"name":"豊洲六丁目","province":"東京都","city":"江東区","address":"東京都江東区豊洲6丁目2","lat":35.64571973,"lon":139.79140145},{"name":"豊洲埠頭口前","province":"東京都","city":"江東区","address":"東京都江東区豊洲5丁目1","lat":35.6498916,"lon":139.79570094},{"name":"豊洲三丁目","province":"東京都","city":"江東区","address":"東京都江東区豊洲2丁目1","lat":35.65699075,"lon":139.79314545},{"name":"区民センター前","province":"東京都","city":"江東区","address":"東京都江東区大島2丁目41-18","lat":35.68959587,"lon":139.82617805},{"name":"亀戸五丁目","province":"東京都","city":"江東区","address":"東京都江東区亀戸5丁目15-2","lat":35.69990821,"lon":139.82578635},{"name":"中川新橋西詰","province":"東京都","city":"江東区","address":"東京都江東区亀戸9丁目8","lat":35.69656757,"lon":139.8436343},{"name":"大島仲の橋","province":"東京都","city":"江東区","address":"東京都江東区大島7丁目1-18","lat":35.69029342,"lon":139.83811537},{"name":"亀戸七丁目","province":"東京都","city":"江東区","address":"東京都江東区亀戸7丁目41-5","lat":35.69693989,"lon":139.83645134},{"name":"亀戸駅北口","province":"東京都","city":"江東区","address":"東京都江東区亀戸5丁目1-1","lat":35.69781692,"lon":139.82621403},{"name":"大島八丁目","province":"東京都","city":"江東区","address":"東京都江東区大島8丁目42-11","lat":35.69047391,"lon":139.84406775},{"name":"砂町橋","province":"東京都","city":"江東区","address":"東京都江東区南砂6丁目4-6","lat":35.67363145,"lon":139.83348855},{"name":"南砂三丁目","province":"東京都","city":"江東区","address":"東京都江東区南砂3丁目4-7","lat":35.67345352,"lon":139.82670594},{"name":"日曹橋北","province":"東京都","city":"江東区","address":"東京都江東区南砂3丁目2-1","lat":35.6705122,"lon":139.82621712},{"name":"第三大島小学校入口","province":"東京都","city":"江東区","address":"東京都江東区大島7丁目41-8","lat":35.69288472,"lon":139.8433094},{"name":"日曹橋","province":"東京都","city":"江東区","address":"東京都江東区南砂3丁目2","lat":35.67059,"lon":139.82714758},{"name":"南砂五差路","province":"東京都","city":"江東区","address":"東京都江東区南砂1丁目11-15","lat":35.67820564,"lon":139.82440897},{"name":"大島六丁目","province":"東京都","city":"江東区","address":"東京都江東区大島5丁目35-8","lat":35.68974071,"lon":139.83620996},{"name":"環四亀戸七丁目第二","province":"東京都","city":"江東区","address":"東京都江東区亀戸7丁目49-4","lat":35.6957429,"lon":139.83429587},{"name":"第三砂町小前","province":"東京都","city":"江東区","address":"東京都江東区南砂4丁目19-13","lat":35.67185386,"lon":139.83220261},{"name":"江東試験場入口","province":"東京都","city":"江東区","address":"東京都江東区南砂2丁目3","lat":35.67096762,"lon":139.82298967},{"name":"都立東高校角","province":"東京都","city":"江東区","address":"東京都江東区南砂6丁目7","lat":35.67234275,"lon":139.8348801},{"name":"南砂三丁目公園入口","province":"東京都","city":"江東区","address":"東京都江東区南砂6丁目2-1","lat":35.67136509,"lon":139.83436628},{"name":"南砂二丁目団地入口","province":"東京都","city":"江東区","address":"東京都江東区南砂2丁目3-3","lat":35.67328122,"lon":139.82288413},{"name":"北砂五丁目団地前","province":"東京都","city":"江東区","address":"東京都江東区北砂5丁目20-8","lat":35.68347745,"lon":139.83288003},{"name":"中川新橋西詰第二","province":"東京都","city":"江東区","address":"東京都江東区亀戸9丁目8","lat":35.69656757,"lon":139.8436343},{"name":"江東試験場前","province":"東京都","city":"江東区","address":"東京都江東区新砂1丁目7-24","lat":35.6689012,"lon":139.82269804},{"name":"南砂二丁目南公園前","province":"東京都","city":"江東区","address":"東京都江東区南砂2丁目3-6","lat":35.67042604,"lon":139.82382569},{"name":"東大島駅入口","province":"東京都","city":"江東区","address":"東京都江東区大島9丁目2","lat":35.68882412,"lon":139.84570657},{"name":"南砂三丁目公園前","province":"東京都","city":"江東区","address":"東京都江東区南砂3丁目14","lat":35.66992634,"lon":139.83271092},{"name":"南砂町駅前","province":"東京都","city":"江東区","address":"東京都江東区南砂3丁目14-1","lat":35.66877645,"lon":139.83174161},{"name":"江東医療センター入口","province":"東京都","city":"江東区","address":"東京都江東区新砂3丁目3","lat":35.66770714,"lon":139.83211937},{"name":"あゆみ橋","province":"東京都","city":"江東区","address":"東京都江東区新砂3丁目3","lat":35.66770714,"lon":139.83211937},{"name":"南砂町駅西口","province":"東京都","city":"江東区","address":"東京都江東区新砂2丁目1","lat":35.66886798,"lon":139.82686152},{"name":"亀戸給水所","province":"東京都","city":"江東区","address":"東京都江東区亀戸2丁目6-50","lat":35.70101603,"lon":139.82130935},{"name":"豊住給水所","province":"東京都","city":"江東区","address":"東京都江東区東陽6丁目1-8","lat":35.67503913,"lon":139.81095502},{"name":"江東給水所","province":"東京都","city":"江東区","address":"東京都江東区新砂3丁目6-17","lat":35.66542149,"lon":139.84132701},{"name":"有明給水所","province":"東京都","city":"江東区","address":"東京都江東区有明3丁目1-8","lat":35.63082682,"lon":139.78543859},{"name":"区立南砂三丁目公園","province":"東京都","city":"江東区","address":"東京都江東区南砂3丁目14-21","lat":35.66960695,"lon":139.83337197},{"name":"都立辰巳の森海浜公園","province":"東京都","city":"江東区","address":"東京都江東区辰巳2丁目1","lat":35.64899491,"lon":139.81239389},{"name":"新砂緊急用船着場","province":"東京都","city":"江東区","address":"東京都江東区新砂3丁目","lat":35.66420213,"lon":139.83834118},{"name":"有明客船ターミナル","province":"東京都","city":"江東区","address":"東京都江東区有明3丁目","lat":35.63159354,"lon":139.78818561},{"name":"青海客船ターミナル","province":"東京都","city":"江東区","address":"東京都江東区青海2丁目","lat":35.61733141,"lon":139.78018715},{"name":"黒船橋乗船場","province":"東京都","city":"江東区","address":"東京都江東区門前仲町1丁目1","lat":35.67178636,"lon":139.79273166},{"name":"木場六丁目乗船場","province":"東京都","city":"江東区","address":"東京都江東区木場6丁目","lat":35.66762602,"lon":139.80679399},{"name":"亀戸中央公園乗船場","province":"東京都","city":"江東区","address":"東京都江東区亀戸8丁目","lat":35.7006893,"lon":139.8333461},{"name":"豊洲三丁目乗船場","province":"東京都","city":"江東区","address":"東京都江東区豊洲3丁目","lat":35.66003768,"lon":139.79466194},{"name":"旧中川川の駅スロープ","province":"東京都","city":"江東区","address":"東京都江東区大島9丁目","lat":35.69317076,"lon":139.84506485},{"name":"基幹的広域防災拠点（有明の丘地区）","province":"東京都","city":"江東区","address":"江東区有明3-8-35","lat":35.63537,"lon":139.7941},{"name":"第九機動隊","province":"東京都","city":"江東区","address":"江東区新砂1-7-20","lat":35.668,"lon":139.8226},{"name":"第七方面交通機動隊新木場分駐所","province":"東京都","city":"江東区","address":"江東区新木場4-2-31","lat":35.64214,"lon":139.8376},{"name":"第七方面本部","province":"東京都","city":"江東区","address":"江東区新木場4-2-31","lat":35.64214,"lon":139.8376},{"name":"城東警察署","province":"東京都","city":"江東区","address":"江東区北砂2-1-24","lat":35.67844,"lon":139.827},{"name":"東京湾岸警察署","province":"東京都","city":"江東区","address":"江東区青海2-7-1","lat":35.61857,"lon":139.7746},{"name":"深川警察署","province":"東京都","city":"江東区","address":"江東区木場3-18-6","lat":35.67362,"lon":139.8062},{"name":"第七消防方面本部","province":"東京都","city":"江東区","address":"江東区森下5-1-4","lat":35.68487,"lon":139.8066},{"name":"夢の島訓練場","province":"東京都","city":"江東区","address":"江東区夢の島3-1-1","lat":35.64985,"lon":139.8344},{"name":"第一方面訓練場","province":"東京都","city":"江東区","address":"江東区潮見1-29","lat":35.65556,"lon":139.8142},{"name":"第六方面訓練場","province":"東京都","city":"江東区","address":"江東区夢の島3-30","lat":35.65202,"lon":139.8315},{"name":"城東消防署","province":"東京都","city":"江東区","address":"江東区亀戸6-42-9","lat":35.69659,"lon":139.8319},{"name":"深川消防署","province":"東京都","city":"江東区","address":"江東区木場3-18-10","lat":35.67304,"lon":139.8061},{"name":"都営大江戸線清澄白河駅内備蓄倉庫","province":"東京都","city":"江東区","address":"江東区白河1-7-14","lat":35.68292,"lon":139.7989},{"name":"江東区","province":"東京都","city":"江東区","address":"江東区大島4-4-3","lat":35.68874,"lon":139.8273},{"name":"（株）メディセオ新東京ビル","province":"東京都","city":"江東区","address":"江東区佐賀2-8-20","lat":35.67896,"lon":139.7919},{"name":"東京都赤十字血液センター","province":"東京都","city":"江東区","address":"江東区辰巳2-1-67","lat":35.64709,"lon":139.8132},{"name":"夢の島マリーナ","province":"東京都","city":"江東区","address":"東京都江東区夢の島3丁目","lat":35.65190061,"lon":139.83152826},{"name":"黒船橋乗船場","province":"東京都","city":"江東区","address":"東京都江東区門前仲町1丁目1","lat":35.67178636,"lon":139.79273166},{"name":"辰巳二丁目","province":"東京都","city":"江東区","address":"東京都江東区辰巳1丁目10-57","lat":35.64684791,"lon":139.81136906},{"name":"辰巳第二小学校前","province":"東京都","city":"江東区","address":"東京都江東区辰巳1丁目9-60","lat":35.64925314,"lon":139.80949136},{"name":"船の科学館入口","province":"東京都","city":"江東区","address":"東京都江東区青海1丁目1","lat":35.62344145,"lon":139.77495385},{"name":"テレコム駅前","province":"東京都","city":"江東区","address":"東京都江東区青海2丁目6-3","lat":35.61612036,"lon":139.77722358},{"name":"辰巳の森公園前","province":"東京都","city":"江東区","address":"東京都江東区辰巳2丁目1","lat":35.64899491,"lon":139.81239389},{"name":"嘉悦学園入口","province":"東京都","city":"江東区","address":"東京都江東区有明1丁目1-17","lat":35.64231473,"lon":139.79573733},{"name":"夢の島","province":"東京都","city":"江東区","address":"東京都江東区新木場1丁目2-11","lat":35.64491513,"lon":139.82490129},{"name":"千石橋北","province":"東京都","city":"江東区","address":"東京都江東区新木場1丁目18-6","lat":35.64371254,"lon":139.8257263},{"name":"夢の島第二","province":"東京都","city":"江東区","address":"東京都江東区夢の島2丁目1","lat":35.64925356,"lon":139.82649544},{"name":"新木場駅前","province":"東京都","city":"江東区","address":"東京都江東区新木場1丁目18-11","lat":35.64412641,"lon":139.82744557},{"name":"木遣り橋南","province":"東京都","city":"江東区","address":"東京都江東区有明1丁目2-22","lat":35.64094542,"lon":139.79394867},{"name":"有明テニスの森駅前","province":"東京都","city":"江東区","address":"東京都江東区有明1丁目3-20","lat":35.63905107,"lon":139.79022683},{"name":"清澄三丁目","province":"東京都","city":"江東区","address":"東京都江東区清澄3丁目7-9","lat":35.68220214,"lon":139.79856599},{"name":"扇橋二丁目","province":"東京都","city":"江東区","address":"東京都江東区扇橋2丁目22-3","lat":35.6828521,"lon":139.81624074},{"name":"白河三丁目","province":"東京都","city":"江東区","address":"東京都江東区白河3丁目4-3","lat":35.68222989,"lon":139.80574246},{"name":"永代二丁目","province":"東京都","city":"江東区","address":"東京都江東区永代2丁目12-3","lat":35.67367779,"lon":139.79152619},{"name":"木場五丁目","province":"東京都","city":"江東区","address":"東京都江東区木場2丁目20","lat":35.66918415,"lon":139.80526639},{"name":"門前仲町","province":"東京都","city":"江東区","address":"東京都江東区門前仲町1丁目7-9","lat":35.67273633,"lon":139.79477891},{"name":"豊洲駅前","province":"東京都","city":"江東区","address":"東京都江東区豊洲2丁目2-12","lat":35.65470219,"lon":139.79594802},{"name":"東陽六丁目","province":"東京都","city":"江東区","address":"東京都江東区東陽6丁目4-5","lat":35.67593631,"lon":139.81551562},{"name":"東陽町駅前","province":"東京都","city":"江東区","address":"東京都江東区東陽4丁目2-1","lat":35.66993428,"lon":139.81666244},{"name":"白河二丁目","province":"東京都","city":"江東区","address":"東京都江東区白河1丁目4-11","lat":35.68196327,"lon":139.8008461},{"name":"扇橋三丁目","province":"東京都","city":"江東区","address":"東京都江東区扇橋3丁目11-7","lat":35.68335484,"lon":139.81850983},{"name":"千石二丁目","province":"東京都","city":"江東区","address":"東京都江東区千石2丁目8-17","lat":35.67898594,"lon":139.81573794},{"name":"千石一丁目","province":"東京都","city":"江東区","address":"東京都江東区千石1丁目13-24","lat":35.6784054,"lon":139.81160241},{"name":"深川不動前","province":"東京都","city":"江東区","address":"東京都江東区富岡1丁目6-6","lat":35.67104491,"lon":139.79711757},{"name":"東陽四丁目","province":"東京都","city":"江東区","address":"東京都江東区東陽4丁目1-20","lat":35.66948439,"lon":139.81948165},{"name":"深川高校前","province":"東京都","city":"江東区","address":"東京都江東区東陽4丁目10-8","lat":35.67195349,"lon":139.81653198},{"name":"枝川一丁目第二","province":"東京都","city":"江東区","address":"東京都江東区枝川1丁目6-14","lat":35.65686604,"lon":139.80393056},{"name":"新豊洲変電所前","province":"東京都","city":"江東区","address":"東京都江東区豊洲6丁目1","lat":35.65019974,"lon":139.79000422},{"name":"扇橋二丁目第二","province":"東京都","city":"江東区","address":"東京都江東区扇橋3丁目15-10","lat":35.68325206,"lon":139.81739889},{"name":"深川五中角","province":"東京都","city":"江東区","address":"東京都江東区豊洲5丁目5","lat":35.65340512,"lon":139.796398},{"name":"豊洲二丁目","province":"東京都","city":"江東区","address":"東京都江東区豊洲2丁目5","lat":35.65794337,"lon":139.79123171},{"name":"東陽三丁目東","province":"東京都","city":"江東区","address":"東京都江東区東陽3丁目22-1","lat":35.66898431,"lon":139.81218784},{"name":"東陽三丁目住宅前","province":"東京都","city":"江東区","address":"東京都江東区東陽3丁目22-32","lat":35.66918986,"lon":139.81313776},{"name":"漣橋北","province":"東京都","city":"江東区","address":"東京都江東区潮見2丁目3","lat":35.65735517,"lon":139.81617663},{"name":"東陽二丁目","province":"東京都","city":"江東区","address":"東京都江東区東陽2丁目4-24","lat":35.66836503,"lon":139.81698744},{"name":"森下駅西","province":"東京都","city":"江東区","address":"東京都江東区新大橋3丁目3-6","lat":35.68776824,"lon":139.79654747},{"name":"江東区役所前","province":"東京都","city":"江東区","address":"東京都江東区東陽5丁目31-19","lat":35.67283114,"lon":139.81570434},{"name":"東陽町駅東口","province":"東京都","city":"江東区","address":"東京都江東区東陽4丁目5-18","lat":35.67048425,"lon":139.81829565},{"name":"扇橋三丁目第二","province":"東京都","city":"江東区","address":"東京都江東区扇橋3丁目7-3","lat":35.68255774,"lon":139.82023454},{"name":"潮見駅南","province":"東京都","city":"江東区","address":"東京都江東区潮見2丁目10-22","lat":35.65700526,"lon":139.81812368},{"name":"江東区文化センター東","province":"東京都","city":"江東区","address":"東京都江東区東陽4丁目12-30","lat":35.67261456,"lon":139.81919007},{"name":"東陽図書館前","province":"東京都","city":"江東区","address":"東京都江東区東陽2丁目2-20","lat":35.66588197,"lon":139.816032},{"name":"清澄白河駅","province":"東京都","city":"江東区","address":"東京都江東区白河2丁目9-5","lat":35.68203826,"lon":139.8021431},{"name":"豊洲六丁目","province":"東京都","city":"江東区","address":"東京都江東区豊洲6丁目2","lat":35.64571973,"lon":139.79140145},{"name":"豊洲埠頭口前","province":"東京都","city":"江東区","address":"東京都江東区豊洲5丁目1","lat":35.6498916,"lon":139.79570094},{"name":"豊洲三丁目","province":"東京都","city":"江東区","address":"東京都江東区豊洲2丁目1","lat":35.65699075,"lon":139.79314545},{"name":"区民センター前","province":"東京都","city":"江東区","address":"東京都江東区大島2丁目41-18","lat":35.68959587,"lon":139.82617805},{"name":"亀戸五丁目","province":"東京都","city":"江東区","address":"東京都江東区亀戸5丁目15-2","lat":35.69990821,"lon":139.82578635},{"name":"中川新橋西詰","province":"東京都","city":"江東区","address":"東京都江東区亀戸9丁目8","lat":35.69656757,"lon":139.8436343},{"name":"大島仲の橋","province":"東京都","city":"江東区","address":"東京都江東区大島7丁目1-18","lat":35.69029342,"lon":139.83811537},{"name":"亀戸七丁目","province":"東京都","city":"江東区","address":"東京都江東区亀戸7丁目41-5","lat":35.69693989,"lon":139.83645134},{"name":"亀戸駅北口","province":"東京都","city":"江東区","address":"東京都江東区亀戸5丁目1-1","lat":35.69781692,"lon":139.82621403},{"name":"大島八丁目","province":"東京都","city":"江東区","address":"東京都江東区大島8丁目42-11","lat":35.69047391,"lon":139.84406775},{"name":"砂町橋","province":"東京都","city":"江東区","address":"東京都江東区南砂6丁目4-6","lat":35.67363145,"lon":139.83348855},{"name":"南砂三丁目","province":"東京都","city":"江東区","address":"東京都江東区南砂3丁目4-7","lat":35.67345352,"lon":139.82670594},{"name":"日曹橋北","province":"東京都","city":"江東区","address":"東京都江東区南砂3丁目2-1","lat":35.6705122,"lon":139.82621712},{"name":"第三大島小学校入口","province":"東京都","city":"江東区","address":"東京都江東区大島7丁目41-8","lat":35.69288472,"lon":139.8433094},{"name":"日曹橋","province":"東京都","city":"江東区","address":"東京都江東区南砂3丁目2","lat":35.67059,"lon":139.82714758},{"name":"南砂五差路","province":"東京都","city":"江東区","address":"東京都江東区南砂1丁目11-15","lat":35.67820564,"lon":139.82440897},{"name":"大島六丁目","province":"東京都","city":"江東区","address":"東京都江東区大島5丁目35-8","lat":35.68974071,"lon":139.83620996},{"name":"環四亀戸七丁目第二","province":"東京都","city":"江東区","address":"東京都江東区亀戸7丁目49-4","lat":35.6957429,"lon":139.83429587},{"name":"第三砂町小前","province":"東京都","city":"江東区","address":"東京都江東区南砂4丁目19-13","lat":35.67185386,"lon":139.83220261},{"name":"江東試験場入口","province":"東京都","city":"江東区","address":"東京都江東区南砂2丁目3","lat":35.67096762,"lon":139.82298967},{"name":"都立東高校角","province":"東京都","city":"江東区","address":"東京都江東区南砂6丁目7","lat":35.67234275,"lon":139.8348801},{"name":"南砂三丁目公園入口","province":"東京都","city":"江東区","address":"東京都江東区南砂6丁目2-1","lat":35.67136509,"lon":139.83436628},{"name":"南砂二丁目団地入口","province":"東京都","city":"江東区","address":"東京都江東区南砂2丁目3-3","lat":35.67328122,"lon":139.82288413},{"name":"北砂五丁目団地前","province":"東京都","city":"江東区","address":"東京都江東区北砂5丁目20-8","lat":35.68347745,"lon":139.83288003},{"name":"中川新橋西詰第二","province":"東京都","city":"江東区","address":"東京都江東区亀戸9丁目8","lat":35.69656757,"lon":139.8436343},{"name":"江東試験場前","province":"東京都","city":"江東区","address":"東京都江東区新砂1丁目7-24","lat":35.6689012,"lon":139.82269804},{"name":"南砂二丁目南公園前","province":"東京都","city":"江東区","address":"東京都江東区南砂2丁目3-6","lat":35.67042604,"lon":139.82382569},{"name":"東大島駅入口","province":"東京都","city":"江東区","address":"東京都江東区大島9丁目2","lat":35.68882412,"lon":139.84570657},{"name":"南砂三丁目公園前","province":"東京都","city":"江東区","address":"東京都江東区南砂3丁目14","lat":35.66992634,"lon":139.83271092},{"name":"南砂町駅前","province":"東京都","city":"江東区","address":"東京都江東区南砂3丁目14-1","lat":35.66877645,"lon":139.83174161},{"name":"江東医療センター入口","province":"東京都","city":"江東区","address":"東京都江東区新砂3丁目3","lat":35.66770714,"lon":139.83211937},{"name":"あゆみ橋","province":"東京都","city":"江東区","address":"東京都江東区新砂3丁目3","lat":35.66770714,"lon":139.83211937},{"name":"南砂町駅西口","province":"東京都","city":"江東区","address":"東京都江東区新砂2丁目1","lat":35.66886798,"lon":139.82686152},{"name":"亀戸給水所","province":"東京都","city":"江東区","address":"東京都江東区亀戸2丁目6-50","lat":35.70101603,"lon":139.82130935},{"name":"豊住給水所","province":"東京都","city":"江東区","address":"東京都江東区東陽6丁目1-8","lat":35.67503913,"lon":139.81095502},{"name":"江東給水所","province":"東京都","city":"江東区","address":"東京都江東区新砂3丁目6-17","lat":35.66542149,"lon":139.84132701},{"name":"有明給水所","province":"東京都","city":"江東区","address":"東京都江東区有明3丁目1-8","lat":35.63082682,"lon":139.78543859},{"name":"区立南砂三丁目公園","province":"東京都","city":"江東区","address":"東京都江東区南砂3丁目14-21","lat":35.66960695,"lon":139.83337197},{"name":"都立辰巳の森海浜公園","province":"東京都","city":"江東区","address":"東京都江東区辰巳2丁目1","lat":35.64899491,"lon":139.81239389},{"name":"新砂緊急用船着場","province":"東京都","city":"江東区","address":"東京都江東区新砂3丁目","lat":35.66420213,"lon":139.83834118},{"name":"有明客船ターミナル","province":"東京都","city":"江東区","address":"東京都江東区有明3丁目","lat":35.63159354,"lon":139.78818561},{"name":"青海客船ターミナル","province":"東京都","city":"江東区","address":"東京都江東区青海2丁目","lat":35.61733141,"lon":139.78018715},{"name":"黒船橋乗船場","province":"東京都","city":"江東区","address":"東京都江東区門前仲町1丁目1","lat":35.67178636,"lon":139.79273166},{"name":"木場六丁目乗船場","province":"東京都","city":"江東区","address":"東京都江東区木場6丁目","lat":35.66762602,"lon":139.80679399},{"name":"亀戸中央公園乗船場","province":"東京都","city":"江東区","address":"東京都江東区亀戸8丁目","lat":35.7006893,"lon":139.8333461},{"name":"豊洲三丁目乗船場","province":"東京都","city":"江東区","address":"東京都江東区豊洲3丁目","lat":35.66003768,"lon":139.79466194},{"name":"旧中川川の駅スロープ","province":"東京都","city":"江東区","address":"東京都江東区大島9丁目","lat":35.69317076,"lon":139.84506485},{"name":"基幹的広域防災拠点（有明の丘地区）","province":"東京都","city":"江東区","address":"江東区有明3-8-35","lat":35.63537,"lon":139.7941},{"name":"第九機動隊","province":"東京都","city":"江東区","address":"江東区新砂1-7-20","lat":35.668,"lon":139.8226},{"name":"第七方面交通機動隊新木場分駐所","province":"東京都","city":"江東区","address":"江東区新木場4-2-31","lat":35.64214,"lon":139.8376},{"name":"第七方面本部","province":"東京都","city":"江東区","address":"江東区新木場4-2-31","lat":35.64214,"lon":139.8376},{"name":"城東警察署","province":"東京都","city":"江東区","address":"江東区北砂2-1-24","lat":35.67844,"lon":139.827},{"name":"東京湾岸警察署","province":"東京都","city":"江東区","address":"江東区青海2-7-1","lat":35.61857,"lon":139.7746},{"name":"深川警察署","province":"東京都","city":"江東区","address":"江東区木場3-18-6","lat":35.67362,"lon":139.8062},{"name":"第七消防方面本部","province":"東京都","city":"江東区","address":"江東区森下5-1-4","lat":35.68487,"lon":139.8066},{"name":"夢の島訓練場","province":"東京都","city":"江東区","address":"江東区夢の島3-1-1","lat":35.64985,"lon":139.8344},{"name":"第一方面訓練場","province":"東京都","city":"江東区","address":"江東区潮見1-29","lat":35.65556,"lon":139.8142},{"name":"第六方面訓練場","province":"東京都","city":"江東区","address":"江東区夢の島3-30","lat":35.65202,"lon":139.8315},{"name":"城東消防署","province":"東京都","city":"江東区","address":"江東区亀戸6-42-9","lat":35.69659,"lon":139.8319},{"name":"深川消防署","province":"東京都","city":"江東区","address":"江東区木場3-18-10","lat":35.67304,"lon":139.8061},{"name":"都営大江戸線清澄白河駅内備蓄倉庫","province":"東京都","city":"江東区","address":"江東区白河1-7-14","lat":35.68292,"lon":139.7989},{"name":"江東区","province":"東京都","city":"江東区","address":"江東区大島4-4-3","lat":35.68874,"lon":139.8273},{"name":"（株）メディセオ新東京ビル","province":"東京都","city":"江東区","address":"江東区佐賀2-8-20","lat":35.67896,"lon":139.7919},{"name":"東京都赤十字血液センター","province":"東京都","city":"江東区","address":"江東区辰巳2-1-67","lat":35.64709,"lon":139.8132},{"name":"夢の島マリーナ","province":"東京都","city":"江東区","address":"東京都江東区夢の島3丁目","lat":35.65190061,"lon":139.83152826},{"name":"黒船橋乗船場","province":"東京都","city":"江東区","address":"東京都江東区門前仲町1丁目1","lat":35.67178636,"lon":139.79273166},{"name":"辰巳二丁目","province":"東京都","city":"江東区","address":"東京都江東区辰巳1丁目10-57","lat":35.64684791,"lon":139.81136906},{"name":"辰巳第二小学校前","province":"東京都","city":"江東区","address":"東京都江東区辰巳1丁目9-60","lat":35.64925314,"lon":139.80949136},{"name":"船の科学館入口","province":"東京都","city":"江東区","address":"東京都江東区青海1丁目1","lat":35.62344145,"lon":139.77495385},{"name":"テレコム駅前","province":"東京都","city":"江東区","address":"東京都江東区青海2丁目6-3","lat":35.61612036,"lon":139.77722358},{"name":"辰巳の森公園前","province":"東京都","city":"江東区","address":"東京都江東区辰巳2丁目1","lat":35.64899491,"lon":139.81239389},{"name":"嘉悦学園入口","province":"東京都","city":"江東区","address":"東京都江東区有明1丁目1-17","lat":35.64231473,"lon":139.79573733},{"name":"夢の島","province":"東京都","city":"江東区","address":"東京都江東区新木場1丁目2-11","lat":35.64491513,"lon":139.82490129},{"name":"千石橋北","province":"東京都","city":"江東区","address":"東京都江東区新木場1丁目18-6","lat":35.64371254,"lon":139.8257263},{"name":"夢の島第二","province":"東京都","city":"江東区","address":"東京都江東区夢の島2丁目1","lat":35.64925356,"lon":139.82649544},{"name":"新木場駅前","province":"東京都","city":"江東区","address":"東京都江東区新木場1丁目18-11","lat":35.64412641,"lon":139.82744557},{"name":"木遣り橋南","province":"東京都","city":"江東区","address":"東京都江東区有明1丁目2-22","lat":35.64094542,"lon":139.79394867},{"name":"有明テニスの森駅前","province":"東京都","city":"江東区","address":"東京都江東区有明1丁目3-20","lat":35.63905107,"lon":139.79022683},{"name":"清澄三丁目","province":"東京都","city":"江東区","address":"東京都江東区清澄3丁目7-9","lat":35.68220214,"lon":139.79856599},{"name":"扇橋二丁目","province":"東京都","city":"江東区","address":"東京都江東区扇橋2丁目22-3","lat":35.6828521,"lon":139.81624074},{"name":"白河三丁目","province":"東京都","city":"江東区","address":"東京都江東区白河3丁目4-3","lat":35.68222989,"lon":139.80574246},{"name":"永代二丁目","province":"東京都","city":"江東区","address":"東京都江東区永代2丁目12-3","lat":35.67367779,"lon":139.79152619},{"name":"木場五丁目","province":"東京都","city":"江東区","address":"東京都江東区木場2丁目20","lat":35.66918415,"lon":139.80526639},{"name":"門前仲町","province":"東京都","city":"江東区","address":"東京都江東区門前仲町1丁目7-9","lat":35.67273633,"lon":139.79477891},{"name":"豊洲駅前","province":"東京都","city":"江東区","address":"東京都江東区豊洲2丁目2-12","lat":35.65470219,"lon":139.79594802},{"name":"東陽六丁目","province":"東京都","city":"江東区","address":"東京都江東区東陽6丁目4-5","lat":35.67593631,"lon":139.81551562},{"name":"東陽町駅前","province":"東京都","city":"江東区","address":"東京都江東区東陽4丁目2-1","lat":35.66993428,"lon":139.81666244},{"name":"白河二丁目","province":"東京都","city":"江東区","address":"東京都江東区白河1丁目4-11","lat":35.68196327,"lon":139.8008461},{"name":"扇橋三丁目","province":"東京都","city":"江東区","address":"東京都江東区扇橋3丁目11-7","lat":35.68335484,"lon":139.81850983},{"name":"千石二丁目","province":"東京都","city":"江東区","address":"東京都江東区千石2丁目8-17","lat":35.67898594,"lon":139.81573794},{"name":"千石一丁目","province":"東京都","city":"江東区","address":"東京都江東区千石1丁目13-24","lat":35.6784054,"lon":139.81160241},{"name":"深川不動前","province":"東京都","city":"江東区","address":"東京都江東区富岡1丁目6-6","lat":35.67104491,"lon":139.79711757},{"name":"東陽四丁目","province":"東京都","city":"江東区","address":"東京都江東区東陽4丁目1-20","lat":35.66948439,"lon":139.81948165},{"name":"深川高校前","province":"東京都","city":"江東区","address":"東京都江東区東陽4丁目10-8","lat":35.67195349,"lon":139.81653198},{"name":"枝川一丁目第二","province":"東京都","city":"江東区","address":"東京都江東区枝川1丁目6-14","lat":35.65686604,"lon":139.80393056},{"name":"新豊洲変電所前","province":"東京都","city":"江東区","address":"東京都江東区豊洲6丁目1","lat":35.65019974,"lon":139.79000422},{"name":"扇橋二丁目第二","province":"東京都","city":"江東区","address":"東京都江東区扇橋3丁目15-10","lat":35.68325206,"lon":139.81739889},{"name":"深川五中角","province":"東京都","city":"江東区","address":"東京都江東区豊洲5丁目5","lat":35.65340512,"lon":139.796398},{"name":"豊洲二丁目","province":"東京都","city":"江東区","address":"東京都江東区豊洲2丁目5","lat":35.65794337,"lon":139.79123171},{"name":"東陽三丁目東","province":"東京都","city":"江東区","address":"東京都江東区東陽3丁目22-1","lat":35.66898431,"lon":139.81218784},{"name":"東陽三丁目住宅前","province":"東京都","city":"江東区","address":"東京都江東区東陽3丁目22-32","lat":35.66918986,"lon":139.81313776},{"name":"漣橋北","province":"東京都","city":"江東区","address":"東京都江東区潮見2丁目3","lat":35.65735517,"lon":139.81617663},{"name":"東陽二丁目","province":"東京都","city":"江東区","address":"東京都江東区東陽2丁目4-24","lat":35.66836503,"lon":139.81698744},{"name":"森下駅西","province":"東京都","city":"江東区","address":"東京都江東区新大橋3丁目3-6","lat":35.68776824,"lon":139.79654747},{"name":"江東区役所前","province":"東京都","city":"江東区","address":"東京都江東区東陽5丁目31-19","lat":35.67283114,"lon":139.81570434},{"name":"東陽町駅東口","province":"東京都","city":"江東区","address":"東京都江東区東陽4丁目5-18","lat":35.67048425,"lon":139.81829565},{"name":"扇橋三丁目第二","province":"東京都","city":"江東区","address":"東京都江東区扇橋3丁目7-3","lat":35.68255774,"lon":139.82023454},{"name":"潮見駅南","province":"東京都","city":"江東区","address":"東京都江東区潮見2丁目10-22","lat":35.65700526,"lon":139.81812368},{"name":"江東区文化センター東","province":"東京都","city":"江東区","address":"東京都江東区東陽4丁目12-30","lat":35.67261456,"lon":139.81919007},{"name":"東陽図書館前","province":"東京都","city":"江東区","address":"東京都江東区東陽2丁目2-20","lat":35.66588197,"lon":139.816032},{"name":"清澄白河駅","province":"東京都","city":"江東区","address":"東京都江東区白河2丁目9-5","lat":35.68203826,"lon":139.8021431},{"name":"豊洲六丁目","province":"東京都","city":"江東区","address":"東京都江東区豊洲6丁目2","lat":35.64571973,"lon":139.79140145},{"name":"豊洲埠頭口前","province":"東京都","city":"江東区","address":"東京都江東区豊洲5丁目1","lat":35.6498916,"lon":139.79570094},{"name":"豊洲三丁目","province":"東京都","city":"江東区","address":"東京都江東区豊洲2丁目1","lat":35.65699075,"lon":139.79314545},{"name":"区民センター前","province":"東京都","city":"江東区","address":"東京都江東区大島2丁目41-18","lat":35.68959587,"lon":139.82617805},{"name":"亀戸五丁目","province":"東京都","city":"江東区","address":"東京都江東区亀戸5丁目15-2","lat":35.69990821,"lon":139.82578635},{"name":"中川新橋西詰","province":"東京都","city":"江東区","address":"東京都江東区亀戸9丁目8","lat":35.69656757,"lon":139.8436343},{"name":"大島仲の橋","province":"東京都","city":"江東区","address":"東京都江東区大島7丁目1-18","lat":35.69029342,"lon":139.83811537},{"name":"亀戸七丁目","province":"東京都","city":"江東区","address":"東京都江東区亀戸7丁目41-5","lat":35.69693989,"lon":139.83645134},{"name":"亀戸駅北口","province":"東京都","city":"江東区","address":"東京都江東区亀戸5丁目1-1","lat":35.69781692,"lon":139.82621403},{"name":"大島八丁目","province":"東京都","city":"江東区","address":"東京都江東区大島8丁目42-11","lat":35.69047391,"lon":139.84406775},{"name":"砂町橋","province":"東京都","city":"江東区","address":"東京都江東区南砂6丁目4-6","lat":35.67363145,"lon":139.83348855},{"name":"南砂三丁目","province":"東京都","city":"江東区","address":"東京都江東区南砂3丁目4-7","lat":35.67345352,"lon":139.82670594},{"name":"日曹橋北","province":"東京都","city":"江東区","address":"東京都江東区南砂3丁目2-1","lat":35.6705122,"lon":139.82621712},{"name":"第三大島小学校入口","province":"東京都","city":"江東区","address":"東京都江東区大島7丁目41-8","lat":35.69288472,"lon":139.8433094},{"name":"日曹橋","province":"東京都","city":"江東区","address":"東京都江東区南砂3丁目2","lat":35.67059,"lon":139.82714758},{"name":"南砂五差路","province":"東京都","city":"江東区","address":"東京都江東区南砂1丁目11-15","lat":35.67820564,"lon":139.82440897},{"name":"大島六丁目","province":"東京都","city":"江東区","address":"東京都江東区大島5丁目35-8","lat":35.68974071,"lon":139.83620996},{"name":"環四亀戸七丁目第二","province":"東京都","city":"江東区","address":"東京都江東区亀戸7丁目49-4","lat":35.6957429,"lon":139.83429587},{"name":"第三砂町小前","province":"東京都","city":"江東区","address":"東京都江東区南砂4丁目19-13","lat":35.67185386,"lon":139.83220261},{"name":"江東試験場入口","province":"東京都","city":"江東区","address":"東京都江東区南砂2丁目3","lat":35.67096762,"lon":139.82298967},{"name":"都立東高校角","province":"東京都","city":"江東区","address":"東京都江東区南砂6丁目7","lat":35.67234275,"lon":139.8348801},{"name":"南砂三丁目公園入口","province":"東京都","city":"江東区","address":"東京都江東区南砂6丁目2-1","lat":35.67136509,"lon":139.83436628},{"name":"南砂二丁目団地入口","province":"東京都","city":"江東区","address":"東京都江東区南砂2丁目3-3","lat":35.67328122,"lon":139.82288413},{"name":"北砂五丁目団地前","province":"東京都","city":"江東区","address":"東京都江東区北砂5丁目20-8","lat":35.68347745,"lon":139.83288003},{"name":"中川新橋西詰第二","province":"東京都","city":"江東区","address":"東京都江東区亀戸9丁目8","lat":35.69656757,"lon":139.8436343},{"name":"江東試験場前","province":"東京都","city":"江東区","address":"東京都江東区新砂1丁目7-24","lat":35.6689012,"lon":139.82269804},{"name":"南砂二丁目南公園前","province":"東京都","city":"江東区","address":"東京都江東区南砂2丁目3-6","lat":35.67042604,"lon":139.82382569},{"name":"東大島駅入口","province":"東京都","city":"江東区","address":"東京都江東区大島9丁目2","lat":35.68882412,"lon":139.84570657},{"name":"南砂三丁目公園前","province":"東京都","city":"江東区","address":"東京都江東区南砂3丁目14","lat":35.66992634,"lon":139.83271092},{"name":"南砂町駅前","province":"東京都","city":"江東区","address":"東京都江東区南砂3丁目14-1","lat":35.66877645,"lon":139.83174161},{"name":"江東医療センター入口","province":"東京都","city":"江東区","address":"東京都江東区新砂3丁目3","lat":35.66770714,"lon":139.83211937},{"name":"あゆみ橋","province":"東京都","city":"江東区","address":"東京都江東区新砂3丁目3","lat":35.66770714,"lon":139.83211937},{"name":"南砂町駅西口","province":"東京都","city":"江東区","address":"東京都江東区新砂2丁目1","lat":35.66886798,"lon":139.82686152},{"name":"亀戸給水所","province":"東京都","city":"江東区","address":"東京都江東区亀戸2丁目6-50","lat":35.70101603,"lon":139.82130935},{"name":"豊住給水所","province":"東京都","city":"江東区","address":"東京都江東区東陽6丁目1-8","lat":35.67503913,"lon":139.81095502},{"name":"江東給水所","province":"東京都","city":"江東区","address":"東京都江東区新砂3丁目6-17","lat":35.66542149,"lon":139.84132701},{"name":"有明給水所","province":"東京都","city":"江東区","address":"東京都江東区有明3丁目1-8","lat":35.63082682,"lon":139.78543859},{"name":"区立南砂三丁目公園","province":"東京都","city":"江東区","address":"東京都江東区南砂3丁目14-21","lat":35.66960695,"lon":139.83337197},{"name":"都立辰巳の森海浜公園","province":"東京都","city":"江東区","address":"東京都江東区辰巳2丁目1","lat":35.64899491,"lon":139.81239389},{"name":"新砂緊急用船着場","province":"東京都","city":"江東区","address":"東京都江東区新砂3丁目","lat":35.66420213,"lon":139.83834118},{"name":"有明客船ターミナル","province":"東京都","city":"江東区","address":"東京都江東区有明3丁目","lat":35.63159354,"lon":139.78818561},{"name":"青海客船ターミナル","province":"東京都","city":"江東区","address":"東京都江東区青海2丁目","lat":35.61733141,"lon":139.78018715},{"name":"黒船橋乗船場","province":"東京都","city":"江東区","address":"東京都江東区門前仲町1丁目1","lat":35.67178636,"lon":139.79273166},{"name":"木場六丁目乗船場","province":"東京都","city":"江東区","address":"東京都江東区木場6丁目","lat":35.66762602,"lon":139.80679399},{"name":"亀戸中央公園乗船場","province":"東京都","city":"江東区","address":"東京都江東区亀戸8丁目","lat":35.7006893,"lon":139.8333461},{"name":"豊洲三丁目乗船場","province":"東京都","city":"江東区","address":"東京都江東区豊洲3丁目","lat":35.66003768,"lon":139.79466194},{"name":"旧中川川の駅スロープ","province":"東京都","city":"江東区","address":"東京都江東区大島9丁目","lat":35.69317076,"lon":139.84506485},{"name":"基幹的広域防災拠点（有明の丘地区）","province":"東京都","city":"江東区","address":"江東区有明3-8-35","lat":35.63537,"lon":139.7941},{"name":"第九機動隊","province":"東京都","city":"江東区","address":"江東区新砂1-7-20","lat":35.668,"lon":139.8226},{"name":"第七方面交通機動隊新木場分駐所","province":"東京都","city":"江東区","address":"江東区新木場4-2-31","lat":35.64214,"lon":139.8376},{"name":"第七方面本部","province":"東京都","city":"江東区","address":"江東区新木場4-2-31","lat":35.64214,"lon":139.8376},{"name":"城東警察署","province":"東京都","city":"江東区","address":"江東区北砂2-1-24","lat":35.67844,"lon":139.827},{"name":"東京湾岸警察署","province":"東京都","city":"江東区","address":"江東区青海2-7-1","lat":35.61857,"lon":139.7746},{"name":"深川警察署","province":"東京都","city":"江東区","address":"江東区木場3-18-6","lat":35.67362,"lon":139.8062},{"name":"第七消防方面本部","province":"東京都","city":"江東区","address":"江東区森下5-1-4","lat":35.68487,"lon":139.8066},{"name":"夢の島訓練場","province":"東京都","city":"江東区","address":"江東区夢の島3-1-1","lat":35.64985,"lon":139.8344},{"name":"第一方面訓練場","province":"東京都","city":"江東区","address":"江東区潮見1-29","lat":35.65556,"lon":139.8142},{"name":"第六方面訓練場","province":"東京都","city":"江東区","address":"江東区夢の島3-30","lat":35.65202,"lon":139.8315},{"name":"城東消防署","province":"東京都","city":"江東区","address":"江東区亀戸6-42-9","lat":35.69659,"lon":139.8319},{"name":"深川消防署","province":"東京都","city":"江東区","address":"江東区木場3-18-10","lat":35.67304,"lon":139.8061},{"name":"都営大江戸線清澄白河駅内備蓄倉庫","province":"東京都","city":"江東区","address":"江東区白河1-7-14","lat":35.68292,"lon":139.7989},{"name":"江東区","province":"東京都","city":"江東区","address":"江東区大島4-4-3","lat":35.68874,"lon":139.8273},{"name":"（株）メディセオ新東京ビル","province":"東京都","city":"江東区","address":"江東区佐賀2-8-20","lat":35.67896,"lon":139.7919},{"name":"東京都赤十字血液センター","province":"東京都","city":"江東区","address":"江東区辰巳2-1-67","lat":35.64709,"lon":139.8132},{"name":"夢の島マリーナ","province":"東京都","city":"江東区","address":"東京都江東区夢の島3丁目","lat":35.65190061,"lon":139.83152826},{"name":"黒船橋乗船場","province":"東京都","city":"江東区","address":"東京都江東区門前仲町1丁目1","lat":35.67178636,"lon":139.79273166},{"name":"辰巳二丁目","province":"東京都","city":"江東区","address":"東京都江東区辰巳1丁目10-57","lat":35.64684791,"lon":139.81136906},{"name":"辰巳第二小学校前","province":"東京都","city":"江東区","address":"東京都江東区辰巳1丁目9-60","lat":35.64925314,"lon":139.80949136},{"name":"船の科学館入口","province":"東京都","city":"江東区","address":"東京都江東区青海1丁目1","lat":35.62344145,"lon":139.77495385},{"name":"テレコム駅前","province":"東京都","city":"江東区","address":"東京都江東区青海2丁目6-3","lat":35.61612036,"lon":139.77722358},{"name":"辰巳の森公園前","province":"東京都","city":"江東区","address":"東京都江東区辰巳2丁目1","lat":35.64899491,"lon":139.81239389},{"name":"嘉悦学園入口","province":"東京都","city":"江東区","address":"東京都江東区有明1丁目1-17","lat":35.64231473,"lon":139.79573733},{"name":"夢の島","province":"東京都","city":"江東区","address":"東京都江東区新木場1丁目2-11","lat":35.64491513,"lon":139.82490129},{"name":"千石橋北","province":"東京都","city":"江東区","address":"東京都江東区新木場1丁目18-6","lat":35.64371254,"lon":139.8257263},{"name":"夢の島第二","province":"東京都","city":"江東区","address":"東京都江東区夢の島2丁目1","lat":35.64925356,"lon":139.82649544},{"name":"新木場駅前","province":"東京都","city":"江東区","address":"東京都江東区新木場1丁目18-11","lat":35.64412641,"lon":139.82744557},{"name":"木遣り橋南","province":"東京都","city":"江東区","address":"東京都江東区有明1丁目2-22","lat":35.64094542,"lon":139.79394867},{"name":"有明テニスの森駅前","province":"東京都","city":"江東区","address":"東京都江東区有明1丁目3-20","lat":35.63905107,"lon":139.79022683},{"name":"清澄三丁目","province":"東京都","city":"江東区","address":"東京都江東区清澄3丁目7-9","lat":35.68220214,"lon":139.79856599},{"name":"扇橋二丁目","province":"東京都","city":"江東区","address":"東京都江東区扇橋2丁目22-3","lat":35.6828521,"lon":139.81624074},{"name":"白河三丁目","province":"東京都","city":"江東区","address":"東京都江東区白河3丁目4-3","lat":35.68222989,"lon":139.80574246},{"name":"永代二丁目","province":"東京都","city":"江東区","address":"東京都江東区永代2丁目12-3","lat":35.67367779,"lon":139.79152619},{"name":"木場五丁目","province":"東京都","city":"江東区","address":"東京都江東区木場2丁目20","lat":35.66918415,"lon":139.80526639},{"name":"門前仲町","province":"東京都","city":"江東区","address":"東京都江東区門前仲町1丁目7-9","lat":35.67273633,"lon":139.79477891},{"name":"豊洲駅前","province":"東京都","city":"江東区","address":"東京都江東区豊洲2丁目2-12","lat":35.65470219,"lon":139.79594802},{"name":"東陽六丁目","province":"東京都","city":"江東区","address":"東京都江東区東陽6丁目4-5","lat":35.67593631,"lon":139.81551562},{"name":"東陽町駅前","province":"東京都","city":"江東区","address":"東京都江東区東陽4丁目2-1","lat":35.66993428,"lon":139.81666244},{"name":"白河二丁目","province":"東京都","city":"江東区","address":"東京都江東区白河1丁目4-11","lat":35.68196327,"lon":139.8008461},{"name":"扇橋三丁目","province":"東京都","city":"江東区","address":"東京都江東区扇橋3丁目11-7","lat":35.68335484,"lon":139.81850983},{"name":"千石二丁目","province":"東京都","city":"江東区","address":"東京都江東区千石2丁目8-17","lat":35.67898594,"lon":139.81573794},{"name":"千石一丁目","province":"東京都","city":"江東区","address":"東京都江東区千石1丁目13-24","lat":35.6784054,"lon":139.81160241},{"name":"深川不動前","province":"東京都","city":"江東区","address":"東京都江東区富岡1丁目6-6","lat":35.67104491,"lon":139.79711757},{"name":"東陽四丁目","province":"東京都","city":"江東区","address":"東京都江東区東陽4丁目1-20","lat":35.66948439,"lon":139.81948165},{"name":"深川高校前","province":"東京都","city":"江東区","address":"東京都江東区東陽4丁目10-8","lat":35.67195349,"lon":139.81653198},{"name":"枝川一丁目第二","province":"東京都","city":"江東区","address":"東京都江東区枝川1丁目6-14","lat":35.65686604,"lon":139.80393056},{"name":"新豊洲変電所前","province":"東京都","city":"江東区","address":"東京都江東区豊洲6丁目1","lat":35.65019974,"lon":139.79000422},{"name":"扇橋二丁目第二","province":"東京都","city":"江東区","address":"東京都江東区扇橋3丁目15-10","lat":35.68325206,"lon":139.81739889},{"name":"深川五中角","province":"東京都","city":"江東区","address":"東京都江東区豊洲5丁目5","lat":35.65340512,"lon":139.796398},{"name":"豊洲二丁目","province":"東京都","city":"江東区","address":"東京都江東区豊洲2丁目5","lat":35.65794337,"lon":139.79123171},{"name":"東陽三丁目東","province":"東京都","city":"江東区","address":"東京都江東区東陽3丁目22-1","lat":35.66898431,"lon":139.81218784},{"name":"東陽三丁目住宅前","province":"東京都","city":"江東区","address":"東京都江東区東陽3丁目22-32","lat":35.66918986,"lon":139.81313776},{"name":"漣橋北","province":"東京都","city":"江東区","address":"東京都江東区潮見2丁目3","lat":35.65735517,"lon":139.81617663},{"name":"東陽二丁目","province":"東京都","city":"江東区","address":"東京都江東区東陽2丁目4-24","lat":35.66836503,"lon":139.81698744},{"name":"森下駅西","province":"東京都","city":"江東区","address":"東京都江東区新大橋3丁目3-6","lat":35.68776824,"lon":139.79654747},{"name":"江東区役所前","province":"東京都","city":"江東区","address":"東京都江東区東陽5丁目31-19","lat":35.67283114,"lon":139.81570434},{"name":"東陽町駅東口","province":"東京都","city":"江東区","address":"東京都江東区東陽4丁目5-18","lat":35.67048425,"lon":139.81829565},{"name":"扇橋三丁目第二","province":"東京都","city":"江東区","address":"東京都江東区扇橋3丁目7-3","lat":35.68255774,"lon":139.82023454},{"name":"潮見駅南","province":"東京都","city":"江東区","address":"東京都江東区潮見2丁目10-22","lat":35.65700526,"lon":139.81812368},{"name":"江東区文化センター東","province":"東京都","city":"江東区","address":"東京都江東区東陽4丁目12-30","lat":35.67261456,"lon":139.81919007},{"name":"東陽図書館前","province":"東京都","city":"江東区","address":"東京都江東区東陽2丁目2-20","lat":35.66588197,"lon":139.816032},{"name":"清澄白河駅","province":"東京都","city":"江東区","address":"東京都江東区白河2丁目9-5","lat":35.68203826,"lon":139.8021431},{"name":"豊洲六丁目","province":"東京都","city":"江東区","address":"東京都江東区豊洲6丁目2","lat":35.64571973,"lon":139.79140145},{"name":"豊洲埠頭口前","province":"東京都","city":"江東区","address":"東京都江東区豊洲5丁目1","lat":35.6498916,"lon":139.79570094},{"name":"豊洲三丁目","province":"東京都","city":"江東区","address":"東京都江東区豊洲2丁目1","lat":35.65699075,"lon":139.79314545},{"name":"区民センター前","province":"東京都","city":"江東区","address":"東京都江東区大島2丁目41-18","lat":35.68959587,"lon":139.82617805},{"name":"亀戸五丁目","province":"東京都","city":"江東区","address":"東京都江東区亀戸5丁目15-2","lat":35.69990821,"lon":139.82578635},{"name":"中川新橋西詰","province":"東京都","city":"江東区","address":"東京都江東区亀戸9丁目8","lat":35.69656757,"lon":139.8436343},{"name":"大島仲の橋","province":"東京都","city":"江東区","address":"東京都江東区大島7丁目1-18","lat":35.69029342,"lon":139.83811537},{"name":"亀戸七丁目","province":"東京都","city":"江東区","address":"東京都江東区亀戸7丁目41-5","lat":35.69693989,"lon":139.83645134},{"name":"亀戸駅北口","province":"東京都","city":"江東区","address":"東京都江東区亀戸5丁目1-1","lat":35.69781692,"lon":139.82621403},{"name":"大島八丁目","province":"東京都","city":"江東区","address":"東京都江東区大島8丁目42-11","lat":35.69047391,"lon":139.84406775},{"name":"砂町橋","province":"東京都","city":"江東区","address":"東京都江東区南砂6丁目4-6","lat":35.67363145,"lon":139.83348855},{"name":"南砂三丁目","province":"東京都","city":"江東区","address":"東京都江東区南砂3丁目4-7","lat":35.67345352,"lon":139.82670594},{"name":"日曹橋北","province":"東京都","city":"江東区","address":"東京都江東区南砂3丁目2-1","lat":35.6705122,"lon":139.82621712},{"name":"第三大島小学校入口","province":"東京都","city":"江東区","address":"東京都江東区大島7丁目41-8","lat":35.69288472,"lon":139.8433094},{"name":"日曹橋","province":"東京都","city":"江東区","address":"東京都江東区南砂3丁目2","lat":35.67059,"lon":139.82714758},{"name":"南砂五差路","province":"東京都","city":"江東区","address":"東京都江東区南砂1丁目11-15","lat":35.67820564,"lon":139.82440897},{"name":"大島六丁目","province":"東京都","city":"江東区","address":"東京都江東区大島5丁目35-8","lat":35.68974071,"lon":139.83620996},{"name":"環四亀戸七丁目第二","province":"東京都","city":"江東区","address":"東京都江東区亀戸7丁目49-4","lat":35.6957429,"lon":139.83429587},{"name":"第三砂町小前","province":"東京都","city":"江東区","address":"東京都江東区南砂4丁目19-13","lat":35.67185386,"lon":139.83220261},{"name":"江東試験場入口","province":"東京都","city":"江東区","address":"東京都江東区南砂2丁目3","lat":35.67096762,"lon":139.82298967},{"name":"都立東高校角","province":"東京都","city":"江東区","address":"東京都江東区南砂6丁目7","lat":35.67234275,"lon":139.8348801},{"name":"南砂三丁目公園入口","province":"東京都","city":"江東区","address":"東京都江東区南砂6丁目2-1","lat":35.67136509,"lon":139.83436628},{"name":"南砂二丁目団地入口","province":"東京都","city":"江東区","address":"東京都江東区南砂2丁目3-3","lat":35.67328122,"lon":139.82288413},{"name":"北砂五丁目団地前","province":"東京都","city":"江東区","address":"東京都江東区北砂5丁目20-8","lat":35.68347745,"lon":139.83288003},{"name":"中川新橋西詰第二","province":"東京都","city":"江東区","address":"東京都江東区亀戸9丁目8","lat":35.69656757,"lon":139.8436343},{"name":"江東試験場前","province":"東京都","city":"江東区","address":"東京都江東区新砂1丁目7-24","lat":35.6689012,"lon":139.82269804},{"name":"南砂二丁目南公園前","province":"東京都","city":"江東区","address":"東京都江東区南砂2丁目3-6","lat":35.67042604,"lon":139.82382569},{"name":"東大島駅入口","province":"東京都","city":"江東区","address":"東京都江東区大島9丁目2","lat":35.68882412,"lon":139.84570657},{"name":"南砂三丁目公園前","province":"東京都","city":"江東区","address":"東京都江東区南砂3丁目14","lat":35.66992634,"lon":139.83271092},{"name":"南砂町駅前","province":"東京都","city":"江東区","address":"東京都江東区南砂3丁目14-1","lat":35.66877645,"lon":139.83174161},{"name":"江東医療センター入口","province":"東京都","city":"江東区","address":"東京都江東区新砂3丁目3","lat":35.66770714,"lon":139.83211937},{"name":"あゆみ橋","province":"東京都","city":"江東区","address":"東京都江東区新砂3丁目3","lat":35.66770714,"lon":139.83211937},{"name":"南砂町駅西口","province":"東京都","city":"江東区","address":"東京都江東区新砂2丁目1","lat":35.66886798,"lon":139.82686152},{"name":"亀戸給水所","province":"東京都","city":"江東区","address":"東京都江東区亀戸2丁目6-50","lat":35.70101603,"lon":139.82130935},{"name":"豊住給水所","province":"東京都","city":"江東区","address":"東京都江東区東陽6丁目1-8","lat":35.67503913,"lon":139.81095502},{"name":"江東給水所","province":"東京都","city":"江東区","address":"東京都江東区新砂3丁目6-17","lat":35.66542149,"lon":139.84132701},{"name":"有明給水所","province":"東京都","city":"江東区","address":"東京都江東区有明3丁目1-8","lat":35.63082682,"lon":139.78543859},{"name":"区立南砂三丁目公園","province":"東京都","city":"江東区","address":"東京都江東区南砂3丁目14-21","lat":35.66960695,"lon":139.83337197},{"name":"都立辰巳の森海浜公園","province":"東京都","city":"江東区","address":"東京都江東区辰巳2丁目1","lat":35.64899491,"lon":139.81239389},{"name":"新砂緊急用船着場","province":"東京都","city":"江東区","address":"東京都江東区新砂3丁目","lat":35.66420213,"lon":139.83834118},{"name":"有明客船ターミナル","province":"東京都","city":"江東区","address":"東京都江東区有明3丁目","lat":35.63159354,"lon":139.78818561},{"name":"青海客船ターミナル","province":"東京都","city":"江東区","address":"東京都江東区青海2丁目","lat":35.61733141,"lon":139.78018715},{"name":"黒船橋乗船場","province":"東京都","city":"江東区","address":"東京都江東区門前仲町1丁目1","lat":35.67178636,"lon":139.79273166},{"name":"木場六丁目乗船場","province":"東京都","city":"江東区","address":"東京都江東区木場6丁目","lat":35.66762602,"lon":139.80679399},{"name":"亀戸中央公園乗船場","province":"東京都","city":"江東区","address":"東京都江東区亀戸8丁目","lat":35.7006893,"lon":139.8333461},{"name":"豊洲三丁目乗船場","province":"東京都","city":"江東区","address":"東京都江東区豊洲3丁目","lat":35.66003768,"lon":139.79466194},{"name":"旧中川川の駅スロープ","province":"東京都","city":"江東区","address":"東京都江東区大島9丁目","lat":35.69317076,"lon":139.84506485},{"name":"基幹的広域防災拠点（有明の丘地区）","province":"東京都","city":"江東区","address":"江東区有明3-8-35","lat":35.63537,"lon":139.7941},{"name":"第九機動隊","province":"東京都","city":"江東区","address":"江東区新砂1-7-20","lat":35.668,"lon":139.8226},{"name":"第七方面交通機動隊新木場分駐所","province":"東京都","city":"江東区","address":"江東区新木場4-2-31","lat":35.64214,"lon":139.8376},{"name":"第七方面本部","province":"東京都","city":"江東区","address":"江東区新木場4-2-31","lat":35.64214,"lon":139.8376},{"name":"城東警察署","province":"東京都","city":"江東区","address":"江東区北砂2-1-24","lat":35.67844,"lon":139.827},{"name":"東京湾岸警察署","province":"東京都","city":"江東区","address":"江東区青海2-7-1","lat":35.61857,"lon":139.7746},{"name":"深川警察署","province":"東京都","city":"江東区","address":"江東区木場3-18-6","lat":35.67362,"lon":139.8062},{"name":"第七消防方面本部","province":"東京都","city":"江東区","address":"江東区森下5-1-4","lat":35.68487,"lon":139.8066},{"name":"夢の島訓練場","province":"東京都","city":"江東区","address":"江東区夢の島3-1-1","lat":35.64985,"lon":139.8344},{"name":"第一方面訓練場","province":"東京都","city":"江東区","address":"江東区潮見1-29","lat":35.65556,"lon":139.8142},{"name":"第六方面訓練場","province":"東京都","city":"江東区","address":"江東区夢の島3-30","lat":35.65202,"lon":139.8315},{"name":"城東消防署","province":"東京都","city":"江東区","address":"江東区亀戸6-42-9","lat":35.69659,"lon":139.8319},{"name":"深川消防署","province":"東京都","city":"江東区","address":"江東区木場3-18-10","lat":35.67304,"lon":139.8061},{"name":"都営大江戸線清澄白河駅内備蓄倉庫","province":"東京都","city":"江東区","address":"江東区白河1-7-14","lat":35.68292,"lon":139.7989},{"name":"江東区","province":"東京都","city":"江東区","address":"江東区大島4-4-3","lat":35.68874,"lon":139.8273},{"name":"（株）メディセオ新東京ビル","province":"東京都","city":"江東区","address":"江東区佐賀2-8-20","lat":35.67896,"lon":139.7919},{"name":"東京都赤十字血液センター","province":"東京都","city":"江東区","address":"江東区辰巳2-1-67","lat":35.64709,"lon":139.8132},{"name":"夢の島マリーナ","province":"東京都","city":"江東区","address":"東京都江東区夢の島3丁目","lat":35.65190061,"lon":139.83152826},{"name":"黒船橋乗船場","province":"東京都","city":"江東区","address":"東京都江東区門前仲町1丁目1","lat":35.67178636,"lon":139.79273166},{"name":"辰巳二丁目","province":"東京都","city":"江東区","address":"東京都江東区辰巳1丁目10-57","lat":35.64684791,"lon":139.81136906},{"name":"辰巳第二小学校前","province":"東京都","city":"江東区","address":"東京都江東区辰巳1丁目9-60","lat":35.64925314,"lon":139.80949136},{"name":"船の科学館入口","province":"東京都","city":"江東区","address":"東京都江東区青海1丁目1","lat":35.62344145,"lon":139.77495385},{"name":"テレコム駅前","province":"東京都","city":"江東区","address":"東京都江東区青海2丁目6-3","lat":35.61612036,"lon":139.77722358},{"name":"辰巳の森公園前","province":"東京都","city":"江東区","address":"東京都江東区辰巳2丁目1","lat":35.64899491,"lon":139.81239389},{"name":"嘉悦学園入口","province":"東京都","city":"江東区","address":"東京都江東区有明1丁目1-17","lat":35.64231473,"lon":139.79573733},{"name":"夢の島","province":"東京都","city":"江東区","address":"東京都江東区新木場1丁目2-11","lat":35.64491513,"lon":139.82490129},{"name":"千石橋北","province":"東京都","city":"江東区","address":"東京都江東区新木場1丁目18-6","lat":35.64371254,"lon":139.8257263},{"name":"夢の島第二","province":"東京都","city":"江東区","address":"東京都江東区夢の島2丁目1","lat":35.64925356,"lon":139.82649544},{"name":"新木場駅前","province":"東京都","city":"江東区","address":"東京都江東区新木場1丁目18-11","lat":35.64412641,"lon":139.82744557},{"name":"木遣り橋南","province":"東京都","city":"江東区","address":"東京都江東区有明1丁目2-22","lat":35.64094542,"lon":139.79394867},{"name":"有明テニスの森駅前","province":"東京都","city":"江東区","address":"東京都江東区有明1丁目3-20","lat":35.63905107,"lon":139.79022683},{"name":"清澄三丁目","province":"東京都","city":"江東区","address":"東京都江東区清澄3丁目7-9","lat":35.68220214,"lon":139.79856599},{"name":"扇橋二丁目","province":"東京都","city":"江東区","address":"東京都江東区扇橋2丁目22-3","lat":35.6828521,"lon":139.81624074},{"name":"白河三丁目","province":"東京都","city":"江東区","address":"東京都江東区白河3丁目4-3","lat":35.68222989,"lon":139.80574246},{"name":"永代二丁目","province":"東京都","city":"江東区","address":"東京都江東区永代2丁目12-3","lat":35.67367779,"lon":139.79152619},{"name":"木場五丁目","province":"東京都","city":"江東区","address":"東京都江東区木場2丁目20","lat":35.66918415,"lon":139.80526639},{"name":"門前仲町","province":"東京都","city":"江東区","address":"東京都江東区門前仲町1丁目7-9","lat":35.67273633,"lon":139.79477891},{"name":"豊洲駅前","province":"東京都","city":"江東区","address":"東京都江東区豊洲2丁目2-12","lat":35.65470219,"lon":139.79594802},{"name":"東陽六丁目","province":"東京都","city":"江東区","address":"東京都江東区東陽6丁目4-5","lat":35.67593631,"lon":139.81551562},{"name":"東陽町駅前","province":"東京都","city":"江東区","address":"東京都江東区東陽4丁目2-1","lat":35.66993428,"lon":139.81666244},{"name":"白河二丁目","province":"東京都","city":"江東区","address":"東京都江東区白河1丁目4-11","lat":35.68196327,"lon":139.8008461},{"name":"扇橋三丁目","province":"東京都","city":"江東区","address":"東京都江東区扇橋3丁目11-7","lat":35.68335484,"lon":139.81850983},{"name":"千石二丁目","province":"東京都","city":"江東区","address":"東京都江東区千石2丁目8-17","lat":35.67898594,"lon":139.81573794},{"name":"千石一丁目","province":"東京都","city":"江東区","address":"東京都江東区千石1丁目13-24","lat":35.6784054,"lon":139.81160241},{"name":"深川不動前","province":"東京都","city":"江東区","address":"東京都江東区富岡1丁目6-6","lat":35.67104491,"lon":139.79711757},{"name":"東陽四丁目","province":"東京都","city":"江東区","address":"東京都江東区東陽4丁目1-20","lat":35.66948439,"lon":139.81948165},{"name":"深川高校前","province":"東京都","city":"江東区","address":"東京都江東区東陽4丁目10-8","lat":35.67195349,"lon":139.81653198},{"name":"枝川一丁目第二","province":"東京都","city":"江東区","address":"東京都江東区枝川1丁目6-14","lat":35.65686604,"lon":139.80393056},{"name":"新豊洲変電所前","province":"東京都","city":"江東区","address":"東京都江東区豊洲6丁目1","lat":35.65019974,"lon":139.79000422},{"name":"扇橋二丁目第二","province":"東京都","city":"江東区","address":"東京都江東区扇橋3丁目15-10","lat":35.68325206,"lon":139.81739889},{"name":"深川五中角","province":"東京都","city":"江東区","address":"東京都江東区豊洲5丁目5","lat":35.65340512,"lon":139.796398},{"name":"豊洲二丁目","province":"東京都","city":"江東区","address":"東京都江東区豊洲2丁目5","lat":35.65794337,"lon":139.79123171},{"name":"東陽三丁目東","province":"東京都","city":"江東区","address":"東京都江東区東陽3丁目22-1","lat":35.66898431,"lon":139.81218784},{"name":"東陽三丁目住宅前","province":"東京都","city":"江東区","address":"東京都江東区東陽3丁目22-32","lat":35.66918986,"lon":139.81313776},{"name":"漣橋北","province":"東京都","city":"江東区","address":"東京都江東区潮見2丁目3","lat":35.65735517,"lon":139.81617663},{"name":"東陽二丁目","province":"東京都","city":"江東区","address":"東京都江東区東陽2丁目4-24","lat":35.66836503,"lon":139.81698744},{"name":"森下駅西","province":"東京都","city":"江東区","address":"東京都江東区新大橋3丁目3-6","lat":35.68776824,"lon":139.79654747},{"name":"江東区役所前","province":"東京都","city":"江東区","address":"東京都江東区東陽5丁目31-19","lat":35.67283114,"lon":139.81570434},{"name":"東陽町駅東口","province":"東京都","city":"江東区","address":"東京都江東区東陽4丁目5-18","lat":35.67048425,"lon":139.81829565},{"name":"扇橋三丁目第二","province":"東京都","city":"江東区","address":"東京都江東区扇橋3丁目7-3","lat":35.68255774,"lon":139.82023454},{"name":"潮見駅南","province":"東京都","city":"江東区","address":"東京都江東区潮見2丁目10-22","lat":35.65700526,"lon":139.81812368},{"name":"江東区文化センター東","province":"東京都","city":"江東区","address":"東京都江東区東陽4丁目12-30","lat":35.67261456,"lon":139.81919007},{"name":"東陽図書館前","province":"東京都","city":"江東区","address":"東京都江東区東陽2丁目2-20","lat":35.66588197,"lon":139.816032},{"name":"清澄白河駅","province":"東京都","city":"江東区","address":"東京都江東区白河2丁目9-5","lat":35.68203826,"lon":139.8021431},{"name":"豊洲六丁目","province":"東京都","city":"江東区","address":"東京都江東区豊洲6丁目2","lat":35.64571973,"lon":139.79140145},{"name":"豊洲埠頭口前","province":"東京都","city":"江東区","address":"東京都江東区豊洲5丁目1","lat":35.6498916,"lon":139.79570094},{"name":"豊洲三丁目","province":"東京都","city":"江東区","address":"東京都江東区豊洲2丁目1","lat":35.65699075,"lon":139.79314545},{"name":"区民センター前","province":"東京都","city":"江東区","address":"東京都江東区大島2丁目41-18","lat":35.68959587,"lon":139.82617805},{"name":"亀戸五丁目","province":"東京都","city":"江東区","address":"東京都江東区亀戸5丁目15-2","lat":35.69990821,"lon":139.82578635},{"name":"中川新橋西詰","province":"東京都","city":"江東区","address":"東京都江東区亀戸9丁目8","lat":35.69656757,"lon":139.8436343},{"name":"大島仲の橋","province":"東京都","city":"江東区","address":"東京都江東区大島7丁目1-18","lat":35.69029342,"lon":139.83811537},{"name":"亀戸七丁目","province":"東京都","city":"江東区","address":"東京都江東区亀戸7丁目41-5","lat":35.69693989,"lon":139.83645134},{"name":"亀戸駅北口","province":"東京都","city":"江東区","address":"東京都江東区亀戸5丁目1-1","lat":35.69781692,"lon":139.82621403},{"name":"大島八丁目","province":"東京都","city":"江東区","address":"東京都江東区大島8丁目42-11","lat":35.69047391,"lon":139.84406775},{"name":"砂町橋","province":"東京都","city":"江東区","address":"東京都江東区南砂6丁目4-6","lat":35.67363145,"lon":139.83348855},{"name":"南砂三丁目","province":"東京都","city":"江東区","address":"東京都江東区南砂3丁目4-7","lat":35.67345352,"lon":139.82670594},{"name":"日曹橋北","province":"東京都","city":"江東区","address":"東京都江東区南砂3丁目2-1","lat":35.6705122,"lon":139.82621712},{"name":"第三大島小学校入口","province":"東京都","city":"江東区","address":"東京都江東区大島7丁目41-8","lat":35.69288472,"lon":139.8433094},{"name":"日曹橋","province":"東京都","city":"江東区","address":"東京都江東区南砂3丁目2","lat":35.67059,"lon":139.82714758},{"name":"南砂五差路","province":"東京都","city":"江東区","address":"東京都江東区南砂1丁目11-15","lat":35.67820564,"lon":139.82440897},{"name":"大島六丁目","province":"東京都","city":"江東区","address":"東京都江東区大島5丁目35-8","lat":35.68974071,"lon":139.83620996},{"name":"環四亀戸七丁目第二","province":"東京都","city":"江東区","address":"東京都江東区亀戸7丁目49-4","lat":35.6957429,"lon":139.83429587},{"name":"第三砂町小前","province":"東京都","city":"江東区","address":"東京都江東区南砂4丁目19-13","lat":35.67185386,"lon":139.83220261},{"name":"江東試験場入口","province":"東京都","city":"江東区","address":"東京都江東区南砂2丁目3","lat":35.67096762,"lon":139.82298967},{"name":"都立東高校角","province":"東京都","city":"江東区","address":"東京都江東区南砂6丁目7","lat":35.67234275,"lon":139.8348801},{"name":"南砂三丁目公園入口","province":"東京都","city":"江東区","address":"東京都江東区南砂6丁目2-1","lat":35.67136509,"lon":139.83436628},{"name":"南砂二丁目団地入口","province":"東京都","city":"江東区","address":"東京都江東区南砂2丁目3-3","lat":35.67328122,"lon":139.82288413},{"name":"北砂五丁目団地前","province":"東京都","city":"江東区","address":"東京都江東区北砂5丁目20-8","lat":35.68347745,"lon":139.83288003},{"name":"中川新橋西詰第二","province":"東京都","city":"江東区","address":"東京都江東区亀戸9丁目8","lat":35.69656757,"lon":139.8436343},{"name":"江東試験場前","province":"東京都","city":"江東区","address":"東京都江東区新砂1丁目7-24","lat":35.6689012,"lon":139.82269804},{"name":"南砂二丁目南公園前","province":"東京都","city":"江東区","address":"東京都江東区南砂2丁目3-6","lat":35.67042604,"lon":139.82382569},{"name":"東大島駅入口","province":"東京都","city":"江東区","address":"東京都江東区大島9丁目2","lat":35.68882412,"lon":139.84570657},{"name":"南砂三丁目公園前","province":"東京都","city":"江東区","address":"東京都江東区南砂3丁目14","lat":35.66992634,"lon":139.83271092},{"name":"南砂町駅前","province":"東京都","city":"江東区","address":"東京都江東区南砂3丁目14-1","lat":35.66877645,"lon":139.83174161},{"name":"江東医療センター入口","province":"東京都","city":"江東区","address":"東京都江東区新砂3丁目3","lat":35.66770714,"lon":139.83211937},{"name":"あゆみ橋","province":"東京都","city":"江東区","address":"東京都江東区新砂3丁目3","lat":35.66770714,"lon":139.83211937},{"name":"南砂町駅西口","province":"東京都","city":"江東区","address":"東京都江東区新砂2丁目1","lat":35.66886798,"lon":139.82686152},{"name":"亀戸給水所","province":"東京都","city":"江東区","address":"東京都江東区亀戸2丁目6-50","lat":35.70101603,"lon":139.82130935},{"name":"豊住給水所","province":"東京都","city":"江東区","address":"東京都江東区東陽6丁目1-8","lat":35.67503913,"lon":139.81095502},{"name":"江東給水所","province":"東京都","city":"江東区","address":"東京都江東区新砂3丁目6-17","lat":35.66542149,"lon":139.84132701},{"name":"有明給水所","province":"東京都","city":"江東区","address":"東京都江東区有明3丁目1-8","lat":35.63082682,"lon":139.78543859},{"name":"区立南砂三丁目公園","province":"東京都","city":"江東区","address":"東京都江東区南砂3丁目14-21","lat":35.66960695,"lon":139.83337197},{"name":"都立辰巳の森海浜公園","province":"東京都","city":"江東区","address":"東京都江東区辰巳2丁目1","lat":35.64899491,"lon":139.81239389},{"name":"新砂緊急用船着場","province":"東京都","city":"江東区","address":"東京都江東区新砂3丁目","lat":35.66420213,"lon":139.83834118},{"name":"有明客船ターミナル","province":"東京都","city":"江東区","address":"東京都江東区有明3丁目","lat":35.63159354,"lon":139.78818561},{"name":"青海客船ターミナル","province":"東京都","city":"江東区","address":"東京都江東区青海2丁目","lat":35.61733141,"lon":139.78018715},{"name":"黒船橋乗船場","province":"東京都","city":"江東区","address":"東京都江東区門前仲町1丁目1","lat":35.67178636,"lon":139.79273166},{"name":"木場六丁目乗船場","province":"東京都","city":"江東区","address":"東京都江東区木場6丁目","lat":35.66762602,"lon":139.80679399},{"name":"亀戸中央公園乗船場","province":"東京都","city":"江東区","address":"東京都江東区亀戸8丁目","lat":35.7006893,"lon":139.8333461},{"name":"豊洲三丁目乗船場","province":"東京都","city":"江東区","address":"東京都江東区豊洲3丁目","lat":35.66003768,"lon":139.79466194},{"name":"旧中川川の駅スロープ","province":"東京都","city":"江東区","address":"東京都江東区大島9丁目","lat":35.69317076,"lon":139.84506485},{"name":"基幹的広域防災拠点（有明の丘地区）","province":"東京都","city":"江東区","address":"江東区有明3-8-35","lat":35.63537,"lon":139.7941},{"name":"第九機動隊","province":"東京都","city":"江東区","address":"江東区新砂1-7-20","lat":35.668,"lon":139.8226},{"name":"第七方面交通機動隊新木場分駐所","province":"東京都","city":"江東区","address":"江東区新木場4-2-31","lat":35.64214,"lon":139.8376},{"name":"第七方面本部","province":"東京都","city":"江東区","address":"江東区新木場4-2-31","lat":35.64214,"lon":139.8376},{"name":"城東警察署","province":"東京都","city":"江東区","address":"江東区北砂2-1-24","lat":35.67844,"lon":139.827},{"name":"東京湾岸警察署","province":"東京都","city":"江東区","address":"江東区青海2-7-1","lat":35.61857,"lon":139.7746},{"name":"深川警察署","province":"東京都","city":"江東区","address":"江東区木場3-18-6","lat":35.67362,"lon":139.8062},{"name":"第七消防方面本部","province":"東京都","city":"江東区","address":"江東区森下5-1-4","lat":35.68487,"lon":139.8066},{"name":"夢の島訓練場","province":"東京都","city":"江東区","address":"江東区夢の島3-1-1","lat":35.64985,"lon":139.8344},{"name":"第一方面訓練場","province":"東京都","city":"江東区","address":"江東区潮見1-29","lat":35.65556,"lon":139.8142},{"name":"第六方面訓練場","province":"東京都","city":"江東区","address":"江東区夢の島3-30","lat":35.65202,"lon":139.8315},{"name":"城東消防署","province":"東京都","city":"江東区","address":"江東区亀戸6-42-9","lat":35.69659,"lon":139.8319},{"name":"深川消防署","province":"東京都","city":"江東区","address":"江東区木場3-18-10","lat":35.67304,"lon":139.8061},{"name":"都営大江戸線清澄白河駅内備蓄倉庫","province":"東京都","city":"江東区","address":"江東区白河1-7-14","lat":35.68292,"lon":139.7989},{"name":"江東区","province":"東京都","city":"江東区","address":"江東区大島4-4-3","lat":35.68874,"lon":139.8273},{"name":"（株）メディセオ新東京ビル","province":"東京都","city":"江東区","address":"江東区佐賀2-8-20","lat":35.67896,"lon":139.7919},{"name":"東京都赤十字血液センター","province":"東京都","city":"江東区","address":"江東区辰巳2-1-67","lat":35.64709,"lon":139.8132},{"name":"夢の島マリーナ","province":"東京都","city":"江東区","address":"東京都江東区夢の島3丁目","lat":35.65190061,"lon":139.83152826},{"name":"黒船橋乗船場","province":"東京都","city":"江東区","address":"東京都江東区門前仲町1丁目1","lat":35.67178636,"lon":139.79273166},{"name":"辰巳二丁目","province":"東京都","city":"江東区","address":"東京都江東区辰巳1丁目10-57","lat":35.64684791,"lon":139.81136906},{"name":"辰巳第二小学校前","province":"東京都","city":"江東区","address":"東京都江東区辰巳1丁目9-60","lat":35.64925314,"lon":139.80949136},{"name":"船の科学館入口","province":"東京都","city":"江東区","address":"東京都江東区青海1丁目1","lat":35.62344145,"lon":139.77495385},{"name":"テレコム駅前","province":"東京都","city":"江東区","address":"東京都江東区青海2丁目6-3","lat":35.61612036,"lon":139.77722358},{"name":"辰巳の森公園前","province":"東京都","city":"江東区","address":"東京都江東区辰巳2丁目1","lat":35.64899491,"lon":139.81239389},{"name":"嘉悦学園入口","province":"東京都","city":"江東区","address":"東京都江東区有明1丁目1-17","lat":35.64231473,"lon":139.79573733},{"name":"夢の島","province":"東京都","city":"江東区","address":"東京都江東区新木場1丁目2-11","lat":35.64491513,"lon":139.82490129},{"name":"千石橋北","province":"東京都","city":"江東区","address":"東京都江東区新木場1丁目18-6","lat":35.64371254,"lon":139.8257263},{"name":"夢の島第二","province":"東京都","city":"江東区","address":"東京都江東区夢の島2丁目1","lat":35.64925356,"lon":139.82649544},{"name":"新木場駅前","province":"東京都","city":"江東区","address":"東京都江東区新木場1丁目18-11","lat":35.64412641,"lon":139.82744557},{"name":"木遣り橋南","province":"東京都","city":"江東区","address":"東京都江東区有明1丁目2-22","lat":35.64094542,"lon":139.79394867},{"name":"有明テニスの森駅前","province":"東京都","city":"江東区","address":"東京都江東区有明1丁目3-20","lat":35.63905107,"lon":139.79022683},{"name":"清澄三丁目","province":"東京都","city":"江東区","address":"東京都江東区清澄3丁目7-9","lat":35.68220214,"lon":139.79856599},{"name":"扇橋二丁目","province":"東京都","city":"江東区","address":"東京都江東区扇橋2丁目22-3","lat":35.6828521,"lon":139.81624074},{"name":"白河三丁目","province":"東京都","city":"江東区","address":"東京都江東区白河3丁目4-3","lat":35.68222989,"lon":139.80574246},{"name":"永代二丁目","province":"東京都","city":"江東区","address":"東京都江東区永代2丁目12-3","lat":35.67367779,"lon":139.79152619},{"name":"木場五丁目","province":"東京都","city":"江東区","address":"東京都江東区木場2丁目20","lat":35.66918415,"lon":139.80526639},{"name":"門前仲町","province":"東京都","city":"江東区","address":"東京都江東区門前仲町1丁目7-9","lat":35.67273633,"lon":139.79477891},{"name":"豊洲駅前","province":"東京都","city":"江東区","address":"東京都江東区豊洲2丁目2-12","lat":35.65470219,"lon":139.79594802},{"name":"東陽六丁目","province":"東京都","city":"江東区","address":"東京都江東区東陽6丁目4-5","lat":35.67593631,"lon":139.81551562},{"name":"東陽町駅前","province":"東京都","city":"江東区","address":"東京都江東区東陽4丁目2-1","lat":35.66993428,"lon":139.81666244},{"name":"白河二丁目","province":"東京都","city":"江東区","address":"東京都江東区白河1丁目4-11","lat":35.68196327,"lon":139.8008461},{"name":"扇橋三丁目","province":"東京都","city":"江東区","address":"東京都江東区扇橋3丁目11-7","lat":35.68335484,"lon":139.81850983},{"name":"千石二丁目","province":"東京都","city":"江東区","address":"東京都江東区千石2丁目8-17","lat":35.67898594,"lon":139.81573794},{"name":"千石一丁目","province":"東京都","city":"江東区","address":"東京都江東区千石1丁目13-24","lat":35.6784054,"lon":139.81160241},{"name":"深川不動前","province":"東京都","city":"江東区","address":"東京都江東区富岡1丁目6-6","lat":35.67104491,"lon":139.79711757},{"name":"東陽四丁目","province":"東京都","city":"江東区","address":"東京都江東区東陽4丁目1-20","lat":35.66948439,"lon":139.81948165},{"name":"深川高校前","province":"東京都","city":"江東区","address":"東京都江東区東陽4丁目10-8","lat":35.67195349,"lon":139.81653198},{"name":"枝川一丁目第二","province":"東京都","city":"江東区","address":"東京都江東区枝川1丁目6-14","lat":35.65686604,"lon":139.80393056},{"name":"新豊洲変電所前","province":"東京都","city":"江東区","address":"東京都江東区豊洲6丁目1","lat":35.65019974,"lon":139.79000422},{"name":"扇橋二丁目第二","province":"東京都","city":"江東区","address":"東京都江東区扇橋3丁目15-10","lat":35.68325206,"lon":139.81739889},{"name":"深川五中角","province":"東京都","city":"江東区","address":"東京都江東区豊洲5丁目5","lat":35.65340512,"lon":139.796398},{"name":"豊洲二丁目","province":"東京都","city":"江東区","address":"東京都江東区豊洲2丁目5","lat":35.65794337,"lon":139.79123171},{"name":"東陽三丁目東","province":"東京都","city":"江東区","address":"東京都江東区東陽3丁目22-1","lat":35.66898431,"lon":139.81218784},{"name":"東陽三丁目住宅前","province":"東京都","city":"江東区","address":"東京都江東区東陽3丁目22-32","lat":35.66918986,"lon":139.81313776},{"name":"漣橋北","province":"東京都","city":"江東区","address":"東京都江東区潮見2丁目3","lat":35.65735517,"lon":139.81617663},{"name":"東陽二丁目","province":"東京都","city":"江東区","address":"東京都江東区東陽2丁目4-24","lat":35.66836503,"lon":139.81698744},{"name":"森下駅西","province":"東京都","city":"江東区","address":"東京都江東区新大橋3丁目3-6","lat":35.68776824,"lon":139.79654747},{"name":"江東区役所前","province":"東京都","city":"江東区","address":"東京都江東区東陽5丁目31-19","lat":35.67283114,"lon":139.81570434},{"name":"東陽町駅東口","province":"東京都","city":"江東区","address":"東京都江東区東陽4丁目5-18","lat":35.67048425,"lon":139.81829565},{"name":"扇橋三丁目第二","province":"東京都","city":"江東区","address":"東京都江東区扇橋3丁目7-3","lat":35.68255774,"lon":139.82023454},{"name":"潮見駅南","province":"東京都","city":"江東区","address":"東京都江東区潮見2丁目10-22","lat":35.65700526,"lon":139.81812368},{"name":"江東区文化センター東","province":"東京都","city":"江東区","address":"東京都江東区東陽4丁目12-30","lat":35.67261456,"lon":139.81919007},{"name":"東陽図書館前","province":"東京都","city":"江東区","address":"東京都江東区東陽2丁目2-20","lat":35.66588197,"lon":139.816032},{"name":"清澄白河駅","province":"東京都","city":"江東区","address":"東京都江東区白河2丁目9-5","lat":35.68203826,"lon":139.8021431},{"name":"豊洲六丁目","province":"東京都","city":"江東区","address":"東京都江東区豊洲6丁目2","lat":35.64571973,"lon":139.79140145},{"name":"豊洲埠頭口前","province":"東京都","city":"江東区","address":"東京都江東区豊洲5丁目1","lat":35.6498916,"lon":139.79570094},{"name":"豊洲三丁目","province":"東京都","city":"江東区","address":"東京都江東区豊洲2丁目1","lat":35.65699075,"lon":139.79314545},{"name":"区民センター前","province":"東京都","city":"江東区","address":"東京都江東区大島2丁目41-18","lat":35.68959587,"lon":139.82617805},{"name":"亀戸五丁目","province":"東京都","city":"江東区","address":"東京都江東区亀戸5丁目15-2","lat":35.69990821,"lon":139.82578635},{"name":"中川新橋西詰","province":"東京都","city":"江東区","address":"東京都江東区亀戸9丁目8","lat":35.69656757,"lon":139.8436343},{"name":"大島仲の橋","province":"東京都","city":"江東区","address":"東京都江東区大島7丁目1-18","lat":35.69029342,"lon":139.83811537},{"name":"亀戸七丁目","province":"東京都","city":"江東区","address":"東京都江東区亀戸7丁目41-5","lat":35.69693989,"lon":139.83645134},{"name":"亀戸駅北口","province":"東京都","city":"江東区","address":"東京都江東区亀戸5丁目1-1","lat":35.69781692,"lon":139.82621403},{"name":"大島八丁目","province":"東京都","city":"江東区","address":"東京都江東区大島8丁目42-11","lat":35.69047391,"lon":139.84406775},{"name":"砂町橋","province":"東京都","city":"江東区","address":"東京都江東区南砂6丁目4-6","lat":35.67363145,"lon":139.83348855},{"name":"南砂三丁目","province":"東京都","city":"江東区","address":"東京都江東区南砂3丁目4-7","lat":35.67345352,"lon":139.82670594},{"name":"日曹橋北","province":"東京都","city":"江東区","address":"東京都江東区南砂3丁目2-1","lat":35.6705122,"lon":139.82621712},{"name":"第三大島小学校入口","province":"東京都","city":"江東区","address":"東京都江東区大島7丁目41-8","lat":35.69288472,"lon":139.8433094},{"name":"日曹橋","province":"東京都","city":"江東区","address":"東京都江東区南砂3丁目2","lat":35.67059,"lon":139.82714758},{"name":"南砂五差路","province":"東京都","city":"江東区","address":"東京都江東区南砂1丁目11-15","lat":35.67820564,"lon":139.82440897},{"name":"大島六丁目","province":"東京都","city":"江東区","address":"東京都江東区大島5丁目35-8","lat":35.68974071,"lon":139.83620996},{"name":"環四亀戸七丁目第二","province":"東京都","city":"江東区","address":"東京都江東区亀戸7丁目49-4","lat":35.6957429,"lon":139.83429587},{"name":"第三砂町小前","province":"東京都","city":"江東区","address":"東京都江東区南砂4丁目19-13","lat":35.67185386,"lon":139.83220261},{"name":"江東試験場入口","province":"東京都","city":"江東区","address":"東京都江東区南砂2丁目3","lat":35.67096762,"lon":139.82298967},{"name":"都立東高校角","province":"東京都","city":"江東区","address":"東京都江東区南砂6丁目7","lat":35.67234275,"lon":139.8348801},{"name":"南砂三丁目公園入口","province":"東京都","city":"江東区","address":"東京都江東区南砂6丁目2-1","lat":35.67136509,"lon":139.83436628},{"name":"南砂二丁目団地入口","province":"東京都","city":"江東区","address":"東京都江東区南砂2丁目3-3","lat":35.67328122,"lon":139.82288413},{"name":"北砂五丁目団地前","province":"東京都","city":"江東区","address":"東京都江東区北砂5丁目20-8","lat":35.68347745,"lon":139.83288003},{"name":"中川新橋西詰第二","province":"東京都","city":"江東区","address":"東京都江東区亀戸9丁目8","lat":35.69656757,"lon":139.8436343},{"name":"江東試験場前","province":"東京都","city":"江東区","address":"東京都江東区新砂1丁目7-24","lat":35.6689012,"lon":139.82269804},{"name":"南砂二丁目南公園前","province":"東京都","city":"江東区","address":"東京都江東区南砂2丁目3-6","lat":35.67042604,"lon":139.82382569},{"name":"東大島駅入口","province":"東京都","city":"江東区","address":"東京都江東区大島9丁目2","lat":35.68882412,"lon":139.84570657},{"name":"南砂三丁目公園前","province":"東京都","city":"江東区","address":"東京都江東区南砂3丁目14","lat":35.66992634,"lon":139.83271092},{"name":"南砂町駅前","province":"東京都","city":"江東区","address":"東京都江東区南砂3丁目14-1","lat":35.66877645,"lon":139.83174161},{"name":"江東医療センター入口","province":"東京都","city":"江東区","address":"東京都江東区新砂3丁目3","lat":35.66770714,"lon":139.83211937},{"name":"あゆみ橋","province":"東京都","city":"江東区","address":"東京都江東区新砂3丁目3","lat":35.66770714,"lon":139.83211937},{"name":"南砂町駅西口","province":"東京都","city":"江東区","address":"東京都江東区新砂2丁目1","lat":35.66886798,"lon":139.82686152},{"name":"亀戸給水所","province":"東京都","city":"江東区","address":"東京都江東区亀戸2丁目6-50","lat":35.70101603,"lon":139.82130935},{"name":"豊住給水所","province":"東京都","city":"江東区","address":"東京都江東区東陽6丁目1-8","lat":35.67503913,"lon":139.81095502},{"name":"江東給水所","province":"東京都","city":"江東区","address":"東京都江東区新砂3丁目6-17","lat":35.66542149,"lon":139.84132701},{"name":"有明給水所","province":"東京都","city":"江東区","address":"東京都江東区有明3丁目1-8","lat":35.63082682,"lon":139.78543859},{"name":"区立南砂三丁目公園","province":"東京都","city":"江東区","address":"東京都江東区南砂3丁目14-21","lat":35.66960695,"lon":139.83337197},{"name":"都立辰巳の森海浜公園","province":"東京都","city":"江東区","address":"東京都江東区辰巳2丁目1","lat":35.64899491,"lon":139.81239389},{"name":"新砂緊急用船着場","province":"東京都","city":"江東区","address":"東京都江東区新砂3丁目","lat":35.66420213,"lon":139.83834118},{"name":"有明客船ターミナル","province":"東京都","city":"江東区","address":"東京都江東区有明3丁目","lat":35.63159354,"lon":139.78818561},{"name":"青海客船ターミナル","province":"東京都","city":"江東区","address":"東京都江東区青海2丁目","lat":35.61733141,"lon":139.78018715},{"name":"黒船橋乗船場","province":"東京都","city":"江東区","address":"東京都江東区門前仲町1丁目1","lat":35.67178636,"lon":139.79273166},{"name":"木場六丁目乗船場","province":"東京都","city":"江東区","address":"東京都江東区木場6丁目","lat":35.66762602,"lon":139.80679399},{"name":"亀戸中央公園乗船場","province":"東京都","city":"江東区","address":"東京都江東区亀戸8丁目","lat":35.7006893,"lon":139.8333461},{"name":"豊洲三丁目乗船場","province":"東京都","city":"江東区","address":"東京都江東区豊洲3丁目","lat":35.66003768,"lon":139.79466194},{"name":"旧中川川の駅スロープ","province":"東京都","city":"江東区","address":"東京都江東区大島9丁目","lat":35.69317076,"lon":139.84506485},{"name":"基幹的広域防災拠点（有明の丘地区）","province":"東京都","city":"江東区","address":"江東区有明3-8-35","lat":35.63537,"lon":139.7941},{"name":"第九機動隊","province":"東京都","city":"江東区","address":"江東区新砂1-7-20","lat":35.668,"lon":139.8226},{"name":"第七方面交通機動隊新木場分駐所","province":"東京都","city":"江東区","address":"江東区新木場4-2-31","lat":35.64214,"lon":139.8376},{"name":"第七方面本部","province":"東京都","city":"江東区","address":"江東区新木場4-2-31","lat":35.64214,"lon":139.8376},{"name":"城東警察署","province":"東京都","city":"江東区","address":"江東区北砂2-1-24","lat":35.67844,"lon":139.827},{"name":"東京湾岸警察署","province":"東京都","city":"江東区","address":"江東区青海2-7-1","lat":35.61857,"lon":139.7746},{"name":"深川警察署","province":"東京都","city":"江東区","address":"江東区木場3-18-6","lat":35.67362,"lon":139.8062},{"name":"第七消防方面本部","province":"東京都","city":"江東区","address":"江東区森下5-1-4","lat":35.68487,"lon":139.8066},{"name":"夢の島訓練場","province":"東京都","city":"江東区","address":"江東区夢の島3-1-1","lat":35.64985,"lon":139.8344},{"name":"第一方面訓練場","province":"東京都","city":"江東区","address":"江東区潮見1-29","lat":35.65556,"lon":139.8142},{"name":"第六方面訓練場","province":"東京都","city":"江東区","address":"江東区夢の島3-30","lat":35.65202,"lon":139.8315},{"name":"城東消防署","province":"東京都","city":"江東区","address":"江東区亀戸6-42-9","lat":35.69659,"lon":139.8319},{"name":"深川消防署","province":"東京都","city":"江東区","address":"江東区木場3-18-10","lat":35.67304,"lon":139.8061},{"name":"都営大江戸線清澄白河駅内備蓄倉庫","province":"東京都","city":"江東区","address":"江東区白河1-7-14","lat":35.68292,"lon":139.7989},{"name":"江東区","province":"東京都","city":"江東区","address":"江東区大島4-4-3","lat":35.68874,"lon":139.8273},{"name":"（株）メディセオ新東京ビル","province":"東京都","city":"江東区","address":"江東区佐賀2-8-20","lat":35.67896,"lon":139.7919},{"name":"東京都赤十字血液センター","province":"東京都","city":"江東区","address":"江東区辰巳2-1-67","lat":35.64709,"lon":139.8132},{"name":"夢の島マリーナ","province":"東京都","city":"江東区","address":"東京都江東区夢の島3丁目","lat":35.65190061,"lon":139.83152826},{"name":"黒船橋乗船場","province":"東京都","city":"江東区","address":"東京都江東区門前仲町1丁目1","lat":35.67178636,"lon":139.79273166},{"name":"辰巳二丁目","province":"東京都","city":"江東区","address":"東京都江東区辰巳1丁目10-57","lat":35.64684791,"lon":139.81136906},{"name":"辰巳第二小学校前","province":"東京都","city":"江東区","address":"東京都江東区辰巳1丁目9-60","lat":35.64925314,"lon":139.80949136},{"name":"船の科学館入口","province":"東京都","city":"江東区","address":"東京都江東区青海1丁目1","lat":35.62344145,"lon":139.77495385},{"name":"テレコム駅前","province":"東京都","city":"江東区","address":"東京都江東区青海2丁目6-3","lat":35.61612036,"lon":139.77722358},{"name":"辰巳の森公園前","province":"東京都","city":"江東区","address":"東京都江東区辰巳2丁目1","lat":35.64899491,"lon":139.81239389},{"name":"嘉悦学園入口","province":"東京都","city":"江東区","address":"東京都江東区有明1丁目1-17","lat":35.64231473,"lon":139.79573733},{"name":"夢の島","province":"東京都","city":"江東区","address":"東京都江東区新木場1丁目2-11","lat":35.64491513,"lon":139.82490129},{"name":"千石橋北","province":"東京都","city":"江東区","address":"東京都江東区新木場1丁目18-6","lat":35.64371254,"lon":139.8257263},{"name":"夢の島第二","province":"東京都","city":"江東区","address":"東京都江東区夢の島2丁目1","lat":35.64925356,"lon":139.82649544},{"name":"新木場駅前","province":"東京都","city":"江東区","address":"東京都江東区新木場1丁目18-11","lat":35.64412641,"lon":139.82744557},{"name":"木遣り橋南","province":"東京都","city":"江東区","address":"東京都江東区有明1丁目2-22","lat":35.64094542,"lon":139.79394867},{"name":"有明テニスの森駅前","province":"東京都","city":"江東区","address":"東京都江東区有明1丁目3-20","lat":35.63905107,"lon":139.79022683},{"name":"清澄三丁目","province":"東京都","city":"江東区","address":"東京都江東区清澄3丁目7-9","lat":35.68220214,"lon":139.79856599},{"name":"扇橋二丁目","province":"東京都","city":"江東区","address":"東京都江東区扇橋2丁目22-3","lat":35.6828521,"lon":139.81624074},{"name":"白河三丁目","province":"東京都","city":"江東区","address":"東京都江東区白河3丁目4-3","lat":35.68222989,"lon":139.80574246},{"name":"永代二丁目","province":"東京都","city":"江東区","address":"東京都江東区永代2丁目12-3","lat":35.67367779,"lon":139.79152619},{"name":"木場五丁目","province":"東京都","city":"江東区","address":"東京都江東区木場2丁目20","lat":35.66918415,"lon":139.80526639},{"name":"門前仲町","province":"東京都","city":"江東区","address":"東京都江東区門前仲町1丁目7-9","lat":35.67273633,"lon":139.79477891},{"name":"豊洲駅前","province":"東京都","city":"江東区","address":"東京都江東区豊洲2丁目2-12","lat":35.65470219,"lon":139.79594802},{"name":"東陽六丁目","province":"東京都","city":"江東区","address":"東京都江東区東陽6丁目4-5","lat":35.67593631,"lon":139.81551562},{"name":"東陽町駅前","province":"東京都","city":"江東区","address":"東京都江東区東陽4丁目2-1","lat":35.66993428,"lon":139.81666244},{"name":"白河二丁目","province":"東京都","city":"江東区","address":"東京都江東区白河1丁目4-11","lat":35.68196327,"lon":139.8008461},{"name":"扇橋三丁目","province":"東京都","city":"江東区","address":"東京都江東区扇橋3丁目11-7","lat":35.68335484,"lon":139.81850983},{"name":"千石二丁目","province":"東京都","city":"江東区","address":"東京都江東区千石2丁目8-17","lat":35.67898594,"lon":139.81573794},{"name":"千石一丁目","province":"東京都","city":"江東区","address":"東京都江東区千石1丁目13-24","lat":35.6784054,"lon":139.81160241},{"name":"深川不動前","province":"東京都","city":"江東区","address":"東京都江東区富岡1丁目6-6","lat":35.67104491,"lon":139.79711757},{"name":"東陽四丁目","province":"東京都","city":"江東区","address":"東京都江東区東陽4丁目1-20","lat":35.66948439,"lon":139.81948165},{"name":"深川高校前","province":"東京都","city":"江東区","address":"東京都江東区東陽4丁目10-8","lat":35.67195349,"lon":139.81653198},{"name":"枝川一丁目第二","province":"東京都","city":"江東区","address":"東京都江東区枝川1丁目6-14","lat":35.65686604,"lon":139.80393056},{"name":"新豊洲変電所前","province":"東京都","city":"江東区","address":"東京都江東区豊洲6丁目1","lat":35.65019974,"lon":139.79000422},{"name":"扇橋二丁目第二","province":"東京都","city":"江東区","address":"東京都江東区扇橋3丁目15-10","lat":35.68325206,"lon":139.81739889},{"name":"深川五中角","province":"東京都","city":"江東区","address":"東京都江東区豊洲5丁目5","lat":35.65340512,"lon":139.796398},{"name":"豊洲二丁目","province":"東京都","city":"江東区","address":"東京都江東区豊洲2丁目5","lat":35.65794337,"lon":139.79123171},{"name":"東陽三丁目東","province":"東京都","city":"江東区","address":"東京都江東区東陽3丁目22-1","lat":35.66898431,"lon":139.81218784},{"name":"東陽三丁目住宅前","province":"東京都","city":"江東区","address":"東京都江東区東陽3丁目22-32","lat":35.66918986,"lon":139.81313776},{"name":"漣橋北","province":"東京都","city":"江東区","address":"東京都江東区潮見2丁目3","lat":35.65735517,"lon":139.81617663},{"name":"東陽二丁目","province":"東京都","city":"江東区","address":"東京都江東区東陽2丁目4-24","lat":35.66836503,"lon":139.81698744},{"name":"森下駅西","province":"東京都","city":"江東区","address":"東京都江東区新大橋3丁目3-6","lat":35.68776824,"lon":139.79654747},{"name":"江東区役所前","province":"東京都","city":"江東区","address":"東京都江東区東陽5丁目31-19","lat":35.67283114,"lon":139.81570434},{"name":"東陽町駅東口","province":"東京都","city":"江東区","address":"東京都江東区東陽4丁目5-18","lat":35.67048425,"lon":139.81829565},{"name":"扇橋三丁目第二","province":"東京都","city":"江東区","address":"東京都江東区扇橋3丁目7-3","lat":35.68255774,"lon":139.82023454},{"name":"潮見駅南","province":"東京都","city":"江東区","address":"東京都江東区潮見2丁目10-22","lat":35.65700526,"lon":139.81812368},{"name":"江東区文化センター東","province":"東京都","city":"江東区","address":"東京都江東区東陽4丁目12-30","lat":35.67261456,"lon":139.81919007},{"name":"東陽図書館前","province":"東京都","city":"江東区","address":"東京都江東区東陽2丁目2-20","lat":35.66588197,"lon":139.816032},{"name":"清澄白河駅","province":"東京都","city":"江東区","address":"東京都江東区白河2丁目9-5","lat":35.68203826,"lon":139.8021431},{"name":"豊洲六丁目","province":"東京都","city":"江東区","address":"東京都江東区豊洲6丁目2","lat":35.64571973,"lon":139.79140145},{"name":"豊洲埠頭口前","province":"東京都","city":"江東区","address":"東京都江東区豊洲5丁目1","lat":35.6498916,"lon":139.79570094},{"name":"豊洲三丁目","province":"東京都","city":"江東区","address":"東京都江東区豊洲2丁目1","lat":35.65699075,"lon":139.79314545},{"name":"区民センター前","province":"東京都","city":"江東区","address":"東京都江東区大島2丁目41-18","lat":35.68959587,"lon":139.82617805},{"name":"亀戸五丁目","province":"東京都","city":"江東区","address":"東京都江東区亀戸5丁目15-2","lat":35.69990821,"lon":139.82578635},{"name":"中川新橋西詰","province":"東京都","city":"江東区","address":"東京都江東区亀戸9丁目8","lat":35.69656757,"lon":139.8436343},{"name":"大島仲の橋","province":"東京都","city":"江東区","address":"東京都江東区大島7丁目1-18","lat":35.69029342,"lon":139.83811537},{"name":"亀戸七丁目","province":"東京都","city":"江東区","address":"東京都江東区亀戸7丁目41-5","lat":35.69693989,"lon":139.83645134},{"name":"亀戸駅北口","province":"東京都","city":"江東区","address":"東京都江東区亀戸5丁目1-1","lat":35.69781692,"lon":139.82621403},{"name":"大島八丁目","province":"東京都","city":"江東区","address":"東京都江東区大島8丁目42-11","lat":35.69047391,"lon":139.84406775},{"name":"砂町橋","province":"東京都","city":"江東区","address":"東京都江東区南砂6丁目4-6","lat":35.67363145,"lon":139.83348855},{"name":"南砂三丁目","province":"東京都","city":"江東区","address":"東京都江東区南砂3丁目4-7","lat":35.67345352,"lon":139.82670594},{"name":"日曹橋北","province":"東京都","city":"江東区","address":"東京都江東区南砂3丁目2-1","lat":35.6705122,"lon":139.82621712},{"name":"第三大島小学校入口","province":"東京都","city":"江東区","address":"東京都江東区大島7丁目41-8","lat":35.69288472,"lon":139.8433094},{"name":"日曹橋","province":"東京都","city":"江東区","address":"東京都江東区南砂3丁目2","lat":35.67059,"lon":139.82714758},{"name":"南砂五差路","province":"東京都","city":"江東区","address":"東京都江東区南砂1丁目11-15","lat":35.67820564,"lon":139.82440897},{"name":"大島六丁目","province":"東京都","city":"江東区","address":"東京都江東区大島5丁目35-8","lat":35.68974071,"lon":139.83620996},{"name":"環四亀戸七丁目第二","province":"東京都","city":"江東区","address":"東京都江東区亀戸7丁目49-4","lat":35.6957429,"lon":139.83429587},{"name":"第三砂町小前","province":"東京都","city":"江東区","address":"東京都江東区南砂4丁目19-13","lat":35.67185386,"lon":139.83220261},{"name":"江東試験場入口","province":"東京都","city":"江東区","address":"東京都江東区南砂2丁目3","lat":35.67096762,"lon":139.82298967},{"name":"都立東高校角","province":"東京都","city":"江東区","address":"東京都江東区南砂6丁目7","lat":35.67234275,"lon":139.8348801},{"name":"南砂三丁目公園入口","province":"東京都","city":"江東区","address":"東京都江東区南砂6丁目2-1","lat":35.67136509,"lon":139.83436628},{"name":"南砂二丁目団地入口","province":"東京都","city":"江東区","address":"東京都江東区南砂2丁目3-3","lat":35.67328122,"lon":139.82288413},{"name":"北砂五丁目団地前","province":"東京都","city":"江東区","address":"東京都江東区北砂5丁目20-8","lat":35.68347745,"lon":139.83288003},{"name":"中川新橋西詰第二","province":"東京都","city":"江東区","address":"東京都江東区亀戸9丁目8","lat":35.69656757,"lon":139.8436343},{"name":"江東試験場前","province":"東京都","city":"江東区","address":"東京都江東区新砂1丁目7-24","lat":35.6689012,"lon":139.82269804},{"name":"南砂二丁目南公園前","province":"東京都","city":"江東区","address":"東京都江東区南砂2丁目3-6","lat":35.67042604,"lon":139.82382569},{"name":"東大島駅入口","province":"東京都","city":"江東区","address":"東京都江東区大島9丁目2","lat":35.68882412,"lon":139.84570657},{"name":"南砂三丁目公園前","province":"東京都","city":"江東区","address":"東京都江東区南砂3丁目14","lat":35.66992634,"lon":139.83271092},{"name":"南砂町駅前","province":"東京都","city":"江東区","address":"東京都江東区南砂3丁目14-1","lat":35.66877645,"lon":139.83174161},{"name":"江東医療センター入口","province":"東京都","city":"江東区","address":"東京都江東区新砂3丁目3","lat":35.66770714,"lon":139.83211937},{"name":"あゆみ橋","province":"東京都","city":"江東区","address":"東京都江東区新砂3丁目3","lat":35.66770714,"lon":139.83211937},{"name":"南砂町駅西口","province":"東京都","city":"江東区","address":"東京都江東区新砂2丁目1","lat":35.66886798,"lon":139.82686152},{"name":"亀戸給水所","province":"東京都","city":"江東区","address":"東京都江東区亀戸2丁目6-50","lat":35.70101603,"lon":139.82130935},{"name":"豊住給水所","province":"東京都","city":"江東区","address":"東京都江東区東陽6丁目1-8","lat":35.67503913,"lon":139.81095502},{"name":"江東給水所","province":"東京都","city":"江東区","address":"東京都江東区新砂3丁目6-17","lat":35.66542149,"lon":139.84132701},{"name":"有明給水所","province":"東京都","city":"江東区","address":"東京都江東区有明3丁目1-8","lat":35.63082682,"lon":139.78543859},{"name":"区立南砂三丁目公園","province":"東京都","city":"江東区","address":"東京都江東区南砂3丁目14-21","lat":35.66960695,"lon":139.83337197},{"name":"都立辰巳の森海浜公園","province":"東京都","city":"江東区","address":"東京都江東区辰巳2丁目1","lat":35.64899491,"lon":139.81239389},{"name":"新砂緊急用船着場","province":"東京都","city":"江東区","address":"東京都江東区新砂3丁目","lat":35.66420213,"lon":139.83834118},{"name":"有明客船ターミナル","province":"東京都","city":"江東区","address":"東京都江東区有明3丁目","lat":35.63159354,"lon":139.78818561},{"name":"青海客船ターミナル","province":"東京都","city":"江東区","address":"東京都江東区青海2丁目","lat":35.61733141,"lon":139.78018715},{"name":"黒船橋乗船場","province":"東京都","city":"江東区","address":"東京都江東区門前仲町1丁目1","lat":35.67178636,"lon":139.79273166},{"name":"木場六丁目乗船場","province":"東京都","city":"江東区","address":"東京都江東区木場6丁目","lat":35.66762602,"lon":139.80679399},{"name":"亀戸中央公園乗船場","province":"東京都","city":"江東区","address":"東京都江東区亀戸8丁目","lat":35.7006893,"lon":139.8333461},{"name":"豊洲三丁目乗船場","province":"東京都","city":"江東区","address":"東京都江東区豊洲3丁目","lat":35.66003768,"lon":139.79466194},{"name":"旧中川川の駅スロープ","province":"東京都","city":"江東区","address":"東京都江東区大島9丁目","lat":35.69317076,"lon":139.84506485},{"name":"基幹的広域防災拠点（有明の丘地区）","province":"東京都","city":"江東区","address":"江東区有明3-8-35","lat":35.63537,"lon":139.7941},{"name":"第九機動隊","province":"東京都","city":"江東区","address":"江東区新砂1-7-20","lat":35.668,"lon":139.8226},{"name":"第七方面交通機動隊新木場分駐所","province":"東京都","city":"江東区","address":"江東区新木場4-2-31","lat":35.64214,"lon":139.8376},{"name":"第七方面本部","province":"東京都","city":"江東区","address":"江東区新木場4-2-31","lat":35.64214,"lon":139.8376},{"name":"城東警察署","province":"東京都","city":"江東区","address":"江東区北砂2-1-24","lat":35.67844,"lon":139.827},{"name":"東京湾岸警察署","province":"東京都","city":"江東区","address":"江東区青海2-7-1","lat":35.61857,"lon":139.7746},{"name":"深川警察署","province":"東京都","city":"江東区","address":"江東区木場3-18-6","lat":35.67362,"lon":139.8062},{"name":"第七消防方面本部","province":"東京都","city":"江東区","address":"江東区森下5-1-4","lat":35.68487,"lon":139.8066},{"name":"夢の島訓練場","province":"東京都","city":"江東区","address":"江東区夢の島3-1-1","lat":35.64985,"lon":139.8344},{"name":"第一方面訓練場","province":"東京都","city":"江東区","address":"江東区潮見1-29","lat":35.65556,"lon":139.8142},{"name":"第六方面訓練場","province":"東京都","city":"江東区","address":"江東区夢の島3-30","lat":35.65202,"lon":139.8315},{"name":"城東消防署","province":"東京都","city":"江東区","address":"江東区亀戸6-42-9","lat":35.69659,"lon":139.8319},{"name":"深川消防署","province":"東京都","city":"江東区","address":"江東区木場3-18-10","lat":35.67304,"lon":139.8061},{"name":"都営大江戸線清澄白河駅内備蓄倉庫","province":"東京都","city":"江東区","address":"江東区白河1-7-14","lat":35.68292,"lon":139.7989},{"name":"江東区","province":"東京都","city":"江東区","address":"江東区大島4-4-3","lat":35.68874,"lon":139.8273},{"name":"（株）メディセオ新東京ビル","province":"東京都","city":"江東区","address":"江東区佐賀2-8-20","lat":35.67896,"lon":139.7919},{"name":"東京都赤十字血液センター","province":"東京都","city":"江東区","address":"江東区辰巳2-1-67","lat":35.64709,"lon":139.8132},{"name":"夢の島マリーナ","province":"東京都","city":"江東区","address":"東京都江東区夢の島3丁目","lat":35.65190061,"lon":139.83152826},{"name":"黒船橋乗船場","province":"東京都","city":"江東区","address":"東京都江東区門前仲町1丁目1","lat":35.67178636,"lon":139.79273166},{"name":"辰巳二丁目","province":"東京都","city":"江東区","address":"東京都江東区辰巳1丁目10-57","lat":35.64684791,"lon":139.81136906},{"name":"辰巳第二小学校前","province":"東京都","city":"江東区","address":"東京都江東区辰巳1丁目9-60","lat":35.64925314,"lon":139.80949136},{"name":"船の科学館入口","province":"東京都","city":"江東区","address":"東京都江東区青海1丁目1","lat":35.62344145,"lon":139.77495385},{"name":"テレコム駅前","province":"東京都","city":"江東区","address":"東京都江東区青海2丁目6-3","lat":35.61612036,"lon":139.77722358},{"name":"辰巳の森公園前","province":"東京都","city":"江東区","address":"東京都江東区辰巳2丁目1","lat":35.64899491,"lon":139.81239389},{"name":"嘉悦学園入口","province":"東京都","city":"江東区","address":"東京都江東区有明1丁目1-17","lat":35.64231473,"lon":139.79573733},{"name":"夢の島","province":"東京都","city":"江東区","address":"東京都江東区新木場1丁目2-11","lat":35.64491513,"lon":139.82490129},{"name":"千石橋北","province":"東京都","city":"江東区","address":"東京都江東区新木場1丁目18-6","lat":35.64371254,"lon":139.8257263},{"name":"夢の島第二","province":"東京都","city":"江東区","address":"東京都江東区夢の島2丁目1","lat":35.64925356,"lon":139.82649544},{"name":"新木場駅前","province":"東京都","city":"江東区","address":"東京都江東区新木場1丁目18-11","lat":35.64412641,"lon":139.82744557},{"name":"木遣り橋南","province":"東京都","city":"江東区","address":"東京都江東区有明1丁目2-22","lat":35.64094542,"lon":139.79394867},{"name":"有明テニスの森駅前","province":"東京都","city":"江東区","address":"東京都江東区有明1丁目3-20","lat":35.63905107,"lon":139.79022683},{"name":"清澄三丁目","province":"東京都","city":"江東区","address":"東京都江東区清澄3丁目7-9","lat":35.68220214,"lon":139.79856599},{"name":"扇橋二丁目","province":"東京都","city":"江東区","address":"東京都江東区扇橋2丁目22-3","lat":35.6828521,"lon":139.81624074},{"name":"白河三丁目","province":"東京都","city":"江東区","address":"東京都江東区白河3丁目4-3","lat":35.68222989,"lon":139.80574246},{"name":"永代二丁目","province":"東京都","city":"江東区","address":"東京都江東区永代2丁目12-3","lat":35.67367779,"lon":139.79152619},{"name":"木場五丁目","province":"東京都","city":"江東区","address":"東京都江東区木場2丁目20","lat":35.66918415,"lon":139.80526639},{"name":"門前仲町","province":"東京都","city":"江東区","address":"東京都江東区門前仲町1丁目7-9","lat":35.67273633,"lon":139.79477891},{"name":"豊洲駅前","province":"東京都","city":"江東区","address":"東京都江東区豊洲2丁目2-12","lat":35.65470219,"lon":139.79594802},{"name":"東陽六丁目","province":"東京都","city":"江東区","address":"東京都江東区東陽6丁目4-5","lat":35.67593631,"lon":139.81551562},{"name":"東陽町駅前","province":"東京都","city":"江東区","address":"東京都江東区東陽4丁目2-1","lat":35.66993428,"lon":139.81666244},{"name":"白河二丁目","province":"東京都","city":"江東区","address":"東京都江東区白河1丁目4-11","lat":35.68196327,"lon":139.8008461},{"name":"扇橋三丁目","province":"東京都","city":"江東区","address":"東京都江東区扇橋3丁目11-7","lat":35.68335484,"lon":139.81850983},{"name":"千石二丁目","province":"東京都","city":"江東区","address":"東京都江東区千石2丁目8-17","lat":35.67898594,"lon":139.81573794},{"name":"千石一丁目","province":"東京都","city":"江東区","address":"東京都江東区千石1丁目13-24","lat":35.6784054,"lon":139.81160241},{"name":"深川不動前","province":"東京都","city":"江東区","address":"東京都江東区富岡1丁目6-6","lat":35.67104491,"lon":139.79711757},{"name":"東陽四丁目","province":"東京都","city":"江東区","address":"東京都江東区東陽4丁目1-20","lat":35.66948439,"lon":139.81948165},{"name":"深川高校前","province":"東京都","city":"江東区","address":"東京都江東区東陽4丁目10-8","lat":35.67195349,"lon":139.81653198},{"name":"枝川一丁目第二","province":"東京都","city":"江東区","address":"東京都江東区枝川1丁目6-14","lat":35.65686604,"lon":139.80393056},{"name":"新豊洲変電所前","province":"東京都","city":"江東区","address":"東京都江東区豊洲6丁目1","lat":35.65019974,"lon":139.79000422},{"name":"扇橋二丁目第二","province":"東京都","city":"江東区","address":"東京都江東区扇橋3丁目15-10","lat":35.68325206,"lon":139.81739889},{"name":"深川五中角","province":"東京都","city":"江東区","address":"東京都江東区豊洲5丁目5","lat":35.65340512,"lon":139.796398},{"name":"豊洲二丁目","province":"東京都","city":"江東区","address":"東京都江東区豊洲2丁目5","lat":35.65794337,"lon":139.79123171},{"name":"東陽三丁目東","province":"東京都","city":"江東区","address":"東京都江東区東陽3丁目22-1","lat":35.66898431,"lon":139.81218784},{"name":"東陽三丁目住宅前","province":"東京都","city":"江東区","address":"東京都江東区東陽3丁目22-32","lat":35.66918986,"lon":139.81313776},{"name":"漣橋北","province":"東京都","city":"江東区","address":"東京都江東区潮見2丁目3","lat":35.65735517,"lon":139.81617663},{"name":"東陽二丁目","province":"東京都","city":"江東区","address":"東京都江東区東陽2丁目4-24","lat":35.66836503,"lon":139.81698744},{"name":"森下駅西","province":"東京都","city":"江東区","address":"東京都江東区新大橋3丁目3-6","lat":35.68776824,"lon":139.79654747},{"name":"江東区役所前","province":"東京都","city":"江東区","address":"東京都江東区東陽5丁目31-19","lat":35.67283114,"lon":139.81570434},{"name":"東陽町駅東口","province":"東京都","city":"江東区","address":"東京都江東区東陽4丁目5-18","lat":35.67048425,"lon":139.81829565},{"name":"扇橋三丁目第二","province":"東京都","city":"江東区","address":"東京都江東区扇橋3丁目7-3","lat":35.68255774,"lon":139.82023454},{"name":"潮見駅南","province":"東京都","city":"江東区","address":"東京都江東区潮見2丁目10-22","lat":35.65700526,"lon":139.81812368},{"name":"江東区文化センター東","province":"東京都","city":"江東区","address":"東京都江東区東陽4丁目12-30","lat":35.67261456,"lon":139.81919007},{"name":"東陽図書館前","province":"東京都","city":"江東区","address":"東京都江東区東陽2丁目2-20","lat":35.66588197,"lon":139.816032},{"name":"清澄白河駅","province":"東京都","city":"江東区","address":"東京都江東区白河2丁目9-5","lat":35.68203826,"lon":139.8021431},{"name":"豊洲六丁目","province":"東京都","city":"江東区","address":"東京都江東区豊洲6丁目2","lat":35.64571973,"lon":139.79140145},{"name":"豊洲埠頭口前","province":"東京都","city":"江東区","address":"東京都江東区豊洲5丁目1","lat":35.6498916,"lon":139.79570094},{"name":"豊洲三丁目","province":"東京都","city":"江東区","address":"東京都江東区豊洲2丁目1","lat":35.65699075,"lon":139.79314545},{"name":"区民センター前","province":"東京都","city":"江東区","address":"東京都江東区大島2丁目41-18","lat":35.68959587,"lon":139.82617805},{"name":"亀戸五丁目","province":"東京都","city":"江東区","address":"東京都江東区亀戸5丁目15-2","lat":35.69990821,"lon":139.82578635},{"name":"中川新橋西詰","province":"東京都","city":"江東区","address":"東京都江東区亀戸9丁目8","lat":35.69656757,"lon":139.8436343},{"name":"大島仲の橋","province":"東京都","city":"江東区","address":"東京都江東区大島7丁目1-18","lat":35.69029342,"lon":139.83811537},{"name":"亀戸七丁目","province":"東京都","city":"江東区","address":"東京都江東区亀戸7丁目41-5","lat":35.69693989,"lon":139.83645134},{"name":"亀戸駅北口","province":"東京都","city":"江東区","address":"東京都江東区亀戸5丁目1-1","lat":35.69781692,"lon":139.82621403},{"name":"大島八丁目","province":"東京都","city":"江東区","address":"東京都江東区大島8丁目42-11","lat":35.69047391,"lon":139.84406775},{"name":"砂町橋","province":"東京都","city":"江東区","address":"東京都江東区南砂6丁目4-6","lat":35.67363145,"lon":139.83348855},{"name":"南砂三丁目","province":"東京都","city":"江東区","address":"東京都江東区南砂3丁目4-7","lat":35.67345352,"lon":139.82670594},{"name":"日曹橋北","province":"東京都","city":"江東区","address":"東京都江東区南砂3丁目2-1","lat":35.6705122,"lon":139.82621712},{"name":"第三大島小学校入口","province":"東京都","city":"江東区","address":"東京都江東区大島7丁目41-8","lat":35.69288472,"lon":139.8433094},{"name":"日曹橋","province":"東京都","city":"江東区","address":"東京都江東区南砂3丁目2","lat":35.67059,"lon":139.82714758},{"name":"南砂五差路","province":"東京都","city":"江東区","address":"東京都江東区南砂1丁目11-15","lat":35.67820564,"lon":139.82440897},{"name":"大島六丁目","province":"東京都","city":"江東区","address":"東京都江東区大島5丁目35-8","lat":35.68974071,"lon":139.83620996},{"name":"環四亀戸七丁目第二","province":"東京都","city":"江東区","address":"東京都江東区亀戸7丁目49-4","lat":35.6957429,"lon":139.83429587},{"name":"第三砂町小前","province":"東京都","city":"江東区","address":"東京都江東区南砂4丁目19-13","lat":35.67185386,"lon":139.83220261},{"name":"江東試験場入口","province":"東京都","city":"江東区","address":"東京都江東区南砂2丁目3","lat":35.67096762,"lon":139.82298967},{"name":"都立東高校角","province":"東京都","city":"江東区","address":"東京都江東区南砂6丁目7","lat":35.67234275,"lon":139.8348801},{"name":"南砂三丁目公園入口","province":"東京都","city":"江東区","address":"東京都江東区南砂6丁目2-1","lat":35.67136509,"lon":139.83436628},{"name":"南砂二丁目団地入口","province":"東京都","city":"江東区","address":"東京都江東区南砂2丁目3-3","lat":35.67328122,"lon":139.82288413},{"name":"北砂五丁目団地前","province":"東京都","city":"江東区","address":"東京都江東区北砂5丁目20-8","lat":35.68347745,"lon":139.83288003},{"name":"中川新橋西詰第二","province":"東京都","city":"江東区","address":"東京都江東区亀戸9丁目8","lat":35.69656757,"lon":139.8436343},{"name":"江東試験場前","province":"東京都","city":"江東区","address":"東京都江東区新砂1丁目7-24","lat":35.6689012,"lon":139.82269804},{"name":"南砂二丁目南公園前","province":"東京都","city":"江東区","address":"東京都江東区南砂2丁目3-6","lat":35.67042604,"lon":139.82382569},{"name":"東大島駅入口","province":"東京都","city":"江東区","address":"東京都江東区大島9丁目2","lat":35.68882412,"lon":139.84570657},{"name":"南砂三丁目公園前","province":"東京都","city":"江東区","address":"東京都江東区南砂3丁目14","lat":35.66992634,"lon":139.83271092},{"name":"南砂町駅前","province":"東京都","city":"江東区","address":"東京都江東区南砂3丁目14-1","lat":35.66877645,"lon":139.83174161},{"name":"江東医療センター入口","province":"東京都","city":"江東区","address":"東京都江東区新砂3丁目3","lat":35.66770714,"lon":139.83211937},{"name":"あゆみ橋","province":"東京都","city":"江東区","address":"東京都江東区新砂3丁目3","lat":35.66770714,"lon":139.83211937},{"name":"南砂町駅西口","province":"東京都","city":"江東区","address":"東京都江東区新砂2丁目1","lat":35.66886798,"lon":139.82686152},{"name":"亀戸給水所","province":"東京都","city":"江東区","address":"東京都江東区亀戸2丁目6-50","lat":35.70101603,"lon":139.82130935},{"name":"豊住給水所","province":"東京都","city":"江東区","address":"東京都江東区東陽6丁目1-8","lat":35.67503913,"lon":139.81095502},{"name":"江東給水所","province":"東京都","city":"江東区","address":"東京都江東区新砂3丁目6-17","lat":35.66542149,"lon":139.84132701},{"name":"有明給水所","province":"東京都","city":"江東区","address":"東京都江東区有明3丁目1-8","lat":35.63082682,"lon":139.78543859},{"name":"区立南砂三丁目公園","province":"東京都","city":"江東区","address":"東京都江東区南砂3丁目14-21","lat":35.66960695,"lon":139.83337197},{"name":"都立辰巳の森海浜公園","province":"東京都","city":"江東区","address":"東京都江東区辰巳2丁目1","lat":35.64899491,"lon":139.81239389},{"name":"新砂緊急用船着場","province":"東京都","city":"江東区","address":"東京都江東区新砂3丁目","lat":35.66420213,"lon":139.83834118},{"name":"有明客船ターミナル","province":"東京都","city":"江東区","address":"東京都江東区有明3丁目","lat":35.63159354,"lon":139.78818561},{"name":"青海客船ターミナル","province":"東京都","city":"江東区","address":"東京都江東区青海2丁目","lat":35.61733141,"lon":139.78018715},{"name":"黒船橋乗船場","province":"東京都","city":"江東区","address":"東京都江東区門前仲町1丁目1","lat":35.67178636,"lon":139.79273166},{"name":"木場六丁目乗船場","province":"東京都","city":"江東区","address":"東京都江東区木場6丁目","lat":35.66762602,"lon":139.80679399},{"name":"亀戸中央公園乗船場","province":"東京都","city":"江東区","address":"東京都江東区亀戸8丁目","lat":35.7006893,"lon":139.8333461},{"name":"豊洲三丁目乗船場","province":"東京都","city":"江東区","address":"東京都江東区豊洲3丁目","lat":35.66003768,"lon":139.79466194},{"name":"旧中川川の駅スロープ","province":"東京都","city":"江東区","address":"東京都江東区大島9丁目","lat":35.69317076,"lon":139.84506485},{"name":"基幹的広域防災拠点（有明の丘地区）","province":"東京都","city":"江東区","address":"江東区有明3-8-35","lat":35.63537,"lon":139.7941},{"name":"第九機動隊","province":"東京都","city":"江東区","address":"江東区新砂1-7-20","lat":35.668,"lon":139.8226},{"name":"第七方面交通機動隊新木場分駐所","province":"東京都","city":"江東区","address":"江東区新木場4-2-31","lat":35.64214,"lon":139.8376},{"name":"第七方面本部","province":"東京都","city":"江東区","address":"江東区新木場4-2-31","lat":35.64214,"lon":139.8376},{"name":"城東警察署","province":"東京都","city":"江東区","address":"江東区北砂2-1-24","lat":35.67844,"lon":139.827},{"name":"東京湾岸警察署","province":"東京都","city":"江東区","address":"江東区青海2-7-1","lat":35.61857,"lon":139.7746},{"name":"深川警察署","province":"東京都","city":"江東区","address":"江東区木場3-18-6","lat":35.67362,"lon":139.8062},{"name":"第七消防方面本部","province":"東京都","city":"江東区","address":"江東区森下5-1-4","lat":35.68487,"lon":139.8066},{"name":"夢の島訓練場","province":"東京都","city":"江東区","address":"江東区夢の島3-1-1","lat":35.64985,"lon":139.8344},{"name":"第一方面訓練場","province":"東京都","city":"江東区","address":"江東区潮見1-29","lat":35.65556,"lon":139.8142},{"name":"第六方面訓練場","province":"東京都","city":"江東区","address":"江東区夢の島3-30","lat":35.65202,"lon":139.8315},{"name":"城東消防署","province":"東京都","city":"江東区","address":"江東区亀戸6-42-9","lat":35.69659,"lon":139.8319},{"name":"深川消防署","province":"東京都","city":"江東区","address":"江東区木場3-18-10","lat":35.67304,"lon":139.8061},{"name":"都営大江戸線清澄白河駅内備蓄倉庫","province":"東京都","city":"江東区","address":"江東区白河1-7-14","lat":35.68292,"lon":139.7989},{"name":"江東区","province":"東京都","city":"江東区","address":"江東区大島4-4-3","lat":35.68874,"lon":139.8273},{"name":"（株）メディセオ新東京ビル","province":"東京都","city":"江東区","address":"江東区佐賀2-8-20","lat":35.67896,"lon":139.7919},{"name":"東京都赤十字血液センター","province":"東京都","city":"江東区","address":"江東区辰巳2-1-67","lat":35.64709,"lon":139.8132},{"name":"夢の島マリーナ","province":"東京都","city":"江東区","address":"東京都江東区夢の島3丁目","lat":35.65190061,"lon":139.83152826},{"name":"黒船橋乗船場","province":"東京都","city":"江東区","address":"東京都江東区門前仲町1丁目1","lat":35.67178636,"lon":139.79273166},{"name":"辰巳二丁目","province":"東京都","city":"江東区","address":"東京都江東区辰巳1丁目10-57","lat":35.64684791,"lon":139.81136906},{"name":"辰巳第二小学校前","province":"東京都","city":"江東区","address":"東京都江東区辰巳1丁目9-60","lat":35.64925314,"lon":139.80949136},{"name":"船の科学館入口","province":"東京都","city":"江東区","address":"東京都江東区青海1丁目1","lat":35.62344145,"lon":139.77495385},{"name":"テレコム駅前","province":"東京都","city":"江東区","address":"東京都江東区青海2丁目6-3","lat":35.61612036,"lon":139.77722358},{"name":"辰巳の森公園前","province":"東京都","city":"江東区","address":"東京都江東区辰巳2丁目1","lat":35.64899491,"lon":139.81239389},{"name":"嘉悦学園入口","province":"東京都","city":"江東区","address":"東京都江東区有明1丁目1-17","lat":35.64231473,"lon":139.79573733},{"name":"夢の島","province":"東京都","city":"江東区","address":"東京都江東区新木場1丁目2-11","lat":35.64491513,"lon":139.82490129},{"name":"千石橋北","province":"東京都","city":"江東区","address":"東京都江東区新木場1丁目18-6","lat":35.64371254,"lon":139.8257263},{"name":"夢の島第二","province":"東京都","city":"江東区","address":"東京都江東区夢の島2丁目1","lat":35.64925356,"lon":139.82649544},{"name":"新木場駅前","province":"東京都","city":"江東区","address":"東京都江東区新木場1丁目18-11","lat":35.64412641,"lon":139.82744557},{"name":"木遣り橋南","province":"東京都","city":"江東区","address":"東京都江東区有明1丁目2-22","lat":35.64094542,"lon":139.79394867},{"name":"有明テニスの森駅前","province":"東京都","city":"江東区","address":"東京都江東区有明1丁目3-20","lat":35.63905107,"lon":139.79022683},{"name":"清澄三丁目","province":"東京都","city":"江東区","address":"東京都江東区清澄3丁目7-9","lat":35.68220214,"lon":139.79856599},{"name":"扇橋二丁目","province":"東京都","city":"江東区","address":"東京都江東区扇橋2丁目22-3","lat":35.6828521,"lon":139.81624074},{"name":"白河三丁目","province":"東京都","city":"江東区","address":"東京都江東区白河3丁目4-3","lat":35.68222989,"lon":139.80574246},{"name":"永代二丁目","province":"東京都","city":"江東区","address":"東京都江東区永代2丁目12-3","lat":35.67367779,"lon":139.79152619},{"name":"木場五丁目","province":"東京都","city":"江東区","address":"東京都江東区木場2丁目20","lat":35.66918415,"lon":139.80526639},{"name":"門前仲町","province":"東京都","city":"江東区","address":"東京都江東区門前仲町1丁目7-9","lat":35.67273633,"lon":139.79477891},{"name":"豊洲駅前","province":"東京都","city":"江東区","address":"東京都江東区豊洲2丁目2-12","lat":35.65470219,"lon":139.79594802},{"name":"東陽六丁目","province":"東京都","city":"江東区","address":"東京都江東区東陽6丁目4-5","lat":35.67593631,"lon":139.81551562},{"name":"東陽町駅前","province":"東京都","city":"江東区","address":"東京都江東区東陽4丁目2-1","lat":35.66993428,"lon":139.81666244},{"name":"白河二丁目","province":"東京都","city":"江東区","address":"東京都江東区白河1丁目4-11","lat":35.68196327,"lon":139.8008461},{"name":"扇橋三丁目","province":"東京都","city":"江東区","address":"東京都江東区扇橋3丁目11-7","lat":35.68335484,"lon":139.81850983},{"name":"千石二丁目","province":"東京都","city":"江東区","address":"東京都江東区千石2丁目8-17","lat":35.67898594,"lon":139.81573794},{"name":"千石一丁目","province":"東京都","city":"江東区","address":"東京都江東区千石1丁目13-24","lat":35.6784054,"lon":139.81160241},{"name":"深川不動前","province":"東京都","city":"江東区","address":"東京都江東区富岡1丁目6-6","lat":35.67104491,"lon":139.79711757},{"name":"東陽四丁目","province":"東京都","city":"江東区","address":"東京都江東区東陽4丁目1-20","lat":35.66948439,"lon":139.81948165},{"name":"深川高校前","province":"東京都","city":"江東区","address":"東京都江東区東陽4丁目10-8","lat":35.67195349,"lon":139.81653198},{"name":"枝川一丁目第二","province":"東京都","city":"江東区","address":"東京都江東区枝川1丁目6-14","lat":35.65686604,"lon":139.80393056},{"name":"新豊洲変電所前","province":"東京都","city":"江東区","address":"東京都江東区豊洲6丁目1","lat":35.65019974,"lon":139.79000422},{"name":"扇橋二丁目第二","province":"東京都","city":"江東区","address":"東京都江東区扇橋3丁目15-10","lat":35.68325206,"lon":139.81739889},{"name":"深川五中角","province":"東京都","city":"江東区","address":"東京都江東区豊洲5丁目5","lat":35.65340512,"lon":139.796398},{"name":"豊洲二丁目","province":"東京都","city":"江東区","address":"東京都江東区豊洲2丁目5","lat":35.65794337,"lon":139.79123171},{"name":"東陽三丁目東","province":"東京都","city":"江東区","address":"東京都江東区東陽3丁目22-1","lat":35.66898431,"lon":139.81218784},{"name":"東陽三丁目住宅前","province":"東京都","city":"江東区","address":"東京都江東区東陽3丁目22-32","lat":35.66918986,"lon":139.81313776},{"name":"漣橋北","province":"東京都","city":"江東区","address":"東京都江東区潮見2丁目3","lat":35.65735517,"lon":139.81617663},{"name":"東陽二丁目","province":"東京都","city":"江東区","address":"東京都江東区東陽2丁目4-24","lat":35.66836503,"lon":139.81698744},{"name":"森下駅西","province":"東京都","city":"江東区","address":"東京都江東区新大橋3丁目3-6","lat":35.68776824,"lon":139.79654747},{"name":"江東区役所前","province":"東京都","city":"江東区","address":"東京都江東区東陽5丁目31-19","lat":35.67283114,"lon":139.81570434},{"name":"東陽町駅東口","province":"東京都","city":"江東区","address":"東京都江東区東陽4丁目5-18","lat":35.67048425,"lon":139.81829565},{"name":"扇橋三丁目第二","province":"東京都","city":"江東区","address":"東京都江東区扇橋3丁目7-3","lat":35.68255774,"lon":139.82023454},{"name":"潮見駅南","province":"東京都","city":"江東区","address":"東京都江東区潮見2丁目10-22","lat":35.65700526,"lon":139.81812368},{"name":"江東区文化センター東","province":"東京都","city":"江東区","address":"東京都江東区東陽4丁目12-30","lat":35.67261456,"lon":139.81919007},{"name":"東陽図書館前","province":"東京都","city":"江東区","address":"東京都江東区東陽2丁目2-20","lat":35.66588197,"lon":139.816032},{"name":"清澄白河駅","province":"東京都","city":"江東区","address":"東京都江東区白河2丁目9-5","lat":35.68203826,"lon":139.8021431},{"name":"豊洲六丁目","province":"東京都","city":"江東区","address":"東京都江東区豊洲6丁目2","lat":35.64571973,"lon":139.79140145},{"name":"豊洲埠頭口前","province":"東京都","city":"江東区","address":"東京都江東区豊洲5丁目1","lat":35.6498916,"lon":139.79570094},{"name":"豊洲三丁目","province":"東京都","city":"江東区","address":"東京都江東区豊洲2丁目1","lat":35.65699075,"lon":139.79314545},{"name":"区民センター前","province":"東京都","city":"江東区","address":"東京都江東区大島2丁目41-18","lat":35.68959587,"lon":139.82617805},{"name":"亀戸五丁目","province":"東京都","city":"江東区","address":"東京都江東区亀戸5丁目15-2","lat":35.69990821,"lon":139.82578635},{"name":"中川新橋西詰","province":"東京都","city":"江東区","address":"東京都江東区亀戸9丁目8","lat":35.69656757,"lon":139.8436343},{"name":"大島仲の橋","province":"東京都","city":"江東区","address":"東京都江東区大島7丁目1-18","lat":35.69029342,"lon":139.83811537},{"name":"亀戸七丁目","province":"東京都","city":"江東区","address":"東京都江東区亀戸7丁目41-5","lat":35.69693989,"lon":139.83645134},{"name":"亀戸駅北口","province":"東京都","city":"江東区","address":"東京都江東区亀戸5丁目1-1","lat":35.69781692,"lon":139.82621403},{"name":"大島八丁目","province":"東京都","city":"江東区","address":"東京都江東区大島8丁目42-11","lat":35.69047391,"lon":139.84406775},{"name":"砂町橋","province":"東京都","city":"江東区","address":"東京都江東区南砂6丁目4-6","lat":35.67363145,"lon":139.83348855},{"name":"南砂三丁目","province":"東京都","city":"江東区","address":"東京都江東区南砂3丁目4-7","lat":35.67345352,"lon":139.82670594},{"name":"日曹橋北","province":"東京都","city":"江東区","address":"東京都江東区南砂3丁目2-1","lat":35.6705122,"lon":139.82621712},{"name":"第三大島小学校入口","province":"東京都","city":"江東区","address":"東京都江東区大島7丁目41-8","lat":35.69288472,"lon":139.8433094},{"name":"日曹橋","province":"東京都","city":"江東区","address":"東京都江東区南砂3丁目2","lat":35.67059,"lon":139.82714758},{"name":"南砂五差路","province":"東京都","city":"江東区","address":"東京都江東区南砂1丁目11-15","lat":35.67820564,"lon":139.82440897},{"name":"大島六丁目","province":"東京都","city":"江東区","address":"東京都江東区大島5丁目35-8","lat":35.68974071,"lon":139.83620996},{"name":"環四亀戸七丁目第二","province":"東京都","city":"江東区","address":"東京都江東区亀戸7丁目49-4","lat":35.6957429,"lon":139.83429587},{"name":"第三砂町小前","province":"東京都","city":"江東区","address":"東京都江東区南砂4丁目19-13","lat":35.67185386,"lon":139.83220261},{"name":"江東試験場入口","province":"東京都","city":"江東区","address":"東京都江東区南砂2丁目3","lat":35.67096762,"lon":139.82298967},{"name":"都立東高校角","province":"東京都","city":"江東区","address":"東京都江東区南砂6丁目7","lat":35.67234275,"lon":139.8348801},{"name":"南砂三丁目公園入口","province":"東京都","city":"江東区","address":"東京都江東区南砂6丁目2-1","lat":35.67136509,"lon":139.83436628},{"name":"南砂二丁目団地入口","province":"東京都","city":"江東区","address":"東京都江東区南砂2丁目3-3","lat":35.67328122,"lon":139.82288413},{"name":"北砂五丁目団地前","province":"東京都","city":"江東区","address":"東京都江東区北砂5丁目20-8","lat":35.68347745,"lon":139.83288003},{"name":"中川新橋西詰第二","province":"東京都","city":"江東区","address":"東京都江東区亀戸9丁目8","lat":35.69656757,"lon":139.8436343},{"name":"江東試験場前","province":"東京都","city":"江東区","address":"東京都江東区新砂1丁目7-24","lat":35.6689012,"lon":139.82269804},{"name":"南砂二丁目南公園前","province":"東京都","city":"江東区","address":"東京都江東区南砂2丁目3-6","lat":35.67042604,"lon":139.82382569},{"name":"東大島駅入口","province":"東京都","city":"江東区","address":"東京都江東区大島9丁目2","lat":35.68882412,"lon":139.84570657},{"name":"南砂三丁目公園前","province":"東京都","city":"江東区","address":"東京都江東区南砂3丁目14","lat":35.66992634,"lon":139.83271092},{"name":"南砂町駅前","province":"東京都","city":"江東区","address":"東京都江東区南砂3丁目14-1","lat":35.66877645,"lon":139.83174161},{"name":"江東医療センター入口","province":"東京都","city":"江東区","address":"東京都江東区新砂3丁目3","lat":35.66770714,"lon":139.83211937},{"name":"あゆみ橋","province":"東京都","city":"江東区","address":"東京都江東区新砂3丁目3","lat":35.66770714,"lon":139.83211937},{"name":"南砂町駅西口","province":"東京都","city":"江東区","address":"東京都江東区新砂2丁目1","lat":35.66886798,"lon":139.82686152},{"name":"亀戸給水所","province":"東京都","city":"江東区","address":"東京都江東区亀戸2丁目6-50","lat":35.70101603,"lon":139.82130935},{"name":"豊住給水所","province":"東京都","city":"江東区","address":"東京都江東区東陽6丁目1-8","lat":35.67503913,"lon":139.81095502},{"name":"江東給水所","province":"東京都","city":"江東区","address":"東京都江東区新砂3丁目6-17","lat":35.66542149,"lon":139.84132701},{"name":"有明給水所","province":"東京都","city":"江東区","address":"東京都江東区有明3丁目1-8","lat":35.63082682,"lon":139.78543859},{"name":"区立南砂三丁目公園","province":"東京都","city":"江東区","address":"東京都江東区南砂3丁目14-21","lat":35.66960695,"lon":139.83337197},{"name":"都立辰巳の森海浜公園","province":"東京都","city":"江東区","address":"東京都江東区辰巳2丁目1","lat":35.64899491,"lon":139.81239389},{"name":"新砂緊急用船着場","province":"東京都","city":"江東区","address":"東京都江東区新砂3丁目","lat":35.66420213,"lon":139.83834118},{"name":"有明客船ターミナル","province":"東京都","city":"江東区","address":"東京都江東区有明3丁目","lat":35.63159354,"lon":139.78818561},{"name":"青海客船ターミナル","province":"東京都","city":"江東区","address":"東京都江東区青海2丁目","lat":35.61733141,"lon":139.78018715},{"name":"黒船橋乗船場","province":"東京都","city":"江東区","address":"東京都江東区門前仲町1丁目1","lat":35.67178636,"lon":139.79273166},{"name":"木場六丁目乗船場","province":"東京都","city":"江東区","address":"東京都江東区木場6丁目","lat":35.66762602,"lon":139.80679399},{"name":"亀戸中央公園乗船場","province":"東京都","city":"江東区","address":"東京都江東区亀戸8丁目","lat":35.7006893,"lon":139.8333461},{"name":"豊洲三丁目乗船場","province":"東京都","city":"江東区","address":"東京都江東区豊洲3丁目","lat":35.66003768,"lon":139.79466194},{"name":"旧中川川の駅スロープ","province":"東京都","city":"江東区","address":"東京都江東区大島9丁目","lat":35.69317076,"lon":139.84506485},{"name":"基幹的広域防災拠点（有明の丘地区）","province":"東京都","city":"江東区","address":"江東区有明3-8-35","lat":35.63537,"lon":139.7941},{"name":"第九機動隊","province":"東京都","city":"江東区","address":"江東区新砂1-7-20","lat":35.668,"lon":139.8226},{"name":"第七方面交通機動隊新木場分駐所","province":"東京都","city":"江東区","address":"江東区新木場4-2-31","lat":35.64214,"lon":139.8376},{"name":"第七方面本部","province":"東京都","city":"江東区","address":"江東区新木場4-2-31","lat":35.64214,"lon":139.8376},{"name":"城東警察署","province":"東京都","city":"江東区","address":"江東区北砂2-1-24","lat":35.67844,"lon":139.827},{"name":"東京湾岸警察署","province":"東京都","city":"江東区","address":"江東区青海2-7-1","lat":35.61857,"lon":139.7746},{"name":"深川警察署","province":"東京都","city":"江東区","address":"江東区木場3-18-6","lat":35.67362,"lon":139.8062},{"name":"第七消防方面本部","province":"東京都","city":"江東区","address":"江東区森下5-1-4","lat":35.68487,"lon":139.8066},{"name":"夢の島訓練場","province":"東京都","city":"江東区","address":"江東区夢の島3-1-1","lat":35.64985,"lon":139.8344},{"name":"第一方面訓練場","province":"東京都","city":"江東区","address":"江東区潮見1-29","lat":35.65556,"lon":139.8142},{"name":"第六方面訓練場","province":"東京都","city":"江東区","address":"江東区夢の島3-30","lat":35.65202,"lon":139.8315},{"name":"城東消防署","province":"東京都","city":"江東区","address":"江東区亀戸6-42-9","lat":35.69659,"lon":139.8319},{"name":"深川消防署","province":"東京都","city":"江東区","address":"江東区木場3-18-10","lat":35.67304,"lon":139.8061},{"name":"都営大江戸線清澄白河駅内備蓄倉庫","province":"東京都","city":"江東区","address":"江東区白河1-7-14","lat":35.68292,"lon":139.7989},{"name":"江東区","province":"東京都","city":"江東区","address":"江東区大島4-4-3","lat":35.68874,"lon":139.8273},{"name":"（株）メディセオ新東京ビル","province":"東京都","city":"江東区","address":"江東区佐賀2-8-20","lat":35.67896,"lon":139.7919},{"name":"東京都赤十字血液センター","province":"東京都","city":"江東区","address":"江東区辰巳2-1-67","lat":35.64709,"lon":139.8132},{"name":"夢の島マリーナ","province":"東京都","city":"江東区","address":"東京都江東区夢の島3丁目","lat":35.65190061,"lon":139.83152826},{"name":"黒船橋乗船場","province":"東京都","city":"江東区","address":"東京都江東区門前仲町1丁目1","lat":35.67178636,"lon":139.79273166},{"name":"辰巳二丁目","province":"東京都","city":"江東区","address":"東京都江東区辰巳1丁目10-57","lat":35.64684791,"lon":139.81136906},{"name":"辰巳第二小学校前","province":"東京都","city":"江東区","address":"東京都江東区辰巳1丁目9-60","lat":35.64925314,"lon":139.80949136},{"name":"船の科学館入口","province":"東京都","city":"江東区","address":"東京都江東区青海1丁目1","lat":35.62344145,"lon":139.77495385},{"name":"テレコム駅前","province":"東京都","city":"江東区","address":"東京都江東区青海2丁目6-3","lat":35.61612036,"lon":139.77722358},{"name":"辰巳の森公園前","province":"東京都","city":"江東区","address":"東京都江東区辰巳2丁目1","lat":35.64899491,"lon":139.81239389},{"name":"嘉悦学園入口","province":"東京都","city":"江東区","address":"東京都江東区有明1丁目1-17","lat":35.64231473,"lon":139.79573733},{"name":"夢の島","province":"東京都","city":"江東区","address":"東京都江東区新木場1丁目2-11","lat":35.64491513,"lon":139.82490129},{"name":"千石橋北","province":"東京都","city":"江東区","address":"東京都江東区新木場1丁目18-6","lat":35.64371254,"lon":139.8257263},{"name":"夢の島第二","province":"東京都","city":"江東区","address":"東京都江東区夢の島2丁目1","lat":35.64925356,"lon":139.82649544},{"name":"新木場駅前","province":"東京都","city":"江東区","address":"東京都江東区新木場1丁目18-11","lat":35.64412641,"lon":139.82744557},{"name":"木遣り橋南","province":"東京都","city":"江東区","address":"東京都江東区有明1丁目2-22","lat":35.64094542,"lon":139.79394867},{"name":"有明テニスの森駅前","province":"東京都","city":"江東区","address":"東京都江東区有明1丁目3-20","lat":35.63905107,"lon":139.79022683},{"name":"清澄三丁目","province":"東京都","city":"江東区","address":"東京都江東区清澄3丁目7-9","lat":35.68220214,"lon":139.79856599},{"name":"扇橋二丁目","province":"東京都","city":"江東区","address":"東京都江東区扇橋2丁目22-3","lat":35.6828521,"lon":139.81624074},{"name":"白河三丁目","province":"東京都","city":"江東区","address":"東京都江東区白河3丁目4-3","lat":35.68222989,"lon":139.80574246},{"name":"永代二丁目","province":"東京都","city":"江東区","address":"東京都江東区永代2丁目12-3","lat":35.67367779,"lon":139.79152619},{"name":"木場五丁目","province":"東京都","city":"江東区","address":"東京都江東区木場2丁目20","lat":35.66918415,"lon":139.80526639},{"name":"門前仲町","province":"東京都","city":"江東区","address":"東京都江東区門前仲町1丁目7-9","lat":35.67273633,"lon":139.79477891},{"name":"豊洲駅前","province":"東京都","city":"江東区","address":"東京都江東区豊洲2丁目2-12","lat":35.65470219,"lon":139.79594802},{"name":"東陽六丁目","province":"東京都","city":"江東区","address":"東京都江東区東陽6丁目4-5","lat":35.67593631,"lon":139.81551562},{"name":"東陽町駅前","province":"東京都","city":"江東区","address":"東京都江東区東陽4丁目2-1","lat":35.66993428,"lon":139.81666244},{"name":"白河二丁目","province":"東京都","city":"江東区","address":"東京都江東区白河1丁目4-11","lat":35.68196327,"lon":139.8008461},{"name":"扇橋三丁目","province":"東京都","city":"江東区","address":"東京都江東区扇橋3丁目11-7","lat":35.68335484,"lon":139.81850983},{"name":"千石二丁目","province":"東京都","city":"江東区","address":"東京都江東区千石2丁目8-17","lat":35.67898594,"lon":139.81573794},{"name":"千石一丁目","province":"東京都","city":"江東区","address":"東京都江東区千石1丁目13-24","lat":35.6784054,"lon":139.81160241},{"name":"深川不動前","province":"東京都","city":"江東区","address":"東京都江東区富岡1丁目6-6","lat":35.67104491,"lon":139.79711757},{"name":"東陽四丁目","province":"東京都","city":"江東区","address":"東京都江東区東陽4丁目1-20","lat":35.66948439,"lon":139.81948165},{"name":"深川高校前","province":"東京都","city":"江東区","address":"東京都江東区東陽4丁目10-8","lat":35.67195349,"lon":139.81653198},{"name":"枝川一丁目第二","province":"東京都","city":"江東区","address":"東京都江東区枝川1丁目6-14","lat":35.65686604,"lon":139.80393056},{"name":"新豊洲変電所前","province":"東京都","city":"江東区","address":"東京都江東区豊洲6丁目1","lat":35.65019974,"lon":139.79000422},{"name":"扇橋二丁目第二","province":"東京都","city":"江東区","address":"東京都江東区扇橋3丁目15-10","lat":35.68325206,"lon":139.81739889},{"name":"深川五中角","province":"東京都","city":"江東区","address":"東京都江東区豊洲5丁目5","lat":35.65340512,"lon":139.796398},{"name":"豊洲二丁目","province":"東京都","city":"江東区","address":"東京都江東区豊洲2丁目5","lat":35.65794337,"lon":139.79123171},{"name":"東陽三丁目東","province":"東京都","city":"江東区","address":"東京都江東区東陽3丁目22-1","lat":35.66898431,"lon":139.81218784},{"name":"東陽三丁目住宅前","province":"東京都","city":"江東区","address":"東京都江東区東陽3丁目22-32","lat":35.66918986,"lon":139.81313776},{"name":"漣橋北","province":"東京都","city":"江東区","address":"東京都江東区潮見2丁目3","lat":35.65735517,"lon":139.81617663},{"name":"東陽二丁目","province":"東京都","city":"江東区","address":"東京都江東区東陽2丁目4-24","lat":35.66836503,"lon":139.81698744},{"name":"森下駅西","province":"東京都","city":"江東区","address":"東京都江東区新大橋3丁目3-6","lat":35.68776824,"lon":139.79654747},{"name":"江東区役所前","province":"東京都","city":"江東区","address":"東京都江東区東陽5丁目31-19","lat":35.67283114,"lon":139.81570434},{"name":"東陽町駅東口","province":"東京都","city":"江東区","address":"東京都江東区東陽4丁目5-18","lat":35.67048425,"lon":139.81829565},{"name":"扇橋三丁目第二","province":"東京都","city":"江東区","address":"東京都江東区扇橋3丁目7-3","lat":35.68255774,"lon":139.82023454},{"name":"潮見駅南","province":"東京都","city":"江東区","address":"東京都江東区潮見2丁目10-22","lat":35.65700526,"lon":139.81812368},{"name":"江東区文化センター東","province":"東京都","city":"江東区","address":"東京都江東区東陽4丁目12-30","lat":35.67261456,"lon":139.81919007},{"name":"東陽図書館前","province":"東京都","city":"江東区","address":"東京都江東区東陽2丁目2-20","lat":35.66588197,"lon":139.816032},{"name":"清澄白河駅","province":"東京都","city":"江東区","address":"東京都江東区白河2丁目9-5","lat":35.68203826,"lon":139.8021431},{"name":"豊洲六丁目","province":"東京都","city":"江東区","address":"東京都江東区豊洲6丁目2","lat":35.64571973,"lon":139.79140145},{"name":"豊洲埠頭口前","province":"東京都","city":"江東区","address":"東京都江東区豊洲5丁目1","lat":35.6498916,"lon":139.79570094},{"name":"豊洲三丁目","province":"東京都","city":"江東区","address":"東京都江東区豊洲2丁目1","lat":35.65699075,"lon":139.79314545},{"name":"区民センター前","province":"東京都","city":"江東区","address":"東京都江東区大島2丁目41-18","lat":35.68959587,"lon":139.82617805},{"name":"亀戸五丁目","province":"東京都","city":"江東区","address":"東京都江東区亀戸5丁目15-2","lat":35.69990821,"lon":139.82578635},{"name":"中川新橋西詰","province":"東京都","city":"江東区","address":"東京都江東区亀戸9丁目8","lat":35.69656757,"lon":139.8436343},{"name":"大島仲の橋","province":"東京都","city":"江東区","address":"東京都江東区大島7丁目1-18","lat":35.69029342,"lon":139.83811537},{"name":"亀戸七丁目","province":"東京都","city":"江東区","address":"東京都江東区亀戸7丁目41-5","lat":35.69693989,"lon":139.83645134},{"name":"亀戸駅北口","province":"東京都","city":"江東区","address":"東京都江東区亀戸5丁目1-1","lat":35.69781692,"lon":139.82621403},{"name":"大島八丁目","province":"東京都","city":"江東区","address":"東京都江東区大島8丁目42-11","lat":35.69047391,"lon":139.84406775},{"name":"砂町橋","province":"東京都","city":"江東区","address":"東京都江東区南砂6丁目4-6","lat":35.67363145,"lon":139.83348855},{"name":"南砂三丁目","province":"東京都","city":"江東区","address":"東京都江東区南砂3丁目4-7","lat":35.67345352,"lon":139.82670594},{"name":"日曹橋北","province":"東京都","city":"江東区","address":"東京都江東区南砂3丁目2-1","lat":35.6705122,"lon":139.82621712},{"name":"第三大島小学校入口","province":"東京都","city":"江東区","address":"東京都江東区大島7丁目41-8","lat":35.69288472,"lon":139.8433094},{"name":"日曹橋","province":"東京都","city":"江東区","address":"東京都江東区南砂3丁目2","lat":35.67059,"lon":139.82714758},{"name":"南砂五差路","province":"東京都","city":"江東区","address":"東京都江東区南砂1丁目11-15","lat":35.67820564,"lon":139.82440897},{"name":"大島六丁目","province":"東京都","city":"江東区","address":"東京都江東区大島5丁目35-8","lat":35.68974071,"lon":139.83620996},{"name":"環四亀戸七丁目第二","province":"東京都","city":"江東区","address":"東京都江東区亀戸7丁目49-4","lat":35.6957429,"lon":139.83429587},{"name":"第三砂町小前","province":"東京都","city":"江東区","address":"東京都江東区南砂4丁目19-13","lat":35.67185386,"lon":139.83220261},{"name":"江東試験場入口","province":"東京都","city":"江東区","address":"東京都江東区南砂2丁目3","lat":35.67096762,"lon":139.82298967},{"name":"都立東高校角","province":"東京都","city":"江東区","address":"東京都江東区南砂6丁目7","lat":35.67234275,"lon":139.8348801},{"name":"南砂三丁目公園入口","province":"東京都","city":"江東区","address":"東京都江東区南砂6丁目2-1","lat":35.67136509,"lon":139.83436628},{"name":"南砂二丁目団地入口","province":"東京都","city":"江東区","address":"東京都江東区南砂2丁目3-3","lat":35.67328122,"lon":139.82288413},{"name":"北砂五丁目団地前","province":"東京都","city":"江東区","address":"東京都江東区北砂5丁目20-8","lat":35.68347745,"lon":139.83288003},{"name":"中川新橋西詰第二","province":"東京都","city":"江東区","address":"東京都江東区亀戸9丁目8","lat":35.69656757,"lon":139.8436343},{"name":"江東試験場前","province":"東京都","city":"江東区","address":"東京都江東区新砂1丁目7-24","lat":35.6689012,"lon":139.82269804},{"name":"南砂二丁目南公園前","province":"東京都","city":"江東区","address":"東京都江東区南砂2丁目3-6","lat":35.67042604,"lon":139.82382569},{"name":"東大島駅入口","province":"東京都","city":"江東区","address":"東京都江東区大島9丁目2","lat":35.68882412,"lon":139.84570657},{"name":"南砂三丁目公園前","province":"東京都","city":"江東区","address":"東京都江東区南砂3丁目14","lat":35.66992634,"lon":139.83271092},{"name":"南砂町駅前","province":"東京都","city":"江東区","address":"東京都江東区南砂3丁目14-1","lat":35.66877645,"lon":139.83174161},{"name":"江東医療センター入口","province":"東京都","city":"江東区","address":"東京都江東区新砂3丁目3","lat":35.66770714,"lon":139.83211937},{"name":"あゆみ橋","province":"東京都","city":"江東区","address":"東京都江東区新砂3丁目3","lat":35.66770714,"lon":139.83211937},{"name":"南砂町駅西口","province":"東京都","city":"江東区","address":"東京都江東区新砂2丁目1","lat":35.66886798,"lon":139.82686152},{"name":"亀戸給水所","province":"東京都","city":"江東区","address":"東京都江東区亀戸2丁目6-50","lat":35.70101603,"lon":139.82130935},{"name":"豊住給水所","province":"東京都","city":"江東区","address":"東京都江東区東陽6丁目1-8","lat":35.67503913,"lon":139.81095502},{"name":"江東給水所","province":"東京都","city":"江東区","address":"東京都江東区新砂3丁目6-17","lat":35.66542149,"lon":139.84132701},{"name":"有明給水所","province":"東京都","city":"江東区","address":"東京都江東区有明3丁目1-8","lat":35.63082682,"lon":139.78543859},{"name":"区立南砂三丁目公園","province":"東京都","city":"江東区","address":"東京都江東区南砂3丁目14-21","lat":35.66960695,"lon":139.83337197},{"name":"都立辰巳の森海浜公園","province":"東京都","city":"江東区","address":"東京都江東区辰巳2丁目1","lat":35.64899491,"lon":139.81239389},{"name":"新砂緊急用船着場","province":"東京都","city":"江東区","address":"東京都江東区新砂3丁目","lat":35.66420213,"lon":139.83834118},{"name":"有明客船ターミナル","province":"東京都","city":"江東区","address":"東京都江東区有明3丁目","lat":35.63159354,"lon":139.78818561},{"name":"青海客船ターミナル","province":"東京都","city":"江東区","address":"東京都江東区青海2丁目","lat":35.61733141,"lon":139.78018715},{"name":"黒船橋乗船場","province":"東京都","city":"江東区","address":"東京都江東区門前仲町1丁目1","lat":35.67178636,"lon":139.79273166},{"name":"木場六丁目乗船場","province":"東京都","city":"江東区","address":"東京都江東区木場6丁目","lat":35.66762602,"lon":139.80679399},{"name":"亀戸中央公園乗船場","province":"東京都","city":"江東区","address":"東京都江東区亀戸8丁目","lat":35.7006893,"lon":139.8333461},{"name":"豊洲三丁目乗船場","province":"東京都","city":"江東区","address":"東京都江東区豊洲3丁目","lat":35.66003768,"lon":139.79466194},{"name":"旧中川川の駅スロープ","province":"東京都","city":"江東区","address":"東京都江東区大島9丁目","lat":35.69317076,"lon":139.84506485},{"name":"基幹的広域防災拠点（有明の丘地区）","province":"東京都","city":"江東区","address":"江東区有明3-8-35","lat":35.63537,"lon":139.7941},{"name":"第九機動隊","province":"東京都","city":"江東区","address":"江東区新砂1-7-20","lat":35.668,"lon":139.8226},{"name":"第七方面交通機動隊新木場分駐所","province":"東京都","city":"江東区","address":"江東区新木場4-2-31","lat":35.64214,"lon":139.8376},{"name":"第七方面本部","province":"東京都","city":"江東区","address":"江東区新木場4-2-31","lat":35.64214,"lon":139.8376},{"name":"城東警察署","province":"東京都","city":"江東区","address":"江東区北砂2-1-24","lat":35.67844,"lon":139.827},{"name":"東京湾岸警察署","province":"東京都","city":"江東区","address":"江東区青海2-7-1","lat":35.61857,"lon":139.7746},{"name":"深川警察署","province":"東京都","city":"江東区","address":"江東区木場3-18-6","lat":35.67362,"lon":139.8062},{"name":"第七消防方面本部","province":"東京都","city":"江東区","address":"江東区森下5-1-4","lat":35.68487,"lon":139.8066},{"name":"夢の島訓練場","province":"東京都","city":"江東区","address":"江東区夢の島3-1-1","lat":35.64985,"lon":139.8344},{"name":"第一方面訓練場","province":"東京都","city":"江東区","address":"江東区潮見1-29","lat":35.65556,"lon":139.8142},{"name":"第六方面訓練場","province":"東京都","city":"江東区","address":"江東区夢の島3-30","lat":35.65202,"lon":139.8315},{"name":"城東消防署","province":"東京都","city":"江東区","address":"江東区亀戸6-42-9","lat":35.69659,"lon":139.8319},{"name":"深川消防署","province":"東京都","city":"江東区","address":"江東区木場3-18-10","lat":35.67304,"lon":139.8061},{"name":"都営大江戸線清澄白河駅内備蓄倉庫","province":"東京都","city":"江東区","address":"江東区白河1-7-14","lat":35.68292,"lon":139.7989},{"name":"江東区","province":"東京都","city":"江東区","address":"江東区大島4-4-3","lat":35.68874,"lon":139.8273},{"name":"（株）メディセオ新東京ビル","province":"東京都","city":"江東区","address":"江東区佐賀2-8-20","lat":35.67896,"lon":139.7919},{"name":"東京都赤十字血液センター","province":"東京都","city":"江東区","address":"江東区辰巳2-1-67","lat":35.64709,"lon":139.8132},{"name":"夢の島マリーナ","province":"東京都","city":"江東区","address":"東京都江東区夢の島3丁目","lat":35.65190061,"lon":139.83152826},{"name":"黒船橋乗船場","province":"東京都","city":"江東区","address":"東京都江東区門前仲町1丁目1","lat":35.67178636,"lon":139.79273166}]}