{"keyword":"水上","data":[{"name":"新砂緊急用船着場","province":"東京都","city":"江東区","address":"東京都江東区新砂3丁目","lat":35.66420213,"lon":139.83834118},{"name":"有明客船ターミナル","province":"東京都","city":"江東区","address":"東京都江東区有明3丁目","lat":35.63159354,"lon":139.78818561},{"name":"青海客船ターミナル","province":"東京都","city":"江東区","address":"東京都江東区青海2丁目","lat":35.61733141,"lon":139.78018715},{"name":"黒船橋乗船場","province":"東京都","city":"江東区","address":"東京都江東区門前仲町1丁目1","lat":35.67178636,"lon":139.79273166},{"name":"木場六丁目乗船場","province":"東京都","city":"江東区","address":"東京都江東区木場6丁目","lat":35.66762602,"lon":139.80679399},{"name":"亀戸中央公園乗船場","province":"東京都","city":"江東区","address":"東京都江東区亀戸8丁目","lat":35.7006893,"lon":139.8333461},{"name":"豊洲三丁目乗船場","province":"東京都","city":"江東区","address":"東京都江東区豊洲3丁目","lat":35.66003768,"lon":139.79466194},{"name":"旧中川川の駅スロープ","province":"東京都","city":"江東区","address":"東京都江東区大島9丁目","lat":35.69317076,"lon":139.84506485},{"name":"夢の島マリーナ","province":"東京都","city":"江東区","address":"東京都江東区夢の島3丁目","lat":35.65190061,"lon":139.83152826},{"name":"黒船橋乗船場","province":"東京都","city":"江東区","address":"東京都江東区門前仲町1丁目1","lat":35.67178636,"lon":139.79273166}]}