{"keyword":"自転車","data":[{"name":"辰巳駅東口自転車駐車場","province":"東京都","city":"江東区","address":"東京都江東区辰巳1丁目12","lat":35.64488977,"lon":139.81087472},{"name":"辰巳駅西口自転車駐車場","province":"東京都","city":"江東区","address":"東京都江東区辰巳1丁目1-40","lat":35.64684784,"lon":139.80888593},{"name":"南砂町駅自転車駐車場","province":"東京都","city":"江東区","address":"東京都江東区南砂3丁目14-21","lat":35.66960695,"lon":139.83337197},{"name":"南砂町駅地下自転車駐車場","province":"東京都","city":"江東区","address":"東京都江東区南砂3丁目14","lat":35.66992634,"lon":139.83271092},{"name":"南砂町駅西口自転車駐車場","province":"東京都","city":"江東区","address":"東京都江東区南砂3丁目9","lat":35.66968457,"lon":139.82803361},{"name":"南砂三丁目公園内自転車駐車場","province":"東京都","city":"江東区","address":"東京都江東区南砂3丁目14-21","lat":35.66960695,"lon":139.83337197},{"name":"南砂三丁目公園内第二自転車駐車場","province":"東京都","city":"江東区","address":"東京都江東区南砂3丁目14-21","lat":35.66960695,"lon":139.83337197},{"name":"南砂三丁目公園内第三自転車駐車場","province":"東京都","city":"江東区","address":"東京都江東区南砂3丁目14-21","lat":35.66960695,"lon":139.83337197},{"name":"新砂あゆみ公園内自転車駐車場","province":"東京都","city":"江東区","address":"東京都江東区新砂3丁目3-6","lat":35.66810986,"lon":139.83205548},{"name":"清澄白河駅地下自転車駐車場","province":"東京都","city":"江東区","address":"東京都江東区清澄3丁目3","lat":35.6795385,"lon":139.79675748},{"name":"森下駅地下自転車駐車場","province":"東京都","city":"江東区","address":"東京都江東区森下2丁目30-7","lat":35.68934022,"lon":139.79841908},{"name":"東京テレポート駅自転車駐車場","province":"東京都","city":"江東区","address":"東京都江東区青海1丁目2-1","lat":35.62717152,"lon":139.77870878},{"name":"大島駅地下自転車駐車場","province":"東京都","city":"江東区","address":"東京都江東区大島5丁目10-10","lat":35.68931298,"lon":139.83410458},{"name":"大島駅自転車駐車場","province":"東京都","city":"江東区","address":"東京都江東区大島6丁目9-16","lat":35.69003513,"lon":139.83539333},{"name":"住吉駅地下自転車駐車場","province":"東京都","city":"江東区","address":"東京都江東区住吉2丁目7","lat":35.68843744,"lon":139.81537981},{"name":"潮見駅自転車駐車場","province":"東京都","city":"江東区","address":"東京都江東区潮見2丁目6","lat":35.65934939,"lon":139.81639322},{"name":"潮見駅南自転車駐車場","province":"東京都","city":"江東区","address":"東京都江東区潮見2丁目7","lat":35.65804402,"lon":139.81772369},{"name":"木場自転車駐車場","province":"東京都","city":"江東区","address":"東京都江東区木場2丁目20-10","lat":35.66919803,"lon":139.80508863},{"name":"木場沢海橋自転車駐車場","province":"東京都","city":"江東区","address":"東京都江東区東陽3丁目1-5","lat":35.66857319,"lon":139.80904924},{"name":"木場平木橋自転車駐車場","province":"東京都","city":"江東区","address":"東京都江東区木場1丁目4","lat":35.66857586,"lon":139.80406932},{"name":"新木場駅北自転車駐車場","province":"東京都","city":"江東区","address":"東京都江東区新木場1丁目5","lat":35.64495128,"lon":139.82662337},{"name":"新木場駅南自転車駐車場","province":"東京都","city":"江東区","address":"東京都江東区新木場1丁目5","lat":35.64495128,"lon":139.82662337},{"name":"門前仲町黒船橋自転車駐車場","province":"東京都","city":"江東区","address":"東京都江東区門前仲町1丁目1","lat":35.67178636,"lon":139.79273166},{"name":"門前仲町駅第二自転車駐車場","province":"東京都","city":"江東区","address":"東京都江東区富岡1丁目18","lat":35.67272811,"lon":139.79969518},{"name":"越中島駅自転車駐車場","province":"東京都","city":"江東区","address":"東京都江東区越中島2丁目2","lat":35.66837841,"lon":139.79348985},{"name":"豊洲駅地下自転車駐車場","province":"東京都","city":"江東区","address":"東京都江東区豊洲2丁目2","lat":35.65439386,"lon":139.79479536},{"name":"豊洲三丁目自転車駐車場","province":"東京都","city":"江東区","address":"東京都江東区豊洲3丁目3","lat":35.65572155,"lon":139.7966174},{"name":"東陽町駅第二自転車駐車場","province":"東京都","city":"江東区","address":"東京都江東区東陽2丁目5","lat":35.6689316,"lon":139.81495704},{"name":"東陽町駅第三自転車駐車場","province":"東京都","city":"江東区","address":"東京都江東区東陽4丁目11","lat":35.67312836,"lon":139.81775968},{"name":"東陽町駅第四自転車駐車場","province":"東京都","city":"江東区","address":"東京都江東区東陽4丁目2","lat":35.6700815,"lon":139.81681522},{"name":"亀戸駅北口第一自転車駐車場","province":"東京都","city":"江東区","address":"東京都江東区亀戸2丁目21-1","lat":35.6978001,"lon":139.8242755},{"name":"亀戸駅北口第二自転車駐車場","province":"東京都","city":"江東区","address":"東京都江東区亀戸2丁目20","lat":35.69763909,"lon":139.82519755},{"name":"亀戸駅北口第三自転車駐車場","province":"東京都","city":"江東区","address":"東京都江東区亀戸1丁目41-2","lat":35.69701685,"lon":139.82374503},{"name":"亀戸駅東口第二自転車駐車場","province":"東京都","city":"江東区","address":"東京都江東区亀戸5丁目1","lat":35.69768643,"lon":139.82680004},{"name":"西大島駅自転車駐車場","province":"東京都","city":"江東区","address":"東京都江東区大島4丁目2-8","lat":35.68827663,"lon":139.82688353},{"name":"西大島駅第二自転車駐車場","province":"東京都","city":"江東区","address":"東京都江東区大島4丁目5-1","lat":35.6890932,"lon":139.82686406},{"name":"東大島駅前自転車駐車場","province":"東京都","city":"江東区","address":"東京都江東区大島9丁目3","lat":35.69019616,"lon":139.84510936},{"name":"東大島駅自転車駐車場","province":"東京都","city":"江東区","address":"東京都江東区大島9丁目3-14","lat":35.69035447,"lon":139.8459843},{"name":"東大島駅東自転車駐車場","province":"東京都","city":"江東区","address":"東京都江東区大島9丁目9","lat":35.68959623,"lon":139.84689815},{"name":"亀戸水神駅自転車駐車場","province":"東京都","city":"江東区","address":"東京都江東区亀戸8丁目5","lat":35.69965336,"lon":139.83349051},{"name":"南砂二丁目自転車駐車場","province":"東京都","city":"江東区","address":"東京都江東区南砂2丁目4","lat":35.67116754,"lon":139.82022605},{"name":"有明テニスの森駅自転車駐車場","province":"東京都","city":"江東区","address":"東京都江東区有明1丁目8","lat":35.63922318,"lon":139.78776869},{"name":"国際展示場駅自転車駐車場","province":"東京都","city":"江東区","address":"東京都江東区有明3丁目7","lat":35.63304353,"lon":139.79154645},{"name":"有明駅自転車駐車場","province":"東京都","city":"江東区","address":"東京都江東区有明3丁目8","lat":35.63483243,"lon":139.7963016}]}