{"keyword":"認可","data":[{"name":"江東区毛利保育園","province":"東京都","city":"江東区","address":"江東区毛利二丁目1番14号","lat":35.68953,"lon":139.81694},{"name":"グローバルキッズ住吉園","province":"東京都","city":"江東区","address":"江東区住吉1-7-8","lat":35.68805,"lon":139.8111},{"name":"めばえ保育園","province":"東京都","city":"江東区","address":"江東区住吉二丁目25番9号","lat":35.68798,"lon":139.81613},{"name":"キッズスマイル江東猿江","province":"東京都","city":"江東区","address":"江東区猿江2-6-3","lat":35.68687,"lon":139.81451},{"name":"江東区猿江保育園","province":"東京都","city":"江東区","address":"江東区猿江一丁目8番10号","lat":35.68534,"lon":139.81308},{"name":"ゆめの森保育園","province":"東京都","city":"江東区","address":"江東区森下1-2-2","lat":35.68656,"lon":139.79675},{"name":"江東区森下保育園","province":"東京都","city":"江東区","address":"江東区森下3-14-6","lat":35.68589,"lon":139.80293},{"name":"あゆみ保育園","province":"東京都","city":"江東区","address":"江東区森下3-18-10","lat":35.68709,"lon":139.80289},{"name":"太陽の子　森下三丁目保育園","province":"東京都","city":"江東区","address":"江東区森下3-5-26","lat":35.68792,"lon":139.80045},{"name":"グローバルキッズ森下五丁目園","province":"東京都","city":"江東区","address":"江東区森下5-11-2","lat":35.68502,"lon":139.80899},{"name":"神愛保育園","province":"東京都","city":"江東区","address":"江東区森下三丁目10番7号","lat":35.68619,"lon":139.80188},{"name":"グローバルキッズ深川森下園（本園）","province":"東京都","city":"江東区","address":"江東区森下四丁目10番8号","lat":35.68604,"lon":139.80606},{"name":"ワーカーズコープ　新大橋のびっこ保育園","province":"東京都","city":"江東区","address":"江東区新大橋2-17-9","lat":35.68995,"lon":139.7946},{"name":"保育園ミルキーウェイ清澄白河園","province":"東京都","city":"江東区","address":"江東区扇橋1-15-3","lat":35.68299,"lon":139.81104},{"name":"マミー保育園扇橋","province":"東京都","city":"江東区","address":"江東区扇橋1-21-5","lat":35.68387,"lon":139.81252},{"name":"アソシエ住吉扇橋","province":"東京都","city":"江東区","address":"江東区扇橋3-5-2","lat":35.68335,"lon":139.8176},{"name":"江東区千田保育園","province":"東京都","city":"江東区","address":"江東区千田22番8号","lat":35.68032,"lon":139.81636},{"name":"チェリッシュナーサリースクール木場","province":"東京都","city":"江東区","address":"江東区千石1-3-26","lat":35.67733,"lon":139.81129},{"name":"キッズスマイル江東千石","province":"東京都","city":"江東区","address":"江東区千石2-10-62F","lat":35.67837,"lon":139.81715},{"name":"マミー保育園東陽町","province":"東京都","city":"江東区","address":"江東区東陽2-2-14","lat":35.66646,"lon":139.81602},{"name":"さくらさくみらい新東陽","province":"東京都","city":"江東区","address":"江東区東陽2-4-39","lat":35.6687,"lon":139.81808},{"name":"さくらさくみらい東陽二丁目","province":"東京都","city":"江東区","address":"江東区東陽2-4-8","lat":35.6687,"lon":139.81808},{"name":"江東区東陽保育園","province":"東京都","city":"江東区","address":"江東区東陽3-22-1-101","lat":35.66919,"lon":139.81264},{"name":"スターチス保育園","province":"東京都","city":"江東区","address":"江東区東陽3-27-32","lat":35.67017,"lon":139.81564},{"name":"さくらさくみらい東陽町","province":"東京都","city":"江東区","address":"江東区東陽5-28-8","lat":35.6718,"lon":139.81441},{"name":"テンダーラビング保育園東陽","province":"東京都","city":"江東区","address":"江東区東陽三丁目23番21号","lat":35.66981,"lon":139.81406},{"name":"ほっぺるランド東陽町","province":"東京都","city":"江東区","address":"江東区東陽二丁目4番46号2階","lat":35.6687,"lon":139.81808},{"name":"江東区白河保育園","province":"東京都","city":"江東区","address":"江東区白河1-7-1","lat":35.6832,"lon":139.79881},{"name":"グローバルキッズ白河一丁目園","province":"東京都","city":"江東区","address":"江東区白河1-7-51階","lat":35.6832,"lon":139.79881},{"name":"小鳩保育園　清澄白河","province":"東京都","city":"江東区","address":"江東区白河3-10-8","lat":35.6833,"lon":139.80612},{"name":"グローバルキッズ清澄白河園","province":"東京都","city":"江東区","address":"江東区白河3-1-11","lat":35.68175,"lon":139.804},{"name":"まなびの森保育園白河","province":"東京都","city":"江東区","address":"江東区白河4-9-2","lat":35.68331,"lon":139.80771},{"name":"江東区白河かもめ保育園","province":"東京都","city":"江東区","address":"江東区白河一丁目5番1-101号","lat":35.6826,"lon":139.8004},{"name":"子供の村保育園","province":"東京都","city":"江東区","address":"江東区白河三丁目3番6号","lat":35.68179,"lon":139.8058},{"name":"さんいく保育園清澄白河","province":"東京都","city":"江東区","address":"江東区白河四丁目9番25号","lat":35.68331,"lon":139.80771},{"name":"さくらさくみらい三好","province":"東京都","city":"江東区","address":"江東区三好2-6-11","lat":35.67952,"lon":139.80345},{"name":"アンジェリカ白河","province":"東京都","city":"江東区","address":"江東区三好3-2-11","lat":35.67967,"lon":139.80553},{"name":"グローバルキッズ平野園","province":"東京都","city":"江東区","address":"江東区平野1-3-10","lat":35.67754,"lon":139.80009},{"name":"おはよう保育園　清澄白河","province":"東京都","city":"江東区","address":"江東区清澄1-7-12","lat":35.6828,"lon":139.79417},{"name":"うぃず清澄白河駅前保育園","province":"東京都","city":"江東区","address":"江東区清澄3-10-5","lat":35.68299,"lon":139.79715},{"name":"江東区深川一丁目保育園","province":"東京都","city":"江東区","address":"江東区深川1-6-15-101","lat":35.67743,"lon":139.79581},{"name":"もんなかほうゆう保育園","province":"東京都","city":"江東区","address":"江東区冬木11-17イシマビル1.2階","lat":35.67359,"lon":139.80013},{"name":"ナーサリールームベリーベアー深川冬木","province":"東京都","city":"江東区","address":"江東区冬木1-5","lat":35.67327,"lon":139.79956},{"name":"まこと保育園","province":"東京都","city":"江東区","address":"江東区冬木16番7号","lat":35.6748,"lon":139.80154},{"name":"スマイルクラブナーサリー木場","province":"東京都","city":"江東区","address":"江東区木場1-4-5","lat":35.66864,"lon":139.80399},{"name":"さくらさくみらい木場","province":"東京都","city":"江東区","address":"江東区木場1-4-7","lat":35.66864,"lon":139.80399},{"name":"タムスわんぱく保育園木場","province":"東京都","city":"江東区","address":"江東区木場2-13-17","lat":35.67126,"lon":139.80437},{"name":"ＭＩＷＡ木場公園保育園","province":"東京都","city":"江東区","address":"江東区木場4-1-65","lat":35.67369,"lon":139.80826},{"name":"グレース保育園","province":"東京都","city":"江東区","address":"江東区木場5-8-3","lat":35.67043,"lon":139.80782},{"name":"アゼリヤ保育園","province":"東京都","city":"江東区","address":"江東区木場一丁目3番5号","lat":35.66861,"lon":139.80225},{"name":"聖華しおかぜ保育園","province":"東京都","city":"江東区","address":"江東区塩浜1-4-46","lat":35.66227,"lon":139.80127},{"name":"キッズスマイル江東塩浜","province":"東京都","city":"江東区","address":"江東区塩浜2-14-5","lat":35.66278,"lon":139.8091},{"name":"ＬＩＦＥ　ＳＣＨＯＯＬ　塩浜　こどものいえ","province":"東京都","city":"江東区","address":"江東区塩浜2-6-2","lat":35.66083,"lon":139.80806},{"name":"江東区塩崎保育園","province":"東京都","city":"江東区","address":"江東区塩浜2-6-3","lat":35.66083,"lon":139.80806},{"name":"江東区塩浜保育園","province":"東京都","city":"江東区","address":"江東区塩浜一丁目3番10号","lat":35.66341,"lon":139.80061},{"name":"太陽の子越中島","province":"東京都","city":"江東区","address":"江東区越中島2-1-30","lat":35.6681,"lon":139.79028},{"name":"ポピンズナーサリースクール越中島","province":"東京都","city":"江東区","address":"江東区越中島2-1-32","lat":35.6681,"lon":139.79028},{"name":"江東区古石場保育園","province":"東京都","city":"江東区","address":"江東区古石場2-14-1-102","lat":35.66687,"lon":139.8},{"name":"富岡クローバー保育園","province":"東京都","city":"江東区","address":"江東区富岡1-4-101F","lat":35.67057,"lon":139.79762},{"name":"さくらさくみらい富岡","province":"東京都","city":"江東区","address":"江東区富岡2-11-14","lat":35.67037,"lon":139.80144},{"name":"コスモス江東富岡保育園","province":"東京都","city":"江東区","address":"江東区富岡2-9-11TokyoMonnakaVillage3F","lat":35.67203,"lon":139.80197},{"name":"アスクもんなか保育園","province":"東京都","city":"江東区","address":"江東区富岡一丁目14番17号","lat":35.67289,"lon":139.79729},{"name":"木下の保育園　富岡","province":"東京都","city":"江東区","address":"江東区富岡二丁目11番6号","lat":35.67037,"lon":139.80144},{"name":"豊洲枝川さくらんぼ","province":"東京都","city":"江東区","address":"江東区枝川1-2-9","lat":35.65942,"lon":139.80284},{"name":"愛隣シャローム保育園","province":"東京都","city":"江東区","address":"江東区枝川三丁目6番15号","lat":35.65856,"lon":139.81053},{"name":"深川愛隣保育園","province":"東京都","city":"江東区","address":"江東区枝川二丁目25番10号","lat":35.65734,"lon":139.80835},{"name":"太陽の子　潮見保育園","province":"東京都","city":"江東区","address":"江東区潮見1-28-8ベイフレール潮見2F・3F","lat":35.65707,"lon":139.81523},{"name":"江東区潮見保育園","province":"東京都","city":"江東区","address":"江東区潮見一丁目29番15-101号","lat":35.65589,"lon":139.81343},{"name":"江東区辰巳第三保育園","province":"東京都","city":"江東区","address":"江東区辰巳1-10-81-101","lat":35.64898,"lon":139.81},{"name":"江東区辰巳第二保育園","province":"東京都","city":"江東区","address":"江東区辰巳1-2-41・2階","lat":35.65011,"lon":139.80737},{"name":"ゆらりん豊洲フロント保育園","province":"東京都","city":"江東区","address":"江東区豊洲3-2-20豊洲フロント106","lat":35.65761,"lon":139.79486},{"name":"ＴＫチルドレンズファーム豊洲校","province":"東京都","city":"江東区","address":"江東区豊洲3-4-8","lat":35.65705,"lon":139.79845},{"name":"ＴＫチルドレンズファーム豊洲第二校","province":"東京都","city":"江東区","address":"江東区豊洲3-4-8スーパービバホーム2階","lat":35.65705,"lon":139.79845},{"name":"アスク豊洲保育園","province":"東京都","city":"江東区","address":"江東区豊洲3-6-81階","lat":35.65915,"lon":139.79716},{"name":"さくらさくみらい豊洲","province":"東京都","city":"江東区","address":"江東区豊洲4-1-8","lat":35.65458,"lon":139.79686},{"name":"グローバルキッズ豊洲","province":"東京都","city":"江東区","address":"江東区豊洲5-1-26","lat":35.65104,"lon":139.79492},{"name":"グローバルキッズ豊洲五丁目保育園","province":"東京都","city":"江東区","address":"江東区豊洲5-6-29","lat":35.65074,"lon":139.79779},{"name":"アイグラン保育園豊洲","province":"東京都","city":"江東区","address":"江東区豊洲5-6-521階","lat":35.65074,"lon":139.79779},{"name":"小学館アカデミーしんとよす保育園","province":"東京都","city":"江東区","address":"江東区豊洲6-2-102F","lat":35.64788,"lon":139.79082},{"name":"キッズポケット豊洲保育園","province":"東京都","city":"江東区","address":"江東区豊洲五丁目5番25号","lat":35.65334,"lon":139.79681},{"name":"蓮美幼児学園とよすナーサリー","province":"東京都","city":"江東区","address":"江東区豊洲三丁目5番21-102号","lat":35.65871,"lon":139.79582},{"name":"蓮美幼児学園第２とよすナーサリー","province":"東京都","city":"江東区","address":"江東区豊洲三丁目5番3号","lat":35.65871,"lon":139.79582},{"name":"ゆらりん豊四保育園","province":"東京都","city":"江東区","address":"江東区豊洲四丁目10番1-106号","lat":35.65342,"lon":139.80185},{"name":"ひまわりキッズガーデン豊洲","province":"東京都","city":"江東区","address":"江東区豊洲四丁目11番20-138号","lat":35.65243,"lon":139.79977},{"name":"ミアヘルサ保育園ひびき豊洲","province":"東京都","city":"江東区","address":"江東区豊洲四丁目1番24号","lat":35.65458,"lon":139.79686},{"name":"江東区豊洲保育園","province":"東京都","city":"江東区","address":"江東区豊洲四丁目5番8号","lat":35.65492,"lon":139.79886},{"name":"ＭＩＷＡシンフォニア保育園","province":"東京都","city":"江東区","address":"江東区豊洲二丁目5番3-101号","lat":35.65802,"lon":139.79153},{"name":"グローバルキッズしののめ園","province":"東京都","city":"江東区","address":"江東区東雲1-10-14","lat":35.65071,"lon":139.80353},{"name":"江東区東雲保育園","province":"東京都","city":"江東区","address":"江東区東雲1-8-5-101","lat":35.64525,"lon":139.79991},{"name":"みんなのみらいをつくる保育園東雲","province":"東京都","city":"江東区","address":"江東区東雲2-1-22","lat":35.64396,"lon":139.8009},{"name":"江東区東雲第二保育園","province":"東京都","city":"江東区","address":"江東区東雲2-4-4-103","lat":35.64365,"lon":139.79816},{"name":"ＹＭＣＡオリーブ保育園","province":"東京都","city":"江東区","address":"江東区東雲一丁目8番18号","lat":35.64525,"lon":139.79991},{"name":"ＹＭＣＡキャナルコート保育園","province":"東京都","city":"江東区","address":"江東区東雲一丁目9番14-104号","lat":35.64655,"lon":139.80237},{"name":"ひまわりキッズガーデン東雲","province":"東京都","city":"江東区","address":"江東区東雲一丁目9番18-203号","lat":35.64655,"lon":139.80237},{"name":"東雲キャナルコートナーサリースクール","province":"東京都","city":"江東区","address":"江東区東雲一丁目9番51号","lat":35.6491631,"lon":139.8045354},{"name":"ナーサリールームベリーベアー東雲","province":"東京都","city":"江東区","address":"江東区東雲二丁目3番17号3階","lat":35.64271,"lon":139.80042},{"name":"みらいく有明園","province":"東京都","city":"江東区","address":"江東区有明1-2-12","lat":35.64042,"lon":139.79311},{"name":"キッズスマイル江東有明","province":"東京都","city":"江東区","address":"江東区有明1-3-1","lat":35.63916,"lon":139.79091},{"name":"さんいく保育園有明","province":"東京都","city":"江東区","address":"江東区有明1-5-22階","lat":35.63717,"lon":139.78177},{"name":"江東湾岸サテライトスマートナーサリースクール","province":"東京都","city":"江東区","address":"江東区有明1-5-22","lat":35.63717,"lon":139.78177},{"name":"おはよう保育園有明","province":"東京都","city":"江東区","address":"江東区有明1-6-30","lat":35.63557,"lon":139.7812},{"name":"ニチイキッズありあけ保育園","province":"東京都","city":"江東区","address":"江東区有明3-6-113階","lat":35.63221,"lon":139.78952},{"name":"ひまわりキッズガーデン有明","province":"東京都","city":"江東区","address":"江東区有明一丁目4番11号","lat":35.63655,"lon":139.78593},{"name":"ひまわりキッズガーデン有明の森","province":"東京都","city":"江東区","address":"江東区有明一丁目4番20号","lat":35.63655,"lon":139.78593},{"name":"江東湾岸サテライトナーサリースクール（本園）","province":"東京都","city":"江東区","address":"江東区有明三丁目7番26号","lat":35.63363,"lon":139.79247},{"name":"江東区亀戸第三保育園","province":"東京都","city":"江東区","address":"江東区亀戸1-24-6","lat":35.69462,"lon":139.8242},{"name":"おはよう保育園　亀戸","province":"東京都","city":"江東区","address":"江東区亀戸1-43-81階","lat":35.69684,"lon":139.82135},{"name":"クオリスキッズ亀戸保育園","province":"東京都","city":"江東区","address":"江東区亀戸2-10-10","lat":35.70058,"lon":139.82306},{"name":"にじいろ保育園亀戸","province":"東京都","city":"江東区","address":"江東区亀戸3ー43ー23","lat":35.70338,"lon":139.82234},{"name":"グローバルキッズ亀戸園","province":"東京都","city":"江東区","address":"江東区亀戸5-1-15","lat":35.69763,"lon":139.82707},{"name":"ポピンズナーサリースクール亀戸","province":"東京都","city":"江東区","address":"江東区亀戸6-31-1","lat":35.69574,"lon":139.82907},{"name":"こころこうとう保育園","province":"東京都","city":"江東区","address":"江東区亀戸6-42ー13","lat":35.69654,"lon":139.8317},{"name":"江東区亀戸保育園","province":"東京都","city":"江東区","address":"江東区亀戸6-54-2-101","lat":35.69681,"lon":139.83249},{"name":"まなびの森保育園亀戸","province":"東京都","city":"江東区","address":"江東区亀戸7-10-11階","lat":35.69748,"lon":139.83444},{"name":"保育園ミルキーウェイ亀戸園","province":"東京都","city":"江東区","address":"江東区亀戸7-38-121・2階","lat":35.69749,"lon":139.83931},{"name":"江東亀戸サテライトグローバルキッズ竪川園","province":"東京都","city":"江東区","address":"江東区亀戸7-39-28","lat":35.6968,"lon":139.83957},{"name":"江東区亀戸第二保育園","province":"東京都","city":"江東区","address":"江東区亀戸7-41-16江東区青少年交流プラザ3・4階","lat":35.69688,"lon":139.83687},{"name":"亀戸こころ保育園","province":"東京都","city":"江東区","address":"江東区亀戸九丁目34番1-140号","lat":35.69972,"lon":139.84032},{"name":"亀戸浅間保育園","province":"東京都","city":"江東区","address":"江東区亀戸九丁目36番10号","lat":35.69864,"lon":139.83902},{"name":"アンジェリカ亀戸保育園","province":"東京都","city":"江東区","address":"江東区亀戸四丁目13番18号","lat":35.70111,"lon":139.82845},{"name":"江東区亀戸第四保育園","province":"東京都","city":"江東区","address":"江東区亀戸四丁目21番13号","lat":35.70258,"lon":139.82635},{"name":"陽だまり保育園","province":"東京都","city":"江東区","address":"江東区亀戸二丁目6番2-102号","lat":35.7003,"lon":139.82063},{"name":"コビープリスクールかめいど","province":"東京都","city":"江東区","address":"江東区亀戸六丁目53番11号","lat":35.696,"lon":139.83257},{"name":"グローバルキッズ西大島園","province":"東京都","city":"江東区","address":"江東区大島1-10-5","lat":35.68869,"lon":139.82352},{"name":"プチ・ナーサリー西大島","province":"東京都","city":"江東区","address":"江東区大島3-14-51階","lat":35.6897,"lon":139.82835},{"name":"大島なかよし保育園","province":"東京都","city":"江東区","address":"江東区大島3-15-10","lat":35.69055,"lon":139.82906},{"name":"江東区大島第二保育園","province":"東京都","city":"江東区","address":"江東区大島4-1-6-130","lat":35.68723,"lon":139.82912},{"name":"江東区大島第五保育園","province":"東京都","city":"江東区","address":"江東区大島4-21-3-101","lat":35.68623,"lon":139.83199},{"name":"太陽の子　大島五丁目保育園","province":"東京都","city":"江東区","address":"江東区大島5-27-13","lat":35.68647,"lon":139.83557},{"name":"HOPPAおおじまタウン","province":"東京都","city":"江東区","address":"江東区大島5-30-12","lat":35.68789,"lon":139.83496},{"name":"江東区大島保育園","province":"東京都","city":"江東区","address":"江東区大島5-40-41階","lat":35.68626,"lon":139.83723},{"name":"江東区大島第三保育園","province":"東京都","city":"江東区","address":"江東区大島6-1-6-130","lat":35.69347,"lon":139.83229},{"name":"ココロラボインターナショナル大島","province":"東京都","city":"江東区","address":"江東区大島6-22-8","lat":35.69304,"lon":139.83707},{"name":"キッズスマイル江東大島","province":"東京都","city":"江東区","address":"江東区大島6-26-11","lat":35.69116,"lon":139.83722},{"name":"かがやき保育園","province":"東京都","city":"江東区","address":"江東区大島7-37-13","lat":35.69199,"lon":139.84196},{"name":"江東区大島第四保育園","province":"東京都","city":"江東区","address":"江東区大島8-12-20-101","lat":35.68707,"lon":139.83975},{"name":"アスク東大島保育園","province":"東京都","city":"江東区","address":"江東区大島8-31-2","lat":35.68918,"lon":139.84216},{"name":"江東区わかば保育園","province":"東京都","city":"江東区","address":"江東区大島9-7-8-101","lat":35.69406,"lon":139.8448},{"name":"花と鳥保育園","province":"東京都","city":"江東区","address":"江東区大島三丁目8番7号","lat":35.69249,"lon":139.82776},{"name":"マミー保育園西大島","province":"東京都","city":"江東区","address":"江東区大島二丁目36番15号","lat":35.69183,"lon":139.82532},{"name":"江東区北砂保育園","province":"東京都","city":"江東区","address":"江東区北砂1-1-4-101","lat":35.68345,"lon":139.82162},{"name":"江東区小名木川保育園","province":"東京都","city":"江東区","address":"江東区北砂1-3-30","lat":35.68401,"lon":139.82225},{"name":"スクルドエンジェル北砂園","province":"東京都","city":"江東区","address":"江東区北砂1-9-6","lat":35.68072,"lon":139.82431},{"name":"つくし保育園","province":"東京都","city":"江東区","address":"江東区北砂3-4-151F","lat":35.68459,"lon":139.82771},{"name":"キッズスマイル江東北砂","province":"東京都","city":"江東区","address":"江東区北砂5-1-23","lat":35.68037,"lon":139.83208},{"name":"Ｍｉｌｋｙ　Ｗａｙ　Ｉｎｔｅｒｎａｔｉｏｎａｌ　Ｎｕｒｓｅｒｙ　Ｓｃｈｏｏｌ　北砂校","province":"東京都","city":"江東区","address":"江東区北砂5-1-28","lat":35.68037,"lon":139.83208},{"name":"にじいろ保育園北砂","province":"東京都","city":"江東区","address":"江東区北砂5-17-5","lat":35.68293,"lon":139.83501},{"name":"江東区亀高第二保育園","province":"東京都","city":"江東区","address":"江東区北砂5-20-10-101","lat":35.68379,"lon":139.83211},{"name":"江東区小名木川第二保育園","province":"東京都","city":"江東区","address":"江東区北砂5-20-3-101","lat":35.68379,"lon":139.83211},{"name":"江東区亀高保育園","province":"東京都","city":"江東区","address":"江東区北砂5-20-9-101","lat":35.68379,"lon":139.83211},{"name":"みらいく北砂園","province":"東京都","city":"江東区","address":"江東区北砂6-27-19","lat":35.68024,"lon":139.8376},{"name":"砂町友愛園","province":"東京都","city":"江東区","address":"江東区北砂五丁目14番10号","lat":35.68046,"lon":139.83456},{"name":"砂町保育園","province":"東京都","city":"江東区","address":"江東区北砂四丁目18番27号","lat":35.67891,"lon":139.83093},{"name":"江東区東砂第三保育園","province":"東京都","city":"江東区","address":"江東区東砂1-5-3-101","lat":35.68212,"lon":139.84036},{"name":"江東区東砂保育園","province":"東京都","city":"江東区","address":"江東区東砂2-13-2-101","lat":35.6857,"lon":139.84155},{"name":"江東区東砂第二保育園","province":"東京都","city":"江東区","address":"江東区東砂2-6-4-101","lat":35.68442,"lon":139.84299},{"name":"マミー保育園東砂","province":"東京都","city":"江東区","address":"江東区東砂3-28-1","lat":35.67935,"lon":139.84431},{"name":"みらいく東砂園","province":"東京都","city":"江東区","address":"江東区東砂3-30-11","lat":35.68102,"lon":139.84464},{"name":"メリーポピンズ南砂ルーム","province":"東京都","city":"江東区","address":"江東区東砂7-10-3","lat":35.67194,"lon":139.83865},{"name":"江東区東砂第四保育園","province":"東京都","city":"江東区","address":"江東区東砂7-17-35-101","lat":35.67484,"lon":139.8385},{"name":"にじいろ保育園東砂","province":"東京都","city":"江東区","address":"江東区東砂7-18-18","lat":35.67504,"lon":139.83716},{"name":"キッズスマイル江東東砂","province":"東京都","city":"江東区","address":"江東区東砂8-19-4","lat":35.66774,"lon":139.84146},{"name":"ともしび保育園","province":"東京都","city":"江東区","address":"江東区東砂六丁目2番16号","lat":35.66997,"lon":139.84166},{"name":"江東区新砂保育園","province":"東京都","city":"江東区","address":"江東区新砂三丁目3番11号","lat":35.66774,"lon":139.83154},{"name":"南砂あら川保育園","province":"東京都","city":"江東区","address":"江東区南砂2-2-11","lat":35.66957,"lon":139.82352},{"name":"ドリームキッズランド保育園","province":"東京都","city":"江東区","address":"江東区南砂2-28-27","lat":35.67537,"lon":139.82242},{"name":"江東区南砂第三保育園","province":"東京都","city":"江東区","address":"江東区南砂2-3-3-102","lat":35.6719,"lon":139.82301},{"name":"江東区南砂第四保育園","province":"東京都","city":"江東区","address":"江東区南砂2-3-4-101","lat":35.6719,"lon":139.82301},{"name":"太陽の子　南砂２丁目保育園","province":"東京都","city":"江東区","address":"江東区南砂2-36-10光陽ビル1F","lat":35.67278,"lon":139.82584},{"name":"江東区南砂第五保育園","province":"東京都","city":"江東区","address":"江東区南砂2-3-6-103","lat":35.6719,"lon":139.82301},{"name":"グローバルキッズ南砂園","province":"東京都","city":"江東区","address":"江東区南砂3-14-6","lat":35.66912,"lon":139.83186},{"name":"ルーチェ保育園　南砂","province":"東京都","city":"江東区","address":"江東区南砂4-18-41・2階","lat":35.67251,"lon":139.83235},{"name":"江東区南砂第一保育園","province":"東京都","city":"江東区","address":"江東区南砂4-4-1-102","lat":35.67495,"lon":139.82762},{"name":"おはよう保育園　南砂町","province":"東京都","city":"江東区","address":"江東区南砂6-10-11","lat":35.67062,"lon":139.83562},{"name":"ひまわり保育園","province":"東京都","city":"江東区","address":"江東区南砂7-10-91F","lat":35.6688,"lon":139.83521},{"name":"江東区城東保育園","province":"東京都","city":"江東区","address":"江東区南砂7-9-11","lat":35.66981,"lon":139.83522},{"name":"南砂町保育園","province":"東京都","city":"江東区","address":"江東区南砂三丁目10番8号","lat":35.66978,"lon":139.82983},{"name":"八幡保育園","province":"東京都","city":"江東区","address":"江東区南砂七丁目14番17号","lat":35.6692,"lon":139.83766},{"name":"江東区南砂第二保育園","province":"東京都","city":"江東区","address":"江東区南砂二丁目3番1-101号","lat":35.6719,"lon":139.82301},{"name":"江東区南砂さくら保育園","province":"東京都","city":"江東区","address":"江東区南砂六丁目8番3号","lat":35.67105,"lon":139.8349},{"name":"グローバルキッズ深川森下園","province":"東京都","city":"江東区","address":"江東区森下4-10-82・3階","lat":35.68604,"lon":139.80606},{"name":"さくらさくみらい 新東陽","province":"東京都","city":"江東区","address":"江東区東陽2-4-391・2階","lat":35.6687,"lon":139.81808},{"name":"さくらさくみらい 東陽二丁目","province":"東京都","city":"江東区","address":"江東区東陽2-4-81・2階","lat":35.6687,"lon":139.81808},{"name":"さくらさくみらい 東陽町","province":"東京都","city":"江東区","address":"江東区東陽5-28-81・2階","lat":35.6718,"lon":139.81441},{"name":"さくらさくみらい 三好","province":"東京都","city":"江東区","address":"江東区三好2-6-11","lat":35.67952,"lon":139.80345},{"name":"さくらさくみらい 木場","province":"東京都","city":"江東区","address":"江東区木場1-4-7","lat":35.66864,"lon":139.80399},{"name":"太陽の子　越中島","province":"東京都","city":"江東区","address":"江東区越中島2-1-304階","lat":35.6681,"lon":139.79028},{"name":"さくらさくみらい 富岡","province":"東京都","city":"江東区","address":"江東区富岡2-11-14","lat":35.67037,"lon":139.80144},{"name":"さくらさくみらい 豊洲","province":"東京都","city":"江東区","address":"江東区豊洲4-1-81~4階","lat":35.65458,"lon":139.79686},{"name":"グローバルキッズ豊洲園","province":"東京都","city":"江東区","address":"江東区豊洲5-1-26","lat":35.65104,"lon":139.79492},{"name":"東雲キャナルコートナーサリースクール","province":"東京都","city":"江東区","address":"江東区東雲1-9-51","lat":35.64655,"lon":139.80237},{"name":"江東湾岸サテライトナーサリースクール","province":"東京都","city":"江東区","address":"江東区有明3-7-263階","lat":35.63363,"lon":139.79247},{"name":"アソシエ住吉扇橋","province":"東京都","city":"江東区","address":"江東区扇橋3-5-2","lat":35.68236,"lon":139.81961},{"name":"もんなかほうゆう","province":"東京都","city":"江東区","address":"江東区冬木11-17","lat":35.67359,"lon":139.80013},{"name":"江東区辰巳第二保育園","province":"東京都","city":"江東区","address":"江東区辰巳1-10-65-101","lat":35.64898,"lon":139.81},{"name":"あい保育園豊洲","province":"東京都","city":"江東区","address":"江東区豊洲5-6-521階","lat":35.65074,"lon":139.79779},{"name":"小学館アカデミーしんとよす","province":"東京都","city":"江東区","address":"江東区豊洲6-2-10","lat":35.64788,"lon":139.79082},{"name":"京進のほいくえん　ビーフェアおおじまタウン","province":"東京都","city":"江東区","address":"江東区大島5-30-12","lat":35.68789,"lon":139.83496},{"name":"江東区豊洲保育園","province":"東京都","city":"江東区","address":"江東区豊洲4-8-12","lat":35.65593,"lon":139.79901},{"name":"シンフォニア保育園（本園）","province":"東京都","city":"江東区","address":"江東区豊洲2-5-3-101","lat":35.65802,"lon":139.79153},{"name":"日生豊洲駅前保育園ひびき","province":"東京都","city":"江東区","address":"江東区豊洲4-1-24","lat":35.65458,"lon":139.79686},{"name":"若葉インターナショナルナーサリー大島園","province":"東京都","city":"江東区","address":"江東区大島6-22-8","lat":35.69304,"lon":139.83707},{"name":"さくらさくみらい　富岡","province":"東京都","city":"江東区","address":"江東区富岡2-11-14","lat":35.67037,"lon":139.80144},{"name":"MIWAシンフォニア保育園","province":"東京都","city":"江東区","address":"江東区豊洲2-5-3-101号","lat":35.65802,"lon":139.79153},{"name":"ＭｉｌｋｙＷａｙ　Ｉｎｔｅｒｎａｔｉｏｎａｌ　Ｎｕｒｓｅｒｙ　Ｓｃｈｏｏｌ　北砂校","province":"東京都","city":"江東区","address":"江東区北砂5-1-28","lat":35.68037,"lon":139.83208},{"name":"江東区千田保育園","province":"東京都","city":"江東区","address":"江東区千田22番8号","lat":35.68033,"lon":139.81636},{"name":"グローバルキッズ平野園","province":"東京都","city":"江東区","address":"江東区平野1-3-10","lat":35.67754,"lon":139.8001},{"name":"ほっぺるランド東陽町","province":"東京都","city":"江東区","address":"江東区東陽2-4-452階","lat":35.66871,"lon":139.81809},{"name":"マミー保育園東陽町","province":"東京都","city":"江東区","address":"江東区東陽2-2-14","lat":35.66646,"lon":139.81603},{"name":"さくらさくみらい東陽二丁目","province":"東京都","city":"江東区","address":"江東区東陽2-4-8","lat":35.66871,"lon":139.81809},{"name":"江東区深川一丁目保育園","province":"東京都","city":"江東区","address":"江東区深川1-6-15-101","lat":35.67739,"lon":139.79648},{"name":"まこと保育園","province":"東京都","city":"江東区","address":"江東区冬木16-7","lat":35.67481,"lon":139.80154},{"name":"ＭＩＷＡ木場公園保育園","province":"東京都","city":"江東区","address":"江東区木場4-1-65","lat":35.6737,"lon":139.80826},{"name":"キッズスマイル江東塩浜","province":"東京都","city":"江東区","address":"江東区塩浜2-14-5","lat":35.66279,"lon":139.8091},{"name":"アスク豊洲保育園","province":"東京都","city":"江東区","address":"江東区豊洲3-6-81階","lat":35.65915,"lon":139.79717},{"name":"江東区亀戸第四保育園","province":"東京都","city":"江東区","address":"江東区亀戸4-21-13","lat":35.70258,"lon":139.82636},{"name":"保育園ミルキーウェイ亀戸園","province":"東京都","city":"江東区","address":"江東区亀戸7-38-121・2階","lat":35.6975,"lon":139.83931},{"name":"こころこうとう保育園","province":"東京都","city":"江東区","address":"江東区亀戸6-42-13","lat":35.69655,"lon":139.8317},{"name":"かがやき保育園","province":"東京都","city":"江東区","address":"江東区大島7-37-13","lat":35.69199,"lon":139.84197},{"name":"江東区北砂保育園","province":"東京都","city":"江東区","address":"江東区北砂1-1-4-101","lat":35.68345,"lon":139.82163},{"name":"マミー保育園東砂","province":"東京都","city":"江東区","address":"江東区東砂3-28-1","lat":35.67935,"lon":139.84432},{"name":"南砂町保育園","province":"東京都","city":"江東区","address":"江東区南砂3-10-8","lat":35.66979,"lon":139.82983},{"name":"グローバルキッズ南砂園","province":"東京都","city":"江東区","address":"江東区南砂3-14-6","lat":35.66913,"lon":139.83186},{"name":"南砂あら川保育園","province":"東京都","city":"江東区","address":"江東区南砂2-2-11","lat":35.66958,"lon":139.82352},{"name":"太陽の子　森下三丁目保育園","province":"東京都","city":"江東区","address":"江東区森下3-5-26","lat":35.68566,"lon":139.80792},{"name":"江東区東陽保育園","province":"東京都","city":"江東区","address":"江東区東陽3-22-1-101","lat":35.67975,"lon":139.79932},{"name":"あい保育園豊洲","province":"東京都","city":"江東区","address":"江東区豊洲5-6-521階","lat":35.65033,"lon":139.79021},{"name":"グローバルキッズ豊洲五丁目保育園","province":"東京都","city":"江東区","address":"江東区豊洲5-6-29","lat":35.64668,"lon":139.78609},{"name":"江東区亀高保育園","province":"東京都","city":"江東区","address":"江東区北砂5-20-9-101","lat":35.68036,"lon":139.83398},{"name":"江東区東砂第四保育園","province":"東京都","city":"江東区","address":"江東区東砂7-17-35-101","lat":35.67012,"lon":139.83835}]}