{"keyword":"財団","data":[{"name":"NewWork亀戸","province":"東京都","city":"江東区","address":"東京都江東区亀戸2丁目22-17","lat":35.69840004,"lon":139.82477263},{"name":"東京電力（株）江東支社","province":"東京都","city":"江東区","address":"江東区大島3-4-5","lat":35.69242,"lon":139.8264},{"name":"東京電力（株）越中島資材倉庫","province":"東京都","city":"江東区","address":"江東区越中島3-5-19","lat":35.66372,"lon":139.7992},{"name":"NewWork亀戸","province":"東京都","city":"江東区","address":"東京都江東区亀戸2丁目22-17","lat":35.69840004,"lon":139.82477263},{"name":"東京電力（株）江東支社","province":"東京都","city":"江東区","address":"江東区大島3-4-5","lat":35.69242,"lon":139.8264},{"name":"東京電力（株）越中島資材倉庫","province":"東京都","city":"江東区","address":"江東区越中島3-5-19","lat":35.66372,"lon":139.7992},{"name":"NewWork亀戸","province":"東京都","city":"江東区","address":"東京都江東区亀戸2丁目22-17","lat":35.69840004,"lon":139.82477263},{"name":"東京電力（株）江東支社","province":"東京都","city":"江東区","address":"江東区大島3-4-5","lat":35.69242,"lon":139.8264},{"name":"東京電力（株）越中島資材倉庫","province":"東京都","city":"江東区","address":"江東区越中島3-5-19","lat":35.66372,"lon":139.7992},{"name":"NewWork亀戸","province":"東京都","city":"江東区","address":"東京都江東区亀戸2丁目22-17","lat":35.69840004,"lon":139.82477263},{"name":"東京電力（株）江東支社","province":"東京都","city":"江東区","address":"江東区大島3-4-5","lat":35.69242,"lon":139.8264},{"name":"東京電力（株）越中島資材倉庫","province":"東京都","city":"江東区","address":"江東区越中島3-5-19","lat":35.66372,"lon":139.7992},{"name":"東京電力（株）江東支社","province":"東京都","city":"江東区","address":"江東区大島3-4-5","lat":35.69242,"lon":139.8264},{"name":"東京電力（株）越中島資材倉庫","province":"東京都","city":"江東区","address":"江東区越中島3-5-19","lat":35.66372,"lon":139.7992},{"name":"東京電力（株）江東支社","province":"東京都","city":"江東区","address":"江東区大島3-4-5","lat":35.69242,"lon":139.8264},{"name":"東京電力（株）越中島資材倉庫","province":"東京都","city":"江東区","address":"江東区越中島3-5-19","lat":35.66372,"lon":139.7992},{"name":"東京電力（株）江東支社","province":"東京都","city":"江東区","address":"江東区大島3-4-5","lat":35.69242,"lon":139.8264},{"name":"東京電力（株）越中島資材倉庫","province":"東京都","city":"江東区","address":"江東区越中島3-5-19","lat":35.66372,"lon":139.7992},{"name":"東京電力（株）江東支社","province":"東京都","city":"江東区","address":"江東区大島3-4-5","lat":35.69242,"lon":139.8264},{"name":"東京電力（株）越中島資材倉庫","province":"東京都","city":"江東区","address":"江東区越中島3-5-19","lat":35.66372,"lon":139.7992},{"name":"東京電力（株）江東支社","province":"東京都","city":"江東区","address":"江東区大島3-4-5","lat":35.69242,"lon":139.8264},{"name":"東京電力（株）越中島資材倉庫","province":"東京都","city":"江東区","address":"江東区越中島3-5-19","lat":35.66372,"lon":139.7992},{"name":"東京電力（株）江東支社","province":"東京都","city":"江東区","address":"江東区大島3-4-5","lat":35.69242,"lon":139.8264},{"name":"東京電力（株）越中島資材倉庫","province":"東京都","city":"江東区","address":"江東区越中島3-5-19","lat":35.66372,"lon":139.7992},{"name":"東京電力（株）江東支社","province":"東京都","city":"江東区","address":"江東区大島3-4-5","lat":35.69242,"lon":139.8264},{"name":"東京電力（株）越中島資材倉庫","province":"東京都","city":"江東区","address":"江東区越中島3-5-19","lat":35.66372,"lon":139.7992},{"name":"東京電力（株）江東支社","province":"東京都","city":"江東区","address":"江東区大島3-4-5","lat":35.69242,"lon":139.8264},{"name":"東京電力（株）越中島資材倉庫","province":"東京都","city":"江東区","address":"江東区越中島3-5-19","lat":35.66372,"lon":139.7992},{"name":"東京電力（株）江東支社","province":"東京都","city":"江東区","address":"江東区大島3-4-5","lat":35.69242,"lon":139.8264},{"name":"東京電力（株）越中島資材倉庫","province":"東京都","city":"江東区","address":"江東区越中島3-5-19","lat":35.66372,"lon":139.7992},{"name":"東京電力（株）江東支社","province":"東京都","city":"江東区","address":"江東区大島3-4-5","lat":35.69242,"lon":139.8264},{"name":"東京電力（株）越中島資材倉庫","province":"東京都","city":"江東区","address":"江東区越中島3-5-19","lat":35.66372,"lon":139.7992},{"name":"東京電力（株）江東支社","province":"東京都","city":"江東区","address":"江東区大島3-4-5","lat":35.69242,"lon":139.8264},{"name":"東京電力（株）越中島資材倉庫","province":"東京都","city":"江東区","address":"江東区越中島3-5-19","lat":35.66372,"lon":139.7992},{"name":"東京電力（株）江東支社","province":"東京都","city":"江東区","address":"江東区大島3-4-5","lat":35.69242,"lon":139.8264},{"name":"東京電力（株）越中島資材倉庫","province":"東京都","city":"江東区","address":"江東区越中島3-5-19","lat":35.66372,"lon":139.7992},{"name":"東京電力（株）江東支社","province":"東京都","city":"江東区","address":"江東区大島3-4-5","lat":35.69242,"lon":139.8264},{"name":"東京電力（株）越中島資材倉庫","province":"東京都","city":"江東区","address":"江東区越中島3-5-19","lat":35.66372,"lon":139.7992},{"name":"東京電力（株）江東支社","province":"東京都","city":"江東区","address":"江東区大島3-4-5","lat":35.69242,"lon":139.8264},{"name":"東京電力（株）越中島資材倉庫","province":"東京都","city":"江東区","address":"江東区越中島3-5-19","lat":35.66372,"lon":139.7992},{"name":"東京電力（株）江東支社","province":"東京都","city":"江東区","address":"江東区大島3-4-5","lat":35.69242,"lon":139.8264},{"name":"東京電力（株）越中島資材倉庫","province":"東京都","city":"江東区","address":"江東区越中島3-5-19","lat":35.66372,"lon":139.7992},{"name":"東京電力（株）江東支社","province":"東京都","city":"江東区","address":"江東区大島3-4-5","lat":35.69242,"lon":139.8264},{"name":"東京電力（株）越中島資材倉庫","province":"東京都","city":"江東区","address":"江東区越中島3-5-19","lat":35.66372,"lon":139.7992},{"name":"東京電力（株）江東支社","province":"東京都","city":"江東区","address":"江東区大島3-4-5","lat":35.69242,"lon":139.8264},{"name":"東京電力（株）越中島資材倉庫","province":"東京都","city":"江東区","address":"江東区越中島3-5-19","lat":35.66372,"lon":139.7992},{"name":"東京電力（株）江東支社","province":"東京都","city":"江東区","address":"江東区大島3-4-5","lat":35.69242,"lon":139.8264},{"name":"東京電力（株）越中島資材倉庫","province":"東京都","city":"江東区","address":"江東区越中島3-5-19","lat":35.66372,"lon":139.7992},{"name":"東京電力（株）江東支社","province":"東京都","city":"江東区","address":"江東区大島3-4-5","lat":35.69242,"lon":139.8264},{"name":"東京電力（株）越中島資材倉庫","province":"東京都","city":"江東区","address":"江東区越中島3-5-19","lat":35.66372,"lon":139.7992},{"name":"東京電力（株）江東支社","province":"東京都","city":"江東区","address":"江東区大島3-4-5","lat":35.69242,"lon":139.8264},{"name":"東京電力（株）越中島資材倉庫","province":"東京都","city":"江東区","address":"江東区越中島3-5-19","lat":35.66372,"lon":139.7992},{"name":"東京電力（株）江東支社","province":"東京都","city":"江東区","address":"江東区大島3-4-5","lat":35.69242,"lon":139.8264},{"name":"東京電力（株）越中島資材倉庫","province":"東京都","city":"江東区","address":"江東区越中島3-5-19","lat":35.66372,"lon":139.7992},{"name":"東京電力（株）江東支社","province":"東京都","city":"江東区","address":"江東区大島3-4-5","lat":35.69242,"lon":139.8264},{"name":"東京電力（株）越中島資材倉庫","province":"東京都","city":"江東区","address":"江東区越中島3-5-19","lat":35.66372,"lon":139.7992},{"name":"東京電力（株）江東支社","province":"東京都","city":"江東区","address":"江東区大島3-4-5","lat":35.69242,"lon":139.8264},{"name":"東京電力（株）越中島資材倉庫","province":"東京都","city":"江東区","address":"江東区越中島3-5-19","lat":35.66372,"lon":139.7992},{"name":"東京電力（株）江東支社","province":"東京都","city":"江東区","address":"江東区大島3-4-5","lat":35.69242,"lon":139.8264},{"name":"東京電力（株）越中島資材倉庫","province":"東京都","city":"江東区","address":"江東区越中島3-5-19","lat":35.66372,"lon":139.7992},{"name":"東京電力（株）江東支社","province":"東京都","city":"江東区","address":"江東区大島3-4-5","lat":35.69242,"lon":139.8264},{"name":"東京電力（株）越中島資材倉庫","province":"東京都","city":"江東区","address":"江東区越中島3-5-19","lat":35.66372,"lon":139.7992},{"name":"東京電力（株）江東支社","province":"東京都","city":"江東区","address":"江東区大島3-4-5","lat":35.69242,"lon":139.8264},{"name":"東京電力（株）越中島資材倉庫","province":"東京都","city":"江東区","address":"江東区越中島3-5-19","lat":35.66372,"lon":139.7992},{"name":"東京電力（株）江東支社","province":"東京都","city":"江東区","address":"江東区大島3-4-5","lat":35.69242,"lon":139.8264},{"name":"東京電力（株）越中島資材倉庫","province":"東京都","city":"江東区","address":"江東区越中島3-5-19","lat":35.66372,"lon":139.7992}]}