{"keyword":"食堂","data":[{"name":"江東中学生勉強会","province":"東京都","city":"江東区","address":"東京都江東区亀戸7丁目41-16","lat":35.69678434,"lon":139.83734573},{"name":"みなみすなこども食堂","province":"東京都","city":"江東区","address":"東京都江東区南砂4丁目3-12","lat":35.67435899,"lon":139.82808635},{"name":"たつみこども食堂","province":"東京都","city":"江東区","address":"東京都江東区辰巳1丁目","lat":35.6496309,"lon":139.81057458},{"name":"もんなかこども食堂","province":"東京都","city":"江東区","address":"東京都江東区深川1丁目11-4","lat":35.67818584,"lon":139.79723216},{"name":"下町こどもダイニング","province":"東京都","city":"江東区","address":"東京都江東区東陽2丁目2-20","lat":35.66588197,"lon":139.816032},{"name":"すなまちよっちゃん家こども食堂","province":"東京都","city":"江東区","address":"東京都江東区東砂7丁目9-13","lat":35.67156517,"lon":139.84029357},{"name":"つみき子ども食堂","province":"東京都","city":"江東区","address":"東京都江東区大島7丁目41-4","lat":35.69288751,"lon":139.84268165},{"name":"こども食堂ヤミー！","province":"東京都","city":"江東区","address":"東京都江東区枝川1丁目6-18","lat":35.65735487,"lon":139.80358058},{"name":"東陽子ども食堂スマイル","province":"東京都","city":"江東区","address":"東京都江東区東陽4丁目11-1","lat":35.67238958,"lon":139.81884288},{"name":"ぼたんこども食堂","province":"東京都","city":"江東区","address":"東京都江東区牡丹3丁目6-5","lat":35.66895069,"lon":139.79786734},{"name":"無印良品東京有明こども食堂","province":"東京都","city":"江東区","address":"東京都江東区有明2丁目1-7","lat":35.63817346,"lon":139.79140457},{"name":"食育カフェEDEN","province":"東京都","city":"江東区","address":"東京都江東区豊洲5丁目","lat":35.65313015,"lon":139.79643689},{"name":"グリーンタイガーこども食堂","province":"東京都","city":"江東区","address":"東京都江東区亀戸4丁目21-18","lat":35.70244671,"lon":139.82607522},{"name":"たかもり食堂","province":"東京都","city":"江東区","address":"東京都江東区森下3丁目12-17","lat":35.68520736,"lon":139.80217961},{"name":"佐賀町パパスこども食堂","province":"東京都","city":"江東区","address":"東京都江東区佐賀1丁目16-6","lat":35.67666636,"lon":139.79121796},{"name":"フローレンスの保育園こども食堂みんつく東雲","province":"東京都","city":"江東区","address":"東京都江東区東雲2丁目1-22","lat":35.64382857,"lon":139.80148951},{"name":"深川姉御家『健康&食育』こども食堂","province":"東京都","city":"江東区","address":"東京都江東区深川2丁目6-2","lat":35.67473617,"lon":139.79632353},{"name":"すずね食堂","province":"東京都","city":"江東区","address":"東京都江東区大島4丁目16-6","lat":35.68793798,"lon":139.83117178},{"name":"ぐっち子ども食堂","province":"東京都","city":"江東区","address":"東京都江東区北砂4丁目34-2","lat":35.6766644,"lon":139.83335795},{"name":"子ども食堂りとるふぉれすと","province":"東京都","city":"江東区","address":"東京都江東区扇橋3丁目22-2","lat":35.68412697,"lon":139.82017068},{"name":"チア食堂すた～でぃあむ☆","province":"東京都","city":"江東区","address":"東京都江東区門前仲町1丁目13-12","lat":35.67340572,"lon":139.7950984}]}