{"keyword":"館","data":[{"name":"亀戸第二児童館","province":"東京都","city":"江東区","address":"江東区亀戸1-24-6","lat":35.69462,"lon":139.8242},{"name":"平野児童館","province":"東京都","city":"江東区","address":"江東区平野1-2-3","lat":35.67817,"lon":139.79894},{"name":"古石場児童館","province":"東京都","city":"江東区","address":"江東区古石場1-11-11","lat":35.66929,"lon":139.79507},{"name":"＊?東雲図書館","province":"東京都","city":"江東区","address":"江東区東雲2-7-5-201","lat":35.643542,"lon":139.805368},{"name":"＊?豊洲図書館","province":"東京都","city":"江東区","address":"江東区豊洲2-2-18豊洲文化センター内","lat":35.654237,"lon":139.795271},{"name":"＊?亀戸図書館","province":"東京都","city":"江東区","address":"江東区亀戸7-39-9","lat":35.696976,"lon":139.839343},{"name":"＊?城東図書館","province":"東京都","city":"江東区","address":"江東区大島4-5-1総合区民センター内","lat":35.68903,"lon":139.826987},{"name":"＊?江東図書館","province":"東京都","city":"江東区","address":"江東区南砂6-7-52","lat":35.671844,"lon":139.834105},{"name":"＊?砂町図書館","province":"東京都","city":"江東区","address":"江東区北砂5-1-7砂町文化センター内","lat":35.680392,"lon":139.831958},{"name":"＊?深川図書館","province":"東京都","city":"江東区","address":"江東区清澄3-3-39","lat":35.679152,"lon":139.796765},{"name":"＊?白河こどもとしょかん","province":"東京都","city":"江東区","address":"江東区白河4-3-19","lat":35.68218,"lon":139.808055},{"name":"＊?東陽図書館","province":"東京都","city":"江東区","address":"江東区東陽2-3-6教育センター内","lat":35.667477,"lon":139.81697},{"name":"＊?東大島図書館","province":"東京都","city":"江東区","address":"江東区大島9-4-2-101","lat":35.691063,"lon":139.845735},{"name":"＊?古石場図書館","province":"東京都","city":"江東区","address":"江東区古石場2-13-2古石場文化センター内","lat":35.666926,"lon":139.799054}]}