{"keyword":"訪問","data":[{"name":"中央区立子ども発達支援センター","province":"東京都","city":"中央区","address":"中央区明石町12-1","lat":35.666506,"lon":139.777035},{"name":"メルケア　プリスクーリング","province":"東京都","city":"港区","address":"港区西新橋1-22-5新橋TSビル","lat":35.668291,"lon":139.751929},{"name":"すみだ福祉保健センターみつばち園","province":"東京都","city":"墨田区","address":"墨田区向島3-36-7すみだ福祉保健センター内","lat":35.713374,"lon":139.810759},{"name":"江東区こども発達センター","province":"東京都","city":"江東区","address":"江東区塩浜2-5-20","lat":35.661932,"lon":139.805383},{"name":"東京都立東部療育センター","province":"東京都","city":"江東区","address":"江東区新砂3-3-25","lat":35.663819,"lon":139.833178},{"name":"品川区立品川児童学園","province":"東京都","city":"品川区","address":"品川区八潮5-9-11","lat":35.598211,"lon":139.752285},{"name":"あいりすキッズ","province":"東京都","city":"大田区","address":"大田区西馬込1-32-15共信ビル303","lat":35.589785,"lon":139.70333},{"name":"東京都立北療育医療センター　城南分園","province":"東京都","city":"大田区","address":"大田区東雪谷4-5-10","lat":35.594607,"lon":139.693676},{"name":"杉並区立こども発達センター","province":"東京都","city":"杉並区","address":"杉並区高井戸東1-18-5","lat":35.682622,"lon":139.619729},{"name":"東京都立北療育医療センター","province":"東京都","city":"北区","address":"北区十条台1-2-3","lat":35.754036,"lon":139.723078},{"name":"東京都立北療育医療センター　城北分園","province":"東京都","city":"足立区","address":"足立区南花畑5-10-1","lat":35.795595,"lon":139.816277},{"name":"足立区障がい福祉センター　幼児発達支援室","province":"東京都","city":"足立区","address":"足立区梅島3-31-19","lat":35.777505,"lon":139.792921},{"name":"うめだ・あけぼの学園","province":"東京都","city":"足立区","address":"足立区梅田7-12-15","lat":35.76922,"lon":139.800899},{"name":"葛飾区子ども発達センター","province":"東京都","city":"葛飾区","address":"葛飾区堀切3-34-1","lat":35.744335,"lon":139.834522},{"name":"にっこり相談室","province":"東京都","city":"江戸川区","address":"江戸川区東小岩3-17-19-1","lat":35.731677,"lon":139.892892},{"name":"すぎな愛育園どれみ","province":"東京都","city":"八王子市","address":"八王子市台町2-7-22","lat":35.649091,"lon":139.321239},{"name":"三鷹市子ども発達支援センター","province":"東京都","city":"三鷹市","address":"三鷹市新川6-37-1","lat":35.681774,"lon":139.561834},{"name":"東京都立多摩療育園","province":"東京都","city":"府中市","address":"府中市西府町4-7-1","lat":35.676841,"lon":139.454426},{"name":"調布市子ども発達センター保育所等訪問支援事業所","province":"東京都","city":"調布市","address":"調布市西町290-49","lat":35.666277,"lon":139.522529},{"name":"町田市すみれ教室","province":"東京都","city":"町田市","address":"町田市中町2-13-14","lat":35.551569,"lon":139.444459},{"name":"賀川学園","province":"東京都","city":"小金井市","address":"小金井市貫井北町5-8-1","lat":35.701667,"lon":139.488511},{"name":"日本社会事業大学附属　子ども学園","province":"東京都","city":"清瀬市","address":"清瀬市梅園1-2-50","lat":35.773956,"lon":139.50729}]}