"名称","名称かな","所在地","TEL","FAX","URL","e-mail","アクセス方法","開館時間","詳細情報","CMS管理番号","分類HCODE","経度","緯度","分類"
"【区民のひろば】上鷺宮5-17-35(上Ｂ－０９)","","上鷺宮5-17-35","","","","","","","基準にあった掲示物であれば、2週間以内で区民の方々等にご利用いただける掲示板です。","","477700","139.626649297248","35.7295980432025","区民のひろば一覧"
"【区民のひろば】鷺宮6-20(鷺Ｂ－２３)","","鷺宮6-20","","","","","","","基準にあった掲示物であれば、2週間以内で区民の方々等にご利用いただける掲示板です。","","477700","139.627478521541","35.7260357396226","区民のひろば一覧"
"【区民のひろば】白鷺3-23-7(鷺Ｂ－１８)","","白鷺3-23-7","","","","","","","基準にあった掲示物であれば、2週間以内で区民の方々等にご利用いただける掲示板です。","","477700","139.628196771797","35.722045275849","区民のひろば一覧"
"【区民のひろば】上鷺宮4-8(上Ｂ－０７)","","上鷺宮4-8","","","","","","","基準にあった掲示物であれば、2週間以内で区民の方々等にご利用いただける掲示板です。","","477700","139.628383812148","35.7320447715548","区民のひろば一覧"
"【区民のひろば】鷺宮6-24-4(鷺Ｂ－２４)","","鷺宮6-24-4","","","","","","","基準にあった掲示物であれば、2週間以内で区民の方々等にご利用いただける掲示板です。","","477700","139.629556089077","35.7253688531668","区民のひろば一覧"
"【区民のひろば】上Ｂ－０８","","上鷺宮5-1","","","","","","","基準にあった掲示物であれば、１週間以内で区民の方々等にご利用いただける掲示板です。","","477700","139.63008427012","35.7273419920003","区民のひろば一覧"
"【区民のひろば】上鷺宮5-26(上Ｂ－１０)","","上鷺宮5-26","","","","","","","基準にあった掲示物であれば、2週間以内で区民の方々等にご利用いただける掲示板です。","","477700","139.630450594776","35.7305740181108","区民のひろば一覧"
"【区民のひろば】上鷺宮3-9(上Ｂ－０６)","","上鷺宮3-9","","","","","","","基準にあった掲示物であれば、2週間以内で区民の方々等にご利用いただける掲示板です。","","477700","139.630668205991","35.7346024209783","区民のひろば一覧"
"【区民のひろば】鷺宮5-11(上Ｂ－０２)","","鷺宮5-11","","","","","","","基準にあった掲示物であれば、2週間以内で区民の方々等にご利用いただける掲示板です。","","477700","139.631586254396","35.725346714411","区民のひろば一覧"
"【区民のひろば】上鷺宮3-7(上Ｂ－０５)
","","上鷺宮3-7","","","","","","","基準にあった掲示物であれば、2週間以内で区民の方々等にご利用いただける掲示板です。※アクリル引戸設置済","","477700","139.632308783148","35.7316143016333","区民のひろば一覧"
"【区民のひろば】白鷺2-28(鷺Ｂ－１４)","","白鷺2-28","","","","","","","基準にあった掲示物であれば、2週間以内で区民の方々等にご利用いただける掲示板です。","","477700","139.633474378098","35.7190364643374","区民のひろば一覧"
"【区民のひろば】鷺宮4-22(鷺Ｂ－２２)","","鷺宮4-22","","","","","","","基準にあった掲示物であれば、2週間以内で区民の方々等にご利用いただける掲示板です。","","477700","139.633541566295","35.7239727514239","区民のひろば一覧"
"【区民のひろば】鷺宮5-9-14(上Ｂ－０１)","","鷺宮5-9-14","","","","","","","基準にあった掲示物であれば、2週間以内で区民の方々等にご利用いただける掲示板です。","","477700","139.633746046673","35.7258925334616","区民のひろば一覧"
"【区民のひろば】白鷺3-2(鷺Ｂ－１７)","","白鷺3-2","","","","","","","基準にあった掲示物であれば、2週間以内で区民の方々等にご利用いただける掲示板です。","","477700","139.634297618558","35.7223739479365","区民のひろば一覧"
"【区民のひろば】上鷺宮2-18(上Ｂ－０４)","","上鷺宮2-18","","","","","","","基準にあった掲示物であれば、2週間以内で区民の方々等にご利用いただける掲示板です。","","477700","139.63477166542","35.7299737281278","区民のひろば一覧"
"【区民のひろば】白鷺2-50(鷺Ｂ－１６)","","白鷺2-50","","","","","","","基準にあった掲示物であれば、2週間以内で区民の方々等にご利用いただける掲示板です。","","477700","139.635458738526","35.721513683748","区民のひろば一覧"
"【区民のひろば】白鷺2-9(鷺Ｂ－１５)","","白鷺2-9","","","","","","","基準にあった掲示物であれば、2週間以内で区民の方々等にご利用いただける掲示板です。","","477700","139.635821972646","35.7184454449507","区民のひろば一覧"
"【区民のひろば】白鷺1-7(鷺Ｂ－2５)","","白鷺1-7","","","","","","","基準にあった掲示物であれば、2週間以内で区民の方々等にご利用いただける掲示板です。※アクリル引戸設置済","","477700","139.636977881758","35.7175234352226","区民のひろば一覧"
"【区民のひろば】白鷺1-30(鷺Ｂ－１３)","","白鷺1-30","","","","","","","基準にあった掲示物であれば、2週間以内で区民の方々等にご利用いただける掲示板です。","","477700","139.638162460822","35.7221582808518","区民のひろば一覧"
"【区民のひろば】白鷺1-12(鷺Ｂ－１２)","","白鷺1-12","","","","","","","基準にあった掲示物であれば、１週間以内で区民の方々等にご利用いただける掲示板です。","","477700","139.638376320085","35.7188059827139","区民のひろば一覧"
"【区民のひろば】鷺Ｂ－２１","","鷺宮3-18","","","","","","","基準にあった掲示物であれば、2週間以内で区民の方々等にご利用いただける掲示板です。※アクリル引戸設置済","","477700","139.639099604492","35.7232249190251","区民のひろば一覧"
"【区民のひろば】若宮3-54(鷺Ｂ－０８)","","若宮3-54","","","","","","","基準にあった掲示物であれば、2週間以内で区民の方々等にご利用いただける掲示板です。","","477700","139.641087597827","35.7201011700475","区民のひろば一覧"
"【区民のひろば】鷺宮1-17(鷺Ｂ－２０)","","鷺宮1-17","","","","","","","基準にあった掲示物であれば、2週間以内で区民の方々等にご利用いただける掲示板です。※アクリル引戸設置済","","477700","139.644280063541","35.7226842790775","区民のひろば一覧"
"【区民のひろば】若宮3-5-8(鷺Ｂ－０６)","","若宮3-5-8","","","","","","","基準にあった掲示物であれば、2週間以内で区民の方々等にご利用いただける掲示板です。","","477700","139.646131253373","35.7208273768391","区民のひろば一覧"
"【区民のひろば】大和町3-27(大Ｂ－０７)","","大和町3-27","","","","","","","基準にあった掲示物であれば、2週間以内で区民の方々等にご利用いただける掲示板です。","","477700","139.646636411653","35.7125665487837","区民のひろば一覧"
"【区民のひろば】若宮2-7-16(鷺Ｂ－０４)","","若宮2-7-16","","","","","","","基準にあった掲示物であれば、2週間以内で区民の方々等にご利用いただける掲示板です。","","477700","139.646767398272","35.7182289090313","区民のひろば一覧"
"【区民のひろば】大和町4-17-12(大Ｂ－０８)","","大和町4-17-12","","","","","","","基準にあった掲示物であれば、2週間以内で区民の方々等にご利用いただける掲示板です。","","477700","139.646909721659","35.7137947232604","区民のひろば一覧"
"【区民のひろば】大和町3-18(大Ｂ－０６)","","大和町3-18","","","","","","","基準にあった掲示物であれば、2週間以内で区民の方々等にご利用いただける掲示板です。","","477700","139.647978288354","35.7112359802143","区民のひろば一覧"
"【区民のひろば】若宮1-56-10(鷺Ｂ－０３)","","若宮1-56-10","","","","","","","基準にあった掲示物であれば、2週間以内で区民の方々等にご利用いただける掲示板です。","","477700","139.648167933776","35.7208458558886","区民のひろば一覧"
"【区民のひろば】鷺宮1-1-4(鷺B－１９)","","鷺宮1-1-4","","","","","","","基準にあった掲示物であれば、2週間以内で区民の方々等にご利用いただける掲示板です。","","477700","139.648778790545","35.7215177439303","区民のひろば一覧"
"【区民のひろば】若宮1-1(大Ｂ－０９)","","若宮1-1","","","","","","","基準にあった掲示物であれば、2週間以内で区民の方々等にご利用いただける掲示板です。","","477700","139.648801233438","35.7160186517678","区民のひろば一覧"
"【区民のひろば】大和町1-49-1(大Ｂ－０３)","","大和町1-49-1","","","","","","","基準にあった掲示物であれば、2週間以内で区民の方々等にご利用いただける掲示板です。","","477700","139.649472465037","35.7123778469809","区民のひろば一覧"
"【区民のひろば】丸山2-27(野Ｂ－０６)","","丸山2-27","","","","","","","基準にあった掲示物であれば、2週間以内で区民の方々等にご利用いただける掲示板です。","","477700","139.650067100518","35.7258092212084","区民のひろば一覧"
"【区民のひろば】若宮1-13-12(野Ｂ－１７)","","若宮1-13-12","","","","","","","基準にあった掲示物であれば、2週間以内で区民の方々等にご利用いただける掲示板です。","","477700","139.650396607949","35.7175313956028","区民のひろば一覧"
"【区民のひろば】大和町2-28(大Ｂ－０４)","","大和町2-28","","","","","","","基準にあった掲示物であれば、2週間以内で区民の方々等にご利用いただける掲示板です。※アクリル引戸設置済","","477700","139.65079108747","35.7153876612047","区民のひろば一覧"
"【区民のひろば】野方6-9(野Ｂ－１６)","","野方6-9","","","","","","","基準にあった掲示物であれば、2週間以内で区民の方々等にご利用いただける掲示板です。","","477700","139.652365307807","35.7211779211823","区民のひろば一覧"
"【区民のひろば】野方5-31(野Ｂ－１５)","","野方5-31","","","","","","","基準にあった掲示物であれば、2週間以内で区民の方々等にご利用いただける掲示板です。※アクリル引戸設置済","","477700","139.652440826235","35.7196894802597","区民のひろば一覧"
"【区民のひろば】大和町1-18(大Ｂ－０１)","","大和町1-18","","","","","","","基準にあった掲示物であれば、2週間以内で区民の方々等にご利用いただける掲示板です。","","477700","139.652906487838","35.7129878949761","区民のひろば一覧"
"【区民のひろば】大Ｂ－０２","","大和町1-21","","","","","","","基準にあった掲示物であれば、１週間以内で区民の方々等にご利用いただける掲示板です。","","477700","139.653013325273","35.7115432057609","区民のひろば一覧"
"【区民のひろば】野方5-3-7(野Ｂ－１４)","","野方5-3-7","","","","","","","基準にあった掲示物であれば、2週間以内で区民の方々等にご利用いただける掲示板です。※アクリル引戸設置済","","477700","139.653179955166","35.7182092856459","区民のひろば一覧"
"【区民のひろば】丸山2-5-3(野Ｂ－０５)","","丸山2-5-3","","","","","","","基準にあった掲示物であれば、2週間以内で区民の方々等にご利用いただける掲示板です。","","477700","139.653180297627","35.7242939764079","区民のひろば一覧"
"【区民のひろば】野方3-29(野Ｂ－１２)","","野方3-29","","","","","","","基準にあった掲示物であれば、2週間以内で区民の方々等にご利用いただける掲示板です。","","477700","139.653940785655","35.7185896160935","区民のひろば一覧"
"【区民のひろば】野方3-19(野Ｂ－１１)","","野方3-19","","","","","","","基準にあった掲示物であれば、2週間以内で区民の方々等にご利用いただける掲示板です。※アクリル引戸設置済","","477700","139.654074003027","35.7175397778654","区民のひろば一覧"
"【区民のひろば】野方4-25-3(野Ｂ－１３)","","野方4-25-3","","","","","","","基準にあった掲示物であれば、2週間以内で区民の方々等にご利用いただける掲示板です。","","477700","139.654306633012","35.7216673403763","区民のひろば一覧"
"【区民のひろば】丸山1-9-1(野Ｂ－０３)","","丸山1-9-1","","","","","","","基準にあった掲示物であれば、2週間以内で区民の方々等にご利用いただける掲示板です。","","477700","139.654376333436","35.7229829009192","区民のひろば一覧"
"【区民のひろば】野方2-61(野Ｂ－０９)","","野方2-61","","","","","","","基準にあった掲示物であれば、2週間以内で区民の方々等にご利用いただける掲示板です。","","477700","139.65448145576","35.7145438019558","区民のひろば一覧"
"【区民のひろば】丸山1-17(野Ｂ－０４)","","丸山1-17","","","","","","","基準にあった掲示物であれば、2週間以内で区民の方々等にご利用いただける掲示板です。","","477700","139.656065599911","35.7252507973663","区民のひろば一覧"
"【区民のひろば】野方2-27(野Ｂ－０８)","","野方2-27","","","","","","","基準にあった掲示物であれば、2週間以内で区民の方々等にご利用いただける掲示板です。","","477700","139.656401756556","35.7140797992657","区民のひろば一覧"
"【区民のひろば】野方2-14(野Ｂ－０７)","","野方2-14","","","","","","","基準にあった掲示物であれば、2週間以内で区民の方々等にご利用いただける掲示板です。","","477700","139.656936517703","35.713106193821","区民のひろば一覧"
"【区民のひろば】野方3-4-2(野Ｂ－１０)","","野方3-4-2","","","","","","","基準にあった掲示物であれば、2週間以内で区民の方々等にご利用いただける掲示板です。","","477700","139.657223852449","35.7156808589421","区民のひろば一覧"
"【区民のひろば】沼袋3-18-21(沼Ｂ－０８)","","沼袋3-18-21","","","","","","","基準にあった掲示物であれば、2週間以内で区民の方々等にご利用いただける掲示板です。","","477700","139.658966534002","35.7181026378129","区民のひろば一覧"
"【区民のひろば】中野4-16-4(桃Ｂ－１４)","","中野4-16-4","","","","","","","基準にあった掲示物であれば、2週間以内で区民の方々等にご利用いただける掲示板です。","","477700","139.659652127354","35.7058076476776","区民のひろば一覧"
"【区民のひろば】江古田4-35-5(沼Ｂ－１２)","","江古田4-35-5","","","","","","","基準にあった掲示物であれば、2週間以内で区民の方々等にご利用いただける掲示板です。","","477700","139.659949520758","35.7235054124535","区民のひろば一覧"
"【区民のひろば】沼袋4-10-12(沼Ｂ－０９)","","沼袋4-10-12","","","","","","","基準にあった掲示物であれば、2週間以内で区民の方々等にご利用いただける掲示板です。","","477700","139.660130878938","35.7201941446418","区民のひろば一覧"
"【区民のひろば】新井2-48(野Ｂ－０１)","","新井2-48","","","","","","","基準にあった掲示物であれば、2週間以内で区民の方々等にご利用いただける掲示板です。","","477700","139.660313697861","35.7107721057697","区民のひろば一覧"
"【区民のひろば】南台5-27（南Ｂ－１１）","","南台5-27","","","","","","","基準にあった掲示物であれば、１週間以内で区民の方々等にご利用いただける掲示板です。","","477700","139.660786201688","35.6832194134988","区民のひろば一覧"
"【区民のひろば】江古田4-22(沼Ｂ－１０)","","江古田4-22","","","","","","","基準にあった掲示物であれば、2週間以内で区民の方々等にご利用いただける掲示板です。","","477700","139.660948072831","35.7258500641221","区民のひろば一覧"
"【区民のひろば】本町6-41-15(鍋Ｂ－１０)","","本町6-41-15","","","","","","","基準にあった掲示物であれば、１週間以内で区民の方々等にご利用いただける掲示板です。","","477700","139.661294010072","35.695453467754","区民のひろば一覧"
"【区民のひろば】新井3-24-1(野Ｂ－０２)","","新井3-24-1","","","","","","","基準にあった掲示物であれば、１週間以内で区民の方々等にご利用いただける掲示板です。","","477700","139.661358525584","35.7131010609838","区民のひろば一覧"
"【区民のひろば】弥生町6-1（南Ｂ－２１）","","弥生町6-1","","","","","","","基準にあった掲示物であれば、2週間以内で区民の方々等にご利用いただける掲示板です。※アクリル引戸設置済","","477700","139.661561802413","35.6856955084758","区民のひろば一覧"
"【区民のひろば】江古田4-31(沼Ｂ－１１)","","江古田4-31","","","","","","","基準にあった掲示物であれば、2週間以内で区民の方々等にご利用いただける掲示板です。","","477700","139.661648320733","35.7247436893868","区民のひろば一覧"
"【区民のひろば】新井2-33(新Ｂ－０３)","","新井2-33","","","","","","","基準にあった掲示物であれば、2週間以内で区民の方々等にご利用いただける掲示板です。","","477700","139.662403874227","35.7109941087306","区民のひろば一覧"
"【区民のひろば】中野3-20(桃Ｂ－１２)","","中野3-20","","","","","","","基準にあった掲示物であれば、2週間以内で区民の方々等にご利用いただける掲示板です。","","477700","139.662433882284","35.703335178644","区民のひろば一覧"
"【区民のひろば】沼袋2-40(沼Ｂ－０６)","","沼袋2-40","","","","","","","基準にあった掲示物であれば、2週間以内で区民の方々等にご利用いただける掲示板です。","","477700","139.662922561697","35.7234351581143","区民のひろば一覧"
"【区民のひろば】南台5-22（南Ｂ－１０）","","南台5-22","","","","","","","基準にあった掲示物であれば、2週間以内で区民の方々等にご利用いただける掲示板です。","","477700","139.663229201969","35.6825673383176","区民のひろば一覧"
"【区民のひろば】新井3-11-4(新Ｂ－０６)","","新井3-11-4","","","","","","","基準にあった掲示物であれば、2週間以内で区民の方々等にご利用いただける掲示板です。※アクリル引戸設置済","","477700","139.663354015419","35.7143242882468","区民のひろば一覧"
"【区民のひろば】南台5-7（南Ｂ－０９）","","南台5-7","","","","","","","基準にあった掲示物であれば、2週間以内で区民の方々等にご利用いただける掲示板です。","","477700","139.663536029535","35.6812278686143","区民のひろば一覧"
"【区民のひろば】沼袋3-1(沼Ｂ－０７)","","沼袋3-1","","","","","","","基準にあった掲示物であれば、2週間以内で区民の方々等にご利用いただける掲示板です。※アクリル引戸設置済","","477700","139.663466732399","35.7188532310673","区民のひろば一覧"
"【区民のひろば】本町6-30(鍋Ｂ－０９)","","本町6-30","","","","","","","基準にあった掲示物であれば、2週間以内で区民の方々等にご利用いただける掲示板です。","","477700","139.663691171169","35.6961978313155","区民のひろば一覧"
"【区民のひろば】新井3-10(新Ｂ－０)５","","新井3-10","","","","","","","基準にあった掲示物であれば、2週間以内で区民の方々等にご利用いただける掲示板です。","","477700","139.66369042955","35.7170026911736","区民のひろば一覧"
"【区民のひろば】中野3-8-10(桃Ｂ－１１)","","中野3-8-10","","","","","","","基準にあった掲示物であれば、2週間以内で区民の方々等にご利用いただける掲示板です。","","477700","139.663899598114","35.7006444788394","区民のひろば一覧"
"【区民のひろば】江古田3-15-2(江Ｂ－１７)","","江古田3-15-2","","","","","","","基準にあった掲示物であれば、2週間以内で区民の方々等にご利用いただける掲示板です。","","477700","139.66393304533","35.7277002273038","区民のひろば一覧"
"【区民のひろば】中央5-27(鍋Ｂ－１１)","","中央5-27","","","","","","","基準にあった掲示物であれば、2週間以内で区民の方々等にご利用いただける掲示板です。","","477700","139.66401605914","35.6991218207432","区民のひろば一覧"
"【区民のひろば】中野3-34(桃Ｂ－１３)","","中野3-34","","","","","","","基準にあった掲示物であれば、2週間以内で区民の方々等にご利用いただける掲示板です。","","477700","139.664551628272","35.703855647514","区民のひろば一覧"
"【区民のひろば】本町6-7-9(鍋Ｂ－０８)","","本町6-7-9","","","","","","","基準にあった掲示物であれば、2週間以内で区民の方々等にご利用いただける掲示板です。","","477700","139.665095195312","35.6955608134292","区民のひろば一覧"
"【区民のひろば】中野4-9(旧無番号)","","中野4-9","","","","","","","基準にあった掲示物であれば、2週間以内で区民の方々等にご利用いただける掲示板です。","","477700","139.665235107607","35.7060814759799","区民のひろば一覧"
"【区民のひろば】弥生町5-9-50（南Ｂ－１７）","","弥生町5-9-50","","","","","","","基準にあった掲示物であれば、2週間以内で区民の方々等にご利用いただける掲示板です。","","477700","139.665351845433","35.6880321427613","区民のひろば一覧"
"【区民のひろば】沼袋2-23-5(沼Ｂ－０５)","","沼袋2-23-5","","","","","","","基準にあった掲示物であれば、2週間以内で区民の方々等にご利用いただける掲示板です。","","477700","139.665890252074","35.7221676015196","区民のひろば一覧"
"【区民のひろば】新井3-1-31(新Ｂ－０４)","","新井3-1-31","","","","","","","基準にあった掲示物であれば、2週間以内で区民の方々等にご利用いただける掲示板です。※アクリル引戸設置済","","477700","139.666058919261","35.7143132025765","区民のひろば一覧"
"【区民のひろば】南台4-37（南Ｂ－０７）","","南台4-37","","","","","","","基準にあった掲示物であれば、2週間以内で区民の方々等にご利用いただける掲示板です。","","477700","139.666163281351","35.6799868802362","区民のひろば一覧"
"【区民のひろば】中央5-43(桃Ｂ－０７)","","中央5-43","","","","","","","基準にあった掲示物であれば、2週間以内で区民の方々等にご利用いただける掲示板です。","","477700","139.66663964294","35.7006733819934","区民のひろば一覧"
"【区民のひろば】新井5-4(新Ｂ－０８)","","新井5-4","","","","","","","基準にあった掲示物であれば、2週間以内で区民の方々等にご利用いただける掲示板です。","","477700","139.666871665351","35.7147382363617","区民のひろば一覧"
"【区民のひろば】弥生町5-24（南Ｂ－２０）","","弥生町5-24","","","","","","","基準にあった掲示物であれば、2週間以内で区民の方々等にご利用いただける掲示板です。※アクリル引戸設置済","","477700","139.666966593402","35.6906398750989","区民のひろば一覧"
"【区民のひろば】中野5-36-11(昭Ｂ－０４)","","中野5-36-11","","","","","","","基準にあった掲示物であれば、2週間以内で区民の方々等にご利用いただける掲示板です。","","477700","139.666944800237","35.7079260828027","区民のひろば一覧"
"【区民のひろば】江古田2-13-30(江Ｂ－１５)","","江古田2-13-30","","","","","","","基準にあった掲示物であれば、2週間以内で区民の方々等にご利用いただける掲示板です。","","477700","139.666939457513","35.7256491824733","区民のひろば一覧"
"【区民のひろば】中野2-26-1(桃Ｂ－１０)","","中野2-26-1","","","","","","","基準にあった掲示物であれば、2週間以内で区民の方々等にご利用いただける掲示板です。※アクリル引戸設置済","","477700","139.667071393959","35.7037962652887","区民のひろば一覧"
"【区民のひろば】南台3-15-3（南Ｂ－０５）","","南台3-15-3","","","","","","","基準にあった掲示物であれば、2週間以内で区民の方々等にご利用いただける掲示板です。","","477700","139.667245780691","35.6834515610059","区民のひろば一覧"
"【区民のひろば】南台4-27（南Ｂ－０６）","","南台4-27","","","","","","","基準にあった掲示物であれば、2週間以内で区民の方々等にご利用いただける掲示板です。","","477700","139.667557680599","35.6806548863823","区民のひろば一覧"
"【区民のひろば】沼袋1-14-6(沼Ｂ－０２)","","沼袋1-14-6","","","","","","","基準にあった掲示物であれば、2週間以内で区民の方々等にご利用いただける掲示板です。","","477700","139.667517411905","35.7180797930624","区民のひろば一覧"
"【区民のひろば】沼袋2-17(沼Ｂ－０４)","","沼袋2-17","","","","","","","基準にあった掲示物であれば、2週間以内で区民の方々等にご利用いただける掲示板です。","","477700","139.667566302618","35.7228897390798","区民のひろば一覧"
"【区民のひろば】新井5-1-8(新Ｂ－０７)","","新井5-1-8","","","","","","","基準にあった掲示物であれば、2週間以内で区民の方々等にご利用いただける掲示板です。","","477700","139.667941908044","35.7135859346326","区民のひろば一覧"
"【区民のひろば】弥生町5-2（南Ｂ－１９）","","弥生町5-2","","","","","","","基準にあった掲示物であれば、2週間以内で区民の方々等にご利用いただける掲示板です。","","477700","139.668194503234","35.6871002888138","区民のひろば一覧"
"【区民のひろば】新井1-19(新Ｂ－０１)","","新井1-19","","","","","","","基準にあった掲示物であれば、2週間以内で区民の方々等にご利用いただける掲示板です。","","477700","139.668293287702","35.7117653588206","区民のひろば一覧"
"【区民のひろば】弥生町5-11（南Ｂ－１８）","","弥生町5-11","","","","","","","基準にあった掲示物であれば、2週間以内で区民の方々等にご利用いただける掲示板です。","","477700","139.668375516152","35.6884791145178","区民のひろば一覧"
"【区民のひろば】新井5-20-3(新Ｂ－０９)","","新井5-20-3","","","","","","","基準にあった掲示物であれば、2週間以内で区民の方々等にご利用いただける掲示板です。","","477700","139.668466561691","35.7161951164885","区民のひろば一覧"
"【区民のひろば】江原町2-6-5(江Ｂ－０９)","","江原町2-6-5","","","","","","","基準にあった掲示物であれば、2週間以内で区民の方々等にご利用いただける掲示板です。","","477700","139.668497040537","35.728731392369","区民のひろば一覧"
"【区民のひろば】沼袋1-19(沼Ｂ－０３)","","沼袋1-19","","","","","","","基準にあった掲示物であれば、2週間以内で区民の方々等にご利用いただける掲示板です。","","477700","139.668684391539","35.7197145624457","区民のひろば一覧"
"【区民のひろば】中央4-18(桃Ｂ－０４)","","中央4-18","","","","","","","基準にあった掲示物であれば、１週間以内で区民の方々等にご利用いただける掲示板です。","","477700","139.668746229476","35.6995830016237","区民のひろば一覧"
"【区民のひろば】中野5-26(昭Ｂ－０３)","","中野5-26","","","","","","","基準にあった掲示物であれば、2週間以内で区民の方々等にご利用いただける掲示板です。","","477700","139.668766673712","35.7080749744833","区民のひろば一覧"
"【区民のひろば】江原町2-20-18(江Ｂ－１０Ｙ)","","江原町2-20-18","","","","","","","基準にあった掲示物であれば、2週間以内で区民の方々等にご利用いただける掲示板です。","","477700","139.668745596084","35.731192558929","区民のひろば一覧"
"【区民のひろば】中野2-17(桃Ｂ－０９)","","中野2-17","","","","","","","基準にあった掲示物であれば、2週間以内で区民の方々等にご利用いただける掲示板です。","","477700","139.669143249618","35.7030399664693","区民のひろば一覧"
"【区民のひろば】中央4-50(桃Ｂ－０５)","","中央4-50","","","","","","","基準にあった掲示物であれば、2週間以内で区民の方々等にご利用いただける掲示板です。","","477700","139.669285157824","35.7021693165142","区民のひろば一覧"
"【区民のひろば】本町5-31(鍋Ｂ－０７)","","本町5-31","","","","","","","基準にあった掲示物であれば、2週間以内で区民の方々等にご利用いただける掲示板です。","","477700","139.669415805856","35.692991142424","区民のひろば一覧"
"【区民のひろば】松が丘2-3-7(江Ｂ－０４)","","松が丘2-3-7","","","","","","","基準にあった掲示物であれば、2週間以内で区民の方々等にご利用いただける掲示板です。","","477700","139.669775925696","35.7185092981402","区民のひろば一覧"
"【区民のひろば】南台2-28-5（南Ｂ－０３）","","南台2-28-5","","","","","","","基準にあった掲示物であれば、2週間以内で区民の方々等にご利用いただける掲示板です。","","477700","139.669890444835","35.683067710359","区民のひろば一覧"
"【区民のひろば】弥生町4-35（南Ｂ－１６）","","弥生町4-35","","","","","","","基準にあった掲示物であれば、2週間以内で区民の方々等にご利用いただける掲示板です。","","477700","139.669983024656","35.6888559526827","区民のひろば一覧"
"【区民のひろば】弥生町2-47（南Ｂ－１２）","","弥生町2-47","","","","","","","基準にあった掲示物であれば、2週間以内で区民の方々等にご利用いただける掲示板です。","","477700","139.670015108746","35.6899880429755","区民のひろば一覧"
"【区民のひろば】江古田3-1(江Ｂ－１６)","","江古田3-1","","","","","","","基準にあった掲示物であれば、2週間以内で区民の方々等にご利用いただける掲示板です。","","477700","139.670035992577","35.7263183682458","区民のひろば一覧"
"【区民のひろば】本町4-44-21(鍋Ｂ－０４)","","本町4-44-21","","","","","","","基準にあった掲示物であれば、2週間以内で区民の方々等にご利用いただける掲示板です。※アクリル引戸設置済","","477700","139.670366525891","35.6970872216785","区民のひろば一覧"
"【区民のひろば】中野2-4-15(桃Ｂ－０８)","","中野2-4-15","","","","","","","基準にあった掲示物であれば、2週間以内で区民の方々等にご利用いただける掲示板です。※アクリル引戸設置済","","477700","139.670454811528","35.7040731948677","区民のひろば一覧"
"【区民のひろば】松が丘1-1-6(江Ｂ－０１)","","松が丘1-1-6","","","","","","","基準にあった掲示物であれば、2週間以内で区民の方々等にご利用いただける掲示板です。","","477700","139.670671580762","35.7167914203081","区民のひろば一覧"
"【区民のひろば】南台2-33（南Ｂ－０４）","","南台2-33","","","","","","","基準にあった掲示物であれば、2週間以内で区民の方々等にご利用いただける掲示板です。","","477700","139.670779112134","35.6835595902483","区民のひろば一覧"
"【区民のひろば】松が丘2-35(江Ｂ－１８)","","松が丘2-35","","","","","","","基準にあった掲示物であれば、2週間以内で区民の方々等にご利用いただける掲示板です。","","477700","139.671140537475","35.7235000506094","区民のひろば一覧"
"【区民のひろば】松が丘1-32-15(江Ｂ－０２)","","松が丘1-32-15","","","","","","","基準にあった掲示物であれば、2週間以内で区民の方々等にご利用いただける掲示板です。","","477700","139.671398001759","35.7207210060272","区民のひろば一覧"
"【区民のひろば】弥生町4-20（南Ｂ－１５）","","弥生町4-20","","","","","","","基準にあった掲示物であれば、2週間以内で区民の方々等にご利用いただける掲示板です。","","477700","139.671512016317","35.6869032634758","区民のひろば一覧"
"【区民のひろば】中野5-5(昭Ｂ－０１)","","中野5-5","","","","","","","基準にあった掲示物であれば、2週間以内で区民の方々等にご利用いただける掲示板です。","","477700","139.671486110844","35.7090589476704","区民のひろば一覧"
"【区民のひろば】本町5-14(鍋Ｂ－０６)","","本町5-14","","","","","","","基準にあった掲示物であれば、2週間以内で区民の方々等にご利用いただける掲示板です。","","477700","139.671639167194","35.6929561680795","区民のひろば一覧"
"【区民のひろば】中野5-8-1(昭Ｂ－０２)","","中野5-8-1","","","","","","","基準にあった掲示物であれば、2週間以内で区民の方々等にご利用いただける掲示板です。","","477700","139.671833491974","35.707090039281","区民のひろば一覧"
"【区民のひろば】江原町1-23(江Ｂ－１９)","","江原町1-23　　","","","","","","","基準にあった掲示物であれば、2週間以内で区民の方々等にご利用いただける掲示板です。","","477700","139.672028202538","35.7269613325306","区民のひろば一覧"
"【区民のひろば】南台2-2-6（南Ｂ－２２）","","南台2-2-6","","","","","","","基準にあった掲示物であれば、１週間以内で区民の方々等にご利用いただける掲示板です。","","477700","139.672392301087","35.6828923212023","区民のひろば一覧"
"【区民のひろば】江原町1-27(江Ｂ－０７)","","江原町1-27","","","","","","","基準にあった掲示物であれば、2週間以内で区民の方々等にご利用いただける掲示板です。※アクリル引戸設置済","","477700","139.672347517555","35.7283673729238","区民のひろば一覧"
"【区民のひろば】南台1-15（南Ｂ－０２）","","南台1-15","","","","","","","基準にあった掲示物であれば、2週間以内で区民の方々等にご利用いただける掲示板です。","","477700","139.67257891099","35.6863614281174","区民のひろば一覧"
"【区民のひろば】中野1-59-5(東Ｂ－１４)","","中野1-59-5","","","","","","","基準にあった掲示物であれば、2週間以内で区民の方々等にご利用いただける掲示板です。","","477700","139.672782306645","35.7046492654338","区民のひろば一覧"
"【区民のひろば】弥生町3-28-3（南Ｂ－１４）","","弥生町3-28-3","","","","","","","基準にあった掲示物であれば、2週間以内で区民の方々等にご利用いただける掲示板です。","","477700","139.672938323903","35.6881137231953","区民のひろば一覧"
"【区民のひろば】江古田1-24-17(江Ｂ－１３)","","江古田1-24-17","","","","","","","基準にあった掲示物であれば、2週間以内で区民の方々等にご利用いただける掲示板です。","","477700","139.672990644612","35.726800791853","区民のひろば一覧"
"【区民のひろば】上高田1-37-6(昭Ｂ－１０)","","上高田1-37-6","","","","","","","基準にあった掲示物であれば、2週間以内で区民の方々等にご利用いただける掲示板です。","","477700","139.673142353166","35.7092473866733","区民のひろば一覧"
"【区民のひろば】上高田3-28-5(高Ｂ－０４)","","上高田3-28-5","","","","","","","基準にあった掲示物であれば、2週間以内で区民の方々等にご利用いただける掲示板です。","","477700","139.673469321925","35.7131479226311","区民のひろば一覧"
"【区民のひろば】本町4-8-16(鍋Ｂ－０１)","","本町4-8-16","","","","","","","基準にあった掲示物であれば、2週間以内で区民の方々等にご利用いただける掲示板です。","","477700","139.673559048989","35.6956125597646","区民のひろば一覧"
"【区民のひろば】中央3-19-1(桃Ｂ－０２)","","中央3-19-1","","","","","","","基準にあった掲示物であれば、2週間以内で区民の方々等にご利用いただける掲示板です。","","477700","139.673641551048","35.7001318585858","区民のひろば一覧"
"【区民のひろば】上高田1-44-6(高Ｂ－０１)","","上高田1-44-6","","","","","","","基準にあった掲示物であれば、週間以内で区民の方々等にご利用いただける掲示板です。","","477700","139.673786747271","35.7116383092608","区民のひろば一覧"
"【区民のひろば】中央3-24-7(東Ｂ－１１)","","中央3-24-7","","","","","","","基準にあった掲示物であれば、2週間以内で区民の方々等にご利用いただける掲示板です。","","477700","139.673844755771","35.6984934331652","区民のひろば一覧"
"【区民のひろば】中央3-17-7(桃Ｂ－０１)","","中央3-17-7","","","","","","","基準にあった掲示物であれば、2週間以内で区民の方々等にご利用いただける掲示板です。","","477700","139.674033147021","35.7008361067018","区民のひろば一覧"
"【区民のひろば】中野1-60(東Ｂ－１５)","","中野1-60","","","","","","","基準にあった掲示物であれば、2週間以内で区民の方々等にご利用いただける掲示板です。","","477700","139.674044496395","35.7047710283391","区民のひろば一覧"
"【区民のひろば】江原町1-15(江Ｂ－０６)","","江原町1-15","","","","","","","基準にあった掲示物であれば、2週間以内で区民の方々等にご利用いただける掲示板です。","","477700","139.674017356411","35.7294479168663","区民のひろば一覧"
"【区民のひろば】江古田1-4-11(江Ｂ－１２Ｙ)","","江古田1-4-11","","","","","","","基準にあった掲示物であれば、2週間以内で区民の方々等にご利用いただける掲示板です。","","477700","139.674802105061","35.7251638213325","区民のひろば一覧"
"【区民のひろば】上高田5-35(高Ｂ－１１)","","上高田5-35","","","","","","","基準にあった掲示物であれば、2週間以内で区民の方々等にご利用いただける掲示板です。","","477700","139.675042246098","35.716692454851","区民のひろば一覧"
"【区民のひろば】中野6-16-20(昭Ｂ－０５)","","中野6-16-20","","","","","","","基準にあった掲示物であれば、2週間以内で区民の方々等にご利用いただける掲示板です。※アクリル引戸設置済","","477700","139.675150513273","35.7073207883483","区民のひろば一覧"
"【区民のひろば】江原町1-2-4(江Ｂ－０５)","","江原町1-2-4","","","","","","","基準にあった掲示物であれば、2週間以内で区民の方々等にご利用いただける掲示板です。","","477700","139.67547948749","35.7273324991169","区民のひろば一覧"
"【区民のひろば】松が丘1-34(江Ｂ－０３)","","松が丘1-34","","","","","","","基準にあった掲示物であれば、2週間以内で区民の方々等にご利用いただける掲示板です。","","477700","139.675549653262","35.7227865264981","区民のひろば一覧"
"【区民のひろば】南台1-7-9（南Ｂ－０１）","","南台1-7-9","","","","","","","基準にあった掲示物であれば、2週間以内で区民の方々等にご利用いただける掲示板です。","","477700","139.675758136825","35.6862391850989","区民のひろば一覧"
"【区民のひろば】上高田1-41-16(高Ｂ－０３)","","上高田1-41-16","","","","","","","基準にあった掲示物であれば、2週間以内で区民の方々等にご利用いただける掲示板です。","","477700","139.675913305638","35.711041972188","区民のひろば一覧"
"【区民のひろばk】江原町3-5-23(江Ｂ－１１)","","江原町3-5-23","","","","","","","基準にあった掲示物であれば、2週間以内で区民の方々等にご利用いただける掲示板です。","","477700","139.675942669663","35.7305797688422","区民のひろば一覧"
"【区民のひろば】中野1-26-1(東Ｂ－１３)","","中野1-26-1","","","","","","","基準にあった掲示物であれば、2週間以内で区民の方々等にご利用いただける掲示板です。","","477700","139.676395630301","35.7023300555569","区民のひろば一覧"
"【区民のひろば】弥生町2-6-2（弥Ｂ－０５）","","弥生町2-6-2","","","","","","","基準にあった掲示物であれば、2週間以内で区民の方々等にご利用いただける掲示板です。","","477700","139.676484687512","35.6919462764404","区民のひろば一覧"
"【区民のひろば】本町3-7（弥Ｂ－１０）","","本町3-7","","","","","","","基準にあった掲示物であれば、2週間以内で区民の方々等にご利用いただける掲示板です。","","477700","139.676826501804","35.6943635201246","区民のひろば一覧"
"【区民のひろば】中央2-46-9(東Ｂ－０９)","","中央2-46-9","","","","","","","基準にあった掲示物であれば、2週間以内で区民の方々等にご利用いただける掲示板です。","","477700","139.677148405247","35.6990088508782","区民のひろば一覧"
"【区民のひろば】本町3-16（弥Ｂ－１１）","","本町3-16","","","","","","","基準にあった掲示物であれば、2週間以内で区民の方々等にご利用いただける掲示板です。","","477700","139.677834203593","35.6954443581956","区民のひろば一覧"
"【区民のひろば】上高田1-17-5(旧８－　１)","","上高田1-17-5","","","","","","","基準にあった掲示物であれば、2週間以内で区民の方々等にご利用いただける掲示板です。※アクリル引戸設置済","","477700","139.677915769571","35.7106437070091","区民のひろば一覧"
"【区民のひろば】弥生町1-31-4（弥Ｂ－０３）","","弥生町1-31-4","","","","","","","基準にあった掲示物であれば、2週間以内で区民の方々等にご利用いただける掲示板です。","","477700","139.678395091056","35.689737672625","区民のひろば一覧"
"【区民のひろば】上高田5-7(高Ｂ－１０)","","上高田5-7","","","","","","","基準にあった掲示物であれば、2週間以内で区民の方々等にご利用いただける掲示板です。","","477700","139.678606976284","35.7164863342547","区民のひろば一覧"
"【区民のひろば】弥生町1-58（弥Ｂ－０４）","","弥生町1-58","","","","","","","基準にあった掲示物であれば、2週間以内で区民の方々等にご利用いただける掲示板です。※アクリル引戸設置済","","477700","139.678680458889","35.6922665250772","区民のひろば一覧"
"【区民のひろば】中野1-3(東Ｂ－１２)","","中野1-3","","","","","","","基準にあった掲示物であれば、2週間以内で区民の方々等にご利用いただける掲示板です。","","477700","139.679078973692","35.7022637385664","区民のひろば一覧"
"【区民のひろば】上高田4-18-86(高Ｂ－０７)","","上高田4-18-86","","","","","","","基準にあった掲示物であれば、2週間以内で区民の方々等にご利用いただける掲示板です。","","477700","139.679819395837","35.7136106438785","区民のひろば一覧"
"【区民のひろば】弥生町1-25（弥Ｂ－０２）","","弥生町1-25","","","","","","","基準にあった掲示物であれば、2週間以内で区民の方々等にご利用いただける掲示板です。","","477700","139.680153956114","35.6917379254862","区民のひろば一覧"
"【区民のひろば】中央2-22(東Ｂ－０８)","","中央2-22","","","","","","","基準にあった掲示物であれば、2週間以内で区民の方々等にご利用いただける掲示板です。","","477700","139.680904168915","35.7009243337195","区民のひろば一覧"
"【区民のひろば】本町2-32（弥Ｂ－０９）","","本町2-32","","","","","","","基準にあった掲示物であれば、2週間以内で区民の方々等にご利用いただける掲示板です。","","477700","139.681036722312","35.6947350467205","区民のひろば一覧"
"【区民のひろば】東中野2-8(東Ｂ－１９)","","東中野2-8","","","","","","","基準にあった掲示物であれば、2週間以内で区民の方々等にご利用いただける掲示板です。","","477700","139.681053676051","35.7032390480021","区民のひろば一覧"
"【区民のひろば】昭Ｂ－０８","","上高田1-1-10","","","","","","","基準にあった掲示物であれば、１週間以内で区民の方々等にご利用いただける掲示板です。","","477700","139.681123297389","35.7094548969824","区民のひろば一覧"
"【区民のひろば】本町2-46（東Ｂ－０１）","","本町2-46","","","","","","","基準にあった掲示物であれば、2週間以内で区民の方々等にご利用いただける掲示板です。※アクリル引戸設置済","","477700","139.681953551243","35.6969440653784","区民のひろば一覧"
"【区民のひろば】中央2-8-24(東Ｂ－０７)","","中央2-8-24","","","","","","","基準にあった掲示物であれば、2週間以内で区民の方々等にご利用いただける掲示板です。","","477700","139.682621230272","35.6981410746853","区民のひろば一覧"
"【区民のひろば】中央1-49（東Ｂ－０６）","","中央1-49","","","","","","","基準にあった掲示物であれば、2週間以内で区民の方々等にご利用いただける掲示板です。","","477700","139.683218220681","35.7004634334396","区民のひろば一覧"
"【区民のひろば】東中野1-11-1(東Ｂ－１７)","","東中野1-11-1","","","","","","","基準にあった掲示物であれば、2週間以内で区民の方々等にご利用いただける掲示板です。","","477700","139.683320040311","35.7029907689547","区民のひろば一覧"
"【区民のひろば】東中野3-14-10(昭Ｂ－１１)","","東中野3-14-10","","","","","","","基準にあった掲示物であれば、2週間以内で区民の方々等にご利用いただける掲示板です。","","477700","139.683553672029","35.7096599845284","区民のひろば一覧"
"【区民のひろば】中央1-41（東Ｂ－０５）","","中央1-41","","","","","","","基準にあった掲示物であれば、２週間以内で区民の方々等にご利用いただける掲示板です。","","477700","139.684380575664","35.6989134665245","区民のひろば一覧"
"【区民のひろば】東中野1-5(東Ｂ－１６)","","東中野1-5","","","","","","","基準にあった掲示物であれば、2週間以内で区民の方々等にご利用いただける掲示板です。","","477700","139.685254316345","35.7015721026295","区民のひろば一覧"
"【区民のひろば】東中野1-36-4(東Ｂ－１８)","","東中野1-36-4","","","","","","","基準にあった掲示物であれば、１週間以内で区民の方々等にご利用いただける掲示板です。","","477700","139.685638803786","35.7041036153408","区民のひろば一覧"
"【区民のひろば】東中野5-3-11(中Ｂ－０２)","","東中野5-3-11","","","","","","","基準にあった掲示物であれば、2週間以内で区民の方々等にご利用いただける掲示板です。※アクリル引戸設置済","","477700","139.686277957893","35.7064769122182","区民のひろば一覧"
"【区民のひろば】中央1-21-2（東Ｂ－０３）","","中央1-21-2","","","","","","","基準にあった掲示物であれば、２週間以内で区民の方々等にご利用いただける掲示板です。","","477700","139.686482186667","35.6977411777581","区民のひろば一覧"
"【区民のひろば】東中野4-28(中Ｂ－０１)","","東中野4-28","","","","","","","基準にあった掲示物であれば、2週間以内で区民の方々等にご利用いただける掲示板です。※アクリル引戸設置済","","477700","139.68697746824","35.710833097435","区民のひろば一覧"
"【区民のひろば】中央1-12(東Ｂ－２１)","","中央1-12","","","","","","","基準にあった掲示物であれば、2週間以内で区民の方々等にご利用いただける掲示板です。","","477700","139.687483226578","35.7014496486699","区民のひろば一覧"
"【区民のひろば】中央1-18(東Ｂ－２０)","","中央1-18","","","","","","","基準にあった掲示物であれば、2週間以内で区民の方々等にご利用いただける掲示板です。","","477700","139.687515476204","35.7001964729832","区民のひろば一覧"
"【区民のひろば】東中野5-27-8(中Ｂ－０３)","","東中野5-27-8","","","","","","","基準にあった掲示物であれば、2週間以内で区民の方々等にご利用いただける掲示板です。","","477700","139.690303492862","35.7103175083092","区民のひろば一覧"
