{"keyword":"連絡","data":[{"name":"国分寺市地域包括支援センター","province":"東京都","city":"国分寺市","address":"国分寺市泉町2-3-8","lat":35.696209,"lon":139.468216},{"name":"国分寺地域包括支援センターもとまち","province":"東京都","city":"国分寺市","address":"国分寺市東元町2-5-17さわやかプラザもとまち1階","lat":35.691803,"lon":139.480972},{"name":"国分寺地域包括支援センターこいがくぼ","province":"東京都","city":"国分寺市","address":"国分寺市西恋ヶ窪1-50-1にんじんホーム1階","lat":35.705936,"lon":139.467926},{"name":"国分寺地域包括支援センターほんだ","province":"東京都","city":"国分寺市","address":"国分寺市本多2-3-3商工会館3階","lat":35.70401,"lon":139.480164},{"name":"国分寺地域包括支援センターひかり","province":"東京都","city":"国分寺市","address":"国分寺市光町3-13-34国分寺ひかり診療所3階","lat":35.708466,"lon":139.444092},{"name":"国分寺地域包括支援センターひよし","province":"東京都","city":"国分寺市","address":"国分寺市日吉町4-32-6うれしのの里1階","lat":35.706627,"lon":139.458771},{"name":"国分寺地域包括支援センターなみき","province":"東京都","city":"国分寺市","address":"国分寺市並木町3-12-2至誠ホームミンナ1階","lat":35.71442,"lon":139.447311},{"name":"国立市地域包括支援センター","province":"東京都","city":"国立市","address":"国立市富士見台2-47-1","lat":35.684376,"lon":139.441513},{"name":"地域包括支援センター北窓口","province":"東京都","city":"国立市","address":"国立市北3-2-15号棟1階","lat":35.700085,"lon":139.432373},{"name":"地域包括支援センター福祉会館窓口","province":"東京都","city":"国立市","address":"国立市富士見台2-38-5","lat":35.687355,"lon":139.444839},{"name":"地域包括支援センター泉窓口","province":"東京都","city":"国立市","address":"国立市泉3-1-6","lat":35.680405,"lon":139.42598},{"name":"国立市消費生活センター","province":"東京都","city":"国立市","address":"国立市富士見台2-47-1","lat":35.684376,"lon":139.441513},{"name":"福生市地域包括支援センター福生","province":"東京都","city":"福生市","address":"福生市本町5番地","lat":35.738701,"lon":139.326782},{"name":"福生市地域包括支援センター熊川","province":"東京都","city":"福生市","address":"福生市南田園2-13-1","lat":35.727993,"lon":139.332336},{"name":"在宅介護支援センター武蔵野","province":"東京都","city":"福生市","address":"福生市福生2300-4","lat":35.740284,"lon":139.337677},{"name":"在宅介護支援センター加美","province":"東京都","city":"福生市","address":"福生市福生3244-10","lat":35.74612,"lon":139.317993},{"name":"在宅介護支援センター南田園","province":"東京都","city":"福生市","address":"福生市南田園2-9-1-103","lat":35.720776,"lon":139.330933},{"name":"福生市消費者相談室","province":"東京都","city":"福生市","address":"福生市本町18","lat":35.739086,"lon":139.327423},{"name":"福祉保健部福祉相談課","province":"東京都","city":"狛江市","address":"狛江市和泉本町1-1-5","lat":35.634491,"lon":139.577927},{"name":"あいとぴあ地域包括支援センター","province":"東京都","city":"狛江市","address":"狛江市元和泉2-35-1","lat":35.6334,"lon":139.567413},{"name":"地域包括支援センターこまえ正吉苑","province":"東京都","city":"狛江市","address":"狛江市西野川2-27-23","lat":35.645802,"lon":139.573868},{"name":"地域包括支援センターこまえ苑","province":"東京都","city":"狛江市","address":"狛江市岩戸南4-17-17","lat":35.626041,"lon":139.592285},{"name":"小金井きた地域包括支援センター","province":"東京都","city":"小金井市","address":"小金井市桜町1-9-5","lat":35.710579,"lon":139.511826},{"name":"小金井みなみ地域包括支援センター","province":"東京都","city":"小金井市","address":"小金井市前原町5-3-24","lat":35.687584,"lon":139.498169},{"name":"小金井ひがし地域包括支援センター","province":"東京都","city":"小金井市","address":"小金井市中町2-15-25","lat":35.697681,"lon":139.517044},{"name":"小金井にし地域包括支援センター","province":"東京都","city":"小金井市","address":"小金井市貫井北町2-5-5","lat":35.705441,"lon":139.496567},{"name":"小金井市消費生活相談室","province":"東京都","city":"小金井市","address":"小金井市本町6-6-3","lat":35.699074,"lon":139.503128},{"name":"小金井市介護福祉課包括支援係","province":"東京都","city":"小金井市","address":"小金井市本町6-6-3","lat":35.699074,"lon":139.503128},{"name":"小平市高齢者支援課地域支援担当","province":"東京都","city":"小平市","address":"小平市小川町2-1333","lat":35.729321,"lon":139.476929},{"name":"小平市地域包括支援センター中央センター","province":"東京都","city":"小平市","address":"小平市小川町2-1333","lat":35.729321,"lon":139.476929},{"name":"小平市地域包括支援センターけやきの郷","province":"東京都","city":"小平市","address":"小平市小川町1-485","lat":35.728409,"lon":139.440674},{"name":"小平市地域包括支援センターけやきの郷 たかの台出張所","province":"東京都","city":"小平市","address":"小平市津田町1-7-10","lat":35.725746,"lon":139.46315},{"name":"小平市地域包括支援センター小川ホーム","province":"東京都","city":"小平市","address":"小平市小川西町2-35-2","lat":35.737125,"lon":139.460754},{"name":"小平市地域包括支援センター小川ホーム 四小通り出張所","province":"東京都","city":"小平市","address":"小平市津田町3-38-7","lat":35.724014,"lon":139.470901},{"name":"小平市地域包括支援センター多摩済生ケアセンター","province":"東京都","city":"小平市","address":"小平市美園町3-12-1","lat":35.740219,"lon":139.490341},{"name":"小平市地域包括支援センター多摩済生ケアセンター 喜平橋出張所","province":"東京都","city":"小平市","address":"小平市上水南町2-23-20","lat":35.71479,"lon":139.487808},{"name":"小平市地域包括支援センター小平健成苑","province":"東京都","city":"小平市","address":"小平市鈴木町2-230-3","lat":35.724255,"lon":139.504379},{"name":"小平市地域包括支援センター小平健成苑 花小金井出張所","province":"東京都","city":"小平市","address":"小平市花小金井5-37-4","lat":35.731026,"lon":139.509979},{"name":"小平市消費生活センター","province":"東京都","city":"小平市","address":"小平市小川町2-1333","lat":35.729321,"lon":139.476929},{"name":"日野市高齢福祉課","province":"東京都","city":"日野市","address":"日野市神明1-12-1","lat":35.670986,"lon":139.395279},{"name":"日野市地域包括支援センターもぐさ","province":"東京都","city":"日野市","address":"日野市落川1070","lat":35.656994,"lon":139.430054},{"name":"日野市地域包括支援センターあさかわ","province":"東京都","city":"日野市","address":"日野市高幡864-4","lat":35.663918,"lon":139.409134},{"name":"日野市地域包括支援センターすてっぷ","province":"東京都","city":"日野市","address":"日野市豊田3-1-8","lat":35.657356,"lon":139.384079},{"name":"日野市地域包括支援センターあいりん","province":"東京都","city":"日野市","address":"日野市多摩平6-31-7","lat":35.670166,"lon":139.383896},{"name":"日野市地域包括支援センターせせらぎ","province":"東京都","city":"日野市","address":"日野市日野本町6-3-17","lat":35.683159,"lon":139.402542},{"name":"日野市地域包括支援センター多摩川苑","province":"東京都","city":"日野市","address":"日野市万願寺1-16-1","lat":35.675983,"lon":139.420212},{"name":"日野市地域包括支援センターいきいきタウン","province":"東京都","city":"日野市","address":"日野市東平山3-1-1","lat":35.654514,"lon":139.378799},{"name":"日野市地域包括支援センターすずらん","province":"東京都","city":"日野市","address":"日野市南平7-19-13","lat":35.654911,"lon":139.392914},{"name":"日野市地域包括支援センターかわきた","province":"東京都","city":"日野市","address":"日野市西平山1-12-1","lat":35.648754,"lon":139.374802},{"name":"日野市消費生活センター","province":"東京都","city":"日野市","address":"日野市日野本町1-6-2","lat":35.675922,"lon":139.400253},{"name":"中部地域包括支援センター","province":"東京都","city":"東村山市","address":"東村山市野口町1-25-15東村山市社会福祉協議会内","lat":35.758617,"lon":139.464005},{"name":"北部地域包括支援センター","province":"東京都","city":"東村山市","address":"東村山市諏訪町2-26-1東京ばんなん白光園","lat":35.771687,"lon":139.463852},{"name":"東部地域包括支援センター","province":"東京都","city":"東村山市","address":"東村山市秋津町1-32-18はるびの郷内","lat":35.773125,"lon":139.497025},{"name":"西部地域包括支援センター","province":"東京都","city":"東村山市","address":"東村山市富士見町2-1-2万寿園内","lat":35.744675,"lon":139.453461},{"name":"南部地域包括支援センター","province":"東京都","city":"東村山市","address":"東村山市萩山町3-31-2グリーン・ボイス内","lat":35.743809,"lon":139.46904},{"name":"東村山市消費生活センター","province":"東京都","city":"東村山市","address":"東村山市本町1-2-3東村山市役所市民部市民相談・交流課内","lat":35.75449,"lon":139.468414},{"name":"新島村役場","province":"東京都","city":"新島村","address":"新島村本村1-1-1","lat":34.376541,"lon":139.256912},{"name":"新島村社会福祉協議会","province":"東京都","city":"新島村","address":"新島村本村1-8-2","lat":34.376907,"lon":139.255188},{"name":"新島村地域包括支援センター","province":"東京都","city":"新島村","address":"新島村字瀬戸山116-2","lat":36.162987,"lon":139.358887},{"name":"小笠原村地域包括支援センター","province":"東京都","city":"小笠原村","address":"小笠原村父島字西町","lat":27.071243,"lon":142.20961},{"name":"小笠原村村民課福祉係","province":"東京都","city":"小笠原村","address":"小笠原村父島字西町","lat":27.071243,"lon":142.20961},{"name":"奥多摩町地域包括支援センター","province":"東京都","city":"西多摩郡奥多摩町","address":"西多摩郡奥多摩町氷川1111奥多摩町保健福祉センター","lat":35.823605,"lon":139.093445},{"name":"奥多摩町福祉保管課","province":"東京都","city":"西多摩郡奥多摩町","address":"西多摩郡奥多摩町氷川1111奥多摩町保健福祉センター","lat":35.823605,"lon":139.093445},{"name":"大島町地域包括支援センター","province":"東京都","city":"大島町","address":"大島町元町字地の岡45番1","lat":34.770538,"lon":139.366913},{"name":"大島町役場住民課介護保険係","province":"東京都","city":"大島町","address":"大島町元町1-1-14","lat":34.750118,"lon":139.355286},{"name":"大島社会福祉協議会","province":"東京都","city":"大島町","address":"大島町元町2-1-4","lat":34.749512,"lon":139.355728},{"name":"大島警察署","province":"東京都","city":"大島町","address":"大島町元町1-15-6","lat":34.753006,"lon":139.354507},{"name":"大島町役場観光産業課水産商工係","province":"東京都","city":"大島町","address":"大島町元町1-1-14","lat":34.750118,"lon":139.355286},{"name":"御蔵島村地域包括支援センター","province":"東京都","city":"御蔵島村","address":"御蔵島村字入かねが沢","lat":33.897289,"lon":139.595901},{"name":"八丈町地域包括支援センター","province":"","city":"","address":"八丈島八丈町大賀郷7670-1","lat":33.110153,"lon":139.771774},{"name":"神津島村役場福祉課","province":"東京都","city":"神津島村","address":"神津島村904","lat":34.205669,"lon":139.134155},{"name":"神津島村地域包括支援センター","province":"東京都","city":"神津島村","address":"神津島村字沢尻11-1","lat":34.21703,"lon":139.135941},{"name":"三宅村役場福祉健康課福祉係","province":"東京都","city":"三宅村","address":"三宅村阿古497","lat":34.076126,"lon":139.479889},{"name":"三宅村地域包括支援センター","province":"東京都","city":"三宅村","address":"三宅村阿古807-1","lat":34.064751,"lon":139.496506},{"name":"三宅島社会福祉協議会","province":"東京都","city":"三宅村","address":"三宅村坪田3053","lat":34.070274,"lon":139.545288},{"name":"三宅村役場観光産業課観光商工係","province":"東京都","city":"三宅村","address":"三宅村阿古497","lat":34.076126,"lon":139.479889},{"name":"稲城市役所","province":"東京都","city":"稲城市","address":"稲城市東長沼2111","lat":35.634766,"lon":139.504257},{"name":"地域包括支援センターひらお","province":"東京都","city":"稲城市","address":"稲城市平尾2-49-20","lat":35.608284,"lon":139.493622},{"name":"地域包括支援センターやのくち","province":"東京都","city":"稲城市","address":"稲城市矢野口1804-3","lat":35.637142,"lon":139.519409},{"name":"地域包括支援センターエレガントもむら","province":"東京都","city":"稲城市","address":"稲城市百村255","lat":35.635826,"lon":139.492508},{"name":"地域包括支援センターこうようだい","province":"東京都","city":"稲城市","address":"稲城市向陽台3-4-4","lat":35.638111,"lon":139.486679},{"name":"稲城市消費生活センター","province":"東京都","city":"稲城市","address":"稲城市百村2111パルシステム生活協同組合連合会稲城事務センター3階","lat":35.637047,"lon":139.491272},{"name":"西部地域包括支援センター","province":"東京都","city":"多摩市","address":"多摩市和田1532","lat":35.646027,"lon":139.430664},{"name":"東部地域包括支援センター","province":"東京都","city":"多摩市","address":"多摩市諏訪5-1諏訪複合教育施設内","lat":35.623512,"lon":139.45459},{"name":"多摩センター地域包括支援センター","province":"東京都","city":"多摩市","address":"多摩市山王下1-18-2","lat":35.625328,"lon":139.415207},{"name":"中部地域包括支援センター","province":"東京都","city":"多摩市","address":"多摩市永山4-2-5-105","lat":35.618931,"lon":139.444321},{"name":"北部地域包括支援センター","province":"東京都","city":"多摩市","address":"多摩市関戸4-19-5多摩市立健康センター3階","lat":35.648975,"lon":139.449585},{"name":"基幹型地域包括支援センター（多摩市健康福祉部高齢支援課内）","province":"東京都","city":"多摩市","address":"多摩市関戸6-12-1","lat":35.637653,"lon":139.447174},{"name":"多摩市消費生活センター","province":"東京都","city":"多摩市","address":"多摩市永山1-5ベルブ永山3階","lat":35.649658,"lon":139.444519},{"name":"利島村役場住民課","province":"","city":"","address":"利島村248","lat":34.52943,"lon":139.282074},{"name":"利島村地域包括支援センター","province":"","city":"","address":"利島村105","lat":34.52943,"lon":139.282074},{"name":"西部地域包括支援センター","province":"東京都","city":"武蔵村山市","address":"武蔵村山市伊奈平6-14-2特別養護老人ホーム伊奈平苑内","lat":35.744324,"lon":139.373657},{"name":"北部地域包括支援センター","province":"東京都","city":"武蔵村山市","address":"武蔵村山市中央2-13-1","lat":35.754345,"lon":139.394852},{"name":"南部地域包括支援センター","province":"東京都","city":"武蔵村山市","address":"武蔵村山市学園4-5-1市民総合センター内","lat":35.746132,"lon":139.403259},{"name":"緑が丘地域包括支援センター","province":"東京都","city":"武蔵村山市","address":"武蔵村山市緑が丘14601103号棟緑が丘高齢者サービスセンター内","lat":35.742924,"lon":139.407913},{"name":"村山団地高齢者みまもり相談室","province":"東京都","city":"武蔵村山市","address":"武蔵村山市緑が丘146045号棟","lat":35.740459,"lon":139.404831},{"name":"武蔵村山市役所健康福祉部高齢福祉課","province":"東京都","city":"武蔵村山市","address":"武蔵村山市学園4-5-1市民総合センター内","lat":35.746132,"lon":139.403259},{"name":"武蔵村山市役所健康福祉部地域福祉課","province":"東京都","city":"武蔵村山市","address":"武蔵村山市本町1-1-1","lat":35.754745,"lon":139.38736},{"name":"武蔵村山市役所総務部福祉総務課","province":"東京都","city":"武蔵村山市","address":"武蔵村山市本町1-1-1","lat":35.754745,"lon":139.38736},{"name":"武蔵村山市消費生活センター","province":"東京都","city":"武蔵村山市","address":"武蔵村山市本町1-1-1","lat":35.754745,"lon":139.38736},{"name":"武蔵村山市役所協働推進部協働推進課","province":"東京都","city":"武蔵村山市","address":"武蔵村山市本町1-1-1","lat":35.754745,"lon":139.38736},{"name":"檜原村地域包括支援センター","province":"東京都","city":"西多摩郡檜原村","address":"西多摩郡檜原村2717","lat":35.726822,"lon":139.14888},{"name":"檜原村福祉けんこう課福祉係","province":"東京都","city":"西多摩郡檜原村","address":"西多摩郡檜原村2717","lat":35.726822,"lon":139.14888},{"name":"やすらぎの里","province":"東京都","city":"西多摩郡檜原村","address":"西多摩郡檜原村2717","lat":35.726822,"lon":139.14888},{"name":"日の出町在宅支援センター(日の出町包括支援センター)","province":"東京都","city":"西多摩郡日の出町","address":"西多摩郡日の出町大字大久野88-1","lat":35.742645,"lon":139.251236},{"name":"いきいき健康課高齢支援係","province":"東京都","city":"西多摩郡日の出町","address":"西多摩郡日の出町大字平井2780番地","lat":35.742443,"lon":139.256607},{"name":"堺第1高齢者支援センター","province":"東京都","city":"町田市","address":"町田市相原町2373-1(老人保健施設サンシルバー町田内)","lat":35.612473,"lon":139.312881},{"name":"堺第2高齢者支援センター","province":"東京都","city":"町田市","address":"町田市小山ヶ丘1-2-(特別養護老人ホーム美郷内)","lat":35.595638,"lon":139.386398},{"name":"忠生第1高齢者支援センター","province":"東京都","city":"町田市","address":"町田市下小山田町3580ふれあい桜館1階","lat":35.587135,"lon":139.408478},{"name":"忠生第2高齢者支援センター","province":"東京都","city":"町田市","address":"町田市山崎町2200(福音会木曽山崎事業所内)","lat":35.572918,"lon":139.43161},{"name":"鶴川第1高齢者支援センター","province":"東京都","city":"町田市","address":"町田市薬師台3-270-1(特別養護老人ホーム第二清風園内)","lat":35.583256,"lon":139.49028},{"name":"鶴川第2高齢者支援センター","province":"東京都","city":"町田市","address":"町田市能ヶ谷3-2-1鶴川地域コミュニティ1階","lat":33.443153,"lon":129.96727},{"name":"町田第1高齢者支援センター","province":"東京都","city":"町田市","address":"町田市森野4-8-39(特別養護老人ホームコモンズ内)","lat":35.554134,"lon":139.433395},{"name":"町田第2高齢者支援センター","province":"東京都","city":"町田市","address":"町田市本町田2102-1(本町田高齢者在宅サービスセンター内)","lat":35.559875,"lon":139.437897},{"name":"町田第3高齢者支援センター","province":"東京都","city":"町田市","address":"町田市玉川学園3-35-1(玉川学園高齢者在宅サービスセンター内)","lat":35.56337,"lon":139.458298},{"name":"南第1高齢者支援センター","province":"東京都","city":"町田市","address":"町田市南町田5-16-1(特別養護老人ホーム芙蓉園内)","lat":35.514652,"lon":139.47113},{"name":"南第2高齢者支援センター","province":"東京都","city":"町田市","address":"町田市金森東3-18-16(特別養護老人ホーム合掌苑桂寮内)","lat":35.531769,"lon":139.466049},{"name":"南第3高齢者支援センター","province":"東京都","city":"町田市","address":"町田市西成瀬2-48-23","lat":35.543419,"lon":139.471664},{"name":"相原あんしん相談室","province":"東京都","city":"町田市","address":"町田市相原町1158-26","lat":35.607006,"lon":139.331741},{"name":"小山あんしん相談室","province":"東京都","city":"町田市","address":"町田市小山町2619","lat":35.598221,"lon":139.36644},{"name":"忠生あんしん相談室","province":"東京都","city":"町田市","address":"町田市忠生3-1-34もりやハイツ2101号室","lat":35.571674,"lon":139.421463},{"name":"木曽山崎あんしん相談室","province":"東京都","city":"町田市","address":"町田市山崎町2200","lat":35.572918,"lon":139.43161},{"name":"野津田あんしん相談室","province":"東京都","city":"町田市","address":"町田市野津田町831-1","lat":35.588425,"lon":139.450272},{"name":"鶴川あんしん相談室","province":"東京都","city":"町田市","address":"町田市鶴川6-7-2-103号室","lat":35.587303,"lon":139.473465},{"name":"原町田あんしん相談室","province":"東京都","city":"町田市","address":"町田市原町田4-24-6せりがや会館1階","lat":35.544724,"lon":139.453049},{"name":"本町田あんしん相談室","province":"東京都","city":"町田市","address":"町田市本町田3486藤の第団地1-50-109","lat":35.569607,"lon":139.44574},{"name":"南大谷あんしん相談室","province":"東京都","city":"町田市","address":"町田市南大谷205-1-2","lat":35.554821,"lon":139.456757},{"name":"小川あんしん相談室","province":"東京都","city":"町田市","address":"町田市小川6-1-11","lat":35.522091,"lon":139.471252},{"name":"金森あんしん相談室","province":"東京都","city":"町田市","address":"町田市金森東4-2-2523号室","lat":35.533897,"lon":139.461243},{"name":"成瀬あんしん相談室","province":"東京都","city":"町田市","address":"町田市西成瀬2-48-23","lat":35.543419,"lon":139.471664},{"name":"医療と介護の連携支援センター","province":"東京都","city":"町田市","address":"町田市木曽西4-12-22KISOコミュニティベース1F","lat":35.566994,"lon":139.413712},{"name":"町田市高齢者福祉課","province":"東京都","city":"町田市","address":"町田市森野2-2-22","lat":35.547039,"lon":139.438141},{"name":"調布市地域包括支援センターはなみずき","province":"東京都","city":"調布市","address":"調布市深大寺北町4-17-7","lat":35.679989,"lon":139.551575},{"name":"調布市地域包括支援センターちょうふの里","province":"東京都","city":"調布市","address":"調布市西町290-5","lat":35.666344,"lon":139.52269},{"name":"調布市地域包括支援センターせいじゅ","province":"東京都","city":"調布市","address":"調布市上石原3-54-2","lat":35.65004,"lon":139.52478},{"name":"調布市地域包括支援センターちょうふ花園","province":"東京都","city":"調布市","address":"調布市下石原3-44-1","lat":35.651432,"lon":139.533188},{"name":"調布市地域包括支援センター調布八雲苑","province":"東京都","city":"調布市","address":"調布市八雲台1-22-11階","lat":35.654781,"lon":139.553162},{"name":"調布市地域包括支援センター至誠しばさき","province":"東京都","city":"調布市","address":"調布市菊野台1-52-4","lat":35.655369,"lon":139.565491},{"name":"調布市地域包括支援センターときわぎ国領","province":"東京都","city":"調布市","address":"調布市国領町7-32-2デュスモン国領101","lat":35.644749,"lon":139.560547},{"name":"調布市地域包括支援センターゆうあい","province":"東京都","city":"調布市","address":"調布市国領町3-8-1","lat":35.650097,"lon":139.560684},{"name":"調布市地域包括支援センターつつじヶ丘","province":"東京都","city":"調布市","address":"調布市東つつじヶ丘1-5-2","lat":35.659683,"lon":139.576248},{"name":"調布市地域包括支援センター仙川","province":"東京都","city":"調布市","address":"調布市若葉町2-22-21階","lat":35.655972,"lon":139.589172},{"name":"調布市消費生活センター","province":"東京都","city":"調布市","address":"調布市小島町2-35-1","lat":35.650593,"lon":139.540894},{"name":"東部地域包括支援センター","province":"東京都","city":"東久留米市","address":"東久留米市大門町2-10-5東部地域センター内","lat":35.765045,"lon":139.54039},{"name":"東部地域包括支援センター本部","province":"東京都","city":"東久留米市","address":"東久留米市氷川台2-6-6社会福祉法人マザアス内","lat":35.767776,"lon":139.532547},{"name":"中部地域包括支援センター","province":"東京都","city":"東久留米市","address":"東久留米市幸町1-19-5幸町1丁目アパート5号棟1階幸町デイサービスセンター内","lat":35.761196,"lon":139.523743},{"name":"中部地域包括支援センター本部","province":"東京都","city":"東久留米市","address":"東久留米市南沢5-18-36特別養護老人ホームシャローム東久留米内","lat":35.743187,"lon":139.52681},{"name":"西部地域包括支援センター","province":"東京都","city":"東久留米市","address":"東久留米市下里4-2-50特別養護老人ホームけんちの里内","lat":35.752701,"lon":139.494797},{"name":"東久留米市在宅介護支援センター","province":"東京都","city":"東久留米市","address":"東久留米市幸町3-11-10介護老人保健施設ケア東久留米内","lat":35.757965,"lon":139.521652},{"name":"東久留米市役所福祉保健部介護福祉課","province":"東京都","city":"東久留米市","address":"東久留米市本町3-3-1","lat":35.758629,"lon":139.529709},{"name":"青梅市地域包括支援センター","province":"東京都","city":"青梅市","address":"青梅市東青梅1-11-1青梅市役所内","lat":35.788086,"lon":139.275269},{"name":"青梅市地域包括支援センターうめぞの","province":"東京都","city":"青梅市","address":"青梅市駒木町3-594-1メディケア梅の園内","lat":35.781685,"lon":139.251923},{"name":"青梅市地域包括支援センターすえひろ","province":"東京都","city":"青梅市","address":"青梅市末広町1-4-5青梅すえひろ苑内","lat":35.778828,"lon":139.312836},{"name":"青梅市消費者相談室","province":"東京都","city":"青梅市","address":"青梅市東青梅1-11-1青梅市役所3階","lat":35.788086,"lon":139.275269},{"name":"安心見守り電話","province":"東京都","city":"三鷹市","address":"三鷹市野崎1-1-1","lat":35.683262,"lon":139.559418},{"name":"三鷹市高齢者支援課高齢者相談係","province":"東京都","city":"三鷹市","address":"三鷹市野崎1-1-1","lat":35.683262,"lon":139.559418},{"name":"三鷹市東部地域包括支援センター","province":"東京都","city":"三鷹市","address":"三鷹市下連雀5-2-5特別養護老人ホーム弘済園1階","lat":35.685867,"lon":139.571869},{"name":"三鷹市井の頭地域包括支援センター","province":"東京都","city":"三鷹市","address":"三鷹市牟礼6-12-30三鷹市牟礼老人保健施設はなかいどう内","lat":35.687645,"lon":139.574585},{"name":"井の頭地域福祉支援センター","province":"東京都","city":"三鷹市","address":"三鷹市井の頭2-32-30井の頭コミュニティ・センター新館内","lat":35.693962,"lon":139.583344},{"name":"三鷹市連雀地域包括支援センター","province":"東京都","city":"三鷹市","address":"三鷹市下連雀8-3-6野村病院内","lat":35.684921,"lon":139.568466},{"name":"三鷹市三鷹駅周辺地域包括支援センター","province":"東京都","city":"三鷹市","address":"三鷹市下連雀4-2-8介護老人保健施設太郎内","lat":35.693394,"lon":139.56485},{"name":"三鷹市西部地域包括支援センター","province":"東京都","city":"三鷹市","address":"三鷹市深大寺2-29-13高齢者センターけやき苑内","lat":35.684795,"lon":139.541},{"name":"三鷹市大沢地域包括支援センター","province":"東京都","city":"三鷹市","address":"三鷹市大沢4-8-8旧どんぐり山施設内","lat":35.670273,"lon":139.540161},{"name":"三鷹市新川中原地域包括支援センター","province":"東京都","city":"三鷹市","address":"三鷹市新川5-6-31特別養護老人ホームみたか紫水園内","lat":35.676071,"lon":139.571152},{"name":"三鷹市消費者活動センター","province":"東京都","city":"三鷹市","address":"三鷹市下連雀3丁目22-7","lat":35.700787,"lon":139.563644},{"name":"介護福祉課","province":"東京都","city":"昭島市","address":"昭島市田中町1-17-1","lat":35.705971,"lon":139.354507},{"name":"東部地域包括支援センター竹口病院","province":"東京都","city":"昭島市","address":"昭島市玉川町2-4-8-103","lat":35.707176,"lon":139.378174},{"name":"西部地域包括支援センター愛全園","province":"東京都","city":"昭島市","address":"昭島市拝島町3-10-4","lat":35.710747,"lon":139.334442},{"name":"中部地域包括支援センターあいぽっく","province":"東京都","city":"昭島市","address":"昭島市昭和町4-7-1保健福祉センター2F","lat":35.711014,"lon":139.363541},{"name":"南部地域包括支援センター愛全園","province":"東京都","city":"昭島市","address":"昭島市田中町2-25-3","lat":35.704052,"lon":139.351166},{"name":"北部地域包括支援センターハピネス昭和の森","province":"東京都","city":"昭島市","address":"昭島市拝島町4036-14","lat":35.695915,"lon":139.339401},{"name":"昭島市消費生活相談室","province":"東京都","city":"昭島市","address":"昭島市田中町1-17-1","lat":35.705971,"lon":139.354507},{"name":"府中市地域包括支援センター泉苑","province":"東京都","city":"府中市","address":"府中市武蔵台1-10","lat":35.687572,"lon":139.464539},{"name":"府中市地域包括支援センターよつや苑","province":"東京都","city":"府中市","address":"府中市四谷3-66","lat":35.659973,"lon":139.445938},{"name":"府中市地域包括支援センターあさひ苑","province":"東京都","city":"府中市","address":"府中市朝日町3-17-1","lat":35.667866,"lon":139.52301},{"name":"府中市地域包括支援センター安立園","province":"東京都","city":"府中市","address":"府中市晴見町1-11-2","lat":35.679768,"lon":139.479462},{"name":"府中市地域包括支援センターしみずがおか","province":"東京都","city":"府中市","address":"府中市清水が丘1-3","lat":35.668827,"lon":139.493835},{"name":"府中市地域包括支援センターかたまち","province":"東京都","city":"府中市","address":"府中市片町2-14-5","lat":35.669781,"lon":139.470657},{"name":"府中市地域包括支援センターしんまち","province":"東京都","city":"府中市","address":"府中市新町1-67-2-103","lat":35.687817,"lon":139.490509},{"name":"府中市地域包括支援センター緑苑","province":"東京都","city":"府中市","address":"府中市緑町1-39-3","lat":35.675194,"lon":139.488312},{"name":"府中市地域包括支援センターにしふ","province":"東京都","city":"府中市","address":"府中市西府町2-24-6","lat":35.674976,"lon":139.454041},{"name":"府中市地域包括支援センターこれまさ","province":"東京都","city":"府中市","address":"府中市是政2-38-1","lat":35.659153,"lon":139.499008},{"name":"府中市地域包括支援センターみなみ町","province":"東京都","city":"府中市","address":"府中市南町2-24-2","lat":35.658436,"lon":139.465698},{"name":"府中市福祉保健部高齢者支援課","province":"東京都","city":"府中市","address":"府中市宮西町2-24","lat":35.668858,"lon":139.477768},{"name":"府中市消費生活センター","province":"東京都","city":"府中市","address":"府中市宮町1-100ル・シーニュ6階市民活動支援センター「プラッツ」内","lat":35.67123,"lon":139.481461},{"name":"栄町地域包括支援センター","province":"東京都","city":"西東京市","address":"西東京市栄町3-6-2保谷苑内","lat":35.754917,"lon":139.55368},{"name":"富士町地域包括支援センター","province":"東京都","city":"西東京市","address":"西東京市富士町1-7-69高齢者センターきらら内","lat":35.734463,"lon":139.559723},{"name":"泉町地域包括支援センター","province":"東京都","city":"西東京市","address":"西東京市泉町3-15-28いずみ内","lat":35.739422,"lon":139.554642},{"name":"田無町地域包括支援センター","province":"東京都","city":"西東京市","address":"西東京市田無町5-5-12田無総合福祉センター内","lat":35.731819,"lon":139.535995},{"name":"緑町地域包括支援センター","province":"東京都","city":"西東京市","address":"西東京市緑町3-6-1田無病院内","lat":35.742039,"lon":139.540741},{"name":"西原町地域包括支援センター","province":"東京都","city":"西東京市","address":"西東京市西原町4-5-6西原総合教育施設内","lat":35.735981,"lon":139.529129},{"name":"向台町地域包括支援センター","province":"東京都","city":"西東京市","address":"西東京市向台町2-16-22フローラ田無内","lat":35.720074,"lon":139.526215},{"name":"新町地域包括支援センター","province":"東京都","city":"西東京市","address":"西東京市新町1-11-25緑寿園内","lat":35.71719,"lon":139.543716},{"name":"武蔵野市地域包括支援センター（基幹型）","province":"東京都","city":"武蔵野市","address":"武蔵野市緑町2-2-28/(武蔵野市役所内)","lat":35.717499,"lon":139.566452},{"name":"ゆとりえ在宅介護・地域包括支援センター","province":"東京都","city":"武蔵野市","address":"武蔵野市吉祥寺南町4-25-5","lat":35.69886,"lon":139.591843},{"name":"吉祥寺本町在宅介護・地域包括支援センター","province":"東京都","city":"武蔵野市","address":"武蔵野市吉祥寺本町4-20-13","lat":35.706207,"lon":139.571945},{"name":"高齢者総合センター在宅介護・地域包括支援センター","province":"東京都","city":"武蔵野市","address":"武蔵野市緑町2-4-1","lat":35.715225,"lon":139.562561},{"name":"吉祥寺ナーシング  ホーム在宅介護・地域包括支援センター","province":"東京都","city":"武蔵野市","address":"武蔵野市吉祥寺北町2-9-2","lat":35.712109,"lon":139.578995},{"name":"桜堤ケアハウス在宅介護・地域包括支援センター","province":"東京都","city":"武蔵野市","address":"武蔵野市桜堤1-9-9","lat":35.711014,"lon":139.533569},{"name":"武蔵野赤十字在宅介護・地域包括支援センター","province":"東京都","city":"武蔵野市","address":"武蔵野市境南町1-26-1武蔵野赤十字病院内","lat":35.697906,"lon":139.548782},{"name":"武蔵野市消費生活センター","province":"東京都","city":"武蔵野市","address":"武蔵野市吉祥寺本町1-10-7武蔵野商工会館3階","lat":35.7057,"lon":139.578735},{"name":"南部西ふじみ地域包括支援センター","province":"東京都","city":"立川市","address":"立川市富士見町2-36-47社会福祉協議会内","lat":35.70158,"lon":139.402008},{"name":"南部東はごろも地域包括支援センター","province":"東京都","city":"立川市","address":"立川市羽衣町1-12-18羽衣地域福祉サービスセンター内","lat":35.697369,"lon":139.425613},{"name":"中部たかまつ地域包括支援センター","province":"東京都","city":"立川市","address":"立川市高松町2-27-27TBK第2高松ビル105号","lat":35.704739,"lon":139.418625},{"name":"北部東わかば地域包括支援センター","province":"東京都","city":"立川市","address":"立川市若葉町3-45-2老人保健施設わかば内","lat":35.719658,"lon":139.441452},{"name":"北部中さいわい地域包括支援センター","province":"東京都","city":"立川市","address":"立川市幸町4-14-1至誠キートスホーム内","lat":35.724712,"lon":139.428299},{"name":"北部西かみすな地域包括支援センター","province":"東京都","city":"立川市","address":"立川市上砂町5-76-4砂川園内","lat":35.730007,"lon":139.389557},{"name":"にしき福祉相談センター","province":"東京都","city":"立川市","address":"立川市錦町6-28-15至誠ホーム内","lat":35.685169,"lon":139.416306},{"name":"かみすな福祉相談センター","province":"東京都","city":"立川市","address":"立川市上砂町1-13-1上砂地域福祉サービスセンター内","lat":35.720753,"lon":139.388092},{"name":"にしすな福祉相談センター","province":"東京都","city":"立川市","address":"立川市西砂町5-5-5西砂ホーム内","lat":35.731091,"lon":139.363205},{"name":"立川市見守りホットライン","province":"東京都","city":"立川市","address":"立川市泉町1156-9立川市役所","lat":35.715286,"lon":139.406281},{"name":"立川市役所","province":"東京都","city":"立川市","address":"立川市泉町1156-9","lat":35.715286,"lon":139.406281},{"name":"立川市消費生活センター","province":"東京都","city":"立川市","address":"立川市曙町2-36-2立川市女性総合センター5F","lat":35.701874,"lon":139.414169},{"name":"清瀬市地域包括支援センター","province":"東京都","city":"清瀬市","address":"清瀬市中里5-842清瀬市健康センター内","lat":35.785568,"lon":139.52655},{"name":"きよせ社協地域包括支援センター","province":"東京都","city":"清瀬市","address":"清瀬市下清戸1-212-4清瀬市コミュニティプラザ゙ひまわり内","lat":35.778744,"lon":139.537186},{"name":"きよせ信愛地域包括支援センター","province":"東京都","city":"清瀬市","address":"清瀬市梅園2-3-15特別養護老人ホーム信愛の園内","lat":35.77282,"lon":139.504395},{"name":"きよせ清雅地域包括支援センター","province":"東京都","city":"清瀬市","address":"清瀬市中里5-91-2特別養護老人ホーム清雅苑内","lat":35.789284,"lon":139.532608},{"name":"清瀬市役所","province":"東京都","city":"清瀬市","address":"清瀬市中里5-842","lat":35.785568,"lon":139.52655},{"name":"消費生活センター","province":"東京都","city":"清瀬市","address":"清瀬市元町1-4-17","lat":35.774456,"lon":139.520538},{"name":"福祉部高齢課高齢係","province":"東京都","city":"西多摩郡瑞穂町","address":"西多摩郡瑞穂町大字箱根ケ崎2335","lat":35.771915,"lon":139.353943},{"name":"瑞穂町東部高齢者支援センター","province":"東京都","city":"西多摩郡瑞穂町","address":"西多摩郡瑞穂町大字石畑2008瑞穂町ふれあいセンター内","lat":35.776951,"lon":139.359375},{"name":"瑞穂町西部高齢者支援センター","province":"東京都","city":"西多摩郡瑞穂町","address":"西多摩郡瑞穂町大字箱根ケ崎1180長岡コミュニティセンター内","lat":35.78067,"lon":139.337296},{"name":"羽村市高齢福祉介護課介護予防・地域支援係","province":"東京都","city":"羽村市","address":"羽村市緑ヶ丘5-2-1(市役所内)","lat":35.767506,"lon":139.310928},{"name":"羽村市地域包括支援センターあさひ","province":"東京都","city":"羽村市","address":"羽村市富士見平1-3-1エムマンション1階A号室","lat":35.765984,"lon":139.323135},{"name":"羽村市地域包括支援センターあゆみ","province":"東京都","city":"羽村市","address":"羽村市羽加美1-9-2","lat":35.770855,"lon":139.303635},{"name":"羽村市高齢福祉介護課高齢福祉係","province":"東京都","city":"羽村市","address":"羽村市緑ヶ丘5-2-1","lat":35.767506,"lon":139.310928},{"name":"羽村市消費生活センター","province":"東京都","city":"羽村市","address":"羽村市緑ヶ丘5-1-30","lat":35.76709,"lon":139.310135},{"name":"羽村市地域包括支援センターあかしあ","province":"東京都","city":"羽村市","address":"羽村市玉川2-6-6","lat":35.749191,"lon":139.314972},{"name":"高齢者見守りぼっくすならはし","province":"東京都","city":"東大和市","address":"東大和市奈良橋4-600/奈良橋市民センター2階老人福祉センター内","lat":35.754078,"lon":139.427856},{"name":"高齢者見守りぼっくすしんぼり","province":"東京都","city":"東大和市","address":"東大和市新堀3-6-1/新堀地区会館2階","lat":35.737888,"lon":139.448288},{"name":"高齢者見守りぼっくすなんがい","province":"東京都","city":"東大和市","address":"東大和市南街2-49-3/在宅サポートセンター1階","lat":35.740234,"lon":139.431412},{"name":"高齢者ほっと支援センターいもくぼ","province":"東京都","city":"東大和市","address":"東大和市芋窪3-1611-1/在宅サービスセンター向台内","lat":35.752773,"lon":139.413635},{"name":"高齢者ほっと支援センターきよはら","province":"東京都","city":"東大和市","address":"東大和市清原1-1-34号/棟1階在宅サービスセンターきよはら内","lat":35.745159,"lon":139.447495},{"name":"高齢者ほっと支援センターなんがい","province":"東京都","city":"東大和市","address":"東大和市南街2-49-3/在宅サポートセンター1階","lat":35.740234,"lon":139.431412},{"name":"東大和市役所高齢介護課","province":"東京都","city":"東大和市","address":"東大和市中央3-930","lat":35.745262,"lon":139.426498},{"name":"青ヶ島村役場総務課","province":"東京都","city":"青ヶ島村","address":"青ヶ島村無番地","lat":32.466946,"lon":139.763336},{"name":"八王子市福祉部高齢者福祉課","province":"東京都","city":"八王子市","address":"八王子市元本郷町3-24-1","lat":35.666496,"lon":139.316162},{"name":"八王子市高齢者あんしん相談センター旭町","province":"東京都","city":"八王子市","address":"八王子市旭町8-10比留間ビル3階","lat":35.657585,"lon":139.338303},{"name":"八王子市高齢者あんしん相談センター高尾","province":"東京都","city":"八王子市","address":"八王子市東浅川町551-1東浅川保健福祉センター2階","lat":35.645088,"lon":139.293137},{"name":"八王子市高齢者あんしん相談センター左入","province":"東京都","city":"八王子市","address":"八王子市左入町372-4","lat":35.685505,"lon":139.34639},{"name":"八王子市高齢者あんしん相談センター中野","province":"東京都","city":"八王子市","address":"八王子市中野上町4-27-4ボナールHONDA1階","lat":35.670242,"lon":139.316483},{"name":"八王子市高齢者あんしん相談センター南大沢","province":"東京都","city":"八王子市","address":"八王子市南大沢2-17-5","lat":35.611408,"lon":139.382706},{"name":"八王子市高齢者あんしん相談センターめじろ","province":"東京都","city":"八王子市","address":"八王子市めじろ台2-55-5","lat":35.641174,"lon":139.313736},{"name":"八王子市高齢者あんしん相談センター長沼","province":"東京都","city":"八王子市","address":"八王子市長沼町1302-1都営長沼第二アパート16号棟1階","lat":35.884872,"lon":139.611465},{"name":"八王子市高齢者あんしん相談センター川口","province":"東京都","city":"八王子市","address":"八王子市川口町908-1川口事務所内","lat":35.693378,"lon":139.279099},{"name":"八王子市高齢者あんしん相談センター片倉","province":"東京都","city":"八王子市","address":"八王子市片倉町440-2","lat":35.642548,"lon":139.340469},{"name":"八王子市高齢者あんしん相談センター堀之内","province":"東京都","city":"八王子市","address":"八王子市堀之内1206","lat":35.63586,"lon":139.388535},{"name":"八王子市高齢者あんしん相談センター長房","province":"東京都","city":"八王子市","address":"八王子市長房町588、長房アパート西22号棟1階","lat":35.660057,"lon":139.331146},{"name":"八王子市高齢者あんしん相談センター子安","province":"東京都","city":"八王子市","address":"八王子市子安町4-10-9西村ビル4階","lat":35.653934,"lon":139.337601},{"name":"八王子市高齢者あんしん相談センターもとはち南","province":"東京都","city":"八王子市","address":"八王子市元八王子町2-1946-2宮崎ビル101","lat":35.659649,"lon":139.280975},{"name":"八王子市高齢者あんしん相談センター寺田","province":"東京都","city":"八王子市","address":"八王子市寺田町137-1","lat":35.631626,"lon":139.310333},{"name":"八王子市高齢者あんしん相談センター大横","province":"東京都","city":"八王子市","address":"八王子市大横町11-35、大横保健福祉センター4階","lat":35.664471,"lon":139.328445},{"name":"八王子市高齢者あんしん相談センター恩方","province":"東京都","city":"八王子市","address":"八王子市下恩方町3395恩方事務所内","lat":35.669819,"lon":139.248489},{"name":"市民部消費生活センター","province":"東京都","city":"八王子市","address":"八王子市東町5-6クリエイトホール地下1階","lat":35.658527,"lon":139.339554},{"name":"八王子市高齢者あんしん相談センター由木東","province":"東京都","city":"八王子市","address":"八王子市鹿島111-1由木東事務所内","lat":35.634281,"lon":139.422501},{"name":"八王子市高齢者あんしん相談センター石川","province":"東京都","city":"八王子市","address":"八王子市石川町481石川事務所内","lat":35.680756,"lon":139.366241},{"name":"北部包括支援センター","province":"東京都","city":"目黒区","address":"目黒区大橋1-51-1クロスエアタワー9階","lat":35.652462,"lon":139.68924},{"name":"東部包括支援センター","province":"東京都","city":"目黒区","address":"目黒区上目黒2-19-15総合庁舎内","lat":35.640465,"lon":139.6987},{"name":"中央包括支援センター","province":"東京都","city":"目黒区","address":"目黒区中央町2-9-13食販ビル2階","lat":35.631126,"lon":139.692123},{"name":"南部包括支援センター","province":"東京都","city":"目黒区","address":"目黒区碑文谷1-18-14碑小学校内南西側","lat":35.618874,"lon":139.690491},{"name":"西部包括支援センター","province":"東京都","city":"目黒区","address":"目黒区柿の木坂1-28-10","lat":35.619823,"lon":139.675735},{"name":"青葉台さくら苑在宅介護支援センター","province":"東京都","city":"目黒区","address":"目黒区青葉台3-21-6青葉台さくら苑内","lat":35.649391,"lon":139.692413},{"name":"清徳会在宅介護支援センター","province":"東京都","city":"目黒区","address":"目黒区目黒本町4-2-1清徳苑内","lat":35.623085,"lon":139.698441},{"name":"目黒区大橋在宅介護支援センター","province":"東京都","city":"目黒区","address":"目黒区大橋2-16-1坂本ビル1階","lat":35.653767,"lon":139.68718},{"name":"目黒区下目黒在宅介護支援センター","province":"東京都","city":"目黒区","address":"目黒区下目黒2-21-16-101","lat":35.634972,"lon":139.709427},{"name":"目黒区日扇会在宅介護支援センター","province":"東京都","city":"目黒区","address":"目黒区中根2-13-18文保堂ビル2階","lat":35.635044,"lon":139.707016},{"name":"東京共済病院在宅介護支援センター","province":"東京都","city":"目黒区","address":"目黒区中目黒2-3-8東京共済病院内","lat":35.641899,"lon":139.703857},{"name":"品川区福祉計画課","province":"東京都","city":"品川区","address":"品川区広町2-1-36","lat":35.608299,"lon":139.730957},{"name":"成幸在宅介護支援センター","province":"東京都","city":"品川区","address":"品川区中延1-8-7","lat":35.612217,"lon":139.711746},{"name":"東品川在宅介護支援センター","province":"東京都","city":"品川区","address":"品川区東品川3-1-5","lat":35.616982,"lon":139.746597},{"name":"大井在宅介護支援センター","province":"東京都","city":"品川区","address":"品川区大井4-14-8","lat":35.601936,"lon":139.732315},{"name":"大崎在宅介護支援センター","province":"東京都","city":"品川区","address":"品川区大崎2-11-1、2階","lat":35.61837,"lon":139.727356},{"name":"戸越台在宅介護支援センター","province":"東京都","city":"品川区","address":"品川区平塚2-3-4","lat":35.618355,"lon":139.717682},{"name":"八潮在宅介護支援センター","province":"東京都","city":"品川区","address":"品川区八潮5-10-27","lat":35.599377,"lon":139.752625},{"name":"荏原在宅介護支援センター","province":"東京都","city":"品川区","address":"品川区荏原2-9-6","lat":35.617012,"lon":139.711105},{"name":"品川区統括在宅介護支援センター（品川区地域包括支援センター）","province":"東京都","city":"品川区","address":"品川区広町2-1-36","lat":35.608299,"lon":139.730957},{"name":"小山在宅介護支援センター","province":"東京都","city":"品川区","address":"品川区小山7-14-18","lat":35.608883,"lon":139.696838},{"name":"中延在宅介護支援センター","province":"東京都","city":"品川区","address":"品川区中延6-8-8","lat":35.601826,"lon":139.711487},{"name":"上大崎在宅介護支援センター","province":"東京都","city":"品川区","address":"品川区上大崎3-1-1","lat":35.632851,"lon":139.716843},{"name":"台場在宅介護支援センター","province":"東京都","city":"品川区","address":"品川区北品川3-11-16","lat":35.616436,"lon":139.739273},{"name":"西大井在宅介護支援センター","province":"東京都","city":"品川区","address":"品川区西大井2-4-4","lat":35.599796,"lon":139.722351},{"name":"南大井在宅介護支援センター","province":"東京都","city":"品川区","address":"品川区南大井4-19-3","lat":35.593044,"lon":139.734695},{"name":"杜松在宅介護支援センター","province":"東京都","city":"品川区","address":"品川区豊町4-24-15","lat":35.605835,"lon":139.722733},{"name":"南大井第二在宅介護支援センター","province":"東京都","city":"品川区","address":"品川区東大井4-9-1","lat":35.605358,"lon":139.740372},{"name":"大原在宅介護支援センター","province":"東京都","city":"品川区","address":"品川区豊町6-25-13","lat":35.603725,"lon":139.713684},{"name":"東品川第二在宅介護支援センター","province":"東京都","city":"品川区","address":"品川区東品川3-27-25オフィスイン品川3階","lat":35.611816,"lon":139.746674},{"name":"大井第二在宅介護支援センター","province":"東京都","city":"品川区","address":"品川区大井3-15-7","lat":35.602428,"lon":139.729401},{"name":"西五反田在宅介護支援センター","province":"東京都","city":"品川区","address":"品川区西五反田3-6-6","lat":35.627678,"lon":139.71785},{"name":"小山台在宅介護支援センター","province":"東京都","city":"品川区","address":"品川区小山台1-4-1(りんし21区民集会所3階)","lat":35.624367,"lon":139.704758},{"name":"品川区消費者センター","province":"東京都","city":"品川区","address":"品川区大井1-14-1大井1丁目共同ビル4階","lat":35.607559,"lon":139.731613},{"name":"中央区地域包括支援センター","province":"東京都","city":"中央区","address":"中央区築地1-1-1区役所4階","lat":35.670841,"lon":139.771927},{"name":"京橋おとしより相談センター","province":"東京都","city":"中央区","address":"中央区明石町1-6リハポート明石等複合施設1階","lat":35.669617,"lon":139.776657},{"name":"日本橋おとしより相談センター","province":"東京都","city":"中央区","address":"中央区日本橋小伝馬町5-1十思スクエア1階","lat":35.691414,"lon":139.777466},{"name":"人形町おとしより相談センター（日本橋おとしより相談センターの分室）","province":"東京都","city":"中央区","address":"中央区日本橋人形町2-32-4日本橋医師会人形町ビル1階","lat":35.682903,"lon":139.775345},{"name":"月島おとしより相談センター","province":"東京都","city":"中央区","address":"中央区月島4-1-1月島区民センター1階","lat":43.062607,"lon":141.655518},{"name":"勝どきおとしより相談センター（月島おとしより相談センター分室）","province":"東京都","city":"中央区","address":"中央区勝どき5-1-17勝どきザ・リバーフロント1階","lat":35.661423,"lon":139.776581},{"name":"大島町役場","province":"東京都","city":"大島町","address":"大島町元町1-1-14","lat":34.750153,"lon":139.355511},{"name":"東京都大島支庁","province":"東京都","city":"大島町","address":"大島町元町字オンダシ222-1","lat":34.757486,"lon":139.357651},{"name":"東京都大島支庁総務課","province":"東京都","city":"大島町","address":"大島町元町字オンダシ222-1","lat":34.757486,"lon":139.357651},{"name":"東京都大島支庁総務課（福祉担当）","province":"東京都","city":"大島町","address":"大島町元町字オンダシ222-1","lat":34.757486,"lon":139.357651},{"name":"東京都大島支庁産業課","province":"東京都","city":"大島町","address":"大島町元町字オンダシ222-1","lat":34.757486,"lon":139.357651},{"name":"東京都大島支庁土木課","province":"東京都","city":"大島町","address":"大島町元町字オンダシ222-1","lat":34.757486,"lon":139.357651},{"name":"東京都大島支庁港湾課","province":"東京都","city":"大島町","address":"大島町元町字オンダシ222-1","lat":34.757486,"lon":139.357651},{"name":"東京都大島支庁大島港湾空港管理事務所","province":"東京都","city":"大島町","address":"大島町元町字北の山270","lat":34.782519,"lon":139.363327},{"name":"東京都大島支庁大島公園事務所","province":"東京都","city":"大島町","address":"大島町泉津字福重2","lat":34.761133,"lon":139.43446},{"name":"東京都教育庁大島出張所","province":"東京都","city":"大島町","address":"大島町元町字オンダシ222-1","lat":34.757485,"lon":139.35765},{"name":"東京都島しょ保健所大島出張所","province":"東京都","city":"大島町","address":"大島町元町字馬の背275-4","lat":34.756842,"lon":139.358126},{"name":"島しょ農林水産総合センター大島事業所（水産）","province":"東京都","city":"大島町","address":"大島町波浮港18","lat":34.684806,"lon":139.437424},{"name":"島しょ農林水産総合センター大島事業所（農業）","province":"東京都","city":"大島町","address":"大島町元町小清水273-1","lat":34.758549,"lon":139.361164},{"name":"東京都立大島高等学校","province":"東京都","city":"大島町","address":"大島町元町字八重の水127","lat":34.765449,"lon":139.359906},{"name":"東京都立大島海洋国際高等学校","province":"東京都","city":"大島町","address":"大島町差木地字下原996","lat":34.681949,"lon":139.432619},{"name":"東京都海区漁業調整委員会大島分室","province":"東京都","city":"大島町","address":"大島町元町字オンダシ222-1","lat":34.757485,"lon":139.35765},{"name":"警視庁大島警察署","province":"東京都","city":"大島町","address":"大島町元町1-15-6","lat":34.752784,"lon":139.354974},{"name":"東京都栽培漁業センター","province":"東京都","city":"大島町","address":"大島町元町字和泉99-5","lat":34.769048,"lon":139.352981},{"name":"伊豆大島簡易裁判所","province":"東京都","city":"大島町","address":"大島町元町字家の上445-10","lat":34.749828,"lon":139.363783},{"name":"伊豆大島区検察庁","province":"東京都","city":"大島町","address":"大島町元町字家の上445-9","lat":34.749811,"lon":139.363192},{"name":"東京大学地震研究所　伊豆大島火山観測所","province":"東京都","city":"大島町","address":"大島町元町字黒まま346","lat":34.75428,"lon":139.362597},{"name":"気象庁　伊豆大島火山防災連絡事務所","province":"東京都","city":"大島町","address":"大島町元町1-1-14(大島町役場内)","lat":34.750255,"lon":139.355384},{"name":"東京航空地方気象台　大島航空気象観測所","province":"東京都","city":"大島町","address":"大島町元町字北の山270-1(大島空港内)","lat":34.783191,"lon":139.363547},{"name":"東京航空局大島空港出張所","province":"東京都","city":"大島町","address":"大島町元町字北の山270-1","lat":34.783191,"lon":139.363547},{"name":"利島村役場","province":"","city":"","address":"利島村248","lat":34.5293639,"lon":139.282585},{"name":"警視庁大島警察署利島村駐在所","province":"","city":"","address":"利島村315","lat":34.529539,"lon":139.283903},{"name":"新島村役場","province":"東京都","city":"新島村","address":"新島村本村1-1-1","lat":34.377094,"lon":139.257058},{"name":"式根島支所","province":"東京都","city":"新島村","address":"新島村式根島255-1","lat":34.529539,"lon":139.283903},{"name":"東京都大島支庁新島出張所","province":"東京都","city":"新島村","address":"新島村本村6-4-24","lat":34.373721,"lon":139.256622},{"name":"新島港湾空港管理事務所","province":"東京都","city":"新島村","address":"新島村字川原","lat":34.37036,"lon":139.269356},{"name":"東京都島しょ保健所大島出張所新島支所","province":"東京都","city":"新島村","address":"新島村本村6-4-24","lat":34.373721,"lon":139.256622},{"name":"東京都立新島高等学校","province":"東京都","city":"新島村","address":"新島村本村4-10-1","lat":34.369086,"lon":139.25827},{"name":"警視庁新島警察署","province":"東京都","city":"新島村","address":"新島村本村3-13-4","lat":34.372224,"lon":139.259511},{"name":"新島簡易裁判所","province":"東京都","city":"新島村","address":"新島村本村3-2-2","lat":34.376787,"lon":139.257702},{"name":"新島区検察庁","province":"東京都","city":"大島町","address":"大島町元町字家の上445-9","lat":34.749811,"lon":139.363192},{"name":"防衛装備庁航空装備研究所新島支所","province":"東京都","city":"新島村","address":"新島村字水尻","lat":34.363931,"lon":139.255265},{"name":"神津島村役場","province":"東京都","city":"神津島村","address":"神津島村904","lat":34.205533,"lon":139.134455},{"name":"東京都大島支庁神津島出張所","province":"東京都","city":"神津島村","address":"神津島村1204","lat":34.203272,"lon":139.134233},{"name":"神津島港湾空港管理事務所","province":"東京都","city":"神津島村","address":"神津島村字金長","lat":34.190248,"lon":139.134466},{"name":"東京都島しょ保健所大島出張所神津島支所","province":"東京都","city":"神津島村","address":"神津島村1088","lat":34.204734,"lon":139.136476},{"name":"東京都立神津高等学校","province":"東京都","city":"神津島村","address":"神津島村1620","lat":34.202348,"lon":139.134443},{"name":"環境省伊豆諸島自然保護官事務所","province":"東京都","city":"大島町","address":"大島町元町字家の上445-9","lat":34.749811,"lon":139.363192},{"name":"島しょ農林水産総合センター大島事業所新島分室","province":"東京都","city":"新島村","address":"新島村本村6-4-24","lat":34.373721,"lon":139.256622},{"name":"忠生市民センター","province":"東京都","city":"町田市","address":"東京都町田市忠生3-14-2","lat":35.57833575,"lon":139.4161491},{"name":"鶴川市民センター","province":"東京都","city":"町田市","address":"東京都町田市大蔵町1981-4","lat":35.58888653,"lon":139.4673705},{"name":"南市民センター","province":"東京都","city":"町田市","address":"東京都町田市金森4-5-6","lat":35.52364719,"lon":139.4667958},{"name":"町田駅前連絡所","province":"東京都","city":"町田市","address":"東京都町田市原町田6-12-20小田急百貨店町田店3階","lat":35.54421258,"lon":139.4452819},{"name":"木曽山崎コミュニティセンター（木曽山崎連絡所）","province":"東京都","city":"町田市","address":"東京都町田市山崎町2160-4","lat":35.56859619,"lon":139.4367346},{"name":"玉川学園コミュニティセンター（玉川学園駅前連絡所）","province":"東京都","city":"町田市","address":"東京都町田市玉川学園2-19-12","lat":35.56370672,"lon":139.4626306},{"name":"南町田駅前連絡所","province":"東京都","city":"町田市","address":"東京都町田市鶴間3-10-2","lat":35.50987194,"lon":139.4732748}]}