{"keyword":"スモッグ","data":[{"name":"小作浄水場","province":"東京都","city":"羽村市","address":"東京都羽村市小作台4丁目2-1","lat":35.77612268,"lon":139.2958031},{"name":"(有)西村商店","province":"東京都","city":"羽村市","address":"羽村市神明台3-33-25","lat":35.759457,"lon":139.325348},{"name":"(株)鈴商  羽村事業所","province":"東京都","city":"羽村市","address":"羽村市五ノ神361-1","lat":35.771442,"lon":139.330597},{"name":"(有)西村商店","province":"東京都","city":"羽村市","address":"羽村市神明台3-33-25","lat":35.759457,"lon":139.325348},{"name":"(株)鈴商  羽村事業所","province":"東京都","city":"羽村市","address":"羽村市五ノ神361-1","lat":35.771442,"lon":139.330597},{"name":"(有)西村商店","province":"東京都","city":"羽村市","address":"羽村市神明台3-33-25","lat":35.759457,"lon":139.325348},{"name":"(株)鈴商  羽村事業所","province":"東京都","city":"羽村市","address":"羽村市五ノ神361-1","lat":35.771442,"lon":139.330597},{"name":"(有)西村商店","province":"東京都","city":"羽村市","address":"羽村市神明台3-33-25","lat":35.759457,"lon":139.325348},{"name":"(株)鈴商  羽村事業所","province":"東京都","city":"羽村市","address":"羽村市五ノ神361-1","lat":35.771442,"lon":139.330597},{"name":"(有)西村商店","province":"東京都","city":"羽村市","address":"羽村市神明台3-33-25","lat":35.759457,"lon":139.325348},{"name":"(株)鈴商  羽村事業所","province":"東京都","city":"羽村市","address":"羽村市五ノ神361-1","lat":35.771442,"lon":139.330597},{"name":"(有)西村商店","province":"東京都","city":"羽村市","address":"羽村市神明台3-33-25","lat":35.759457,"lon":139.325348},{"name":"(株)鈴商  羽村事業所","province":"東京都","city":"羽村市","address":"羽村市五ノ神361-1","lat":35.771442,"lon":139.330597},{"name":"(有)西村商店","province":"東京都","city":"羽村市","address":"羽村市神明台3-33-25","lat":35.759457,"lon":139.325348},{"name":"(株)鈴商  羽村事業所","province":"東京都","city":"羽村市","address":"羽村市五ノ神361-1","lat":35.771442,"lon":139.330597},{"name":"(有)西村商店","province":"東京都","city":"羽村市","address":"羽村市神明台3-33-25","lat":35.759457,"lon":139.325348},{"name":"(株)鈴商  羽村事業所","province":"東京都","city":"羽村市","address":"羽村市五ノ神361-1","lat":35.771442,"lon":139.330597},{"name":"(有)西村商店","province":"東京都","city":"羽村市","address":"羽村市神明台3-33-25","lat":35.759457,"lon":139.325348},{"name":"(株)鈴商  羽村事業所","province":"東京都","city":"羽村市","address":"羽村市五ノ神361-1","lat":35.771442,"lon":139.330597},{"name":"(有)西村商店","province":"東京都","city":"羽村市","address":"羽村市神明台3-33-25","lat":35.759457,"lon":139.325348},{"name":"(株)鈴商  羽村事業所","province":"東京都","city":"羽村市","address":"羽村市五ノ神361-1","lat":35.771442,"lon":139.330597},{"name":"(有)西村商店","province":"東京都","city":"羽村市","address":"羽村市神明台3-33-25","lat":35.759457,"lon":139.325348},{"name":"(株)鈴商  羽村事業所","province":"東京都","city":"羽村市","address":"羽村市五ノ神361-1","lat":35.771442,"lon":139.330597},{"name":"(有)西村商店","province":"東京都","city":"羽村市","address":"羽村市神明台3-33-25","lat":35.759457,"lon":139.325348},{"name":"(株)鈴商  羽村事業所","province":"東京都","city":"羽村市","address":"羽村市五ノ神361-1","lat":35.771442,"lon":139.330597},{"name":"(有)西村商店","province":"東京都","city":"羽村市","address":"羽村市神明台3-33-25","lat":35.759457,"lon":139.325348},{"name":"(株)鈴商  羽村事業所","province":"東京都","city":"羽村市","address":"羽村市五ノ神361-1","lat":35.771442,"lon":139.330597},{"name":"(有)西村商店","province":"東京都","city":"羽村市","address":"羽村市神明台3-33-25","lat":35.759457,"lon":139.325348},{"name":"(株)鈴商  羽村事業所","province":"東京都","city":"羽村市","address":"羽村市五ノ神361-1","lat":35.771442,"lon":139.330597},{"name":"(有)西村商店","province":"東京都","city":"羽村市","address":"羽村市神明台3-33-25","lat":35.759457,"lon":139.325348},{"name":"(株)鈴商  羽村事業所","province":"東京都","city":"羽村市","address":"羽村市五ノ神361-1","lat":35.771442,"lon":139.330597},{"name":"(有)西村商店","province":"東京都","city":"羽村市","address":"羽村市神明台3-33-25","lat":35.759457,"lon":139.325348},{"name":"(株)鈴商  羽村事業所","province":"東京都","city":"羽村市","address":"羽村市五ノ神361-1","lat":35.771442,"lon":139.330597},{"name":"(有)西村商店","province":"東京都","city":"羽村市","address":"羽村市神明台3-33-25","lat":35.759457,"lon":139.325348},{"name":"(株)鈴商  羽村事業所","province":"東京都","city":"羽村市","address":"羽村市五ノ神361-1","lat":35.771442,"lon":139.330597},{"name":"(有)西村商店","province":"東京都","city":"羽村市","address":"羽村市神明台3-33-25","lat":35.759457,"lon":139.325348},{"name":"(株)鈴商  羽村事業所","province":"東京都","city":"羽村市","address":"羽村市五ノ神361-1","lat":35.771442,"lon":139.330597},{"name":"(有)西村商店","province":"東京都","city":"羽村市","address":"羽村市神明台3-33-25","lat":35.759457,"lon":139.325348},{"name":"(株)鈴商  羽村事業所","province":"東京都","city":"羽村市","address":"羽村市五ノ神361-1","lat":35.771442,"lon":139.330597},{"name":"(有)西村商店","province":"東京都","city":"羽村市","address":"羽村市神明台3-33-25","lat":35.759457,"lon":139.325348},{"name":"(株)鈴商  羽村事業所","province":"東京都","city":"羽村市","address":"羽村市五ノ神361-1","lat":35.771442,"lon":139.330597},{"name":"(有)西村商店","province":"東京都","city":"羽村市","address":"羽村市神明台3-33-25","lat":35.759457,"lon":139.325348},{"name":"(株)鈴商  羽村事業所","province":"東京都","city":"羽村市","address":"羽村市五ノ神361-1","lat":35.771442,"lon":139.330597},{"name":"(有)西村商店","province":"東京都","city":"羽村市","address":"羽村市神明台3-33-25","lat":35.759457,"lon":139.325348},{"name":"(株)鈴商  羽村事業所","province":"東京都","city":"羽村市","address":"羽村市五ノ神361-1","lat":35.771442,"lon":139.330597},{"name":"(有)西村商店","province":"東京都","city":"羽村市","address":"羽村市神明台3-33-25","lat":35.759457,"lon":139.325348},{"name":"(株)鈴商  羽村事業所","province":"東京都","city":"羽村市","address":"羽村市五ノ神361-1","lat":35.771442,"lon":139.330597},{"name":"(有)西村商店","province":"東京都","city":"羽村市","address":"羽村市神明台3-33-25","lat":35.759457,"lon":139.325348},{"name":"(株)鈴商  羽村事業所","province":"東京都","city":"羽村市","address":"羽村市五ノ神361-1","lat":35.771442,"lon":139.330597},{"name":"(有)西村商店","province":"東京都","city":"羽村市","address":"羽村市神明台3-33-25","lat":35.759457,"lon":139.325348},{"name":"(株)鈴商  羽村事業所","province":"東京都","city":"羽村市","address":"羽村市五ノ神361-1","lat":35.771442,"lon":139.330597},{"name":"(有)西村商店","province":"東京都","city":"羽村市","address":"羽村市神明台3-33-25","lat":35.759457,"lon":139.325348},{"name":"(株)鈴商  羽村事業所","province":"東京都","city":"羽村市","address":"羽村市五ノ神361-1","lat":35.771442,"lon":139.330597},{"name":"(有)西村商店","province":"東京都","city":"羽村市","address":"羽村市神明台3-33-25","lat":35.759457,"lon":139.325348},{"name":"(株)鈴商  羽村事業所","province":"東京都","city":"羽村市","address":"羽村市五ノ神361-1","lat":35.771442,"lon":139.330597},{"name":"(有)西村商店","province":"東京都","city":"羽村市","address":"羽村市神明台3-33-25","lat":35.759457,"lon":139.325348},{"name":"(株)鈴商  羽村事業所","province":"東京都","city":"羽村市","address":"羽村市五ノ神361-1","lat":35.771442,"lon":139.330597},{"name":"(有)西村商店","province":"東京都","city":"羽村市","address":"羽村市神明台3-33-25","lat":35.759457,"lon":139.325348},{"name":"(株)鈴商  羽村事業所","province":"東京都","city":"羽村市","address":"羽村市五ノ神361-1","lat":35.771442,"lon":139.330597},{"name":"(有)西村商店","province":"東京都","city":"羽村市","address":"羽村市神明台3-33-25","lat":35.759457,"lon":139.325348},{"name":"(株)鈴商  羽村事業所","province":"東京都","city":"羽村市","address":"羽村市五ノ神361-1","lat":35.771442,"lon":139.330597},{"name":"(有)西村商店","province":"東京都","city":"羽村市","address":"羽村市神明台3-33-25","lat":35.759457,"lon":139.325348},{"name":"(株)鈴商  羽村事業所","province":"東京都","city":"羽村市","address":"羽村市五ノ神361-1","lat":35.771442,"lon":139.330597},{"name":"(有)西村商店","province":"東京都","city":"羽村市","address":"羽村市神明台3-33-25","lat":35.759457,"lon":139.325348},{"name":"(株)鈴商  羽村事業所","province":"東京都","city":"羽村市","address":"羽村市五ノ神361-1","lat":35.771442,"lon":139.330597},{"name":"(有)西村商店","province":"東京都","city":"羽村市","address":"羽村市神明台3-33-25","lat":35.759457,"lon":139.325348},{"name":"(株)鈴商  羽村事業所","province":"東京都","city":"羽村市","address":"羽村市五ノ神361-1","lat":35.771442,"lon":139.330597},{"name":"(有)西村商店","province":"東京都","city":"羽村市","address":"羽村市神明台3-33-25","lat":35.759457,"lon":139.325348},{"name":"(株)鈴商  羽村事業所","province":"東京都","city":"羽村市","address":"羽村市五ノ神361-1","lat":35.771442,"lon":139.330597},{"name":"(有)西村商店","province":"東京都","city":"羽村市","address":"羽村市神明台3-33-25","lat":35.759457,"lon":139.325348},{"name":"(株)鈴商  羽村事業所","province":"東京都","city":"羽村市","address":"羽村市五ノ神361-1","lat":35.771442,"lon":139.330597},{"name":"(有)西村商店","province":"東京都","city":"羽村市","address":"羽村市神明台3-33-25","lat":35.759457,"lon":139.325348},{"name":"(株)鈴商  羽村事業所","province":"東京都","city":"羽村市","address":"羽村市五ノ神361-1","lat":35.771442,"lon":139.330597},{"name":"(有)西村商店","province":"東京都","city":"羽村市","address":"羽村市神明台3-33-25","lat":35.759457,"lon":139.325348},{"name":"(株)鈴商  羽村事業所","province":"東京都","city":"羽村市","address":"羽村市五ノ神361-1","lat":35.771442,"lon":139.330597},{"name":"(有)西村商店","province":"東京都","city":"羽村市","address":"羽村市神明台3-33-25","lat":35.759457,"lon":139.325348},{"name":"(株)鈴商  羽村事業所","province":"東京都","city":"羽村市","address":"羽村市五ノ神361-1","lat":35.771442,"lon":139.330597},{"name":"(有)西村商店","province":"東京都","city":"羽村市","address":"羽村市神明台3-33-25","lat":35.759457,"lon":139.325348},{"name":"(株)鈴商  羽村事業所","province":"東京都","city":"羽村市","address":"羽村市五ノ神361-1","lat":35.771442,"lon":139.330597},{"name":"(有)西村商店","province":"東京都","city":"羽村市","address":"羽村市神明台3-33-25","lat":35.759457,"lon":139.325348},{"name":"(株)鈴商  羽村事業所","province":"東京都","city":"羽村市","address":"羽村市五ノ神361-1","lat":35.771442,"lon":139.330597},{"name":"(有)西村商店","province":"東京都","city":"羽村市","address":"羽村市神明台3-33-25","lat":35.759457,"lon":139.325348},{"name":"(株)鈴商  羽村事業所","province":"東京都","city":"羽村市","address":"羽村市五ノ神361-1","lat":35.771442,"lon":139.330597},{"name":"(有)西村商店","province":"東京都","city":"羽村市","address":"羽村市神明台3-33-25","lat":35.759457,"lon":139.325348},{"name":"(株)鈴商  羽村事業所","province":"東京都","city":"羽村市","address":"羽村市五ノ神361-1","lat":35.771442,"lon":139.330597},{"name":"(有)西村商店","province":"東京都","city":"羽村市","address":"羽村市神明台3-33-25","lat":35.759457,"lon":139.325348},{"name":"(株)鈴商  羽村事業所","province":"東京都","city":"羽村市","address":"羽村市五ノ神361-1","lat":35.771442,"lon":139.330597},{"name":"(有)西村商店","province":"東京都","city":"羽村市","address":"羽村市神明台3-33-25","lat":35.759457,"lon":139.325348},{"name":"(株)鈴商  羽村事業所","province":"東京都","city":"羽村市","address":"羽村市五ノ神361-1","lat":35.771442,"lon":139.330597},{"name":"(有)西村商店","province":"東京都","city":"羽村市","address":"羽村市神明台3-33-25","lat":35.759457,"lon":139.325348},{"name":"(株)鈴商  羽村事業所","province":"東京都","city":"羽村市","address":"羽村市五ノ神361-1","lat":35.771442,"lon":139.330597},{"name":"(有)西村商店","province":"東京都","city":"羽村市","address":"羽村市神明台3-33-25","lat":35.759457,"lon":139.325348},{"name":"(株)鈴商  羽村事業所","province":"東京都","city":"羽村市","address":"羽村市五ノ神361-1","lat":35.771442,"lon":139.330597}]}