{"keyword":"保育","data":[{"name":"羽村まつの木保育園","province":"東京都","city":"羽村市","address":"羽村市小作台3-9-12","lat":35.776437,"lon":139.298175},{"name":"かやの実保育園","province":"東京都","city":"羽村市","address":"羽村市栄町2-1-5","lat":35.772146,"lon":139.306613},{"name":"富士見第一保育園","province":"東京都","city":"羽村市","address":"羽村市緑ヶ丘4-12-40","lat":35.766716,"lon":139.315227},{"name":"羽村たつの子保育園","province":"東京都","city":"羽村市","address":"羽村市五ノ神2-6-20","lat":35.761058,"lon":139.32044},{"name":"太陽の子保育園","province":"東京都","city":"羽村市","address":"羽村市五ノ神3-15-7","lat":35.762364,"lon":139.319477},{"name":"富士見第二保育園","province":"東京都","city":"羽村市","address":"羽村市富士見平2-3-16","lat":35.762947,"lon":139.324007},{"name":"玉水保育園","province":"東京都","city":"羽村市","address":"羽村市羽東3-21-12","lat":35.755373,"lon":139.310322},{"name":"羽村しらうめ保育園","province":"東京都","city":"羽村市","address":"羽村市羽東1-29-16","lat":35.761978,"lon":139.31231},{"name":"さくら保育園","province":"東京都","city":"羽村市","address":"羽村市羽加美2-16-1","lat":35.76601,"lon":139.303547},{"name":"まつぼっくり保育園","province":"東京都","city":"羽村市","address":"羽村市羽西1-7-3","lat":35.771554,"lon":139.300036},{"name":"チューリップ保育園","province":"東京都","city":"羽村市","address":"羽村市双葉町1-1-22","lat":35.762711,"lon":139.331206},{"name":"あおぞら保育園","province":"東京都","city":"羽村市","address":"羽村市神明台1-3-9","lat":35.756767,"lon":139.318693}]}