{"keyword":"収蔵","data":[{"name":"第一配水場","province":"東京都","city":"羽村市","address":"東京都羽村市緑ケ丘2-18-5","lat":35.7647394,"lon":139.319607},{"name":"小作浄水場","province":"東京都","city":"羽村市","address":"東京都羽村市小作台4-2-1","lat":35.7761234,"lon":139.295803},{"name":"小作浄水場","province":"東京都","city":"羽村市","address":"東京都羽村市小作台4丁目2-1","lat":35.77612268,"lon":139.2958031},{"name":"第一配水場","province":"東京都","city":"羽村市","address":"東京都羽村市緑ケ丘2-18-5","lat":35.7647394,"lon":139.319607},{"name":"小作浄水場","province":"東京都","city":"羽村市","address":"東京都羽村市小作台4-2-1","lat":35.7761234,"lon":139.295803},{"name":"小作浄水場","province":"東京都","city":"羽村市","address":"東京都羽村市小作台4丁目2-1","lat":35.77612268,"lon":139.2958031},{"name":"第一配水場","province":"東京都","city":"羽村市","address":"東京都羽村市緑ケ丘2-18-5","lat":35.7647394,"lon":139.319607},{"name":"小作浄水場","province":"東京都","city":"羽村市","address":"東京都羽村市小作台4-2-1","lat":35.7761234,"lon":139.295803},{"name":"小作浄水場","province":"東京都","city":"羽村市","address":"東京都羽村市小作台4丁目2-1","lat":35.77612268,"lon":139.2958031},{"name":"第一配水場","province":"東京都","city":"羽村市","address":"東京都羽村市緑ケ丘2-18-5","lat":35.7647394,"lon":139.319607},{"name":"小作浄水場","province":"東京都","city":"羽村市","address":"東京都羽村市小作台4-2-1","lat":35.7761234,"lon":139.295803},{"name":"第一配水場","province":"東京都","city":"羽村市","address":"東京都羽村市緑ケ丘2-18-5","lat":35.7647394,"lon":139.319607},{"name":"小作浄水場","province":"東京都","city":"羽村市","address":"東京都羽村市小作台4-2-1","lat":35.7761234,"lon":139.295803},{"name":"第一配水場","province":"東京都","city":"羽村市","address":"東京都羽村市緑ケ丘2-18-5","lat":35.7647394,"lon":139.319607},{"name":"小作浄水場","province":"東京都","city":"羽村市","address":"東京都羽村市小作台4-2-1","lat":35.7761234,"lon":139.295803},{"name":"第一配水場","province":"東京都","city":"羽村市","address":"東京都羽村市緑ケ丘2-18-5","lat":35.7647394,"lon":139.319607},{"name":"小作浄水場","province":"東京都","city":"羽村市","address":"東京都羽村市小作台4-2-1","lat":35.7761234,"lon":139.295803},{"name":"第一配水場","province":"東京都","city":"羽村市","address":"東京都羽村市緑ケ丘2-18-5","lat":35.7647394,"lon":139.319607},{"name":"小作浄水場","province":"東京都","city":"羽村市","address":"東京都羽村市小作台4-2-1","lat":35.7761234,"lon":139.295803},{"name":"第一配水場","province":"東京都","city":"羽村市","address":"東京都羽村市緑ケ丘2-18-5","lat":35.7647394,"lon":139.319607},{"name":"小作浄水場","province":"東京都","city":"羽村市","address":"東京都羽村市小作台4-2-1","lat":35.7761234,"lon":139.295803},{"name":"第一配水場","province":"東京都","city":"羽村市","address":"東京都羽村市緑ケ丘2-18-5","lat":35.7647394,"lon":139.319607},{"name":"小作浄水場","province":"東京都","city":"羽村市","address":"東京都羽村市小作台4-2-1","lat":35.7761234,"lon":139.295803},{"name":"第一配水場","province":"東京都","city":"羽村市","address":"東京都羽村市緑ケ丘2-18-5","lat":35.7647394,"lon":139.319607},{"name":"小作浄水場","province":"東京都","city":"羽村市","address":"東京都羽村市小作台4-2-1","lat":35.7761234,"lon":139.295803},{"name":"第一配水場","province":"東京都","city":"羽村市","address":"東京都羽村市緑ケ丘2-18-5","lat":35.7647394,"lon":139.319607},{"name":"小作浄水場","province":"東京都","city":"羽村市","address":"東京都羽村市小作台4-2-1","lat":35.7761234,"lon":139.295803},{"name":"第一配水場","province":"東京都","city":"羽村市","address":"東京都羽村市緑ケ丘2-18-5","lat":35.7647394,"lon":139.319607},{"name":"小作浄水場","province":"東京都","city":"羽村市","address":"東京都羽村市小作台4-2-1","lat":35.7761234,"lon":139.295803},{"name":"第一配水場","province":"東京都","city":"羽村市","address":"東京都羽村市緑ケ丘2-18-5","lat":35.7647394,"lon":139.319607},{"name":"小作浄水場","province":"東京都","city":"羽村市","address":"東京都羽村市小作台4-2-1","lat":35.7761234,"lon":139.295803},{"name":"第一配水場","province":"東京都","city":"羽村市","address":"東京都羽村市緑ケ丘2-18-5","lat":35.7647394,"lon":139.319607},{"name":"小作浄水場","province":"東京都","city":"羽村市","address":"東京都羽村市小作台4-2-1","lat":35.7761234,"lon":139.295803},{"name":"第一配水場","province":"東京都","city":"羽村市","address":"東京都羽村市緑ケ丘2-18-5","lat":35.7647394,"lon":139.319607},{"name":"小作浄水場","province":"東京都","city":"羽村市","address":"東京都羽村市小作台4-2-1","lat":35.7761234,"lon":139.295803},{"name":"第一配水場","province":"東京都","city":"羽村市","address":"東京都羽村市緑ケ丘2-18-5","lat":35.7647394,"lon":139.319607},{"name":"小作浄水場","province":"東京都","city":"羽村市","address":"東京都羽村市小作台4-2-1","lat":35.7761234,"lon":139.295803},{"name":"第一配水場","province":"東京都","city":"羽村市","address":"東京都羽村市緑ケ丘2-18-5","lat":35.7647394,"lon":139.319607},{"name":"小作浄水場","province":"東京都","city":"羽村市","address":"東京都羽村市小作台4-2-1","lat":35.7761234,"lon":139.295803},{"name":"第一配水場","province":"東京都","city":"羽村市","address":"東京都羽村市緑ケ丘2-18-5","lat":35.7647394,"lon":139.319607},{"name":"小作浄水場","province":"東京都","city":"羽村市","address":"東京都羽村市小作台4-2-1","lat":35.7761234,"lon":139.295803},{"name":"第一配水場","province":"東京都","city":"羽村市","address":"東京都羽村市緑ケ丘2-18-5","lat":35.7647394,"lon":139.319607},{"name":"小作浄水場","province":"東京都","city":"羽村市","address":"東京都羽村市小作台4-2-1","lat":35.7761234,"lon":139.295803},{"name":"第一配水場","province":"東京都","city":"羽村市","address":"東京都羽村市緑ケ丘2-18-5","lat":35.7647394,"lon":139.319607},{"name":"小作浄水場","province":"東京都","city":"羽村市","address":"東京都羽村市小作台4-2-1","lat":35.7761234,"lon":139.295803},{"name":"第一配水場","province":"東京都","city":"羽村市","address":"東京都羽村市緑ケ丘2-18-5","lat":35.7647394,"lon":139.319607},{"name":"小作浄水場","province":"東京都","city":"羽村市","address":"東京都羽村市小作台4-2-1","lat":35.7761234,"lon":139.295803},{"name":"第一配水場","province":"東京都","city":"羽村市","address":"東京都羽村市緑ケ丘2-18-5","lat":35.7647394,"lon":139.319607},{"name":"小作浄水場","province":"東京都","city":"羽村市","address":"東京都羽村市小作台4-2-1","lat":35.7761234,"lon":139.295803},{"name":"第一配水場","province":"東京都","city":"羽村市","address":"東京都羽村市緑ケ丘2-18-5","lat":35.7647394,"lon":139.319607},{"name":"小作浄水場","province":"東京都","city":"羽村市","address":"東京都羽村市小作台4-2-1","lat":35.7761234,"lon":139.295803},{"name":"第一配水場","province":"東京都","city":"羽村市","address":"東京都羽村市緑ケ丘2-18-5","lat":35.7647394,"lon":139.319607},{"name":"小作浄水場","province":"東京都","city":"羽村市","address":"東京都羽村市小作台4-2-1","lat":35.7761234,"lon":139.295803},{"name":"第一配水場","province":"東京都","city":"羽村市","address":"東京都羽村市緑ケ丘2-18-5","lat":35.7647394,"lon":139.319607},{"name":"小作浄水場","province":"東京都","city":"羽村市","address":"東京都羽村市小作台4-2-1","lat":35.7761234,"lon":139.295803},{"name":"第一配水場","province":"東京都","city":"羽村市","address":"東京都羽村市緑ケ丘2-18-5","lat":35.7647394,"lon":139.319607},{"name":"小作浄水場","province":"東京都","city":"羽村市","address":"東京都羽村市小作台4-2-1","lat":35.7761234,"lon":139.295803},{"name":"第一配水場","province":"東京都","city":"羽村市","address":"東京都羽村市緑ケ丘2-18-5","lat":35.7647394,"lon":139.319607},{"name":"小作浄水場","province":"東京都","city":"羽村市","address":"東京都羽村市小作台4-2-1","lat":35.7761234,"lon":139.295803},{"name":"第一配水場","province":"東京都","city":"羽村市","address":"東京都羽村市緑ケ丘2-18-5","lat":35.7647394,"lon":139.319607},{"name":"小作浄水場","province":"東京都","city":"羽村市","address":"東京都羽村市小作台4-2-1","lat":35.7761234,"lon":139.295803},{"name":"第一配水場","province":"東京都","city":"羽村市","address":"東京都羽村市緑ケ丘2-18-5","lat":35.7647394,"lon":139.319607},{"name":"小作浄水場","province":"東京都","city":"羽村市","address":"東京都羽村市小作台4-2-1","lat":35.7761234,"lon":139.295803},{"name":"第一配水場","province":"東京都","city":"羽村市","address":"東京都羽村市緑ケ丘2-18-5","lat":35.7647394,"lon":139.319607},{"name":"小作浄水場","province":"東京都","city":"羽村市","address":"東京都羽村市小作台4-2-1","lat":35.7761234,"lon":139.295803},{"name":"第一配水場","province":"東京都","city":"羽村市","address":"東京都羽村市緑ケ丘2-18-5","lat":35.7647394,"lon":139.319607},{"name":"小作浄水場","province":"東京都","city":"羽村市","address":"東京都羽村市小作台4-2-1","lat":35.7761234,"lon":139.295803},{"name":"第一配水場","province":"東京都","city":"羽村市","address":"東京都羽村市緑ケ丘2-18-5","lat":35.7647394,"lon":139.319607},{"name":"小作浄水場","province":"東京都","city":"羽村市","address":"東京都羽村市小作台4-2-1","lat":35.7761234,"lon":139.295803},{"name":"第一配水場","province":"東京都","city":"羽村市","address":"東京都羽村市緑ケ丘2-18-5","lat":35.7647394,"lon":139.319607},{"name":"小作浄水場","province":"東京都","city":"羽村市","address":"東京都羽村市小作台4-2-1","lat":35.7761234,"lon":139.295803},{"name":"第一配水場","province":"東京都","city":"羽村市","address":"東京都羽村市緑ケ丘2-18-5","lat":35.7647394,"lon":139.319607},{"name":"小作浄水場","province":"東京都","city":"羽村市","address":"東京都羽村市小作台4-2-1","lat":35.7761234,"lon":139.295803},{"name":"第一配水場","province":"東京都","city":"羽村市","address":"東京都羽村市緑ケ丘2-18-5","lat":35.7647394,"lon":139.319607},{"name":"小作浄水場","province":"東京都","city":"羽村市","address":"東京都羽村市小作台4-2-1","lat":35.7761234,"lon":139.295803},{"name":"第一配水場","province":"東京都","city":"羽村市","address":"東京都羽村市緑ケ丘2-18-5","lat":35.7647394,"lon":139.319607},{"name":"小作浄水場","province":"東京都","city":"羽村市","address":"東京都羽村市小作台4-2-1","lat":35.7761234,"lon":139.295803},{"name":"第一配水場","province":"東京都","city":"羽村市","address":"東京都羽村市緑ケ丘2-18-5","lat":35.7647394,"lon":139.319607},{"name":"小作浄水場","province":"東京都","city":"羽村市","address":"東京都羽村市小作台4-2-1","lat":35.7761234,"lon":139.295803},{"name":"第一配水場","province":"東京都","city":"羽村市","address":"東京都羽村市緑ケ丘2-18-5","lat":35.7647394,"lon":139.319607},{"name":"小作浄水場","province":"東京都","city":"羽村市","address":"東京都羽村市小作台4-2-1","lat":35.7761234,"lon":139.295803},{"name":"第一配水場","province":"東京都","city":"羽村市","address":"東京都羽村市緑ケ丘2-18-5","lat":35.7647394,"lon":139.319607},{"name":"小作浄水場","province":"東京都","city":"羽村市","address":"東京都羽村市小作台4-2-1","lat":35.7761234,"lon":139.295803},{"name":"第一配水場","province":"東京都","city":"羽村市","address":"東京都羽村市緑ケ丘2-18-5","lat":35.7647394,"lon":139.319607},{"name":"小作浄水場","province":"東京都","city":"羽村市","address":"東京都羽村市小作台4-2-1","lat":35.7761234,"lon":139.295803},{"name":"第一配水場","province":"東京都","city":"羽村市","address":"東京都羽村市緑ケ丘2-18-5","lat":35.7647394,"lon":139.319607},{"name":"小作浄水場","province":"東京都","city":"羽村市","address":"東京都羽村市小作台4-2-1","lat":35.7761234,"lon":139.295803},{"name":"第一配水場","province":"東京都","city":"羽村市","address":"東京都羽村市緑ケ丘2-18-5","lat":35.7647394,"lon":139.319607},{"name":"小作浄水場","province":"東京都","city":"羽村市","address":"東京都羽村市小作台4-2-1","lat":35.7761234,"lon":139.295803},{"name":"第一配水場","province":"東京都","city":"羽村市","address":"東京都羽村市緑ケ丘2-18-5","lat":35.7647394,"lon":139.319607},{"name":"小作浄水場","province":"東京都","city":"羽村市","address":"東京都羽村市小作台4-2-1","lat":35.7761234,"lon":139.295803},{"name":"第一配水場","province":"東京都","city":"羽村市","address":"東京都羽村市緑ケ丘2-18-5","lat":35.7647394,"lon":139.319607},{"name":"小作浄水場","province":"東京都","city":"羽村市","address":"東京都羽村市小作台4-2-1","lat":35.7761234,"lon":139.295803}]}