{"keyword":"命令","data":[{"name":"羽村まつの木保育園","province":"東京都","city":"羽村市","address":"羽村市小作台3-9-12","lat":35.77639,"lon":139.29802},{"name":"かやの実保育園","province":"東京都","city":"羽村市","address":"羽村市栄町2-1-5","lat":35.77195,"lon":139.30655},{"name":"富士見第一保育園","province":"東京都","city":"羽村市","address":"羽村市緑ヶ丘4-12-40","lat":35.76726,"lon":139.31453},{"name":"羽村たつの子保育園","province":"東京都","city":"羽村市","address":"羽村市五ノ神2-6-20","lat":35.76101,"lon":139.3206},{"name":"太陽の子保育園","province":"東京都","city":"羽村市","address":"羽村市五ノ神3-15-7","lat":35.7621,"lon":139.31966},{"name":"富士見第二保育園","province":"東京都","city":"羽村市","address":"羽村市富士見平2-3-16","lat":35.76303,"lon":139.32391},{"name":"羽村しらうめ保育園","province":"東京都","city":"羽村市","address":"羽村市羽東1-29-16","lat":35.76213,"lon":139.31235},{"name":"玉水保育園","province":"東京都","city":"羽村市","address":"羽村市羽東3-21-12","lat":35.75568,"lon":139.31007},{"name":"さくら保育園","province":"東京都","city":"羽村市","address":"羽村市羽加美2-16-1","lat":35.76581,"lon":139.3036},{"name":"まつぼっくり保育園","province":"東京都","city":"羽村市","address":"羽村市羽西1-7-3","lat":35.77147,"lon":139.30037},{"name":"チューリップ保育園","province":"東京都","city":"羽村市","address":"羽村市双葉町1-1-22","lat":35.76336,"lon":139.33096},{"name":"あおぞら保育園","province":"東京都","city":"羽村市","address":"羽村市神明台1-3-9","lat":35.75671,"lon":139.319},{"name":"羽村しらうめ保育園","province":"東京都","city":"羽村市","address":"羽村市羽東1-29-16","lat":35.76214,"lon":139.31235},{"name":"富士見第二保育園","province":"東京都","city":"羽村市","address":"羽村市富士見平2-3-16","lat":35.7654,"lon":139.32941},{"name":"羽村市保健センター","province":"東京都","city":"羽村市","address":"東京都羽村市緑ヶ丘5丁目5-2","lat":35.76879339,"lon":139.31174922},{"name":"羽村市スポーツセンター","province":"東京都","city":"羽村市","address":"東京都羽村市羽加美1丁目29-5","lat":35.76826834,"lon":139.30764403},{"name":"羽村市本庁舎","province":"東京都","city":"羽村市","address":"羽村市緑ヶ丘5-2-1","lat":35.767766,"lon":139.310538},{"name":"羽村まつの木保育園","province":"東京都","city":"羽村市","address":"羽村市小作台3-9-12","lat":35.77639,"lon":139.29802},{"name":"かやの実保育園","province":"東京都","city":"羽村市","address":"羽村市栄町2-1-5","lat":35.77195,"lon":139.30655},{"name":"富士見第一保育園","province":"東京都","city":"羽村市","address":"羽村市緑ヶ丘4-12-40","lat":35.76726,"lon":139.31453},{"name":"羽村たつの子保育園","province":"東京都","city":"羽村市","address":"羽村市五ノ神2-6-20","lat":35.76101,"lon":139.3206},{"name":"太陽の子保育園","province":"東京都","city":"羽村市","address":"羽村市五ノ神3-15-7","lat":35.7621,"lon":139.31966},{"name":"富士見第二保育園","province":"東京都","city":"羽村市","address":"羽村市富士見平2-3-16","lat":35.76303,"lon":139.32391},{"name":"羽村しらうめ保育園","province":"東京都","city":"羽村市","address":"羽村市羽東1-29-16","lat":35.76213,"lon":139.31235},{"name":"玉水保育園","province":"東京都","city":"羽村市","address":"羽村市羽東3-21-12","lat":35.75568,"lon":139.31007},{"name":"さくら保育園","province":"東京都","city":"羽村市","address":"羽村市羽加美2-16-1","lat":35.76581,"lon":139.3036},{"name":"まつぼっくり保育園","province":"東京都","city":"羽村市","address":"羽村市羽西1-7-3","lat":35.77147,"lon":139.30037},{"name":"チューリップ保育園","province":"東京都","city":"羽村市","address":"羽村市双葉町1-1-22","lat":35.76336,"lon":139.33096},{"name":"あおぞら保育園","province":"東京都","city":"羽村市","address":"羽村市神明台1-3-9","lat":35.75671,"lon":139.319},{"name":"羽村しらうめ保育園","province":"東京都","city":"羽村市","address":"羽村市羽東1-29-16","lat":35.76214,"lon":139.31235},{"name":"富士見第二保育園","province":"東京都","city":"羽村市","address":"羽村市富士見平2-3-16","lat":35.7654,"lon":139.32941},{"name":"羽村市保健センター","province":"東京都","city":"羽村市","address":"東京都羽村市緑ヶ丘5丁目5-2","lat":35.76879339,"lon":139.31174922},{"name":"羽村市スポーツセンター","province":"東京都","city":"羽村市","address":"東京都羽村市羽加美1丁目29-5","lat":35.76826834,"lon":139.30764403},{"name":"羽村市本庁舎","province":"東京都","city":"羽村市","address":"羽村市緑ヶ丘5-2-1","lat":35.767766,"lon":139.310538},{"name":"羽村まつの木保育園","province":"東京都","city":"羽村市","address":"羽村市小作台3-9-12","lat":35.77639,"lon":139.29802},{"name":"かやの実保育園","province":"東京都","city":"羽村市","address":"羽村市栄町2-1-5","lat":35.77195,"lon":139.30655},{"name":"富士見第一保育園","province":"東京都","city":"羽村市","address":"羽村市緑ヶ丘4-12-40","lat":35.76726,"lon":139.31453},{"name":"羽村たつの子保育園","province":"東京都","city":"羽村市","address":"羽村市五ノ神2-6-20","lat":35.76101,"lon":139.3206},{"name":"太陽の子保育園","province":"東京都","city":"羽村市","address":"羽村市五ノ神3-15-7","lat":35.7621,"lon":139.31966},{"name":"富士見第二保育園","province":"東京都","city":"羽村市","address":"羽村市富士見平2-3-16","lat":35.76303,"lon":139.32391},{"name":"羽村しらうめ保育園","province":"東京都","city":"羽村市","address":"羽村市羽東1-29-16","lat":35.76213,"lon":139.31235},{"name":"玉水保育園","province":"東京都","city":"羽村市","address":"羽村市羽東3-21-12","lat":35.75568,"lon":139.31007},{"name":"さくら保育園","province":"東京都","city":"羽村市","address":"羽村市羽加美2-16-1","lat":35.76581,"lon":139.3036},{"name":"まつぼっくり保育園","province":"東京都","city":"羽村市","address":"羽村市羽西1-7-3","lat":35.77147,"lon":139.30037},{"name":"チューリップ保育園","province":"東京都","city":"羽村市","address":"羽村市双葉町1-1-22","lat":35.76336,"lon":139.33096},{"name":"あおぞら保育園","province":"東京都","city":"羽村市","address":"羽村市神明台1-3-9","lat":35.75671,"lon":139.319},{"name":"羽村しらうめ保育園","province":"東京都","city":"羽村市","address":"羽村市羽東1-29-16","lat":35.76214,"lon":139.31235},{"name":"富士見第二保育園","province":"東京都","city":"羽村市","address":"羽村市富士見平2-3-16","lat":35.7654,"lon":139.32941},{"name":"羽村まつの木保育園","province":"東京都","city":"羽村市","address":"羽村市小作台3-9-12","lat":35.77639,"lon":139.29802},{"name":"かやの実保育園","province":"東京都","city":"羽村市","address":"羽村市栄町2-1-5","lat":35.77195,"lon":139.30655},{"name":"富士見第一保育園","province":"東京都","city":"羽村市","address":"羽村市緑ヶ丘4-12-40","lat":35.76726,"lon":139.31453},{"name":"羽村たつの子保育園","province":"東京都","city":"羽村市","address":"羽村市五ノ神2-6-20","lat":35.76101,"lon":139.3206},{"name":"太陽の子保育園","province":"東京都","city":"羽村市","address":"羽村市五ノ神3-15-7","lat":35.7621,"lon":139.31966},{"name":"富士見第二保育園","province":"東京都","city":"羽村市","address":"羽村市富士見平2-3-16","lat":35.76303,"lon":139.32391},{"name":"羽村しらうめ保育園","province":"東京都","city":"羽村市","address":"羽村市羽東1-29-16","lat":35.76213,"lon":139.31235},{"name":"玉水保育園","province":"東京都","city":"羽村市","address":"羽村市羽東3-21-12","lat":35.75568,"lon":139.31007},{"name":"さくら保育園","province":"東京都","city":"羽村市","address":"羽村市羽加美2-16-1","lat":35.76581,"lon":139.3036},{"name":"まつぼっくり保育園","province":"東京都","city":"羽村市","address":"羽村市羽西1-7-3","lat":35.77147,"lon":139.30037},{"name":"チューリップ保育園","province":"東京都","city":"羽村市","address":"羽村市双葉町1-1-22","lat":35.76336,"lon":139.33096},{"name":"あおぞら保育園","province":"東京都","city":"羽村市","address":"羽村市神明台1-3-9","lat":35.75671,"lon":139.319},{"name":"羽村しらうめ保育園","province":"東京都","city":"羽村市","address":"羽村市羽東1-29-16","lat":35.76214,"lon":139.31235},{"name":"富士見第二保育園","province":"東京都","city":"羽村市","address":"羽村市富士見平2-3-16","lat":35.7654,"lon":139.32941},{"name":"羽村まつの木保育園","province":"東京都","city":"羽村市","address":"羽村市小作台3-9-12","lat":35.77639,"lon":139.29802},{"name":"かやの実保育園","province":"東京都","city":"羽村市","address":"羽村市栄町2-1-5","lat":35.77195,"lon":139.30655},{"name":"富士見第一保育園","province":"東京都","city":"羽村市","address":"羽村市緑ヶ丘4-12-40","lat":35.76726,"lon":139.31453},{"name":"羽村たつの子保育園","province":"東京都","city":"羽村市","address":"羽村市五ノ神2-6-20","lat":35.76101,"lon":139.3206},{"name":"太陽の子保育園","province":"東京都","city":"羽村市","address":"羽村市五ノ神3-15-7","lat":35.7621,"lon":139.31966},{"name":"富士見第二保育園","province":"東京都","city":"羽村市","address":"羽村市富士見平2-3-16","lat":35.76303,"lon":139.32391},{"name":"羽村しらうめ保育園","province":"東京都","city":"羽村市","address":"羽村市羽東1-29-16","lat":35.76213,"lon":139.31235},{"name":"玉水保育園","province":"東京都","city":"羽村市","address":"羽村市羽東3-21-12","lat":35.75568,"lon":139.31007},{"name":"さくら保育園","province":"東京都","city":"羽村市","address":"羽村市羽加美2-16-1","lat":35.76581,"lon":139.3036},{"name":"まつぼっくり保育園","province":"東京都","city":"羽村市","address":"羽村市羽西1-7-3","lat":35.77147,"lon":139.30037},{"name":"チューリップ保育園","province":"東京都","city":"羽村市","address":"羽村市双葉町1-1-22","lat":35.76336,"lon":139.33096},{"name":"あおぞら保育園","province":"東京都","city":"羽村市","address":"羽村市神明台1-3-9","lat":35.75671,"lon":139.319},{"name":"羽村しらうめ保育園","province":"東京都","city":"羽村市","address":"羽村市羽東1-29-16","lat":35.76214,"lon":139.31235},{"name":"富士見第二保育園","province":"東京都","city":"羽村市","address":"羽村市富士見平2-3-16","lat":35.7654,"lon":139.32941},{"name":"羽村まつの木保育園","province":"東京都","city":"羽村市","address":"羽村市小作台3-9-12","lat":35.77639,"lon":139.29802},{"name":"かやの実保育園","province":"東京都","city":"羽村市","address":"羽村市栄町2-1-5","lat":35.77195,"lon":139.30655},{"name":"富士見第一保育園","province":"東京都","city":"羽村市","address":"羽村市緑ヶ丘4-12-40","lat":35.76726,"lon":139.31453},{"name":"羽村たつの子保育園","province":"東京都","city":"羽村市","address":"羽村市五ノ神2-6-20","lat":35.76101,"lon":139.3206},{"name":"太陽の子保育園","province":"東京都","city":"羽村市","address":"羽村市五ノ神3-15-7","lat":35.7621,"lon":139.31966},{"name":"富士見第二保育園","province":"東京都","city":"羽村市","address":"羽村市富士見平2-3-16","lat":35.76303,"lon":139.32391},{"name":"羽村しらうめ保育園","province":"東京都","city":"羽村市","address":"羽村市羽東1-29-16","lat":35.76213,"lon":139.31235},{"name":"玉水保育園","province":"東京都","city":"羽村市","address":"羽村市羽東3-21-12","lat":35.75568,"lon":139.31007},{"name":"さくら保育園","province":"東京都","city":"羽村市","address":"羽村市羽加美2-16-1","lat":35.76581,"lon":139.3036},{"name":"まつぼっくり保育園","province":"東京都","city":"羽村市","address":"羽村市羽西1-7-3","lat":35.77147,"lon":139.30037},{"name":"チューリップ保育園","province":"東京都","city":"羽村市","address":"羽村市双葉町1-1-22","lat":35.76336,"lon":139.33096},{"name":"あおぞら保育園","province":"東京都","city":"羽村市","address":"羽村市神明台1-3-9","lat":35.75671,"lon":139.319},{"name":"羽村しらうめ保育園","province":"東京都","city":"羽村市","address":"羽村市羽東1-29-16","lat":35.76214,"lon":139.31235},{"name":"富士見第二保育園","province":"東京都","city":"羽村市","address":"羽村市富士見平2-3-16","lat":35.7654,"lon":139.32941},{"name":"羽村まつの木保育園","province":"東京都","city":"羽村市","address":"羽村市小作台3-9-12","lat":35.77639,"lon":139.29802},{"name":"かやの実保育園","province":"東京都","city":"羽村市","address":"羽村市栄町2-1-5","lat":35.77195,"lon":139.30655},{"name":"富士見第一保育園","province":"東京都","city":"羽村市","address":"羽村市緑ヶ丘4-12-40","lat":35.76726,"lon":139.31453},{"name":"羽村たつの子保育園","province":"東京都","city":"羽村市","address":"羽村市五ノ神2-6-20","lat":35.76101,"lon":139.3206},{"name":"太陽の子保育園","province":"東京都","city":"羽村市","address":"羽村市五ノ神3-15-7","lat":35.7621,"lon":139.31966},{"name":"富士見第二保育園","province":"東京都","city":"羽村市","address":"羽村市富士見平2-3-16","lat":35.76303,"lon":139.32391},{"name":"羽村しらうめ保育園","province":"東京都","city":"羽村市","address":"羽村市羽東1-29-16","lat":35.76213,"lon":139.31235},{"name":"玉水保育園","province":"東京都","city":"羽村市","address":"羽村市羽東3-21-12","lat":35.75568,"lon":139.31007},{"name":"さくら保育園","province":"東京都","city":"羽村市","address":"羽村市羽加美2-16-1","lat":35.76581,"lon":139.3036},{"name":"まつぼっくり保育園","province":"東京都","city":"羽村市","address":"羽村市羽西1-7-3","lat":35.77147,"lon":139.30037},{"name":"チューリップ保育園","province":"東京都","city":"羽村市","address":"羽村市双葉町1-1-22","lat":35.76336,"lon":139.33096},{"name":"あおぞら保育園","province":"東京都","city":"羽村市","address":"羽村市神明台1-3-9","lat":35.75671,"lon":139.319},{"name":"羽村しらうめ保育園","province":"東京都","city":"羽村市","address":"羽村市羽東1-29-16","lat":35.76214,"lon":139.31235},{"name":"富士見第二保育園","province":"東京都","city":"羽村市","address":"羽村市富士見平2-3-16","lat":35.7654,"lon":139.32941},{"name":"羽村まつの木保育園","province":"東京都","city":"羽村市","address":"羽村市小作台3-9-12","lat":35.77639,"lon":139.29802},{"name":"かやの実保育園","province":"東京都","city":"羽村市","address":"羽村市栄町2-1-5","lat":35.77195,"lon":139.30655},{"name":"富士見第一保育園","province":"東京都","city":"羽村市","address":"羽村市緑ヶ丘4-12-40","lat":35.76726,"lon":139.31453},{"name":"羽村たつの子保育園","province":"東京都","city":"羽村市","address":"羽村市五ノ神2-6-20","lat":35.76101,"lon":139.3206},{"name":"太陽の子保育園","province":"東京都","city":"羽村市","address":"羽村市五ノ神3-15-7","lat":35.7621,"lon":139.31966},{"name":"富士見第二保育園","province":"東京都","city":"羽村市","address":"羽村市富士見平2-3-16","lat":35.76303,"lon":139.32391},{"name":"羽村しらうめ保育園","province":"東京都","city":"羽村市","address":"羽村市羽東1-29-16","lat":35.76213,"lon":139.31235},{"name":"玉水保育園","province":"東京都","city":"羽村市","address":"羽村市羽東3-21-12","lat":35.75568,"lon":139.31007},{"name":"さくら保育園","province":"東京都","city":"羽村市","address":"羽村市羽加美2-16-1","lat":35.76581,"lon":139.3036},{"name":"まつぼっくり保育園","province":"東京都","city":"羽村市","address":"羽村市羽西1-7-3","lat":35.77147,"lon":139.30037},{"name":"チューリップ保育園","province":"東京都","city":"羽村市","address":"羽村市双葉町1-1-22","lat":35.76336,"lon":139.33096},{"name":"あおぞら保育園","province":"東京都","city":"羽村市","address":"羽村市神明台1-3-9","lat":35.75671,"lon":139.319},{"name":"羽村しらうめ保育園","province":"東京都","city":"羽村市","address":"羽村市羽東1-29-16","lat":35.76214,"lon":139.31235},{"name":"富士見第二保育園","province":"東京都","city":"羽村市","address":"羽村市富士見平2-3-16","lat":35.7654,"lon":139.32941},{"name":"羽村まつの木保育園","province":"東京都","city":"羽村市","address":"羽村市小作台3-9-12","lat":35.77639,"lon":139.29802},{"name":"かやの実保育園","province":"東京都","city":"羽村市","address":"羽村市栄町2-1-5","lat":35.77195,"lon":139.30655},{"name":"富士見第一保育園","province":"東京都","city":"羽村市","address":"羽村市緑ヶ丘4-12-40","lat":35.76726,"lon":139.31453},{"name":"羽村たつの子保育園","province":"東京都","city":"羽村市","address":"羽村市五ノ神2-6-20","lat":35.76101,"lon":139.3206},{"name":"太陽の子保育園","province":"東京都","city":"羽村市","address":"羽村市五ノ神3-15-7","lat":35.7621,"lon":139.31966},{"name":"富士見第二保育園","province":"東京都","city":"羽村市","address":"羽村市富士見平2-3-16","lat":35.76303,"lon":139.32391},{"name":"羽村しらうめ保育園","province":"東京都","city":"羽村市","address":"羽村市羽東1-29-16","lat":35.76213,"lon":139.31235},{"name":"玉水保育園","province":"東京都","city":"羽村市","address":"羽村市羽東3-21-12","lat":35.75568,"lon":139.31007},{"name":"さくら保育園","province":"東京都","city":"羽村市","address":"羽村市羽加美2-16-1","lat":35.76581,"lon":139.3036},{"name":"まつぼっくり保育園","province":"東京都","city":"羽村市","address":"羽村市羽西1-7-3","lat":35.77147,"lon":139.30037},{"name":"チューリップ保育園","province":"東京都","city":"羽村市","address":"羽村市双葉町1-1-22","lat":35.76336,"lon":139.33096},{"name":"あおぞら保育園","province":"東京都","city":"羽村市","address":"羽村市神明台1-3-9","lat":35.75671,"lon":139.319},{"name":"羽村しらうめ保育園","province":"東京都","city":"羽村市","address":"羽村市羽東1-29-16","lat":35.76214,"lon":139.31235},{"name":"富士見第二保育園","province":"東京都","city":"羽村市","address":"羽村市富士見平2-3-16","lat":35.7654,"lon":139.32941},{"name":"羽村まつの木保育園","province":"東京都","city":"羽村市","address":"羽村市小作台3-9-12","lat":35.77639,"lon":139.29802},{"name":"かやの実保育園","province":"東京都","city":"羽村市","address":"羽村市栄町2-1-5","lat":35.77195,"lon":139.30655},{"name":"富士見第一保育園","province":"東京都","city":"羽村市","address":"羽村市緑ヶ丘4-12-40","lat":35.76726,"lon":139.31453},{"name":"羽村たつの子保育園","province":"東京都","city":"羽村市","address":"羽村市五ノ神2-6-20","lat":35.76101,"lon":139.3206},{"name":"太陽の子保育園","province":"東京都","city":"羽村市","address":"羽村市五ノ神3-15-7","lat":35.7621,"lon":139.31966},{"name":"富士見第二保育園","province":"東京都","city":"羽村市","address":"羽村市富士見平2-3-16","lat":35.76303,"lon":139.32391},{"name":"羽村しらうめ保育園","province":"東京都","city":"羽村市","address":"羽村市羽東1-29-16","lat":35.76213,"lon":139.31235},{"name":"玉水保育園","province":"東京都","city":"羽村市","address":"羽村市羽東3-21-12","lat":35.75568,"lon":139.31007},{"name":"さくら保育園","province":"東京都","city":"羽村市","address":"羽村市羽加美2-16-1","lat":35.76581,"lon":139.3036},{"name":"まつぼっくり保育園","province":"東京都","city":"羽村市","address":"羽村市羽西1-7-3","lat":35.77147,"lon":139.30037},{"name":"チューリップ保育園","province":"東京都","city":"羽村市","address":"羽村市双葉町1-1-22","lat":35.76336,"lon":139.33096},{"name":"あおぞら保育園","province":"東京都","city":"羽村市","address":"羽村市神明台1-3-9","lat":35.75671,"lon":139.319},{"name":"羽村しらうめ保育園","province":"東京都","city":"羽村市","address":"羽村市羽東1-29-16","lat":35.76214,"lon":139.31235},{"name":"富士見第二保育園","province":"東京都","city":"羽村市","address":"羽村市富士見平2-3-16","lat":35.7654,"lon":139.32941},{"name":"羽村まつの木保育園","province":"東京都","city":"羽村市","address":"羽村市小作台3-9-12","lat":35.77639,"lon":139.29802},{"name":"かやの実保育園","province":"東京都","city":"羽村市","address":"羽村市栄町2-1-5","lat":35.77195,"lon":139.30655},{"name":"富士見第一保育園","province":"東京都","city":"羽村市","address":"羽村市緑ヶ丘4-12-40","lat":35.76726,"lon":139.31453},{"name":"羽村たつの子保育園","province":"東京都","city":"羽村市","address":"羽村市五ノ神2-6-20","lat":35.76101,"lon":139.3206},{"name":"太陽の子保育園","province":"東京都","city":"羽村市","address":"羽村市五ノ神3-15-7","lat":35.7621,"lon":139.31966},{"name":"富士見第二保育園","province":"東京都","city":"羽村市","address":"羽村市富士見平2-3-16","lat":35.76303,"lon":139.32391},{"name":"羽村しらうめ保育園","province":"東京都","city":"羽村市","address":"羽村市羽東1-29-16","lat":35.76213,"lon":139.31235},{"name":"玉水保育園","province":"東京都","city":"羽村市","address":"羽村市羽東3-21-12","lat":35.75568,"lon":139.31007},{"name":"さくら保育園","province":"東京都","city":"羽村市","address":"羽村市羽加美2-16-1","lat":35.76581,"lon":139.3036},{"name":"まつぼっくり保育園","province":"東京都","city":"羽村市","address":"羽村市羽西1-7-3","lat":35.77147,"lon":139.30037},{"name":"チューリップ保育園","province":"東京都","city":"羽村市","address":"羽村市双葉町1-1-22","lat":35.76336,"lon":139.33096},{"name":"あおぞら保育園","province":"東京都","city":"羽村市","address":"羽村市神明台1-3-9","lat":35.75671,"lon":139.319},{"name":"羽村しらうめ保育園","province":"東京都","city":"羽村市","address":"羽村市羽東1-29-16","lat":35.76214,"lon":139.31235},{"name":"富士見第二保育園","province":"東京都","city":"羽村市","address":"羽村市富士見平2-3-16","lat":35.7654,"lon":139.32941},{"name":"羽村まつの木保育園","province":"東京都","city":"羽村市","address":"羽村市小作台3-9-12","lat":35.77639,"lon":139.29802},{"name":"かやの実保育園","province":"東京都","city":"羽村市","address":"羽村市栄町2-1-5","lat":35.77195,"lon":139.30655},{"name":"富士見第一保育園","province":"東京都","city":"羽村市","address":"羽村市緑ヶ丘4-12-40","lat":35.76726,"lon":139.31453},{"name":"羽村たつの子保育園","province":"東京都","city":"羽村市","address":"羽村市五ノ神2-6-20","lat":35.76101,"lon":139.3206},{"name":"太陽の子保育園","province":"東京都","city":"羽村市","address":"羽村市五ノ神3-15-7","lat":35.7621,"lon":139.31966},{"name":"富士見第二保育園","province":"東京都","city":"羽村市","address":"羽村市富士見平2-3-16","lat":35.76303,"lon":139.32391},{"name":"羽村しらうめ保育園","province":"東京都","city":"羽村市","address":"羽村市羽東1-29-16","lat":35.76213,"lon":139.31235},{"name":"玉水保育園","province":"東京都","city":"羽村市","address":"羽村市羽東3-21-12","lat":35.75568,"lon":139.31007},{"name":"さくら保育園","province":"東京都","city":"羽村市","address":"羽村市羽加美2-16-1","lat":35.76581,"lon":139.3036},{"name":"まつぼっくり保育園","province":"東京都","city":"羽村市","address":"羽村市羽西1-7-3","lat":35.77147,"lon":139.30037},{"name":"チューリップ保育園","province":"東京都","city":"羽村市","address":"羽村市双葉町1-1-22","lat":35.76336,"lon":139.33096},{"name":"あおぞら保育園","province":"東京都","city":"羽村市","address":"羽村市神明台1-3-9","lat":35.75671,"lon":139.319},{"name":"羽村しらうめ保育園","province":"東京都","city":"羽村市","address":"羽村市羽東1-29-16","lat":35.76214,"lon":139.31235},{"name":"富士見第二保育園","province":"東京都","city":"羽村市","address":"羽村市富士見平2-3-16","lat":35.7654,"lon":139.32941},{"name":"羽村まつの木保育園","province":"東京都","city":"羽村市","address":"羽村市小作台3-9-12","lat":35.77639,"lon":139.29802},{"name":"かやの実保育園","province":"東京都","city":"羽村市","address":"羽村市栄町2-1-5","lat":35.77195,"lon":139.30655},{"name":"富士見第一保育園","province":"東京都","city":"羽村市","address":"羽村市緑ヶ丘4-12-40","lat":35.76726,"lon":139.31453},{"name":"羽村たつの子保育園","province":"東京都","city":"羽村市","address":"羽村市五ノ神2-6-20","lat":35.76101,"lon":139.3206},{"name":"太陽の子保育園","province":"東京都","city":"羽村市","address":"羽村市五ノ神3-15-7","lat":35.7621,"lon":139.31966},{"name":"富士見第二保育園","province":"東京都","city":"羽村市","address":"羽村市富士見平2-3-16","lat":35.76303,"lon":139.32391},{"name":"羽村しらうめ保育園","province":"東京都","city":"羽村市","address":"羽村市羽東1-29-16","lat":35.76213,"lon":139.31235},{"name":"玉水保育園","province":"東京都","city":"羽村市","address":"羽村市羽東3-21-12","lat":35.75568,"lon":139.31007},{"name":"さくら保育園","province":"東京都","city":"羽村市","address":"羽村市羽加美2-16-1","lat":35.76581,"lon":139.3036},{"name":"まつぼっくり保育園","province":"東京都","city":"羽村市","address":"羽村市羽西1-7-3","lat":35.77147,"lon":139.30037},{"name":"チューリップ保育園","province":"東京都","city":"羽村市","address":"羽村市双葉町1-1-22","lat":35.76336,"lon":139.33096},{"name":"あおぞら保育園","province":"東京都","city":"羽村市","address":"羽村市神明台1-3-9","lat":35.75671,"lon":139.319},{"name":"羽村しらうめ保育園","province":"東京都","city":"羽村市","address":"羽村市羽東1-29-16","lat":35.76214,"lon":139.31235},{"name":"富士見第二保育園","province":"東京都","city":"羽村市","address":"羽村市富士見平2-3-16","lat":35.7654,"lon":139.32941},{"name":"羽村まつの木保育園","province":"東京都","city":"羽村市","address":"羽村市小作台3-9-12","lat":35.77639,"lon":139.29802},{"name":"かやの実保育園","province":"東京都","city":"羽村市","address":"羽村市栄町2-1-5","lat":35.77195,"lon":139.30655},{"name":"富士見第一保育園","province":"東京都","city":"羽村市","address":"羽村市緑ヶ丘4-12-40","lat":35.76726,"lon":139.31453},{"name":"羽村たつの子保育園","province":"東京都","city":"羽村市","address":"羽村市五ノ神2-6-20","lat":35.76101,"lon":139.3206},{"name":"太陽の子保育園","province":"東京都","city":"羽村市","address":"羽村市五ノ神3-15-7","lat":35.7621,"lon":139.31966},{"name":"富士見第二保育園","province":"東京都","city":"羽村市","address":"羽村市富士見平2-3-16","lat":35.76303,"lon":139.32391},{"name":"羽村しらうめ保育園","province":"東京都","city":"羽村市","address":"羽村市羽東1-29-16","lat":35.76213,"lon":139.31235},{"name":"玉水保育園","province":"東京都","city":"羽村市","address":"羽村市羽東3-21-12","lat":35.75568,"lon":139.31007},{"name":"さくら保育園","province":"東京都","city":"羽村市","address":"羽村市羽加美2-16-1","lat":35.76581,"lon":139.3036},{"name":"まつぼっくり保育園","province":"東京都","city":"羽村市","address":"羽村市羽西1-7-3","lat":35.77147,"lon":139.30037},{"name":"チューリップ保育園","province":"東京都","city":"羽村市","address":"羽村市双葉町1-1-22","lat":35.76336,"lon":139.33096},{"name":"あおぞら保育園","province":"東京都","city":"羽村市","address":"羽村市神明台1-3-9","lat":35.75671,"lon":139.319},{"name":"羽村しらうめ保育園","province":"東京都","city":"羽村市","address":"羽村市羽東1-29-16","lat":35.76214,"lon":139.31235},{"name":"富士見第二保育園","province":"東京都","city":"羽村市","address":"羽村市富士見平2-3-16","lat":35.7654,"lon":139.32941},{"name":"羽村まつの木保育園","province":"東京都","city":"羽村市","address":"羽村市小作台3-9-12","lat":35.77639,"lon":139.29802},{"name":"かやの実保育園","province":"東京都","city":"羽村市","address":"羽村市栄町2-1-5","lat":35.77195,"lon":139.30655},{"name":"富士見第一保育園","province":"東京都","city":"羽村市","address":"羽村市緑ヶ丘4-12-40","lat":35.76726,"lon":139.31453},{"name":"羽村たつの子保育園","province":"東京都","city":"羽村市","address":"羽村市五ノ神2-6-20","lat":35.76101,"lon":139.3206},{"name":"太陽の子保育園","province":"東京都","city":"羽村市","address":"羽村市五ノ神3-15-7","lat":35.7621,"lon":139.31966},{"name":"富士見第二保育園","province":"東京都","city":"羽村市","address":"羽村市富士見平2-3-16","lat":35.76303,"lon":139.32391},{"name":"羽村しらうめ保育園","province":"東京都","city":"羽村市","address":"羽村市羽東1-29-16","lat":35.76213,"lon":139.31235},{"name":"玉水保育園","province":"東京都","city":"羽村市","address":"羽村市羽東3-21-12","lat":35.75568,"lon":139.31007},{"name":"さくら保育園","province":"東京都","city":"羽村市","address":"羽村市羽加美2-16-1","lat":35.76581,"lon":139.3036},{"name":"まつぼっくり保育園","province":"東京都","city":"羽村市","address":"羽村市羽西1-7-3","lat":35.77147,"lon":139.30037},{"name":"チューリップ保育園","province":"東京都","city":"羽村市","address":"羽村市双葉町1-1-22","lat":35.76336,"lon":139.33096},{"name":"あおぞら保育園","province":"東京都","city":"羽村市","address":"羽村市神明台1-3-9","lat":35.75671,"lon":139.319},{"name":"羽村しらうめ保育園","province":"東京都","city":"羽村市","address":"羽村市羽東1-29-16","lat":35.76214,"lon":139.31235},{"name":"富士見第二保育園","province":"東京都","city":"羽村市","address":"羽村市富士見平2-3-16","lat":35.7654,"lon":139.32941},{"name":"羽村まつの木保育園","province":"東京都","city":"羽村市","address":"羽村市小作台3-9-12","lat":35.77639,"lon":139.29802},{"name":"かやの実保育園","province":"東京都","city":"羽村市","address":"羽村市栄町2-1-5","lat":35.77195,"lon":139.30655},{"name":"富士見第一保育園","province":"東京都","city":"羽村市","address":"羽村市緑ヶ丘4-12-40","lat":35.76726,"lon":139.31453},{"name":"羽村たつの子保育園","province":"東京都","city":"羽村市","address":"羽村市五ノ神2-6-20","lat":35.76101,"lon":139.3206},{"name":"太陽の子保育園","province":"東京都","city":"羽村市","address":"羽村市五ノ神3-15-7","lat":35.7621,"lon":139.31966},{"name":"富士見第二保育園","province":"東京都","city":"羽村市","address":"羽村市富士見平2-3-16","lat":35.76303,"lon":139.32391},{"name":"羽村しらうめ保育園","province":"東京都","city":"羽村市","address":"羽村市羽東1-29-16","lat":35.76213,"lon":139.31235},{"name":"玉水保育園","province":"東京都","city":"羽村市","address":"羽村市羽東3-21-12","lat":35.75568,"lon":139.31007},{"name":"さくら保育園","province":"東京都","city":"羽村市","address":"羽村市羽加美2-16-1","lat":35.76581,"lon":139.3036},{"name":"まつぼっくり保育園","province":"東京都","city":"羽村市","address":"羽村市羽西1-7-3","lat":35.77147,"lon":139.30037},{"name":"チューリップ保育園","province":"東京都","city":"羽村市","address":"羽村市双葉町1-1-22","lat":35.76336,"lon":139.33096},{"name":"あおぞら保育園","province":"東京都","city":"羽村市","address":"羽村市神明台1-3-9","lat":35.75671,"lon":139.319},{"name":"羽村しらうめ保育園","province":"東京都","city":"羽村市","address":"羽村市羽東1-29-16","lat":35.76214,"lon":139.31235},{"name":"富士見第二保育園","province":"東京都","city":"羽村市","address":"羽村市富士見平2-3-16","lat":35.7654,"lon":139.32941},{"name":"羽村まつの木保育園","province":"東京都","city":"羽村市","address":"羽村市小作台3-9-12","lat":35.77639,"lon":139.29802},{"name":"かやの実保育園","province":"東京都","city":"羽村市","address":"羽村市栄町2-1-5","lat":35.77195,"lon":139.30655},{"name":"富士見第一保育園","province":"東京都","city":"羽村市","address":"羽村市緑ヶ丘4-12-40","lat":35.76726,"lon":139.31453},{"name":"羽村たつの子保育園","province":"東京都","city":"羽村市","address":"羽村市五ノ神2-6-20","lat":35.76101,"lon":139.3206},{"name":"太陽の子保育園","province":"東京都","city":"羽村市","address":"羽村市五ノ神3-15-7","lat":35.7621,"lon":139.31966},{"name":"富士見第二保育園","province":"東京都","city":"羽村市","address":"羽村市富士見平2-3-16","lat":35.76303,"lon":139.32391},{"name":"羽村しらうめ保育園","province":"東京都","city":"羽村市","address":"羽村市羽東1-29-16","lat":35.76213,"lon":139.31235},{"name":"玉水保育園","province":"東京都","city":"羽村市","address":"羽村市羽東3-21-12","lat":35.75568,"lon":139.31007},{"name":"さくら保育園","province":"東京都","city":"羽村市","address":"羽村市羽加美2-16-1","lat":35.76581,"lon":139.3036},{"name":"まつぼっくり保育園","province":"東京都","city":"羽村市","address":"羽村市羽西1-7-3","lat":35.77147,"lon":139.30037},{"name":"チューリップ保育園","province":"東京都","city":"羽村市","address":"羽村市双葉町1-1-22","lat":35.76336,"lon":139.33096},{"name":"あおぞら保育園","province":"東京都","city":"羽村市","address":"羽村市神明台1-3-9","lat":35.75671,"lon":139.319},{"name":"羽村しらうめ保育園","province":"東京都","city":"羽村市","address":"羽村市羽東1-29-16","lat":35.76214,"lon":139.31235},{"name":"富士見第二保育園","province":"東京都","city":"羽村市","address":"羽村市富士見平2-3-16","lat":35.7654,"lon":139.32941},{"name":"羽村まつの木保育園","province":"東京都","city":"羽村市","address":"羽村市小作台3-9-12","lat":35.77639,"lon":139.29802},{"name":"かやの実保育園","province":"東京都","city":"羽村市","address":"羽村市栄町2-1-5","lat":35.77195,"lon":139.30655},{"name":"富士見第一保育園","province":"東京都","city":"羽村市","address":"羽村市緑ヶ丘4-12-40","lat":35.76726,"lon":139.31453},{"name":"羽村たつの子保育園","province":"東京都","city":"羽村市","address":"羽村市五ノ神2-6-20","lat":35.76101,"lon":139.3206},{"name":"太陽の子保育園","province":"東京都","city":"羽村市","address":"羽村市五ノ神3-15-7","lat":35.7621,"lon":139.31966},{"name":"富士見第二保育園","province":"東京都","city":"羽村市","address":"羽村市富士見平2-3-16","lat":35.76303,"lon":139.32391},{"name":"羽村しらうめ保育園","province":"東京都","city":"羽村市","address":"羽村市羽東1-29-16","lat":35.76213,"lon":139.31235},{"name":"玉水保育園","province":"東京都","city":"羽村市","address":"羽村市羽東3-21-12","lat":35.75568,"lon":139.31007},{"name":"さくら保育園","province":"東京都","city":"羽村市","address":"羽村市羽加美2-16-1","lat":35.76581,"lon":139.3036},{"name":"まつぼっくり保育園","province":"東京都","city":"羽村市","address":"羽村市羽西1-7-3","lat":35.77147,"lon":139.30037},{"name":"チューリップ保育園","province":"東京都","city":"羽村市","address":"羽村市双葉町1-1-22","lat":35.76336,"lon":139.33096},{"name":"あおぞら保育園","province":"東京都","city":"羽村市","address":"羽村市神明台1-3-9","lat":35.75671,"lon":139.319},{"name":"羽村しらうめ保育園","province":"東京都","city":"羽村市","address":"羽村市羽東1-29-16","lat":35.76214,"lon":139.31235},{"name":"富士見第二保育園","province":"東京都","city":"羽村市","address":"羽村市富士見平2-3-16","lat":35.7654,"lon":139.32941},{"name":"羽村まつの木保育園","province":"東京都","city":"羽村市","address":"羽村市小作台3-9-12","lat":35.77639,"lon":139.29802},{"name":"かやの実保育園","province":"東京都","city":"羽村市","address":"羽村市栄町2-1-5","lat":35.77195,"lon":139.30655},{"name":"富士見第一保育園","province":"東京都","city":"羽村市","address":"羽村市緑ヶ丘4-12-40","lat":35.76726,"lon":139.31453},{"name":"羽村たつの子保育園","province":"東京都","city":"羽村市","address":"羽村市五ノ神2-6-20","lat":35.76101,"lon":139.3206},{"name":"太陽の子保育園","province":"東京都","city":"羽村市","address":"羽村市五ノ神3-15-7","lat":35.7621,"lon":139.31966},{"name":"富士見第二保育園","province":"東京都","city":"羽村市","address":"羽村市富士見平2-3-16","lat":35.76303,"lon":139.32391},{"name":"羽村しらうめ保育園","province":"東京都","city":"羽村市","address":"羽村市羽東1-29-16","lat":35.76213,"lon":139.31235},{"name":"玉水保育園","province":"東京都","city":"羽村市","address":"羽村市羽東3-21-12","lat":35.75568,"lon":139.31007},{"name":"さくら保育園","province":"東京都","city":"羽村市","address":"羽村市羽加美2-16-1","lat":35.76581,"lon":139.3036},{"name":"まつぼっくり保育園","province":"東京都","city":"羽村市","address":"羽村市羽西1-7-3","lat":35.77147,"lon":139.30037},{"name":"チューリップ保育園","province":"東京都","city":"羽村市","address":"羽村市双葉町1-1-22","lat":35.76336,"lon":139.33096},{"name":"あおぞら保育園","province":"東京都","city":"羽村市","address":"羽村市神明台1-3-9","lat":35.75671,"lon":139.319},{"name":"羽村しらうめ保育園","province":"東京都","city":"羽村市","address":"羽村市羽東1-29-16","lat":35.76214,"lon":139.31235},{"name":"富士見第二保育園","province":"東京都","city":"羽村市","address":"羽村市富士見平2-3-16","lat":35.7654,"lon":139.32941},{"name":"羽村まつの木保育園","province":"東京都","city":"羽村市","address":"羽村市小作台3-9-12","lat":35.77639,"lon":139.29802},{"name":"かやの実保育園","province":"東京都","city":"羽村市","address":"羽村市栄町2-1-5","lat":35.77195,"lon":139.30655},{"name":"富士見第一保育園","province":"東京都","city":"羽村市","address":"羽村市緑ヶ丘4-12-40","lat":35.76726,"lon":139.31453},{"name":"羽村たつの子保育園","province":"東京都","city":"羽村市","address":"羽村市五ノ神2-6-20","lat":35.76101,"lon":139.3206},{"name":"太陽の子保育園","province":"東京都","city":"羽村市","address":"羽村市五ノ神3-15-7","lat":35.7621,"lon":139.31966},{"name":"富士見第二保育園","province":"東京都","city":"羽村市","address":"羽村市富士見平2-3-16","lat":35.76303,"lon":139.32391},{"name":"羽村しらうめ保育園","province":"東京都","city":"羽村市","address":"羽村市羽東1-29-16","lat":35.76213,"lon":139.31235},{"name":"玉水保育園","province":"東京都","city":"羽村市","address":"羽村市羽東3-21-12","lat":35.75568,"lon":139.31007},{"name":"さくら保育園","province":"東京都","city":"羽村市","address":"羽村市羽加美2-16-1","lat":35.76581,"lon":139.3036},{"name":"まつぼっくり保育園","province":"東京都","city":"羽村市","address":"羽村市羽西1-7-3","lat":35.77147,"lon":139.30037},{"name":"チューリップ保育園","province":"東京都","city":"羽村市","address":"羽村市双葉町1-1-22","lat":35.76336,"lon":139.33096},{"name":"あおぞら保育園","province":"東京都","city":"羽村市","address":"羽村市神明台1-3-9","lat":35.75671,"lon":139.319},{"name":"羽村しらうめ保育園","province":"東京都","city":"羽村市","address":"羽村市羽東1-29-16","lat":35.76214,"lon":139.31235},{"name":"富士見第二保育園","province":"東京都","city":"羽村市","address":"羽村市富士見平2-3-16","lat":35.7654,"lon":139.32941},{"name":"羽村まつの木保育園","province":"東京都","city":"羽村市","address":"羽村市小作台3-9-12","lat":35.77639,"lon":139.29802},{"name":"かやの実保育園","province":"東京都","city":"羽村市","address":"羽村市栄町2-1-5","lat":35.77195,"lon":139.30655},{"name":"富士見第一保育園","province":"東京都","city":"羽村市","address":"羽村市緑ヶ丘4-12-40","lat":35.76726,"lon":139.31453},{"name":"羽村たつの子保育園","province":"東京都","city":"羽村市","address":"羽村市五ノ神2-6-20","lat":35.76101,"lon":139.3206},{"name":"太陽の子保育園","province":"東京都","city":"羽村市","address":"羽村市五ノ神3-15-7","lat":35.7621,"lon":139.31966},{"name":"富士見第二保育園","province":"東京都","city":"羽村市","address":"羽村市富士見平2-3-16","lat":35.76303,"lon":139.32391},{"name":"羽村しらうめ保育園","province":"東京都","city":"羽村市","address":"羽村市羽東1-29-16","lat":35.76213,"lon":139.31235},{"name":"玉水保育園","province":"東京都","city":"羽村市","address":"羽村市羽東3-21-12","lat":35.75568,"lon":139.31007},{"name":"さくら保育園","province":"東京都","city":"羽村市","address":"羽村市羽加美2-16-1","lat":35.76581,"lon":139.3036},{"name":"まつぼっくり保育園","province":"東京都","city":"羽村市","address":"羽村市羽西1-7-3","lat":35.77147,"lon":139.30037},{"name":"チューリップ保育園","province":"東京都","city":"羽村市","address":"羽村市双葉町1-1-22","lat":35.76336,"lon":139.33096},{"name":"あおぞら保育園","province":"東京都","city":"羽村市","address":"羽村市神明台1-3-9","lat":35.75671,"lon":139.319},{"name":"羽村しらうめ保育園","province":"東京都","city":"羽村市","address":"羽村市羽東1-29-16","lat":35.76214,"lon":139.31235},{"name":"富士見第二保育園","province":"東京都","city":"羽村市","address":"羽村市富士見平2-3-16","lat":35.7654,"lon":139.32941},{"name":"羽村まつの木保育園","province":"東京都","city":"羽村市","address":"羽村市小作台3-9-12","lat":35.77639,"lon":139.29802},{"name":"かやの実保育園","province":"東京都","city":"羽村市","address":"羽村市栄町2-1-5","lat":35.77195,"lon":139.30655},{"name":"富士見第一保育園","province":"東京都","city":"羽村市","address":"羽村市緑ヶ丘4-12-40","lat":35.76726,"lon":139.31453},{"name":"羽村たつの子保育園","province":"東京都","city":"羽村市","address":"羽村市五ノ神2-6-20","lat":35.76101,"lon":139.3206},{"name":"太陽の子保育園","province":"東京都","city":"羽村市","address":"羽村市五ノ神3-15-7","lat":35.7621,"lon":139.31966},{"name":"富士見第二保育園","province":"東京都","city":"羽村市","address":"羽村市富士見平2-3-16","lat":35.76303,"lon":139.32391},{"name":"羽村しらうめ保育園","province":"東京都","city":"羽村市","address":"羽村市羽東1-29-16","lat":35.76213,"lon":139.31235},{"name":"玉水保育園","province":"東京都","city":"羽村市","address":"羽村市羽東3-21-12","lat":35.75568,"lon":139.31007},{"name":"さくら保育園","province":"東京都","city":"羽村市","address":"羽村市羽加美2-16-1","lat":35.76581,"lon":139.3036},{"name":"まつぼっくり保育園","province":"東京都","city":"羽村市","address":"羽村市羽西1-7-3","lat":35.77147,"lon":139.30037},{"name":"チューリップ保育園","province":"東京都","city":"羽村市","address":"羽村市双葉町1-1-22","lat":35.76336,"lon":139.33096},{"name":"あおぞら保育園","province":"東京都","city":"羽村市","address":"羽村市神明台1-3-9","lat":35.75671,"lon":139.319},{"name":"羽村しらうめ保育園","province":"東京都","city":"羽村市","address":"羽村市羽東1-29-16","lat":35.76214,"lon":139.31235},{"name":"富士見第二保育園","province":"東京都","city":"羽村市","address":"羽村市富士見平2-3-16","lat":35.7654,"lon":139.32941},{"name":"羽村まつの木保育園","province":"東京都","city":"羽村市","address":"羽村市小作台3-9-12","lat":35.77639,"lon":139.29802},{"name":"かやの実保育園","province":"東京都","city":"羽村市","address":"羽村市栄町2-1-5","lat":35.77195,"lon":139.30655},{"name":"富士見第一保育園","province":"東京都","city":"羽村市","address":"羽村市緑ヶ丘4-12-40","lat":35.76726,"lon":139.31453},{"name":"羽村たつの子保育園","province":"東京都","city":"羽村市","address":"羽村市五ノ神2-6-20","lat":35.76101,"lon":139.3206},{"name":"太陽の子保育園","province":"東京都","city":"羽村市","address":"羽村市五ノ神3-15-7","lat":35.7621,"lon":139.31966},{"name":"富士見第二保育園","province":"東京都","city":"羽村市","address":"羽村市富士見平2-3-16","lat":35.76303,"lon":139.32391},{"name":"羽村しらうめ保育園","province":"東京都","city":"羽村市","address":"羽村市羽東1-29-16","lat":35.76213,"lon":139.31235},{"name":"玉水保育園","province":"東京都","city":"羽村市","address":"羽村市羽東3-21-12","lat":35.75568,"lon":139.31007},{"name":"さくら保育園","province":"東京都","city":"羽村市","address":"羽村市羽加美2-16-1","lat":35.76581,"lon":139.3036},{"name":"まつぼっくり保育園","province":"東京都","city":"羽村市","address":"羽村市羽西1-7-3","lat":35.77147,"lon":139.30037},{"name":"チューリップ保育園","province":"東京都","city":"羽村市","address":"羽村市双葉町1-1-22","lat":35.76336,"lon":139.33096},{"name":"あおぞら保育園","province":"東京都","city":"羽村市","address":"羽村市神明台1-3-9","lat":35.75671,"lon":139.319},{"name":"羽村しらうめ保育園","province":"東京都","city":"羽村市","address":"羽村市羽東1-29-16","lat":35.76214,"lon":139.31235},{"name":"富士見第二保育園","province":"東京都","city":"羽村市","address":"羽村市富士見平2-3-16","lat":35.7654,"lon":139.32941},{"name":"羽村まつの木保育園","province":"東京都","city":"羽村市","address":"羽村市小作台3-9-12","lat":35.77639,"lon":139.29802},{"name":"かやの実保育園","province":"東京都","city":"羽村市","address":"羽村市栄町2-1-5","lat":35.77195,"lon":139.30655},{"name":"富士見第一保育園","province":"東京都","city":"羽村市","address":"羽村市緑ヶ丘4-12-40","lat":35.76726,"lon":139.31453},{"name":"羽村たつの子保育園","province":"東京都","city":"羽村市","address":"羽村市五ノ神2-6-20","lat":35.76101,"lon":139.3206},{"name":"太陽の子保育園","province":"東京都","city":"羽村市","address":"羽村市五ノ神3-15-7","lat":35.7621,"lon":139.31966},{"name":"富士見第二保育園","province":"東京都","city":"羽村市","address":"羽村市富士見平2-3-16","lat":35.76303,"lon":139.32391},{"name":"羽村しらうめ保育園","province":"東京都","city":"羽村市","address":"羽村市羽東1-29-16","lat":35.76213,"lon":139.31235},{"name":"玉水保育園","province":"東京都","city":"羽村市","address":"羽村市羽東3-21-12","lat":35.75568,"lon":139.31007},{"name":"さくら保育園","province":"東京都","city":"羽村市","address":"羽村市羽加美2-16-1","lat":35.76581,"lon":139.3036},{"name":"まつぼっくり保育園","province":"東京都","city":"羽村市","address":"羽村市羽西1-7-3","lat":35.77147,"lon":139.30037},{"name":"チューリップ保育園","province":"東京都","city":"羽村市","address":"羽村市双葉町1-1-22","lat":35.76336,"lon":139.33096},{"name":"あおぞら保育園","province":"東京都","city":"羽村市","address":"羽村市神明台1-3-9","lat":35.75671,"lon":139.319},{"name":"羽村しらうめ保育園","province":"東京都","city":"羽村市","address":"羽村市羽東1-29-16","lat":35.76214,"lon":139.31235},{"name":"富士見第二保育園","province":"東京都","city":"羽村市","address":"羽村市富士見平2-3-16","lat":35.7654,"lon":139.32941},{"name":"羽村まつの木保育園","province":"東京都","city":"羽村市","address":"羽村市小作台3-9-12","lat":35.77639,"lon":139.29802},{"name":"かやの実保育園","province":"東京都","city":"羽村市","address":"羽村市栄町2-1-5","lat":35.77195,"lon":139.30655},{"name":"富士見第一保育園","province":"東京都","city":"羽村市","address":"羽村市緑ヶ丘4-12-40","lat":35.76726,"lon":139.31453},{"name":"羽村たつの子保育園","province":"東京都","city":"羽村市","address":"羽村市五ノ神2-6-20","lat":35.76101,"lon":139.3206},{"name":"太陽の子保育園","province":"東京都","city":"羽村市","address":"羽村市五ノ神3-15-7","lat":35.7621,"lon":139.31966},{"name":"富士見第二保育園","province":"東京都","city":"羽村市","address":"羽村市富士見平2-3-16","lat":35.76303,"lon":139.32391},{"name":"羽村しらうめ保育園","province":"東京都","city":"羽村市","address":"羽村市羽東1-29-16","lat":35.76213,"lon":139.31235},{"name":"玉水保育園","province":"東京都","city":"羽村市","address":"羽村市羽東3-21-12","lat":35.75568,"lon":139.31007},{"name":"さくら保育園","province":"東京都","city":"羽村市","address":"羽村市羽加美2-16-1","lat":35.76581,"lon":139.3036},{"name":"まつぼっくり保育園","province":"東京都","city":"羽村市","address":"羽村市羽西1-7-3","lat":35.77147,"lon":139.30037},{"name":"チューリップ保育園","province":"東京都","city":"羽村市","address":"羽村市双葉町1-1-22","lat":35.76336,"lon":139.33096},{"name":"あおぞら保育園","province":"東京都","city":"羽村市","address":"羽村市神明台1-3-9","lat":35.75671,"lon":139.319},{"name":"羽村しらうめ保育園","province":"東京都","city":"羽村市","address":"羽村市羽東1-29-16","lat":35.76214,"lon":139.31235},{"name":"富士見第二保育園","province":"東京都","city":"羽村市","address":"羽村市富士見平2-3-16","lat":35.7654,"lon":139.32941},{"name":"羽村まつの木保育園","province":"東京都","city":"羽村市","address":"羽村市小作台3-9-12","lat":35.77639,"lon":139.29802},{"name":"かやの実保育園","province":"東京都","city":"羽村市","address":"羽村市栄町2-1-5","lat":35.77195,"lon":139.30655},{"name":"富士見第一保育園","province":"東京都","city":"羽村市","address":"羽村市緑ヶ丘4-12-40","lat":35.76726,"lon":139.31453},{"name":"羽村たつの子保育園","province":"東京都","city":"羽村市","address":"羽村市五ノ神2-6-20","lat":35.76101,"lon":139.3206},{"name":"太陽の子保育園","province":"東京都","city":"羽村市","address":"羽村市五ノ神3-15-7","lat":35.7621,"lon":139.31966},{"name":"富士見第二保育園","province":"東京都","city":"羽村市","address":"羽村市富士見平2-3-16","lat":35.76303,"lon":139.32391},{"name":"羽村しらうめ保育園","province":"東京都","city":"羽村市","address":"羽村市羽東1-29-16","lat":35.76213,"lon":139.31235},{"name":"玉水保育園","province":"東京都","city":"羽村市","address":"羽村市羽東3-21-12","lat":35.75568,"lon":139.31007},{"name":"さくら保育園","province":"東京都","city":"羽村市","address":"羽村市羽加美2-16-1","lat":35.76581,"lon":139.3036},{"name":"まつぼっくり保育園","province":"東京都","city":"羽村市","address":"羽村市羽西1-7-3","lat":35.77147,"lon":139.30037},{"name":"チューリップ保育園","province":"東京都","city":"羽村市","address":"羽村市双葉町1-1-22","lat":35.76336,"lon":139.33096},{"name":"あおぞら保育園","province":"東京都","city":"羽村市","address":"羽村市神明台1-3-9","lat":35.75671,"lon":139.319},{"name":"羽村しらうめ保育園","province":"東京都","city":"羽村市","address":"羽村市羽東1-29-16","lat":35.76214,"lon":139.31235},{"name":"富士見第二保育園","province":"東京都","city":"羽村市","address":"羽村市富士見平2-3-16","lat":35.7654,"lon":139.32941},{"name":"羽村まつの木保育園","province":"東京都","city":"羽村市","address":"羽村市小作台3-9-12","lat":35.77639,"lon":139.29802},{"name":"かやの実保育園","province":"東京都","city":"羽村市","address":"羽村市栄町2-1-5","lat":35.77195,"lon":139.30655},{"name":"富士見第一保育園","province":"東京都","city":"羽村市","address":"羽村市緑ヶ丘4-12-40","lat":35.76726,"lon":139.31453},{"name":"羽村たつの子保育園","province":"東京都","city":"羽村市","address":"羽村市五ノ神2-6-20","lat":35.76101,"lon":139.3206},{"name":"太陽の子保育園","province":"東京都","city":"羽村市","address":"羽村市五ノ神3-15-7","lat":35.7621,"lon":139.31966},{"name":"富士見第二保育園","province":"東京都","city":"羽村市","address":"羽村市富士見平2-3-16","lat":35.76303,"lon":139.32391},{"name":"羽村しらうめ保育園","province":"東京都","city":"羽村市","address":"羽村市羽東1-29-16","lat":35.76213,"lon":139.31235},{"name":"玉水保育園","province":"東京都","city":"羽村市","address":"羽村市羽東3-21-12","lat":35.75568,"lon":139.31007},{"name":"さくら保育園","province":"東京都","city":"羽村市","address":"羽村市羽加美2-16-1","lat":35.76581,"lon":139.3036},{"name":"まつぼっくり保育園","province":"東京都","city":"羽村市","address":"羽村市羽西1-7-3","lat":35.77147,"lon":139.30037},{"name":"チューリップ保育園","province":"東京都","city":"羽村市","address":"羽村市双葉町1-1-22","lat":35.76336,"lon":139.33096},{"name":"あおぞら保育園","province":"東京都","city":"羽村市","address":"羽村市神明台1-3-9","lat":35.75671,"lon":139.319},{"name":"羽村しらうめ保育園","province":"東京都","city":"羽村市","address":"羽村市羽東1-29-16","lat":35.76214,"lon":139.31235},{"name":"富士見第二保育園","province":"東京都","city":"羽村市","address":"羽村市富士見平2-3-16","lat":35.7654,"lon":139.32941},{"name":"羽村まつの木保育園","province":"東京都","city":"羽村市","address":"羽村市小作台3-9-12","lat":35.77639,"lon":139.29802},{"name":"かやの実保育園","province":"東京都","city":"羽村市","address":"羽村市栄町2-1-5","lat":35.77195,"lon":139.30655},{"name":"富士見第一保育園","province":"東京都","city":"羽村市","address":"羽村市緑ヶ丘4-12-40","lat":35.76726,"lon":139.31453},{"name":"羽村たつの子保育園","province":"東京都","city":"羽村市","address":"羽村市五ノ神2-6-20","lat":35.76101,"lon":139.3206},{"name":"太陽の子保育園","province":"東京都","city":"羽村市","address":"羽村市五ノ神3-15-7","lat":35.7621,"lon":139.31966},{"name":"富士見第二保育園","province":"東京都","city":"羽村市","address":"羽村市富士見平2-3-16","lat":35.76303,"lon":139.32391},{"name":"羽村しらうめ保育園","province":"東京都","city":"羽村市","address":"羽村市羽東1-29-16","lat":35.76213,"lon":139.31235},{"name":"玉水保育園","province":"東京都","city":"羽村市","address":"羽村市羽東3-21-12","lat":35.75568,"lon":139.31007},{"name":"さくら保育園","province":"東京都","city":"羽村市","address":"羽村市羽加美2-16-1","lat":35.76581,"lon":139.3036},{"name":"まつぼっくり保育園","province":"東京都","city":"羽村市","address":"羽村市羽西1-7-3","lat":35.77147,"lon":139.30037},{"name":"チューリップ保育園","province":"東京都","city":"羽村市","address":"羽村市双葉町1-1-22","lat":35.76336,"lon":139.33096},{"name":"あおぞら保育園","province":"東京都","city":"羽村市","address":"羽村市神明台1-3-9","lat":35.75671,"lon":139.319},{"name":"羽村しらうめ保育園","province":"東京都","city":"羽村市","address":"羽村市羽東1-29-16","lat":35.76214,"lon":139.31235},{"name":"富士見第二保育園","province":"東京都","city":"羽村市","address":"羽村市富士見平2-3-16","lat":35.7654,"lon":139.32941},{"name":"羽村まつの木保育園","province":"東京都","city":"羽村市","address":"羽村市小作台3-9-12","lat":35.77639,"lon":139.29802},{"name":"かやの実保育園","province":"東京都","city":"羽村市","address":"羽村市栄町2-1-5","lat":35.77195,"lon":139.30655},{"name":"富士見第一保育園","province":"東京都","city":"羽村市","address":"羽村市緑ヶ丘4-12-40","lat":35.76726,"lon":139.31453},{"name":"羽村たつの子保育園","province":"東京都","city":"羽村市","address":"羽村市五ノ神2-6-20","lat":35.76101,"lon":139.3206},{"name":"太陽の子保育園","province":"東京都","city":"羽村市","address":"羽村市五ノ神3-15-7","lat":35.7621,"lon":139.31966},{"name":"富士見第二保育園","province":"東京都","city":"羽村市","address":"羽村市富士見平2-3-16","lat":35.76303,"lon":139.32391},{"name":"羽村しらうめ保育園","province":"東京都","city":"羽村市","address":"羽村市羽東1-29-16","lat":35.76213,"lon":139.31235},{"name":"玉水保育園","province":"東京都","city":"羽村市","address":"羽村市羽東3-21-12","lat":35.75568,"lon":139.31007},{"name":"さくら保育園","province":"東京都","city":"羽村市","address":"羽村市羽加美2-16-1","lat":35.76581,"lon":139.3036},{"name":"まつぼっくり保育園","province":"東京都","city":"羽村市","address":"羽村市羽西1-7-3","lat":35.77147,"lon":139.30037},{"name":"チューリップ保育園","province":"東京都","city":"羽村市","address":"羽村市双葉町1-1-22","lat":35.76336,"lon":139.33096},{"name":"あおぞら保育園","province":"東京都","city":"羽村市","address":"羽村市神明台1-3-9","lat":35.75671,"lon":139.319},{"name":"羽村しらうめ保育園","province":"東京都","city":"羽村市","address":"羽村市羽東1-29-16","lat":35.76214,"lon":139.31235},{"name":"富士見第二保育園","province":"東京都","city":"羽村市","address":"羽村市富士見平2-3-16","lat":35.7654,"lon":139.32941},{"name":"羽村まつの木保育園","province":"東京都","city":"羽村市","address":"羽村市小作台3-9-12","lat":35.77639,"lon":139.29802},{"name":"かやの実保育園","province":"東京都","city":"羽村市","address":"羽村市栄町2-1-5","lat":35.77195,"lon":139.30655},{"name":"富士見第一保育園","province":"東京都","city":"羽村市","address":"羽村市緑ヶ丘4-12-40","lat":35.76726,"lon":139.31453},{"name":"羽村たつの子保育園","province":"東京都","city":"羽村市","address":"羽村市五ノ神2-6-20","lat":35.76101,"lon":139.3206},{"name":"太陽の子保育園","province":"東京都","city":"羽村市","address":"羽村市五ノ神3-15-7","lat":35.7621,"lon":139.31966},{"name":"富士見第二保育園","province":"東京都","city":"羽村市","address":"羽村市富士見平2-3-16","lat":35.76303,"lon":139.32391},{"name":"羽村しらうめ保育園","province":"東京都","city":"羽村市","address":"羽村市羽東1-29-16","lat":35.76213,"lon":139.31235},{"name":"玉水保育園","province":"東京都","city":"羽村市","address":"羽村市羽東3-21-12","lat":35.75568,"lon":139.31007},{"name":"さくら保育園","province":"東京都","city":"羽村市","address":"羽村市羽加美2-16-1","lat":35.76581,"lon":139.3036},{"name":"まつぼっくり保育園","province":"東京都","city":"羽村市","address":"羽村市羽西1-7-3","lat":35.77147,"lon":139.30037},{"name":"チューリップ保育園","province":"東京都","city":"羽村市","address":"羽村市双葉町1-1-22","lat":35.76336,"lon":139.33096},{"name":"あおぞら保育園","province":"東京都","city":"羽村市","address":"羽村市神明台1-3-9","lat":35.75671,"lon":139.319},{"name":"羽村しらうめ保育園","province":"東京都","city":"羽村市","address":"羽村市羽東1-29-16","lat":35.76214,"lon":139.31235},{"name":"富士見第二保育園","province":"東京都","city":"羽村市","address":"羽村市富士見平2-3-16","lat":35.7654,"lon":139.32941},{"name":"羽村まつの木保育園","province":"東京都","city":"羽村市","address":"羽村市小作台3-9-12","lat":35.77639,"lon":139.29802},{"name":"かやの実保育園","province":"東京都","city":"羽村市","address":"羽村市栄町2-1-5","lat":35.77195,"lon":139.30655},{"name":"富士見第一保育園","province":"東京都","city":"羽村市","address":"羽村市緑ヶ丘4-12-40","lat":35.76726,"lon":139.31453},{"name":"羽村たつの子保育園","province":"東京都","city":"羽村市","address":"羽村市五ノ神2-6-20","lat":35.76101,"lon":139.3206},{"name":"太陽の子保育園","province":"東京都","city":"羽村市","address":"羽村市五ノ神3-15-7","lat":35.7621,"lon":139.31966},{"name":"富士見第二保育園","province":"東京都","city":"羽村市","address":"羽村市富士見平2-3-16","lat":35.76303,"lon":139.32391},{"name":"羽村しらうめ保育園","province":"東京都","city":"羽村市","address":"羽村市羽東1-29-16","lat":35.76213,"lon":139.31235},{"name":"玉水保育園","province":"東京都","city":"羽村市","address":"羽村市羽東3-21-12","lat":35.75568,"lon":139.31007},{"name":"さくら保育園","province":"東京都","city":"羽村市","address":"羽村市羽加美2-16-1","lat":35.76581,"lon":139.3036},{"name":"まつぼっくり保育園","province":"東京都","city":"羽村市","address":"羽村市羽西1-7-3","lat":35.77147,"lon":139.30037},{"name":"チューリップ保育園","province":"東京都","city":"羽村市","address":"羽村市双葉町1-1-22","lat":35.76336,"lon":139.33096},{"name":"あおぞら保育園","province":"東京都","city":"羽村市","address":"羽村市神明台1-3-9","lat":35.75671,"lon":139.319},{"name":"羽村しらうめ保育園","province":"東京都","city":"羽村市","address":"羽村市羽東1-29-16","lat":35.76214,"lon":139.31235},{"name":"富士見第二保育園","province":"東京都","city":"羽村市","address":"羽村市富士見平2-3-16","lat":35.7654,"lon":139.32941},{"name":"羽村まつの木保育園","province":"東京都","city":"羽村市","address":"羽村市小作台3-9-12","lat":35.77639,"lon":139.29802},{"name":"かやの実保育園","province":"東京都","city":"羽村市","address":"羽村市栄町2-1-5","lat":35.77195,"lon":139.30655},{"name":"富士見第一保育園","province":"東京都","city":"羽村市","address":"羽村市緑ヶ丘4-12-40","lat":35.76726,"lon":139.31453},{"name":"羽村たつの子保育園","province":"東京都","city":"羽村市","address":"羽村市五ノ神2-6-20","lat":35.76101,"lon":139.3206},{"name":"太陽の子保育園","province":"東京都","city":"羽村市","address":"羽村市五ノ神3-15-7","lat":35.7621,"lon":139.31966},{"name":"富士見第二保育園","province":"東京都","city":"羽村市","address":"羽村市富士見平2-3-16","lat":35.76303,"lon":139.32391},{"name":"羽村しらうめ保育園","province":"東京都","city":"羽村市","address":"羽村市羽東1-29-16","lat":35.76213,"lon":139.31235},{"name":"玉水保育園","province":"東京都","city":"羽村市","address":"羽村市羽東3-21-12","lat":35.75568,"lon":139.31007},{"name":"さくら保育園","province":"東京都","city":"羽村市","address":"羽村市羽加美2-16-1","lat":35.76581,"lon":139.3036},{"name":"まつぼっくり保育園","province":"東京都","city":"羽村市","address":"羽村市羽西1-7-3","lat":35.77147,"lon":139.30037},{"name":"チューリップ保育園","province":"東京都","city":"羽村市","address":"羽村市双葉町1-1-22","lat":35.76336,"lon":139.33096},{"name":"あおぞら保育園","province":"東京都","city":"羽村市","address":"羽村市神明台1-3-9","lat":35.75671,"lon":139.319},{"name":"羽村しらうめ保育園","province":"東京都","city":"羽村市","address":"羽村市羽東1-29-16","lat":35.76214,"lon":139.31235},{"name":"富士見第二保育園","province":"東京都","city":"羽村市","address":"羽村市富士見平2-3-16","lat":35.7654,"lon":139.32941},{"name":"羽村まつの木保育園","province":"東京都","city":"羽村市","address":"羽村市小作台3-9-12","lat":35.77639,"lon":139.29802},{"name":"かやの実保育園","province":"東京都","city":"羽村市","address":"羽村市栄町2-1-5","lat":35.77195,"lon":139.30655},{"name":"富士見第一保育園","province":"東京都","city":"羽村市","address":"羽村市緑ヶ丘4-12-40","lat":35.76726,"lon":139.31453},{"name":"羽村たつの子保育園","province":"東京都","city":"羽村市","address":"羽村市五ノ神2-6-20","lat":35.76101,"lon":139.3206},{"name":"太陽の子保育園","province":"東京都","city":"羽村市","address":"羽村市五ノ神3-15-7","lat":35.7621,"lon":139.31966},{"name":"富士見第二保育園","province":"東京都","city":"羽村市","address":"羽村市富士見平2-3-16","lat":35.76303,"lon":139.32391},{"name":"羽村しらうめ保育園","province":"東京都","city":"羽村市","address":"羽村市羽東1-29-16","lat":35.76213,"lon":139.31235},{"name":"玉水保育園","province":"東京都","city":"羽村市","address":"羽村市羽東3-21-12","lat":35.75568,"lon":139.31007},{"name":"さくら保育園","province":"東京都","city":"羽村市","address":"羽村市羽加美2-16-1","lat":35.76581,"lon":139.3036},{"name":"まつぼっくり保育園","province":"東京都","city":"羽村市","address":"羽村市羽西1-7-3","lat":35.77147,"lon":139.30037},{"name":"チューリップ保育園","province":"東京都","city":"羽村市","address":"羽村市双葉町1-1-22","lat":35.76336,"lon":139.33096},{"name":"あおぞら保育園","province":"東京都","city":"羽村市","address":"羽村市神明台1-3-9","lat":35.75671,"lon":139.319},{"name":"羽村しらうめ保育園","province":"東京都","city":"羽村市","address":"羽村市羽東1-29-16","lat":35.76214,"lon":139.31235},{"name":"富士見第二保育園","province":"東京都","city":"羽村市","address":"羽村市富士見平2-3-16","lat":35.7654,"lon":139.32941},{"name":"羽村まつの木保育園","province":"東京都","city":"羽村市","address":"羽村市小作台3-9-12","lat":35.77639,"lon":139.29802},{"name":"かやの実保育園","province":"東京都","city":"羽村市","address":"羽村市栄町2-1-5","lat":35.77195,"lon":139.30655},{"name":"富士見第一保育園","province":"東京都","city":"羽村市","address":"羽村市緑ヶ丘4-12-40","lat":35.76726,"lon":139.31453},{"name":"羽村たつの子保育園","province":"東京都","city":"羽村市","address":"羽村市五ノ神2-6-20","lat":35.76101,"lon":139.3206},{"name":"太陽の子保育園","province":"東京都","city":"羽村市","address":"羽村市五ノ神3-15-7","lat":35.7621,"lon":139.31966},{"name":"富士見第二保育園","province":"東京都","city":"羽村市","address":"羽村市富士見平2-3-16","lat":35.76303,"lon":139.32391},{"name":"羽村しらうめ保育園","province":"東京都","city":"羽村市","address":"羽村市羽東1-29-16","lat":35.76213,"lon":139.31235},{"name":"玉水保育園","province":"東京都","city":"羽村市","address":"羽村市羽東3-21-12","lat":35.75568,"lon":139.31007},{"name":"さくら保育園","province":"東京都","city":"羽村市","address":"羽村市羽加美2-16-1","lat":35.76581,"lon":139.3036},{"name":"まつぼっくり保育園","province":"東京都","city":"羽村市","address":"羽村市羽西1-7-3","lat":35.77147,"lon":139.30037},{"name":"チューリップ保育園","province":"東京都","city":"羽村市","address":"羽村市双葉町1-1-22","lat":35.76336,"lon":139.33096},{"name":"あおぞら保育園","province":"東京都","city":"羽村市","address":"羽村市神明台1-3-9","lat":35.75671,"lon":139.319},{"name":"羽村しらうめ保育園","province":"東京都","city":"羽村市","address":"羽村市羽東1-29-16","lat":35.76214,"lon":139.31235},{"name":"富士見第二保育園","province":"東京都","city":"羽村市","address":"羽村市富士見平2-3-16","lat":35.7654,"lon":139.32941},{"name":"羽村まつの木保育園","province":"東京都","city":"羽村市","address":"羽村市小作台3-9-12","lat":35.77639,"lon":139.29802},{"name":"かやの実保育園","province":"東京都","city":"羽村市","address":"羽村市栄町2-1-5","lat":35.77195,"lon":139.30655},{"name":"富士見第一保育園","province":"東京都","city":"羽村市","address":"羽村市緑ヶ丘4-12-40","lat":35.76726,"lon":139.31453},{"name":"羽村たつの子保育園","province":"東京都","city":"羽村市","address":"羽村市五ノ神2-6-20","lat":35.76101,"lon":139.3206},{"name":"太陽の子保育園","province":"東京都","city":"羽村市","address":"羽村市五ノ神3-15-7","lat":35.7621,"lon":139.31966},{"name":"富士見第二保育園","province":"東京都","city":"羽村市","address":"羽村市富士見平2-3-16","lat":35.76303,"lon":139.32391},{"name":"羽村しらうめ保育園","province":"東京都","city":"羽村市","address":"羽村市羽東1-29-16","lat":35.76213,"lon":139.31235},{"name":"玉水保育園","province":"東京都","city":"羽村市","address":"羽村市羽東3-21-12","lat":35.75568,"lon":139.31007},{"name":"さくら保育園","province":"東京都","city":"羽村市","address":"羽村市羽加美2-16-1","lat":35.76581,"lon":139.3036},{"name":"まつぼっくり保育園","province":"東京都","city":"羽村市","address":"羽村市羽西1-7-3","lat":35.77147,"lon":139.30037},{"name":"チューリップ保育園","province":"東京都","city":"羽村市","address":"羽村市双葉町1-1-22","lat":35.76336,"lon":139.33096},{"name":"あおぞら保育園","province":"東京都","city":"羽村市","address":"羽村市神明台1-3-9","lat":35.75671,"lon":139.319},{"name":"羽村しらうめ保育園","province":"東京都","city":"羽村市","address":"羽村市羽東1-29-16","lat":35.76214,"lon":139.31235},{"name":"富士見第二保育園","province":"東京都","city":"羽村市","address":"羽村市富士見平2-3-16","lat":35.7654,"lon":139.32941},{"name":"羽村まつの木保育園","province":"東京都","city":"羽村市","address":"羽村市小作台3-9-12","lat":35.77639,"lon":139.29802},{"name":"かやの実保育園","province":"東京都","city":"羽村市","address":"羽村市栄町2-1-5","lat":35.77195,"lon":139.30655},{"name":"富士見第一保育園","province":"東京都","city":"羽村市","address":"羽村市緑ヶ丘4-12-40","lat":35.76726,"lon":139.31453},{"name":"羽村たつの子保育園","province":"東京都","city":"羽村市","address":"羽村市五ノ神2-6-20","lat":35.76101,"lon":139.3206},{"name":"太陽の子保育園","province":"東京都","city":"羽村市","address":"羽村市五ノ神3-15-7","lat":35.7621,"lon":139.31966},{"name":"富士見第二保育園","province":"東京都","city":"羽村市","address":"羽村市富士見平2-3-16","lat":35.76303,"lon":139.32391},{"name":"羽村しらうめ保育園","province":"東京都","city":"羽村市","address":"羽村市羽東1-29-16","lat":35.76213,"lon":139.31235},{"name":"玉水保育園","province":"東京都","city":"羽村市","address":"羽村市羽東3-21-12","lat":35.75568,"lon":139.31007},{"name":"さくら保育園","province":"東京都","city":"羽村市","address":"羽村市羽加美2-16-1","lat":35.76581,"lon":139.3036},{"name":"まつぼっくり保育園","province":"東京都","city":"羽村市","address":"羽村市羽西1-7-3","lat":35.77147,"lon":139.30037},{"name":"チューリップ保育園","province":"東京都","city":"羽村市","address":"羽村市双葉町1-1-22","lat":35.76336,"lon":139.33096},{"name":"あおぞら保育園","province":"東京都","city":"羽村市","address":"羽村市神明台1-3-9","lat":35.75671,"lon":139.319},{"name":"羽村しらうめ保育園","province":"東京都","city":"羽村市","address":"羽村市羽東1-29-16","lat":35.76214,"lon":139.31235},{"name":"富士見第二保育園","province":"東京都","city":"羽村市","address":"羽村市富士見平2-3-16","lat":35.7654,"lon":139.32941},{"name":"羽村まつの木保育園","province":"東京都","city":"羽村市","address":"羽村市小作台3-9-12","lat":35.77639,"lon":139.29802},{"name":"かやの実保育園","province":"東京都","city":"羽村市","address":"羽村市栄町2-1-5","lat":35.77195,"lon":139.30655},{"name":"富士見第一保育園","province":"東京都","city":"羽村市","address":"羽村市緑ヶ丘4-12-40","lat":35.76726,"lon":139.31453},{"name":"羽村たつの子保育園","province":"東京都","city":"羽村市","address":"羽村市五ノ神2-6-20","lat":35.76101,"lon":139.3206},{"name":"太陽の子保育園","province":"東京都","city":"羽村市","address":"羽村市五ノ神3-15-7","lat":35.7621,"lon":139.31966},{"name":"富士見第二保育園","province":"東京都","city":"羽村市","address":"羽村市富士見平2-3-16","lat":35.76303,"lon":139.32391},{"name":"羽村しらうめ保育園","province":"東京都","city":"羽村市","address":"羽村市羽東1-29-16","lat":35.76213,"lon":139.31235},{"name":"玉水保育園","province":"東京都","city":"羽村市","address":"羽村市羽東3-21-12","lat":35.75568,"lon":139.31007},{"name":"さくら保育園","province":"東京都","city":"羽村市","address":"羽村市羽加美2-16-1","lat":35.76581,"lon":139.3036},{"name":"まつぼっくり保育園","province":"東京都","city":"羽村市","address":"羽村市羽西1-7-3","lat":35.77147,"lon":139.30037},{"name":"チューリップ保育園","province":"東京都","city":"羽村市","address":"羽村市双葉町1-1-22","lat":35.76336,"lon":139.33096},{"name":"あおぞら保育園","province":"東京都","city":"羽村市","address":"羽村市神明台1-3-9","lat":35.75671,"lon":139.319},{"name":"羽村しらうめ保育園","province":"東京都","city":"羽村市","address":"羽村市羽東1-29-16","lat":35.76214,"lon":139.31235},{"name":"富士見第二保育園","province":"東京都","city":"羽村市","address":"羽村市富士見平2-3-16","lat":35.7654,"lon":139.32941},{"name":"羽村まつの木保育園","province":"東京都","city":"羽村市","address":"羽村市小作台3-9-12","lat":35.77639,"lon":139.29802},{"name":"かやの実保育園","province":"東京都","city":"羽村市","address":"羽村市栄町2-1-5","lat":35.77195,"lon":139.30655},{"name":"富士見第一保育園","province":"東京都","city":"羽村市","address":"羽村市緑ヶ丘4-12-40","lat":35.76726,"lon":139.31453},{"name":"羽村たつの子保育園","province":"東京都","city":"羽村市","address":"羽村市五ノ神2-6-20","lat":35.76101,"lon":139.3206},{"name":"太陽の子保育園","province":"東京都","city":"羽村市","address":"羽村市五ノ神3-15-7","lat":35.7621,"lon":139.31966},{"name":"富士見第二保育園","province":"東京都","city":"羽村市","address":"羽村市富士見平2-3-16","lat":35.76303,"lon":139.32391},{"name":"羽村しらうめ保育園","province":"東京都","city":"羽村市","address":"羽村市羽東1-29-16","lat":35.76213,"lon":139.31235},{"name":"玉水保育園","province":"東京都","city":"羽村市","address":"羽村市羽東3-21-12","lat":35.75568,"lon":139.31007},{"name":"さくら保育園","province":"東京都","city":"羽村市","address":"羽村市羽加美2-16-1","lat":35.76581,"lon":139.3036},{"name":"まつぼっくり保育園","province":"東京都","city":"羽村市","address":"羽村市羽西1-7-3","lat":35.77147,"lon":139.30037},{"name":"チューリップ保育園","province":"東京都","city":"羽村市","address":"羽村市双葉町1-1-22","lat":35.76336,"lon":139.33096},{"name":"あおぞら保育園","province":"東京都","city":"羽村市","address":"羽村市神明台1-3-9","lat":35.75671,"lon":139.319},{"name":"羽村しらうめ保育園","province":"東京都","city":"羽村市","address":"羽村市羽東1-29-16","lat":35.76214,"lon":139.31235},{"name":"富士見第二保育園","province":"東京都","city":"羽村市","address":"羽村市富士見平2-3-16","lat":35.7654,"lon":139.32941},{"name":"羽村まつの木保育園","province":"東京都","city":"羽村市","address":"羽村市小作台3-9-12","lat":35.77639,"lon":139.29802},{"name":"かやの実保育園","province":"東京都","city":"羽村市","address":"羽村市栄町2-1-5","lat":35.77195,"lon":139.30655},{"name":"富士見第一保育園","province":"東京都","city":"羽村市","address":"羽村市緑ヶ丘4-12-40","lat":35.76726,"lon":139.31453},{"name":"羽村たつの子保育園","province":"東京都","city":"羽村市","address":"羽村市五ノ神2-6-20","lat":35.76101,"lon":139.3206},{"name":"太陽の子保育園","province":"東京都","city":"羽村市","address":"羽村市五ノ神3-15-7","lat":35.7621,"lon":139.31966},{"name":"富士見第二保育園","province":"東京都","city":"羽村市","address":"羽村市富士見平2-3-16","lat":35.76303,"lon":139.32391},{"name":"羽村しらうめ保育園","province":"東京都","city":"羽村市","address":"羽村市羽東1-29-16","lat":35.76213,"lon":139.31235},{"name":"玉水保育園","province":"東京都","city":"羽村市","address":"羽村市羽東3-21-12","lat":35.75568,"lon":139.31007},{"name":"さくら保育園","province":"東京都","city":"羽村市","address":"羽村市羽加美2-16-1","lat":35.76581,"lon":139.3036},{"name":"まつぼっくり保育園","province":"東京都","city":"羽村市","address":"羽村市羽西1-7-3","lat":35.77147,"lon":139.30037},{"name":"チューリップ保育園","province":"東京都","city":"羽村市","address":"羽村市双葉町1-1-22","lat":35.76336,"lon":139.33096},{"name":"あおぞら保育園","province":"東京都","city":"羽村市","address":"羽村市神明台1-3-9","lat":35.75671,"lon":139.319},{"name":"羽村しらうめ保育園","province":"東京都","city":"羽村市","address":"羽村市羽東1-29-16","lat":35.76214,"lon":139.31235},{"name":"富士見第二保育園","province":"東京都","city":"羽村市","address":"羽村市富士見平2-3-16","lat":35.7654,"lon":139.32941},{"name":"羽村まつの木保育園","province":"東京都","city":"羽村市","address":"羽村市小作台3-9-12","lat":35.77639,"lon":139.29802},{"name":"かやの実保育園","province":"東京都","city":"羽村市","address":"羽村市栄町2-1-5","lat":35.77195,"lon":139.30655},{"name":"富士見第一保育園","province":"東京都","city":"羽村市","address":"羽村市緑ヶ丘4-12-40","lat":35.76726,"lon":139.31453},{"name":"羽村たつの子保育園","province":"東京都","city":"羽村市","address":"羽村市五ノ神2-6-20","lat":35.76101,"lon":139.3206},{"name":"太陽の子保育園","province":"東京都","city":"羽村市","address":"羽村市五ノ神3-15-7","lat":35.7621,"lon":139.31966},{"name":"富士見第二保育園","province":"東京都","city":"羽村市","address":"羽村市富士見平2-3-16","lat":35.76303,"lon":139.32391},{"name":"羽村しらうめ保育園","province":"東京都","city":"羽村市","address":"羽村市羽東1-29-16","lat":35.76213,"lon":139.31235},{"name":"玉水保育園","province":"東京都","city":"羽村市","address":"羽村市羽東3-21-12","lat":35.75568,"lon":139.31007},{"name":"さくら保育園","province":"東京都","city":"羽村市","address":"羽村市羽加美2-16-1","lat":35.76581,"lon":139.3036},{"name":"まつぼっくり保育園","province":"東京都","city":"羽村市","address":"羽村市羽西1-7-3","lat":35.77147,"lon":139.30037},{"name":"チューリップ保育園","province":"東京都","city":"羽村市","address":"羽村市双葉町1-1-22","lat":35.76336,"lon":139.33096},{"name":"あおぞら保育園","province":"東京都","city":"羽村市","address":"羽村市神明台1-3-9","lat":35.75671,"lon":139.319},{"name":"羽村しらうめ保育園","province":"東京都","city":"羽村市","address":"羽村市羽東1-29-16","lat":35.76214,"lon":139.31235},{"name":"富士見第二保育園","province":"東京都","city":"羽村市","address":"羽村市富士見平2-3-16","lat":35.7654,"lon":139.32941},{"name":"羽村まつの木保育園","province":"東京都","city":"羽村市","address":"羽村市小作台3-9-12","lat":35.77639,"lon":139.29802},{"name":"かやの実保育園","province":"東京都","city":"羽村市","address":"羽村市栄町2-1-5","lat":35.77195,"lon":139.30655},{"name":"富士見第一保育園","province":"東京都","city":"羽村市","address":"羽村市緑ヶ丘4-12-40","lat":35.76726,"lon":139.31453},{"name":"羽村たつの子保育園","province":"東京都","city":"羽村市","address":"羽村市五ノ神2-6-20","lat":35.76101,"lon":139.3206},{"name":"太陽の子保育園","province":"東京都","city":"羽村市","address":"羽村市五ノ神3-15-7","lat":35.7621,"lon":139.31966},{"name":"富士見第二保育園","province":"東京都","city":"羽村市","address":"羽村市富士見平2-3-16","lat":35.76303,"lon":139.32391},{"name":"羽村しらうめ保育園","province":"東京都","city":"羽村市","address":"羽村市羽東1-29-16","lat":35.76213,"lon":139.31235},{"name":"玉水保育園","province":"東京都","city":"羽村市","address":"羽村市羽東3-21-12","lat":35.75568,"lon":139.31007},{"name":"さくら保育園","province":"東京都","city":"羽村市","address":"羽村市羽加美2-16-1","lat":35.76581,"lon":139.3036},{"name":"まつぼっくり保育園","province":"東京都","city":"羽村市","address":"羽村市羽西1-7-3","lat":35.77147,"lon":139.30037},{"name":"チューリップ保育園","province":"東京都","city":"羽村市","address":"羽村市双葉町1-1-22","lat":35.76336,"lon":139.33096},{"name":"あおぞら保育園","province":"東京都","city":"羽村市","address":"羽村市神明台1-3-9","lat":35.75671,"lon":139.319},{"name":"羽村しらうめ保育園","province":"東京都","city":"羽村市","address":"羽村市羽東1-29-16","lat":35.76214,"lon":139.31235},{"name":"富士見第二保育園","province":"東京都","city":"羽村市","address":"羽村市富士見平2-3-16","lat":35.7654,"lon":139.32941},{"name":"羽村まつの木保育園","province":"東京都","city":"羽村市","address":"羽村市小作台3-9-12","lat":35.77639,"lon":139.29802},{"name":"かやの実保育園","province":"東京都","city":"羽村市","address":"羽村市栄町2-1-5","lat":35.77195,"lon":139.30655},{"name":"富士見第一保育園","province":"東京都","city":"羽村市","address":"羽村市緑ヶ丘4-12-40","lat":35.76726,"lon":139.31453},{"name":"羽村たつの子保育園","province":"東京都","city":"羽村市","address":"羽村市五ノ神2-6-20","lat":35.76101,"lon":139.3206},{"name":"太陽の子保育園","province":"東京都","city":"羽村市","address":"羽村市五ノ神3-15-7","lat":35.7621,"lon":139.31966},{"name":"富士見第二保育園","province":"東京都","city":"羽村市","address":"羽村市富士見平2-3-16","lat":35.76303,"lon":139.32391},{"name":"羽村しらうめ保育園","province":"東京都","city":"羽村市","address":"羽村市羽東1-29-16","lat":35.76213,"lon":139.31235},{"name":"玉水保育園","province":"東京都","city":"羽村市","address":"羽村市羽東3-21-12","lat":35.75568,"lon":139.31007},{"name":"さくら保育園","province":"東京都","city":"羽村市","address":"羽村市羽加美2-16-1","lat":35.76581,"lon":139.3036},{"name":"まつぼっくり保育園","province":"東京都","city":"羽村市","address":"羽村市羽西1-7-3","lat":35.77147,"lon":139.30037},{"name":"チューリップ保育園","province":"東京都","city":"羽村市","address":"羽村市双葉町1-1-22","lat":35.76336,"lon":139.33096},{"name":"あおぞら保育園","province":"東京都","city":"羽村市","address":"羽村市神明台1-3-9","lat":35.75671,"lon":139.319},{"name":"羽村しらうめ保育園","province":"東京都","city":"羽村市","address":"羽村市羽東1-29-16","lat":35.76214,"lon":139.31235},{"name":"富士見第二保育園","province":"東京都","city":"羽村市","address":"羽村市富士見平2-3-16","lat":35.7654,"lon":139.32941},{"name":"羽村まつの木保育園","province":"東京都","city":"羽村市","address":"羽村市小作台3-9-12","lat":35.77639,"lon":139.29802},{"name":"かやの実保育園","province":"東京都","city":"羽村市","address":"羽村市栄町2-1-5","lat":35.77195,"lon":139.30655},{"name":"富士見第一保育園","province":"東京都","city":"羽村市","address":"羽村市緑ヶ丘4-12-40","lat":35.76726,"lon":139.31453},{"name":"羽村たつの子保育園","province":"東京都","city":"羽村市","address":"羽村市五ノ神2-6-20","lat":35.76101,"lon":139.3206},{"name":"太陽の子保育園","province":"東京都","city":"羽村市","address":"羽村市五ノ神3-15-7","lat":35.7621,"lon":139.31966},{"name":"富士見第二保育園","province":"東京都","city":"羽村市","address":"羽村市富士見平2-3-16","lat":35.76303,"lon":139.32391},{"name":"羽村しらうめ保育園","province":"東京都","city":"羽村市","address":"羽村市羽東1-29-16","lat":35.76213,"lon":139.31235},{"name":"玉水保育園","province":"東京都","city":"羽村市","address":"羽村市羽東3-21-12","lat":35.75568,"lon":139.31007},{"name":"さくら保育園","province":"東京都","city":"羽村市","address":"羽村市羽加美2-16-1","lat":35.76581,"lon":139.3036},{"name":"まつぼっくり保育園","province":"東京都","city":"羽村市","address":"羽村市羽西1-7-3","lat":35.77147,"lon":139.30037},{"name":"チューリップ保育園","province":"東京都","city":"羽村市","address":"羽村市双葉町1-1-22","lat":35.76336,"lon":139.33096},{"name":"あおぞら保育園","province":"東京都","city":"羽村市","address":"羽村市神明台1-3-9","lat":35.75671,"lon":139.319},{"name":"羽村しらうめ保育園","province":"東京都","city":"羽村市","address":"羽村市羽東1-29-16","lat":35.76214,"lon":139.31235},{"name":"富士見第二保育園","province":"東京都","city":"羽村市","address":"羽村市富士見平2-3-16","lat":35.7654,"lon":139.32941},{"name":"羽村まつの木保育園","province":"東京都","city":"羽村市","address":"羽村市小作台3-9-12","lat":35.77639,"lon":139.29802},{"name":"かやの実保育園","province":"東京都","city":"羽村市","address":"羽村市栄町2-1-5","lat":35.77195,"lon":139.30655},{"name":"富士見第一保育園","province":"東京都","city":"羽村市","address":"羽村市緑ヶ丘4-12-40","lat":35.76726,"lon":139.31453},{"name":"羽村たつの子保育園","province":"東京都","city":"羽村市","address":"羽村市五ノ神2-6-20","lat":35.76101,"lon":139.3206},{"name":"太陽の子保育園","province":"東京都","city":"羽村市","address":"羽村市五ノ神3-15-7","lat":35.7621,"lon":139.31966},{"name":"富士見第二保育園","province":"東京都","city":"羽村市","address":"羽村市富士見平2-3-16","lat":35.76303,"lon":139.32391},{"name":"羽村しらうめ保育園","province":"東京都","city":"羽村市","address":"羽村市羽東1-29-16","lat":35.76213,"lon":139.31235},{"name":"玉水保育園","province":"東京都","city":"羽村市","address":"羽村市羽東3-21-12","lat":35.75568,"lon":139.31007},{"name":"さくら保育園","province":"東京都","city":"羽村市","address":"羽村市羽加美2-16-1","lat":35.76581,"lon":139.3036},{"name":"まつぼっくり保育園","province":"東京都","city":"羽村市","address":"羽村市羽西1-7-3","lat":35.77147,"lon":139.30037},{"name":"チューリップ保育園","province":"東京都","city":"羽村市","address":"羽村市双葉町1-1-22","lat":35.76336,"lon":139.33096},{"name":"あおぞら保育園","province":"東京都","city":"羽村市","address":"羽村市神明台1-3-9","lat":35.75671,"lon":139.319},{"name":"羽村しらうめ保育園","province":"東京都","city":"羽村市","address":"羽村市羽東1-29-16","lat":35.76214,"lon":139.31235},{"name":"富士見第二保育園","province":"東京都","city":"羽村市","address":"羽村市富士見平2-3-16","lat":35.7654,"lon":139.32941},{"name":"羽村まつの木保育園","province":"東京都","city":"羽村市","address":"羽村市小作台3-9-12","lat":35.77639,"lon":139.29802},{"name":"かやの実保育園","province":"東京都","city":"羽村市","address":"羽村市栄町2-1-5","lat":35.77195,"lon":139.30655},{"name":"富士見第一保育園","province":"東京都","city":"羽村市","address":"羽村市緑ヶ丘4-12-40","lat":35.76726,"lon":139.31453},{"name":"羽村たつの子保育園","province":"東京都","city":"羽村市","address":"羽村市五ノ神2-6-20","lat":35.76101,"lon":139.3206},{"name":"太陽の子保育園","province":"東京都","city":"羽村市","address":"羽村市五ノ神3-15-7","lat":35.7621,"lon":139.31966},{"name":"富士見第二保育園","province":"東京都","city":"羽村市","address":"羽村市富士見平2-3-16","lat":35.76303,"lon":139.32391},{"name":"羽村しらうめ保育園","province":"東京都","city":"羽村市","address":"羽村市羽東1-29-16","lat":35.76213,"lon":139.31235},{"name":"玉水保育園","province":"東京都","city":"羽村市","address":"羽村市羽東3-21-12","lat":35.75568,"lon":139.31007},{"name":"さくら保育園","province":"東京都","city":"羽村市","address":"羽村市羽加美2-16-1","lat":35.76581,"lon":139.3036},{"name":"まつぼっくり保育園","province":"東京都","city":"羽村市","address":"羽村市羽西1-7-3","lat":35.77147,"lon":139.30037},{"name":"チューリップ保育園","province":"東京都","city":"羽村市","address":"羽村市双葉町1-1-22","lat":35.76336,"lon":139.33096},{"name":"あおぞら保育園","province":"東京都","city":"羽村市","address":"羽村市神明台1-3-9","lat":35.75671,"lon":139.319},{"name":"羽村しらうめ保育園","province":"東京都","city":"羽村市","address":"羽村市羽東1-29-16","lat":35.76214,"lon":139.31235},{"name":"富士見第二保育園","province":"東京都","city":"羽村市","address":"羽村市富士見平2-3-16","lat":35.7654,"lon":139.32941},{"name":"羽村まつの木保育園","province":"東京都","city":"羽村市","address":"羽村市小作台3-9-12","lat":35.77639,"lon":139.29802},{"name":"かやの実保育園","province":"東京都","city":"羽村市","address":"羽村市栄町2-1-5","lat":35.77195,"lon":139.30655},{"name":"富士見第一保育園","province":"東京都","city":"羽村市","address":"羽村市緑ヶ丘4-12-40","lat":35.76726,"lon":139.31453},{"name":"羽村たつの子保育園","province":"東京都","city":"羽村市","address":"羽村市五ノ神2-6-20","lat":35.76101,"lon":139.3206},{"name":"太陽の子保育園","province":"東京都","city":"羽村市","address":"羽村市五ノ神3-15-7","lat":35.7621,"lon":139.31966},{"name":"富士見第二保育園","province":"東京都","city":"羽村市","address":"羽村市富士見平2-3-16","lat":35.76303,"lon":139.32391},{"name":"羽村しらうめ保育園","province":"東京都","city":"羽村市","address":"羽村市羽東1-29-16","lat":35.76213,"lon":139.31235},{"name":"玉水保育園","province":"東京都","city":"羽村市","address":"羽村市羽東3-21-12","lat":35.75568,"lon":139.31007},{"name":"さくら保育園","province":"東京都","city":"羽村市","address":"羽村市羽加美2-16-1","lat":35.76581,"lon":139.3036},{"name":"まつぼっくり保育園","province":"東京都","city":"羽村市","address":"羽村市羽西1-7-3","lat":35.77147,"lon":139.30037},{"name":"チューリップ保育園","province":"東京都","city":"羽村市","address":"羽村市双葉町1-1-22","lat":35.76336,"lon":139.33096},{"name":"あおぞら保育園","province":"東京都","city":"羽村市","address":"羽村市神明台1-3-9","lat":35.75671,"lon":139.319},{"name":"羽村しらうめ保育園","province":"東京都","city":"羽村市","address":"羽村市羽東1-29-16","lat":35.76214,"lon":139.31235},{"name":"富士見第二保育園","province":"東京都","city":"羽村市","address":"羽村市富士見平2-3-16","lat":35.7654,"lon":139.32941},{"name":"羽村まつの木保育園","province":"東京都","city":"羽村市","address":"羽村市小作台3-9-12","lat":35.77639,"lon":139.29802},{"name":"かやの実保育園","province":"東京都","city":"羽村市","address":"羽村市栄町2-1-5","lat":35.77195,"lon":139.30655},{"name":"富士見第一保育園","province":"東京都","city":"羽村市","address":"羽村市緑ヶ丘4-12-40","lat":35.76726,"lon":139.31453},{"name":"羽村たつの子保育園","province":"東京都","city":"羽村市","address":"羽村市五ノ神2-6-20","lat":35.76101,"lon":139.3206},{"name":"太陽の子保育園","province":"東京都","city":"羽村市","address":"羽村市五ノ神3-15-7","lat":35.7621,"lon":139.31966},{"name":"富士見第二保育園","province":"東京都","city":"羽村市","address":"羽村市富士見平2-3-16","lat":35.76303,"lon":139.32391},{"name":"羽村しらうめ保育園","province":"東京都","city":"羽村市","address":"羽村市羽東1-29-16","lat":35.76213,"lon":139.31235},{"name":"玉水保育園","province":"東京都","city":"羽村市","address":"羽村市羽東3-21-12","lat":35.75568,"lon":139.31007},{"name":"さくら保育園","province":"東京都","city":"羽村市","address":"羽村市羽加美2-16-1","lat":35.76581,"lon":139.3036},{"name":"まつぼっくり保育園","province":"東京都","city":"羽村市","address":"羽村市羽西1-7-3","lat":35.77147,"lon":139.30037},{"name":"チューリップ保育園","province":"東京都","city":"羽村市","address":"羽村市双葉町1-1-22","lat":35.76336,"lon":139.33096},{"name":"あおぞら保育園","province":"東京都","city":"羽村市","address":"羽村市神明台1-3-9","lat":35.75671,"lon":139.319},{"name":"羽村しらうめ保育園","province":"東京都","city":"羽村市","address":"羽村市羽東1-29-16","lat":35.76214,"lon":139.31235},{"name":"富士見第二保育園","province":"東京都","city":"羽村市","address":"羽村市富士見平2-3-16","lat":35.7654,"lon":139.32941},{"name":"羽村まつの木保育園","province":"東京都","city":"羽村市","address":"羽村市小作台3-9-12","lat":35.77639,"lon":139.29802},{"name":"かやの実保育園","province":"東京都","city":"羽村市","address":"羽村市栄町2-1-5","lat":35.77195,"lon":139.30655},{"name":"富士見第一保育園","province":"東京都","city":"羽村市","address":"羽村市緑ヶ丘4-12-40","lat":35.76726,"lon":139.31453},{"name":"羽村たつの子保育園","province":"東京都","city":"羽村市","address":"羽村市五ノ神2-6-20","lat":35.76101,"lon":139.3206},{"name":"太陽の子保育園","province":"東京都","city":"羽村市","address":"羽村市五ノ神3-15-7","lat":35.7621,"lon":139.31966},{"name":"富士見第二保育園","province":"東京都","city":"羽村市","address":"羽村市富士見平2-3-16","lat":35.76303,"lon":139.32391},{"name":"羽村しらうめ保育園","province":"東京都","city":"羽村市","address":"羽村市羽東1-29-16","lat":35.76213,"lon":139.31235},{"name":"玉水保育園","province":"東京都","city":"羽村市","address":"羽村市羽東3-21-12","lat":35.75568,"lon":139.31007},{"name":"さくら保育園","province":"東京都","city":"羽村市","address":"羽村市羽加美2-16-1","lat":35.76581,"lon":139.3036},{"name":"まつぼっくり保育園","province":"東京都","city":"羽村市","address":"羽村市羽西1-7-3","lat":35.77147,"lon":139.30037},{"name":"チューリップ保育園","province":"東京都","city":"羽村市","address":"羽村市双葉町1-1-22","lat":35.76336,"lon":139.33096},{"name":"あおぞら保育園","province":"東京都","city":"羽村市","address":"羽村市神明台1-3-9","lat":35.75671,"lon":139.319},{"name":"羽村しらうめ保育園","province":"東京都","city":"羽村市","address":"羽村市羽東1-29-16","lat":35.76214,"lon":139.31235},{"name":"富士見第二保育園","province":"東京都","city":"羽村市","address":"羽村市富士見平2-3-16","lat":35.7654,"lon":139.32941},{"name":"羽村まつの木保育園","province":"東京都","city":"羽村市","address":"羽村市小作台3-9-12","lat":35.77639,"lon":139.29802},{"name":"かやの実保育園","province":"東京都","city":"羽村市","address":"羽村市栄町2-1-5","lat":35.77195,"lon":139.30655},{"name":"富士見第一保育園","province":"東京都","city":"羽村市","address":"羽村市緑ヶ丘4-12-40","lat":35.76726,"lon":139.31453},{"name":"羽村たつの子保育園","province":"東京都","city":"羽村市","address":"羽村市五ノ神2-6-20","lat":35.76101,"lon":139.3206},{"name":"太陽の子保育園","province":"東京都","city":"羽村市","address":"羽村市五ノ神3-15-7","lat":35.7621,"lon":139.31966},{"name":"富士見第二保育園","province":"東京都","city":"羽村市","address":"羽村市富士見平2-3-16","lat":35.76303,"lon":139.32391},{"name":"羽村しらうめ保育園","province":"東京都","city":"羽村市","address":"羽村市羽東1-29-16","lat":35.76213,"lon":139.31235},{"name":"玉水保育園","province":"東京都","city":"羽村市","address":"羽村市羽東3-21-12","lat":35.75568,"lon":139.31007},{"name":"さくら保育園","province":"東京都","city":"羽村市","address":"羽村市羽加美2-16-1","lat":35.76581,"lon":139.3036},{"name":"まつぼっくり保育園","province":"東京都","city":"羽村市","address":"羽村市羽西1-7-3","lat":35.77147,"lon":139.30037},{"name":"チューリップ保育園","province":"東京都","city":"羽村市","address":"羽村市双葉町1-1-22","lat":35.76336,"lon":139.33096},{"name":"あおぞら保育園","province":"東京都","city":"羽村市","address":"羽村市神明台1-3-9","lat":35.75671,"lon":139.319},{"name":"羽村しらうめ保育園","province":"東京都","city":"羽村市","address":"羽村市羽東1-29-16","lat":35.76214,"lon":139.31235},{"name":"富士見第二保育園","province":"東京都","city":"羽村市","address":"羽村市富士見平2-3-16","lat":35.7654,"lon":139.32941}]}