{"keyword":"子ども","data":[{"name":"羽村市庁舎","province":"東京都","city":"羽村市","address":"東京都羽村市緑ヶ丘5丁目2-1","lat":35.76719,"lon":139.310911},{"name":"羽村市図書館","province":"東京都","city":"羽村市","address":"東京都羽村市緑ヶ丘2丁目11-2","lat":35.764407,"lon":139.316644},{"name":"羽村市庁舎","province":"東京都","city":"羽村市","address":"東京都羽村市緑ヶ丘5丁目2","lat":35.767,"lon":139.311365},{"name":"羽村市分庁舎","province":"東京都","city":"羽村市","address":"東京都羽村市緑ヶ丘5丁目1-30","lat":35.766638,"lon":139.310455},{"name":"生涯学習センターゆとろぎ","province":"東京都","city":"羽村市","address":"東京都羽村市緑ヶ丘1丁目11-5","lat":35.764066,"lon":139.315887},{"name":"生涯学習センターゆとろぎ","province":"東京都","city":"羽村市","address":"東京都羽村市緑ヶ丘1丁目11-5","lat":35.763896,"lon":139.316009},{"name":"生涯学習センターゆとろぎ","province":"東京都","city":"羽村市","address":"東京都羽村市緑ヶ丘1丁目11-5","lat":35.764101,"lon":139.315766},{"name":"生涯学習センターゆとろぎ","province":"東京都","city":"羽村市","address":"東京都羽村市緑ヶ丘1丁目11-5","lat":35.764055,"lon":139.316225},{"name":"羽村市コミュニティセンター じゅらく苑","province":"東京都","city":"羽村市","address":"東京都羽村市緑ヶ丘5丁目2-6","lat":35.767878,"lon":139.310934},{"name":"羽村市コミュニティセンター じゅらく苑","province":"東京都","city":"羽村市","address":"東京都羽村市緑ヶ丘5丁目2-6","lat":35.767834,"lon":139.31097},{"name":"高齢者在宅サービスセンターいこいの里","province":"東京都","city":"羽村市","address":"東京都羽村市羽加美4丁目18-6","lat":35.760295,"lon":139.299354},{"name":"双葉町会館","province":"東京都","city":"羽村市","address":"東京都羽村市双葉町2丁目14-45","lat":35.759737,"lon":139.333494},{"name":"羽村市保健センター","province":"東京都","city":"羽村市","address":"東京都羽村市緑ヶ丘5丁目5-2","lat":35.768893,"lon":139.311826},{"name":"羽村市保健センター","province":"東京都","city":"羽村市","address":"東京都羽村市緑ヶ丘5丁目5","lat":35.768679,"lon":139.311815},{"name":"羽村市保健センター","province":"東京都","city":"羽村市","address":"東京都羽村市緑ヶ丘5丁目5-2","lat":35.768822,"lon":139.311658},{"name":"羽村市図書館","province":"東京都","city":"羽村市","address":"東京都羽村市緑ヶ丘2丁目11-2","lat":35.764488,"lon":139.31642},{"name":"羽村市スポーツセンター","province":"東京都","city":"羽村市","address":"東京都羽村市羽加美1丁目29-5","lat":35.767972,"lon":139.307594},{"name":"羽村市スポーツセンター","province":"東京都","city":"羽村市","address":"東京都羽村市羽加美1丁目29-5","lat":35.768173,"lon":139.307628},{"name":"羽村市スイミングセンター","province":"東京都","city":"羽村市","address":"東京都羽村市五ノ神319-3","lat":35.768429,"lon":139.329127},{"name":"羽村市スイミングセンター","province":"東京都","city":"羽村市","address":"東京都羽村市五ノ神319-3","lat":35.768455,"lon":139.329088},{"name":"羽村市郷土博物館","province":"東京都","city":"羽村市","address":"東京都羽村市羽741","lat":35.755054,"lon":139.303378},{"name":"羽村市中央児童館","province":"東京都","city":"羽村市","address":"東京都羽村市羽中3丁目6-19","lat":35.761388,"lon":139.309272},{"name":"羽村市東児童館","province":"東京都","city":"羽村市","address":"東京都羽村市神明台3丁目30-2","lat":35.760347,"lon":139.328388},{"name":"羽村市東児童館","province":"東京都","city":"羽村市","address":"東京都羽村市神明台3丁目30-2","lat":35.760315,"lon":139.328323},{"name":"羽村市西児童館","province":"東京都","city":"羽村市","address":"東京都羽村市小作台5丁目28-3","lat":35.772806,"lon":139.303026},{"name":"武蔵野公園","province":"東京都","city":"羽村市","address":"東京都羽村市栄町2丁目5","lat":35.774225,"lon":139.310484},{"name":"武蔵野公園","province":"東京都","city":"羽村市","address":"東京都羽村市栄町2丁目5","lat":35.774181,"lon":139.310556},{"name":"あさひ公園","province":"東京都","city":"羽村市","address":"東京都羽村市神明台3丁目31","lat":35.760034,"lon":139.327622},{"name":"富士見公園","province":"東京都","city":"羽村市","address":"東京都羽村市緑ヶ丘4丁目11","lat":35.76862,"lon":139.315328},{"name":"富士見公園","province":"東京都","city":"羽村市","address":"東京都羽村市緑ヶ丘4丁目11","lat":35.768033,"lon":139.31692},{"name":"富士見公園","province":"東京都","city":"羽村市","address":"東京都羽村市緑ヶ丘4丁目11","lat":35.766895,"lon":139.315911},{"name":"神明児童公園","province":"東京都","city":"羽村市","address":"東京都羽村市神明台1丁目16","lat":35.754761,"lon":139.32018},{"name":"川崎公園","province":"東京都","city":"羽村市","address":"東京都羽村市川崎2丁目6","lat":35.753146,"lon":139.318419},{"name":"羽村市動物公園","province":"東京都","city":"羽村市","address":"東京都羽村市富士見平3丁目4","lat":35.76597,"lon":139.328838},{"name":"羽村市動物公園","province":"東京都","city":"羽村市","address":"東京都羽村市富士見平3丁目4","lat":35.766401,"lon":139.32858},{"name":"羽村市動物公園","province":"東京都","city":"羽村市","address":"東京都羽村市羽","lat":35.766839,"lon":139.328696},{"name":"田の上公園","province":"東京都","city":"羽村市","address":"東京都羽村市羽中2丁目11","lat":35.76244,"lon":139.309256},{"name":"羽ケ上公園","province":"東京都","city":"羽村市","address":"東京都羽村市羽加美1丁目14","lat":35.771401,"lon":139.30614},{"name":"あけぼの杉児童公園","province":"東京都","city":"羽村市","address":"東京都羽村市羽加美1丁目36","lat":35.76765,"lon":139.305912},{"name":"多摩川一里塚公園","province":"東京都","city":"羽村市","address":"東京都羽村市玉川2丁目9","lat":35.75112,"lon":139.312708},{"name":"小作ふれあい公園","province":"東京都","city":"羽村市","address":"東京都羽村市羽西3丁目2","lat":35.772525,"lon":139.297217},{"name":"羽村市水上公園","province":"東京都","city":"羽村市","address":"東京都羽村市羽中4丁目9","lat":35.757744,"lon":139.305986},{"name":"双葉町公園","province":"東京都","city":"羽村市","address":"東京都羽村市双葉町2丁目7","lat":35.756744,"lon":139.332772},{"name":"羽村駅東口公衆トイレ","province":"東京都","city":"羽村市","address":"東京都羽村市羽東1丁目7-26","lat":35.758633,"lon":139.315955},{"name":"羽村駅西口公衆トイレ","province":"東京都","city":"羽村市","address":"東京都羽村市羽東1丁目7-26","lat":35.758357,"lon":139.315787},{"name":"小作駅東口公衆トイレ","province":"東京都","city":"羽村市","address":"東京都羽村市小作台5丁目35-1","lat":35.776294,"lon":139.302156},{"name":"小作駅西口公衆トイレ","province":"東京都","city":"羽村市","address":"東京都羽村市小作台5丁目35-1","lat":35.776137,"lon":139.301848},{"name":"羽村市福祉センター","province":"東京都","city":"羽村市","address":"東京都羽村市栄町2丁目18-1","lat":35.770375,"lon":139.313091},{"name":"羽村市福祉センター","province":"東京都","city":"羽村市","address":"東京都羽村市栄町2丁目18-1","lat":35.770417,"lon":139.313065},{"name":"羽村市福祉センター","province":"東京都","city":"羽村市","address":"東京都羽村市栄町2丁目18-1","lat":35.770664,"lon":139.312802},{"name":"羽村市弓道場","province":"東京都","city":"羽村市","address":"東京都羽村市小作台4丁目2-8","lat":35.776707,"lon":139.294217},{"name":"羽村市スポーツセンター","province":"東京都","city":"羽村市","address":"東京都羽村市羽加美1丁目29-5","lat":35.76826834,"lon":139.30764403},{"name":"羽村市庁舎","province":"東京都","city":"羽村市","address":"東京都羽村市緑ヶ丘5丁目2-1","lat":35.76719,"lon":139.310911},{"name":"羽村市図書館","province":"東京都","city":"羽村市","address":"東京都羽村市緑ヶ丘2丁目11-2","lat":35.764407,"lon":139.316644},{"name":"羽村市庁舎","province":"東京都","city":"羽村市","address":"東京都羽村市緑ヶ丘5丁目2","lat":35.767,"lon":139.311365},{"name":"羽村市分庁舎","province":"東京都","city":"羽村市","address":"東京都羽村市緑ヶ丘5丁目1-30","lat":35.766638,"lon":139.310455},{"name":"生涯学習センターゆとろぎ","province":"東京都","city":"羽村市","address":"東京都羽村市緑ヶ丘1丁目11-5","lat":35.764066,"lon":139.315887},{"name":"生涯学習センターゆとろぎ","province":"東京都","city":"羽村市","address":"東京都羽村市緑ヶ丘1丁目11-5","lat":35.763896,"lon":139.316009},{"name":"生涯学習センターゆとろぎ","province":"東京都","city":"羽村市","address":"東京都羽村市緑ヶ丘1丁目11-5","lat":35.764101,"lon":139.315766},{"name":"生涯学習センターゆとろぎ","province":"東京都","city":"羽村市","address":"東京都羽村市緑ヶ丘1丁目11-5","lat":35.764055,"lon":139.316225},{"name":"羽村市コミュニティセンター じゅらく苑","province":"東京都","city":"羽村市","address":"東京都羽村市緑ヶ丘5丁目2-6","lat":35.767878,"lon":139.310934},{"name":"羽村市コミュニティセンター じゅらく苑","province":"東京都","city":"羽村市","address":"東京都羽村市緑ヶ丘5丁目2-6","lat":35.767834,"lon":139.31097},{"name":"高齢者在宅サービスセンターいこいの里","province":"東京都","city":"羽村市","address":"東京都羽村市羽加美4丁目18-6","lat":35.760295,"lon":139.299354},{"name":"双葉町会館","province":"東京都","city":"羽村市","address":"東京都羽村市双葉町2丁目14-45","lat":35.759737,"lon":139.333494},{"name":"羽村市保健センター","province":"東京都","city":"羽村市","address":"東京都羽村市緑ヶ丘5丁目5-2","lat":35.768893,"lon":139.311826},{"name":"羽村市保健センター","province":"東京都","city":"羽村市","address":"東京都羽村市緑ヶ丘5丁目5","lat":35.768679,"lon":139.311815},{"name":"羽村市保健センター","province":"東京都","city":"羽村市","address":"東京都羽村市緑ヶ丘5丁目5-2","lat":35.768822,"lon":139.311658},{"name":"羽村市図書館","province":"東京都","city":"羽村市","address":"東京都羽村市緑ヶ丘2丁目11-2","lat":35.764488,"lon":139.31642},{"name":"羽村市スポーツセンター","province":"東京都","city":"羽村市","address":"東京都羽村市羽加美1丁目29-5","lat":35.767972,"lon":139.307594},{"name":"羽村市スポーツセンター","province":"東京都","city":"羽村市","address":"東京都羽村市羽加美1丁目29-5","lat":35.768173,"lon":139.307628},{"name":"羽村市スイミングセンター","province":"東京都","city":"羽村市","address":"東京都羽村市五ノ神319-3","lat":35.768429,"lon":139.329127},{"name":"羽村市スイミングセンター","province":"東京都","city":"羽村市","address":"東京都羽村市五ノ神319-3","lat":35.768455,"lon":139.329088},{"name":"羽村市郷土博物館","province":"東京都","city":"羽村市","address":"東京都羽村市羽741","lat":35.755054,"lon":139.303378},{"name":"羽村市中央児童館","province":"東京都","city":"羽村市","address":"東京都羽村市羽中3丁目6-19","lat":35.761388,"lon":139.309272},{"name":"羽村市東児童館","province":"東京都","city":"羽村市","address":"東京都羽村市神明台3丁目30-2","lat":35.760347,"lon":139.328388},{"name":"羽村市東児童館","province":"東京都","city":"羽村市","address":"東京都羽村市神明台3丁目30-2","lat":35.760315,"lon":139.328323},{"name":"羽村市西児童館","province":"東京都","city":"羽村市","address":"東京都羽村市小作台5丁目28-3","lat":35.772806,"lon":139.303026},{"name":"武蔵野公園","province":"東京都","city":"羽村市","address":"東京都羽村市栄町2丁目5","lat":35.774225,"lon":139.310484},{"name":"武蔵野公園","province":"東京都","city":"羽村市","address":"東京都羽村市栄町2丁目5","lat":35.774181,"lon":139.310556},{"name":"あさひ公園","province":"東京都","city":"羽村市","address":"東京都羽村市神明台3丁目31","lat":35.760034,"lon":139.327622},{"name":"富士見公園","province":"東京都","city":"羽村市","address":"東京都羽村市緑ヶ丘4丁目11","lat":35.76862,"lon":139.315328},{"name":"富士見公園","province":"東京都","city":"羽村市","address":"東京都羽村市緑ヶ丘4丁目11","lat":35.768033,"lon":139.31692},{"name":"富士見公園","province":"東京都","city":"羽村市","address":"東京都羽村市緑ヶ丘4丁目11","lat":35.766895,"lon":139.315911},{"name":"神明児童公園","province":"東京都","city":"羽村市","address":"東京都羽村市神明台1丁目16","lat":35.754761,"lon":139.32018},{"name":"川崎公園","province":"東京都","city":"羽村市","address":"東京都羽村市川崎2丁目6","lat":35.753146,"lon":139.318419},{"name":"羽村市動物公園","province":"東京都","city":"羽村市","address":"東京都羽村市富士見平3丁目4","lat":35.76597,"lon":139.328838},{"name":"羽村市動物公園","province":"東京都","city":"羽村市","address":"東京都羽村市富士見平3丁目4","lat":35.766401,"lon":139.32858},{"name":"羽村市動物公園","province":"東京都","city":"羽村市","address":"東京都羽村市羽","lat":35.766839,"lon":139.328696},{"name":"田の上公園","province":"東京都","city":"羽村市","address":"東京都羽村市羽中2丁目11","lat":35.76244,"lon":139.309256},{"name":"羽ケ上公園","province":"東京都","city":"羽村市","address":"東京都羽村市羽加美1丁目14","lat":35.771401,"lon":139.30614},{"name":"あけぼの杉児童公園","province":"東京都","city":"羽村市","address":"東京都羽村市羽加美1丁目36","lat":35.76765,"lon":139.305912},{"name":"多摩川一里塚公園","province":"東京都","city":"羽村市","address":"東京都羽村市玉川2丁目9","lat":35.75112,"lon":139.312708},{"name":"小作ふれあい公園","province":"東京都","city":"羽村市","address":"東京都羽村市羽西3丁目2","lat":35.772525,"lon":139.297217},{"name":"羽村市水上公園","province":"東京都","city":"羽村市","address":"東京都羽村市羽中4丁目9","lat":35.757744,"lon":139.305986},{"name":"双葉町公園","province":"東京都","city":"羽村市","address":"東京都羽村市双葉町2丁目7","lat":35.756744,"lon":139.332772},{"name":"羽村駅東口公衆トイレ","province":"東京都","city":"羽村市","address":"東京都羽村市羽東1丁目7-26","lat":35.758633,"lon":139.315955},{"name":"羽村駅西口公衆トイレ","province":"東京都","city":"羽村市","address":"東京都羽村市羽東1丁目7-26","lat":35.758357,"lon":139.315787},{"name":"小作駅東口公衆トイレ","province":"東京都","city":"羽村市","address":"東京都羽村市小作台5丁目35-1","lat":35.776294,"lon":139.302156},{"name":"小作駅西口公衆トイレ","province":"東京都","city":"羽村市","address":"東京都羽村市小作台5丁目35-1","lat":35.776137,"lon":139.301848},{"name":"羽村市福祉センター","province":"東京都","city":"羽村市","address":"東京都羽村市栄町2丁目18-1","lat":35.770375,"lon":139.313091},{"name":"羽村市福祉センター","province":"東京都","city":"羽村市","address":"東京都羽村市栄町2丁目18-1","lat":35.770417,"lon":139.313065},{"name":"羽村市福祉センター","province":"東京都","city":"羽村市","address":"東京都羽村市栄町2丁目18-1","lat":35.770664,"lon":139.312802},{"name":"羽村市弓道場","province":"東京都","city":"羽村市","address":"東京都羽村市小作台4丁目2-8","lat":35.776707,"lon":139.294217},{"name":"羽村市庁舎","province":"東京都","city":"羽村市","address":"東京都羽村市緑ヶ丘5丁目2-1","lat":35.76719,"lon":139.310911},{"name":"羽村市図書館","province":"東京都","city":"羽村市","address":"東京都羽村市緑ヶ丘2丁目11-2","lat":35.764407,"lon":139.316644},{"name":"羽村市庁舎","province":"東京都","city":"羽村市","address":"東京都羽村市緑ヶ丘5丁目2","lat":35.767,"lon":139.311365},{"name":"羽村市分庁舎","province":"東京都","city":"羽村市","address":"東京都羽村市緑ヶ丘5丁目1-30","lat":35.766638,"lon":139.310455},{"name":"生涯学習センターゆとろぎ","province":"東京都","city":"羽村市","address":"東京都羽村市緑ヶ丘1丁目11-5","lat":35.764066,"lon":139.315887},{"name":"生涯学習センターゆとろぎ","province":"東京都","city":"羽村市","address":"東京都羽村市緑ヶ丘1丁目11-5","lat":35.763896,"lon":139.316009},{"name":"生涯学習センターゆとろぎ","province":"東京都","city":"羽村市","address":"東京都羽村市緑ヶ丘1丁目11-5","lat":35.764101,"lon":139.315766},{"name":"生涯学習センターゆとろぎ","province":"東京都","city":"羽村市","address":"東京都羽村市緑ヶ丘1丁目11-5","lat":35.764055,"lon":139.316225},{"name":"羽村市コミュニティセンター じゅらく苑","province":"東京都","city":"羽村市","address":"東京都羽村市緑ヶ丘5丁目2-6","lat":35.767878,"lon":139.310934},{"name":"羽村市コミュニティセンター じゅらく苑","province":"東京都","city":"羽村市","address":"東京都羽村市緑ヶ丘5丁目2-6","lat":35.767834,"lon":139.31097},{"name":"高齢者在宅サービスセンターいこいの里","province":"東京都","city":"羽村市","address":"東京都羽村市羽加美4丁目18-6","lat":35.760295,"lon":139.299354},{"name":"双葉町会館","province":"東京都","city":"羽村市","address":"東京都羽村市双葉町2丁目14-45","lat":35.759737,"lon":139.333494},{"name":"羽村市保健センター","province":"東京都","city":"羽村市","address":"東京都羽村市緑ヶ丘5丁目5-2","lat":35.768893,"lon":139.311826},{"name":"羽村市保健センター","province":"東京都","city":"羽村市","address":"東京都羽村市緑ヶ丘5丁目5","lat":35.768679,"lon":139.311815},{"name":"羽村市保健センター","province":"東京都","city":"羽村市","address":"東京都羽村市緑ヶ丘5丁目5-2","lat":35.768822,"lon":139.311658},{"name":"羽村市図書館","province":"東京都","city":"羽村市","address":"東京都羽村市緑ヶ丘2丁目11-2","lat":35.764488,"lon":139.31642},{"name":"羽村市スポーツセンター","province":"東京都","city":"羽村市","address":"東京都羽村市羽加美1丁目29-5","lat":35.767972,"lon":139.307594},{"name":"羽村市スポーツセンター","province":"東京都","city":"羽村市","address":"東京都羽村市羽加美1丁目29-5","lat":35.768173,"lon":139.307628},{"name":"羽村市スイミングセンター","province":"東京都","city":"羽村市","address":"東京都羽村市五ノ神319-3","lat":35.768429,"lon":139.329127},{"name":"羽村市スイミングセンター","province":"東京都","city":"羽村市","address":"東京都羽村市五ノ神319-3","lat":35.768455,"lon":139.329088},{"name":"羽村市郷土博物館","province":"東京都","city":"羽村市","address":"東京都羽村市羽741","lat":35.755054,"lon":139.303378},{"name":"羽村市中央児童館","province":"東京都","city":"羽村市","address":"東京都羽村市羽中3丁目6-19","lat":35.761388,"lon":139.309272},{"name":"羽村市東児童館","province":"東京都","city":"羽村市","address":"東京都羽村市神明台3丁目30-2","lat":35.760347,"lon":139.328388},{"name":"羽村市東児童館","province":"東京都","city":"羽村市","address":"東京都羽村市神明台3丁目30-2","lat":35.760315,"lon":139.328323},{"name":"羽村市西児童館","province":"東京都","city":"羽村市","address":"東京都羽村市小作台5丁目28-3","lat":35.772806,"lon":139.303026},{"name":"武蔵野公園","province":"東京都","city":"羽村市","address":"東京都羽村市栄町2丁目5","lat":35.774225,"lon":139.310484},{"name":"武蔵野公園","province":"東京都","city":"羽村市","address":"東京都羽村市栄町2丁目5","lat":35.774181,"lon":139.310556},{"name":"あさひ公園","province":"東京都","city":"羽村市","address":"東京都羽村市神明台3丁目31","lat":35.760034,"lon":139.327622},{"name":"富士見公園","province":"東京都","city":"羽村市","address":"東京都羽村市緑ヶ丘4丁目11","lat":35.76862,"lon":139.315328},{"name":"富士見公園","province":"東京都","city":"羽村市","address":"東京都羽村市緑ヶ丘4丁目11","lat":35.768033,"lon":139.31692},{"name":"富士見公園","province":"東京都","city":"羽村市","address":"東京都羽村市緑ヶ丘4丁目11","lat":35.766895,"lon":139.315911},{"name":"神明児童公園","province":"東京都","city":"羽村市","address":"東京都羽村市神明台1丁目16","lat":35.754761,"lon":139.32018},{"name":"川崎公園","province":"東京都","city":"羽村市","address":"東京都羽村市川崎2丁目6","lat":35.753146,"lon":139.318419},{"name":"羽村市動物公園","province":"東京都","city":"羽村市","address":"東京都羽村市富士見平3丁目4","lat":35.76597,"lon":139.328838},{"name":"羽村市動物公園","province":"東京都","city":"羽村市","address":"東京都羽村市富士見平3丁目4","lat":35.766401,"lon":139.32858},{"name":"羽村市動物公園","province":"東京都","city":"羽村市","address":"東京都羽村市羽","lat":35.766839,"lon":139.328696},{"name":"田の上公園","province":"東京都","city":"羽村市","address":"東京都羽村市羽中2丁目11","lat":35.76244,"lon":139.309256},{"name":"羽ケ上公園","province":"東京都","city":"羽村市","address":"東京都羽村市羽加美1丁目14","lat":35.771401,"lon":139.30614},{"name":"あけぼの杉児童公園","province":"東京都","city":"羽村市","address":"東京都羽村市羽加美1丁目36","lat":35.76765,"lon":139.305912},{"name":"多摩川一里塚公園","province":"東京都","city":"羽村市","address":"東京都羽村市玉川2丁目9","lat":35.75112,"lon":139.312708},{"name":"小作ふれあい公園","province":"東京都","city":"羽村市","address":"東京都羽村市羽西3丁目2","lat":35.772525,"lon":139.297217},{"name":"羽村市水上公園","province":"東京都","city":"羽村市","address":"東京都羽村市羽中4丁目9","lat":35.757744,"lon":139.305986},{"name":"双葉町公園","province":"東京都","city":"羽村市","address":"東京都羽村市双葉町2丁目7","lat":35.756744,"lon":139.332772},{"name":"羽村駅東口公衆トイレ","province":"東京都","city":"羽村市","address":"東京都羽村市羽東1丁目7-26","lat":35.758633,"lon":139.315955},{"name":"羽村駅西口公衆トイレ","province":"東京都","city":"羽村市","address":"東京都羽村市羽東1丁目7-26","lat":35.758357,"lon":139.315787},{"name":"小作駅東口公衆トイレ","province":"東京都","city":"羽村市","address":"東京都羽村市小作台5丁目35-1","lat":35.776294,"lon":139.302156},{"name":"小作駅西口公衆トイレ","province":"東京都","city":"羽村市","address":"東京都羽村市小作台5丁目35-1","lat":35.776137,"lon":139.301848},{"name":"羽村市福祉センター","province":"東京都","city":"羽村市","address":"東京都羽村市栄町2丁目18-1","lat":35.770375,"lon":139.313091},{"name":"羽村市福祉センター","province":"東京都","city":"羽村市","address":"東京都羽村市栄町2丁目18-1","lat":35.770417,"lon":139.313065},{"name":"羽村市福祉センター","province":"東京都","city":"羽村市","address":"東京都羽村市栄町2丁目18-1","lat":35.770664,"lon":139.312802},{"name":"羽村市弓道場","province":"東京都","city":"羽村市","address":"東京都羽村市小作台4丁目2-8","lat":35.776707,"lon":139.294217},{"name":"羽村市庁舎","province":"東京都","city":"羽村市","address":"東京都羽村市緑ヶ丘5丁目2-1","lat":35.76719,"lon":139.310911},{"name":"羽村市図書館","province":"東京都","city":"羽村市","address":"東京都羽村市緑ヶ丘2丁目11-2","lat":35.764407,"lon":139.316644},{"name":"羽村市庁舎","province":"東京都","city":"羽村市","address":"東京都羽村市緑ヶ丘5丁目2","lat":35.767,"lon":139.311365},{"name":"羽村市分庁舎","province":"東京都","city":"羽村市","address":"東京都羽村市緑ヶ丘5丁目1-30","lat":35.766638,"lon":139.310455},{"name":"生涯学習センターゆとろぎ","province":"東京都","city":"羽村市","address":"東京都羽村市緑ヶ丘1丁目11-5","lat":35.764066,"lon":139.315887},{"name":"生涯学習センターゆとろぎ","province":"東京都","city":"羽村市","address":"東京都羽村市緑ヶ丘1丁目11-5","lat":35.763896,"lon":139.316009},{"name":"生涯学習センターゆとろぎ","province":"東京都","city":"羽村市","address":"東京都羽村市緑ヶ丘1丁目11-5","lat":35.764101,"lon":139.315766},{"name":"生涯学習センターゆとろぎ","province":"東京都","city":"羽村市","address":"東京都羽村市緑ヶ丘1丁目11-5","lat":35.764055,"lon":139.316225},{"name":"羽村市コミュニティセンター じゅらく苑","province":"東京都","city":"羽村市","address":"東京都羽村市緑ヶ丘5丁目2-6","lat":35.767878,"lon":139.310934},{"name":"羽村市コミュニティセンター じゅらく苑","province":"東京都","city":"羽村市","address":"東京都羽村市緑ヶ丘5丁目2-6","lat":35.767834,"lon":139.31097},{"name":"高齢者在宅サービスセンターいこいの里","province":"東京都","city":"羽村市","address":"東京都羽村市羽加美4丁目18-6","lat":35.760295,"lon":139.299354},{"name":"双葉町会館","province":"東京都","city":"羽村市","address":"東京都羽村市双葉町2丁目14-45","lat":35.759737,"lon":139.333494},{"name":"羽村市保健センター","province":"東京都","city":"羽村市","address":"東京都羽村市緑ヶ丘5丁目5-2","lat":35.768893,"lon":139.311826},{"name":"羽村市保健センター","province":"東京都","city":"羽村市","address":"東京都羽村市緑ヶ丘5丁目5","lat":35.768679,"lon":139.311815},{"name":"羽村市保健センター","province":"東京都","city":"羽村市","address":"東京都羽村市緑ヶ丘5丁目5-2","lat":35.768822,"lon":139.311658},{"name":"羽村市図書館","province":"東京都","city":"羽村市","address":"東京都羽村市緑ヶ丘2丁目11-2","lat":35.764488,"lon":139.31642},{"name":"羽村市スポーツセンター","province":"東京都","city":"羽村市","address":"東京都羽村市羽加美1丁目29-5","lat":35.767972,"lon":139.307594},{"name":"羽村市スポーツセンター","province":"東京都","city":"羽村市","address":"東京都羽村市羽加美1丁目29-5","lat":35.768173,"lon":139.307628},{"name":"羽村市スイミングセンター","province":"東京都","city":"羽村市","address":"東京都羽村市五ノ神319-3","lat":35.768429,"lon":139.329127},{"name":"羽村市スイミングセンター","province":"東京都","city":"羽村市","address":"東京都羽村市五ノ神319-3","lat":35.768455,"lon":139.329088},{"name":"羽村市郷土博物館","province":"東京都","city":"羽村市","address":"東京都羽村市羽741","lat":35.755054,"lon":139.303378},{"name":"羽村市中央児童館","province":"東京都","city":"羽村市","address":"東京都羽村市羽中3丁目6-19","lat":35.761388,"lon":139.309272},{"name":"羽村市東児童館","province":"東京都","city":"羽村市","address":"東京都羽村市神明台3丁目30-2","lat":35.760347,"lon":139.328388},{"name":"羽村市東児童館","province":"東京都","city":"羽村市","address":"東京都羽村市神明台3丁目30-2","lat":35.760315,"lon":139.328323},{"name":"羽村市西児童館","province":"東京都","city":"羽村市","address":"東京都羽村市小作台5丁目28-3","lat":35.772806,"lon":139.303026},{"name":"武蔵野公園","province":"東京都","city":"羽村市","address":"東京都羽村市栄町2丁目5","lat":35.774225,"lon":139.310484},{"name":"武蔵野公園","province":"東京都","city":"羽村市","address":"東京都羽村市栄町2丁目5","lat":35.774181,"lon":139.310556},{"name":"あさひ公園","province":"東京都","city":"羽村市","address":"東京都羽村市神明台3丁目31","lat":35.760034,"lon":139.327622},{"name":"富士見公園","province":"東京都","city":"羽村市","address":"東京都羽村市緑ヶ丘4丁目11","lat":35.76862,"lon":139.315328},{"name":"富士見公園","province":"東京都","city":"羽村市","address":"東京都羽村市緑ヶ丘4丁目11","lat":35.768033,"lon":139.31692},{"name":"富士見公園","province":"東京都","city":"羽村市","address":"東京都羽村市緑ヶ丘4丁目11","lat":35.766895,"lon":139.315911},{"name":"神明児童公園","province":"東京都","city":"羽村市","address":"東京都羽村市神明台1丁目16","lat":35.754761,"lon":139.32018},{"name":"川崎公園","province":"東京都","city":"羽村市","address":"東京都羽村市川崎2丁目6","lat":35.753146,"lon":139.318419},{"name":"羽村市動物公園","province":"東京都","city":"羽村市","address":"東京都羽村市富士見平3丁目4","lat":35.76597,"lon":139.328838},{"name":"羽村市動物公園","province":"東京都","city":"羽村市","address":"東京都羽村市富士見平3丁目4","lat":35.766401,"lon":139.32858},{"name":"羽村市動物公園","province":"東京都","city":"羽村市","address":"東京都羽村市羽","lat":35.766839,"lon":139.328696},{"name":"田の上公園","province":"東京都","city":"羽村市","address":"東京都羽村市羽中2丁目11","lat":35.76244,"lon":139.309256},{"name":"羽ケ上公園","province":"東京都","city":"羽村市","address":"東京都羽村市羽加美1丁目14","lat":35.771401,"lon":139.30614},{"name":"あけぼの杉児童公園","province":"東京都","city":"羽村市","address":"東京都羽村市羽加美1丁目36","lat":35.76765,"lon":139.305912},{"name":"多摩川一里塚公園","province":"東京都","city":"羽村市","address":"東京都羽村市玉川2丁目9","lat":35.75112,"lon":139.312708},{"name":"小作ふれあい公園","province":"東京都","city":"羽村市","address":"東京都羽村市羽西3丁目2","lat":35.772525,"lon":139.297217},{"name":"羽村市水上公園","province":"東京都","city":"羽村市","address":"東京都羽村市羽中4丁目9","lat":35.757744,"lon":139.305986},{"name":"双葉町公園","province":"東京都","city":"羽村市","address":"東京都羽村市双葉町2丁目7","lat":35.756744,"lon":139.332772},{"name":"羽村駅東口公衆トイレ","province":"東京都","city":"羽村市","address":"東京都羽村市羽東1丁目7-26","lat":35.758633,"lon":139.315955},{"name":"羽村駅西口公衆トイレ","province":"東京都","city":"羽村市","address":"東京都羽村市羽東1丁目7-26","lat":35.758357,"lon":139.315787},{"name":"小作駅東口公衆トイレ","province":"東京都","city":"羽村市","address":"東京都羽村市小作台5丁目35-1","lat":35.776294,"lon":139.302156},{"name":"小作駅西口公衆トイレ","province":"東京都","city":"羽村市","address":"東京都羽村市小作台5丁目35-1","lat":35.776137,"lon":139.301848},{"name":"羽村市福祉センター","province":"東京都","city":"羽村市","address":"東京都羽村市栄町2丁目18-1","lat":35.770375,"lon":139.313091},{"name":"羽村市福祉センター","province":"東京都","city":"羽村市","address":"東京都羽村市栄町2丁目18-1","lat":35.770417,"lon":139.313065},{"name":"羽村市福祉センター","province":"東京都","city":"羽村市","address":"東京都羽村市栄町2丁目18-1","lat":35.770664,"lon":139.312802},{"name":"羽村市弓道場","province":"東京都","city":"羽村市","address":"東京都羽村市小作台4丁目2-8","lat":35.776707,"lon":139.294217}]}