{"keyword":"店","data":[{"name":"羽村市社会福祉協議会","province":"東京都","city":"羽村市","address":"羽村市栄町2-18-1羽村市福祉センター","lat":35.770621,"lon":139.313052},{"name":"羽村市社会福祉協議会","province":"東京都","city":"羽村市","address":"羽村市栄町2-18-1","lat":35.77059,"lon":139.31313},{"name":"障害者就労継続支援Ｂ型事業いちょう","province":"東京都","city":"羽村市","address":"東京都羽村市栄町2丁目18-1","lat":35.770621,"lon":139.31305184},{"name":"地域活動支援センターⅠ型事業あおば","province":"東京都","city":"羽村市","address":"東京都羽村市栄町2丁目18-1","lat":35.770621,"lon":139.31305184},{"name":"社会福祉法人そよかぜ福祉作業所ひばり園","province":"東京都","city":"羽村市","address":"東京都羽村市栄町3丁目3-1","lat":35.77235412,"lon":139.31292959},{"name":"＊?生涯学習センターゆとろぎ","province":"東京都","city":"羽村市","address":"羽村市緑ヶ丘1-11-5","lat":35.763908,"lon":139.316152},{"name":"羽村市社会福祉協議会","province":"東京都","city":"羽村市","address":"羽村市栄町2-18-1羽村市福祉センター","lat":35.770621,"lon":139.313052},{"name":"羽村市社会福祉協議会","province":"東京都","city":"羽村市","address":"羽村市栄町2-18-1","lat":35.77059,"lon":139.31313},{"name":"障害者就労継続支援Ｂ型事業いちょう","province":"東京都","city":"羽村市","address":"東京都羽村市栄町2丁目18-1","lat":35.770621,"lon":139.31305184},{"name":"地域活動支援センターⅠ型事業あおば","province":"東京都","city":"羽村市","address":"東京都羽村市栄町2丁目18-1","lat":35.770621,"lon":139.31305184},{"name":"社会福祉法人そよかぜ福祉作業所ひばり園","province":"東京都","city":"羽村市","address":"東京都羽村市栄町3丁目3-1","lat":35.77235412,"lon":139.31292959},{"name":"羽村市社会福祉協議会","province":"東京都","city":"羽村市","address":"羽村市栄町2-18-1羽村市福祉センター","lat":35.770621,"lon":139.313052},{"name":"羽村市社会福祉協議会","province":"東京都","city":"羽村市","address":"羽村市栄町2-18-1","lat":35.77059,"lon":139.31313},{"name":"障害者就労継続支援Ｂ型事業いちょう","province":"東京都","city":"羽村市","address":"東京都羽村市栄町2丁目18-1","lat":35.770621,"lon":139.31305184},{"name":"地域活動支援センターⅠ型事業あおば","province":"東京都","city":"羽村市","address":"東京都羽村市栄町2丁目18-1","lat":35.770621,"lon":139.31305184},{"name":"社会福祉法人そよかぜ福祉作業所ひばり園","province":"東京都","city":"羽村市","address":"東京都羽村市栄町3丁目3-1","lat":35.77235412,"lon":139.31292959},{"name":"羽村市社会福祉協議会","province":"東京都","city":"羽村市","address":"羽村市栄町2-18-1羽村市福祉センター","lat":35.770621,"lon":139.313052},{"name":"羽村市社会福祉協議会","province":"東京都","city":"羽村市","address":"羽村市栄町2-18-1","lat":35.77059,"lon":139.31313},{"name":"障害者就労継続支援Ｂ型事業いちょう","province":"東京都","city":"羽村市","address":"東京都羽村市栄町2丁目18-1","lat":35.770621,"lon":139.31305184},{"name":"地域活動支援センターⅠ型事業あおば","province":"東京都","city":"羽村市","address":"東京都羽村市栄町2丁目18-1","lat":35.770621,"lon":139.31305184},{"name":"社会福祉法人そよかぜ福祉作業所ひばり園","province":"東京都","city":"羽村市","address":"東京都羽村市栄町3丁目3-1","lat":35.77235412,"lon":139.31292959},{"name":"羽村市社会福祉協議会","province":"東京都","city":"羽村市","address":"羽村市栄町2-18-1羽村市福祉センター","lat":35.770621,"lon":139.313052},{"name":"羽村市社会福祉協議会","province":"東京都","city":"羽村市","address":"羽村市栄町2-18-1","lat":35.77059,"lon":139.31313},{"name":"障害者就労継続支援Ｂ型事業いちょう","province":"東京都","city":"羽村市","address":"東京都羽村市栄町2丁目18-1","lat":35.770621,"lon":139.31305184},{"name":"地域活動支援センターⅠ型事業あおば","province":"東京都","city":"羽村市","address":"東京都羽村市栄町2丁目18-1","lat":35.770621,"lon":139.31305184},{"name":"社会福祉法人そよかぜ福祉作業所ひばり園","province":"東京都","city":"羽村市","address":"東京都羽村市栄町3丁目3-1","lat":35.77235412,"lon":139.31292959},{"name":"羽村市社会福祉協議会","province":"東京都","city":"羽村市","address":"羽村市栄町2-18-1羽村市福祉センター","lat":35.770621,"lon":139.313052},{"name":"羽村市社会福祉協議会","province":"東京都","city":"羽村市","address":"羽村市栄町2-18-1","lat":35.77059,"lon":139.31313},{"name":"障害者就労継続支援Ｂ型事業いちょう","province":"東京都","city":"羽村市","address":"東京都羽村市栄町2丁目18-1","lat":35.770621,"lon":139.31305184},{"name":"地域活動支援センターⅠ型事業あおば","province":"東京都","city":"羽村市","address":"東京都羽村市栄町2丁目18-1","lat":35.770621,"lon":139.31305184},{"name":"社会福祉法人そよかぜ福祉作業所ひばり園","province":"東京都","city":"羽村市","address":"東京都羽村市栄町3丁目3-1","lat":35.77235412,"lon":139.31292959},{"name":"羽村市社会福祉協議会","province":"東京都","city":"羽村市","address":"羽村市栄町2-18-1羽村市福祉センター","lat":35.770621,"lon":139.313052},{"name":"羽村市社会福祉協議会","province":"東京都","city":"羽村市","address":"羽村市栄町2-18-1","lat":35.77059,"lon":139.31313},{"name":"障害者就労継続支援Ｂ型事業いちょう","province":"東京都","city":"羽村市","address":"東京都羽村市栄町2丁目18-1","lat":35.770621,"lon":139.31305184},{"name":"地域活動支援センターⅠ型事業あおば","province":"東京都","city":"羽村市","address":"東京都羽村市栄町2丁目18-1","lat":35.770621,"lon":139.31305184},{"name":"社会福祉法人そよかぜ福祉作業所ひばり園","province":"東京都","city":"羽村市","address":"東京都羽村市栄町3丁目3-1","lat":35.77235412,"lon":139.31292959},{"name":"羽村市社会福祉協議会","province":"東京都","city":"羽村市","address":"羽村市栄町2-18-1羽村市福祉センター","lat":35.770621,"lon":139.313052},{"name":"羽村市社会福祉協議会","province":"東京都","city":"羽村市","address":"羽村市栄町2-18-1","lat":35.77059,"lon":139.31313},{"name":"障害者就労継続支援Ｂ型事業いちょう","province":"東京都","city":"羽村市","address":"東京都羽村市栄町2丁目18-1","lat":35.770621,"lon":139.31305184},{"name":"地域活動支援センターⅠ型事業あおば","province":"東京都","city":"羽村市","address":"東京都羽村市栄町2丁目18-1","lat":35.770621,"lon":139.31305184},{"name":"社会福祉法人そよかぜ福祉作業所ひばり園","province":"東京都","city":"羽村市","address":"東京都羽村市栄町3丁目3-1","lat":35.77235412,"lon":139.31292959},{"name":"羽村市社会福祉協議会","province":"東京都","city":"羽村市","address":"羽村市栄町2-18-1羽村市福祉センター","lat":35.770621,"lon":139.313052},{"name":"羽村市社会福祉協議会","province":"東京都","city":"羽村市","address":"羽村市栄町2-18-1","lat":35.77059,"lon":139.31313},{"name":"障害者就労継続支援Ｂ型事業いちょう","province":"東京都","city":"羽村市","address":"東京都羽村市栄町2丁目18-1","lat":35.770621,"lon":139.31305184},{"name":"地域活動支援センターⅠ型事業あおば","province":"東京都","city":"羽村市","address":"東京都羽村市栄町2丁目18-1","lat":35.770621,"lon":139.31305184},{"name":"社会福祉法人そよかぜ福祉作業所ひばり園","province":"東京都","city":"羽村市","address":"東京都羽村市栄町3丁目3-1","lat":35.77235412,"lon":139.31292959},{"name":"羽村市社会福祉協議会","province":"東京都","city":"羽村市","address":"羽村市栄町2-18-1羽村市福祉センター","lat":35.770621,"lon":139.313052},{"name":"羽村市社会福祉協議会","province":"東京都","city":"羽村市","address":"羽村市栄町2-18-1","lat":35.77059,"lon":139.31313},{"name":"障害者就労継続支援Ｂ型事業いちょう","province":"東京都","city":"羽村市","address":"東京都羽村市栄町2丁目18-1","lat":35.770621,"lon":139.31305184},{"name":"地域活動支援センターⅠ型事業あおば","province":"東京都","city":"羽村市","address":"東京都羽村市栄町2丁目18-1","lat":35.770621,"lon":139.31305184},{"name":"社会福祉法人そよかぜ福祉作業所ひばり園","province":"東京都","city":"羽村市","address":"東京都羽村市栄町3丁目3-1","lat":35.77235412,"lon":139.31292959},{"name":"羽村市社会福祉協議会","province":"東京都","city":"羽村市","address":"羽村市栄町2-18-1羽村市福祉センター","lat":35.770621,"lon":139.313052},{"name":"羽村市社会福祉協議会","province":"東京都","city":"羽村市","address":"羽村市栄町2-18-1","lat":35.77059,"lon":139.31313},{"name":"障害者就労継続支援Ｂ型事業いちょう","province":"東京都","city":"羽村市","address":"東京都羽村市栄町2丁目18-1","lat":35.770621,"lon":139.31305184},{"name":"地域活動支援センターⅠ型事業あおば","province":"東京都","city":"羽村市","address":"東京都羽村市栄町2丁目18-1","lat":35.770621,"lon":139.31305184},{"name":"社会福祉法人そよかぜ福祉作業所ひばり園","province":"東京都","city":"羽村市","address":"東京都羽村市栄町3丁目3-1","lat":35.77235412,"lon":139.31292959},{"name":"羽村市社会福祉協議会","province":"東京都","city":"羽村市","address":"羽村市栄町2-18-1羽村市福祉センター","lat":35.770621,"lon":139.313052},{"name":"羽村市社会福祉協議会","province":"東京都","city":"羽村市","address":"羽村市栄町2-18-1","lat":35.77059,"lon":139.31313},{"name":"障害者就労継続支援Ｂ型事業いちょう","province":"東京都","city":"羽村市","address":"東京都羽村市栄町2丁目18-1","lat":35.770621,"lon":139.31305184},{"name":"地域活動支援センターⅠ型事業あおば","province":"東京都","city":"羽村市","address":"東京都羽村市栄町2丁目18-1","lat":35.770621,"lon":139.31305184},{"name":"社会福祉法人そよかぜ福祉作業所ひばり園","province":"東京都","city":"羽村市","address":"東京都羽村市栄町3丁目3-1","lat":35.77235412,"lon":139.31292959},{"name":"羽村市社会福祉協議会","province":"東京都","city":"羽村市","address":"羽村市栄町2-18-1羽村市福祉センター","lat":35.770621,"lon":139.313052},{"name":"羽村市社会福祉協議会","province":"東京都","city":"羽村市","address":"羽村市栄町2-18-1","lat":35.77059,"lon":139.31313},{"name":"障害者就労継続支援Ｂ型事業いちょう","province":"東京都","city":"羽村市","address":"東京都羽村市栄町2丁目18-1","lat":35.770621,"lon":139.31305184},{"name":"地域活動支援センターⅠ型事業あおば","province":"東京都","city":"羽村市","address":"東京都羽村市栄町2丁目18-1","lat":35.770621,"lon":139.31305184},{"name":"社会福祉法人そよかぜ福祉作業所ひばり園","province":"東京都","city":"羽村市","address":"東京都羽村市栄町3丁目3-1","lat":35.77235412,"lon":139.31292959},{"name":"羽村市社会福祉協議会","province":"東京都","city":"羽村市","address":"羽村市栄町2-18-1羽村市福祉センター","lat":35.770621,"lon":139.313052},{"name":"羽村市社会福祉協議会","province":"東京都","city":"羽村市","address":"羽村市栄町2-18-1","lat":35.77059,"lon":139.31313},{"name":"障害者就労継続支援Ｂ型事業いちょう","province":"東京都","city":"羽村市","address":"東京都羽村市栄町2丁目18-1","lat":35.770621,"lon":139.31305184},{"name":"地域活動支援センターⅠ型事業あおば","province":"東京都","city":"羽村市","address":"東京都羽村市栄町2丁目18-1","lat":35.770621,"lon":139.31305184},{"name":"社会福祉法人そよかぜ福祉作業所ひばり園","province":"東京都","city":"羽村市","address":"東京都羽村市栄町3丁目3-1","lat":35.77235412,"lon":139.31292959},{"name":"羽村市社会福祉協議会","province":"東京都","city":"羽村市","address":"羽村市栄町2-18-1羽村市福祉センター","lat":35.770621,"lon":139.313052},{"name":"羽村市社会福祉協議会","province":"東京都","city":"羽村市","address":"羽村市栄町2-18-1","lat":35.77059,"lon":139.31313},{"name":"障害者就労継続支援Ｂ型事業いちょう","province":"東京都","city":"羽村市","address":"東京都羽村市栄町2丁目18-1","lat":35.770621,"lon":139.31305184},{"name":"地域活動支援センターⅠ型事業あおば","province":"東京都","city":"羽村市","address":"東京都羽村市栄町2丁目18-1","lat":35.770621,"lon":139.31305184},{"name":"社会福祉法人そよかぜ福祉作業所ひばり園","province":"東京都","city":"羽村市","address":"東京都羽村市栄町3丁目3-1","lat":35.77235412,"lon":139.31292959},{"name":"羽村市社会福祉協議会","province":"東京都","city":"羽村市","address":"羽村市栄町2-18-1羽村市福祉センター","lat":35.770621,"lon":139.313052},{"name":"羽村市社会福祉協議会","province":"東京都","city":"羽村市","address":"羽村市栄町2-18-1","lat":35.77059,"lon":139.31313},{"name":"障害者就労継続支援Ｂ型事業いちょう","province":"東京都","city":"羽村市","address":"東京都羽村市栄町2丁目18-1","lat":35.770621,"lon":139.31305184},{"name":"地域活動支援センターⅠ型事業あおば","province":"東京都","city":"羽村市","address":"東京都羽村市栄町2丁目18-1","lat":35.770621,"lon":139.31305184},{"name":"社会福祉法人そよかぜ福祉作業所ひばり園","province":"東京都","city":"羽村市","address":"東京都羽村市栄町3丁目3-1","lat":35.77235412,"lon":139.31292959},{"name":"羽村市社会福祉協議会","province":"東京都","city":"羽村市","address":"羽村市栄町2-18-1羽村市福祉センター","lat":35.770621,"lon":139.313052},{"name":"羽村市社会福祉協議会","province":"東京都","city":"羽村市","address":"羽村市栄町2-18-1","lat":35.77059,"lon":139.31313},{"name":"障害者就労継続支援Ｂ型事業いちょう","province":"東京都","city":"羽村市","address":"東京都羽村市栄町2丁目18-1","lat":35.770621,"lon":139.31305184},{"name":"地域活動支援センターⅠ型事業あおば","province":"東京都","city":"羽村市","address":"東京都羽村市栄町2丁目18-1","lat":35.770621,"lon":139.31305184},{"name":"社会福祉法人そよかぜ福祉作業所ひばり園","province":"東京都","city":"羽村市","address":"東京都羽村市栄町3丁目3-1","lat":35.77235412,"lon":139.31292959},{"name":"羽村市社会福祉協議会","province":"東京都","city":"羽村市","address":"羽村市栄町2-18-1羽村市福祉センター","lat":35.770621,"lon":139.313052},{"name":"羽村市社会福祉協議会","province":"東京都","city":"羽村市","address":"羽村市栄町2-18-1","lat":35.77059,"lon":139.31313},{"name":"障害者就労継続支援Ｂ型事業いちょう","province":"東京都","city":"羽村市","address":"東京都羽村市栄町2丁目18-1","lat":35.770621,"lon":139.31305184},{"name":"地域活動支援センターⅠ型事業あおば","province":"東京都","city":"羽村市","address":"東京都羽村市栄町2丁目18-1","lat":35.770621,"lon":139.31305184},{"name":"社会福祉法人そよかぜ福祉作業所ひばり園","province":"東京都","city":"羽村市","address":"東京都羽村市栄町3丁目3-1","lat":35.77235412,"lon":139.31292959},{"name":"羽村市社会福祉協議会","province":"東京都","city":"羽村市","address":"羽村市栄町2-18-1羽村市福祉センター","lat":35.770621,"lon":139.313052},{"name":"羽村市社会福祉協議会","province":"東京都","city":"羽村市","address":"羽村市栄町2-18-1","lat":35.77059,"lon":139.31313},{"name":"障害者就労継続支援Ｂ型事業いちょう","province":"東京都","city":"羽村市","address":"東京都羽村市栄町2丁目18-1","lat":35.770621,"lon":139.31305184},{"name":"地域活動支援センターⅠ型事業あおば","province":"東京都","city":"羽村市","address":"東京都羽村市栄町2丁目18-1","lat":35.770621,"lon":139.31305184},{"name":"社会福祉法人そよかぜ福祉作業所ひばり園","province":"東京都","city":"羽村市","address":"東京都羽村市栄町3丁目3-1","lat":35.77235412,"lon":139.31292959},{"name":"羽村市社会福祉協議会","province":"東京都","city":"羽村市","address":"羽村市栄町2-18-1羽村市福祉センター","lat":35.770621,"lon":139.313052},{"name":"羽村市社会福祉協議会","province":"東京都","city":"羽村市","address":"羽村市栄町2-18-1","lat":35.77059,"lon":139.31313},{"name":"障害者就労継続支援Ｂ型事業いちょう","province":"東京都","city":"羽村市","address":"東京都羽村市栄町2丁目18-1","lat":35.770621,"lon":139.31305184},{"name":"地域活動支援センターⅠ型事業あおば","province":"東京都","city":"羽村市","address":"東京都羽村市栄町2丁目18-1","lat":35.770621,"lon":139.31305184},{"name":"社会福祉法人そよかぜ福祉作業所ひばり園","province":"東京都","city":"羽村市","address":"東京都羽村市栄町3丁目3-1","lat":35.77235412,"lon":139.31292959},{"name":"羽村市社会福祉協議会","province":"東京都","city":"羽村市","address":"羽村市栄町2-18-1羽村市福祉センター","lat":35.770621,"lon":139.313052},{"name":"羽村市社会福祉協議会","province":"東京都","city":"羽村市","address":"羽村市栄町2-18-1","lat":35.77059,"lon":139.31313},{"name":"障害者就労継続支援Ｂ型事業いちょう","province":"東京都","city":"羽村市","address":"東京都羽村市栄町2丁目18-1","lat":35.770621,"lon":139.31305184},{"name":"地域活動支援センターⅠ型事業あおば","province":"東京都","city":"羽村市","address":"東京都羽村市栄町2丁目18-1","lat":35.770621,"lon":139.31305184},{"name":"社会福祉法人そよかぜ福祉作業所ひばり園","province":"東京都","city":"羽村市","address":"東京都羽村市栄町3丁目3-1","lat":35.77235412,"lon":139.31292959},{"name":"羽村市社会福祉協議会","province":"東京都","city":"羽村市","address":"羽村市栄町2-18-1羽村市福祉センター","lat":35.770621,"lon":139.313052},{"name":"羽村市社会福祉協議会","province":"東京都","city":"羽村市","address":"羽村市栄町2-18-1","lat":35.77059,"lon":139.31313},{"name":"障害者就労継続支援Ｂ型事業いちょう","province":"東京都","city":"羽村市","address":"東京都羽村市栄町2丁目18-1","lat":35.770621,"lon":139.31305184},{"name":"地域活動支援センターⅠ型事業あおば","province":"東京都","city":"羽村市","address":"東京都羽村市栄町2丁目18-1","lat":35.770621,"lon":139.31305184},{"name":"社会福祉法人そよかぜ福祉作業所ひばり園","province":"東京都","city":"羽村市","address":"東京都羽村市栄町3丁目3-1","lat":35.77235412,"lon":139.31292959},{"name":"羽村市社会福祉協議会","province":"東京都","city":"羽村市","address":"羽村市栄町2-18-1羽村市福祉センター","lat":35.770621,"lon":139.313052},{"name":"羽村市社会福祉協議会","province":"東京都","city":"羽村市","address":"羽村市栄町2-18-1","lat":35.77059,"lon":139.31313},{"name":"障害者就労継続支援Ｂ型事業いちょう","province":"東京都","city":"羽村市","address":"東京都羽村市栄町2丁目18-1","lat":35.770621,"lon":139.31305184},{"name":"地域活動支援センターⅠ型事業あおば","province":"東京都","city":"羽村市","address":"東京都羽村市栄町2丁目18-1","lat":35.770621,"lon":139.31305184},{"name":"社会福祉法人そよかぜ福祉作業所ひばり園","province":"東京都","city":"羽村市","address":"東京都羽村市栄町3丁目3-1","lat":35.77235412,"lon":139.31292959},{"name":"羽村市社会福祉協議会","province":"東京都","city":"羽村市","address":"羽村市栄町2-18-1羽村市福祉センター","lat":35.770621,"lon":139.313052},{"name":"羽村市社会福祉協議会","province":"東京都","city":"羽村市","address":"羽村市栄町2-18-1","lat":35.77059,"lon":139.31313},{"name":"障害者就労継続支援Ｂ型事業いちょう","province":"東京都","city":"羽村市","address":"東京都羽村市栄町2丁目18-1","lat":35.770621,"lon":139.31305184},{"name":"地域活動支援センターⅠ型事業あおば","province":"東京都","city":"羽村市","address":"東京都羽村市栄町2丁目18-1","lat":35.770621,"lon":139.31305184},{"name":"社会福祉法人そよかぜ福祉作業所ひばり園","province":"東京都","city":"羽村市","address":"東京都羽村市栄町3丁目3-1","lat":35.77235412,"lon":139.31292959},{"name":"羽村市社会福祉協議会","province":"東京都","city":"羽村市","address":"羽村市栄町2-18-1羽村市福祉センター","lat":35.770621,"lon":139.313052},{"name":"羽村市社会福祉協議会","province":"東京都","city":"羽村市","address":"羽村市栄町2-18-1","lat":35.77059,"lon":139.31313},{"name":"障害者就労継続支援Ｂ型事業いちょう","province":"東京都","city":"羽村市","address":"東京都羽村市栄町2丁目18-1","lat":35.770621,"lon":139.31305184},{"name":"地域活動支援センターⅠ型事業あおば","province":"東京都","city":"羽村市","address":"東京都羽村市栄町2丁目18-1","lat":35.770621,"lon":139.31305184},{"name":"社会福祉法人そよかぜ福祉作業所ひばり園","province":"東京都","city":"羽村市","address":"東京都羽村市栄町3丁目3-1","lat":35.77235412,"lon":139.31292959},{"name":"羽村市社会福祉協議会","province":"東京都","city":"羽村市","address":"羽村市栄町2-18-1羽村市福祉センター","lat":35.770621,"lon":139.313052},{"name":"羽村市社会福祉協議会","province":"東京都","city":"羽村市","address":"羽村市栄町2-18-1","lat":35.77059,"lon":139.31313},{"name":"障害者就労継続支援Ｂ型事業いちょう","province":"東京都","city":"羽村市","address":"東京都羽村市栄町2丁目18-1","lat":35.770621,"lon":139.31305184},{"name":"地域活動支援センターⅠ型事業あおば","province":"東京都","city":"羽村市","address":"東京都羽村市栄町2丁目18-1","lat":35.770621,"lon":139.31305184},{"name":"社会福祉法人そよかぜ福祉作業所ひばり園","province":"東京都","city":"羽村市","address":"東京都羽村市栄町3丁目3-1","lat":35.77235412,"lon":139.31292959},{"name":"羽村市社会福祉協議会","province":"東京都","city":"羽村市","address":"羽村市栄町2-18-1羽村市福祉センター","lat":35.770621,"lon":139.313052},{"name":"羽村市社会福祉協議会","province":"東京都","city":"羽村市","address":"羽村市栄町2-18-1","lat":35.77059,"lon":139.31313},{"name":"障害者就労継続支援Ｂ型事業いちょう","province":"東京都","city":"羽村市","address":"東京都羽村市栄町2丁目18-1","lat":35.770621,"lon":139.31305184},{"name":"地域活動支援センターⅠ型事業あおば","province":"東京都","city":"羽村市","address":"東京都羽村市栄町2丁目18-1","lat":35.770621,"lon":139.31305184},{"name":"社会福祉法人そよかぜ福祉作業所ひばり園","province":"東京都","city":"羽村市","address":"東京都羽村市栄町3丁目3-1","lat":35.77235412,"lon":139.31292959},{"name":"羽村市社会福祉協議会","province":"東京都","city":"羽村市","address":"羽村市栄町2-18-1羽村市福祉センター","lat":35.770621,"lon":139.313052},{"name":"羽村市社会福祉協議会","province":"東京都","city":"羽村市","address":"羽村市栄町2-18-1","lat":35.77059,"lon":139.31313},{"name":"障害者就労継続支援Ｂ型事業いちょう","province":"東京都","city":"羽村市","address":"東京都羽村市栄町2丁目18-1","lat":35.770621,"lon":139.31305184},{"name":"地域活動支援センターⅠ型事業あおば","province":"東京都","city":"羽村市","address":"東京都羽村市栄町2丁目18-1","lat":35.770621,"lon":139.31305184},{"name":"社会福祉法人そよかぜ福祉作業所ひばり園","province":"東京都","city":"羽村市","address":"東京都羽村市栄町3丁目3-1","lat":35.77235412,"lon":139.31292959},{"name":"羽村市社会福祉協議会","province":"東京都","city":"羽村市","address":"羽村市栄町2-18-1羽村市福祉センター","lat":35.770621,"lon":139.313052},{"name":"羽村市社会福祉協議会","province":"東京都","city":"羽村市","address":"羽村市栄町2-18-1","lat":35.77059,"lon":139.31313},{"name":"羽村市社会福祉協議会","province":"東京都","city":"羽村市","address":"羽村市栄町2-18-1羽村市福祉センター","lat":35.770621,"lon":139.313052},{"name":"羽村市社会福祉協議会","province":"東京都","city":"羽村市","address":"羽村市栄町2-18-1","lat":35.77059,"lon":139.31313},{"name":"羽村市社会福祉協議会","province":"東京都","city":"羽村市","address":"羽村市栄町2-18-1羽村市福祉センター","lat":35.770621,"lon":139.313052},{"name":"羽村市社会福祉協議会","province":"東京都","city":"羽村市","address":"羽村市栄町2-18-1","lat":35.77059,"lon":139.31313},{"name":"羽村市社会福祉協議会","province":"東京都","city":"羽村市","address":"羽村市栄町2-18-1羽村市福祉センター","lat":35.770621,"lon":139.313052},{"name":"羽村市社会福祉協議会","province":"東京都","city":"羽村市","address":"羽村市栄町2-18-1","lat":35.77059,"lon":139.31313},{"name":"羽村市社会福祉協議会","province":"東京都","city":"羽村市","address":"羽村市栄町2-18-1羽村市福祉センター","lat":35.770621,"lon":139.313052},{"name":"羽村市社会福祉協議会","province":"東京都","city":"羽村市","address":"羽村市栄町2-18-1","lat":35.77059,"lon":139.31313},{"name":"羽村市社会福祉協議会","province":"東京都","city":"羽村市","address":"羽村市栄町2-18-1羽村市福祉センター","lat":35.770621,"lon":139.313052},{"name":"羽村市社会福祉協議会","province":"東京都","city":"羽村市","address":"羽村市栄町2-18-1","lat":35.77059,"lon":139.31313},{"name":"羽村市社会福祉協議会","province":"東京都","city":"羽村市","address":"羽村市栄町2-18-1羽村市福祉センター","lat":35.770621,"lon":139.313052},{"name":"羽村市社会福祉協議会","province":"東京都","city":"羽村市","address":"羽村市栄町2-18-1","lat":35.77059,"lon":139.31313},{"name":"羽村市社会福祉協議会","province":"東京都","city":"羽村市","address":"羽村市栄町2-18-1羽村市福祉センター","lat":35.770621,"lon":139.313052},{"name":"羽村市社会福祉協議会","province":"東京都","city":"羽村市","address":"羽村市栄町2-18-1","lat":35.77059,"lon":139.31313},{"name":"羽村市社会福祉協議会","province":"東京都","city":"羽村市","address":"羽村市栄町2-18-1羽村市福祉センター","lat":35.770621,"lon":139.313052},{"name":"羽村市社会福祉協議会","province":"東京都","city":"羽村市","address":"羽村市栄町2-18-1","lat":35.77059,"lon":139.31313},{"name":"羽村市社会福祉協議会","province":"東京都","city":"羽村市","address":"羽村市栄町2-18-1羽村市福祉センター","lat":35.770621,"lon":139.313052},{"name":"羽村市社会福祉協議会","province":"東京都","city":"羽村市","address":"羽村市栄町2-18-1","lat":35.77059,"lon":139.31313},{"name":"羽村市社会福祉協議会","province":"東京都","city":"羽村市","address":"羽村市栄町2-18-1羽村市福祉センター","lat":35.770621,"lon":139.313052},{"name":"羽村市社会福祉協議会","province":"東京都","city":"羽村市","address":"羽村市栄町2-18-1","lat":35.77059,"lon":139.31313},{"name":"羽村市社会福祉協議会","province":"東京都","city":"羽村市","address":"羽村市栄町2-18-1羽村市福祉センター","lat":35.770621,"lon":139.313052},{"name":"羽村市社会福祉協議会","province":"東京都","city":"羽村市","address":"羽村市栄町2-18-1","lat":35.77059,"lon":139.31313},{"name":"羽村市社会福祉協議会","province":"東京都","city":"羽村市","address":"羽村市栄町2-18-1羽村市福祉センター","lat":35.770621,"lon":139.313052},{"name":"羽村市社会福祉協議会","province":"東京都","city":"羽村市","address":"羽村市栄町2-18-1","lat":35.77059,"lon":139.31313},{"name":"羽村市社会福祉協議会","province":"東京都","city":"羽村市","address":"羽村市栄町2-18-1羽村市福祉センター","lat":35.770621,"lon":139.313052},{"name":"羽村市社会福祉協議会","province":"東京都","city":"羽村市","address":"羽村市栄町2-18-1","lat":35.77059,"lon":139.31313},{"name":"羽村市社会福祉協議会","province":"東京都","city":"羽村市","address":"羽村市栄町2-18-1羽村市福祉センター","lat":35.770621,"lon":139.313052},{"name":"羽村市社会福祉協議会","province":"東京都","city":"羽村市","address":"羽村市栄町2-18-1","lat":35.77059,"lon":139.31313},{"name":"羽村市社会福祉協議会","province":"東京都","city":"羽村市","address":"羽村市栄町2-18-1羽村市福祉センター","lat":35.770621,"lon":139.313052},{"name":"羽村市社会福祉協議会","province":"東京都","city":"羽村市","address":"羽村市栄町2-18-1","lat":35.77059,"lon":139.31313},{"name":"羽村市社会福祉協議会","province":"東京都","city":"羽村市","address":"羽村市栄町2-18-1羽村市福祉センター","lat":35.770621,"lon":139.313052},{"name":"羽村市社会福祉協議会","province":"東京都","city":"羽村市","address":"羽村市栄町2-18-1","lat":35.77059,"lon":139.31313},{"name":"羽村市社会福祉協議会","province":"東京都","city":"羽村市","address":"羽村市栄町2-18-1羽村市福祉センター","lat":35.770621,"lon":139.313052},{"name":"羽村市社会福祉協議会","province":"東京都","city":"羽村市","address":"羽村市栄町2-18-1","lat":35.77059,"lon":139.31313},{"name":"羽村市社会福祉協議会","province":"東京都","city":"羽村市","address":"羽村市栄町2-18-1羽村市福祉センター","lat":35.770621,"lon":139.313052},{"name":"羽村市社会福祉協議会","province":"東京都","city":"羽村市","address":"羽村市栄町2-18-1","lat":35.77059,"lon":139.31313},{"name":"羽村市社会福祉協議会","province":"東京都","city":"羽村市","address":"羽村市栄町2-18-1羽村市福祉センター","lat":35.770621,"lon":139.313052},{"name":"羽村市社会福祉協議会","province":"東京都","city":"羽村市","address":"羽村市栄町2-18-1","lat":35.77059,"lon":139.31313}]}